{"last_updated":1766736959,"ttl":60,"version":"2.2","data":{"bikes":[{"bike_id":"bb77dbd0-e6fb-4f63-ac26-13e7e8371274","system_id":"levelo_inurba_marseille","lat":43.28035,"lon":5.36936,"is_reserved":false,"is_disabled":false,"rental_uris":{"android":"levelo://app?vid=bb77dbd0-e6fb-4f63-ac26-13e7e8371274","ios":"levelo://app?vid=bb77dbd0-e6fb-4f63-ac26-13e7e8371274"},"vehicle_type_id":"4","last_reported":1766736959,"current_range_meters":2800,"station_id":"ce4bha12rcd13ifvqef0","pricing_plan_id":"cebpf4jnsgd1na2vs0mg"},{"bike_id":"580155fc-c9ad-4365-86e8-536c105ed327","system_id":"levelo_inurba_marseille","lat":43.29979,"lon":5.37157,"is_reserved":false,"is_disabled":false,"rental_uris":{"android":"levelo://app?vid=580155fc-c9ad-4365-86e8-536c105ed327","ios":"levelo://app?vid=580155fc-c9ad-4365-86e8-536c105ed327"},"vehicle_type_id":"4","last_reported":1766736959,"current_range_meters":3200,"station_id":"ce4bgr92rcd13ifvqc7g","pricing_plan_id":"cebpf4jnsgd1na2vs0mg"},{"bike_id":"f16618b4-39c8-4be6-abcb-d6a559a2f8a8","system_id":"levelo_inurba_marseille","lat":43.337535,"lon":5.37456,"is_reserved":false,"is_disabled":false,"rental_uris":{"android":"levelo://app?vid=f16618b4-39c8-4be6-abcb-d6a559a2f8a8","ios":"levelo://app?vid=f16618b4-39c8-4be6-abcb-d6a559a2f8a8"},"vehicle_type_id":"4","last_reported":1766736959,"current_range_meters":3200,"station_id":"","pricing_plan_id":"cebpf4jnsgd1na2vs0mg"},{"bike_id":"8f3a2c42-45c7-4f53-be58-88bcce09eb07","system_id":"levelo_inurba_marseille","lat":43.312775,"lon":5.401664,"is_reserved":false,"is_disabled":false,"rental_uris":{"android":"levelo://app?vid=8f3a2c42-45c7-4f53-be58-88bcce09eb07","ios":"levelo://app?vid=8f3a2c42-45c7-4f53-be58-88bcce09eb07"},"vehicle_type_id":"4","last_reported":1766736959,"current_range_meters":3200,"station_id":"ce4bh092rcd13ifvqd30","pricing_plan_id":"cebpf4jnsgd1na2vs0mg"},{"bike_id":"8d35fa37-37b3-493d-b2b6-31716da1eca2","system_id":"levelo_inurba_marseille","lat":43.27121,"lon":5.40167,"is_reserved":false,"is_disabled":true,"rental_uris":{"android":"levelo://app?vid=8d35fa37-37b3-493d-b2b6-31716da1eca2","ios":"levelo://app?vid=8d35fa37-37b3-493d-b2b6-31716da1eca2"},"vehicle_type_id":"4","last_reported":1766736959,"current_range_meters":4000,"station_id":"ce4bhk92rcd13ifvqgc0","pricing_plan_id":"cebpf4jnsgd1na2vs0mg"},{"bike_id":"14a7c2e5-b996-49d9-8af4-0c2749c91c0b","system_id":"levelo_inurba_marseille","lat":43.254198,"lon":5.424284,"is_reserved":false,"is_disabled":false,"rental_uris":{"android":"levelo://app?vid=14a7c2e5-b996-49d9-8af4-0c2749c91c0b","ios":"levelo://app?vid=14a7c2e5-b996-49d9-8af4-0c2749c91c0b"},"vehicle_type_id":"4","last_reported":1766736959,"current_range_meters":4000,"station_id":"","pricing_plan_id":"cebpf4jnsgd1na2vs0mg"},{"bike_id":"04e6a0ca-3fac-40c2-86eb-67963c64e89e","system_id":"levelo_inurba_marseille","lat":43.23576,"lon":5.37925,"is_reserved":false,"is_disabled":false,"rental_uris":{"android":"levelo://app?vid=04e6a0ca-3fac-40c2-86eb-67963c64e89e","ios":"levelo://app?vid=04e6a0ca-3fac-40c2-86eb-67963c64e89e"},"vehicle_type_id":"4","last_reported":1766736959,"current_range_meters":4400,"station_id":"","pricing_plan_id":"cebpf4jnsgd1na2vs0mg"},{"bike_id":"246f8d00-3cb5-45d2-8b0c-53bf44823927","system_id":"levelo_inurba_marseille","lat":43.33757,"lon":5.37424,"is_reserved":false,"is_disabled":false,"rental_uris":{"android":"levelo://app?vid=246f8d00-3cb5-45d2-8b0c-53bf44823927","ios":"levelo://app?vid=246f8d00-3cb5-45d2-8b0c-53bf44823927"},"vehicle_type_id":"4","last_reported":1766736959,"current_range_meters":4400,"station_id":"","pricing_plan_id":"cebpf4jnsgd1na2vs0mg"},{"bike_id":"3d5c0126-49ce-4be0-a1d2-e685467c6147","system_id":"levelo_inurba_marseille","lat":43.29979,"lon":5.37354,"is_reserved":false,"is_disabled":false,"rental_uris":{"android":"levelo://app?vid=3d5c0126-49ce-4be0-a1d2-e685467c6147","ios":"levelo://app?vid=3d5c0126-49ce-4be0-a1d2-e685467c6147"},"vehicle_type_id":"4","last_reported":1766736959,"current_range_meters":5600,"station_id":"","pricing_plan_id":"cebpf4jnsgd1na2vs0mg"},{"bike_id":"b25d030b-cb14-4532-a7c0-246eecb7588b","system_id":"levelo_inurba_marseille","lat":43.26847,"lon":5.38528,"is_reserved":false,"is_disabled":false,"rental_uris":{"android":"levelo://app?vid=b25d030b-cb14-4532-a7c0-246eecb7588b","ios":"levelo://app?vid=b25d030b-cb14-4532-a7c0-246eecb7588b"},"vehicle_type_id":"4","last_reported":1766736959,"current_range_meters":6000,"station_id":"","pricing_plan_id":"cebpf4jnsgd1na2vs0mg"},{"bike_id":"7dfd987d-6296-46e1-8621-37ed96afa95b","system_id":"levelo_inurba_marseille","lat":43.30899,"lon":5.39636,"is_reserved":false,"is_disabled":false,"rental_uris":{"android":"levelo://app?vid=7dfd987d-6296-46e1-8621-37ed96afa95b","ios":"levelo://app?vid=7dfd987d-6296-46e1-8621-37ed96afa95b"},"vehicle_type_id":"4","last_reported":1766736959,"current_range_meters":6000,"station_id":"ce4bh012rcd13ifvqcv0","pricing_plan_id":"cebpf4jnsgd1na2vs0mg"},{"bike_id":"ff1ff454-6737-4273-8295-6ab92ec91f04","system_id":"levelo_inurba_marseille","lat":43.31881,"lon":5.38867,"is_reserved":false,"is_disabled":false,"rental_uris":{"android":"levelo://app?vid=ff1ff454-6737-4273-8295-6ab92ec91f04","ios":"levelo://app?vid=ff1ff454-6737-4273-8295-6ab92ec91f04"},"vehicle_type_id":"4","last_reported":1766736959,"current_range_meters":6000,"station_id":"","pricing_plan_id":"cebpf4jnsgd1na2vs0mg"},{"bike_id":"1327788e-ece4-4479-a194-2d484ff0e028","system_id":"levelo_inurba_marseille","lat":43.29378,"lon":5.37872,"is_reserved":false,"is_disabled":false,"rental_uris":{"android":"levelo://app?vid=1327788e-ece4-4479-a194-2d484ff0e028","ios":"levelo://app?vid=1327788e-ece4-4479-a194-2d484ff0e028"},"vehicle_type_id":"4","last_reported":1766736959,"current_range_meters":6000,"station_id":"ce4bgjh2rcd13ifvqbf0","pricing_plan_id":"cebpf4jnsgd1na2vs0mg"},{"bike_id":"0d4b32eb-c45b-4fce-81c1-c3db472d2030","system_id":"levelo_inurba_marseille","lat":43.32347,"lon":5.38501,"is_reserved":false,"is_disabled":false,"rental_uris":{"android":"levelo://app?vid=0d4b32eb-c45b-4fce-81c1-c3db472d2030","ios":"levelo://app?vid=0d4b32eb-c45b-4fce-81c1-c3db472d2030"},"vehicle_type_id":"4","last_reported":1766736959,"current_range_meters":6400,"station_id":"st_d45171o9ee8s73djdqug","pricing_plan_id":"cebpf4jnsgd1na2vs0mg"},{"bike_id":"04039739-a1c4-40ab-a021-af97a637b17b","system_id":"levelo_inurba_marseille","lat":43.30415,"lon":5.38907,"is_reserved":false,"is_disabled":false,"rental_uris":{"android":"levelo://app?vid=04039739-a1c4-40ab-a021-af97a637b17b","ios":"levelo://app?vid=04039739-a1c4-40ab-a021-af97a637b17b"},"vehicle_type_id":"4","last_reported":1766736959,"current_range_meters":6400,"station_id":"ce4bgk12rcd13ifvqbi0","pricing_plan_id":"cebpf4jnsgd1na2vs0mg"},{"bike_id":"179f365f-906b-4e87-a556-9f1ba3f7b21c","system_id":"levelo_inurba_marseille","lat":43.27367,"lon":5.36262,"is_reserved":false,"is_disabled":false,"rental_uris":{"android":"levelo://app?vid=179f365f-906b-4e87-a556-9f1ba3f7b21c","ios":"levelo://app?vid=179f365f-906b-4e87-a556-9f1ba3f7b21c"},"vehicle_type_id":"4","last_reported":1766736959,"current_range_meters":6400,"station_id":"ce4bhbh2rcd13ifvqeo0","pricing_plan_id":"cebpf4jnsgd1na2vs0mg"},{"bike_id":"a6757314-cdf1-40d1-9d6d-c9cb4564296d","system_id":"levelo_inurba_marseille","lat":43.30566,"lon":5.36704,"is_reserved":false,"is_disabled":false,"rental_uris":{"android":"levelo://app?vid=a6757314-cdf1-40d1-9d6d-c9cb4564296d","ios":"levelo://app?vid=a6757314-cdf1-40d1-9d6d-c9cb4564296d"},"vehicle_type_id":"4","last_reported":1766736959,"current_range_meters":6800,"station_id":"ce4bgrp2rcd13ifvqc9g","pricing_plan_id":"cebpf4jnsgd1na2vs0mg"},{"bike_id":"2309261d-eca2-4d84-b3da-0560f8589d5e","system_id":"levelo_inurba_marseille","lat":43.32529,"lon":5.409252,"is_reserved":false,"is_disabled":false,"rental_uris":{"android":"levelo://app?vid=2309261d-eca2-4d84-b3da-0560f8589d5e","ios":"levelo://app?vid=2309261d-eca2-4d84-b3da-0560f8589d5e"},"vehicle_type_id":"4","last_reported":1766736959,"current_range_meters":6800,"station_id":"","pricing_plan_id":"cebpf4jnsgd1na2vs0mg"},{"bike_id":"16972b46-16f7-4636-ba99-c8cf896c9f73","system_id":"levelo_inurba_marseille","lat":43.34697,"lon":5.34551,"is_reserved":false,"is_disabled":false,"rental_uris":{"android":"levelo://app?vid=16972b46-16f7-4636-ba99-c8cf896c9f73","ios":"levelo://app?vid=16972b46-16f7-4636-ba99-c8cf896c9f73"},"vehicle_type_id":"4","last_reported":1766736959,"current_range_meters":6800,"station_id":"","pricing_plan_id":"cebpf4jnsgd1na2vs0mg"},{"bike_id":"9adb2c79-a004-4223-a715-288d37cd13ba","system_id":"levelo_inurba_marseille","lat":43.28943,"lon":5.38412,"is_reserved":false,"is_disabled":true,"rental_uris":{"android":"levelo://app?vid=9adb2c79-a004-4223-a715-288d37cd13ba","ios":"levelo://app?vid=9adb2c79-a004-4223-a715-288d37cd13ba"},"vehicle_type_id":"4","last_reported":1766736959,"current_range_meters":7200,"station_id":"ce4bh612rcd13ifvqe6g","pricing_plan_id":"cebpf4jnsgd1na2vs0mg"},{"bike_id":"19eb8be4-7144-48a4-b80b-c33bc0879e0f","system_id":"levelo_inurba_marseille","lat":43.31616,"lon":5.36654,"is_reserved":false,"is_disabled":false,"rental_uris":{"android":"levelo://app?vid=19eb8be4-7144-48a4-b80b-c33bc0879e0f","ios":"levelo://app?vid=19eb8be4-7144-48a4-b80b-c33bc0879e0f"},"vehicle_type_id":"4","last_reported":1766736959,"current_range_meters":7200,"station_id":"","pricing_plan_id":"cebpf4jnsgd1na2vs0mg"},{"bike_id":"c7d70985-9946-4223-9b32-aac6dda0710e","system_id":"levelo_inurba_marseille","lat":43.32991,"lon":5.39035,"is_reserved":false,"is_disabled":false,"rental_uris":{"android":"levelo://app?vid=c7d70985-9946-4223-9b32-aac6dda0710e","ios":"levelo://app?vid=c7d70985-9946-4223-9b32-aac6dda0710e"},"vehicle_type_id":"4","last_reported":1766736959,"current_range_meters":7200,"station_id":"ce4bhr92rcd13ifvqhrg","pricing_plan_id":"cebpf4jnsgd1na2vs0mg"},{"bike_id":"5370d48f-3300-47cd-ba67-92c976c4d9ca","system_id":"levelo_inurba_marseille","lat":43.32344,"lon":5.38483,"is_reserved":false,"is_disabled":false,"rental_uris":{"android":"levelo://app?vid=5370d48f-3300-47cd-ba67-92c976c4d9ca","ios":"levelo://app?vid=5370d48f-3300-47cd-ba67-92c976c4d9ca"},"vehicle_type_id":"4","last_reported":1766736959,"current_range_meters":7200,"station_id":"st_d45171o9ee8s73djdqug","pricing_plan_id":"cebpf4jnsgd1na2vs0mg"},{"bike_id":"fc4a9061-1ff0-484c-9eb3-c7b62988aa13","system_id":"levelo_inurba_marseille","lat":43.309021,"lon":5.370836,"is_reserved":false,"is_disabled":false,"rental_uris":{"android":"levelo://app?vid=fc4a9061-1ff0-484c-9eb3-c7b62988aa13","ios":"levelo://app?vid=fc4a9061-1ff0-484c-9eb3-c7b62988aa13"},"vehicle_type_id":"4","last_reported":1766736959,"current_range_meters":7200,"station_id":"","pricing_plan_id":"cebpf4jnsgd1na2vs0mg"},{"bike_id":"d633d7e4-d81f-40ba-aed4-08940b4408d3","system_id":"levelo_inurba_marseille","lat":43.26038,"lon":5.37538,"is_reserved":false,"is_disabled":false,"rental_uris":{"android":"levelo://app?vid=d633d7e4-d81f-40ba-aed4-08940b4408d3","ios":"levelo://app?vid=d633d7e4-d81f-40ba-aed4-08940b4408d3"},"vehicle_type_id":"4","last_reported":1766736959,"current_range_meters":7200,"station_id":"ce4bhgh2rcd13ifvqfa0","pricing_plan_id":"cebpf4jnsgd1na2vs0mg"},{"bike_id":"d687cff1-b05f-413c-899e-7dcc2404a58d","system_id":"levelo_inurba_marseille","lat":43.29808,"lon":5.44059,"is_reserved":false,"is_disabled":false,"rental_uris":{"android":"levelo://app?vid=d687cff1-b05f-413c-899e-7dcc2404a58d","ios":"levelo://app?vid=d687cff1-b05f-413c-899e-7dcc2404a58d"},"vehicle_type_id":"4","last_reported":1766736959,"current_range_meters":7200,"station_id":"st_d3jp68qikq2c7381ktn0","pricing_plan_id":"cebpf4jnsgd1na2vs0mg"},{"bike_id":"a73b18b4-d0ac-42d4-8e9f-c37a37ed33cd","system_id":"levelo_inurba_marseille","lat":43.25915,"lon":5.40875,"is_reserved":false,"is_disabled":false,"rental_uris":{"android":"levelo://app?vid=a73b18b4-d0ac-42d4-8e9f-c37a37ed33cd","ios":"levelo://app?vid=a73b18b4-d0ac-42d4-8e9f-c37a37ed33cd"},"vehicle_type_id":"4","last_reported":1766736959,"current_range_meters":7200,"station_id":"ce4bhm92rcd13ifvqglg","pricing_plan_id":"cebpf4jnsgd1na2vs0mg"},{"bike_id":"25692b7d-0611-4ec6-920b-3dacb7acc75b","system_id":"levelo_inurba_marseille","lat":43.30716,"lon":5.42451,"is_reserved":false,"is_disabled":true,"rental_uris":{"android":"levelo://app?vid=25692b7d-0611-4ec6-920b-3dacb7acc75b","ios":"levelo://app?vid=25692b7d-0611-4ec6-920b-3dacb7acc75b"},"vehicle_type_id":"4","last_reported":1766736959,"current_range_meters":8000,"station_id":"st_cvj6ca6bvosntc0bfgr0","pricing_plan_id":"cebpf4jnsgd1na2vs0mg"},{"bike_id":"bed00df6-d661-4640-b4e5-5c4df1e0ced4","system_id":"levelo_inurba_marseille","lat":43.302483,"lon":5.400857,"is_reserved":false,"is_disabled":false,"rental_uris":{"android":"levelo://app?vid=bed00df6-d661-4640-b4e5-5c4df1e0ced4","ios":"levelo://app?vid=bed00df6-d661-4640-b4e5-5c4df1e0ced4"},"vehicle_type_id":"4","last_reported":1766736959,"current_range_meters":8000,"station_id":"","pricing_plan_id":"cebpf4jnsgd1na2vs0mg"},{"bike_id":"be7a9432-6e0b-4312-8b03-b1b0268b17ca","system_id":"levelo_inurba_marseille","lat":43.29679,"lon":5.36801,"is_reserved":false,"is_disabled":false,"rental_uris":{"android":"levelo://app?vid=be7a9432-6e0b-4312-8b03-b1b0268b17ca","ios":"levelo://app?vid=be7a9432-6e0b-4312-8b03-b1b0268b17ca"},"vehicle_type_id":"4","last_reported":1766736959,"current_range_meters":8000,"station_id":"","pricing_plan_id":"cebpf4jnsgd1na2vs0mg"},{"bike_id":"153ea81f-5c84-484f-af70-4b88805237d3","system_id":"levelo_inurba_marseille","lat":43.28978,"lon":5.37829,"is_reserved":false,"is_disabled":false,"rental_uris":{"android":"levelo://app?vid=153ea81f-5c84-484f-af70-4b88805237d3","ios":"levelo://app?vid=153ea81f-5c84-484f-af70-4b88805237d3"},"vehicle_type_id":"4","last_reported":1766736959,"current_range_meters":8000,"station_id":"ce4bh9p2rcd13ifvqed0","pricing_plan_id":"cebpf4jnsgd1na2vs0mg"},{"bike_id":"69b325de-dafe-4e22-8c04-6d58cc3c7fbb","system_id":"levelo_inurba_marseille","lat":43.31078,"lon":5.42421,"is_reserved":false,"is_disabled":true,"rental_uris":{"android":"levelo://app?vid=69b325de-dafe-4e22-8c04-6d58cc3c7fbb","ios":"levelo://app?vid=69b325de-dafe-4e22-8c04-6d58cc3c7fbb"},"vehicle_type_id":"4","last_reported":1766736959,"current_range_meters":8000,"station_id":"ce4bhp92rcd13ifvqhag","pricing_plan_id":"cebpf4jnsgd1na2vs0mg"},{"bike_id":"e0706769-8d39-44ec-816a-ad5b1e1b67c4","system_id":"levelo_inurba_marseille","lat":43.317693,"lon":5.398709,"is_reserved":false,"is_disabled":false,"rental_uris":{"android":"levelo://app?vid=e0706769-8d39-44ec-816a-ad5b1e1b67c4","ios":"levelo://app?vid=e0706769-8d39-44ec-816a-ad5b1e1b67c4"},"vehicle_type_id":"4","last_reported":1766736959,"current_range_meters":8000,"station_id":"","pricing_plan_id":"cebpf4jnsgd1na2vs0mg"},{"bike_id":"661e8893-a078-4197-9f2c-d983d74bf89c","system_id":"levelo_inurba_marseille","lat":43.250014,"lon":5.389281,"is_reserved":false,"is_disabled":false,"rental_uris":{"android":"levelo://app?vid=661e8893-a078-4197-9f2c-d983d74bf89c","ios":"levelo://app?vid=661e8893-a078-4197-9f2c-d983d74bf89c"},"vehicle_type_id":"4","last_reported":1766736959,"current_range_meters":8400,"station_id":"ce4bhgp2rcd13ifvqfd0","pricing_plan_id":"cebpf4jnsgd1na2vs0mg"},{"bike_id":"bd4a0d0a-d8e3-46bd-9f4f-1f0ece1a132a","system_id":"levelo_inurba_marseille","lat":43.27205,"lon":5.39178,"is_reserved":false,"is_disabled":false,"rental_uris":{"android":"levelo://app?vid=bd4a0d0a-d8e3-46bd-9f4f-1f0ece1a132a","ios":"levelo://app?vid=bd4a0d0a-d8e3-46bd-9f4f-1f0ece1a132a"},"vehicle_type_id":"4","last_reported":1766736959,"current_range_meters":8400,"station_id":"ce4bhhp2rcd13ifvqfm0","pricing_plan_id":"cebpf4jnsgd1na2vs0mg"},{"bike_id":"f565703e-dda0-44f8-b2c2-0e3dca8957eb","system_id":"levelo_inurba_marseille","lat":43.33119,"lon":5.3968,"is_reserved":false,"is_disabled":false,"rental_uris":{"android":"levelo://app?vid=f565703e-dda0-44f8-b2c2-0e3dca8957eb","ios":"levelo://app?vid=f565703e-dda0-44f8-b2c2-0e3dca8957eb"},"vehicle_type_id":"4","last_reported":1766736959,"current_range_meters":8400,"station_id":"","pricing_plan_id":"cebpf4jnsgd1na2vs0mg"},{"bike_id":"e0effb5a-e8c9-4234-ae32-e89cc890b254","system_id":"levelo_inurba_marseille","lat":43.28905,"lon":5.42509,"is_reserved":false,"is_disabled":false,"rental_uris":{"android":"levelo://app?vid=e0effb5a-e8c9-4234-ae32-e89cc890b254","ios":"levelo://app?vid=e0effb5a-e8c9-4234-ae32-e89cc890b254"},"vehicle_type_id":"4","last_reported":1766736959,"current_range_meters":8400,"station_id":"st_d3b462108ojc7389ooeg","pricing_plan_id":"cebpf4jnsgd1na2vs0mg"},{"bike_id":"c39e547b-5e76-4ddf-b1c7-8c526646e6d6","system_id":"levelo_inurba_marseille","lat":43.32329,"lon":5.39494,"is_reserved":false,"is_disabled":false,"rental_uris":{"android":"levelo://app?vid=c39e547b-5e76-4ddf-b1c7-8c526646e6d6","ios":"levelo://app?vid=c39e547b-5e76-4ddf-b1c7-8c526646e6d6"},"vehicle_type_id":"4","last_reported":1766736959,"current_range_meters":8400,"station_id":"","pricing_plan_id":"cebpf4jnsgd1na2vs0mg"},{"bike_id":"503b673f-3dc2-46a9-8c8e-b651d7ed1e36","system_id":"levelo_inurba_marseille","lat":43.27987,"lon":5.41664,"is_reserved":false,"is_disabled":true,"rental_uris":{"android":"levelo://app?vid=503b673f-3dc2-46a9-8c8e-b651d7ed1e36","ios":"levelo://app?vid=503b673f-3dc2-46a9-8c8e-b651d7ed1e36"},"vehicle_type_id":"4","last_reported":1766736959,"current_range_meters":8400,"station_id":"ce4bho12rcd13ifvqh1g","pricing_plan_id":"cebpf4jnsgd1na2vs0mg"},{"bike_id":"7d019b1c-0326-459c-a185-c589f7240f94","system_id":"levelo_inurba_marseille","lat":43.2855,"lon":5.44088,"is_reserved":false,"is_disabled":false,"rental_uris":{"android":"levelo://app?vid=7d019b1c-0326-459c-a185-c589f7240f94","ios":"levelo://app?vid=7d019b1c-0326-459c-a185-c589f7240f94"},"vehicle_type_id":"4","last_reported":1766736959,"current_range_meters":8400,"station_id":"st_d3j3df2ikq2c7380ej80","pricing_plan_id":"cebpf4jnsgd1na2vs0mg"},{"bike_id":"6b1bb24c-5465-40a7-a190-cf7862deee8c","system_id":"levelo_inurba_marseille","lat":43.316525,"lon":5.394531,"is_reserved":false,"is_disabled":false,"rental_uris":{"android":"levelo://app?vid=6b1bb24c-5465-40a7-a190-cf7862deee8c","ios":"levelo://app?vid=6b1bb24c-5465-40a7-a190-cf7862deee8c"},"vehicle_type_id":"4","last_reported":1766736959,"current_range_meters":8400,"station_id":"","pricing_plan_id":"cebpf4jnsgd1na2vs0mg"},{"bike_id":"bc453200-0c72-47a9-b532-9d4911031a96","system_id":"levelo_inurba_marseille","lat":43.29974,"lon":5.38492,"is_reserved":false,"is_disabled":false,"rental_uris":{"android":"levelo://app?vid=bc453200-0c72-47a9-b532-9d4911031a96","ios":"levelo://app?vid=bc453200-0c72-47a9-b532-9d4911031a96"},"vehicle_type_id":"4","last_reported":1766736959,"current_range_meters":8400,"station_id":"ce4bgj92rcd13ifvqbd0","pricing_plan_id":"cebpf4jnsgd1na2vs0mg"},{"bike_id":"1203e470-4d9a-4312-ba6d-447ee46f0a33","system_id":"levelo_inurba_marseille","lat":43.32819,"lon":5.39145,"is_reserved":false,"is_disabled":false,"rental_uris":{"android":"levelo://app?vid=1203e470-4d9a-4312-ba6d-447ee46f0a33","ios":"levelo://app?vid=1203e470-4d9a-4312-ba6d-447ee46f0a33"},"vehicle_type_id":"4","last_reported":1766736959,"current_range_meters":8400,"station_id":"","pricing_plan_id":"cebpf4jnsgd1na2vs0mg"},{"bike_id":"5adb93f4-5835-4880-ac04-efe4431c38ed","system_id":"levelo_inurba_marseille","lat":43.25428,"lon":5.42437,"is_reserved":false,"is_disabled":false,"rental_uris":{"android":"levelo://app?vid=5adb93f4-5835-4880-ac04-efe4431c38ed","ios":"levelo://app?vid=5adb93f4-5835-4880-ac04-efe4431c38ed"},"vehicle_type_id":"4","last_reported":1766736959,"current_range_meters":8400,"station_id":"","pricing_plan_id":"cebpf4jnsgd1na2vs0mg"},{"bike_id":"8fcf17e9-6f12-40c5-b477-90499f0bb83c","system_id":"levelo_inurba_marseille","lat":43.337563,"lon":5.374336,"is_reserved":false,"is_disabled":false,"rental_uris":{"android":"levelo://app?vid=8fcf17e9-6f12-40c5-b477-90499f0bb83c","ios":"levelo://app?vid=8fcf17e9-6f12-40c5-b477-90499f0bb83c"},"vehicle_type_id":"4","last_reported":1766736959,"current_range_meters":8800,"station_id":"","pricing_plan_id":"cebpf4jnsgd1na2vs0mg"},{"bike_id":"2b7d16da-f035-4c02-bb90-d235d35a3d08","system_id":"levelo_inurba_marseille","lat":43.26128,"lon":5.40104,"is_reserved":false,"is_disabled":false,"rental_uris":{"android":"levelo://app?vid=2b7d16da-f035-4c02-bb90-d235d35a3d08","ios":"levelo://app?vid=2b7d16da-f035-4c02-bb90-d235d35a3d08"},"vehicle_type_id":"4","last_reported":1766736959,"current_range_meters":8800,"station_id":"","pricing_plan_id":"cebpf4jnsgd1na2vs0mg"},{"bike_id":"41dc2477-7b23-413b-8ee6-ec79c378cb3a","system_id":"levelo_inurba_marseille","lat":43.33664,"lon":5.3748,"is_reserved":false,"is_disabled":false,"rental_uris":{"android":"levelo://app?vid=41dc2477-7b23-413b-8ee6-ec79c378cb3a","ios":"levelo://app?vid=41dc2477-7b23-413b-8ee6-ec79c378cb3a"},"vehicle_type_id":"4","last_reported":1766736959,"current_range_meters":8800,"station_id":"","pricing_plan_id":"cebpf4jnsgd1na2vs0mg"},{"bike_id":"83a5edcb-0806-419a-8bb9-90a4cc1f094d","system_id":"levelo_inurba_marseille","lat":43.33709,"lon":5.40935,"is_reserved":false,"is_disabled":false,"rental_uris":{"android":"levelo://app?vid=83a5edcb-0806-419a-8bb9-90a4cc1f094d","ios":"levelo://app?vid=83a5edcb-0806-419a-8bb9-90a4cc1f094d"},"vehicle_type_id":"4","last_reported":1766736959,"current_range_meters":8800,"station_id":"","pricing_plan_id":"cebpf4jnsgd1na2vs0mg"},{"bike_id":"810e1fac-3433-4833-8834-39cfdf4fd050","system_id":"levelo_inurba_marseille","lat":43.32537,"lon":5.40478,"is_reserved":false,"is_disabled":false,"rental_uris":{"android":"levelo://app?vid=810e1fac-3433-4833-8834-39cfdf4fd050","ios":"levelo://app?vid=810e1fac-3433-4833-8834-39cfdf4fd050"},"vehicle_type_id":"4","last_reported":1766736959,"current_range_meters":8800,"station_id":"","pricing_plan_id":"cebpf4jnsgd1na2vs0mg"},{"bike_id":"3e346a2c-c4f8-4d56-8dfe-41e7954cb434","system_id":"levelo_inurba_marseille","lat":43.288818,"lon":5.449813,"is_reserved":false,"is_disabled":false,"rental_uris":{"android":"levelo://app?vid=3e346a2c-c4f8-4d56-8dfe-41e7954cb434","ios":"levelo://app?vid=3e346a2c-c4f8-4d56-8dfe-41e7954cb434"},"vehicle_type_id":"4","last_reported":1766736959,"current_range_meters":8800,"station_id":"","pricing_plan_id":"cebpf4jnsgd1na2vs0mg"},{"bike_id":"8e9e5493-4af1-491a-838b-33b492de2d56","system_id":"levelo_inurba_marseille","lat":43.26179,"lon":5.37484,"is_reserved":false,"is_disabled":false,"rental_uris":{"android":"levelo://app?vid=8e9e5493-4af1-491a-838b-33b492de2d56","ios":"levelo://app?vid=8e9e5493-4af1-491a-838b-33b492de2d56"},"vehicle_type_id":"4","last_reported":1766736959,"current_range_meters":8800,"station_id":"ce4bhgp2rcd13ifvqfc0","pricing_plan_id":"cebpf4jnsgd1na2vs0mg"},{"bike_id":"0cc07e4e-e52e-4c26-9594-449188a42844","system_id":"levelo_inurba_marseille","lat":43.24642,"lon":5.43136,"is_reserved":false,"is_disabled":false,"rental_uris":{"android":"levelo://app?vid=0cc07e4e-e52e-4c26-9594-449188a42844","ios":"levelo://app?vid=0cc07e4e-e52e-4c26-9594-449188a42844"},"vehicle_type_id":"4","last_reported":1766736959,"current_range_meters":8800,"station_id":"st_d2m6c4gdas8pm72e190g","pricing_plan_id":"cebpf4jnsgd1na2vs0mg"},{"bike_id":"2fad9db5-aa59-4d67-acc6-8a420e8c641e","system_id":"levelo_inurba_marseille","lat":43.28632,"lon":5.39964,"is_reserved":false,"is_disabled":false,"rental_uris":{"android":"levelo://app?vid=2fad9db5-aa59-4d67-acc6-8a420e8c641e","ios":"levelo://app?vid=2fad9db5-aa59-4d67-acc6-8a420e8c641e"},"vehicle_type_id":"4","last_reported":1766736959,"current_range_meters":8800,"station_id":"","pricing_plan_id":"cebpf4jnsgd1na2vs0mg"},{"bike_id":"e63d9a65-4cde-4906-9735-3200b2d7a155","system_id":"levelo_inurba_marseille","lat":43.29649,"lon":5.38007,"is_reserved":false,"is_disabled":false,"rental_uris":{"android":"levelo://app?vid=e63d9a65-4cde-4906-9735-3200b2d7a155","ios":"levelo://app?vid=e63d9a65-4cde-4906-9735-3200b2d7a155"},"vehicle_type_id":"4","last_reported":1766736959,"current_range_meters":9200,"station_id":"","pricing_plan_id":"cebpf4jnsgd1na2vs0mg"},{"bike_id":"b2b2163f-c466-479f-921c-9371f6114ea2","system_id":"levelo_inurba_marseille","lat":43.304291,"lon":5.388921,"is_reserved":false,"is_disabled":false,"rental_uris":{"android":"levelo://app?vid=b2b2163f-c466-479f-921c-9371f6114ea2","ios":"levelo://app?vid=b2b2163f-c466-479f-921c-9371f6114ea2"},"vehicle_type_id":"4","last_reported":1766736959,"current_range_meters":9200,"station_id":"","pricing_plan_id":"cebpf4jnsgd1na2vs0mg"},{"bike_id":"bc5e3544-bda1-4030-aedf-2a64fd688c9d","system_id":"levelo_inurba_marseille","lat":43.32104,"lon":5.36777,"is_reserved":false,"is_disabled":false,"rental_uris":{"android":"levelo://app?vid=bc5e3544-bda1-4030-aedf-2a64fd688c9d","ios":"levelo://app?vid=bc5e3544-bda1-4030-aedf-2a64fd688c9d"},"vehicle_type_id":"4","last_reported":1766736959,"current_range_meters":9200,"station_id":"ce4bhrh2rcd13ifvqhug","pricing_plan_id":"cebpf4jnsgd1na2vs0mg"},{"bike_id":"3d233491-15b1-43bc-8d0f-86291ac326b7","system_id":"levelo_inurba_marseille","lat":43.29033,"lon":5.3757,"is_reserved":false,"is_disabled":false,"rental_uris":{"android":"levelo://app?vid=3d233491-15b1-43bc-8d0f-86291ac326b7","ios":"levelo://app?vid=3d233491-15b1-43bc-8d0f-86291ac326b7"},"vehicle_type_id":"4","last_reported":1766736959,"current_range_meters":9200,"station_id":"ce4bh692rcd13ifvqe90","pricing_plan_id":"cebpf4jnsgd1na2vs0mg"},{"bike_id":"2ef54144-4914-4819-9957-693aacc91a44","system_id":"levelo_inurba_marseille","lat":43.295458,"lon":5.390902,"is_reserved":false,"is_disabled":false,"rental_uris":{"android":"levelo://app?vid=2ef54144-4914-4819-9957-693aacc91a44","ios":"levelo://app?vid=2ef54144-4914-4819-9957-693aacc91a44"},"vehicle_type_id":"4","last_reported":1766736959,"current_range_meters":9200,"station_id":"","pricing_plan_id":"cebpf4jnsgd1na2vs0mg"},{"bike_id":"cda3bfc9-4198-417c-9fa3-c09801245bc4","system_id":"levelo_inurba_marseille","lat":43.29487,"lon":5.43295,"is_reserved":false,"is_disabled":false,"rental_uris":{"android":"levelo://app?vid=cda3bfc9-4198-417c-9fa3-c09801245bc4","ios":"levelo://app?vid=cda3bfc9-4198-417c-9fa3-c09801245bc4"},"vehicle_type_id":"4","last_reported":1766736959,"current_range_meters":9200,"station_id":"st_d3j5ugp08ojc73fj9d10","pricing_plan_id":"cebpf4jnsgd1na2vs0mg"},{"bike_id":"9c8087b0-4ddf-40a6-bfb6-194f4fbb64bb","system_id":"levelo_inurba_marseille","lat":43.24542,"lon":5.39521,"is_reserved":false,"is_disabled":false,"rental_uris":{"android":"levelo://app?vid=9c8087b0-4ddf-40a6-bfb6-194f4fbb64bb","ios":"levelo://app?vid=9c8087b0-4ddf-40a6-bfb6-194f4fbb64bb"},"vehicle_type_id":"4","last_reported":1766736959,"current_range_meters":9200,"station_id":"ce4bhlp2rcd13ifvqgjg","pricing_plan_id":"cebpf4jnsgd1na2vs0mg"},{"bike_id":"6d373430-813a-4ac6-a484-9f4402e994cc","system_id":"levelo_inurba_marseille","lat":43.217432,"lon":5.346069,"is_reserved":false,"is_disabled":false,"rental_uris":{"android":"levelo://app?vid=6d373430-813a-4ac6-a484-9f4402e994cc","ios":"levelo://app?vid=6d373430-813a-4ac6-a484-9f4402e994cc"},"vehicle_type_id":"4","last_reported":1766736959,"current_range_meters":9200,"station_id":"st_cvj6r9ubvosntc0bgbag","pricing_plan_id":"cebpf4jnsgd1na2vs0mg"},{"bike_id":"dedff927-854d-4b37-8155-fe307926e983","system_id":"levelo_inurba_marseille","lat":43.30625,"lon":5.3933,"is_reserved":false,"is_disabled":false,"rental_uris":{"android":"levelo://app?vid=dedff927-854d-4b37-8155-fe307926e983","ios":"levelo://app?vid=dedff927-854d-4b37-8155-fe307926e983"},"vehicle_type_id":"4","last_reported":1766736959,"current_range_meters":9200,"station_id":"ce4bh0p2rcd13ifvqd80","pricing_plan_id":"cebpf4jnsgd1na2vs0mg"},{"bike_id":"7f01de1e-82c5-4abd-a8a0-bd31c8a992fa","system_id":"levelo_inurba_marseille","lat":43.299589,"lon":5.413269,"is_reserved":false,"is_disabled":true,"rental_uris":{"android":"levelo://app?vid=7f01de1e-82c5-4abd-a8a0-bd31c8a992fa","ios":"levelo://app?vid=7f01de1e-82c5-4abd-a8a0-bd31c8a992fa"},"vehicle_type_id":"4","last_reported":1766736959,"current_range_meters":9200,"station_id":"ce4bhp12rcd13ifvqh9g","pricing_plan_id":"cebpf4jnsgd1na2vs0mg"},{"bike_id":"54521975-972b-411d-b9c4-ce6f16ef3aa4","system_id":"levelo_inurba_marseille","lat":43.29747,"lon":5.385273,"is_reserved":false,"is_disabled":false,"rental_uris":{"android":"levelo://app?vid=54521975-972b-411d-b9c4-ce6f16ef3aa4","ios":"levelo://app?vid=54521975-972b-411d-b9c4-ce6f16ef3aa4"},"vehicle_type_id":"4","last_reported":1766736959,"current_range_meters":9600,"station_id":"","pricing_plan_id":"cebpf4jnsgd1na2vs0mg"},{"bike_id":"9ea76d59-d3d3-4e47-be04-afd4bc527ff7","system_id":"levelo_inurba_marseille","lat":43.28605,"lon":5.39896,"is_reserved":false,"is_disabled":false,"rental_uris":{"android":"levelo://app?vid=9ea76d59-d3d3-4e47-be04-afd4bc527ff7","ios":"levelo://app?vid=9ea76d59-d3d3-4e47-be04-afd4bc527ff7"},"vehicle_type_id":"4","last_reported":1766736959,"current_range_meters":9600,"station_id":"st_d4a7ka997mjs738ck50g","pricing_plan_id":"cebpf4jnsgd1na2vs0mg"},{"bike_id":"bd470090-7662-499f-881a-312cd56c4128","system_id":"levelo_inurba_marseille","lat":43.314901,"lon":5.372992,"is_reserved":false,"is_disabled":false,"rental_uris":{"android":"levelo://app?vid=bd470090-7662-499f-881a-312cd56c4128","ios":"levelo://app?vid=bd470090-7662-499f-881a-312cd56c4128"},"vehicle_type_id":"4","last_reported":1766736959,"current_range_meters":9600,"station_id":"ce4bgt12rcd13ifvqcd0","pricing_plan_id":"cebpf4jnsgd1na2vs0mg"},{"bike_id":"2bcf6ae4-322c-43d0-9880-65aeda24ed67","system_id":"levelo_inurba_marseille","lat":43.32412,"lon":5.36896,"is_reserved":false,"is_disabled":false,"rental_uris":{"android":"levelo://app?vid=2bcf6ae4-322c-43d0-9880-65aeda24ed67","ios":"levelo://app?vid=2bcf6ae4-322c-43d0-9880-65aeda24ed67"},"vehicle_type_id":"4","last_reported":1766736959,"current_range_meters":9600,"station_id":"","pricing_plan_id":"cebpf4jnsgd1na2vs0mg"},{"bike_id":"c77523a1-9d61-47d4-bde2-33be502221c0","system_id":"levelo_inurba_marseille","lat":43.324708,"lon":5.365616,"is_reserved":false,"is_disabled":true,"rental_uris":{"android":"levelo://app?vid=c77523a1-9d61-47d4-bde2-33be502221c0","ios":"levelo://app?vid=c77523a1-9d61-47d4-bde2-33be502221c0"},"vehicle_type_id":"4","last_reported":1766736959,"current_range_meters":9600,"station_id":"ce4bhs12rcd13ifvqhvg","pricing_plan_id":"cebpf4jnsgd1na2vs0mg"},{"bike_id":"1b263ff7-e4c5-4599-95a5-de73baef7de9","system_id":"levelo_inurba_marseille","lat":43.29848,"lon":5.36283,"is_reserved":false,"is_disabled":false,"rental_uris":{"android":"levelo://app?vid=1b263ff7-e4c5-4599-95a5-de73baef7de9","ios":"levelo://app?vid=1b263ff7-e4c5-4599-95a5-de73baef7de9"},"vehicle_type_id":"4","last_reported":1766736959,"current_range_meters":9600,"station_id":"ce4bgpp2rcd13ifvqc3g","pricing_plan_id":"cebpf4jnsgd1na2vs0mg"},{"bike_id":"9d98affd-2696-4d90-a59b-f5f872b1b334","system_id":"levelo_inurba_marseille","lat":43.27027,"lon":5.39295,"is_reserved":false,"is_disabled":true,"rental_uris":{"android":"levelo://app?vid=9d98affd-2696-4d90-a59b-f5f872b1b334","ios":"levelo://app?vid=9d98affd-2696-4d90-a59b-f5f872b1b334"},"vehicle_type_id":"4","last_reported":1766736959,"current_range_meters":9600,"station_id":"","pricing_plan_id":"cebpf4jnsgd1na2vs0mg"},{"bike_id":"3b2ca58f-d8a3-4b2a-8595-b654fc6a5a5c","system_id":"levelo_inurba_marseille","lat":43.29085,"lon":5.37176,"is_reserved":false,"is_disabled":false,"rental_uris":{"android":"levelo://app?vid=3b2ca58f-d8a3-4b2a-8595-b654fc6a5a5c","ios":"levelo://app?vid=3b2ca58f-d8a3-4b2a-8595-b654fc6a5a5c"},"vehicle_type_id":"4","last_reported":1766736959,"current_range_meters":9600,"station_id":"ce4bh5p2rcd13ifvqe4g","pricing_plan_id":"cebpf4jnsgd1na2vs0mg"},{"bike_id":"a3be4a7c-7544-49a9-8048-28fcde31ea3d","system_id":"levelo_inurba_marseille","lat":43.29289,"lon":5.37337,"is_reserved":false,"is_disabled":false,"rental_uris":{"android":"levelo://app?vid=a3be4a7c-7544-49a9-8048-28fcde31ea3d","ios":"levelo://app?vid=a3be4a7c-7544-49a9-8048-28fcde31ea3d"},"vehicle_type_id":"4","last_reported":1766736959,"current_range_meters":9600,"station_id":"ce4bgi12rcd13ifvqb70","pricing_plan_id":"cebpf4jnsgd1na2vs0mg"},{"bike_id":"ad8a952e-0a13-48ea-862d-8ac4d7c6749b","system_id":"levelo_inurba_marseille","lat":43.25333,"lon":5.42167,"is_reserved":false,"is_disabled":false,"rental_uris":{"android":"levelo://app?vid=ad8a952e-0a13-48ea-862d-8ac4d7c6749b","ios":"levelo://app?vid=ad8a952e-0a13-48ea-862d-8ac4d7c6749b"},"vehicle_type_id":"4","last_reported":1766736959,"current_range_meters":9600,"station_id":"st_d2m65c5bi1j21697t3ng","pricing_plan_id":"cebpf4jnsgd1na2vs0mg"},{"bike_id":"3e765c7e-a034-4468-bfa7-970b4189b2cc","system_id":"levelo_inurba_marseille","lat":43.29808,"lon":5.44056,"is_reserved":false,"is_disabled":false,"rental_uris":{"android":"levelo://app?vid=3e765c7e-a034-4468-bfa7-970b4189b2cc","ios":"levelo://app?vid=3e765c7e-a034-4468-bfa7-970b4189b2cc"},"vehicle_type_id":"4","last_reported":1766736959,"current_range_meters":10000,"station_id":"st_d3jp68qikq2c7381ktn0","pricing_plan_id":"cebpf4jnsgd1na2vs0mg"},{"bike_id":"25b8b740-dc37-4147-8170-d4b89ca78fa6","system_id":"levelo_inurba_marseille","lat":43.26781,"lon":5.39417,"is_reserved":false,"is_disabled":false,"rental_uris":{"android":"levelo://app?vid=25b8b740-dc37-4147-8170-d4b89ca78fa6","ios":"levelo://app?vid=25b8b740-dc37-4147-8170-d4b89ca78fa6"},"vehicle_type_id":"4","last_reported":1766736959,"current_range_meters":10000,"station_id":"ce4bhh12rcd13ifvqfg0","pricing_plan_id":"cebpf4jnsgd1na2vs0mg"},{"bike_id":"de0b0d20-140b-4873-8331-b28a1e6dbe5f","system_id":"levelo_inurba_marseille","lat":43.21742,"lon":5.34602,"is_reserved":false,"is_disabled":false,"rental_uris":{"android":"levelo://app?vid=de0b0d20-140b-4873-8331-b28a1e6dbe5f","ios":"levelo://app?vid=de0b0d20-140b-4873-8331-b28a1e6dbe5f"},"vehicle_type_id":"4","last_reported":1766736959,"current_range_meters":10000,"station_id":"st_cvj6r9ubvosntc0bgbag","pricing_plan_id":"cebpf4jnsgd1na2vs0mg"},{"bike_id":"4bf1a7e5-b828-483b-9d07-4afaec7bb800","system_id":"levelo_inurba_marseille","lat":43.29794,"lon":5.38197,"is_reserved":false,"is_disabled":false,"rental_uris":{"android":"levelo://app?vid=4bf1a7e5-b828-483b-9d07-4afaec7bb800","ios":"levelo://app?vid=4bf1a7e5-b828-483b-9d07-4afaec7bb800"},"vehicle_type_id":"4","last_reported":1766736959,"current_range_meters":10000,"station_id":"","pricing_plan_id":"cebpf4jnsgd1na2vs0mg"},{"bike_id":"da0c886d-bf9d-46c9-ba41-bfd5ae0eda24","system_id":"levelo_inurba_marseille","lat":43.24162,"lon":5.36407,"is_reserved":false,"is_disabled":false,"rental_uris":{"android":"levelo://app?vid=da0c886d-bf9d-46c9-ba41-bfd5ae0eda24","ios":"levelo://app?vid=da0c886d-bf9d-46c9-ba41-bfd5ae0eda24"},"vehicle_type_id":"4","last_reported":1766736959,"current_range_meters":10000,"station_id":"cpo36qri1sfpv3e86is0","pricing_plan_id":"cebpf4jnsgd1na2vs0mg"},{"bike_id":"10e8510f-7212-42b5-a2ff-2ca0280138d2","system_id":"levelo_inurba_marseille","lat":43.246553,"lon":5.381526,"is_reserved":false,"is_disabled":false,"rental_uris":{"android":"levelo://app?vid=10e8510f-7212-42b5-a2ff-2ca0280138d2","ios":"levelo://app?vid=10e8510f-7212-42b5-a2ff-2ca0280138d2"},"vehicle_type_id":"4","last_reported":1766736959,"current_range_meters":10000,"station_id":"ce4bhih2rcd13ifvqfr0","pricing_plan_id":"cebpf4jnsgd1na2vs0mg"},{"bike_id":"45cb4a88-56d0-4ea5-b85d-33b8d4d652ea","system_id":"levelo_inurba_marseille","lat":43.29615,"lon":5.38337,"is_reserved":false,"is_disabled":false,"rental_uris":{"android":"levelo://app?vid=45cb4a88-56d0-4ea5-b85d-33b8d4d652ea","ios":"levelo://app?vid=45cb4a88-56d0-4ea5-b85d-33b8d4d652ea"},"vehicle_type_id":"4","last_reported":1766736959,"current_range_meters":10000,"station_id":"","pricing_plan_id":"cebpf4jnsgd1na2vs0mg"},{"bike_id":"7ee1c09d-a306-4e72-a256-6549ce7578c9","system_id":"levelo_inurba_marseille","lat":43.2917,"lon":5.37313,"is_reserved":false,"is_disabled":false,"rental_uris":{"android":"levelo://app?vid=7ee1c09d-a306-4e72-a256-6549ce7578c9","ios":"levelo://app?vid=7ee1c09d-a306-4e72-a256-6549ce7578c9"},"vehicle_type_id":"4","last_reported":1766736959,"current_range_meters":10000,"station_id":"","pricing_plan_id":"cebpf4jnsgd1na2vs0mg"},{"bike_id":"8fad4077-677e-4766-ab5b-939665ae5ce2","system_id":"levelo_inurba_marseille","lat":43.28347,"lon":5.381,"is_reserved":false,"is_disabled":false,"rental_uris":{"android":"levelo://app?vid=8fad4077-677e-4766-ab5b-939665ae5ce2","ios":"levelo://app?vid=8fad4077-677e-4766-ab5b-939665ae5ce2"},"vehicle_type_id":"4","last_reported":1766736959,"current_range_meters":10000,"station_id":"ce4bh412rcd13ifvqdr0","pricing_plan_id":"cebpf4jnsgd1na2vs0mg"},{"bike_id":"100580c3-0829-48ce-8d1e-df45dec6d1bb","system_id":"levelo_inurba_marseille","lat":43.29005,"lon":5.35602,"is_reserved":false,"is_disabled":false,"rental_uris":{"android":"levelo://app?vid=100580c3-0829-48ce-8d1e-df45dec6d1bb","ios":"levelo://app?vid=100580c3-0829-48ce-8d1e-df45dec6d1bb"},"vehicle_type_id":"4","last_reported":1766736959,"current_range_meters":10000,"station_id":"ce4bhb92rcd13ifvqen0","pricing_plan_id":"cebpf4jnsgd1na2vs0mg"},{"bike_id":"930566d2-2f61-46bf-9bf8-db6b000638fd","system_id":"levelo_inurba_marseille","lat":43.314,"lon":5.39819,"is_reserved":false,"is_disabled":false,"rental_uris":{"android":"levelo://app?vid=930566d2-2f61-46bf-9bf8-db6b000638fd","ios":"levelo://app?vid=930566d2-2f61-46bf-9bf8-db6b000638fd"},"vehicle_type_id":"4","last_reported":1766736959,"current_range_meters":10000,"station_id":"","pricing_plan_id":"cebpf4jnsgd1na2vs0mg"},{"bike_id":"6fc5db1f-3f5f-4c61-b076-879aa16423ce","system_id":"levelo_inurba_marseille","lat":43.311667,"lon":5.3872,"is_reserved":false,"is_disabled":false,"rental_uris":{"android":"levelo://app?vid=6fc5db1f-3f5f-4c61-b076-879aa16423ce","ios":"levelo://app?vid=6fc5db1f-3f5f-4c61-b076-879aa16423ce"},"vehicle_type_id":"4","last_reported":1766736959,"current_range_meters":10000,"station_id":"ce4bgv12rcd13ifvqcp0","pricing_plan_id":"cebpf4jnsgd1na2vs0mg"},{"bike_id":"cfe405c3-05f8-474f-bc24-91cafe5c1373","system_id":"levelo_inurba_marseille","lat":43.332126,"lon":5.399191,"is_reserved":false,"is_disabled":false,"rental_uris":{"android":"levelo://app?vid=cfe405c3-05f8-474f-bc24-91cafe5c1373","ios":"levelo://app?vid=cfe405c3-05f8-474f-bc24-91cafe5c1373"},"vehicle_type_id":"4","last_reported":1766736959,"current_range_meters":10000,"station_id":"","pricing_plan_id":"cebpf4jnsgd1na2vs0mg"},{"bike_id":"aca55169-f87d-4812-8ee7-8d2225323da5","system_id":"levelo_inurba_marseille","lat":43.28606,"lon":5.37064,"is_reserved":false,"is_disabled":false,"rental_uris":{"android":"levelo://app?vid=aca55169-f87d-4812-8ee7-8d2225323da5","ios":"levelo://app?vid=aca55169-f87d-4812-8ee7-8d2225323da5"},"vehicle_type_id":"4","last_reported":1766736959,"current_range_meters":10000,"station_id":"ce4bht12rcd13ifvqi60","pricing_plan_id":"cebpf4jnsgd1na2vs0mg"},{"bike_id":"1c3c112f-93f9-4327-831e-5332c3a3f969","system_id":"levelo_inurba_marseille","lat":43.29788,"lon":5.38089,"is_reserved":false,"is_disabled":false,"rental_uris":{"android":"levelo://app?vid=1c3c112f-93f9-4327-831e-5332c3a3f969","ios":"levelo://app?vid=1c3c112f-93f9-4327-831e-5332c3a3f969"},"vehicle_type_id":"4","last_reported":1766736959,"current_range_meters":10000,"station_id":"ce4bgip2rcd13ifvqbb0","pricing_plan_id":"cebpf4jnsgd1na2vs0mg"},{"bike_id":"119a66d3-59c1-4eaa-b656-c62237c2eeae","system_id":"levelo_inurba_marseille","lat":43.3084,"lon":5.38256,"is_reserved":false,"is_disabled":false,"rental_uris":{"android":"levelo://app?vid=119a66d3-59c1-4eaa-b656-c62237c2eeae","ios":"levelo://app?vid=119a66d3-59c1-4eaa-b656-c62237c2eeae"},"vehicle_type_id":"4","last_reported":1766736959,"current_range_meters":10000,"station_id":"","pricing_plan_id":"cebpf4jnsgd1na2vs0mg"},{"bike_id":"c9841a93-0e54-48ff-b80b-cfbaf7a3595d","system_id":"levelo_inurba_marseille","lat":43.28485,"lon":5.38416,"is_reserved":false,"is_disabled":false,"rental_uris":{"android":"levelo://app?vid=c9841a93-0e54-48ff-b80b-cfbaf7a3595d","ios":"levelo://app?vid=c9841a93-0e54-48ff-b80b-cfbaf7a3595d"},"vehicle_type_id":"4","last_reported":1766736959,"current_range_meters":10000,"station_id":"ce4bh512rcd13ifvqe3g","pricing_plan_id":"cebpf4jnsgd1na2vs0mg"},{"bike_id":"f9df9632-029c-4669-915b-da73f8d6a65a","system_id":"levelo_inurba_marseille","lat":43.32117,"lon":5.36757,"is_reserved":false,"is_disabled":false,"rental_uris":{"android":"levelo://app?vid=f9df9632-029c-4669-915b-da73f8d6a65a","ios":"levelo://app?vid=f9df9632-029c-4669-915b-da73f8d6a65a"},"vehicle_type_id":"4","last_reported":1766736959,"current_range_meters":10800,"station_id":"ce4bhrh2rcd13ifvqhug","pricing_plan_id":"cebpf4jnsgd1na2vs0mg"},{"bike_id":"9ac5b251-4eea-4bea-826c-0a6aeafed89e","system_id":"levelo_inurba_marseille","lat":43.29734,"lon":5.37653,"is_reserved":false,"is_disabled":false,"rental_uris":{"android":"levelo://app?vid=9ac5b251-4eea-4bea-826c-0a6aeafed89e","ios":"levelo://app?vid=9ac5b251-4eea-4bea-826c-0a6aeafed89e"},"vehicle_type_id":"4","last_reported":1766736959,"current_range_meters":10800,"station_id":"ce4bgkh2rcd13ifvqbl0","pricing_plan_id":"cebpf4jnsgd1na2vs0mg"},{"bike_id":"5eb2084b-2a74-44ab-85d1-64adca8ddc38","system_id":"levelo_inurba_marseille","lat":43.26541,"lon":5.37292,"is_reserved":false,"is_disabled":false,"rental_uris":{"android":"levelo://app?vid=5eb2084b-2a74-44ab-85d1-64adca8ddc38","ios":"levelo://app?vid=5eb2084b-2a74-44ab-85d1-64adca8ddc38"},"vehicle_type_id":"4","last_reported":1766736959,"current_range_meters":10800,"station_id":"ce4bhg12rcd13ifvqf70","pricing_plan_id":"cebpf4jnsgd1na2vs0mg"},{"bike_id":"68bc94bc-038e-4036-bdca-d7bc86c8979e","system_id":"levelo_inurba_marseille","lat":43.29779,"lon":5.37084,"is_reserved":false,"is_disabled":false,"rental_uris":{"android":"levelo://app?vid=68bc94bc-038e-4036-bdca-d7bc86c8979e","ios":"levelo://app?vid=68bc94bc-038e-4036-bdca-d7bc86c8979e"},"vehicle_type_id":"4","last_reported":1766736959,"current_range_meters":10800,"station_id":"ce4bgop2rcd13ifvqc1g","pricing_plan_id":"cebpf4jnsgd1na2vs0mg"},{"bike_id":"64721fec-77b8-4807-9667-cec3c8c1fbd0","system_id":"levelo_inurba_marseille","lat":43.24307,"lon":5.39463,"is_reserved":false,"is_disabled":false,"rental_uris":{"android":"levelo://app?vid=64721fec-77b8-4807-9667-cec3c8c1fbd0","ios":"levelo://app?vid=64721fec-77b8-4807-9667-cec3c8c1fbd0"},"vehicle_type_id":"4","last_reported":1766736959,"current_range_meters":10800,"station_id":"","pricing_plan_id":"cebpf4jnsgd1na2vs0mg"},{"bike_id":"8d525f89-2c11-4a86-bf53-fc834c9a881b","system_id":"levelo_inurba_marseille","lat":43.270563,"lon":5.383158,"is_reserved":false,"is_disabled":false,"rental_uris":{"android":"levelo://app?vid=8d525f89-2c11-4a86-bf53-fc834c9a881b","ios":"levelo://app?vid=8d525f89-2c11-4a86-bf53-fc834c9a881b"},"vehicle_type_id":"4","last_reported":1766736959,"current_range_meters":10800,"station_id":"st_d3n2fo6cfp8s73cte1j0","pricing_plan_id":"cebpf4jnsgd1na2vs0mg"},{"bike_id":"82ee4dcf-e89c-4d74-bfa0-6911f98bb3e9","system_id":"levelo_inurba_marseille","lat":43.31371,"lon":5.3669,"is_reserved":false,"is_disabled":false,"rental_uris":{"android":"levelo://app?vid=82ee4dcf-e89c-4d74-bfa0-6911f98bb3e9","ios":"levelo://app?vid=82ee4dcf-e89c-4d74-bfa0-6911f98bb3e9"},"vehicle_type_id":"4","last_reported":1766736959,"current_range_meters":10800,"station_id":"ce4bgr92rcd13ifvqc6g","pricing_plan_id":"cebpf4jnsgd1na2vs0mg"},{"bike_id":"38a996a3-f8a8-43e6-89ea-de552c896206","system_id":"levelo_inurba_marseille","lat":43.28684,"lon":5.38659,"is_reserved":false,"is_disabled":true,"rental_uris":{"android":"levelo://app?vid=38a996a3-f8a8-43e6-89ea-de552c896206","ios":"levelo://app?vid=38a996a3-f8a8-43e6-89ea-de552c896206"},"vehicle_type_id":"4","last_reported":1766736959,"current_range_meters":10800,"station_id":"ce4bh492rcd13ifvqdug","pricing_plan_id":"cebpf4jnsgd1na2vs0mg"},{"bike_id":"be93ff89-3be6-40ab-b001-59c1fb76fcd8","system_id":"levelo_inurba_marseille","lat":43.24655,"lon":5.3815,"is_reserved":false,"is_disabled":false,"rental_uris":{"android":"levelo://app?vid=be93ff89-3be6-40ab-b001-59c1fb76fcd8","ios":"levelo://app?vid=be93ff89-3be6-40ab-b001-59c1fb76fcd8"},"vehicle_type_id":"4","last_reported":1766736959,"current_range_meters":10800,"station_id":"ce4bhih2rcd13ifvqfr0","pricing_plan_id":"cebpf4jnsgd1na2vs0mg"},{"bike_id":"4308dbe4-de89-4887-b2d7-baa578674e91","system_id":"levelo_inurba_marseille","lat":43.27193,"lon":5.39174,"is_reserved":false,"is_disabled":true,"rental_uris":{"android":"levelo://app?vid=4308dbe4-de89-4887-b2d7-baa578674e91","ios":"levelo://app?vid=4308dbe4-de89-4887-b2d7-baa578674e91"},"vehicle_type_id":"4","last_reported":1766736959,"current_range_meters":10800,"station_id":"ce4bhhp2rcd13ifvqfm0","pricing_plan_id":"cebpf4jnsgd1na2vs0mg"},{"bike_id":"34f1c565-9991-4670-8a70-3a0cd3ddfd49","system_id":"levelo_inurba_marseille","lat":43.292564,"lon":5.376105,"is_reserved":false,"is_disabled":false,"rental_uris":{"android":"levelo://app?vid=34f1c565-9991-4670-8a70-3a0cd3ddfd49","ios":"levelo://app?vid=34f1c565-9991-4670-8a70-3a0cd3ddfd49"},"vehicle_type_id":"4","last_reported":1766736959,"current_range_meters":10800,"station_id":"ce4bgi12rcd13ifvqb80","pricing_plan_id":"cebpf4jnsgd1na2vs0mg"},{"bike_id":"a8516ce3-cac7-495f-8957-420b2002e87b","system_id":"levelo_inurba_marseille","lat":43.246542,"lon":5.388954,"is_reserved":false,"is_disabled":false,"rental_uris":{"android":"levelo://app?vid=a8516ce3-cac7-495f-8957-420b2002e87b","ios":"levelo://app?vid=a8516ce3-cac7-495f-8957-420b2002e87b"},"vehicle_type_id":"4","last_reported":1766736959,"current_range_meters":10800,"station_id":"ce4bhg12rcd13ifvqf60","pricing_plan_id":"cebpf4jnsgd1na2vs0mg"},{"bike_id":"8364b8f0-ee44-4dd4-8145-924316f4d98c","system_id":"levelo_inurba_marseille","lat":43.29637,"lon":5.38142,"is_reserved":false,"is_disabled":false,"rental_uris":{"android":"levelo://app?vid=8364b8f0-ee44-4dd4-8145-924316f4d98c","ios":"levelo://app?vid=8364b8f0-ee44-4dd4-8145-924316f4d98c"},"vehicle_type_id":"4","last_reported":1766736959,"current_range_meters":10800,"station_id":"ce4bgl12rcd13ifvqbo0","pricing_plan_id":"cebpf4jnsgd1na2vs0mg"},{"bike_id":"ff4e46f7-adc1-4649-aa1f-012ca177c8d4","system_id":"levelo_inurba_marseille","lat":43.285311,"lon":5.441006,"is_reserved":false,"is_disabled":false,"rental_uris":{"android":"levelo://app?vid=ff4e46f7-adc1-4649-aa1f-012ca177c8d4","ios":"levelo://app?vid=ff4e46f7-adc1-4649-aa1f-012ca177c8d4"},"vehicle_type_id":"4","last_reported":1766736959,"current_range_meters":10800,"station_id":"st_d3j3df2ikq2c7380ej80","pricing_plan_id":"cebpf4jnsgd1na2vs0mg"},{"bike_id":"7929680a-5436-4b30-979e-eee700b7ec80","system_id":"levelo_inurba_marseille","lat":43.314693,"lon":5.368584,"is_reserved":false,"is_disabled":false,"rental_uris":{"android":"levelo://app?vid=7929680a-5436-4b30-979e-eee700b7ec80","ios":"levelo://app?vid=7929680a-5436-4b30-979e-eee700b7ec80"},"vehicle_type_id":"4","last_reported":1766736959,"current_range_meters":10800,"station_id":"","pricing_plan_id":"cebpf4jnsgd1na2vs0mg"},{"bike_id":"640b5078-0d82-4a2d-be8a-3c9c9992716b","system_id":"levelo_inurba_marseille","lat":43.32702,"lon":5.40572,"is_reserved":false,"is_disabled":false,"rental_uris":{"android":"levelo://app?vid=640b5078-0d82-4a2d-be8a-3c9c9992716b","ios":"levelo://app?vid=640b5078-0d82-4a2d-be8a-3c9c9992716b"},"vehicle_type_id":"4","last_reported":1766736959,"current_range_meters":10800,"station_id":"","pricing_plan_id":"cebpf4jnsgd1na2vs0mg"},{"bike_id":"82f7bdae-32a0-4341-a495-2938e1a4ea6b","system_id":"levelo_inurba_marseille","lat":43.21744,"lon":5.346,"is_reserved":false,"is_disabled":false,"rental_uris":{"android":"levelo://app?vid=82f7bdae-32a0-4341-a495-2938e1a4ea6b","ios":"levelo://app?vid=82f7bdae-32a0-4341-a495-2938e1a4ea6b"},"vehicle_type_id":"4","last_reported":1766736959,"current_range_meters":10800,"station_id":"st_cvj6r9ubvosntc0bgbag","pricing_plan_id":"cebpf4jnsgd1na2vs0mg"},{"bike_id":"69df7ccb-8db7-432c-a495-d36908b77931","system_id":"levelo_inurba_marseille","lat":43.241791,"lon":5.397276,"is_reserved":false,"is_disabled":false,"rental_uris":{"android":"levelo://app?vid=69df7ccb-8db7-432c-a495-d36908b77931","ios":"levelo://app?vid=69df7ccb-8db7-432c-a495-d36908b77931"},"vehicle_type_id":"4","last_reported":1766736959,"current_range_meters":11200,"station_id":"ce4bhn12rcd13ifvqgpg","pricing_plan_id":"cebpf4jnsgd1na2vs0mg"},{"bike_id":"72d3606b-0147-418c-817a-a9c5d6216dc3","system_id":"levelo_inurba_marseille","lat":43.29617,"lon":5.37727,"is_reserved":false,"is_disabled":false,"rental_uris":{"android":"levelo://app?vid=72d3606b-0147-418c-817a-a9c5d6216dc3","ios":"levelo://app?vid=72d3606b-0147-418c-817a-a9c5d6216dc3"},"vehicle_type_id":"4","last_reported":1766736959,"current_range_meters":11200,"station_id":"ce4bgi92rcd13ifvqb90","pricing_plan_id":"cebpf4jnsgd1na2vs0mg"},{"bike_id":"d18b2ecb-6e3f-4025-b520-8e1d10b67c80","system_id":"levelo_inurba_marseille","lat":43.29962,"lon":5.41323,"is_reserved":false,"is_disabled":false,"rental_uris":{"android":"levelo://app?vid=d18b2ecb-6e3f-4025-b520-8e1d10b67c80","ios":"levelo://app?vid=d18b2ecb-6e3f-4025-b520-8e1d10b67c80"},"vehicle_type_id":"4","last_reported":1766736959,"current_range_meters":11200,"station_id":"ce4bhp12rcd13ifvqh9g","pricing_plan_id":"cebpf4jnsgd1na2vs0mg"},{"bike_id":"1da5d54b-c084-45d8-aa43-f08639a42f81","system_id":"levelo_inurba_marseille","lat":43.31493,"lon":5.37299,"is_reserved":false,"is_disabled":false,"rental_uris":{"android":"levelo://app?vid=1da5d54b-c084-45d8-aa43-f08639a42f81","ios":"levelo://app?vid=1da5d54b-c084-45d8-aa43-f08639a42f81"},"vehicle_type_id":"4","last_reported":1766736959,"current_range_meters":11200,"station_id":"ce4bgt12rcd13ifvqcd0","pricing_plan_id":"cebpf4jnsgd1na2vs0mg"},{"bike_id":"c7dab476-fa34-4842-a372-0d1b45eca4dd","system_id":"levelo_inurba_marseille","lat":43.27982,"lon":5.41673,"is_reserved":false,"is_disabled":false,"rental_uris":{"android":"levelo://app?vid=c7dab476-fa34-4842-a372-0d1b45eca4dd","ios":"levelo://app?vid=c7dab476-fa34-4842-a372-0d1b45eca4dd"},"vehicle_type_id":"4","last_reported":1766736959,"current_range_meters":11200,"station_id":"ce4bho12rcd13ifvqh1g","pricing_plan_id":"cebpf4jnsgd1na2vs0mg"},{"bike_id":"7ca36e65-29f2-4389-9847-4bff73ecf20a","system_id":"levelo_inurba_marseille","lat":43.323683,"lon":5.367621,"is_reserved":false,"is_disabled":false,"rental_uris":{"android":"levelo://app?vid=7ca36e65-29f2-4389-9847-4bff73ecf20a","ios":"levelo://app?vid=7ca36e65-29f2-4389-9847-4bff73ecf20a"},"vehicle_type_id":"4","last_reported":1766736959,"current_range_meters":11200,"station_id":"ce4bhsh2rcd13ifvqi2g","pricing_plan_id":"cebpf4jnsgd1na2vs0mg"},{"bike_id":"c6710cdf-d341-4fc7-8dff-171343d7aeff","system_id":"levelo_inurba_marseille","lat":43.30152,"lon":5.39277,"is_reserved":false,"is_disabled":false,"rental_uris":{"android":"levelo://app?vid=c6710cdf-d341-4fc7-8dff-171343d7aeff","ios":"levelo://app?vid=c6710cdf-d341-4fc7-8dff-171343d7aeff"},"vehicle_type_id":"4","last_reported":1766736959,"current_range_meters":11200,"station_id":"","pricing_plan_id":"cebpf4jnsgd1na2vs0mg"},{"bike_id":"39966bc7-f8b9-48ab-b29c-09c78d315320","system_id":"levelo_inurba_marseille","lat":43.315,"lon":5.373,"is_reserved":false,"is_disabled":false,"rental_uris":{"android":"levelo://app?vid=39966bc7-f8b9-48ab-b29c-09c78d315320","ios":"levelo://app?vid=39966bc7-f8b9-48ab-b29c-09c78d315320"},"vehicle_type_id":"4","last_reported":1766736959,"current_range_meters":11200,"station_id":"ce4bgt12rcd13ifvqcd0","pricing_plan_id":"cebpf4jnsgd1na2vs0mg"},{"bike_id":"f3c572ee-bcce-4a29-bb87-e3e0fc93a8f5","system_id":"levelo_inurba_marseille","lat":43.23167,"lon":5.43707,"is_reserved":false,"is_disabled":false,"rental_uris":{"android":"levelo://app?vid=f3c572ee-bcce-4a29-bb87-e3e0fc93a8f5","ios":"levelo://app?vid=f3c572ee-bcce-4a29-bb87-e3e0fc93a8f5"},"vehicle_type_id":"4","last_reported":1766736959,"current_range_meters":11200,"station_id":"ce4bhmp2rcd13ifvqgog","pricing_plan_id":"cebpf4jnsgd1na2vs0mg"},{"bike_id":"11b96d95-db94-4ba7-a910-7f426ab31499","system_id":"levelo_inurba_marseille","lat":43.28623,"lon":5.35108,"is_reserved":false,"is_disabled":false,"rental_uris":{"android":"levelo://app?vid=11b96d95-db94-4ba7-a910-7f426ab31499","ios":"levelo://app?vid=11b96d95-db94-4ba7-a910-7f426ab31499"},"vehicle_type_id":"4","last_reported":1766736959,"current_range_meters":11200,"station_id":"ce4bhch2rcd13ifvqeug","pricing_plan_id":"cebpf4jnsgd1na2vs0mg"},{"bike_id":"9c81df94-ad89-4a82-8039-89091e796765","system_id":"levelo_inurba_marseille","lat":43.25567,"lon":5.38228,"is_reserved":false,"is_disabled":false,"rental_uris":{"android":"levelo://app?vid=9c81df94-ad89-4a82-8039-89091e796765","ios":"levelo://app?vid=9c81df94-ad89-4a82-8039-89091e796765"},"vehicle_type_id":"4","last_reported":1766736959,"current_range_meters":11200,"station_id":"ce4bhih2rcd13ifvqfs0","pricing_plan_id":"cebpf4jnsgd1na2vs0mg"},{"bike_id":"87e0eab3-2b64-49f8-95ec-ad91fbb7b57d","system_id":"levelo_inurba_marseille","lat":43.29816,"lon":5.44061,"is_reserved":false,"is_disabled":false,"rental_uris":{"android":"levelo://app?vid=87e0eab3-2b64-49f8-95ec-ad91fbb7b57d","ios":"levelo://app?vid=87e0eab3-2b64-49f8-95ec-ad91fbb7b57d"},"vehicle_type_id":"4","last_reported":1766736959,"current_range_meters":11200,"station_id":"st_d3jp68qikq2c7381ktn0","pricing_plan_id":"cebpf4jnsgd1na2vs0mg"},{"bike_id":"b4f1806c-2979-4775-bc0b-6f76b0bbfa83","system_id":"levelo_inurba_marseille","lat":43.24167,"lon":5.36395,"is_reserved":false,"is_disabled":false,"rental_uris":{"android":"levelo://app?vid=b4f1806c-2979-4775-bc0b-6f76b0bbfa83","ios":"levelo://app?vid=b4f1806c-2979-4775-bc0b-6f76b0bbfa83"},"vehicle_type_id":"4","last_reported":1766736959,"current_range_meters":11200,"station_id":"cpo36qri1sfpv3e86is0","pricing_plan_id":"cebpf4jnsgd1na2vs0mg"},{"bike_id":"012e4dbf-241c-4b02-8202-54184ca6b026","system_id":"levelo_inurba_marseille","lat":43.288688,"lon":5.425175,"is_reserved":false,"is_disabled":false,"rental_uris":{"android":"levelo://app?vid=012e4dbf-241c-4b02-8202-54184ca6b026","ios":"levelo://app?vid=012e4dbf-241c-4b02-8202-54184ca6b026"},"vehicle_type_id":"4","last_reported":1766736959,"current_range_meters":11600,"station_id":"st_d3b462108ojc7389ooeg","pricing_plan_id":"cebpf4jnsgd1na2vs0mg"},{"bike_id":"09a3182b-d5c4-4432-853e-f33482eab2f6","system_id":"levelo_inurba_marseille","lat":43.29198,"lon":5.36055,"is_reserved":false,"is_disabled":false,"rental_uris":{"android":"levelo://app?vid=09a3182b-d5c4-4432-853e-f33482eab2f6","ios":"levelo://app?vid=09a3182b-d5c4-4432-853e-f33482eab2f6"},"vehicle_type_id":"4","last_reported":1766736959,"current_range_meters":11600,"station_id":"ce4bhbh2rcd13ifvqeqg","pricing_plan_id":"cebpf4jnsgd1na2vs0mg"},{"bike_id":"447434f3-9c25-465b-9306-ce93244239f8","system_id":"levelo_inurba_marseille","lat":43.29286,"lon":5.37451,"is_reserved":false,"is_disabled":false,"rental_uris":{"android":"levelo://app?vid=447434f3-9c25-465b-9306-ce93244239f8","ios":"levelo://app?vid=447434f3-9c25-465b-9306-ce93244239f8"},"vehicle_type_id":"4","last_reported":1766736959,"current_range_meters":11600,"station_id":"ce4bgi12rcd13ifvqb70","pricing_plan_id":"cebpf4jnsgd1na2vs0mg"},{"bike_id":"c50e4fb1-c9c1-4cf4-b2c9-4fe1971d7e6a","system_id":"levelo_inurba_marseille","lat":43.33532,"lon":5.37461,"is_reserved":false,"is_disabled":false,"rental_uris":{"android":"levelo://app?vid=c50e4fb1-c9c1-4cf4-b2c9-4fe1971d7e6a","ios":"levelo://app?vid=c50e4fb1-c9c1-4cf4-b2c9-4fe1971d7e6a"},"vehicle_type_id":"4","last_reported":1766736959,"current_range_meters":11600,"station_id":"st_d46tts09ee8s73dlu43g","pricing_plan_id":"cebpf4jnsgd1na2vs0mg"},{"bike_id":"d50867a0-a974-4546-a28c-eba4c2e0b399","system_id":"levelo_inurba_marseille","lat":43.23181,"lon":5.35566,"is_reserved":false,"is_disabled":false,"rental_uris":{"android":"levelo://app?vid=d50867a0-a974-4546-a28c-eba4c2e0b399","ios":"levelo://app?vid=d50867a0-a974-4546-a28c-eba4c2e0b399"},"vehicle_type_id":"4","last_reported":1766736959,"current_range_meters":11600,"station_id":"ce4bhu92rcd13ifvqi70","pricing_plan_id":"cebpf4jnsgd1na2vs0mg"},{"bike_id":"f256ec25-2194-4163-a44e-7edfc0222f9e","system_id":"levelo_inurba_marseille","lat":43.28467,"lon":5.38432,"is_reserved":false,"is_disabled":false,"rental_uris":{"android":"levelo://app?vid=f256ec25-2194-4163-a44e-7edfc0222f9e","ios":"levelo://app?vid=f256ec25-2194-4163-a44e-7edfc0222f9e"},"vehicle_type_id":"4","last_reported":1766736959,"current_range_meters":11600,"station_id":"ce4bh512rcd13ifvqe3g","pricing_plan_id":"cebpf4jnsgd1na2vs0mg"},{"bike_id":"c20fae26-1970-44b4-b66a-6ffb0cf0ac97","system_id":"levelo_inurba_marseille","lat":43.31579,"lon":5.40389,"is_reserved":false,"is_disabled":false,"rental_uris":{"android":"levelo://app?vid=c20fae26-1970-44b4-b66a-6ffb0cf0ac97","ios":"levelo://app?vid=c20fae26-1970-44b4-b66a-6ffb0cf0ac97"},"vehicle_type_id":"4","last_reported":1766736959,"current_range_meters":11600,"station_id":"","pricing_plan_id":"cebpf4jnsgd1na2vs0mg"},{"bike_id":"3b7b72b1-efcb-40f5-9767-0740b5192e70","system_id":"levelo_inurba_marseille","lat":43.29774,"lon":5.38102,"is_reserved":false,"is_disabled":false,"rental_uris":{"android":"levelo://app?vid=3b7b72b1-efcb-40f5-9767-0740b5192e70","ios":"levelo://app?vid=3b7b72b1-efcb-40f5-9767-0740b5192e70"},"vehicle_type_id":"4","last_reported":1766736959,"current_range_meters":12000,"station_id":"ce4bgip2rcd13ifvqbb0","pricing_plan_id":"cebpf4jnsgd1na2vs0mg"},{"bike_id":"ef46d490-e8a9-49ab-9cbc-1976dbc7b37b","system_id":"levelo_inurba_marseille","lat":43.30643,"lon":5.40107,"is_reserved":false,"is_disabled":false,"rental_uris":{"android":"levelo://app?vid=ef46d490-e8a9-49ab-9cbc-1976dbc7b37b","ios":"levelo://app?vid=ef46d490-e8a9-49ab-9cbc-1976dbc7b37b"},"vehicle_type_id":"4","last_reported":1766736959,"current_range_meters":12000,"station_id":"ce4bh112rcd13ifvqda0","pricing_plan_id":"cebpf4jnsgd1na2vs0mg"},{"bike_id":"29da013e-f676-4033-a45f-8d005e13e759","system_id":"levelo_inurba_marseille","lat":43.21197,"lon":5.35072,"is_reserved":false,"is_disabled":false,"rental_uris":{"android":"levelo://app?vid=29da013e-f676-4033-a45f-8d005e13e759","ios":"levelo://app?vid=29da013e-f676-4033-a45f-8d005e13e759"},"vehicle_type_id":"4","last_reported":1766736959,"current_range_meters":12000,"station_id":"st_cvj6sg6p6f1abm77japg","pricing_plan_id":"cebpf4jnsgd1na2vs0mg"},{"bike_id":"0d93cac9-2fdd-4dbf-b1ad-1c0d8c9236c4","system_id":"levelo_inurba_marseille","lat":43.26605,"lon":5.39383,"is_reserved":false,"is_disabled":false,"rental_uris":{"android":"levelo://app?vid=0d93cac9-2fdd-4dbf-b1ad-1c0d8c9236c4","ios":"levelo://app?vid=0d93cac9-2fdd-4dbf-b1ad-1c0d8c9236c4"},"vehicle_type_id":"4","last_reported":1766736959,"current_range_meters":12000,"station_id":"","pricing_plan_id":"cebpf4jnsgd1na2vs0mg"},{"bike_id":"300048cd-66a7-4281-97f3-57b101b2fe24","system_id":"levelo_inurba_marseille","lat":43.26205,"lon":5.37926,"is_reserved":false,"is_disabled":false,"rental_uris":{"android":"levelo://app?vid=300048cd-66a7-4281-97f3-57b101b2fe24","ios":"levelo://app?vid=300048cd-66a7-4281-97f3-57b101b2fe24"},"vehicle_type_id":"4","last_reported":1766736959,"current_range_meters":12000,"station_id":"ce4bhjp2rcd13ifvqg90","pricing_plan_id":"cebpf4jnsgd1na2vs0mg"},{"bike_id":"dca06b38-1d5c-45ec-9b7c-7c4249a5e972","system_id":"levelo_inurba_marseille","lat":43.3112,"lon":5.37767,"is_reserved":false,"is_disabled":false,"rental_uris":{"android":"levelo://app?vid=dca06b38-1d5c-45ec-9b7c-7c4249a5e972","ios":"levelo://app?vid=dca06b38-1d5c-45ec-9b7c-7c4249a5e972"},"vehicle_type_id":"4","last_reported":1766736959,"current_range_meters":12000,"station_id":"ce4bgt92rcd13ifvqcg0","pricing_plan_id":"cebpf4jnsgd1na2vs0mg"},{"bike_id":"0d9297ce-f2d0-4d3a-b34b-40c0d18a1dd9","system_id":"levelo_inurba_marseille","lat":43.229271,"lon":5.35374,"is_reserved":false,"is_disabled":true,"rental_uris":{"android":"levelo://app?vid=0d9297ce-f2d0-4d3a-b34b-40c0d18a1dd9","ios":"levelo://app?vid=0d9297ce-f2d0-4d3a-b34b-40c0d18a1dd9"},"vehicle_type_id":"4","last_reported":1766736959,"current_range_meters":12000,"station_id":"cpo3532slgdg3j2ikp40","pricing_plan_id":"cebpf4jnsgd1na2vs0mg"},{"bike_id":"f19865c5-a947-4888-ba03-5ff76ba57faf","system_id":"levelo_inurba_marseille","lat":43.2848,"lon":5.48392,"is_reserved":false,"is_disabled":false,"rental_uris":{"android":"levelo://app?vid=f19865c5-a947-4888-ba03-5ff76ba57faf","ios":"levelo://app?vid=f19865c5-a947-4888-ba03-5ff76ba57faf"},"vehicle_type_id":"4","last_reported":1766736959,"current_range_meters":12000,"station_id":"st_d3svhcjqgbts73a3dn0g","pricing_plan_id":"cebpf4jnsgd1na2vs0mg"},{"bike_id":"08aab02f-4102-499f-a5bb-5d8e2000a0dd","system_id":"levelo_inurba_marseille","lat":43.29826,"lon":5.37068,"is_reserved":false,"is_disabled":false,"rental_uris":{"android":"levelo://app?vid=08aab02f-4102-499f-a5bb-5d8e2000a0dd","ios":"levelo://app?vid=08aab02f-4102-499f-a5bb-5d8e2000a0dd"},"vehicle_type_id":"4","last_reported":1766736959,"current_range_meters":12000,"station_id":"","pricing_plan_id":"cebpf4jnsgd1na2vs0mg"},{"bike_id":"e48135b7-c6b5-4969-b3df-0e90fd7856e0","system_id":"levelo_inurba_marseille","lat":43.317191,"lon":5.404478,"is_reserved":false,"is_disabled":false,"rental_uris":{"android":"levelo://app?vid=e48135b7-c6b5-4969-b3df-0e90fd7856e0","ios":"levelo://app?vid=e48135b7-c6b5-4969-b3df-0e90fd7856e0"},"vehicle_type_id":"4","last_reported":1766736959,"current_range_meters":12000,"station_id":"ce4bh012rcd13ifvqd00","pricing_plan_id":"cebpf4jnsgd1na2vs0mg"},{"bike_id":"86284fb7-5835-44ae-94b2-d966da387e85","system_id":"levelo_inurba_marseille","lat":43.27201,"lon":5.39179,"is_reserved":false,"is_disabled":false,"rental_uris":{"android":"levelo://app?vid=86284fb7-5835-44ae-94b2-d966da387e85","ios":"levelo://app?vid=86284fb7-5835-44ae-94b2-d966da387e85"},"vehicle_type_id":"4","last_reported":1766736959,"current_range_meters":12000,"station_id":"ce4bhhp2rcd13ifvqfm0","pricing_plan_id":"cebpf4jnsgd1na2vs0mg"},{"bike_id":"6232a3d4-c6c0-4862-be09-26e8984f5990","system_id":"levelo_inurba_marseille","lat":43.29529,"lon":5.39045,"is_reserved":false,"is_disabled":false,"rental_uris":{"android":"levelo://app?vid=6232a3d4-c6c0-4862-be09-26e8984f5990","ios":"levelo://app?vid=6232a3d4-c6c0-4862-be09-26e8984f5990"},"vehicle_type_id":"4","last_reported":1766736959,"current_range_meters":12400,"station_id":"ce4bh3p2rcd13ifvqdp0","pricing_plan_id":"cebpf4jnsgd1na2vs0mg"},{"bike_id":"eb9477b6-c558-420c-8bd0-3c2d1005fc16","system_id":"levelo_inurba_marseille","lat":43.313638,"lon":5.385001,"is_reserved":false,"is_disabled":false,"rental_uris":{"android":"levelo://app?vid=eb9477b6-c558-420c-8bd0-3c2d1005fc16","ios":"levelo://app?vid=eb9477b6-c558-420c-8bd0-3c2d1005fc16"},"vehicle_type_id":"4","last_reported":1766736959,"current_range_meters":12400,"station_id":"ce4bgt92rcd13ifvqcf0","pricing_plan_id":"cebpf4jnsgd1na2vs0mg"},{"bike_id":"e280cdc1-d94f-41da-8c4d-62913f566082","system_id":"levelo_inurba_marseille","lat":43.28085,"lon":5.39659,"is_reserved":false,"is_disabled":false,"rental_uris":{"android":"levelo://app?vid=e280cdc1-d94f-41da-8c4d-62913f566082","ios":"levelo://app?vid=e280cdc1-d94f-41da-8c4d-62913f566082"},"vehicle_type_id":"4","last_reported":1766736959,"current_range_meters":12400,"station_id":"ce4bho12rcd13ifvqh2g","pricing_plan_id":"cebpf4jnsgd1na2vs0mg"},{"bike_id":"c0824251-e46a-4677-82a7-906916e75fa9","system_id":"levelo_inurba_marseille","lat":43.337444,"lon":5.374475,"is_reserved":false,"is_disabled":false,"rental_uris":{"android":"levelo://app?vid=c0824251-e46a-4677-82a7-906916e75fa9","ios":"levelo://app?vid=c0824251-e46a-4677-82a7-906916e75fa9"},"vehicle_type_id":"4","last_reported":1766736959,"current_range_meters":12400,"station_id":"","pricing_plan_id":"cebpf4jnsgd1na2vs0mg"},{"bike_id":"8fd45039-d276-432a-8d29-af3ac0258889","system_id":"levelo_inurba_marseille","lat":43.22939,"lon":5.3538,"is_reserved":false,"is_disabled":false,"rental_uris":{"android":"levelo://app?vid=8fd45039-d276-432a-8d29-af3ac0258889","ios":"levelo://app?vid=8fd45039-d276-432a-8d29-af3ac0258889"},"vehicle_type_id":"4","last_reported":1766736959,"current_range_meters":12400,"station_id":"cpo3532slgdg3j2ikp40","pricing_plan_id":"cebpf4jnsgd1na2vs0mg"},{"bike_id":"13438407-f125-4570-ba26-f250d9aca7ae","system_id":"levelo_inurba_marseille","lat":43.31145,"lon":5.38709,"is_reserved":false,"is_disabled":false,"rental_uris":{"android":"levelo://app?vid=13438407-f125-4570-ba26-f250d9aca7ae","ios":"levelo://app?vid=13438407-f125-4570-ba26-f250d9aca7ae"},"vehicle_type_id":"4","last_reported":1766736959,"current_range_meters":12400,"station_id":"ce4bgv12rcd13ifvqcp0","pricing_plan_id":"cebpf4jnsgd1na2vs0mg"},{"bike_id":"9daf6700-a4ad-4e15-880a-e9c5f09a8937","system_id":"levelo_inurba_marseille","lat":43.32359,"lon":5.36781,"is_reserved":false,"is_disabled":false,"rental_uris":{"android":"levelo://app?vid=9daf6700-a4ad-4e15-880a-e9c5f09a8937","ios":"levelo://app?vid=9daf6700-a4ad-4e15-880a-e9c5f09a8937"},"vehicle_type_id":"4","last_reported":1766736959,"current_range_meters":12400,"station_id":"ce4bhsh2rcd13ifvqi2g","pricing_plan_id":"cebpf4jnsgd1na2vs0mg"},{"bike_id":"03b37a14-2fc5-49f4-aa2c-73763a1edb41","system_id":"levelo_inurba_marseille","lat":43.29266,"lon":5.37617,"is_reserved":false,"is_disabled":false,"rental_uris":{"android":"levelo://app?vid=03b37a14-2fc5-49f4-aa2c-73763a1edb41","ios":"levelo://app?vid=03b37a14-2fc5-49f4-aa2c-73763a1edb41"},"vehicle_type_id":"4","last_reported":1766736959,"current_range_meters":12400,"station_id":"ce4bgi12rcd13ifvqb80","pricing_plan_id":"cebpf4jnsgd1na2vs0mg"},{"bike_id":"dd32b489-b8e8-4390-a551-83cef46fccb1","system_id":"levelo_inurba_marseille","lat":43.309586,"lon":5.390218,"is_reserved":false,"is_disabled":false,"rental_uris":{"android":"levelo://app?vid=dd32b489-b8e8-4390-a551-83cef46fccb1","ios":"levelo://app?vid=dd32b489-b8e8-4390-a551-83cef46fccb1"},"vehicle_type_id":"4","last_reported":1766736959,"current_range_meters":12800,"station_id":"ce4bgup2rcd13ifvqco0","pricing_plan_id":"cebpf4jnsgd1na2vs0mg"},{"bike_id":"c8258350-2015-4491-8c5b-40da9e659c5c","system_id":"levelo_inurba_marseille","lat":43.25858,"lon":5.39902,"is_reserved":false,"is_disabled":false,"rental_uris":{"android":"levelo://app?vid=c8258350-2015-4491-8c5b-40da9e659c5c","ios":"levelo://app?vid=c8258350-2015-4491-8c5b-40da9e659c5c"},"vehicle_type_id":"4","last_reported":1766736959,"current_range_meters":12800,"station_id":"ce4bhl92rcd13ifvqghg","pricing_plan_id":"cebpf4jnsgd1na2vs0mg"},{"bike_id":"26707781-8c4d-45fb-abb8-9784fa4796ac","system_id":"levelo_inurba_marseille","lat":43.32372,"lon":5.36761,"is_reserved":false,"is_disabled":false,"rental_uris":{"android":"levelo://app?vid=26707781-8c4d-45fb-abb8-9784fa4796ac","ios":"levelo://app?vid=26707781-8c4d-45fb-abb8-9784fa4796ac"},"vehicle_type_id":"4","last_reported":1766736959,"current_range_meters":12800,"station_id":"ce4bhsh2rcd13ifvqi2g","pricing_plan_id":"cebpf4jnsgd1na2vs0mg"},{"bike_id":"6af309a2-8f26-4463-a2f8-b68c7d811285","system_id":"levelo_inurba_marseille","lat":43.30905,"lon":5.3745,"is_reserved":false,"is_disabled":false,"rental_uris":{"android":"levelo://app?vid=6af309a2-8f26-4463-a2f8-b68c7d811285","ios":"levelo://app?vid=6af309a2-8f26-4463-a2f8-b68c7d811285"},"vehicle_type_id":"4","last_reported":1766736959,"current_range_meters":12800,"station_id":"","pricing_plan_id":"cebpf4jnsgd1na2vs0mg"},{"bike_id":"8f4e96af-1354-40d1-8e19-779dda90a962","system_id":"levelo_inurba_marseille","lat":43.29848,"lon":5.3629,"is_reserved":false,"is_disabled":false,"rental_uris":{"android":"levelo://app?vid=8f4e96af-1354-40d1-8e19-779dda90a962","ios":"levelo://app?vid=8f4e96af-1354-40d1-8e19-779dda90a962"},"vehicle_type_id":"4","last_reported":1766736959,"current_range_meters":12800,"station_id":"ce4bgpp2rcd13ifvqc3g","pricing_plan_id":"cebpf4jnsgd1na2vs0mg"},{"bike_id":"c19ba92b-ab22-41c2-8a3c-9b1c534f0f04","system_id":"levelo_inurba_marseille","lat":43.25867,"lon":5.39896,"is_reserved":false,"is_disabled":false,"rental_uris":{"android":"levelo://app?vid=c19ba92b-ab22-41c2-8a3c-9b1c534f0f04","ios":"levelo://app?vid=c19ba92b-ab22-41c2-8a3c-9b1c534f0f04"},"vehicle_type_id":"4","last_reported":1766736959,"current_range_meters":12800,"station_id":"ce4bhl92rcd13ifvqghg","pricing_plan_id":"cebpf4jnsgd1na2vs0mg"},{"bike_id":"14ffe5e2-50b3-4407-ab72-7fbc2057238e","system_id":"levelo_inurba_marseille","lat":43.2668,"lon":5.38279,"is_reserved":false,"is_disabled":false,"rental_uris":{"android":"levelo://app?vid=14ffe5e2-50b3-4407-ab72-7fbc2057238e","ios":"levelo://app?vid=14ffe5e2-50b3-4407-ab72-7fbc2057238e"},"vehicle_type_id":"4","last_reported":1766736959,"current_range_meters":12800,"station_id":"ce4bhg92rcd13ifvqf90","pricing_plan_id":"cebpf4jnsgd1na2vs0mg"},{"bike_id":"4a684cd5-92a5-49be-b5f5-7b92d82a52e2","system_id":"levelo_inurba_marseille","lat":43.31356,"lon":5.38503,"is_reserved":false,"is_disabled":false,"rental_uris":{"android":"levelo://app?vid=4a684cd5-92a5-49be-b5f5-7b92d82a52e2","ios":"levelo://app?vid=4a684cd5-92a5-49be-b5f5-7b92d82a52e2"},"vehicle_type_id":"4","last_reported":1766736959,"current_range_meters":12800,"station_id":"ce4bgt92rcd13ifvqcf0","pricing_plan_id":"cebpf4jnsgd1na2vs0mg"},{"bike_id":"6b3a677e-b729-4912-b11c-e7963754eb34","system_id":"levelo_inurba_marseille","lat":43.24383,"lon":5.370527,"is_reserved":false,"is_disabled":false,"rental_uris":{"android":"levelo://app?vid=6b3a677e-b729-4912-b11c-e7963754eb34","ios":"levelo://app?vid=6b3a677e-b729-4912-b11c-e7963754eb34"},"vehicle_type_id":"4","last_reported":1766736959,"current_range_meters":12800,"station_id":"","pricing_plan_id":"cebpf4jnsgd1na2vs0mg"},{"bike_id":"7949dd14-7af0-4592-9cce-8e34ef65c2a8","system_id":"levelo_inurba_marseille","lat":43.29762,"lon":5.42778,"is_reserved":false,"is_disabled":false,"rental_uris":{"android":"levelo://app?vid=7949dd14-7af0-4592-9cce-8e34ef65c2a8","ios":"levelo://app?vid=7949dd14-7af0-4592-9cce-8e34ef65c2a8"},"vehicle_type_id":"4","last_reported":1766736959,"current_range_meters":12800,"station_id":"st_d3md5207bmas73dh9klg","pricing_plan_id":"cebpf4jnsgd1na2vs0mg"},{"bike_id":"a2a1337d-ec9d-4b6b-9079-4ec62e407cf1","system_id":"levelo_inurba_marseille","lat":43.29915,"lon":5.37496,"is_reserved":false,"is_disabled":false,"rental_uris":{"android":"levelo://app?vid=a2a1337d-ec9d-4b6b-9079-4ec62e407cf1","ios":"levelo://app?vid=a2a1337d-ec9d-4b6b-9079-4ec62e407cf1"},"vehicle_type_id":"4","last_reported":1766736959,"current_range_meters":12800,"station_id":"ce4bgjh2rcd13ifvqbg0","pricing_plan_id":"cebpf4jnsgd1na2vs0mg"},{"bike_id":"ae67a3e8-7c2d-4924-a931-a39dc78184b8","system_id":"levelo_inurba_marseille","lat":43.28277,"lon":5.35065,"is_reserved":false,"is_disabled":false,"rental_uris":{"android":"levelo://app?vid=ae67a3e8-7c2d-4924-a931-a39dc78184b8","ios":"levelo://app?vid=ae67a3e8-7c2d-4924-a931-a39dc78184b8"},"vehicle_type_id":"4","last_reported":1766736959,"current_range_meters":12800,"station_id":"ce4bhbp2rcd13ifvqerg","pricing_plan_id":"cebpf4jnsgd1na2vs0mg"},{"bike_id":"1498f079-e300-4265-837b-8da7d97aca06","system_id":"levelo_inurba_marseille","lat":43.24147,"lon":5.36437,"is_reserved":false,"is_disabled":false,"rental_uris":{"android":"levelo://app?vid=1498f079-e300-4265-837b-8da7d97aca06","ios":"levelo://app?vid=1498f079-e300-4265-837b-8da7d97aca06"},"vehicle_type_id":"4","last_reported":1766736959,"current_range_meters":12800,"station_id":"cpo36qri1sfpv3e86is0","pricing_plan_id":"cebpf4jnsgd1na2vs0mg"},{"bike_id":"bdf61926-de40-4a9b-b98a-a989792c537a","system_id":"levelo_inurba_marseille","lat":43.28482,"lon":5.48403,"is_reserved":false,"is_disabled":false,"rental_uris":{"android":"levelo://app?vid=bdf61926-de40-4a9b-b98a-a989792c537a","ios":"levelo://app?vid=bdf61926-de40-4a9b-b98a-a989792c537a"},"vehicle_type_id":"4","last_reported":1766736959,"current_range_meters":12800,"station_id":"st_d3svhcjqgbts73a3dn0g","pricing_plan_id":"cebpf4jnsgd1na2vs0mg"},{"bike_id":"ca48d4ad-26ca-4dea-a200-be3e43176f3f","system_id":"levelo_inurba_marseille","lat":43.33181,"lon":5.41322,"is_reserved":false,"is_disabled":false,"rental_uris":{"android":"levelo://app?vid=ca48d4ad-26ca-4dea-a200-be3e43176f3f","ios":"levelo://app?vid=ca48d4ad-26ca-4dea-a200-be3e43176f3f"},"vehicle_type_id":"4","last_reported":1766736959,"current_range_meters":12800,"station_id":"","pricing_plan_id":"cebpf4jnsgd1na2vs0mg"},{"bike_id":"1f45b2b1-d2e0-4187-926d-9979c716f8a5","system_id":"levelo_inurba_marseille","lat":43.25079,"lon":5.40447,"is_reserved":false,"is_disabled":false,"rental_uris":{"android":"levelo://app?vid=1f45b2b1-d2e0-4187-926d-9979c716f8a5","ios":"levelo://app?vid=1f45b2b1-d2e0-4187-926d-9979c716f8a5"},"vehicle_type_id":"4","last_reported":1766736959,"current_range_meters":12800,"station_id":"st_d2ngiaodas8pm72gd1h0","pricing_plan_id":"cebpf4jnsgd1na2vs0mg"},{"bike_id":"e3d32b5a-ba62-4be2-9752-ef74e3c64ca7","system_id":"levelo_inurba_marseille","lat":43.28517,"lon":5.48361,"is_reserved":false,"is_disabled":false,"rental_uris":{"android":"levelo://app?vid=e3d32b5a-ba62-4be2-9752-ef74e3c64ca7","ios":"levelo://app?vid=e3d32b5a-ba62-4be2-9752-ef74e3c64ca7"},"vehicle_type_id":"4","last_reported":1766736959,"current_range_meters":12800,"station_id":"st_d3svhcjqgbts73a3dn0g","pricing_plan_id":"cebpf4jnsgd1na2vs0mg"},{"bike_id":"4922a909-aba5-4db6-be8c-34953acba7ab","system_id":"levelo_inurba_marseille","lat":43.316501,"lon":5.423981,"is_reserved":false,"is_disabled":false,"rental_uris":{"android":"levelo://app?vid=4922a909-aba5-4db6-be8c-34953acba7ab","ios":"levelo://app?vid=4922a909-aba5-4db6-be8c-34953acba7ab"},"vehicle_type_id":"4","last_reported":1766736959,"current_range_meters":12800,"station_id":"ce4bhp92rcd13ifvqhbg","pricing_plan_id":"cebpf4jnsgd1na2vs0mg"},{"bike_id":"c025d64d-a0e6-447b-adf7-fc8bb4547a1c","system_id":"levelo_inurba_marseille","lat":43.29389,"lon":5.37613,"is_reserved":false,"is_disabled":false,"rental_uris":{"android":"levelo://app?vid=c025d64d-a0e6-447b-adf7-fc8bb4547a1c","ios":"levelo://app?vid=c025d64d-a0e6-447b-adf7-fc8bb4547a1c"},"vehicle_type_id":"4","last_reported":1766736959,"current_range_meters":12800,"station_id":"","pricing_plan_id":"cebpf4jnsgd1na2vs0mg"},{"bike_id":"5bd98b9f-31dd-4bcd-8083-4901f3ead05e","system_id":"levelo_inurba_marseille","lat":43.29475,"lon":5.43325,"is_reserved":false,"is_disabled":false,"rental_uris":{"android":"levelo://app?vid=5bd98b9f-31dd-4bcd-8083-4901f3ead05e","ios":"levelo://app?vid=5bd98b9f-31dd-4bcd-8083-4901f3ead05e"},"vehicle_type_id":"4","last_reported":1766736959,"current_range_meters":13600,"station_id":"st_d3j5ugp08ojc73fj9d10","pricing_plan_id":"cebpf4jnsgd1na2vs0mg"},{"bike_id":"2d860b81-0081-47f0-80fb-7e4c62824916","system_id":"levelo_inurba_marseille","lat":43.301243,"lon":5.431139,"is_reserved":false,"is_disabled":false,"rental_uris":{"android":"levelo://app?vid=2d860b81-0081-47f0-80fb-7e4c62824916","ios":"levelo://app?vid=2d860b81-0081-47f0-80fb-7e4c62824916"},"vehicle_type_id":"4","last_reported":1766736959,"current_range_meters":13600,"station_id":"st_d3js3co5814s73ftftug","pricing_plan_id":"cebpf4jnsgd1na2vs0mg"},{"bike_id":"76589e41-488c-40ee-9ecd-c2c6fe69753a","system_id":"levelo_inurba_marseille","lat":43.22921,"lon":5.3539,"is_reserved":false,"is_disabled":false,"rental_uris":{"android":"levelo://app?vid=76589e41-488c-40ee-9ecd-c2c6fe69753a","ios":"levelo://app?vid=76589e41-488c-40ee-9ecd-c2c6fe69753a"},"vehicle_type_id":"4","last_reported":1766736959,"current_range_meters":13600,"station_id":"cpo3532slgdg3j2ikp40","pricing_plan_id":"cebpf4jnsgd1na2vs0mg"},{"bike_id":"e486282f-d5dc-4012-b26a-d96e5d7ae0b7","system_id":"levelo_inurba_marseille","lat":43.325361,"lon":5.414272,"is_reserved":false,"is_disabled":false,"rental_uris":{"android":"levelo://app?vid=e486282f-d5dc-4012-b26a-d96e5d7ae0b7","ios":"levelo://app?vid=e486282f-d5dc-4012-b26a-d96e5d7ae0b7"},"vehicle_type_id":"4","last_reported":1766736959,"current_range_meters":13600,"station_id":"ce4bhq12rcd13ifvqhhg","pricing_plan_id":"cebpf4jnsgd1na2vs0mg"},{"bike_id":"43676b82-0734-4586-87a3-80d000ff84aa","system_id":"levelo_inurba_marseille","lat":43.29264,"lon":5.36857,"is_reserved":false,"is_disabled":false,"rental_uris":{"android":"levelo://app?vid=43676b82-0734-4586-87a3-80d000ff84aa","ios":"levelo://app?vid=43676b82-0734-4586-87a3-80d000ff84aa"},"vehicle_type_id":"4","last_reported":1766736959,"current_range_meters":13600,"station_id":"ce4bhbp2rcd13ifvqesg","pricing_plan_id":"cebpf4jnsgd1na2vs0mg"},{"bike_id":"652999ae-9f9a-402a-99d5-f3ed10a5e186","system_id":"levelo_inurba_marseille","lat":43.32107,"lon":5.36766,"is_reserved":false,"is_disabled":false,"rental_uris":{"android":"levelo://app?vid=652999ae-9f9a-402a-99d5-f3ed10a5e186","ios":"levelo://app?vid=652999ae-9f9a-402a-99d5-f3ed10a5e186"},"vehicle_type_id":"4","last_reported":1766736959,"current_range_meters":13600,"station_id":"ce4bhrh2rcd13ifvqhug","pricing_plan_id":"cebpf4jnsgd1na2vs0mg"},{"bike_id":"b0a8d43d-7f70-479d-bf79-42c0d0b373ac","system_id":"levelo_inurba_marseille","lat":43.29745,"lon":5.42777,"is_reserved":false,"is_disabled":false,"rental_uris":{"android":"levelo://app?vid=b0a8d43d-7f70-479d-bf79-42c0d0b373ac","ios":"levelo://app?vid=b0a8d43d-7f70-479d-bf79-42c0d0b373ac"},"vehicle_type_id":"4","last_reported":1766736959,"current_range_meters":13600,"station_id":"st_d3md5207bmas73dh9klg","pricing_plan_id":"cebpf4jnsgd1na2vs0mg"},{"bike_id":"7f2c7147-704a-4c2a-8d1d-b9b95038a8ea","system_id":"levelo_inurba_marseille","lat":43.32107,"lon":5.36775,"is_reserved":false,"is_disabled":false,"rental_uris":{"android":"levelo://app?vid=7f2c7147-704a-4c2a-8d1d-b9b95038a8ea","ios":"levelo://app?vid=7f2c7147-704a-4c2a-8d1d-b9b95038a8ea"},"vehicle_type_id":"4","last_reported":1766736959,"current_range_meters":13600,"station_id":"ce4bhrh2rcd13ifvqhug","pricing_plan_id":"cebpf4jnsgd1na2vs0mg"},{"bike_id":"487c638e-4b34-412c-a7ab-c82b1eb209db","system_id":"levelo_inurba_marseille","lat":43.31682,"lon":5.39631,"is_reserved":false,"is_disabled":false,"rental_uris":{"android":"levelo://app?vid=487c638e-4b34-412c-a7ab-c82b1eb209db","ios":"levelo://app?vid=487c638e-4b34-412c-a7ab-c82b1eb209db"},"vehicle_type_id":"4","last_reported":1766736959,"current_range_meters":13600,"station_id":"","pricing_plan_id":"cebpf4jnsgd1na2vs0mg"},{"bike_id":"4e68cd0f-2fc9-4a00-9e63-03ab87d096ee","system_id":"levelo_inurba_marseille","lat":43.23183,"lon":5.39979,"is_reserved":false,"is_disabled":false,"rental_uris":{"android":"levelo://app?vid=4e68cd0f-2fc9-4a00-9e63-03ab87d096ee","ios":"levelo://app?vid=4e68cd0f-2fc9-4a00-9e63-03ab87d096ee"},"vehicle_type_id":"4","last_reported":1766736959,"current_range_meters":13600,"station_id":"ce4bhn12rcd13ifvqgqg","pricing_plan_id":"cebpf4jnsgd1na2vs0mg"},{"bike_id":"e803cd97-34ef-43a6-8aff-b0a6592d5d67","system_id":"levelo_inurba_marseille","lat":43.2648,"lon":5.39575,"is_reserved":false,"is_disabled":false,"rental_uris":{"android":"levelo://app?vid=e803cd97-34ef-43a6-8aff-b0a6592d5d67","ios":"levelo://app?vid=e803cd97-34ef-43a6-8aff-b0a6592d5d67"},"vehicle_type_id":"4","last_reported":1766736959,"current_range_meters":13600,"station_id":"ce4bhi12rcd13ifvqfq0","pricing_plan_id":"cebpf4jnsgd1na2vs0mg"},{"bike_id":"4b4ed8e9-5930-45de-adb9-d6e8e8857974","system_id":"levelo_inurba_marseille","lat":43.231823,"lon":5.39986,"is_reserved":false,"is_disabled":false,"rental_uris":{"android":"levelo://app?vid=4b4ed8e9-5930-45de-adb9-d6e8e8857974","ios":"levelo://app?vid=4b4ed8e9-5930-45de-adb9-d6e8e8857974"},"vehicle_type_id":"4","last_reported":1766736959,"current_range_meters":13600,"station_id":"","pricing_plan_id":"cebpf4jnsgd1na2vs0mg"},{"bike_id":"b98c4bb3-e84f-4703-8006-455cb12ed450","system_id":"levelo_inurba_marseille","lat":43.28815,"lon":5.42628,"is_reserved":false,"is_disabled":false,"rental_uris":{"android":"levelo://app?vid=b98c4bb3-e84f-4703-8006-455cb12ed450","ios":"levelo://app?vid=b98c4bb3-e84f-4703-8006-455cb12ed450"},"vehicle_type_id":"4","last_reported":1766736959,"current_range_meters":13600,"station_id":"","pricing_plan_id":"cebpf4jnsgd1na2vs0mg"},{"bike_id":"4d8b3b73-f536-4285-8cbd-381bc549e186","system_id":"levelo_inurba_marseille","lat":43.31227,"lon":5.36851,"is_reserved":false,"is_disabled":false,"rental_uris":{"android":"levelo://app?vid=4d8b3b73-f536-4285-8cbd-381bc549e186","ios":"levelo://app?vid=4d8b3b73-f536-4285-8cbd-381bc549e186"},"vehicle_type_id":"4","last_reported":1766736959,"current_range_meters":13600,"station_id":"ce4bgl92rcd13ifvqbq0","pricing_plan_id":"cebpf4jnsgd1na2vs0mg"},{"bike_id":"28d36d66-e4d6-4e13-a6c5-33e9d81e47d2","system_id":"levelo_inurba_marseille","lat":43.31703,"lon":5.40455,"is_reserved":false,"is_disabled":false,"rental_uris":{"android":"levelo://app?vid=28d36d66-e4d6-4e13-a6c5-33e9d81e47d2","ios":"levelo://app?vid=28d36d66-e4d6-4e13-a6c5-33e9d81e47d2"},"vehicle_type_id":"4","last_reported":1766736959,"current_range_meters":14000,"station_id":"ce4bh012rcd13ifvqd00","pricing_plan_id":"cebpf4jnsgd1na2vs0mg"},{"bike_id":"0e9ec83d-aae8-4867-ba01-a246e4728251","system_id":"levelo_inurba_marseille","lat":43.26235,"lon":5.37427,"is_reserved":false,"is_disabled":false,"rental_uris":{"android":"levelo://app?vid=0e9ec83d-aae8-4867-ba01-a246e4728251","ios":"levelo://app?vid=0e9ec83d-aae8-4867-ba01-a246e4728251"},"vehicle_type_id":"4","last_reported":1766736959,"current_range_meters":14000,"station_id":"ce4bhgp2rcd13ifvqfc0","pricing_plan_id":"cebpf4jnsgd1na2vs0mg"},{"bike_id":"d031320b-e967-449d-99d4-420c8de16ac8","system_id":"levelo_inurba_marseille","lat":43.28948,"lon":5.3962,"is_reserved":false,"is_disabled":false,"rental_uris":{"android":"levelo://app?vid=d031320b-e967-449d-99d4-420c8de16ac8","ios":"levelo://app?vid=d031320b-e967-449d-99d4-420c8de16ac8"},"vehicle_type_id":"4","last_reported":1766736959,"current_range_meters":14000,"station_id":"ce4bh3h2rcd13ifvqdn0","pricing_plan_id":"cebpf4jnsgd1na2vs0mg"},{"bike_id":"467517c8-ed87-4e02-bef8-4ed63963538d","system_id":"levelo_inurba_marseille","lat":43.27192,"lon":5.4099,"is_reserved":false,"is_disabled":false,"rental_uris":{"android":"levelo://app?vid=467517c8-ed87-4e02-bef8-4ed63963538d","ios":"levelo://app?vid=467517c8-ed87-4e02-bef8-4ed63963538d"},"vehicle_type_id":"4","last_reported":1766736959,"current_range_meters":14000,"station_id":"ce4bhl12rcd13ifvqgf0","pricing_plan_id":"cebpf4jnsgd1na2vs0mg"},{"bike_id":"26f6d6a5-5821-4875-a164-33d619759de8","system_id":"levelo_inurba_marseille","lat":43.241633,"lon":5.363961,"is_reserved":false,"is_disabled":false,"rental_uris":{"android":"levelo://app?vid=26f6d6a5-5821-4875-a164-33d619759de8","ios":"levelo://app?vid=26f6d6a5-5821-4875-a164-33d619759de8"},"vehicle_type_id":"4","last_reported":1766736959,"current_range_meters":14000,"station_id":"cpo36qri1sfpv3e86is0","pricing_plan_id":"cebpf4jnsgd1na2vs0mg"},{"bike_id":"5ddb73b6-6e51-4368-b931-2747f5c96c56","system_id":"levelo_inurba_marseille","lat":43.21741,"lon":5.34599,"is_reserved":false,"is_disabled":false,"rental_uris":{"android":"levelo://app?vid=5ddb73b6-6e51-4368-b931-2747f5c96c56","ios":"levelo://app?vid=5ddb73b6-6e51-4368-b931-2747f5c96c56"},"vehicle_type_id":"4","last_reported":1766736959,"current_range_meters":14000,"station_id":"st_cvj6r9ubvosntc0bgbag","pricing_plan_id":"cebpf4jnsgd1na2vs0mg"},{"bike_id":"8521716e-4e10-40b3-ad64-93efa3eb2e75","system_id":"levelo_inurba_marseille","lat":43.23201,"lon":5.35549,"is_reserved":false,"is_disabled":false,"rental_uris":{"android":"levelo://app?vid=8521716e-4e10-40b3-ad64-93efa3eb2e75","ios":"levelo://app?vid=8521716e-4e10-40b3-ad64-93efa3eb2e75"},"vehicle_type_id":"4","last_reported":1766736959,"current_range_meters":14000,"station_id":"ce4bhu92rcd13ifvqi70","pricing_plan_id":"cebpf4jnsgd1na2vs0mg"},{"bike_id":"7bcb72d6-003c-4a8f-bd5c-ddbf6d27010e","system_id":"levelo_inurba_marseille","lat":43.26573,"lon":5.39018,"is_reserved":false,"is_disabled":false,"rental_uris":{"android":"levelo://app?vid=7bcb72d6-003c-4a8f-bd5c-ddbf6d27010e","ios":"levelo://app?vid=7bcb72d6-003c-4a8f-bd5c-ddbf6d27010e"},"vehicle_type_id":"4","last_reported":1766736959,"current_range_meters":14000,"station_id":"ce4bhe12rcd13ifvqf30","pricing_plan_id":"cebpf4jnsgd1na2vs0mg"},{"bike_id":"bfbac5d5-ee1d-4485-851b-815726cd1e57","system_id":"levelo_inurba_marseille","lat":43.32046,"lon":5.41512,"is_reserved":false,"is_disabled":false,"rental_uris":{"android":"levelo://app?vid=bfbac5d5-ee1d-4485-851b-815726cd1e57","ios":"levelo://app?vid=bfbac5d5-ee1d-4485-851b-815726cd1e57"},"vehicle_type_id":"4","last_reported":1766736959,"current_range_meters":14000,"station_id":"ce4bhq92rcd13ifvqhkg","pricing_plan_id":"cebpf4jnsgd1na2vs0mg"},{"bike_id":"97c84c2d-14b1-4de2-9858-fa401d4aa133","system_id":"levelo_inurba_marseille","lat":43.244672,"lon":5.425315,"is_reserved":false,"is_disabled":false,"rental_uris":{"android":"levelo://app?vid=97c84c2d-14b1-4de2-9858-fa401d4aa133","ios":"levelo://app?vid=97c84c2d-14b1-4de2-9858-fa401d4aa133"},"vehicle_type_id":"4","last_reported":1766736959,"current_range_meters":14000,"station_id":"st_d4a3vfp97mjs738cd8kg","pricing_plan_id":"cebpf4jnsgd1na2vs0mg"},{"bike_id":"1f8985bb-771f-47f2-8a22-198eab5159d6","system_id":"levelo_inurba_marseille","lat":43.27309,"lon":5.39118,"is_reserved":false,"is_disabled":false,"rental_uris":{"android":"levelo://app?vid=1f8985bb-771f-47f2-8a22-198eab5159d6","ios":"levelo://app?vid=1f8985bb-771f-47f2-8a22-198eab5159d6"},"vehicle_type_id":"4","last_reported":1766736959,"current_range_meters":14000,"station_id":"ce4bhgp2rcd13ifvqfe0","pricing_plan_id":"cebpf4jnsgd1na2vs0mg"},{"bike_id":"0d4effb5-b7b9-4b22-b0ef-fcc99085e415","system_id":"levelo_inurba_marseille","lat":43.29491,"lon":5.43296,"is_reserved":false,"is_disabled":false,"rental_uris":{"android":"levelo://app?vid=0d4effb5-b7b9-4b22-b0ef-fcc99085e415","ios":"levelo://app?vid=0d4effb5-b7b9-4b22-b0ef-fcc99085e415"},"vehicle_type_id":"4","last_reported":1766736959,"current_range_meters":14000,"station_id":"st_d3j5ugp08ojc73fj9d10","pricing_plan_id":"cebpf4jnsgd1na2vs0mg"},{"bike_id":"1c86e37a-8481-4da4-bf05-647d86eb8b04","system_id":"levelo_inurba_marseille","lat":43.309103,"lon":5.416336,"is_reserved":false,"is_disabled":false,"rental_uris":{"android":"levelo://app?vid=1c86e37a-8481-4da4-bf05-647d86eb8b04","ios":"levelo://app?vid=1c86e37a-8481-4da4-bf05-647d86eb8b04"},"vehicle_type_id":"4","last_reported":1766736959,"current_range_meters":14000,"station_id":"","pricing_plan_id":"cebpf4jnsgd1na2vs0mg"},{"bike_id":"346b35ad-960d-44f5-9bb1-c181f37091dd","system_id":"levelo_inurba_marseille","lat":43.29037,"lon":5.39947,"is_reserved":false,"is_disabled":false,"rental_uris":{"android":"levelo://app?vid=346b35ad-960d-44f5-9bb1-c181f37091dd","ios":"levelo://app?vid=346b35ad-960d-44f5-9bb1-c181f37091dd"},"vehicle_type_id":"4","last_reported":1766736959,"current_range_meters":14000,"station_id":"ce4bh392rcd13ifvqdm0","pricing_plan_id":"cebpf4jnsgd1na2vs0mg"},{"bike_id":"1f2b55f6-a8e6-45b9-aa40-fe19fa08bde1","system_id":"levelo_inurba_marseille","lat":43.32094,"lon":5.36793,"is_reserved":false,"is_disabled":false,"rental_uris":{"android":"levelo://app?vid=1f2b55f6-a8e6-45b9-aa40-fe19fa08bde1","ios":"levelo://app?vid=1f2b55f6-a8e6-45b9-aa40-fe19fa08bde1"},"vehicle_type_id":"4","last_reported":1766736959,"current_range_meters":14400,"station_id":"ce4bhrh2rcd13ifvqhug","pricing_plan_id":"cebpf4jnsgd1na2vs0mg"},{"bike_id":"d6cdbaa0-f785-4d1c-9fa9-70d9132ef66a","system_id":"levelo_inurba_marseille","lat":43.263761,"lon":5.410467,"is_reserved":false,"is_disabled":false,"rental_uris":{"android":"levelo://app?vid=d6cdbaa0-f785-4d1c-9fa9-70d9132ef66a","ios":"levelo://app?vid=d6cdbaa0-f785-4d1c-9fa9-70d9132ef66a"},"vehicle_type_id":"4","last_reported":1766736959,"current_range_meters":14400,"station_id":"st_d4e5ca6na9uc73bfl5fg","pricing_plan_id":"cebpf4jnsgd1na2vs0mg"},{"bike_id":"92d80675-044b-48fa-9aa3-77b4da84f73c","system_id":"levelo_inurba_marseille","lat":43.29208,"lon":5.40406,"is_reserved":false,"is_disabled":false,"rental_uris":{"android":"levelo://app?vid=92d80675-044b-48fa-9aa3-77b4da84f73c","ios":"levelo://app?vid=92d80675-044b-48fa-9aa3-77b4da84f73c"},"vehicle_type_id":"4","last_reported":1766736959,"current_range_meters":14400,"station_id":"","pricing_plan_id":"cebpf4jnsgd1na2vs0mg"},{"bike_id":"9cad1ab2-6c39-45f1-8adc-a45568b193e7","system_id":"levelo_inurba_marseille","lat":43.21747,"lon":5.34588,"is_reserved":false,"is_disabled":false,"rental_uris":{"android":"levelo://app?vid=9cad1ab2-6c39-45f1-8adc-a45568b193e7","ios":"levelo://app?vid=9cad1ab2-6c39-45f1-8adc-a45568b193e7"},"vehicle_type_id":"4","last_reported":1766736959,"current_range_meters":14400,"station_id":"st_cvj6r9ubvosntc0bgbag","pricing_plan_id":"cebpf4jnsgd1na2vs0mg"},{"bike_id":"6235fc96-9baf-4585-9358-5f963fefeef2","system_id":"levelo_inurba_marseille","lat":43.30603,"lon":5.39359,"is_reserved":false,"is_disabled":false,"rental_uris":{"android":"levelo://app?vid=6235fc96-9baf-4585-9358-5f963fefeef2","ios":"levelo://app?vid=6235fc96-9baf-4585-9358-5f963fefeef2"},"vehicle_type_id":"4","last_reported":1766736959,"current_range_meters":14400,"station_id":"","pricing_plan_id":"cebpf4jnsgd1na2vs0mg"},{"bike_id":"2e93b1a9-b9a4-417d-9f8e-78d098cf92a5","system_id":"levelo_inurba_marseille","lat":43.32352,"lon":5.3674,"is_reserved":false,"is_disabled":false,"rental_uris":{"android":"levelo://app?vid=2e93b1a9-b9a4-417d-9f8e-78d098cf92a5","ios":"levelo://app?vid=2e93b1a9-b9a4-417d-9f8e-78d098cf92a5"},"vehicle_type_id":"4","last_reported":1766736959,"current_range_meters":14400,"station_id":"ce4bhsh2rcd13ifvqi2g","pricing_plan_id":"cebpf4jnsgd1na2vs0mg"},{"bike_id":"bdee2951-35ba-42d5-8680-92c863c8c439","system_id":"levelo_inurba_marseille","lat":43.217456,"lon":5.346057,"is_reserved":false,"is_disabled":false,"rental_uris":{"android":"levelo://app?vid=bdee2951-35ba-42d5-8680-92c863c8c439","ios":"levelo://app?vid=bdee2951-35ba-42d5-8680-92c863c8c439"},"vehicle_type_id":"4","last_reported":1766736959,"current_range_meters":14400,"station_id":"st_cvj6r9ubvosntc0bgbag","pricing_plan_id":"cebpf4jnsgd1na2vs0mg"},{"bike_id":"a7b0ffca-bd19-4593-b42d-f026e5905164","system_id":"levelo_inurba_marseille","lat":43.29285,"lon":5.36938,"is_reserved":false,"is_disabled":false,"rental_uris":{"android":"levelo://app?vid=a7b0ffca-bd19-4593-b42d-f026e5905164","ios":"levelo://app?vid=a7b0ffca-bd19-4593-b42d-f026e5905164"},"vehicle_type_id":"4","last_reported":1766736959,"current_range_meters":14400,"station_id":"","pricing_plan_id":"cebpf4jnsgd1na2vs0mg"},{"bike_id":"9e1cb312-28c0-4fd0-8afc-7945c66fa276","system_id":"levelo_inurba_marseille","lat":43.33165,"lon":5.37686,"is_reserved":false,"is_disabled":false,"rental_uris":{"android":"levelo://app?vid=9e1cb312-28c0-4fd0-8afc-7945c66fa276","ios":"levelo://app?vid=9e1cb312-28c0-4fd0-8afc-7945c66fa276"},"vehicle_type_id":"4","last_reported":1766736959,"current_range_meters":14400,"station_id":"st_d46cu089ee8s73dldbu0","pricing_plan_id":"cebpf4jnsgd1na2vs0mg"},{"bike_id":"c6c751ca-f0d9-4d7d-924c-b26f574b394e","system_id":"levelo_inurba_marseille","lat":43.26746,"lon":5.38459,"is_reserved":false,"is_disabled":false,"rental_uris":{"android":"levelo://app?vid=c6c751ca-f0d9-4d7d-924c-b26f574b394e","ios":"levelo://app?vid=c6c751ca-f0d9-4d7d-924c-b26f574b394e"},"vehicle_type_id":"4","last_reported":1766736959,"current_range_meters":14400,"station_id":"","pricing_plan_id":"cebpf4jnsgd1na2vs0mg"},{"bike_id":"30b4de5e-52da-4654-9315-d4149e8dde1e","system_id":"levelo_inurba_marseille","lat":43.262105,"lon":5.37912,"is_reserved":false,"is_disabled":false,"rental_uris":{"android":"levelo://app?vid=30b4de5e-52da-4654-9315-d4149e8dde1e","ios":"levelo://app?vid=30b4de5e-52da-4654-9315-d4149e8dde1e"},"vehicle_type_id":"4","last_reported":1766736959,"current_range_meters":14800,"station_id":"ce4bhjp2rcd13ifvqg90","pricing_plan_id":"cebpf4jnsgd1na2vs0mg"},{"bike_id":"1d1d9820-3476-4739-8c7f-210f7122627c","system_id":"levelo_inurba_marseille","lat":43.26058,"lon":5.39387,"is_reserved":false,"is_disabled":true,"rental_uris":{"android":"levelo://app?vid=1d1d9820-3476-4739-8c7f-210f7122627c","ios":"levelo://app?vid=1d1d9820-3476-4739-8c7f-210f7122627c"},"vehicle_type_id":"4","last_reported":1766736959,"current_range_meters":14800,"station_id":"ce4bhh92rcd13ifvqfj0","pricing_plan_id":"cebpf4jnsgd1na2vs0mg"},{"bike_id":"cf7c6d98-9961-45bd-b9a5-0a56126e0ddf","system_id":"levelo_inurba_marseille","lat":43.301392,"lon":5.374106,"is_reserved":false,"is_disabled":false,"rental_uris":{"android":"levelo://app?vid=cf7c6d98-9961-45bd-b9a5-0a56126e0ddf","ios":"levelo://app?vid=cf7c6d98-9961-45bd-b9a5-0a56126e0ddf"},"vehicle_type_id":"4","last_reported":1766736959,"current_range_meters":14800,"station_id":"ce4bgs92rcd13ifvqcc0","pricing_plan_id":"cebpf4jnsgd1na2vs0mg"},{"bike_id":"66de7b9e-1a4f-4d86-98ae-eb4a418a2023","system_id":"levelo_inurba_marseille","lat":43.29924,"lon":5.37479,"is_reserved":false,"is_disabled":false,"rental_uris":{"android":"levelo://app?vid=66de7b9e-1a4f-4d86-98ae-eb4a418a2023","ios":"levelo://app?vid=66de7b9e-1a4f-4d86-98ae-eb4a418a2023"},"vehicle_type_id":"4","last_reported":1766736959,"current_range_meters":14800,"station_id":"ce4bgjh2rcd13ifvqbg0","pricing_plan_id":"cebpf4jnsgd1na2vs0mg"},{"bike_id":"96d934ef-4e2e-4ec5-af02-2cbf1498d208","system_id":"levelo_inurba_marseille","lat":43.25324,"lon":5.42182,"is_reserved":false,"is_disabled":false,"rental_uris":{"android":"levelo://app?vid=96d934ef-4e2e-4ec5-af02-2cbf1498d208","ios":"levelo://app?vid=96d934ef-4e2e-4ec5-af02-2cbf1498d208"},"vehicle_type_id":"4","last_reported":1766736959,"current_range_meters":14800,"station_id":"st_d2m65c5bi1j21697t3ng","pricing_plan_id":"cebpf4jnsgd1na2vs0mg"},{"bike_id":"f76e4b8e-f0c6-4bb3-96c0-79fd4af4848f","system_id":"levelo_inurba_marseille","lat":43.28716,"lon":5.37925,"is_reserved":false,"is_disabled":false,"rental_uris":{"android":"levelo://app?vid=f76e4b8e-f0c6-4bb3-96c0-79fd4af4848f","ios":"levelo://app?vid=f76e4b8e-f0c6-4bb3-96c0-79fd4af4848f"},"vehicle_type_id":"4","last_reported":1766736959,"current_range_meters":14800,"station_id":"ce4bh9p2rcd13ifvqec0","pricing_plan_id":"cebpf4jnsgd1na2vs0mg"},{"bike_id":"d8495e01-0798-43ca-b8bf-f8bb6f993c97","system_id":"levelo_inurba_marseille","lat":43.27322,"lon":5.36296,"is_reserved":false,"is_disabled":false,"rental_uris":{"android":"levelo://app?vid=d8495e01-0798-43ca-b8bf-f8bb6f993c97","ios":"levelo://app?vid=d8495e01-0798-43ca-b8bf-f8bb6f993c97"},"vehicle_type_id":"4","last_reported":1766736959,"current_range_meters":14800,"station_id":"ce4bhbh2rcd13ifvqeo0","pricing_plan_id":"cebpf4jnsgd1na2vs0mg"},{"bike_id":"596f9f2e-754a-4bff-95d7-fb2758b09a2e","system_id":"levelo_inurba_marseille","lat":43.3242,"lon":5.36728,"is_reserved":false,"is_disabled":false,"rental_uris":{"android":"levelo://app?vid=596f9f2e-754a-4bff-95d7-fb2758b09a2e","ios":"levelo://app?vid=596f9f2e-754a-4bff-95d7-fb2758b09a2e"},"vehicle_type_id":"4","last_reported":1766736959,"current_range_meters":14800,"station_id":"","pricing_plan_id":"cebpf4jnsgd1na2vs0mg"},{"bike_id":"3df8ba78-e51b-416d-9253-03d76dfb9415","system_id":"levelo_inurba_marseille","lat":43.29756,"lon":5.42792,"is_reserved":false,"is_disabled":false,"rental_uris":{"android":"levelo://app?vid=3df8ba78-e51b-416d-9253-03d76dfb9415","ios":"levelo://app?vid=3df8ba78-e51b-416d-9253-03d76dfb9415"},"vehicle_type_id":"4","last_reported":1766736959,"current_range_meters":14800,"station_id":"st_d3md5207bmas73dh9klg","pricing_plan_id":"cebpf4jnsgd1na2vs0mg"},{"bike_id":"bc568f99-2d83-4e5a-8b80-4c8ab7d8ad1f","system_id":"levelo_inurba_marseille","lat":43.24119,"lon":5.3776,"is_reserved":false,"is_disabled":false,"rental_uris":{"android":"levelo://app?vid=bc568f99-2d83-4e5a-8b80-4c8ab7d8ad1f","ios":"levelo://app?vid=bc568f99-2d83-4e5a-8b80-4c8ab7d8ad1f"},"vehicle_type_id":"4","last_reported":1766736959,"current_range_meters":14800,"station_id":"","pricing_plan_id":"cebpf4jnsgd1na2vs0mg"},{"bike_id":"c9346feb-2020-4380-a5a9-7be746a8f756","system_id":"levelo_inurba_marseille","lat":43.2968,"lon":5.37296,"is_reserved":false,"is_disabled":false,"rental_uris":{"android":"levelo://app?vid=c9346feb-2020-4380-a5a9-7be746a8f756","ios":"levelo://app?vid=c9346feb-2020-4380-a5a9-7be746a8f756"},"vehicle_type_id":"4","last_reported":1766736959,"current_range_meters":15200,"station_id":"ce4bgk12rcd13ifvqbj0","pricing_plan_id":"cebpf4jnsgd1na2vs0mg"},{"bike_id":"bac2109d-15df-4d0e-bae2-d33bd1ac452e","system_id":"levelo_inurba_marseille","lat":43.299845,"lon":5.371892,"is_reserved":false,"is_disabled":false,"rental_uris":{"android":"levelo://app?vid=bac2109d-15df-4d0e-bae2-d33bd1ac452e","ios":"levelo://app?vid=bac2109d-15df-4d0e-bae2-d33bd1ac452e"},"vehicle_type_id":"4","last_reported":1766736959,"current_range_meters":15200,"station_id":"ce4bgr92rcd13ifvqc7g","pricing_plan_id":"cebpf4jnsgd1na2vs0mg"},{"bike_id":"a47c06a9-c1b7-4f8e-9061-6c222684dff4","system_id":"levelo_inurba_marseille","lat":43.31498,"lon":5.37296,"is_reserved":false,"is_disabled":false,"rental_uris":{"android":"levelo://app?vid=a47c06a9-c1b7-4f8e-9061-6c222684dff4","ios":"levelo://app?vid=a47c06a9-c1b7-4f8e-9061-6c222684dff4"},"vehicle_type_id":"4","last_reported":1766736959,"current_range_meters":15200,"station_id":"ce4bgt12rcd13ifvqcd0","pricing_plan_id":"cebpf4jnsgd1na2vs0mg"},{"bike_id":"859e49a6-fc42-445b-b1db-54603ecb439d","system_id":"levelo_inurba_marseille","lat":43.303193,"lon":5.368967,"is_reserved":false,"is_disabled":false,"rental_uris":{"android":"levelo://app?vid=859e49a6-fc42-445b-b1db-54603ecb439d","ios":"levelo://app?vid=859e49a6-fc42-445b-b1db-54603ecb439d"},"vehicle_type_id":"4","last_reported":1766736959,"current_range_meters":15200,"station_id":"ce4bgqh2rcd13ifvqc5g","pricing_plan_id":"cebpf4jnsgd1na2vs0mg"},{"bike_id":"53b0c323-1f2c-4890-898b-18ae97706c5b","system_id":"levelo_inurba_marseille","lat":43.298203,"lon":5.364883,"is_reserved":false,"is_disabled":true,"rental_uris":{"android":"levelo://app?vid=53b0c323-1f2c-4890-898b-18ae97706c5b","ios":"levelo://app?vid=53b0c323-1f2c-4890-898b-18ae97706c5b"},"vehicle_type_id":"4","last_reported":1766736959,"current_range_meters":15200,"station_id":"","pricing_plan_id":"cebpf4jnsgd1na2vs0mg"},{"bike_id":"9a28fd2f-33dc-47c9-84f8-2e8b1adbfeca","system_id":"levelo_inurba_marseille","lat":43.29755,"lon":5.42782,"is_reserved":false,"is_disabled":false,"rental_uris":{"android":"levelo://app?vid=9a28fd2f-33dc-47c9-84f8-2e8b1adbfeca","ios":"levelo://app?vid=9a28fd2f-33dc-47c9-84f8-2e8b1adbfeca"},"vehicle_type_id":"4","last_reported":1766736959,"current_range_meters":15200,"station_id":"st_d3md5207bmas73dh9klg","pricing_plan_id":"cebpf4jnsgd1na2vs0mg"},{"bike_id":"67e14517-3839-438a-91df-c401fcee4795","system_id":"levelo_inurba_marseille","lat":43.24542,"lon":5.3952,"is_reserved":false,"is_disabled":false,"rental_uris":{"android":"levelo://app?vid=67e14517-3839-438a-91df-c401fcee4795","ios":"levelo://app?vid=67e14517-3839-438a-91df-c401fcee4795"},"vehicle_type_id":"4","last_reported":1766736959,"current_range_meters":15200,"station_id":"ce4bhlp2rcd13ifvqgjg","pricing_plan_id":"cebpf4jnsgd1na2vs0mg"},{"bike_id":"9ae2a8cd-4b9d-4a82-9ee3-dac503ee0b2e","system_id":"levelo_inurba_marseille","lat":43.300854,"lon":5.376791,"is_reserved":false,"is_disabled":false,"rental_uris":{"android":"levelo://app?vid=9ae2a8cd-4b9d-4a82-9ee3-dac503ee0b2e","ios":"levelo://app?vid=9ae2a8cd-4b9d-4a82-9ee3-dac503ee0b2e"},"vehicle_type_id":"4","last_reported":1766736959,"current_range_meters":15200,"station_id":"","pricing_plan_id":"cebpf4jnsgd1na2vs0mg"},