{"last_updated":1721232595,"ttl":30,"version":"2.2","data":{"bikes":[{"bike_id":"eba54173-b86a-42b2-bdbd-d8d09c55ae3f","system_id":"levelo_inurba_marseille","lat":43.31251,"lon":5.36793,"is_reserved":false,"is_disabled":false,"rental_uris":{"android":"levelo://app?vid=eba54173-b86a-42b2-bdbd-d8d09c55ae3f","ios":"levelo://app?vid=eba54173-b86a-42b2-bdbd-d8d09c55ae3f"},"vehicle_type_id":"4","last_reported":1721232595,"current_range_meters":0,"station_id":"","pricing_plan_id":"cebpf4jnsgd1na2vs0mg"},{"bike_id":"e7e7690a-1c70-4421-8245-fdad0627ac2f","system_id":"levelo_inurba_marseille","lat":43.314811,"lon":5.373103,"is_reserved":false,"is_disabled":false,"rental_uris":{"android":"levelo://app?vid=e7e7690a-1c70-4421-8245-fdad0627ac2f","ios":"levelo://app?vid=e7e7690a-1c70-4421-8245-fdad0627ac2f"},"vehicle_type_id":"4","last_reported":1721232595,"current_range_meters":6800,"station_id":"ce4bgt12rcd13ifvqcd0","pricing_plan_id":"cebpf4jnsgd1na2vs0mg"},{"bike_id":"cc989ba2-7aec-49a0-8a6f-ac6036b878c9","system_id":"levelo_inurba_marseille","lat":43.314811,"lon":5.373103,"is_reserved":false,"is_disabled":false,"rental_uris":{"android":"levelo://app?vid=cc989ba2-7aec-49a0-8a6f-ac6036b878c9","ios":"levelo://app?vid=cc989ba2-7aec-49a0-8a6f-ac6036b878c9"},"vehicle_type_id":"4","last_reported":1721232595,"current_range_meters":4000,"station_id":"ce4bgt12rcd13ifvqcd0","pricing_plan_id":"cebpf4jnsgd1na2vs0mg"},{"bike_id":"b8e54b22-8c7b-4358-851d-bfe2df5827a0","system_id":"levelo_inurba_marseille","lat":43.314811,"lon":5.373104,"is_reserved":false,"is_disabled":false,"rental_uris":{"android":"levelo://app?vid=b8e54b22-8c7b-4358-851d-bfe2df5827a0","ios":"levelo://app?vid=b8e54b22-8c7b-4358-851d-bfe2df5827a0"},"vehicle_type_id":"4","last_reported":1721232595,"current_range_meters":800,"station_id":"ce4bgt12rcd13ifvqcd0","pricing_plan_id":"cebpf4jnsgd1na2vs0mg"},{"bike_id":"418ac9dc-28b8-48b8-ac9b-9eb4cdb07236","system_id":"levelo_inurba_marseille","lat":43.305712,"lon":5.365641,"is_reserved":false,"is_disabled":false,"rental_uris":{"android":"levelo://app?vid=418ac9dc-28b8-48b8-ac9b-9eb4cdb07236","ios":"levelo://app?vid=418ac9dc-28b8-48b8-ac9b-9eb4cdb07236"},"vehicle_type_id":"4","last_reported":1721232595,"current_range_meters":29200,"station_id":"ce4bgs12rcd13ifvqcag","pricing_plan_id":"cebpf4jnsgd1na2vs0mg"},{"bike_id":"9beee213-cf51-4622-8371-ec2068de3d53","system_id":"levelo_inurba_marseille","lat":43.305706,"lon":5.365654,"is_reserved":false,"is_disabled":false,"rental_uris":{"android":"levelo://app?vid=9beee213-cf51-4622-8371-ec2068de3d53","ios":"levelo://app?vid=9beee213-cf51-4622-8371-ec2068de3d53"},"vehicle_type_id":"4","last_reported":1721232595,"current_range_meters":0,"station_id":"ce4bgs12rcd13ifvqcag","pricing_plan_id":"cebpf4jnsgd1na2vs0mg"},{"bike_id":"af168c5e-c902-4d99-9de0-c2109a97f474","system_id":"levelo_inurba_marseille","lat":43.305323,"lon":5.365417,"is_reserved":false,"is_disabled":false,"rental_uris":{"android":"levelo://app?vid=af168c5e-c902-4d99-9de0-c2109a97f474","ios":"levelo://app?vid=af168c5e-c902-4d99-9de0-c2109a97f474"},"vehicle_type_id":"4","last_reported":1721232595,"current_range_meters":0,"station_id":"ce4bgs12rcd13ifvqcag","pricing_plan_id":"cebpf4jnsgd1na2vs0mg"},{"bike_id":"bdab1d25-54e9-48f0-b7a7-d454c2a77a76","system_id":"levelo_inurba_marseille","lat":43.31912,"lon":5.37333,"is_reserved":false,"is_disabled":false,"rental_uris":{"android":"levelo://app?vid=bdab1d25-54e9-48f0-b7a7-d454c2a77a76","ios":"levelo://app?vid=bdab1d25-54e9-48f0-b7a7-d454c2a77a76"},"vehicle_type_id":"4","last_reported":1721232595,"current_range_meters":12000,"station_id":"","pricing_plan_id":"cebpf4jnsgd1na2vs0mg"},{"bike_id":"7c92a134-a85f-4f48-abc3-4cd138a98531","system_id":"levelo_inurba_marseille","lat":43.311131,"lon":5.377651,"is_reserved":false,"is_disabled":false,"rental_uris":{"android":"levelo://app?vid=7c92a134-a85f-4f48-abc3-4cd138a98531","ios":"levelo://app?vid=7c92a134-a85f-4f48-abc3-4cd138a98531"},"vehicle_type_id":"4","last_reported":1721232595,"current_range_meters":0,"station_id":"ce4bgt92rcd13ifvqcg0","pricing_plan_id":"cebpf4jnsgd1na2vs0mg"},{"bike_id":"f08e0388-86e1-4474-9c89-7b92b902d9a2","system_id":"levelo_inurba_marseille","lat":43.30475,"lon":5.36536,"is_reserved":false,"is_disabled":false,"rental_uris":{"android":"levelo://app?vid=f08e0388-86e1-4474-9c89-7b92b902d9a2","ios":"levelo://app?vid=f08e0388-86e1-4474-9c89-7b92b902d9a2"},"vehicle_type_id":"4","last_reported":1721232595,"current_range_meters":0,"station_id":"","pricing_plan_id":"cebpf4jnsgd1na2vs0mg"},{"bike_id":"55153f9d-2a52-4b6b-85f5-9eae12e16fd8","system_id":"levelo_inurba_marseille","lat":43.307945,"lon":5.376487,"is_reserved":false,"is_disabled":false,"rental_uris":{"android":"levelo://app?vid=55153f9d-2a52-4b6b-85f5-9eae12e16fd8","ios":"levelo://app?vid=55153f9d-2a52-4b6b-85f5-9eae12e16fd8"},"vehicle_type_id":"4","last_reported":1721232595,"current_range_meters":0,"station_id":"ce4bgv92rcd13ifvqcq0","pricing_plan_id":"cebpf4jnsgd1na2vs0mg"},{"bike_id":"dab5db21-8ca6-42e3-a0f5-5228a5e03289","system_id":"levelo_inurba_marseille","lat":43.307945,"lon":5.376487,"is_reserved":false,"is_disabled":false,"rental_uris":{"android":"levelo://app?vid=dab5db21-8ca6-42e3-a0f5-5228a5e03289","ios":"levelo://app?vid=dab5db21-8ca6-42e3-a0f5-5228a5e03289"},"vehicle_type_id":"4","last_reported":1721232595,"current_range_meters":800,"station_id":"ce4bgv92rcd13ifvqcq0","pricing_plan_id":"cebpf4jnsgd1na2vs0mg"},{"bike_id":"0e2d43ff-7ccd-4095-af9f-f0035860f61d","system_id":"levelo_inurba_marseille","lat":43.317075,"lon":5.377367,"is_reserved":false,"is_disabled":false,"rental_uris":{"android":"levelo://app?vid=0e2d43ff-7ccd-4095-af9f-f0035860f61d","ios":"levelo://app?vid=0e2d43ff-7ccd-4095-af9f-f0035860f61d"},"vehicle_type_id":"4","last_reported":1721232595,"current_range_meters":6800,"station_id":"ce4bgth2rcd13ifvqch0","pricing_plan_id":"cebpf4jnsgd1na2vs0mg"},{"bike_id":"31f368ec-0eb3-43b9-b777-3ec1e6dc5fa9","system_id":"levelo_inurba_marseille","lat":43.3116,"lon":5.37977,"is_reserved":false,"is_disabled":false,"rental_uris":{"android":"levelo://app?vid=31f368ec-0eb3-43b9-b777-3ec1e6dc5fa9","ios":"levelo://app?vid=31f368ec-0eb3-43b9-b777-3ec1e6dc5fa9"},"vehicle_type_id":"4","last_reported":1721232595,"current_range_meters":9200,"station_id":"","pricing_plan_id":"cebpf4jnsgd1na2vs0mg"},{"bike_id":"99f1f300-d3eb-4de2-a389-b4611dcb3c29","system_id":"levelo_inurba_marseille","lat":43.30309,"lon":5.36912,"is_reserved":false,"is_disabled":false,"rental_uris":{"android":"levelo://app?vid=99f1f300-d3eb-4de2-a389-b4611dcb3c29","ios":"levelo://app?vid=99f1f300-d3eb-4de2-a389-b4611dcb3c29"},"vehicle_type_id":"4","last_reported":1721232595,"current_range_meters":0,"station_id":"ce4bgqh2rcd13ifvqc5g","pricing_plan_id":"cebpf4jnsgd1na2vs0mg"},{"bike_id":"c3f70440-a677-40d9-9f45-686c68276938","system_id":"levelo_inurba_marseille","lat":43.3153,"lon":5.38038,"is_reserved":false,"is_disabled":false,"rental_uris":{"android":"levelo://app?vid=c3f70440-a677-40d9-9f45-686c68276938","ios":"levelo://app?vid=c3f70440-a677-40d9-9f45-686c68276938"},"vehicle_type_id":"4","last_reported":1721232595,"current_range_meters":0,"station_id":"ce4bhsp2rcd13ifvqi50","pricing_plan_id":"cebpf4jnsgd1na2vs0mg"},{"bike_id":"152ab701-fa94-4928-b978-e94cefb84cf5","system_id":"levelo_inurba_marseille","lat":43.304606,"lon":5.379026,"is_reserved":false,"is_disabled":false,"rental_uris":{"android":"levelo://app?vid=152ab701-fa94-4928-b978-e94cefb84cf5","ios":"levelo://app?vid=152ab701-fa94-4928-b978-e94cefb84cf5"},"vehicle_type_id":"4","last_reported":1721232595,"current_range_meters":0,"station_id":"ce4bgup2rcd13ifvqcn0","pricing_plan_id":"cebpf4jnsgd1na2vs0mg"},{"bike_id":"44b97a12-53aa-426a-834f-5a0789e2f2ff","system_id":"levelo_inurba_marseille","lat":43.324771,"lon":5.36557,"is_reserved":false,"is_disabled":false,"rental_uris":{"android":"levelo://app?vid=44b97a12-53aa-426a-834f-5a0789e2f2ff","ios":"levelo://app?vid=44b97a12-53aa-426a-834f-5a0789e2f2ff"},"vehicle_type_id":"4","last_reported":1721232595,"current_range_meters":12800,"station_id":"ce4bhs12rcd13ifvqhvg","pricing_plan_id":"cebpf4jnsgd1na2vs0mg"},{"bike_id":"193b7f8e-bf4f-4360-bac9-715431c68441","system_id":"levelo_inurba_marseille","lat":43.324771,"lon":5.36557,"is_reserved":false,"is_disabled":false,"rental_uris":{"android":"levelo://app?vid=193b7f8e-bf4f-4360-bac9-715431c68441","ios":"levelo://app?vid=193b7f8e-bf4f-4360-bac9-715431c68441"},"vehicle_type_id":"4","last_reported":1721232595,"current_range_meters":31600,"station_id":"ce4bhs12rcd13ifvqhvg","pricing_plan_id":"cebpf4jnsgd1na2vs0mg"},{"bike_id":"b681a1fe-959f-400e-9253-8466b026f65f","system_id":"levelo_inurba_marseille","lat":43.324771,"lon":5.36557,"is_reserved":false,"is_disabled":false,"rental_uris":{"android":"levelo://app?vid=b681a1fe-959f-400e-9253-8466b026f65f","ios":"levelo://app?vid=b681a1fe-959f-400e-9253-8466b026f65f"},"vehicle_type_id":"4","last_reported":1721232595,"current_range_meters":11600,"station_id":"ce4bhs12rcd13ifvqhvg","pricing_plan_id":"cebpf4jnsgd1na2vs0mg"},{"bike_id":"4a4a26e5-2961-476d-8f4b-a818fc735256","system_id":"levelo_inurba_marseille","lat":43.324771,"lon":5.36557,"is_reserved":false,"is_disabled":false,"rental_uris":{"android":"levelo://app?vid=4a4a26e5-2961-476d-8f4b-a818fc735256","ios":"levelo://app?vid=4a4a26e5-2961-476d-8f4b-a818fc735256"},"vehicle_type_id":"4","last_reported":1721232595,"current_range_meters":24400,"station_id":"ce4bhs12rcd13ifvqhvg","pricing_plan_id":"cebpf4jnsgd1na2vs0mg"},{"bike_id":"81216438-acc0-465b-8e0a-d2c7931cb110","system_id":"levelo_inurba_marseille","lat":43.324771,"lon":5.36557,"is_reserved":false,"is_disabled":false,"rental_uris":{"android":"levelo://app?vid=81216438-acc0-465b-8e0a-d2c7931cb110","ios":"levelo://app?vid=81216438-acc0-465b-8e0a-d2c7931cb110"},"vehicle_type_id":"4","last_reported":1721232595,"current_range_meters":31600,"station_id":"ce4bhs12rcd13ifvqhvg","pricing_plan_id":"cebpf4jnsgd1na2vs0mg"},{"bike_id":"ed6518d3-2dad-47df-817c-a42834444454","system_id":"levelo_inurba_marseille","lat":43.324771,"lon":5.36557,"is_reserved":false,"is_disabled":false,"rental_uris":{"android":"levelo://app?vid=ed6518d3-2dad-47df-817c-a42834444454","ios":"levelo://app?vid=ed6518d3-2dad-47df-817c-a42834444454"},"vehicle_type_id":"4","last_reported":1721232595,"current_range_meters":5600,"station_id":"ce4bhs12rcd13ifvqhvg","pricing_plan_id":"cebpf4jnsgd1na2vs0mg"},{"bike_id":"cd6707da-e7ef-4f2b-88f9-788c5be1bb13","system_id":"levelo_inurba_marseille","lat":43.324771,"lon":5.36557,"is_reserved":false,"is_disabled":false,"rental_uris":{"android":"levelo://app?vid=cd6707da-e7ef-4f2b-88f9-788c5be1bb13","ios":"levelo://app?vid=cd6707da-e7ef-4f2b-88f9-788c5be1bb13"},"vehicle_type_id":"4","last_reported":1721232595,"current_range_meters":17200,"station_id":"ce4bhs12rcd13ifvqhvg","pricing_plan_id":"cebpf4jnsgd1na2vs0mg"},{"bike_id":"1a5b117f-14e0-4ca0-98b0-3801fdd27118","system_id":"levelo_inurba_marseille","lat":43.30143,"lon":5.37413,"is_reserved":false,"is_disabled":false,"rental_uris":{"android":"levelo://app?vid=1a5b117f-14e0-4ca0-98b0-3801fdd27118","ios":"levelo://app?vid=1a5b117f-14e0-4ca0-98b0-3801fdd27118"},"vehicle_type_id":"4","last_reported":1721232595,"current_range_meters":21600,"station_id":"ce4bgs92rcd13ifvqcc0","pricing_plan_id":"cebpf4jnsgd1na2vs0mg"},{"bike_id":"1e7324c4-f9d6-46b5-a7de-f30097e5c0e5","system_id":"levelo_inurba_marseille","lat":43.301428,"lon":5.374097,"is_reserved":false,"is_disabled":false,"rental_uris":{"android":"levelo://app?vid=1e7324c4-f9d6-46b5-a7de-f30097e5c0e5","ios":"levelo://app?vid=1e7324c4-f9d6-46b5-a7de-f30097e5c0e5"},"vehicle_type_id":"4","last_reported":1721232595,"current_range_meters":23600,"station_id":"ce4bgs92rcd13ifvqcc0","pricing_plan_id":"cebpf4jnsgd1na2vs0mg"},{"bike_id":"e59fa2c5-9200-4ca5-a480-b32c62a5e5af","system_id":"levelo_inurba_marseille","lat":43.302784,"lon":5.377158,"is_reserved":false,"is_disabled":false,"rental_uris":{"android":"levelo://app?vid=e59fa2c5-9200-4ca5-a480-b32c62a5e5af","ios":"levelo://app?vid=e59fa2c5-9200-4ca5-a480-b32c62a5e5af"},"vehicle_type_id":"4","last_reported":1721232595,"current_range_meters":11600,"station_id":"ce4bguh2rcd13ifvqcj0","pricing_plan_id":"cebpf4jnsgd1na2vs0mg"},{"bike_id":"51309e71-6af2-4588-bd8d-bd32e9fb2ec6","system_id":"levelo_inurba_marseille","lat":43.319935,"lon":5.381699,"is_reserved":false,"is_disabled":false,"rental_uris":{"android":"levelo://app?vid=51309e71-6af2-4588-bd8d-bd32e9fb2ec6","ios":"levelo://app?vid=51309e71-6af2-4588-bd8d-bd32e9fb2ec6"},"vehicle_type_id":"4","last_reported":1721232595,"current_range_meters":12400,"station_id":"ce4bhr12rcd13ifvqhpg","pricing_plan_id":"cebpf4jnsgd1na2vs0mg"},{"bike_id":"bfd62513-0145-4666-b90e-d246d8963b24","system_id":"levelo_inurba_marseille","lat":43.319935,"lon":5.381699,"is_reserved":false,"is_disabled":false,"rental_uris":{"android":"levelo://app?vid=bfd62513-0145-4666-b90e-d246d8963b24","ios":"levelo://app?vid=bfd62513-0145-4666-b90e-d246d8963b24"},"vehicle_type_id":"4","last_reported":1721232595,"current_range_meters":20800,"station_id":"ce4bhr12rcd13ifvqhpg","pricing_plan_id":"cebpf4jnsgd1na2vs0mg"},{"bike_id":"756478d3-7860-44c4-a366-64835c1e0869","system_id":"levelo_inurba_marseille","lat":43.319935,"lon":5.381699,"is_reserved":false,"is_disabled":false,"rental_uris":{"android":"levelo://app?vid=756478d3-7860-44c4-a366-64835c1e0869","ios":"levelo://app?vid=756478d3-7860-44c4-a366-64835c1e0869"},"vehicle_type_id":"4","last_reported":1721232595,"current_range_meters":10800,"station_id":"ce4bhr12rcd13ifvqhpg","pricing_plan_id":"cebpf4jnsgd1na2vs0mg"},{"bike_id":"15482867-dc24-4c60-9209-9f6ddc1b5f1a","system_id":"levelo_inurba_marseille","lat":43.313571,"lon":5.384829,"is_reserved":false,"is_disabled":false,"rental_uris":{"android":"levelo://app?vid=15482867-dc24-4c60-9209-9f6ddc1b5f1a","ios":"levelo://app?vid=15482867-dc24-4c60-9209-9f6ddc1b5f1a"},"vehicle_type_id":"4","last_reported":1721232595,"current_range_meters":800,"station_id":"ce4bgt92rcd13ifvqcf0","pricing_plan_id":"cebpf4jnsgd1na2vs0mg"},{"bike_id":"87c138aa-a3b1-4690-81b1-0c6672da5681","system_id":"levelo_inurba_marseille","lat":43.298433,"lon":5.362774,"is_reserved":false,"is_disabled":false,"rental_uris":{"android":"levelo://app?vid=87c138aa-a3b1-4690-81b1-0c6672da5681","ios":"levelo://app?vid=87c138aa-a3b1-4690-81b1-0c6672da5681"},"vehicle_type_id":"4","last_reported":1721232595,"current_range_meters":12000,"station_id":"ce4bgpp2rcd13ifvqc3g","pricing_plan_id":"cebpf4jnsgd1na2vs0mg"},{"bike_id":"2695fc3b-ffea-4a71-81c0-2b10f29e2932","system_id":"levelo_inurba_marseille","lat":43.305364,"lon":5.384119,"is_reserved":false,"is_disabled":false,"rental_uris":{"android":"levelo://app?vid=2695fc3b-ffea-4a71-81c0-2b10f29e2932","ios":"levelo://app?vid=2695fc3b-ffea-4a71-81c0-2b10f29e2932"},"vehicle_type_id":"4","last_reported":1721232595,"current_range_meters":9600,"station_id":"ce4bgg92rcd13ifvqb30","pricing_plan_id":"cebpf4jnsgd1na2vs0mg"},{"bike_id":"7e4b950f-99bc-4f2c-9ce4-ddefa14e21c5","system_id":"levelo_inurba_marseille","lat":43.2968,"lon":5.37291,"is_reserved":false,"is_disabled":false,"rental_uris":{"android":"levelo://app?vid=7e4b950f-99bc-4f2c-9ce4-ddefa14e21c5","ios":"levelo://app?vid=7e4b950f-99bc-4f2c-9ce4-ddefa14e21c5"},"vehicle_type_id":"4","last_reported":1721232595,"current_range_meters":11200,"station_id":"ce4bgk12rcd13ifvqbj0","pricing_plan_id":"cebpf4jnsgd1na2vs0mg"},{"bike_id":"aaedc9b0-6f6a-4029-a2e7-394d2ea8a0e8","system_id":"levelo_inurba_marseille","lat":43.29582,"lon":5.36745,"is_reserved":false,"is_disabled":false,"rental_uris":{"android":"levelo://app?vid=aaedc9b0-6f6a-4029-a2e7-394d2ea8a0e8","ios":"levelo://app?vid=aaedc9b0-6f6a-4029-a2e7-394d2ea8a0e8"},"vehicle_type_id":"4","last_reported":1721232595,"current_range_meters":0,"station_id":"ce4bgph2rcd13ifvqc2g","pricing_plan_id":"cebpf4jnsgd1na2vs0mg"},{"bike_id":"1fe70e83-e068-43a0-b81e-80c7690bc6c4","system_id":"levelo_inurba_marseille","lat":43.299028,"lon":5.381509,"is_reserved":false,"is_disabled":false,"rental_uris":{"android":"levelo://app?vid=1fe70e83-e068-43a0-b81e-80c7690bc6c4","ios":"levelo://app?vid=1fe70e83-e068-43a0-b81e-80c7690bc6c4"},"vehicle_type_id":"4","last_reported":1721232595,"current_range_meters":2400,"station_id":"ce4bgj12rcd13ifvqbc0","pricing_plan_id":"cebpf4jnsgd1na2vs0mg"},{"bike_id":"397bafd7-5218-4512-a0c1-a33058137b9c","system_id":"levelo_inurba_marseille","lat":43.317557,"lon":5.390173,"is_reserved":false,"is_disabled":false,"rental_uris":{"android":"levelo://app?vid=397bafd7-5218-4512-a0c1-a33058137b9c","ios":"levelo://app?vid=397bafd7-5218-4512-a0c1-a33058137b9c"},"vehicle_type_id":"4","last_reported":1721232595,"current_range_meters":14000,"station_id":"ce4bhqp2rcd13ifvqhng","pricing_plan_id":"cebpf4jnsgd1na2vs0mg"},{"bike_id":"c0150aba-7dfd-40ae-8322-1f2823e8d9b2","system_id":"levelo_inurba_marseille","lat":43.317557,"lon":5.390173,"is_reserved":false,"is_disabled":false,"rental_uris":{"android":"levelo://app?vid=c0150aba-7dfd-40ae-8322-1f2823e8d9b2","ios":"levelo://app?vid=c0150aba-7dfd-40ae-8322-1f2823e8d9b2"},"vehicle_type_id":"4","last_reported":1721232595,"current_range_meters":12400,"station_id":"ce4bhqp2rcd13ifvqhng","pricing_plan_id":"cebpf4jnsgd1na2vs0mg"},{"bike_id":"628e3f38-bd07-4fd1-b28c-c301b2e3f9af","system_id":"levelo_inurba_marseille","lat":43.29578,"lon":5.37521,"is_reserved":false,"is_disabled":false,"rental_uris":{"android":"levelo://app?vid=628e3f38-bd07-4fd1-b28c-c301b2e3f9af","ios":"levelo://app?vid=628e3f38-bd07-4fd1-b28c-c301b2e3f9af"},"vehicle_type_id":"4","last_reported":1721232595,"current_range_meters":10800,"station_id":"ce4bgh92rcd13ifvqb50","pricing_plan_id":"cebpf4jnsgd1na2vs0mg"},{"bike_id":"33560e36-9582-4f8a-9b26-ec9c357355b9","system_id":"levelo_inurba_marseille","lat":43.304274,"lon":5.388873,"is_reserved":false,"is_disabled":false,"rental_uris":{"android":"levelo://app?vid=33560e36-9582-4f8a-9b26-ec9c357355b9","ios":"levelo://app?vid=33560e36-9582-4f8a-9b26-ec9c357355b9"},"vehicle_type_id":"4","last_reported":1721232595,"current_range_meters":21200,"station_id":"ce4bgk12rcd13ifvqbi0","pricing_plan_id":"cebpf4jnsgd1na2vs0mg"},{"bike_id":"293b5c5d-8cc9-4e41-8e03-a3d8edae33c0","system_id":"levelo_inurba_marseille","lat":43.304274,"lon":5.388873,"is_reserved":false,"is_disabled":false,"rental_uris":{"android":"levelo://app?vid=293b5c5d-8cc9-4e41-8e03-a3d8edae33c0","ios":"levelo://app?vid=293b5c5d-8cc9-4e41-8e03-a3d8edae33c0"},"vehicle_type_id":"4","last_reported":1721232595,"current_range_meters":4000,"station_id":"ce4bgk12rcd13ifvqbi0","pricing_plan_id":"cebpf4jnsgd1na2vs0mg"},{"bike_id":"eaba637c-ab55-4c74-b4ee-3fc46fb31ce1","system_id":"levelo_inurba_marseille","lat":43.304278,"lon":5.388868,"is_reserved":false,"is_disabled":false,"rental_uris":{"android":"levelo://app?vid=eaba637c-ab55-4c74-b4ee-3fc46fb31ce1","ios":"levelo://app?vid=eaba637c-ab55-4c74-b4ee-3fc46fb31ce1"},"vehicle_type_id":"4","last_reported":1721232595,"current_range_meters":14000,"station_id":"ce4bgk12rcd13ifvqbi0","pricing_plan_id":"cebpf4jnsgd1na2vs0mg"},{"bike_id":"84ae0d7d-10b7-4fdb-a7ee-abced4f6ef43","system_id":"levelo_inurba_marseille","lat":43.304278,"lon":5.388868,"is_reserved":false,"is_disabled":false,"rental_uris":{"android":"levelo://app?vid=84ae0d7d-10b7-4fdb-a7ee-abced4f6ef43","ios":"levelo://app?vid=84ae0d7d-10b7-4fdb-a7ee-abced4f6ef43"},"vehicle_type_id":"4","last_reported":1721232595,"current_range_meters":16000,"station_id":"ce4bgk12rcd13ifvqbi0","pricing_plan_id":"cebpf4jnsgd1na2vs0mg"},{"bike_id":"058fac90-c23e-493b-b432-f85bfc01aea7","system_id":"levelo_inurba_marseille","lat":43.298037,"lon":5.381066,"is_reserved":false,"is_disabled":false,"rental_uris":{"android":"levelo://app?vid=058fac90-c23e-493b-b432-f85bfc01aea7","ios":"levelo://app?vid=058fac90-c23e-493b-b432-f85bfc01aea7"},"vehicle_type_id":"4","last_reported":1721232595,"current_range_meters":400,"station_id":"ce4bgip2rcd13ifvqbb0","pricing_plan_id":"cebpf4jnsgd1na2vs0mg"},{"bike_id":"8d272e36-49aa-4552-a110-d2a5a695b9a4","system_id":"levelo_inurba_marseille","lat":43.304278,"lon":5.388868,"is_reserved":false,"is_disabled":false,"rental_uris":{"android":"levelo://app?vid=8d272e36-49aa-4552-a110-d2a5a695b9a4","ios":"levelo://app?vid=8d272e36-49aa-4552-a110-d2a5a695b9a4"},"vehicle_type_id":"4","last_reported":1721232595,"current_range_meters":0,"station_id":"ce4bgk12rcd13ifvqbi0","pricing_plan_id":"cebpf4jnsgd1na2vs0mg"},{"bike_id":"44c5d70c-0279-4e47-bb90-0abe1e638860","system_id":"levelo_inurba_marseille","lat":43.296277,"lon":5.377108,"is_reserved":false,"is_disabled":false,"rental_uris":{"android":"levelo://app?vid=44c5d70c-0279-4e47-bb90-0abe1e638860","ios":"levelo://app?vid=44c5d70c-0279-4e47-bb90-0abe1e638860"},"vehicle_type_id":"4","last_reported":1721232595,"current_range_meters":0,"station_id":"ce4bgi92rcd13ifvqb90","pricing_plan_id":"cebpf4jnsgd1na2vs0mg"},{"bike_id":"0346c9b0-e8f7-4351-927c-e38b33429014","system_id":"levelo_inurba_marseille","lat":43.299707,"lon":5.384859,"is_reserved":false,"is_disabled":false,"rental_uris":{"android":"levelo://app?vid=0346c9b0-e8f7-4351-927c-e38b33429014","ios":"levelo://app?vid=0346c9b0-e8f7-4351-927c-e38b33429014"},"vehicle_type_id":"4","last_reported":1721232595,"current_range_meters":30000,"station_id":"ce4bgj92rcd13ifvqbd0","pricing_plan_id":"cebpf4jnsgd1na2vs0mg"},{"bike_id":"11cade74-53dc-408d-8bd5-f55a1e355e15","system_id":"levelo_inurba_marseille","lat":43.299717,"lon":5.384845,"is_reserved":false,"is_disabled":false,"rental_uris":{"android":"levelo://app?vid=11cade74-53dc-408d-8bd5-f55a1e355e15","ios":"levelo://app?vid=11cade74-53dc-408d-8bd5-f55a1e355e15"},"vehicle_type_id":"4","last_reported":1721232595,"current_range_meters":21600,"station_id":"ce4bgj92rcd13ifvqbd0","pricing_plan_id":"cebpf4jnsgd1na2vs0mg"},{"bike_id":"21ef7348-7368-42bf-bb73-bd1bef9eb36c","system_id":"levelo_inurba_marseille","lat":43.299724,"lon":5.384848,"is_reserved":false,"is_disabled":false,"rental_uris":{"android":"levelo://app?vid=21ef7348-7368-42bf-bb73-bd1bef9eb36c","ios":"levelo://app?vid=21ef7348-7368-42bf-bb73-bd1bef9eb36c"},"vehicle_type_id":"4","last_reported":1721232595,"current_range_meters":25600,"station_id":"ce4bgj92rcd13ifvqbd0","pricing_plan_id":"cebpf4jnsgd1na2vs0mg"},{"bike_id":"18491e9b-089a-423d-92a6-2224fb4ac1cb","system_id":"levelo_inurba_marseille","lat":43.30473,"lon":5.39011,"is_reserved":false,"is_disabled":false,"rental_uris":{"android":"levelo://app?vid=18491e9b-089a-423d-92a6-2224fb4ac1cb","ios":"levelo://app?vid=18491e9b-089a-423d-92a6-2224fb4ac1cb"},"vehicle_type_id":"4","last_reported":1721232595,"current_range_meters":14800,"station_id":"","pricing_plan_id":"cebpf4jnsgd1na2vs0mg"},{"bike_id":"239e0100-b84f-4d5b-85c7-945abfb4d8fa","system_id":"levelo_inurba_marseille","lat":43.29553,"lon":5.37723,"is_reserved":false,"is_disabled":false,"rental_uris":{"android":"levelo://app?vid=239e0100-b84f-4d5b-85c7-945abfb4d8fa","ios":"levelo://app?vid=239e0100-b84f-4d5b-85c7-945abfb4d8fa"},"vehicle_type_id":"4","last_reported":1721232595,"current_range_meters":0,"station_id":"","pricing_plan_id":"cebpf4jnsgd1na2vs0mg"},{"bike_id":"2fa0f81a-4269-4e4e-94ce-c7a25117d2b1","system_id":"levelo_inurba_marseille","lat":43.301396,"lon":5.387812,"is_reserved":false,"is_disabled":false,"rental_uris":{"android":"levelo://app?vid=2fa0f81a-4269-4e4e-94ce-c7a25117d2b1","ios":"levelo://app?vid=2fa0f81a-4269-4e4e-94ce-c7a25117d2b1"},"vehicle_type_id":"4","last_reported":1721232595,"current_range_meters":2000,"station_id":"ce4bghh2rcd13ifvqb60","pricing_plan_id":"cebpf4jnsgd1na2vs0mg"},{"bike_id":"0b1fad93-5603-4bc0-bed7-c5e8e1bdb618","system_id":"levelo_inurba_marseille","lat":43.301396,"lon":5.387812,"is_reserved":false,"is_disabled":false,"rental_uris":{"android":"levelo://app?vid=0b1fad93-5603-4bc0-bed7-c5e8e1bdb618","ios":"levelo://app?vid=0b1fad93-5603-4bc0-bed7-c5e8e1bdb618"},"vehicle_type_id":"4","last_reported":1721232595,"current_range_meters":19200,"station_id":"ce4bghh2rcd13ifvqb60","pricing_plan_id":"cebpf4jnsgd1na2vs0mg"},{"bike_id":"da103477-d715-4e2c-b2de-067458ea889a","system_id":"levelo_inurba_marseille","lat":43.32368,"lon":5.38879,"is_reserved":false,"is_disabled":false,"rental_uris":{"android":"levelo://app?vid=da103477-d715-4e2c-b2de-067458ea889a","ios":"levelo://app?vid=da103477-d715-4e2c-b2de-067458ea889a"},"vehicle_type_id":"4","last_reported":1721232595,"current_range_meters":800,"station_id":"ce4bhqp2rcd13ifvqhog","pricing_plan_id":"cebpf4jnsgd1na2vs0mg"},{"bike_id":"46771464-963e-4d2f-8ff8-3a155a9a041a","system_id":"levelo_inurba_marseille","lat":43.32367,"lon":5.388836,"is_reserved":false,"is_disabled":false,"rental_uris":{"android":"levelo://app?vid=46771464-963e-4d2f-8ff8-3a155a9a041a","ios":"levelo://app?vid=46771464-963e-4d2f-8ff8-3a155a9a041a"},"vehicle_type_id":"4","last_reported":1721232595,"current_range_meters":16400,"station_id":"ce4bhqp2rcd13ifvqhog","pricing_plan_id":"cebpf4jnsgd1na2vs0mg"},{"bike_id":"2aeaaab9-ad82-417d-8e44-8375dffaf90a","system_id":"levelo_inurba_marseille","lat":43.30747,"lon":5.39261,"is_reserved":false,"is_disabled":false,"rental_uris":{"android":"levelo://app?vid=2aeaaab9-ad82-417d-8e44-8375dffaf90a","ios":"levelo://app?vid=2aeaaab9-ad82-417d-8e44-8375dffaf90a"},"vehicle_type_id":"4","last_reported":1721232595,"current_range_meters":22000,"station_id":"","pricing_plan_id":"cebpf4jnsgd1na2vs0mg"},{"bike_id":"aca332c5-29db-48fe-b0e7-913a6fd6610b","system_id":"levelo_inurba_marseille","lat":43.323915,"lon":5.388935,"is_reserved":false,"is_disabled":false,"rental_uris":{"android":"levelo://app?vid=aca332c5-29db-48fe-b0e7-913a6fd6610b","ios":"levelo://app?vid=aca332c5-29db-48fe-b0e7-913a6fd6610b"},"vehicle_type_id":"4","last_reported":1721232595,"current_range_meters":18000,"station_id":"ce4bhqp2rcd13ifvqhog","pricing_plan_id":"cebpf4jnsgd1na2vs0mg"},{"bike_id":"0e688328-1a65-42d9-b64d-2a2c0063c145","system_id":"levelo_inurba_marseille","lat":43.293259,"lon":5.371586,"is_reserved":false,"is_disabled":false,"rental_uris":{"android":"levelo://app?vid=0e688328-1a65-42d9-b64d-2a2c0063c145","ios":"levelo://app?vid=0e688328-1a65-42d9-b64d-2a2c0063c145"},"vehicle_type_id":"4","last_reported":1721232595,"current_range_meters":0,"station_id":"ce4bgh92rcd13ifvqb40","pricing_plan_id":"cebpf4jnsgd1na2vs0mg"},{"bike_id":"570b44de-5104-41c3-a3dc-ddbabb8d08a1","system_id":"levelo_inurba_marseille","lat":43.29279,"lon":5.36849,"is_reserved":false,"is_disabled":false,"rental_uris":{"android":"levelo://app?vid=570b44de-5104-41c3-a3dc-ddbabb8d08a1","ios":"levelo://app?vid=570b44de-5104-41c3-a3dc-ddbabb8d08a1"},"vehicle_type_id":"4","last_reported":1721232595,"current_range_meters":16000,"station_id":"ce4bhbp2rcd13ifvqesg","pricing_plan_id":"cebpf4jnsgd1na2vs0mg"},{"bike_id":"1bcd4200-ed31-4ce3-bf65-a12048f20f02","system_id":"levelo_inurba_marseille","lat":43.29272,"lon":5.36843,"is_reserved":false,"is_disabled":false,"rental_uris":{"android":"levelo://app?vid=1bcd4200-ed31-4ce3-bf65-a12048f20f02","ios":"levelo://app?vid=1bcd4200-ed31-4ce3-bf65-a12048f20f02"},"vehicle_type_id":"4","last_reported":1721232595,"current_range_meters":0,"station_id":"ce4bhbp2rcd13ifvqesg","pricing_plan_id":"cebpf4jnsgd1na2vs0mg"},{"bike_id":"12b8459a-6a87-4648-bb13-5fdd4422523f","system_id":"levelo_inurba_marseille","lat":43.293009,"lon":5.374584,"is_reserved":false,"is_disabled":false,"rental_uris":{"android":"levelo://app?vid=12b8459a-6a87-4648-bb13-5fdd4422523f","ios":"levelo://app?vid=12b8459a-6a87-4648-bb13-5fdd4422523f"},"vehicle_type_id":"4","last_reported":1721232595,"current_range_meters":18000,"station_id":"ce4bgi12rcd13ifvqb70","pricing_plan_id":"cebpf4jnsgd1na2vs0mg"},{"bike_id":"8d3206d1-f212-42e5-b04e-aa2084d61e27","system_id":"levelo_inurba_marseille","lat":43.293009,"lon":5.374584,"is_reserved":false,"is_disabled":false,"rental_uris":{"android":"levelo://app?vid=8d3206d1-f212-42e5-b04e-aa2084d61e27","ios":"levelo://app?vid=8d3206d1-f212-42e5-b04e-aa2084d61e27"},"vehicle_type_id":"4","last_reported":1721232595,"current_range_meters":800,"station_id":"ce4bgi12rcd13ifvqb70","pricing_plan_id":"cebpf4jnsgd1na2vs0mg"},{"bike_id":"e18dd9a6-2bd7-4bed-a925-a6a341419255","system_id":"levelo_inurba_marseille","lat":43.30318,"lon":5.39209,"is_reserved":false,"is_disabled":false,"rental_uris":{"android":"levelo://app?vid=e18dd9a6-2bd7-4bed-a925-a6a341419255","ios":"levelo://app?vid=e18dd9a6-2bd7-4bed-a925-a6a341419255"},"vehicle_type_id":"4","last_reported":1721232595,"current_range_meters":0,"station_id":"ce4bgkh2rcd13ifvqbk0","pricing_plan_id":"cebpf4jnsgd1na2vs0mg"},{"bike_id":"bbba9c5c-706b-4f8c-825b-2426fadd18d1","system_id":"levelo_inurba_marseille","lat":43.2936,"lon":5.37835,"is_reserved":false,"is_disabled":false,"rental_uris":{"android":"levelo://app?vid=bbba9c5c-706b-4f8c-825b-2426fadd18d1","ios":"levelo://app?vid=bbba9c5c-706b-4f8c-825b-2426fadd18d1"},"vehicle_type_id":"4","last_reported":1721232595,"current_range_meters":23200,"station_id":"ce4bgjh2rcd13ifvqbf0","pricing_plan_id":"cebpf4jnsgd1na2vs0mg"},{"bike_id":"229c4a97-80d6-4937-9588-3598d3373873","system_id":"levelo_inurba_marseille","lat":43.2936,"lon":5.37835,"is_reserved":false,"is_disabled":false,"rental_uris":{"android":"levelo://app?vid=229c4a97-80d6-4937-9588-3598d3373873","ios":"levelo://app?vid=229c4a97-80d6-4937-9588-3598d3373873"},"vehicle_type_id":"4","last_reported":1721232595,"current_range_meters":5200,"station_id":"ce4bgjh2rcd13ifvqbf0","pricing_plan_id":"cebpf4jnsgd1na2vs0mg"},{"bike_id":"9c6e8a20-6392-4db4-b8bc-23ea0c706885","system_id":"levelo_inurba_marseille","lat":43.2936,"lon":5.37835,"is_reserved":false,"is_disabled":false,"rental_uris":{"android":"levelo://app?vid=9c6e8a20-6392-4db4-b8bc-23ea0c706885","ios":"levelo://app?vid=9c6e8a20-6392-4db4-b8bc-23ea0c706885"},"vehicle_type_id":"4","last_reported":1721232595,"current_range_meters":12400,"station_id":"ce4bgjh2rcd13ifvqbf0","pricing_plan_id":"cebpf4jnsgd1na2vs0mg"},{"bike_id":"2c6927d9-ded3-4e65-a1fa-d401fb557f2a","system_id":"levelo_inurba_marseille","lat":43.2936,"lon":5.37835,"is_reserved":false,"is_disabled":false,"rental_uris":{"android":"levelo://app?vid=2c6927d9-ded3-4e65-a1fa-d401fb557f2a","ios":"levelo://app?vid=2c6927d9-ded3-4e65-a1fa-d401fb557f2a"},"vehicle_type_id":"4","last_reported":1721232595,"current_range_meters":11600,"station_id":"ce4bgjh2rcd13ifvqbf0","pricing_plan_id":"cebpf4jnsgd1na2vs0mg"},{"bike_id":"21b70599-36b0-4eda-84a9-254e2ea475b3","system_id":"levelo_inurba_marseille","lat":43.31167,"lon":5.39565,"is_reserved":false,"is_disabled":false,"rental_uris":{"android":"levelo://app?vid=21b70599-36b0-4eda-84a9-254e2ea475b3","ios":"levelo://app?vid=21b70599-36b0-4eda-84a9-254e2ea475b3"},"vehicle_type_id":"4","last_reported":1721232595,"current_range_meters":30000,"station_id":"","pricing_plan_id":"cebpf4jnsgd1na2vs0mg"},{"bike_id":"a089ea6b-5411-4f34-8481-2821ac6e5bcf","system_id":"levelo_inurba_marseille","lat":43.29224,"lon":5.36072,"is_reserved":false,"is_disabled":false,"rental_uris":{"android":"levelo://app?vid=a089ea6b-5411-4f34-8481-2821ac6e5bcf","ios":"levelo://app?vid=a089ea6b-5411-4f34-8481-2821ac6e5bcf"},"vehicle_type_id":"4","last_reported":1721232595,"current_range_meters":16000,"station_id":"ce4bhbh2rcd13ifvqeqg","pricing_plan_id":"cebpf4jnsgd1na2vs0mg"},{"bike_id":"29ec2764-073d-45e9-afe4-31aff6e16301","system_id":"levelo_inurba_marseille","lat":43.29222,"lon":5.36056,"is_reserved":false,"is_disabled":false,"rental_uris":{"android":"levelo://app?vid=29ec2764-073d-45e9-afe4-31aff6e16301","ios":"levelo://app?vid=29ec2764-073d-45e9-afe4-31aff6e16301"},"vehicle_type_id":"4","last_reported":1721232595,"current_range_meters":0,"station_id":"ce4bhbh2rcd13ifvqeqg","pricing_plan_id":"cebpf4jnsgd1na2vs0mg"},{"bike_id":"d90b6395-88e6-49b4-a813-945ce48c132e","system_id":"levelo_inurba_marseille","lat":43.300957,"lon":5.390957,"is_reserved":false,"is_disabled":false,"rental_uris":{"android":"levelo://app?vid=d90b6395-88e6-49b4-a813-945ce48c132e","ios":"levelo://app?vid=d90b6395-88e6-49b4-a813-945ce48c132e"},"vehicle_type_id":"4","last_reported":1721232595,"current_range_meters":31200,"station_id":"ce4bh192rcd13ifvqdb0","pricing_plan_id":"cebpf4jnsgd1na2vs0mg"},{"bike_id":"ba1e78a6-7e17-488e-b127-81b829c17b83","system_id":"levelo_inurba_marseille","lat":43.29216,"lon":5.360537,"is_reserved":false,"is_disabled":false,"rental_uris":{"android":"levelo://app?vid=ba1e78a6-7e17-488e-b127-81b829c17b83","ios":"levelo://app?vid=ba1e78a6-7e17-488e-b127-81b829c17b83"},"vehicle_type_id":"4","last_reported":1721232595,"current_range_meters":0,"station_id":"ce4bhbh2rcd13ifvqeqg","pricing_plan_id":"cebpf4jnsgd1na2vs0mg"},{"bike_id":"6b34f8cd-9d31-427b-99f4-d92a0c1e7cf3","system_id":"levelo_inurba_marseille","lat":43.29871,"lon":5.38904,"is_reserved":false,"is_disabled":false,"rental_uris":{"android":"levelo://app?vid=6b34f8cd-9d31-427b-99f4-d92a0c1e7cf3","ios":"levelo://app?vid=6b34f8cd-9d31-427b-99f4-d92a0c1e7cf3"},"vehicle_type_id":"4","last_reported":1721232595,"current_range_meters":30400,"station_id":"ce4bh392rcd13ifvqdl0","pricing_plan_id":"cebpf4jnsgd1na2vs0mg"},{"bike_id":"3136db66-9c05-404d-af58-9afa534fd691","system_id":"levelo_inurba_marseille","lat":43.292005,"lon":5.357875,"is_reserved":false,"is_disabled":false,"rental_uris":{"android":"levelo://app?vid=3136db66-9c05-404d-af58-9afa534fd691","ios":"levelo://app?vid=3136db66-9c05-404d-af58-9afa534fd691"},"vehicle_type_id":"4","last_reported":1721232595,"current_range_meters":1600,"station_id":"ce4bhb12rcd13ifvqel0","pricing_plan_id":"cebpf4jnsgd1na2vs0mg"},{"bike_id":"ff531c2b-4853-4c0b-9c84-e84c094a2bed","system_id":"levelo_inurba_marseille","lat":43.313291,"lon":5.396838,"is_reserved":false,"is_disabled":false,"rental_uris":{"android":"levelo://app?vid=ff531c2b-4853-4c0b-9c84-e84c094a2bed","ios":"levelo://app?vid=ff531c2b-4853-4c0b-9c84-e84c094a2bed"},"vehicle_type_id":"4","last_reported":1721232595,"current_range_meters":5200,"station_id":"ce4bgvp2rcd13ifvqcu0","pricing_plan_id":"cebpf4jnsgd1na2vs0mg"},{"bike_id":"35e95e33-8862-480a-b49f-ff35851fea67","system_id":"levelo_inurba_marseille","lat":43.309038,"lon":5.396546,"is_reserved":false,"is_disabled":false,"rental_uris":{"android":"levelo://app?vid=35e95e33-8862-480a-b49f-ff35851fea67","ios":"levelo://app?vid=35e95e33-8862-480a-b49f-ff35851fea67"},"vehicle_type_id":"4","last_reported":1721232595,"current_range_meters":3200,"station_id":"ce4bh012rcd13ifvqcv0","pricing_plan_id":"cebpf4jnsgd1na2vs0mg"},{"bike_id":"dd2529bc-4648-49f9-96de-dc3c8bdd9735","system_id":"levelo_inurba_marseille","lat":43.309038,"lon":5.396546,"is_reserved":false,"is_disabled":false,"rental_uris":{"android":"levelo://app?vid=dd2529bc-4648-49f9-96de-dc3c8bdd9735","ios":"levelo://app?vid=dd2529bc-4648-49f9-96de-dc3c8bdd9735"},"vehicle_type_id":"4","last_reported":1721232595,"current_range_meters":14400,"station_id":"ce4bh012rcd13ifvqcv0","pricing_plan_id":"cebpf4jnsgd1na2vs0mg"},{"bike_id":"e7b8a76e-e075-49fb-b8b1-baba39989e9e","system_id":"levelo_inurba_marseille","lat":43.29529,"lon":5.385581,"is_reserved":false,"is_disabled":false,"rental_uris":{"android":"levelo://app?vid=e7b8a76e-e075-49fb-b8b1-baba39989e9e","ios":"levelo://app?vid=e7b8a76e-e075-49fb-b8b1-baba39989e9e"},"vehicle_type_id":"4","last_reported":1721232595,"current_range_meters":25600,"station_id":"ce4bgih2rcd13ifvqba0","pricing_plan_id":"cebpf4jnsgd1na2vs0mg"},{"bike_id":"f275f2be-46ac-4661-b92f-0e3f9434a202","system_id":"levelo_inurba_marseille","lat":43.29529,"lon":5.385581,"is_reserved":false,"is_disabled":false,"rental_uris":{"android":"levelo://app?vid=f275f2be-46ac-4661-b92f-0e3f9434a202","ios":"levelo://app?vid=f275f2be-46ac-4661-b92f-0e3f9434a202"},"vehicle_type_id":"4","last_reported":1721232595,"current_range_meters":23200,"station_id":"ce4bgih2rcd13ifvqba0","pricing_plan_id":"cebpf4jnsgd1na2vs0mg"},{"bike_id":"8a0d5433-5cf6-4ff9-bb2a-5fa314147898","system_id":"levelo_inurba_marseille","lat":43.29529,"lon":5.385581,"is_reserved":false,"is_disabled":false,"rental_uris":{"android":"levelo://app?vid=8a0d5433-5cf6-4ff9-bb2a-5fa314147898","ios":"levelo://app?vid=8a0d5433-5cf6-4ff9-bb2a-5fa314147898"},"vehicle_type_id":"4","last_reported":1721232595,"current_range_meters":14400,"station_id":"ce4bgih2rcd13ifvqba0","pricing_plan_id":"cebpf4jnsgd1na2vs0mg"},{"bike_id":"a780c7af-04b0-409b-b996-96eade485d87","system_id":"levelo_inurba_marseille","lat":43.302008,"lon":5.394694,"is_reserved":false,"is_disabled":false,"rental_uris":{"android":"levelo://app?vid=a780c7af-04b0-409b-b996-96eade485d87","ios":"levelo://app?vid=a780c7af-04b0-409b-b996-96eade485d87"},"vehicle_type_id":"4","last_reported":1721232595,"current_range_meters":14400,"station_id":"ce4bh0p2rcd13ifvqd70","pricing_plan_id":"cebpf4jnsgd1na2vs0mg"},{"bike_id":"42fc4525-8fb2-4487-957b-b6d0dbb2589c","system_id":"levelo_inurba_marseille","lat":43.302008,"lon":5.394694,"is_reserved":false,"is_disabled":false,"rental_uris":{"android":"levelo://app?vid=42fc4525-8fb2-4487-957b-b6d0dbb2589c","ios":"levelo://app?vid=42fc4525-8fb2-4487-957b-b6d0dbb2589c"},"vehicle_type_id":"4","last_reported":1721232595,"current_range_meters":0,"station_id":"ce4bh0p2rcd13ifvqd70","pricing_plan_id":"cebpf4jnsgd1na2vs0mg"},{"bike_id":"af83eb1c-f55a-492b-8429-c77c16e077c3","system_id":"levelo_inurba_marseille","lat":43.294162,"lon":5.386292,"is_reserved":false,"is_disabled":false,"rental_uris":{"android":"levelo://app?vid=af83eb1c-f55a-492b-8429-c77c16e077c3","ios":"levelo://app?vid=af83eb1c-f55a-492b-8429-c77c16e077c3"},"vehicle_type_id":"4","last_reported":1721232595,"current_range_meters":0,"station_id":"ce4bh2h2rcd13ifvqdh0","pricing_plan_id":"cebpf4jnsgd1na2vs0mg"},{"bike_id":"163786dd-0a9a-40a8-b30f-f9ab85744583","system_id":"levelo_inurba_marseille","lat":43.304296,"lon":5.397513,"is_reserved":false,"is_disabled":false,"rental_uris":{"android":"levelo://app?vid=163786dd-0a9a-40a8-b30f-f9ab85744583","ios":"levelo://app?vid=163786dd-0a9a-40a8-b30f-f9ab85744583"},"vehicle_type_id":"4","last_reported":1721232595,"current_range_meters":19600,"station_id":"ce4bh092rcd13ifvqd20","pricing_plan_id":"cebpf4jnsgd1na2vs0mg"},{"bike_id":"a18825e1-8ff2-4141-942e-df8da9280e14","system_id":"levelo_inurba_marseille","lat":43.292644,"lon":5.384257,"is_reserved":false,"is_disabled":false,"rental_uris":{"android":"levelo://app?vid=a18825e1-8ff2-4141-942e-df8da9280e14","ios":"levelo://app?vid=a18825e1-8ff2-4141-942e-df8da9280e14"},"vehicle_type_id":"4","last_reported":1721232595,"current_range_meters":29200,"station_id":"ce4bh692rcd13ifvqea0","pricing_plan_id":"cebpf4jnsgd1na2vs0mg"},{"bike_id":"11007fd2-1050-4c7a-9e17-572b44d02e6e","system_id":"levelo_inurba_marseille","lat":43.290103,"lon":5.356114,"is_reserved":false,"is_disabled":false,"rental_uris":{"android":"levelo://app?vid=11007fd2-1050-4c7a-9e17-572b44d02e6e","ios":"levelo://app?vid=11007fd2-1050-4c7a-9e17-572b44d02e6e"},"vehicle_type_id":"4","last_reported":1721232595,"current_range_meters":0,"station_id":"ce4bhb92rcd13ifvqen0","pricing_plan_id":"cebpf4jnsgd1na2vs0mg"},{"bike_id":"5dfb4070-3db6-4e32-b1b3-c64a503b97d9","system_id":"levelo_inurba_marseille","lat":43.29003,"lon":5.35619,"is_reserved":false,"is_disabled":false,"rental_uris":{"android":"levelo://app?vid=5dfb4070-3db6-4e32-b1b3-c64a503b97d9","ios":"levelo://app?vid=5dfb4070-3db6-4e32-b1b3-c64a503b97d9"},"vehicle_type_id":"4","last_reported":1721232595,"current_range_meters":0,"station_id":"ce4bhb92rcd13ifvqen0","pricing_plan_id":"cebpf4jnsgd1na2vs0mg"},{"bike_id":"13bce40c-70d6-4b59-aa9e-03799e691c04","system_id":"levelo_inurba_marseille","lat":43.290104,"lon":5.356111,"is_reserved":false,"is_disabled":false,"rental_uris":{"android":"levelo://app?vid=13bce40c-70d6-4b59-aa9e-03799e691c04","ios":"levelo://app?vid=13bce40c-70d6-4b59-aa9e-03799e691c04"},"vehicle_type_id":"4","last_reported":1721232595,"current_range_meters":17600,"station_id":"ce4bhb92rcd13ifvqen0","pricing_plan_id":"cebpf4jnsgd1na2vs0mg"},{"bike_id":"aa01afa2-4bee-4c06-9a5a-1d21e2d0e395","system_id":"levelo_inurba_marseille","lat":43.290995,"lon":5.381361,"is_reserved":false,"is_disabled":false,"rental_uris":{"android":"levelo://app?vid=aa01afa2-4bee-4c06-9a5a-1d21e2d0e395","ios":"levelo://app?vid=aa01afa2-4bee-4c06-9a5a-1d21e2d0e395"},"vehicle_type_id":"4","last_reported":1721232595,"current_range_meters":27600,"station_id":"ce4bh512rcd13ifvqe2g","pricing_plan_id":"cebpf4jnsgd1na2vs0mg"},{"bike_id":"db643eca-49c7-4550-a2a7-4aa5a3a2d3a7","system_id":"levelo_inurba_marseille","lat":43.290995,"lon":5.381361,"is_reserved":false,"is_disabled":false,"rental_uris":{"android":"levelo://app?vid=db643eca-49c7-4550-a2a7-4aa5a3a2d3a7","ios":"levelo://app?vid=db643eca-49c7-4550-a2a7-4aa5a3a2d3a7"},"vehicle_type_id":"4","last_reported":1721232595,"current_range_meters":1200,"station_id":"ce4bh512rcd13ifvqe2g","pricing_plan_id":"cebpf4jnsgd1na2vs0mg"},{"bike_id":"7a04fc4e-bd14-4d30-847c-66c96881e59c","system_id":"levelo_inurba_marseille","lat":43.295169,"lon":5.390426,"is_reserved":false,"is_disabled":false,"rental_uris":{"android":"levelo://app?vid=7a04fc4e-bd14-4d30-847c-66c96881e59c","ios":"levelo://app?vid=7a04fc4e-bd14-4d30-847c-66c96881e59c"},"vehicle_type_id":"4","last_reported":1721232595,"current_range_meters":4400,"station_id":"ce4bh3p2rcd13ifvqdp0","pricing_plan_id":"cebpf4jnsgd1na2vs0mg"},{"bike_id":"af29b126-5533-4925-9769-a72c81292a2b","system_id":"levelo_inurba_marseille","lat":43.330442,"lon":5.389148,"is_reserved":false,"is_disabled":false,"rental_uris":{"android":"levelo://app?vid=af29b126-5533-4925-9769-a72c81292a2b","ios":"levelo://app?vid=af29b126-5533-4925-9769-a72c81292a2b"},"vehicle_type_id":"4","last_reported":1721232595,"current_range_meters":0,"station_id":"ce4bhr92rcd13ifvqhrg","pricing_plan_id":"cebpf4jnsgd1na2vs0mg"},{"bike_id":"dcf627b4-2284-4070-ac27-72af958f5550","system_id":"levelo_inurba_marseille","lat":43.29016,"lon":5.38142,"is_reserved":false,"is_disabled":false,"rental_uris":{"android":"levelo://app?vid=dcf627b4-2284-4070-ac27-72af958f5550","ios":"levelo://app?vid=dcf627b4-2284-4070-ac27-72af958f5550"},"vehicle_type_id":"4","last_reported":1721232595,"current_range_meters":0,"station_id":"ce4bh4p2rcd13ifvqe1g","pricing_plan_id":"cebpf4jnsgd1na2vs0mg"},{"bike_id":"0df0bd0c-376c-4244-b646-8f8b200314e9","system_id":"levelo_inurba_marseille","lat":43.28856,"lon":5.358371,"is_reserved":false,"is_disabled":false,"rental_uris":{"android":"levelo://app?vid=0df0bd0c-376c-4244-b646-8f8b200314e9","ios":"levelo://app?vid=0df0bd0c-376c-4244-b646-8f8b200314e9"},"vehicle_type_id":"4","last_reported":1721232595,"current_range_meters":9200,"station_id":"ce4bhb12rcd13ifvqem0","pricing_plan_id":"cebpf4jnsgd1na2vs0mg"},{"bike_id":"6b42072a-7bdb-4684-84c0-250feb98c5b5","system_id":"levelo_inurba_marseille","lat":43.28856,"lon":5.358371,"is_reserved":false,"is_disabled":false,"rental_uris":{"android":"levelo://app?vid=6b42072a-7bdb-4684-84c0-250feb98c5b5","ios":"levelo://app?vid=6b42072a-7bdb-4684-84c0-250feb98c5b5"},"vehicle_type_id":"4","last_reported":1721232595,"current_range_meters":2400,"station_id":"ce4bhb12rcd13ifvqem0","pricing_plan_id":"cebpf4jnsgd1na2vs0mg"},{"bike_id":"8600e16b-daf0-46ea-884c-6f8329b6f2a7","system_id":"levelo_inurba_marseille","lat":43.312609,"lon":5.401662,"is_reserved":false,"is_disabled":false,"rental_uris":{"android":"levelo://app?vid=8600e16b-daf0-46ea-884c-6f8329b6f2a7","ios":"levelo://app?vid=8600e16b-daf0-46ea-884c-6f8329b6f2a7"},"vehicle_type_id":"4","last_reported":1721232595,"current_range_meters":27600,"station_id":"ce4bh092rcd13ifvqd30","pricing_plan_id":"cebpf4jnsgd1na2vs0mg"},{"bike_id":"d7de6c4b-8570-47a6-877c-5b9f75d52620","system_id":"levelo_inurba_marseille","lat":43.312609,"lon":5.401662,"is_reserved":false,"is_disabled":false,"rental_uris":{"android":"levelo://app?vid=d7de6c4b-8570-47a6-877c-5b9f75d52620","ios":"levelo://app?vid=d7de6c4b-8570-47a6-877c-5b9f75d52620"},"vehicle_type_id":"4","last_reported":1721232595,"current_range_meters":12400,"station_id":"ce4bh092rcd13ifvqd30","pricing_plan_id":"cebpf4jnsgd1na2vs0mg"},{"bike_id":"7360c626-3011-4718-bb9b-595f57818039","system_id":"levelo_inurba_marseille","lat":43.312609,"lon":5.401662,"is_reserved":false,"is_disabled":false,"rental_uris":{"android":"levelo://app?vid=7360c626-3011-4718-bb9b-595f57818039","ios":"levelo://app?vid=7360c626-3011-4718-bb9b-595f57818039"},"vehicle_type_id":"4","last_reported":1721232595,"current_range_meters":8800,"station_id":"ce4bh092rcd13ifvqd30","pricing_plan_id":"cebpf4jnsgd1na2vs0mg"},{"bike_id":"7a6e8fce-e332-4063-b0d8-346aafdbdcec","system_id":"levelo_inurba_marseille","lat":43.312609,"lon":5.401662,"is_reserved":false,"is_disabled":false,"rental_uris":{"android":"levelo://app?vid=7a6e8fce-e332-4063-b0d8-346aafdbdcec","ios":"levelo://app?vid=7a6e8fce-e332-4063-b0d8-346aafdbdcec"},"vehicle_type_id":"4","last_reported":1721232595,"current_range_meters":0,"station_id":"ce4bh092rcd13ifvqd30","pricing_plan_id":"cebpf4jnsgd1na2vs0mg"},{"bike_id":"3ded6e91-e8b3-4bd4-8842-9f72623763a2","system_id":"levelo_inurba_marseille","lat":43.312609,"lon":5.401662,"is_reserved":false,"is_disabled":false,"rental_uris":{"android":"levelo://app?vid=3ded6e91-e8b3-4bd4-8842-9f72623763a2","ios":"levelo://app?vid=3ded6e91-e8b3-4bd4-8842-9f72623763a2"},"vehicle_type_id":"4","last_reported":1721232595,"current_range_meters":7600,"station_id":"ce4bh092rcd13ifvqd30","pricing_plan_id":"cebpf4jnsgd1na2vs0mg"},{"bike_id":"ca40d29c-c34f-4aae-8f45-33e64501d56f","system_id":"levelo_inurba_marseille","lat":43.309371,"lon":5.401449,"is_reserved":false,"is_disabled":false,"rental_uris":{"android":"levelo://app?vid=ca40d29c-c34f-4aae-8f45-33e64501d56f","ios":"levelo://app?vid=ca40d29c-c34f-4aae-8f45-33e64501d56f"},"vehicle_type_id":"4","last_reported":1721232595,"current_range_meters":0,"station_id":"ce4bgvp2rcd13ifvqct0","pricing_plan_id":"cebpf4jnsgd1na2vs0mg"},{"bike_id":"a7183b6f-1520-47c2-aa63-4a578a4c82f8","system_id":"levelo_inurba_marseille","lat":43.309371,"lon":5.401449,"is_reserved":false,"is_disabled":false,"rental_uris":{"android":"levelo://app?vid=a7183b6f-1520-47c2-aa63-4a578a4c82f8","ios":"levelo://app?vid=a7183b6f-1520-47c2-aa63-4a578a4c82f8"},"vehicle_type_id":"4","last_reported":1721232595,"current_range_meters":11200,"station_id":"ce4bgvp2rcd13ifvqct0","pricing_plan_id":"cebpf4jnsgd1na2vs0mg"},{"bike_id":"941ada0d-f46b-4323-b80d-63b833b17bc3","system_id":"levelo_inurba_marseille","lat":43.3093,"lon":5.40148,"is_reserved":false,"is_disabled":false,"rental_uris":{"android":"levelo://app?vid=941ada0d-f46b-4323-b80d-63b833b17bc3","ios":"levelo://app?vid=941ada0d-f46b-4323-b80d-63b833b17bc3"},"vehicle_type_id":"4","last_reported":1721232595,"current_range_meters":1200,"station_id":"ce4bgvp2rcd13ifvqct0","pricing_plan_id":"cebpf4jnsgd1na2vs0mg"},{"bike_id":"d178c787-21f1-4941-8ec7-154d892e7b32","system_id":"levelo_inurba_marseille","lat":43.33754,"lon":5.37454,"is_reserved":false,"is_disabled":false,"rental_uris":{"android":"levelo://app?vid=d178c787-21f1-4941-8ec7-154d892e7b32","ios":"levelo://app?vid=d178c787-21f1-4941-8ec7-154d892e7b32"},"vehicle_type_id":"4","last_reported":1721232595,"current_range_meters":29600,"station_id":"","pricing_plan_id":"cebpf4jnsgd1na2vs0mg"},{"bike_id":"8d110055-f2dc-4581-9f36-be92f66c9d34","system_id":"levelo_inurba_marseille","lat":43.33756,"lon":5.37462,"is_reserved":false,"is_disabled":false,"rental_uris":{"android":"levelo://app?vid=8d110055-f2dc-4581-9f36-be92f66c9d34","ios":"levelo://app?vid=8d110055-f2dc-4581-9f36-be92f66c9d34"},"vehicle_type_id":"4","last_reported":1721232595,"current_range_meters":27600,"station_id":"","pricing_plan_id":"cebpf4jnsgd1na2vs0mg"},{"bike_id":"8391f7cc-1acd-4ec9-a3ef-60f9a479b64d","system_id":"levelo_inurba_marseille","lat":43.337572,"lon":5.374554,"is_reserved":false,"is_disabled":false,"rental_uris":{"android":"levelo://app?vid=8391f7cc-1acd-4ec9-a3ef-60f9a479b64d","ios":"levelo://app?vid=8391f7cc-1acd-4ec9-a3ef-60f9a479b64d"},"vehicle_type_id":"4","last_reported":1721232595,"current_range_meters":6000,"station_id":"","pricing_plan_id":"cebpf4jnsgd1na2vs0mg"},{"bike_id":"136a8749-c2ba-4e9a-8544-4b41408ca3d4","system_id":"levelo_inurba_marseille","lat":43.33758,"lon":5.37462,"is_reserved":false,"is_disabled":false,"rental_uris":{"android":"levelo://app?vid=136a8749-c2ba-4e9a-8544-4b41408ca3d4","ios":"levelo://app?vid=136a8749-c2ba-4e9a-8544-4b41408ca3d4"},"vehicle_type_id":"4","last_reported":1721232595,"current_range_meters":21600,"station_id":"","pricing_plan_id":"cebpf4jnsgd1na2vs0mg"},{"bike_id":"04a65d87-0f41-4be0-ae0e-5dbaae26fe78","system_id":"levelo_inurba_marseille","lat":43.30642,"lon":5.401031,"is_reserved":false,"is_disabled":false,"rental_uris":{"android":"levelo://app?vid=04a65d87-0f41-4be0-ae0e-5dbaae26fe78","ios":"levelo://app?vid=04a65d87-0f41-4be0-ae0e-5dbaae26fe78"},"vehicle_type_id":"4","last_reported":1721232595,"current_range_meters":0,"station_id":"ce4bh112rcd13ifvqda0","pricing_plan_id":"cebpf4jnsgd1na2vs0mg"},{"bike_id":"e5ffe072-00bc-42de-af00-fd4a17cd8f07","system_id":"levelo_inurba_marseille","lat":43.306412,"lon":5.401035,"is_reserved":false,"is_disabled":false,"rental_uris":{"android":"levelo://app?vid=e5ffe072-00bc-42de-af00-fd4a17cd8f07","ios":"levelo://app?vid=e5ffe072-00bc-42de-af00-fd4a17cd8f07"},"vehicle_type_id":"4","last_reported":1721232595,"current_range_meters":8800,"station_id":"ce4bh112rcd13ifvqda0","pricing_plan_id":"cebpf4jnsgd1na2vs0mg"},{"bike_id":"bff5410f-1057-42af-803e-c5ec135fae9a","system_id":"levelo_inurba_marseille","lat":43.301117,"lon":5.398795,"is_reserved":false,"is_disabled":false,"rental_uris":{"android":"levelo://app?vid=bff5410f-1057-42af-803e-c5ec135fae9a","ios":"levelo://app?vid=bff5410f-1057-42af-803e-c5ec135fae9a"},"vehicle_type_id":"4","last_reported":1721232595,"current_range_meters":13200,"station_id":"ce4bh0h2rcd13ifvqd40","pricing_plan_id":"cebpf4jnsgd1na2vs0mg"},{"bike_id":"82ef61ff-8b5a-4217-a78e-8160f8b70915","system_id":"levelo_inurba_marseille","lat":43.301117,"lon":5.398795,"is_reserved":false,"is_disabled":false,"rental_uris":{"android":"levelo://app?vid=82ef61ff-8b5a-4217-a78e-8160f8b70915","ios":"levelo://app?vid=82ef61ff-8b5a-4217-a78e-8160f8b70915"},"vehicle_type_id":"4","last_reported":1721232595,"current_range_meters":2400,"station_id":"ce4bh0h2rcd13ifvqd40","pricing_plan_id":"cebpf4jnsgd1na2vs0mg"},{"bike_id":"6b5fc9e7-7b00-470c-af76-408faf8dc568","system_id":"levelo_inurba_marseille","lat":43.28727,"lon":5.36078,"is_reserved":false,"is_disabled":false,"rental_uris":{"android":"levelo://app?vid=6b5fc9e7-7b00-470c-af76-408faf8dc568","ios":"levelo://app?vid=6b5fc9e7-7b00-470c-af76-408faf8dc568"},"vehicle_type_id":"4","last_reported":1721232595,"current_range_meters":5600,"station_id":"cki0cbj6b192h4jlfktg","pricing_plan_id":"cebpf4jnsgd1na2vs0mg"},{"bike_id":"88a0c42d-4e2c-4a71-95a4-d91e6025a886","system_id":"levelo_inurba_marseille","lat":43.28727,"lon":5.36078,"is_reserved":false,"is_disabled":false,"rental_uris":{"android":"levelo://app?vid=88a0c42d-4e2c-4a71-95a4-d91e6025a886","ios":"levelo://app?vid=88a0c42d-4e2c-4a71-95a4-d91e6025a886"},"vehicle_type_id":"4","last_reported":1721232595,"current_range_meters":16000,"station_id":"cki0cbj6b192h4jlfktg","pricing_plan_id":"cebpf4jnsgd1na2vs0mg"},{"bike_id":"564d2a1e-3831-491b-a951-df7ad9f828b4","system_id":"levelo_inurba_marseille","lat":43.28727,"lon":5.36078,"is_reserved":false,"is_disabled":false,"rental_uris":{"android":"levelo://app?vid=564d2a1e-3831-491b-a951-df7ad9f828b4","ios":"levelo://app?vid=564d2a1e-3831-491b-a951-df7ad9f828b4"},"vehicle_type_id":"4","last_reported":1721232595,"current_range_meters":16800,"station_id":"cki0cbj6b192h4jlfktg","pricing_plan_id":"cebpf4jnsgd1na2vs0mg"},{"bike_id":"7d2a4ced-de49-432e-9335-cd934a5b1262","system_id":"levelo_inurba_marseille","lat":43.298681,"lon":5.397225,"is_reserved":false,"is_disabled":false,"rental_uris":{"android":"levelo://app?vid=7d2a4ced-de49-432e-9335-cd934a5b1262","ios":"levelo://app?vid=7d2a4ced-de49-432e-9335-cd934a5b1262"},"vehicle_type_id":"4","last_reported":1721232595,"current_range_meters":24400,"station_id":"ce4bh0h2rcd13ifvqd50","pricing_plan_id":"cebpf4jnsgd1na2vs0mg"},{"bike_id":"a0ac6d80-27bc-4bb8-91b8-70063148198a","system_id":"levelo_inurba_marseille","lat":43.286591,"lon":5.363346,"is_reserved":false,"is_disabled":false,"rental_uris":{"android":"levelo://app?vid=a0ac6d80-27bc-4bb8-91b8-70063148198a","ios":"levelo://app?vid=a0ac6d80-27bc-4bb8-91b8-70063148198a"},"vehicle_type_id":"4","last_reported":1721232595,"current_range_meters":15600,"station_id":"ce4bhah2rcd13ifvqej0","pricing_plan_id":"cebpf4jnsgd1na2vs0mg"},{"bike_id":"adde0f1e-9097-40d2-9993-6620edfcfcc4","system_id":"levelo_inurba_marseille","lat":43.286591,"lon":5.363346,"is_reserved":false,"is_disabled":false,"rental_uris":{"android":"levelo://app?vid=adde0f1e-9097-40d2-9993-6620edfcfcc4","ios":"levelo://app?vid=adde0f1e-9097-40d2-9993-6620edfcfcc4"},"vehicle_type_id":"4","last_reported":1721232595,"current_range_meters":4400,"station_id":"ce4bhah2rcd13ifvqej0","pricing_plan_id":"cebpf4jnsgd1na2vs0mg"},{"bike_id":"39d5bb90-0958-4911-a0b7-baa2ce783d2c","system_id":"levelo_inurba_marseille","lat":43.286591,"lon":5.363346,"is_reserved":false,"is_disabled":false,"rental_uris":{"android":"levelo://app?vid=39d5bb90-0958-4911-a0b7-baa2ce783d2c","ios":"levelo://app?vid=39d5bb90-0958-4911-a0b7-baa2ce783d2c"},"vehicle_type_id":"4","last_reported":1721232595,"current_range_meters":0,"station_id":"ce4bhah2rcd13ifvqej0","pricing_plan_id":"cebpf4jnsgd1na2vs0mg"},{"bike_id":"61790245-5a89-4624-9073-f729afa64e43","system_id":"levelo_inurba_marseille","lat":43.286591,"lon":5.363346,"is_reserved":false,"is_disabled":false,"rental_uris":{"android":"levelo://app?vid=61790245-5a89-4624-9073-f729afa64e43","ios":"levelo://app?vid=61790245-5a89-4624-9073-f729afa64e43"},"vehicle_type_id":"4","last_reported":1721232595,"current_range_meters":800,"station_id":"ce4bhah2rcd13ifvqej0","pricing_plan_id":"cebpf4jnsgd1na2vs0mg"},{"bike_id":"bf335b26-276b-4cd5-94c6-ec398f11b606","system_id":"levelo_inurba_marseille","lat":43.286961,"lon":5.373785,"is_reserved":false,"is_disabled":false,"rental_uris":{"android":"levelo://app?vid=bf335b26-276b-4cd5-94c6-ec398f11b606","ios":"levelo://app?vid=bf335b26-276b-4cd5-94c6-ec398f11b606"},"vehicle_type_id":"4","last_reported":1721232595,"current_range_meters":2000,"station_id":"ce4bh3p2rcd13ifvqdq0","pricing_plan_id":"cebpf4jnsgd1na2vs0mg"},{"bike_id":"9a0ccafa-eb08-4ceb-b771-338f75577ad2","system_id":"levelo_inurba_marseille","lat":43.286593,"lon":5.363346,"is_reserved":false,"is_disabled":false,"rental_uris":{"android":"levelo://app?vid=9a0ccafa-eb08-4ceb-b771-338f75577ad2","ios":"levelo://app?vid=9a0ccafa-eb08-4ceb-b771-338f75577ad2"},"vehicle_type_id":"4","last_reported":1721232595,"current_range_meters":8800,"station_id":"ce4bhah2rcd13ifvqej0","pricing_plan_id":"cebpf4jnsgd1na2vs0mg"},{"bike_id":"c87d77f9-12d6-4dc5-ac9b-062154e9cea1","system_id":"levelo_inurba_marseille","lat":43.28696,"lon":5.3741,"is_reserved":false,"is_disabled":false,"rental_uris":{"android":"levelo://app?vid=c87d77f9-12d6-4dc5-ac9b-062154e9cea1","ios":"levelo://app?vid=c87d77f9-12d6-4dc5-ac9b-062154e9cea1"},"vehicle_type_id":"4","last_reported":1721232595,"current_range_meters":10400,"station_id":"","pricing_plan_id":"cebpf4jnsgd1na2vs0mg"},{"bike_id":"3f468615-7961-4773-880c-47e6ad46421e","system_id":"levelo_inurba_marseille","lat":43.290336,"lon":5.386425,"is_reserved":false,"is_disabled":false,"rental_uris":{"android":"levelo://app?vid=3f468615-7961-4773-880c-47e6ad46421e","ios":"levelo://app?vid=3f468615-7961-4773-880c-47e6ad46421e"},"vehicle_type_id":"4","last_reported":1721232595,"current_range_meters":0,"station_id":"ce4bh4p2rcd13ifvqe0g","pricing_plan_id":"cebpf4jnsgd1na2vs0mg"},{"bike_id":"1e425008-73a0-4434-a493-90e3aa20e291","system_id":"levelo_inurba_marseille","lat":43.286128,"lon":5.370643,"is_reserved":false,"is_disabled":false,"rental_uris":{"android":"levelo://app?vid=1e425008-73a0-4434-a493-90e3aa20e291","ios":"levelo://app?vid=1e425008-73a0-4434-a493-90e3aa20e291"},"vehicle_type_id":"4","last_reported":1721232595,"current_range_meters":11200,"station_id":"ce4bht12rcd13ifvqi60","pricing_plan_id":"cebpf4jnsgd1na2vs0mg"},{"bike_id":"53a97ccd-ab9d-416b-9266-79c2570b404a","system_id":"levelo_inurba_marseille","lat":43.286108,"lon":5.370708,"is_reserved":false,"is_disabled":false,"rental_uris":{"android":"levelo://app?vid=53a97ccd-ab9d-416b-9266-79c2570b404a","ios":"levelo://app?vid=53a97ccd-ab9d-416b-9266-79c2570b404a"},"vehicle_type_id":"4","last_reported":1721232595,"current_range_meters":8400,"station_id":"ce4bht12rcd13ifvqi60","pricing_plan_id":"cebpf4jnsgd1na2vs0mg"},{"bike_id":"33eca454-48a3-450a-b74b-c5c1ff25e5c2","system_id":"levelo_inurba_marseille","lat":43.28608,"lon":5.37063,"is_reserved":false,"is_disabled":false,"rental_uris":{"android":"levelo://app?vid=33eca454-48a3-450a-b74b-c5c1ff25e5c2","ios":"levelo://app?vid=33eca454-48a3-450a-b74b-c5c1ff25e5c2"},"vehicle_type_id":"4","last_reported":1721232595,"current_range_meters":30000,"station_id":"ce4bht12rcd13ifvqi60","pricing_plan_id":"cebpf4jnsgd1na2vs0mg"},{"bike_id":"5c0c63c8-558a-450b-bfa5-9a7d65aef75a","system_id":"levelo_inurba_marseille","lat":43.316821,"lon":5.404737,"is_reserved":false,"is_disabled":false,"rental_uris":{"android":"levelo://app?vid=5c0c63c8-558a-450b-bfa5-9a7d65aef75a","ios":"levelo://app?vid=5c0c63c8-558a-450b-bfa5-9a7d65aef75a"},"vehicle_type_id":"4","last_reported":1721232595,"current_range_meters":4000,"station_id":"ce4bh012rcd13ifvqd00","pricing_plan_id":"cebpf4jnsgd1na2vs0mg"},{"bike_id":"f9c4fb96-9b24-4555-aa29-5c8905d30fc3","system_id":"levelo_inurba_marseille","lat":43.291994,"lon":5.392907,"is_reserved":false,"is_disabled":false,"rental_uris":{"android":"levelo://app?vid=f9c4fb96-9b24-4555-aa29-5c8905d30fc3","ios":"levelo://app?vid=f9c4fb96-9b24-4555-aa29-5c8905d30fc3"},"vehicle_type_id":"4","last_reported":1721232595,"current_range_meters":0,"station_id":"ce4bh192rcd13ifvqdd0","pricing_plan_id":"cebpf4jnsgd1na2vs0mg"},{"bike_id":"ae358720-9fda-420f-9e56-3f922bfc3be3","system_id":"levelo_inurba_marseille","lat":43.31318,"lon":5.405865,"is_reserved":false,"is_disabled":false,"rental_uris":{"android":"levelo://app?vid=ae358720-9fda-420f-9e56-3f922bfc3be3","ios":"levelo://app?vid=ae358720-9fda-420f-9e56-3f922bfc3be3"},"vehicle_type_id":"4","last_reported":1721232595,"current_range_meters":21600,"station_id":"","pricing_plan_id":"cebpf4jnsgd1na2vs0mg"},{"bike_id":"7f524edc-1e72-4548-a204-22065c44f6df","system_id":"levelo_inurba_marseille","lat":43.284534,"lon":5.358662,"is_reserved":false,"is_disabled":false,"rental_uris":{"android":"levelo://app?vid=7f524edc-1e72-4548-a204-22065c44f6df","ios":"levelo://app?vid=7f524edc-1e72-4548-a204-22065c44f6df"},"vehicle_type_id":"4","last_reported":1721232595,"current_range_meters":20400,"station_id":"ce4bhah2rcd13ifvqei0","pricing_plan_id":"cebpf4jnsgd1na2vs0mg"},{"bike_id":"c3933908-8710-4f2c-9f6b-562a19ed7eca","system_id":"levelo_inurba_marseille","lat":43.284534,"lon":5.358662,"is_reserved":false,"is_disabled":false,"rental_uris":{"android":"levelo://app?vid=c3933908-8710-4f2c-9f6b-562a19ed7eca","ios":"levelo://app?vid=c3933908-8710-4f2c-9f6b-562a19ed7eca"},"vehicle_type_id":"4","last_reported":1721232595,"current_range_meters":1600,"station_id":"ce4bhah2rcd13ifvqei0","pricing_plan_id":"cebpf4jnsgd1na2vs0mg"},{"bike_id":"ccffa13a-fa54-4544-b44e-8adee4ca6bbd","system_id":"levelo_inurba_marseille","lat":43.294314,"lon":5.397498,"is_reserved":false,"is_disabled":false,"rental_uris":{"android":"levelo://app?vid=ccffa13a-fa54-4544-b44e-8adee4ca6bbd","ios":"levelo://app?vid=ccffa13a-fa54-4544-b44e-8adee4ca6bbd"},"vehicle_type_id":"4","last_reported":1721232595,"current_range_meters":3600,"station_id":"ce4bh3h2rcd13ifvqdo0","pricing_plan_id":"cebpf4jnsgd1na2vs0mg"},{"bike_id":"6a5c1a56-724e-4567-8e8e-fea82393c551","system_id":"levelo_inurba_marseille","lat":43.286248,"lon":5.351042,"is_reserved":false,"is_disabled":false,"rental_uris":{"android":"levelo://app?vid=6a5c1a56-724e-4567-8e8e-fea82393c551","ios":"levelo://app?vid=6a5c1a56-724e-4567-8e8e-fea82393c551"},"vehicle_type_id":"4","last_reported":1721232595,"current_range_meters":30800,"station_id":"ce4bhch2rcd13ifvqeug","pricing_plan_id":"cebpf4jnsgd1na2vs0mg"},{"bike_id":"44aa7942-e4bb-4dfb-90d1-ee0883b0f1ac","system_id":"levelo_inurba_marseille","lat":43.28619,"lon":5.35111,"is_reserved":false,"is_disabled":false,"rental_uris":{"android":"levelo://app?vid=44aa7942-e4bb-4dfb-90d1-ee0883b0f1ac","ios":"levelo://app?vid=44aa7942-e4bb-4dfb-90d1-ee0883b0f1ac"},"vehicle_type_id":"4","last_reported":1721232595,"current_range_meters":7200,"station_id":"ce4bhch2rcd13ifvqeug","pricing_plan_id":"cebpf4jnsgd1na2vs0mg"},{"bike_id":"89c695eb-86ff-4d8a-81dd-7f5b1e2ed39e","system_id":"levelo_inurba_marseille","lat":43.2862,"lon":5.35106,"is_reserved":false,"is_disabled":false,"rental_uris":{"android":"levelo://app?vid=89c695eb-86ff-4d8a-81dd-7f5b1e2ed39e","ios":"levelo://app?vid=89c695eb-86ff-4d8a-81dd-7f5b1e2ed39e"},"vehicle_type_id":"4","last_reported":1721232595,"current_range_meters":800,"station_id":"ce4bhch2rcd13ifvqeug","pricing_plan_id":"cebpf4jnsgd1na2vs0mg"},{"bike_id":"9d994f97-ec23-4cb0-a5ed-7d8948e72e4b","system_id":"levelo_inurba_marseille","lat":43.28618,"lon":5.35112,"is_reserved":false,"is_disabled":false,"rental_uris":{"android":"levelo://app?vid=9d994f97-ec23-4cb0-a5ed-7d8948e72e4b","ios":"levelo://app?vid=9d994f97-ec23-4cb0-a5ed-7d8948e72e4b"},"vehicle_type_id":"4","last_reported":1721232595,"current_range_meters":10400,"station_id":"ce4bhch2rcd13ifvqeug","pricing_plan_id":"cebpf4jnsgd1na2vs0mg"},{"bike_id":"38174f8c-f26f-4da1-864a-02d2524f0132","system_id":"levelo_inurba_marseille","lat":43.28617,"lon":5.35114,"is_reserved":false,"is_disabled":false,"rental_uris":{"android":"levelo://app?vid=38174f8c-f26f-4da1-864a-02d2524f0132","ios":"levelo://app?vid=38174f8c-f26f-4da1-864a-02d2524f0132"},"vehicle_type_id":"4","last_reported":1721232595,"current_range_meters":20400,"station_id":"","pricing_plan_id":"cebpf4jnsgd1na2vs0mg"},{"bike_id":"478896a1-6d35-4cad-9d89-6bbf410fc25b","system_id":"levelo_inurba_marseille","lat":43.2862,"lon":5.35102,"is_reserved":false,"is_disabled":false,"rental_uris":{"android":"levelo://app?vid=478896a1-6d35-4cad-9d89-6bbf410fc25b","ios":"levelo://app?vid=478896a1-6d35-4cad-9d89-6bbf410fc25b"},"vehicle_type_id":"4","last_reported":1721232595,"current_range_meters":31200,"station_id":"ce4bhch2rcd13ifvqeug","pricing_plan_id":"cebpf4jnsgd1na2vs0mg"},{"bike_id":"a284e704-b4a1-44a5-a8c4-89b77985d979","system_id":"levelo_inurba_marseille","lat":43.28616,"lon":5.35114,"is_reserved":false,"is_disabled":false,"rental_uris":{"android":"levelo://app?vid=a284e704-b4a1-44a5-a8c4-89b77985d979","ios":"levelo://app?vid=a284e704-b4a1-44a5-a8c4-89b77985d979"},"vehicle_type_id":"4","last_reported":1721232595,"current_range_meters":6800,"station_id":"ce4bhch2rcd13ifvqeug","pricing_plan_id":"cebpf4jnsgd1na2vs0mg"},{"bike_id":"f2629930-aa3a-4a70-a573-ca184e45f8d9","system_id":"levelo_inurba_marseille","lat":43.286183,"lon":5.351065,"is_reserved":false,"is_disabled":false,"rental_uris":{"android":"levelo://app?vid=f2629930-aa3a-4a70-a573-ca184e45f8d9","ios":"levelo://app?vid=f2629930-aa3a-4a70-a573-ca184e45f8d9"},"vehicle_type_id":"4","last_reported":1721232595,"current_range_meters":14000,"station_id":"ce4bhch2rcd13ifvqeug","pricing_plan_id":"cebpf4jnsgd1na2vs0mg"},{"bike_id":"3b9f32c3-a98f-4c04-9ad5-b2fc745efaa8","system_id":"levelo_inurba_marseille","lat":43.285856,"lon":5.350771,"is_reserved":false,"is_disabled":false,"rental_uris":{"android":"levelo://app?vid=3b9f32c3-a98f-4c04-9ad5-b2fc745efaa8","ios":"levelo://app?vid=3b9f32c3-a98f-4c04-9ad5-b2fc745efaa8"},"vehicle_type_id":"4","last_reported":1721232595,"current_range_meters":16000,"station_id":"ce4bhch2rcd13ifvqeug","pricing_plan_id":"cebpf4jnsgd1na2vs0mg"},{"bike_id":"e41d4c42-e7d5-4311-b6de-92be4788e9f6","system_id":"levelo_inurba_marseille","lat":43.28618,"lon":5.35107,"is_reserved":false,"is_disabled":false,"rental_uris":{"android":"levelo://app?vid=e41d4c42-e7d5-4311-b6de-92be4788e9f6","ios":"levelo://app?vid=e41d4c42-e7d5-4311-b6de-92be4788e9f6"},"vehicle_type_id":"4","last_reported":1721232595,"current_range_meters":28000,"station_id":"ce4bhch2rcd13ifvqeug","pricing_plan_id":"cebpf4jnsgd1na2vs0mg"},{"bike_id":"c0036ba1-1722-4b1a-9357-b0571d1250ed","system_id":"levelo_inurba_marseille","lat":43.28617,"lon":5.3511,"is_reserved":false,"is_disabled":false,"rental_uris":{"android":"levelo://app?vid=c0036ba1-1722-4b1a-9357-b0571d1250ed","ios":"levelo://app?vid=c0036ba1-1722-4b1a-9357-b0571d1250ed"},"vehicle_type_id":"4","last_reported":1721232595,"current_range_meters":16400,"station_id":"ce4bhch2rcd13ifvqeug","pricing_plan_id":"cebpf4jnsgd1na2vs0mg"},{"bike_id":"7a8ab5a3-0e78-4018-8012-49c95b74248b","system_id":"levelo_inurba_marseille","lat":43.285856,"lon":5.350771,"is_reserved":false,"is_disabled":false,"rental_uris":{"android":"levelo://app?vid=7a8ab5a3-0e78-4018-8012-49c95b74248b","ios":"levelo://app?vid=7a8ab5a3-0e78-4018-8012-49c95b74248b"},"vehicle_type_id":"4","last_reported":1721232595,"current_range_meters":22400,"station_id":"ce4bhch2rcd13ifvqeug","pricing_plan_id":"cebpf4jnsgd1na2vs0mg"},{"bike_id":"6bd10fae-7406-42fa-bcf7-0d3b965b7116","system_id":"levelo_inurba_marseille","lat":43.286191,"lon":5.351027,"is_reserved":false,"is_disabled":false,"rental_uris":{"android":"levelo://app?vid=6bd10fae-7406-42fa-bcf7-0d3b965b7116","ios":"levelo://app?vid=6bd10fae-7406-42fa-bcf7-0d3b965b7116"},"vehicle_type_id":"4","last_reported":1721232595,"current_range_meters":22000,"station_id":"ce4bhch2rcd13ifvqeug","pricing_plan_id":"cebpf4jnsgd1na2vs0mg"},{"bike_id":"c8a677e5-1da4-4c1b-8ae5-2028a9de1350","system_id":"levelo_inurba_marseille","lat":43.285856,"lon":5.350771,"is_reserved":false,"is_disabled":false,"rental_uris":{"android":"levelo://app?vid=c8a677e5-1da4-4c1b-8ae5-2028a9de1350","ios":"levelo://app?vid=c8a677e5-1da4-4c1b-8ae5-2028a9de1350"},"vehicle_type_id":"4","last_reported":1721232595,"current_range_meters":9600,"station_id":"ce4bhch2rcd13ifvqeug","pricing_plan_id":"cebpf4jnsgd1na2vs0mg"},{"bike_id":"c4b614b2-b643-4b39-9f0f-fd00d2f5bc85","system_id":"levelo_inurba_marseille","lat":43.28618,"lon":5.35104,"is_reserved":false,"is_disabled":false,"rental_uris":{"android":"levelo://app?vid=c4b614b2-b643-4b39-9f0f-fd00d2f5bc85","ios":"levelo://app?vid=c4b614b2-b643-4b39-9f0f-fd00d2f5bc85"},"vehicle_type_id":"4","last_reported":1721232595,"current_range_meters":2800,"station_id":"ce4bhch2rcd13ifvqeug","pricing_plan_id":"cebpf4jnsgd1na2vs0mg"},{"bike_id":"3879f017-1158-499f-b551-77024ab9ae80","system_id":"levelo_inurba_marseille","lat":43.286173,"lon":5.35102,"is_reserved":false,"is_disabled":false,"rental_uris":{"android":"levelo://app?vid=3879f017-1158-499f-b551-77024ab9ae80","ios":"levelo://app?vid=3879f017-1158-499f-b551-77024ab9ae80"},"vehicle_type_id":"4","last_reported":1721232595,"current_range_meters":23600,"station_id":"ce4bhch2rcd13ifvqeug","pricing_plan_id":"cebpf4jnsgd1na2vs0mg"},{"bike_id":"791dc48d-fbe4-443a-8729-ecef63916334","system_id":"levelo_inurba_marseille","lat":43.285848,"lon":5.350787,"is_reserved":false,"is_disabled":false,"rental_uris":{"android":"levelo://app?vid=791dc48d-fbe4-443a-8729-ecef63916334","ios":"levelo://app?vid=791dc48d-fbe4-443a-8729-ecef63916334"},"vehicle_type_id":"4","last_reported":1721232595,"current_range_meters":0,"station_id":"ce4bhch2rcd13ifvqeug","pricing_plan_id":"cebpf4jnsgd1na2vs0mg"},{"bike_id":"55b58cdb-eb9e-4b84-8975-4be8d5e0c5e2","system_id":"levelo_inurba_marseille","lat":43.28616,"lon":5.35103,"is_reserved":false,"is_disabled":false,"rental_uris":{"android":"levelo://app?vid=55b58cdb-eb9e-4b84-8975-4be8d5e0c5e2","ios":"levelo://app?vid=55b58cdb-eb9e-4b84-8975-4be8d5e0c5e2"},"vehicle_type_id":"4","last_reported":1721232595,"current_range_meters":15200,"station_id":"ce4bhch2rcd13ifvqeug","pricing_plan_id":"cebpf4jnsgd1na2vs0mg"},{"bike_id":"25d404e2-1060-40ff-9c76-8e1dc10a7630","system_id":"levelo_inurba_marseille","lat":43.285856,"lon":5.350771,"is_reserved":false,"is_disabled":false,"rental_uris":{"android":"levelo://app?vid=25d404e2-1060-40ff-9c76-8e1dc10a7630","ios":"levelo://app?vid=25d404e2-1060-40ff-9c76-8e1dc10a7630"},"vehicle_type_id":"4","last_reported":1721232595,"current_range_meters":0,"station_id":"ce4bhch2rcd13ifvqeug","pricing_plan_id":"cebpf4jnsgd1na2vs0mg"},{"bike_id":"55c54495-5c26-4a29-8f7b-7a0eded4c4d1","system_id":"levelo_inurba_marseille","lat":43.285848,"lon":5.350787,"is_reserved":false,"is_disabled":false,"rental_uris":{"android":"levelo://app?vid=55c54495-5c26-4a29-8f7b-7a0eded4c4d1","ios":"levelo://app?vid=55c54495-5c26-4a29-8f7b-7a0eded4c4d1"},"vehicle_type_id":"4","last_reported":1721232595,"current_range_meters":0,"station_id":"ce4bhch2rcd13ifvqeug","pricing_plan_id":"cebpf4jnsgd1na2vs0mg"},{"bike_id":"d51c8bc3-6ffa-45f5-b69e-0595cead38a0","system_id":"levelo_inurba_marseille","lat":43.28615,"lon":5.35103,"is_reserved":false,"is_disabled":false,"rental_uris":{"android":"levelo://app?vid=d51c8bc3-6ffa-45f5-b69e-0595cead38a0","ios":"levelo://app?vid=d51c8bc3-6ffa-45f5-b69e-0595cead38a0"},"vehicle_type_id":"4","last_reported":1721232595,"current_range_meters":0,"station_id":"ce4bhch2rcd13ifvqeug","pricing_plan_id":"cebpf4jnsgd1na2vs0mg"},{"bike_id":"c839588e-a56a-417a-9a40-b4732e768f53","system_id":"levelo_inurba_marseille","lat":43.28613,"lon":5.35102,"is_reserved":false,"is_disabled":false,"rental_uris":{"android":"levelo://app?vid=c839588e-a56a-417a-9a40-b4732e768f53","ios":"levelo://app?vid=c839588e-a56a-417a-9a40-b4732e768f53"},"vehicle_type_id":"4","last_reported":1721232595,"current_range_meters":27600,"station_id":"ce4bhch2rcd13ifvqeug","pricing_plan_id":"cebpf4jnsgd1na2vs0mg"},{"bike_id":"69a1db60-0118-464f-af89-e65e1f00cecc","system_id":"levelo_inurba_marseille","lat":43.285848,"lon":5.350787,"is_reserved":false,"is_disabled":false,"rental_uris":{"android":"levelo://app?vid=69a1db60-0118-464f-af89-e65e1f00cecc","ios":"levelo://app?vid=69a1db60-0118-464f-af89-e65e1f00cecc"},"vehicle_type_id":"4","last_reported":1721232595,"current_range_meters":25200,"station_id":"ce4bhch2rcd13ifvqeug","pricing_plan_id":"cebpf4jnsgd1na2vs0mg"},{"bike_id":"be959436-3f1f-4441-8257-333b5efd6054","system_id":"levelo_inurba_marseille","lat":43.283998,"lon":5.375062,"is_reserved":false,"is_disabled":false,"rental_uris":{"android":"levelo://app?vid=be959436-3f1f-4441-8257-333b5efd6054","ios":"levelo://app?vid=be959436-3f1f-4441-8257-333b5efd6054"},"vehicle_type_id":"4","last_reported":1721232595,"current_range_meters":0,"station_id":"ce4bh412rcd13ifvqds0","pricing_plan_id":"cebpf4jnsgd1na2vs0mg"},{"bike_id":"1851e266-cfbd-4d6f-b518-d9ffd96e8f32","system_id":"levelo_inurba_marseille","lat":43.283998,"lon":5.375062,"is_reserved":false,"is_disabled":false,"rental_uris":{"android":"levelo://app?vid=1851e266-cfbd-4d6f-b518-d9ffd96e8f32","ios":"levelo://app?vid=1851e266-cfbd-4d6f-b518-d9ffd96e8f32"},"vehicle_type_id":"4","last_reported":1721232595,"current_range_meters":5600,"station_id":"ce4bh412rcd13ifvqds0","pricing_plan_id":"cebpf4jnsgd1na2vs0mg"},{"bike_id":"a8ac181d-8ad8-4d75-a7a3-0800073f5895","system_id":"levelo_inurba_marseille","lat":43.28406,"lon":5.37523,"is_reserved":false,"is_disabled":false,"rental_uris":{"android":"levelo://app?vid=a8ac181d-8ad8-4d75-a7a3-0800073f5895","ios":"levelo://app?vid=a8ac181d-8ad8-4d75-a7a3-0800073f5895"},"vehicle_type_id":"4","last_reported":1721232595,"current_range_meters":0,"station_id":"ce4bh412rcd13ifvqds0","pricing_plan_id":"cebpf4jnsgd1na2vs0mg"},{"bike_id":"fa6cbd22-f2e8-4d8b-993f-ad6bd32ed917","system_id":"levelo_inurba_marseille","lat":43.283998,"lon":5.375062,"is_reserved":false,"is_disabled":false,"rental_uris":{"android":"levelo://app?vid=fa6cbd22-f2e8-4d8b-993f-ad6bd32ed917","ios":"levelo://app?vid=fa6cbd22-f2e8-4d8b-993f-ad6bd32ed917"},"vehicle_type_id":"4","last_reported":1721232595,"current_range_meters":0,"station_id":"ce4bh412rcd13ifvqds0","pricing_plan_id":"cebpf4jnsgd1na2vs0mg"},{"bike_id":"07972a66-59b7-400c-a804-3eb52d283b8f","system_id":"levelo_inurba_marseille","lat":43.295713,"lon":5.399639,"is_reserved":false,"is_disabled":false,"rental_uris":{"android":"levelo://app?vid=07972a66-59b7-400c-a804-3eb52d283b8f","ios":"levelo://app?vid=07972a66-59b7-400c-a804-3eb52d283b8f"},"vehicle_type_id":"4","last_reported":1721232595,"current_range_meters":12000,"station_id":"ce4bh312rcd13ifvqdj0","pricing_plan_id":"cebpf4jnsgd1na2vs0mg"},{"bike_id":"15d0058f-25c7-45c6-aeb3-4f4d1040281d","system_id":"levelo_inurba_marseille","lat":43.283998,"lon":5.375062,"is_reserved":false,"is_disabled":false,"rental_uris":{"android":"levelo://app?vid=15d0058f-25c7-45c6-aeb3-4f4d1040281d","ios":"levelo://app?vid=15d0058f-25c7-45c6-aeb3-4f4d1040281d"},"vehicle_type_id":"4","last_reported":1721232595,"current_range_meters":0,"station_id":"ce4bh412rcd13ifvqds0","pricing_plan_id":"cebpf4jnsgd1na2vs0mg"},{"bike_id":"1c95993b-5c8d-4d59-a8dd-2812c49e7971","system_id":"levelo_inurba_marseille","lat":43.295713,"lon":5.399639,"is_reserved":false,"is_disabled":false,"rental_uris":{"android":"levelo://app?vid=1c95993b-5c8d-4d59-a8dd-2812c49e7971","ios":"levelo://app?vid=1c95993b-5c8d-4d59-a8dd-2812c49e7971"},"vehicle_type_id":"4","last_reported":1721232595,"current_range_meters":0,"station_id":"ce4bh312rcd13ifvqdj0","pricing_plan_id":"cebpf4jnsgd1na2vs0mg"},{"bike_id":"bf2896eb-aa36-4837-ba7e-1eb786b03e00","system_id":"levelo_inurba_marseille","lat":43.298037,"lon":5.381066,"is_reserved":false,"is_disabled":false,"rental_uris":{"android":"levelo://app?vid=bf2896eb-aa36-4837-ba7e-1eb786b03e00","ios":"levelo://app?vid=bf2896eb-aa36-4837-ba7e-1eb786b03e00"},"vehicle_type_id":"4","last_reported":1721232595,"current_range_meters":12000,"station_id":"ce4bgip2rcd13ifvqbb0","pricing_plan_id":"cebpf4jnsgd1na2vs0mg"},{"bike_id":"ea8d16d9-ddf1-4a4a-9189-8576309c7d36","system_id":"levelo_inurba_marseille","lat":43.286595,"lon":5.386795,"is_reserved":false,"is_disabled":false,"rental_uris":{"android":"levelo://app?vid=ea8d16d9-ddf1-4a4a-9189-8576309c7d36","ios":"levelo://app?vid=ea8d16d9-ddf1-4a4a-9189-8576309c7d36"},"vehicle_type_id":"4","last_reported":1721232595,"current_range_meters":9200,"station_id":"ce4bh492rcd13ifvqdug","pricing_plan_id":"cebpf4jnsgd1na2vs0mg"},{"bike_id":"b5be331d-1156-492e-8c59-282a7c4fc44c","system_id":"levelo_inurba_marseille","lat":43.286595,"lon":5.386795,"is_reserved":false,"is_disabled":false,"rental_uris":{"android":"levelo://app?vid=b5be331d-1156-492e-8c59-282a7c4fc44c","ios":"levelo://app?vid=b5be331d-1156-492e-8c59-282a7c4fc44c"},"vehicle_type_id":"4","last_reported":1721232595,"current_range_meters":14400,"station_id":"ce4bh492rcd13ifvqdug","pricing_plan_id":"cebpf4jnsgd1na2vs0mg"},{"bike_id":"23a6da14-709c-4925-b692-e5ebd08d7a3b","system_id":"levelo_inurba_marseille","lat":43.327433,"lon":5.403347,"is_reserved":false,"is_disabled":false,"rental_uris":{"android":"levelo://app?vid=23a6da14-709c-4925-b692-e5ebd08d7a3b","ios":"levelo://app?vid=23a6da14-709c-4925-b692-e5ebd08d7a3b"},"vehicle_type_id":"4","last_reported":1721232595,"current_range_meters":0,"station_id":"ce4bhq92rcd13ifvqhjg","pricing_plan_id":"cebpf4jnsgd1na2vs0mg"},{"bike_id":"71d47c9e-1760-4d80-b43a-d831a5a44bbe","system_id":"levelo_inurba_marseille","lat":43.33717,"lon":5.391857,"is_reserved":false,"is_disabled":false,"rental_uris":{"android":"levelo://app?vid=71d47c9e-1760-4d80-b43a-d831a5a44bbe","ios":"levelo://app?vid=71d47c9e-1760-4d80-b43a-d831a5a44bbe"},"vehicle_type_id":"4","last_reported":1721232595,"current_range_meters":19200,"station_id":"ce4bhr92rcd13ifvqhsg","pricing_plan_id":"cebpf4jnsgd1na2vs0mg"},{"bike_id":"2132e3f0-9351-465a-af8a-5c4918a27d9e","system_id":"levelo_inurba_marseille","lat":43.33717,"lon":5.391857,"is_reserved":false,"is_disabled":false,"rental_uris":{"android":"levelo://app?vid=2132e3f0-9351-465a-af8a-5c4918a27d9e","ios":"levelo://app?vid=2132e3f0-9351-465a-af8a-5c4918a27d9e"},"vehicle_type_id":"4","last_reported":1721232595,"current_range_meters":18400,"station_id":"ce4bhr92rcd13ifvqhsg","pricing_plan_id":"cebpf4jnsgd1na2vs0mg"},{"bike_id":"51ca8e6a-3c39-4fd8-b829-126a05db2aa4","system_id":"levelo_inurba_marseille","lat":43.284787,"lon":5.384116,"is_reserved":false,"is_disabled":false,"rental_uris":{"android":"levelo://app?vid=51ca8e6a-3c39-4fd8-b829-126a05db2aa4","ios":"levelo://app?vid=51ca8e6a-3c39-4fd8-b829-126a05db2aa4"},"vehicle_type_id":"4","last_reported":1721232595,"current_range_meters":26400,"station_id":"ce4bh512rcd13ifvqe3g","pricing_plan_id":"cebpf4jnsgd1na2vs0mg"},{"bike_id":"5c4dfba3-5c85-4a6a-ab42-dc71f970865f","system_id":"levelo_inurba_marseille","lat":43.28854,"lon":5.3931,"is_reserved":false,"is_disabled":false,"rental_uris":{"android":"levelo://app?vid=5c4dfba3-5c85-4a6a-ab42-dc71f970865f","ios":"levelo://app?vid=5c4dfba3-5c85-4a6a-ab42-dc71f970865f"},"vehicle_type_id":"4","last_reported":1721232595,"current_range_meters":0,"station_id":"ce4bh2p2rcd13ifvqdi0","pricing_plan_id":"cebpf4jnsgd1na2vs0mg"},{"bike_id":"f96d6119-1f90-4ec6-9ae4-14c1e330c373","system_id":"levelo_inurba_marseille","lat":43.28497,"lon":5.38575,"is_reserved":false,"is_disabled":false,"rental_uris":{"android":"levelo://app?vid=f96d6119-1f90-4ec6-9ae4-14c1e330c373","ios":"levelo://app?vid=f96d6119-1f90-4ec6-9ae4-14c1e330c373"},"vehicle_type_id":"4","last_reported":1721232595,"current_range_meters":0,"station_id":"ce4bh8p2rcd13ifvqeb0","pricing_plan_id":"cebpf4jnsgd1na2vs0mg"},{"bike_id":"ceac9690-fddf-4e33-9bb9-4221adaa17da","system_id":"levelo_inurba_marseille","lat":43.28482,"lon":5.38541,"is_reserved":false,"is_disabled":false,"rental_uris":{"android":"levelo://app?vid=ceac9690-fddf-4e33-9bb9-4221adaa17da","ios":"levelo://app?vid=ceac9690-fddf-4e33-9bb9-4221adaa17da"},"vehicle_type_id":"4","last_reported":1721232595,"current_range_meters":0,"station_id":"ce4bh8p2rcd13ifvqeb0","pricing_plan_id":"cebpf4jnsgd1na2vs0mg"},{"bike_id":"8d957230-c5b0-465c-bbd2-136d0047c6d0","system_id":"levelo_inurba_marseille","lat":43.28481,"lon":5.38547,"is_reserved":false,"is_disabled":false,"rental_uris":{"android":"levelo://app?vid=8d957230-c5b0-465c-bbd2-136d0047c6d0","ios":"levelo://app?vid=8d957230-c5b0-465c-bbd2-136d0047c6d0"},"vehicle_type_id":"4","last_reported":1721232595,"current_range_meters":0,"station_id":"ce4bh8p2rcd13ifvqeb0","pricing_plan_id":"cebpf4jnsgd1na2vs0mg"},{"bike_id":"5584dbea-99a0-4eef-adbd-9b80c7430e76","system_id":"levelo_inurba_marseille","lat":43.284214,"lon":5.349706,"is_reserved":false,"is_disabled":false,"rental_uris":{"android":"levelo://app?vid=5584dbea-99a0-4eef-adbd-9b80c7430e76","ios":"levelo://app?vid=5584dbea-99a0-4eef-adbd-9b80c7430e76"},"vehicle_type_id":"4","last_reported":1721232595,"current_range_meters":22800,"station_id":"ce4bhbh2rcd13ifvqepg","pricing_plan_id":"cebpf4jnsgd1na2vs0mg"},{"bike_id":"29189e26-9108-46c1-91e5-426e40b90b01","system_id":"levelo_inurba_marseille","lat":43.28429,"lon":5.34986,"is_reserved":false,"is_disabled":false,"rental_uris":{"android":"levelo://app?vid=29189e26-9108-46c1-91e5-426e40b90b01","ios":"levelo://app?vid=29189e26-9108-46c1-91e5-426e40b90b01"},"vehicle_type_id":"4","last_reported":1721232595,"current_range_meters":22400,"station_id":"ce4bhbh2rcd13ifvqepg","pricing_plan_id":"cebpf4jnsgd1na2vs0mg"},{"bike_id":"00e02fc1-698c-48b8-9757-e4836a0d875e","system_id":"levelo_inurba_marseille","lat":43.28424,"lon":5.34992,"is_reserved":false,"is_disabled":false,"rental_uris":{"android":"levelo://app?vid=00e02fc1-698c-48b8-9757-e4836a0d875e","ios":"levelo://app?vid=00e02fc1-698c-48b8-9757-e4836a0d875e"},"vehicle_type_id":"4","last_reported":1721232595,"current_range_meters":0,"station_id":"ce4bhbh2rcd13ifvqepg","pricing_plan_id":"cebpf4jnsgd1na2vs0mg"},{"bike_id":"756ad5c4-c843-492f-a8d2-4704f469aafd","system_id":"levelo_inurba_marseille","lat":43.283498,"lon":5.380948,"is_reserved":false,"is_disabled":false,"rental_uris":{"android":"levelo://app?vid=756ad5c4-c843-492f-a8d2-4704f469aafd","ios":"levelo://app?vid=756ad5c4-c843-492f-a8d2-4704f469aafd"},"vehicle_type_id":"4","last_reported":1721232595,"current_range_meters":6000,"station_id":"ce4bh412rcd13ifvqdr0","pricing_plan_id":"cebpf4jnsgd1na2vs0mg"},{"bike_id":"f7b453de-5e6d-4072-a71e-e2a756b115ea","system_id":"levelo_inurba_marseille","lat":43.283494,"lon":5.380945,"is_reserved":false,"is_disabled":false,"rental_uris":{"android":"levelo://app?vid=f7b453de-5e6d-4072-a71e-e2a756b115ea","ios":"levelo://app?vid=f7b453de-5e6d-4072-a71e-e2a756b115ea"},"vehicle_type_id":"4","last_reported":1721232595,"current_range_meters":400,"station_id":"ce4bh412rcd13ifvqdr0","pricing_plan_id":"cebpf4jnsgd1na2vs0mg"},{"bike_id":"36e25ee3-aafd-4a9c-b948-77b1f8dd81f8","system_id":"levelo_inurba_marseille","lat":43.28423,"lon":5.34984,"is_reserved":false,"is_disabled":false,"rental_uris":{"android":"levelo://app?vid=36e25ee3-aafd-4a9c-b948-77b1f8dd81f8","ios":"levelo://app?vid=36e25ee3-aafd-4a9c-b948-77b1f8dd81f8"},"vehicle_type_id":"4","last_reported":1721232595,"current_range_meters":9200,"station_id":"ce4bhbh2rcd13ifvqepg","pricing_plan_id":"cebpf4jnsgd1na2vs0mg"},{"bike_id":"7279adef-cb9d-4887-ba2a-45b285fe103c","system_id":"levelo_inurba_marseille","lat":43.28424,"lon":5.34976,"is_reserved":false,"is_disabled":false,"rental_uris":{"android":"levelo://app?vid=7279adef-cb9d-4887-ba2a-45b285fe103c","ios":"levelo://app?vid=7279adef-cb9d-4887-ba2a-45b285fe103c"},"vehicle_type_id":"4","last_reported":1721232595,"current_range_meters":26400,"station_id":"ce4bhbh2rcd13ifvqepg","pricing_plan_id":"cebpf4jnsgd1na2vs0mg"},{"bike_id":"67487b55-0ca4-46e1-8c84-003df30cf42f","system_id":"levelo_inurba_marseille","lat":43.284214,"lon":5.349706,"is_reserved":false,"is_disabled":false,"rental_uris":{"android":"levelo://app?vid=67487b55-0ca4-46e1-8c84-003df30cf42f","ios":"levelo://app?vid=67487b55-0ca4-46e1-8c84-003df30cf42f"},"vehicle_type_id":"4","last_reported":1721232595,"current_range_meters":0,"station_id":"ce4bhbh2rcd13ifvqepg","pricing_plan_id":"cebpf4jnsgd1na2vs0mg"},{"bike_id":"b75f0473-44e0-41a9-ab9d-aeefd77402c3","system_id":"levelo_inurba_marseille","lat":43.284214,"lon":5.349706,"is_reserved":false,"is_disabled":false,"rental_uris":{"android":"levelo://app?vid=b75f0473-44e0-41a9-ab9d-aeefd77402c3","ios":"levelo://app?vid=b75f0473-44e0-41a9-ab9d-aeefd77402c3"},"vehicle_type_id":"4","last_reported":1721232595,"current_range_meters":0,"station_id":"ce4bhbh2rcd13ifvqepg","pricing_plan_id":"cebpf4jnsgd1na2vs0mg"},{"bike_id":"07f0eb46-ff7e-4fea-8c3f-db34b97e9b11","system_id":"levelo_inurba_marseille","lat":43.28419,"lon":5.34977,"is_reserved":false,"is_disabled":false,"rental_uris":{"android":"levelo://app?vid=07f0eb46-ff7e-4fea-8c3f-db34b97e9b11","ios":"levelo://app?vid=07f0eb46-ff7e-4fea-8c3f-db34b97e9b11"},"vehicle_type_id":"4","last_reported":1721232595,"current_range_meters":0,"station_id":"ce4bhbh2rcd13ifvqepg","pricing_plan_id":"cebpf4jnsgd1na2vs0mg"},{"bike_id":"4e26e397-a09d-46a5-92be-16a897f02916","system_id":"levelo_inurba_marseille","lat":43.28414,"lon":5.3499,"is_reserved":false,"is_disabled":false,"rental_uris":{"android":"levelo://app?vid=4e26e397-a09d-46a5-92be-16a897f02916","ios":"levelo://app?vid=4e26e397-a09d-46a5-92be-16a897f02916"},"vehicle_type_id":"4","last_reported":1721232595,"current_range_meters":10800,"station_id":"ce4bhbh2rcd13ifvqepg","pricing_plan_id":"cebpf4jnsgd1na2vs0mg"},{"bike_id":"6f08532b-9e8b-414c-916b-c5f2f2f4db06","system_id":"levelo_inurba_marseille","lat":43.284214,"lon":5.349706,"is_reserved":false,"is_disabled":false,"rental_uris":{"android":"levelo://app?vid=6f08532b-9e8b-414c-916b-c5f2f2f4db06","ios":"levelo://app?vid=6f08532b-9e8b-414c-916b-c5f2f2f4db06"},"vehicle_type_id":"4","last_reported":1721232595,"current_range_meters":0,"station_id":"ce4bhbh2rcd13ifvqepg","pricing_plan_id":"cebpf4jnsgd1na2vs0mg"},{"bike_id":"cf861023-7e6b-452d-96ff-8829b5ac734f","system_id":"levelo_inurba_marseille","lat":43.28415,"lon":5.34977,"is_reserved":false,"is_disabled":false,"rental_uris":{"android":"levelo://app?vid=cf861023-7e6b-452d-96ff-8829b5ac734f","ios":"levelo://app?vid=cf861023-7e6b-452d-96ff-8829b5ac734f"},"vehicle_type_id":"4","last_reported":1721232595,"current_range_meters":0,"station_id":"ce4bhbh2rcd13ifvqepg","pricing_plan_id":"cebpf4jnsgd1na2vs0mg"},{"bike_id":"05026b51-3985-40ad-aa0e-1b5b124005f5","system_id":"levelo_inurba_marseille","lat":43.2841,"lon":5.34985,"is_reserved":false,"is_disabled":false,"rental_uris":{"android":"levelo://app?vid=05026b51-3985-40ad-aa0e-1b5b124005f5","ios":"levelo://app?vid=05026b51-3985-40ad-aa0e-1b5b124005f5"},"vehicle_type_id":"4","last_reported":1721232595,"current_range_meters":0,"station_id":"ce4bhbh2rcd13ifvqepg","pricing_plan_id":"cebpf4jnsgd1na2vs0mg"},{"bike_id":"3521af2b-3205-45d2-a2c6-c84da6b1d252","system_id":"levelo_inurba_marseille","lat":43.284214,"lon":5.349706,"is_reserved":false,"is_disabled":false,"rental_uris":{"android":"levelo://app?vid=3521af2b-3205-45d2-a2c6-c84da6b1d252","ios":"levelo://app?vid=3521af2b-3205-45d2-a2c6-c84da6b1d252"},"vehicle_type_id":"4","last_reported":1721232595,"current_range_meters":12400,"station_id":"ce4bhbh2rcd13ifvqepg","pricing_plan_id":"cebpf4jnsgd1na2vs0mg"},{"bike_id":"d2632a02-8736-4ce4-89fd-1895210066b1","system_id":"levelo_inurba_marseille","lat":43.283502,"lon":5.386471,"is_reserved":false,"is_disabled":false,"rental_uris":{"android":"levelo://app?vid=d2632a02-8736-4ce4-89fd-1895210066b1","ios":"levelo://app?vid=d2632a02-8736-4ce4-89fd-1895210066b1"},"vehicle_type_id":"4","last_reported":1721232595,"current_range_meters":0,"station_id":"ce4bh492rcd13ifvqdvg","pricing_plan_id":"cebpf4jnsgd1na2vs0mg"},{"bike_id":"edbcf47b-10d1-4607-84f4-a9032e1dfb39","system_id":"levelo_inurba_marseille","lat":43.28269,"lon":5.35075,"is_reserved":false,"is_disabled":false,"rental_uris":{"android":"levelo://app?vid=edbcf47b-10d1-4607-84f4-a9032e1dfb39","ios":"levelo://app?vid=edbcf47b-10d1-4607-84f4-a9032e1dfb39"},"vehicle_type_id":"4","last_reported":1721232595,"current_range_meters":0,"station_id":"ce4bhbp2rcd13ifvqerg","pricing_plan_id":"cebpf4jnsgd1na2vs0mg"},{"bike_id":"9e635c78-5af7-4c0b-a14c-af2dce68681f","system_id":"levelo_inurba_marseille","lat":43.28271,"lon":5.35067,"is_reserved":false,"is_disabled":false,"rental_uris":{"android":"levelo://app?vid=9e635c78-5af7-4c0b-a14c-af2dce68681f","ios":"levelo://app?vid=9e635c78-5af7-4c0b-a14c-af2dce68681f"},"vehicle_type_id":"4","last_reported":1721232595,"current_range_meters":0,"station_id":"ce4bhbp2rcd13ifvqerg","pricing_plan_id":"cebpf4jnsgd1na2vs0mg"},{"bike_id":"18f1c2ed-40c8-47f5-8152-2b3171c01d27","system_id":"levelo_inurba_marseille","lat":43.28264,"lon":5.3507,"is_reserved":false,"is_disabled":false,"rental_uris":{"android":"levelo://app?vid=18f1c2ed-40c8-47f5-8152-2b3171c01d27","ios":"levelo://app?vid=18f1c2ed-40c8-47f5-8152-2b3171c01d27"},"vehicle_type_id":"4","last_reported":1721232595,"current_range_meters":0,"station_id":"ce4bhbp2rcd13ifvqerg","pricing_plan_id":"cebpf4jnsgd1na2vs0mg"},{"bike_id":"709e1c3e-4e0f-4c15-9bb2-2c0173d63cd4","system_id":"levelo_inurba_marseille","lat":43.283502,"lon":5.386471,"is_reserved":false,"is_disabled":false,"rental_uris":{"android":"levelo://app?vid=709e1c3e-4e0f-4c15-9bb2-2c0173d63cd4","ios":"levelo://app?vid=709e1c3e-4e0f-4c15-9bb2-2c0173d63cd4"},"vehicle_type_id":"4","last_reported":1721232595,"current_range_meters":0,"station_id":"ce4bh492rcd13ifvqdvg","pricing_plan_id":"cebpf4jnsgd1na2vs0mg"},{"bike_id":"1f3fa29e-640a-413e-a81b-0b87e936d214","system_id":"levelo_inurba_marseille","lat":43.281044,"lon":5.378308,"is_reserved":false,"is_disabled":false,"rental_uris":{"android":"levelo://app?vid=1f3fa29e-640a-413e-a81b-0b87e936d214","ios":"levelo://app?vid=1f3fa29e-640a-413e-a81b-0b87e936d214"},"vehicle_type_id":"4","last_reported":1721232595,"current_range_meters":24000,"station_id":"ce4bha12rcd13ifvqee0","pricing_plan_id":"cebpf4jnsgd1na2vs0mg"},{"bike_id":"28736b6f-9308-414c-809f-8392362f14d0","system_id":"levelo_inurba_marseille","lat":43.293164,"lon":5.404091,"is_reserved":false,"is_disabled":false,"rental_uris":{"android":"levelo://app?vid=28736b6f-9308-414c-809f-8392362f14d0","ios":"levelo://app?vid=28736b6f-9308-414c-809f-8392362f14d0"},"vehicle_type_id":"4","last_reported":1721232595,"current_range_meters":19600,"station_id":"","pricing_plan_id":"cebpf4jnsgd1na2vs0mg"},{"bike_id":"a85cd586-2858-4831-b21f-6b52c2c632fe","system_id":"levelo_inurba_marseille","lat":43.284462,"lon":5.392121,"is_reserved":false,"is_disabled":false,"rental_uris":{"android":"levelo://app?vid=a85cd586-2858-4831-b21f-6b52c2c632fe","ios":"levelo://app?vid=a85cd586-2858-4831-b21f-6b52c2c632fe"},"vehicle_type_id":"4","last_reported":1721232595,"current_range_meters":11600,"station_id":"ce4bhoh2rcd13ifvqh5g","pricing_plan_id":"cebpf4jnsgd1na2vs0mg"},{"bike_id":"e92d7289-27a8-4f9a-91ed-1f1ca4f011ef","system_id":"levelo_inurba_marseille","lat":43.284462,"lon":5.392121,"is_reserved":false,"is_disabled":false,"rental_uris":{"android":"levelo://app?vid=e92d7289-27a8-4f9a-91ed-1f1ca4f011ef","ios":"levelo://app?vid=e92d7289-27a8-4f9a-91ed-1f1ca4f011ef"},"vehicle_type_id":"4","last_reported":1721232595,"current_range_meters":5200,"station_id":"ce4bhoh2rcd13ifvqh5g","pricing_plan_id":"cebpf4jnsgd1na2vs0mg"},{"bike_id":"fc2b186c-c60d-47e6-a359-c6a35968cd79","system_id":"levelo_inurba_marseille","lat":43.285742,"lon":5.395004,"is_reserved":false,"is_disabled":false,"rental_uris":{"android":"levelo://app?vid=fc2b186c-c60d-47e6-a359-c6a35968cd79","ios":"levelo://app?vid=fc2b186c-c60d-47e6-a359-c6a35968cd79"},"vehicle_type_id":"4","last_reported":1721232595,"current_range_meters":0,"station_id":"ce4bh292rcd13ifvqdg0","pricing_plan_id":"cebpf4jnsgd1na2vs0mg"},{"bike_id":"f61b3f01-9a6f-453f-969d-710ae423ec35","system_id":"levelo_inurba_marseille","lat":43.284462,"lon":5.392121,"is_reserved":false,"is_disabled":false,"rental_uris":{"android":"levelo://app?vid=f61b3f01-9a6f-453f-969d-710ae423ec35","ios":"levelo://app?vid=f61b3f01-9a6f-453f-969d-710ae423ec35"},"vehicle_type_id":"4","last_reported":1721232595,"current_range_meters":400,"station_id":"ce4bhoh2rcd13ifvqh5g","pricing_plan_id":"cebpf4jnsgd1na2vs0mg"},{"bike_id":"1c317cb8-f2a0-4aa0-bce8-691a3ac7a1ab","system_id":"levelo_inurba_marseille","lat":43.326605,"lon":5.409903,"is_reserved":false,"is_disabled":false,"rental_uris":{"android":"levelo://app?vid=1c317cb8-f2a0-4aa0-bce8-691a3ac7a1ab","ios":"levelo://app?vid=1c317cb8-f2a0-4aa0-bce8-691a3ac7a1ab"},"vehicle_type_id":"4","last_reported":1721232595,"current_range_meters":5200,"station_id":"ce4bhpp2rcd13ifvqhgg","pricing_plan_id":"cebpf4jnsgd1na2vs0mg"},{"bike_id":"a9f6ce4c-7012-4e4a-a8f6-c874714bb273","system_id":"levelo_inurba_marseille","lat":43.326605,"lon":5.409903,"is_reserved":false,"is_disabled":false,"rental_uris":{"android":"levelo://app?vid=a9f6ce4c-7012-4e4a-a8f6-c874714bb273","ios":"levelo://app?vid=a9f6ce4c-7012-4e4a-a8f6-c874714bb273"},"vehicle_type_id":"4","last_reported":1721232595,"current_range_meters":29200,"station_id":"ce4bhpp2rcd13ifvqhgg","pricing_plan_id":"cebpf4jnsgd1na2vs0mg"},{"bike_id":"0942d8bf-f3f3-4aea-8c3f-0eb8d17f0e3e","system_id":"levelo_inurba_marseille","lat":43.304188,"lon":5.412904,"is_reserved":false,"is_disabled":false,"rental_uris":{"android":"levelo://app?vid=0942d8bf-f3f3-4aea-8c3f-0eb8d17f0e3e","ios":"levelo://app?vid=0942d8bf-f3f3-4aea-8c3f-0eb8d17f0e3e"},"vehicle_type_id":"4","last_reported":1721232595,"current_range_meters":15200,"station_id":"ce4bhop2rcd13ifvqh8g","pricing_plan_id":"cebpf4jnsgd1na2vs0mg"},{"bike_id":"bb783184-8a7b-458f-a898-8dd8f55eade6","system_id":"levelo_inurba_marseille","lat":43.27951,"lon":5.38271,"is_reserved":false,"is_disabled":false,"rental_uris":{"android":"levelo://app?vid=bb783184-8a7b-458f-a898-8dd8f55eade6","ios":"levelo://app?vid=bb783184-8a7b-458f-a898-8dd8f55eade6"},"vehicle_type_id":"4","last_reported":1721232595,"current_range_meters":16000,"station_id":"","pricing_plan_id":"cebpf4jnsgd1na2vs0mg"},{"bike_id":"c0086875-6aa0-4570-9092-bd5081be7050","system_id":"levelo_inurba_marseille","lat":43.299579,"lon":5.413255,"is_reserved":false,"is_disabled":false,"rental_uris":{"android":"levelo://app?vid=c0086875-6aa0-4570-9092-bd5081be7050","ios":"levelo://app?vid=c0086875-6aa0-4570-9092-bd5081be7050"},"vehicle_type_id":"4","last_reported":1721232595,"current_range_meters":28400,"station_id":"ce4bhp12rcd13ifvqh9g","pricing_plan_id":"cebpf4jnsgd1na2vs0mg"},{"bike_id":"0892e930-ed08-41a9-9ec7-78e3bf6fbead","system_id":"levelo_inurba_marseille","lat":43.299579,"lon":5.413255,"is_reserved":false,"is_disabled":false,"rental_uris":{"android":"levelo://app?vid=0892e930-ed08-41a9-9ec7-78e3bf6fbead","ios":"levelo://app?vid=0892e930-ed08-41a9-9ec7-78e3bf6fbead"},"vehicle_type_id":"4","last_reported":1721232595,"current_range_meters":6800,"station_id":"ce4bhp12rcd13ifvqh9g","pricing_plan_id":"cebpf4jnsgd1na2vs0mg"},{"bike_id":"cca6ff49-9fa3-4229-992f-bbe236ccce26","system_id":"levelo_inurba_marseille","lat":43.279742,"lon":5.38744,"is_reserved":false,"is_disabled":false,"rental_uris":{"android":"levelo://app?vid=cca6ff49-9fa3-4229-992f-bbe236ccce26","ios":"levelo://app?vid=cca6ff49-9fa3-4229-992f-bbe236ccce26"},"vehicle_type_id":"4","last_reported":1721232595,"current_range_meters":400,"station_id":"ce4bhg12rcd13ifvqf80","pricing_plan_id":"cebpf4jnsgd1na2vs0mg"},{"bike_id":"faec2ed0-2618-4e5f-8d8a-59a437e41689","system_id":"levelo_inurba_marseille","lat":43.325233,"lon":5.414318,"is_reserved":false,"is_disabled":false,"rental_uris":{"android":"levelo://app?vid=faec2ed0-2618-4e5f-8d8a-59a437e41689","ios":"levelo://app?vid=faec2ed0-2618-4e5f-8d8a-59a437e41689"},"vehicle_type_id":"4","last_reported":1721232595,"current_range_meters":3200,"station_id":"ce4bhq12rcd13ifvqhhg","pricing_plan_id":"cebpf4jnsgd1na2vs0mg"},{"bike_id":"e59eb2ad-fbb8-467c-be1e-d9512bb7c995","system_id":"levelo_inurba_marseille","lat":43.27622,"lon":5.36108,"is_reserved":false,"is_disabled":false,"rental_uris":{"android":"levelo://app?vid=e59eb2ad-fbb8-467c-be1e-d9512bb7c995","ios":"levelo://app?vid=e59eb2ad-fbb8-467c-be1e-d9512bb7c995"},"vehicle_type_id":"4","last_reported":1721232595,"current_range_meters":13200,"station_id":"ce4bgj92rcd13ifvqbe0","pricing_plan_id":"cebpf4jnsgd1na2vs0mg"},{"bike_id":"c001c79a-5aa7-4496-8dfd-df5fa1016788","system_id":"levelo_inurba_marseille","lat":43.32541,"lon":5.414434,"is_reserved":false,"is_disabled":false,"rental_uris":{"android":"levelo://app?vid=c001c79a-5aa7-4496-8dfd-df5fa1016788","ios":"levelo://app?vid=c001c79a-5aa7-4496-8dfd-df5fa1016788"},"vehicle_type_id":"4","last_reported":1721232595,"current_range_meters":16400,"station_id":"ce4bhq12rcd13ifvqhhg","pricing_plan_id":"cebpf4jnsgd1na2vs0mg"},{"bike_id":"ada8e768-f6b3-4b27-b31b-d537b2117ad3","system_id":"levelo_inurba_marseille","lat":43.280981,"lon":5.392763,"is_reserved":false,"is_disabled":false,"rental_uris":{"android":"levelo://app?vid=ada8e768-f6b3-4b27-b31b-d537b2117ad3","ios":"levelo://app?vid=ada8e768-f6b3-4b27-b31b-d537b2117ad3"},"vehicle_type_id":"4","last_reported":1721232595,"current_range_meters":0,"station_id":"","pricing_plan_id":"cebpf4jnsgd1na2vs0mg"},{"bike_id":"4fd1bb1e-73be-455a-b82e-184c97638891","system_id":"levelo_inurba_marseille","lat":43.280784,"lon":5.396622,"is_reserved":false,"is_disabled":false,"rental_uris":{"android":"levelo://app?vid=4fd1bb1e-73be-455a-b82e-184c97638891","ios":"levelo://app?vid=4fd1bb1e-73be-455a-b82e-184c97638891"},"vehicle_type_id":"4","last_reported":1721232595,"current_range_meters":14400,"station_id":"ce4bho12rcd13ifvqh2g","pricing_plan_id":"cebpf4jnsgd1na2vs0mg"},{"bike_id":"da8bdf29-89f2-4562-b115-f0029fcddf6f","system_id":"levelo_inurba_marseille","lat":43.278399,"lon":5.392139,"is_reserved":false,"is_disabled":false,"rental_uris":{"android":"levelo://app?vid=da8bdf29-89f2-4562-b115-f0029fcddf6f","ios":"levelo://app?vid=da8bdf29-89f2-4562-b115-f0029fcddf6f"},"vehicle_type_id":"4","last_reported":1721232595,"current_range_meters":3200,"station_id":"ce4bhjp2rcd13ifvqga0","pricing_plan_id":"cebpf4jnsgd1na2vs0mg"},{"bike_id":"cddc2424-4f4a-4c1e-91c1-d79f19e21bd3","system_id":"levelo_inurba_marseille","lat":43.27392,"lon":5.36237,"is_reserved":false,"is_disabled":false,"rental_uris":{"android":"levelo://app?vid=cddc2424-4f4a-4c1e-91c1-d79f19e21bd3","ios":"levelo://app?vid=cddc2424-4f4a-4c1e-91c1-d79f19e21bd3"},"vehicle_type_id":"4","last_reported":1721232595,"current_range_meters":7600,"station_id":"ce4bhbh2rcd13ifvqeo0","pricing_plan_id":"cebpf4jnsgd1na2vs0mg"},{"bike_id":"d0127fbc-04c9-4601-a78f-c786e04a635d","system_id":"levelo_inurba_marseille","lat":43.278399,"lon":5.392139,"is_reserved":false,"is_disabled":false,"rental_uris":{"android":"levelo://app?vid=d0127fbc-04c9-4601-a78f-c786e04a635d","ios":"levelo://app?vid=d0127fbc-04c9-4601-a78f-c786e04a635d"},"vehicle_type_id":"4","last_reported":1721232595,"current_range_meters":13600,"station_id":"ce4bhjp2rcd13ifvqga0","pricing_plan_id":"cebpf4jnsgd1na2vs0mg"},{"bike_id":"c8dd4e04-9ce2-4812-99a5-c949247b0347","system_id":"levelo_inurba_marseille","lat":43.27388,"lon":5.36252,"is_reserved":false,"is_disabled":false,"rental_uris":{"android":"levelo://app?vid=c8dd4e04-9ce2-4812-99a5-c949247b0347","ios":"levelo://app?vid=c8dd4e04-9ce2-4812-99a5-c949247b0347"},"vehicle_type_id":"4","last_reported":1721232595,"current_range_meters":5200,"station_id":"ce4bhbh2rcd13ifvqeo0","pricing_plan_id":"cebpf4jnsgd1na2vs0mg"},{"bike_id":"dc706e3a-00a5-4ddc-a2e6-3c49e7d4e533","system_id":"levelo_inurba_marseille","lat":43.27388,"lon":5.3625,"is_reserved":false,"is_disabled":false,"rental_uris":{"android":"levelo://app?vid=dc706e3a-00a5-4ddc-a2e6-3c49e7d4e533","ios":"levelo://app?vid=dc706e3a-00a5-4ddc-a2e6-3c49e7d4e533"},"vehicle_type_id":"4","last_reported":1721232595,"current_range_meters":11200,"station_id":"ce4bhbh2rcd13ifvqeo0","pricing_plan_id":"cebpf4jnsgd1na2vs0mg"},{"bike_id":"2960027c-679f-4941-acfa-1e9be9daa962","system_id":"levelo_inurba_marseille","lat":43.27386,"lon":5.36256,"is_reserved":false,"is_disabled":false,"rental_uris":{"android":"levelo://app?vid=2960027c-679f-4941-acfa-1e9be9daa962","ios":"levelo://app?vid=2960027c-679f-4941-acfa-1e9be9daa962"},"vehicle_type_id":"4","last_reported":1721232595,"current_range_meters":8000,"station_id":"ce4bhbh2rcd13ifvqeo0","pricing_plan_id":"cebpf4jnsgd1na2vs0mg"},{"bike_id":"4e9acf4f-b36e-42e9-8bb9-a67e68f9a4cb","system_id":"levelo_inurba_marseille","lat":43.273613,"lon":5.362705,"is_reserved":false,"is_disabled":false,"rental_uris":{"android":"levelo://app?vid=4e9acf4f-b36e-42e9-8bb9-a67e68f9a4cb","ios":"levelo://app?vid=4e9acf4f-b36e-42e9-8bb9-a67e68f9a4cb"},"vehicle_type_id":"4","last_reported":1721232595,"current_range_meters":6400,"station_id":"ce4bhbh2rcd13ifvqeo0","pricing_plan_id":"cebpf4jnsgd1na2vs0mg"},{"bike_id":"f368667b-eb2f-47b2-a473-26ed8c5b6daf","system_id":"levelo_inurba_marseille","lat":43.273609,"lon":5.362708,"is_reserved":false,"is_disabled":false,"rental_uris":{"android":"levelo://app?vid=f368667b-eb2f-47b2-a473-26ed8c5b6daf","ios":"levelo://app?vid=f368667b-eb2f-47b2-a473-26ed8c5b6daf"},"vehicle_type_id":"4","last_reported":1721232595,"current_range_meters":20000,"station_id":"ce4bhbh2rcd13ifvqeo0","pricing_plan_id":"cebpf4jnsgd1na2vs0mg"},