{"last_updated":1745482457,"ttl":60,"version":"2.2","data":{"bikes":[{"bike_id":"8be3b069-701c-489b-a2f4-0d895d5d14d1","system_id":"levelo_inurba_marseille","lat":43.25932,"lon":5.40903,"is_reserved":false,"is_disabled":false,"rental_uris":{"android":"levelo://app?vid=8be3b069-701c-489b-a2f4-0d895d5d14d1","ios":"levelo://app?vid=8be3b069-701c-489b-a2f4-0d895d5d14d1"},"vehicle_type_id":"4","last_reported":1745482457,"current_range_meters":2800,"station_id":"ce4bhm92rcd13ifvqglg","pricing_plan_id":"cebpf4jnsgd1na2vs0mg"},{"bike_id":"aa8a0102-3785-4fd7-9ba9-a39f0c22cd79","system_id":"levelo_inurba_marseille","lat":43.24386,"lon":5.37061,"is_reserved":false,"is_disabled":false,"rental_uris":{"android":"levelo://app?vid=aa8a0102-3785-4fd7-9ba9-a39f0c22cd79","ios":"levelo://app?vid=aa8a0102-3785-4fd7-9ba9-a39f0c22cd79"},"vehicle_type_id":"4","last_reported":1745482457,"current_range_meters":2000,"station_id":"ce4bhhh2rcd13ifvqfk0","pricing_plan_id":"cebpf4jnsgd1na2vs0mg"},{"bike_id":"0e956a52-9f1c-4373-9fd9-05b1de4dc5a0","system_id":"levelo_inurba_marseille","lat":43.30848,"lon":5.39626,"is_reserved":false,"is_disabled":true,"rental_uris":{"android":"levelo://app?vid=0e956a52-9f1c-4373-9fd9-05b1de4dc5a0","ios":"levelo://app?vid=0e956a52-9f1c-4373-9fd9-05b1de4dc5a0"},"vehicle_type_id":"4","last_reported":1745482457,"current_range_meters":2800,"station_id":"","pricing_plan_id":"cebpf4jnsgd1na2vs0mg"},{"bike_id":"8d2c4fed-a48e-41d0-8a36-e754a98e018a","system_id":"levelo_inurba_marseille","lat":43.27558,"lon":5.38423,"is_reserved":false,"is_disabled":false,"rental_uris":{"android":"levelo://app?vid=8d2c4fed-a48e-41d0-8a36-e754a98e018a","ios":"levelo://app?vid=8d2c4fed-a48e-41d0-8a36-e754a98e018a"},"vehicle_type_id":"4","last_reported":1745482457,"current_range_meters":2800,"station_id":"ce4bhh92rcd13ifvqfi0","pricing_plan_id":"cebpf4jnsgd1na2vs0mg"},{"bike_id":"4b8a9593-797a-4dcd-9715-ca7f9d390364","system_id":"levelo_inurba_marseille","lat":43.32472,"lon":5.3658,"is_reserved":false,"is_disabled":true,"rental_uris":{"android":"levelo://app?vid=4b8a9593-797a-4dcd-9715-ca7f9d390364","ios":"levelo://app?vid=4b8a9593-797a-4dcd-9715-ca7f9d390364"},"vehicle_type_id":"4","last_reported":1745482457,"current_range_meters":2800,"station_id":"ce4bhs12rcd13ifvqhvg","pricing_plan_id":"cebpf4jnsgd1na2vs0mg"},{"bike_id":"8ac8d999-0318-4642-9be7-b9184ad23f41","system_id":"levelo_inurba_marseille","lat":43.29005,"lon":5.35605,"is_reserved":false,"is_disabled":false,"rental_uris":{"android":"levelo://app?vid=8ac8d999-0318-4642-9be7-b9184ad23f41","ios":"levelo://app?vid=8ac8d999-0318-4642-9be7-b9184ad23f41"},"vehicle_type_id":"4","last_reported":1745482457,"current_range_meters":2800,"station_id":"ce4bhb92rcd13ifvqen0","pricing_plan_id":"cebpf4jnsgd1na2vs0mg"},{"bike_id":"c94e26c1-7575-4802-86ec-0bd6f82482cc","system_id":"levelo_inurba_marseille","lat":43.2861,"lon":5.37028,"is_reserved":false,"is_disabled":false,"rental_uris":{"android":"levelo://app?vid=c94e26c1-7575-4802-86ec-0bd6f82482cc","ios":"levelo://app?vid=c94e26c1-7575-4802-86ec-0bd6f82482cc"},"vehicle_type_id":"4","last_reported":1745482457,"current_range_meters":3600,"station_id":"ce4bht12rcd13ifvqi60","pricing_plan_id":"cebpf4jnsgd1na2vs0mg"},{"bike_id":"e88ac0aa-172e-418f-9134-2e3c247b5863","system_id":"levelo_inurba_marseille","lat":43.23983,"lon":5.36634,"is_reserved":false,"is_disabled":false,"rental_uris":{"android":"levelo://app?vid=e88ac0aa-172e-418f-9134-2e3c247b5863","ios":"levelo://app?vid=e88ac0aa-172e-418f-9134-2e3c247b5863"},"vehicle_type_id":"4","last_reported":1745482457,"current_range_meters":3600,"station_id":"ce4bhi12rcd13ifvqfp0","pricing_plan_id":"cebpf4jnsgd1na2vs0mg"},{"bike_id":"08fc075b-b6f3-4077-94eb-c1be48b0e135","system_id":"levelo_inurba_marseille","lat":43.30214,"lon":5.39464,"is_reserved":false,"is_disabled":false,"rental_uris":{"android":"levelo://app?vid=08fc075b-b6f3-4077-94eb-c1be48b0e135","ios":"levelo://app?vid=08fc075b-b6f3-4077-94eb-c1be48b0e135"},"vehicle_type_id":"4","last_reported":1745482457,"current_range_meters":3200,"station_id":"ce4bh0p2rcd13ifvqd70","pricing_plan_id":"cebpf4jnsgd1na2vs0mg"},{"bike_id":"0c6ad26c-e546-437e-95b7-12b32c292941","system_id":"levelo_inurba_marseille","lat":43.28951,"lon":5.36382,"is_reserved":false,"is_disabled":false,"rental_uris":{"android":"levelo://app?vid=0c6ad26c-e546-437e-95b7-12b32c292941","ios":"levelo://app?vid=0c6ad26c-e546-437e-95b7-12b32c292941"},"vehicle_type_id":"4","last_reported":1745482457,"current_range_meters":3600,"station_id":"ce4bhc92rcd13ifvqetg","pricing_plan_id":"cebpf4jnsgd1na2vs0mg"},{"bike_id":"12c35fac-dd77-4f92-a091-6930c33bb1de","system_id":"levelo_inurba_marseille","lat":43.30422,"lon":5.41284,"is_reserved":false,"is_disabled":false,"rental_uris":{"android":"levelo://app?vid=12c35fac-dd77-4f92-a091-6930c33bb1de","ios":"levelo://app?vid=12c35fac-dd77-4f92-a091-6930c33bb1de"},"vehicle_type_id":"4","last_reported":1745482457,"current_range_meters":3600,"station_id":"","pricing_plan_id":"cebpf4jnsgd1na2vs0mg"},{"bike_id":"3c986d49-4c59-4fce-9389-7b631455012c","system_id":"levelo_inurba_marseille","lat":43.23176,"lon":5.43709,"is_reserved":false,"is_disabled":false,"rental_uris":{"android":"levelo://app?vid=3c986d49-4c59-4fce-9389-7b631455012c","ios":"levelo://app?vid=3c986d49-4c59-4fce-9389-7b631455012c"},"vehicle_type_id":"4","last_reported":1745482457,"current_range_meters":3600,"station_id":"ce4bhmp2rcd13ifvqgog","pricing_plan_id":"cebpf4jnsgd1na2vs0mg"},{"bike_id":"277fb143-fb53-4396-8752-a07c6ad47b20","system_id":"levelo_inurba_marseille","lat":43.25843,"lon":5.39451,"is_reserved":false,"is_disabled":false,"rental_uris":{"android":"levelo://app?vid=277fb143-fb53-4396-8752-a07c6ad47b20","ios":"levelo://app?vid=277fb143-fb53-4396-8752-a07c6ad47b20"},"vehicle_type_id":"4","last_reported":1745482457,"current_range_meters":3600,"station_id":"ce4bhip2rcd13ifvqft0","pricing_plan_id":"cebpf4jnsgd1na2vs0mg"},{"bike_id":"90d9773e-c5f2-406e-aec4-d48d0b937806","system_id":"levelo_inurba_marseille","lat":43.2835,"lon":5.38087,"is_reserved":false,"is_disabled":false,"rental_uris":{"android":"levelo://app?vid=90d9773e-c5f2-406e-aec4-d48d0b937806","ios":"levelo://app?vid=90d9773e-c5f2-406e-aec4-d48d0b937806"},"vehicle_type_id":"4","last_reported":1745482457,"current_range_meters":4000,"station_id":"ce4bh412rcd13ifvqdr0","pricing_plan_id":"cebpf4jnsgd1na2vs0mg"},{"bike_id":"dfcd8c54-3fc2-4db2-9b46-e1276fd3a3b3","system_id":"levelo_inurba_marseille","lat":43.24548,"lon":5.39521,"is_reserved":false,"is_disabled":false,"rental_uris":{"android":"levelo://app?vid=dfcd8c54-3fc2-4db2-9b46-e1276fd3a3b3","ios":"levelo://app?vid=dfcd8c54-3fc2-4db2-9b46-e1276fd3a3b3"},"vehicle_type_id":"4","last_reported":1745482457,"current_range_meters":4000,"station_id":"ce4bhlp2rcd13ifvqgjg","pricing_plan_id":"cebpf4jnsgd1na2vs0mg"},{"bike_id":"0f36c06d-b34a-4b6a-9c76-b87640418fc7","system_id":"levelo_inurba_marseille","lat":43.23068,"lon":5.35492,"is_reserved":false,"is_disabled":false,"rental_uris":{"android":"levelo://app?vid=0f36c06d-b34a-4b6a-9c76-b87640418fc7","ios":"levelo://app?vid=0f36c06d-b34a-4b6a-9c76-b87640418fc7"},"vehicle_type_id":"4","last_reported":1745482457,"current_range_meters":4400,"station_id":"cpo3342slgdg3j2ifvpg","pricing_plan_id":"cebpf4jnsgd1na2vs0mg"},{"bike_id":"53259955-a676-4eb4-81e0-42e103a40a9a","system_id":"levelo_inurba_marseille","lat":43.28358,"lon":5.38614,"is_reserved":false,"is_disabled":false,"rental_uris":{"android":"levelo://app?vid=53259955-a676-4eb4-81e0-42e103a40a9a","ios":"levelo://app?vid=53259955-a676-4eb4-81e0-42e103a40a9a"},"vehicle_type_id":"4","last_reported":1745482457,"current_range_meters":4800,"station_id":"ce4bh492rcd13ifvqdvg","pricing_plan_id":"cebpf4jnsgd1na2vs0mg"},{"bike_id":"d9738d73-cfeb-4787-9bda-261353a56b5e","system_id":"levelo_inurba_marseille","lat":43.24061,"lon":5.37736,"is_reserved":false,"is_disabled":false,"rental_uris":{"android":"levelo://app?vid=d9738d73-cfeb-4787-9bda-261353a56b5e","ios":"levelo://app?vid=d9738d73-cfeb-4787-9bda-261353a56b5e"},"vehicle_type_id":"4","last_reported":1745482457,"current_range_meters":4800,"station_id":"ce4bhnp2rcd13ifvqgvg","pricing_plan_id":"cebpf4jnsgd1na2vs0mg"},{"bike_id":"1679e2f0-4db5-43b0-9d7d-99e5aa0a6e03","system_id":"levelo_inurba_marseille","lat":43.28487,"lon":5.38413,"is_reserved":false,"is_disabled":false,"rental_uris":{"android":"levelo://app?vid=1679e2f0-4db5-43b0-9d7d-99e5aa0a6e03","ios":"levelo://app?vid=1679e2f0-4db5-43b0-9d7d-99e5aa0a6e03"},"vehicle_type_id":"4","last_reported":1745482457,"current_range_meters":5600,"station_id":"ce4bh512rcd13ifvqe3g","pricing_plan_id":"cebpf4jnsgd1na2vs0mg"},{"bike_id":"30ce2455-682c-4220-ae9e-727fb8ce2ba1","system_id":"levelo_inurba_marseille","lat":43.286195,"lon":5.350998,"is_reserved":false,"is_disabled":false,"rental_uris":{"android":"levelo://app?vid=30ce2455-682c-4220-ae9e-727fb8ce2ba1","ios":"levelo://app?vid=30ce2455-682c-4220-ae9e-727fb8ce2ba1"},"vehicle_type_id":"4","last_reported":1745482457,"current_range_meters":5600,"station_id":"ce4bhch2rcd13ifvqeug","pricing_plan_id":"cebpf4jnsgd1na2vs0mg"},{"bike_id":"8d82527d-7806-4669-be77-e8088dbc78a1","system_id":"levelo_inurba_marseille","lat":43.27174,"lon":5.4099,"is_reserved":false,"is_disabled":false,"rental_uris":{"android":"levelo://app?vid=8d82527d-7806-4669-be77-e8088dbc78a1","ios":"levelo://app?vid=8d82527d-7806-4669-be77-e8088dbc78a1"},"vehicle_type_id":"4","last_reported":1745482457,"current_range_meters":5600,"station_id":"ce4bhl12rcd13ifvqgf0","pricing_plan_id":"cebpf4jnsgd1na2vs0mg"},{"bike_id":"1c5ec038-935d-45d4-ab05-1768d5c6745a","system_id":"levelo_inurba_marseille","lat":43.2407,"lon":5.3775,"is_reserved":false,"is_disabled":true,"rental_uris":{"android":"levelo://app?vid=1c5ec038-935d-45d4-ab05-1768d5c6745a","ios":"levelo://app?vid=1c5ec038-935d-45d4-ab05-1768d5c6745a"},"vehicle_type_id":"4","last_reported":1745482457,"current_range_meters":5600,"station_id":"ce4bhnp2rcd13ifvqgvg","pricing_plan_id":"cebpf4jnsgd1na2vs0mg"},{"bike_id":"f7204dbe-aaf9-4564-8c1a-52cfb9b35b31","system_id":"levelo_inurba_marseille","lat":43.29847,"lon":5.36277,"is_reserved":false,"is_disabled":false,"rental_uris":{"android":"levelo://app?vid=f7204dbe-aaf9-4564-8c1a-52cfb9b35b31","ios":"levelo://app?vid=f7204dbe-aaf9-4564-8c1a-52cfb9b35b31"},"vehicle_type_id":"4","last_reported":1745482457,"current_range_meters":5600,"station_id":"ce4bgpp2rcd13ifvqc3g","pricing_plan_id":"cebpf4jnsgd1na2vs0mg"},{"bike_id":"07b3bd79-243a-43f3-9abd-4d1ec49930e1","system_id":"levelo_inurba_marseille","lat":43.33603,"lon":5.41027,"is_reserved":false,"is_disabled":false,"rental_uris":{"android":"levelo://app?vid=07b3bd79-243a-43f3-9abd-4d1ec49930e1","ios":"levelo://app?vid=07b3bd79-243a-43f3-9abd-4d1ec49930e1"},"vehicle_type_id":"4","last_reported":1745482457,"current_range_meters":6000,"station_id":"ce4bhqh2rcd13ifvqhmg","pricing_plan_id":"cebpf4jnsgd1na2vs0mg"},{"bike_id":"a197a121-35c2-4497-9e37-721ebb507925","system_id":"levelo_inurba_marseille","lat":43.30919,"lon":5.36854,"is_reserved":false,"is_disabled":false,"rental_uris":{"android":"levelo://app?vid=a197a121-35c2-4497-9e37-721ebb507925","ios":"levelo://app?vid=a197a121-35c2-4497-9e37-721ebb507925"},"vehicle_type_id":"4","last_reported":1745482457,"current_range_meters":6000,"station_id":"ce4bgn92rcd13ifvqbvg","pricing_plan_id":"cebpf4jnsgd1na2vs0mg"},{"bike_id":"d5e9af15-0c59-447a-bfac-f1130f4216bc","system_id":"levelo_inurba_marseille","lat":43.29567,"lon":5.37516,"is_reserved":false,"is_disabled":false,"rental_uris":{"android":"levelo://app?vid=d5e9af15-0c59-447a-bfac-f1130f4216bc","ios":"levelo://app?vid=d5e9af15-0c59-447a-bfac-f1130f4216bc"},"vehicle_type_id":"4","last_reported":1745482457,"current_range_meters":6000,"station_id":"ce4bgh92rcd13ifvqb50","pricing_plan_id":"cebpf4jnsgd1na2vs0mg"},{"bike_id":"b6553d69-feb1-4f55-99dc-e45ef526cd58","system_id":"levelo_inurba_marseille","lat":43.29561,"lon":5.42284,"is_reserved":false,"is_disabled":true,"rental_uris":{"android":"levelo://app?vid=b6553d69-feb1-4f55-99dc-e45ef526cd58","ios":"levelo://app?vid=b6553d69-feb1-4f55-99dc-e45ef526cd58"},"vehicle_type_id":"4","last_reported":1745482457,"current_range_meters":6400,"station_id":"ce4bhph2rcd13ifvqhdg","pricing_plan_id":"cebpf4jnsgd1na2vs0mg"},{"bike_id":"1a613ed9-8ee2-494f-adc0-2b895ea310dd","system_id":"levelo_inurba_marseille","lat":43.309504,"lon":5.390262,"is_reserved":false,"is_disabled":false,"rental_uris":{"android":"levelo://app?vid=1a613ed9-8ee2-494f-adc0-2b895ea310dd","ios":"levelo://app?vid=1a613ed9-8ee2-494f-adc0-2b895ea310dd"},"vehicle_type_id":"4","last_reported":1745482457,"current_range_meters":6400,"station_id":"","pricing_plan_id":"cebpf4jnsgd1na2vs0mg"},{"bike_id":"87e8e62f-a0eb-4e31-a1e9-dfb264974247","system_id":"levelo_inurba_marseille","lat":43.3149,"lon":5.37302,"is_reserved":false,"is_disabled":false,"rental_uris":{"android":"levelo://app?vid=87e8e62f-a0eb-4e31-a1e9-dfb264974247","ios":"levelo://app?vid=87e8e62f-a0eb-4e31-a1e9-dfb264974247"},"vehicle_type_id":"4","last_reported":1745482457,"current_range_meters":6800,"station_id":"ce4bgt12rcd13ifvqcd0","pricing_plan_id":"cebpf4jnsgd1na2vs0mg"},{"bike_id":"35ee1e7a-ed4b-489a-ad85-a78f3746e5e7","system_id":"levelo_inurba_marseille","lat":43.23161,"lon":5.43699,"is_reserved":false,"is_disabled":false,"rental_uris":{"android":"levelo://app?vid=35ee1e7a-ed4b-489a-ad85-a78f3746e5e7","ios":"levelo://app?vid=35ee1e7a-ed4b-489a-ad85-a78f3746e5e7"},"vehicle_type_id":"4","last_reported":1745482457,"current_range_meters":6800,"station_id":"ce4bhmp2rcd13ifvqgog","pricing_plan_id":"cebpf4jnsgd1na2vs0mg"},{"bike_id":"82ba0e00-e553-41e4-a716-c5929e6133e6","system_id":"levelo_inurba_marseille","lat":43.25934,"lon":5.40889,"is_reserved":false,"is_disabled":false,"rental_uris":{"android":"levelo://app?vid=82ba0e00-e553-41e4-a716-c5929e6133e6","ios":"levelo://app?vid=82ba0e00-e553-41e4-a716-c5929e6133e6"},"vehicle_type_id":"4","last_reported":1745482457,"current_range_meters":6800,"station_id":"ce4bhm92rcd13ifvqglg","pricing_plan_id":"cebpf4jnsgd1na2vs0mg"},{"bike_id":"49c0f902-eac7-4a79-adf0-d142aff51e11","system_id":"levelo_inurba_marseille","lat":43.24158,"lon":5.36394,"is_reserved":false,"is_disabled":false,"rental_uris":{"android":"levelo://app?vid=49c0f902-eac7-4a79-adf0-d142aff51e11","ios":"levelo://app?vid=49c0f902-eac7-4a79-adf0-d142aff51e11"},"vehicle_type_id":"4","last_reported":1745482457,"current_range_meters":6800,"station_id":"cpo36qri1sfpv3e86is0","pricing_plan_id":"cebpf4jnsgd1na2vs0mg"},{"bike_id":"051e4bd2-ccb0-4829-957f-c16919c9a3f0","system_id":"levelo_inurba_marseille","lat":43.29552,"lon":5.4228,"is_reserved":false,"is_disabled":false,"rental_uris":{"android":"levelo://app?vid=051e4bd2-ccb0-4829-957f-c16919c9a3f0","ios":"levelo://app?vid=051e4bd2-ccb0-4829-957f-c16919c9a3f0"},"vehicle_type_id":"4","last_reported":1745482457,"current_range_meters":6400,"station_id":"ce4bhph2rcd13ifvqhdg","pricing_plan_id":"cebpf4jnsgd1na2vs0mg"},{"bike_id":"219ee19c-aca2-4739-988c-3f7832b56c30","system_id":"levelo_inurba_marseille","lat":43.29271,"lon":5.38436,"is_reserved":false,"is_disabled":false,"rental_uris":{"android":"levelo://app?vid=219ee19c-aca2-4739-988c-3f7832b56c30","ios":"levelo://app?vid=219ee19c-aca2-4739-988c-3f7832b56c30"},"vehicle_type_id":"4","last_reported":1745482457,"current_range_meters":6800,"station_id":"ce4bh692rcd13ifvqea0","pricing_plan_id":"cebpf4jnsgd1na2vs0mg"},{"bike_id":"0bad78a4-9b23-4a44-bb0a-e56e7c1e85b3","system_id":"levelo_inurba_marseille","lat":43.30481,"lon":5.37914,"is_reserved":false,"is_disabled":false,"rental_uris":{"android":"levelo://app?vid=0bad78a4-9b23-4a44-bb0a-e56e7c1e85b3","ios":"levelo://app?vid=0bad78a4-9b23-4a44-bb0a-e56e7c1e85b3"},"vehicle_type_id":"4","last_reported":1745482457,"current_range_meters":7200,"station_id":"ce4bgup2rcd13ifvqcn0","pricing_plan_id":"cebpf4jnsgd1na2vs0mg"},{"bike_id":"099bde98-b526-449e-a0d4-12ce76ba0944","system_id":"levelo_inurba_marseille","lat":43.2732,"lon":5.39073,"is_reserved":false,"is_disabled":false,"rental_uris":{"android":"levelo://app?vid=099bde98-b526-449e-a0d4-12ce76ba0944","ios":"levelo://app?vid=099bde98-b526-449e-a0d4-12ce76ba0944"},"vehicle_type_id":"4","last_reported":1745482457,"current_range_meters":7200,"station_id":"ce4bhgp2rcd13ifvqfe0","pricing_plan_id":"cebpf4jnsgd1na2vs0mg"},{"bike_id":"05abebf7-ccc9-40a7-a97f-2c33c3d68521","system_id":"levelo_inurba_marseille","lat":43.287058,"lon":5.4,"is_reserved":false,"is_disabled":false,"rental_uris":{"android":"levelo://app?vid=05abebf7-ccc9-40a7-a97f-2c33c3d68521","ios":"levelo://app?vid=05abebf7-ccc9-40a7-a97f-2c33c3d68521"},"vehicle_type_id":"4","last_reported":1745482457,"current_range_meters":8000,"station_id":"ce4bho92rcd13ifvqh3g","pricing_plan_id":"cebpf4jnsgd1na2vs0mg"},{"bike_id":"3070cec2-559a-4cb5-b38b-e5f337917feb","system_id":"levelo_inurba_marseille","lat":43.23968,"lon":5.36631,"is_reserved":false,"is_disabled":false,"rental_uris":{"android":"levelo://app?vid=3070cec2-559a-4cb5-b38b-e5f337917feb","ios":"levelo://app?vid=3070cec2-559a-4cb5-b38b-e5f337917feb"},"vehicle_type_id":"4","last_reported":1745482457,"current_range_meters":8000,"station_id":"ce4bhi12rcd13ifvqfp0","pricing_plan_id":"cebpf4jnsgd1na2vs0mg"},{"bike_id":"c3569a44-0824-4dff-8a4f-ab1830c624b3","system_id":"levelo_inurba_marseille","lat":43.25951,"lon":5.40895,"is_reserved":false,"is_disabled":false,"rental_uris":{"android":"levelo://app?vid=c3569a44-0824-4dff-8a4f-ab1830c624b3","ios":"levelo://app?vid=c3569a44-0824-4dff-8a4f-ab1830c624b3"},"vehicle_type_id":"4","last_reported":1745482457,"current_range_meters":8000,"station_id":"ce4bhm92rcd13ifvqglg","pricing_plan_id":"cebpf4jnsgd1na2vs0mg"},{"bike_id":"820b4151-620f-4b89-a7ed-758df0709835","system_id":"levelo_inurba_marseille","lat":43.30903,"lon":5.37181,"is_reserved":false,"is_disabled":false,"rental_uris":{"android":"levelo://app?vid=820b4151-620f-4b89-a7ed-758df0709835","ios":"levelo://app?vid=820b4151-620f-4b89-a7ed-758df0709835"},"vehicle_type_id":"4","last_reported":1745482457,"current_range_meters":8000,"station_id":"ce4bguh2rcd13ifvqckg","pricing_plan_id":"cebpf4jnsgd1na2vs0mg"},{"bike_id":"34810234-94cb-4a90-b001-a2fd18f0af37","system_id":"levelo_inurba_marseille","lat":43.30913,"lon":5.36857,"is_reserved":false,"is_disabled":false,"rental_uris":{"android":"levelo://app?vid=34810234-94cb-4a90-b001-a2fd18f0af37","ios":"levelo://app?vid=34810234-94cb-4a90-b001-a2fd18f0af37"},"vehicle_type_id":"4","last_reported":1745482457,"current_range_meters":8000,"station_id":"ce4bgn92rcd13ifvqbvg","pricing_plan_id":"cebpf4jnsgd1na2vs0mg"},{"bike_id":"948177e7-23ab-4457-954e-c8e147387ae4","system_id":"levelo_inurba_marseille","lat":43.3072,"lon":5.40047,"is_reserved":false,"is_disabled":true,"rental_uris":{"android":"levelo://app?vid=948177e7-23ab-4457-954e-c8e147387ae4","ios":"levelo://app?vid=948177e7-23ab-4457-954e-c8e147387ae4"},"vehicle_type_id":"4","last_reported":1745482457,"current_range_meters":8400,"station_id":"ce4bh0h2rcd13ifvqd40","pricing_plan_id":"cebpf4jnsgd1na2vs0mg"},{"bike_id":"235f2bae-0a04-4484-8459-9c3ece0a1b2c","system_id":"levelo_inurba_marseille","lat":43.3073,"lon":5.42454,"is_reserved":false,"is_disabled":false,"rental_uris":{"android":"levelo://app?vid=235f2bae-0a04-4484-8459-9c3ece0a1b2c","ios":"levelo://app?vid=235f2bae-0a04-4484-8459-9c3ece0a1b2c"},"vehicle_type_id":"4","last_reported":1745482457,"current_range_meters":8400,"station_id":"st_cvj6ca6bvosntc0bfgr0","pricing_plan_id":"cebpf4jnsgd1na2vs0mg"},{"bike_id":"7c3b76f6-6190-4b7f-b2c6-fc8d5a22d7a9","system_id":"levelo_inurba_marseille","lat":43.27494,"lon":5.4245,"is_reserved":false,"is_disabled":true,"rental_uris":{"android":"levelo://app?vid=7c3b76f6-6190-4b7f-b2c6-fc8d5a22d7a9","ios":"levelo://app?vid=7c3b76f6-6190-4b7f-b2c6-fc8d5a22d7a9"},"vehicle_type_id":"4","last_reported":1745482457,"current_range_meters":8400,"station_id":"ce4bhn92rcd13ifvqgrg","pricing_plan_id":"cebpf4jnsgd1na2vs0mg"},{"bike_id":"7e9d26b8-b748-4e10-b3e2-977d9fd05087","system_id":"levelo_inurba_marseille","lat":43.3262,"lon":5.36145,"is_reserved":false,"is_disabled":false,"rental_uris":{"android":"levelo://app?vid=7e9d26b8-b748-4e10-b3e2-977d9fd05087","ios":"levelo://app?vid=7e9d26b8-b748-4e10-b3e2-977d9fd05087"},"vehicle_type_id":"4","last_reported":1745482457,"current_range_meters":8400,"station_id":"","pricing_plan_id":"cebpf4jnsgd1na2vs0mg"},{"bike_id":"e5abd533-c561-4552-9c6c-1b0c14cec076","system_id":"levelo_inurba_marseille","lat":43.28355,"lon":5.38094,"is_reserved":false,"is_disabled":false,"rental_uris":{"android":"levelo://app?vid=e5abd533-c561-4552-9c6c-1b0c14cec076","ios":"levelo://app?vid=e5abd533-c561-4552-9c6c-1b0c14cec076"},"vehicle_type_id":"4","last_reported":1745482457,"current_range_meters":8400,"station_id":"ce4bh412rcd13ifvqdr0","pricing_plan_id":"cebpf4jnsgd1na2vs0mg"},{"bike_id":"9ac3ef30-659b-4bfa-be03-8c5d23f92efb","system_id":"levelo_inurba_marseille","lat":43.21752,"lon":5.34604,"is_reserved":false,"is_disabled":false,"rental_uris":{"android":"levelo://app?vid=9ac3ef30-659b-4bfa-be03-8c5d23f92efb","ios":"levelo://app?vid=9ac3ef30-659b-4bfa-be03-8c5d23f92efb"},"vehicle_type_id":"4","last_reported":1745482457,"current_range_meters":8400,"station_id":"st_cvj6r9ubvosntc0bgbag","pricing_plan_id":"cebpf4jnsgd1na2vs0mg"},{"bike_id":"242c422f-fe10-4cc5-89bc-fe2c138d7525","system_id":"levelo_inurba_marseille","lat":43.29841,"lon":5.36266,"is_reserved":false,"is_disabled":false,"rental_uris":{"android":"levelo://app?vid=242c422f-fe10-4cc5-89bc-fe2c138d7525","ios":"levelo://app?vid=242c422f-fe10-4cc5-89bc-fe2c138d7525"},"vehicle_type_id":"4","last_reported":1745482457,"current_range_meters":8400,"station_id":"ce4bgpp2rcd13ifvqc3g","pricing_plan_id":"cebpf4jnsgd1na2vs0mg"},{"bike_id":"8c7cba96-a3d5-439a-9e64-c18b09dd7aa5","system_id":"levelo_inurba_marseille","lat":43.29544,"lon":5.42275,"is_reserved":false,"is_disabled":false,"rental_uris":{"android":"levelo://app?vid=8c7cba96-a3d5-439a-9e64-c18b09dd7aa5","ios":"levelo://app?vid=8c7cba96-a3d5-439a-9e64-c18b09dd7aa5"},"vehicle_type_id":"4","last_reported":1745482457,"current_range_meters":8400,"station_id":"ce4bhph2rcd13ifvqhdg","pricing_plan_id":"cebpf4jnsgd1na2vs0mg"},{"bike_id":"92c3b340-d069-4f1c-b55b-44c52f19597b","system_id":"levelo_inurba_marseille","lat":43.28254,"lon":5.37789,"is_reserved":false,"is_disabled":false,"rental_uris":{"android":"levelo://app?vid=92c3b340-d069-4f1c-b55b-44c52f19597b","ios":"levelo://app?vid=92c3b340-d069-4f1c-b55b-44c52f19597b"},"vehicle_type_id":"4","last_reported":1745482457,"current_range_meters":8800,"station_id":"","pricing_plan_id":"cebpf4jnsgd1na2vs0mg"},{"bike_id":"b96d48d5-fc65-423b-9a30-5d2c864e8939","system_id":"levelo_inurba_marseille","lat":43.225073,"lon":5.347837,"is_reserved":false,"is_disabled":false,"rental_uris":{"android":"levelo://app?vid=b96d48d5-fc65-423b-9a30-5d2c864e8939","ios":"levelo://app?vid=b96d48d5-fc65-423b-9a30-5d2c864e8939"},"vehicle_type_id":"4","last_reported":1745482457,"current_range_meters":8800,"station_id":"st_cvj5dfep6f1abm77gieg","pricing_plan_id":"cebpf4jnsgd1na2vs0mg"},{"bike_id":"38f3b3b2-d537-4351-b28f-c5cb7546276e","system_id":"levelo_inurba_marseille","lat":43.27318,"lon":5.39079,"is_reserved":false,"is_disabled":false,"rental_uris":{"android":"levelo://app?vid=38f3b3b2-d537-4351-b28f-c5cb7546276e","ios":"levelo://app?vid=38f3b3b2-d537-4351-b28f-c5cb7546276e"},"vehicle_type_id":"4","last_reported":1745482457,"current_range_meters":8800,"station_id":"ce4bhgp2rcd13ifvqfe0","pricing_plan_id":"cebpf4jnsgd1na2vs0mg"},{"bike_id":"c97a8321-d4b7-4562-8ef3-855a605e6cf6","system_id":"levelo_inurba_marseille","lat":43.25936,"lon":5.40905,"is_reserved":false,"is_disabled":false,"rental_uris":{"android":"levelo://app?vid=c97a8321-d4b7-4562-8ef3-855a605e6cf6","ios":"levelo://app?vid=c97a8321-d4b7-4562-8ef3-855a605e6cf6"},"vehicle_type_id":"4","last_reported":1745482457,"current_range_meters":8800,"station_id":"ce4bhm92rcd13ifvqglg","pricing_plan_id":"cebpf4jnsgd1na2vs0mg"},{"bike_id":"5cec985c-475e-4a47-afd7-2118745a458f","system_id":"levelo_inurba_marseille","lat":43.22949,"lon":5.35376,"is_reserved":false,"is_disabled":false,"rental_uris":{"android":"levelo://app?vid=5cec985c-475e-4a47-afd7-2118745a458f","ios":"levelo://app?vid=5cec985c-475e-4a47-afd7-2118745a458f"},"vehicle_type_id":"4","last_reported":1745482457,"current_range_meters":8800,"station_id":"cpo3532slgdg3j2ikp40","pricing_plan_id":"cebpf4jnsgd1na2vs0mg"},{"bike_id":"fc493d56-d42d-4ef6-8596-e74e46e624a5","system_id":"levelo_inurba_marseille","lat":43.29277,"lon":5.38441,"is_reserved":false,"is_disabled":false,"rental_uris":{"android":"levelo://app?vid=fc493d56-d42d-4ef6-8596-e74e46e624a5","ios":"levelo://app?vid=fc493d56-d42d-4ef6-8596-e74e46e624a5"},"vehicle_type_id":"4","last_reported":1745482457,"current_range_meters":9200,"station_id":"ce4bh692rcd13ifvqea0","pricing_plan_id":"cebpf4jnsgd1na2vs0mg"},{"bike_id":"d6a00241-8f25-44db-ac6d-8e84872db2a8","system_id":"levelo_inurba_marseille","lat":43.33726,"lon":5.3916,"is_reserved":false,"is_disabled":false,"rental_uris":{"android":"levelo://app?vid=d6a00241-8f25-44db-ac6d-8e84872db2a8","ios":"levelo://app?vid=d6a00241-8f25-44db-ac6d-8e84872db2a8"},"vehicle_type_id":"4","last_reported":1745482457,"current_range_meters":9200,"station_id":"ce4bhr92rcd13ifvqhsg","pricing_plan_id":"cebpf4jnsgd1na2vs0mg"},{"bike_id":"61034bff-863b-4f17-b306-04653b14a109","system_id":"levelo_inurba_marseille","lat":43.30929,"lon":5.40135,"is_reserved":false,"is_disabled":true,"rental_uris":{"android":"levelo://app?vid=61034bff-863b-4f17-b306-04653b14a109","ios":"levelo://app?vid=61034bff-863b-4f17-b306-04653b14a109"},"vehicle_type_id":"4","last_reported":1745482457,"current_range_meters":9200,"station_id":"ce4bgvp2rcd13ifvqct0","pricing_plan_id":"cebpf4jnsgd1na2vs0mg"},{"bike_id":"abd226a8-d003-4133-b9d2-b7c952b7ead1","system_id":"levelo_inurba_marseille","lat":43.23077,"lon":5.35492,"is_reserved":false,"is_disabled":false,"rental_uris":{"android":"levelo://app?vid=abd226a8-d003-4133-b9d2-b7c952b7ead1","ios":"levelo://app?vid=abd226a8-d003-4133-b9d2-b7c952b7ead1"},"vehicle_type_id":"4","last_reported":1745482457,"current_range_meters":9200,"station_id":"cpo3342slgdg3j2ifvpg","pricing_plan_id":"cebpf4jnsgd1na2vs0mg"},{"bike_id":"795a998c-e15b-4ca8-9c3b-e05b3bafc62e","system_id":"levelo_inurba_marseille","lat":43.26211,"lon":5.37437,"is_reserved":false,"is_disabled":false,"rental_uris":{"android":"levelo://app?vid=795a998c-e15b-4ca8-9c3b-e05b3bafc62e","ios":"levelo://app?vid=795a998c-e15b-4ca8-9c3b-e05b3bafc62e"},"vehicle_type_id":"4","last_reported":1745482457,"current_range_meters":9200,"station_id":"ce4bhgp2rcd13ifvqfc0","pricing_plan_id":"cebpf4jnsgd1na2vs0mg"},{"bike_id":"1b8b7145-49a7-4fe1-96a2-72a1d6e84a54","system_id":"levelo_inurba_marseille","lat":43.23076,"lon":5.35494,"is_reserved":false,"is_disabled":false,"rental_uris":{"android":"levelo://app?vid=1b8b7145-49a7-4fe1-96a2-72a1d6e84a54","ios":"levelo://app?vid=1b8b7145-49a7-4fe1-96a2-72a1d6e84a54"},"vehicle_type_id":"4","last_reported":1745482457,"current_range_meters":9200,"station_id":"cpo3342slgdg3j2ifvpg","pricing_plan_id":"cebpf4jnsgd1na2vs0mg"},{"bike_id":"842e7bd4-c835-479f-bb43-96d59283729e","system_id":"levelo_inurba_marseille","lat":43.25726,"lon":5.41113,"is_reserved":false,"is_disabled":false,"rental_uris":{"android":"levelo://app?vid=842e7bd4-c835-479f-bb43-96d59283729e","ios":"levelo://app?vid=842e7bd4-c835-479f-bb43-96d59283729e"},"vehicle_type_id":"4","last_reported":1745482457,"current_range_meters":9200,"station_id":"ce4bhkp2rcd13ifvqgd0","pricing_plan_id":"cebpf4jnsgd1na2vs0mg"},{"bike_id":"8bdaa762-50c4-4608-8541-2e6fa0459ccf","system_id":"levelo_inurba_marseille","lat":43.30545,"lon":5.36696,"is_reserved":false,"is_disabled":true,"rental_uris":{"android":"levelo://app?vid=8bdaa762-50c4-4608-8541-2e6fa0459ccf","ios":"levelo://app?vid=8bdaa762-50c4-4608-8541-2e6fa0459ccf"},"vehicle_type_id":"4","last_reported":1745482457,"current_range_meters":9600,"station_id":"ce4bgrp2rcd13ifvqc9g","pricing_plan_id":"cebpf4jnsgd1na2vs0mg"},{"bike_id":"e6a4ea66-7c8a-46c1-aea7-0fe5fab9397b","system_id":"levelo_inurba_marseille","lat":43.30553,"lon":5.36516,"is_reserved":false,"is_disabled":false,"rental_uris":{"android":"levelo://app?vid=e6a4ea66-7c8a-46c1-aea7-0fe5fab9397b","ios":"levelo://app?vid=e6a4ea66-7c8a-46c1-aea7-0fe5fab9397b"},"vehicle_type_id":"4","last_reported":1745482457,"current_range_meters":9600,"station_id":"ce4bgs12rcd13ifvqcag","pricing_plan_id":"cebpf4jnsgd1na2vs0mg"},{"bike_id":"3650a9b2-6b88-4e28-a679-e2ba405a1ffb","system_id":"levelo_inurba_marseille","lat":43.290579,"lon":5.359181,"is_reserved":false,"is_disabled":false,"rental_uris":{"android":"levelo://app?vid=3650a9b2-6b88-4e28-a679-e2ba405a1ffb","ios":"levelo://app?vid=3650a9b2-6b88-4e28-a679-e2ba405a1ffb"},"vehicle_type_id":"4","last_reported":1745482457,"current_range_meters":9600,"station_id":"ce4bhqp2rcd13ifvqhng","pricing_plan_id":"cebpf4jnsgd1na2vs0mg"},{"bike_id":"79552dee-baba-453d-bdbf-620f9f8510aa","system_id":"levelo_inurba_marseille","lat":43.3091,"lon":5.36846,"is_reserved":false,"is_disabled":false,"rental_uris":{"android":"levelo://app?vid=79552dee-baba-453d-bdbf-620f9f8510aa","ios":"levelo://app?vid=79552dee-baba-453d-bdbf-620f9f8510aa"},"vehicle_type_id":"4","last_reported":1745482457,"current_range_meters":9600,"station_id":"ce4bgn92rcd13ifvqbvg","pricing_plan_id":"cebpf4jnsgd1na2vs0mg"},{"bike_id":"bff35672-f243-46ea-8c71-e6ef7ce9ed93","system_id":"levelo_inurba_marseille","lat":43.308,"lon":5.38139,"is_reserved":false,"is_disabled":false,"rental_uris":{"android":"levelo://app?vid=bff35672-f243-46ea-8c71-e6ef7ce9ed93","ios":"levelo://app?vid=bff35672-f243-46ea-8c71-e6ef7ce9ed93"},"vehicle_type_id":"4","last_reported":1745482457,"current_range_meters":9600,"station_id":"ce4bgt12rcd13ifvqce0","pricing_plan_id":"cebpf4jnsgd1na2vs0mg"},{"bike_id":"bdcc29ba-c9ac-42ac-9da0-b21f9c5bf966","system_id":"levelo_inurba_marseille","lat":43.23147,"lon":5.4372,"is_reserved":false,"is_disabled":false,"rental_uris":{"android":"levelo://app?vid=bdcc29ba-c9ac-42ac-9da0-b21f9c5bf966","ios":"levelo://app?vid=bdcc29ba-c9ac-42ac-9da0-b21f9c5bf966"},"vehicle_type_id":"4","last_reported":1745482457,"current_range_meters":10000,"station_id":"ce4bhmp2rcd13ifvqgog","pricing_plan_id":"cebpf4jnsgd1na2vs0mg"},{"bike_id":"fc2594f5-29c2-4736-a3e8-a8cef3a2f2f6","system_id":"levelo_inurba_marseille","lat":43.25933,"lon":5.40909,"is_reserved":false,"is_disabled":false,"rental_uris":{"android":"levelo://app?vid=fc2594f5-29c2-4736-a3e8-a8cef3a2f2f6","ios":"levelo://app?vid=fc2594f5-29c2-4736-a3e8-a8cef3a2f2f6"},"vehicle_type_id":"4","last_reported":1745482457,"current_range_meters":10000,"station_id":"ce4bhm92rcd13ifvqglg","pricing_plan_id":"cebpf4jnsgd1na2vs0mg"},{"bike_id":"a59bc513-6f43-4128-9d21-0b9eac2d238f","system_id":"levelo_inurba_marseille","lat":43.30564,"lon":5.36535,"is_reserved":false,"is_disabled":true,"rental_uris":{"android":"levelo://app?vid=a59bc513-6f43-4128-9d21-0b9eac2d238f","ios":"levelo://app?vid=a59bc513-6f43-4128-9d21-0b9eac2d238f"},"vehicle_type_id":"4","last_reported":1745482457,"current_range_meters":10000,"station_id":"ce4bgs12rcd13ifvqcag","pricing_plan_id":"cebpf4jnsgd1na2vs0mg"},{"bike_id":"7157b173-45e6-490c-a967-193f3ec5e026","system_id":"levelo_inurba_marseille","lat":43.30885,"lon":5.3719,"is_reserved":false,"is_disabled":false,"rental_uris":{"android":"levelo://app?vid=7157b173-45e6-490c-a967-193f3ec5e026","ios":"levelo://app?vid=7157b173-45e6-490c-a967-193f3ec5e026"},"vehicle_type_id":"4","last_reported":1745482457,"current_range_meters":9600,"station_id":"ce4bguh2rcd13ifvqckg","pricing_plan_id":"cebpf4jnsgd1na2vs0mg"},{"bike_id":"527ab9af-1602-4e3b-a3d5-77f5acec1ebf","system_id":"levelo_inurba_marseille","lat":43.261893,"lon":5.374472,"is_reserved":false,"is_disabled":true,"rental_uris":{"android":"levelo://app?vid=527ab9af-1602-4e3b-a3d5-77f5acec1ebf","ios":"levelo://app?vid=527ab9af-1602-4e3b-a3d5-77f5acec1ebf"},"vehicle_type_id":"4","last_reported":1745482457,"current_range_meters":10000,"station_id":"ce4bhgp2rcd13ifvqfc0","pricing_plan_id":"cebpf4jnsgd1na2vs0mg"},{"bike_id":"5f47d0c6-ea7f-4031-beca-108ca52404d8","system_id":"levelo_inurba_marseille","lat":43.30529,"lon":5.36511,"is_reserved":false,"is_disabled":false,"rental_uris":{"android":"levelo://app?vid=5f47d0c6-ea7f-4031-beca-108ca52404d8","ios":"levelo://app?vid=5f47d0c6-ea7f-4031-beca-108ca52404d8"},"vehicle_type_id":"4","last_reported":1745482457,"current_range_meters":10800,"station_id":"ce4bgs12rcd13ifvqcag","pricing_plan_id":"cebpf4jnsgd1na2vs0mg"},{"bike_id":"e96b3d61-84ac-4d3d-b299-ca04a09ccca9","system_id":"levelo_inurba_marseille","lat":43.290998,"lon":5.381326,"is_reserved":false,"is_disabled":false,"rental_uris":{"android":"levelo://app?vid=e96b3d61-84ac-4d3d-b299-ca04a09ccca9","ios":"levelo://app?vid=e96b3d61-84ac-4d3d-b299-ca04a09ccca9"},"vehicle_type_id":"4","last_reported":1745482457,"current_range_meters":10800,"station_id":"ce4bgjh2rcd13ifvqbg0","pricing_plan_id":"cebpf4jnsgd1na2vs0mg"},{"bike_id":"68c12a07-a87b-473d-8a2b-24a1d981dae3","system_id":"levelo_inurba_marseille","lat":43.30135,"lon":5.38776,"is_reserved":false,"is_disabled":false,"rental_uris":{"android":"levelo://app?vid=68c12a07-a87b-473d-8a2b-24a1d981dae3","ios":"levelo://app?vid=68c12a07-a87b-473d-8a2b-24a1d981dae3"},"vehicle_type_id":"4","last_reported":1745482457,"current_range_meters":11200,"station_id":"ce4bghh2rcd13ifvqb60","pricing_plan_id":"cebpf4jnsgd1na2vs0mg"},{"bike_id":"98622a89-aa43-4bb3-a4bf-925cf1740826","system_id":"levelo_inurba_marseille","lat":43.25581,"lon":5.38227,"is_reserved":false,"is_disabled":false,"rental_uris":{"android":"levelo://app?vid=98622a89-aa43-4bb3-a4bf-925cf1740826","ios":"levelo://app?vid=98622a89-aa43-4bb3-a4bf-925cf1740826"},"vehicle_type_id":"4","last_reported":1745482457,"current_range_meters":11200,"station_id":"ce4bhih2rcd13ifvqfs0","pricing_plan_id":"cebpf4jnsgd1na2vs0mg"},{"bike_id":"2374c26d-b9b2-4d62-8f1b-86d0d54b8840","system_id":"levelo_inurba_marseille","lat":43.24096,"lon":5.37777,"is_reserved":false,"is_disabled":false,"rental_uris":{"android":"levelo://app?vid=2374c26d-b9b2-4d62-8f1b-86d0d54b8840","ios":"levelo://app?vid=2374c26d-b9b2-4d62-8f1b-86d0d54b8840"},"vehicle_type_id":"4","last_reported":1745482457,"current_range_meters":11200,"station_id":"ce4bhnp2rcd13ifvqgvg","pricing_plan_id":"cebpf4jnsgd1na2vs0mg"},{"bike_id":"11ce02ec-5de1-4d28-b35b-b9d2498a4135","system_id":"levelo_inurba_marseille","lat":43.23056,"lon":5.35476,"is_reserved":false,"is_disabled":false,"rental_uris":{"android":"levelo://app?vid=11ce02ec-5de1-4d28-b35b-b9d2498a4135","ios":"levelo://app?vid=11ce02ec-5de1-4d28-b35b-b9d2498a4135"},"vehicle_type_id":"4","last_reported":1745482457,"current_range_meters":11600,"station_id":"cpo3342slgdg3j2ifvpg","pricing_plan_id":"cebpf4jnsgd1na2vs0mg"},{"bike_id":"525ff54a-13b2-489e-9fe7-c2105608fbf2","system_id":"levelo_inurba_marseille","lat":43.3097,"lon":5.39054,"is_reserved":false,"is_disabled":false,"rental_uris":{"android":"levelo://app?vid=525ff54a-13b2-489e-9fe7-c2105608fbf2","ios":"levelo://app?vid=525ff54a-13b2-489e-9fe7-c2105608fbf2"},"vehicle_type_id":"4","last_reported":1745482457,"current_range_meters":11600,"station_id":"ce4bgup2rcd13ifvqco0","pricing_plan_id":"cebpf4jnsgd1na2vs0mg"},{"bike_id":"30e08c8c-a2b6-45d6-9704-9460af4f4d07","system_id":"levelo_inurba_marseille","lat":43.31078,"lon":5.42441,"is_reserved":false,"is_disabled":false,"rental_uris":{"android":"levelo://app?vid=30e08c8c-a2b6-45d6-9704-9460af4f4d07","ios":"levelo://app?vid=30e08c8c-a2b6-45d6-9704-9460af4f4d07"},"vehicle_type_id":"4","last_reported":1745482457,"current_range_meters":11600,"station_id":"ce4bhp92rcd13ifvqhag","pricing_plan_id":"cebpf4jnsgd1na2vs0mg"},{"bike_id":"3d890ec9-dbb0-4d3d-bdf8-b49993136f4d","system_id":"levelo_inurba_marseille","lat":43.24083,"lon":5.3775,"is_reserved":false,"is_disabled":false,"rental_uris":{"android":"levelo://app?vid=3d890ec9-dbb0-4d3d-bdf8-b49993136f4d","ios":"levelo://app?vid=3d890ec9-dbb0-4d3d-bdf8-b49993136f4d"},"vehicle_type_id":"4","last_reported":1745482457,"current_range_meters":12000,"station_id":"ce4bhnp2rcd13ifvqgvg","pricing_plan_id":"cebpf4jnsgd1na2vs0mg"},{"bike_id":"f7088e60-e703-4ef3-9bbc-74ed6aa9de63","system_id":"levelo_inurba_marseille","lat":43.24076,"lon":5.37756,"is_reserved":false,"is_disabled":false,"rental_uris":{"android":"levelo://app?vid=f7088e60-e703-4ef3-9bbc-74ed6aa9de63","ios":"levelo://app?vid=f7088e60-e703-4ef3-9bbc-74ed6aa9de63"},"vehicle_type_id":"4","last_reported":1745482457,"current_range_meters":12400,"station_id":"ce4bhnp2rcd13ifvqgvg","pricing_plan_id":"cebpf4jnsgd1na2vs0mg"},{"bike_id":"46374c49-3adc-4c5a-8966-e00f056c0d57","system_id":"levelo_inurba_marseille","lat":43.27846,"lon":5.35442,"is_reserved":false,"is_disabled":false,"rental_uris":{"android":"levelo://app?vid=46374c49-3adc-4c5a-8966-e00f056c0d57","ios":"levelo://app?vid=46374c49-3adc-4c5a-8966-e00f056c0d57"},"vehicle_type_id":"4","last_reported":1745482457,"current_range_meters":12400,"station_id":"","pricing_plan_id":"cebpf4jnsgd1na2vs0mg"},{"bike_id":"162104c9-c9c3-41e8-9022-0f16a6a968c6","system_id":"levelo_inurba_marseille","lat":43.33036,"lon":5.39035,"is_reserved":false,"is_disabled":false,"rental_uris":{"android":"levelo://app?vid=162104c9-c9c3-41e8-9022-0f16a6a968c6","ios":"levelo://app?vid=162104c9-c9c3-41e8-9022-0f16a6a968c6"},"vehicle_type_id":"4","last_reported":1745482457,"current_range_meters":12400,"station_id":"ce4bhr92rcd13ifvqhrg","pricing_plan_id":"cebpf4jnsgd1na2vs0mg"},{"bike_id":"e76f1770-0688-4235-ac04-e557789c1b24","system_id":"levelo_inurba_marseille","lat":43.2954,"lon":5.39043,"is_reserved":false,"is_disabled":false,"rental_uris":{"android":"levelo://app?vid=e76f1770-0688-4235-ac04-e557789c1b24","ios":"levelo://app?vid=e76f1770-0688-4235-ac04-e557789c1b24"},"vehicle_type_id":"4","last_reported":1745482457,"current_range_meters":12400,"station_id":"ce4bh3p2rcd13ifvqdp0","pricing_plan_id":"cebpf4jnsgd1na2vs0mg"},{"bike_id":"f872a4c4-52c6-43cf-baed-0f46814e2446","system_id":"levelo_inurba_marseille","lat":43.295299,"lon":5.390422,"is_reserved":false,"is_disabled":false,"rental_uris":{"android":"levelo://app?vid=f872a4c4-52c6-43cf-baed-0f46814e2446","ios":"levelo://app?vid=f872a4c4-52c6-43cf-baed-0f46814e2446"},"vehicle_type_id":"4","last_reported":1745482457,"current_range_meters":12400,"station_id":"ce4bh3p2rcd13ifvqdp0","pricing_plan_id":"cebpf4jnsgd1na2vs0mg"},{"bike_id":"e72b8ca3-ef07-41cc-9f60-273f9d5d14ff","system_id":"levelo_inurba_marseille","lat":43.28574,"lon":5.39492,"is_reserved":false,"is_disabled":false,"rental_uris":{"android":"levelo://app?vid=e72b8ca3-ef07-41cc-9f60-273f9d5d14ff","ios":"levelo://app?vid=e72b8ca3-ef07-41cc-9f60-273f9d5d14ff"},"vehicle_type_id":"4","last_reported":1745482457,"current_range_meters":12400,"station_id":"ce4bh292rcd13ifvqdg0","pricing_plan_id":"cebpf4jnsgd1na2vs0mg"},{"bike_id":"29c27f6c-b172-4d99-add3-c74bdfc6be20","system_id":"levelo_inurba_marseille","lat":43.33007,"lon":5.38996,"is_reserved":false,"is_disabled":false,"rental_uris":{"android":"levelo://app?vid=29c27f6c-b172-4d99-add3-c74bdfc6be20","ios":"levelo://app?vid=29c27f6c-b172-4d99-add3-c74bdfc6be20"},"vehicle_type_id":"4","last_reported":1745482457,"current_range_meters":12800,"station_id":"ce4bhr92rcd13ifvqhrg","pricing_plan_id":"cebpf4jnsgd1na2vs0mg"},{"bike_id":"6f92f117-db41-48e4-8e04-0cb28a1484e0","system_id":"levelo_inurba_marseille","lat":43.30544,"lon":5.36695,"is_reserved":false,"is_disabled":false,"rental_uris":{"android":"levelo://app?vid=6f92f117-db41-48e4-8e04-0cb28a1484e0","ios":"levelo://app?vid=6f92f117-db41-48e4-8e04-0cb28a1484e0"},"vehicle_type_id":"4","last_reported":1745482457,"current_range_meters":12800,"station_id":"ce4bgrp2rcd13ifvqc9g","pricing_plan_id":"cebpf4jnsgd1na2vs0mg"},{"bike_id":"2bcd9788-02cd-455d-8ae2-08577756d97c","system_id":"levelo_inurba_marseille","lat":43.2917,"lon":5.37155,"is_reserved":false,"is_disabled":false,"rental_uris":{"android":"levelo://app?vid=2bcd9788-02cd-455d-8ae2-08577756d97c","ios":"levelo://app?vid=2bcd9788-02cd-455d-8ae2-08577756d97c"},"vehicle_type_id":"4","last_reported":1745482457,"current_range_meters":12400,"station_id":"ce4bha92rcd13ifvqeh0","pricing_plan_id":"cebpf4jnsgd1na2vs0mg"},{"bike_id":"4a41fc95-163f-4d35-9e08-fc548b368339","system_id":"levelo_inurba_marseille","lat":43.27951,"lon":5.41048,"is_reserved":false,"is_disabled":false,"rental_uris":{"android":"levelo://app?vid=4a41fc95-163f-4d35-9e08-fc548b368339","ios":"levelo://app?vid=4a41fc95-163f-4d35-9e08-fc548b368339"},"vehicle_type_id":"4","last_reported":1745482457,"current_range_meters":12800,"station_id":"ce4bhnp2rcd13ifvqh0g","pricing_plan_id":"cebpf4jnsgd1na2vs0mg"},{"bike_id":"755abc1a-f797-479c-8e88-5f59f436c9d9","system_id":"levelo_inurba_marseille","lat":43.23964,"lon":5.36616,"is_reserved":false,"is_disabled":true,"rental_uris":{"android":"levelo://app?vid=755abc1a-f797-479c-8e88-5f59f436c9d9","ios":"levelo://app?vid=755abc1a-f797-479c-8e88-5f59f436c9d9"},"vehicle_type_id":"4","last_reported":1745482457,"current_range_meters":12800,"station_id":"ce4bhi12rcd13ifvqfp0","pricing_plan_id":"cebpf4jnsgd1na2vs0mg"},{"bike_id":"f511a4e1-0d83-4699-9627-127081f274cd","system_id":"levelo_inurba_marseille","lat":43.28613,"lon":5.35101,"is_reserved":false,"is_disabled":false,"rental_uris":{"android":"levelo://app?vid=f511a4e1-0d83-4699-9627-127081f274cd","ios":"levelo://app?vid=f511a4e1-0d83-4699-9627-127081f274cd"},"vehicle_type_id":"4","last_reported":1745482457,"current_range_meters":13600,"station_id":"ce4bhch2rcd13ifvqeug","pricing_plan_id":"cebpf4jnsgd1na2vs0mg"},{"bike_id":"df11b469-c9ef-41ef-a3ff-e21b4cfee7c7","system_id":"levelo_inurba_marseille","lat":43.32355,"lon":5.36751,"is_reserved":false,"is_disabled":false,"rental_uris":{"android":"levelo://app?vid=df11b469-c9ef-41ef-a3ff-e21b4cfee7c7","ios":"levelo://app?vid=df11b469-c9ef-41ef-a3ff-e21b4cfee7c7"},"vehicle_type_id":"4","last_reported":1745482457,"current_range_meters":13600,"station_id":"ce4bhsh2rcd13ifvqi2g","pricing_plan_id":"cebpf4jnsgd1na2vs0mg"},{"bike_id":"9ab7bf5e-724a-45c5-a946-61afe36b1204","system_id":"levelo_inurba_marseille","lat":43.30312,"lon":5.40435,"is_reserved":false,"is_disabled":true,"rental_uris":{"android":"levelo://app?vid=9ab7bf5e-724a-45c5-a946-61afe36b1204","ios":"levelo://app?vid=9ab7bf5e-724a-45c5-a946-61afe36b1204"},"vehicle_type_id":"4","last_reported":1745482457,"current_range_meters":13600,"station_id":"ce4bh012rcd13ifvqd10","pricing_plan_id":"cebpf4jnsgd1na2vs0mg"},{"bike_id":"e5c14ae5-c4d7-488d-b986-65126a0c6d6e","system_id":"levelo_inurba_marseille","lat":43.280355,"lon":5.369474,"is_reserved":false,"is_disabled":false,"rental_uris":{"android":"levelo://app?vid=e5c14ae5-c4d7-488d-b986-65126a0c6d6e","ios":"levelo://app?vid=e5c14ae5-c4d7-488d-b986-65126a0c6d6e"},"vehicle_type_id":"4","last_reported":1745482457,"current_range_meters":13600,"station_id":"ce4bha12rcd13ifvqef0","pricing_plan_id":"cebpf4jnsgd1na2vs0mg"},{"bike_id":"99c20a72-9868-4940-b443-cadbf07f72e2","system_id":"levelo_inurba_marseille","lat":43.30951,"lon":5.39027,"is_reserved":false,"is_disabled":true,"rental_uris":{"android":"levelo://app?vid=99c20a72-9868-4940-b443-cadbf07f72e2","ios":"levelo://app?vid=99c20a72-9868-4940-b443-cadbf07f72e2"},"vehicle_type_id":"4","last_reported":1745482457,"current_range_meters":13600,"station_id":"","pricing_plan_id":"cebpf4jnsgd1na2vs0mg"},{"bike_id":"d6a2370e-9ce1-4723-a8b6-7f4ea8ad5a86","system_id":"levelo_inurba_marseille","lat":43.29165,"lon":5.37157,"is_reserved":false,"is_disabled":false,"rental_uris":{"android":"levelo://app?vid=d6a2370e-9ce1-4723-a8b6-7f4ea8ad5a86","ios":"levelo://app?vid=d6a2370e-9ce1-4723-a8b6-7f4ea8ad5a86"},"vehicle_type_id":"4","last_reported":1745482457,"current_range_meters":14000,"station_id":"ce4bha92rcd13ifvqeh0","pricing_plan_id":"cebpf4jnsgd1na2vs0mg"},{"bike_id":"0a4aab9f-8a71-4fe1-9d7a-a1171198a2d7","system_id":"levelo_inurba_marseille","lat":43.2315,"lon":5.43717,"is_reserved":false,"is_disabled":false,"rental_uris":{"android":"levelo://app?vid=0a4aab9f-8a71-4fe1-9d7a-a1171198a2d7","ios":"levelo://app?vid=0a4aab9f-8a71-4fe1-9d7a-a1171198a2d7"},"vehicle_type_id":"4","last_reported":1745482457,"current_range_meters":14400,"station_id":"ce4bhmp2rcd13ifvqgog","pricing_plan_id":"cebpf4jnsgd1na2vs0mg"},{"bike_id":"3de7ba8d-ad4f-409b-8f92-39eefa9baa44","system_id":"levelo_inurba_marseille","lat":43.25815,"lon":5.39441,"is_reserved":false,"is_disabled":false,"rental_uris":{"android":"levelo://app?vid=3de7ba8d-ad4f-409b-8f92-39eefa9baa44","ios":"levelo://app?vid=3de7ba8d-ad4f-409b-8f92-39eefa9baa44"},"vehicle_type_id":"4","last_reported":1745482457,"current_range_meters":14400,"station_id":"ce4bhip2rcd13ifvqft0","pricing_plan_id":"cebpf4jnsgd1na2vs0mg"},{"bike_id":"5d598f50-0289-4d7e-b163-7f0386e0682b","system_id":"levelo_inurba_marseille","lat":43.23155,"lon":5.43706,"is_reserved":false,"is_disabled":false,"rental_uris":{"android":"levelo://app?vid=5d598f50-0289-4d7e-b163-7f0386e0682b","ios":"levelo://app?vid=5d598f50-0289-4d7e-b163-7f0386e0682b"},"vehicle_type_id":"4","last_reported":1745482457,"current_range_meters":14400,"station_id":"ce4bhmp2rcd13ifvqgog","pricing_plan_id":"cebpf4jnsgd1na2vs0mg"},{"bike_id":"7fdf4835-74de-480f-bbe2-35fa534e4a66","system_id":"levelo_inurba_marseille","lat":43.29795,"lon":5.38101,"is_reserved":false,"is_disabled":false,"rental_uris":{"android":"levelo://app?vid=7fdf4835-74de-480f-bbe2-35fa534e4a66","ios":"levelo://app?vid=7fdf4835-74de-480f-bbe2-35fa534e4a66"},"vehicle_type_id":"4","last_reported":1745482457,"current_range_meters":14000,"station_id":"ce4bgip2rcd13ifvqbb0","pricing_plan_id":"cebpf4jnsgd1na2vs0mg"},{"bike_id":"11823a51-ce6a-4329-86c9-73570c28fb5e","system_id":"levelo_inurba_marseille","lat":43.29562,"lon":5.37492,"is_reserved":false,"is_disabled":false,"rental_uris":{"android":"levelo://app?vid=11823a51-ce6a-4329-86c9-73570c28fb5e","ios":"levelo://app?vid=11823a51-ce6a-4329-86c9-73570c28fb5e"},"vehicle_type_id":"4","last_reported":1745482457,"current_range_meters":14400,"station_id":"ce4bgh92rcd13ifvqb50","pricing_plan_id":"cebpf4jnsgd1na2vs0mg"},{"bike_id":"48ccfd11-f8bb-41a1-ac27-104e29a72006","system_id":"levelo_inurba_marseille","lat":43.29393,"lon":5.37807,"is_reserved":false,"is_disabled":false,"rental_uris":{"android":"levelo://app?vid=48ccfd11-f8bb-41a1-ac27-104e29a72006","ios":"levelo://app?vid=48ccfd11-f8bb-41a1-ac27-104e29a72006"},"vehicle_type_id":"4","last_reported":1745482457,"current_range_meters":14800,"station_id":"ce4bgjh2rcd13ifvqbf0","pricing_plan_id":"cebpf4jnsgd1na2vs0mg"},{"bike_id":"35090959-b112-46be-be27-4c96af2a8fd4","system_id":"levelo_inurba_marseille","lat":43.29261,"lon":5.37613,"is_reserved":false,"is_disabled":false,"rental_uris":{"android":"levelo://app?vid=35090959-b112-46be-be27-4c96af2a8fd4","ios":"levelo://app?vid=35090959-b112-46be-be27-4c96af2a8fd4"},"vehicle_type_id":"4","last_reported":1745482457,"current_range_meters":14800,"station_id":"ce4bgi12rcd13ifvqb80","pricing_plan_id":"cebpf4jnsgd1na2vs0mg"},{"bike_id":"d802d433-91f5-46da-9a5b-42a725289286","system_id":"levelo_inurba_marseille","lat":43.30916,"lon":5.36838,"is_reserved":false,"is_disabled":false,"rental_uris":{"android":"levelo://app?vid=d802d433-91f5-46da-9a5b-42a725289286","ios":"levelo://app?vid=d802d433-91f5-46da-9a5b-42a725289286"},"vehicle_type_id":"4","last_reported":1745482457,"current_range_meters":14800,"station_id":"ce4bgn92rcd13ifvqbvg","pricing_plan_id":"cebpf4jnsgd1na2vs0mg"},{"bike_id":"94c4b56b-e2b5-4afa-9a43-30f61113e4c1","system_id":"levelo_inurba_marseille","lat":43.29845,"lon":5.36289,"is_reserved":false,"is_disabled":false,"rental_uris":{"android":"levelo://app?vid=94c4b56b-e2b5-4afa-9a43-30f61113e4c1","ios":"levelo://app?vid=94c4b56b-e2b5-4afa-9a43-30f61113e4c1"},"vehicle_type_id":"4","last_reported":1745482457,"current_range_meters":14800,"station_id":"ce4bgpp2rcd13ifvqc3g","pricing_plan_id":"cebpf4jnsgd1na2vs0mg"},{"bike_id":"54a65ea7-93b8-42ec-8567-ce2db234e6bd","system_id":"levelo_inurba_marseille","lat":43.29864,"lon":5.36272,"is_reserved":false,"is_disabled":false,"rental_uris":{"android":"levelo://app?vid=54a65ea7-93b8-42ec-8567-ce2db234e6bd","ios":"levelo://app?vid=54a65ea7-93b8-42ec-8567-ce2db234e6bd"},"vehicle_type_id":"4","last_reported":1745482457,"current_range_meters":15200,"station_id":"ce4bgpp2rcd13ifvqc3g","pricing_plan_id":"cebpf4jnsgd1na2vs0mg"},{"bike_id":"cb98bf67-0cfd-4fbc-946c-22545812ae60","system_id":"levelo_inurba_marseille","lat":43.295258,"lon":5.390454,"is_reserved":false,"is_disabled":false,"rental_uris":{"android":"levelo://app?vid=cb98bf67-0cfd-4fbc-946c-22545812ae60","ios":"levelo://app?vid=cb98bf67-0cfd-4fbc-946c-22545812ae60"},"vehicle_type_id":"4","last_reported":1745482457,"current_range_meters":15200,"station_id":"ce4bh3p2rcd13ifvqdp0","pricing_plan_id":"cebpf4jnsgd1na2vs0mg"},{"bike_id":"04e0fff1-7873-41aa-a352-f64bde3cefa8","system_id":"levelo_inurba_marseille","lat":43.23194,"lon":5.35561,"is_reserved":false,"is_disabled":false,"rental_uris":{"android":"levelo://app?vid=04e0fff1-7873-41aa-a352-f64bde3cefa8","ios":"levelo://app?vid=04e0fff1-7873-41aa-a352-f64bde3cefa8"},"vehicle_type_id":"4","last_reported":1745482457,"current_range_meters":15200,"station_id":"ce4bhu92rcd13ifvqi70","pricing_plan_id":"cebpf4jnsgd1na2vs0mg"},{"bike_id":"fa8a552a-d2d3-4e8d-8d8e-02bdba037836","system_id":"levelo_inurba_marseille","lat":43.230695,"lon":5.354906,"is_reserved":false,"is_disabled":false,"rental_uris":{"android":"levelo://app?vid=fa8a552a-d2d3-4e8d-8d8e-02bdba037836","ios":"levelo://app?vid=fa8a552a-d2d3-4e8d-8d8e-02bdba037836"},"vehicle_type_id":"4","last_reported":1745482457,"current_range_meters":15200,"station_id":"cpo3342slgdg3j2ifvpg","pricing_plan_id":"cebpf4jnsgd1na2vs0mg"},{"bike_id":"527999c3-7431-407e-96d9-15db82eb0dac","system_id":"levelo_inurba_marseille","lat":43.30555,"lon":5.36712,"is_reserved":false,"is_disabled":false,"rental_uris":{"android":"levelo://app?vid=527999c3-7431-407e-96d9-15db82eb0dac","ios":"levelo://app?vid=527999c3-7431-407e-96d9-15db82eb0dac"},"vehicle_type_id":"4","last_reported":1745482457,"current_range_meters":16000,"station_id":"ce4bgrp2rcd13ifvqc9g","pricing_plan_id":"cebpf4jnsgd1na2vs0mg"},{"bike_id":"8dff3327-c704-4870-8401-73b9c1029785","system_id":"levelo_inurba_marseille","lat":43.25901,"lon":5.39892,"is_reserved":false,"is_disabled":true,"rental_uris":{"android":"levelo://app?vid=8dff3327-c704-4870-8401-73b9c1029785","ios":"levelo://app?vid=8dff3327-c704-4870-8401-73b9c1029785"},"vehicle_type_id":"4","last_reported":1745482457,"current_range_meters":16000,"station_id":"ce4bhl92rcd13ifvqghg","pricing_plan_id":"cebpf4jnsgd1na2vs0mg"},{"bike_id":"bb96f4ed-6fa1-48c3-822f-97694b9f9b42","system_id":"levelo_inurba_marseille","lat":43.27489,"lon":5.42455,"is_reserved":false,"is_disabled":false,"rental_uris":{"android":"levelo://app?vid=bb96f4ed-6fa1-48c3-822f-97694b9f9b42","ios":"levelo://app?vid=bb96f4ed-6fa1-48c3-822f-97694b9f9b42"},"vehicle_type_id":"4","last_reported":1745482457,"current_range_meters":16000,"station_id":"ce4bhn92rcd13ifvqgrg","pricing_plan_id":"cebpf4jnsgd1na2vs0mg"},{"bike_id":"6a1b385f-4c37-4399-89d8-2a1bce2af65b","system_id":"levelo_inurba_marseille","lat":43.33737,"lon":5.39177,"is_reserved":false,"is_disabled":false,"rental_uris":{"android":"levelo://app?vid=6a1b385f-4c37-4399-89d8-2a1bce2af65b","ios":"levelo://app?vid=6a1b385f-4c37-4399-89d8-2a1bce2af65b"},"vehicle_type_id":"4","last_reported":1745482457,"current_range_meters":16000,"station_id":"ce4bhr92rcd13ifvqhsg","pricing_plan_id":"cebpf4jnsgd1na2vs0mg"},{"bike_id":"29c53ac4-02a0-432a-9e4a-02ed48092088","system_id":"levelo_inurba_marseille","lat":43.299176,"lon":5.374694,"is_reserved":false,"is_disabled":false,"rental_uris":{"android":"levelo://app?vid=29c53ac4-02a0-432a-9e4a-02ed48092088","ios":"levelo://app?vid=29c53ac4-02a0-432a-9e4a-02ed48092088"},"vehicle_type_id":"4","last_reported":1745482457,"current_range_meters":15200,"station_id":"ce4bgjh2rcd13ifvqbg0","pricing_plan_id":"cebpf4jnsgd1na2vs0mg"},{"bike_id":"21cf3363-0ee8-4fda-8f7d-b50542c8227f","system_id":"levelo_inurba_marseille","lat":43.302151,"lon":5.394627,"is_reserved":false,"is_disabled":false,"rental_uris":{"android":"levelo://app?vid=21cf3363-0ee8-4fda-8f7d-b50542c8227f","ios":"levelo://app?vid=21cf3363-0ee8-4fda-8f7d-b50542c8227f"},"vehicle_type_id":"4","last_reported":1745482457,"current_range_meters":16000,"station_id":"ce4bh292rcd13ifvqdf0","pricing_plan_id":"cebpf4jnsgd1na2vs0mg"},{"bike_id":"9e3ec1b8-90aa-41f8-b4cf-95d8498727ff","system_id":"levelo_inurba_marseille","lat":43.29852,"lon":5.36285,"is_reserved":false,"is_disabled":false,"rental_uris":{"android":"levelo://app?vid=9e3ec1b8-90aa-41f8-b4cf-95d8498727ff","ios":"levelo://app?vid=9e3ec1b8-90aa-41f8-b4cf-95d8498727ff"},"vehicle_type_id":"4","last_reported":1745482457,"current_range_meters":16400,"station_id":"ce4bgpp2rcd13ifvqc3g","pricing_plan_id":"cebpf4jnsgd1na2vs0mg"},{"bike_id":"fdb851bd-e1d2-49e7-bee9-81436e6d08eb","system_id":"levelo_inurba_marseille","lat":43.31696,"lon":5.4043,"is_reserved":false,"is_disabled":false,"rental_uris":{"android":"levelo://app?vid=fdb851bd-e1d2-49e7-bee9-81436e6d08eb","ios":"levelo://app?vid=fdb851bd-e1d2-49e7-bee9-81436e6d08eb"},"vehicle_type_id":"4","last_reported":1745482457,"current_range_meters":16400,"station_id":"ce4bh012rcd13ifvqd00","pricing_plan_id":"cebpf4jnsgd1na2vs0mg"},{"bike_id":"ea4b1d0e-0566-46bf-9ab6-545429e3b392","system_id":"levelo_inurba_marseille","lat":43.24673,"lon":5.38137,"is_reserved":false,"is_disabled":false,"rental_uris":{"android":"levelo://app?vid=ea4b1d0e-0566-46bf-9ab6-545429e3b392","ios":"levelo://app?vid=ea4b1d0e-0566-46bf-9ab6-545429e3b392"},"vehicle_type_id":"4","last_reported":1745482457,"current_range_meters":16400,"station_id":"ce4bhih2rcd13ifvqfr0","pricing_plan_id":"cebpf4jnsgd1na2vs0mg"},{"bike_id":"81c822d8-ebbe-4d24-aa97-095046fd1c36","system_id":"levelo_inurba_marseille","lat":43.23155,"lon":5.43718,"is_reserved":false,"is_disabled":false,"rental_uris":{"android":"levelo://app?vid=81c822d8-ebbe-4d24-aa97-095046fd1c36","ios":"levelo://app?vid=81c822d8-ebbe-4d24-aa97-095046fd1c36"},"vehicle_type_id":"4","last_reported":1745482457,"current_range_meters":16400,"station_id":"ce4bhmp2rcd13ifvqgog","pricing_plan_id":"cebpf4jnsgd1na2vs0mg"},{"bike_id":"8492447e-6a4e-4de2-8526-5f1e1e6fd6a3","system_id":"levelo_inurba_marseille","lat":43.292573,"lon":5.376183,"is_reserved":false,"is_disabled":false,"rental_uris":{"android":"levelo://app?vid=8492447e-6a4e-4de2-8526-5f1e1e6fd6a3","ios":"levelo://app?vid=8492447e-6a4e-4de2-8526-5f1e1e6fd6a3"},"vehicle_type_id":"4","last_reported":1745482457,"current_range_meters":16800,"station_id":"ce4bgi12rcd13ifvqb80","pricing_plan_id":"cebpf4jnsgd1na2vs0mg"},{"bike_id":"1dac3e3b-a779-4b02-bdcd-eac9198a16e5","system_id":"levelo_inurba_marseille","lat":43.2707,"lon":5.42282,"is_reserved":false,"is_disabled":false,"rental_uris":{"android":"levelo://app?vid=1dac3e3b-a779-4b02-bdcd-eac9198a16e5","ios":"levelo://app?vid=1dac3e3b-a779-4b02-bdcd-eac9198a16e5"},"vehicle_type_id":"4","last_reported":1745482457,"current_range_meters":16800,"station_id":"ce4bhk92rcd13ifvqgb0","pricing_plan_id":"cebpf4jnsgd1na2vs0mg"},{"bike_id":"97f00e91-4a81-4998-8f3d-60d5de3cea7c","system_id":"levelo_inurba_marseille","lat":43.3053,"lon":5.36691,"is_reserved":false,"is_disabled":false,"rental_uris":{"android":"levelo://app?vid=97f00e91-4a81-4998-8f3d-60d5de3cea7c","ios":"levelo://app?vid=97f00e91-4a81-4998-8f3d-60d5de3cea7c"},"vehicle_type_id":"4","last_reported":1745482457,"current_range_meters":16800,"station_id":"ce4bgrp2rcd13ifvqc9g","pricing_plan_id":"cebpf4jnsgd1na2vs0mg"},{"bike_id":"f6341b5b-1f7b-4d13-869e-e14c081b350b","system_id":"levelo_inurba_marseille","lat":43.33015,"lon":5.39052,"is_reserved":false,"is_disabled":false,"rental_uris":{"android":"levelo://app?vid=f6341b5b-1f7b-4d13-869e-e14c081b350b","ios":"levelo://app?vid=f6341b5b-1f7b-4d13-869e-e14c081b350b"},"vehicle_type_id":"4","last_reported":1745482457,"current_range_meters":16800,"station_id":"ce4bhr92rcd13ifvqhrg","pricing_plan_id":"cebpf4jnsgd1na2vs0mg"},{"bike_id":"4d8697b4-e520-4025-83e9-e9246902a88c","system_id":"levelo_inurba_marseille","lat":43.30934,"lon":5.36888,"is_reserved":false,"is_disabled":false,"rental_uris":{"android":"levelo://app?vid=4d8697b4-e520-4025-83e9-e9246902a88c","ios":"levelo://app?vid=4d8697b4-e520-4025-83e9-e9246902a88c"},"vehicle_type_id":"4","last_reported":1745482457,"current_range_meters":16800,"station_id":"ce4bgn92rcd13ifvqbvg","pricing_plan_id":"cebpf4jnsgd1na2vs0mg"},{"bike_id":"ab660249-0742-4ee6-9f3c-cbf7eabd0145","system_id":"levelo_inurba_marseille","lat":43.2862,"lon":5.37056,"is_reserved":false,"is_disabled":false,"rental_uris":{"android":"levelo://app?vid=ab660249-0742-4ee6-9f3c-cbf7eabd0145","ios":"levelo://app?vid=ab660249-0742-4ee6-9f3c-cbf7eabd0145"},"vehicle_type_id":"4","last_reported":1745482457,"current_range_meters":16800,"station_id":"ce4bht12rcd13ifvqi60","pricing_plan_id":"cebpf4jnsgd1na2vs0mg"},{"bike_id":"4e259911-67c1-4742-976c-ddc411ce90fd","system_id":"levelo_inurba_marseille","lat":43.24,"lon":5.37704,"is_reserved":false,"is_disabled":false,"rental_uris":{"android":"levelo://app?vid=4e259911-67c1-4742-976c-ddc411ce90fd","ios":"levelo://app?vid=4e259911-67c1-4742-976c-ddc411ce90fd"},"vehicle_type_id":"4","last_reported":1745482457,"current_range_meters":16800,"station_id":"","pricing_plan_id":"cebpf4jnsgd1na2vs0mg"},{"bike_id":"623fdf6b-5819-49e7-92a4-1d7d7f0b30c8","system_id":"levelo_inurba_marseille","lat":43.31078,"lon":5.38356,"is_reserved":false,"is_disabled":false,"rental_uris":{"android":"levelo://app?vid=623fdf6b-5819-49e7-92a4-1d7d7f0b30c8","ios":"levelo://app?vid=623fdf6b-5819-49e7-92a4-1d7d7f0b30c8"},"vehicle_type_id":"4","last_reported":1745482457,"current_range_meters":16800,"station_id":"ce4bgv92rcd13ifvqcr0","pricing_plan_id":"cebpf4jnsgd1na2vs0mg"},{"bike_id":"ce733e4d-13ea-4e7d-afeb-6d446ded721a","system_id":"levelo_inurba_marseille","lat":43.326589,"lon":5.410128,"is_reserved":false,"is_disabled":false,"rental_uris":{"android":"levelo://app?vid=ce733e4d-13ea-4e7d-afeb-6d446ded721a","ios":"levelo://app?vid=ce733e4d-13ea-4e7d-afeb-6d446ded721a"},"vehicle_type_id":"4","last_reported":1745482457,"current_range_meters":17200,"station_id":"","pricing_plan_id":"cebpf4jnsgd1na2vs0mg"},{"bike_id":"19b1e669-c0ec-46a9-8c21-4f491a13468c","system_id":"levelo_inurba_marseille","lat":43.29541,"lon":5.38552,"is_reserved":false,"is_disabled":true,"rental_uris":{"android":"levelo://app?vid=19b1e669-c0ec-46a9-8c21-4f491a13468c","ios":"levelo://app?vid=19b1e669-c0ec-46a9-8c21-4f491a13468c"},"vehicle_type_id":"4","last_reported":1745482457,"current_range_meters":17200,"station_id":"ce4bgih2rcd13ifvqba0","pricing_plan_id":"cebpf4jnsgd1na2vs0mg"},{"bike_id":"cd906bce-52be-45be-8f08-cdeb623de131","system_id":"levelo_inurba_marseille","lat":43.2819,"lon":5.40374,"is_reserved":false,"is_disabled":false,"rental_uris":{"android":"levelo://app?vid=cd906bce-52be-45be-8f08-cdeb623de131","ios":"levelo://app?vid=cd906bce-52be-45be-8f08-cdeb623de131"},"vehicle_type_id":"4","last_reported":1745482457,"current_range_meters":17200,"station_id":"","pricing_plan_id":"cebpf4jnsgd1na2vs0mg"},{"bike_id":"e394b925-6b4f-45e2-9bfa-bf08539f8f5a","system_id":"levelo_inurba_marseille","lat":43.30311,"lon":5.36902,"is_reserved":false,"is_disabled":false,"rental_uris":{"android":"levelo://app?vid=e394b925-6b4f-45e2-9bfa-bf08539f8f5a","ios":"levelo://app?vid=e394b925-6b4f-45e2-9bfa-bf08539f8f5a"},"vehicle_type_id":"4","last_reported":1745482457,"current_range_meters":16800,"station_id":"ce4bgqh2rcd13ifvqc5g","pricing_plan_id":"cebpf4jnsgd1na2vs0mg"},{"bike_id":"ab8406b2-4f8d-4381-8821-3db52b0a4d4d","system_id":"levelo_inurba_marseille","lat":43.27366,"lon":5.37864,"is_reserved":false,"is_disabled":false,"rental_uris":{"android":"levelo://app?vid=ab8406b2-4f8d-4381-8821-3db52b0a4d4d","ios":"levelo://app?vid=ab8406b2-4f8d-4381-8821-3db52b0a4d4d"},"vehicle_type_id":"4","last_reported":1745482457,"current_range_meters":17200,"station_id":"","pricing_plan_id":"cebpf4jnsgd1na2vs0mg"},{"bike_id":"1024ff54-85cc-441a-b1ac-e015c202ea8d","system_id":"levelo_inurba_marseille","lat":43.27421,"lon":5.39417,"is_reserved":false,"is_disabled":false,"rental_uris":{"android":"levelo://app?vid=1024ff54-85cc-441a-b1ac-e015c202ea8d","ios":"levelo://app?vid=1024ff54-85cc-441a-b1ac-e015c202ea8d"},"vehicle_type_id":"4","last_reported":1745482457,"current_range_meters":16800,"station_id":"ce4bhdp2rcd13ifvqf20","pricing_plan_id":"cebpf4jnsgd1na2vs0mg"},{"bike_id":"27fc9594-b16a-4e7d-8925-56d936c07a2f","system_id":"levelo_inurba_marseille","lat":43.29839,"lon":5.36263,"is_reserved":false,"is_disabled":false,"rental_uris":{"android":"levelo://app?vid=27fc9594-b16a-4e7d-8925-56d936c07a2f","ios":"levelo://app?vid=27fc9594-b16a-4e7d-8925-56d936c07a2f"},"vehicle_type_id":"4","last_reported":1745482457,"current_range_meters":17600,"station_id":"ce4bgpp2rcd13ifvqc3g","pricing_plan_id":"cebpf4jnsgd1na2vs0mg"},{"bike_id":"db21d451-543e-49c7-8465-c8b53e9510ed","system_id":"levelo_inurba_marseille","lat":43.27494,"lon":5.4245,"is_reserved":false,"is_disabled":false,"rental_uris":{"android":"levelo://app?vid=db21d451-543e-49c7-8465-c8b53e9510ed","ios":"levelo://app?vid=db21d451-543e-49c7-8465-c8b53e9510ed"},"vehicle_type_id":"4","last_reported":1745482457,"current_range_meters":17600,"station_id":"ce4bhn92rcd13ifvqgrg","pricing_plan_id":"cebpf4jnsgd1na2vs0mg"},{"bike_id":"4398b69c-219e-440f-8bb3-996675bdf641","system_id":"levelo_inurba_marseille","lat":43.255804,"lon":5.382275,"is_reserved":false,"is_disabled":false,"rental_uris":{"android":"levelo://app?vid=4398b69c-219e-440f-8bb3-996675bdf641","ios":"levelo://app?vid=4398b69c-219e-440f-8bb3-996675bdf641"},"vehicle_type_id":"4","last_reported":1745482457,"current_range_meters":17600,"station_id":"ce4bhih2rcd13ifvqfs0","pricing_plan_id":"cebpf4jnsgd1na2vs0mg"},{"bike_id":"587e0c3c-50df-43bf-b3b3-be5fb2df8161","system_id":"levelo_inurba_marseille","lat":43.24163,"lon":5.36402,"is_reserved":false,"is_disabled":false,"rental_uris":{"android":"levelo://app?vid=587e0c3c-50df-43bf-b3b3-be5fb2df8161","ios":"levelo://app?vid=587e0c3c-50df-43bf-b3b3-be5fb2df8161"},"vehicle_type_id":"4","last_reported":1745482457,"current_range_meters":17600,"station_id":"cpo36qri1sfpv3e86is0","pricing_plan_id":"cebpf4jnsgd1na2vs0mg"},{"bike_id":"eaf73369-bdd5-4351-8036-47f5e09d5e0f","system_id":"levelo_inurba_marseille","lat":43.29255,"lon":5.3761,"is_reserved":false,"is_disabled":false,"rental_uris":{"android":"levelo://app?vid=eaf73369-bdd5-4351-8036-47f5e09d5e0f","ios":"levelo://app?vid=eaf73369-bdd5-4351-8036-47f5e09d5e0f"},"vehicle_type_id":"4","last_reported":1745482457,"current_range_meters":17600,"station_id":"ce4bgi12rcd13ifvqb80","pricing_plan_id":"cebpf4jnsgd1na2vs0mg"},{"bike_id":"23f0a23d-00ef-4ff2-8172-13d3c8a488e0","system_id":"levelo_inurba_marseille","lat":43.29367,"lon":5.37836,"is_reserved":false,"is_disabled":false,"rental_uris":{"android":"levelo://app?vid=23f0a23d-00ef-4ff2-8172-13d3c8a488e0","ios":"levelo://app?vid=23f0a23d-00ef-4ff2-8172-13d3c8a488e0"},"vehicle_type_id":"4","last_reported":1745482457,"current_range_meters":17600,"station_id":"ce4bgjh2rcd13ifvqbf0","pricing_plan_id":"cebpf4jnsgd1na2vs0mg"},{"bike_id":"deceb4ad-2fe9-48ec-bee4-9dee2e78e073","system_id":"levelo_inurba_marseille","lat":43.25497,"lon":5.37646,"is_reserved":false,"is_disabled":false,"rental_uris":{"android":"levelo://app?vid=deceb4ad-2fe9-48ec-bee4-9dee2e78e073","ios":"levelo://app?vid=deceb4ad-2fe9-48ec-bee4-9dee2e78e073"},"vehicle_type_id":"4","last_reported":1745482457,"current_range_meters":17600,"station_id":"ce4bhh12rcd13ifvqff0","pricing_plan_id":"cebpf4jnsgd1na2vs0mg"},{"bike_id":"5bbcc998-da8c-429a-a2f0-08cf4eaac56f","system_id":"levelo_inurba_marseille","lat":43.30549,"lon":5.36707,"is_reserved":false,"is_disabled":false,"rental_uris":{"android":"levelo://app?vid=5bbcc998-da8c-429a-a2f0-08cf4eaac56f","ios":"levelo://app?vid=5bbcc998-da8c-429a-a2f0-08cf4eaac56f"},"vehicle_type_id":"4","last_reported":1745482457,"current_range_meters":17600,"station_id":"ce4bgrp2rcd13ifvqc9g","pricing_plan_id":"cebpf4jnsgd1na2vs0mg"},{"bike_id":"ff1e2f5b-071c-4283-a49b-9c9f51ff4981","system_id":"levelo_inurba_marseille","lat":43.30529,"lon":5.36552,"is_reserved":false,"is_disabled":false,"rental_uris":{"android":"levelo://app?vid=ff1e2f5b-071c-4283-a49b-9c9f51ff4981","ios":"levelo://app?vid=ff1e2f5b-071c-4283-a49b-9c9f51ff4981"},"vehicle_type_id":"4","last_reported":1745482457,"current_range_meters":17600,"station_id":"ce4bgs12rcd13ifvqcag","pricing_plan_id":"cebpf4jnsgd1na2vs0mg"},{"bike_id":"4ad44271-4ca7-4dac-b8d2-6bb546d4598b","system_id":"levelo_inurba_marseille","lat":43.30945,"lon":5.39029,"is_reserved":false,"is_disabled":false,"rental_uris":{"android":"levelo://app?vid=4ad44271-4ca7-4dac-b8d2-6bb546d4598b","ios":"levelo://app?vid=4ad44271-4ca7-4dac-b8d2-6bb546d4598b"},"vehicle_type_id":"4","last_reported":1745482457,"current_range_meters":18000,"station_id":"ce4bgup2rcd13ifvqco0","pricing_plan_id":"cebpf4jnsgd1na2vs0mg"},{"bike_id":"129ea9c4-35d8-4d8a-97f1-d90eefdd4cf8","system_id":"levelo_inurba_marseille","lat":43.292006,"lon":5.393197,"is_reserved":false,"is_disabled":true,"rental_uris":{"android":"levelo://app?vid=129ea9c4-35d8-4d8a-97f1-d90eefdd4cf8","ios":"levelo://app?vid=129ea9c4-35d8-4d8a-97f1-d90eefdd4cf8"},"vehicle_type_id":"4","last_reported":1745482457,"current_range_meters":18000,"station_id":"ce4bh192rcd13ifvqdd0","pricing_plan_id":"cebpf4jnsgd1na2vs0mg"},{"bike_id":"83ce8635-e014-4d4b-b4bb-5f7a1fac789e","system_id":"levelo_inurba_marseille","lat":43.26683,"lon":5.38263,"is_reserved":false,"is_disabled":false,"rental_uris":{"android":"levelo://app?vid=83ce8635-e014-4d4b-b4bb-5f7a1fac789e","ios":"levelo://app?vid=83ce8635-e014-4d4b-b4bb-5f7a1fac789e"},"vehicle_type_id":"4","last_reported":1745482457,"current_range_meters":18000,"station_id":"ce4bhg92rcd13ifvqf90","pricing_plan_id":"cebpf4jnsgd1na2vs0mg"},{"bike_id":"8425c1ca-8e4f-4dd7-87f3-4ba4f9a8e79d","system_id":"levelo_inurba_marseille","lat":43.30912,"lon":5.3685,"is_reserved":false,"is_disabled":false,"rental_uris":{"android":"levelo://app?vid=8425c1ca-8e4f-4dd7-87f3-4ba4f9a8e79d","ios":"levelo://app?vid=8425c1ca-8e4f-4dd7-87f3-4ba4f9a8e79d"},"vehicle_type_id":"4","last_reported":1745482457,"current_range_meters":18000,"station_id":"ce4bgn92rcd13ifvqbvg","pricing_plan_id":"cebpf4jnsgd1na2vs0mg"},{"bike_id":"af08a62a-2847-4555-ab16-42c4660ae434","system_id":"levelo_inurba_marseille","lat":43.27491,"lon":5.42456,"is_reserved":false,"is_disabled":false,"rental_uris":{"android":"levelo://app?vid=af08a62a-2847-4555-ab16-42c4660ae434","ios":"levelo://app?vid=af08a62a-2847-4555-ab16-42c4660ae434"},"vehicle_type_id":"4","last_reported":1745482457,"current_range_meters":18000,"station_id":"ce4bhn92rcd13ifvqgrg","pricing_plan_id":"cebpf4jnsgd1na2vs0mg"},{"bike_id":"2277578a-8179-437f-9ab4-c2745a9d961e","system_id":"levelo_inurba_marseille","lat":43.29359,"lon":5.37845,"is_reserved":false,"is_disabled":false,"rental_uris":{"android":"levelo://app?vid=2277578a-8179-437f-9ab4-c2745a9d961e","ios":"levelo://app?vid=2277578a-8179-437f-9ab4-c2745a9d961e"},"vehicle_type_id":"4","last_reported":1745482457,"current_range_meters":18000,"station_id":"ce4bgjh2rcd13ifvqbf0","pricing_plan_id":"cebpf4jnsgd1na2vs0mg"},{"bike_id":"00d0cafa-ca0b-43f8-a109-bfbd1ba2e537","system_id":"levelo_inurba_marseille","lat":43.24076,"lon":5.37767,"is_reserved":false,"is_disabled":false,"rental_uris":{"android":"levelo://app?vid=00d0cafa-ca0b-43f8-a109-bfbd1ba2e537","ios":"levelo://app?vid=00d0cafa-ca0b-43f8-a109-bfbd1ba2e537"},"vehicle_type_id":"4","last_reported":1745482457,"current_range_meters":18000,"station_id":"ce4bhnp2rcd13ifvqgvg","pricing_plan_id":"cebpf4jnsgd1na2vs0mg"},{"bike_id":"abf2df00-70d9-4a3b-b09a-35d6c9e9796f","system_id":"levelo_inurba_marseille","lat":43.29551,"lon":5.42291,"is_reserved":false,"is_disabled":false,"rental_uris":{"android":"levelo://app?vid=abf2df00-70d9-4a3b-b09a-35d6c9e9796f","ios":"levelo://app?vid=abf2df00-70d9-4a3b-b09a-35d6c9e9796f"},"vehicle_type_id":"4","last_reported":1745482457,"current_range_meters":18000,"station_id":"ce4bhph2rcd13ifvqhdg","pricing_plan_id":"cebpf4jnsgd1na2vs0mg"},{"bike_id":"c7722c79-ca86-4168-9466-9b15330439e3","system_id":"levelo_inurba_marseille","lat":43.316973,"lon":5.404644,"is_reserved":false,"is_disabled":false,"rental_uris":{"android":"levelo://app?vid=c7722c79-ca86-4168-9466-9b15330439e3","ios":"levelo://app?vid=c7722c79-ca86-4168-9466-9b15330439e3"},"vehicle_type_id":"4","last_reported":1745482457,"current_range_meters":18000,"station_id":"ce4bh012rcd13ifvqd00","pricing_plan_id":"cebpf4jnsgd1na2vs0mg"},{"bike_id":"59e18d79-329d-46bc-bfb3-89782d88049a","system_id":"levelo_inurba_marseille","lat":43.29529,"lon":5.390511,"is_reserved":false,"is_disabled":false,"rental_uris":{"android":"levelo://app?vid=59e18d79-329d-46bc-bfb3-89782d88049a","ios":"levelo://app?vid=59e18d79-329d-46bc-bfb3-89782d88049a"},"vehicle_type_id":"4","last_reported":1745482457,"current_range_meters":18000,"station_id":"ce4bh3p2rcd13ifvqdp0","pricing_plan_id":"cebpf4jnsgd1na2vs0mg"},{"bike_id":"d1a907c6-d1f1-42b6-8b1c-d215f66294af","system_id":"levelo_inurba_marseille","lat":43.28263,"lon":5.35062,"is_reserved":false,"is_disabled":false,"rental_uris":{"android":"levelo://app?vid=d1a907c6-d1f1-42b6-8b1c-d215f66294af","ios":"levelo://app?vid=d1a907c6-d1f1-42b6-8b1c-d215f66294af"},"vehicle_type_id":"4","last_reported":1745482457,"current_range_meters":18000,"station_id":"ce4bhbp2rcd13ifvqerg","pricing_plan_id":"cebpf4jnsgd1na2vs0mg"},{"bike_id":"f106f414-13c3-4e0d-b872-f4010c13d223","system_id":"levelo_inurba_marseille","lat":43.30911,"lon":5.36858,"is_reserved":false,"is_disabled":false,"rental_uris":{"android":"levelo://app?vid=f106f414-13c3-4e0d-b872-f4010c13d223","ios":"levelo://app?vid=f106f414-13c3-4e0d-b872-f4010c13d223"},"vehicle_type_id":"4","last_reported":1745482457,"current_range_meters":18800,"station_id":"ce4bgn92rcd13ifvqbvg","pricing_plan_id":"cebpf4jnsgd1na2vs0mg"},{"bike_id":"73f40cff-bb71-4b7a-8ad7-f06c69fb0596","system_id":"levelo_inurba_marseille","lat":43.21206,"lon":5.35088,"is_reserved":false,"is_disabled":false,"rental_uris":{"android":"levelo://app?vid=73f40cff-bb71-4b7a-8ad7-f06c69fb0596","ios":"levelo://app?vid=73f40cff-bb71-4b7a-8ad7-f06c69fb0596"},"vehicle_type_id":"4","last_reported":1745482457,"current_range_meters":18800,"station_id":"st_cvj6sg6p6f1abm77japg","pricing_plan_id":"cebpf4jnsgd1na2vs0mg"},{"bike_id":"8b92e386-23fb-48d6-a3c0-fb15d8ebb4bb","system_id":"levelo_inurba_marseille","lat":43.33602,"lon":5.4102,"is_reserved":false,"is_disabled":false,"rental_uris":{"android":"levelo://app?vid=8b92e386-23fb-48d6-a3c0-fb15d8ebb4bb","ios":"levelo://app?vid=8b92e386-23fb-48d6-a3c0-fb15d8ebb4bb"},"vehicle_type_id":"4","last_reported":1745482457,"current_range_meters":18800,"station_id":"ce4bhqh2rcd13ifvqhmg","pricing_plan_id":"cebpf4jnsgd1na2vs0mg"},{"bike_id":"e2dcabcf-64d8-4394-bb9a-ff877bee611a","system_id":"levelo_inurba_marseille","lat":43.32055,"lon":5.41526,"is_reserved":false,"is_disabled":false,"rental_uris":{"android":"levelo://app?vid=e2dcabcf-64d8-4394-bb9a-ff877bee611a","ios":"levelo://app?vid=e2dcabcf-64d8-4394-bb9a-ff877bee611a"},"vehicle_type_id":"4","last_reported":1745482457,"current_range_meters":18800,"station_id":"ce4bhq92rcd13ifvqhkg","pricing_plan_id":"cebpf4jnsgd1na2vs0mg"},{"bike_id":"30da752e-5450-4da3-965e-773778ce5d7d","system_id":"levelo_inurba_marseille","lat":43.24154,"lon":5.36433,"is_reserved":false,"is_disabled":false,"rental_uris":{"android":"levelo://app?vid=30da752e-5450-4da3-965e-773778ce5d7d","ios":"levelo://app?vid=30da752e-5450-4da3-965e-773778ce5d7d"},"vehicle_type_id":"4","last_reported":1745482457,"current_range_meters":18800,"station_id":"cpo36qri1sfpv3e86is0","pricing_plan_id":"cebpf4jnsgd1na2vs0mg"},{"bike_id":"330eb279-75da-4f4c-9199-b9b24018a6aa","system_id":"levelo_inurba_marseille","lat":43.29281,"lon":5.40112,"is_reserved":false,"is_disabled":false,"rental_uris":{"android":"levelo://app?vid=330eb279-75da-4f4c-9199-b9b24018a6aa","ios":"levelo://app?vid=330eb279-75da-4f4c-9199-b9b24018a6aa"},"vehicle_type_id":"4","last_reported":1745482457,"current_range_meters":18000,"station_id":"ce4bh312rcd13ifvqdk0","pricing_plan_id":"cebpf4jnsgd1na2vs0mg"},{"bike_id":"4a09af70-3849-40f1-80ef-1cb63a5b4ba1","system_id":"levelo_inurba_marseille","lat":43.30476,"lon":5.37916,"is_reserved":false,"is_disabled":false,"rental_uris":{"android":"levelo://app?vid=4a09af70-3849-40f1-80ef-1cb63a5b4ba1","ios":"levelo://app?vid=4a09af70-3849-40f1-80ef-1cb63a5b4ba1"},"vehicle_type_id":"4","last_reported":1745482457,"current_range_meters":19200,"station_id":"ce4bgup2rcd13ifvqcn0","pricing_plan_id":"cebpf4jnsgd1na2vs0mg"},{"bike_id":"7890dd38-0a3d-48d0-8fe2-84d168926778","system_id":"levelo_inurba_marseille","lat":43.29785,"lon":5.37096,"is_reserved":false,"is_disabled":false,"rental_uris":{"android":"levelo://app?vid=7890dd38-0a3d-48d0-8fe2-84d168926778","ios":"levelo://app?vid=7890dd38-0a3d-48d0-8fe2-84d168926778"},"vehicle_type_id":"4","last_reported":1745482457,"current_range_meters":18000,"station_id":"ce4bgop2rcd13ifvqc1g","pricing_plan_id":"cebpf4jnsgd1na2vs0mg"},{"bike_id":"55c60548-a6dc-40bb-a829-32622b5f419e","system_id":"levelo_inurba_marseille","lat":43.25934,"lon":5.40906,"is_reserved":false,"is_disabled":false,"rental_uris":{"android":"levelo://app?vid=55c60548-a6dc-40bb-a829-32622b5f419e","ios":"levelo://app?vid=55c60548-a6dc-40bb-a829-32622b5f419e"},"vehicle_type_id":"4","last_reported":1745482457,"current_range_meters":18800,"station_id":"ce4bhm92rcd13ifvqglg","pricing_plan_id":"cebpf4jnsgd1na2vs0mg"},{"bike_id":"7890fb7f-f360-4087-b0d4-35355176c1de","system_id":"levelo_inurba_marseille","lat":43.26031,"lon":5.37554,"is_reserved":false,"is_disabled":false,"rental_uris":{"android":"levelo://app?vid=7890fb7f-f360-4087-b0d4-35355176c1de","ios":"levelo://app?vid=7890fb7f-f360-4087-b0d4-35355176c1de"},"vehicle_type_id":"4","last_reported":1745482457,"current_range_meters":18800,"station_id":"ce4bhgh2rcd13ifvqfa0","pricing_plan_id":"cebpf4jnsgd1na2vs0mg"},{"bike_id":"e3f247f8-3cae-4180-9fd6-a850ddd6fdd2","system_id":"levelo_inurba_marseille","lat":43.29701,"lon":5.36618,"is_reserved":false,"is_disabled":false,"rental_uris":{"android":"levelo://app?vid=e3f247f8-3cae-4180-9fd6-a850ddd6fdd2","ios":"levelo://app?vid=e3f247f8-3cae-4180-9fd6-a850ddd6fdd2"},"vehicle_type_id":"4","last_reported":1745482457,"current_range_meters":19200,"station_id":"","pricing_plan_id":"cebpf4jnsgd1na2vs0mg"},{"bike_id":"0b168f25-63cc-4460-bac8-b455566d5c02","system_id":"levelo_inurba_marseille","lat":43.30277,"lon":5.37688,"is_reserved":false,"is_disabled":false,"rental_uris":{"android":"levelo://app?vid=0b168f25-63cc-4460-bac8-b455566d5c02","ios":"levelo://app?vid=0b168f25-63cc-4460-bac8-b455566d5c02"},"vehicle_type_id":"4","last_reported":1745482457,"current_range_meters":19200,"station_id":"ce4bguh2rcd13ifvqcj0","pricing_plan_id":"cebpf4jnsgd1na2vs0mg"},{"bike_id":"4b0ada37-3caa-4bc6-ba95-da3d07fb1c36","system_id":"levelo_inurba_marseille","lat":43.25936,"lon":5.409,"is_reserved":false,"is_disabled":false,"rental_uris":{"android":"levelo://app?vid=4b0ada37-3caa-4bc6-ba95-da3d07fb1c36","ios":"levelo://app?vid=4b0ada37-3caa-4bc6-ba95-da3d07fb1c36"},"vehicle_type_id":"4","last_reported":1745482457,"current_range_meters":19200,"station_id":"ce4bhm92rcd13ifvqglg","pricing_plan_id":"cebpf4jnsgd1na2vs0mg"},{"bike_id":"ec7fa78c-6f73-48a4-83ab-51654603fc2e","system_id":"levelo_inurba_marseille","lat":43.28405,"lon":5.37508,"is_reserved":false,"is_disabled":false,"rental_uris":{"android":"levelo://app?vid=ec7fa78c-6f73-48a4-83ab-51654603fc2e","ios":"levelo://app?vid=ec7fa78c-6f73-48a4-83ab-51654603fc2e"},"vehicle_type_id":"4","last_reported":1745482457,"current_range_meters":19200,"station_id":"ce4bh412rcd13ifvqds0","pricing_plan_id":"cebpf4jnsgd1na2vs0mg"},{"bike_id":"a823ec9d-7d2e-4894-8bcc-79b308d25452","system_id":"levelo_inurba_marseille","lat":43.33721,"lon":5.39179,"is_reserved":false,"is_disabled":false,"rental_uris":{"android":"levelo://app?vid=a823ec9d-7d2e-4894-8bcc-79b308d25452","ios":"levelo://app?vid=a823ec9d-7d2e-4894-8bcc-79b308d25452"},"vehicle_type_id":"4","last_reported":1745482457,"current_range_meters":19200,"station_id":"ce4bhr92rcd13ifvqhsg","pricing_plan_id":"cebpf4jnsgd1na2vs0mg"},{"bike_id":"9d62c9dd-8739-44b0-98a4-6fbfa8f33370","system_id":"levelo_inurba_marseille","lat":43.25924,"lon":5.40879,"is_reserved":false,"is_disabled":false,"rental_uris":{"android":"levelo://app?vid=9d62c9dd-8739-44b0-98a4-6fbfa8f33370","ios":"levelo://app?vid=9d62c9dd-8739-44b0-98a4-6fbfa8f33370"},"vehicle_type_id":"4","last_reported":1745482457,"current_range_meters":19200,"station_id":"ce4bhm92rcd13ifvqglg","pricing_plan_id":"cebpf4jnsgd1na2vs0mg"},{"bike_id":"43736a91-6f03-49c9-8b98-83cd3097a6d4","system_id":"levelo_inurba_marseille","lat":43.28613,"lon":5.35103,"is_reserved":false,"is_disabled":false,"rental_uris":{"android":"levelo://app?vid=43736a91-6f03-49c9-8b98-83cd3097a6d4","ios":"levelo://app?vid=43736a91-6f03-49c9-8b98-83cd3097a6d4"},"vehicle_type_id":"4","last_reported":1745482457,"current_range_meters":19200,"station_id":"ce4bhch2rcd13ifvqeug","pricing_plan_id":"cebpf4jnsgd1na2vs0mg"},{"bike_id":"511b03e0-2c42-42b4-bb64-0faed2aa4637","system_id":"levelo_inurba_marseille","lat":43.230548,"lon":5.354899,"is_reserved":false,"is_disabled":false,"rental_uris":{"android":"levelo://app?vid=511b03e0-2c42-42b4-bb64-0faed2aa4637","ios":"levelo://app?vid=511b03e0-2c42-42b4-bb64-0faed2aa4637"},"vehicle_type_id":"4","last_reported":1745482457,"current_range_meters":19200,"station_id":"cpo3342slgdg3j2ifvpg","pricing_plan_id":"cebpf4jnsgd1na2vs0mg"},{"bike_id":"1fad0618-6d26-4697-9bee-ec5e0a80c437","system_id":"levelo_inurba_marseille","lat":43.31328,"lon":5.36714,"is_reserved":false,"is_disabled":false,"rental_uris":{"android":"levelo://app?vid=1fad0618-6d26-4697-9bee-ec5e0a80c437","ios":"levelo://app?vid=1fad0618-6d26-4697-9bee-ec5e0a80c437"},"vehicle_type_id":"4","last_reported":1745482457,"current_range_meters":19200,"station_id":"ce4bgr92rcd13ifvqc6g","pricing_plan_id":"cebpf4jnsgd1na2vs0mg"},{"bike_id":"81f01c61-4451-4066-acf3-6e6a33e9ab33","system_id":"levelo_inurba_marseille","lat":43.30887,"lon":5.36867,"is_reserved":false,"is_disabled":false,"rental_uris":{"android":"levelo://app?vid=81f01c61-4451-4066-acf3-6e6a33e9ab33","ios":"levelo://app?vid=81f01c61-4451-4066-acf3-6e6a33e9ab33"},"vehicle_type_id":"4","last_reported":1745482457,"current_range_meters":19600,"station_id":"ce4bgn92rcd13ifvqbvg","pricing_plan_id":"cebpf4jnsgd1na2vs0mg"},{"bike_id":"44cf9391-c182-4e13-8c30-bc69cef8f9e2","system_id":"levelo_inurba_marseille","lat":43.28719,"lon":5.37933,"is_reserved":false,"is_disabled":false,"rental_uris":{"android":"levelo://app?vid=44cf9391-c182-4e13-8c30-bc69cef8f9e2","ios":"levelo://app?vid=44cf9391-c182-4e13-8c30-bc69cef8f9e2"},"vehicle_type_id":"4","last_reported":1745482457,"current_range_meters":19200,"station_id":"ce4bh9p2rcd13ifvqec0","pricing_plan_id":"cebpf4jnsgd1na2vs0mg"},{"bike_id":"310830f6-602d-4be9-acd6-28c75b262761","system_id":"levelo_inurba_marseille","lat":43.28263,"lon":5.35057,"is_reserved":false,"is_disabled":false,"rental_uris":{"android":"levelo://app?vid=310830f6-602d-4be9-acd6-28c75b262761","ios":"levelo://app?vid=310830f6-602d-4be9-acd6-28c75b262761"},"vehicle_type_id":"4","last_reported":1745482457,"current_range_meters":19600,"station_id":"ce4bhbp2rcd13ifvqerg","pricing_plan_id":"cebpf4jnsgd1na2vs0mg"},{"bike_id":"61b533f5-0616-463d-989b-3631c4a4941a","system_id":"levelo_inurba_marseille","lat":43.30374,"lon":5.42483,"is_reserved":false,"is_disabled":false,"rental_uris":{"android":"levelo://app?vid=61b533f5-0616-463d-989b-3631c4a4941a","ios":"levelo://app?vid=61b533f5-0616-463d-989b-3631c4a4941a"},"vehicle_type_id":"4","last_reported":1745482457,"current_range_meters":20000,"station_id":"ce4bhoh2rcd13ifvqh6g","pricing_plan_id":"cebpf4jnsgd1na2vs0mg"},{"bike_id":"dd8eb4f5-4d43-4c95-9740-ad79c3dfc63a","system_id":"levelo_inurba_marseille","lat":43.26935,"lon":5.38918,"is_reserved":false,"is_disabled":false,"rental_uris":{"android":"levelo://app?vid=dd8eb4f5-4d43-4c95-9740-ad79c3dfc63a","ios":"levelo://app?vid=dd8eb4f5-4d43-4c95-9740-ad79c3dfc63a"},"vehicle_type_id":"4","last_reported":1745482457,"current_range_meters":19200,"station_id":"ce4bhhh2rcd13ifvqfl0","pricing_plan_id":"cebpf4jnsgd1na2vs0mg"},{"bike_id":"c2f7a788-c936-453c-a344-dae81f52ba6c","system_id":"levelo_inurba_marseille","lat":43.30541,"lon":5.366962,"is_reserved":false,"is_disabled":false,"rental_uris":{"android":"levelo://app?vid=c2f7a788-c936-453c-a344-dae81f52ba6c","ios":"levelo://app?vid=c2f7a788-c936-453c-a344-dae81f52ba6c"},"vehicle_type_id":"4","last_reported":1745482457,"current_range_meters":20000,"station_id":"ce4bgrp2rcd13ifvqc9g","pricing_plan_id":"cebpf4jnsgd1na2vs0mg"},{"bike_id":"15849669-eb0e-4ddf-9c01-b3b64a9ffcbe","system_id":"levelo_inurba_marseille","lat":43.25944,"lon":5.40888,"is_reserved":false,"is_disabled":false,"rental_uris":{"android":"levelo://app?vid=15849669-eb0e-4ddf-9c01-b3b64a9ffcbe","ios":"levelo://app?vid=15849669-eb0e-4ddf-9c01-b3b64a9ffcbe"},"vehicle_type_id":"4","last_reported":1745482457,"current_range_meters":20000,"station_id":"ce4bhm92rcd13ifvqglg","pricing_plan_id":"cebpf4jnsgd1na2vs0mg"},{"bike_id":"ea5dd29e-f7f0-401a-adda-e0cb0dfe66df","system_id":"levelo_inurba_marseille","lat":43.3361,"lon":5.40978,"is_reserved":false,"is_disabled":false,"rental_uris":{"android":"levelo://app?vid=ea5dd29e-f7f0-401a-adda-e0cb0dfe66df","ios":"levelo://app?vid=ea5dd29e-f7f0-401a-adda-e0cb0dfe66df"},"vehicle_type_id":"4","last_reported":1745482457,"current_range_meters":20000,"station_id":"ce4bhqh2rcd13ifvqhmg","pricing_plan_id":"cebpf4jnsgd1na2vs0mg"},{"bike_id":"016d1c33-236f-4281-bd30-10c7bc88d5ce","system_id":"levelo_inurba_marseille","lat":43.240826,"lon":5.377685,"is_reserved":false,"is_disabled":false,"rental_uris":{"android":"levelo://app?vid=016d1c33-236f-4281-bd30-10c7bc88d5ce","ios":"levelo://app?vid=016d1c33-236f-4281-bd30-10c7bc88d5ce"},"vehicle_type_id":"4","last_reported":1745482457,"current_range_meters":20000,"station_id":"ce4bhnp2rcd13ifvqgvg","pricing_plan_id":"cebpf4jnsgd1na2vs0mg"},{"bike_id":"58727b13-3ca0-4842-baa1-1faeff5caa77","system_id":"levelo_inurba_marseille","lat":43.2316,"lon":5.43728,"is_reserved":false,"is_disabled":true,"rental_uris":{"android":"levelo://app?vid=58727b13-3ca0-4842-baa1-1faeff5caa77","ios":"levelo://app?vid=58727b13-3ca0-4842-baa1-1faeff5caa77"},"vehicle_type_id":"4","last_reported":1745482457,"current_range_meters":20000,"station_id":"ce4bhmp2rcd13ifvqgog","pricing_plan_id":"cebpf4jnsgd1na2vs0mg"},{"bike_id":"182e60f2-4393-4c8e-a6eb-08f563a7c1f1","system_id":"levelo_inurba_marseille","lat":43.3308,"lon":5.39134,"is_reserved":false,"is_disabled":true,"rental_uris":{"android":"levelo://app?vid=182e60f2-4393-4c8e-a6eb-08f563a7c1f1","ios":"levelo://app?vid=182e60f2-4393-4c8e-a6eb-08f563a7c1f1"},"vehicle_type_id":"4","last_reported":1745482457,"current_range_meters":20000,"station_id":"","pricing_plan_id":"cebpf4jnsgd1na2vs0mg"},{"bike_id":"0bfff189-ec6a-4439-b345-e9dd168ab867","system_id":"levelo_inurba_marseille","lat":43.33731,"lon":5.39178,"is_reserved":false,"is_disabled":false,"rental_uris":{"android":"levelo://app?vid=0bfff189-ec6a-4439-b345-e9dd168ab867","ios":"levelo://app?vid=0bfff189-ec6a-4439-b345-e9dd168ab867"},"vehicle_type_id":"4","last_reported":1745482457,"current_range_meters":20000,"station_id":"ce4bhr92rcd13ifvqhsg","pricing_plan_id":"cebpf4jnsgd1na2vs0mg"},{"bike_id":"47932da0-cb56-4d1c-bbf4-73014e8bd7a7","system_id":"levelo_inurba_marseille","lat":43.24078,"lon":5.37756,"is_reserved":false,"is_disabled":false,"rental_uris":{"android":"levelo://app?vid=47932da0-cb56-4d1c-bbf4-73014e8bd7a7","ios":"levelo://app?vid=47932da0-cb56-4d1c-bbf4-73014e8bd7a7"},"vehicle_type_id":"4","last_reported":1745482457,"current_range_meters":20400,"station_id":"ce4bhnp2rcd13ifvqgvg","pricing_plan_id":"cebpf4jnsgd1na2vs0mg"},{"bike_id":"0511eaef-e620-4443-8c39-8b9425063ec4","system_id":"levelo_inurba_marseille","lat":43.29106,"lon":5.3816,"is_reserved":false,"is_disabled":true,"rental_uris":{"android":"levelo://app?vid=0511eaef-e620-4443-8c39-8b9425063ec4","ios":"levelo://app?vid=0511eaef-e620-4443-8c39-8b9425063ec4"},"vehicle_type_id":"4","last_reported":1745482457,"current_range_meters":20400,"station_id":"ce4bh512rcd13ifvqe2g","pricing_plan_id":"cebpf4jnsgd1na2vs0mg"},{"bike_id":"73b05d89-8586-4d94-8ac2-7f53dfee0c5a","system_id":"levelo_inurba_marseille","lat":43.25834,"lon":5.40847,"is_reserved":false,"is_disabled":false,"rental_uris":{"android":"levelo://app?vid=73b05d89-8586-4d94-8ac2-7f53dfee0c5a","ios":"levelo://app?vid=73b05d89-8586-4d94-8ac2-7f53dfee0c5a"},"vehicle_type_id":"4","last_reported":1745482457,"current_range_meters":20400,"station_id":"","pricing_plan_id":"cebpf4jnsgd1na2vs0mg"},{"bike_id":"aab5ce35-7a13-4ab1-b85f-8208f82549f8","system_id":"levelo_inurba_marseille","lat":43.24156,"lon":5.36395,"is_reserved":false,"is_disabled":false,"rental_uris":{"android":"levelo://app?vid=aab5ce35-7a13-4ab1-b85f-8208f82549f8","ios":"levelo://app?vid=aab5ce35-7a13-4ab1-b85f-8208f82549f8"},"vehicle_type_id":"4","last_reported":1745482457,"current_range_meters":20800,"station_id":"cpo36qri1sfpv3e86is0","pricing_plan_id":"cebpf4jnsgd1na2vs0mg"},{"bike_id":"87d02d3e-1d42-4c2e-83e3-9322d951b909","system_id":"levelo_inurba_marseille","lat":43.2985,"lon":5.36285,"is_reserved":false,"is_disabled":false,"rental_uris":{"android":"levelo://app?vid=87d02d3e-1d42-4c2e-83e3-9322d951b909","ios":"levelo://app?vid=87d02d3e-1d42-4c2e-83e3-9322d951b909"},"vehicle_type_id":"4","last_reported":1745482457,"current_range_meters":20800,"station_id":"ce4bgpp2rcd13ifvqc3g","pricing_plan_id":"cebpf4jnsgd1na2vs0mg"},{"bike_id":"9a1c0be7-bd1a-4081-ab84-3ef05258b407","system_id":"levelo_inurba_marseille","lat":43.23198,"lon":5.35559,"is_reserved":false,"is_disabled":false,"rental_uris":{"android":"levelo://app?vid=9a1c0be7-bd1a-4081-ab84-3ef05258b407","ios":"levelo://app?vid=9a1c0be7-bd1a-4081-ab84-3ef05258b407"},"vehicle_type_id":"4","last_reported":1745482457,"current_range_meters":20800,"station_id":"ce4bhu92rcd13ifvqi70","pricing_plan_id":"cebpf4jnsgd1na2vs0mg"},{"bike_id":"ff70c1f4-4552-4170-a854-bc987c421b37","system_id":"levelo_inurba_marseille","lat":43.26796,"lon":5.39422,"is_reserved":false,"is_disabled":false,"rental_uris":{"android":"levelo://app?vid=ff70c1f4-4552-4170-a854-bc987c421b37","ios":"levelo://app?vid=ff70c1f4-4552-4170-a854-bc987c421b37"},"vehicle_type_id":"4","last_reported":1745482457,"current_range_meters":20800,"station_id":"ce4bhh12rcd13ifvqfg0","pricing_plan_id":"cebpf4jnsgd1na2vs0mg"},{"bike_id":"2783c5f4-0342-4651-8546-1072725da640","system_id":"levelo_inurba_marseille","lat":43.31371,"lon":5.38479,"is_reserved":false,"is_disabled":false,"rental_uris":{"android":"levelo://app?vid=2783c5f4-0342-4651-8546-1072725da640","ios":"levelo://app?vid=2783c5f4-0342-4651-8546-1072725da640"},"vehicle_type_id":"4","last_reported":1745482457,"current_range_meters":20800,"station_id":"ce4bgt92rcd13ifvqcf0","pricing_plan_id":"cebpf4jnsgd1na2vs0mg"},{"bike_id":"28c655a4-6907-4d6b-b598-69019c264ec2","system_id":"levelo_inurba_marseille","lat":43.337444,"lon":5.374475,"is_reserved":false,"is_disabled":false,"rental_uris":{"android":"levelo://app?vid=28c655a4-6907-4d6b-b598-69019c264ec2","ios":"levelo://app?vid=28c655a4-6907-4d6b-b598-69019c264ec2"},"vehicle_type_id":"4","last_reported":1745482457,"current_range_meters":21600,"station_id":"","pricing_plan_id":"cebpf4jnsgd1na2vs0mg"},{"bike_id":"06a6ec8d-f1b4-4120-8203-729d3c0a21f3","system_id":"levelo_inurba_marseille","lat":43.24081,"lon":5.37748,"is_reserved":false,"is_disabled":false,"rental_uris":{"android":"levelo://app?vid=06a6ec8d-f1b4-4120-8203-729d3c0a21f3","ios":"levelo://app?vid=06a6ec8d-f1b4-4120-8203-729d3c0a21f3"},"vehicle_type_id":"4","last_reported":1745482457,"current_range_meters":21600,"station_id":"ce4bhnp2rcd13ifvqgvg","pricing_plan_id":"cebpf4jnsgd1na2vs0mg"},{"bike_id":"855225ef-58c7-49c7-9bc8-6637489d7c45","system_id":"levelo_inurba_marseille","lat":43.28614,"lon":5.35102,"is_reserved":false,"is_disabled":false,"rental_uris":{"android":"levelo://app?vid=855225ef-58c7-49c7-9bc8-6637489d7c45","ios":"levelo://app?vid=855225ef-58c7-49c7-9bc8-6637489d7c45"},"vehicle_type_id":"4","last_reported":1745482457,"current_range_meters":21600,"station_id":"ce4bhch2rcd13ifvqeug","pricing_plan_id":"cebpf4jnsgd1na2vs0mg"},{"bike_id":"96fcada9-a9e4-43b6-8285-c0f4cb34f2e8","system_id":"levelo_inurba_marseille","lat":43.28275,"lon":5.35062,"is_reserved":false,"is_disabled":false,"rental_uris":{"android":"levelo://app?vid=96fcada9-a9e4-43b6-8285-c0f4cb34f2e8","ios":"levelo://app?vid=96fcada9-a9e4-43b6-8285-c0f4cb34f2e8"},"vehicle_type_id":"4","last_reported":1745482457,"current_range_meters":21600,"station_id":"ce4bhbp2rcd13ifvqerg","pricing_plan_id":"cebpf4jnsgd1na2vs0mg"},{"bike_id":"8b8c0d43-0f6c-4e98-bb72-06c0058c9ad3","system_id":"levelo_inurba_marseille","lat":43.29396,"lon":5.37855,"is_reserved":false,"is_disabled":false,"rental_uris":{"android":"levelo://app?vid=8b8c0d43-0f6c-4e98-bb72-06c0058c9ad3","ios":"levelo://app?vid=8b8c0d43-0f6c-4e98-bb72-06c0058c9ad3"},"vehicle_type_id":"4","last_reported":1745482457,"current_range_meters":20800,"station_id":"ce4bgjh2rcd13ifvqbf0","pricing_plan_id":"cebpf4jnsgd1na2vs0mg"},{"bike_id":"b888e97c-3571-4330-9f5e-9ce7bab1bd64","system_id":"levelo_inurba_marseille","lat":43.3015,"lon":5.37408,"is_reserved":false,"is_disabled":false,"rental_uris":{"android":"levelo://app?vid=b888e97c-3571-4330-9f5e-9ce7bab1bd64","ios":"levelo://app?vid=b888e97c-3571-4330-9f5e-9ce7bab1bd64"},"vehicle_type_id":"4","last_reported":1745482457,"current_range_meters":21600,"station_id":"ce4bgs92rcd13ifvqcc0","pricing_plan_id":"cebpf4jnsgd1na2vs0mg"},{"bike_id":"a1806440-64e9-41c7-92f8-e851aa7c98fd","system_id":"levelo_inurba_marseille","lat":43.2406,"lon":5.37724,"is_reserved":false,"is_disabled":false,"rental_uris":{"android":"levelo://app?vid=a1806440-64e9-41c7-92f8-e851aa7c98fd","ios":"levelo://app?vid=a1806440-64e9-41c7-92f8-e851aa7c98fd"},"vehicle_type_id":"4","last_reported":1745482457,"current_range_meters":21600,"station_id":"ce4bhnp2rcd13ifvqgvg","pricing_plan_id":"cebpf4jnsgd1na2vs0mg"},{"bike_id":"0bb072fb-8a4a-47de-8073-afb29f646c6d","system_id":"levelo_inurba_marseille","lat":43.24076,"lon":5.37762,"is_reserved":false,"is_disabled":false,"rental_uris":{"android":"levelo://app?vid=0bb072fb-8a4a-47de-8073-afb29f646c6d","ios":"levelo://app?vid=0bb072fb-8a4a-47de-8073-afb29f646c6d"},"vehicle_type_id":"4","last_reported":1745482457,"current_range_meters":21600,"station_id":"ce4bhnp2rcd13ifvqgvg","pricing_plan_id":"cebpf4jnsgd1na2vs0mg"},{"bike_id":"de176d11-fc50-43f3-85f2-db96c4b6be15","system_id":"levelo_inurba_marseille","lat":43.21193,"lon":5.35076,"is_reserved":false,"is_disabled":false,"rental_uris":{"android":"levelo://app?vid=de176d11-fc50-43f3-85f2-db96c4b6be15","ios":"levelo://app?vid=de176d11-fc50-43f3-85f2-db96c4b6be15"},"vehicle_type_id":"4","last_reported":1745482457,"current_range_meters":21600,"station_id":"st_cvj6sg6p6f1abm77japg","pricing_plan_id":"cebpf4jnsgd1na2vs0mg"},{"bike_id":"23af337b-dd73-4f86-9f81-ca98be6bef03","system_id":"levelo_inurba_marseille","lat":43.31211,"lon":5.36876,"is_reserved":false,"is_disabled":false,"rental_uris":{"android":"levelo://app?vid=23af337b-dd73-4f86-9f81-ca98be6bef03","ios":"levelo://app?vid=23af337b-dd73-4f86-9f81-ca98be6bef03"},"vehicle_type_id":"4","last_reported":1745482457,"current_range_meters":22000,"station_id":"ce4bgl92rcd13ifvqbq0","pricing_plan_id":"cebpf4jnsgd1na2vs0mg"},{"bike_id":"6602a29a-e7a4-40bf-9728-5037b7b40026","system_id":"levelo_inurba_marseille","lat":43.29005,"lon":5.35605,"is_reserved":false,"is_disabled":false,"rental_uris":{"android":"levelo://app?vid=6602a29a-e7a4-40bf-9728-5037b7b40026","ios":"levelo://app?vid=6602a29a-e7a4-40bf-9728-5037b7b40026"},"vehicle_type_id":"4","last_reported":1745482457,"current_range_meters":22000,"station_id":"ce4bhb92rcd13ifvqen0","pricing_plan_id":"cebpf4jnsgd1na2vs0mg"},{"bike_id":"f5222fbb-aed5-4ae0-a798-77557f4cc313","system_id":"levelo_inurba_marseille","lat":43.29847,"lon":5.36274,"is_reserved":false,"is_disabled":false,"rental_uris":{"android":"levelo://app?vid=f5222fbb-aed5-4ae0-a798-77557f4cc313","ios":"levelo://app?vid=f5222fbb-aed5-4ae0-a798-77557f4cc313"},"vehicle_type_id":"4","last_reported":1745482457,"current_range_meters":22000,"station_id":"ce4bgpp2rcd13ifvqc3g","pricing_plan_id":"cebpf4jnsgd1na2vs0mg"},{"bike_id":"066af90f-287e-48c8-b8cb-6eec10e0abbb","system_id":"levelo_inurba_marseille","lat":43.30538,"lon":5.36529,"is_reserved":false,"is_disabled":false,"rental_uris":{"android":"levelo://app?vid=066af90f-287e-48c8-b8cb-6eec10e0abbb","ios":"levelo://app?vid=066af90f-287e-48c8-b8cb-6eec10e0abbb"},"vehicle_type_id":"4","last_reported":1745482457,"current_range_meters":22000,"station_id":"ce4bgs12rcd13ifvqcag","pricing_plan_id":"cebpf4jnsgd1na2vs0mg"},{"bike_id":"51917c34-4765-4051-a9bd-db37a38b484b","system_id":"levelo_inurba_marseille","lat":43.337444,"lon":5.374475,"is_reserved":false,"is_disabled":false,"rental_uris":{"android":"levelo://app?vid=51917c34-4765-4051-a9bd-db37a38b484b","ios":"levelo://app?vid=51917c34-4765-4051-a9bd-db37a38b484b"},"vehicle_type_id":"4","last_reported":1745482457,"current_range_meters":22000,"station_id":"ce4bh3p2rcd13ifvqdp0","pricing_plan_id":"cebpf4jnsgd1na2vs0mg"},{"bike_id":"987d7900-bb2a-45cb-bed7-6d69f6fd4fa3","system_id":"levelo_inurba_marseille","lat":43.28524,"lon":5.38434,"is_reserved":false,"is_disabled":false,"rental_uris":{"android":"levelo://app?vid=987d7900-bb2a-45cb-bed7-6d69f6fd4fa3","ios":"levelo://app?vid=987d7900-bb2a-45cb-bed7-6d69f6fd4fa3"},"vehicle_type_id":"4","last_reported":1745482457,"current_range_meters":22000,"station_id":"","pricing_plan_id":"cebpf4jnsgd1na2vs0mg"},{"bike_id":"f2314f08-cf4a-4d8c-bd3d-b9b8baea6582","system_id":"levelo_inurba_marseille","lat":43.25957,"lon":5.40891,"is_reserved":false,"is_disabled":false,"rental_uris":{"android":"levelo://app?vid=f2314f08-cf4a-4d8c-bd3d-b9b8baea6582","ios":"levelo://app?vid=f2314f08-cf4a-4d8c-bd3d-b9b8baea6582"},"vehicle_type_id":"4","last_reported":1745482457,"current_range_meters":22000,"station_id":"ce4bhm92rcd13ifvqglg","pricing_plan_id":"cebpf4jnsgd1na2vs0mg"},{"bike_id":"0e8a9765-9123-400a-9dde-c10a67829f39","system_id":"levelo_inurba_marseille","lat":43.29031,"lon":5.38611,"is_reserved":false,"is_disabled":true,"rental_uris":{"android":"levelo://app?vid=0e8a9765-9123-400a-9dde-c10a67829f39","ios":"levelo://app?vid=0e8a9765-9123-400a-9dde-c10a67829f39"},"vehicle_type_id":"4","last_reported":1745482457,"current_range_meters":22000,"station_id":"ce4bh4p2rcd13ifvqe0g","pricing_plan_id":"cebpf4jnsgd1na2vs0mg"},{"bike_id":"6e771602-4d38-4f7b-867c-e30189585937","system_id":"levelo_inurba_marseille","lat":43.30153,"lon":5.37414,"is_reserved":false,"is_disabled":false,"rental_uris":{"android":"levelo://app?vid=6e771602-4d38-4f7b-867c-e30189585937","ios":"levelo://app?vid=6e771602-4d38-4f7b-867c-e30189585937"},"vehicle_type_id":"4","last_reported":1745482457,"current_range_meters":22400,"station_id":"ce4bgs92rcd13ifvqcc0","pricing_plan_id":"cebpf4jnsgd1na2vs0mg"},{"bike_id":"829e6027-c98c-4052-9336-7fe801b0bc22","system_id":"levelo_inurba_marseille","lat":43.23172,"lon":5.43715,"is_reserved":false,"is_disabled":true,"rental_uris":{"android":"levelo://app?vid=829e6027-c98c-4052-9336-7fe801b0bc22","ios":"levelo://app?vid=829e6027-c98c-4052-9336-7fe801b0bc22"},"vehicle_type_id":"4","last_reported":1745482457,"current_range_meters":22400,"station_id":"ce4bhmp2rcd13ifvqgog","pricing_plan_id":"cebpf4jnsgd1na2vs0mg"},{"bike_id":"8f6c453e-91b3-4dcf-bc24-ab6cf13948f8","system_id":"levelo_inurba_marseille","lat":43.29621,"lon":5.37166,"is_reserved":false,"is_disabled":false,"rental_uris":{"android":"levelo://app?vid=8f6c453e-91b3-4dcf-bc24-ab6cf13948f8","ios":"levelo://app?vid=8f6c453e-91b3-4dcf-bc24-ab6cf13948f8"},"vehicle_type_id":"4","last_reported":1745482457,"current_range_meters":22000,"station_id":"ce4bgnh2rcd13ifvqc0g","pricing_plan_id":"cebpf4jnsgd1na2vs0mg"},{"bike_id":"4a1da12e-a738-4c5e-ae8d-f65a1e5a1f91","system_id":"levelo_inurba_marseille","lat":43.26212,"lon":5.37437,"is_reserved":false,"is_disabled":false,"rental_uris":{"android":"levelo://app?vid=4a1da12e-a738-4c5e-ae8d-f65a1e5a1f91","ios":"levelo://app?vid=4a1da12e-a738-4c5e-ae8d-f65a1e5a1f91"},"vehicle_type_id":"4","last_reported":1745482457,"current_range_meters":22400,"station_id":"ce4bhgp2rcd13ifvqfc0","pricing_plan_id":"cebpf4jnsgd1na2vs0mg"},{"bike_id":"b4930425-5f2f-4b57-a99f-13b802b9eab3","system_id":"levelo_inurba_marseille","lat":43.2557,"lon":5.38222,"is_reserved":false,"is_disabled":false,"rental_uris":{"android":"levelo://app?vid=b4930425-5f2f-4b57-a99f-13b802b9eab3","ios":"levelo://app?vid=b4930425-5f2f-4b57-a99f-13b802b9eab3"},"vehicle_type_id":"4","last_reported":1745482457,"current_range_meters":22400,"station_id":"ce4bhih2rcd13ifvqfs0","pricing_plan_id":"cebpf4jnsgd1na2vs0mg"},{"bike_id":"1fa0f404-64bd-44db-97b1-31dc9c433fa2","system_id":"levelo_inurba_marseille","lat":43.28263,"lon":5.35056,"is_reserved":false,"is_disabled":false,"rental_uris":{"android":"levelo://app?vid=1fa0f404-64bd-44db-97b1-31dc9c433fa2","ios":"levelo://app?vid=1fa0f404-64bd-44db-97b1-31dc9c433fa2"},"vehicle_type_id":"4","last_reported":1745482457,"current_range_meters":22400,"station_id":"ce4bhbp2rcd13ifvqerg","pricing_plan_id":"cebpf4jnsgd1na2vs0mg"},{"bike_id":"5c0de8bf-cc64-4a34-ac0b-2af951aabd22","system_id":"levelo_inurba_marseille","lat":43.30541,"lon":5.36693,"is_reserved":false,"is_disabled":false,"rental_uris":{"android":"levelo://app?vid=5c0de8bf-cc64-4a34-ac0b-2af951aabd22","ios":"levelo://app?vid=5c0de8bf-cc64-4a34-ac0b-2af951aabd22"},"vehicle_type_id":"4","last_reported":1745482457,"current_range_meters":22400,"station_id":"ce4bgrp2rcd13ifvqc9g","pricing_plan_id":"cebpf4jnsgd1na2vs0mg"},{"bike_id":"f3517c2c-9d50-4291-937b-617bf93d5dc9","system_id":"levelo_inurba_marseille","lat":43.305481,"lon":5.367193,"is_reserved":false,"is_disabled":false,"rental_uris":{"android":"levelo://app?vid=f3517c2c-9d50-4291-937b-617bf93d5dc9","ios":"levelo://app?vid=f3517c2c-9d50-4291-937b-617bf93d5dc9"},"vehicle_type_id":"4","last_reported":1745482457,"current_range_meters":22400,"station_id":"ce4bgrp2rcd13ifvqc9g","pricing_plan_id":"cebpf4jnsgd1na2vs0mg"},{"bike_id":"a3a6ceff-2d62-40f0-8672-6185a2d614a2","system_id":"levelo_inurba_marseille","lat":43.28949,"lon":5.36396,"is_reserved":false,"is_disabled":false,"rental_uris":{"android":"levelo://app?vid=a3a6ceff-2d62-40f0-8672-6185a2d614a2","ios":"levelo://app?vid=a3a6ceff-2d62-40f0-8672-6185a2d614a2"},"vehicle_type_id":"4","last_reported":1745482457,"current_range_meters":22400,"station_id":"ce4bhc92rcd13ifvqetg","pricing_plan_id":"cebpf4jnsgd1na2vs0mg"},