{"last_updated":1748700508,"ttl":60,"version":"2.2","data":{"bikes":[{"bike_id":"55080048-1445-433c-8653-9f436d843131","system_id":"levelo_inurba_marseille","lat":43.28522,"lon":5.36919,"is_reserved":false,"is_disabled":false,"rental_uris":{"android":"levelo://app?vid=55080048-1445-433c-8653-9f436d843131","ios":"levelo://app?vid=55080048-1445-433c-8653-9f436d843131"},"vehicle_type_id":"4","last_reported":1748700509,"current_range_meters":2800,"station_id":"","pricing_plan_id":"cebpf4jnsgd1na2vs0mg"},{"bike_id":"36240f0a-66a2-43ec-8330-1f3a9d08cc7e","system_id":"levelo_inurba_marseille","lat":43.238875,"lon":5.36297,"is_reserved":false,"is_disabled":false,"rental_uris":{"android":"levelo://app?vid=36240f0a-66a2-43ec-8330-1f3a9d08cc7e","ios":"levelo://app?vid=36240f0a-66a2-43ec-8330-1f3a9d08cc7e"},"vehicle_type_id":"4","last_reported":1748700509,"current_range_meters":2800,"station_id":"","pricing_plan_id":"cebpf4jnsgd1na2vs0mg"},{"bike_id":"fbc429a4-c5ee-4298-940f-dc6692d59e1b","system_id":"levelo_inurba_marseille","lat":43.28153,"lon":5.42639,"is_reserved":false,"is_disabled":false,"rental_uris":{"android":"levelo://app?vid=fbc429a4-c5ee-4298-940f-dc6692d59e1b","ios":"levelo://app?vid=fbc429a4-c5ee-4298-940f-dc6692d59e1b"},"vehicle_type_id":"4","last_reported":1748700509,"current_range_meters":2800,"station_id":"ce4bhnh2rcd13ifvqgug","pricing_plan_id":"cebpf4jnsgd1na2vs0mg"},{"bike_id":"9caac5cd-71ef-4dec-9ffc-739370b707e4","system_id":"levelo_inurba_marseille","lat":43.28421,"lon":5.349772,"is_reserved":false,"is_disabled":false,"rental_uris":{"android":"levelo://app?vid=9caac5cd-71ef-4dec-9ffc-739370b707e4","ios":"levelo://app?vid=9caac5cd-71ef-4dec-9ffc-739370b707e4"},"vehicle_type_id":"4","last_reported":1748700509,"current_range_meters":2800,"station_id":"ce4bhbh2rcd13ifvqepg","pricing_plan_id":"cebpf4jnsgd1na2vs0mg"},{"bike_id":"4606a288-c4b4-467c-bdcc-a9515d68faf4","system_id":"levelo_inurba_marseille","lat":43.27197,"lon":5.39072,"is_reserved":false,"is_disabled":false,"rental_uris":{"android":"levelo://app?vid=4606a288-c4b4-467c-bdcc-a9515d68faf4","ios":"levelo://app?vid=4606a288-c4b4-467c-bdcc-a9515d68faf4"},"vehicle_type_id":"4","last_reported":1748700509,"current_range_meters":2800,"station_id":"","pricing_plan_id":"cebpf4jnsgd1na2vs0mg"},{"bike_id":"c40b5fb1-fb87-4a87-bbd6-c1f33aaedd7f","system_id":"levelo_inurba_marseille","lat":43.303694,"lon":5.424853,"is_reserved":false,"is_disabled":false,"rental_uris":{"android":"levelo://app?vid=c40b5fb1-fb87-4a87-bbd6-c1f33aaedd7f","ios":"levelo://app?vid=c40b5fb1-fb87-4a87-bbd6-c1f33aaedd7f"},"vehicle_type_id":"4","last_reported":1748700509,"current_range_meters":2800,"station_id":"ce4bhoh2rcd13ifvqh6g","pricing_plan_id":"cebpf4jnsgd1na2vs0mg"},{"bike_id":"9535dda0-6b8a-4dcb-86eb-3f73f7dca415","system_id":"levelo_inurba_marseille","lat":43.22929,"lon":5.35375,"is_reserved":false,"is_disabled":false,"rental_uris":{"android":"levelo://app?vid=9535dda0-6b8a-4dcb-86eb-3f73f7dca415","ios":"levelo://app?vid=9535dda0-6b8a-4dcb-86eb-3f73f7dca415"},"vehicle_type_id":"4","last_reported":1748700509,"current_range_meters":3200,"station_id":"cpo3532slgdg3j2ikp40","pricing_plan_id":"cebpf4jnsgd1na2vs0mg"},{"bike_id":"aaffd690-6793-4ef2-89c5-d5912011ae94","system_id":"levelo_inurba_marseille","lat":43.29865,"lon":5.39737,"is_reserved":false,"is_disabled":false,"rental_uris":{"android":"levelo://app?vid=aaffd690-6793-4ef2-89c5-d5912011ae94","ios":"levelo://app?vid=aaffd690-6793-4ef2-89c5-d5912011ae94"},"vehicle_type_id":"4","last_reported":1748700509,"current_range_meters":3200,"station_id":"ce4bh0h2rcd13ifvqd50","pricing_plan_id":"cebpf4jnsgd1na2vs0mg"},{"bike_id":"769ef632-e97c-42ec-bf26-71e63598c862","system_id":"levelo_inurba_marseille","lat":43.30954,"lon":5.39031,"is_reserved":false,"is_disabled":false,"rental_uris":{"android":"levelo://app?vid=769ef632-e97c-42ec-bf26-71e63598c862","ios":"levelo://app?vid=769ef632-e97c-42ec-bf26-71e63598c862"},"vehicle_type_id":"4","last_reported":1748700509,"current_range_meters":3600,"station_id":"","pricing_plan_id":"cebpf4jnsgd1na2vs0mg"},{"bike_id":"9b0c3f04-38d4-41ab-88a4-c6e06b4c5b07","system_id":"levelo_inurba_marseille","lat":43.28418,"lon":5.3498,"is_reserved":false,"is_disabled":false,"rental_uris":{"android":"levelo://app?vid=9b0c3f04-38d4-41ab-88a4-c6e06b4c5b07","ios":"levelo://app?vid=9b0c3f04-38d4-41ab-88a4-c6e06b4c5b07"},"vehicle_type_id":"4","last_reported":1748700509,"current_range_meters":3200,"station_id":"ce4bhbh2rcd13ifvqepg","pricing_plan_id":"cebpf4jnsgd1na2vs0mg"},{"bike_id":"b0ef799d-9ad8-4b33-97af-7fa7d8a21875","system_id":"levelo_inurba_marseille","lat":43.2396,"lon":5.36642,"is_reserved":false,"is_disabled":false,"rental_uris":{"android":"levelo://app?vid=b0ef799d-9ad8-4b33-97af-7fa7d8a21875","ios":"levelo://app?vid=b0ef799d-9ad8-4b33-97af-7fa7d8a21875"},"vehicle_type_id":"4","last_reported":1748700509,"current_range_meters":3600,"station_id":"ce4bhi12rcd13ifvqfp0","pricing_plan_id":"cebpf4jnsgd1na2vs0mg"},{"bike_id":"a206513f-dd87-4ebc-ba3f-ad03f33be5e4","system_id":"levelo_inurba_marseille","lat":43.27918,"lon":5.38013,"is_reserved":false,"is_disabled":false,"rental_uris":{"android":"levelo://app?vid=a206513f-dd87-4ebc-ba3f-ad03f33be5e4","ios":"levelo://app?vid=a206513f-dd87-4ebc-ba3f-ad03f33be5e4"},"vehicle_type_id":"4","last_reported":1748700509,"current_range_meters":3600,"station_id":"ce4bhf92rcd13ifvqf50","pricing_plan_id":"cebpf4jnsgd1na2vs0mg"},{"bike_id":"256e1f57-fde8-49c6-bc52-3686dbe07fb5","system_id":"levelo_inurba_marseille","lat":43.28859,"lon":5.35861,"is_reserved":false,"is_disabled":false,"rental_uris":{"android":"levelo://app?vid=256e1f57-fde8-49c6-bc52-3686dbe07fb5","ios":"levelo://app?vid=256e1f57-fde8-49c6-bc52-3686dbe07fb5"},"vehicle_type_id":"4","last_reported":1748700509,"current_range_meters":3200,"station_id":"ce4bhb12rcd13ifvqem0","pricing_plan_id":"cebpf4jnsgd1na2vs0mg"},{"bike_id":"89ffc610-8c1d-49ab-a16f-8e7b4f049e54","system_id":"levelo_inurba_marseille","lat":43.23189,"lon":5.39988,"is_reserved":false,"is_disabled":false,"rental_uris":{"android":"levelo://app?vid=89ffc610-8c1d-49ab-a16f-8e7b4f049e54","ios":"levelo://app?vid=89ffc610-8c1d-49ab-a16f-8e7b4f049e54"},"vehicle_type_id":"4","last_reported":1748700509,"current_range_meters":3600,"station_id":"ce4bhn12rcd13ifvqgqg","pricing_plan_id":"cebpf4jnsgd1na2vs0mg"},{"bike_id":"cbb43188-09f7-4e34-b342-178f775074a9","system_id":"levelo_inurba_marseille","lat":43.292535,"lon":5.383834,"is_reserved":false,"is_disabled":false,"rental_uris":{"android":"levelo://app?vid=cbb43188-09f7-4e34-b342-178f775074a9","ios":"levelo://app?vid=cbb43188-09f7-4e34-b342-178f775074a9"},"vehicle_type_id":"4","last_reported":1748700509,"current_range_meters":3600,"station_id":"ce4bho92rcd13ifvqh4g","pricing_plan_id":"cebpf4jnsgd1na2vs0mg"},{"bike_id":"d31bc991-13ca-49dc-9f63-b2919ec14953","system_id":"levelo_inurba_marseille","lat":43.30556,"lon":5.36555,"is_reserved":false,"is_disabled":false,"rental_uris":{"android":"levelo://app?vid=d31bc991-13ca-49dc-9f63-b2919ec14953","ios":"levelo://app?vid=d31bc991-13ca-49dc-9f63-b2919ec14953"},"vehicle_type_id":"4","last_reported":1748700509,"current_range_meters":3600,"station_id":"ce4bgs12rcd13ifvqcag","pricing_plan_id":"cebpf4jnsgd1na2vs0mg"},{"bike_id":"da5921cd-e75b-4ce7-b109-06c28f720590","system_id":"levelo_inurba_marseille","lat":43.28745,"lon":5.36181,"is_reserved":false,"is_disabled":false,"rental_uris":{"android":"levelo://app?vid=da5921cd-e75b-4ce7-b109-06c28f720590","ios":"levelo://app?vid=da5921cd-e75b-4ce7-b109-06c28f720590"},"vehicle_type_id":"4","last_reported":1748700509,"current_range_meters":4400,"station_id":"","pricing_plan_id":"cebpf4jnsgd1na2vs0mg"},{"bike_id":"0d5acb74-fb5b-4d13-88eb-c65bf704671c","system_id":"levelo_inurba_marseille","lat":43.24171,"lon":5.3641,"is_reserved":false,"is_disabled":false,"rental_uris":{"android":"levelo://app?vid=0d5acb74-fb5b-4d13-88eb-c65bf704671c","ios":"levelo://app?vid=0d5acb74-fb5b-4d13-88eb-c65bf704671c"},"vehicle_type_id":"4","last_reported":1748700509,"current_range_meters":4400,"station_id":"cpo36qri1sfpv3e86is0","pricing_plan_id":"cebpf4jnsgd1na2vs0mg"},{"bike_id":"0323f0cb-a3d7-425c-8d1c-86eff578bce9","system_id":"levelo_inurba_marseille","lat":43.25528,"lon":5.37664,"is_reserved":false,"is_disabled":false,"rental_uris":{"android":"levelo://app?vid=0323f0cb-a3d7-425c-8d1c-86eff578bce9","ios":"levelo://app?vid=0323f0cb-a3d7-425c-8d1c-86eff578bce9"},"vehicle_type_id":"4","last_reported":1748700509,"current_range_meters":4800,"station_id":"ce4bhh12rcd13ifvqff0","pricing_plan_id":"cebpf4jnsgd1na2vs0mg"},{"bike_id":"7e2836c0-ba8d-45a0-95fe-cc804da27d6d","system_id":"levelo_inurba_marseille","lat":43.24165,"lon":5.36403,"is_reserved":false,"is_disabled":false,"rental_uris":{"android":"levelo://app?vid=7e2836c0-ba8d-45a0-95fe-cc804da27d6d","ios":"levelo://app?vid=7e2836c0-ba8d-45a0-95fe-cc804da27d6d"},"vehicle_type_id":"4","last_reported":1748700509,"current_range_meters":4800,"station_id":"cpo36qri1sfpv3e86is0","pricing_plan_id":"cebpf4jnsgd1na2vs0mg"},{"bike_id":"ce005e1c-c98b-4da9-b31a-3cfec8edcc21","system_id":"levelo_inurba_marseille","lat":43.27945,"lon":5.41049,"is_reserved":false,"is_disabled":false,"rental_uris":{"android":"levelo://app?vid=ce005e1c-c98b-4da9-b31a-3cfec8edcc21","ios":"levelo://app?vid=ce005e1c-c98b-4da9-b31a-3cfec8edcc21"},"vehicle_type_id":"4","last_reported":1748700509,"current_range_meters":4800,"station_id":"ce4bhnp2rcd13ifvqh0g","pricing_plan_id":"cebpf4jnsgd1na2vs0mg"},{"bike_id":"a202821e-842c-4ad8-a402-9a94950adada","system_id":"levelo_inurba_marseille","lat":43.248068,"lon":5.374587,"is_reserved":false,"is_disabled":false,"rental_uris":{"android":"levelo://app?vid=a202821e-842c-4ad8-a402-9a94950adada","ios":"levelo://app?vid=a202821e-842c-4ad8-a402-9a94950adada"},"vehicle_type_id":"4","last_reported":1748700509,"current_range_meters":4800,"station_id":"ce4bhgh2rcd13ifvqfb0","pricing_plan_id":"cebpf4jnsgd1na2vs0mg"},{"bike_id":"02d7d268-47f0-4a49-9192-0def92a8017b","system_id":"levelo_inurba_marseille","lat":43.24176,"lon":5.39737,"is_reserved":false,"is_disabled":false,"rental_uris":{"android":"levelo://app?vid=02d7d268-47f0-4a49-9192-0def92a8017b","ios":"levelo://app?vid=02d7d268-47f0-4a49-9192-0def92a8017b"},"vehicle_type_id":"4","last_reported":1748700509,"current_range_meters":5600,"station_id":"ce4bhn12rcd13ifvqgpg","pricing_plan_id":"cebpf4jnsgd1na2vs0mg"},{"bike_id":"07ad55fe-71af-4dc6-b97f-4cc068c05b85","system_id":"levelo_inurba_marseille","lat":43.31157,"lon":5.3872,"is_reserved":false,"is_disabled":false,"rental_uris":{"android":"levelo://app?vid=07ad55fe-71af-4dc6-b97f-4cc068c05b85","ios":"levelo://app?vid=07ad55fe-71af-4dc6-b97f-4cc068c05b85"},"vehicle_type_id":"4","last_reported":1748700509,"current_range_meters":5600,"station_id":"ce4bgv12rcd13ifvqcp0","pricing_plan_id":"cebpf4jnsgd1na2vs0mg"},{"bike_id":"a74a2d40-51d1-4915-bbbf-d3b354712f20","system_id":"levelo_inurba_marseille","lat":43.24384,"lon":5.3706,"is_reserved":false,"is_disabled":false,"rental_uris":{"android":"levelo://app?vid=a74a2d40-51d1-4915-bbbf-d3b354712f20","ios":"levelo://app?vid=a74a2d40-51d1-4915-bbbf-d3b354712f20"},"vehicle_type_id":"4","last_reported":1748700509,"current_range_meters":5600,"station_id":"ce4bhhh2rcd13ifvqfk0","pricing_plan_id":"cebpf4jnsgd1na2vs0mg"},{"bike_id":"f80006c7-2f10-4ba5-bb7c-2b0507fde45f","system_id":"levelo_inurba_marseille","lat":43.23049,"lon":5.35507,"is_reserved":false,"is_disabled":false,"rental_uris":{"android":"levelo://app?vid=f80006c7-2f10-4ba5-bb7c-2b0507fde45f","ios":"levelo://app?vid=f80006c7-2f10-4ba5-bb7c-2b0507fde45f"},"vehicle_type_id":"4","last_reported":1748700509,"current_range_meters":5600,"station_id":"cpo3342slgdg3j2ifvpg","pricing_plan_id":"cebpf4jnsgd1na2vs0mg"},{"bike_id":"5ac3febd-6c2a-411e-9a8f-db290e2abd46","system_id":"levelo_inurba_marseille","lat":43.2416,"lon":5.36421,"is_reserved":false,"is_disabled":false,"rental_uris":{"android":"levelo://app?vid=5ac3febd-6c2a-411e-9a8f-db290e2abd46","ios":"levelo://app?vid=5ac3febd-6c2a-411e-9a8f-db290e2abd46"},"vehicle_type_id":"4","last_reported":1748700509,"current_range_meters":5600,"station_id":"cpo36qri1sfpv3e86is0","pricing_plan_id":"cebpf4jnsgd1na2vs0mg"},{"bike_id":"0514caed-caa8-4442-8d6d-69f2f89d7ed9","system_id":"levelo_inurba_marseille","lat":43.27056,"lon":5.40276,"is_reserved":false,"is_disabled":false,"rental_uris":{"android":"levelo://app?vid=0514caed-caa8-4442-8d6d-69f2f89d7ed9","ios":"levelo://app?vid=0514caed-caa8-4442-8d6d-69f2f89d7ed9"},"vehicle_type_id":"4","last_reported":1748700509,"current_range_meters":5600,"station_id":"ce4bhk92rcd13ifvqgc0","pricing_plan_id":"cebpf4jnsgd1na2vs0mg"},{"bike_id":"854b0cf0-4938-481f-a5fa-56b46a144ce7","system_id":"levelo_inurba_marseille","lat":43.265656,"lon":5.403227,"is_reserved":false,"is_disabled":false,"rental_uris":{"android":"levelo://app?vid=854b0cf0-4938-481f-a5fa-56b46a144ce7","ios":"levelo://app?vid=854b0cf0-4938-481f-a5fa-56b46a144ce7"},"vehicle_type_id":"4","last_reported":1748700509,"current_range_meters":5600,"station_id":"","pricing_plan_id":"cebpf4jnsgd1na2vs0mg"},{"bike_id":"85b01cee-9a0c-4730-9405-466701760a37","system_id":"levelo_inurba_marseille","lat":43.2841,"lon":5.3497,"is_reserved":false,"is_disabled":false,"rental_uris":{"android":"levelo://app?vid=85b01cee-9a0c-4730-9405-466701760a37","ios":"levelo://app?vid=85b01cee-9a0c-4730-9405-466701760a37"},"vehicle_type_id":"4","last_reported":1748700509,"current_range_meters":6000,"station_id":"ce4bhbh2rcd13ifvqepg","pricing_plan_id":"cebpf4jnsgd1na2vs0mg"},{"bike_id":"24647cff-7f79-42dc-b45d-d5105adb06ba","system_id":"levelo_inurba_marseille","lat":43.28401,"lon":5.37515,"is_reserved":false,"is_disabled":false,"rental_uris":{"android":"levelo://app?vid=24647cff-7f79-42dc-b45d-d5105adb06ba","ios":"levelo://app?vid=24647cff-7f79-42dc-b45d-d5105adb06ba"},"vehicle_type_id":"4","last_reported":1748700509,"current_range_meters":6000,"station_id":"ce4bh412rcd13ifvqds0","pricing_plan_id":"cebpf4jnsgd1na2vs0mg"},{"bike_id":"890b0581-476d-4078-bce6-83260ccbf0f1","system_id":"levelo_inurba_marseille","lat":43.31078,"lon":5.38354,"is_reserved":false,"is_disabled":false,"rental_uris":{"android":"levelo://app?vid=890b0581-476d-4078-bce6-83260ccbf0f1","ios":"levelo://app?vid=890b0581-476d-4078-bce6-83260ccbf0f1"},"vehicle_type_id":"4","last_reported":1748700509,"current_range_meters":6000,"station_id":"ce4bgv92rcd13ifvqcr0","pricing_plan_id":"cebpf4jnsgd1na2vs0mg"},{"bike_id":"524711b4-be8c-4e38-abb0-59ce12681057","system_id":"levelo_inurba_marseille","lat":43.23056,"lon":5.35472,"is_reserved":false,"is_disabled":false,"rental_uris":{"android":"levelo://app?vid=524711b4-be8c-4e38-abb0-59ce12681057","ios":"levelo://app?vid=524711b4-be8c-4e38-abb0-59ce12681057"},"vehicle_type_id":"4","last_reported":1748700509,"current_range_meters":6400,"station_id":"cpo3342slgdg3j2ifvpg","pricing_plan_id":"cebpf4jnsgd1na2vs0mg"},{"bike_id":"65eb1820-1413-4f27-81f7-539cbc637000","system_id":"levelo_inurba_marseille","lat":43.29225,"lon":5.36072,"is_reserved":false,"is_disabled":false,"rental_uris":{"android":"levelo://app?vid=65eb1820-1413-4f27-81f7-539cbc637000","ios":"levelo://app?vid=65eb1820-1413-4f27-81f7-539cbc637000"},"vehicle_type_id":"4","last_reported":1748700509,"current_range_meters":6400,"station_id":"ce4bhbh2rcd13ifvqeqg","pricing_plan_id":"cebpf4jnsgd1na2vs0mg"},{"bike_id":"a5874b5d-5a83-423a-a7a8-7ad8503190a8","system_id":"levelo_inurba_marseille","lat":43.24167,"lon":5.36403,"is_reserved":false,"is_disabled":false,"rental_uris":{"android":"levelo://app?vid=a5874b5d-5a83-423a-a7a8-7ad8503190a8","ios":"levelo://app?vid=a5874b5d-5a83-423a-a7a8-7ad8503190a8"},"vehicle_type_id":"4","last_reported":1748700509,"current_range_meters":6400,"station_id":"cpo36qri1sfpv3e86is0","pricing_plan_id":"cebpf4jnsgd1na2vs0mg"},{"bike_id":"4d4971ef-1221-46fa-a355-7f09b89c8e0a","system_id":"levelo_inurba_marseille","lat":43.28824,"lon":5.35333,"is_reserved":false,"is_disabled":false,"rental_uris":{"android":"levelo://app?vid=4d4971ef-1221-46fa-a355-7f09b89c8e0a","ios":"levelo://app?vid=4d4971ef-1221-46fa-a355-7f09b89c8e0a"},"vehicle_type_id":"4","last_reported":1748700509,"current_range_meters":6400,"station_id":"","pricing_plan_id":"cebpf4jnsgd1na2vs0mg"},{"bike_id":"586d7e68-1782-4f9f-9be5-9a1640e83e42","system_id":"levelo_inurba_marseille","lat":43.23201,"lon":5.3559,"is_reserved":false,"is_disabled":false,"rental_uris":{"android":"levelo://app?vid=586d7e68-1782-4f9f-9be5-9a1640e83e42","ios":"levelo://app?vid=586d7e68-1782-4f9f-9be5-9a1640e83e42"},"vehicle_type_id":"4","last_reported":1748700509,"current_range_meters":6400,"station_id":"ce4bhu92rcd13ifvqi70","pricing_plan_id":"cebpf4jnsgd1na2vs0mg"},{"bike_id":"acdaa0f6-a750-419f-9f90-dcb7cee040b9","system_id":"levelo_inurba_marseille","lat":43.28279,"lon":5.35089,"is_reserved":false,"is_disabled":false,"rental_uris":{"android":"levelo://app?vid=acdaa0f6-a750-419f-9f90-dcb7cee040b9","ios":"levelo://app?vid=acdaa0f6-a750-419f-9f90-dcb7cee040b9"},"vehicle_type_id":"4","last_reported":1748700509,"current_range_meters":6400,"station_id":"ce4bhbp2rcd13ifvqerg","pricing_plan_id":"cebpf4jnsgd1na2vs0mg"},{"bike_id":"990df701-79a7-41ec-b963-3693dc590a87","system_id":"levelo_inurba_marseille","lat":43.30155,"lon":5.3791,"is_reserved":false,"is_disabled":false,"rental_uris":{"android":"levelo://app?vid=990df701-79a7-41ec-b963-3693dc590a87","ios":"levelo://app?vid=990df701-79a7-41ec-b963-3693dc590a87"},"vehicle_type_id":"4","last_reported":1748700509,"current_range_meters":6400,"station_id":"","pricing_plan_id":"cebpf4jnsgd1na2vs0mg"},{"bike_id":"3d6dace2-c0a9-493e-8455-b51415032456","system_id":"levelo_inurba_marseille","lat":43.23195,"lon":5.35544,"is_reserved":false,"is_disabled":false,"rental_uris":{"android":"levelo://app?vid=3d6dace2-c0a9-493e-8455-b51415032456","ios":"levelo://app?vid=3d6dace2-c0a9-493e-8455-b51415032456"},"vehicle_type_id":"4","last_reported":1748700509,"current_range_meters":6800,"station_id":"ce4bhu92rcd13ifvqi70","pricing_plan_id":"cebpf4jnsgd1na2vs0mg"},{"bike_id":"89ec8cb2-b783-400b-81f3-1b63b75e7ca9","system_id":"levelo_inurba_marseille","lat":43.26213,"lon":5.37443,"is_reserved":false,"is_disabled":false,"rental_uris":{"android":"levelo://app?vid=89ec8cb2-b783-400b-81f3-1b63b75e7ca9","ios":"levelo://app?vid=89ec8cb2-b783-400b-81f3-1b63b75e7ca9"},"vehicle_type_id":"4","last_reported":1748700509,"current_range_meters":6800,"station_id":"ce4bhgp2rcd13ifvqfc0","pricing_plan_id":"cebpf4jnsgd1na2vs0mg"},{"bike_id":"be54396a-f2da-4828-8c47-59d79aedef0b","system_id":"levelo_inurba_marseille","lat":43.29253,"lon":5.40893,"is_reserved":false,"is_disabled":false,"rental_uris":{"android":"levelo://app?vid=be54396a-f2da-4828-8c47-59d79aedef0b","ios":"levelo://app?vid=be54396a-f2da-4828-8c47-59d79aedef0b"},"vehicle_type_id":"4","last_reported":1748700509,"current_range_meters":6400,"station_id":"ce4bh192rcd13ifvqdc0","pricing_plan_id":"cebpf4jnsgd1na2vs0mg"},{"bike_id":"45b56108-97b3-4866-acaf-953e76596f06","system_id":"levelo_inurba_marseille","lat":43.24163,"lon":5.36415,"is_reserved":false,"is_disabled":false,"rental_uris":{"android":"levelo://app?vid=45b56108-97b3-4866-acaf-953e76596f06","ios":"levelo://app?vid=45b56108-97b3-4866-acaf-953e76596f06"},"vehicle_type_id":"4","last_reported":1748700509,"current_range_meters":6800,"station_id":"cpo36qri1sfpv3e86is0","pricing_plan_id":"cebpf4jnsgd1na2vs0mg"},{"bike_id":"8a1da20e-c1f3-49ae-aab0-f61684d5c637","system_id":"levelo_inurba_marseille","lat":43.25495,"lon":5.37661,"is_reserved":false,"is_disabled":false,"rental_uris":{"android":"levelo://app?vid=8a1da20e-c1f3-49ae-aab0-f61684d5c637","ios":"levelo://app?vid=8a1da20e-c1f3-49ae-aab0-f61684d5c637"},"vehicle_type_id":"4","last_reported":1748700509,"current_range_meters":6800,"station_id":"ce4bhh12rcd13ifvqff0","pricing_plan_id":"cebpf4jnsgd1na2vs0mg"},{"bike_id":"10fba1da-dea6-4a42-87e0-fd9c84ea9c5c","system_id":"levelo_inurba_marseille","lat":43.2417,"lon":5.36404,"is_reserved":false,"is_disabled":false,"rental_uris":{"android":"levelo://app?vid=10fba1da-dea6-4a42-87e0-fd9c84ea9c5c","ios":"levelo://app?vid=10fba1da-dea6-4a42-87e0-fd9c84ea9c5c"},"vehicle_type_id":"4","last_reported":1748700509,"current_range_meters":6800,"station_id":"cpo36qri1sfpv3e86is0","pricing_plan_id":"cebpf4jnsgd1na2vs0mg"},{"bike_id":"9a9280f8-d4dd-4163-b72c-1c170982ca95","system_id":"levelo_inurba_marseille","lat":43.24806,"lon":5.37453,"is_reserved":false,"is_disabled":false,"rental_uris":{"android":"levelo://app?vid=9a9280f8-d4dd-4163-b72c-1c170982ca95","ios":"levelo://app?vid=9a9280f8-d4dd-4163-b72c-1c170982ca95"},"vehicle_type_id":"4","last_reported":1748700509,"current_range_meters":6800,"station_id":"ce4bhgh2rcd13ifvqfb0","pricing_plan_id":"cebpf4jnsgd1na2vs0mg"},{"bike_id":"35b0607c-972f-4468-896a-f8e506f6e79b","system_id":"levelo_inurba_marseille","lat":43.28266,"lon":5.3506,"is_reserved":false,"is_disabled":false,"rental_uris":{"android":"levelo://app?vid=35b0607c-972f-4468-896a-f8e506f6e79b","ios":"levelo://app?vid=35b0607c-972f-4468-896a-f8e506f6e79b"},"vehicle_type_id":"4","last_reported":1748700509,"current_range_meters":7200,"station_id":"ce4bhbp2rcd13ifvqerg","pricing_plan_id":"cebpf4jnsgd1na2vs0mg"},{"bike_id":"f5f64fe6-e75b-4412-8ae5-4c6ffa965e31","system_id":"levelo_inurba_marseille","lat":43.27896,"lon":5.37993,"is_reserved":false,"is_disabled":false,"rental_uris":{"android":"levelo://app?vid=f5f64fe6-e75b-4412-8ae5-4c6ffa965e31","ios":"levelo://app?vid=f5f64fe6-e75b-4412-8ae5-4c6ffa965e31"},"vehicle_type_id":"4","last_reported":1748700509,"current_range_meters":6800,"station_id":"ce4bhf92rcd13ifvqf50","pricing_plan_id":"cebpf4jnsgd1na2vs0mg"},{"bike_id":"7243d7c8-02f5-4392-89cf-8c360e846d55","system_id":"levelo_inurba_marseille","lat":43.252789,"lon":5.378194,"is_reserved":false,"is_disabled":false,"rental_uris":{"android":"levelo://app?vid=7243d7c8-02f5-4392-89cf-8c360e846d55","ios":"levelo://app?vid=7243d7c8-02f5-4392-89cf-8c360e846d55"},"vehicle_type_id":"4","last_reported":1748700509,"current_range_meters":7200,"station_id":"","pricing_plan_id":"cebpf4jnsgd1na2vs0mg"},{"bike_id":"43d4e202-de2b-462c-8655-ce55b382fb4e","system_id":"levelo_inurba_marseille","lat":43.23147,"lon":5.43691,"is_reserved":false,"is_disabled":false,"rental_uris":{"android":"levelo://app?vid=43d4e202-de2b-462c-8655-ce55b382fb4e","ios":"levelo://app?vid=43d4e202-de2b-462c-8655-ce55b382fb4e"},"vehicle_type_id":"4","last_reported":1748700509,"current_range_meters":7200,"station_id":"ce4bhmp2rcd13ifvqgog","pricing_plan_id":"cebpf4jnsgd1na2vs0mg"},{"bike_id":"9ed2526e-4a40-47c4-8a33-0288b90e56d2","system_id":"levelo_inurba_marseille","lat":43.23151,"lon":5.43717,"is_reserved":false,"is_disabled":false,"rental_uris":{"android":"levelo://app?vid=9ed2526e-4a40-47c4-8a33-0288b90e56d2","ios":"levelo://app?vid=9ed2526e-4a40-47c4-8a33-0288b90e56d2"},"vehicle_type_id":"4","last_reported":1748700509,"current_range_meters":7200,"station_id":"ce4bhmp2rcd13ifvqgog","pricing_plan_id":"cebpf4jnsgd1na2vs0mg"},{"bike_id":"48e2107e-8035-455b-b585-8cd47342f235","system_id":"levelo_inurba_marseille","lat":43.305514,"lon":5.367288,"is_reserved":false,"is_disabled":false,"rental_uris":{"android":"levelo://app?vid=48e2107e-8035-455b-b585-8cd47342f235","ios":"levelo://app?vid=48e2107e-8035-455b-b585-8cd47342f235"},"vehicle_type_id":"4","last_reported":1748700509,"current_range_meters":6800,"station_id":"ce4bgrp2rcd13ifvqc9g","pricing_plan_id":"cebpf4jnsgd1na2vs0mg"},{"bike_id":"a882f5db-172f-4f11-bf66-7e2c36364bb7","system_id":"levelo_inurba_marseille","lat":43.29544,"lon":5.42334,"is_reserved":false,"is_disabled":false,"rental_uris":{"android":"levelo://app?vid=a882f5db-172f-4f11-bf66-7e2c36364bb7","ios":"levelo://app?vid=a882f5db-172f-4f11-bf66-7e2c36364bb7"},"vehicle_type_id":"4","last_reported":1748700509,"current_range_meters":7200,"station_id":"ce4bhph2rcd13ifvqhdg","pricing_plan_id":"cebpf4jnsgd1na2vs0mg"},{"bike_id":"4805c951-6484-4059-a668-9e3bc978342f","system_id":"levelo_inurba_marseille","lat":43.26821,"lon":5.40253,"is_reserved":false,"is_disabled":false,"rental_uris":{"android":"levelo://app?vid=4805c951-6484-4059-a668-9e3bc978342f","ios":"levelo://app?vid=4805c951-6484-4059-a668-9e3bc978342f"},"vehicle_type_id":"4","last_reported":1748700509,"current_range_meters":7200,"station_id":"ce501612rcd8frsf0b60","pricing_plan_id":"cebpf4jnsgd1na2vs0mg"},{"bike_id":"f3fb86af-e059-4fc4-9ddb-ee07bacc4611","system_id":"levelo_inurba_marseille","lat":43.2953,"lon":5.38548,"is_reserved":false,"is_disabled":false,"rental_uris":{"android":"levelo://app?vid=f3fb86af-e059-4fc4-9ddb-ee07bacc4611","ios":"levelo://app?vid=f3fb86af-e059-4fc4-9ddb-ee07bacc4611"},"vehicle_type_id":"4","last_reported":1748700509,"current_range_meters":9200,"station_id":"ce4bgih2rcd13ifvqba0","pricing_plan_id":"cebpf4jnsgd1na2vs0mg"},{"bike_id":"a326951f-0eaf-4b67-9913-457e6cd35573","system_id":"levelo_inurba_marseille","lat":43.231973,"lon":5.355512,"is_reserved":false,"is_disabled":false,"rental_uris":{"android":"levelo://app?vid=a326951f-0eaf-4b67-9913-457e6cd35573","ios":"levelo://app?vid=a326951f-0eaf-4b67-9913-457e6cd35573"},"vehicle_type_id":"4","last_reported":1748700509,"current_range_meters":7200,"station_id":"ce4bhu92rcd13ifvqi70","pricing_plan_id":"cebpf4jnsgd1na2vs0mg"},{"bike_id":"3feffd94-b1f8-4904-a4cf-e5629abe4092","system_id":"levelo_inurba_marseille","lat":43.25958,"lon":5.40909,"is_reserved":false,"is_disabled":false,"rental_uris":{"android":"levelo://app?vid=3feffd94-b1f8-4904-a4cf-e5629abe4092","ios":"levelo://app?vid=3feffd94-b1f8-4904-a4cf-e5629abe4092"},"vehicle_type_id":"4","last_reported":1748700509,"current_range_meters":7200,"station_id":"ce4bhm92rcd13ifvqglg","pricing_plan_id":"cebpf4jnsgd1na2vs0mg"},{"bike_id":"17244023-e7ce-47db-98e8-21120bde4f61","system_id":"levelo_inurba_marseille","lat":43.23086,"lon":5.35516,"is_reserved":false,"is_disabled":false,"rental_uris":{"android":"levelo://app?vid=17244023-e7ce-47db-98e8-21120bde4f61","ios":"levelo://app?vid=17244023-e7ce-47db-98e8-21120bde4f61"},"vehicle_type_id":"4","last_reported":1748700509,"current_range_meters":7200,"station_id":"cpo3342slgdg3j2ifvpg","pricing_plan_id":"cebpf4jnsgd1na2vs0mg"},{"bike_id":"2197e99e-6398-4771-8c82-a125d4ac8603","system_id":"levelo_inurba_marseille","lat":43.29222,"lon":5.36056,"is_reserved":false,"is_disabled":false,"rental_uris":{"android":"levelo://app?vid=2197e99e-6398-4771-8c82-a125d4ac8603","ios":"levelo://app?vid=2197e99e-6398-4771-8c82-a125d4ac8603"},"vehicle_type_id":"4","last_reported":1748700509,"current_range_meters":8000,"station_id":"ce4bhbh2rcd13ifvqeqg","pricing_plan_id":"cebpf4jnsgd1na2vs0mg"},{"bike_id":"10922054-f21d-4e36-a99a-72234633d66d","system_id":"levelo_inurba_marseille","lat":43.27059,"lon":5.40271,"is_reserved":false,"is_disabled":false,"rental_uris":{"android":"levelo://app?vid=10922054-f21d-4e36-a99a-72234633d66d","ios":"levelo://app?vid=10922054-f21d-4e36-a99a-72234633d66d"},"vehicle_type_id":"4","last_reported":1748700509,"current_range_meters":8000,"station_id":"ce4bhk92rcd13ifvqgc0","pricing_plan_id":"cebpf4jnsgd1na2vs0mg"},{"bike_id":"c9e39e98-013b-4ec5-b67c-56f3c97783f3","system_id":"levelo_inurba_marseille","lat":43.2738,"lon":5.36266,"is_reserved":false,"is_disabled":false,"rental_uris":{"android":"levelo://app?vid=c9e39e98-013b-4ec5-b67c-56f3c97783f3","ios":"levelo://app?vid=c9e39e98-013b-4ec5-b67c-56f3c97783f3"},"vehicle_type_id":"4","last_reported":1748700509,"current_range_meters":8000,"station_id":"ce4bhbh2rcd13ifvqeo0","pricing_plan_id":"cebpf4jnsgd1na2vs0mg"},{"bike_id":"8193c318-baff-4b74-9aeb-c4b817b9fcdc","system_id":"levelo_inurba_marseille","lat":43.28269,"lon":5.35069,"is_reserved":false,"is_disabled":false,"rental_uris":{"android":"levelo://app?vid=8193c318-baff-4b74-9aeb-c4b817b9fcdc","ios":"levelo://app?vid=8193c318-baff-4b74-9aeb-c4b817b9fcdc"},"vehicle_type_id":"4","last_reported":1748700509,"current_range_meters":8000,"station_id":"ce4bhbp2rcd13ifvqerg","pricing_plan_id":"cebpf4jnsgd1na2vs0mg"},{"bike_id":"e62a208c-23d3-4f22-bdab-aa660ac5353a","system_id":"levelo_inurba_marseille","lat":43.262233,"lon":5.379289,"is_reserved":false,"is_disabled":false,"rental_uris":{"android":"levelo://app?vid=e62a208c-23d3-4f22-bdab-aa660ac5353a","ios":"levelo://app?vid=e62a208c-23d3-4f22-bdab-aa660ac5353a"},"vehicle_type_id":"4","last_reported":1748700509,"current_range_meters":8000,"station_id":"ce4bhjp2rcd13ifvqg90","pricing_plan_id":"cebpf4jnsgd1na2vs0mg"},{"bike_id":"c6754619-5af5-437c-b3a0-46817e9213dd","system_id":"levelo_inurba_marseille","lat":43.27311,"lon":5.39082,"is_reserved":false,"is_disabled":false,"rental_uris":{"android":"levelo://app?vid=c6754619-5af5-437c-b3a0-46817e9213dd","ios":"levelo://app?vid=c6754619-5af5-437c-b3a0-46817e9213dd"},"vehicle_type_id":"4","last_reported":1748700509,"current_range_meters":8000,"station_id":"ce4bhgp2rcd13ifvqfe0","pricing_plan_id":"cebpf4jnsgd1na2vs0mg"},{"bike_id":"7744b0bc-9255-402e-8dd0-6b3090927fb9","system_id":"levelo_inurba_marseille","lat":43.26943,"lon":5.40318,"is_reserved":false,"is_disabled":true,"rental_uris":{"android":"levelo://app?vid=7744b0bc-9255-402e-8dd0-6b3090927fb9","ios":"levelo://app?vid=7744b0bc-9255-402e-8dd0-6b3090927fb9"},"vehicle_type_id":"4","last_reported":1748700509,"current_range_meters":8400,"station_id":"cjm6bp8fraef2m0cb0m0","pricing_plan_id":"cebpf4jnsgd1na2vs0mg"},{"bike_id":"a1f13184-cf55-403e-ba9c-44a14a6489f7","system_id":"levelo_inurba_marseille","lat":43.28612,"lon":5.35118,"is_reserved":false,"is_disabled":false,"rental_uris":{"android":"levelo://app?vid=a1f13184-cf55-403e-ba9c-44a14a6489f7","ios":"levelo://app?vid=a1f13184-cf55-403e-ba9c-44a14a6489f7"},"vehicle_type_id":"4","last_reported":1748700509,"current_range_meters":8400,"station_id":"","pricing_plan_id":"cebpf4jnsgd1na2vs0mg"},{"bike_id":"471fccc4-e0a0-45c9-96ca-25361ad546a7","system_id":"levelo_inurba_marseille","lat":43.21744,"lon":5.346034,"is_reserved":false,"is_disabled":false,"rental_uris":{"android":"levelo://app?vid=471fccc4-e0a0-45c9-96ca-25361ad546a7","ios":"levelo://app?vid=471fccc4-e0a0-45c9-96ca-25361ad546a7"},"vehicle_type_id":"4","last_reported":1748700509,"current_range_meters":8400,"station_id":"st_cvj6r9ubvosntc0bgbag","pricing_plan_id":"cebpf4jnsgd1na2vs0mg"},{"bike_id":"662af0d9-b4f1-4513-bbd2-fd65be6229e5","system_id":"levelo_inurba_marseille","lat":43.25906,"lon":5.40875,"is_reserved":false,"is_disabled":false,"rental_uris":{"android":"levelo://app?vid=662af0d9-b4f1-4513-bbd2-fd65be6229e5","ios":"levelo://app?vid=662af0d9-b4f1-4513-bbd2-fd65be6229e5"},"vehicle_type_id":"4","last_reported":1748700509,"current_range_meters":8400,"station_id":"ce4bhm92rcd13ifvqglg","pricing_plan_id":"cebpf4jnsgd1na2vs0mg"},{"bike_id":"b8794c03-5124-4655-944a-93fe527b04c4","system_id":"levelo_inurba_marseille","lat":43.30473,"lon":5.3792,"is_reserved":false,"is_disabled":false,"rental_uris":{"android":"levelo://app?vid=b8794c03-5124-4655-944a-93fe527b04c4","ios":"levelo://app?vid=b8794c03-5124-4655-944a-93fe527b04c4"},"vehicle_type_id":"4","last_reported":1748700509,"current_range_meters":8000,"station_id":"ce4bgup2rcd13ifvqcn0","pricing_plan_id":"cebpf4jnsgd1na2vs0mg"},{"bike_id":"0fbcf96c-7cdb-423c-93ad-185d4526270b","system_id":"levelo_inurba_marseille","lat":43.2863,"lon":5.35101,"is_reserved":false,"is_disabled":false,"rental_uris":{"android":"levelo://app?vid=0fbcf96c-7cdb-423c-93ad-185d4526270b","ios":"levelo://app?vid=0fbcf96c-7cdb-423c-93ad-185d4526270b"},"vehicle_type_id":"4","last_reported":1748700509,"current_range_meters":8400,"station_id":"ce4bhch2rcd13ifvqeug","pricing_plan_id":"cebpf4jnsgd1na2vs0mg"},{"bike_id":"ece32dfa-a05d-41b9-ac94-f1fe0c50baa9","system_id":"levelo_inurba_marseille","lat":43.2841,"lon":5.34976,"is_reserved":false,"is_disabled":false,"rental_uris":{"android":"levelo://app?vid=ece32dfa-a05d-41b9-ac94-f1fe0c50baa9","ios":"levelo://app?vid=ece32dfa-a05d-41b9-ac94-f1fe0c50baa9"},"vehicle_type_id":"4","last_reported":1748700509,"current_range_meters":8400,"station_id":"ce4bhbh2rcd13ifvqepg","pricing_plan_id":"cebpf4jnsgd1na2vs0mg"},{"bike_id":"4586f410-4e63-4f90-a68a-3285e65849dc","system_id":"levelo_inurba_marseille","lat":43.28671,"lon":5.38652,"is_reserved":false,"is_disabled":false,"rental_uris":{"android":"levelo://app?vid=4586f410-4e63-4f90-a68a-3285e65849dc","ios":"levelo://app?vid=4586f410-4e63-4f90-a68a-3285e65849dc"},"vehicle_type_id":"4","last_reported":1748700509,"current_range_meters":8000,"station_id":"ce4bh492rcd13ifvqdug","pricing_plan_id":"cebpf4jnsgd1na2vs0mg"},{"bike_id":"d02ba7d2-914d-425a-8b2a-f1259e1c2fbf","system_id":"levelo_inurba_marseille","lat":43.262284,"lon":5.404453,"is_reserved":false,"is_disabled":false,"rental_uris":{"android":"levelo://app?vid=d02ba7d2-914d-425a-8b2a-f1259e1c2fbf","ios":"levelo://app?vid=d02ba7d2-914d-425a-8b2a-f1259e1c2fbf"},"vehicle_type_id":"4","last_reported":1748700509,"current_range_meters":8400,"station_id":"ce4bhmh2rcd13ifvqgmg","pricing_plan_id":"cebpf4jnsgd1na2vs0mg"},{"bike_id":"029444e3-a148-4469-b824-2d6ab43d58a5","system_id":"levelo_inurba_marseille","lat":43.28706,"lon":5.36111,"is_reserved":false,"is_disabled":false,"rental_uris":{"android":"levelo://app?vid=029444e3-a148-4469-b824-2d6ab43d58a5","ios":"levelo://app?vid=029444e3-a148-4469-b824-2d6ab43d58a5"},"vehicle_type_id":"4","last_reported":1748700509,"current_range_meters":8800,"station_id":"cki0cbj6b192h4jlfktg","pricing_plan_id":"cebpf4jnsgd1na2vs0mg"},{"bike_id":"4e483317-2b83-4cd8-b3e9-e34602288985","system_id":"levelo_inurba_marseille","lat":43.29639,"lon":5.38087,"is_reserved":false,"is_disabled":false,"rental_uris":{"android":"levelo://app?vid=4e483317-2b83-4cd8-b3e9-e34602288985","ios":"levelo://app?vid=4e483317-2b83-4cd8-b3e9-e34602288985"},"vehicle_type_id":"4","last_reported":1748700509,"current_range_meters":9200,"station_id":"","pricing_plan_id":"cebpf4jnsgd1na2vs0mg"},{"bike_id":"d16f5222-3d1e-4d65-a992-1bc93f719178","system_id":"levelo_inurba_marseille","lat":43.30322,"lon":5.36583,"is_reserved":false,"is_disabled":false,"rental_uris":{"android":"levelo://app?vid=d16f5222-3d1e-4d65-a992-1bc93f719178","ios":"levelo://app?vid=d16f5222-3d1e-4d65-a992-1bc93f719178"},"vehicle_type_id":"4","last_reported":1748700509,"current_range_meters":8800,"station_id":"","pricing_plan_id":"cebpf4jnsgd1na2vs0mg"},{"bike_id":"d2277f78-bb28-4427-9974-c6795de51dff","system_id":"levelo_inurba_marseille","lat":43.28267,"lon":5.35071,"is_reserved":false,"is_disabled":false,"rental_uris":{"android":"levelo://app?vid=d2277f78-bb28-4427-9974-c6795de51dff","ios":"levelo://app?vid=d2277f78-bb28-4427-9974-c6795de51dff"},"vehicle_type_id":"4","last_reported":1748700509,"current_range_meters":8800,"station_id":"ce4bhbp2rcd13ifvqerg","pricing_plan_id":"cebpf4jnsgd1na2vs0mg"},{"bike_id":"e97de96a-eff0-46ab-966d-149aec2693b3","system_id":"levelo_inurba_marseille","lat":43.23176,"lon":5.39993,"is_reserved":false,"is_disabled":false,"rental_uris":{"android":"levelo://app?vid=e97de96a-eff0-46ab-966d-149aec2693b3","ios":"levelo://app?vid=e97de96a-eff0-46ab-966d-149aec2693b3"},"vehicle_type_id":"4","last_reported":1748700509,"current_range_meters":8800,"station_id":"ce4bhn12rcd13ifvqgqg","pricing_plan_id":"cebpf4jnsgd1na2vs0mg"},{"bike_id":"008a8b5c-da32-426f-bdcf-6db4c9f404d8","system_id":"levelo_inurba_marseille","lat":43.229367,"lon":5.353829,"is_reserved":false,"is_disabled":false,"rental_uris":{"android":"levelo://app?vid=008a8b5c-da32-426f-bdcf-6db4c9f404d8","ios":"levelo://app?vid=008a8b5c-da32-426f-bdcf-6db4c9f404d8"},"vehicle_type_id":"4","last_reported":1748700509,"current_range_meters":8800,"station_id":"cpo3532slgdg3j2ikp40","pricing_plan_id":"cebpf4jnsgd1na2vs0mg"},{"bike_id":"f9ed846d-1494-4c0c-8d90-d76b64c3cd5f","system_id":"levelo_inurba_marseille","lat":43.2848,"lon":5.3509,"is_reserved":false,"is_disabled":false,"rental_uris":{"android":"levelo://app?vid=f9ed846d-1494-4c0c-8d90-d76b64c3cd5f","ios":"levelo://app?vid=f9ed846d-1494-4c0c-8d90-d76b64c3cd5f"},"vehicle_type_id":"4","last_reported":1748700509,"current_range_meters":9200,"station_id":"","pricing_plan_id":"cebpf4jnsgd1na2vs0mg"},{"bike_id":"a672e2ce-ff65-491a-baf8-b5fcce4f4059","system_id":"levelo_inurba_marseille","lat":43.31717,"lon":5.39065,"is_reserved":false,"is_disabled":false,"rental_uris":{"android":"levelo://app?vid=a672e2ce-ff65-491a-baf8-b5fcce4f4059","ios":"levelo://app?vid=a672e2ce-ff65-491a-baf8-b5fcce4f4059"},"vehicle_type_id":"4","last_reported":1748700509,"current_range_meters":9200,"station_id":"","pricing_plan_id":"cebpf4jnsgd1na2vs0mg"},{"bike_id":"639bdcb6-ada5-42c0-a61e-3a4abf5db016","system_id":"levelo_inurba_marseille","lat":43.30795,"lon":5.3765,"is_reserved":false,"is_disabled":false,"rental_uris":{"android":"levelo://app?vid=639bdcb6-ada5-42c0-a61e-3a4abf5db016","ios":"levelo://app?vid=639bdcb6-ada5-42c0-a61e-3a4abf5db016"},"vehicle_type_id":"4","last_reported":1748700509,"current_range_meters":9200,"station_id":"ce4bgv92rcd13ifvqcq0","pricing_plan_id":"cebpf4jnsgd1na2vs0mg"},{"bike_id":"3d1c46f6-4edf-4333-9694-a8d754201811","system_id":"levelo_inurba_marseille","lat":43.28881,"lon":5.35832,"is_reserved":false,"is_disabled":false,"rental_uris":{"android":"levelo://app?vid=3d1c46f6-4edf-4333-9694-a8d754201811","ios":"levelo://app?vid=3d1c46f6-4edf-4333-9694-a8d754201811"},"vehicle_type_id":"4","last_reported":1748700509,"current_range_meters":9200,"station_id":"ce4bhb12rcd13ifvqem0","pricing_plan_id":"cebpf4jnsgd1na2vs0mg"},{"bike_id":"2386d5f3-e5e5-4bbc-9a9c-b268c1a186c0","system_id":"levelo_inurba_marseille","lat":43.229283,"lon":5.353839,"is_reserved":false,"is_disabled":false,"rental_uris":{"android":"levelo://app?vid=2386d5f3-e5e5-4bbc-9a9c-b268c1a186c0","ios":"levelo://app?vid=2386d5f3-e5e5-4bbc-9a9c-b268c1a186c0"},"vehicle_type_id":"4","last_reported":1748700509,"current_range_meters":9200,"station_id":"cpo3532slgdg3j2ikp40","pricing_plan_id":"cebpf4jnsgd1na2vs0mg"},{"bike_id":"d26fb07d-9d7b-407d-ae07-e65303c9cec1","system_id":"levelo_inurba_marseille","lat":43.2119,"lon":5.35075,"is_reserved":false,"is_disabled":false,"rental_uris":{"android":"levelo://app?vid=d26fb07d-9d7b-407d-ae07-e65303c9cec1","ios":"levelo://app?vid=d26fb07d-9d7b-407d-ae07-e65303c9cec1"},"vehicle_type_id":"4","last_reported":1748700509,"current_range_meters":9200,"station_id":"st_cvj6sg6p6f1abm77japg","pricing_plan_id":"cebpf4jnsgd1na2vs0mg"},{"bike_id":"7a9aa3ce-61d3-42ca-8daa-e3d734a41c89","system_id":"levelo_inurba_marseille","lat":43.23187,"lon":5.35552,"is_reserved":false,"is_disabled":false,"rental_uris":{"android":"levelo://app?vid=7a9aa3ce-61d3-42ca-8daa-e3d734a41c89","ios":"levelo://app?vid=7a9aa3ce-61d3-42ca-8daa-e3d734a41c89"},"vehicle_type_id":"4","last_reported":1748700509,"current_range_meters":9200,"station_id":"ce4bhu92rcd13ifvqi70","pricing_plan_id":"cebpf4jnsgd1na2vs0mg"},{"bike_id":"76a945ba-9ba8-414f-963a-73e1a106e0fc","system_id":"levelo_inurba_marseille","lat":43.26228,"lon":5.40446,"is_reserved":false,"is_disabled":false,"rental_uris":{"android":"levelo://app?vid=76a945ba-9ba8-414f-963a-73e1a106e0fc","ios":"levelo://app?vid=76a945ba-9ba8-414f-963a-73e1a106e0fc"},"vehicle_type_id":"4","last_reported":1748700509,"current_range_meters":9200,"station_id":"ce4bhmh2rcd13ifvqgmg","pricing_plan_id":"cebpf4jnsgd1na2vs0mg"},{"bike_id":"b4e5fa44-6f76-4f25-a1b2-86bf2a87fcff","system_id":"levelo_inurba_marseille","lat":43.3054,"lon":5.36561,"is_reserved":false,"is_disabled":false,"rental_uris":{"android":"levelo://app?vid=b4e5fa44-6f76-4f25-a1b2-86bf2a87fcff","ios":"levelo://app?vid=b4e5fa44-6f76-4f25-a1b2-86bf2a87fcff"},"vehicle_type_id":"4","last_reported":1748700509,"current_range_meters":9200,"station_id":"ce4bgs12rcd13ifvqcag","pricing_plan_id":"cebpf4jnsgd1na2vs0mg"},{"bike_id":"f0012670-04e8-44ad-ae17-5630e3d7eeb8","system_id":"levelo_inurba_marseille","lat":43.23189,"lon":5.39999,"is_reserved":false,"is_disabled":false,"rental_uris":{"android":"levelo://app?vid=f0012670-04e8-44ad-ae17-5630e3d7eeb8","ios":"levelo://app?vid=f0012670-04e8-44ad-ae17-5630e3d7eeb8"},"vehicle_type_id":"4","last_reported":1748700509,"current_range_meters":9200,"station_id":"ce4bhn12rcd13ifvqgqg","pricing_plan_id":"cebpf4jnsgd1na2vs0mg"},{"bike_id":"f61266f9-9ef3-44c7-b1fc-8a9106712a53","system_id":"levelo_inurba_marseille","lat":43.21766,"lon":5.34596,"is_reserved":false,"is_disabled":false,"rental_uris":{"android":"levelo://app?vid=f61266f9-9ef3-44c7-b1fc-8a9106712a53","ios":"levelo://app?vid=f61266f9-9ef3-44c7-b1fc-8a9106712a53"},"vehicle_type_id":"4","last_reported":1748700509,"current_range_meters":9600,"station_id":"st_cvj6r9ubvosntc0bgbag","pricing_plan_id":"cebpf4jnsgd1na2vs0mg"},{"bike_id":"197d82d9-f0c2-4685-b79f-7dd37e02bf7e","system_id":"levelo_inurba_marseille","lat":43.29966,"lon":5.37177,"is_reserved":false,"is_disabled":false,"rental_uris":{"android":"levelo://app?vid=197d82d9-f0c2-4685-b79f-7dd37e02bf7e","ios":"levelo://app?vid=197d82d9-f0c2-4685-b79f-7dd37e02bf7e"},"vehicle_type_id":"4","last_reported":1748700509,"current_range_meters":9200,"station_id":"","pricing_plan_id":"cebpf4jnsgd1na2vs0mg"},{"bike_id":"613d7d93-0b11-4d37-a557-66c3f7300104","system_id":"levelo_inurba_marseille","lat":43.293941,"lon":5.374925,"is_reserved":false,"is_disabled":false,"rental_uris":{"android":"levelo://app?vid=613d7d93-0b11-4d37-a557-66c3f7300104","ios":"levelo://app?vid=613d7d93-0b11-4d37-a557-66c3f7300104"},"vehicle_type_id":"4","last_reported":1748700509,"current_range_meters":9200,"station_id":"ce4bgl12rcd13ifvqbo0","pricing_plan_id":"cebpf4jnsgd1na2vs0mg"},{"bike_id":"ae6c791c-2c1a-4ec2-9485-a2b01993edfa","system_id":"levelo_inurba_marseille","lat":43.27311,"lon":5.3909,"is_reserved":false,"is_disabled":false,"rental_uris":{"android":"levelo://app?vid=ae6c791c-2c1a-4ec2-9485-a2b01993edfa","ios":"levelo://app?vid=ae6c791c-2c1a-4ec2-9485-a2b01993edfa"},"vehicle_type_id":"4","last_reported":1748700509,"current_range_meters":9600,"station_id":"ce4bhgp2rcd13ifvqfe0","pricing_plan_id":"cebpf4jnsgd1na2vs0mg"},{"bike_id":"40d4f79e-dc8e-4432-97f7-947d74aa4d70","system_id":"levelo_inurba_marseille","lat":43.28405,"lon":5.35008,"is_reserved":false,"is_disabled":false,"rental_uris":{"android":"levelo://app?vid=40d4f79e-dc8e-4432-97f7-947d74aa4d70","ios":"levelo://app?vid=40d4f79e-dc8e-4432-97f7-947d74aa4d70"},"vehicle_type_id":"4","last_reported":1748700509,"current_range_meters":9600,"station_id":"ce4bhbh2rcd13ifvqepg","pricing_plan_id":"cebpf4jnsgd1na2vs0mg"},{"bike_id":"95cd80fa-c2e5-401c-95da-632e1df7bbde","system_id":"levelo_inurba_marseille","lat":43.23151,"lon":5.43706,"is_reserved":false,"is_disabled":false,"rental_uris":{"android":"levelo://app?vid=95cd80fa-c2e5-401c-95da-632e1df7bbde","ios":"levelo://app?vid=95cd80fa-c2e5-401c-95da-632e1df7bbde"},"vehicle_type_id":"4","last_reported":1748700509,"current_range_meters":10000,"station_id":"ce4bhmp2rcd13ifvqgog","pricing_plan_id":"cebpf4jnsgd1na2vs0mg"},{"bike_id":"8f14a2a2-d6e4-4ea9-94cd-f45f06f3a439","system_id":"levelo_inurba_marseille","lat":43.23278,"lon":5.3569,"is_reserved":false,"is_disabled":false,"rental_uris":{"android":"levelo://app?vid=8f14a2a2-d6e4-4ea9-94cd-f45f06f3a439","ios":"levelo://app?vid=8f14a2a2-d6e4-4ea9-94cd-f45f06f3a439"},"vehicle_type_id":"4","last_reported":1748700509,"current_range_meters":10000,"station_id":"","pricing_plan_id":"cebpf4jnsgd1na2vs0mg"},{"bike_id":"392a68ac-fff4-45ac-8bf1-87ec938f1cf5","system_id":"levelo_inurba_marseille","lat":43.23206,"lon":5.35543,"is_reserved":false,"is_disabled":false,"rental_uris":{"android":"levelo://app?vid=392a68ac-fff4-45ac-8bf1-87ec938f1cf5","ios":"levelo://app?vid=392a68ac-fff4-45ac-8bf1-87ec938f1cf5"},"vehicle_type_id":"4","last_reported":1748700509,"current_range_meters":10000,"station_id":"ce4bhu92rcd13ifvqi70","pricing_plan_id":"cebpf4jnsgd1na2vs0mg"},{"bike_id":"98c2806c-b507-46a6-b3e4-083401463953","system_id":"levelo_inurba_marseille","lat":43.28616,"lon":5.35116,"is_reserved":false,"is_disabled":false,"rental_uris":{"android":"levelo://app?vid=98c2806c-b507-46a6-b3e4-083401463953","ios":"levelo://app?vid=98c2806c-b507-46a6-b3e4-083401463953"},"vehicle_type_id":"4","last_reported":1748700509,"current_range_meters":10000,"station_id":"ce4bhch2rcd13ifvqeug","pricing_plan_id":"cebpf4jnsgd1na2vs0mg"},{"bike_id":"554f873a-ae93-4a7c-a37c-105a1854f787","system_id":"levelo_inurba_marseille","lat":43.25502,"lon":5.37646,"is_reserved":false,"is_disabled":false,"rental_uris":{"android":"levelo://app?vid=554f873a-ae93-4a7c-a37c-105a1854f787","ios":"levelo://app?vid=554f873a-ae93-4a7c-a37c-105a1854f787"},"vehicle_type_id":"4","last_reported":1748700509,"current_range_meters":10000,"station_id":"ce4bhh12rcd13ifvqff0","pricing_plan_id":"cebpf4jnsgd1na2vs0mg"},{"bike_id":"9c35a4e5-0c2c-4fd2-91a9-0fbeab4c095f","system_id":"levelo_inurba_marseille","lat":43.273847,"lon":5.362647,"is_reserved":false,"is_disabled":false,"rental_uris":{"android":"levelo://app?vid=9c35a4e5-0c2c-4fd2-91a9-0fbeab4c095f","ios":"levelo://app?vid=9c35a4e5-0c2c-4fd2-91a9-0fbeab4c095f"},"vehicle_type_id":"4","last_reported":1748700509,"current_range_meters":10000,"station_id":"ce4bhbh2rcd13ifvqeo0","pricing_plan_id":"cebpf4jnsgd1na2vs0mg"},{"bike_id":"90661731-e0ab-494e-b197-0ad194ea14f4","system_id":"levelo_inurba_marseille","lat":43.26959,"lon":5.40295,"is_reserved":false,"is_disabled":false,"rental_uris":{"android":"levelo://app?vid=90661731-e0ab-494e-b197-0ad194ea14f4","ios":"levelo://app?vid=90661731-e0ab-494e-b197-0ad194ea14f4"},"vehicle_type_id":"4","last_reported":1748700509,"current_range_meters":10000,"station_id":"cjm6bp8fraef2m0cb0m0","pricing_plan_id":"cebpf4jnsgd1na2vs0mg"},{"bike_id":"9e7b81de-2954-4112-9795-21ac70a392a1","system_id":"levelo_inurba_marseille","lat":43.30804,"lon":5.43521,"is_reserved":false,"is_disabled":false,"rental_uris":{"android":"levelo://app?vid=9e7b81de-2954-4112-9795-21ac70a392a1","ios":"levelo://app?vid=9e7b81de-2954-4112-9795-21ac70a392a1"},"vehicle_type_id":"4","last_reported":1748700509,"current_range_meters":10000,"station_id":"ce4bhph2rcd13ifvqheg","pricing_plan_id":"cebpf4jnsgd1na2vs0mg"},{"bike_id":"8d48119e-760e-4c00-b401-59af0a322afa","system_id":"levelo_inurba_marseille","lat":43.25648,"lon":5.40866,"is_reserved":false,"is_disabled":false,"rental_uris":{"android":"levelo://app?vid=8d48119e-760e-4c00-b401-59af0a322afa","ios":"levelo://app?vid=8d48119e-760e-4c00-b401-59af0a322afa"},"vehicle_type_id":"4","last_reported":1748700509,"current_range_meters":10000,"station_id":"","pricing_plan_id":"cebpf4jnsgd1na2vs0mg"},{"bike_id":"ba9ed30e-efbd-4c72-b321-c5654d5b8ca1","system_id":"levelo_inurba_marseille","lat":43.22933,"lon":5.35375,"is_reserved":false,"is_disabled":false,"rental_uris":{"android":"levelo://app?vid=ba9ed30e-efbd-4c72-b321-c5654d5b8ca1","ios":"levelo://app?vid=ba9ed30e-efbd-4c72-b321-c5654d5b8ca1"},"vehicle_type_id":"4","last_reported":1748700509,"current_range_meters":10000,"station_id":"cpo3532slgdg3j2ikp40","pricing_plan_id":"cebpf4jnsgd1na2vs0mg"},{"bike_id":"26d757ab-5901-4d3b-b68e-1945cba49fe6","system_id":"levelo_inurba_marseille","lat":43.2694,"lon":5.40297,"is_reserved":false,"is_disabled":false,"rental_uris":{"android":"levelo://app?vid=26d757ab-5901-4d3b-b68e-1945cba49fe6","ios":"levelo://app?vid=26d757ab-5901-4d3b-b68e-1945cba49fe6"},"vehicle_type_id":"4","last_reported":1748700509,"current_range_meters":10000,"station_id":"cjm6bp8fraef2m0cb0m0","pricing_plan_id":"cebpf4jnsgd1na2vs0mg"},{"bike_id":"b18036e4-cdbb-441f-a4f1-99c9cdbece34","system_id":"levelo_inurba_marseille","lat":43.294946,"lon":5.390731,"is_reserved":false,"is_disabled":false,"rental_uris":{"android":"levelo://app?vid=b18036e4-cdbb-441f-a4f1-99c9cdbece34","ios":"levelo://app?vid=b18036e4-cdbb-441f-a4f1-99c9cdbece34"},"vehicle_type_id":"4","last_reported":1748700509,"current_range_meters":10000,"station_id":"ce4bh3p2rcd13ifvqdp0","pricing_plan_id":"cebpf4jnsgd1na2vs0mg"},{"bike_id":"f4431ae7-57a2-44b7-b0f4-0bd0d29a42ab","system_id":"levelo_inurba_marseille","lat":43.26938,"lon":5.40261,"is_reserved":false,"is_disabled":false,"rental_uris":{"android":"levelo://app?vid=f4431ae7-57a2-44b7-b0f4-0bd0d29a42ab","ios":"levelo://app?vid=f4431ae7-57a2-44b7-b0f4-0bd0d29a42ab"},"vehicle_type_id":"4","last_reported":1748700509,"current_range_meters":10800,"station_id":"cjm6bp8fraef2m0cb0m0","pricing_plan_id":"cebpf4jnsgd1na2vs0mg"},{"bike_id":"b28abc00-7db7-4211-9853-5715e0eeb4ff","system_id":"levelo_inurba_marseille","lat":43.27065,"lon":5.40266,"is_reserved":false,"is_disabled":false,"rental_uris":{"android":"levelo://app?vid=b28abc00-7db7-4211-9853-5715e0eeb4ff","ios":"levelo://app?vid=b28abc00-7db7-4211-9853-5715e0eeb4ff"},"vehicle_type_id":"4","last_reported":1748700509,"current_range_meters":10800,"station_id":"ce4bhk92rcd13ifvqgc0","pricing_plan_id":"cebpf4jnsgd1na2vs0mg"},{"bike_id":"0d3bab2f-26cf-41f1-82dd-bb5db963b288","system_id":"levelo_inurba_marseille","lat":43.32542,"lon":5.36483,"is_reserved":false,"is_disabled":true,"rental_uris":{"android":"levelo://app?vid=0d3bab2f-26cf-41f1-82dd-bb5db963b288","ios":"levelo://app?vid=0d3bab2f-26cf-41f1-82dd-bb5db963b288"},"vehicle_type_id":"4","last_reported":1748700509,"current_range_meters":10800,"station_id":"","pricing_plan_id":"cebpf4jnsgd1na2vs0mg"},{"bike_id":"c8a661e7-5f06-4934-a12e-06eadb89a075","system_id":"levelo_inurba_marseille","lat":43.292655,"lon":5.376383,"is_reserved":false,"is_disabled":false,"rental_uris":{"android":"levelo://app?vid=c8a661e7-5f06-4934-a12e-06eadb89a075","ios":"levelo://app?vid=c8a661e7-5f06-4934-a12e-06eadb89a075"},"vehicle_type_id":"4","last_reported":1748700509,"current_range_meters":10800,"station_id":"ce4bgi12rcd13ifvqb80","pricing_plan_id":"cebpf4jnsgd1na2vs0mg"},{"bike_id":"6dbec55b-fee0-4a3a-9ed2-723f9ae1c783","system_id":"levelo_inurba_marseille","lat":43.29906,"lon":5.43679,"is_reserved":false,"is_disabled":true,"rental_uris":{"android":"levelo://app?vid=6dbec55b-fee0-4a3a-9ed2-723f9ae1c783","ios":"levelo://app?vid=6dbec55b-fee0-4a3a-9ed2-723f9ae1c783"},"vehicle_type_id":"4","last_reported":1748700509,"current_range_meters":11200,"station_id":"ce4bhpp2rcd13ifvqhfg","pricing_plan_id":"cebpf4jnsgd1na2vs0mg"},{"bike_id":"c576df7b-decb-4040-9f20-7c78d9b8bf5c","system_id":"levelo_inurba_marseille","lat":43.29839,"lon":5.36252,"is_reserved":false,"is_disabled":false,"rental_uris":{"android":"levelo://app?vid=c576df7b-decb-4040-9f20-7c78d9b8bf5c","ios":"levelo://app?vid=c576df7b-decb-4040-9f20-7c78d9b8bf5c"},"vehicle_type_id":"4","last_reported":1748700509,"current_range_meters":11200,"station_id":"ce4bgpp2rcd13ifvqc3g","pricing_plan_id":"cebpf4jnsgd1na2vs0mg"},{"bike_id":"83cafd98-1106-4008-8f73-394b2d3fd728","system_id":"levelo_inurba_marseille","lat":43.290955,"lon":5.381265,"is_reserved":false,"is_disabled":false,"rental_uris":{"android":"levelo://app?vid=83cafd98-1106-4008-8f73-394b2d3fd728","ios":"levelo://app?vid=83cafd98-1106-4008-8f73-394b2d3fd728"},"vehicle_type_id":"4","last_reported":1748700509,"current_range_meters":11200,"station_id":"ce4bh512rcd13ifvqe2g","pricing_plan_id":"cebpf4jnsgd1na2vs0mg"},{"bike_id":"821fb251-704c-4b1f-acb8-97e30925ec62","system_id":"levelo_inurba_marseille","lat":43.24804,"lon":5.37458,"is_reserved":false,"is_disabled":false,"rental_uris":{"android":"levelo://app?vid=821fb251-704c-4b1f-acb8-97e30925ec62","ios":"levelo://app?vid=821fb251-704c-4b1f-acb8-97e30925ec62"},"vehicle_type_id":"4","last_reported":1748700509,"current_range_meters":10800,"station_id":"ce4bhgh2rcd13ifvqfb0","pricing_plan_id":"cebpf4jnsgd1na2vs0mg"},{"bike_id":"70a6db2d-83b3-48ee-b09e-79f00c1ff217","system_id":"levelo_inurba_marseille","lat":43.21742,"lon":5.34592,"is_reserved":false,"is_disabled":false,"rental_uris":{"android":"levelo://app?vid=70a6db2d-83b3-48ee-b09e-79f00c1ff217","ios":"levelo://app?vid=70a6db2d-83b3-48ee-b09e-79f00c1ff217"},"vehicle_type_id":"4","last_reported":1748700509,"current_range_meters":11200,"station_id":"st_cvj6r9ubvosntc0bgbag","pricing_plan_id":"cebpf4jnsgd1na2vs0mg"},{"bike_id":"dfc6964a-7e15-4f5d-9faf-f56504505ccd","system_id":"levelo_inurba_marseille","lat":43.24165,"lon":5.36387,"is_reserved":false,"is_disabled":false,"rental_uris":{"android":"levelo://app?vid=dfc6964a-7e15-4f5d-9faf-f56504505ccd","ios":"levelo://app?vid=dfc6964a-7e15-4f5d-9faf-f56504505ccd"},"vehicle_type_id":"4","last_reported":1748700509,"current_range_meters":11200,"station_id":"cpo36qri1sfpv3e86is0","pricing_plan_id":"cebpf4jnsgd1na2vs0mg"},{"bike_id":"c2a36aec-ceca-4b42-b302-c21d7515ea36","system_id":"levelo_inurba_marseille","lat":43.28848,"lon":5.39331,"is_reserved":false,"is_disabled":false,"rental_uris":{"android":"levelo://app?vid=c2a36aec-ceca-4b42-b302-c21d7515ea36","ios":"levelo://app?vid=c2a36aec-ceca-4b42-b302-c21d7515ea36"},"vehicle_type_id":"4","last_reported":1748700509,"current_range_meters":11200,"station_id":"ce4bh2p2rcd13ifvqdi0","pricing_plan_id":"cebpf4jnsgd1na2vs0mg"},{"bike_id":"934904aa-b6fe-443c-8d85-9d5ac099efe4","system_id":"levelo_inurba_marseille","lat":43.21752,"lon":5.34618,"is_reserved":false,"is_disabled":false,"rental_uris":{"android":"levelo://app?vid=934904aa-b6fe-443c-8d85-9d5ac099efe4","ios":"levelo://app?vid=934904aa-b6fe-443c-8d85-9d5ac099efe4"},"vehicle_type_id":"4","last_reported":1748700509,"current_range_meters":11200,"station_id":"st_cvj6r9ubvosntc0bgbag","pricing_plan_id":"cebpf4jnsgd1na2vs0mg"},{"bike_id":"965f07d7-e957-45ef-953c-8871a1c8c78d","system_id":"levelo_inurba_marseille","lat":43.231939,"lon":5.355533,"is_reserved":false,"is_disabled":false,"rental_uris":{"android":"levelo://app?vid=965f07d7-e957-45ef-953c-8871a1c8c78d","ios":"levelo://app?vid=965f07d7-e957-45ef-953c-8871a1c8c78d"},"vehicle_type_id":"4","last_reported":1748700509,"current_range_meters":11200,"station_id":"ce4bhu92rcd13ifvqi70","pricing_plan_id":"cebpf4jnsgd1na2vs0mg"},{"bike_id":"40d1ccd5-f7b2-4303-afe2-e83d3e04d745","system_id":"levelo_inurba_marseille","lat":43.23184,"lon":5.39989,"is_reserved":false,"is_disabled":false,"rental_uris":{"android":"levelo://app?vid=40d1ccd5-f7b2-4303-afe2-e83d3e04d745","ios":"levelo://app?vid=40d1ccd5-f7b2-4303-afe2-e83d3e04d745"},"vehicle_type_id":"4","last_reported":1748700509,"current_range_meters":11600,"station_id":"ce4bhn12rcd13ifvqgqg","pricing_plan_id":"cebpf4jnsgd1na2vs0mg"},{"bike_id":"ae3a96aa-7fa6-448e-9c4d-ab1bd9dd3796","system_id":"levelo_inurba_marseille","lat":43.25119,"lon":5.40332,"is_reserved":false,"is_disabled":false,"rental_uris":{"android":"levelo://app?vid=ae3a96aa-7fa6-448e-9c4d-ab1bd9dd3796","ios":"levelo://app?vid=ae3a96aa-7fa6-448e-9c4d-ab1bd9dd3796"},"vehicle_type_id":"4","last_reported":1748700509,"current_range_meters":11600,"station_id":"ce4bhlh2rcd13ifvqgig","pricing_plan_id":"cebpf4jnsgd1na2vs0mg"},{"bike_id":"64cf353f-19e3-471a-967a-1db6c105965f","system_id":"levelo_inurba_marseille","lat":43.28609,"lon":5.35103,"is_reserved":false,"is_disabled":false,"rental_uris":{"android":"levelo://app?vid=64cf353f-19e3-471a-967a-1db6c105965f","ios":"levelo://app?vid=64cf353f-19e3-471a-967a-1db6c105965f"},"vehicle_type_id":"4","last_reported":1748700509,"current_range_meters":11600,"station_id":"ce4bhch2rcd13ifvqeug","pricing_plan_id":"cebpf4jnsgd1na2vs0mg"},{"bike_id":"0eeb8d78-4e09-4917-a0f6-a855cf66389e","system_id":"levelo_inurba_marseille","lat":43.30727,"lon":5.42434,"is_reserved":false,"is_disabled":false,"rental_uris":{"android":"levelo://app?vid=0eeb8d78-4e09-4917-a0f6-a855cf66389e","ios":"levelo://app?vid=0eeb8d78-4e09-4917-a0f6-a855cf66389e"},"vehicle_type_id":"4","last_reported":1748700509,"current_range_meters":11600,"station_id":"st_cvj6ca6bvosntc0bfgr0","pricing_plan_id":"cebpf4jnsgd1na2vs0mg"},{"bike_id":"225b1087-09d5-4343-8d7e-d3341e7964d4","system_id":"levelo_inurba_marseille","lat":43.25493,"lon":5.37648,"is_reserved":false,"is_disabled":false,"rental_uris":{"android":"levelo://app?vid=225b1087-09d5-4343-8d7e-d3341e7964d4","ios":"levelo://app?vid=225b1087-09d5-4343-8d7e-d3341e7964d4"},"vehicle_type_id":"4","last_reported":1748700509,"current_range_meters":11200,"station_id":"ce4bhh12rcd13ifvqff0","pricing_plan_id":"cebpf4jnsgd1na2vs0mg"},{"bike_id":"21a1de69-0ec9-455a-9c88-b4c418d0dfa4","system_id":"levelo_inurba_marseille","lat":43.26209,"lon":5.37438,"is_reserved":false,"is_disabled":false,"rental_uris":{"android":"levelo://app?vid=21a1de69-0ec9-455a-9c88-b4c418d0dfa4","ios":"levelo://app?vid=21a1de69-0ec9-455a-9c88-b4c418d0dfa4"},"vehicle_type_id":"4","last_reported":1748700509,"current_range_meters":11600,"station_id":"ce4bhgp2rcd13ifvqfc0","pricing_plan_id":"cebpf4jnsgd1na2vs0mg"},{"bike_id":"d2c655d4-e408-4f55-a6ed-747e95c58640","system_id":"levelo_inurba_marseille","lat":43.26187,"lon":5.37452,"is_reserved":false,"is_disabled":false,"rental_uris":{"android":"levelo://app?vid=d2c655d4-e408-4f55-a6ed-747e95c58640","ios":"levelo://app?vid=d2c655d4-e408-4f55-a6ed-747e95c58640"},"vehicle_type_id":"4","last_reported":1748700509,"current_range_meters":11600,"station_id":"ce4bhgp2rcd13ifvqfc0","pricing_plan_id":"cebpf4jnsgd1na2vs0mg"},{"bike_id":"ca45ae50-8fdf-43fd-8443-30c134198d86","system_id":"levelo_inurba_marseille","lat":43.2656,"lon":5.40306,"is_reserved":false,"is_disabled":false,"rental_uris":{"android":"levelo://app?vid=ca45ae50-8fdf-43fd-8443-30c134198d86","ios":"levelo://app?vid=ca45ae50-8fdf-43fd-8443-30c134198d86"},"vehicle_type_id":"4","last_reported":1748700509,"current_range_meters":11600,"station_id":"","pricing_plan_id":"cebpf4jnsgd1na2vs0mg"},{"bike_id":"a13950c4-8a4d-465e-a616-e6e42de8a0fd","system_id":"levelo_inurba_marseille","lat":43.26935,"lon":5.38918,"is_reserved":false,"is_disabled":false,"rental_uris":{"android":"levelo://app?vid=a13950c4-8a4d-465e-a616-e6e42de8a0fd","ios":"levelo://app?vid=a13950c4-8a4d-465e-a616-e6e42de8a0fd"},"vehicle_type_id":"4","last_reported":1748700509,"current_range_meters":12000,"station_id":"ce4bhhh2rcd13ifvqfl0","pricing_plan_id":"cebpf4jnsgd1na2vs0mg"},{"bike_id":"a7bc0857-ba13-43fa-9be2-c26b232e5a26","system_id":"levelo_inurba_marseille","lat":43.25952,"lon":5.40909,"is_reserved":false,"is_disabled":false,"rental_uris":{"android":"levelo://app?vid=a7bc0857-ba13-43fa-9be2-c26b232e5a26","ios":"levelo://app?vid=a7bc0857-ba13-43fa-9be2-c26b232e5a26"},"vehicle_type_id":"4","last_reported":1748700509,"current_range_meters":12000,"station_id":"ce4bhm92rcd13ifvqglg","pricing_plan_id":"cebpf4jnsgd1na2vs0mg"},{"bike_id":"0a9ffdd7-c167-4d81-8c08-db4e255360a4","system_id":"levelo_inurba_marseille","lat":43.27997,"lon":5.40028,"is_reserved":false,"is_disabled":false,"rental_uris":{"android":"levelo://app?vid=0a9ffdd7-c167-4d81-8c08-db4e255360a4","ios":"levelo://app?vid=0a9ffdd7-c167-4d81-8c08-db4e255360a4"},"vehicle_type_id":"4","last_reported":1748700509,"current_range_meters":12000,"station_id":"ce4bho92rcd13ifvqh4g","pricing_plan_id":"cebpf4jnsgd1na2vs0mg"},{"bike_id":"03c1751e-ef60-4175-a52f-4759bb9df88b","system_id":"levelo_inurba_marseille","lat":43.27918,"lon":5.38757,"is_reserved":false,"is_disabled":false,"rental_uris":{"android":"levelo://app?vid=03c1751e-ef60-4175-a52f-4759bb9df88b","ios":"levelo://app?vid=03c1751e-ef60-4175-a52f-4759bb9df88b"},"vehicle_type_id":"4","last_reported":1748700509,"current_range_meters":12000,"station_id":"","pricing_plan_id":"cebpf4jnsgd1na2vs0mg"},{"bike_id":"0d6feda7-b91d-45b9-88d0-23787f2c4f40","system_id":"levelo_inurba_marseille","lat":43.23962,"lon":5.36634,"is_reserved":false,"is_disabled":false,"rental_uris":{"android":"levelo://app?vid=0d6feda7-b91d-45b9-88d0-23787f2c4f40","ios":"levelo://app?vid=0d6feda7-b91d-45b9-88d0-23787f2c4f40"},"vehicle_type_id":"4","last_reported":1748700509,"current_range_meters":12400,"station_id":"ce4bhi12rcd13ifvqfp0","pricing_plan_id":"cebpf4jnsgd1na2vs0mg"},{"bike_id":"ca98871e-fca4-4302-ba19-b56f78bfbba8","system_id":"levelo_inurba_marseille","lat":43.26207,"lon":5.37441,"is_reserved":false,"is_disabled":false,"rental_uris":{"android":"levelo://app?vid=ca98871e-fca4-4302-ba19-b56f78bfbba8","ios":"levelo://app?vid=ca98871e-fca4-4302-ba19-b56f78bfbba8"},"vehicle_type_id":"4","last_reported":1748700509,"current_range_meters":12400,"station_id":"ce4bhgp2rcd13ifvqfc0","pricing_plan_id":"cebpf4jnsgd1na2vs0mg"},{"bike_id":"db7a65be-52ab-4168-b3ee-be788bf65690","system_id":"levelo_inurba_marseille","lat":43.28725,"lon":5.37924,"is_reserved":false,"is_disabled":false,"rental_uris":{"android":"levelo://app?vid=db7a65be-52ab-4168-b3ee-be788bf65690","ios":"levelo://app?vid=db7a65be-52ab-4168-b3ee-be788bf65690"},"vehicle_type_id":"4","last_reported":1748700509,"current_range_meters":12000,"station_id":"ce4bh9p2rcd13ifvqec0","pricing_plan_id":"cebpf4jnsgd1na2vs0mg"},{"bike_id":"c9a8ab5e-4f64-4e9c-8db2-4dbad5a71d1d","system_id":"levelo_inurba_marseille","lat":43.21755,"lon":5.34593,"is_reserved":false,"is_disabled":false,"rental_uris":{"android":"levelo://app?vid=c9a8ab5e-4f64-4e9c-8db2-4dbad5a71d1d","ios":"levelo://app?vid=c9a8ab5e-4f64-4e9c-8db2-4dbad5a71d1d"},"vehicle_type_id":"4","last_reported":1748700509,"current_range_meters":12400,"station_id":"st_cvj6r9ubvosntc0bgbag","pricing_plan_id":"cebpf4jnsgd1na2vs0mg"},{"bike_id":"e6bf0c37-d2a0-4cf7-bda5-bdec7e2a1f23","system_id":"levelo_inurba_marseille","lat":43.32285,"lon":5.38295,"is_reserved":false,"is_disabled":false,"rental_uris":{"android":"levelo://app?vid=e6bf0c37-d2a0-4cf7-bda5-bdec7e2a1f23","ios":"levelo://app?vid=e6bf0c37-d2a0-4cf7-bda5-bdec7e2a1f23"},"vehicle_type_id":"4","last_reported":1748700509,"current_range_meters":12800,"station_id":"ce4bhr12rcd13ifvqhqg","pricing_plan_id":"cebpf4jnsgd1na2vs0mg"},{"bike_id":"26912fd1-ccd3-4d3d-bd4f-968632c2e5ce","system_id":"levelo_inurba_marseille","lat":43.28044,"lon":5.35091,"is_reserved":false,"is_disabled":false,"rental_uris":{"android":"levelo://app?vid=26912fd1-ccd3-4d3d-bd4f-968632c2e5ce","ios":"levelo://app?vid=26912fd1-ccd3-4d3d-bd4f-968632c2e5ce"},"vehicle_type_id":"4","last_reported":1748700509,"current_range_meters":12800,"station_id":"","pricing_plan_id":"cebpf4jnsgd1na2vs0mg"},{"bike_id":"b22606a5-c81e-4282-81ce-639e9922bf96","system_id":"levelo_inurba_marseille","lat":43.26063,"lon":5.39394,"is_reserved":false,"is_disabled":false,"rental_uris":{"android":"levelo://app?vid=b22606a5-c81e-4282-81ce-639e9922bf96","ios":"levelo://app?vid=b22606a5-c81e-4282-81ce-639e9922bf96"},"vehicle_type_id":"4","last_reported":1748700509,"current_range_meters":12800,"station_id":"ce4bhh92rcd13ifvqfj0","pricing_plan_id":"cebpf4jnsgd1na2vs0mg"},{"bike_id":"85b57ead-8a3b-4148-81a7-7994880056e9","system_id":"levelo_inurba_marseille","lat":43.217479,"lon":5.346026,"is_reserved":false,"is_disabled":false,"rental_uris":{"android":"levelo://app?vid=85b57ead-8a3b-4148-81a7-7994880056e9","ios":"levelo://app?vid=85b57ead-8a3b-4148-81a7-7994880056e9"},"vehicle_type_id":"4","last_reported":1748700509,"current_range_meters":12800,"station_id":"st_cvj6r9ubvosntc0bgbag","pricing_plan_id":"cebpf4jnsgd1na2vs0mg"},{"bike_id":"ed6a4f98-f40b-4eeb-a8a2-624fb4e80748","system_id":"levelo_inurba_marseille","lat":43.262329,"lon":5.374321,"is_reserved":false,"is_disabled":false,"rental_uris":{"android":"levelo://app?vid=ed6a4f98-f40b-4eeb-a8a2-624fb4e80748","ios":"levelo://app?vid=ed6a4f98-f40b-4eeb-a8a2-624fb4e80748"},"vehicle_type_id":"4","last_reported":1748700509,"current_range_meters":12800,"station_id":"ce4bhg12rcd13ifvqf70","pricing_plan_id":"cebpf4jnsgd1na2vs0mg"},{"bike_id":"e6901d81-8f28-4d7d-9700-121d525d1548","system_id":"levelo_inurba_marseille","lat":43.21755,"lon":5.34608,"is_reserved":false,"is_disabled":false,"rental_uris":{"android":"levelo://app?vid=e6901d81-8f28-4d7d-9700-121d525d1548","ios":"levelo://app?vid=e6901d81-8f28-4d7d-9700-121d525d1548"},"vehicle_type_id":"4","last_reported":1748700509,"current_range_meters":12800,"station_id":"st_cvj6r9ubvosntc0bgbag","pricing_plan_id":"cebpf4jnsgd1na2vs0mg"},{"bike_id":"b4a389d7-474d-4a9d-8dec-223a88612b5c","system_id":"levelo_inurba_marseille","lat":43.24994,"lon":5.37948,"is_reserved":false,"is_disabled":false,"rental_uris":{"android":"levelo://app?vid=b4a389d7-474d-4a9d-8dec-223a88612b5c","ios":"levelo://app?vid=b4a389d7-474d-4a9d-8dec-223a88612b5c"},"vehicle_type_id":"4","last_reported":1748700509,"current_range_meters":13600,"station_id":"","pricing_plan_id":"cebpf4jnsgd1na2vs0mg"},{"bike_id":"bef96db7-48d8-4f30-8db3-5f0291ef01df","system_id":"levelo_inurba_marseille","lat":43.217447,"lon":5.346103,"is_reserved":false,"is_disabled":false,"rental_uris":{"android":"levelo://app?vid=bef96db7-48d8-4f30-8db3-5f0291ef01df","ios":"levelo://app?vid=bef96db7-48d8-4f30-8db3-5f0291ef01df"},"vehicle_type_id":"4","last_reported":1748700509,"current_range_meters":13600,"station_id":"st_cvj6r9ubvosntc0bgbag","pricing_plan_id":"cebpf4jnsgd1na2vs0mg"},{"bike_id":"a9318f46-e737-4682-846d-9eef8ecfbd38","system_id":"levelo_inurba_marseille","lat":43.26777,"lon":5.39425,"is_reserved":false,"is_disabled":false,"rental_uris":{"android":"levelo://app?vid=a9318f46-e737-4682-846d-9eef8ecfbd38","ios":"levelo://app?vid=a9318f46-e737-4682-846d-9eef8ecfbd38"},"vehicle_type_id":"4","last_reported":1748700509,"current_range_meters":13600,"station_id":"ce4bhh12rcd13ifvqfg0","pricing_plan_id":"cebpf4jnsgd1na2vs0mg"},{"bike_id":"14036455-f919-44f7-8d5e-0b2e84f48674","system_id":"levelo_inurba_marseille","lat":43.30919,"lon":5.40421,"is_reserved":false,"is_disabled":false,"rental_uris":{"android":"levelo://app?vid=14036455-f919-44f7-8d5e-0b2e84f48674","ios":"levelo://app?vid=14036455-f919-44f7-8d5e-0b2e84f48674"},"vehicle_type_id":"4","last_reported":1748700509,"current_range_meters":13600,"station_id":"","pricing_plan_id":"cebpf4jnsgd1na2vs0mg"},{"bike_id":"5e6091d7-af32-43e0-a47f-9dd5d1bf4709","system_id":"levelo_inurba_marseille","lat":43.288282,"lon":5.357416,"is_reserved":false,"is_disabled":false,"rental_uris":{"android":"levelo://app?vid=5e6091d7-af32-43e0-a47f-9dd5d1bf4709","ios":"levelo://app?vid=5e6091d7-af32-43e0-a47f-9dd5d1bf4709"},"vehicle_type_id":"4","last_reported":1748700509,"current_range_meters":13600,"station_id":"ce4bhb12rcd13ifvqem0","pricing_plan_id":"cebpf4jnsgd1na2vs0mg"},{"bike_id":"635e5127-9e70-4237-a95b-fbf49504d514","system_id":"levelo_inurba_marseille","lat":43.23185,"lon":5.40004,"is_reserved":false,"is_disabled":false,"rental_uris":{"android":"levelo://app?vid=635e5127-9e70-4237-a95b-fbf49504d514","ios":"levelo://app?vid=635e5127-9e70-4237-a95b-fbf49504d514"},"vehicle_type_id":"4","last_reported":1748700509,"current_range_meters":13600,"station_id":"ce4bhn12rcd13ifvqgqg","pricing_plan_id":"cebpf4jnsgd1na2vs0mg"},{"bike_id":"8f0300e4-899f-4e13-b8a7-90f137ab1640","system_id":"levelo_inurba_marseille","lat":43.270581,"lon":5.392852,"is_reserved":false,"is_disabled":false,"rental_uris":{"android":"levelo://app?vid=8f0300e4-899f-4e13-b8a7-90f137ab1640","ios":"levelo://app?vid=8f0300e4-899f-4e13-b8a7-90f137ab1640"},"vehicle_type_id":"4","last_reported":1748700509,"current_range_meters":14000,"station_id":"","pricing_plan_id":"cebpf4jnsgd1na2vs0mg"},{"bike_id":"b50609fe-871b-4904-824b-ee2be6c32b2d","system_id":"levelo_inurba_marseille","lat":43.21747,"lon":5.34604,"is_reserved":false,"is_disabled":false,"rental_uris":{"android":"levelo://app?vid=b50609fe-871b-4904-824b-ee2be6c32b2d","ios":"levelo://app?vid=b50609fe-871b-4904-824b-ee2be6c32b2d"},"vehicle_type_id":"4","last_reported":1748700509,"current_range_meters":14000,"station_id":"st_cvj6r9ubvosntc0bgbag","pricing_plan_id":"cebpf4jnsgd1na2vs0mg"},{"bike_id":"d2dd3510-eb8b-47f5-ae18-f18358da230e","system_id":"levelo_inurba_marseille","lat":43.217452,"lon":5.34602,"is_reserved":false,"is_disabled":false,"rental_uris":{"android":"levelo://app?vid=d2dd3510-eb8b-47f5-ae18-f18358da230e","ios":"levelo://app?vid=d2dd3510-eb8b-47f5-ae18-f18358da230e"},"vehicle_type_id":"4","last_reported":1748700509,"current_range_meters":14000,"station_id":"st_cvj6r9ubvosntc0bgbag","pricing_plan_id":"cebpf4jnsgd1na2vs0mg"},{"bike_id":"243ce385-81c4-4c69-ac4c-d3852d529d00","system_id":"levelo_inurba_marseille","lat":43.29041,"lon":5.39969,"is_reserved":false,"is_disabled":false,"rental_uris":{"android":"levelo://app?vid=243ce385-81c4-4c69-ac4c-d3852d529d00","ios":"levelo://app?vid=243ce385-81c4-4c69-ac4c-d3852d529d00"},"vehicle_type_id":"4","last_reported":1748700509,"current_range_meters":14000,"station_id":"ce4bh392rcd13ifvqdm0","pricing_plan_id":"cebpf4jnsgd1na2vs0mg"},{"bike_id":"9dd8b8cc-b2f3-445f-a172-5fd0cc0494af","system_id":"levelo_inurba_marseille","lat":43.2813,"lon":5.42659,"is_reserved":false,"is_disabled":false,"rental_uris":{"android":"levelo://app?vid=9dd8b8cc-b2f3-445f-a172-5fd0cc0494af","ios":"levelo://app?vid=9dd8b8cc-b2f3-445f-a172-5fd0cc0494af"},"vehicle_type_id":"4","last_reported":1748700509,"current_range_meters":14000,"station_id":"ce4bhnh2rcd13ifvqgug","pricing_plan_id":"cebpf4jnsgd1na2vs0mg"},{"bike_id":"937f9e3f-8b13-4a88-a638-6f5372018cc9","system_id":"levelo_inurba_marseille","lat":43.29846,"lon":5.36293,"is_reserved":false,"is_disabled":false,"rental_uris":{"android":"levelo://app?vid=937f9e3f-8b13-4a88-a638-6f5372018cc9","ios":"levelo://app?vid=937f9e3f-8b13-4a88-a638-6f5372018cc9"},"vehicle_type_id":"4","last_reported":1748700509,"current_range_meters":14400,"station_id":"ce4bgpp2rcd13ifvqc3g","pricing_plan_id":"cebpf4jnsgd1na2vs0mg"},{"bike_id":"4acdc6f7-f94e-40e8-9a93-bd38eeb62330","system_id":"levelo_inurba_marseille","lat":43.28669,"lon":5.38686,"is_reserved":false,"is_disabled":false,"rental_uris":{"android":"levelo://app?vid=4acdc6f7-f94e-40e8-9a93-bd38eeb62330","ios":"levelo://app?vid=4acdc6f7-f94e-40e8-9a93-bd38eeb62330"},"vehicle_type_id":"4","last_reported":1748700509,"current_range_meters":14000,"station_id":"ce4bh492rcd13ifvqdug","pricing_plan_id":"cebpf4jnsgd1na2vs0mg"},{"bike_id":"740ed209-b5ad-426f-b900-542a97bce272","system_id":"levelo_inurba_marseille","lat":43.23157,"lon":5.43713,"is_reserved":false,"is_disabled":false,"rental_uris":{"android":"levelo://app?vid=740ed209-b5ad-426f-b900-542a97bce272","ios":"levelo://app?vid=740ed209-b5ad-426f-b900-542a97bce272"},"vehicle_type_id":"4","last_reported":1748700509,"current_range_meters":14400,"station_id":"ce4bhmp2rcd13ifvqgog","pricing_plan_id":"cebpf4jnsgd1na2vs0mg"},{"bike_id":"72b3ac97-5479-4f92-a3cc-63040205d956","system_id":"levelo_inurba_marseille","lat":43.27066,"lon":5.42243,"is_reserved":false,"is_disabled":false,"rental_uris":{"android":"levelo://app?vid=72b3ac97-5479-4f92-a3cc-63040205d956","ios":"levelo://app?vid=72b3ac97-5479-4f92-a3cc-63040205d956"},"vehicle_type_id":"4","last_reported":1748700509,"current_range_meters":14400,"station_id":"ce4bhk92rcd13ifvqgb0","pricing_plan_id":"cebpf4jnsgd1na2vs0mg"},{"bike_id":"c6642dd6-5bec-4ea5-8175-49c8308d3390","system_id":"levelo_inurba_marseille","lat":43.2885,"lon":5.35835,"is_reserved":false,"is_disabled":false,"rental_uris":{"android":"levelo://app?vid=c6642dd6-5bec-4ea5-8175-49c8308d3390","ios":"levelo://app?vid=c6642dd6-5bec-4ea5-8175-49c8308d3390"},"vehicle_type_id":"4","last_reported":1748700509,"current_range_meters":14400,"station_id":"ce4bhb12rcd13ifvqem0","pricing_plan_id":"cebpf4jnsgd1na2vs0mg"},{"bike_id":"988d3072-95a7-4f72-ba71-af789f66cf32","system_id":"levelo_inurba_marseille","lat":43.27323,"lon":5.39125,"is_reserved":false,"is_disabled":false,"rental_uris":{"android":"levelo://app?vid=988d3072-95a7-4f72-ba71-af789f66cf32","ios":"levelo://app?vid=988d3072-95a7-4f72-ba71-af789f66cf32"},"vehicle_type_id":"4","last_reported":1748700509,"current_range_meters":14400,"station_id":"ce4bhgp2rcd13ifvqfe0","pricing_plan_id":"cebpf4jnsgd1na2vs0mg"},{"bike_id":"db17cc8d-4dd3-4eee-ae61-43f5d171de7b","system_id":"levelo_inurba_marseille","lat":43.23057,"lon":5.35488,"is_reserved":false,"is_disabled":false,"rental_uris":{"android":"levelo://app?vid=db17cc8d-4dd3-4eee-ae61-43f5d171de7b","ios":"levelo://app?vid=db17cc8d-4dd3-4eee-ae61-43f5d171de7b"},"vehicle_type_id":"4","last_reported":1748700509,"current_range_meters":14800,"station_id":"cpo3342slgdg3j2ifvpg","pricing_plan_id":"cebpf4jnsgd1na2vs0mg"},{"bike_id":"1c81c8dc-40d8-4334-a30c-6e47d46848c5","system_id":"levelo_inurba_marseille","lat":43.31122,"lon":5.37777,"is_reserved":false,"is_disabled":false,"rental_uris":{"android":"levelo://app?vid=1c81c8dc-40d8-4334-a30c-6e47d46848c5","ios":"levelo://app?vid=1c81c8dc-40d8-4334-a30c-6e47d46848c5"},"vehicle_type_id":"4","last_reported":1748700509,"current_range_meters":14800,"station_id":"ce4bgt92rcd13ifvqcg0","pricing_plan_id":"cebpf4jnsgd1na2vs0mg"},{"bike_id":"f230948d-fff3-4bc0-9bdc-dcc14701c2b9","system_id":"levelo_inurba_marseille","lat":43.29271,"lon":5.36854,"is_reserved":false,"is_disabled":false,"rental_uris":{"android":"levelo://app?vid=f230948d-fff3-4bc0-9bdc-dcc14701c2b9","ios":"levelo://app?vid=f230948d-fff3-4bc0-9bdc-dcc14701c2b9"},"vehicle_type_id":"4","last_reported":1748700509,"current_range_meters":14800,"station_id":"ce4bhbp2rcd13ifvqesg","pricing_plan_id":"cebpf4jnsgd1na2vs0mg"},{"bike_id":"19f5b483-5b36-4c43-8206-d0f53f4ecf01","system_id":"levelo_inurba_marseille","lat":43.24171,"lon":5.363951,"is_reserved":false,"is_disabled":false,"rental_uris":{"android":"levelo://app?vid=19f5b483-5b36-4c43-8206-d0f53f4ecf01","ios":"levelo://app?vid=19f5b483-5b36-4c43-8206-d0f53f4ecf01"},"vehicle_type_id":"4","last_reported":1748700509,"current_range_meters":14800,"station_id":"cpo36qri1sfpv3e86is0","pricing_plan_id":"cebpf4jnsgd1na2vs0mg"},{"bike_id":"14e5a9c0-521d-43a5-8d7a-c3b14cac8acc","system_id":"levelo_inurba_marseille","lat":43.23059,"lon":5.35489,"is_reserved":false,"is_disabled":false,"rental_uris":{"android":"levelo://app?vid=14e5a9c0-521d-43a5-8d7a-c3b14cac8acc","ios":"levelo://app?vid=14e5a9c0-521d-43a5-8d7a-c3b14cac8acc"},"vehicle_type_id":"4","last_reported":1748700509,"current_range_meters":14800,"station_id":"cpo3342slgdg3j2ifvpg","pricing_plan_id":"cebpf4jnsgd1na2vs0mg"},{"bike_id":"d94ad4e9-ef56-400a-81a8-14ac56c6093e","system_id":"levelo_inurba_marseille","lat":43.21762,"lon":5.34621,"is_reserved":false,"is_disabled":false,"rental_uris":{"android":"levelo://app?vid=d94ad4e9-ef56-400a-81a8-14ac56c6093e","ios":"levelo://app?vid=d94ad4e9-ef56-400a-81a8-14ac56c6093e"},"vehicle_type_id":"4","last_reported":1748700509,"current_range_meters":14800,"station_id":"st_cvj6r9ubvosntc0bgbag","pricing_plan_id":"cebpf4jnsgd1na2vs0mg"},{"bike_id":"e35f13ce-a6c7-4a08-9fa1-ffa4b3601a0b","system_id":"levelo_inurba_marseille","lat":43.211994,"lon":5.351006,"is_reserved":false,"is_disabled":false,"rental_uris":{"android":"levelo://app?vid=e35f13ce-a6c7-4a08-9fa1-ffa4b3601a0b","ios":"levelo://app?vid=e35f13ce-a6c7-4a08-9fa1-ffa4b3601a0b"},"vehicle_type_id":"4","last_reported":1748700509,"current_range_meters":14800,"station_id":"st_cvj6sg6p6f1abm77japg","pricing_plan_id":"cebpf4jnsgd1na2vs0mg"},{"bike_id":"ee836e60-2771-4225-876e-efbf877139e4","system_id":"levelo_inurba_marseille","lat":43.25728,"lon":5.41107,"is_reserved":false,"is_disabled":false,"rental_uris":{"android":"levelo://app?vid=ee836e60-2771-4225-876e-efbf877139e4","ios":"levelo://app?vid=ee836e60-2771-4225-876e-efbf877139e4"},"vehicle_type_id":"4","last_reported":1748700509,"current_range_meters":14400,"station_id":"ce4bhkp2rcd13ifvqgd0","pricing_plan_id":"cebpf4jnsgd1na2vs0mg"},{"bike_id":"f3064aba-ffcb-4e61-90ed-2f7e087a1dae","system_id":"levelo_inurba_marseille","lat":43.29901,"lon":5.43669,"is_reserved":false,"is_disabled":false,"rental_uris":{"android":"levelo://app?vid=f3064aba-ffcb-4e61-90ed-2f7e087a1dae","ios":"levelo://app?vid=f3064aba-ffcb-4e61-90ed-2f7e087a1dae"},"vehicle_type_id":"4","last_reported":1748700509,"current_range_meters":14800,"station_id":"ce4bhpp2rcd13ifvqhfg","pricing_plan_id":"cebpf4jnsgd1na2vs0mg"},{"bike_id":"b7911b41-d164-45aa-8851-a26dc5030f16","system_id":"levelo_inurba_marseille","lat":43.26211,"lon":5.3744,"is_reserved":false,"is_disabled":false,"rental_uris":{"android":"levelo://app?vid=b7911b41-d164-45aa-8851-a26dc5030f16","ios":"levelo://app?vid=b7911b41-d164-45aa-8851-a26dc5030f16"},"vehicle_type_id":"4","last_reported":1748700509,"current_range_meters":15200,"station_id":"ce4bhgp2rcd13ifvqfc0","pricing_plan_id":"cebpf4jnsgd1na2vs0mg"},{"bike_id":"d6705d53-8d5c-4980-9a08-0aa00130d2b0","system_id":"levelo_inurba_marseille","lat":43.28618,"lon":5.35103,"is_reserved":false,"is_disabled":false,"rental_uris":{"android":"levelo://app?vid=d6705d53-8d5c-4980-9a08-0aa00130d2b0","ios":"levelo://app?vid=d6705d53-8d5c-4980-9a08-0aa00130d2b0"},"vehicle_type_id":"4","last_reported":1748700509,"current_range_meters":15200,"station_id":"ce4bhch2rcd13ifvqeug","pricing_plan_id":"cebpf4jnsgd1na2vs0mg"},{"bike_id":"5dae0668-833e-4f25-993a-cb99cb88669d","system_id":"levelo_inurba_marseille","lat":43.21767,"lon":5.34587,"is_reserved":false,"is_disabled":false,"rental_uris":{"android":"levelo://app?vid=5dae0668-833e-4f25-993a-cb99cb88669d","ios":"levelo://app?vid=5dae0668-833e-4f25-993a-cb99cb88669d"},"vehicle_type_id":"4","last_reported":1748700509,"current_range_meters":15200,"station_id":"st_cvj6r9ubvosntc0bgbag","pricing_plan_id":"cebpf4jnsgd1na2vs0mg"},{"bike_id":"9a24228a-3234-461f-a3a2-5828a390c2fa","system_id":"levelo_inurba_marseille","lat":43.2738,"lon":5.36253,"is_reserved":false,"is_disabled":false,"rental_uris":{"android":"levelo://app?vid=9a24228a-3234-461f-a3a2-5828a390c2fa","ios":"levelo://app?vid=9a24228a-3234-461f-a3a2-5828a390c2fa"},"vehicle_type_id":"4","last_reported":1748700509,"current_range_meters":15200,"station_id":"ce4bhbh2rcd13ifvqeo0","pricing_plan_id":"cebpf4jnsgd1na2vs0mg"},{"bike_id":"e32785ae-a134-4f35-bf57-a65713bb26fb","system_id":"levelo_inurba_marseille","lat":43.30695,"lon":5.37341,"is_reserved":false,"is_disabled":false,"rental_uris":{"android":"levelo://app?vid=e32785ae-a134-4f35-bf57-a65713bb26fb","ios":"levelo://app?vid=e32785ae-a134-4f35-bf57-a65713bb26fb"},"vehicle_type_id":"4","last_reported":1748700509,"current_range_meters":15200,"station_id":"","pricing_plan_id":"cebpf4jnsgd1na2vs0mg"},{"bike_id":"dd37998e-f7a9-4dcc-ad9e-77355b35b708","system_id":"levelo_inurba_marseille","lat":43.241781,"lon":5.397335,"is_reserved":false,"is_disabled":false,"rental_uris":{"android":"levelo://app?vid=dd37998e-f7a9-4dcc-ad9e-77355b35b708","ios":"levelo://app?vid=dd37998e-f7a9-4dcc-ad9e-77355b35b708"},"vehicle_type_id":"4","last_reported":1748700509,"current_range_meters":16000,"station_id":"ce4bhn12rcd13ifvqgpg","pricing_plan_id":"cebpf4jnsgd1na2vs0mg"},{"bike_id":"4634b1a0-27fb-4f28-89df-b2b50c9cbade","system_id":"levelo_inurba_marseille","lat":43.28608,"lon":5.37087,"is_reserved":false,"is_disabled":false,"rental_uris":{"android":"levelo://app?vid=4634b1a0-27fb-4f28-89df-b2b50c9cbade","ios":"levelo://app?vid=4634b1a0-27fb-4f28-89df-b2b50c9cbade"},"vehicle_type_id":"4","last_reported":1748700509,"current_range_meters":16000,"station_id":"ce4bht12rcd13ifvqi60","pricing_plan_id":"cebpf4jnsgd1na2vs0mg"},{"bike_id":"4e9c6896-f032-4347-b034-7c2b3b8b84a3","system_id":"levelo_inurba_marseille","lat":43.27379,"lon":5.36256,"is_reserved":false,"is_disabled":false,"rental_uris":{"android":"levelo://app?vid=4e9c6896-f032-4347-b034-7c2b3b8b84a3","ios":"levelo://app?vid=4e9c6896-f032-4347-b034-7c2b3b8b84a3"},"vehicle_type_id":"4","last_reported":1748700509,"current_range_meters":16000,"station_id":"ce4bhbh2rcd13ifvqeo0","pricing_plan_id":"cebpf4jnsgd1na2vs0mg"},{"bike_id":"65d21794-10b3-49f4-afd8-2d607a21c94c","system_id":"levelo_inurba_marseille","lat":43.26197,"lon":5.37941,"is_reserved":false,"is_disabled":false,"rental_uris":{"android":"levelo://app?vid=65d21794-10b3-49f4-afd8-2d607a21c94c","ios":"levelo://app?vid=65d21794-10b3-49f4-afd8-2d607a21c94c"},"vehicle_type_id":"4","last_reported":1748700509,"current_range_meters":16000,"station_id":"ce4bhjp2rcd13ifvqg90","pricing_plan_id":"cebpf4jnsgd1na2vs0mg"},{"bike_id":"5f224e55-2261-440e-bf2f-3cbcb28e1363","system_id":"levelo_inurba_marseille","lat":43.217518,"lon":5.34598,"is_reserved":false,"is_disabled":false,"rental_uris":{"android":"levelo://app?vid=5f224e55-2261-440e-bf2f-3cbcb28e1363","ios":"levelo://app?vid=5f224e55-2261-440e-bf2f-3cbcb28e1363"},"vehicle_type_id":"4","last_reported":1748700509,"current_range_meters":16000,"station_id":"st_cvj6r9ubvosntc0bgbag","pricing_plan_id":"cebpf4jnsgd1na2vs0mg"},{"bike_id":"1b5c7e43-1c74-4e71-9298-a23a53e6ec79","system_id":"levelo_inurba_marseille","lat":43.23956,"lon":5.36633,"is_reserved":false,"is_disabled":true,"rental_uris":{"android":"levelo://app?vid=1b5c7e43-1c74-4e71-9298-a23a53e6ec79","ios":"levelo://app?vid=1b5c7e43-1c74-4e71-9298-a23a53e6ec79"},"vehicle_type_id":"4","last_reported":1748700509,"current_range_meters":16000,"station_id":"ce4bhi12rcd13ifvqfp0","pricing_plan_id":"cebpf4jnsgd1na2vs0mg"},{"bike_id":"8074624f-24d4-43d3-adbb-0569cd2205a0","system_id":"levelo_inurba_marseille","lat":43.21743,"lon":5.34601,"is_reserved":false,"is_disabled":false,"rental_uris":{"android":"levelo://app?vid=8074624f-24d4-43d3-adbb-0569cd2205a0","ios":"levelo://app?vid=8074624f-24d4-43d3-adbb-0569cd2205a0"},"vehicle_type_id":"4","last_reported":1748700509,"current_range_meters":16000,"station_id":"st_cvj6r9ubvosntc0bgbag","pricing_plan_id":"cebpf4jnsgd1na2vs0mg"},{"bike_id":"eb1e668d-26c6-496e-b983-6b9753e54854","system_id":"levelo_inurba_marseille","lat":43.29178,"lon":5.35806,"is_reserved":false,"is_disabled":false,"rental_uris":{"android":"levelo://app?vid=eb1e668d-26c6-496e-b983-6b9753e54854","ios":"levelo://app?vid=eb1e668d-26c6-496e-b983-6b9753e54854"},"vehicle_type_id":"4","last_reported":1748700509,"current_range_meters":16000,"station_id":"ce4bhb12rcd13ifvqel0","pricing_plan_id":"cebpf4jnsgd1na2vs0mg"},{"bike_id":"c12ccdb8-7414-45f7-8516-2930598e6edd","system_id":"levelo_inurba_marseille","lat":43.24395,"lon":5.37052,"is_reserved":false,"is_disabled":false,"rental_uris":{"android":"levelo://app?vid=c12ccdb8-7414-45f7-8516-2930598e6edd","ios":"levelo://app?vid=c12ccdb8-7414-45f7-8516-2930598e6edd"},"vehicle_type_id":"4","last_reported":1748700509,"current_range_meters":16000,"station_id":"ce4bhhh2rcd13ifvqfk0","pricing_plan_id":"cebpf4jnsgd1na2vs0mg"},{"bike_id":"e210be7e-07b8-44d3-ae09-6702f28e2ae8","system_id":"levelo_inurba_marseille","lat":43.25113,"lon":5.39359,"is_reserved":false,"is_disabled":false,"rental_uris":{"android":"levelo://app?vid=e210be7e-07b8-44d3-ae09-6702f28e2ae8","ios":"levelo://app?vid=e210be7e-07b8-44d3-ae09-6702f28e2ae8"},"vehicle_type_id":"4","last_reported":1748700509,"current_range_meters":16000,"station_id":"","pricing_plan_id":"cebpf4jnsgd1na2vs0mg"},{"bike_id":"792b8862-e581-44be-8ddc-645d1733b829","system_id":"levelo_inurba_marseille","lat":43.28539,"lon":5.37167,"is_reserved":false,"is_disabled":false,"rental_uris":{"android":"levelo://app?vid=792b8862-e581-44be-8ddc-645d1733b829","ios":"levelo://app?vid=792b8862-e581-44be-8ddc-645d1733b829"},"vehicle_type_id":"4","last_reported":1748700509,"current_range_meters":16000,"station_id":"","pricing_plan_id":"cebpf4jnsgd1na2vs0mg"},{"bike_id":"f3009d6e-02fd-42c9-b8d6-9d0894580340","system_id":"levelo_inurba_marseille","lat":43.28935,"lon":5.36688,"is_reserved":false,"is_disabled":false,"rental_uris":{"android":"levelo://app?vid=f3009d6e-02fd-42c9-b8d6-9d0894580340","ios":"levelo://app?vid=f3009d6e-02fd-42c9-b8d6-9d0894580340"},"vehicle_type_id":"4","last_reported":1748700509,"current_range_meters":16000,"station_id":"ce4bhap2rcd13ifvqek0","pricing_plan_id":"cebpf4jnsgd1na2vs0mg"},{"bike_id":"078da0ba-5a58-49db-bc22-cc96aedda856","system_id":"levelo_inurba_marseille","lat":43.29844,"lon":5.36276,"is_reserved":false,"is_disabled":false,"rental_uris":{"android":"levelo://app?vid=078da0ba-5a58-49db-bc22-cc96aedda856","ios":"levelo://app?vid=078da0ba-5a58-49db-bc22-cc96aedda856"},"vehicle_type_id":"4","last_reported":1748700509,"current_range_meters":16000,"station_id":"ce4bgpp2rcd13ifvqc3g","pricing_plan_id":"cebpf4jnsgd1na2vs0mg"},{"bike_id":"410ef4e6-e6c8-4b6e-b701-f1ce0f4f2e9e","system_id":"levelo_inurba_marseille","lat":43.28412,"lon":5.3497,"is_reserved":false,"is_disabled":false,"rental_uris":{"android":"levelo://app?vid=410ef4e6-e6c8-4b6e-b701-f1ce0f4f2e9e","ios":"levelo://app?vid=410ef4e6-e6c8-4b6e-b701-f1ce0f4f2e9e"},"vehicle_type_id":"4","last_reported":1748700509,"current_range_meters":16400,"station_id":"ce4bhbh2rcd13ifvqepg","pricing_plan_id":"cebpf4jnsgd1na2vs0mg"},{"bike_id":"9a189ee8-27ed-444b-b171-f705371af28f","system_id":"levelo_inurba_marseille","lat":43.28251,"lon":5.34902,"is_reserved":false,"is_disabled":false,"rental_uris":{"android":"levelo://app?vid=9a189ee8-27ed-444b-b171-f705371af28f","ios":"levelo://app?vid=9a189ee8-27ed-444b-b171-f705371af28f"},"vehicle_type_id":"4","last_reported":1748700509,"current_range_meters":16400,"station_id":"","pricing_plan_id":"cebpf4jnsgd1na2vs0mg"},{"bike_id":"d9ec35c4-388c-4ab8-ae02-d1cc8b808a2b","system_id":"levelo_inurba_marseille","lat":43.21784,"lon":5.34593,"is_reserved":false,"is_disabled":false,"rental_uris":{"android":"levelo://app?vid=d9ec35c4-388c-4ab8-ae02-d1cc8b808a2b","ios":"levelo://app?vid=d9ec35c4-388c-4ab8-ae02-d1cc8b808a2b"},"vehicle_type_id":"4","last_reported":1748700509,"current_range_meters":16400,"station_id":"","pricing_plan_id":"cebpf4jnsgd1na2vs0mg"},{"bike_id":"e7177d95-1523-44fc-8625-8d734cdfb209","system_id":"levelo_inurba_marseille","lat":43.21721,"lon":5.34676,"is_reserved":false,"is_disabled":false,"rental_uris":{"android":"levelo://app?vid=e7177d95-1523-44fc-8625-8d734cdfb209","ios":"levelo://app?vid=e7177d95-1523-44fc-8625-8d734cdfb209"},"vehicle_type_id":"4","last_reported":1748700509,"current_range_meters":16400,"station_id":"","pricing_plan_id":"cebpf4jnsgd1na2vs0mg"},{"bike_id":"59cc9f64-369b-40a4-aef4-571b231df862","system_id":"levelo_inurba_marseille","lat":43.28127,"lon":5.35202,"is_reserved":false,"is_disabled":false,"rental_uris":{"android":"levelo://app?vid=59cc9f64-369b-40a4-aef4-571b231df862","ios":"levelo://app?vid=59cc9f64-369b-40a4-aef4-571b231df862"},"vehicle_type_id":"4","last_reported":1748700509,"current_range_meters":16400,"station_id":"","pricing_plan_id":"cebpf4jnsgd1na2vs0mg"},{"bike_id":"45e51ac6-8ab9-402e-9db2-b777f254151e","system_id":"levelo_inurba_marseille","lat":43.2174,"lon":5.34606,"is_reserved":false,"is_disabled":false,"rental_uris":{"android":"levelo://app?vid=45e51ac6-8ab9-402e-9db2-b777f254151e","ios":"levelo://app?vid=45e51ac6-8ab9-402e-9db2-b777f254151e"},"vehicle_type_id":"4","last_reported":1748700509,"current_range_meters":16400,"station_id":"st_cvj6r9ubvosntc0bgbag","pricing_plan_id":"cebpf4jnsgd1na2vs0mg"},{"bike_id":"e3bc26cd-913c-478b-831c-d5059e602e58","system_id":"levelo_inurba_marseille","lat":43.28422,"lon":5.34994,"is_reserved":false,"is_disabled":false,"rental_uris":{"android":"levelo://app?vid=e3bc26cd-913c-478b-831c-d5059e602e58","ios":"levelo://app?vid=e3bc26cd-913c-478b-831c-d5059e602e58"},"vehicle_type_id":"4","last_reported":1748700509,"current_range_meters":16400,"station_id":"ce4bhbh2rcd13ifvqepg","pricing_plan_id":"cebpf4jnsgd1na2vs0mg"},{"bike_id":"d35279df-65fa-4a1d-a5be-df30ee6e8cd3","system_id":"levelo_inurba_marseille","lat":43.28724,"lon":5.3611,"is_reserved":false,"is_disabled":false,"rental_uris":{"android":"levelo://app?vid=d35279df-65fa-4a1d-a5be-df30ee6e8cd3","ios":"levelo://app?vid=d35279df-65fa-4a1d-a5be-df30ee6e8cd3"},"vehicle_type_id":"4","last_reported":1748700509,"current_range_meters":16400,"station_id":"cki0cbj6b192h4jlfktg","pricing_plan_id":"cebpf4jnsgd1na2vs0mg"},{"bike_id":"1d4c308a-3bd9-45f9-b273-125b02cf5593","system_id":"levelo_inurba_marseille","lat":43.271785,"lon":5.409875,"is_reserved":false,"is_disabled":false,"rental_uris":{"android":"levelo://app?vid=1d4c308a-3bd9-45f9-b273-125b02cf5593","ios":"levelo://app?vid=1d4c308a-3bd9-45f9-b273-125b02cf5593"},"vehicle_type_id":"4","last_reported":1748700509,"current_range_meters":16400,"station_id":"ce4bhl12rcd13ifvqgf0","pricing_plan_id":"cebpf4jnsgd1na2vs0mg"},{"bike_id":"0b248cd5-f7f1-4616-ab60-adc75f0b322e","system_id":"levelo_inurba_marseille","lat":43.22498,"lon":5.34807,"is_reserved":false,"is_disabled":false,"rental_uris":{"android":"levelo://app?vid=0b248cd5-f7f1-4616-ab60-adc75f0b322e","ios":"levelo://app?vid=0b248cd5-f7f1-4616-ab60-adc75f0b322e"},"vehicle_type_id":"4","last_reported":1748700509,"current_range_meters":16400,"station_id":"st_cvj5dfep6f1abm77gieg","pricing_plan_id":"cebpf4jnsgd1na2vs0mg"},{"bike_id":"cf8ffa3f-0293-4e02-8db8-37267854065b","system_id":"levelo_inurba_marseille","lat":43.30155,"lon":5.3742,"is_reserved":false,"is_disabled":false,"rental_uris":{"android":"levelo://app?vid=cf8ffa3f-0293-4e02-8db8-37267854065b","ios":"levelo://app?vid=cf8ffa3f-0293-4e02-8db8-37267854065b"},"vehicle_type_id":"4","last_reported":1748700509,"current_range_meters":16000,"station_id":"ce4bgs92rcd13ifvqcc0","pricing_plan_id":"cebpf4jnsgd1na2vs0mg"},{"bike_id":"5a271763-24ad-4018-b9ee-4d3f70d69231","system_id":"levelo_inurba_marseille","lat":43.31174,"lon":5.38721,"is_reserved":false,"is_disabled":false,"rental_uris":{"android":"levelo://app?vid=5a271763-24ad-4018-b9ee-4d3f70d69231","ios":"levelo://app?vid=5a271763-24ad-4018-b9ee-4d3f70d69231"},"vehicle_type_id":"4","last_reported":1748700509,"current_range_meters":16400,"station_id":"ce4bgv12rcd13ifvqcp0","pricing_plan_id":"cebpf4jnsgd1na2vs0mg"},{"bike_id":"a0db6823-45a3-4e57-a14b-5e3f85c23815","system_id":"levelo_inurba_marseille","lat":43.271182,"lon":5.422507,"is_reserved":false,"is_disabled":false,"rental_uris":{"android":"levelo://app?vid=a0db6823-45a3-4e57-a14b-5e3f85c23815","ios":"levelo://app?vid=a0db6823-45a3-4e57-a14b-5e3f85c23815"},"vehicle_type_id":"4","last_reported":1748700509,"current_range_meters":16800,"station_id":"ce4bhn92rcd13ifvqgrg","pricing_plan_id":"cebpf4jnsgd1na2vs0mg"},{"bike_id":"279c929e-dc70-444d-ba34-fe25f6c6e477","system_id":"levelo_inurba_marseille","lat":43.24801,"lon":5.37452,"is_reserved":false,"is_disabled":false,"rental_uris":{"android":"levelo://app?vid=279c929e-dc70-444d-ba34-fe25f6c6e477","ios":"levelo://app?vid=279c929e-dc70-444d-ba34-fe25f6c6e477"},"vehicle_type_id":"4","last_reported":1748700509,"current_range_meters":16400,"station_id":"ce4bhgh2rcd13ifvqfb0","pricing_plan_id":"cebpf4jnsgd1na2vs0mg"},{"bike_id":"76fca690-1ceb-40a6-b2ab-3ae26d990ca9","system_id":"levelo_inurba_marseille","lat":43.286163,"lon":5.351118,"is_reserved":false,"is_disabled":false,"rental_uris":{"android":"levelo://app?vid=76fca690-1ceb-40a6-b2ab-3ae26d990ca9","ios":"levelo://app?vid=76fca690-1ceb-40a6-b2ab-3ae26d990ca9"},"vehicle_type_id":"4","last_reported":1748700509,"current_range_meters":16800,"station_id":"ce4bhch2rcd13ifvqeug","pricing_plan_id":"cebpf4jnsgd1na2vs0mg"},{"bike_id":"e8856ff7-e6a6-4558-8148-910e74801acf","system_id":"levelo_inurba_marseille","lat":43.27905,"lon":5.3801,"is_reserved":false,"is_disabled":false,"rental_uris":{"android":"levelo://app?vid=e8856ff7-e6a6-4558-8148-910e74801acf","ios":"levelo://app?vid=e8856ff7-e6a6-4558-8148-910e74801acf"},"vehicle_type_id":"4","last_reported":1748700509,"current_range_meters":16800,"station_id":"ce4bhf92rcd13ifvqf50","pricing_plan_id":"cebpf4jnsgd1na2vs0mg"},{"bike_id":"32503fa7-7208-4269-b40f-34ba3dae0f9e","system_id":"levelo_inurba_marseille","lat":43.308653,"lon":5.40368,"is_reserved":false,"is_disabled":false,"rental_uris":{"android":"levelo://app?vid=32503fa7-7208-4269-b40f-34ba3dae0f9e","ios":"levelo://app?vid=32503fa7-7208-4269-b40f-34ba3dae0f9e"},"vehicle_type_id":"4","last_reported":1748700509,"current_range_meters":16800,"station_id":"","pricing_plan_id":"cebpf4jnsgd1na2vs0mg"},{"bike_id":"f5a90625-b7e8-48a8-90c6-777efe255a32","system_id":"levelo_inurba_marseille","lat":43.25099,"lon":5.40972,"is_reserved":false,"is_disabled":false,"rental_uris":{"android":"levelo://app?vid=f5a90625-b7e8-48a8-90c6-777efe255a32","ios":"levelo://app?vid=f5a90625-b7e8-48a8-90c6-777efe255a32"},"vehicle_type_id":"4","last_reported":1748700509,"current_range_meters":16800,"station_id":"","pricing_plan_id":"cebpf4jnsgd1na2vs0mg"},{"bike_id":"04d9466d-772b-4411-a821-e01cfcd178ce","system_id":"levelo_inurba_marseille","lat":43.24204,"lon":5.36385,"is_reserved":false,"is_disabled":false,"rental_uris":{"android":"levelo://app?vid=04d9466d-772b-4411-a821-e01cfcd178ce","ios":"levelo://app?vid=04d9466d-772b-4411-a821-e01cfcd178ce"},"vehicle_type_id":"4","last_reported":1748700509,"current_range_meters":16800,"station_id":"cpo36qri1sfpv3e86is0","pricing_plan_id":"cebpf4jnsgd1na2vs0mg"},{"bike_id":"4d9035a1-4135-4911-9f5a-65e8a1a4939f","system_id":"levelo_inurba_marseille","lat":43.2176,"lon":5.346,"is_reserved":false,"is_disabled":false,"rental_uris":{"android":"levelo://app?vid=4d9035a1-4135-4911-9f5a-65e8a1a4939f","ios":"levelo://app?vid=4d9035a1-4135-4911-9f5a-65e8a1a4939f"},"vehicle_type_id":"4","last_reported":1748700509,"current_range_meters":16800,"station_id":"st_cvj6r9ubvosntc0bgbag","pricing_plan_id":"cebpf4jnsgd1na2vs0mg"},{"bike_id":"ad21e8f8-2268-42bf-834f-2d692ca7e382","system_id":"levelo_inurba_marseille","lat":43.274103,"lon":5.36297,"is_reserved":false,"is_disabled":false,"rental_uris":{"android":"levelo://app?vid=ad21e8f8-2268-42bf-834f-2d692ca7e382","ios":"levelo://app?vid=ad21e8f8-2268-42bf-834f-2d692ca7e382"},"vehicle_type_id":"4","last_reported":1748700509,"current_range_meters":16800,"station_id":"ce4bhbh2rcd13ifvqeo0","pricing_plan_id":"cebpf4jnsgd1na2vs0mg"},{"bike_id":"abfb04b0-3f19-415f-ad01-13cf6baaf671","system_id":"levelo_inurba_marseille","lat":43.28415,"lon":5.35062,"is_reserved":false,"is_disabled":false,"rental_uris":{"android":"levelo://app?vid=abfb04b0-3f19-415f-ad01-13cf6baaf671","ios":"levelo://app?vid=abfb04b0-3f19-415f-ad01-13cf6baaf671"},"vehicle_type_id":"4","last_reported":1748700509,"current_range_meters":16800,"station_id":"","pricing_plan_id":"cebpf4jnsgd1na2vs0mg"},{"bike_id":"4c4359de-53be-49b8-b5f9-06e857c5718c","system_id":"levelo_inurba_marseille","lat":43.246904,"lon":5.399502,"is_reserved":false,"is_disabled":false,"rental_uris":{"android":"levelo://app?vid=4c4359de-53be-49b8-b5f9-06e857c5718c","ios":"levelo://app?vid=4c4359de-53be-49b8-b5f9-06e857c5718c"},"vehicle_type_id":"4","last_reported":1748700509,"current_range_meters":16800,"station_id":"","pricing_plan_id":"cebpf4jnsgd1na2vs0mg"},{"bike_id":"1ddd8987-1b25-4192-a9d1-69857309baa8","system_id":"levelo_inurba_marseille","lat":43.26951,"lon":5.38628,"is_reserved":false,"is_disabled":false,"rental_uris":{"android":"levelo://app?vid=1ddd8987-1b25-4192-a9d1-69857309baa8","ios":"levelo://app?vid=1ddd8987-1b25-4192-a9d1-69857309baa8"},"vehicle_type_id":"4","last_reported":1748700509,"current_range_meters":16400,"station_id":"ce4bhh92rcd13ifvqfh0","pricing_plan_id":"cebpf4jnsgd1na2vs0mg"},{"bike_id":"97b2bdc4-a610-4fbc-b2e0-ce13d06047e1","system_id":"levelo_inurba_marseille","lat":43.27365,"lon":5.3625,"is_reserved":false,"is_disabled":false,"rental_uris":{"android":"levelo://app?vid=97b2bdc4-a610-4fbc-b2e0-ce13d06047e1","ios":"levelo://app?vid=97b2bdc4-a610-4fbc-b2e0-ce13d06047e1"},"vehicle_type_id":"4","last_reported":1748700509,"current_range_meters":17200,"station_id":"ce4bhbh2rcd13ifvqeo0","pricing_plan_id":"cebpf4jnsgd1na2vs0mg"},{"bike_id":"b332eee5-37e0-485f-8bb3-c6bf82324e53","system_id":"levelo_inurba_marseille","lat":43.28416,"lon":5.3498,"is_reserved":false,"is_disabled":false,"rental_uris":{"android":"levelo://app?vid=b332eee5-37e0-485f-8bb3-c6bf82324e53","ios":"levelo://app?vid=b332eee5-37e0-485f-8bb3-c6bf82324e53"},"vehicle_type_id":"4","last_reported":1748700509,"current_range_meters":17200,"station_id":"ce4bhbh2rcd13ifvqepg","pricing_plan_id":"cebpf4jnsgd1na2vs0mg"},{"bike_id":"93d5c392-0778-4cad-89ec-024023e88599","system_id":"levelo_inurba_marseille","lat":43.21752,"lon":5.34637,"is_reserved":false,"is_disabled":false,"rental_uris":{"android":"levelo://app?vid=93d5c392-0778-4cad-89ec-024023e88599","ios":"levelo://app?vid=93d5c392-0778-4cad-89ec-024023e88599"},"vehicle_type_id":"4","last_reported":1748700509,"current_range_meters":17200,"station_id":"st_cvj6r9ubvosntc0bgbag","pricing_plan_id":"cebpf4jnsgd1na2vs0mg"},{"bike_id":"77520d45-03bf-4b26-9f9b-8ac6c162ce6b","system_id":"levelo_inurba_marseille","lat":43.243618,"lon":5.411433,"is_reserved":false,"is_disabled":false,"rental_uris":{"android":"levelo://app?vid=77520d45-03bf-4b26-9f9b-8ac6c162ce6b","ios":"levelo://app?vid=77520d45-03bf-4b26-9f9b-8ac6c162ce6b"},"vehicle_type_id":"4","last_reported":1748700509,"current_range_meters":17200,"station_id":"","pricing_plan_id":"cebpf4jnsgd1na2vs0mg"},{"bike_id":"56ed4761-a43c-4469-9ea6-f227f320ed7f","system_id":"levelo_inurba_marseille","lat":43.231483,"lon":5.437139,"is_reserved":false,"is_disabled":false,"rental_uris":{"android":"levelo://app?vid=56ed4761-a43c-4469-9ea6-f227f320ed7f","ios":"levelo://app?vid=56ed4761-a43c-4469-9ea6-f227f320ed7f"},"vehicle_type_id":"4","last_reported":1748700509,"current_range_meters":17200,"station_id":"ce4bhmp2rcd13ifvqgog","pricing_plan_id":"cebpf4jnsgd1na2vs0mg"},{"bike_id":"765e5957-3110-4d9e-be24-b9e967feb9b6","system_id":"levelo_inurba_marseille","lat":43.31116,"lon":5.37777,"is_reserved":false,"is_disabled":false,"rental_uris":{"android":"levelo://app?vid=765e5957-3110-4d9e-be24-b9e967feb9b6","ios":"levelo://app?vid=765e5957-3110-4d9e-be24-b9e967feb9b6"},"vehicle_type_id":"4","last_reported":1748700509,"current_range_meters":16800,"station_id":"ce4bgt92rcd13ifvqcg0","pricing_plan_id":"cebpf4jnsgd1na2vs0mg"},{"bike_id":"62b02994-5210-426a-980f-6cb47507004d","system_id":"levelo_inurba_marseille","lat":43.29206,"lon":5.3607,"is_reserved":false,"is_disabled":false,"rental_uris":{"android":"levelo://app?vid=62b02994-5210-426a-980f-6cb47507004d","ios":"levelo://app?vid=62b02994-5210-426a-980f-6cb47507004d"},"vehicle_type_id":"4","last_reported":1748700509,"current_range_meters":17200,"station_id":"ce4bhbh2rcd13ifvqeqg","pricing_plan_id":"cebpf4jnsgd1na2vs0mg"},{"bike_id":"022f940b-7c6d-4f48-bd14-fef035634fa3","system_id":"levelo_inurba_marseille","lat":43.3031,"lon":5.36897,"is_reserved":false,"is_disabled":false,"rental_uris":{"android":"levelo://app?vid=022f940b-7c6d-4f48-bd14-fef035634fa3","ios":"levelo://app?vid=022f940b-7c6d-4f48-bd14-fef035634fa3"},"vehicle_type_id":"4","last_reported":1748700509,"current_range_meters":17200,"station_id":"ce4bgqh2rcd13ifvqc5g","pricing_plan_id":"cebpf4jnsgd1na2vs0mg"},{"bike_id":"f1931d94-a7cb-4567-946a-26881c80279d","system_id":"levelo_inurba_marseille","lat":43.288952,"lon":5.35851,"is_reserved":false,"is_disabled":false,"rental_uris":{"android":"levelo://app?vid=f1931d94-a7cb-4567-946a-26881c80279d","ios":"levelo://app?vid=f1931d94-a7cb-4567-946a-26881c80279d"},"vehicle_type_id":"4","last_reported":1748700509,"current_range_meters":17600,"station_id":"ce4bhch2rcd13ifvqeug","pricing_plan_id":"cebpf4jnsgd1na2vs0mg"},{"bike_id":"9a87b717-f8e2-4016-bc78-03583a62a953","system_id":"levelo_inurba_marseille","lat":43.265598,"lon":5.403205,"is_reserved":false,"is_disabled":false,"rental_uris":{"android":"levelo://app?vid=9a87b717-f8e2-4016-bc78-03583a62a953","ios":"levelo://app?vid=9a87b717-f8e2-4016-bc78-03583a62a953"},"vehicle_type_id":"4","last_reported":1748700509,"current_range_meters":17600,"station_id":"","pricing_plan_id":"cebpf4jnsgd1na2vs0mg"},{"bike_id":"3d49a5c2-7134-46cf-bb35-a86663709de6","system_id":"levelo_inurba_marseille","lat":43.28946,"lon":5.363983,"is_reserved":false,"is_disabled":false,"rental_uris":{"android":"levelo://app?vid=3d49a5c2-7134-46cf-bb35-a86663709de6","ios":"levelo://app?vid=3d49a5c2-7134-46cf-bb35-a86663709de6"},"vehicle_type_id":"4","last_reported":1748700509,"current_range_meters":17600,"station_id":"ce4bhc92rcd13ifvqetg","pricing_plan_id":"cebpf4jnsgd1na2vs0mg"},