{"last_updated":1762034922,"ttl":60,"version":"2.2","data":{"bikes":[{"bike_id":"d3dccf69-44a1-4624-b9e9-503f97267acd","system_id":"levelo_inurba_marseille","lat":43.269403,"lon":5.402534,"is_reserved":false,"is_disabled":false,"rental_uris":{"android":"levelo://app?vid=d3dccf69-44a1-4624-b9e9-503f97267acd","ios":"levelo://app?vid=d3dccf69-44a1-4624-b9e9-503f97267acd"},"vehicle_type_id":"4","last_reported":1762034922,"current_range_meters":2800,"station_id":"","pricing_plan_id":"cebpf4jnsgd1na2vs0mg"},{"bike_id":"b3890c05-bcad-4c47-95fc-f9e9f7e482d8","system_id":"levelo_inurba_marseille","lat":43.28488,"lon":5.48402,"is_reserved":false,"is_disabled":false,"rental_uris":{"android":"levelo://app?vid=b3890c05-bcad-4c47-95fc-f9e9f7e482d8","ios":"levelo://app?vid=b3890c05-bcad-4c47-95fc-f9e9f7e482d8"},"vehicle_type_id":"4","last_reported":1762034922,"current_range_meters":2800,"station_id":"","pricing_plan_id":"cebpf4jnsgd1na2vs0mg"},{"bike_id":"60baabc2-d34b-4d76-bb80-0f6deb67b719","system_id":"levelo_inurba_marseille","lat":43.27494,"lon":5.42453,"is_reserved":false,"is_disabled":false,"rental_uris":{"android":"levelo://app?vid=60baabc2-d34b-4d76-bb80-0f6deb67b719","ios":"levelo://app?vid=60baabc2-d34b-4d76-bb80-0f6deb67b719"},"vehicle_type_id":"4","last_reported":1762034922,"current_range_meters":3600,"station_id":"ce4bhn92rcd13ifvqgrg","pricing_plan_id":"cebpf4jnsgd1na2vs0mg"},{"bike_id":"a18dbf48-2c4d-4fa4-a4c5-c9871d73c9a0","system_id":"levelo_inurba_marseille","lat":43.301994,"lon":5.383462,"is_reserved":false,"is_disabled":false,"rental_uris":{"android":"levelo://app?vid=a18dbf48-2c4d-4fa4-a4c5-c9871d73c9a0","ios":"levelo://app?vid=a18dbf48-2c4d-4fa4-a4c5-c9871d73c9a0"},"vehicle_type_id":"4","last_reported":1762034922,"current_range_meters":4000,"station_id":"ce4bgup2rcd13ifvqcn0","pricing_plan_id":"cebpf4jnsgd1na2vs0mg"},{"bike_id":"a00dc17a-65e7-422c-821e-126c47cbf7e9","system_id":"levelo_inurba_marseille","lat":43.27956,"lon":5.41047,"is_reserved":false,"is_disabled":true,"rental_uris":{"android":"levelo://app?vid=a00dc17a-65e7-422c-821e-126c47cbf7e9","ios":"levelo://app?vid=a00dc17a-65e7-422c-821e-126c47cbf7e9"},"vehicle_type_id":"4","last_reported":1762034922,"current_range_meters":4400,"station_id":"ce4bhnp2rcd13ifvqh0g","pricing_plan_id":"cebpf4jnsgd1na2vs0mg"},{"bike_id":"d62a4e30-2a8a-47de-9d7a-fd92f829db09","system_id":"levelo_inurba_marseille","lat":43.3116,"lon":5.37942,"is_reserved":false,"is_disabled":false,"rental_uris":{"android":"levelo://app?vid=d62a4e30-2a8a-47de-9d7a-fd92f829db09","ios":"levelo://app?vid=d62a4e30-2a8a-47de-9d7a-fd92f829db09"},"vehicle_type_id":"4","last_reported":1762034922,"current_range_meters":4400,"station_id":"","pricing_plan_id":"cebpf4jnsgd1na2vs0mg"},{"bike_id":"9b93b5e1-c939-4745-bf85-2d21945442dc","system_id":"levelo_inurba_marseille","lat":43.29988,"lon":5.364018,"is_reserved":false,"is_disabled":false,"rental_uris":{"android":"levelo://app?vid=9b93b5e1-c939-4745-bf85-2d21945442dc","ios":"levelo://app?vid=9b93b5e1-c939-4745-bf85-2d21945442dc"},"vehicle_type_id":"4","last_reported":1762034922,"current_range_meters":4800,"station_id":"","pricing_plan_id":"cebpf4jnsgd1na2vs0mg"},{"bike_id":"5a3f179e-0f4c-462d-bb35-7b87788e6894","system_id":"levelo_inurba_marseille","lat":43.281316,"lon":5.389211,"is_reserved":false,"is_disabled":false,"rental_uris":{"android":"levelo://app?vid=5a3f179e-0f4c-462d-bb35-7b87788e6894","ios":"levelo://app?vid=5a3f179e-0f4c-462d-bb35-7b87788e6894"},"vehicle_type_id":"4","last_reported":1762034922,"current_range_meters":5600,"station_id":"ce4bh492rcd13ifvqdvg","pricing_plan_id":"cebpf4jnsgd1na2vs0mg"},{"bike_id":"453d71b3-e422-445d-b2a0-8508dc956831","system_id":"levelo_inurba_marseille","lat":43.27671,"lon":5.38899,"is_reserved":false,"is_disabled":false,"rental_uris":{"android":"levelo://app?vid=453d71b3-e422-445d-b2a0-8508dc956831","ios":"levelo://app?vid=453d71b3-e422-445d-b2a0-8508dc956831"},"vehicle_type_id":"4","last_reported":1762034922,"current_range_meters":5600,"station_id":"ce4bhi12rcd13ifvqfo0","pricing_plan_id":"cebpf4jnsgd1na2vs0mg"},{"bike_id":"a3684e79-b183-4892-ab61-b2e95e9e0a03","system_id":"levelo_inurba_marseille","lat":43.24646,"lon":5.38895,"is_reserved":false,"is_disabled":false,"rental_uris":{"android":"levelo://app?vid=a3684e79-b183-4892-ab61-b2e95e9e0a03","ios":"levelo://app?vid=a3684e79-b183-4892-ab61-b2e95e9e0a03"},"vehicle_type_id":"4","last_reported":1762034922,"current_range_meters":5600,"station_id":"ce4bhg12rcd13ifvqf60","pricing_plan_id":"cebpf4jnsgd1na2vs0mg"},{"bike_id":"0a788297-0628-4617-948d-e453c7e22202","system_id":"levelo_inurba_marseille","lat":43.28465,"lon":5.35893,"is_reserved":false,"is_disabled":false,"rental_uris":{"android":"levelo://app?vid=0a788297-0628-4617-948d-e453c7e22202","ios":"levelo://app?vid=0a788297-0628-4617-948d-e453c7e22202"},"vehicle_type_id":"4","last_reported":1762034922,"current_range_meters":6000,"station_id":"ce4bhah2rcd13ifvqei0","pricing_plan_id":"cebpf4jnsgd1na2vs0mg"},{"bike_id":"706d21f9-901f-4589-963f-b39802e99b57","system_id":"levelo_inurba_marseille","lat":43.3059,"lon":5.39357,"is_reserved":false,"is_disabled":false,"rental_uris":{"android":"levelo://app?vid=706d21f9-901f-4589-963f-b39802e99b57","ios":"levelo://app?vid=706d21f9-901f-4589-963f-b39802e99b57"},"vehicle_type_id":"4","last_reported":1762034922,"current_range_meters":6000,"station_id":"ce4bh0p2rcd13ifvqd80","pricing_plan_id":"cebpf4jnsgd1na2vs0mg"},{"bike_id":"3c3c87b8-1906-4876-941d-18616b979f98","system_id":"levelo_inurba_marseille","lat":43.2495,"lon":5.40486,"is_reserved":false,"is_disabled":false,"rental_uris":{"android":"levelo://app?vid=3c3c87b8-1906-4876-941d-18616b979f98","ios":"levelo://app?vid=3c3c87b8-1906-4876-941d-18616b979f98"},"vehicle_type_id":"4","last_reported":1762034922,"current_range_meters":6000,"station_id":"st_d2ngiaodas8pm72gd1h0","pricing_plan_id":"cebpf4jnsgd1na2vs0mg"},{"bike_id":"59653abb-3057-49b0-bb23-75a8f6844047","system_id":"levelo_inurba_marseille","lat":43.26553,"lon":5.37287,"is_reserved":false,"is_disabled":false,"rental_uris":{"android":"levelo://app?vid=59653abb-3057-49b0-bb23-75a8f6844047","ios":"levelo://app?vid=59653abb-3057-49b0-bb23-75a8f6844047"},"vehicle_type_id":"4","last_reported":1762034922,"current_range_meters":6400,"station_id":"ce4bhg12rcd13ifvqf70","pricing_plan_id":"cebpf4jnsgd1na2vs0mg"},{"bike_id":"8a759722-19f7-4a56-9646-2c26a5e7e25d","system_id":"levelo_inurba_marseille","lat":43.27964,"lon":5.38696,"is_reserved":false,"is_disabled":true,"rental_uris":{"android":"levelo://app?vid=8a759722-19f7-4a56-9646-2c26a5e7e25d","ios":"levelo://app?vid=8a759722-19f7-4a56-9646-2c26a5e7e25d"},"vehicle_type_id":"4","last_reported":1762034922,"current_range_meters":6400,"station_id":"ce4bhg12rcd13ifvqf80","pricing_plan_id":"cebpf4jnsgd1na2vs0mg"},{"bike_id":"421898f5-6c6d-4850-a304-3c0cc5951bee","system_id":"levelo_inurba_marseille","lat":43.2851,"lon":5.42193,"is_reserved":false,"is_disabled":false,"rental_uris":{"android":"levelo://app?vid=421898f5-6c6d-4850-a304-3c0cc5951bee","ios":"levelo://app?vid=421898f5-6c6d-4850-a304-3c0cc5951bee"},"vehicle_type_id":"4","last_reported":1762034922,"current_range_meters":6400,"station_id":"","pricing_plan_id":"cebpf4jnsgd1na2vs0mg"},{"bike_id":"ad9109f0-a47b-41ab-9a71-455a6b341dfc","system_id":"levelo_inurba_marseille","lat":43.28477,"lon":5.48393,"is_reserved":false,"is_disabled":false,"rental_uris":{"android":"levelo://app?vid=ad9109f0-a47b-41ab-9a71-455a6b341dfc","ios":"levelo://app?vid=ad9109f0-a47b-41ab-9a71-455a6b341dfc"},"vehicle_type_id":"4","last_reported":1762034922,"current_range_meters":6400,"station_id":"st_d3svhcjqgbts73a3dn0g","pricing_plan_id":"cebpf4jnsgd1na2vs0mg"},{"bike_id":"e866eab0-536f-4780-83bd-9243ac25a752","system_id":"levelo_inurba_marseille","lat":43.28136,"lon":5.38326,"is_reserved":false,"is_disabled":false,"rental_uris":{"android":"levelo://app?vid=e866eab0-536f-4780-83bd-9243ac25a752","ios":"levelo://app?vid=e866eab0-536f-4780-83bd-9243ac25a752"},"vehicle_type_id":"4","last_reported":1762034922,"current_range_meters":6400,"station_id":"","pricing_plan_id":"cebpf4jnsgd1na2vs0mg"},{"bike_id":"a76ffaae-5979-460e-8f40-102ce2693bb4","system_id":"levelo_inurba_marseille","lat":43.25489,"lon":5.37645,"is_reserved":false,"is_disabled":false,"rental_uris":{"android":"levelo://app?vid=a76ffaae-5979-460e-8f40-102ce2693bb4","ios":"levelo://app?vid=a76ffaae-5979-460e-8f40-102ce2693bb4"},"vehicle_type_id":"4","last_reported":1762034922,"current_range_meters":6800,"station_id":"ce4bhh12rcd13ifvqff0","pricing_plan_id":"cebpf4jnsgd1na2vs0mg"},{"bike_id":"df4d91e2-f5d7-41f4-ae09-8161d06b9d54","system_id":"levelo_inurba_marseille","lat":43.292983,"lon":5.374652,"is_reserved":false,"is_disabled":false,"rental_uris":{"android":"levelo://app?vid=df4d91e2-f5d7-41f4-ae09-8161d06b9d54","ios":"levelo://app?vid=df4d91e2-f5d7-41f4-ae09-8161d06b9d54"},"vehicle_type_id":"4","last_reported":1762034922,"current_range_meters":6800,"station_id":"","pricing_plan_id":"cebpf4jnsgd1na2vs0mg"},{"bike_id":"1a0d109d-d48f-49d5-9d71-446ce41f04f7","system_id":"levelo_inurba_marseille","lat":43.286567,"lon":5.386667,"is_reserved":false,"is_disabled":false,"rental_uris":{"android":"levelo://app?vid=1a0d109d-d48f-49d5-9d71-446ce41f04f7","ios":"levelo://app?vid=1a0d109d-d48f-49d5-9d71-446ce41f04f7"},"vehicle_type_id":"4","last_reported":1762034922,"current_range_meters":6800,"station_id":"ce4bh492rcd13ifvqdug","pricing_plan_id":"cebpf4jnsgd1na2vs0mg"},{"bike_id":"954c375b-cbbc-4b73-9fe7-d02909aecfcd","system_id":"levelo_inurba_marseille","lat":43.30809,"lon":5.43526,"is_reserved":false,"is_disabled":false,"rental_uris":{"android":"levelo://app?vid=954c375b-cbbc-4b73-9fe7-d02909aecfcd","ios":"levelo://app?vid=954c375b-cbbc-4b73-9fe7-d02909aecfcd"},"vehicle_type_id":"4","last_reported":1762034922,"current_range_meters":6800,"station_id":"","pricing_plan_id":"cebpf4jnsgd1na2vs0mg"},{"bike_id":"a4dac4fa-66e6-48be-a654-6e17cdc7ca0b","system_id":"levelo_inurba_marseille","lat":43.337571,"lon":5.374323,"is_reserved":false,"is_disabled":false,"rental_uris":{"android":"levelo://app?vid=a4dac4fa-66e6-48be-a654-6e17cdc7ca0b","ios":"levelo://app?vid=a4dac4fa-66e6-48be-a654-6e17cdc7ca0b"},"vehicle_type_id":"4","last_reported":1762034922,"current_range_meters":7200,"station_id":"","pricing_plan_id":"cebpf4jnsgd1na2vs0mg"},{"bike_id":"bac75035-74e2-4943-9d3d-02e6db2b99b2","system_id":"levelo_inurba_marseille","lat":43.29756,"lon":5.42781,"is_reserved":false,"is_disabled":false,"rental_uris":{"android":"levelo://app?vid=bac75035-74e2-4943-9d3d-02e6db2b99b2","ios":"levelo://app?vid=bac75035-74e2-4943-9d3d-02e6db2b99b2"},"vehicle_type_id":"4","last_reported":1762034922,"current_range_meters":7200,"station_id":"st_d3md5207bmas73dh9klg","pricing_plan_id":"cebpf4jnsgd1na2vs0mg"},{"bike_id":"76a96bff-9901-4355-a31e-bd5b72a8200c","system_id":"levelo_inurba_marseille","lat":43.30726,"lon":5.42439,"is_reserved":false,"is_disabled":false,"rental_uris":{"android":"levelo://app?vid=76a96bff-9901-4355-a31e-bd5b72a8200c","ios":"levelo://app?vid=76a96bff-9901-4355-a31e-bd5b72a8200c"},"vehicle_type_id":"4","last_reported":1762034922,"current_range_meters":8000,"station_id":"st_cvj6ca6bvosntc0bfgr0","pricing_plan_id":"cebpf4jnsgd1na2vs0mg"},{"bike_id":"b70bd611-7c5d-42d8-9537-81f3893174db","system_id":"levelo_inurba_marseille","lat":43.24644,"lon":5.38882,"is_reserved":false,"is_disabled":false,"rental_uris":{"android":"levelo://app?vid=b70bd611-7c5d-42d8-9537-81f3893174db","ios":"levelo://app?vid=b70bd611-7c5d-42d8-9537-81f3893174db"},"vehicle_type_id":"4","last_reported":1762034922,"current_range_meters":8000,"station_id":"ce4bhg12rcd13ifvqf60","pricing_plan_id":"cebpf4jnsgd1na2vs0mg"},{"bike_id":"3d11626a-5022-4aea-90e2-11d72bcc41d0","system_id":"levelo_inurba_marseille","lat":43.28003,"lon":5.41664,"is_reserved":false,"is_disabled":false,"rental_uris":{"android":"levelo://app?vid=3d11626a-5022-4aea-90e2-11d72bcc41d0","ios":"levelo://app?vid=3d11626a-5022-4aea-90e2-11d72bcc41d0"},"vehicle_type_id":"4","last_reported":1762034922,"current_range_meters":8000,"station_id":"ce4bho12rcd13ifvqh1g","pricing_plan_id":"cebpf4jnsgd1na2vs0mg"},{"bike_id":"71f5e85e-d11b-4a85-bb2b-eff8e84dbcbb","system_id":"levelo_inurba_marseille","lat":43.24181,"lon":5.3972,"is_reserved":false,"is_disabled":false,"rental_uris":{"android":"levelo://app?vid=71f5e85e-d11b-4a85-bb2b-eff8e84dbcbb","ios":"levelo://app?vid=71f5e85e-d11b-4a85-bb2b-eff8e84dbcbb"},"vehicle_type_id":"4","last_reported":1762034922,"current_range_meters":8000,"station_id":"ce4bhn12rcd13ifvqgpg","pricing_plan_id":"cebpf4jnsgd1na2vs0mg"},{"bike_id":"e8439756-3249-480f-8397-8b28483369ac","system_id":"levelo_inurba_marseille","lat":43.26936,"lon":5.38919,"is_reserved":false,"is_disabled":false,"rental_uris":{"android":"levelo://app?vid=e8439756-3249-480f-8397-8b28483369ac","ios":"levelo://app?vid=e8439756-3249-480f-8397-8b28483369ac"},"vehicle_type_id":"4","last_reported":1762034922,"current_range_meters":8000,"station_id":"ce4bhhh2rcd13ifvqfl0","pricing_plan_id":"cebpf4jnsgd1na2vs0mg"},{"bike_id":"63f6c7f6-f13e-4ff2-b108-8ca1570c1f96","system_id":"levelo_inurba_marseille","lat":43.28419,"lon":5.37508,"is_reserved":false,"is_disabled":false,"rental_uris":{"android":"levelo://app?vid=63f6c7f6-f13e-4ff2-b108-8ca1570c1f96","ios":"levelo://app?vid=63f6c7f6-f13e-4ff2-b108-8ca1570c1f96"},"vehicle_type_id":"4","last_reported":1762034922,"current_range_meters":8400,"station_id":"ce4bh412rcd13ifvqds0","pricing_plan_id":"cebpf4jnsgd1na2vs0mg"},{"bike_id":"0d53681a-2462-4979-9106-982e825913ab","system_id":"levelo_inurba_marseille","lat":43.29561,"lon":5.36597,"is_reserved":false,"is_disabled":false,"rental_uris":{"android":"levelo://app?vid=0d53681a-2462-4979-9106-982e825913ab","ios":"levelo://app?vid=0d53681a-2462-4979-9106-982e825913ab"},"vehicle_type_id":"4","last_reported":1762034922,"current_range_meters":8400,"station_id":"","pricing_plan_id":"cebpf4jnsgd1na2vs0mg"},{"bike_id":"995c398a-192b-4e7d-923c-0e5720d4a0ab","system_id":"levelo_inurba_marseille","lat":43.21751,"lon":5.34602,"is_reserved":false,"is_disabled":false,"rental_uris":{"android":"levelo://app?vid=995c398a-192b-4e7d-923c-0e5720d4a0ab","ios":"levelo://app?vid=995c398a-192b-4e7d-923c-0e5720d4a0ab"},"vehicle_type_id":"4","last_reported":1762034922,"current_range_meters":8400,"station_id":"st_cvj6r9ubvosntc0bgbag","pricing_plan_id":"cebpf4jnsgd1na2vs0mg"},{"bike_id":"27abc7d1-dd85-495f-9415-aa00cef4846e","system_id":"levelo_inurba_marseille","lat":43.27787,"lon":5.39552,"is_reserved":false,"is_disabled":false,"rental_uris":{"android":"levelo://app?vid=27abc7d1-dd85-495f-9415-aa00cef4846e","ios":"levelo://app?vid=27abc7d1-dd85-495f-9415-aa00cef4846e"},"vehicle_type_id":"4","last_reported":1762034922,"current_range_meters":8400,"station_id":"","pricing_plan_id":"cebpf4jnsgd1na2vs0mg"},{"bike_id":"7964de6c-fad0-4fd1-8a21-0815ea287c4c","system_id":"levelo_inurba_marseille","lat":43.28155,"lon":5.42641,"is_reserved":false,"is_disabled":true,"rental_uris":{"android":"levelo://app?vid=7964de6c-fad0-4fd1-8a21-0815ea287c4c","ios":"levelo://app?vid=7964de6c-fad0-4fd1-8a21-0815ea287c4c"},"vehicle_type_id":"4","last_reported":1762034922,"current_range_meters":8800,"station_id":"ce4bhnh2rcd13ifvqgug","pricing_plan_id":"cebpf4jnsgd1na2vs0mg"},{"bike_id":"52b117f2-4c01-4f66-887d-006722496528","system_id":"levelo_inurba_marseille","lat":43.30858,"lon":5.37156,"is_reserved":false,"is_disabled":false,"rental_uris":{"android":"levelo://app?vid=52b117f2-4c01-4f66-887d-006722496528","ios":"levelo://app?vid=52b117f2-4c01-4f66-887d-006722496528"},"vehicle_type_id":"4","last_reported":1762034922,"current_range_meters":8800,"station_id":"","pricing_plan_id":"cebpf4jnsgd1na2vs0mg"},{"bike_id":"6a1548d2-4b86-4ce3-834c-e9f0cf1531bc","system_id":"levelo_inurba_marseille","lat":43.28405,"lon":5.37513,"is_reserved":false,"is_disabled":false,"rental_uris":{"android":"levelo://app?vid=6a1548d2-4b86-4ce3-834c-e9f0cf1531bc","ios":"levelo://app?vid=6a1548d2-4b86-4ce3-834c-e9f0cf1531bc"},"vehicle_type_id":"4","last_reported":1762034922,"current_range_meters":8800,"station_id":"ce4bh412rcd13ifvqds0","pricing_plan_id":"cebpf4jnsgd1na2vs0mg"},{"bike_id":"a366bdea-f3fc-44ac-9a4b-4beb359fdda8","system_id":"levelo_inurba_marseille","lat":43.28442,"lon":5.39206,"is_reserved":false,"is_disabled":false,"rental_uris":{"android":"levelo://app?vid=a366bdea-f3fc-44ac-9a4b-4beb359fdda8","ios":"levelo://app?vid=a366bdea-f3fc-44ac-9a4b-4beb359fdda8"},"vehicle_type_id":"4","last_reported":1762034922,"current_range_meters":9200,"station_id":"ce4bhoh2rcd13ifvqh5g","pricing_plan_id":"cebpf4jnsgd1na2vs0mg"},{"bike_id":"dd2f99b0-440f-4a58-a70f-8d61634eb937","system_id":"levelo_inurba_marseille","lat":43.26956,"lon":5.40726,"is_reserved":false,"is_disabled":false,"rental_uris":{"android":"levelo://app?vid=dd2f99b0-440f-4a58-a70f-8d61634eb937","ios":"levelo://app?vid=dd2f99b0-440f-4a58-a70f-8d61634eb937"},"vehicle_type_id":"4","last_reported":1762034922,"current_range_meters":9200,"station_id":"","pricing_plan_id":"cebpf4jnsgd1na2vs0mg"},{"bike_id":"dcb5f4d6-a57a-45ea-b185-de3fe952058c","system_id":"levelo_inurba_marseille","lat":43.28105,"lon":5.3784,"is_reserved":false,"is_disabled":true,"rental_uris":{"android":"levelo://app?vid=dcb5f4d6-a57a-45ea-b185-de3fe952058c","ios":"levelo://app?vid=dcb5f4d6-a57a-45ea-b185-de3fe952058c"},"vehicle_type_id":"4","last_reported":1762034922,"current_range_meters":9200,"station_id":"ce4bha12rcd13ifvqee0","pricing_plan_id":"cebpf4jnsgd1na2vs0mg"},{"bike_id":"3d9d5eff-0268-4e8a-b1b9-3dd36fe9b21b","system_id":"levelo_inurba_marseille","lat":43.25501,"lon":5.37652,"is_reserved":false,"is_disabled":false,"rental_uris":{"android":"levelo://app?vid=3d9d5eff-0268-4e8a-b1b9-3dd36fe9b21b","ios":"levelo://app?vid=3d9d5eff-0268-4e8a-b1b9-3dd36fe9b21b"},"vehicle_type_id":"4","last_reported":1762034922,"current_range_meters":9600,"station_id":"ce4bhh12rcd13ifvqff0","pricing_plan_id":"cebpf4jnsgd1na2vs0mg"},{"bike_id":"c19fb06d-2ef7-439a-8847-c99a26d91d43","system_id":"levelo_inurba_marseille","lat":43.28618,"lon":5.35108,"is_reserved":false,"is_disabled":false,"rental_uris":{"android":"levelo://app?vid=c19fb06d-2ef7-439a-8847-c99a26d91d43","ios":"levelo://app?vid=c19fb06d-2ef7-439a-8847-c99a26d91d43"},"vehicle_type_id":"4","last_reported":1762034922,"current_range_meters":9600,"station_id":"ce4bhch2rcd13ifvqeug","pricing_plan_id":"cebpf4jnsgd1na2vs0mg"},{"bike_id":"9fb88929-c8fa-426a-bc1e-2ab6915d64b5","system_id":"levelo_inurba_marseille","lat":43.302941,"lon":5.397074,"is_reserved":false,"is_disabled":false,"rental_uris":{"android":"levelo://app?vid=9fb88929-c8fa-426a-bc1e-2ab6915d64b5","ios":"levelo://app?vid=9fb88929-c8fa-426a-bc1e-2ab6915d64b5"},"vehicle_type_id":"4","last_reported":1762034922,"current_range_meters":9600,"station_id":"ce4bh112rcd13ifvqda0","pricing_plan_id":"cebpf4jnsgd1na2vs0mg"},{"bike_id":"23706b6e-dbd1-48c5-96fb-30b028f4d6b2","system_id":"levelo_inurba_marseille","lat":43.27674,"lon":5.388736,"is_reserved":false,"is_disabled":false,"rental_uris":{"android":"levelo://app?vid=23706b6e-dbd1-48c5-96fb-30b028f4d6b2","ios":"levelo://app?vid=23706b6e-dbd1-48c5-96fb-30b028f4d6b2"},"vehicle_type_id":"4","last_reported":1762034922,"current_range_meters":9600,"station_id":"","pricing_plan_id":"cebpf4jnsgd1na2vs0mg"},{"bike_id":"fe211fee-df04-4312-bc0a-d625bf6086ab","system_id":"levelo_inurba_marseille","lat":43.29175,"lon":5.40328,"is_reserved":false,"is_disabled":true,"rental_uris":{"android":"levelo://app?vid=fe211fee-df04-4312-bc0a-d625bf6086ab","ios":"levelo://app?vid=fe211fee-df04-4312-bc0a-d625bf6086ab"},"vehicle_type_id":"4","last_reported":1762034922,"current_range_meters":9600,"station_id":"","pricing_plan_id":"cebpf4jnsgd1na2vs0mg"},{"bike_id":"74b15735-564b-4f09-952a-ba8cccb96884","system_id":"levelo_inurba_marseille","lat":43.29828,"lon":5.44068,"is_reserved":false,"is_disabled":false,"rental_uris":{"android":"levelo://app?vid=74b15735-564b-4f09-952a-ba8cccb96884","ios":"levelo://app?vid=74b15735-564b-4f09-952a-ba8cccb96884"},"vehicle_type_id":"4","last_reported":1762034922,"current_range_meters":9600,"station_id":"st_d3jp68qikq2c7381ktn0","pricing_plan_id":"cebpf4jnsgd1na2vs0mg"},{"bike_id":"d4a23ce2-e609-4740-a61e-21b491e29dda","system_id":"levelo_inurba_marseille","lat":43.243913,"lon":5.370884,"is_reserved":false,"is_disabled":false,"rental_uris":{"android":"levelo://app?vid=d4a23ce2-e609-4740-a61e-21b491e29dda","ios":"levelo://app?vid=d4a23ce2-e609-4740-a61e-21b491e29dda"},"vehicle_type_id":"4","last_reported":1762034922,"current_range_meters":10000,"station_id":"ce4bhhh2rcd13ifvqfk0","pricing_plan_id":"cebpf4jnsgd1na2vs0mg"},{"bike_id":"8eb0b4fc-6b4d-4804-ac0c-c62070d69f5b","system_id":"levelo_inurba_marseille","lat":43.286136,"lon":5.351005,"is_reserved":false,"is_disabled":false,"rental_uris":{"android":"levelo://app?vid=8eb0b4fc-6b4d-4804-ac0c-c62070d69f5b","ios":"levelo://app?vid=8eb0b4fc-6b4d-4804-ac0c-c62070d69f5b"},"vehicle_type_id":"4","last_reported":1762034922,"current_range_meters":10000,"station_id":"ce4bhch2rcd13ifvqeug","pricing_plan_id":"cebpf4jnsgd1na2vs0mg"},{"bike_id":"fd35881c-35d2-4dba-a48e-e2657e326f27","system_id":"levelo_inurba_marseille","lat":43.2572,"lon":5.41108,"is_reserved":false,"is_disabled":false,"rental_uris":{"android":"levelo://app?vid=fd35881c-35d2-4dba-a48e-e2657e326f27","ios":"levelo://app?vid=fd35881c-35d2-4dba-a48e-e2657e326f27"},"vehicle_type_id":"4","last_reported":1762034922,"current_range_meters":10000,"station_id":"ce4bhkp2rcd13ifvqgd0","pricing_plan_id":"cebpf4jnsgd1na2vs0mg"},{"bike_id":"b160d500-955b-4d65-bd51-bd6fb19db371","system_id":"levelo_inurba_marseille","lat":43.262243,"lon":5.404492,"is_reserved":false,"is_disabled":false,"rental_uris":{"android":"levelo://app?vid=b160d500-955b-4d65-bd51-bd6fb19db371","ios":"levelo://app?vid=b160d500-955b-4d65-bd51-bd6fb19db371"},"vehicle_type_id":"4","last_reported":1762034922,"current_range_meters":10000,"station_id":"ce4bhmh2rcd13ifvqgmg","pricing_plan_id":"cebpf4jnsgd1na2vs0mg"},{"bike_id":"4867042b-9208-4687-ade1-f2e578fc9ef3","system_id":"levelo_inurba_marseille","lat":43.24806,"lon":5.37449,"is_reserved":false,"is_disabled":false,"rental_uris":{"android":"levelo://app?vid=4867042b-9208-4687-ade1-f2e578fc9ef3","ios":"levelo://app?vid=4867042b-9208-4687-ade1-f2e578fc9ef3"},"vehicle_type_id":"4","last_reported":1762034922,"current_range_meters":10000,"station_id":"ce4bhgh2rcd13ifvqfb0","pricing_plan_id":"cebpf4jnsgd1na2vs0mg"},{"bike_id":"e8ee938b-1edb-4e18-a67e-d109902ac3b3","system_id":"levelo_inurba_marseille","lat":43.29202,"lon":5.39339,"is_reserved":false,"is_disabled":false,"rental_uris":{"android":"levelo://app?vid=e8ee938b-1edb-4e18-a67e-d109902ac3b3","ios":"levelo://app?vid=e8ee938b-1edb-4e18-a67e-d109902ac3b3"},"vehicle_type_id":"4","last_reported":1762034922,"current_range_meters":10800,"station_id":"ce4bh192rcd13ifvqdd0","pricing_plan_id":"cebpf4jnsgd1na2vs0mg"},{"bike_id":"ed890a36-02ef-4914-b497-b0b60f616f2a","system_id":"levelo_inurba_marseille","lat":43.28154,"lon":5.42644,"is_reserved":false,"is_disabled":false,"rental_uris":{"android":"levelo://app?vid=ed890a36-02ef-4914-b497-b0b60f616f2a","ios":"levelo://app?vid=ed890a36-02ef-4914-b497-b0b60f616f2a"},"vehicle_type_id":"4","last_reported":1762034922,"current_range_meters":10800,"station_id":"ce4bhnh2rcd13ifvqgug","pricing_plan_id":"cebpf4jnsgd1na2vs0mg"},{"bike_id":"b1e81361-2b17-4ef1-8a58-6def5753471b","system_id":"levelo_inurba_marseille","lat":43.33753,"lon":5.37484,"is_reserved":false,"is_disabled":false,"rental_uris":{"android":"levelo://app?vid=b1e81361-2b17-4ef1-8a58-6def5753471b","ios":"levelo://app?vid=b1e81361-2b17-4ef1-8a58-6def5753471b"},"vehicle_type_id":"4","last_reported":1762034922,"current_range_meters":10800,"station_id":"","pricing_plan_id":"cebpf4jnsgd1na2vs0mg"},{"bike_id":"bfb82fab-5288-4f75-a502-04a2d2fe4527","system_id":"levelo_inurba_marseille","lat":43.29077,"lon":5.37167,"is_reserved":false,"is_disabled":false,"rental_uris":{"android":"levelo://app?vid=bfb82fab-5288-4f75-a502-04a2d2fe4527","ios":"levelo://app?vid=bfb82fab-5288-4f75-a502-04a2d2fe4527"},"vehicle_type_id":"4","last_reported":1762034922,"current_range_meters":11200,"station_id":"ce4bh5p2rcd13ifvqe4g","pricing_plan_id":"cebpf4jnsgd1na2vs0mg"},{"bike_id":"1da56141-654f-442c-b20c-6c2bd52c2965","system_id":"levelo_inurba_marseille","lat":43.31268,"lon":5.38182,"is_reserved":false,"is_disabled":true,"rental_uris":{"android":"levelo://app?vid=1da56141-654f-442c-b20c-6c2bd52c2965","ios":"levelo://app?vid=1da56141-654f-442c-b20c-6c2bd52c2965"},"vehicle_type_id":"4","last_reported":1762034922,"current_range_meters":11200,"station_id":"","pricing_plan_id":"cebpf4jnsgd1na2vs0mg"},{"bike_id":"57f565fb-b7af-45c3-bae7-5b6c83cfa8d1","system_id":"levelo_inurba_marseille","lat":43.270523,"lon":5.392259,"is_reserved":false,"is_disabled":false,"rental_uris":{"android":"levelo://app?vid=57f565fb-b7af-45c3-bae7-5b6c83cfa8d1","ios":"levelo://app?vid=57f565fb-b7af-45c3-bae7-5b6c83cfa8d1"},"vehicle_type_id":"4","last_reported":1762034922,"current_range_meters":11200,"station_id":"ce4bhe12rcd13ifvqf30","pricing_plan_id":"cebpf4jnsgd1na2vs0mg"},{"bike_id":"e980a7cf-a190-48ed-8134-8c3b5453eddc","system_id":"levelo_inurba_marseille","lat":43.29205,"lon":5.40117,"is_reserved":false,"is_disabled":false,"rental_uris":{"android":"levelo://app?vid=e980a7cf-a190-48ed-8134-8c3b5453eddc","ios":"levelo://app?vid=e980a7cf-a190-48ed-8134-8c3b5453eddc"},"vehicle_type_id":"4","last_reported":1762034922,"current_range_meters":11200,"station_id":"","pricing_plan_id":"cebpf4jnsgd1na2vs0mg"},{"bike_id":"baeb217d-d0d2-44b1-8dd8-805f0e409759","system_id":"levelo_inurba_marseille","lat":43.240759,"lon":5.37759,"is_reserved":false,"is_disabled":false,"rental_uris":{"android":"levelo://app?vid=baeb217d-d0d2-44b1-8dd8-805f0e409759","ios":"levelo://app?vid=baeb217d-d0d2-44b1-8dd8-805f0e409759"},"vehicle_type_id":"4","last_reported":1762034922,"current_range_meters":11200,"station_id":"ce4bhnp2rcd13ifvqgvg","pricing_plan_id":"cebpf4jnsgd1na2vs0mg"},{"bike_id":"c11d71f6-6418-4777-b9d2-29132ae76e19","system_id":"levelo_inurba_marseille","lat":43.22931,"lon":5.35379,"is_reserved":false,"is_disabled":false,"rental_uris":{"android":"levelo://app?vid=c11d71f6-6418-4777-b9d2-29132ae76e19","ios":"levelo://app?vid=c11d71f6-6418-4777-b9d2-29132ae76e19"},"vehicle_type_id":"4","last_reported":1762034922,"current_range_meters":11600,"station_id":"cpo3532slgdg3j2ikp40","pricing_plan_id":"cebpf4jnsgd1na2vs0mg"},{"bike_id":"b6a67bfe-b431-4a2c-b991-413f29fcb34f","system_id":"levelo_inurba_marseille","lat":43.27366,"lon":5.36257,"is_reserved":false,"is_disabled":false,"rental_uris":{"android":"levelo://app?vid=b6a67bfe-b431-4a2c-b991-413f29fcb34f","ios":"levelo://app?vid=b6a67bfe-b431-4a2c-b991-413f29fcb34f"},"vehicle_type_id":"4","last_reported":1762034922,"current_range_meters":11600,"station_id":"ce4bhbh2rcd13ifvqeo0","pricing_plan_id":"cebpf4jnsgd1na2vs0mg"},{"bike_id":"b8ebd8da-21d9-42e8-bb5f-906340bf2793","system_id":"levelo_inurba_marseille","lat":43.25331,"lon":5.42152,"is_reserved":false,"is_disabled":false,"rental_uris":{"android":"levelo://app?vid=b8ebd8da-21d9-42e8-bb5f-906340bf2793","ios":"levelo://app?vid=b8ebd8da-21d9-42e8-bb5f-906340bf2793"},"vehicle_type_id":"4","last_reported":1762034922,"current_range_meters":11600,"station_id":"st_d2m65c5bi1j21697t3ng","pricing_plan_id":"cebpf4jnsgd1na2vs0mg"},{"bike_id":"afba2e7c-0dbc-4820-b93f-fdd58168ba1f","system_id":"levelo_inurba_marseille","lat":43.28765,"lon":5.385455,"is_reserved":false,"is_disabled":false,"rental_uris":{"android":"levelo://app?vid=afba2e7c-0dbc-4820-b93f-fdd58168ba1f","ios":"levelo://app?vid=afba2e7c-0dbc-4820-b93f-fdd58168ba1f"},"vehicle_type_id":"4","last_reported":1762034922,"current_range_meters":11600,"station_id":"","pricing_plan_id":"cebpf4jnsgd1na2vs0mg"},{"bike_id":"68dfe5bf-96d8-40ed-a701-d1cafa21ceb7","system_id":"levelo_inurba_marseille","lat":43.30573,"lon":5.3896,"is_reserved":false,"is_disabled":false,"rental_uris":{"android":"levelo://app?vid=68dfe5bf-96d8-40ed-a701-d1cafa21ceb7","ios":"levelo://app?vid=68dfe5bf-96d8-40ed-a701-d1cafa21ceb7"},"vehicle_type_id":"4","last_reported":1762034922,"current_range_meters":11600,"station_id":"ce4bgk12rcd13ifvqbi0","pricing_plan_id":"cebpf4jnsgd1na2vs0mg"},{"bike_id":"c9fedd74-dc44-4209-8d5d-c45e05858c5c","system_id":"levelo_inurba_marseille","lat":43.305948,"lon":5.393607,"is_reserved":false,"is_disabled":false,"rental_uris":{"android":"levelo://app?vid=c9fedd74-dc44-4209-8d5d-c45e05858c5c","ios":"levelo://app?vid=c9fedd74-dc44-4209-8d5d-c45e05858c5c"},"vehicle_type_id":"4","last_reported":1762034922,"current_range_meters":11600,"station_id":"ce4bh0p2rcd13ifvqd80","pricing_plan_id":"cebpf4jnsgd1na2vs0mg"},{"bike_id":"b4cb0cf7-f8c5-4677-91c1-154973aab3fd","system_id":"levelo_inurba_marseille","lat":43.28412,"lon":5.34978,"is_reserved":false,"is_disabled":false,"rental_uris":{"android":"levelo://app?vid=b4cb0cf7-f8c5-4677-91c1-154973aab3fd","ios":"levelo://app?vid=b4cb0cf7-f8c5-4677-91c1-154973aab3fd"},"vehicle_type_id":"4","last_reported":1762034922,"current_range_meters":11600,"station_id":"ce4bhbh2rcd13ifvqepg","pricing_plan_id":"cebpf4jnsgd1na2vs0mg"},{"bike_id":"7d2e17c1-d8c6-4c26-9101-6de42a648210","system_id":"levelo_inurba_marseille","lat":43.30742,"lon":5.42445,"is_reserved":false,"is_disabled":false,"rental_uris":{"android":"levelo://app?vid=7d2e17c1-d8c6-4c26-9101-6de42a648210","ios":"levelo://app?vid=7d2e17c1-d8c6-4c26-9101-6de42a648210"},"vehicle_type_id":"4","last_reported":1762034922,"current_range_meters":12000,"station_id":"st_cvj6ca6bvosntc0bfgr0","pricing_plan_id":"cebpf4jnsgd1na2vs0mg"},{"bike_id":"7a9e1e86-52dc-42e4-a53b-236a591ba00d","system_id":"levelo_inurba_marseille","lat":43.28822,"lon":5.36381,"is_reserved":false,"is_disabled":false,"rental_uris":{"android":"levelo://app?vid=7a9e1e86-52dc-42e4-a53b-236a591ba00d","ios":"levelo://app?vid=7a9e1e86-52dc-42e4-a53b-236a591ba00d"},"vehicle_type_id":"4","last_reported":1762034922,"current_range_meters":12000,"station_id":"","pricing_plan_id":"cebpf4jnsgd1na2vs0mg"},{"bike_id":"6685b6bc-bc7f-402b-b2ec-bd7d413c43f8","system_id":"levelo_inurba_marseille","lat":43.29529,"lon":5.38541,"is_reserved":false,"is_disabled":false,"rental_uris":{"android":"levelo://app?vid=6685b6bc-bc7f-402b-b2ec-bd7d413c43f8","ios":"levelo://app?vid=6685b6bc-bc7f-402b-b2ec-bd7d413c43f8"},"vehicle_type_id":"4","last_reported":1762034922,"current_range_meters":12000,"station_id":"ce4bgih2rcd13ifvqba0","pricing_plan_id":"cebpf4jnsgd1na2vs0mg"},{"bike_id":"0089665c-d050-4f0d-8d27-e9a6af9208fc","system_id":"levelo_inurba_marseille","lat":43.30186,"lon":5.38037,"is_reserved":false,"is_disabled":false,"rental_uris":{"android":"levelo://app?vid=0089665c-d050-4f0d-8d27-e9a6af9208fc","ios":"levelo://app?vid=0089665c-d050-4f0d-8d27-e9a6af9208fc"},"vehicle_type_id":"4","last_reported":1762034922,"current_range_meters":12000,"station_id":"","pricing_plan_id":"cebpf4jnsgd1na2vs0mg"},{"bike_id":"5bbe5eb8-d091-4160-9452-6fe2b978ded2","system_id":"levelo_inurba_marseille","lat":43.295073,"lon":5.389124,"is_reserved":false,"is_disabled":false,"rental_uris":{"android":"levelo://app?vid=5bbe5eb8-d091-4160-9452-6fe2b978ded2","ios":"levelo://app?vid=5bbe5eb8-d091-4160-9452-6fe2b978ded2"},"vehicle_type_id":"4","last_reported":1762034922,"current_range_meters":12000,"station_id":"","pricing_plan_id":"cebpf4jnsgd1na2vs0mg"},{"bike_id":"e757de7d-039d-4bd6-9cce-c8dd2d2566c4","system_id":"levelo_inurba_marseille","lat":43.24817,"lon":5.37445,"is_reserved":false,"is_disabled":false,"rental_uris":{"android":"levelo://app?vid=e757de7d-039d-4bd6-9cce-c8dd2d2566c4","ios":"levelo://app?vid=e757de7d-039d-4bd6-9cce-c8dd2d2566c4"},"vehicle_type_id":"4","last_reported":1762034922,"current_range_meters":12400,"station_id":"ce4bhgh2rcd13ifvqfb0","pricing_plan_id":"cebpf4jnsgd1na2vs0mg"},{"bike_id":"2df752b4-3d2a-4a0d-b2cd-a0c413d8b5b1","system_id":"levelo_inurba_marseille","lat":43.23972,"lon":5.36631,"is_reserved":false,"is_disabled":false,"rental_uris":{"android":"levelo://app?vid=2df752b4-3d2a-4a0d-b2cd-a0c413d8b5b1","ios":"levelo://app?vid=2df752b4-3d2a-4a0d-b2cd-a0c413d8b5b1"},"vehicle_type_id":"4","last_reported":1762034922,"current_range_meters":12400,"station_id":"ce4bhi12rcd13ifvqfp0","pricing_plan_id":"cebpf4jnsgd1na2vs0mg"},{"bike_id":"2ea8b295-6a13-47c7-8965-8106cf796d7e","system_id":"levelo_inurba_marseille","lat":43.31319,"lon":5.37659,"is_reserved":false,"is_disabled":false,"rental_uris":{"android":"levelo://app?vid=2ea8b295-6a13-47c7-8965-8106cf796d7e","ios":"levelo://app?vid=2ea8b295-6a13-47c7-8965-8106cf796d7e"},"vehicle_type_id":"4","last_reported":1762034922,"current_range_meters":12400,"station_id":"","pricing_plan_id":"cebpf4jnsgd1na2vs0mg"},{"bike_id":"a0f92672-4d14-453a-aa5f-fb4aaf706899","system_id":"levelo_inurba_marseille","lat":43.29354,"lon":5.397694,"is_reserved":false,"is_disabled":false,"rental_uris":{"android":"levelo://app?vid=a0f92672-4d14-453a-aa5f-fb4aaf706899","ios":"levelo://app?vid=a0f92672-4d14-453a-aa5f-fb4aaf706899"},"vehicle_type_id":"4","last_reported":1762034922,"current_range_meters":12400,"station_id":"ce4bh2p2rcd13ifvqdi0","pricing_plan_id":"cebpf4jnsgd1na2vs0mg"},{"bike_id":"582fc37e-4a5b-4b5b-b728-2e60a0b3c13e","system_id":"levelo_inurba_marseille","lat":43.28574,"lon":5.39492,"is_reserved":false,"is_disabled":false,"rental_uris":{"android":"levelo://app?vid=582fc37e-4a5b-4b5b-b728-2e60a0b3c13e","ios":"levelo://app?vid=582fc37e-4a5b-4b5b-b728-2e60a0b3c13e"},"vehicle_type_id":"4","last_reported":1762034922,"current_range_meters":12400,"station_id":"ce4bh292rcd13ifvqdg0","pricing_plan_id":"cebpf4jnsgd1na2vs0mg"},{"bike_id":"0c3bfe72-1bfa-4fe4-8ec1-abc531b0b6c5","system_id":"levelo_inurba_marseille","lat":43.26548,"lon":5.37285,"is_reserved":false,"is_disabled":true,"rental_uris":{"android":"levelo://app?vid=0c3bfe72-1bfa-4fe4-8ec1-abc531b0b6c5","ios":"levelo://app?vid=0c3bfe72-1bfa-4fe4-8ec1-abc531b0b6c5"},"vehicle_type_id":"4","last_reported":1762034922,"current_range_meters":12400,"station_id":"ce4bhg12rcd13ifvqf70","pricing_plan_id":"cebpf4jnsgd1na2vs0mg"},{"bike_id":"1d439671-59d7-451a-8e21-7e55844b8e84","system_id":"levelo_inurba_marseille","lat":43.27382,"lon":5.36265,"is_reserved":false,"is_disabled":false,"rental_uris":{"android":"levelo://app?vid=1d439671-59d7-451a-8e21-7e55844b8e84","ios":"levelo://app?vid=1d439671-59d7-451a-8e21-7e55844b8e84"},"vehicle_type_id":"4","last_reported":1762034922,"current_range_meters":12400,"station_id":"ce4bhbh2rcd13ifvqeo0","pricing_plan_id":"cebpf4jnsgd1na2vs0mg"},{"bike_id":"0ad7d91e-78df-4a2a-ac74-214b572a5906","system_id":"levelo_inurba_marseille","lat":43.25512,"lon":5.3765,"is_reserved":false,"is_disabled":false,"rental_uris":{"android":"levelo://app?vid=0ad7d91e-78df-4a2a-ac74-214b572a5906","ios":"levelo://app?vid=0ad7d91e-78df-4a2a-ac74-214b572a5906"},"vehicle_type_id":"4","last_reported":1762034922,"current_range_meters":12400,"station_id":"ce4bhh12rcd13ifvqff0","pricing_plan_id":"cebpf4jnsgd1na2vs0mg"},{"bike_id":"6f55c2df-5461-4f13-8308-6d7dd6f86eb4","system_id":"levelo_inurba_marseille","lat":43.22934,"lon":5.35378,"is_reserved":false,"is_disabled":false,"rental_uris":{"android":"levelo://app?vid=6f55c2df-5461-4f13-8308-6d7dd6f86eb4","ios":"levelo://app?vid=6f55c2df-5461-4f13-8308-6d7dd6f86eb4"},"vehicle_type_id":"4","last_reported":1762034922,"current_range_meters":12800,"station_id":"cpo3532slgdg3j2ikp40","pricing_plan_id":"cebpf4jnsgd1na2vs0mg"},{"bike_id":"dd026205-7708-4e41-b648-e4571a33b868","system_id":"levelo_inurba_marseille","lat":43.292575,"lon":5.384295,"is_reserved":false,"is_disabled":false,"rental_uris":{"android":"levelo://app?vid=dd026205-7708-4e41-b648-e4571a33b868","ios":"levelo://app?vid=dd026205-7708-4e41-b648-e4571a33b868"},"vehicle_type_id":"4","last_reported":1762034922,"current_range_meters":12800,"station_id":"ce4bh692rcd13ifvqea0","pricing_plan_id":"cebpf4jnsgd1na2vs0mg"},{"bike_id":"769e9f08-d61c-4253-b1a4-ec58f411020c","system_id":"levelo_inurba_marseille","lat":43.24815,"lon":5.37458,"is_reserved":false,"is_disabled":false,"rental_uris":{"android":"levelo://app?vid=769e9f08-d61c-4253-b1a4-ec58f411020c","ios":"levelo://app?vid=769e9f08-d61c-4253-b1a4-ec58f411020c"},"vehicle_type_id":"4","last_reported":1762034922,"current_range_meters":12800,"station_id":"ce4bhgh2rcd13ifvqfb0","pricing_plan_id":"cebpf4jnsgd1na2vs0mg"},{"bike_id":"19d6fb00-c822-4b06-86f9-32662647d89f","system_id":"levelo_inurba_marseille","lat":43.25342,"lon":5.42179,"is_reserved":false,"is_disabled":false,"rental_uris":{"android":"levelo://app?vid=19d6fb00-c822-4b06-86f9-32662647d89f","ios":"levelo://app?vid=19d6fb00-c822-4b06-86f9-32662647d89f"},"vehicle_type_id":"4","last_reported":1762034922,"current_range_meters":12800,"station_id":"st_d2m65c5bi1j21697t3ng","pricing_plan_id":"cebpf4jnsgd1na2vs0mg"},{"bike_id":"08e3b4fa-d54c-4722-a931-d232fed19815","system_id":"levelo_inurba_marseille","lat":43.29324,"lon":5.37179,"is_reserved":false,"is_disabled":false,"rental_uris":{"android":"levelo://app?vid=08e3b4fa-d54c-4722-a931-d232fed19815","ios":"levelo://app?vid=08e3b4fa-d54c-4722-a931-d232fed19815"},"vehicle_type_id":"4","last_reported":1762034922,"current_range_meters":12800,"station_id":"ce4bgh92rcd13ifvqb40","pricing_plan_id":"cebpf4jnsgd1na2vs0mg"},{"bike_id":"7cfd7689-47bd-4077-a9da-ab93864c2e2f","system_id":"levelo_inurba_marseille","lat":43.29269,"lon":5.38452,"is_reserved":false,"is_disabled":false,"rental_uris":{"android":"levelo://app?vid=7cfd7689-47bd-4077-a9da-ab93864c2e2f","ios":"levelo://app?vid=7cfd7689-47bd-4077-a9da-ab93864c2e2f"},"vehicle_type_id":"4","last_reported":1762034922,"current_range_meters":12800,"station_id":"ce4bh692rcd13ifvqea0","pricing_plan_id":"cebpf4jnsgd1na2vs0mg"},{"bike_id":"87f35eb6-fdd4-48cb-aac4-3bc58afdac22","system_id":"levelo_inurba_marseille","lat":43.248016,"lon":5.374549,"is_reserved":false,"is_disabled":false,"rental_uris":{"android":"levelo://app?vid=87f35eb6-fdd4-48cb-aac4-3bc58afdac22","ios":"levelo://app?vid=87f35eb6-fdd4-48cb-aac4-3bc58afdac22"},"vehicle_type_id":"4","last_reported":1762034922,"current_range_meters":12800,"station_id":"ce4bhgh2rcd13ifvqfb0","pricing_plan_id":"cebpf4jnsgd1na2vs0mg"},{"bike_id":"96941c52-c31e-4958-bc78-700994a13fd3","system_id":"levelo_inurba_marseille","lat":43.25502,"lon":5.37649,"is_reserved":false,"is_disabled":false,"rental_uris":{"android":"levelo://app?vid=96941c52-c31e-4958-bc78-700994a13fd3","ios":"levelo://app?vid=96941c52-c31e-4958-bc78-700994a13fd3"},"vehicle_type_id":"4","last_reported":1762034922,"current_range_meters":13600,"station_id":"ce4bhh12rcd13ifvqff0","pricing_plan_id":"cebpf4jnsgd1na2vs0mg"},{"bike_id":"cdd52aa5-ec9a-4a51-9bc7-7def2e3929f5","system_id":"levelo_inurba_marseille","lat":43.26504,"lon":5.39571,"is_reserved":false,"is_disabled":false,"rental_uris":{"android":"levelo://app?vid=cdd52aa5-ec9a-4a51-9bc7-7def2e3929f5","ios":"levelo://app?vid=cdd52aa5-ec9a-4a51-9bc7-7def2e3929f5"},"vehicle_type_id":"4","last_reported":1762034922,"current_range_meters":13600,"station_id":"ce4bhi12rcd13ifvqfq0","pricing_plan_id":"cebpf4jnsgd1na2vs0mg"},{"bike_id":"d1f9c9ea-4fd6-41fc-b98e-41abf6519045","system_id":"levelo_inurba_marseille","lat":43.2842,"lon":5.34987,"is_reserved":false,"is_disabled":false,"rental_uris":{"android":"levelo://app?vid=d1f9c9ea-4fd6-41fc-b98e-41abf6519045","ios":"levelo://app?vid=d1f9c9ea-4fd6-41fc-b98e-41abf6519045"},"vehicle_type_id":"4","last_reported":1762034922,"current_range_meters":13600,"station_id":"ce4bhbh2rcd13ifvqepg","pricing_plan_id":"cebpf4jnsgd1na2vs0mg"},{"bike_id":"8826ede5-ae30-4091-839e-dd39c3609359","system_id":"levelo_inurba_marseille","lat":43.29794,"lon":5.39355,"is_reserved":false,"is_disabled":true,"rental_uris":{"android":"levelo://app?vid=8826ede5-ae30-4091-839e-dd39c3609359","ios":"levelo://app?vid=8826ede5-ae30-4091-839e-dd39c3609359"},"vehicle_type_id":"4","last_reported":1762034922,"current_range_meters":13600,"station_id":"chh1huq6cuj3fo74tm60","pricing_plan_id":"cebpf4jnsgd1na2vs0mg"},{"bike_id":"25b8b9c6-92a5-43d3-8767-0700e7c7de1c","system_id":"levelo_inurba_marseille","lat":43.33728,"lon":5.37366,"is_reserved":false,"is_disabled":false,"rental_uris":{"android":"levelo://app?vid=25b8b9c6-92a5-43d3-8767-0700e7c7de1c","ios":"levelo://app?vid=25b8b9c6-92a5-43d3-8767-0700e7c7de1c"},"vehicle_type_id":"4","last_reported":1762034922,"current_range_meters":13600,"station_id":"","pricing_plan_id":"cebpf4jnsgd1na2vs0mg"},{"bike_id":"33d00fec-9dc8-453f-a318-b05d18d1b454","system_id":"levelo_inurba_marseille","lat":43.23161,"lon":5.43702,"is_reserved":false,"is_disabled":false,"rental_uris":{"android":"levelo://app?vid=33d00fec-9dc8-453f-a318-b05d18d1b454","ios":"levelo://app?vid=33d00fec-9dc8-453f-a318-b05d18d1b454"},"vehicle_type_id":"4","last_reported":1762034922,"current_range_meters":13600,"station_id":"ce4bhmp2rcd13ifvqgog","pricing_plan_id":"cebpf4jnsgd1na2vs0mg"},{"bike_id":"705f7d67-c203-4d2c-9e3c-1d3f6a2a032b","system_id":"levelo_inurba_marseille","lat":43.3059,"lon":5.393557,"is_reserved":false,"is_disabled":false,"rental_uris":{"android":"levelo://app?vid=705f7d67-c203-4d2c-9e3c-1d3f6a2a032b","ios":"levelo://app?vid=705f7d67-c203-4d2c-9e3c-1d3f6a2a032b"},"vehicle_type_id":"4","last_reported":1762034922,"current_range_meters":14000,"station_id":"ce4bh0p2rcd13ifvqd80","pricing_plan_id":"cebpf4jnsgd1na2vs0mg"},{"bike_id":"9c55ee7d-e551-4e30-ab4b-d4df8173e3fb","system_id":"levelo_inurba_marseille","lat":43.27197,"lon":5.40932,"is_reserved":false,"is_disabled":false,"rental_uris":{"android":"levelo://app?vid=9c55ee7d-e551-4e30-ab4b-d4df8173e3fb","ios":"levelo://app?vid=9c55ee7d-e551-4e30-ab4b-d4df8173e3fb"},"vehicle_type_id":"4","last_reported":1762034922,"current_range_meters":14000,"station_id":"ce4bhl12rcd13ifvqgf0","pricing_plan_id":"cebpf4jnsgd1na2vs0mg"},{"bike_id":"50c2c89c-4a9b-41f6-af05-b4e430e07029","system_id":"levelo_inurba_marseille","lat":43.24637,"lon":5.43143,"is_reserved":false,"is_disabled":false,"rental_uris":{"android":"levelo://app?vid=50c2c89c-4a9b-41f6-af05-b4e430e07029","ios":"levelo://app?vid=50c2c89c-4a9b-41f6-af05-b4e430e07029"},"vehicle_type_id":"4","last_reported":1762034922,"current_range_meters":14000,"station_id":"st_d2m6c4gdas8pm72e190g","pricing_plan_id":"cebpf4jnsgd1na2vs0mg"},{"bike_id":"1d29646a-da1f-4f66-b008-0838ffb2fa84","system_id":"levelo_inurba_marseille","lat":43.29998,"lon":5.37221,"is_reserved":false,"is_disabled":false,"rental_uris":{"android":"levelo://app?vid=1d29646a-da1f-4f66-b008-0838ffb2fa84","ios":"levelo://app?vid=1d29646a-da1f-4f66-b008-0838ffb2fa84"},"vehicle_type_id":"4","last_reported":1762034922,"current_range_meters":14000,"station_id":"ce4bgr92rcd13ifvqc7g","pricing_plan_id":"cebpf4jnsgd1na2vs0mg"},{"bike_id":"b4f0a66d-8ef1-4dfa-9065-e7453049a832","system_id":"levelo_inurba_marseille","lat":43.29309,"lon":5.37152,"is_reserved":false,"is_disabled":false,"rental_uris":{"android":"levelo://app?vid=b4f0a66d-8ef1-4dfa-9065-e7453049a832","ios":"levelo://app?vid=b4f0a66d-8ef1-4dfa-9065-e7453049a832"},"vehicle_type_id":"4","last_reported":1762034922,"current_range_meters":14000,"station_id":"ce4bgh92rcd13ifvqb40","pricing_plan_id":"cebpf4jnsgd1na2vs0mg"},{"bike_id":"699ddae9-6397-4772-b91f-dde90ad3a616","system_id":"levelo_inurba_marseille","lat":43.2857,"lon":5.39492,"is_reserved":false,"is_disabled":false,"rental_uris":{"android":"levelo://app?vid=699ddae9-6397-4772-b91f-dde90ad3a616","ios":"levelo://app?vid=699ddae9-6397-4772-b91f-dde90ad3a616"},"vehicle_type_id":"4","last_reported":1762034922,"current_range_meters":14000,"station_id":"ce4bh292rcd13ifvqdg0","pricing_plan_id":"cebpf4jnsgd1na2vs0mg"},{"bike_id":"52b04612-cd38-411f-a68e-6bb9cb24a90a","system_id":"levelo_inurba_marseille","lat":43.24175,"lon":5.36389,"is_reserved":false,"is_disabled":false,"rental_uris":{"android":"levelo://app?vid=52b04612-cd38-411f-a68e-6bb9cb24a90a","ios":"levelo://app?vid=52b04612-cd38-411f-a68e-6bb9cb24a90a"},"vehicle_type_id":"4","last_reported":1762034922,"current_range_meters":14400,"station_id":"cpo36qri1sfpv3e86is0","pricing_plan_id":"cebpf4jnsgd1na2vs0mg"},{"bike_id":"7c31917e-3720-4af2-9936-8225793a66c7","system_id":"levelo_inurba_marseille","lat":43.29599,"lon":5.38087,"is_reserved":false,"is_disabled":false,"rental_uris":{"android":"levelo://app?vid=7c31917e-3720-4af2-9936-8225793a66c7","ios":"levelo://app?vid=7c31917e-3720-4af2-9936-8225793a66c7"},"vehicle_type_id":"4","last_reported":1762034922,"current_range_meters":14400,"station_id":"ce4bgl12rcd13ifvqbo0","pricing_plan_id":"cebpf4jnsgd1na2vs0mg"},{"bike_id":"5af68188-a927-499a-8fca-8bd64c5d429e","system_id":"levelo_inurba_marseille","lat":43.262,"lon":5.4043,"is_reserved":false,"is_disabled":false,"rental_uris":{"android":"levelo://app?vid=5af68188-a927-499a-8fca-8bd64c5d429e","ios":"levelo://app?vid=5af68188-a927-499a-8fca-8bd64c5d429e"},"vehicle_type_id":"4","last_reported":1762034922,"current_range_meters":14400,"station_id":"ce4bhmh2rcd13ifvqgmg","pricing_plan_id":"cebpf4jnsgd1na2vs0mg"},{"bike_id":"2ffd30b4-fc9b-43e4-955c-d3281ad2a379","system_id":"levelo_inurba_marseille","lat":43.28629,"lon":5.35095,"is_reserved":false,"is_disabled":false,"rental_uris":{"android":"levelo://app?vid=2ffd30b4-fc9b-43e4-955c-d3281ad2a379","ios":"levelo://app?vid=2ffd30b4-fc9b-43e4-955c-d3281ad2a379"},"vehicle_type_id":"4","last_reported":1762034922,"current_range_meters":14400,"station_id":"ce4bhch2rcd13ifvqeug","pricing_plan_id":"cebpf4jnsgd1na2vs0mg"},{"bike_id":"41598790-345d-414f-9e87-720cb432f278","system_id":"levelo_inurba_marseille","lat":43.29477,"lon":5.36227,"is_reserved":false,"is_disabled":false,"rental_uris":{"android":"levelo://app?vid=41598790-345d-414f-9e87-720cb432f278","ios":"levelo://app?vid=41598790-345d-414f-9e87-720cb432f278"},"vehicle_type_id":"4","last_reported":1762034922,"current_range_meters":14400,"station_id":"","pricing_plan_id":"cebpf4jnsgd1na2vs0mg"},{"bike_id":"7c8f7ae4-7cc0-4af4-aa62-3ff703e98592","system_id":"levelo_inurba_marseille","lat":43.24546,"lon":5.39526,"is_reserved":false,"is_disabled":false,"rental_uris":{"android":"levelo://app?vid=7c8f7ae4-7cc0-4af4-aa62-3ff703e98592","ios":"levelo://app?vid=7c8f7ae4-7cc0-4af4-aa62-3ff703e98592"},"vehicle_type_id":"4","last_reported":1762034922,"current_range_meters":14400,"station_id":"ce4bhlp2rcd13ifvqgjg","pricing_plan_id":"cebpf4jnsgd1na2vs0mg"},{"bike_id":"28f3c03d-8b23-4d27-be49-3c6305f7f943","system_id":"levelo_inurba_marseille","lat":43.29542,"lon":5.38543,"is_reserved":false,"is_disabled":false,"rental_uris":{"android":"levelo://app?vid=28f3c03d-8b23-4d27-be49-3c6305f7f943","ios":"levelo://app?vid=28f3c03d-8b23-4d27-be49-3c6305f7f943"},"vehicle_type_id":"4","last_reported":1762034922,"current_range_meters":14800,"station_id":"ce4bgih2rcd13ifvqba0","pricing_plan_id":"cebpf4jnsgd1na2vs0mg"},{"bike_id":"aad6a064-c048-4ba9-a156-1745b89548aa","system_id":"levelo_inurba_marseille","lat":43.283137,"lon":5.410931,"is_reserved":false,"is_disabled":false,"rental_uris":{"android":"levelo://app?vid=aad6a064-c048-4ba9-a156-1745b89548aa","ios":"levelo://app?vid=aad6a064-c048-4ba9-a156-1745b89548aa"},"vehicle_type_id":"4","last_reported":1762034922,"current_range_meters":14800,"station_id":"","pricing_plan_id":"cebpf4jnsgd1na2vs0mg"},{"bike_id":"2b74301e-ae33-4f7c-834f-41a5de0d8418","system_id":"levelo_inurba_marseille","lat":43.26563,"lon":5.4032,"is_reserved":false,"is_disabled":false,"rental_uris":{"android":"levelo://app?vid=2b74301e-ae33-4f7c-834f-41a5de0d8418","ios":"levelo://app?vid=2b74301e-ae33-4f7c-834f-41a5de0d8418"},"vehicle_type_id":"4","last_reported":1762034922,"current_range_meters":15200,"station_id":"ce4bhmp2rcd13ifvqgng","pricing_plan_id":"cebpf4jnsgd1na2vs0mg"},{"bike_id":"115ca304-cc61-459b-a9ce-f9cd00f61894","system_id":"levelo_inurba_marseille","lat":43.26225,"lon":5.40447,"is_reserved":false,"is_disabled":false,"rental_uris":{"android":"levelo://app?vid=115ca304-cc61-459b-a9ce-f9cd00f61894","ios":"levelo://app?vid=115ca304-cc61-459b-a9ce-f9cd00f61894"},"vehicle_type_id":"4","last_reported":1762034922,"current_range_meters":15200,"station_id":"ce4bhmh2rcd13ifvqgmg","pricing_plan_id":"cebpf4jnsgd1na2vs0mg"},{"bike_id":"a3a70b73-d857-4831-88dc-e107a1510533","system_id":"levelo_inurba_marseille","lat":43.29793,"lon":5.37114,"is_reserved":false,"is_disabled":false,"rental_uris":{"android":"levelo://app?vid=a3a70b73-d857-4831-88dc-e107a1510533","ios":"levelo://app?vid=a3a70b73-d857-4831-88dc-e107a1510533"},"vehicle_type_id":"4","last_reported":1762034922,"current_range_meters":15200,"station_id":"ce4bgop2rcd13ifvqc1g","pricing_plan_id":"cebpf4jnsgd1na2vs0mg"},{"bike_id":"f3c62589-5016-4c56-9ee8-1413efe7441e","system_id":"levelo_inurba_marseille","lat":43.29266,"lon":5.38424,"is_reserved":false,"is_disabled":false,"rental_uris":{"android":"levelo://app?vid=f3c62589-5016-4c56-9ee8-1413efe7441e","ios":"levelo://app?vid=f3c62589-5016-4c56-9ee8-1413efe7441e"},"vehicle_type_id":"4","last_reported":1762034922,"current_range_meters":15200,"station_id":"","pricing_plan_id":"cebpf4jnsgd1na2vs0mg"},{"bike_id":"09aa8f06-ffeb-4dc5-b1e3-4dfaaa5d105e","system_id":"levelo_inurba_marseille","lat":43.271503,"lon":5.38644,"is_reserved":false,"is_disabled":false,"rental_uris":{"android":"levelo://app?vid=09aa8f06-ffeb-4dc5-b1e3-4dfaaa5d105e","ios":"levelo://app?vid=09aa8f06-ffeb-4dc5-b1e3-4dfaaa5d105e"},"vehicle_type_id":"4","last_reported":1762034922,"current_range_meters":15200,"station_id":"st_d3n2fo6cfp8s73cte1j0","pricing_plan_id":"cebpf4jnsgd1na2vs0mg"},{"bike_id":"079d2352-ba60-4c63-b7a4-6ec0ccf76dcc","system_id":"levelo_inurba_marseille","lat":43.25712,"lon":5.41111,"is_reserved":false,"is_disabled":false,"rental_uris":{"android":"levelo://app?vid=079d2352-ba60-4c63-b7a4-6ec0ccf76dcc","ios":"levelo://app?vid=079d2352-ba60-4c63-b7a4-6ec0ccf76dcc"},"vehicle_type_id":"4","last_reported":1762034922,"current_range_meters":16000,"station_id":"ce4bhkp2rcd13ifvqgd0","pricing_plan_id":"cebpf4jnsgd1na2vs0mg"},{"bike_id":"45833a00-bb86-4c87-99c2-814a719ac317","system_id":"levelo_inurba_marseille","lat":43.22937,"lon":5.3537,"is_reserved":false,"is_disabled":false,"rental_uris":{"android":"levelo://app?vid=45833a00-bb86-4c87-99c2-814a719ac317","ios":"levelo://app?vid=45833a00-bb86-4c87-99c2-814a719ac317"},"vehicle_type_id":"4","last_reported":1762034922,"current_range_meters":16000,"station_id":"cpo3532slgdg3j2ikp40","pricing_plan_id":"cebpf4jnsgd1na2vs0mg"},{"bike_id":"7b0eaa70-7657-4098-8e47-f6fae1ad1d21","system_id":"levelo_inurba_marseille","lat":43.25857,"lon":5.39901,"is_reserved":false,"is_disabled":false,"rental_uris":{"android":"levelo://app?vid=7b0eaa70-7657-4098-8e47-f6fae1ad1d21","ios":"levelo://app?vid=7b0eaa70-7657-4098-8e47-f6fae1ad1d21"},"vehicle_type_id":"4","last_reported":1762034922,"current_range_meters":16000,"station_id":"ce4bhl92rcd13ifvqghg","pricing_plan_id":"cebpf4jnsgd1na2vs0mg"},{"bike_id":"ba541a52-7e4e-4241-9791-ae6f1fb03dcd","system_id":"levelo_inurba_marseille","lat":43.32016,"lon":5.41586,"is_reserved":false,"is_disabled":false,"rental_uris":{"android":"levelo://app?vid=ba541a52-7e4e-4241-9791-ae6f1fb03dcd","ios":"levelo://app?vid=ba541a52-7e4e-4241-9791-ae6f1fb03dcd"},"vehicle_type_id":"4","last_reported":1762034922,"current_range_meters":16000,"station_id":"ce4bhq92rcd13ifvqhkg","pricing_plan_id":"cebpf4jnsgd1na2vs0mg"},{"bike_id":"cdcfa7af-5c53-4a1e-bd12-22de38b14978","system_id":"levelo_inurba_marseille","lat":43.24632,"lon":5.43137,"is_reserved":false,"is_disabled":false,"rental_uris":{"android":"levelo://app?vid=cdcfa7af-5c53-4a1e-bd12-22de38b14978","ios":"levelo://app?vid=cdcfa7af-5c53-4a1e-bd12-22de38b14978"},"vehicle_type_id":"4","last_reported":1762034922,"current_range_meters":16400,"station_id":"st_d2m6c4gdas8pm72e190g","pricing_plan_id":"cebpf4jnsgd1na2vs0mg"},{"bike_id":"12a18d4a-7b67-4876-88d1-1820554fc400","system_id":"levelo_inurba_marseille","lat":43.29729,"lon":5.38079,"is_reserved":false,"is_disabled":false,"rental_uris":{"android":"levelo://app?vid=12a18d4a-7b67-4876-88d1-1820554fc400","ios":"levelo://app?vid=12a18d4a-7b67-4876-88d1-1820554fc400"},"vehicle_type_id":"4","last_reported":1762034922,"current_range_meters":16400,"station_id":"","pricing_plan_id":"cebpf4jnsgd1na2vs0mg"},{"bike_id":"8f5b7018-f455-4dee-b4e4-32b28c35267c","system_id":"levelo_inurba_marseille","lat":43.29275,"lon":5.36842,"is_reserved":false,"is_disabled":false,"rental_uris":{"android":"levelo://app?vid=8f5b7018-f455-4dee-b4e4-32b28c35267c","ios":"levelo://app?vid=8f5b7018-f455-4dee-b4e4-32b28c35267c"},"vehicle_type_id":"4","last_reported":1762034922,"current_range_meters":16400,"station_id":"ce4bhbp2rcd13ifvqesg","pricing_plan_id":"cebpf4jnsgd1na2vs0mg"},{"bike_id":"c7d57f9b-8ba9-4435-ac3b-54d333c0b4c7","system_id":"levelo_inurba_marseille","lat":43.32356,"lon":5.36725,"is_reserved":false,"is_disabled":false,"rental_uris":{"android":"levelo://app?vid=c7d57f9b-8ba9-4435-ac3b-54d333c0b4c7","ios":"levelo://app?vid=c7d57f9b-8ba9-4435-ac3b-54d333c0b4c7"},"vehicle_type_id":"4","last_reported":1762034922,"current_range_meters":16400,"station_id":"ce4bhsh2rcd13ifvqi2g","pricing_plan_id":"cebpf4jnsgd1na2vs0mg"},{"bike_id":"1dff0eba-7b24-4e9e-b26e-371189c08022","system_id":"levelo_inurba_marseille","lat":43.24815,"lon":5.37455,"is_reserved":false,"is_disabled":false,"rental_uris":{"android":"levelo://app?vid=1dff0eba-7b24-4e9e-b26e-371189c08022","ios":"levelo://app?vid=1dff0eba-7b24-4e9e-b26e-371189c08022"},"vehicle_type_id":"4","last_reported":1762034922,"current_range_meters":16400,"station_id":"ce4bhgh2rcd13ifvqfb0","pricing_plan_id":"cebpf4jnsgd1na2vs0mg"},{"bike_id":"730ca9ac-fea7-459e-bf1a-e3eab4e2c977","system_id":"levelo_inurba_marseille","lat":43.24685,"lon":5.38159,"is_reserved":false,"is_disabled":false,"rental_uris":{"android":"levelo://app?vid=730ca9ac-fea7-459e-bf1a-e3eab4e2c977","ios":"levelo://app?vid=730ca9ac-fea7-459e-bf1a-e3eab4e2c977"},"vehicle_type_id":"4","last_reported":1762034922,"current_range_meters":16400,"station_id":"ce4bhih2rcd13ifvqfr0","pricing_plan_id":"cebpf4jnsgd1na2vs0mg"},{"bike_id":"fa976d95-bc6e-4cd7-ae22-29787e198ada","system_id":"levelo_inurba_marseille","lat":43.2955,"lon":5.38544,"is_reserved":false,"is_disabled":false,"rental_uris":{"android":"levelo://app?vid=fa976d95-bc6e-4cd7-ae22-29787e198ada","ios":"levelo://app?vid=fa976d95-bc6e-4cd7-ae22-29787e198ada"},"vehicle_type_id":"4","last_reported":1762034922,"current_range_meters":16400,"station_id":"ce4bgih2rcd13ifvqba0","pricing_plan_id":"cebpf4jnsgd1na2vs0mg"},{"bike_id":"304ccaf1-f67e-4a5e-aae8-a87d33e840af","system_id":"levelo_inurba_marseille","lat":43.28683,"lon":5.38671,"is_reserved":false,"is_disabled":false,"rental_uris":{"android":"levelo://app?vid=304ccaf1-f67e-4a5e-aae8-a87d33e840af","ios":"levelo://app?vid=304ccaf1-f67e-4a5e-aae8-a87d33e840af"},"vehicle_type_id":"4","last_reported":1762034922,"current_range_meters":16400,"station_id":"ce4bh492rcd13ifvqdug","pricing_plan_id":"cebpf4jnsgd1na2vs0mg"},{"bike_id":"193eac5d-e557-4171-9864-859d1bed4f7f","system_id":"levelo_inurba_marseille","lat":43.23794,"lon":5.36611,"is_reserved":false,"is_disabled":false,"rental_uris":{"android":"levelo://app?vid=193eac5d-e557-4171-9864-859d1bed4f7f","ios":"levelo://app?vid=193eac5d-e557-4171-9864-859d1bed4f7f"},"vehicle_type_id":"4","last_reported":1762034922,"current_range_meters":16800,"station_id":"st_d3nk18o9ro0c73en2l3g","pricing_plan_id":"cebpf4jnsgd1na2vs0mg"},{"bike_id":"e718eb19-1ff9-4674-92c2-56321ad9eee9","system_id":"levelo_inurba_marseille","lat":43.25321,"lon":5.42156,"is_reserved":false,"is_disabled":false,"rental_uris":{"android":"levelo://app?vid=e718eb19-1ff9-4674-92c2-56321ad9eee9","ios":"levelo://app?vid=e718eb19-1ff9-4674-92c2-56321ad9eee9"},"vehicle_type_id":"4","last_reported":1762034922,"current_range_meters":16800,"station_id":"st_d2m65c5bi1j21697t3ng","pricing_plan_id":"cebpf4jnsgd1na2vs0mg"},{"bike_id":"7320838b-b295-42bc-b759-85b354f462d2","system_id":"levelo_inurba_marseille","lat":43.25508,"lon":5.37654,"is_reserved":false,"is_disabled":false,"rental_uris":{"android":"levelo://app?vid=7320838b-b295-42bc-b759-85b354f462d2","ios":"levelo://app?vid=7320838b-b295-42bc-b759-85b354f462d2"},"vehicle_type_id":"4","last_reported":1762034922,"current_range_meters":16800,"station_id":"ce4bhh12rcd13ifvqff0","pricing_plan_id":"cebpf4jnsgd1na2vs0mg"},{"bike_id":"6fe8defd-7365-4870-9fd8-a61adc4c20bd","system_id":"levelo_inurba_marseille","lat":43.2993,"lon":5.39726,"is_reserved":false,"is_disabled":true,"rental_uris":{"android":"levelo://app?vid=6fe8defd-7365-4870-9fd8-a61adc4c20bd","ios":"levelo://app?vid=6fe8defd-7365-4870-9fd8-a61adc4c20bd"},"vehicle_type_id":"4","last_reported":1762034922,"current_range_meters":16800,"station_id":"ce4bh0h2rcd13ifvqd50","pricing_plan_id":"cebpf4jnsgd1na2vs0mg"},{"bike_id":"84f1bfac-8d21-499b-b8e1-fdc8049e10ac","system_id":"levelo_inurba_marseille","lat":43.31275,"lon":5.37762,"is_reserved":false,"is_disabled":false,"rental_uris":{"android":"levelo://app?vid=84f1bfac-8d21-499b-b8e1-fdc8049e10ac","ios":"levelo://app?vid=84f1bfac-8d21-499b-b8e1-fdc8049e10ac"},"vehicle_type_id":"4","last_reported":1762034922,"current_range_meters":16800,"station_id":"","pricing_plan_id":"cebpf4jnsgd1na2vs0mg"},{"bike_id":"527c3f9c-7b99-4328-b0fd-80e13b2dec21","system_id":"levelo_inurba_marseille","lat":43.24819,"lon":5.37437,"is_reserved":false,"is_disabled":false,"rental_uris":{"android":"levelo://app?vid=527c3f9c-7b99-4328-b0fd-80e13b2dec21","ios":"levelo://app?vid=527c3f9c-7b99-4328-b0fd-80e13b2dec21"},"vehicle_type_id":"4","last_reported":1762034922,"current_range_meters":16800,"station_id":"ce4bhgh2rcd13ifvqfb0","pricing_plan_id":"cebpf4jnsgd1na2vs0mg"},{"bike_id":"91891e2b-3c04-410a-b47f-e4a2d35addbb","system_id":"levelo_inurba_marseille","lat":43.24806,"lon":5.37452,"is_reserved":false,"is_disabled":false,"rental_uris":{"android":"levelo://app?vid=91891e2b-3c04-410a-b47f-e4a2d35addbb","ios":"levelo://app?vid=91891e2b-3c04-410a-b47f-e4a2d35addbb"},"vehicle_type_id":"4","last_reported":1762034922,"current_range_meters":16800,"station_id":"ce4bhgh2rcd13ifvqfb0","pricing_plan_id":"cebpf4jnsgd1na2vs0mg"},{"bike_id":"148ff3a5-2a80-419c-8f1b-9d1335123e77","system_id":"levelo_inurba_marseille","lat":43.307473,"lon":5.382459,"is_reserved":false,"is_disabled":false,"rental_uris":{"android":"levelo://app?vid=148ff3a5-2a80-419c-8f1b-9d1335123e77","ios":"levelo://app?vid=148ff3a5-2a80-419c-8f1b-9d1335123e77"},"vehicle_type_id":"4","last_reported":1762034922,"current_range_meters":16800,"station_id":"","pricing_plan_id":"cebpf4jnsgd1na2vs0mg"},{"bike_id":"ebf85bdb-1a2b-49af-a88d-03e90d4c31b8","system_id":"levelo_inurba_marseille","lat":43.23962,"lon":5.36629,"is_reserved":false,"is_disabled":true,"rental_uris":{"android":"levelo://app?vid=ebf85bdb-1a2b-49af-a88d-03e90d4c31b8","ios":"levelo://app?vid=ebf85bdb-1a2b-49af-a88d-03e90d4c31b8"},"vehicle_type_id":"4","last_reported":1762034922,"current_range_meters":17200,"station_id":"ce4bhi12rcd13ifvqfp0","pricing_plan_id":"cebpf4jnsgd1na2vs0mg"},{"bike_id":"77ab8406-6fbf-4f30-a4db-2cbd45e2f874","system_id":"levelo_inurba_marseille","lat":43.28411,"lon":5.37528,"is_reserved":false,"is_disabled":false,"rental_uris":{"android":"levelo://app?vid=77ab8406-6fbf-4f30-a4db-2cbd45e2f874","ios":"levelo://app?vid=77ab8406-6fbf-4f30-a4db-2cbd45e2f874"},"vehicle_type_id":"4","last_reported":1762034922,"current_range_meters":17200,"station_id":"ce4bh412rcd13ifvqds0","pricing_plan_id":"cebpf4jnsgd1na2vs0mg"},{"bike_id":"0ed156f4-3ff7-4b8d-93c1-baecd364bae4","system_id":"levelo_inurba_marseille","lat":43.3081,"lon":5.38158,"is_reserved":false,"is_disabled":false,"rental_uris":{"android":"levelo://app?vid=0ed156f4-3ff7-4b8d-93c1-baecd364bae4","ios":"levelo://app?vid=0ed156f4-3ff7-4b8d-93c1-baecd364bae4"},"vehicle_type_id":"4","last_reported":1762034922,"current_range_meters":17200,"station_id":"ce4bh0h2rcd13ifvqd40","pricing_plan_id":"cebpf4jnsgd1na2vs0mg"},{"bike_id":"d280ca46-18c7-4a78-afc3-0875735cbc78","system_id":"levelo_inurba_marseille","lat":43.2502,"lon":5.38944,"is_reserved":false,"is_disabled":false,"rental_uris":{"android":"levelo://app?vid=d280ca46-18c7-4a78-afc3-0875735cbc78","ios":"levelo://app?vid=d280ca46-18c7-4a78-afc3-0875735cbc78"},"vehicle_type_id":"4","last_reported":1762034922,"current_range_meters":17200,"station_id":"ce4bhgp2rcd13ifvqfd0","pricing_plan_id":"cebpf4jnsgd1na2vs0mg"},{"bike_id":"8265b70d-bd26-46d7-bb1e-457b8ed26db3","system_id":"levelo_inurba_marseille","lat":43.29535,"lon":5.3855,"is_reserved":false,"is_disabled":false,"rental_uris":{"android":"levelo://app?vid=8265b70d-bd26-46d7-bb1e-457b8ed26db3","ios":"levelo://app?vid=8265b70d-bd26-46d7-bb1e-457b8ed26db3"},"vehicle_type_id":"4","last_reported":1762034922,"current_range_meters":17200,"station_id":"ce4bgih2rcd13ifvqba0","pricing_plan_id":"cebpf4jnsgd1na2vs0mg"},{"bike_id":"12db2ebb-b6a8-4047-92ec-79e642f647de","system_id":"levelo_inurba_marseille","lat":43.30576,"lon":5.3935,"is_reserved":false,"is_disabled":false,"rental_uris":{"android":"levelo://app?vid=12db2ebb-b6a8-4047-92ec-79e642f647de","ios":"levelo://app?vid=12db2ebb-b6a8-4047-92ec-79e642f647de"},"vehicle_type_id":"4","last_reported":1762034922,"current_range_meters":17200,"station_id":"ce4bh0p2rcd13ifvqd80","pricing_plan_id":"cebpf4jnsgd1na2vs0mg"},{"bike_id":"85d2814b-1b07-48a2-97b6-aeff61e81b4a","system_id":"levelo_inurba_marseille","lat":43.29309,"lon":5.37445,"is_reserved":false,"is_disabled":false,"rental_uris":{"android":"levelo://app?vid=85d2814b-1b07-48a2-97b6-aeff61e81b4a","ios":"levelo://app?vid=85d2814b-1b07-48a2-97b6-aeff61e81b4a"},"vehicle_type_id":"4","last_reported":1762034922,"current_range_meters":17200,"station_id":"ce4bgi12rcd13ifvqb70","pricing_plan_id":"cebpf4jnsgd1na2vs0mg"},{"bike_id":"0d3e0b55-eff8-448b-8988-99ff4e704c13","system_id":"levelo_inurba_marseille","lat":43.2888,"lon":5.37885,"is_reserved":false,"is_disabled":false,"rental_uris":{"android":"levelo://app?vid=0d3e0b55-eff8-448b-8988-99ff4e704c13","ios":"levelo://app?vid=0d3e0b55-eff8-448b-8988-99ff4e704c13"},"vehicle_type_id":"4","last_reported":1762034922,"current_range_meters":17200,"station_id":"","pricing_plan_id":"cebpf4jnsgd1na2vs0mg"},{"bike_id":"dcb0c8d1-731a-40b7-a278-f151b5103e3d","system_id":"levelo_inurba_marseille","lat":43.24815,"lon":5.37461,"is_reserved":false,"is_disabled":false,"rental_uris":{"android":"levelo://app?vid=dcb0c8d1-731a-40b7-a278-f151b5103e3d","ios":"levelo://app?vid=dcb0c8d1-731a-40b7-a278-f151b5103e3d"},"vehicle_type_id":"4","last_reported":1762034922,"current_range_meters":17200,"station_id":"","pricing_plan_id":"cebpf4jnsgd1na2vs0mg"},{"bike_id":"68d8671a-299b-47c3-a695-358bfec0bf6c","system_id":"levelo_inurba_marseille","lat":43.28678,"lon":5.38665,"is_reserved":false,"is_disabled":false,"rental_uris":{"android":"levelo://app?vid=68d8671a-299b-47c3-a695-358bfec0bf6c","ios":"levelo://app?vid=68d8671a-299b-47c3-a695-358bfec0bf6c"},"vehicle_type_id":"4","last_reported":1762034922,"current_range_meters":17200,"station_id":"ce4bh492rcd13ifvqdug","pricing_plan_id":"cebpf4jnsgd1na2vs0mg"},{"bike_id":"de0ca7a8-116a-46c8-8c50-6b445a473423","system_id":"levelo_inurba_marseille","lat":43.288632,"lon":5.425372,"is_reserved":false,"is_disabled":false,"rental_uris":{"android":"levelo://app?vid=de0ca7a8-116a-46c8-8c50-6b445a473423","ios":"levelo://app?vid=de0ca7a8-116a-46c8-8c50-6b445a473423"},"vehicle_type_id":"4","last_reported":1762034922,"current_range_meters":17600,"station_id":"st_d3b462108ojc7389ooeg","pricing_plan_id":"cebpf4jnsgd1na2vs0mg"},{"bike_id":"2ae1e6f9-7df8-4ded-a964-e4854670c54e","system_id":"levelo_inurba_marseille","lat":43.25579,"lon":5.38242,"is_reserved":false,"is_disabled":false,"rental_uris":{"android":"levelo://app?vid=2ae1e6f9-7df8-4ded-a964-e4854670c54e","ios":"levelo://app?vid=2ae1e6f9-7df8-4ded-a964-e4854670c54e"},"vehicle_type_id":"4","last_reported":1762034922,"current_range_meters":17600,"station_id":"ce4bhih2rcd13ifvqfs0","pricing_plan_id":"cebpf4jnsgd1na2vs0mg"},{"bike_id":"0f2f5ad5-0052-40c0-a8b4-92a1f775b3cc","system_id":"levelo_inurba_marseille","lat":43.29573,"lon":5.39982,"is_reserved":false,"is_disabled":false,"rental_uris":{"android":"levelo://app?vid=0f2f5ad5-0052-40c0-a8b4-92a1f775b3cc","ios":"levelo://app?vid=0f2f5ad5-0052-40c0-a8b4-92a1f775b3cc"},"vehicle_type_id":"4","last_reported":1762034922,"current_range_meters":17600,"station_id":"ce4bh312rcd13ifvqdj0","pricing_plan_id":"cebpf4jnsgd1na2vs0mg"},{"bike_id":"16d09fd7-dec9-4551-b6e9-05db35f68f5c","system_id":"levelo_inurba_marseille","lat":43.279067,"lon":5.395697,"is_reserved":false,"is_disabled":false,"rental_uris":{"android":"levelo://app?vid=16d09fd7-dec9-4551-b6e9-05db35f68f5c","ios":"levelo://app?vid=16d09fd7-dec9-4551-b6e9-05db35f68f5c"},"vehicle_type_id":"4","last_reported":1762034922,"current_range_meters":17600,"station_id":"ce4bhf92rcd13ifvqf40","pricing_plan_id":"cebpf4jnsgd1na2vs0mg"},{"bike_id":"3e65f9ac-a37d-44c3-8103-bb567c1f359c","system_id":"levelo_inurba_marseille","lat":43.31708,"lon":5.3773,"is_reserved":false,"is_disabled":false,"rental_uris":{"android":"levelo://app?vid=3e65f9ac-a37d-44c3-8103-bb567c1f359c","ios":"levelo://app?vid=3e65f9ac-a37d-44c3-8103-bb567c1f359c"},"vehicle_type_id":"4","last_reported":1762034922,"current_range_meters":17600,"station_id":"ce4bgth2rcd13ifvqch0","pricing_plan_id":"cebpf4jnsgd1na2vs0mg"},{"bike_id":"8adef542-af60-4b61-8a5b-4b604c3bcfe4","system_id":"levelo_inurba_marseille","lat":43.24701,"lon":5.4315,"is_reserved":false,"is_disabled":false,"rental_uris":{"android":"levelo://app?vid=8adef542-af60-4b61-8a5b-4b604c3bcfe4","ios":"levelo://app?vid=8adef542-af60-4b61-8a5b-4b604c3bcfe4"},"vehicle_type_id":"4","last_reported":1762034922,"current_range_meters":17600,"station_id":"st_d2m6c4gdas8pm72e190g","pricing_plan_id":"cebpf4jnsgd1na2vs0mg"},{"bike_id":"6cf82d78-565f-4257-a46d-4a0e964c14b8","system_id":"levelo_inurba_marseille","lat":43.2927,"lon":5.3844,"is_reserved":false,"is_disabled":false,"rental_uris":{"android":"levelo://app?vid=6cf82d78-565f-4257-a46d-4a0e964c14b8","ios":"levelo://app?vid=6cf82d78-565f-4257-a46d-4a0e964c14b8"},"vehicle_type_id":"4","last_reported":1762034922,"current_range_meters":17600,"station_id":"ce4bh692rcd13ifvqea0","pricing_plan_id":"cebpf4jnsgd1na2vs0mg"},{"bike_id":"70b6030b-fc7a-413a-a372-cdbc79edbce3","system_id":"levelo_inurba_marseille","lat":43.26927,"lon":5.38923,"is_reserved":false,"is_disabled":false,"rental_uris":{"android":"levelo://app?vid=70b6030b-fc7a-413a-a372-cdbc79edbce3","ios":"levelo://app?vid=70b6030b-fc7a-413a-a372-cdbc79edbce3"},"vehicle_type_id":"4","last_reported":1762034922,"current_range_meters":17600,"station_id":"ce4bhhh2rcd13ifvqfl0","pricing_plan_id":"cebpf4jnsgd1na2vs0mg"},{"bike_id":"2b6fa758-5a62-4b8d-862d-fbffc1dfa52c","system_id":"levelo_inurba_marseille","lat":43.26804,"lon":5.40271,"is_reserved":false,"is_disabled":false,"rental_uris":{"android":"levelo://app?vid=2b6fa758-5a62-4b8d-862d-fbffc1dfa52c","ios":"levelo://app?vid=2b6fa758-5a62-4b8d-862d-fbffc1dfa52c"},"vehicle_type_id":"4","last_reported":1762034922,"current_range_meters":17600,"station_id":"ce501612rcd8frsf0b60","pricing_plan_id":"cebpf4jnsgd1na2vs0mg"},{"bike_id":"d4aa9896-a8e4-4460-b933-b42226612648","system_id":"levelo_inurba_marseille","lat":43.30134,"lon":5.43116,"is_reserved":false,"is_disabled":false,"rental_uris":{"android":"levelo://app?vid=d4aa9896-a8e4-4460-b933-b42226612648","ios":"levelo://app?vid=d4aa9896-a8e4-4460-b933-b42226612648"},"vehicle_type_id":"4","last_reported":1762034922,"current_range_meters":18000,"station_id":"st_d3js3co5814s73ftftug","pricing_plan_id":"cebpf4jnsgd1na2vs0mg"},{"bike_id":"423802bb-722e-4533-9018-c0f75cce34a6","system_id":"levelo_inurba_marseille","lat":43.306671,"lon":5.381742,"is_reserved":false,"is_disabled":false,"rental_uris":{"android":"levelo://app?vid=423802bb-722e-4533-9018-c0f75cce34a6","ios":"levelo://app?vid=423802bb-722e-4533-9018-c0f75cce34a6"},"vehicle_type_id":"4","last_reported":1762034922,"current_range_meters":18000,"station_id":"","pricing_plan_id":"cebpf4jnsgd1na2vs0mg"},{"bike_id":"14b92a7a-0805-475a-abfd-8c979184b42b","system_id":"levelo_inurba_marseille","lat":43.30989,"lon":5.37015,"is_reserved":false,"is_disabled":false,"rental_uris":{"android":"levelo://app?vid=14b92a7a-0805-475a-abfd-8c979184b42b","ios":"levelo://app?vid=14b92a7a-0805-475a-abfd-8c979184b42b"},"vehicle_type_id":"4","last_reported":1762034922,"current_range_meters":18000,"station_id":"","pricing_plan_id":"cebpf4jnsgd1na2vs0mg"},{"bike_id":"23964231-9294-40d2-9d81-16e99ab01d5b","system_id":"levelo_inurba_marseille","lat":43.25346,"lon":5.42176,"is_reserved":false,"is_disabled":false,"rental_uris":{"android":"levelo://app?vid=23964231-9294-40d2-9d81-16e99ab01d5b","ios":"levelo://app?vid=23964231-9294-40d2-9d81-16e99ab01d5b"},"vehicle_type_id":"4","last_reported":1762034922,"current_range_meters":18000,"station_id":"st_d2m65c5bi1j21697t3ng","pricing_plan_id":"cebpf4jnsgd1na2vs0mg"},{"bike_id":"fd4cfea7-ab98-4697-80d0-1cb1ec23fcb2","system_id":"levelo_inurba_marseille","lat":43.29621,"lon":5.38058,"is_reserved":false,"is_disabled":false,"rental_uris":{"android":"levelo://app?vid=fd4cfea7-ab98-4697-80d0-1cb1ec23fcb2","ios":"levelo://app?vid=fd4cfea7-ab98-4697-80d0-1cb1ec23fcb2"},"vehicle_type_id":"4","last_reported":1762034922,"current_range_meters":18000,"station_id":"ce4bgl12rcd13ifvqbo0","pricing_plan_id":"cebpf4jnsgd1na2vs0mg"},{"bike_id":"dd70bcc2-2e6b-447f-adc2-e0826cf93554","system_id":"levelo_inurba_marseille","lat":43.31915,"lon":5.40154,"is_reserved":false,"is_disabled":false,"rental_uris":{"android":"levelo://app?vid=dd70bcc2-2e6b-447f-adc2-e0826cf93554","ios":"levelo://app?vid=dd70bcc2-2e6b-447f-adc2-e0826cf93554"},"vehicle_type_id":"4","last_reported":1762034922,"current_range_meters":18000,"station_id":"","pricing_plan_id":"cebpf4jnsgd1na2vs0mg"},{"bike_id":"320e1c85-e694-4a9d-acdf-71c08f3bea6d","system_id":"levelo_inurba_marseille","lat":43.297866,"lon":5.381136,"is_reserved":false,"is_disabled":false,"rental_uris":{"android":"levelo://app?vid=320e1c85-e694-4a9d-acdf-71c08f3bea6d","ios":"levelo://app?vid=320e1c85-e694-4a9d-acdf-71c08f3bea6d"},"vehicle_type_id":"4","last_reported":1762034922,"current_range_meters":18000,"station_id":"ce4bgvp2rcd13ifvqcu0","pricing_plan_id":"cebpf4jnsgd1na2vs0mg"},{"bike_id":"23d4f8b4-54b6-42b6-8554-07cb9c91ef32","system_id":"levelo_inurba_marseille","lat":43.27944,"lon":5.41043,"is_reserved":false,"is_disabled":false,"rental_uris":{"android":"levelo://app?vid=23d4f8b4-54b6-42b6-8554-07cb9c91ef32","ios":"levelo://app?vid=23d4f8b4-54b6-42b6-8554-07cb9c91ef32"},"vehicle_type_id":"4","last_reported":1762034922,"current_range_meters":18000,"station_id":"ce4bhnp2rcd13ifvqh0g","pricing_plan_id":"cebpf4jnsgd1na2vs0mg"},{"bike_id":"dce0ab37-9f56-4213-a60c-2df484698d44","system_id":"levelo_inurba_marseille","lat":43.3008,"lon":5.3781,"is_reserved":false,"is_disabled":false,"rental_uris":{"android":"levelo://app?vid=dce0ab37-9f56-4213-a60c-2df484698d44","ios":"levelo://app?vid=dce0ab37-9f56-4213-a60c-2df484698d44"},"vehicle_type_id":"4","last_reported":1762034922,"current_range_meters":18000,"station_id":"","pricing_plan_id":"cebpf4jnsgd1na2vs0mg"},{"bike_id":"9875b75e-b931-4030-9761-f98cf656e484","system_id":"levelo_inurba_marseille","lat":43.285717,"lon":5.395004,"is_reserved":false,"is_disabled":false,"rental_uris":{"android":"levelo://app?vid=9875b75e-b931-4030-9761-f98cf656e484","ios":"levelo://app?vid=9875b75e-b931-4030-9761-f98cf656e484"},"vehicle_type_id":"4","last_reported":1762034922,"current_range_meters":18000,"station_id":"ce4bh292rcd13ifvqdg0","pricing_plan_id":"cebpf4jnsgd1na2vs0mg"},{"bike_id":"066ede02-47a2-4c83-bcb1-7eb633a370fb","system_id":"levelo_inurba_marseille","lat":43.31277,"lon":5.37757,"is_reserved":false,"is_disabled":false,"rental_uris":{"android":"levelo://app?vid=066ede02-47a2-4c83-bcb1-7eb633a370fb","ios":"levelo://app?vid=066ede02-47a2-4c83-bcb1-7eb633a370fb"},"vehicle_type_id":"4","last_reported":1762034922,"current_range_meters":18800,"station_id":"","pricing_plan_id":"cebpf4jnsgd1na2vs0mg"},{"bike_id":"25b9176d-0f0a-42da-8994-0c8bc91f4578","system_id":"levelo_inurba_marseille","lat":43.24163,"lon":5.36736,"is_reserved":false,"is_disabled":false,"rental_uris":{"android":"levelo://app?vid=25b9176d-0f0a-42da-8994-0c8bc91f4578","ios":"levelo://app?vid=25b9176d-0f0a-42da-8994-0c8bc91f4578"},"vehicle_type_id":"4","last_reported":1762034922,"current_range_meters":18800,"station_id":"ce4bhi12rcd13ifvqfp0","pricing_plan_id":"cebpf4jnsgd1na2vs0mg"},{"bike_id":"77679107-31f6-4769-888c-bfa8b6d2bccd","system_id":"levelo_inurba_marseille","lat":43.2886,"lon":5.42527,"is_reserved":false,"is_disabled":false,"rental_uris":{"android":"levelo://app?vid=77679107-31f6-4769-888c-bfa8b6d2bccd","ios":"levelo://app?vid=77679107-31f6-4769-888c-bfa8b6d2bccd"},"vehicle_type_id":"4","last_reported":1762034922,"current_range_meters":18800,"station_id":"st_d3b462108ojc7389ooeg","pricing_plan_id":"cebpf4jnsgd1na2vs0mg"},{"bike_id":"8549c4d3-f2f7-4704-94e6-4fb6cbd2560a","system_id":"levelo_inurba_marseille","lat":43.297871,"lon":5.39345,"is_reserved":false,"is_disabled":false,"rental_uris":{"android":"levelo://app?vid=8549c4d3-f2f7-4704-94e6-4fb6cbd2560a","ios":"levelo://app?vid=8549c4d3-f2f7-4704-94e6-4fb6cbd2560a"},"vehicle_type_id":"4","last_reported":1762034922,"current_range_meters":18800,"station_id":"ce4bh3p2rcd13ifvqdq0","pricing_plan_id":"cebpf4jnsgd1na2vs0mg"},{"bike_id":"6eb523a4-350d-4959-ac5e-1335d8f70954","system_id":"levelo_inurba_marseille","lat":43.315717,"lon":5.406423,"is_reserved":false,"is_disabled":false,"rental_uris":{"android":"levelo://app?vid=6eb523a4-350d-4959-ac5e-1335d8f70954","ios":"levelo://app?vid=6eb523a4-350d-4959-ac5e-1335d8f70954"},"vehicle_type_id":"4","last_reported":1762034922,"current_range_meters":18800,"station_id":"","pricing_plan_id":"cebpf4jnsgd1na2vs0mg"},{"bike_id":"b3c17449-4881-4ea3-a07c-7fd8ab7b416c","system_id":"levelo_inurba_marseille","lat":43.30638,"lon":5.40068,"is_reserved":false,"is_disabled":false,"rental_uris":{"android":"levelo://app?vid=b3c17449-4881-4ea3-a07c-7fd8ab7b416c","ios":"levelo://app?vid=b3c17449-4881-4ea3-a07c-7fd8ab7b416c"},"vehicle_type_id":"4","last_reported":1762034922,"current_range_meters":18800,"station_id":"ce4bh112rcd13ifvqda0","pricing_plan_id":"cebpf4jnsgd1na2vs0mg"},{"bike_id":"ea981441-de44-4e91-a60f-0f3605343256","system_id":"levelo_inurba_marseille","lat":43.32356,"lon":5.3676,"is_reserved":false,"is_disabled":false,"rental_uris":{"android":"levelo://app?vid=ea981441-de44-4e91-a60f-0f3605343256","ios":"levelo://app?vid=ea981441-de44-4e91-a60f-0f3605343256"},"vehicle_type_id":"4","last_reported":1762034922,"current_range_meters":18800,"station_id":"ce4bhsh2rcd13ifvqi2g","pricing_plan_id":"cebpf4jnsgd1na2vs0mg"},{"bike_id":"01ab7491-d050-49bb-9d41-d85bd30d60ca","system_id":"levelo_inurba_marseille","lat":43.2926,"lon":5.38449,"is_reserved":false,"is_disabled":false,"rental_uris":{"android":"levelo://app?vid=01ab7491-d050-49bb-9d41-d85bd30d60ca","ios":"levelo://app?vid=01ab7491-d050-49bb-9d41-d85bd30d60ca"},"vehicle_type_id":"4","last_reported":1762034922,"current_range_meters":19200,"station_id":"ce4bh692rcd13ifvqea0","pricing_plan_id":"cebpf4jnsgd1na2vs0mg"},{"bike_id":"aad9bf03-6396-47d3-aa58-3f06dabb8530","system_id":"levelo_inurba_marseille","lat":43.30943,"lon":5.40143,"is_reserved":false,"is_disabled":false,"rental_uris":{"android":"levelo://app?vid=aad9bf03-6396-47d3-aa58-3f06dabb8530","ios":"levelo://app?vid=aad9bf03-6396-47d3-aa58-3f06dabb8530"},"vehicle_type_id":"4","last_reported":1762034922,"current_range_meters":19200,"station_id":"ce4bgvp2rcd13ifvqct0","pricing_plan_id":"cebpf4jnsgd1na2vs0mg"},{"bike_id":"f556ad88-b0ef-4d15-8048-f36fbe8e026c","system_id":"levelo_inurba_marseille","lat":43.28537,"lon":5.44105,"is_reserved":false,"is_disabled":false,"rental_uris":{"android":"levelo://app?vid=f556ad88-b0ef-4d15-8048-f36fbe8e026c","ios":"levelo://app?vid=f556ad88-b0ef-4d15-8048-f36fbe8e026c"},"vehicle_type_id":"4","last_reported":1762034922,"current_range_meters":19200,"station_id":"st_d3j3df2ikq2c7380ej80","pricing_plan_id":"cebpf4jnsgd1na2vs0mg"},{"bike_id":"f239ba6a-ada8-4f4c-b1c5-123648101952","system_id":"levelo_inurba_marseille","lat":43.29538,"lon":5.3854,"is_reserved":false,"is_disabled":false,"rental_uris":{"android":"levelo://app?vid=f239ba6a-ada8-4f4c-b1c5-123648101952","ios":"levelo://app?vid=f239ba6a-ada8-4f4c-b1c5-123648101952"},"vehicle_type_id":"4","last_reported":1762034922,"current_range_meters":19200,"station_id":"ce4bgih2rcd13ifvqba0","pricing_plan_id":"cebpf4jnsgd1na2vs0mg"},{"bike_id":"fcc7a5b9-eb88-45bf-aebf-cf96cca8c3ef","system_id":"levelo_inurba_marseille","lat":43.24677,"lon":5.38159,"is_reserved":false,"is_disabled":false,"rental_uris":{"android":"levelo://app?vid=fcc7a5b9-eb88-45bf-aebf-cf96cca8c3ef","ios":"levelo://app?vid=fcc7a5b9-eb88-45bf-aebf-cf96cca8c3ef"},"vehicle_type_id":"4","last_reported":1762034922,"current_range_meters":19200,"station_id":"ce4bhih2rcd13ifvqfr0","pricing_plan_id":"cebpf4jnsgd1na2vs0mg"},{"bike_id":"f487eac5-2942-46c6-b0e8-0353ac87c883","system_id":"levelo_inurba_marseille","lat":43.29267,"lon":5.38458,"is_reserved":false,"is_disabled":false,"rental_uris":{"android":"levelo://app?vid=f487eac5-2942-46c6-b0e8-0353ac87c883","ios":"levelo://app?vid=f487eac5-2942-46c6-b0e8-0353ac87c883"},"vehicle_type_id":"4","last_reported":1762034922,"current_range_meters":19200,"station_id":"ce4bh692rcd13ifvqea0","pricing_plan_id":"cebpf4jnsgd1na2vs0mg"},{"bike_id":"878dc551-0679-4d83-becc-fbe8bb3cf28a","system_id":"levelo_inurba_marseille","lat":43.24795,"lon":5.37451,"is_reserved":false,"is_disabled":false,"rental_uris":{"android":"levelo://app?vid=878dc551-0679-4d83-becc-fbe8bb3cf28a","ios":"levelo://app?vid=878dc551-0679-4d83-becc-fbe8bb3cf28a"},"vehicle_type_id":"4","last_reported":1762034922,"current_range_meters":19200,"station_id":"ce4bhgh2rcd13ifvqfb0","pricing_plan_id":"cebpf4jnsgd1na2vs0mg"},{"bike_id":"17f0281a-c9be-49f5-8e48-d8502b0b8ab8","system_id":"levelo_inurba_marseille","lat":43.24814,"lon":5.37452,"is_reserved":false,"is_disabled":false,"rental_uris":{"android":"levelo://app?vid=17f0281a-c9be-49f5-8e48-d8502b0b8ab8","ios":"levelo://app?vid=17f0281a-c9be-49f5-8e48-d8502b0b8ab8"},"vehicle_type_id":"4","last_reported":1762034922,"current_range_meters":19200,"station_id":"ce4bhgh2rcd13ifvqfb0","pricing_plan_id":"cebpf4jnsgd1na2vs0mg"},{"bike_id":"fe2272ea-7316-4280-b90c-d8c4db7bc73e","system_id":"levelo_inurba_marseille","lat":43.27946,"lon":5.39277,"is_reserved":false,"is_disabled":false,"rental_uris":{"android":"levelo://app?vid=fe2272ea-7316-4280-b90c-d8c4db7bc73e","ios":"levelo://app?vid=fe2272ea-7316-4280-b90c-d8c4db7bc73e"},"vehicle_type_id":"4","last_reported":1762034922,"current_range_meters":19200,"station_id":"","pricing_plan_id":"cebpf4jnsgd1na2vs0mg"},{"bike_id":"cc475582-0cc3-4b14-a66c-6041b0d2e976","system_id":"levelo_inurba_marseille","lat":43.29327,"lon":5.41164,"is_reserved":false,"is_disabled":false,"rental_uris":{"android":"levelo://app?vid=cc475582-0cc3-4b14-a66c-6041b0d2e976","ios":"levelo://app?vid=cc475582-0cc3-4b14-a66c-6041b0d2e976"},"vehicle_type_id":"4","last_reported":1762034922,"current_range_meters":19200,"station_id":"","pricing_plan_id":"cebpf4jnsgd1na2vs0mg"},{"bike_id":"aa56963e-5f6a-4043-b1c7-23e4d9f05d8c","system_id":"levelo_inurba_marseille","lat":43.313499,"lon":5.379119,"is_reserved":false,"is_disabled":false,"rental_uris":{"android":"levelo://app?vid=aa56963e-5f6a-4043-b1c7-23e4d9f05d8c","ios":"levelo://app?vid=aa56963e-5f6a-4043-b1c7-23e4d9f05d8c"},"vehicle_type_id":"4","last_reported":1762034922,"current_range_meters":19200,"station_id":"","pricing_plan_id":"cebpf4jnsgd1na2vs0mg"},{"bike_id":"aef75ae5-d606-43b6-8ba5-d53a35c16de5","system_id":"levelo_inurba_marseille","lat":43.27417,"lon":5.3941,"is_reserved":false,"is_disabled":true,"rental_uris":{"android":"levelo://app?vid=aef75ae5-d606-43b6-8ba5-d53a35c16de5","ios":"levelo://app?vid=aef75ae5-d606-43b6-8ba5-d53a35c16de5"},"vehicle_type_id":"4","last_reported":1762034922,"current_range_meters":19600,"station_id":"ce4bhdp2rcd13ifvqf20","pricing_plan_id":"cebpf4jnsgd1na2vs0mg"},{"bike_id":"1c7e9560-2754-4a88-b1cb-cdee38fc1289","system_id":"levelo_inurba_marseille","lat":43.26938,"lon":5.4031,"is_reserved":false,"is_disabled":true,"rental_uris":{"android":"levelo://app?vid=1c7e9560-2754-4a88-b1cb-cdee38fc1289","ios":"levelo://app?vid=1c7e9560-2754-4a88-b1cb-cdee38fc1289"},"vehicle_type_id":"4","last_reported":1762034922,"current_range_meters":19600,"station_id":"cjm6bp8fraef2m0cb0m0","pricing_plan_id":"cebpf4jnsgd1na2vs0mg"},{"bike_id":"929258f3-4139-433b-a492-f0fada7a0f3a","system_id":"levelo_inurba_marseille","lat":43.27918,"lon":5.39577,"is_reserved":false,"is_disabled":false,"rental_uris":{"android":"levelo://app?vid=929258f3-4139-433b-a492-f0fada7a0f3a","ios":"levelo://app?vid=929258f3-4139-433b-a492-f0fada7a0f3a"},"vehicle_type_id":"4","last_reported":1762034922,"current_range_meters":19600,"station_id":"ce4bhf92rcd13ifvqf40","pricing_plan_id":"cebpf4jnsgd1na2vs0mg"},{"bike_id":"d8efcc32-c1db-4361-bc6d-830942f3d9b3","system_id":"levelo_inurba_marseille","lat":43.29177,"lon":5.39323,"is_reserved":false,"is_disabled":false,"rental_uris":{"android":"levelo://app?vid=d8efcc32-c1db-4361-bc6d-830942f3d9b3","ios":"levelo://app?vid=d8efcc32-c1db-4361-bc6d-830942f3d9b3"},"vehicle_type_id":"4","last_reported":1762034922,"current_range_meters":19600,"station_id":"ce4bh192rcd13ifvqdd0","pricing_plan_id":"cebpf4jnsgd1na2vs0mg"},{"bike_id":"65959e76-2dec-43d3-b15c-b4e7433182fd","system_id":"levelo_inurba_marseille","lat":43.293631,"lon":5.371955,"is_reserved":false,"is_disabled":false,"rental_uris":{"android":"levelo://app?vid=65959e76-2dec-43d3-b15c-b4e7433182fd","ios":"levelo://app?vid=65959e76-2dec-43d3-b15c-b4e7433182fd"},"vehicle_type_id":"4","last_reported":1762034922,"current_range_meters":19600,"station_id":"","pricing_plan_id":"cebpf4jnsgd1na2vs0mg"},{"bike_id":"f0723ed3-0cbd-422b-ab9d-79baf2765767","system_id":"levelo_inurba_marseille","lat":43.29052,"lon":5.35908,"is_reserved":false,"is_disabled":false,"rental_uris":{"android":"levelo://app?vid=f0723ed3-0cbd-422b-ab9d-79baf2765767","ios":"levelo://app?vid=f0723ed3-0cbd-422b-ab9d-79baf2765767"},"vehicle_type_id":"4","last_reported":1762034922,"current_range_meters":19600,"station_id":"ce4bha92rcd13ifvqeg0","pricing_plan_id":"cebpf4jnsgd1na2vs0mg"},{"bike_id":"6dbae8fb-b558-4de5-931e-260b80081062","system_id":"levelo_inurba_marseille","lat":43.29891,"lon":5.43645,"is_reserved":false,"is_disabled":false,"rental_uris":{"android":"levelo://app?vid=6dbae8fb-b558-4de5-931e-260b80081062","ios":"levelo://app?vid=6dbae8fb-b558-4de5-931e-260b80081062"},"vehicle_type_id":"4","last_reported":1762034922,"current_range_meters":19600,"station_id":"ce4bhpp2rcd13ifvqhfg","pricing_plan_id":"cebpf4jnsgd1na2vs0mg"},{"bike_id":"6a1cc001-3bc9-4225-8e3c-d058d9b19e8e","system_id":"levelo_inurba_marseille","lat":43.24674,"lon":5.43142,"is_reserved":false,"is_disabled":false,"rental_uris":{"android":"levelo://app?vid=6a1cc001-3bc9-4225-8e3c-d058d9b19e8e","ios":"levelo://app?vid=6a1cc001-3bc9-4225-8e3c-d058d9b19e8e"},"vehicle_type_id":"4","last_reported":1762034922,"current_range_meters":19600,"station_id":"st_d2m6c4gdas8pm72e190g","pricing_plan_id":"cebpf4jnsgd1na2vs0mg"},{"bike_id":"45178dd9-b960-4161-871b-52bd5ff2bc66","system_id":"levelo_inurba_marseille","lat":43.25518,"lon":5.37643,"is_reserved":false,"is_disabled":false,"rental_uris":{"android":"levelo://app?vid=45178dd9-b960-4161-871b-52bd5ff2bc66","ios":"levelo://app?vid=45178dd9-b960-4161-871b-52bd5ff2bc66"},"vehicle_type_id":"4","last_reported":1762034922,"current_range_meters":19600,"station_id":"ce4bhh12rcd13ifvqff0","pricing_plan_id":"cebpf4jnsgd1na2vs0mg"},{"bike_id":"08c0f66f-8591-43f7-9431-df5176433ebe","system_id":"levelo_inurba_marseille","lat":43.31487,"lon":5.3731,"is_reserved":false,"is_disabled":false,"rental_uris":{"android":"levelo://app?vid=08c0f66f-8591-43f7-9431-df5176433ebe","ios":"levelo://app?vid=08c0f66f-8591-43f7-9431-df5176433ebe"},"vehicle_type_id":"4","last_reported":1762034922,"current_range_meters":19600,"station_id":"ce4bgt12rcd13ifvqcd0","pricing_plan_id":"cebpf4jnsgd1na2vs0mg"},{"bike_id":"51b91ad9-f372-4825-a2a7-7d395fc6680e","system_id":"levelo_inurba_marseille","lat":43.29261,"lon":5.38436,"is_reserved":false,"is_disabled":false,"rental_uris":{"android":"levelo://app?vid=51b91ad9-f372-4825-a2a7-7d395fc6680e","ios":"levelo://app?vid=51b91ad9-f372-4825-a2a7-7d395fc6680e"},"vehicle_type_id":"4","last_reported":1762034922,"current_range_meters":19600,"station_id":"ce4bh692rcd13ifvqea0","pricing_plan_id":"cebpf4jnsgd1na2vs0mg"},{"bike_id":"236dc671-f4af-4d76-a6a4-e868dde4a99d","system_id":"levelo_inurba_marseille","lat":43.28341,"lon":5.38101,"is_reserved":false,"is_disabled":false,"rental_uris":{"android":"levelo://app?vid=236dc671-f4af-4d76-a6a4-e868dde4a99d","ios":"levelo://app?vid=236dc671-f4af-4d76-a6a4-e868dde4a99d"},"vehicle_type_id":"4","last_reported":1762034922,"current_range_meters":20000,"station_id":"ce4bh412rcd13ifvqdr0","pricing_plan_id":"cebpf4jnsgd1na2vs0mg"},{"bike_id":"85d8043d-b929-43f8-9188-ad421047c360","system_id":"levelo_inurba_marseille","lat":43.25339,"lon":5.42165,"is_reserved":false,"is_disabled":false,"rental_uris":{"android":"levelo://app?vid=85d8043d-b929-43f8-9188-ad421047c360","ios":"levelo://app?vid=85d8043d-b929-43f8-9188-ad421047c360"},"vehicle_type_id":"4","last_reported":1762034922,"current_range_meters":20000,"station_id":"st_d2m65c5bi1j21697t3ng","pricing_plan_id":"cebpf4jnsgd1na2vs0mg"},{"bike_id":"741f0404-fd9a-47a0-b6f1-10bcb10934b6","system_id":"levelo_inurba_marseille","lat":43.29275,"lon":5.38443,"is_reserved":false,"is_disabled":false,"rental_uris":{"android":"levelo://app?vid=741f0404-fd9a-47a0-b6f1-10bcb10934b6","ios":"levelo://app?vid=741f0404-fd9a-47a0-b6f1-10bcb10934b6"},"vehicle_type_id":"4","last_reported":1762034922,"current_range_meters":20000,"station_id":"ce4bh692rcd13ifvqea0","pricing_plan_id":"cebpf4jnsgd1na2vs0mg"},{"bike_id":"123ec047-d6a2-4308-aee4-8ec0b2bea538","system_id":"levelo_inurba_marseille","lat":43.23196,"lon":5.35566,"is_reserved":false,"is_disabled":false,"rental_uris":{"android":"levelo://app?vid=123ec047-d6a2-4308-aee4-8ec0b2bea538","ios":"levelo://app?vid=123ec047-d6a2-4308-aee4-8ec0b2bea538"},"vehicle_type_id":"4","last_reported":1762034922,"current_range_meters":20000,"station_id":"ce4bhu92rcd13ifvqi70","pricing_plan_id":"cebpf4jnsgd1na2vs0mg"},{"bike_id":"c512099e-8861-4b66-abf5-28d410fc5fb6","system_id":"levelo_inurba_marseille","lat":43.301382,"lon":5.387853,"is_reserved":false,"is_disabled":true,"rental_uris":{"android":"levelo://app?vid=c512099e-8861-4b66-abf5-28d410fc5fb6","ios":"levelo://app?vid=c512099e-8861-4b66-abf5-28d410fc5fb6"},"vehicle_type_id":"4","last_reported":1762034922,"current_range_meters":20000,"station_id":"ce4bghh2rcd13ifvqb60","pricing_plan_id":"cebpf4jnsgd1na2vs0mg"},{"bike_id":"6402deec-c993-4fb0-8e8a-8e1334187a1b","system_id":"levelo_inurba_marseille","lat":43.29535,"lon":5.39396,"is_reserved":false,"is_disabled":false,"rental_uris":{"android":"levelo://app?vid=6402deec-c993-4fb0-8e8a-8e1334187a1b","ios":"levelo://app?vid=6402deec-c993-4fb0-8e8a-8e1334187a1b"},"vehicle_type_id":"4","last_reported":1762034922,"current_range_meters":20400,"station_id":"ce4bh292rcd13ifvqdf0","pricing_plan_id":"cebpf4jnsgd1na2vs0mg"},{"bike_id":"57dd2a42-9455-44c4-a3ac-78567bc6fceb","system_id":"levelo_inurba_marseille","lat":43.23965,"lon":5.36627,"is_reserved":false,"is_disabled":false,"rental_uris":{"android":"levelo://app?vid=57dd2a42-9455-44c4-a3ac-78567bc6fceb","ios":"levelo://app?vid=57dd2a42-9455-44c4-a3ac-78567bc6fceb"},"vehicle_type_id":"4","last_reported":1762034922,"current_range_meters":20400,"station_id":"ce4bhi12rcd13ifvqfp0","pricing_plan_id":"cebpf4jnsgd1na2vs0mg"},{"bike_id":"28f5c609-94bd-4f1d-9186-f66e4c2140b5","system_id":"levelo_inurba_marseille","lat":43.30738,"lon":5.42445,"is_reserved":false,"is_disabled":false,"rental_uris":{"android":"levelo://app?vid=28f5c609-94bd-4f1d-9186-f66e4c2140b5","ios":"levelo://app?vid=28f5c609-94bd-4f1d-9186-f66e4c2140b5"},"vehicle_type_id":"4","last_reported":1762034922,"current_range_meters":20400,"station_id":"st_cvj6ca6bvosntc0bfgr0","pricing_plan_id":"cebpf4jnsgd1na2vs0mg"},{"bike_id":"7c4b5287-96e8-4897-b20c-27f966eb9842","system_id":"levelo_inurba_marseille","lat":43.24182,"lon":5.3974,"is_reserved":false,"is_disabled":false,"rental_uris":{"android":"levelo://app?vid=7c4b5287-96e8-4897-b20c-27f966eb9842","ios":"levelo://app?vid=7c4b5287-96e8-4897-b20c-27f966eb9842"},"vehicle_type_id":"4","last_reported":1762034922,"current_range_meters":20800,"station_id":"ce4bhn12rcd13ifvqgpg","pricing_plan_id":"cebpf4jnsgd1na2vs0mg"},{"bike_id":"cfba733a-245d-4919-bc19-9aa9f222d086","system_id":"levelo_inurba_marseille","lat":43.29261,"lon":5.38445,"is_reserved":false,"is_disabled":false,"rental_uris":{"android":"levelo://app?vid=cfba733a-245d-4919-bc19-9aa9f222d086","ios":"levelo://app?vid=cfba733a-245d-4919-bc19-9aa9f222d086"},"vehicle_type_id":"4","last_reported":1762034922,"current_range_meters":20800,"station_id":"ce4bh692rcd13ifvqea0","pricing_plan_id":"cebpf4jnsgd1na2vs0mg"},{"bike_id":"4c2e795a-4ac2-4fba-b47e-7412c196e673","system_id":"levelo_inurba_marseille","lat":43.32134,"lon":5.36781,"is_reserved":false,"is_disabled":false,"rental_uris":{"android":"levelo://app?vid=4c2e795a-4ac2-4fba-b47e-7412c196e673","ios":"levelo://app?vid=4c2e795a-4ac2-4fba-b47e-7412c196e673"},"vehicle_type_id":"4","last_reported":1762034922,"current_range_meters":20800,"station_id":"","pricing_plan_id":"cebpf4jnsgd1na2vs0mg"},{"bike_id":"b2514755-0f11-4833-b225-7d1f8289efa4","system_id":"levelo_inurba_marseille","lat":43.22935,"lon":5.35381,"is_reserved":false,"is_disabled":false,"rental_uris":{"android":"levelo://app?vid=b2514755-0f11-4833-b225-7d1f8289efa4","ios":"levelo://app?vid=b2514755-0f11-4833-b225-7d1f8289efa4"},"vehicle_type_id":"4","last_reported":1762034922,"current_range_meters":20800,"station_id":"cpo3532slgdg3j2ikp40","pricing_plan_id":"cebpf4jnsgd1na2vs0mg"},{"bike_id":"0ec52474-d6a1-4a6b-b400-8e5b79f905c4","system_id":"levelo_inurba_marseille","lat":43.28726,"lon":5.36092,"is_reserved":false,"is_disabled":false,"rental_uris":{"android":"levelo://app?vid=0ec52474-d6a1-4a6b-b400-8e5b79f905c4","ios":"levelo://app?vid=0ec52474-d6a1-4a6b-b400-8e5b79f905c4"},"vehicle_type_id":"4","last_reported":1762034922,"current_range_meters":20800,"station_id":"cki0cbj6b192h4jlfktg","pricing_plan_id":"cebpf4jnsgd1na2vs0mg"},{"bike_id":"bc97e72b-f479-4cfb-ba90-458ce1432bd8","system_id":"levelo_inurba_marseille","lat":43.30306,"lon":5.37706,"is_reserved":false,"is_disabled":true,"rental_uris":{"android":"levelo://app?vid=bc97e72b-f479-4cfb-ba90-458ce1432bd8","ios":"levelo://app?vid=bc97e72b-f479-4cfb-ba90-458ce1432bd8"},"vehicle_type_id":"4","last_reported":1762034922,"current_range_meters":20800,"station_id":"ce4bguh2rcd13ifvqcj0","pricing_plan_id":"cebpf4jnsgd1na2vs0mg"},{"bike_id":"fd91ca17-3c70-41bb-af77-0b13f8d19558","system_id":"levelo_inurba_marseille","lat":43.30886,"lon":5.39654,"is_reserved":false,"is_disabled":false,"rental_uris":{"android":"levelo://app?vid=fd91ca17-3c70-41bb-af77-0b13f8d19558","ios":"levelo://app?vid=fd91ca17-3c70-41bb-af77-0b13f8d19558"},"vehicle_type_id":"4","last_reported":1762034922,"current_range_meters":20800,"station_id":"ce4bh012rcd13ifvqcv0","pricing_plan_id":"cebpf4jnsgd1na2vs0mg"},{"bike_id":"6ea2eb5b-2675-4f29-8e19-6057c0595123","system_id":"levelo_inurba_marseille","lat":43.31327,"lon":5.39693,"is_reserved":false,"is_disabled":false,"rental_uris":{"android":"levelo://app?vid=6ea2eb5b-2675-4f29-8e19-6057c0595123","ios":"levelo://app?vid=6ea2eb5b-2675-4f29-8e19-6057c0595123"},"vehicle_type_id":"4","last_reported":1762034922,"current_range_meters":20800,"station_id":"ce4bgvp2rcd13ifvqcu0","pricing_plan_id":"cebpf4jnsgd1na2vs0mg"},{"bike_id":"bf5014c4-05c7-4fec-af81-f5188596d71d","system_id":"levelo_inurba_marseille","lat":43.30885,"lon":5.3966,"is_reserved":false,"is_disabled":false,"rental_uris":{"android":"levelo://app?vid=bf5014c4-05c7-4fec-af81-f5188596d71d","ios":"levelo://app?vid=bf5014c4-05c7-4fec-af81-f5188596d71d"},"vehicle_type_id":"4","last_reported":1762034922,"current_range_meters":20800,"station_id":"ce4bh012rcd13ifvqcv0","pricing_plan_id":"cebpf4jnsgd1na2vs0mg"},{"bike_id":"eaf32c0a-6c34-44ee-a211-f50ab6f7f1ce","system_id":"levelo_inurba_marseille","lat":43.29022,"lon":5.38632,"is_reserved":false,"is_disabled":false,"rental_uris":{"android":"levelo://app?vid=eaf32c0a-6c34-44ee-a211-f50ab6f7f1ce","ios":"levelo://app?vid=eaf32c0a-6c34-44ee-a211-f50ab6f7f1ce"},"vehicle_type_id":"4","last_reported":1762034922,"current_range_meters":20800,"station_id":"ce4bh4p2rcd13ifvqe0g","pricing_plan_id":"cebpf4jnsgd1na2vs0mg"},{"bike_id":"85dce785-b2b7-4cf5-a34e-b4a9114ae38b","system_id":"levelo_inurba_marseille","lat":43.284072,"lon":5.349878,"is_reserved":false,"is_disabled":false,"rental_uris":{"android":"levelo://app?vid=85dce785-b2b7-4cf5-a34e-b4a9114ae38b","ios":"levelo://app?vid=85dce785-b2b7-4cf5-a34e-b4a9114ae38b"},"vehicle_type_id":"4","last_reported":1762034922,"current_range_meters":21600,"station_id":"ce4bhbh2rcd13ifvqepg","pricing_plan_id":"cebpf4jnsgd1na2vs0mg"},{"bike_id":"6dd18053-e3ac-4ec6-8544-7b6c95a61457","system_id":"levelo_inurba_marseille","lat":43.24171,"lon":5.36383,"is_reserved":false,"is_disabled":false,"rental_uris":{"android":"levelo://app?vid=6dd18053-e3ac-4ec6-8544-7b6c95a61457","ios":"levelo://app?vid=6dd18053-e3ac-4ec6-8544-7b6c95a61457"},"vehicle_type_id":"4","last_reported":1762034922,"current_range_meters":21600,"station_id":"cpo36qri1sfpv3e86is0","pricing_plan_id":"cebpf4jnsgd1na2vs0mg"},{"bike_id":"cfc4676e-3e92-44dc-81aa-1d4645231bef","system_id":"levelo_inurba_marseille","lat":43.29545,"lon":5.38538,"is_reserved":false,"is_disabled":false,"rental_uris":{"android":"levelo://app?vid=cfc4676e-3e92-44dc-81aa-1d4645231bef","ios":"levelo://app?vid=cfc4676e-3e92-44dc-81aa-1d4645231bef"},"vehicle_type_id":"4","last_reported":1762034922,"current_range_meters":21600,"station_id":"ce4bgih2rcd13ifvqba0","pricing_plan_id":"cebpf4jnsgd1na2vs0mg"},{"bike_id":"06756d68-f601-4313-a049-fec54d37d722","system_id":"levelo_inurba_marseille","lat":43.336107,"lon":5.410388,"is_reserved":false,"is_disabled":false,"rental_uris":{"android":"levelo://app?vid=06756d68-f601-4313-a049-fec54d37d722","ios":"levelo://app?vid=06756d68-f601-4313-a049-fec54d37d722"},"vehicle_type_id":"4","last_reported":1762034922,"current_range_meters":21600,"station_id":"ce4bhq92rcd13ifvqhkg","pricing_plan_id":"cebpf4jnsgd1na2vs0mg"},{"bike_id":"8ab4e129-da7c-45c2-ad80-19b4f5ad9dbd","system_id":"levelo_inurba_marseille","lat":43.24664,"lon":5.38171,"is_reserved":false,"is_disabled":false,"rental_uris":{"android":"levelo://app?vid=8ab4e129-da7c-45c2-ad80-19b4f5ad9dbd","ios":"levelo://app?vid=8ab4e129-da7c-45c2-ad80-19b4f5ad9dbd"},"vehicle_type_id":"4","last_reported":1762034922,"current_range_meters":21600,"station_id":"ce4bhih2rcd13ifvqfr0","pricing_plan_id":"cebpf4jnsgd1na2vs0mg"},{"bike_id":"3ab88246-f765-43c1-8a49-28ceaee07eea","system_id":"levelo_inurba_marseille","lat":43.29265,"lon":5.38426,"is_reserved":false,"is_disabled":false,"rental_uris":{"android":"levelo://app?vid=3ab88246-f765-43c1-8a49-28ceaee07eea","ios":"levelo://app?vid=3ab88246-f765-43c1-8a49-28ceaee07eea"},"vehicle_type_id":"4","last_reported":1762034922,"current_range_meters":21600,"station_id":"ce4bh692rcd13ifvqea0","pricing_plan_id":"cebpf4jnsgd1na2vs0mg"},{"bike_id":"8f5d5586-89ff-415d-b241-dfc42bb09b7c","system_id":"levelo_inurba_marseille","lat":43.30809,"lon":5.38151,"is_reserved":false,"is_disabled":false,"rental_uris":{"android":"levelo://app?vid=8f5d5586-89ff-415d-b241-dfc42bb09b7c","ios":"levelo://app?vid=8f5d5586-89ff-415d-b241-dfc42bb09b7c"},"vehicle_type_id":"4","last_reported":1762034922,"current_range_meters":21600,"station_id":"ce4bgt12rcd13ifvqce0","pricing_plan_id":"cebpf4jnsgd1na2vs0mg"},{"bike_id":"1f4bf620-5a86-4131-b1aa-491aa828d1ad","system_id":"levelo_inurba_marseille","lat":43.250881,"lon":5.395188,"is_reserved":false,"is_disabled":false,"rental_uris":{"android":"levelo://app?vid=1f4bf620-5a86-4131-b1aa-491aa828d1ad","ios":"levelo://app?vid=1f4bf620-5a86-4131-b1aa-491aa828d1ad"},"vehicle_type_id":"4","last_reported":1762034922,"current_range_meters":22000,"station_id":"ce4bhm12rcd13ifvqgkg","pricing_plan_id":"cebpf4jnsgd1na2vs0mg"},{"bike_id":"519f486b-30fb-4edf-bf1c-046e0e75eff4","system_id":"levelo_inurba_marseille","lat":43.29303,"lon":5.37446,"is_reserved":false,"is_disabled":false,"rental_uris":{"android":"levelo://app?vid=519f486b-30fb-4edf-bf1c-046e0e75eff4","ios":"levelo://app?vid=519f486b-30fb-4edf-bf1c-046e0e75eff4"},"vehicle_type_id":"4","last_reported":1762034922,"current_range_meters":22000,"station_id":"ce4bgi12rcd13ifvqb70","pricing_plan_id":"cebpf4jnsgd1na2vs0mg"},{"bike_id":"e37a3e06-24f5-4130-8d50-b62005271d50","system_id":"levelo_inurba_marseille","lat":43.24171,"lon":5.36399,"is_reserved":false,"is_disabled":false,"rental_uris":{"android":"levelo://app?vid=e37a3e06-24f5-4130-8d50-b62005271d50","ios":"levelo://app?vid=e37a3e06-24f5-4130-8d50-b62005271d50"},"vehicle_type_id":"4","last_reported":1762034922,"current_range_meters":22000,"station_id":"cpo36qri1sfpv3e86is0","pricing_plan_id":"cebpf4jnsgd1na2vs0mg"},{"bike_id":"4c4b8bcf-4ef8-4551-8b0c-0892f8af6559","system_id":"levelo_inurba_marseille","lat":43.22565,"lon":5.41623,"is_reserved":false,"is_disabled":false,"rental_uris":{"android":"levelo://app?vid=4c4b8bcf-4ef8-4551-8b0c-0892f8af6559","ios":"levelo://app?vid=4c4b8bcf-4ef8-4551-8b0c-0892f8af6559"},"vehicle_type_id":"4","last_reported":1762034922,"current_range_meters":22000,"station_id":"st_d2o4gvlbi1j2169b742g","pricing_plan_id":"cebpf4jnsgd1na2vs0mg"},{"bike_id":"5245fadb-5cfb-4695-a6b7-7d8af57af071","system_id":"levelo_inurba_marseille","lat":43.26681,"lon":5.38273,"is_reserved":false,"is_disabled":false,"rental_uris":{"android":"levelo://app?vid=5245fadb-5cfb-4695-a6b7-7d8af57af071","ios":"levelo://app?vid=5245fadb-5cfb-4695-a6b7-7d8af57af071"},"vehicle_type_id":"4","last_reported":1762034922,"current_range_meters":22000,"station_id":"ce4bhg92rcd13ifvqf90","pricing_plan_id":"cebpf4jnsgd1na2vs0mg"},{"bike_id":"ea731de3-e071-4533-bb8d-44fb6ce450e0","system_id":"levelo_inurba_marseille","lat":43.24805,"lon":5.3744,"is_reserved":false,"is_disabled":false,"rental_uris":{"android":"levelo://app?vid=ea731de3-e071-4533-bb8d-44fb6ce450e0","ios":"levelo://app?vid=ea731de3-e071-4533-bb8d-44fb6ce450e0"},"vehicle_type_id":"4","last_reported":1762034922,"current_range_meters":22000,"station_id":"ce4bhgh2rcd13ifvqfb0","pricing_plan_id":"cebpf4jnsgd1na2vs0mg"},{"bike_id":"705f1060-30b3-4161-8587-ac8ffdd55bb2","system_id":"levelo_inurba_marseille","lat":43.31327,"lon":5.397,"is_reserved":false,"is_disabled":false,"rental_uris":{"android":"levelo://app?vid=705f1060-30b3-4161-8587-ac8ffdd55bb2","ios":"levelo://app?vid=705f1060-30b3-4161-8587-ac8ffdd55bb2"},"vehicle_type_id":"4","last_reported":1762034922,"current_range_meters":22000,"station_id":"ce4bgvp2rcd13ifvqcu0","pricing_plan_id":"cebpf4jnsgd1na2vs0mg"},