{"last_updated":1770922019,"ttl":60,"version":"2.2","data":{"bikes":[{"bike_id":"1a0d99f0-ee74-4956-bad4-992b0789ccc7","system_id":"levelo_inurba_marseille","lat":43.21191,"lon":5.35089,"is_reserved":false,"is_disabled":false,"rental_uris":{"android":"levelo://app?vid=1a0d99f0-ee74-4956-bad4-992b0789ccc7","ios":"levelo://app?vid=1a0d99f0-ee74-4956-bad4-992b0789ccc7"},"vehicle_type_id":"4","last_reported":1770922019,"current_range_meters":2800,"station_id":"st_cvj6sg6p6f1abm77japg","pricing_plan_id":"cebpf4jnsgd1na2vs0mg"},{"bike_id":"c827f785-6516-4690-a790-85d042f7f3d1","system_id":"levelo_inurba_marseille","lat":43.308602,"lon":5.396312,"is_reserved":false,"is_disabled":false,"rental_uris":{"android":"levelo://app?vid=c827f785-6516-4690-a790-85d042f7f3d1","ios":"levelo://app?vid=c827f785-6516-4690-a790-85d042f7f3d1"},"vehicle_type_id":"4","last_reported":1770922019,"current_range_meters":2800,"station_id":"","pricing_plan_id":"cebpf4jnsgd1na2vs0mg"},{"bike_id":"6d150b77-ae17-47e1-8d5c-fd574757a1eb","system_id":"levelo_inurba_marseille","lat":43.27062,"lon":5.4026,"is_reserved":false,"is_disabled":false,"rental_uris":{"android":"levelo://app?vid=6d150b77-ae17-47e1-8d5c-fd574757a1eb","ios":"levelo://app?vid=6d150b77-ae17-47e1-8d5c-fd574757a1eb"},"vehicle_type_id":"4","last_reported":1770922019,"current_range_meters":2800,"station_id":"ce4bhk92rcd13ifvqgc0","pricing_plan_id":"cebpf4jnsgd1na2vs0mg"},{"bike_id":"08db55f9-a0dc-421d-97f0-0787336c9706","system_id":"levelo_inurba_marseille","lat":43.310711,"lon":5.383477,"is_reserved":false,"is_disabled":true,"rental_uris":{"android":"levelo://app?vid=08db55f9-a0dc-421d-97f0-0787336c9706","ios":"levelo://app?vid=08db55f9-a0dc-421d-97f0-0787336c9706"},"vehicle_type_id":"4","last_reported":1770922019,"current_range_meters":2800,"station_id":"ce4bgv92rcd13ifvqcr0","pricing_plan_id":"cebpf4jnsgd1na2vs0mg"},{"bike_id":"44c6aa93-1f46-4cbd-a298-6cd74e811e92","system_id":"levelo_inurba_marseille","lat":43.21753,"lon":5.346,"is_reserved":false,"is_disabled":false,"rental_uris":{"android":"levelo://app?vid=44c6aa93-1f46-4cbd-a298-6cd74e811e92","ios":"levelo://app?vid=44c6aa93-1f46-4cbd-a298-6cd74e811e92"},"vehicle_type_id":"4","last_reported":1770922019,"current_range_meters":2800,"station_id":"st_cvj6r9ubvosntc0bgbag","pricing_plan_id":"cebpf4jnsgd1na2vs0mg"},{"bike_id":"ae861497-9a22-4231-afa9-8238d5c5713c","system_id":"levelo_inurba_marseille","lat":43.24175,"lon":5.3641,"is_reserved":false,"is_disabled":false,"rental_uris":{"android":"levelo://app?vid=ae861497-9a22-4231-afa9-8238d5c5713c","ios":"levelo://app?vid=ae861497-9a22-4231-afa9-8238d5c5713c"},"vehicle_type_id":"4","last_reported":1770922019,"current_range_meters":2800,"station_id":"cpo36qri1sfpv3e86is0","pricing_plan_id":"cebpf4jnsgd1na2vs0mg"},{"bike_id":"5bd37497-56d3-463c-8c1c-ae74e00d9de0","system_id":"levelo_inurba_marseille","lat":43.269395,"lon":5.402475,"is_reserved":false,"is_disabled":false,"rental_uris":{"android":"levelo://app?vid=5bd37497-56d3-463c-8c1c-ae74e00d9de0","ios":"levelo://app?vid=5bd37497-56d3-463c-8c1c-ae74e00d9de0"},"vehicle_type_id":"4","last_reported":1770922019,"current_range_meters":2800,"station_id":"cjm6bp8fraef2m0cb0m0","pricing_plan_id":"cebpf4jnsgd1na2vs0mg"},{"bike_id":"cdb5c25c-a15a-4142-a44d-9f93b3d885b7","system_id":"levelo_inurba_marseille","lat":43.28899,"lon":5.4315,"is_reserved":false,"is_disabled":true,"rental_uris":{"android":"levelo://app?vid=cdb5c25c-a15a-4142-a44d-9f93b3d885b7","ios":"levelo://app?vid=cdb5c25c-a15a-4142-a44d-9f93b3d885b7"},"vehicle_type_id":"4","last_reported":1770922019,"current_range_meters":2800,"station_id":"","pricing_plan_id":"cebpf4jnsgd1na2vs0mg"},{"bike_id":"2461c977-17d5-44d3-a5a6-a1134206760b","system_id":"levelo_inurba_marseille","lat":43.3053,"lon":5.36719,"is_reserved":false,"is_disabled":false,"rental_uris":{"android":"levelo://app?vid=2461c977-17d5-44d3-a5a6-a1134206760b","ios":"levelo://app?vid=2461c977-17d5-44d3-a5a6-a1134206760b"},"vehicle_type_id":"4","last_reported":1770922019,"current_range_meters":2800,"station_id":"ce4bgrp2rcd13ifvqc9g","pricing_plan_id":"cebpf4jnsgd1na2vs0mg"},{"bike_id":"e4f5d6b4-5214-4f51-adc4-9a51cc1f0b62","system_id":"levelo_inurba_marseille","lat":43.29243,"lon":5.40912,"is_reserved":false,"is_disabled":true,"rental_uris":{"android":"levelo://app?vid=e4f5d6b4-5214-4f51-adc4-9a51cc1f0b62","ios":"levelo://app?vid=e4f5d6b4-5214-4f51-adc4-9a51cc1f0b62"},"vehicle_type_id":"4","last_reported":1770922019,"current_range_meters":2800,"station_id":"ce4bh192rcd13ifvqdc0","pricing_plan_id":"cebpf4jnsgd1na2vs0mg"},{"bike_id":"b55cacf2-fdf9-4f3b-982f-67eea6b14678","system_id":"levelo_inurba_marseille","lat":43.311893,"lon":5.390467,"is_reserved":false,"is_disabled":false,"rental_uris":{"android":"levelo://app?vid=b55cacf2-fdf9-4f3b-982f-67eea6b14678","ios":"levelo://app?vid=b55cacf2-fdf9-4f3b-982f-67eea6b14678"},"vehicle_type_id":"4","last_reported":1770922019,"current_range_meters":3200,"station_id":"","pricing_plan_id":"cebpf4jnsgd1na2vs0mg"},{"bike_id":"ed5f093d-1aa3-4ff9-ab82-20bb031f1bc6","system_id":"levelo_inurba_marseille","lat":43.285351,"lon":5.44088,"is_reserved":false,"is_disabled":false,"rental_uris":{"android":"levelo://app?vid=ed5f093d-1aa3-4ff9-ab82-20bb031f1bc6","ios":"levelo://app?vid=ed5f093d-1aa3-4ff9-ab82-20bb031f1bc6"},"vehicle_type_id":"4","last_reported":1770922019,"current_range_meters":3200,"station_id":"","pricing_plan_id":"cebpf4jnsgd1na2vs0mg"},{"bike_id":"d16e8676-bb91-42bf-b68a-481193eb39f4","system_id":"levelo_inurba_marseille","lat":43.2469,"lon":5.38194,"is_reserved":false,"is_disabled":false,"rental_uris":{"android":"levelo://app?vid=d16e8676-bb91-42bf-b68a-481193eb39f4","ios":"levelo://app?vid=d16e8676-bb91-42bf-b68a-481193eb39f4"},"vehicle_type_id":"4","last_reported":1770922019,"current_range_meters":3200,"station_id":"ce4bhih2rcd13ifvqfr0","pricing_plan_id":"cebpf4jnsgd1na2vs0mg"},{"bike_id":"ba364331-2a0a-4d38-8082-030e4d0ac4a8","system_id":"levelo_inurba_marseille","lat":43.26554,"lon":5.39035,"is_reserved":false,"is_disabled":false,"rental_uris":{"android":"levelo://app?vid=ba364331-2a0a-4d38-8082-030e4d0ac4a8","ios":"levelo://app?vid=ba364331-2a0a-4d38-8082-030e4d0ac4a8"},"vehicle_type_id":"4","last_reported":1770922019,"current_range_meters":3200,"station_id":"ce4bhe12rcd13ifvqf30","pricing_plan_id":"cebpf4jnsgd1na2vs0mg"},{"bike_id":"8a8cdae3-fa9c-459c-b6c1-a3ddeca316d7","system_id":"levelo_inurba_marseille","lat":43.29277,"lon":5.36847,"is_reserved":false,"is_disabled":false,"rental_uris":{"android":"levelo://app?vid=8a8cdae3-fa9c-459c-b6c1-a3ddeca316d7","ios":"levelo://app?vid=8a8cdae3-fa9c-459c-b6c1-a3ddeca316d7"},"vehicle_type_id":"4","last_reported":1770922019,"current_range_meters":3200,"station_id":"ce4bhbp2rcd13ifvqesg","pricing_plan_id":"cebpf4jnsgd1na2vs0mg"},{"bike_id":"ff06daa0-f921-452b-a35f-ccc47adc3cc5","system_id":"levelo_inurba_marseille","lat":43.2319,"lon":5.39988,"is_reserved":false,"is_disabled":false,"rental_uris":{"android":"levelo://app?vid=ff06daa0-f921-452b-a35f-ccc47adc3cc5","ios":"levelo://app?vid=ff06daa0-f921-452b-a35f-ccc47adc3cc5"},"vehicle_type_id":"4","last_reported":1770922019,"current_range_meters":3200,"station_id":"ce4bhn12rcd13ifvqgqg","pricing_plan_id":"cebpf4jnsgd1na2vs0mg"},{"bike_id":"53a8325d-0454-49fa-a080-5c3562d7019f","system_id":"levelo_inurba_marseille","lat":43.28944,"lon":5.39655,"is_reserved":false,"is_disabled":false,"rental_uris":{"android":"levelo://app?vid=53a8325d-0454-49fa-a080-5c3562d7019f","ios":"levelo://app?vid=53a8325d-0454-49fa-a080-5c3562d7019f"},"vehicle_type_id":"4","last_reported":1770922019,"current_range_meters":3200,"station_id":"ce4bh3h2rcd13ifvqdn0","pricing_plan_id":"cebpf4jnsgd1na2vs0mg"},{"bike_id":"c4119786-0650-484e-ac5d-9b64a8808e93","system_id":"levelo_inurba_marseille","lat":43.240837,"lon":5.377487,"is_reserved":false,"is_disabled":false,"rental_uris":{"android":"levelo://app?vid=c4119786-0650-484e-ac5d-9b64a8808e93","ios":"levelo://app?vid=c4119786-0650-484e-ac5d-9b64a8808e93"},"vehicle_type_id":"4","last_reported":1770922019,"current_range_meters":3200,"station_id":"","pricing_plan_id":"cebpf4jnsgd1na2vs0mg"},{"bike_id":"6efe5f0a-6c4f-403e-907f-5428484845d2","system_id":"levelo_inurba_marseille","lat":43.31699,"lon":5.40379,"is_reserved":false,"is_disabled":false,"rental_uris":{"android":"levelo://app?vid=6efe5f0a-6c4f-403e-907f-5428484845d2","ios":"levelo://app?vid=6efe5f0a-6c4f-403e-907f-5428484845d2"},"vehicle_type_id":"4","last_reported":1770922019,"current_range_meters":3200,"station_id":"","pricing_plan_id":"cebpf4jnsgd1na2vs0mg"},{"bike_id":"36c53d5a-5c92-4a93-a701-4acedf0bbb26","system_id":"levelo_inurba_marseille","lat":43.26222,"lon":5.37432,"is_reserved":false,"is_disabled":false,"rental_uris":{"android":"levelo://app?vid=36c53d5a-5c92-4a93-a701-4acedf0bbb26","ios":"levelo://app?vid=36c53d5a-5c92-4a93-a701-4acedf0bbb26"},"vehicle_type_id":"4","last_reported":1770922019,"current_range_meters":3200,"station_id":"","pricing_plan_id":"cebpf4jnsgd1na2vs0mg"},{"bike_id":"ff892a04-ae98-4fdf-81ac-3050c7d2c38a","system_id":"levelo_inurba_marseille","lat":43.265645,"lon":5.390152,"is_reserved":false,"is_disabled":false,"rental_uris":{"android":"levelo://app?vid=ff892a04-ae98-4fdf-81ac-3050c7d2c38a","ios":"levelo://app?vid=ff892a04-ae98-4fdf-81ac-3050c7d2c38a"},"vehicle_type_id":"4","last_reported":1770922019,"current_range_meters":3600,"station_id":"ce4bhe12rcd13ifvqf30","pricing_plan_id":"cebpf4jnsgd1na2vs0mg"},{"bike_id":"1a9753da-aa16-4f76-964b-f2172d3b0c8b","system_id":"levelo_inurba_marseille","lat":43.25583,"lon":5.38232,"is_reserved":false,"is_disabled":false,"rental_uris":{"android":"levelo://app?vid=1a9753da-aa16-4f76-964b-f2172d3b0c8b","ios":"levelo://app?vid=1a9753da-aa16-4f76-964b-f2172d3b0c8b"},"vehicle_type_id":"4","last_reported":1770922019,"current_range_meters":3600,"station_id":"ce4bhih2rcd13ifvqfs0","pricing_plan_id":"cebpf4jnsgd1na2vs0mg"},{"bike_id":"0d60f49b-2168-485f-9c8c-8bf326d0ba55","system_id":"levelo_inurba_marseille","lat":43.24512,"lon":5.42445,"is_reserved":false,"is_disabled":false,"rental_uris":{"android":"levelo://app?vid=0d60f49b-2168-485f-9c8c-8bf326d0ba55","ios":"levelo://app?vid=0d60f49b-2168-485f-9c8c-8bf326d0ba55"},"vehicle_type_id":"4","last_reported":1770922019,"current_range_meters":3600,"station_id":"","pricing_plan_id":"cebpf4jnsgd1na2vs0mg"},{"bike_id":"9b7de680-e656-45c2-b846-8bd381e9ca89","system_id":"levelo_inurba_marseille","lat":43.30448,"lon":5.4072,"is_reserved":false,"is_disabled":false,"rental_uris":{"android":"levelo://app?vid=9b7de680-e656-45c2-b846-8bd381e9ca89","ios":"levelo://app?vid=9b7de680-e656-45c2-b846-8bd381e9ca89"},"vehicle_type_id":"4","last_reported":1770922019,"current_range_meters":3600,"station_id":"","pricing_plan_id":"cebpf4jnsgd1na2vs0mg"},{"bike_id":"10b7ee14-0987-4002-bb2e-d45d5a99762f","system_id":"levelo_inurba_marseille","lat":43.22561,"lon":5.41636,"is_reserved":false,"is_disabled":false,"rental_uris":{"android":"levelo://app?vid=10b7ee14-0987-4002-bb2e-d45d5a99762f","ios":"levelo://app?vid=10b7ee14-0987-4002-bb2e-d45d5a99762f"},"vehicle_type_id":"4","last_reported":1770922019,"current_range_meters":3600,"station_id":"st_d2o4gvlbi1j2169b742g","pricing_plan_id":"cebpf4jnsgd1na2vs0mg"},{"bike_id":"d3ce6723-8250-404c-b3ed-98d94b86e0c2","system_id":"levelo_inurba_marseille","lat":43.28964,"lon":5.378223,"is_reserved":false,"is_disabled":false,"rental_uris":{"android":"levelo://app?vid=d3ce6723-8250-404c-b3ed-98d94b86e0c2","ios":"levelo://app?vid=d3ce6723-8250-404c-b3ed-98d94b86e0c2"},"vehicle_type_id":"4","last_reported":1770922019,"current_range_meters":3600,"station_id":"ce4bh9p2rcd13ifvqed0","pricing_plan_id":"cebpf4jnsgd1na2vs0mg"},{"bike_id":"9e3bc487-b0e5-43b2-98b8-caa6f87f206e","system_id":"levelo_inurba_marseille","lat":43.31722,"lon":5.37767,"is_reserved":false,"is_disabled":false,"rental_uris":{"android":"levelo://app?vid=9e3bc487-b0e5-43b2-98b8-caa6f87f206e","ios":"levelo://app?vid=9e3bc487-b0e5-43b2-98b8-caa6f87f206e"},"vehicle_type_id":"4","last_reported":1770922019,"current_range_meters":3600,"station_id":"ce4bgth2rcd13ifvqch0","pricing_plan_id":"cebpf4jnsgd1na2vs0mg"},{"bike_id":"ac9a885a-fe7d-4871-905c-95e91acf3aa8","system_id":"levelo_inurba_marseille","lat":43.22562,"lon":5.41624,"is_reserved":false,"is_disabled":false,"rental_uris":{"android":"levelo://app?vid=ac9a885a-fe7d-4871-905c-95e91acf3aa8","ios":"levelo://app?vid=ac9a885a-fe7d-4871-905c-95e91acf3aa8"},"vehicle_type_id":"4","last_reported":1770922019,"current_range_meters":3600,"station_id":"st_d2o4gvlbi1j2169b742g","pricing_plan_id":"cebpf4jnsgd1na2vs0mg"},{"bike_id":"ea43add3-a362-470a-a5cc-d8025d6650f6","system_id":"levelo_inurba_marseille","lat":43.25502,"lon":5.37659,"is_reserved":false,"is_disabled":false,"rental_uris":{"android":"levelo://app?vid=ea43add3-a362-470a-a5cc-d8025d6650f6","ios":"levelo://app?vid=ea43add3-a362-470a-a5cc-d8025d6650f6"},"vehicle_type_id":"4","last_reported":1770922019,"current_range_meters":3600,"station_id":"ce4bhh12rcd13ifvqff0","pricing_plan_id":"cebpf4jnsgd1na2vs0mg"},{"bike_id":"90760524-fee4-42dd-b70c-15742cc58027","system_id":"levelo_inurba_marseille","lat":43.27071,"lon":5.42279,"is_reserved":false,"is_disabled":false,"rental_uris":{"android":"levelo://app?vid=90760524-fee4-42dd-b70c-15742cc58027","ios":"levelo://app?vid=90760524-fee4-42dd-b70c-15742cc58027"},"vehicle_type_id":"4","last_reported":1770922019,"current_range_meters":3600,"station_id":"ce4bhk92rcd13ifvqgb0","pricing_plan_id":"cebpf4jnsgd1na2vs0mg"},{"bike_id":"a51afc75-3422-4e70-8e9d-b9cd0267847d","system_id":"levelo_inurba_marseille","lat":43.26699,"lon":5.38284,"is_reserved":false,"is_disabled":false,"rental_uris":{"android":"levelo://app?vid=a51afc75-3422-4e70-8e9d-b9cd0267847d","ios":"levelo://app?vid=a51afc75-3422-4e70-8e9d-b9cd0267847d"},"vehicle_type_id":"4","last_reported":1770922019,"current_range_meters":3600,"station_id":"ce4bhg92rcd13ifvqf90","pricing_plan_id":"cebpf4jnsgd1na2vs0mg"},{"bike_id":"babdcd4a-655b-4e95-88f5-77a8529739da","system_id":"levelo_inurba_marseille","lat":43.22556,"lon":5.4158,"is_reserved":false,"is_disabled":false,"rental_uris":{"android":"levelo://app?vid=babdcd4a-655b-4e95-88f5-77a8529739da","ios":"levelo://app?vid=babdcd4a-655b-4e95-88f5-77a8529739da"},"vehicle_type_id":"4","last_reported":1770922019,"current_range_meters":3600,"station_id":"st_d2o4gvlbi1j2169b742g","pricing_plan_id":"cebpf4jnsgd1na2vs0mg"},{"bike_id":"cc43a2a6-4df1-46ee-89a5-e5908a5338ed","system_id":"levelo_inurba_marseille","lat":43.28484,"lon":5.48382,"is_reserved":false,"is_disabled":false,"rental_uris":{"android":"levelo://app?vid=cc43a2a6-4df1-46ee-89a5-e5908a5338ed","ios":"levelo://app?vid=cc43a2a6-4df1-46ee-89a5-e5908a5338ed"},"vehicle_type_id":"4","last_reported":1770922019,"current_range_meters":3600,"station_id":"st_d3svhcjqgbts73a3dn0g","pricing_plan_id":"cebpf4jnsgd1na2vs0mg"},{"bike_id":"11e89557-b7ab-4c78-855c-3f9580806aaa","system_id":"levelo_inurba_marseille","lat":43.30838,"lon":5.383,"is_reserved":false,"is_disabled":false,"rental_uris":{"android":"levelo://app?vid=11e89557-b7ab-4c78-855c-3f9580806aaa","ios":"levelo://app?vid=11e89557-b7ab-4c78-855c-3f9580806aaa"},"vehicle_type_id":"4","last_reported":1770922019,"current_range_meters":4000,"station_id":"","pricing_plan_id":"cebpf4jnsgd1na2vs0mg"},{"bike_id":"47423f7a-747c-4b59-ba0a-ecee1764689f","system_id":"levelo_inurba_marseille","lat":43.24392,"lon":5.37058,"is_reserved":false,"is_disabled":false,"rental_uris":{"android":"levelo://app?vid=47423f7a-747c-4b59-ba0a-ecee1764689f","ios":"levelo://app?vid=47423f7a-747c-4b59-ba0a-ecee1764689f"},"vehicle_type_id":"4","last_reported":1770922019,"current_range_meters":4000,"station_id":"ce4bhhh2rcd13ifvqfk0","pricing_plan_id":"cebpf4jnsgd1na2vs0mg"},{"bike_id":"9aec714d-515d-4e78-9d45-9abe640e8105","system_id":"levelo_inurba_marseille","lat":43.255766,"lon":5.382314,"is_reserved":false,"is_disabled":false,"rental_uris":{"android":"levelo://app?vid=9aec714d-515d-4e78-9d45-9abe640e8105","ios":"levelo://app?vid=9aec714d-515d-4e78-9d45-9abe640e8105"},"vehicle_type_id":"4","last_reported":1770922019,"current_range_meters":4000,"station_id":"ce4bhih2rcd13ifvqfs0","pricing_plan_id":"cebpf4jnsgd1na2vs0mg"},{"bike_id":"3aef8620-296a-4e5a-aa54-267d8039b5b8","system_id":"levelo_inurba_marseille","lat":43.25003,"lon":5.38899,"is_reserved":false,"is_disabled":false,"rental_uris":{"android":"levelo://app?vid=3aef8620-296a-4e5a-aa54-267d8039b5b8","ios":"levelo://app?vid=3aef8620-296a-4e5a-aa54-267d8039b5b8"},"vehicle_type_id":"4","last_reported":1770922019,"current_range_meters":4000,"station_id":"ce4bhgp2rcd13ifvqfd0","pricing_plan_id":"cebpf4jnsgd1na2vs0mg"},{"bike_id":"b9341703-d125-4300-bbb5-3d52a708b479","system_id":"levelo_inurba_marseille","lat":43.31279,"lon":5.40183,"is_reserved":false,"is_disabled":false,"rental_uris":{"android":"levelo://app?vid=b9341703-d125-4300-bbb5-3d52a708b479","ios":"levelo://app?vid=b9341703-d125-4300-bbb5-3d52a708b479"},"vehicle_type_id":"4","last_reported":1770922019,"current_range_meters":4000,"station_id":"ce4bh092rcd13ifvqd30","pricing_plan_id":"cebpf4jnsgd1na2vs0mg"},{"bike_id":"3be5b61a-8fcc-40b7-834f-6703fc5756a2","system_id":"levelo_inurba_marseille","lat":43.30233,"lon":5.40042,"is_reserved":false,"is_disabled":false,"rental_uris":{"android":"levelo://app?vid=3be5b61a-8fcc-40b7-834f-6703fc5756a2","ios":"levelo://app?vid=3be5b61a-8fcc-40b7-834f-6703fc5756a2"},"vehicle_type_id":"4","last_reported":1770922019,"current_range_meters":4000,"station_id":"ce4bgvh2rcd13ifvqcs0","pricing_plan_id":"cebpf4jnsgd1na2vs0mg"},{"bike_id":"8b4263f7-2795-486a-b290-22850f34f9ba","system_id":"levelo_inurba_marseille","lat":43.25003,"lon":5.38928,"is_reserved":false,"is_disabled":false,"rental_uris":{"android":"levelo://app?vid=8b4263f7-2795-486a-b290-22850f34f9ba","ios":"levelo://app?vid=8b4263f7-2795-486a-b290-22850f34f9ba"},"vehicle_type_id":"4","last_reported":1770922019,"current_range_meters":4000,"station_id":"ce4bhgp2rcd13ifvqfd0","pricing_plan_id":"cebpf4jnsgd1na2vs0mg"},{"bike_id":"fdcca747-1f0c-4265-9d25-6a349973ec5d","system_id":"levelo_inurba_marseille","lat":43.33157,"lon":5.37688,"is_reserved":false,"is_disabled":false,"rental_uris":{"android":"levelo://app?vid=fdcca747-1f0c-4265-9d25-6a349973ec5d","ios":"levelo://app?vid=fdcca747-1f0c-4265-9d25-6a349973ec5d"},"vehicle_type_id":"4","last_reported":1770922019,"current_range_meters":4400,"station_id":"st_d46cu089ee8s73dldbu0","pricing_plan_id":"cebpf4jnsgd1na2vs0mg"},{"bike_id":"59be17c5-d535-4ab2-b237-b3d738055f61","system_id":"levelo_inurba_marseille","lat":43.29692,"lon":5.36593,"is_reserved":false,"is_disabled":false,"rental_uris":{"android":"levelo://app?vid=59be17c5-d535-4ab2-b237-b3d738055f61","ios":"levelo://app?vid=59be17c5-d535-4ab2-b237-b3d738055f61"},"vehicle_type_id":"4","last_reported":1770922019,"current_range_meters":4400,"station_id":"ce4bgn12rcd13ifvqbt0","pricing_plan_id":"cebpf4jnsgd1na2vs0mg"},{"bike_id":"b6617a61-12dd-4860-a8b7-39ae05487499","system_id":"levelo_inurba_marseille","lat":43.28105,"lon":5.3785,"is_reserved":false,"is_disabled":false,"rental_uris":{"android":"levelo://app?vid=b6617a61-12dd-4860-a8b7-39ae05487499","ios":"levelo://app?vid=b6617a61-12dd-4860-a8b7-39ae05487499"},"vehicle_type_id":"4","last_reported":1770922019,"current_range_meters":4400,"station_id":"ce4bha12rcd13ifvqee0","pricing_plan_id":"cebpf4jnsgd1na2vs0mg"},{"bike_id":"26662a3b-737b-4673-a457-489c9e47199d","system_id":"levelo_inurba_marseille","lat":43.3053,"lon":5.36707,"is_reserved":false,"is_disabled":false,"rental_uris":{"android":"levelo://app?vid=26662a3b-737b-4673-a457-489c9e47199d","ios":"levelo://app?vid=26662a3b-737b-4673-a457-489c9e47199d"},"vehicle_type_id":"4","last_reported":1770922019,"current_range_meters":4400,"station_id":"ce4bgrp2rcd13ifvqc9g","pricing_plan_id":"cebpf4jnsgd1na2vs0mg"},{"bike_id":"0247bb3d-b53d-4768-a912-bd8c5cf8ff0c","system_id":"levelo_inurba_marseille","lat":43.30801,"lon":5.38149,"is_reserved":false,"is_disabled":false,"rental_uris":{"android":"levelo://app?vid=0247bb3d-b53d-4768-a912-bd8c5cf8ff0c","ios":"levelo://app?vid=0247bb3d-b53d-4768-a912-bd8c5cf8ff0c"},"vehicle_type_id":"4","last_reported":1770922019,"current_range_meters":4400,"station_id":"ce4bgt12rcd13ifvqce0","pricing_plan_id":"cebpf4jnsgd1na2vs0mg"},{"bike_id":"d2420ed2-3e2f-4705-b5ad-e49c0399ffb6","system_id":"levelo_inurba_marseille","lat":43.26064,"lon":5.394,"is_reserved":false,"is_disabled":false,"rental_uris":{"android":"levelo://app?vid=d2420ed2-3e2f-4705-b5ad-e49c0399ffb6","ios":"levelo://app?vid=d2420ed2-3e2f-4705-b5ad-e49c0399ffb6"},"vehicle_type_id":"4","last_reported":1770922019,"current_range_meters":4400,"station_id":"ce4bhh92rcd13ifvqfj0","pricing_plan_id":"cebpf4jnsgd1na2vs0mg"},{"bike_id":"adeb6239-e1ab-406b-9641-0e6d1e0c235e","system_id":"levelo_inurba_marseille","lat":43.30376,"lon":5.42485,"is_reserved":false,"is_disabled":false,"rental_uris":{"android":"levelo://app?vid=adeb6239-e1ab-406b-9641-0e6d1e0c235e","ios":"levelo://app?vid=adeb6239-e1ab-406b-9641-0e6d1e0c235e"},"vehicle_type_id":"4","last_reported":1770922019,"current_range_meters":4400,"station_id":"ce4bhoh2rcd13ifvqh6g","pricing_plan_id":"cebpf4jnsgd1na2vs0mg"},{"bike_id":"d997c6b7-acb1-4efa-ae35-2d8c161e2e69","system_id":"levelo_inurba_marseille","lat":43.23191,"lon":5.35554,"is_reserved":false,"is_disabled":false,"rental_uris":{"android":"levelo://app?vid=d997c6b7-acb1-4efa-ae35-2d8c161e2e69","ios":"levelo://app?vid=d997c6b7-acb1-4efa-ae35-2d8c161e2e69"},"vehicle_type_id":"4","last_reported":1770922019,"current_range_meters":4800,"station_id":"ce4bhu92rcd13ifvqi70","pricing_plan_id":"cebpf4jnsgd1na2vs0mg"},{"bike_id":"d1c36b4c-fc6e-46d0-86f8-666a6e4bca8c","system_id":"levelo_inurba_marseille","lat":43.28406,"lon":5.37525,"is_reserved":false,"is_disabled":false,"rental_uris":{"android":"levelo://app?vid=d1c36b4c-fc6e-46d0-86f8-666a6e4bca8c","ios":"levelo://app?vid=d1c36b4c-fc6e-46d0-86f8-666a6e4bca8c"},"vehicle_type_id":"4","last_reported":1770922019,"current_range_meters":4800,"station_id":"ce4bh412rcd13ifvqds0","pricing_plan_id":"cebpf4jnsgd1na2vs0mg"},{"bike_id":"84d185fa-8b73-43b5-8a59-3a65eea1e345","system_id":"levelo_inurba_marseille","lat":43.3073,"lon":5.42451,"is_reserved":false,"is_disabled":false,"rental_uris":{"android":"levelo://app?vid=84d185fa-8b73-43b5-8a59-3a65eea1e345","ios":"levelo://app?vid=84d185fa-8b73-43b5-8a59-3a65eea1e345"},"vehicle_type_id":"4","last_reported":1770922019,"current_range_meters":4800,"station_id":"st_cvj6ca6bvosntc0bfgr0","pricing_plan_id":"cebpf4jnsgd1na2vs0mg"},{"bike_id":"5fda65b6-7f98-4bf6-b2de-a2c95ed917cc","system_id":"levelo_inurba_marseille","lat":43.25456,"lon":5.38437,"is_reserved":false,"is_disabled":false,"rental_uris":{"android":"levelo://app?vid=5fda65b6-7f98-4bf6-b2de-a2c95ed917cc","ios":"levelo://app?vid=5fda65b6-7f98-4bf6-b2de-a2c95ed917cc"},"vehicle_type_id":"4","last_reported":1770922019,"current_range_meters":4800,"station_id":"","pricing_plan_id":"cebpf4jnsgd1na2vs0mg"},{"bike_id":"af16d5aa-afd7-4600-aa04-43b35fdd8384","system_id":"levelo_inurba_marseille","lat":43.26806,"lon":5.40255,"is_reserved":false,"is_disabled":false,"rental_uris":{"android":"levelo://app?vid=af16d5aa-afd7-4600-aa04-43b35fdd8384","ios":"levelo://app?vid=af16d5aa-afd7-4600-aa04-43b35fdd8384"},"vehicle_type_id":"4","last_reported":1770922019,"current_range_meters":4800,"station_id":"ce501612rcd8frsf0b60","pricing_plan_id":"cebpf4jnsgd1na2vs0mg"},{"bike_id":"98b49528-9690-4fee-80e7-6be79f867e07","system_id":"levelo_inurba_marseille","lat":43.28102,"lon":5.37838,"is_reserved":false,"is_disabled":false,"rental_uris":{"android":"levelo://app?vid=98b49528-9690-4fee-80e7-6be79f867e07","ios":"levelo://app?vid=98b49528-9690-4fee-80e7-6be79f867e07"},"vehicle_type_id":"4","last_reported":1770922019,"current_range_meters":4800,"station_id":"ce4bha12rcd13ifvqee0","pricing_plan_id":"cebpf4jnsgd1na2vs0mg"},{"bike_id":"d3652178-7b95-4388-b85e-e8b4b72f9b40","system_id":"levelo_inurba_marseille","lat":43.31051,"lon":5.37192,"is_reserved":false,"is_disabled":false,"rental_uris":{"android":"levelo://app?vid=d3652178-7b95-4388-b85e-e8b4b72f9b40","ios":"levelo://app?vid=d3652178-7b95-4388-b85e-e8b4b72f9b40"},"vehicle_type_id":"4","last_reported":1770922019,"current_range_meters":4800,"station_id":"st_d4kl2rp97mjs73e7tdfg","pricing_plan_id":"cebpf4jnsgd1na2vs0mg"},{"bike_id":"371eb68e-4d11-45ee-86bc-baece8b857ad","system_id":"levelo_inurba_marseille","lat":43.293122,"lon":5.371737,"is_reserved":false,"is_disabled":false,"rental_uris":{"android":"levelo://app?vid=371eb68e-4d11-45ee-86bc-baece8b857ad","ios":"levelo://app?vid=371eb68e-4d11-45ee-86bc-baece8b857ad"},"vehicle_type_id":"4","last_reported":1770922019,"current_range_meters":4800,"station_id":"ce4bgh92rcd13ifvqb40","pricing_plan_id":"cebpf4jnsgd1na2vs0mg"},{"bike_id":"d6f44693-ddad-4866-8fae-6a82f6279e1c","system_id":"levelo_inurba_marseille","lat":43.29708,"lon":5.36611,"is_reserved":false,"is_disabled":false,"rental_uris":{"android":"levelo://app?vid=d6f44693-ddad-4866-8fae-6a82f6279e1c","ios":"levelo://app?vid=d6f44693-ddad-4866-8fae-6a82f6279e1c"},"vehicle_type_id":"4","last_reported":1770922019,"current_range_meters":4800,"station_id":"ce4bgn12rcd13ifvqbt0","pricing_plan_id":"cebpf4jnsgd1na2vs0mg"},{"bike_id":"27e858cb-4e45-4782-bd59-81425724a433","system_id":"levelo_inurba_marseille","lat":43.29281,"lon":5.36859,"is_reserved":false,"is_disabled":false,"rental_uris":{"android":"levelo://app?vid=27e858cb-4e45-4782-bd59-81425724a433","ios":"levelo://app?vid=27e858cb-4e45-4782-bd59-81425724a433"},"vehicle_type_id":"4","last_reported":1770922019,"current_range_meters":4800,"station_id":"ce4bhbp2rcd13ifvqesg","pricing_plan_id":"cebpf4jnsgd1na2vs0mg"},{"bike_id":"b0a1e80f-7afc-488d-9bcc-dc37674a952f","system_id":"levelo_inurba_marseille","lat":43.265587,"lon":5.390369,"is_reserved":false,"is_disabled":false,"rental_uris":{"android":"levelo://app?vid=b0a1e80f-7afc-488d-9bcc-dc37674a952f","ios":"levelo://app?vid=b0a1e80f-7afc-488d-9bcc-dc37674a952f"},"vehicle_type_id":"4","last_reported":1770922019,"current_range_meters":4800,"station_id":"ce4bhe12rcd13ifvqf30","pricing_plan_id":"cebpf4jnsgd1na2vs0mg"},{"bike_id":"eb153995-5d33-4b1d-a5c0-ee8cc4302ea8","system_id":"levelo_inurba_marseille","lat":43.26577,"lon":5.38977,"is_reserved":false,"is_disabled":false,"rental_uris":{"android":"levelo://app?vid=eb153995-5d33-4b1d-a5c0-ee8cc4302ea8","ios":"levelo://app?vid=eb153995-5d33-4b1d-a5c0-ee8cc4302ea8"},"vehicle_type_id":"4","last_reported":1770922019,"current_range_meters":5600,"station_id":"ce4bhe12rcd13ifvqf30","pricing_plan_id":"cebpf4jnsgd1na2vs0mg"},{"bike_id":"a95fc94e-2f99-4c26-9123-e06d717b8d43","system_id":"levelo_inurba_marseille","lat":43.29252,"lon":5.38444,"is_reserved":false,"is_disabled":false,"rental_uris":{"android":"levelo://app?vid=a95fc94e-2f99-4c26-9123-e06d717b8d43","ios":"levelo://app?vid=a95fc94e-2f99-4c26-9123-e06d717b8d43"},"vehicle_type_id":"4","last_reported":1770922019,"current_range_meters":5600,"station_id":"ce4bh692rcd13ifvqea0","pricing_plan_id":"cebpf4jnsgd1na2vs0mg"},{"bike_id":"6673ac44-296d-4959-9b90-4bd46007de83","system_id":"levelo_inurba_marseille","lat":43.24413,"lon":5.37094,"is_reserved":false,"is_disabled":false,"rental_uris":{"android":"levelo://app?vid=6673ac44-296d-4959-9b90-4bd46007de83","ios":"levelo://app?vid=6673ac44-296d-4959-9b90-4bd46007de83"},"vehicle_type_id":"4","last_reported":1770922019,"current_range_meters":5600,"station_id":"ce4bhhh2rcd13ifvqfk0","pricing_plan_id":"cebpf4jnsgd1na2vs0mg"},{"bike_id":"addfd7b9-6fc2-4e4f-a262-5360f2bada55","system_id":"levelo_inurba_marseille","lat":43.29298,"lon":5.36856,"is_reserved":false,"is_disabled":false,"rental_uris":{"android":"levelo://app?vid=addfd7b9-6fc2-4e4f-a262-5360f2bada55","ios":"levelo://app?vid=addfd7b9-6fc2-4e4f-a262-5360f2bada55"},"vehicle_type_id":"4","last_reported":1770922019,"current_range_meters":5600,"station_id":"ce4bhbp2rcd13ifvqesg","pricing_plan_id":"cebpf4jnsgd1na2vs0mg"},{"bike_id":"406b8143-680c-411e-8da6-8818c609b259","system_id":"levelo_inurba_marseille","lat":43.22924,"lon":5.35378,"is_reserved":false,"is_disabled":false,"rental_uris":{"android":"levelo://app?vid=406b8143-680c-411e-8da6-8818c609b259","ios":"levelo://app?vid=406b8143-680c-411e-8da6-8818c609b259"},"vehicle_type_id":"4","last_reported":1770922019,"current_range_meters":5600,"station_id":"cpo3532slgdg3j2ikp40","pricing_plan_id":"cebpf4jnsgd1na2vs0mg"},{"bike_id":"dddd8dae-2150-40e8-9b96-7bf9dacad978","system_id":"levelo_inurba_marseille","lat":43.299038,"lon":5.436712,"is_reserved":false,"is_disabled":false,"rental_uris":{"android":"levelo://app?vid=dddd8dae-2150-40e8-9b96-7bf9dacad978","ios":"levelo://app?vid=dddd8dae-2150-40e8-9b96-7bf9dacad978"},"vehicle_type_id":"4","last_reported":1770922019,"current_range_meters":5600,"station_id":"ce4bhpp2rcd13ifvqhfg","pricing_plan_id":"cebpf4jnsgd1na2vs0mg"},{"bike_id":"de6c6658-d6e7-41cf-b6e8-395ff567c428","system_id":"levelo_inurba_marseille","lat":43.26162,"lon":5.40464,"is_reserved":false,"is_disabled":false,"rental_uris":{"android":"levelo://app?vid=de6c6658-d6e7-41cf-b6e8-395ff567c428","ios":"levelo://app?vid=de6c6658-d6e7-41cf-b6e8-395ff567c428"},"vehicle_type_id":"4","last_reported":1770922019,"current_range_meters":5600,"station_id":"ce4bhmh2rcd13ifvqgmg","pricing_plan_id":"cebpf4jnsgd1na2vs0mg"},{"bike_id":"cc00be25-69aa-4872-96d7-03f0d16b80b3","system_id":"levelo_inurba_marseille","lat":43.31526,"lon":5.38031,"is_reserved":false,"is_disabled":false,"rental_uris":{"android":"levelo://app?vid=cc00be25-69aa-4872-96d7-03f0d16b80b3","ios":"levelo://app?vid=cc00be25-69aa-4872-96d7-03f0d16b80b3"},"vehicle_type_id":"4","last_reported":1770922019,"current_range_meters":5600,"station_id":"ce4bhsp2rcd13ifvqi50","pricing_plan_id":"cebpf4jnsgd1na2vs0mg"},{"bike_id":"3632bdf3-7cc0-44dc-8dcc-3c66e930be8d","system_id":"levelo_inurba_marseille","lat":43.270695,"lon":5.422862,"is_reserved":false,"is_disabled":false,"rental_uris":{"android":"levelo://app?vid=3632bdf3-7cc0-44dc-8dcc-3c66e930be8d","ios":"levelo://app?vid=3632bdf3-7cc0-44dc-8dcc-3c66e930be8d"},"vehicle_type_id":"4","last_reported":1770922019,"current_range_meters":5600,"station_id":"ce4bhk92rcd13ifvqgb0","pricing_plan_id":"cebpf4jnsgd1na2vs0mg"},{"bike_id":"65e9c232-153b-4e21-9142-db1dc9fdfabc","system_id":"levelo_inurba_marseille","lat":43.28083,"lon":5.39651,"is_reserved":false,"is_disabled":false,"rental_uris":{"android":"levelo://app?vid=65e9c232-153b-4e21-9142-db1dc9fdfabc","ios":"levelo://app?vid=65e9c232-153b-4e21-9142-db1dc9fdfabc"},"vehicle_type_id":"4","last_reported":1770922019,"current_range_meters":5600,"station_id":"ce4bho12rcd13ifvqh2g","pricing_plan_id":"cebpf4jnsgd1na2vs0mg"},{"bike_id":"78288666-4320-47d1-a1d4-5d9b6e0518e9","system_id":"levelo_inurba_marseille","lat":43.29582,"lon":5.36728,"is_reserved":false,"is_disabled":false,"rental_uris":{"android":"levelo://app?vid=78288666-4320-47d1-a1d4-5d9b6e0518e9","ios":"levelo://app?vid=78288666-4320-47d1-a1d4-5d9b6e0518e9"},"vehicle_type_id":"4","last_reported":1770922019,"current_range_meters":5600,"station_id":"ce4bgph2rcd13ifvqc2g","pricing_plan_id":"cebpf4jnsgd1na2vs0mg"},{"bike_id":"ba0b1db6-cf44-4815-9750-a6b5d14e5dd8","system_id":"levelo_inurba_marseille","lat":43.24544,"lon":5.39521,"is_reserved":false,"is_disabled":false,"rental_uris":{"android":"levelo://app?vid=ba0b1db6-cf44-4815-9750-a6b5d14e5dd8","ios":"levelo://app?vid=ba0b1db6-cf44-4815-9750-a6b5d14e5dd8"},"vehicle_type_id":"4","last_reported":1770922019,"current_range_meters":5600,"station_id":"ce4bhlp2rcd13ifvqgjg","pricing_plan_id":"cebpf4jnsgd1na2vs0mg"},{"bike_id":"cbb05c8d-a380-4a25-aa6c-24b1e16ff9ec","system_id":"levelo_inurba_marseille","lat":43.25508,"lon":5.37662,"is_reserved":false,"is_disabled":false,"rental_uris":{"android":"levelo://app?vid=cbb05c8d-a380-4a25-aa6c-24b1e16ff9ec","ios":"levelo://app?vid=cbb05c8d-a380-4a25-aa6c-24b1e16ff9ec"},"vehicle_type_id":"4","last_reported":1770922019,"current_range_meters":5600,"station_id":"ce4bhh12rcd13ifvqff0","pricing_plan_id":"cebpf4jnsgd1na2vs0mg"},{"bike_id":"4eea8287-5744-4826-aede-ff10343e7484","system_id":"levelo_inurba_marseille","lat":43.29959,"lon":5.36593,"is_reserved":false,"is_disabled":false,"rental_uris":{"android":"levelo://app?vid=4eea8287-5744-4826-aede-ff10343e7484","ios":"levelo://app?vid=4eea8287-5744-4826-aede-ff10343e7484"},"vehicle_type_id":"4","last_reported":1770922019,"current_range_meters":5600,"station_id":"ce4bgm92rcd13ifvqbr0","pricing_plan_id":"cebpf4jnsgd1na2vs0mg"},{"bike_id":"d05b9e21-bd3a-4cff-9b63-6c542fca462a","system_id":"levelo_inurba_marseille","lat":43.25866,"lon":5.39895,"is_reserved":false,"is_disabled":false,"rental_uris":{"android":"levelo://app?vid=d05b9e21-bd3a-4cff-9b63-6c542fca462a","ios":"levelo://app?vid=d05b9e21-bd3a-4cff-9b63-6c542fca462a"},"vehicle_type_id":"4","last_reported":1770922019,"current_range_meters":5600,"station_id":"ce4bhl92rcd13ifvqghg","pricing_plan_id":"cebpf4jnsgd1na2vs0mg"},{"bike_id":"da6d29e8-9360-4ed3-8562-2408c1cf78c6","system_id":"levelo_inurba_marseille","lat":43.27806,"lon":5.40715,"is_reserved":false,"is_disabled":false,"rental_uris":{"android":"levelo://app?vid=da6d29e8-9360-4ed3-8562-2408c1cf78c6","ios":"levelo://app?vid=da6d29e8-9360-4ed3-8562-2408c1cf78c6"},"vehicle_type_id":"4","last_reported":1770922019,"current_range_meters":6000,"station_id":"ce4bhnh2rcd13ifvqgtg","pricing_plan_id":"cebpf4jnsgd1na2vs0mg"},{"bike_id":"6d3818ab-969d-46f1-93b2-5caf9d3aa870","system_id":"levelo_inurba_marseille","lat":43.250011,"lon":5.389449,"is_reserved":false,"is_disabled":false,"rental_uris":{"android":"levelo://app?vid=6d3818ab-969d-46f1-93b2-5caf9d3aa870","ios":"levelo://app?vid=6d3818ab-969d-46f1-93b2-5caf9d3aa870"},"vehicle_type_id":"4","last_reported":1770922019,"current_range_meters":6000,"station_id":"ce4bhgp2rcd13ifvqfd0","pricing_plan_id":"cebpf4jnsgd1na2vs0mg"},{"bike_id":"9e5d2779-340f-4f40-a4cb-973cb2622326","system_id":"levelo_inurba_marseille","lat":43.30131,"lon":5.398657,"is_reserved":false,"is_disabled":false,"rental_uris":{"android":"levelo://app?vid=9e5d2779-340f-4f40-a4cb-973cb2622326","ios":"levelo://app?vid=9e5d2779-340f-4f40-a4cb-973cb2622326"},"vehicle_type_id":"4","last_reported":1770922019,"current_range_meters":6000,"station_id":"ce4bh0h2rcd13ifvqd40","pricing_plan_id":"cebpf4jnsgd1na2vs0mg"},{"bike_id":"9523bcc9-b639-4cad-bf19-ca9ff92ab5a5","system_id":"levelo_inurba_marseille","lat":43.28619,"lon":5.35112,"is_reserved":false,"is_disabled":false,"rental_uris":{"android":"levelo://app?vid=9523bcc9-b639-4cad-bf19-ca9ff92ab5a5","ios":"levelo://app?vid=9523bcc9-b639-4cad-bf19-ca9ff92ab5a5"},"vehicle_type_id":"4","last_reported":1770922019,"current_range_meters":6000,"station_id":"ce4bhch2rcd13ifvqeug","pricing_plan_id":"cebpf4jnsgd1na2vs0mg"},{"bike_id":"e01d4b3d-ba37-4709-b4aa-fa7447a140a2","system_id":"levelo_inurba_marseille","lat":43.29038,"lon":5.39972,"is_reserved":false,"is_disabled":false,"rental_uris":{"android":"levelo://app?vid=e01d4b3d-ba37-4709-b4aa-fa7447a140a2","ios":"levelo://app?vid=e01d4b3d-ba37-4709-b4aa-fa7447a140a2"},"vehicle_type_id":"4","last_reported":1770922019,"current_range_meters":6000,"station_id":"ce4bh392rcd13ifvqdm0","pricing_plan_id":"cebpf4jnsgd1na2vs0mg"},{"bike_id":"71c6dc62-9484-47dd-bf26-66d03c0346ab","system_id":"levelo_inurba_marseille","lat":43.27926,"lon":5.39582,"is_reserved":false,"is_disabled":false,"rental_uris":{"android":"levelo://app?vid=71c6dc62-9484-47dd-bf26-66d03c0346ab","ios":"levelo://app?vid=71c6dc62-9484-47dd-bf26-66d03c0346ab"},"vehicle_type_id":"4","last_reported":1770922019,"current_range_meters":6000,"station_id":"ce4bhf92rcd13ifvqf40","pricing_plan_id":"cebpf4jnsgd1na2vs0mg"},{"bike_id":"3acd2e3f-2647-4c97-be7c-a08f5bcb1e60","system_id":"levelo_inurba_marseille","lat":43.274976,"lon":5.415958,"is_reserved":false,"is_disabled":false,"rental_uris":{"android":"levelo://app?vid=3acd2e3f-2647-4c97-be7c-a08f5bcb1e60","ios":"levelo://app?vid=3acd2e3f-2647-4c97-be7c-a08f5bcb1e60"},"vehicle_type_id":"4","last_reported":1770922019,"current_range_meters":6000,"station_id":"","pricing_plan_id":"cebpf4jnsgd1na2vs0mg"},{"bike_id":"f861a826-a3e6-41bb-91a1-bbd56c81d04e","system_id":"levelo_inurba_marseille","lat":43.29582,"lon":5.37756,"is_reserved":false,"is_disabled":false,"rental_uris":{"android":"levelo://app?vid=f861a826-a3e6-41bb-91a1-bbd56c81d04e","ios":"levelo://app?vid=f861a826-a3e6-41bb-91a1-bbd56c81d04e"},"vehicle_type_id":"4","last_reported":1770922019,"current_range_meters":6000,"station_id":"ce4bgi92rcd13ifvqb90","pricing_plan_id":"cebpf4jnsgd1na2vs0mg"},{"bike_id":"b5b0e7c7-cc56-4991-b0a0-6f2dbb189257","system_id":"levelo_inurba_marseille","lat":43.29243,"lon":5.38446,"is_reserved":false,"is_disabled":false,"rental_uris":{"android":"levelo://app?vid=b5b0e7c7-cc56-4991-b0a0-6f2dbb189257","ios":"levelo://app?vid=b5b0e7c7-cc56-4991-b0a0-6f2dbb189257"},"vehicle_type_id":"4","last_reported":1770922019,"current_range_meters":6000,"station_id":"ce4bh692rcd13ifvqea0","pricing_plan_id":"cebpf4jnsgd1na2vs0mg"},{"bike_id":"c51a2340-4b72-41dc-89e3-946beccbf711","system_id":"levelo_inurba_marseille","lat":43.2737,"lon":5.36248,"is_reserved":false,"is_disabled":false,"rental_uris":{"android":"levelo://app?vid=c51a2340-4b72-41dc-89e3-946beccbf711","ios":"levelo://app?vid=c51a2340-4b72-41dc-89e3-946beccbf711"},"vehicle_type_id":"4","last_reported":1770922019,"current_range_meters":6000,"station_id":"ce4bhbh2rcd13ifvqeo0","pricing_plan_id":"cebpf4jnsgd1na2vs0mg"},{"bike_id":"1666b265-643d-41e7-bcc3-6167a6d49f91","system_id":"levelo_inurba_marseille","lat":43.22533,"lon":5.34847,"is_reserved":false,"is_disabled":false,"rental_uris":{"android":"levelo://app?vid=1666b265-643d-41e7-bcc3-6167a6d49f91","ios":"levelo://app?vid=1666b265-643d-41e7-bcc3-6167a6d49f91"},"vehicle_type_id":"4","last_reported":1770922019,"current_range_meters":6400,"station_id":"","pricing_plan_id":"cebpf4jnsgd1na2vs0mg"},{"bike_id":"5f6ae4c8-a7cd-4f3b-9adf-671bbd618c70","system_id":"levelo_inurba_marseille","lat":43.25576,"lon":5.38239,"is_reserved":false,"is_disabled":false,"rental_uris":{"android":"levelo://app?vid=5f6ae4c8-a7cd-4f3b-9adf-671bbd618c70","ios":"levelo://app?vid=5f6ae4c8-a7cd-4f3b-9adf-671bbd618c70"},"vehicle_type_id":"4","last_reported":1770922019,"current_range_meters":6400,"station_id":"ce4bhih2rcd13ifvqfs0","pricing_plan_id":"cebpf4jnsgd1na2vs0mg"},{"bike_id":"adedccca-d77d-4967-91ed-2661b5b510ba","system_id":"levelo_inurba_marseille","lat":43.22566,"lon":5.41694,"is_reserved":false,"is_disabled":false,"rental_uris":{"android":"levelo://app?vid=adedccca-d77d-4967-91ed-2661b5b510ba","ios":"levelo://app?vid=adedccca-d77d-4967-91ed-2661b5b510ba"},"vehicle_type_id":"4","last_reported":1770922019,"current_range_meters":6400,"station_id":"","pricing_plan_id":"cebpf4jnsgd1na2vs0mg"},{"bike_id":"8c0ab109-a2e0-4c76-a9ec-0ce3a7ff8081","system_id":"levelo_inurba_marseille","lat":43.26567,"lon":5.4032,"is_reserved":false,"is_disabled":false,"rental_uris":{"android":"levelo://app?vid=8c0ab109-a2e0-4c76-a9ec-0ce3a7ff8081","ios":"levelo://app?vid=8c0ab109-a2e0-4c76-a9ec-0ce3a7ff8081"},"vehicle_type_id":"4","last_reported":1770922019,"current_range_meters":6400,"station_id":"ce4bhmp2rcd13ifvqgng","pricing_plan_id":"cebpf4jnsgd1na2vs0mg"},{"bike_id":"0b98a9f2-b4e6-4d72-9367-260f75d9f75b","system_id":"levelo_inurba_marseille","lat":43.25094,"lon":5.39506,"is_reserved":false,"is_disabled":false,"rental_uris":{"android":"levelo://app?vid=0b98a9f2-b4e6-4d72-9367-260f75d9f75b","ios":"levelo://app?vid=0b98a9f2-b4e6-4d72-9367-260f75d9f75b"},"vehicle_type_id":"4","last_reported":1770922019,"current_range_meters":6400,"station_id":"ce4bhm12rcd13ifvqgkg","pricing_plan_id":"cebpf4jnsgd1na2vs0mg"},{"bike_id":"10abcb71-23de-4180-8560-5833e29cc1f1","system_id":"levelo_inurba_marseille","lat":43.27631,"lon":5.36116,"is_reserved":false,"is_disabled":false,"rental_uris":{"android":"levelo://app?vid=10abcb71-23de-4180-8560-5833e29cc1f1","ios":"levelo://app?vid=10abcb71-23de-4180-8560-5833e29cc1f1"},"vehicle_type_id":"4","last_reported":1770922019,"current_range_meters":6400,"station_id":"ce4bgj92rcd13ifvqbe0","pricing_plan_id":"cebpf4jnsgd1na2vs0mg"},{"bike_id":"241addb2-7484-42ce-893e-9b8916a4e2d0","system_id":"levelo_inurba_marseille","lat":43.2868,"lon":5.38688,"is_reserved":false,"is_disabled":false,"rental_uris":{"android":"levelo://app?vid=241addb2-7484-42ce-893e-9b8916a4e2d0","ios":"levelo://app?vid=241addb2-7484-42ce-893e-9b8916a4e2d0"},"vehicle_type_id":"4","last_reported":1770922019,"current_range_meters":6400,"station_id":"ce4bh492rcd13ifvqdug","pricing_plan_id":"cebpf4jnsgd1na2vs0mg"},{"bike_id":"f7696a38-545e-416f-8bb6-65d45bef47d3","system_id":"levelo_inurba_marseille","lat":43.29712,"lon":5.36613,"is_reserved":false,"is_disabled":false,"rental_uris":{"android":"levelo://app?vid=f7696a38-545e-416f-8bb6-65d45bef47d3","ios":"levelo://app?vid=f7696a38-545e-416f-8bb6-65d45bef47d3"},"vehicle_type_id":"4","last_reported":1770922019,"current_range_meters":6400,"station_id":"ce4bgn12rcd13ifvqbt0","pricing_plan_id":"cebpf4jnsgd1na2vs0mg"},{"bike_id":"eb9d66ff-a612-4121-8b67-1d84deda7e3a","system_id":"levelo_inurba_marseille","lat":43.3314,"lon":5.37681,"is_reserved":false,"is_disabled":false,"rental_uris":{"android":"levelo://app?vid=eb9d66ff-a612-4121-8b67-1d84deda7e3a","ios":"levelo://app?vid=eb9d66ff-a612-4121-8b67-1d84deda7e3a"},"vehicle_type_id":"4","last_reported":1770922019,"current_range_meters":6400,"station_id":"st_d46cu089ee8s73dldbu0","pricing_plan_id":"cebpf4jnsgd1na2vs0mg"},{"bike_id":"716cd726-ba5a-468c-9c8d-7b5a24297ad0","system_id":"levelo_inurba_marseille","lat":43.30907,"lon":5.3684,"is_reserved":false,"is_disabled":false,"rental_uris":{"android":"levelo://app?vid=716cd726-ba5a-468c-9c8d-7b5a24297ad0","ios":"levelo://app?vid=716cd726-ba5a-468c-9c8d-7b5a24297ad0"},"vehicle_type_id":"4","last_reported":1770922019,"current_range_meters":6400,"station_id":"ce4bgn92rcd13ifvqbvg","pricing_plan_id":"cebpf4jnsgd1na2vs0mg"},{"bike_id":"6f36e1ce-a732-4813-9d77-efe6e46c862d","system_id":"levelo_inurba_marseille","lat":43.28615,"lon":5.35105,"is_reserved":false,"is_disabled":false,"rental_uris":{"android":"levelo://app?vid=6f36e1ce-a732-4813-9d77-efe6e46c862d","ios":"levelo://app?vid=6f36e1ce-a732-4813-9d77-efe6e46c862d"},"vehicle_type_id":"4","last_reported":1770922019,"current_range_meters":6400,"station_id":"ce4bhch2rcd13ifvqeug","pricing_plan_id":"cebpf4jnsgd1na2vs0mg"},{"bike_id":"6a1cfcbe-e32a-439e-a968-714a4b55e721","system_id":"levelo_inurba_marseille","lat":43.281016,"lon":5.378381,"is_reserved":false,"is_disabled":true,"rental_uris":{"android":"levelo://app?vid=6a1cfcbe-e32a-439e-a968-714a4b55e721","ios":"levelo://app?vid=6a1cfcbe-e32a-439e-a968-714a4b55e721"},"vehicle_type_id":"4","last_reported":1770922019,"current_range_meters":6400,"station_id":"ce4bha12rcd13ifvqee0","pricing_plan_id":"cebpf4jnsgd1na2vs0mg"},{"bike_id":"6d94361a-e0ab-44b1-a35e-db2dc15ed265","system_id":"levelo_inurba_marseille","lat":43.22562,"lon":5.4163,"is_reserved":false,"is_disabled":false,"rental_uris":{"android":"levelo://app?vid=6d94361a-e0ab-44b1-a35e-db2dc15ed265","ios":"levelo://app?vid=6d94361a-e0ab-44b1-a35e-db2dc15ed265"},"vehicle_type_id":"4","last_reported":1770922019,"current_range_meters":6400,"station_id":"st_d2o4gvlbi1j2169b742g","pricing_plan_id":"cebpf4jnsgd1na2vs0mg"},{"bike_id":"6e2fc0d4-a25b-4469-96ca-042c68399b84","system_id":"levelo_inurba_marseille","lat":43.29058,"lon":5.37152,"is_reserved":false,"is_disabled":false,"rental_uris":{"android":"levelo://app?vid=6e2fc0d4-a25b-4469-96ca-042c68399b84","ios":"levelo://app?vid=6e2fc0d4-a25b-4469-96ca-042c68399b84"},"vehicle_type_id":"4","last_reported":1770922019,"current_range_meters":6800,"station_id":"ce4bh5p2rcd13ifvqe4g","pricing_plan_id":"cebpf4jnsgd1na2vs0mg"},{"bike_id":"dbd40afb-0d84-4f0f-b160-b60a14900963","system_id":"levelo_inurba_marseille","lat":43.26063,"lon":5.39392,"is_reserved":false,"is_disabled":false,"rental_uris":{"android":"levelo://app?vid=dbd40afb-0d84-4f0f-b160-b60a14900963","ios":"levelo://app?vid=dbd40afb-0d84-4f0f-b160-b60a14900963"},"vehicle_type_id":"4","last_reported":1770922019,"current_range_meters":6800,"station_id":"ce4bhh92rcd13ifvqfj0","pricing_plan_id":"cebpf4jnsgd1na2vs0mg"},{"bike_id":"c53cb2c8-53f8-4e98-94f4-1a88135c303c","system_id":"levelo_inurba_marseille","lat":43.30631,"lon":5.4009,"is_reserved":false,"is_disabled":false,"rental_uris":{"android":"levelo://app?vid=c53cb2c8-53f8-4e98-94f4-1a88135c303c","ios":"levelo://app?vid=c53cb2c8-53f8-4e98-94f4-1a88135c303c"},"vehicle_type_id":"4","last_reported":1770922019,"current_range_meters":6800,"station_id":"ce4bh112rcd13ifvqda0","pricing_plan_id":"cebpf4jnsgd1na2vs0mg"},{"bike_id":"1f00e2a9-a77b-45e4-a372-34bcf9412f5d","system_id":"levelo_inurba_marseille","lat":43.2927,"lon":5.3845,"is_reserved":false,"is_disabled":false,"rental_uris":{"android":"levelo://app?vid=1f00e2a9-a77b-45e4-a372-34bcf9412f5d","ios":"levelo://app?vid=1f00e2a9-a77b-45e4-a372-34bcf9412f5d"},"vehicle_type_id":"4","last_reported":1770922019,"current_range_meters":6800,"station_id":"ce4bh692rcd13ifvqea0","pricing_plan_id":"cebpf4jnsgd1na2vs0mg"},{"bike_id":"c4d52c50-a89f-445e-af8c-f5d7fd1b3a38","system_id":"levelo_inurba_marseille","lat":43.299317,"lon":5.365375,"is_reserved":false,"is_disabled":false,"rental_uris":{"android":"levelo://app?vid=c4d52c50-a89f-445e-af8c-f5d7fd1b3a38","ios":"levelo://app?vid=c4d52c50-a89f-445e-af8c-f5d7fd1b3a38"},"vehicle_type_id":"4","last_reported":1770922019,"current_range_meters":6800,"station_id":"ce4bgm92rcd13ifvqbr0","pricing_plan_id":"cebpf4jnsgd1na2vs0mg"},{"bike_id":"52c5007b-88c9-4d1c-9fe2-488c4cdcfbef","system_id":"levelo_inurba_marseille","lat":43.25868,"lon":5.39888,"is_reserved":false,"is_disabled":false,"rental_uris":{"android":"levelo://app?vid=52c5007b-88c9-4d1c-9fe2-488c4cdcfbef","ios":"levelo://app?vid=52c5007b-88c9-4d1c-9fe2-488c4cdcfbef"},"vehicle_type_id":"4","last_reported":1770922019,"current_range_meters":6800,"station_id":"ce4bhl92rcd13ifvqghg","pricing_plan_id":"cebpf4jnsgd1na2vs0mg"},{"bike_id":"c79ede62-b18f-43b2-ba8b-0a82a66c7da5","system_id":"levelo_inurba_marseille","lat":43.315313,"lon":5.380293,"is_reserved":false,"is_disabled":false,"rental_uris":{"android":"levelo://app?vid=c79ede62-b18f-43b2-ba8b-0a82a66c7da5","ios":"levelo://app?vid=c79ede62-b18f-43b2-ba8b-0a82a66c7da5"},"vehicle_type_id":"4","last_reported":1770922019,"current_range_meters":6800,"station_id":"ce4bhsp2rcd13ifvqi50","pricing_plan_id":"cebpf4jnsgd1na2vs0mg"},{"bike_id":"b909fa79-5381-4b98-bd67-3119cb88c03c","system_id":"levelo_inurba_marseille","lat":43.299191,"lon":5.363384,"is_reserved":false,"is_disabled":true,"rental_uris":{"android":"levelo://app?vid=b909fa79-5381-4b98-bd67-3119cb88c03c","ios":"levelo://app?vid=b909fa79-5381-4b98-bd67-3119cb88c03c"},"vehicle_type_id":"4","last_reported":1770922019,"current_range_meters":6800,"station_id":"","pricing_plan_id":"cebpf4jnsgd1na2vs0mg"},{"bike_id":"e44df137-3a9f-4865-a2d3-769a6f5bfc14","system_id":"levelo_inurba_marseille","lat":43.30908,"lon":5.36849,"is_reserved":false,"is_disabled":false,"rental_uris":{"android":"levelo://app?vid=e44df137-3a9f-4865-a2d3-769a6f5bfc14","ios":"levelo://app?vid=e44df137-3a9f-4865-a2d3-769a6f5bfc14"},"vehicle_type_id":"4","last_reported":1770922019,"current_range_meters":6800,"station_id":"ce4bgn92rcd13ifvqbvg","pricing_plan_id":"cebpf4jnsgd1na2vs0mg"},{"bike_id":"2d062516-f96d-4bc1-86f0-aa3654535a01","system_id":"levelo_inurba_marseille","lat":43.2975,"lon":5.42779,"is_reserved":false,"is_disabled":false,"rental_uris":{"android":"levelo://app?vid=2d062516-f96d-4bc1-86f0-aa3654535a01","ios":"levelo://app?vid=2d062516-f96d-4bc1-86f0-aa3654535a01"},"vehicle_type_id":"4","last_reported":1770922019,"current_range_meters":6800,"station_id":"st_d3md5207bmas73dh9klg","pricing_plan_id":"cebpf4jnsgd1na2vs0mg"},{"bike_id":"a9a6e7be-8873-4854-882b-10e24bc73d85","system_id":"levelo_inurba_marseille","lat":43.25111,"lon":5.40325,"is_reserved":false,"is_disabled":false,"rental_uris":{"android":"levelo://app?vid=a9a6e7be-8873-4854-882b-10e24bc73d85","ios":"levelo://app?vid=a9a6e7be-8873-4854-882b-10e24bc73d85"},"vehicle_type_id":"4","last_reported":1770922019,"current_range_meters":6800,"station_id":"ce4bhlh2rcd13ifvqgig","pricing_plan_id":"cebpf4jnsgd1na2vs0mg"},{"bike_id":"1dbb69cb-8222-4e8a-9ca2-6df7c935fc4f","system_id":"levelo_inurba_marseille","lat":43.24695,"lon":5.37365,"is_reserved":false,"is_disabled":false,"rental_uris":{"android":"levelo://app?vid=1dbb69cb-8222-4e8a-9ca2-6df7c935fc4f","ios":"levelo://app?vid=1dbb69cb-8222-4e8a-9ca2-6df7c935fc4f"},"vehicle_type_id":"4","last_reported":1770922019,"current_range_meters":6800,"station_id":"ce4bhgh2rcd13ifvqfb0","pricing_plan_id":"cebpf4jnsgd1na2vs0mg"},{"bike_id":"f59147d7-7388-4e9c-8f27-faf675f691ca","system_id":"levelo_inurba_marseille","lat":43.31334,"lon":5.39692,"is_reserved":false,"is_disabled":false,"rental_uris":{"android":"levelo://app?vid=f59147d7-7388-4e9c-8f27-faf675f691ca","ios":"levelo://app?vid=f59147d7-7388-4e9c-8f27-faf675f691ca"},"vehicle_type_id":"4","last_reported":1770922019,"current_range_meters":6800,"station_id":"ce4bgvp2rcd13ifvqcu0","pricing_plan_id":"cebpf4jnsgd1na2vs0mg"},{"bike_id":"0d2c69b6-1f86-4eb4-b451-e7aba576f89b","system_id":"levelo_inurba_marseille","lat":43.25587,"lon":5.38238,"is_reserved":false,"is_disabled":false,"rental_uris":{"android":"levelo://app?vid=0d2c69b6-1f86-4eb4-b451-e7aba576f89b","ios":"levelo://app?vid=0d2c69b6-1f86-4eb4-b451-e7aba576f89b"},"vehicle_type_id":"4","last_reported":1770922019,"current_range_meters":6800,"station_id":"ce4bhih2rcd13ifvqfs0","pricing_plan_id":"cebpf4jnsgd1na2vs0mg"},{"bike_id":"fecd2e02-5de0-4040-8549-a55d5fc6a139","system_id":"levelo_inurba_marseille","lat":43.27614,"lon":5.36118,"is_reserved":false,"is_disabled":false,"rental_uris":{"android":"levelo://app?vid=fecd2e02-5de0-4040-8549-a55d5fc6a139","ios":"levelo://app?vid=fecd2e02-5de0-4040-8549-a55d5fc6a139"},"vehicle_type_id":"4","last_reported":1770922019,"current_range_meters":6800,"station_id":"ce4bgj92rcd13ifvqbe0","pricing_plan_id":"cebpf4jnsgd1na2vs0mg"},{"bike_id":"989b5b08-d948-4be9-bc29-7318c8ff2142","system_id":"levelo_inurba_marseille","lat":43.24643,"lon":5.4316,"is_reserved":false,"is_disabled":false,"rental_uris":{"android":"levelo://app?vid=989b5b08-d948-4be9-bc29-7318c8ff2142","ios":"levelo://app?vid=989b5b08-d948-4be9-bc29-7318c8ff2142"},"vehicle_type_id":"4","last_reported":1770922019,"current_range_meters":6800,"station_id":"st_d2m6c4gdas8pm72e190g","pricing_plan_id":"cebpf4jnsgd1na2vs0mg"},{"bike_id":"864cec40-0ff3-4697-9da2-81d63157f80b","system_id":"levelo_inurba_marseille","lat":43.29758,"lon":5.42793,"is_reserved":false,"is_disabled":false,"rental_uris":{"android":"levelo://app?vid=864cec40-0ff3-4697-9da2-81d63157f80b","ios":"levelo://app?vid=864cec40-0ff3-4697-9da2-81d63157f80b"},"vehicle_type_id":"4","last_reported":1770922019,"current_range_meters":6800,"station_id":"st_d3md5207bmas73dh9klg","pricing_plan_id":"cebpf4jnsgd1na2vs0mg"},{"bike_id":"3ad331d6-b4d1-49c7-b940-96959fff84a3","system_id":"levelo_inurba_marseille","lat":43.28613,"lon":5.351033,"is_reserved":false,"is_disabled":false,"rental_uris":{"android":"levelo://app?vid=3ad331d6-b4d1-49c7-b940-96959fff84a3","ios":"levelo://app?vid=3ad331d6-b4d1-49c7-b940-96959fff84a3"},"vehicle_type_id":"4","last_reported":1770922019,"current_range_meters":7200,"station_id":"ce4bhch2rcd13ifvqeug","pricing_plan_id":"cebpf4jnsgd1na2vs0mg"},{"bike_id":"661c1ad9-8e78-490b-aa77-0dd317a910f6","system_id":"levelo_inurba_marseille","lat":43.27213,"lon":5.3921,"is_reserved":false,"is_disabled":true,"rental_uris":{"android":"levelo://app?vid=661c1ad9-8e78-490b-aa77-0dd317a910f6","ios":"levelo://app?vid=661c1ad9-8e78-490b-aa77-0dd317a910f6"},"vehicle_type_id":"4","last_reported":1770922019,"current_range_meters":7200,"station_id":"ce4bhhp2rcd13ifvqfm0","pricing_plan_id":"cebpf4jnsgd1na2vs0mg"},{"bike_id":"6b49fa0a-6226-4e6c-9f94-68ff4fd2f09e","system_id":"levelo_inurba_marseille","lat":43.29541,"lon":5.38535,"is_reserved":false,"is_disabled":false,"rental_uris":{"android":"levelo://app?vid=6b49fa0a-6226-4e6c-9f94-68ff4fd2f09e","ios":"levelo://app?vid=6b49fa0a-6226-4e6c-9f94-68ff4fd2f09e"},"vehicle_type_id":"4","last_reported":1770922019,"current_range_meters":7200,"station_id":"ce4bgih2rcd13ifvqba0","pricing_plan_id":"cebpf4jnsgd1na2vs0mg"},{"bike_id":"09ad556f-b6d8-43a2-9c08-0649a70ab239","system_id":"levelo_inurba_marseille","lat":43.29598,"lon":5.37727,"is_reserved":false,"is_disabled":false,"rental_uris":{"android":"levelo://app?vid=09ad556f-b6d8-43a2-9c08-0649a70ab239","ios":"levelo://app?vid=09ad556f-b6d8-43a2-9c08-0649a70ab239"},"vehicle_type_id":"4","last_reported":1770922019,"current_range_meters":7200,"station_id":"ce4bgi92rcd13ifvqb90","pricing_plan_id":"cebpf4jnsgd1na2vs0mg"},{"bike_id":"63616dc6-da91-4b0e-b74a-66f0aa885642","system_id":"levelo_inurba_marseille","lat":43.33022,"lon":5.39065,"is_reserved":false,"is_disabled":false,"rental_uris":{"android":"levelo://app?vid=63616dc6-da91-4b0e-b74a-66f0aa885642","ios":"levelo://app?vid=63616dc6-da91-4b0e-b74a-66f0aa885642"},"vehicle_type_id":"4","last_reported":1770922019,"current_range_meters":7200,"station_id":"ce4bhr92rcd13ifvqhrg","pricing_plan_id":"cebpf4jnsgd1na2vs0mg"},{"bike_id":"c035d78e-ce88-4f77-ba16-9faa9ce19f7f","system_id":"levelo_inurba_marseille","lat":43.31432,"lon":5.37348,"is_reserved":false,"is_disabled":false,"rental_uris":{"android":"levelo://app?vid=c035d78e-ce88-4f77-ba16-9faa9ce19f7f","ios":"levelo://app?vid=c035d78e-ce88-4f77-ba16-9faa9ce19f7f"},"vehicle_type_id":"4","last_reported":1770922019,"current_range_meters":7200,"station_id":"","pricing_plan_id":"cebpf4jnsgd1na2vs0mg"},{"bike_id":"6a7ba975-0a2d-40a5-b6d9-c3e8afe92f2c","system_id":"levelo_inurba_marseille","lat":43.31202,"lon":5.38723,"is_reserved":false,"is_disabled":true,"rental_uris":{"android":"levelo://app?vid=6a7ba975-0a2d-40a5-b6d9-c3e8afe92f2c","ios":"levelo://app?vid=6a7ba975-0a2d-40a5-b6d9-c3e8afe92f2c"},"vehicle_type_id":"4","last_reported":1770922019,"current_range_meters":7200,"station_id":"ce4bgv12rcd13ifvqcp0","pricing_plan_id":"cebpf4jnsgd1na2vs0mg"},{"bike_id":"ed424640-31ab-40c2-adb3-3589d16cd6bc","system_id":"levelo_inurba_marseille","lat":43.31069,"lon":5.38367,"is_reserved":false,"is_disabled":false,"rental_uris":{"android":"levelo://app?vid=ed424640-31ab-40c2-adb3-3589d16cd6bc","ios":"levelo://app?vid=ed424640-31ab-40c2-adb3-3589d16cd6bc"},"vehicle_type_id":"4","last_reported":1770922019,"current_range_meters":7200,"station_id":"ce4bgv92rcd13ifvqcr0","pricing_plan_id":"cebpf4jnsgd1na2vs0mg"},{"bike_id":"cb9be5fc-0f8f-4012-b222-62b158765b42","system_id":"levelo_inurba_marseille","lat":43.22944,"lon":5.35415,"is_reserved":false,"is_disabled":false,"rental_uris":{"android":"levelo://app?vid=cb9be5fc-0f8f-4012-b222-62b158765b42","ios":"levelo://app?vid=cb9be5fc-0f8f-4012-b222-62b158765b42"},"vehicle_type_id":"4","last_reported":1770922019,"current_range_meters":7200,"station_id":"cpo3532slgdg3j2ikp40","pricing_plan_id":"cebpf4jnsgd1na2vs0mg"},{"bike_id":"37a3e5fd-6429-42db-92d5-0caaf26cb646","system_id":"levelo_inurba_marseille","lat":43.25328,"lon":5.42167,"is_reserved":false,"is_disabled":false,"rental_uris":{"android":"levelo://app?vid=37a3e5fd-6429-42db-92d5-0caaf26cb646","ios":"levelo://app?vid=37a3e5fd-6429-42db-92d5-0caaf26cb646"},"vehicle_type_id":"4","last_reported":1770922019,"current_range_meters":7200,"station_id":"st_d2m65c5bi1j21697t3ng","pricing_plan_id":"cebpf4jnsgd1na2vs0mg"},{"bike_id":"64ef71f2-a3f7-4f2b-85c4-c993d6f3351d","system_id":"levelo_inurba_marseille","lat":43.23966,"lon":5.36636,"is_reserved":false,"is_disabled":false,"rental_uris":{"android":"levelo://app?vid=64ef71f2-a3f7-4f2b-85c4-c993d6f3351d","ios":"levelo://app?vid=64ef71f2-a3f7-4f2b-85c4-c993d6f3351d"},"vehicle_type_id":"4","last_reported":1770922019,"current_range_meters":7200,"station_id":"ce4bhi12rcd13ifvqfp0","pricing_plan_id":"cebpf4jnsgd1na2vs0mg"},{"bike_id":"28aca305-7f7d-4b12-a0ae-cfabbf96c8f2","system_id":"levelo_inurba_marseille","lat":43.24663,"lon":5.38163,"is_reserved":false,"is_disabled":false,"rental_uris":{"android":"levelo://app?vid=28aca305-7f7d-4b12-a0ae-cfabbf96c8f2","ios":"levelo://app?vid=28aca305-7f7d-4b12-a0ae-cfabbf96c8f2"},"vehicle_type_id":"4","last_reported":1770922019,"current_range_meters":8000,"station_id":"ce4bhih2rcd13ifvqfr0","pricing_plan_id":"cebpf4jnsgd1na2vs0mg"},{"bike_id":"f8471a2c-87e1-4cbd-bb5b-57438b2e01d6","system_id":"levelo_inurba_marseille","lat":43.29283,"lon":5.3685,"is_reserved":false,"is_disabled":false,"rental_uris":{"android":"levelo://app?vid=f8471a2c-87e1-4cbd-bb5b-57438b2e01d6","ios":"levelo://app?vid=f8471a2c-87e1-4cbd-bb5b-57438b2e01d6"},"vehicle_type_id":"4","last_reported":1770922019,"current_range_meters":8000,"station_id":"ce4bhbp2rcd13ifvqesg","pricing_plan_id":"cebpf4jnsgd1na2vs0mg"},{"bike_id":"52683c27-ad63-43c1-8a50-a75fb84808e6","system_id":"levelo_inurba_marseille","lat":43.25093,"lon":5.39486,"is_reserved":false,"is_disabled":false,"rental_uris":{"android":"levelo://app?vid=52683c27-ad63-43c1-8a50-a75fb84808e6","ios":"levelo://app?vid=52683c27-ad63-43c1-8a50-a75fb84808e6"},"vehicle_type_id":"4","last_reported":1770922019,"current_range_meters":8000,"station_id":"ce4bhm12rcd13ifvqgkg","pricing_plan_id":"cebpf4jnsgd1na2vs0mg"},{"bike_id":"797ad8ba-e02e-4c7c-ad47-bb6cef47e97c","system_id":"levelo_inurba_marseille","lat":43.29899,"lon":5.37479,"is_reserved":false,"is_disabled":false,"rental_uris":{"android":"levelo://app?vid=797ad8ba-e02e-4c7c-ad47-bb6cef47e97c","ios":"levelo://app?vid=797ad8ba-e02e-4c7c-ad47-bb6cef47e97c"},"vehicle_type_id":"4","last_reported":1770922019,"current_range_meters":8000,"station_id":"ce4bgjh2rcd13ifvqbg0","pricing_plan_id":"cebpf4jnsgd1na2vs0mg"},{"bike_id":"85ca329a-9c55-4be1-b2da-c3d917ed6363","system_id":"levelo_inurba_marseille","lat":43.24542,"lon":5.39529,"is_reserved":false,"is_disabled":false,"rental_uris":{"android":"levelo://app?vid=85ca329a-9c55-4be1-b2da-c3d917ed6363","ios":"levelo://app?vid=85ca329a-9c55-4be1-b2da-c3d917ed6363"},"vehicle_type_id":"4","last_reported":1770922019,"current_range_meters":8000,"station_id":"ce4bhlp2rcd13ifvqgjg","pricing_plan_id":"cebpf4jnsgd1na2vs0mg"},{"bike_id":"4e0f9367-7bac-4416-a504-19f0c84a5aa3","system_id":"levelo_inurba_marseille","lat":43.281585,"lon":5.426331,"is_reserved":false,"is_disabled":false,"rental_uris":{"android":"levelo://app?vid=4e0f9367-7bac-4416-a504-19f0c84a5aa3","ios":"levelo://app?vid=4e0f9367-7bac-4416-a504-19f0c84a5aa3"},"vehicle_type_id":"4","last_reported":1770922019,"current_range_meters":8000,"station_id":"ce4bhnh2rcd13ifvqgug","pricing_plan_id":"cebpf4jnsgd1na2vs0mg"},{"bike_id":"558b0286-85fc-49cb-b13d-aa40847d1ce9","system_id":"levelo_inurba_marseille","lat":43.25002,"lon":5.3893,"is_reserved":false,"is_disabled":false,"rental_uris":{"android":"levelo://app?vid=558b0286-85fc-49cb-b13d-aa40847d1ce9","ios":"levelo://app?vid=558b0286-85fc-49cb-b13d-aa40847d1ce9"},"vehicle_type_id":"4","last_reported":1770922019,"current_range_meters":8000,"station_id":"ce4bhgp2rcd13ifvqfd0","pricing_plan_id":"cebpf4jnsgd1na2vs0mg"},{"bike_id":"a880ec92-3328-40f4-b0f2-c721ff062b83","system_id":"levelo_inurba_marseille","lat":43.28932,"lon":5.38406,"is_reserved":false,"is_disabled":false,"rental_uris":{"android":"levelo://app?vid=a880ec92-3328-40f4-b0f2-c721ff062b83","ios":"levelo://app?vid=a880ec92-3328-40f4-b0f2-c721ff062b83"},"vehicle_type_id":"4","last_reported":1770922019,"current_range_meters":8000,"station_id":"ce4bh612rcd13ifvqe6g","pricing_plan_id":"cebpf4jnsgd1na2vs0mg"},{"bike_id":"9faee6f2-457c-410c-b197-c5102d1e22ad","system_id":"levelo_inurba_marseille","lat":43.23183,"lon":5.3998,"is_reserved":false,"is_disabled":false,"rental_uris":{"android":"levelo://app?vid=9faee6f2-457c-410c-b197-c5102d1e22ad","ios":"levelo://app?vid=9faee6f2-457c-410c-b197-c5102d1e22ad"},"vehicle_type_id":"4","last_reported":1770922019,"current_range_meters":8000,"station_id":"ce4bhn12rcd13ifvqgqg","pricing_plan_id":"cebpf4jnsgd1na2vs0mg"},{"bike_id":"6d146b90-da11-4bbb-b527-7da7e2561db2","system_id":"levelo_inurba_marseille","lat":43.284856,"lon":5.48385,"is_reserved":false,"is_disabled":false,"rental_uris":{"android":"levelo://app?vid=6d146b90-da11-4bbb-b527-7da7e2561db2","ios":"levelo://app?vid=6d146b90-da11-4bbb-b527-7da7e2561db2"},"vehicle_type_id":"4","last_reported":1770922019,"current_range_meters":8000,"station_id":"st_d3svhcjqgbts73a3dn0g","pricing_plan_id":"cebpf4jnsgd1na2vs0mg"},{"bike_id":"44b82be7-a2b9-42f1-8560-17e8ec787592","system_id":"levelo_inurba_marseille","lat":43.30913,"lon":5.36859,"is_reserved":false,"is_disabled":false,"rental_uris":{"android":"levelo://app?vid=44b82be7-a2b9-42f1-8560-17e8ec787592","ios":"levelo://app?vid=44b82be7-a2b9-42f1-8560-17e8ec787592"},"vehicle_type_id":"4","last_reported":1770922019,"current_range_meters":8000,"station_id":"ce4bgn92rcd13ifvqbvg","pricing_plan_id":"cebpf4jnsgd1na2vs0mg"},{"bike_id":"1bf3c557-9b1e-42be-bafe-0a6443919d9f","system_id":"levelo_inurba_marseille","lat":43.33363,"lon":5.410563,"is_reserved":false,"is_disabled":false,"rental_uris":{"android":"levelo://app?vid=1bf3c557-9b1e-42be-bafe-0a6443919d9f","ios":"levelo://app?vid=1bf3c557-9b1e-42be-bafe-0a6443919d9f"},"vehicle_type_id":"4","last_reported":1770922019,"current_range_meters":8000,"station_id":"","pricing_plan_id":"cebpf4jnsgd1na2vs0mg"},{"bike_id":"8f3a9ea3-3d5f-4beb-8e6c-40222b0c90d4","system_id":"levelo_inurba_marseille","lat":43.28401,"lon":5.35355,"is_reserved":false,"is_disabled":false,"rental_uris":{"android":"levelo://app?vid=8f3a9ea3-3d5f-4beb-8e6c-40222b0c90d4","ios":"levelo://app?vid=8f3a9ea3-3d5f-4beb-8e6c-40222b0c90d4"},"vehicle_type_id":"4","last_reported":1770922019,"current_range_meters":8000,"station_id":"","pricing_plan_id":"cebpf4jnsgd1na2vs0mg"},{"bike_id":"e61f8348-ac76-4cea-92f8-334c0273949b","system_id":"levelo_inurba_marseille","lat":43.24638,"lon":5.43148,"is_reserved":false,"is_disabled":false,"rental_uris":{"android":"levelo://app?vid=e61f8348-ac76-4cea-92f8-334c0273949b","ios":"levelo://app?vid=e61f8348-ac76-4cea-92f8-334c0273949b"},"vehicle_type_id":"4","last_reported":1770922019,"current_range_meters":8000,"station_id":"st_d2m6c4gdas8pm72e190g","pricing_plan_id":"cebpf4jnsgd1na2vs0mg"},{"bike_id":"966ec1f1-1c50-4e0c-ab9e-9d2bd5d89536","system_id":"levelo_inurba_marseille","lat":43.29784,"lon":5.38107,"is_reserved":false,"is_disabled":false,"rental_uris":{"android":"levelo://app?vid=966ec1f1-1c50-4e0c-ab9e-9d2bd5d89536","ios":"levelo://app?vid=966ec1f1-1c50-4e0c-ab9e-9d2bd5d89536"},"vehicle_type_id":"4","last_reported":1770922019,"current_range_meters":8000,"station_id":"ce4bgip2rcd13ifvqbb0","pricing_plan_id":"cebpf4jnsgd1na2vs0mg"},{"bike_id":"40452636-8d5c-4483-9aa3-a6ea0d66c3ee","system_id":"levelo_inurba_marseille","lat":43.31059,"lon":5.39332,"is_reserved":false,"is_disabled":false,"rental_uris":{"android":"levelo://app?vid=40452636-8d5c-4483-9aa3-a6ea0d66c3ee","ios":"levelo://app?vid=40452636-8d5c-4483-9aa3-a6ea0d66c3ee"},"vehicle_type_id":"4","last_reported":1770922019,"current_range_meters":8000,"station_id":"","pricing_plan_id":"cebpf4jnsgd1na2vs0mg"},{"bike_id":"0f8eeafb-c755-4b29-b666-b32f269fd063","system_id":"levelo_inurba_marseille","lat":43.31272,"lon":5.40169,"is_reserved":false,"is_disabled":false,"rental_uris":{"android":"levelo://app?vid=0f8eeafb-c755-4b29-b666-b32f269fd063","ios":"levelo://app?vid=0f8eeafb-c755-4b29-b666-b32f269fd063"},"vehicle_type_id":"4","last_reported":1770922019,"current_range_meters":8000,"station_id":"ce4bh092rcd13ifvqd30","pricing_plan_id":"cebpf4jnsgd1na2vs0mg"},{"bike_id":"31ec33af-4b5b-47df-a935-7478bd3c999f","system_id":"levelo_inurba_marseille","lat":43.25341,"lon":5.4215,"is_reserved":false,"is_disabled":false,"rental_uris":{"android":"levelo://app?vid=31ec33af-4b5b-47df-a935-7478bd3c999f","ios":"levelo://app?vid=31ec33af-4b5b-47df-a935-7478bd3c999f"},"vehicle_type_id":"4","last_reported":1770922019,"current_range_meters":8000,"station_id":"st_d2m65c5bi1j21697t3ng","pricing_plan_id":"cebpf4jnsgd1na2vs0mg"},{"bike_id":"df4304c7-5539-4390-a295-ae525974e7cd","system_id":"levelo_inurba_marseille","lat":43.29033,"lon":5.38648,"is_reserved":false,"is_disabled":false,"rental_uris":{"android":"levelo://app?vid=df4304c7-5539-4390-a295-ae525974e7cd","ios":"levelo://app?vid=df4304c7-5539-4390-a295-ae525974e7cd"},"vehicle_type_id":"4","last_reported":1770922019,"current_range_meters":8000,"station_id":"ce4bh4p2rcd13ifvqe0g","pricing_plan_id":"cebpf4jnsgd1na2vs0mg"},{"bike_id":"cd532d74-6425-401c-9636-844854674c98","system_id":"levelo_inurba_marseille","lat":43.30901,"lon":5.39647,"is_reserved":false,"is_disabled":false,"rental_uris":{"android":"levelo://app?vid=cd532d74-6425-401c-9636-844854674c98","ios":"levelo://app?vid=cd532d74-6425-401c-9636-844854674c98"},"vehicle_type_id":"4","last_reported":1770922019,"current_range_meters":8000,"station_id":"ce4bh012rcd13ifvqcv0","pricing_plan_id":"cebpf4jnsgd1na2vs0mg"},{"bike_id":"41536ba6-5dd4-4add-a646-491b9fa39068","system_id":"levelo_inurba_marseille","lat":43.244659,"lon":5.425389,"is_reserved":false,"is_disabled":false,"rental_uris":{"android":"levelo://app?vid=41536ba6-5dd4-4add-a646-491b9fa39068","ios":"levelo://app?vid=41536ba6-5dd4-4add-a646-491b9fa39068"},"vehicle_type_id":"4","last_reported":1770922019,"current_range_meters":8000,"station_id":"st_d4a3vfp97mjs738cd8kg","pricing_plan_id":"cebpf4jnsgd1na2vs0mg"},{"bike_id":"46795c32-d155-4823-a0f3-872b06d1e11d","system_id":"levelo_inurba_marseille","lat":43.21752,"lon":5.34609,"is_reserved":false,"is_disabled":false,"rental_uris":{"android":"levelo://app?vid=46795c32-d155-4823-a0f3-872b06d1e11d","ios":"levelo://app?vid=46795c32-d155-4823-a0f3-872b06d1e11d"},"vehicle_type_id":"4","last_reported":1770922019,"current_range_meters":8000,"station_id":"","pricing_plan_id":"cebpf4jnsgd1na2vs0mg"},{"bike_id":"9b42542e-7aaa-491e-b669-4ee27c056d04","system_id":"levelo_inurba_marseille","lat":43.27073,"lon":5.42285,"is_reserved":false,"is_disabled":false,"rental_uris":{"android":"levelo://app?vid=9b42542e-7aaa-491e-b669-4ee27c056d04","ios":"levelo://app?vid=9b42542e-7aaa-491e-b669-4ee27c056d04"},"vehicle_type_id":"4","last_reported":1770922019,"current_range_meters":8000,"station_id":"ce4bhk92rcd13ifvqgb0","pricing_plan_id":"cebpf4jnsgd1na2vs0mg"},{"bike_id":"6e1e72ed-49f6-41a7-99bc-bbe8c9e15eb7","system_id":"levelo_inurba_marseille","lat":43.29543,"lon":5.3854,"is_reserved":false,"is_disabled":false,"rental_uris":{"android":"levelo://app?vid=6e1e72ed-49f6-41a7-99bc-bbe8c9e15eb7","ios":"levelo://app?vid=6e1e72ed-49f6-41a7-99bc-bbe8c9e15eb7"},"vehicle_type_id":"4","last_reported":1770922019,"current_range_meters":8000,"station_id":"ce4bgih2rcd13ifvqba0","pricing_plan_id":"cebpf4jnsgd1na2vs0mg"},{"bike_id":"f9951b78-57fc-43d2-b572-f867edc0fc7f","system_id":"levelo_inurba_marseille","lat":43.29006,"lon":5.35618,"is_reserved":false,"is_disabled":false,"rental_uris":{"android":"levelo://app?vid=f9951b78-57fc-43d2-b572-f867edc0fc7f","ios":"levelo://app?vid=f9951b78-57fc-43d2-b572-f867edc0fc7f"},"vehicle_type_id":"4","last_reported":1770922019,"current_range_meters":8000,"station_id":"ce4bhb92rcd13ifvqen0","pricing_plan_id":"cebpf4jnsgd1na2vs0mg"},{"bike_id":"9567d5e2-5f9b-47ed-bcb4-745e705fe18c","system_id":"levelo_inurba_marseille","lat":43.24073,"lon":5.37747,"is_reserved":false,"is_disabled":false,"rental_uris":{"android":"levelo://app?vid=9567d5e2-5f9b-47ed-bcb4-745e705fe18c","ios":"levelo://app?vid=9567d5e2-5f9b-47ed-bcb4-745e705fe18c"},"vehicle_type_id":"4","last_reported":1770922019,"current_range_meters":8400,"station_id":"ce4bhnp2rcd13ifvqgvg","pricing_plan_id":"cebpf4jnsgd1na2vs0mg"},{"bike_id":"05a0bbb1-a54b-464d-bb78-257d3dc37ebf","system_id":"levelo_inurba_marseille","lat":43.28691,"lon":5.37379,"is_reserved":false,"is_disabled":false,"rental_uris":{"android":"levelo://app?vid=05a0bbb1-a54b-464d-bb78-257d3dc37ebf","ios":"levelo://app?vid=05a0bbb1-a54b-464d-bb78-257d3dc37ebf"},"vehicle_type_id":"4","last_reported":1770922019,"current_range_meters":8400,"station_id":"ce4bh3p2rcd13ifvqdq0","pricing_plan_id":"cebpf4jnsgd1na2vs0mg"},{"bike_id":"51ad0198-092e-4860-b994-3420575955f1","system_id":"levelo_inurba_marseille","lat":43.22527,"lon":5.34833,"is_reserved":false,"is_disabled":false,"rental_uris":{"android":"levelo://app?vid=51ad0198-092e-4860-b994-3420575955f1","ios":"levelo://app?vid=51ad0198-092e-4860-b994-3420575955f1"},"vehicle_type_id":"4","last_reported":1770922019,"current_range_meters":8400,"station_id":"st_cvj5dfep6f1abm77gieg","pricing_plan_id":"cebpf4jnsgd1na2vs0mg"},{"bike_id":"9e49c384-30c1-4f45-a8df-9663175b8696","system_id":"levelo_inurba_marseille","lat":43.24481,"lon":5.42536,"is_reserved":false,"is_disabled":false,"rental_uris":{"android":"levelo://app?vid=9e49c384-30c1-4f45-a8df-9663175b8696","ios":"levelo://app?vid=9e49c384-30c1-4f45-a8df-9663175b8696"},"vehicle_type_id":"4","last_reported":1770922019,"current_range_meters":8400,"station_id":"st_d4a3vfp97mjs738cd8kg","pricing_plan_id":"cebpf4jnsgd1na2vs0mg"},{"bike_id":"5ff157dc-e3aa-4305-ad39-dfa58cf64b9c","system_id":"levelo_inurba_marseille","lat":43.24089,"lon":5.3775,"is_reserved":false,"is_disabled":false,"rental_uris":{"android":"levelo://app?vid=5ff157dc-e3aa-4305-ad39-dfa58cf64b9c","ios":"levelo://app?vid=5ff157dc-e3aa-4305-ad39-dfa58cf64b9c"},"vehicle_type_id":"4","last_reported":1770922019,"current_range_meters":8400,"station_id":"ce4bhnp2rcd13ifvqgvg","pricing_plan_id":"cebpf4jnsgd1na2vs0mg"},{"bike_id":"93e581ef-8eac-427e-9aa5-285ced9f2d6d","system_id":"levelo_inurba_marseille","lat":43.27992,"lon":5.40012,"is_reserved":false,"is_disabled":false,"rental_uris":{"android":"levelo://app?vid=93e581ef-8eac-427e-9aa5-285ced9f2d6d","ios":"levelo://app?vid=93e581ef-8eac-427e-9aa5-285ced9f2d6d"},"vehicle_type_id":"4","last_reported":1770922019,"current_range_meters":8400,"station_id":"ce4bho92rcd13ifvqh4g","pricing_plan_id":"cebpf4jnsgd1na2vs0mg"},{"bike_id":"bb6faa0c-4182-45af-b174-e42f3eae8837","system_id":"levelo_inurba_marseille","lat":43.24642,"lon":5.3886,"is_reserved":false,"is_disabled":false,"rental_uris":{"android":"levelo://app?vid=bb6faa0c-4182-45af-b174-e42f3eae8837","ios":"levelo://app?vid=bb6faa0c-4182-45af-b174-e42f3eae8837"},"vehicle_type_id":"4","last_reported":1770922019,"current_range_meters":8400,"station_id":"ce4bhg12rcd13ifvqf60","pricing_plan_id":"cebpf4jnsgd1na2vs0mg"},{"bike_id":"a311edce-7eaa-44a5-b845-c7ac5f407308","system_id":"levelo_inurba_marseille","lat":43.281455,"lon":5.426382,"is_reserved":false,"is_disabled":false,"rental_uris":{"android":"levelo://app?vid=a311edce-7eaa-44a5-b845-c7ac5f407308","ios":"levelo://app?vid=a311edce-7eaa-44a5-b845-c7ac5f407308"},"vehicle_type_id":"4","last_reported":1770922019,"current_range_meters":8400,"station_id":"ce4bhnh2rcd13ifvqgug","pricing_plan_id":"cebpf4jnsgd1na2vs0mg"},{"bike_id":"d4663a47-28c0-4cd8-a0ba-a40e62267dae","system_id":"levelo_inurba_marseille","lat":43.30313,"lon":5.39198,"is_reserved":false,"is_disabled":false,"rental_uris":{"android":"levelo://app?vid=d4663a47-28c0-4cd8-a0ba-a40e62267dae","ios":"levelo://app?vid=d4663a47-28c0-4cd8-a0ba-a40e62267dae"},"vehicle_type_id":"4","last_reported":1770922019,"current_range_meters":8400,"station_id":"ce4bgkh2rcd13ifvqbk0","pricing_plan_id":"cebpf4jnsgd1na2vs0mg"},{"bike_id":"48ef2e5e-395e-487a-9e41-360aad012a1f","system_id":"levelo_inurba_marseille","lat":43.26206,"lon":5.37442,"is_reserved":false,"is_disabled":false,"rental_uris":{"android":"levelo://app?vid=48ef2e5e-395e-487a-9e41-360aad012a1f","ios":"levelo://app?vid=48ef2e5e-395e-487a-9e41-360aad012a1f"},"vehicle_type_id":"4","last_reported":1770922019,"current_range_meters":8400,"station_id":"ce4bhgp2rcd13ifvqfc0","pricing_plan_id":"cebpf4jnsgd1na2vs0mg"},{"bike_id":"180a3422-c933-4654-96e3-d252b8ae7988","system_id":"levelo_inurba_marseille","lat":43.27622,"lon":5.36117,"is_reserved":false,"is_disabled":false,"rental_uris":{"android":"levelo://app?vid=180a3422-c933-4654-96e3-d252b8ae7988","ios":"levelo://app?vid=180a3422-c933-4654-96e3-d252b8ae7988"},"vehicle_type_id":"4","last_reported":1770922019,"current_range_meters":8400,"station_id":"ce4bgj92rcd13ifvqbe0","pricing_plan_id":"cebpf4jnsgd1na2vs0mg"},{"bike_id":"b5cfe035-0ac5-4157-91b6-fb5d92305462","system_id":"levelo_inurba_marseille","lat":43.281522,"lon":5.426421,"is_reserved":false,"is_disabled":false,"rental_uris":{"android":"levelo://app?vid=b5cfe035-0ac5-4157-91b6-fb5d92305462","ios":"levelo://app?vid=b5cfe035-0ac5-4157-91b6-fb5d92305462"},"vehicle_type_id":"4","last_reported":1770922019,"current_range_meters":8400,"station_id":"ce4bhnh2rcd13ifvqgug","pricing_plan_id":"cebpf4jnsgd1na2vs0mg"},{"bike_id":"c0d21250-70f7-405b-91f7-061919265b15","system_id":"levelo_inurba_marseille","lat":43.337444,"lon":5.374475,"is_reserved":false,"is_disabled":false,"rental_uris":{"android":"levelo://app?vid=c0d21250-70f7-405b-91f7-061919265b15","ios":"levelo://app?vid=c0d21250-70f7-405b-91f7-061919265b15"},"vehicle_type_id":"4","last_reported":1770922019,"current_range_meters":8400,"station_id":"","pricing_plan_id":"cebpf4jnsgd1na2vs0mg"},{"bike_id":"1d2595e7-24ec-4837-ac2e-333261d8dae0","system_id":"levelo_inurba_marseille","lat":43.22549,"lon":5.41622,"is_reserved":false,"is_disabled":false,"rental_uris":{"android":"levelo://app?vid=1d2595e7-24ec-4837-ac2e-333261d8dae0","ios":"levelo://app?vid=1d2595e7-24ec-4837-ac2e-333261d8dae0"},"vehicle_type_id":"4","last_reported":1770922019,"current_range_meters":8400,"station_id":"st_d2o4gvlbi1j2169b742g","pricing_plan_id":"cebpf4jnsgd1na2vs0mg"},{"bike_id":"05797971-b1fa-4e10-9a08-cd7f223bbe55","system_id":"levelo_inurba_marseille","lat":43.21751,"lon":5.3461,"is_reserved":false,"is_disabled":false,"rental_uris":{"android":"levelo://app?vid=05797971-b1fa-4e10-9a08-cd7f223bbe55","ios":"levelo://app?vid=05797971-b1fa-4e10-9a08-cd7f223bbe55"},"vehicle_type_id":"4","last_reported":1770922019,"current_range_meters":8400,"station_id":"st_cvj6r9ubvosntc0bgbag","pricing_plan_id":"cebpf4jnsgd1na2vs0mg"},{"bike_id":"f5dfc69a-605e-4870-9f15-288a758bb79e","system_id":"levelo_inurba_marseille","lat":43.29748,"lon":5.42785,"is_reserved":false,"is_disabled":false,"rental_uris":{"android":"levelo://app?vid=f5dfc69a-605e-4870-9f15-288a758bb79e","ios":"levelo://app?vid=f5dfc69a-605e-4870-9f15-288a758bb79e"},"vehicle_type_id":"4","last_reported":1770922019,"current_range_meters":8400,"station_id":"st_d3md5207bmas73dh9klg","pricing_plan_id":"cebpf4jnsgd1na2vs0mg"},{"bike_id":"27931943-85db-4ed9-bf22-5714a3482b69","system_id":"levelo_inurba_marseille","lat":43.315414,"lon":5.380414,"is_reserved":false,"is_disabled":true,"rental_uris":{"android":"levelo://app?vid=27931943-85db-4ed9-bf22-5714a3482b69","ios":"levelo://app?vid=27931943-85db-4ed9-bf22-5714a3482b69"},"vehicle_type_id":"4","last_reported":1770922019,"current_range_meters":8400,"station_id":"ce4bhsp2rcd13ifvqi50","pricing_plan_id":"cebpf4jnsgd1na2vs0mg"},{"bike_id":"76ea5260-ff82-43e8-a377-4f3ddffee2c7","system_id":"levelo_inurba_marseille","lat":43.29797,"lon":5.42725,"is_reserved":false,"is_disabled":false,"rental_uris":{"android":"levelo://app?vid=76ea5260-ff82-43e8-a377-4f3ddffee2c7","ios":"levelo://app?vid=76ea5260-ff82-43e8-a377-4f3ddffee2c7"},"vehicle_type_id":"4","last_reported":1770922019,"current_range_meters":8400,"station_id":"st_d3md5207bmas73dh9klg","pricing_plan_id":"cebpf4jnsgd1na2vs0mg"},{"bike_id":"f45293d6-4615-4b71-8a82-5fb46a80b0f5","system_id":"levelo_inurba_marseille","lat":43.23375,"lon":5.41237,"is_reserved":false,"is_disabled":false,"rental_uris":{"android":"levelo://app?vid=f45293d6-4615-4b71-8a82-5fb46a80b0f5","ios":"levelo://app?vid=f45293d6-4615-4b71-8a82-5fb46a80b0f5"},"vehicle_type_id":"4","last_reported":1770922019,"current_range_meters":8400,"station_id":"","pricing_plan_id":"cebpf4jnsgd1na2vs0mg"},{"bike_id":"2cdaaecc-f3f1-45ea-a338-8e3592ee7872","system_id":"levelo_inurba_marseille","lat":43.319941,"lon":5.381658,"is_reserved":false,"is_disabled":false,"rental_uris":{"android":"levelo://app?vid=2cdaaecc-f3f1-45ea-a338-8e3592ee7872","ios":"levelo://app?vid=2cdaaecc-f3f1-45ea-a338-8e3592ee7872"},"vehicle_type_id":"4","last_reported":1770922019,"current_range_meters":8400,"station_id":"ce4bhbh2rcd13ifvqeqg","pricing_plan_id":"cebpf4jnsgd1na2vs0mg"},{"bike_id":"a0f00b77-3668-4cb1-9cb3-dbbe136dba2b","system_id":"levelo_inurba_marseille","lat":43.25576,"lon":5.38235,"is_reserved":false,"is_disabled":false,"rental_uris":{"android":"levelo://app?vid=a0f00b77-3668-4cb1-9cb3-dbbe136dba2b","ios":"levelo://app?vid=a0f00b77-3668-4cb1-9cb3-dbbe136dba2b"},"vehicle_type_id":"4","last_reported":1770922019,"current_range_meters":8400,"station_id":"ce4bhih2rcd13ifvqfs0","pricing_plan_id":"cebpf4jnsgd1na2vs0mg"},{"bike_id":"12cd40cb-2fcd-4c1b-95d1-58d07323fb4a","system_id":"levelo_inurba_marseille","lat":43.24462,"lon":5.42531,"is_reserved":false,"is_disabled":false,"rental_uris":{"android":"levelo://app?vid=12cd40cb-2fcd-4c1b-95d1-58d07323fb4a","ios":"levelo://app?vid=12cd40cb-2fcd-4c1b-95d1-58d07323fb4a"},"vehicle_type_id":"4","last_reported":1770922019,"current_range_meters":8400,"station_id":"st_d4a3vfp97mjs738cd8kg","pricing_plan_id":"cebpf4jnsgd1na2vs0mg"},{"bike_id":"eb716989-0baf-49cb-8a14-44956556f7e8","system_id":"levelo_inurba_marseille","lat":43.29278,"lon":5.38451,"is_reserved":false,"is_disabled":true,"rental_uris":{"android":"levelo://app?vid=eb716989-0baf-49cb-8a14-44956556f7e8","ios":"levelo://app?vid=eb716989-0baf-49cb-8a14-44956556f7e8"},"vehicle_type_id":"4","last_reported":1770922019,"current_range_meters":8400,"station_id":"ce4bh692rcd13ifvqea0","pricing_plan_id":"cebpf4jnsgd1na2vs0mg"},{"bike_id":"614519fb-e969-4534-bf8c-20046905c655","system_id":"levelo_inurba_marseille","lat":43.30211,"lon":5.39495,"is_reserved":false,"is_disabled":false,"rental_uris":{"android":"levelo://app?vid=614519fb-e969-4534-bf8c-20046905c655","ios":"levelo://app?vid=614519fb-e969-4534-bf8c-20046905c655"},"vehicle_type_id":"4","last_reported":1770922019,"current_range_meters":8400,"station_id":"ce4bh0p2rcd13ifvqd70","pricing_plan_id":"cebpf4jnsgd1na2vs0mg"},{"bike_id":"ab2b49aa-7574-41ea-aafd-20e44f598b0a","system_id":"levelo_inurba_marseille","lat":43.331649,"lon":5.376704,"is_reserved":false,"is_disabled":false,"rental_uris":{"android":"levelo://app?vid=ab2b49aa-7574-41ea-aafd-20e44f598b0a","ios":"levelo://app?vid=ab2b49aa-7574-41ea-aafd-20e44f598b0a"},"vehicle_type_id":"4","last_reported":1770922019,"current_range_meters":8400,"station_id":"st_d46cu089ee8s73dldbu0","pricing_plan_id":"cebpf4jnsgd1na2vs0mg"},{"bike_id":"32726a3c-9f83-4689-84aa-08e8377eed60","system_id":"levelo_inurba_marseille","lat":43.237906,"lon":5.366206,"is_reserved":false,"is_disabled":true,"rental_uris":{"android":"levelo://app?vid=32726a3c-9f83-4689-84aa-08e8377eed60","ios":"levelo://app?vid=32726a3c-9f83-4689-84aa-08e8377eed60"},"vehicle_type_id":"4","last_reported":1770922019,"current_range_meters":8400,"station_id":"st_d3nk18o9ro0c73en2l3g","pricing_plan_id":"cebpf4jnsgd1na2vs0mg"},{"bike_id":"eaa7d64d-f9d5-4503-8934-5e99b662ad58","system_id":"levelo_inurba_marseille","lat":43.29292,"lon":5.37475,"is_reserved":false,"is_disabled":false,"rental_uris":{"android":"levelo://app?vid=eaa7d64d-f9d5-4503-8934-5e99b662ad58","ios":"levelo://app?vid=eaa7d64d-f9d5-4503-8934-5e99b662ad58"},"vehicle_type_id":"4","last_reported":1770922019,"current_range_meters":8800,"station_id":"ce4bgi12rcd13ifvqb70","pricing_plan_id":"cebpf4jnsgd1na2vs0mg"},{"bike_id":"169cc7aa-fbcb-4513-9093-cd55c92c16eb","system_id":"levelo_inurba_marseille","lat":43.29997,"lon":5.38478,"is_reserved":false,"is_disabled":false,"rental_uris":{"android":"levelo://app?vid=169cc7aa-fbcb-4513-9093-cd55c92c16eb","ios":"levelo://app?vid=169cc7aa-fbcb-4513-9093-cd55c92c16eb"},"vehicle_type_id":"4","last_reported":1770922019,"current_range_meters":8800,"station_id":"ce4bgj92rcd13ifvqbd0","pricing_plan_id":"cebpf4jnsgd1na2vs0mg"},{"bike_id":"d4196b46-90a4-4e45-bfc7-5938e4b2d64a","system_id":"levelo_inurba_marseille","lat":43.295341,"lon":5.385613,"is_reserved":false,"is_disabled":false,"rental_uris":{"android":"levelo://app?vid=d4196b46-90a4-4e45-bfc7-5938e4b2d64a","ios":"levelo://app?vid=d4196b46-90a4-4e45-bfc7-5938e4b2d64a"},"vehicle_type_id":"4","last_reported":1770922019,"current_range_meters":8800,"station_id":"ce4bgih2rcd13ifvqba0","pricing_plan_id":"cebpf4jnsgd1na2vs0mg"},{"bike_id":"abce2bc2-435a-41b2-ad4b-ce66cbf18f5f","system_id":"levelo_inurba_marseille","lat":43.26208,"lon":5.37456,"is_reserved":false,"is_disabled":false,"rental_uris":{"android":"levelo://app?vid=abce2bc2-435a-41b2-ad4b-ce66cbf18f5f","ios":"levelo://app?vid=abce2bc2-435a-41b2-ad4b-ce66cbf18f5f"},"vehicle_type_id":"4","last_reported":1770922019,"current_range_meters":8800,"station_id":"ce4bhgp2rcd13ifvqfc0","pricing_plan_id":"cebpf4jnsgd1na2vs0mg"},{"bike_id":"045d07ca-3a14-4554-9f95-0aba57d1bccf","system_id":"levelo_inurba_marseille","lat":43.25579,"lon":5.38241,"is_reserved":false,"is_disabled":false,"rental_uris":{"android":"levelo://app?vid=045d07ca-3a14-4554-9f95-0aba57d1bccf","ios":"levelo://app?vid=045d07ca-3a14-4554-9f95-0aba57d1bccf"},"vehicle_type_id":"4","last_reported":1770922019,"current_range_meters":8800,"station_id":"ce4bhih2rcd13ifvqfs0","pricing_plan_id":"cebpf4jnsgd1na2vs0mg"},{"bike_id":"4fabe8f2-3686-4595-b208-5b1849f1d59a","system_id":"levelo_inurba_marseille","lat":43.2174,"lon":5.34621,"is_reserved":false,"is_disabled":false,"rental_uris":{"android":"levelo://app?vid=4fabe8f2-3686-4595-b208-5b1849f1d59a","ios":"levelo://app?vid=4fabe8f2-3686-4595-b208-5b1849f1d59a"},"vehicle_type_id":"4","last_reported":1770922019,"current_range_meters":8800,"station_id":"st_cvj6r9ubvosntc0bgbag","pricing_plan_id":"cebpf4jnsgd1na2vs0mg"},{"bike_id":"6f992222-ec7a-488c-a1d3-988179372f4d","system_id":"levelo_inurba_marseille","lat":43.21748,"lon":5.34625,"is_reserved":false,"is_disabled":false,"rental_uris":{"android":"levelo://app?vid=6f992222-ec7a-488c-a1d3-988179372f4d","ios":"levelo://app?vid=6f992222-ec7a-488c-a1d3-988179372f4d"},"vehicle_type_id":"4","last_reported":1770922019,"current_range_meters":8800,"station_id":"st_cvj6r9ubvosntc0bgbag","pricing_plan_id":"cebpf4jnsgd1na2vs0mg"},{"bike_id":"1666a0e7-ccfb-4a46-816c-bd1b996f577e","system_id":"levelo_inurba_marseille","lat":43.286492,"lon":5.38393,"is_reserved":false,"is_disabled":false,"rental_uris":{"android":"levelo://app?vid=1666a0e7-ccfb-4a46-816c-bd1b996f577e","ios":"levelo://app?vid=1666a0e7-ccfb-4a46-816c-bd1b996f577e"},"vehicle_type_id":"4","last_reported":1770922019,"current_range_meters":8800,"station_id":"","pricing_plan_id":"cebpf4jnsgd1na2vs0mg"},{"bike_id":"8bec958a-79fd-4b3a-8a08-8f1967949b3e","system_id":"levelo_inurba_marseille","lat":43.2952,"lon":5.39048,"is_reserved":false,"is_disabled":false,"rental_uris":{"android":"levelo://app?vid=8bec958a-79fd-4b3a-8a08-8f1967949b3e","ios":"levelo://app?vid=8bec958a-79fd-4b3a-8a08-8f1967949b3e"},"vehicle_type_id":"4","last_reported":1770922019,"current_range_meters":8800,"station_id":"ce4bh3p2rcd13ifvqdp0","pricing_plan_id":"cebpf4jnsgd1na2vs0mg"},{"bike_id":"a094603f-6b66-45dc-8cf7-e15513c5be6b","system_id":"levelo_inurba_marseille","lat":43.298384,"lon":5.362684,"is_reserved":false,"is_disabled":false,"rental_uris":{"android":"levelo://app?vid=a094603f-6b66-45dc-8cf7-e15513c5be6b","ios":"levelo://app?vid=a094603f-6b66-45dc-8cf7-e15513c5be6b"},"vehicle_type_id":"4","last_reported":1770922019,"current_range_meters":8800,"station_id":"ce4bgpp2rcd13ifvqc3g","pricing_plan_id":"cebpf4jnsgd1na2vs0mg"},{"bike_id":"bf1b8bf3-f9dd-412e-bf2f-94e430d98752","system_id":"levelo_inurba_marseille","lat":43.3013,"lon":5.38785,"is_reserved":false,"is_disabled":false,"rental_uris":{"android":"levelo://app?vid=bf1b8bf3-f9dd-412e-bf2f-94e430d98752","ios":"levelo://app?vid=bf1b8bf3-f9dd-412e-bf2f-94e430d98752"},"vehicle_type_id":"4","last_reported":1770922019,"current_range_meters":8800,"station_id":"ce4bghh2rcd13ifvqb60","pricing_plan_id":"cebpf4jnsgd1na2vs0mg"},{"bike_id":"c2f5d1a4-742e-46c9-9342-dba529c9dee7","system_id":"levelo_inurba_marseille","lat":43.31509,"lon":5.44541,"is_reserved":false,"is_disabled":false,"rental_uris":{"android":"levelo://app?vid=c2f5d1a4-742e-46c9-9342-dba529c9dee7","ios":"levelo://app?vid=c2f5d1a4-742e-46c9-9342-dba529c9dee7"},"vehicle_type_id":"4","last_reported":1770922019,"current_range_meters":8800,"station_id":"","pricing_plan_id":"cebpf4jnsgd1na2vs0mg"},{"bike_id":"9490a26f-1ee4-42a7-b4d6-589b3dd386d7","system_id":"levelo_inurba_marseille","lat":43.25093,"lon":5.40319,"is_reserved":false,"is_disabled":false,"rental_uris":{"android":"levelo://app?vid=9490a26f-1ee4-42a7-b4d6-589b3dd386d7","ios":"levelo://app?vid=9490a26f-1ee4-42a7-b4d6-589b3dd386d7"},"vehicle_type_id":"4","last_reported":1770922019,"current_range_meters":8800,"station_id":"ce4bhlh2rcd13ifvqgig","pricing_plan_id":"cebpf4jnsgd1na2vs0mg"},{"bike_id":"1860cee0-c708-4679-a32e-b7ac1e48fdce","system_id":"levelo_inurba_marseille","lat":43.2989,"lon":5.39752,"is_reserved":false,"is_disabled":false,"rental_uris":{"android":"levelo://app?vid=1860cee0-c708-4679-a32e-b7ac1e48fdce","ios":"levelo://app?vid=1860cee0-c708-4679-a32e-b7ac1e48fdce"},"vehicle_type_id":"4","last_reported":1770922019,"current_range_meters":8800,"station_id":"ce4bh0h2rcd13ifvqd50","pricing_plan_id":"cebpf4jnsgd1na2vs0mg"},{"bike_id":"49e867dd-1af1-4974-bc21-efb064a7210c","system_id":"levelo_inurba_marseille","lat":43.29531,"lon":5.38533,"is_reserved":false,"is_disabled":false,"rental_uris":{"android":"levelo://app?vid=49e867dd-1af1-4974-bc21-efb064a7210c","ios":"levelo://app?vid=49e867dd-1af1-4974-bc21-efb064a7210c"},"vehicle_type_id":"4","last_reported":1770922019,"current_range_meters":8800,"station_id":"ce4bgih2rcd13ifvqba0","pricing_plan_id":"cebpf4jnsgd1na2vs0mg"},{"bike_id":"3408e551-4ded-44f5-9858-4ee210b02c3f","system_id":"levelo_inurba_marseille","lat":43.28488,"lon":5.3843,"is_reserved":false,"is_disabled":false,"rental_uris":{"android":"levelo://app?vid=3408e551-4ded-44f5-9858-4ee210b02c3f","ios":"levelo://app?vid=3408e551-4ded-44f5-9858-4ee210b02c3f"},"vehicle_type_id":"4","last_reported":1770922019,"current_range_meters":8800,"station_id":"ce4bh512rcd13ifvqe3g","pricing_plan_id":"cebpf4jnsgd1na2vs0mg"},{"bike_id":"f86ff4b4-f3f3-420b-8cb3-3ebe634198e6","system_id":"levelo_inurba_marseille","lat":43.29032,"lon":5.39963,"is_reserved":false,"is_disabled":false,"rental_uris":{"android":"levelo://app?vid=f86ff4b4-f3f3-420b-8cb3-3ebe634198e6","ios":"levelo://app?vid=f86ff4b4-f3f3-420b-8cb3-3ebe634198e6"},"vehicle_type_id":"4","last_reported":1770922019,"current_range_meters":9200,"station_id":"ce4bh392rcd13ifvqdm0","pricing_plan_id":"cebpf4jnsgd1na2vs0mg"},{"bike_id":"014613de-69aa-4aca-9291-67750cce2e69","system_id":"levelo_inurba_marseille","lat":43.28472,"lon":5.48393,"is_reserved":false,"is_disabled":false,"rental_uris":{"android":"levelo://app?vid=014613de-69aa-4aca-9291-67750cce2e69","ios":"levelo://app?vid=014613de-69aa-4aca-9291-67750cce2e69"},"vehicle_type_id":"4","last_reported":1770922019,"current_range_meters":9200,"station_id":"","pricing_plan_id":"cebpf4jnsgd1na2vs0mg"},{"bike_id":"65aac124-f4af-40a9-969f-9b86b76af09b","system_id":"levelo_inurba_marseille","lat":43.29448,"lon":5.395761,"is_reserved":false,"is_disabled":false,"rental_uris":{"android":"levelo://app?vid=65aac124-f4af-40a9-969f-9b86b76af09b","ios":"levelo://app?vid=65aac124-f4af-40a9-969f-9b86b76af09b"},"vehicle_type_id":"4","last_reported":1770922019,"current_range_meters":9200,"station_id":"","pricing_plan_id":"cebpf4jnsgd1na2vs0mg"},{"bike_id":"806dba28-6b5b-471d-afa9-5e9335f17ebb","system_id":"levelo_inurba_marseille","lat":43.29249,"lon":5.40923,"is_reserved":false,"is_disabled":true,"rental_uris":{"android":"levelo://app?vid=806dba28-6b5b-471d-afa9-5e9335f17ebb","ios":"levelo://app?vid=806dba28-6b5b-471d-afa9-5e9335f17ebb"},"vehicle_type_id":"4","last_reported":1770922019,"current_range_meters":9200,"station_id":"ce4bh192rcd13ifvqdc0","pricing_plan_id":"cebpf4jnsgd1na2vs0mg"},{"bike_id":"b39ba1aa-7b31-4368-898e-d2ae177a7edd","system_id":"levelo_inurba_marseille","lat":43.26592,"lon":5.37281,"is_reserved":false,"is_disabled":false,"rental_uris":{"android":"levelo://app?vid=b39ba1aa-7b31-4368-898e-d2ae177a7edd","ios":"levelo://app?vid=b39ba1aa-7b31-4368-898e-d2ae177a7edd"},"vehicle_type_id":"4","last_reported":1770922019,"current_range_meters":9200,"station_id":"ce4bhg12rcd13ifvqf70","pricing_plan_id":"cebpf4jnsgd1na2vs0mg"},{"bike_id":"410684d1-9bfb-4d62-af7a-b3a54dec4491","system_id":"levelo_inurba_marseille","lat":43.290273,"lon":5.38624,"is_reserved":false,"is_disabled":false,"rental_uris":{"android":"levelo://app?vid=410684d1-9bfb-4d62-af7a-b3a54dec4491","ios":"levelo://app?vid=410684d1-9bfb-4d62-af7a-b3a54dec4491"},"vehicle_type_id":"4","last_reported":1770922019,"current_range_meters":9200,"station_id":"ce4bh4p2rcd13ifvqe0g","pricing_plan_id":"cebpf4jnsgd1na2vs0mg"},{"bike_id":"1fda2318-5942-4788-9736-e5a9eab5d456","system_id":"levelo_inurba_marseille","lat":43.261945,"lon":5.374515,"is_reserved":false,"is_disabled":false,"rental_uris":{"android":"levelo://app?vid=1fda2318-5942-4788-9736-e5a9eab5d456","ios":"levelo://app?vid=1fda2318-5942-4788-9736-e5a9eab5d456"},"vehicle_type_id":"4","last_reported":1770922019,"current_range_meters":9200,"station_id":"ce4bhgp2rcd13ifvqfc0","pricing_plan_id":"cebpf4jnsgd1na2vs0mg"},{"bike_id":"0270cee7-d38d-40e7-8096-229f09bfe278","system_id":"levelo_inurba_marseille","lat":43.24996,"lon":5.38925,"is_reserved":false,"is_disabled":false,"rental_uris":{"android":"levelo://app?vid=0270cee7-d38d-40e7-8096-229f09bfe278","ios":"levelo://app?vid=0270cee7-d38d-40e7-8096-229f09bfe278"},"vehicle_type_id":"4","last_reported":1770922019,"current_range_meters":9200,"station_id":"ce4bhgp2rcd13ifvqfd0","pricing_plan_id":"cebpf4jnsgd1na2vs0mg"},{"bike_id":"5e6b363c-3285-4065-aa55-8f6ad4524674","system_id":"levelo_inurba_marseille","lat":43.21209,"lon":5.35071,"is_reserved":false,"is_disabled":false,"rental_uris":{"android":"levelo://app?vid=5e6b363c-3285-4065-aa55-8f6ad4524674","ios":"levelo://app?vid=5e6b363c-3285-4065-aa55-8f6ad4524674"},"vehicle_type_id":"4","last_reported":1770922019,"current_range_meters":9200,"station_id":"st_cvj6sg6p6f1abm77japg","pricing_plan_id":"cebpf4jnsgd1na2vs0mg"},{"bike_id":"7578ca6a-41b9-4d16-80d9-987a7c1630a9","system_id":"levelo_inurba_marseille","lat":43.24644,"lon":5.38896,"is_reserved":false,"is_disabled":false,"rental_uris":{"android":"levelo://app?vid=7578ca6a-41b9-4d16-80d9-987a7c1630a9","ios":"levelo://app?vid=7578ca6a-41b9-4d16-80d9-987a7c1630a9"},"vehicle_type_id":"4","last_reported":1770922019,"current_range_meters":9200,"station_id":"ce4bhg12rcd13ifvqf60","pricing_plan_id":"cebpf4jnsgd1na2vs0mg"},{"bike_id":"b0a9a7e2-a7fb-49d4-aea9-3e28881d7edc","system_id":"levelo_inurba_marseille","lat":43.24081,"lon":5.37775,"is_reserved":false,"is_disabled":false,"rental_uris":{"android":"levelo://app?vid=b0a9a7e2-a7fb-49d4-aea9-3e28881d7edc","ios":"levelo://app?vid=b0a9a7e2-a7fb-49d4-aea9-3e28881d7edc"},"vehicle_type_id":"4","last_reported":1770922019,"current_range_meters":9200,"station_id":"ce4bhnp2rcd13ifvqgvg","pricing_plan_id":"cebpf4jnsgd1na2vs0mg"},{"bike_id":"3c5c6609-8465-4d83-a88e-0be8a67010c7","system_id":"levelo_inurba_marseille","lat":43.2901,"lon":5.35596,"is_reserved":false,"is_disabled":false,"rental_uris":{"android":"levelo://app?vid=3c5c6609-8465-4d83-a88e-0be8a67010c7","ios":"levelo://app?vid=3c5c6609-8465-4d83-a88e-0be8a67010c7"},"vehicle_type_id":"4","last_reported":1770922019,"current_range_meters":9200,"station_id":"ce4bhb92rcd13ifvqen0","pricing_plan_id":"cebpf4jnsgd1na2vs0mg"},{"bike_id":"300bd048-5059-4d92-acd1-4068b19629fb","system_id":"levelo_inurba_marseille","lat":43.26874,"lon":5.40677,"is_reserved":false,"is_disabled":false,"rental_uris":{"android":"levelo://app?vid=300bd048-5059-4d92-acd1-4068b19629fb","ios":"levelo://app?vid=300bd048-5059-4d92-acd1-4068b19629fb"},"vehicle_type_id":"4","last_reported":1770922019,"current_range_meters":9200,"station_id":"","pricing_plan_id":"cebpf4jnsgd1na2vs0mg"},{"bike_id":"45237fac-2b63-4cb5-9822-d1c3cd2a94c4","system_id":"levelo_inurba_marseille","lat":43.31427,"lon":5.402942,"is_reserved":false,"is_disabled":false,"rental_uris":{"android":"levelo://app?vid=45237fac-2b63-4cb5-9822-d1c3cd2a94c4","ios":"levelo://app?vid=45237fac-2b63-4cb5-9822-d1c3cd2a94c4"},"vehicle_type_id":"4","last_reported":1770922019,"current_range_meters":9200,"station_id":"","pricing_plan_id":"cebpf4jnsgd1na2vs0mg"},{"bike_id":"876d2899-838c-494a-812c-5448c6324615","system_id":"levelo_inurba_marseille","lat":43.24817,"lon":5.37452,"is_reserved":false,"is_disabled":false,"rental_uris":{"android":"levelo://app?vid=876d2899-838c-494a-812c-5448c6324615","ios":"levelo://app?vid=876d2899-838c-494a-812c-5448c6324615"},"vehicle_type_id":"4","last_reported":1770922019,"current_range_meters":9200,"station_id":"ce4bhgh2rcd13ifvqfb0","pricing_plan_id":"cebpf4jnsgd1na2vs0mg"},{"bike_id":"e3911b0a-0119-47ef-9eea-1b0c46e5dc4e","system_id":"levelo_inurba_marseille","lat":43.29046,"lon":5.37577,"is_reserved":false,"is_disabled":false,"rental_uris":{"android":"levelo://app?vid=e3911b0a-0119-47ef-9eea-1b0c46e5dc4e","ios":"levelo://app?vid=e3911b0a-0119-47ef-9eea-1b0c46e5dc4e"},"vehicle_type_id":"4","last_reported":1770922019,"current_range_meters":9200,"station_id":"ce4bh692rcd13ifvqe90","pricing_plan_id":"cebpf4jnsgd1na2vs0mg"},{"bike_id":"89dc407d-ca98-4662-aa6a-0e3472bfc645","system_id":"levelo_inurba_marseille","lat":43.29926,"lon":5.38572,"is_reserved":false,"is_disabled":false,"rental_uris":{"android":"levelo://app?vid=89dc407d-ca98-4662-aa6a-0e3472bfc645","ios":"levelo://app?vid=89dc407d-ca98-4662-aa6a-0e3472bfc645"},"vehicle_type_id":"4","last_reported":1770922019,"current_range_meters":9200,"station_id":"","pricing_plan_id":"cebpf4jnsgd1na2vs0mg"},{"bike_id":"730d229b-b2a4-4abf-9f66-ea5b8df9b61b","system_id":"levelo_inurba_marseille","lat":43.290017,"lon":5.356047,"is_reserved":false,"is_disabled":false,"rental_uris":{"android":"levelo://app?vid=730d229b-b2a4-4abf-9f66-ea5b8df9b61b","ios":"levelo://app?vid=730d229b-b2a4-4abf-9f66-ea5b8df9b61b"},"vehicle_type_id":"4","last_reported":1770922019,"current_range_meters":9200,"station_id":"ce4bhb92rcd13ifvqen0","pricing_plan_id":"cebpf4jnsgd1na2vs0mg"},{"bike_id":"67a0890d-434c-4883-b3e1-d1ab5c7b984b","system_id":"levelo_inurba_marseille","lat":43.2892,"lon":5.38392,"is_reserved":false,"is_disabled":false,"rental_uris":{"android":"levelo://app?vid=67a0890d-434c-4883-b3e1-d1ab5c7b984b","ios":"levelo://app?vid=67a0890d-434c-4883-b3e1-d1ab5c7b984b"},"vehicle_type_id":"4","last_reported":1770922019,"current_range_meters":9200,"station_id":"ce4bh612rcd13ifvqe6g","pricing_plan_id":"cebpf4jnsgd1na2vs0mg"},{"bike_id":"b2cbcb77-d124-40b9-94e0-3f6323d9ab6c","system_id":"levelo_inurba_marseille","lat":43.31285,"lon":5.40175,"is_reserved":false,"is_disabled":false,"rental_uris":{"android":"levelo://app?vid=b2cbcb77-d124-40b9-94e0-3f6323d9ab6c","ios":"levelo://app?vid=b2cbcb77-d124-40b9-94e0-3f6323d9ab6c"},"vehicle_type_id":"4","last_reported":1770922019,"current_range_meters":9600,"station_id":"ce4bh092rcd13ifvqd30","pricing_plan_id":"cebpf4jnsgd1na2vs0mg"},{"bike_id":"cae3340b-dabf-42ee-b29f-fab64d3e6b2c","system_id":"levelo_inurba_marseille","lat":43.240832,"lon":5.37747,"is_reserved":false,"is_disabled":false,"rental_uris":{"android":"levelo://app?vid=cae3340b-dabf-42ee-b29f-fab64d3e6b2c","ios":"levelo://app?vid=cae3340b-dabf-42ee-b29f-fab64d3e6b2c"},"vehicle_type_id":"4","last_reported":1770922019,"current_range_meters":9600,"station_id":"ce4bhnp2rcd13ifvqgvg","pricing_plan_id":"cebpf4jnsgd1na2vs0mg"},{"bike_id":"ceafdd97-9709-4666-acdc-c6b8a34aace5","system_id":"levelo_inurba_marseille","lat":43.27186,"lon":5.40997,"is_reserved":false,"is_disabled":true,"rental_uris":{"android":"levelo://app?vid=ceafdd97-9709-4666-acdc-c6b8a34aace5","ios":"levelo://app?vid=ceafdd97-9709-4666-acdc-c6b8a34aace5"},"vehicle_type_id":"4","last_reported":1770922019,"current_range_meters":9600,"station_id":"ce4bhl12rcd13ifvqgf0","pricing_plan_id":"cebpf4jnsgd1na2vs0mg"},{"bike_id":"fc9ade46-3035-465d-99aa-adaa7f392676","system_id":"levelo_inurba_marseille","lat":43.29965,"lon":5.38494,"is_reserved":false,"is_disabled":false,"rental_uris":{"android":"levelo://app?vid=fc9ade46-3035-465d-99aa-adaa7f392676","ios":"levelo://app?vid=fc9ade46-3035-465d-99aa-adaa7f392676"},"vehicle_type_id":"4","last_reported":1770922019,"current_range_meters":9600,"station_id":"ce4bgj92rcd13ifvqbd0","pricing_plan_id":"cebpf4jnsgd1na2vs0mg"},{"bike_id":"2371def1-989e-4f10-9583-8a26ad076153","system_id":"levelo_inurba_marseille","lat":43.28407,"lon":5.37512,"is_reserved":false,"is_disabled":false,"rental_uris":{"android":"levelo://app?vid=2371def1-989e-4f10-9583-8a26ad076153","ios":"levelo://app?vid=2371def1-989e-4f10-9583-8a26ad076153"},"vehicle_type_id":"4","last_reported":1770922019,"current_range_meters":9600,"station_id":"ce4bh412rcd13ifvqds0","pricing_plan_id":"cebpf4jnsgd1na2vs0mg"},{"bike_id":"bbf76c20-722d-4091-93ed-579710f24304","system_id":"levelo_inurba_marseille","lat":43.24403,"lon":5.37069,"is_reserved":false,"is_disabled":false,"rental_uris":{"android":"levelo://app?vid=bbf76c20-722d-4091-93ed-579710f24304","ios":"levelo://app?vid=bbf76c20-722d-4091-93ed-579710f24304"},"vehicle_type_id":"4","last_reported":1770922019,"current_range_meters":9600,"station_id":"ce4bhhh2rcd13ifvqfk0","pricing_plan_id":"cebpf4jnsgd1na2vs0mg"},{"bike_id":"acc4afec-e80f-436d-a4cf-d6122baf0d20","system_id":"levelo_inurba_marseille","lat":43.272,"lon":5.40974,"is_reserved":false,"is_disabled":false,"rental_uris":{"android":"levelo://app?vid=acc4afec-e80f-436d-a4cf-d6122baf0d20","ios":"levelo://app?vid=acc4afec-e80f-436d-a4cf-d6122baf0d20"},"vehicle_type_id":"4","last_reported":1770922019,"current_range_meters":9600,"station_id":"ce4bhl12rcd13ifvqgf0","pricing_plan_id":"cebpf4jnsgd1na2vs0mg"},{"bike_id":"71a49fd3-35c5-47b0-9364-fe0fe8285ced","system_id":"levelo_inurba_marseille","lat":43.23173,"lon":5.39983,"is_reserved":false,"is_disabled":false,"rental_uris":{"android":"levelo://app?vid=71a49fd3-35c5-47b0-9364-fe0fe8285ced","ios":"levelo://app?vid=71a49fd3-35c5-47b0-9364-fe0fe8285ced"},"vehicle_type_id":"4","last_reported":1770922019,"current_range_meters":9600,"station_id":"ce4bhn12rcd13ifvqgqg","pricing_plan_id":"cebpf4jnsgd1na2vs0mg"},{"bike_id":"9130d400-a8bd-4101-bffc-af7fced33817","system_id":"levelo_inurba_marseille","lat":43.22562,"lon":5.41632,"is_reserved":false,"is_disabled":false,"rental_uris":{"android":"levelo://app?vid=9130d400-a8bd-4101-bffc-af7fced33817","ios":"levelo://app?vid=9130d400-a8bd-4101-bffc-af7fced33817"},"vehicle_type_id":"4","last_reported":1770922019,"current_range_meters":9600,"station_id":"st_d2o4gvlbi1j2169b742g","pricing_plan_id":"cebpf4jnsgd1na2vs0mg"},{"bike_id":"2de5dc27-fdb2-44e2-93e3-9837b9b9ac42","system_id":"levelo_inurba_marseille","lat":43.29525,"lon":5.38526,"is_reserved":false,"is_disabled":false,"rental_uris":{"android":"levelo://app?vid=2de5dc27-fdb2-44e2-93e3-9837b9b9ac42","ios":"levelo://app?vid=2de5dc27-fdb2-44e2-93e3-9837b9b9ac42"},"vehicle_type_id":"4","last_reported":1770922019,"current_range_meters":9600,"station_id":"ce4bgih2rcd13ifvqba0","pricing_plan_id":"cebpf4jnsgd1na2vs0mg"},