{"last_updated":1718222905,"ttl":30,"version":"2.2","data":{"bikes":[{"bike_id":"6428e696-e3eb-4e5a-a3ca-476d636ec7a9","system_id":"levelo_inurba_marseille","lat":43.313545,"lon":5.367017,"is_reserved":false,"is_disabled":false,"rental_uris":{"android":"levelo://app?vid=6428e696-e3eb-4e5a-a3ca-476d636ec7a9","ios":"levelo://app?vid=6428e696-e3eb-4e5a-a3ca-476d636ec7a9"},"vehicle_type_id":"4","last_reported":1718222905,"current_range_meters":17600,"station_id":"","pricing_plan_id":"cebpf4jnsgd1na2vs0mg"},{"bike_id":"7693c532-c88f-4a65-9584-0fca2d1e2125","system_id":"levelo_inurba_marseille","lat":43.313391,"lon":5.36706,"is_reserved":false,"is_disabled":false,"rental_uris":{"android":"levelo://app?vid=7693c532-c88f-4a65-9584-0fca2d1e2125","ios":"levelo://app?vid=7693c532-c88f-4a65-9584-0fca2d1e2125"},"vehicle_type_id":"4","last_reported":1718222905,"current_range_meters":21200,"station_id":"ce4bgr92rcd13ifvqc6g","pricing_plan_id":"cebpf4jnsgd1na2vs0mg"},{"bike_id":"81381967-a666-42c1-a1db-f5f6856d3931","system_id":"levelo_inurba_marseille","lat":43.312239,"lon":5.368562,"is_reserved":false,"is_disabled":false,"rental_uris":{"android":"levelo://app?vid=81381967-a666-42c1-a1db-f5f6856d3931","ios":"levelo://app?vid=81381967-a666-42c1-a1db-f5f6856d3931"},"vehicle_type_id":"4","last_reported":1718222905,"current_range_meters":24400,"station_id":"ce4bgl92rcd13ifvqbq0","pricing_plan_id":"cebpf4jnsgd1na2vs0mg"},{"bike_id":"ad6d467f-32db-493f-9630-f4ee2c321898","system_id":"levelo_inurba_marseille","lat":43.312239,"lon":5.368562,"is_reserved":false,"is_disabled":false,"rental_uris":{"android":"levelo://app?vid=ad6d467f-32db-493f-9630-f4ee2c321898","ios":"levelo://app?vid=ad6d467f-32db-493f-9630-f4ee2c321898"},"vehicle_type_id":"4","last_reported":1718222905,"current_range_meters":15200,"station_id":"ce4bgl92rcd13ifvqbq0","pricing_plan_id":"cebpf4jnsgd1na2vs0mg"},{"bike_id":"e76b4330-5299-4580-a87e-12841f9186ae","system_id":"levelo_inurba_marseille","lat":43.312239,"lon":5.368562,"is_reserved":false,"is_disabled":false,"rental_uris":{"android":"levelo://app?vid=e76b4330-5299-4580-a87e-12841f9186ae","ios":"levelo://app?vid=e76b4330-5299-4580-a87e-12841f9186ae"},"vehicle_type_id":"4","last_reported":1718222905,"current_range_meters":20400,"station_id":"ce4bgl92rcd13ifvqbq0","pricing_plan_id":"cebpf4jnsgd1na2vs0mg"},{"bike_id":"536a84d6-e906-4a0a-8ddd-3c129ae5bc55","system_id":"levelo_inurba_marseille","lat":43.312239,"lon":5.368562,"is_reserved":false,"is_disabled":false,"rental_uris":{"android":"levelo://app?vid=536a84d6-e906-4a0a-8ddd-3c129ae5bc55","ios":"levelo://app?vid=536a84d6-e906-4a0a-8ddd-3c129ae5bc55"},"vehicle_type_id":"4","last_reported":1718222905,"current_range_meters":20000,"station_id":"ce4bgl92rcd13ifvqbq0","pricing_plan_id":"cebpf4jnsgd1na2vs0mg"},{"bike_id":"a6f24a86-6baa-4b68-8410-d69ef8b52941","system_id":"levelo_inurba_marseille","lat":43.309076,"lon":5.368465,"is_reserved":false,"is_disabled":false,"rental_uris":{"android":"levelo://app?vid=a6f24a86-6baa-4b68-8410-d69ef8b52941","ios":"levelo://app?vid=a6f24a86-6baa-4b68-8410-d69ef8b52941"},"vehicle_type_id":"4","last_reported":1718222905,"current_range_meters":18400,"station_id":"ce4bgn92rcd13ifvqbvg","pricing_plan_id":"cebpf4jnsgd1na2vs0mg"},{"bike_id":"de27f82e-81d6-42cc-9854-7ad08b628ee0","system_id":"levelo_inurba_marseille","lat":43.3151,"lon":5.37119,"is_reserved":false,"is_disabled":false,"rental_uris":{"android":"levelo://app?vid=de27f82e-81d6-42cc-9854-7ad08b628ee0","ios":"levelo://app?vid=de27f82e-81d6-42cc-9854-7ad08b628ee0"},"vehicle_type_id":"4","last_reported":1718222905,"current_range_meters":19600,"station_id":"","pricing_plan_id":"cebpf4jnsgd1na2vs0mg"},{"bike_id":"9fe5a135-1bba-454f-ae9b-9153f52a0042","system_id":"levelo_inurba_marseille","lat":43.31492,"lon":5.37306,"is_reserved":false,"is_disabled":false,"rental_uris":{"android":"levelo://app?vid=9fe5a135-1bba-454f-ae9b-9153f52a0042","ios":"levelo://app?vid=9fe5a135-1bba-454f-ae9b-9153f52a0042"},"vehicle_type_id":"4","last_reported":1718222905,"current_range_meters":0,"station_id":"ce4bgt12rcd13ifvqcd0","pricing_plan_id":"cebpf4jnsgd1na2vs0mg"},{"bike_id":"8b820613-e422-4ef6-b463-f2485d32a032","system_id":"levelo_inurba_marseille","lat":43.309034,"lon":5.371783,"is_reserved":false,"is_disabled":false,"rental_uris":{"android":"levelo://app?vid=8b820613-e422-4ef6-b463-f2485d32a032","ios":"levelo://app?vid=8b820613-e422-4ef6-b463-f2485d32a032"},"vehicle_type_id":"4","last_reported":1718222905,"current_range_meters":4800,"station_id":"ce4bguh2rcd13ifvqckg","pricing_plan_id":"cebpf4jnsgd1na2vs0mg"},{"bike_id":"247074eb-6cc0-4d8c-a244-9af779bb03b7","system_id":"levelo_inurba_marseille","lat":43.31846,"lon":5.37371,"is_reserved":false,"is_disabled":false,"rental_uris":{"android":"levelo://app?vid=247074eb-6cc0-4d8c-a244-9af779bb03b7","ios":"levelo://app?vid=247074eb-6cc0-4d8c-a244-9af779bb03b7"},"vehicle_type_id":"4","last_reported":1718222905,"current_range_meters":8800,"station_id":"","pricing_plan_id":"cebpf4jnsgd1na2vs0mg"},{"bike_id":"d1fbade3-15b1-4510-b201-55814f80b5b0","system_id":"levelo_inurba_marseille","lat":43.305989,"lon":5.37225,"is_reserved":false,"is_disabled":false,"rental_uris":{"android":"levelo://app?vid=d1fbade3-15b1-4510-b201-55814f80b5b0","ios":"levelo://app?vid=d1fbade3-15b1-4510-b201-55814f80b5b0"},"vehicle_type_id":"4","last_reported":1718222905,"current_range_meters":4000,"station_id":"ce4bgqh2rcd13ifvqc4g","pricing_plan_id":"cebpf4jnsgd1na2vs0mg"},{"bike_id":"0e088e65-5819-4f82-879a-2c335e39b29e","system_id":"levelo_inurba_marseille","lat":43.311131,"lon":5.377651,"is_reserved":false,"is_disabled":false,"rental_uris":{"android":"levelo://app?vid=0e088e65-5819-4f82-879a-2c335e39b29e","ios":"levelo://app?vid=0e088e65-5819-4f82-879a-2c335e39b29e"},"vehicle_type_id":"4","last_reported":1718222905,"current_range_meters":5600,"station_id":"ce4bgt92rcd13ifvqcg0","pricing_plan_id":"cebpf4jnsgd1na2vs0mg"},{"bike_id":"3c5373f0-e091-464c-8563-6e5b75600403","system_id":"levelo_inurba_marseille","lat":43.311131,"lon":5.377651,"is_reserved":false,"is_disabled":false,"rental_uris":{"android":"levelo://app?vid=3c5373f0-e091-464c-8563-6e5b75600403","ios":"levelo://app?vid=3c5373f0-e091-464c-8563-6e5b75600403"},"vehicle_type_id":"4","last_reported":1718222905,"current_range_meters":22800,"station_id":"ce4bgt92rcd13ifvqcg0","pricing_plan_id":"cebpf4jnsgd1na2vs0mg"},{"bike_id":"c05a17cd-42fa-432c-9f72-a22e20fad7b0","system_id":"levelo_inurba_marseille","lat":43.311125,"lon":5.377624,"is_reserved":false,"is_disabled":false,"rental_uris":{"android":"levelo://app?vid=c05a17cd-42fa-432c-9f72-a22e20fad7b0","ios":"levelo://app?vid=c05a17cd-42fa-432c-9f72-a22e20fad7b0"},"vehicle_type_id":"4","last_reported":1718222905,"current_range_meters":20400,"station_id":"ce4bgt92rcd13ifvqcg0","pricing_plan_id":"cebpf4jnsgd1na2vs0mg"},{"bike_id":"117039e7-2616-441f-8590-c4c6ec10b6b6","system_id":"levelo_inurba_marseille","lat":43.311131,"lon":5.377651,"is_reserved":false,"is_disabled":false,"rental_uris":{"android":"levelo://app?vid=117039e7-2616-441f-8590-c4c6ec10b6b6","ios":"levelo://app?vid=117039e7-2616-441f-8590-c4c6ec10b6b6"},"vehicle_type_id":"4","last_reported":1718222905,"current_range_meters":28000,"station_id":"ce4bgt92rcd13ifvqcg0","pricing_plan_id":"cebpf4jnsgd1na2vs0mg"},{"bike_id":"7306bf08-3432-4489-92a5-6d447d70cc8e","system_id":"levelo_inurba_marseille","lat":43.311131,"lon":5.377651,"is_reserved":false,"is_disabled":false,"rental_uris":{"android":"levelo://app?vid=7306bf08-3432-4489-92a5-6d447d70cc8e","ios":"levelo://app?vid=7306bf08-3432-4489-92a5-6d447d70cc8e"},"vehicle_type_id":"4","last_reported":1718222905,"current_range_meters":22800,"station_id":"ce4bgt92rcd13ifvqcg0","pricing_plan_id":"cebpf4jnsgd1na2vs0mg"},{"bike_id":"e608fae9-efe4-4963-99f2-b3bb3c9e142e","system_id":"levelo_inurba_marseille","lat":43.307945,"lon":5.376487,"is_reserved":false,"is_disabled":false,"rental_uris":{"android":"levelo://app?vid=e608fae9-efe4-4963-99f2-b3bb3c9e142e","ios":"levelo://app?vid=e608fae9-efe4-4963-99f2-b3bb3c9e142e"},"vehicle_type_id":"4","last_reported":1718222905,"current_range_meters":7200,"station_id":"ce4bgv92rcd13ifvqcq0","pricing_plan_id":"cebpf4jnsgd1na2vs0mg"},{"bike_id":"a0c95956-3767-48ce-a33b-a7d817d7589d","system_id":"levelo_inurba_marseille","lat":43.307945,"lon":5.376487,"is_reserved":false,"is_disabled":false,"rental_uris":{"android":"levelo://app?vid=a0c95956-3767-48ce-a33b-a7d817d7589d","ios":"levelo://app?vid=a0c95956-3767-48ce-a33b-a7d817d7589d"},"vehicle_type_id":"4","last_reported":1718222905,"current_range_meters":9600,"station_id":"ce4bgv92rcd13ifvqcq0","pricing_plan_id":"cebpf4jnsgd1na2vs0mg"},{"bike_id":"2038536e-f1b5-4384-98b4-9e453cba8236","system_id":"levelo_inurba_marseille","lat":43.307945,"lon":5.376487,"is_reserved":false,"is_disabled":false,"rental_uris":{"android":"levelo://app?vid=2038536e-f1b5-4384-98b4-9e453cba8236","ios":"levelo://app?vid=2038536e-f1b5-4384-98b4-9e453cba8236"},"vehicle_type_id":"4","last_reported":1718222905,"current_range_meters":7200,"station_id":"ce4bgv92rcd13ifvqcq0","pricing_plan_id":"cebpf4jnsgd1na2vs0mg"},{"bike_id":"32b8afa5-8a63-41bc-84ba-ff6728fad888","system_id":"levelo_inurba_marseille","lat":43.307945,"lon":5.376487,"is_reserved":false,"is_disabled":false,"rental_uris":{"android":"levelo://app?vid=32b8afa5-8a63-41bc-84ba-ff6728fad888","ios":"levelo://app?vid=32b8afa5-8a63-41bc-84ba-ff6728fad888"},"vehicle_type_id":"4","last_reported":1718222905,"current_range_meters":0,"station_id":"ce4bgv92rcd13ifvqcq0","pricing_plan_id":"cebpf4jnsgd1na2vs0mg"},{"bike_id":"c1da5626-d0d0-499d-a1e8-28b5f98bb0e6","system_id":"levelo_inurba_marseille","lat":43.307945,"lon":5.376487,"is_reserved":false,"is_disabled":false,"rental_uris":{"android":"levelo://app?vid=c1da5626-d0d0-499d-a1e8-28b5f98bb0e6","ios":"levelo://app?vid=c1da5626-d0d0-499d-a1e8-28b5f98bb0e6"},"vehicle_type_id":"4","last_reported":1718222905,"current_range_meters":6800,"station_id":"ce4bgv92rcd13ifvqcq0","pricing_plan_id":"cebpf4jnsgd1na2vs0mg"},{"bike_id":"c34c9857-f687-43e2-91b9-a6b58aaa2502","system_id":"levelo_inurba_marseille","lat":43.307945,"lon":5.376487,"is_reserved":false,"is_disabled":false,"rental_uris":{"android":"levelo://app?vid=c34c9857-f687-43e2-91b9-a6b58aaa2502","ios":"levelo://app?vid=c34c9857-f687-43e2-91b9-a6b58aaa2502"},"vehicle_type_id":"4","last_reported":1718222905,"current_range_meters":15200,"station_id":"ce4bgv92rcd13ifvqcq0","pricing_plan_id":"cebpf4jnsgd1na2vs0mg"},{"bike_id":"078b3c06-0290-4bdf-81f1-cb021da0b4b8","system_id":"levelo_inurba_marseille","lat":43.317075,"lon":5.377367,"is_reserved":false,"is_disabled":false,"rental_uris":{"android":"levelo://app?vid=078b3c06-0290-4bdf-81f1-cb021da0b4b8","ios":"levelo://app?vid=078b3c06-0290-4bdf-81f1-cb021da0b4b8"},"vehicle_type_id":"4","last_reported":1718222905,"current_range_meters":12800,"station_id":"ce4bgth2rcd13ifvqch0","pricing_plan_id":"cebpf4jnsgd1na2vs0mg"},{"bike_id":"1c5fc106-23f3-45ea-9321-6f4db4860d60","system_id":"levelo_inurba_marseille","lat":43.317075,"lon":5.377367,"is_reserved":false,"is_disabled":false,"rental_uris":{"android":"levelo://app?vid=1c5fc106-23f3-45ea-9321-6f4db4860d60","ios":"levelo://app?vid=1c5fc106-23f3-45ea-9321-6f4db4860d60"},"vehicle_type_id":"4","last_reported":1718222905,"current_range_meters":6400,"station_id":"ce4bgth2rcd13ifvqch0","pricing_plan_id":"cebpf4jnsgd1na2vs0mg"},{"bike_id":"67211061-2036-4f8b-a763-963b7c5e72f7","system_id":"levelo_inurba_marseille","lat":43.315289,"lon":5.380349,"is_reserved":false,"is_disabled":false,"rental_uris":{"android":"levelo://app?vid=67211061-2036-4f8b-a763-963b7c5e72f7","ios":"levelo://app?vid=67211061-2036-4f8b-a763-963b7c5e72f7"},"vehicle_type_id":"4","last_reported":1718222905,"current_range_meters":17200,"station_id":"ce4bhsp2rcd13ifvqi50","pricing_plan_id":"cebpf4jnsgd1na2vs0mg"},{"bike_id":"9a74f943-4986-43f4-8d93-653c6b24c92b","system_id":"levelo_inurba_marseille","lat":43.301939,"lon":5.366286,"is_reserved":false,"is_disabled":false,"rental_uris":{"android":"levelo://app?vid=9a74f943-4986-43f4-8d93-653c6b24c92b","ios":"levelo://app?vid=9a74f943-4986-43f4-8d93-653c6b24c92b"},"vehicle_type_id":"4","last_reported":1718222905,"current_range_meters":6400,"station_id":"ce4bgrh2rcd13ifvqc8g","pricing_plan_id":"cebpf4jnsgd1na2vs0mg"},{"bike_id":"a2dafe7a-8960-4097-a4d1-cdbd7bb5fbbb","system_id":"levelo_inurba_marseille","lat":43.301939,"lon":5.366286,"is_reserved":false,"is_disabled":false,"rental_uris":{"android":"levelo://app?vid=a2dafe7a-8960-4097-a4d1-cdbd7bb5fbbb","ios":"levelo://app?vid=a2dafe7a-8960-4097-a4d1-cdbd7bb5fbbb"},"vehicle_type_id":"4","last_reported":1718222905,"current_range_meters":23600,"station_id":"ce4bgrh2rcd13ifvqc8g","pricing_plan_id":"cebpf4jnsgd1na2vs0mg"},{"bike_id":"4e660de4-d49c-433b-990e-575bab00d853","system_id":"levelo_inurba_marseille","lat":43.301939,"lon":5.366286,"is_reserved":false,"is_disabled":false,"rental_uris":{"android":"levelo://app?vid=4e660de4-d49c-433b-990e-575bab00d853","ios":"levelo://app?vid=4e660de4-d49c-433b-990e-575bab00d853"},"vehicle_type_id":"4","last_reported":1718222905,"current_range_meters":27200,"station_id":"ce4bgrh2rcd13ifvqc8g","pricing_plan_id":"cebpf4jnsgd1na2vs0mg"},{"bike_id":"c098e32a-886f-4e88-be1c-eafd9ecfb789","system_id":"levelo_inurba_marseille","lat":43.301939,"lon":5.366286,"is_reserved":false,"is_disabled":false,"rental_uris":{"android":"levelo://app?vid=c098e32a-886f-4e88-be1c-eafd9ecfb789","ios":"levelo://app?vid=c098e32a-886f-4e88-be1c-eafd9ecfb789"},"vehicle_type_id":"4","last_reported":1718222905,"current_range_meters":13200,"station_id":"ce4bgrh2rcd13ifvqc8g","pricing_plan_id":"cebpf4jnsgd1na2vs0mg"},{"bike_id":"112ab0a6-7a40-4063-b660-f8da9c02fe94","system_id":"levelo_inurba_marseille","lat":43.301808,"lon":5.366158,"is_reserved":false,"is_disabled":false,"rental_uris":{"android":"levelo://app?vid=112ab0a6-7a40-4063-b660-f8da9c02fe94","ios":"levelo://app?vid=112ab0a6-7a40-4063-b660-f8da9c02fe94"},"vehicle_type_id":"4","last_reported":1718222905,"current_range_meters":4800,"station_id":"","pricing_plan_id":"cebpf4jnsgd1na2vs0mg"},{"bike_id":"3991e74a-c84d-4916-a5f9-ba7688907b3f","system_id":"levelo_inurba_marseille","lat":43.308012,"lon":5.381511,"is_reserved":false,"is_disabled":false,"rental_uris":{"android":"levelo://app?vid=3991e74a-c84d-4916-a5f9-ba7688907b3f","ios":"levelo://app?vid=3991e74a-c84d-4916-a5f9-ba7688907b3f"},"vehicle_type_id":"4","last_reported":1718222905,"current_range_meters":15200,"station_id":"ce4bgt12rcd13ifvqce0","pricing_plan_id":"cebpf4jnsgd1na2vs0mg"},{"bike_id":"a4bb6992-922d-4dfe-92fe-2bb8acf38bb6","system_id":"levelo_inurba_marseille","lat":43.308012,"lon":5.381511,"is_reserved":false,"is_disabled":false,"rental_uris":{"android":"levelo://app?vid=a4bb6992-922d-4dfe-92fe-2bb8acf38bb6","ios":"levelo://app?vid=a4bb6992-922d-4dfe-92fe-2bb8acf38bb6"},"vehicle_type_id":"4","last_reported":1718222905,"current_range_meters":31600,"station_id":"ce4bgt12rcd13ifvqce0","pricing_plan_id":"cebpf4jnsgd1na2vs0mg"},{"bike_id":"c7b90310-6c4e-4bb9-b465-1c60e9a7812f","system_id":"levelo_inurba_marseille","lat":43.304606,"lon":5.379026,"is_reserved":false,"is_disabled":false,"rental_uris":{"android":"levelo://app?vid=c7b90310-6c4e-4bb9-b465-1c60e9a7812f","ios":"levelo://app?vid=c7b90310-6c4e-4bb9-b465-1c60e9a7812f"},"vehicle_type_id":"4","last_reported":1718222905,"current_range_meters":12000,"station_id":"ce4bgup2rcd13ifvqcn0","pricing_plan_id":"cebpf4jnsgd1na2vs0mg"},{"bike_id":"0270aab2-49de-4394-bed5-70d2997b3f7e","system_id":"levelo_inurba_marseille","lat":43.324771,"lon":5.36557,"is_reserved":false,"is_disabled":false,"rental_uris":{"android":"levelo://app?vid=0270aab2-49de-4394-bed5-70d2997b3f7e","ios":"levelo://app?vid=0270aab2-49de-4394-bed5-70d2997b3f7e"},"vehicle_type_id":"4","last_reported":1718222905,"current_range_meters":3200,"station_id":"ce4bhs12rcd13ifvqhvg","pricing_plan_id":"cebpf4jnsgd1na2vs0mg"},{"bike_id":"0b10ed5c-b5c4-4cac-9db6-f0c709beb0e6","system_id":"levelo_inurba_marseille","lat":43.324771,"lon":5.36557,"is_reserved":false,"is_disabled":false,"rental_uris":{"android":"levelo://app?vid=0b10ed5c-b5c4-4cac-9db6-f0c709beb0e6","ios":"levelo://app?vid=0b10ed5c-b5c4-4cac-9db6-f0c709beb0e6"},"vehicle_type_id":"4","last_reported":1718222905,"current_range_meters":2800,"station_id":"ce4bhs12rcd13ifvqhvg","pricing_plan_id":"cebpf4jnsgd1na2vs0mg"},{"bike_id":"211f9115-e6a8-4fc8-9664-8c0a58d47260","system_id":"levelo_inurba_marseille","lat":43.324771,"lon":5.36557,"is_reserved":false,"is_disabled":false,"rental_uris":{"android":"levelo://app?vid=211f9115-e6a8-4fc8-9664-8c0a58d47260","ios":"levelo://app?vid=211f9115-e6a8-4fc8-9664-8c0a58d47260"},"vehicle_type_id":"4","last_reported":1718222905,"current_range_meters":10800,"station_id":"ce4bhs12rcd13ifvqhvg","pricing_plan_id":"cebpf4jnsgd1na2vs0mg"},{"bike_id":"10528ba9-1863-4898-8c40-6c4a29873f3f","system_id":"levelo_inurba_marseille","lat":43.310804,"lon":5.38359,"is_reserved":false,"is_disabled":false,"rental_uris":{"android":"levelo://app?vid=10528ba9-1863-4898-8c40-6c4a29873f3f","ios":"levelo://app?vid=10528ba9-1863-4898-8c40-6c4a29873f3f"},"vehicle_type_id":"4","last_reported":1718222905,"current_range_meters":2000,"station_id":"ce4bgv92rcd13ifvqcr0","pricing_plan_id":"cebpf4jnsgd1na2vs0mg"},{"bike_id":"f4113ec6-e013-4a52-867a-2c13ff111abd","system_id":"levelo_inurba_marseille","lat":43.310804,"lon":5.38359,"is_reserved":false,"is_disabled":false,"rental_uris":{"android":"levelo://app?vid=f4113ec6-e013-4a52-867a-2c13ff111abd","ios":"levelo://app?vid=f4113ec6-e013-4a52-867a-2c13ff111abd"},"vehicle_type_id":"4","last_reported":1718222905,"current_range_meters":26000,"station_id":"ce4bgv92rcd13ifvqcr0","pricing_plan_id":"cebpf4jnsgd1na2vs0mg"},{"bike_id":"02c58b23-f02d-46a0-b257-13ee94837aa3","system_id":"levelo_inurba_marseille","lat":43.310804,"lon":5.38359,"is_reserved":false,"is_disabled":false,"rental_uris":{"android":"levelo://app?vid=02c58b23-f02d-46a0-b257-13ee94837aa3","ios":"levelo://app?vid=02c58b23-f02d-46a0-b257-13ee94837aa3"},"vehicle_type_id":"4","last_reported":1718222905,"current_range_meters":1600,"station_id":"ce4bgv92rcd13ifvqcr0","pricing_plan_id":"cebpf4jnsgd1na2vs0mg"},{"bike_id":"19f06fc6-1163-4e83-bfba-39ed20b6af97","system_id":"levelo_inurba_marseille","lat":43.302784,"lon":5.377158,"is_reserved":false,"is_disabled":false,"rental_uris":{"android":"levelo://app?vid=19f06fc6-1163-4e83-bfba-39ed20b6af97","ios":"levelo://app?vid=19f06fc6-1163-4e83-bfba-39ed20b6af97"},"vehicle_type_id":"4","last_reported":1718222905,"current_range_meters":10000,"station_id":"ce4bguh2rcd13ifvqcj0","pricing_plan_id":"cebpf4jnsgd1na2vs0mg"},{"bike_id":"9d708d7c-b7c6-4bfc-a304-093fb44408dd","system_id":"levelo_inurba_marseille","lat":43.3164,"lon":5.38356,"is_reserved":false,"is_disabled":false,"rental_uris":{"android":"levelo://app?vid=9d708d7c-b7c6-4bfc-a304-093fb44408dd","ios":"levelo://app?vid=9d708d7c-b7c6-4bfc-a304-093fb44408dd"},"vehicle_type_id":"4","last_reported":1718222905,"current_range_meters":10000,"station_id":"","pricing_plan_id":"cebpf4jnsgd1na2vs0mg"},{"bike_id":"6ec961ad-e1f8-4e22-b7ca-c9aa4504260a","system_id":"levelo_inurba_marseille","lat":43.319935,"lon":5.381699,"is_reserved":false,"is_disabled":false,"rental_uris":{"android":"levelo://app?vid=6ec961ad-e1f8-4e22-b7ca-c9aa4504260a","ios":"levelo://app?vid=6ec961ad-e1f8-4e22-b7ca-c9aa4504260a"},"vehicle_type_id":"4","last_reported":1718222905,"current_range_meters":25600,"station_id":"ce4bhr12rcd13ifvqhpg","pricing_plan_id":"cebpf4jnsgd1na2vs0mg"},{"bike_id":"3792d2f0-e70f-44af-b88c-2898546cb996","system_id":"levelo_inurba_marseille","lat":43.31996,"lon":5.38151,"is_reserved":false,"is_disabled":false,"rental_uris":{"android":"levelo://app?vid=3792d2f0-e70f-44af-b88c-2898546cb996","ios":"levelo://app?vid=3792d2f0-e70f-44af-b88c-2898546cb996"},"vehicle_type_id":"4","last_reported":1718222905,"current_range_meters":11200,"station_id":"ce4bhr12rcd13ifvqhpg","pricing_plan_id":"cebpf4jnsgd1na2vs0mg"},{"bike_id":"6dbae4bd-ae66-4d22-9045-e175567eb038","system_id":"levelo_inurba_marseille","lat":43.3199,"lon":5.38162,"is_reserved":false,"is_disabled":false,"rental_uris":{"android":"levelo://app?vid=6dbae4bd-ae66-4d22-9045-e175567eb038","ios":"levelo://app?vid=6dbae4bd-ae66-4d22-9045-e175567eb038"},"vehicle_type_id":"4","last_reported":1718222905,"current_range_meters":26400,"station_id":"ce4bhr12rcd13ifvqhpg","pricing_plan_id":"cebpf4jnsgd1na2vs0mg"},{"bike_id":"ad28aaf2-e2d2-4e91-a8ef-f597f2181611","system_id":"levelo_inurba_marseille","lat":43.31996,"lon":5.38165,"is_reserved":false,"is_disabled":false,"rental_uris":{"android":"levelo://app?vid=ad28aaf2-e2d2-4e91-a8ef-f597f2181611","ios":"levelo://app?vid=ad28aaf2-e2d2-4e91-a8ef-f597f2181611"},"vehicle_type_id":"4","last_reported":1718222905,"current_range_meters":10800,"station_id":"ce4bhr12rcd13ifvqhpg","pricing_plan_id":"cebpf4jnsgd1na2vs0mg"},{"bike_id":"b0fb9e6d-f80f-4615-8b4c-07feecfd11a8","system_id":"levelo_inurba_marseille","lat":43.313557,"lon":5.384913,"is_reserved":false,"is_disabled":false,"rental_uris":{"android":"levelo://app?vid=b0fb9e6d-f80f-4615-8b4c-07feecfd11a8","ios":"levelo://app?vid=b0fb9e6d-f80f-4615-8b4c-07feecfd11a8"},"vehicle_type_id":"4","last_reported":1718222905,"current_range_meters":5200,"station_id":"ce4bgt92rcd13ifvqcf0","pricing_plan_id":"cebpf4jnsgd1na2vs0mg"},{"bike_id":"0ed5ef63-18b1-4669-920e-0b7f9a2dccf9","system_id":"levelo_inurba_marseille","lat":43.313571,"lon":5.384829,"is_reserved":false,"is_disabled":false,"rental_uris":{"android":"levelo://app?vid=0ed5ef63-18b1-4669-920e-0b7f9a2dccf9","ios":"levelo://app?vid=0ed5ef63-18b1-4669-920e-0b7f9a2dccf9"},"vehicle_type_id":"4","last_reported":1718222905,"current_range_meters":11200,"station_id":"ce4bgt92rcd13ifvqcf0","pricing_plan_id":"cebpf4jnsgd1na2vs0mg"},{"bike_id":"0b23ceca-0050-47a3-ab90-73c98fe38fd4","system_id":"levelo_inurba_marseille","lat":43.30005,"lon":5.37177,"is_reserved":false,"is_disabled":false,"rental_uris":{"android":"levelo://app?vid=0b23ceca-0050-47a3-ab90-73c98fe38fd4","ios":"levelo://app?vid=0b23ceca-0050-47a3-ab90-73c98fe38fd4"},"vehicle_type_id":"4","last_reported":1718222905,"current_range_meters":1600,"station_id":"ce4bgr92rcd13ifvqc7g","pricing_plan_id":"cebpf4jnsgd1na2vs0mg"},{"bike_id":"18fa0d79-5073-4bf2-b0d9-1540bccb0ce0","system_id":"levelo_inurba_marseille","lat":43.299222,"lon":5.365554,"is_reserved":false,"is_disabled":false,"rental_uris":{"android":"levelo://app?vid=18fa0d79-5073-4bf2-b0d9-1540bccb0ce0","ios":"levelo://app?vid=18fa0d79-5073-4bf2-b0d9-1540bccb0ce0"},"vehicle_type_id":"4","last_reported":1718222905,"current_range_meters":24400,"station_id":"ce4bgm92rcd13ifvqbr0","pricing_plan_id":"cebpf4jnsgd1na2vs0mg"},{"bike_id":"7c976dbb-e663-482f-8588-65a8d14e22c3","system_id":"levelo_inurba_marseille","lat":43.2993,"lon":5.36535,"is_reserved":false,"is_disabled":false,"rental_uris":{"android":"levelo://app?vid=7c976dbb-e663-482f-8588-65a8d14e22c3","ios":"levelo://app?vid=7c976dbb-e663-482f-8588-65a8d14e22c3"},"vehicle_type_id":"4","last_reported":1718222905,"current_range_meters":29600,"station_id":"ce4bgm92rcd13ifvqbr0","pricing_plan_id":"cebpf4jnsgd1na2vs0mg"},{"bike_id":"01ca70b6-4e2c-42cb-9aed-a8b80d5ea29c","system_id":"levelo_inurba_marseille","lat":43.3054,"lon":5.38379,"is_reserved":false,"is_disabled":false,"rental_uris":{"android":"levelo://app?vid=01ca70b6-4e2c-42cb-9aed-a8b80d5ea29c","ios":"levelo://app?vid=01ca70b6-4e2c-42cb-9aed-a8b80d5ea29c"},"vehicle_type_id":"4","last_reported":1718222905,"current_range_meters":7200,"station_id":"ce4bgg92rcd13ifvqb30","pricing_plan_id":"cebpf4jnsgd1na2vs0mg"},{"bike_id":"597f3083-fa25-4cf1-8f29-32f322040db5","system_id":"levelo_inurba_marseille","lat":43.298433,"lon":5.362774,"is_reserved":false,"is_disabled":false,"rental_uris":{"android":"levelo://app?vid=597f3083-fa25-4cf1-8f29-32f322040db5","ios":"levelo://app?vid=597f3083-fa25-4cf1-8f29-32f322040db5"},"vehicle_type_id":"4","last_reported":1718222905,"current_range_meters":24000,"station_id":"ce4bgpp2rcd13ifvqc3g","pricing_plan_id":"cebpf4jnsgd1na2vs0mg"},{"bike_id":"b43704d7-e1b2-4294-b200-fe934e082f53","system_id":"levelo_inurba_marseille","lat":43.298433,"lon":5.362774,"is_reserved":false,"is_disabled":false,"rental_uris":{"android":"levelo://app?vid=b43704d7-e1b2-4294-b200-fe934e082f53","ios":"levelo://app?vid=b43704d7-e1b2-4294-b200-fe934e082f53"},"vehicle_type_id":"4","last_reported":1718222905,"current_range_meters":5200,"station_id":"ce4bgpp2rcd13ifvqc3g","pricing_plan_id":"cebpf4jnsgd1na2vs0mg"},{"bike_id":"e954e934-abeb-44b4-8656-3c67a8bdb469","system_id":"levelo_inurba_marseille","lat":43.298433,"lon":5.362774,"is_reserved":false,"is_disabled":false,"rental_uris":{"android":"levelo://app?vid=e954e934-abeb-44b4-8656-3c67a8bdb469","ios":"levelo://app?vid=e954e934-abeb-44b4-8656-3c67a8bdb469"},"vehicle_type_id":"4","last_reported":1718222905,"current_range_meters":20000,"station_id":"ce4bgpp2rcd13ifvqc3g","pricing_plan_id":"cebpf4jnsgd1na2vs0mg"},{"bike_id":"eff04dc5-8318-4ed6-b641-9dec58fc6af3","system_id":"levelo_inurba_marseille","lat":43.305364,"lon":5.384119,"is_reserved":false,"is_disabled":false,"rental_uris":{"android":"levelo://app?vid=eff04dc5-8318-4ed6-b641-9dec58fc6af3","ios":"levelo://app?vid=eff04dc5-8318-4ed6-b641-9dec58fc6af3"},"vehicle_type_id":"4","last_reported":1718222905,"current_range_meters":800,"station_id":"ce4bgg92rcd13ifvqb30","pricing_plan_id":"cebpf4jnsgd1na2vs0mg"},{"bike_id":"10cd052c-e8ec-4512-8a79-b971d763a673","system_id":"levelo_inurba_marseille","lat":43.298433,"lon":5.362774,"is_reserved":false,"is_disabled":false,"rental_uris":{"android":"levelo://app?vid=10cd052c-e8ec-4512-8a79-b971d763a673","ios":"levelo://app?vid=10cd052c-e8ec-4512-8a79-b971d763a673"},"vehicle_type_id":"4","last_reported":1718222905,"current_range_meters":4000,"station_id":"ce4bgpp2rcd13ifvqc3g","pricing_plan_id":"cebpf4jnsgd1na2vs0mg"},{"bike_id":"1189810c-02e9-4ad4-aea8-f29ffdd08e82","system_id":"levelo_inurba_marseille","lat":43.311722,"lon":5.387247,"is_reserved":false,"is_disabled":false,"rental_uris":{"android":"levelo://app?vid=1189810c-02e9-4ad4-aea8-f29ffdd08e82","ios":"levelo://app?vid=1189810c-02e9-4ad4-aea8-f29ffdd08e82"},"vehicle_type_id":"4","last_reported":1718222905,"current_range_meters":0,"station_id":"ce4bgv12rcd13ifvqcp0","pricing_plan_id":"cebpf4jnsgd1na2vs0mg"},{"bike_id":"7c30769d-b295-48f3-b694-473eccbd2aaa","system_id":"levelo_inurba_marseille","lat":43.299243,"lon":5.37481,"is_reserved":false,"is_disabled":false,"rental_uris":{"android":"levelo://app?vid=7c30769d-b295-48f3-b694-473eccbd2aaa","ios":"levelo://app?vid=7c30769d-b295-48f3-b694-473eccbd2aaa"},"vehicle_type_id":"4","last_reported":1718222905,"current_range_meters":2800,"station_id":"ce4bgjh2rcd13ifvqbg0","pricing_plan_id":"cebpf4jnsgd1na2vs0mg"},{"bike_id":"bdd3a2fd-417d-4979-997f-5eeec324d139","system_id":"levelo_inurba_marseille","lat":43.31171,"lon":5.3871,"is_reserved":false,"is_disabled":false,"rental_uris":{"android":"levelo://app?vid=bdd3a2fd-417d-4979-997f-5eeec324d139","ios":"levelo://app?vid=bdd3a2fd-417d-4979-997f-5eeec324d139"},"vehicle_type_id":"4","last_reported":1718222905,"current_range_meters":0,"station_id":"ce4bgv12rcd13ifvqcp0","pricing_plan_id":"cebpf4jnsgd1na2vs0mg"},{"bike_id":"fcfe83c4-656c-47d8-a602-596b56705028","system_id":"levelo_inurba_marseille","lat":43.299243,"lon":5.374807,"is_reserved":false,"is_disabled":false,"rental_uris":{"android":"levelo://app?vid=fcfe83c4-656c-47d8-a602-596b56705028","ios":"levelo://app?vid=fcfe83c4-656c-47d8-a602-596b56705028"},"vehicle_type_id":"4","last_reported":1718222905,"current_range_meters":4800,"station_id":"ce4bgjh2rcd13ifvqbg0","pricing_plan_id":"cebpf4jnsgd1na2vs0mg"},{"bike_id":"b5124d0a-2bf3-449f-8d43-ebfaca91a74c","system_id":"levelo_inurba_marseille","lat":43.311722,"lon":5.387247,"is_reserved":false,"is_disabled":false,"rental_uris":{"android":"levelo://app?vid=b5124d0a-2bf3-449f-8d43-ebfaca91a74c","ios":"levelo://app?vid=b5124d0a-2bf3-449f-8d43-ebfaca91a74c"},"vehicle_type_id":"4","last_reported":1718222905,"current_range_meters":6400,"station_id":"ce4bgv12rcd13ifvqcp0","pricing_plan_id":"cebpf4jnsgd1na2vs0mg"},{"bike_id":"261b15df-1f90-4eaf-8d41-87334cad7836","system_id":"levelo_inurba_marseille","lat":43.311722,"lon":5.387247,"is_reserved":false,"is_disabled":false,"rental_uris":{"android":"levelo://app?vid=261b15df-1f90-4eaf-8d41-87334cad7836","ios":"levelo://app?vid=261b15df-1f90-4eaf-8d41-87334cad7836"},"vehicle_type_id":"4","last_reported":1718222905,"current_range_meters":7600,"station_id":"ce4bgv12rcd13ifvqcp0","pricing_plan_id":"cebpf4jnsgd1na2vs0mg"},{"bike_id":"549b5301-8a66-4f8d-8eff-8c4c2087a9fc","system_id":"levelo_inurba_marseille","lat":43.311722,"lon":5.387247,"is_reserved":false,"is_disabled":false,"rental_uris":{"android":"levelo://app?vid=549b5301-8a66-4f8d-8eff-8c4c2087a9fc","ios":"levelo://app?vid=549b5301-8a66-4f8d-8eff-8c4c2087a9fc"},"vehicle_type_id":"4","last_reported":1718222905,"current_range_meters":12400,"station_id":"ce4bgv12rcd13ifvqcp0","pricing_plan_id":"cebpf4jnsgd1na2vs0mg"},{"bike_id":"fe596353-de56-426e-af43-aa3533297794","system_id":"levelo_inurba_marseille","lat":43.311722,"lon":5.387247,"is_reserved":false,"is_disabled":false,"rental_uris":{"android":"levelo://app?vid=fe596353-de56-426e-af43-aa3533297794","ios":"levelo://app?vid=fe596353-de56-426e-af43-aa3533297794"},"vehicle_type_id":"4","last_reported":1718222905,"current_range_meters":10800,"station_id":"ce4bgv12rcd13ifvqcp0","pricing_plan_id":"cebpf4jnsgd1na2vs0mg"},{"bike_id":"cbd455fd-a387-4915-94f8-4bc7c1b4d22b","system_id":"levelo_inurba_marseille","lat":43.311722,"lon":5.387247,"is_reserved":false,"is_disabled":false,"rental_uris":{"android":"levelo://app?vid=cbd455fd-a387-4915-94f8-4bc7c1b4d22b","ios":"levelo://app?vid=cbd455fd-a387-4915-94f8-4bc7c1b4d22b"},"vehicle_type_id":"4","last_reported":1718222905,"current_range_meters":17200,"station_id":"ce4bgv12rcd13ifvqcp0","pricing_plan_id":"cebpf4jnsgd1na2vs0mg"},{"bike_id":"28b65bbb-6cbd-43c9-8e99-c677abc75f45","system_id":"levelo_inurba_marseille","lat":43.311722,"lon":5.387247,"is_reserved":false,"is_disabled":false,"rental_uris":{"android":"levelo://app?vid=28b65bbb-6cbd-43c9-8e99-c677abc75f45","ios":"levelo://app?vid=28b65bbb-6cbd-43c9-8e99-c677abc75f45"},"vehicle_type_id":"4","last_reported":1718222905,"current_range_meters":24000,"station_id":"ce4bgv12rcd13ifvqcp0","pricing_plan_id":"cebpf4jnsgd1na2vs0mg"},{"bike_id":"60aa7d7b-8eed-489c-918b-bfd49de67262","system_id":"levelo_inurba_marseille","lat":43.311722,"lon":5.387247,"is_reserved":false,"is_disabled":false,"rental_uris":{"android":"levelo://app?vid=60aa7d7b-8eed-489c-918b-bfd49de67262","ios":"levelo://app?vid=60aa7d7b-8eed-489c-918b-bfd49de67262"},"vehicle_type_id":"4","last_reported":1718222905,"current_range_meters":14400,"station_id":"ce4bgv12rcd13ifvqcp0","pricing_plan_id":"cebpf4jnsgd1na2vs0mg"},{"bike_id":"5ad299bc-7194-4685-8b19-1ea7d3bc1717","system_id":"levelo_inurba_marseille","lat":43.298233,"lon":5.372953,"is_reserved":false,"is_disabled":false,"rental_uris":{"android":"levelo://app?vid=5ad299bc-7194-4685-8b19-1ea7d3bc1717","ios":"levelo://app?vid=5ad299bc-7194-4685-8b19-1ea7d3bc1717"},"vehicle_type_id":"4","last_reported":1718222905,"current_range_meters":25200,"station_id":"","pricing_plan_id":"cebpf4jnsgd1na2vs0mg"},{"bike_id":"decf52d8-2086-4f2c-9820-a2385f548043","system_id":"levelo_inurba_marseille","lat":43.2978,"lon":5.37086,"is_reserved":false,"is_disabled":false,"rental_uris":{"android":"levelo://app?vid=decf52d8-2086-4f2c-9820-a2385f548043","ios":"levelo://app?vid=decf52d8-2086-4f2c-9820-a2385f548043"},"vehicle_type_id":"4","last_reported":1718222905,"current_range_meters":0,"station_id":"ce4bgop2rcd13ifvqc1g","pricing_plan_id":"cebpf4jnsgd1na2vs0mg"},{"bike_id":"18326685-3280-47c6-9f9a-58e0c0ed03fa","system_id":"levelo_inurba_marseille","lat":43.29778,"lon":5.3709,"is_reserved":false,"is_disabled":false,"rental_uris":{"android":"levelo://app?vid=18326685-3280-47c6-9f9a-58e0c0ed03fa","ios":"levelo://app?vid=18326685-3280-47c6-9f9a-58e0c0ed03fa"},"vehicle_type_id":"4","last_reported":1718222905,"current_range_meters":7200,"station_id":"ce4bgop2rcd13ifvqc1g","pricing_plan_id":"cebpf4jnsgd1na2vs0mg"},{"bike_id":"0910f089-1a74-42f1-be05-ce3a5b6e2b55","system_id":"levelo_inurba_marseille","lat":43.322872,"lon":5.382756,"is_reserved":false,"is_disabled":false,"rental_uris":{"android":"levelo://app?vid=0910f089-1a74-42f1-be05-ce3a5b6e2b55","ios":"levelo://app?vid=0910f089-1a74-42f1-be05-ce3a5b6e2b55"},"vehicle_type_id":"4","last_reported":1718222905,"current_range_meters":2800,"station_id":"ce4bhr12rcd13ifvqhqg","pricing_plan_id":"cebpf4jnsgd1na2vs0mg"},{"bike_id":"65d3454a-708f-4293-89b7-38811dc320a6","system_id":"levelo_inurba_marseille","lat":43.322872,"lon":5.382756,"is_reserved":false,"is_disabled":false,"rental_uris":{"android":"levelo://app?vid=65d3454a-708f-4293-89b7-38811dc320a6","ios":"levelo://app?vid=65d3454a-708f-4293-89b7-38811dc320a6"},"vehicle_type_id":"4","last_reported":1718222905,"current_range_meters":0,"station_id":"ce4bhr12rcd13ifvqhqg","pricing_plan_id":"cebpf4jnsgd1na2vs0mg"},{"bike_id":"56ae48b9-cb8d-4d94-966b-b3be837fb22c","system_id":"levelo_inurba_marseille","lat":43.322888,"lon":5.382635,"is_reserved":false,"is_disabled":false,"rental_uris":{"android":"levelo://app?vid=56ae48b9-cb8d-4d94-966b-b3be837fb22c","ios":"levelo://app?vid=56ae48b9-cb8d-4d94-966b-b3be837fb22c"},"vehicle_type_id":"4","last_reported":1718222905,"current_range_meters":2400,"station_id":"ce4bhr12rcd13ifvqhqg","pricing_plan_id":"cebpf4jnsgd1na2vs0mg"},{"bike_id":"4f2afbcf-ffe7-4a2e-8e3e-be152f4cfb04","system_id":"levelo_inurba_marseille","lat":43.322872,"lon":5.382756,"is_reserved":false,"is_disabled":false,"rental_uris":{"android":"levelo://app?vid=4f2afbcf-ffe7-4a2e-8e3e-be152f4cfb04","ios":"levelo://app?vid=4f2afbcf-ffe7-4a2e-8e3e-be152f4cfb04"},"vehicle_type_id":"4","last_reported":1718222905,"current_range_meters":32000,"station_id":"ce4bhr12rcd13ifvqhqg","pricing_plan_id":"cebpf4jnsgd1na2vs0mg"},{"bike_id":"c32123cd-eecc-4f9a-a83a-4ec57aa019d5","system_id":"levelo_inurba_marseille","lat":43.322872,"lon":5.382756,"is_reserved":false,"is_disabled":false,"rental_uris":{"android":"levelo://app?vid=c32123cd-eecc-4f9a-a83a-4ec57aa019d5","ios":"levelo://app?vid=c32123cd-eecc-4f9a-a83a-4ec57aa019d5"},"vehicle_type_id":"4","last_reported":1718222905,"current_range_meters":31200,"station_id":"ce4bhr12rcd13ifvqhqg","pricing_plan_id":"cebpf4jnsgd1na2vs0mg"},{"bike_id":"b72c0205-2052-403a-8882-1cc60a473b8e","system_id":"levelo_inurba_marseille","lat":43.2968,"lon":5.37291,"is_reserved":false,"is_disabled":false,"rental_uris":{"android":"levelo://app?vid=b72c0205-2052-403a-8882-1cc60a473b8e","ios":"levelo://app?vid=b72c0205-2052-403a-8882-1cc60a473b8e"},"vehicle_type_id":"4","last_reported":1718222905,"current_range_meters":3200,"station_id":"ce4bgk12rcd13ifvqbj0","pricing_plan_id":"cebpf4jnsgd1na2vs0mg"},{"bike_id":"f12fe903-e430-4a5b-854f-91048e026aaf","system_id":"levelo_inurba_marseille","lat":43.32957,"lon":5.36547,"is_reserved":false,"is_disabled":false,"rental_uris":{"android":"levelo://app?vid=f12fe903-e430-4a5b-854f-91048e026aaf","ios":"levelo://app?vid=f12fe903-e430-4a5b-854f-91048e026aaf"},"vehicle_type_id":"4","last_reported":1718222905,"current_range_meters":5600,"station_id":"","pricing_plan_id":"cebpf4jnsgd1na2vs0mg"},{"bike_id":"68364cc4-05ee-4c04-97a7-d83e9d1779fb","system_id":"levelo_inurba_marseille","lat":43.29573,"lon":5.367355,"is_reserved":false,"is_disabled":false,"rental_uris":{"android":"levelo://app?vid=68364cc4-05ee-4c04-97a7-d83e9d1779fb","ios":"levelo://app?vid=68364cc4-05ee-4c04-97a7-d83e9d1779fb"},"vehicle_type_id":"4","last_reported":1718222905,"current_range_meters":28800,"station_id":"ce4bgph2rcd13ifvqc2g","pricing_plan_id":"cebpf4jnsgd1na2vs0mg"},{"bike_id":"080b4e06-512d-4aa7-92b6-154a01594fb4","system_id":"levelo_inurba_marseille","lat":43.309589,"lon":5.390258,"is_reserved":false,"is_disabled":false,"rental_uris":{"android":"levelo://app?vid=080b4e06-512d-4aa7-92b6-154a01594fb4","ios":"levelo://app?vid=080b4e06-512d-4aa7-92b6-154a01594fb4"},"vehicle_type_id":"4","last_reported":1718222905,"current_range_meters":2000,"station_id":"ce4bgup2rcd13ifvqco0","pricing_plan_id":"cebpf4jnsgd1na2vs0mg"},{"bike_id":"a7cccc87-bf44-4f7c-aa52-633eaa0be51e","system_id":"levelo_inurba_marseille","lat":43.309589,"lon":5.390258,"is_reserved":false,"is_disabled":false,"rental_uris":{"android":"levelo://app?vid=a7cccc87-bf44-4f7c-aa52-633eaa0be51e","ios":"levelo://app?vid=a7cccc87-bf44-4f7c-aa52-633eaa0be51e"},"vehicle_type_id":"4","last_reported":1718222905,"current_range_meters":1200,"station_id":"ce4bgup2rcd13ifvqco0","pricing_plan_id":"cebpf4jnsgd1na2vs0mg"},{"bike_id":"1b3d86c9-87e2-462e-a47d-e6aa08dc17ea","system_id":"levelo_inurba_marseille","lat":43.309589,"lon":5.390258,"is_reserved":false,"is_disabled":false,"rental_uris":{"android":"levelo://app?vid=1b3d86c9-87e2-462e-a47d-e6aa08dc17ea","ios":"levelo://app?vid=1b3d86c9-87e2-462e-a47d-e6aa08dc17ea"},"vehicle_type_id":"4","last_reported":1718222905,"current_range_meters":8000,"station_id":"ce4bgup2rcd13ifvqco0","pricing_plan_id":"cebpf4jnsgd1na2vs0mg"},{"bike_id":"fc5d9bac-883e-4eef-be8a-99267af2967d","system_id":"levelo_inurba_marseille","lat":43.317557,"lon":5.390173,"is_reserved":false,"is_disabled":false,"rental_uris":{"android":"levelo://app?vid=fc5d9bac-883e-4eef-be8a-99267af2967d","ios":"levelo://app?vid=fc5d9bac-883e-4eef-be8a-99267af2967d"},"vehicle_type_id":"4","last_reported":1718222905,"current_range_meters":2800,"station_id":"ce4bhqp2rcd13ifvqhng","pricing_plan_id":"cebpf4jnsgd1na2vs0mg"},{"bike_id":"ac0636f9-ee24-4f01-ac2e-4f0abad03890","system_id":"levelo_inurba_marseille","lat":43.317557,"lon":5.390173,"is_reserved":false,"is_disabled":false,"rental_uris":{"android":"levelo://app?vid=ac0636f9-ee24-4f01-ac2e-4f0abad03890","ios":"levelo://app?vid=ac0636f9-ee24-4f01-ac2e-4f0abad03890"},"vehicle_type_id":"4","last_reported":1718222905,"current_range_meters":2400,"station_id":"ce4bhqp2rcd13ifvqhng","pricing_plan_id":"cebpf4jnsgd1na2vs0mg"},{"bike_id":"5f3ebbe0-f2a4-4310-907d-48d065d90b25","system_id":"levelo_inurba_marseille","lat":43.317557,"lon":5.390173,"is_reserved":false,"is_disabled":false,"rental_uris":{"android":"levelo://app?vid=5f3ebbe0-f2a4-4310-907d-48d065d90b25","ios":"levelo://app?vid=5f3ebbe0-f2a4-4310-907d-48d065d90b25"},"vehicle_type_id":"4","last_reported":1718222905,"current_range_meters":27600,"station_id":"ce4bhqp2rcd13ifvqhng","pricing_plan_id":"cebpf4jnsgd1na2vs0mg"},{"bike_id":"eb304712-44e2-4639-8b56-8c5304d63a90","system_id":"levelo_inurba_marseille","lat":43.29795,"lon":5.3808,"is_reserved":false,"is_disabled":false,"rental_uris":{"android":"levelo://app?vid=eb304712-44e2-4639-8b56-8c5304d63a90","ios":"levelo://app?vid=eb304712-44e2-4639-8b56-8c5304d63a90"},"vehicle_type_id":"4","last_reported":1718222905,"current_range_meters":0,"station_id":"ce4bgip2rcd13ifvqbb0","pricing_plan_id":"cebpf4jnsgd1na2vs0mg"},{"bike_id":"bb03b397-61ca-4a17-9d00-2ea57a3c5687","system_id":"levelo_inurba_marseille","lat":43.29572,"lon":5.37491,"is_reserved":false,"is_disabled":false,"rental_uris":{"android":"levelo://app?vid=bb03b397-61ca-4a17-9d00-2ea57a3c5687","ios":"levelo://app?vid=bb03b397-61ca-4a17-9d00-2ea57a3c5687"},"vehicle_type_id":"4","last_reported":1718222905,"current_range_meters":16800,"station_id":"ce4bgh92rcd13ifvqb50","pricing_plan_id":"cebpf4jnsgd1na2vs0mg"},{"bike_id":"1946d326-8a46-4420-ac5a-1669b5120ba5","system_id":"levelo_inurba_marseille","lat":43.295748,"lon":5.37522,"is_reserved":false,"is_disabled":false,"rental_uris":{"android":"levelo://app?vid=1946d326-8a46-4420-ac5a-1669b5120ba5","ios":"levelo://app?vid=1946d326-8a46-4420-ac5a-1669b5120ba5"},"vehicle_type_id":"4","last_reported":1718222905,"current_range_meters":3200,"station_id":"ce4bgh92rcd13ifvqb50","pricing_plan_id":"cebpf4jnsgd1na2vs0mg"},{"bike_id":"f96a4db7-e76f-40e2-9565-d48f139bbec1","system_id":"levelo_inurba_marseille","lat":43.30438,"lon":5.388853,"is_reserved":false,"is_disabled":false,"rental_uris":{"android":"levelo://app?vid=f96a4db7-e76f-40e2-9565-d48f139bbec1","ios":"levelo://app?vid=f96a4db7-e76f-40e2-9565-d48f139bbec1"},"vehicle_type_id":"4","last_reported":1718222905,"current_range_meters":28000,"station_id":"ce4bgk12rcd13ifvqbi0","pricing_plan_id":"cebpf4jnsgd1na2vs0mg"},{"bike_id":"353c532f-0660-4051-ad74-c803ee2f7fa6","system_id":"levelo_inurba_marseille","lat":43.295748,"lon":5.37522,"is_reserved":false,"is_disabled":false,"rental_uris":{"android":"levelo://app?vid=353c532f-0660-4051-ad74-c803ee2f7fa6","ios":"levelo://app?vid=353c532f-0660-4051-ad74-c803ee2f7fa6"},"vehicle_type_id":"4","last_reported":1718222905,"current_range_meters":10800,"station_id":"ce4bgh92rcd13ifvqb50","pricing_plan_id":"cebpf4jnsgd1na2vs0mg"},{"bike_id":"5b062825-17a2-43ff-b82e-9516888de7a9","system_id":"levelo_inurba_marseille","lat":43.304278,"lon":5.388868,"is_reserved":false,"is_disabled":false,"rental_uris":{"android":"levelo://app?vid=5b062825-17a2-43ff-b82e-9516888de7a9","ios":"levelo://app?vid=5b062825-17a2-43ff-b82e-9516888de7a9"},"vehicle_type_id":"4","last_reported":1718222905,"current_range_meters":31600,"station_id":"ce4bgk12rcd13ifvqbi0","pricing_plan_id":"cebpf4jnsgd1na2vs0mg"},{"bike_id":"d51789ea-eb04-4e0b-b0d1-a567aa1af80c","system_id":"levelo_inurba_marseille","lat":43.304606,"lon":5.379026,"is_reserved":false,"is_disabled":false,"rental_uris":{"android":"levelo://app?vid=d51789ea-eb04-4e0b-b0d1-a567aa1af80c","ios":"levelo://app?vid=d51789ea-eb04-4e0b-b0d1-a567aa1af80c"},"vehicle_type_id":"4","last_reported":1718222905,"current_range_meters":9200,"station_id":"ce4bgup2rcd13ifvqcn0","pricing_plan_id":"cebpf4jnsgd1na2vs0mg"},{"bike_id":"64ae0806-710e-4695-9517-5624c3b8ba38","system_id":"levelo_inurba_marseille","lat":43.304274,"lon":5.388873,"is_reserved":false,"is_disabled":false,"rental_uris":{"android":"levelo://app?vid=64ae0806-710e-4695-9517-5624c3b8ba38","ios":"levelo://app?vid=64ae0806-710e-4695-9517-5624c3b8ba38"},"vehicle_type_id":"4","last_reported":1718222905,"current_range_meters":16800,"station_id":"ce4bgk12rcd13ifvqbi0","pricing_plan_id":"cebpf4jnsgd1na2vs0mg"},{"bike_id":"ebbbcafc-9f75-49e9-9da7-0ea5faa1423b","system_id":"levelo_inurba_marseille","lat":43.295279,"lon":5.375048,"is_reserved":false,"is_disabled":false,"rental_uris":{"android":"levelo://app?vid=ebbbcafc-9f75-49e9-9da7-0ea5faa1423b","ios":"levelo://app?vid=ebbbcafc-9f75-49e9-9da7-0ea5faa1423b"},"vehicle_type_id":"4","last_reported":1718222905,"current_range_meters":2400,"station_id":"ce4bgkp2rcd13ifvqbmg","pricing_plan_id":"cebpf4jnsgd1na2vs0mg"},{"bike_id":"33b2a20e-c88a-4f07-b9c8-dc4ba890e84b","system_id":"levelo_inurba_marseille","lat":43.295279,"lon":5.375048,"is_reserved":false,"is_disabled":false,"rental_uris":{"android":"levelo://app?vid=33b2a20e-c88a-4f07-b9c8-dc4ba890e84b","ios":"levelo://app?vid=33b2a20e-c88a-4f07-b9c8-dc4ba890e84b"},"vehicle_type_id":"4","last_reported":1718222905,"current_range_meters":26000,"station_id":"ce4bgkp2rcd13ifvqbmg","pricing_plan_id":"cebpf4jnsgd1na2vs0mg"},{"bike_id":"9af5cecb-5794-48e8-8a80-74e3f0b5fb83","system_id":"levelo_inurba_marseille","lat":43.29515,"lon":5.37502,"is_reserved":false,"is_disabled":false,"rental_uris":{"android":"levelo://app?vid=9af5cecb-5794-48e8-8a80-74e3f0b5fb83","ios":"levelo://app?vid=9af5cecb-5794-48e8-8a80-74e3f0b5fb83"},"vehicle_type_id":"4","last_reported":1718222905,"current_range_meters":12000,"station_id":"ce4bgkp2rcd13ifvqbmg","pricing_plan_id":"cebpf4jnsgd1na2vs0mg"},{"bike_id":"cd73df99-5340-4374-800a-da2bfd4d0461","system_id":"levelo_inurba_marseille","lat":43.299717,"lon":5.384845,"is_reserved":false,"is_disabled":false,"rental_uris":{"android":"levelo://app?vid=cd73df99-5340-4374-800a-da2bfd4d0461","ios":"levelo://app?vid=cd73df99-5340-4374-800a-da2bfd4d0461"},"vehicle_type_id":"4","last_reported":1718222905,"current_range_meters":31600,"station_id":"ce4bgj92rcd13ifvqbd0","pricing_plan_id":"cebpf4jnsgd1na2vs0mg"},{"bike_id":"2956b2c0-d444-4f00-bacf-837e905aaff0","system_id":"levelo_inurba_marseille","lat":43.295279,"lon":5.375048,"is_reserved":false,"is_disabled":false,"rental_uris":{"android":"levelo://app?vid=2956b2c0-d444-4f00-bacf-837e905aaff0","ios":"levelo://app?vid=2956b2c0-d444-4f00-bacf-837e905aaff0"},"vehicle_type_id":"4","last_reported":1718222905,"current_range_meters":30400,"station_id":"ce4bgkp2rcd13ifvqbmg","pricing_plan_id":"cebpf4jnsgd1na2vs0mg"},{"bike_id":"f9233f2b-06d8-4ea1-9fb3-2d50e4b056e4","system_id":"levelo_inurba_marseille","lat":43.2941,"lon":5.37413,"is_reserved":false,"is_disabled":false,"rental_uris":{"android":"levelo://app?vid=f9233f2b-06d8-4ea1-9fb3-2d50e4b056e4","ios":"levelo://app?vid=f9233f2b-06d8-4ea1-9fb3-2d50e4b056e4"},"vehicle_type_id":"4","last_reported":1718222905,"current_range_meters":0,"station_id":"","pricing_plan_id":"cebpf4jnsgd1na2vs0mg"},{"bike_id":"f0e66573-3087-464c-845c-bbad563319f4","system_id":"levelo_inurba_marseille","lat":43.312881,"lon":5.393586,"is_reserved":false,"is_disabled":false,"rental_uris":{"android":"levelo://app?vid=f0e66573-3087-464c-845c-bbad563319f4","ios":"levelo://app?vid=f0e66573-3087-464c-845c-bbad563319f4"},"vehicle_type_id":"4","last_reported":1718222905,"current_range_meters":13200,"station_id":"ce4bhm12rcd13ifvqgkg","pricing_plan_id":"cebpf4jnsgd1na2vs0mg"},{"bike_id":"92c94d20-53b0-4cee-b49b-0c91718ff7af","system_id":"levelo_inurba_marseille","lat":43.29602,"lon":5.381084,"is_reserved":false,"is_disabled":false,"rental_uris":{"android":"levelo://app?vid=92c94d20-53b0-4cee-b49b-0c91718ff7af","ios":"levelo://app?vid=92c94d20-53b0-4cee-b49b-0c91718ff7af"},"vehicle_type_id":"4","last_reported":1718222905,"current_range_meters":20000,"station_id":"ce4bgl12rcd13ifvqbo0","pricing_plan_id":"cebpf4jnsgd1na2vs0mg"},{"bike_id":"2d55e646-dd71-43ef-a342-6ca065b72f5b","system_id":"levelo_inurba_marseille","lat":43.29602,"lon":5.381084,"is_reserved":false,"is_disabled":false,"rental_uris":{"android":"levelo://app?vid=2d55e646-dd71-43ef-a342-6ca065b72f5b","ios":"levelo://app?vid=2d55e646-dd71-43ef-a342-6ca065b72f5b"},"vehicle_type_id":"4","last_reported":1718222905,"current_range_meters":15200,"station_id":"ce4bgl12rcd13ifvqbo0","pricing_plan_id":"cebpf4jnsgd1na2vs0mg"},{"bike_id":"6b48d682-1eaf-465a-81ce-87e055b8ec98","system_id":"levelo_inurba_marseille","lat":43.29601,"lon":5.381084,"is_reserved":false,"is_disabled":false,"rental_uris":{"android":"levelo://app?vid=6b48d682-1eaf-465a-81ce-87e055b8ec98","ios":"levelo://app?vid=6b48d682-1eaf-465a-81ce-87e055b8ec98"},"vehicle_type_id":"4","last_reported":1718222905,"current_range_meters":16000,"station_id":"ce4bgl12rcd13ifvqbo0","pricing_plan_id":"cebpf4jnsgd1na2vs0mg"},{"bike_id":"41f251be-fc24-490d-a0a4-bbbee75450a1","system_id":"levelo_inurba_marseille","lat":43.29601,"lon":5.381084,"is_reserved":false,"is_disabled":false,"rental_uris":{"android":"levelo://app?vid=41f251be-fc24-490d-a0a4-bbbee75450a1","ios":"levelo://app?vid=41f251be-fc24-490d-a0a4-bbbee75450a1"},"vehicle_type_id":"4","last_reported":1718222905,"current_range_meters":8000,"station_id":"ce4bgl12rcd13ifvqbo0","pricing_plan_id":"cebpf4jnsgd1na2vs0mg"},{"bike_id":"d4ca33dc-734c-435e-b36c-f3b75697be6d","system_id":"levelo_inurba_marseille","lat":43.29602,"lon":5.381084,"is_reserved":false,"is_disabled":false,"rental_uris":{"android":"levelo://app?vid=d4ca33dc-734c-435e-b36c-f3b75697be6d","ios":"levelo://app?vid=d4ca33dc-734c-435e-b36c-f3b75697be6d"},"vehicle_type_id":"4","last_reported":1718222905,"current_range_meters":10400,"station_id":"ce4bgl12rcd13ifvqbo0","pricing_plan_id":"cebpf4jnsgd1na2vs0mg"},{"bike_id":"6973a7a2-c9a2-4991-91a0-7f0c8f81da49","system_id":"levelo_inurba_marseille","lat":43.293249,"lon":5.371578,"is_reserved":false,"is_disabled":false,"rental_uris":{"android":"levelo://app?vid=6973a7a2-c9a2-4991-91a0-7f0c8f81da49","ios":"levelo://app?vid=6973a7a2-c9a2-4991-91a0-7f0c8f81da49"},"vehicle_type_id":"4","last_reported":1718222905,"current_range_meters":13200,"station_id":"ce4bgh92rcd13ifvqb40","pricing_plan_id":"cebpf4jnsgd1na2vs0mg"},{"bike_id":"de5357c5-0323-4ce4-940c-f2ab7b183f48","system_id":"levelo_inurba_marseille","lat":43.293259,"lon":5.371586,"is_reserved":false,"is_disabled":false,"rental_uris":{"android":"levelo://app?vid=de5357c5-0323-4ce4-940c-f2ab7b183f48","ios":"levelo://app?vid=de5357c5-0323-4ce4-940c-f2ab7b183f48"},"vehicle_type_id":"4","last_reported":1718222905,"current_range_meters":0,"station_id":"ce4bgh92rcd13ifvqb40","pricing_plan_id":"cebpf4jnsgd1na2vs0mg"},{"bike_id":"2a752627-d824-4aee-b879-2686e3c473f3","system_id":"levelo_inurba_marseille","lat":43.292324,"lon":5.368319,"is_reserved":false,"is_disabled":false,"rental_uris":{"android":"levelo://app?vid=2a752627-d824-4aee-b879-2686e3c473f3","ios":"levelo://app?vid=2a752627-d824-4aee-b879-2686e3c473f3"},"vehicle_type_id":"4","last_reported":1718222905,"current_range_meters":8400,"station_id":"ce4bhbp2rcd13ifvqesg","pricing_plan_id":"cebpf4jnsgd1na2vs0mg"},{"bike_id":"735a8b39-8bda-44c7-a4e4-c0e05bab4651","system_id":"levelo_inurba_marseille","lat":43.293009,"lon":5.374584,"is_reserved":false,"is_disabled":false,"rental_uris":{"android":"levelo://app?vid=735a8b39-8bda-44c7-a4e4-c0e05bab4651","ios":"levelo://app?vid=735a8b39-8bda-44c7-a4e4-c0e05bab4651"},"vehicle_type_id":"4","last_reported":1718222905,"current_range_meters":0,"station_id":"ce4bgi12rcd13ifvqb70","pricing_plan_id":"cebpf4jnsgd1na2vs0mg"},{"bike_id":"2813fa5a-96ee-4e6a-be33-e2be3fea2f67","system_id":"levelo_inurba_marseille","lat":43.29424,"lon":5.37912,"is_reserved":false,"is_disabled":false,"rental_uris":{"android":"levelo://app?vid=2813fa5a-96ee-4e6a-be33-e2be3fea2f67","ios":"levelo://app?vid=2813fa5a-96ee-4e6a-be33-e2be3fea2f67"},"vehicle_type_id":"4","last_reported":1718222905,"current_range_meters":18400,"station_id":"","pricing_plan_id":"cebpf4jnsgd1na2vs0mg"},{"bike_id":"b2234ed6-5211-42b3-b04f-3b4d0585fd1c","system_id":"levelo_inurba_marseille","lat":43.293009,"lon":5.374584,"is_reserved":false,"is_disabled":false,"rental_uris":{"android":"levelo://app?vid=b2234ed6-5211-42b3-b04f-3b4d0585fd1c","ios":"levelo://app?vid=b2234ed6-5211-42b3-b04f-3b4d0585fd1c"},"vehicle_type_id":"4","last_reported":1718222905,"current_range_meters":19200,"station_id":"ce4bgi12rcd13ifvqb70","pricing_plan_id":"cebpf4jnsgd1na2vs0mg"},{"bike_id":"d64586e7-c72e-40ff-b922-2681b143033d","system_id":"levelo_inurba_marseille","lat":43.305994,"lon":5.393687,"is_reserved":false,"is_disabled":false,"rental_uris":{"android":"levelo://app?vid=d64586e7-c72e-40ff-b922-2681b143033d","ios":"levelo://app?vid=d64586e7-c72e-40ff-b922-2681b143033d"},"vehicle_type_id":"4","last_reported":1718222905,"current_range_meters":0,"station_id":"ce4bh0p2rcd13ifvqd80","pricing_plan_id":"cebpf4jnsgd1na2vs0mg"},{"bike_id":"7f9c9cf3-ba08-4452-bf4c-97bf045ee1b8","system_id":"levelo_inurba_marseille","lat":43.303002,"lon":5.392142,"is_reserved":false,"is_disabled":false,"rental_uris":{"android":"levelo://app?vid=7f9c9cf3-ba08-4452-bf4c-97bf045ee1b8","ios":"levelo://app?vid=7f9c9cf3-ba08-4452-bf4c-97bf045ee1b8"},"vehicle_type_id":"4","last_reported":1718222905,"current_range_meters":30400,"station_id":"ce4bgkh2rcd13ifvqbk0","pricing_plan_id":"cebpf4jnsgd1na2vs0mg"},{"bike_id":"1a4744cf-c28b-4afa-9320-833c3aea4e4a","system_id":"levelo_inurba_marseille","lat":43.30085,"lon":5.390856,"is_reserved":false,"is_disabled":false,"rental_uris":{"android":"levelo://app?vid=1a4744cf-c28b-4afa-9320-833c3aea4e4a","ios":"levelo://app?vid=1a4744cf-c28b-4afa-9320-833c3aea4e4a"},"vehicle_type_id":"4","last_reported":1718222905,"current_range_meters":24000,"station_id":"ce4bh192rcd13ifvqdb0","pricing_plan_id":"cebpf4jnsgd1na2vs0mg"},{"bike_id":"7bbd61e1-004e-4175-b43e-24d4b26fec33","system_id":"levelo_inurba_marseille","lat":43.30085,"lon":5.390856,"is_reserved":false,"is_disabled":false,"rental_uris":{"android":"levelo://app?vid=7bbd61e1-004e-4175-b43e-24d4b26fec33","ios":"levelo://app?vid=7bbd61e1-004e-4175-b43e-24d4b26fec33"},"vehicle_type_id":"4","last_reported":1718222905,"current_range_meters":10800,"station_id":"ce4bh192rcd13ifvqdb0","pricing_plan_id":"cebpf4jnsgd1na2vs0mg"},{"bike_id":"b10c9653-ca4e-45d0-a2f3-c98335d53f81","system_id":"levelo_inurba_marseille","lat":43.30085,"lon":5.390856,"is_reserved":false,"is_disabled":false,"rental_uris":{"android":"levelo://app?vid=b10c9653-ca4e-45d0-a2f3-c98335d53f81","ios":"levelo://app?vid=b10c9653-ca4e-45d0-a2f3-c98335d53f81"},"vehicle_type_id":"4","last_reported":1718222905,"current_range_meters":14400,"station_id":"ce4bh192rcd13ifvqdb0","pricing_plan_id":"cebpf4jnsgd1na2vs0mg"},{"bike_id":"d238b250-dbb6-4414-9394-81f6ff144f24","system_id":"levelo_inurba_marseille","lat":43.292311,"lon":5.360731,"is_reserved":false,"is_disabled":false,"rental_uris":{"android":"levelo://app?vid=d238b250-dbb6-4414-9394-81f6ff144f24","ios":"levelo://app?vid=d238b250-dbb6-4414-9394-81f6ff144f24"},"vehicle_type_id":"4","last_reported":1718222905,"current_range_meters":30800,"station_id":"ce4bhbh2rcd13ifvqeqg","pricing_plan_id":"cebpf4jnsgd1na2vs0mg"},{"bike_id":"8bddd3af-b5d8-4d82-a2be-77373d51ea3f","system_id":"levelo_inurba_marseille","lat":43.292311,"lon":5.360731,"is_reserved":false,"is_disabled":false,"rental_uris":{"android":"levelo://app?vid=8bddd3af-b5d8-4d82-a2be-77373d51ea3f","ios":"levelo://app?vid=8bddd3af-b5d8-4d82-a2be-77373d51ea3f"},"vehicle_type_id":"4","last_reported":1718222905,"current_range_meters":2800,"station_id":"ce4bhbh2rcd13ifvqeqg","pricing_plan_id":"cebpf4jnsgd1na2vs0mg"},{"bike_id":"eb514523-eb08-44af-b521-b2308c41aa48","system_id":"levelo_inurba_marseille","lat":43.292311,"lon":5.360731,"is_reserved":false,"is_disabled":false,"rental_uris":{"android":"levelo://app?vid=eb514523-eb08-44af-b521-b2308c41aa48","ios":"levelo://app?vid=eb514523-eb08-44af-b521-b2308c41aa48"},"vehicle_type_id":"4","last_reported":1718222905,"current_range_meters":11600,"station_id":"ce4bhbh2rcd13ifvqeqg","pricing_plan_id":"cebpf4jnsgd1na2vs0mg"},{"bike_id":"7bcfeab9-8e97-4c93-bdb4-a8436ddfdf8d","system_id":"levelo_inurba_marseille","lat":43.30085,"lon":5.390856,"is_reserved":false,"is_disabled":false,"rental_uris":{"android":"levelo://app?vid=7bcfeab9-8e97-4c93-bdb4-a8436ddfdf8d","ios":"levelo://app?vid=7bcfeab9-8e97-4c93-bdb4-a8436ddfdf8d"},"vehicle_type_id":"4","last_reported":1718222905,"current_range_meters":31600,"station_id":"ce4bh192rcd13ifvqdb0","pricing_plan_id":"cebpf4jnsgd1na2vs0mg"},{"bike_id":"262e6a23-9f6e-4e07-9358-3b7e3816f153","system_id":"levelo_inurba_marseille","lat":43.29216,"lon":5.36069,"is_reserved":false,"is_disabled":false,"rental_uris":{"android":"levelo://app?vid=262e6a23-9f6e-4e07-9358-3b7e3816f153","ios":"levelo://app?vid=262e6a23-9f6e-4e07-9358-3b7e3816f153"},"vehicle_type_id":"4","last_reported":1718222905,"current_range_meters":14000,"station_id":"ce4bhbh2rcd13ifvqeqg","pricing_plan_id":"cebpf4jnsgd1na2vs0mg"},{"bike_id":"61c71d90-1e58-445b-8aef-5fe2cf8449b8","system_id":"levelo_inurba_marseille","lat":43.298764,"lon":5.388973,"is_reserved":false,"is_disabled":false,"rental_uris":{"android":"levelo://app?vid=61c71d90-1e58-445b-8aef-5fe2cf8449b8","ios":"levelo://app?vid=61c71d90-1e58-445b-8aef-5fe2cf8449b8"},"vehicle_type_id":"4","last_reported":1718222905,"current_range_meters":9600,"station_id":"ce4bh392rcd13ifvqdl0","pricing_plan_id":"cebpf4jnsgd1na2vs0mg"},{"bike_id":"2d7a309d-617c-4694-960c-f99b6640d3d0","system_id":"levelo_inurba_marseille","lat":43.298814,"lon":5.389078,"is_reserved":false,"is_disabled":false,"rental_uris":{"android":"levelo://app?vid=2d7a309d-617c-4694-960c-f99b6640d3d0","ios":"levelo://app?vid=2d7a309d-617c-4694-960c-f99b6640d3d0"},"vehicle_type_id":"4","last_reported":1718222905,"current_range_meters":0,"station_id":"ce4bh392rcd13ifvqdl0","pricing_plan_id":"cebpf4jnsgd1na2vs0mg"},{"bike_id":"35e98808-942e-42f4-9a8e-893d5d52c8f5","system_id":"levelo_inurba_marseille","lat":43.29167,"lon":5.37157,"is_reserved":false,"is_disabled":false,"rental_uris":{"android":"levelo://app?vid=35e98808-942e-42f4-9a8e-893d5d52c8f5","ios":"levelo://app?vid=35e98808-942e-42f4-9a8e-893d5d52c8f5"},"vehicle_type_id":"4","last_reported":1718222905,"current_range_meters":24400,"station_id":"ce4bha92rcd13ifvqeh0","pricing_plan_id":"cebpf4jnsgd1na2vs0mg"},{"bike_id":"fad1f035-7e82-4ca9-b33b-158249f7aec5","system_id":"levelo_inurba_marseille","lat":43.309038,"lon":5.396546,"is_reserved":false,"is_disabled":false,"rental_uris":{"android":"levelo://app?vid=fad1f035-7e82-4ca9-b33b-158249f7aec5","ios":"levelo://app?vid=fad1f035-7e82-4ca9-b33b-158249f7aec5"},"vehicle_type_id":"4","last_reported":1718222905,"current_range_meters":24400,"station_id":"ce4bh012rcd13ifvqcv0","pricing_plan_id":"cebpf4jnsgd1na2vs0mg"},{"bike_id":"2a5ff82f-3fd0-48e0-bb1e-a547bccfeb62","system_id":"levelo_inurba_marseille","lat":43.30882,"lon":5.39625,"is_reserved":false,"is_disabled":false,"rental_uris":{"android":"levelo://app?vid=2a5ff82f-3fd0-48e0-bb1e-a547bccfeb62","ios":"levelo://app?vid=2a5ff82f-3fd0-48e0-bb1e-a547bccfeb62"},"vehicle_type_id":"4","last_reported":1718222905,"current_range_meters":20000,"station_id":"ce4bh012rcd13ifvqcv0","pricing_plan_id":"cebpf4jnsgd1na2vs0mg"},{"bike_id":"49dc5f94-61b7-4ea5-a4fe-9cb9c11b0cdd","system_id":"levelo_inurba_marseille","lat":43.3088,"lon":5.39625,"is_reserved":false,"is_disabled":false,"rental_uris":{"android":"levelo://app?vid=49dc5f94-61b7-4ea5-a4fe-9cb9c11b0cdd","ios":"levelo://app?vid=49dc5f94-61b7-4ea5-a4fe-9cb9c11b0cdd"},"vehicle_type_id":"4","last_reported":1718222905,"current_range_meters":14800,"station_id":"ce4bh012rcd13ifvqcv0","pricing_plan_id":"cebpf4jnsgd1na2vs0mg"},{"bike_id":"4badb878-f7fe-40d2-ac09-ab732fd35b54","system_id":"levelo_inurba_marseille","lat":43.309047,"lon":5.396551,"is_reserved":false,"is_disabled":false,"rental_uris":{"android":"levelo://app?vid=4badb878-f7fe-40d2-ac09-ab732fd35b54","ios":"levelo://app?vid=4badb878-f7fe-40d2-ac09-ab732fd35b54"},"vehicle_type_id":"4","last_reported":1718222905,"current_range_meters":12400,"station_id":"ce4bh012rcd13ifvqcv0","pricing_plan_id":"cebpf4jnsgd1na2vs0mg"},{"bike_id":"f711bcba-9f31-413d-a703-fa16a8af1753","system_id":"levelo_inurba_marseille","lat":43.309038,"lon":5.396546,"is_reserved":false,"is_disabled":false,"rental_uris":{"android":"levelo://app?vid=f711bcba-9f31-413d-a703-fa16a8af1753","ios":"levelo://app?vid=f711bcba-9f31-413d-a703-fa16a8af1753"},"vehicle_type_id":"4","last_reported":1718222905,"current_range_meters":28000,"station_id":"ce4bh012rcd13ifvqcv0","pricing_plan_id":"cebpf4jnsgd1na2vs0mg"},{"bike_id":"64c254b0-5407-41d2-8e11-f71a1e9ef6c6","system_id":"levelo_inurba_marseille","lat":43.309047,"lon":5.396551,"is_reserved":false,"is_disabled":false,"rental_uris":{"android":"levelo://app?vid=64c254b0-5407-41d2-8e11-f71a1e9ef6c6","ios":"levelo://app?vid=64c254b0-5407-41d2-8e11-f71a1e9ef6c6"},"vehicle_type_id":"4","last_reported":1718222905,"current_range_meters":12800,"station_id":"ce4bh012rcd13ifvqcv0","pricing_plan_id":"cebpf4jnsgd1na2vs0mg"},{"bike_id":"c7fe245c-6dd9-443f-9e4f-6aa3e739692e","system_id":"levelo_inurba_marseille","lat":43.309038,"lon":5.396546,"is_reserved":false,"is_disabled":false,"rental_uris":{"android":"levelo://app?vid=c7fe245c-6dd9-443f-9e4f-6aa3e739692e","ios":"levelo://app?vid=c7fe245c-6dd9-443f-9e4f-6aa3e739692e"},"vehicle_type_id":"4","last_reported":1718222905,"current_range_meters":13600,"station_id":"ce4bh012rcd13ifvqcv0","pricing_plan_id":"cebpf4jnsgd1na2vs0mg"},{"bike_id":"39963f3d-196c-4f1d-8530-b5f587752cd2","system_id":"levelo_inurba_marseille","lat":43.309047,"lon":5.396551,"is_reserved":false,"is_disabled":false,"rental_uris":{"android":"levelo://app?vid=39963f3d-196c-4f1d-8530-b5f587752cd2","ios":"levelo://app?vid=39963f3d-196c-4f1d-8530-b5f587752cd2"},"vehicle_type_id":"4","last_reported":1718222905,"current_range_meters":22000,"station_id":"ce4bh012rcd13ifvqcv0","pricing_plan_id":"cebpf4jnsgd1na2vs0mg"},{"bike_id":"c948fd18-5bff-4084-8ff5-6df87a4fc4de","system_id":"levelo_inurba_marseille","lat":43.308877,"lon":5.396397,"is_reserved":false,"is_disabled":false,"rental_uris":{"android":"levelo://app?vid=c948fd18-5bff-4084-8ff5-6df87a4fc4de","ios":"levelo://app?vid=c948fd18-5bff-4084-8ff5-6df87a4fc4de"},"vehicle_type_id":"4","last_reported":1718222905,"current_range_meters":0,"station_id":"ce4bh012rcd13ifvqcv0","pricing_plan_id":"cebpf4jnsgd1na2vs0mg"},{"bike_id":"66d3ce27-2899-4357-af54-7f9087beba47","system_id":"levelo_inurba_marseille","lat":43.30889,"lon":5.396415,"is_reserved":false,"is_disabled":false,"rental_uris":{"android":"levelo://app?vid=66d3ce27-2899-4357-af54-7f9087beba47","ios":"levelo://app?vid=66d3ce27-2899-4357-af54-7f9087beba47"},"vehicle_type_id":"4","last_reported":1718222905,"current_range_meters":20400,"station_id":"ce4bh012rcd13ifvqcv0","pricing_plan_id":"cebpf4jnsgd1na2vs0mg"},{"bike_id":"aaa7aa66-ebb3-4786-97f6-496b06865998","system_id":"levelo_inurba_marseille","lat":43.30887,"lon":5.39642,"is_reserved":false,"is_disabled":false,"rental_uris":{"android":"levelo://app?vid=aaa7aa66-ebb3-4786-97f6-496b06865998","ios":"levelo://app?vid=aaa7aa66-ebb3-4786-97f6-496b06865998"},"vehicle_type_id":"4","last_reported":1718222905,"current_range_meters":8800,"station_id":"ce4bh012rcd13ifvqcv0","pricing_plan_id":"cebpf4jnsgd1na2vs0mg"},{"bike_id":"a743105d-ab50-4e92-860b-8dd7dc340ff1","system_id":"levelo_inurba_marseille","lat":43.313291,"lon":5.396838,"is_reserved":false,"is_disabled":false,"rental_uris":{"android":"levelo://app?vid=a743105d-ab50-4e92-860b-8dd7dc340ff1","ios":"levelo://app?vid=a743105d-ab50-4e92-860b-8dd7dc340ff1"},"vehicle_type_id":"4","last_reported":1718222905,"current_range_meters":11200,"station_id":"ce4bgvp2rcd13ifvqcu0","pricing_plan_id":"cebpf4jnsgd1na2vs0mg"},{"bike_id":"431a45aa-2f07-48d7-ba7a-06775a4bc44c","system_id":"levelo_inurba_marseille","lat":43.313291,"lon":5.396838,"is_reserved":false,"is_disabled":false,"rental_uris":{"android":"levelo://app?vid=431a45aa-2f07-48d7-ba7a-06775a4bc44c","ios":"levelo://app?vid=431a45aa-2f07-48d7-ba7a-06775a4bc44c"},"vehicle_type_id":"4","last_reported":1718222905,"current_range_meters":2000,"station_id":"ce4bgvp2rcd13ifvqcu0","pricing_plan_id":"cebpf4jnsgd1na2vs0mg"},{"bike_id":"e2505d2f-457d-48f2-8e0b-53c53e3433c0","system_id":"levelo_inurba_marseille","lat":43.313291,"lon":5.396838,"is_reserved":false,"is_disabled":false,"rental_uris":{"android":"levelo://app?vid=e2505d2f-457d-48f2-8e0b-53c53e3433c0","ios":"levelo://app?vid=e2505d2f-457d-48f2-8e0b-53c53e3433c0"},"vehicle_type_id":"4","last_reported":1718222905,"current_range_meters":9600,"station_id":"ce4bgvp2rcd13ifvqcu0","pricing_plan_id":"cebpf4jnsgd1na2vs0mg"},{"bike_id":"5ab10ebb-e534-45a1-97fb-4f33f908508f","system_id":"levelo_inurba_marseille","lat":43.291994,"lon":5.357886,"is_reserved":false,"is_disabled":false,"rental_uris":{"android":"levelo://app?vid=5ab10ebb-e534-45a1-97fb-4f33f908508f","ios":"levelo://app?vid=5ab10ebb-e534-45a1-97fb-4f33f908508f"},"vehicle_type_id":"4","last_reported":1718222905,"current_range_meters":8800,"station_id":"ce4bhb12rcd13ifvqel0","pricing_plan_id":"cebpf4jnsgd1na2vs0mg"},{"bike_id":"2d21517d-e52b-4688-99ab-ca1abd4c8757","system_id":"levelo_inurba_marseille","lat":43.309038,"lon":5.396546,"is_reserved":false,"is_disabled":false,"rental_uris":{"android":"levelo://app?vid=2d21517d-e52b-4688-99ab-ca1abd4c8757","ios":"levelo://app?vid=2d21517d-e52b-4688-99ab-ca1abd4c8757"},"vehicle_type_id":"4","last_reported":1718222905,"current_range_meters":22000,"station_id":"ce4bh012rcd13ifvqcv0","pricing_plan_id":"cebpf4jnsgd1na2vs0mg"},{"bike_id":"6046a4ef-d13f-4418-970a-e47930fdcbdb","system_id":"levelo_inurba_marseille","lat":43.29529,"lon":5.385581,"is_reserved":false,"is_disabled":false,"rental_uris":{"android":"levelo://app?vid=6046a4ef-d13f-4418-970a-e47930fdcbdb","ios":"levelo://app?vid=6046a4ef-d13f-4418-970a-e47930fdcbdb"},"vehicle_type_id":"4","last_reported":1718222905,"current_range_meters":31600,"station_id":"ce4bgih2rcd13ifvqba0","pricing_plan_id":"cebpf4jnsgd1na2vs0mg"},{"bike_id":"bf9b992e-3a46-4402-8ac7-55e08d9e9588","system_id":"levelo_inurba_marseille","lat":43.29529,"lon":5.385581,"is_reserved":false,"is_disabled":false,"rental_uris":{"android":"levelo://app?vid=bf9b992e-3a46-4402-8ac7-55e08d9e9588","ios":"levelo://app?vid=bf9b992e-3a46-4402-8ac7-55e08d9e9588"},"vehicle_type_id":"4","last_reported":1718222905,"current_range_meters":27200,"station_id":"ce4bgih2rcd13ifvqba0","pricing_plan_id":"cebpf4jnsgd1na2vs0mg"},{"bike_id":"f2dd140d-6555-49db-8200-02868e966f47","system_id":"levelo_inurba_marseille","lat":43.29529,"lon":5.385581,"is_reserved":false,"is_disabled":false,"rental_uris":{"android":"levelo://app?vid=f2dd140d-6555-49db-8200-02868e966f47","ios":"levelo://app?vid=f2dd140d-6555-49db-8200-02868e966f47"},"vehicle_type_id":"4","last_reported":1718222905,"current_range_meters":23600,"station_id":"ce4bgih2rcd13ifvqba0","pricing_plan_id":"cebpf4jnsgd1na2vs0mg"},{"bike_id":"99973b41-12f6-466e-a6e0-39521d0ff589","system_id":"levelo_inurba_marseille","lat":43.29529,"lon":5.385581,"is_reserved":false,"is_disabled":false,"rental_uris":{"android":"levelo://app?vid=99973b41-12f6-466e-a6e0-39521d0ff589","ios":"levelo://app?vid=99973b41-12f6-466e-a6e0-39521d0ff589"},"vehicle_type_id":"4","last_reported":1718222905,"current_range_meters":14400,"station_id":"ce4bgih2rcd13ifvqba0","pricing_plan_id":"cebpf4jnsgd1na2vs0mg"},{"bike_id":"db689a8d-2674-4439-bda4-19639f48bd36","system_id":"levelo_inurba_marseille","lat":43.29533,"lon":5.38538,"is_reserved":false,"is_disabled":false,"rental_uris":{"android":"levelo://app?vid=db689a8d-2674-4439-bda4-19639f48bd36","ios":"levelo://app?vid=db689a8d-2674-4439-bda4-19639f48bd36"},"vehicle_type_id":"4","last_reported":1718222905,"current_range_meters":7200,"station_id":"ce4bgih2rcd13ifvqba0","pricing_plan_id":"cebpf4jnsgd1na2vs0mg"},{"bike_id":"7a06206c-ba01-465b-bddb-96d101ed7da3","system_id":"levelo_inurba_marseille","lat":43.29529,"lon":5.385581,"is_reserved":false,"is_disabled":false,"rental_uris":{"android":"levelo://app?vid=7a06206c-ba01-465b-bddb-96d101ed7da3","ios":"levelo://app?vid=7a06206c-ba01-465b-bddb-96d101ed7da3"},"vehicle_type_id":"4","last_reported":1718222905,"current_range_meters":6000,"station_id":"ce4bgih2rcd13ifvqba0","pricing_plan_id":"cebpf4jnsgd1na2vs0mg"},{"bike_id":"64a1c649-daa3-4d58-bfa3-c092ec6a62d2","system_id":"levelo_inurba_marseille","lat":43.29529,"lon":5.385581,"is_reserved":false,"is_disabled":false,"rental_uris":{"android":"levelo://app?vid=64a1c649-daa3-4d58-bfa3-c092ec6a62d2","ios":"levelo://app?vid=64a1c649-daa3-4d58-bfa3-c092ec6a62d2"},"vehicle_type_id":"4","last_reported":1718222905,"current_range_meters":2000,"station_id":"ce4bgih2rcd13ifvqba0","pricing_plan_id":"cebpf4jnsgd1na2vs0mg"},{"bike_id":"b9ce1eb1-3651-4e4d-bac3-6c801c53bea9","system_id":"levelo_inurba_marseille","lat":43.29529,"lon":5.385581,"is_reserved":false,"is_disabled":false,"rental_uris":{"android":"levelo://app?vid=b9ce1eb1-3651-4e4d-bac3-6c801c53bea9","ios":"levelo://app?vid=b9ce1eb1-3651-4e4d-bac3-6c801c53bea9"},"vehicle_type_id":"4","last_reported":1718222905,"current_range_meters":6000,"station_id":"ce4bgih2rcd13ifvqba0","pricing_plan_id":"cebpf4jnsgd1na2vs0mg"},{"bike_id":"2cfcf7b1-38a1-4cee-a7b6-3026c47e8ced","system_id":"levelo_inurba_marseille","lat":43.29529,"lon":5.385581,"is_reserved":false,"is_disabled":false,"rental_uris":{"android":"levelo://app?vid=2cfcf7b1-38a1-4cee-a7b6-3026c47e8ced","ios":"levelo://app?vid=2cfcf7b1-38a1-4cee-a7b6-3026c47e8ced"},"vehicle_type_id":"4","last_reported":1718222905,"current_range_meters":16000,"station_id":"ce4bgih2rcd13ifvqba0","pricing_plan_id":"cebpf4jnsgd1na2vs0mg"},{"bike_id":"12fd81de-9360-441f-9e7a-075b1f11feda","system_id":"levelo_inurba_marseille","lat":43.29529,"lon":5.385581,"is_reserved":false,"is_disabled":false,"rental_uris":{"android":"levelo://app?vid=12fd81de-9360-441f-9e7a-075b1f11feda","ios":"levelo://app?vid=12fd81de-9360-441f-9e7a-075b1f11feda"},"vehicle_type_id":"4","last_reported":1718222905,"current_range_meters":30000,"station_id":"ce4bgih2rcd13ifvqba0","pricing_plan_id":"cebpf4jnsgd1na2vs0mg"},{"bike_id":"89fde135-bc2c-476d-ae3c-bb2c38b360ff","system_id":"levelo_inurba_marseille","lat":43.29529,"lon":5.38546,"is_reserved":false,"is_disabled":false,"rental_uris":{"android":"levelo://app?vid=89fde135-bc2c-476d-ae3c-bb2c38b360ff","ios":"levelo://app?vid=89fde135-bc2c-476d-ae3c-bb2c38b360ff"},"vehicle_type_id":"4","last_reported":1718222905,"current_range_meters":28800,"station_id":"","pricing_plan_id":"cebpf4jnsgd1na2vs0mg"},{"bike_id":"e34db121-685e-4107-b2d1-734a91e453ad","system_id":"levelo_inurba_marseille","lat":43.29529,"lon":5.385581,"is_reserved":false,"is_disabled":false,"rental_uris":{"android":"levelo://app?vid=e34db121-685e-4107-b2d1-734a91e453ad","ios":"levelo://app?vid=e34db121-685e-4107-b2d1-734a91e453ad"},"vehicle_type_id":"4","last_reported":1718222905,"current_range_meters":15200,"station_id":"ce4bgih2rcd13ifvqba0","pricing_plan_id":"cebpf4jnsgd1na2vs0mg"},{"bike_id":"24750e22-915a-437c-b0ef-d90d647e27f6","system_id":"levelo_inurba_marseille","lat":43.29529,"lon":5.385581,"is_reserved":false,"is_disabled":false,"rental_uris":{"android":"levelo://app?vid=24750e22-915a-437c-b0ef-d90d647e27f6","ios":"levelo://app?vid=24750e22-915a-437c-b0ef-d90d647e27f6"},"vehicle_type_id":"4","last_reported":1718222905,"current_range_meters":1600,"station_id":"ce4bgih2rcd13ifvqba0","pricing_plan_id":"cebpf4jnsgd1na2vs0mg"},{"bike_id":"7a93740f-061c-4539-b071-8edca06f9781","system_id":"levelo_inurba_marseille","lat":43.29529,"lon":5.385581,"is_reserved":false,"is_disabled":false,"rental_uris":{"android":"levelo://app?vid=7a93740f-061c-4539-b071-8edca06f9781","ios":"levelo://app?vid=7a93740f-061c-4539-b071-8edca06f9781"},"vehicle_type_id":"4","last_reported":1718222905,"current_range_meters":6000,"station_id":"ce4bgih2rcd13ifvqba0","pricing_plan_id":"cebpf4jnsgd1na2vs0mg"},{"bike_id":"0f2074cd-143a-42b3-9352-ff3d40d496f0","system_id":"levelo_inurba_marseille","lat":43.32692,"lon":5.39022,"is_reserved":false,"is_disabled":false,"rental_uris":{"android":"levelo://app?vid=0f2074cd-143a-42b3-9352-ff3d40d496f0","ios":"levelo://app?vid=0f2074cd-143a-42b3-9352-ff3d40d496f0"},"vehicle_type_id":"4","last_reported":1718222905,"current_range_meters":0,"station_id":"","pricing_plan_id":"cebpf4jnsgd1na2vs0mg"},{"bike_id":"179bee76-2019-4f80-b802-634e22df5e6e","system_id":"levelo_inurba_marseille","lat":43.290779,"lon":5.371482,"is_reserved":false,"is_disabled":false,"rental_uris":{"android":"levelo://app?vid=179bee76-2019-4f80-b802-634e22df5e6e","ios":"levelo://app?vid=179bee76-2019-4f80-b802-634e22df5e6e"},"vehicle_type_id":"4","last_reported":1718222905,"current_range_meters":19200,"station_id":"ce4bh5p2rcd13ifvqe4g","pricing_plan_id":"cebpf4jnsgd1na2vs0mg"},{"bike_id":"29125faf-a855-4796-8d38-98f2f5de50ce","system_id":"levelo_inurba_marseille","lat":43.290779,"lon":5.371482,"is_reserved":false,"is_disabled":false,"rental_uris":{"android":"levelo://app?vid=29125faf-a855-4796-8d38-98f2f5de50ce","ios":"levelo://app?vid=29125faf-a855-4796-8d38-98f2f5de50ce"},"vehicle_type_id":"4","last_reported":1718222905,"current_range_meters":15600,"station_id":"ce4bh5p2rcd13ifvqe4g","pricing_plan_id":"cebpf4jnsgd1na2vs0mg"},{"bike_id":"2fbf7a59-d427-44a2-9c07-b2c59b4c14d9","system_id":"levelo_inurba_marseille","lat":43.290779,"lon":5.371482,"is_reserved":false,"is_disabled":false,"rental_uris":{"android":"levelo://app?vid=2fbf7a59-d427-44a2-9c07-b2c59b4c14d9","ios":"levelo://app?vid=2fbf7a59-d427-44a2-9c07-b2c59b4c14d9"},"vehicle_type_id":"4","last_reported":1718222905,"current_range_meters":8800,"station_id":"ce4bh5p2rcd13ifvqe4g","pricing_plan_id":"cebpf4jnsgd1na2vs0mg"},{"bike_id":"2b6e2bcb-40b3-4813-92ae-b56d2d3a8c4e","system_id":"levelo_inurba_marseille","lat":43.290779,"lon":5.371482,"is_reserved":false,"is_disabled":false,"rental_uris":{"android":"levelo://app?vid=2b6e2bcb-40b3-4813-92ae-b56d2d3a8c4e","ios":"levelo://app?vid=2b6e2bcb-40b3-4813-92ae-b56d2d3a8c4e"},"vehicle_type_id":"4","last_reported":1718222905,"current_range_meters":2400,"station_id":"ce4bh5p2rcd13ifvqe4g","pricing_plan_id":"cebpf4jnsgd1na2vs0mg"},{"bike_id":"541a20eb-7bfe-4ea9-91ef-fbb3e97b18b9","system_id":"levelo_inurba_marseille","lat":43.302008,"lon":5.394694,"is_reserved":false,"is_disabled":false,"rental_uris":{"android":"levelo://app?vid=541a20eb-7bfe-4ea9-91ef-fbb3e97b18b9","ios":"levelo://app?vid=541a20eb-7bfe-4ea9-91ef-fbb3e97b18b9"},"vehicle_type_id":"4","last_reported":1718222905,"current_range_meters":21600,"station_id":"ce4bh0p2rcd13ifvqd70","pricing_plan_id":"cebpf4jnsgd1na2vs0mg"},{"bike_id":"fefcf65c-2bd3-41df-80ef-4df20f2bf619","system_id":"levelo_inurba_marseille","lat":43.290631,"lon":5.359244,"is_reserved":false,"is_disabled":false,"rental_uris":{"android":"levelo://app?vid=fefcf65c-2bd3-41df-80ef-4df20f2bf619","ios":"levelo://app?vid=fefcf65c-2bd3-41df-80ef-4df20f2bf619"},"vehicle_type_id":"4","last_reported":1718222905,"current_range_meters":20400,"station_id":"ce4bha92rcd13ifvqeg0","pricing_plan_id":"cebpf4jnsgd1na2vs0mg"},{"bike_id":"721f7798-543f-43f2-80a4-2d50e62f3e3a","system_id":"levelo_inurba_marseille","lat":43.29325,"lon":5.38374,"is_reserved":false,"is_disabled":false,"rental_uris":{"android":"levelo://app?vid=721f7798-543f-43f2-80a4-2d50e62f3e3a","ios":"levelo://app?vid=721f7798-543f-43f2-80a4-2d50e62f3e3a"},"vehicle_type_id":"4","last_reported":1718222905,"current_range_meters":11600,"station_id":"","pricing_plan_id":"cebpf4jnsgd1na2vs0mg"},{"bike_id":"13e7e595-8e34-4ce8-b863-92250a33c5da","system_id":"levelo_inurba_marseille","lat":43.290631,"lon":5.359244,"is_reserved":false,"is_disabled":false,"rental_uris":{"android":"levelo://app?vid=13e7e595-8e34-4ce8-b863-92250a33c5da","ios":"levelo://app?vid=13e7e595-8e34-4ce8-b863-92250a33c5da"},"vehicle_type_id":"4","last_reported":1718222905,"current_range_meters":25600,"station_id":"ce4bha92rcd13ifvqeg0","pricing_plan_id":"cebpf4jnsgd1na2vs0mg"},{"bike_id":"923766cb-6573-4f35-bddf-2a218a6a4ac1","system_id":"levelo_inurba_marseille","lat":43.29041,"lon":5.37561,"is_reserved":false,"is_disabled":false,"rental_uris":{"android":"levelo://app?vid=923766cb-6573-4f35-bddf-2a218a6a4ac1","ios":"levelo://app?vid=923766cb-6573-4f35-bddf-2a218a6a4ac1"},"vehicle_type_id":"4","last_reported":1718222905,"current_range_meters":0,"station_id":"ce4bh692rcd13ifvqe90","pricing_plan_id":"cebpf4jnsgd1na2vs0mg"},{"bike_id":"821f9833-17e4-4024-83c4-cf40a190f95c","system_id":"levelo_inurba_marseille","lat":43.294153,"lon":5.386305,"is_reserved":false,"is_disabled":false,"rental_uris":{"android":"levelo://app?vid=821f9833-17e4-4024-83c4-cf40a190f95c","ios":"levelo://app?vid=821f9833-17e4-4024-83c4-cf40a190f95c"},"vehicle_type_id":"4","last_reported":1718222905,"current_range_meters":6400,"station_id":"ce4bh2h2rcd13ifvqdh0","pricing_plan_id":"cebpf4jnsgd1na2vs0mg"},{"bike_id":"4d25a747-aa08-4f83-ae0d-98bda0eed65c","system_id":"levelo_inurba_marseille","lat":43.29419,"lon":5.38614,"is_reserved":false,"is_disabled":false,"rental_uris":{"android":"levelo://app?vid=4d25a747-aa08-4f83-ae0d-98bda0eed65c","ios":"levelo://app?vid=4d25a747-aa08-4f83-ae0d-98bda0eed65c"},"vehicle_type_id":"4","last_reported":1718222905,"current_range_meters":22400,"station_id":"ce4bh2h2rcd13ifvqdh0","pricing_plan_id":"cebpf4jnsgd1na2vs0mg"},{"bike_id":"e7d9f961-1fd8-42bd-b3a8-d68bd80fc5a0","system_id":"levelo_inurba_marseille","lat":43.29419,"lon":5.38615,"is_reserved":false,"is_disabled":false,"rental_uris":{"android":"levelo://app?vid=e7d9f961-1fd8-42bd-b3a8-d68bd80fc5a0","ios":"levelo://app?vid=e7d9f961-1fd8-42bd-b3a8-d68bd80fc5a0"},"vehicle_type_id":"4","last_reported":1718222905,"current_range_meters":25600,"station_id":"ce4bh2h2rcd13ifvqdh0","pricing_plan_id":"cebpf4jnsgd1na2vs0mg"},{"bike_id":"4f4129d9-35f9-4d5b-b4ee-df193b9f5b08","system_id":"levelo_inurba_marseille","lat":43.29419,"lon":5.38617,"is_reserved":false,"is_disabled":false,"rental_uris":{"android":"levelo://app?vid=4f4129d9-35f9-4d5b-b4ee-df193b9f5b08","ios":"levelo://app?vid=4f4129d9-35f9-4d5b-b4ee-df193b9f5b08"},"vehicle_type_id":"4","last_reported":1718222905,"current_range_meters":9200,"station_id":"ce4bh2h2rcd13ifvqdh0","pricing_plan_id":"cebpf4jnsgd1na2vs0mg"},{"bike_id":"9e883490-a106-4253-8971-9c7d671f29cc","system_id":"levelo_inurba_marseille","lat":43.294153,"lon":5.386305,"is_reserved":false,"is_disabled":false,"rental_uris":{"android":"levelo://app?vid=9e883490-a106-4253-8971-9c7d671f29cc","ios":"levelo://app?vid=9e883490-a106-4253-8971-9c7d671f29cc"},"vehicle_type_id":"4","last_reported":1718222905,"current_range_meters":31600,"station_id":"ce4bh2h2rcd13ifvqdh0","pricing_plan_id":"cebpf4jnsgd1na2vs0mg"},{"bike_id":"4cf331ad-df4b-4e1b-b286-0e21331d7579","system_id":"levelo_inurba_marseille","lat":43.2942,"lon":5.38622,"is_reserved":false,"is_disabled":false,"rental_uris":{"android":"levelo://app?vid=4cf331ad-df4b-4e1b-b286-0e21331d7579","ios":"levelo://app?vid=4cf331ad-df4b-4e1b-b286-0e21331d7579"},"vehicle_type_id":"4","last_reported":1718222905,"current_range_meters":28800,"station_id":"ce4bh2h2rcd13ifvqdh0","pricing_plan_id":"cebpf4jnsgd1na2vs0mg"},{"bike_id":"ba4ebdef-7ad9-4eb9-954d-f86486712b73","system_id":"levelo_inurba_marseille","lat":43.29418,"lon":5.38619,"is_reserved":false,"is_disabled":false,"rental_uris":{"android":"levelo://app?vid=ba4ebdef-7ad9-4eb9-954d-f86486712b73","ios":"levelo://app?vid=ba4ebdef-7ad9-4eb9-954d-f86486712b73"},"vehicle_type_id":"4","last_reported":1718222905,"current_range_meters":30000,"station_id":"ce4bh2h2rcd13ifvqdh0","pricing_plan_id":"cebpf4jnsgd1na2vs0mg"},{"bike_id":"6a9971f2-8e30-466a-a339-001b7750e851","system_id":"levelo_inurba_marseille","lat":43.290319,"lon":5.375732,"is_reserved":false,"is_disabled":false,"rental_uris":{"android":"levelo://app?vid=6a9971f2-8e30-466a-a339-001b7750e851","ios":"levelo://app?vid=6a9971f2-8e30-466a-a339-001b7750e851"},"vehicle_type_id":"4","last_reported":1718222905,"current_range_meters":3200,"station_id":"ce4bh692rcd13ifvqe90","pricing_plan_id":"cebpf4jnsgd1na2vs0mg"},{"bike_id":"b8a57c9a-817e-4f72-ade7-5cc4462203cd","system_id":"levelo_inurba_marseille","lat":43.2942,"lon":5.38624,"is_reserved":false,"is_disabled":false,"rental_uris":{"android":"levelo://app?vid=b8a57c9a-817e-4f72-ade7-5cc4462203cd","ios":"levelo://app?vid=b8a57c9a-817e-4f72-ade7-5cc4462203cd"},"vehicle_type_id":"4","last_reported":1718222905,"current_range_meters":22800,"station_id":"ce4bh2h2rcd13ifvqdh0","pricing_plan_id":"cebpf4jnsgd1na2vs0mg"},{"bike_id":"2f77c9a0-9ba6-419d-b05c-34eb3971bedc","system_id":"levelo_inurba_marseille","lat":43.2942,"lon":5.38624,"is_reserved":false,"is_disabled":false,"rental_uris":{"android":"levelo://app?vid=2f77c9a0-9ba6-419d-b05c-34eb3971bedc","ios":"levelo://app?vid=2f77c9a0-9ba6-419d-b05c-34eb3971bedc"},"vehicle_type_id":"4","last_reported":1718222905,"current_range_meters":22000,"station_id":"ce4bh2h2rcd13ifvqdh0","pricing_plan_id":"cebpf4jnsgd1na2vs0mg"},{"bike_id":"165ae216-5f89-4fa0-90e0-aa147a7d3636","system_id":"levelo_inurba_marseille","lat":43.2942,"lon":5.38624,"is_reserved":false,"is_disabled":false,"rental_uris":{"android":"levelo://app?vid=165ae216-5f89-4fa0-90e0-aa147a7d3636","ios":"levelo://app?vid=165ae216-5f89-4fa0-90e0-aa147a7d3636"},"vehicle_type_id":"4","last_reported":1718222905,"current_range_meters":19200,"station_id":"ce4bh2h2rcd13ifvqdh0","pricing_plan_id":"cebpf4jnsgd1na2vs0mg"},{"bike_id":"92ac8e07-795c-4f2b-9976-139672c05424","system_id":"levelo_inurba_marseille","lat":43.29422,"lon":5.38628,"is_reserved":false,"is_disabled":false,"rental_uris":{"android":"levelo://app?vid=92ac8e07-795c-4f2b-9976-139672c05424","ios":"levelo://app?vid=92ac8e07-795c-4f2b-9976-139672c05424"},"vehicle_type_id":"4","last_reported":1718222905,"current_range_meters":28000,"station_id":"ce4bh2h2rcd13ifvqdh0","pricing_plan_id":"cebpf4jnsgd1na2vs0mg"},{"bike_id":"d1d2e69d-7a02-4d68-adca-36555623a7c8","system_id":"levelo_inurba_marseille","lat":43.2942,"lon":5.38625,"is_reserved":false,"is_disabled":false,"rental_uris":{"android":"levelo://app?vid=d1d2e69d-7a02-4d68-adca-36555623a7c8","ios":"levelo://app?vid=d1d2e69d-7a02-4d68-adca-36555623a7c8"},"vehicle_type_id":"4","last_reported":1718222905,"current_range_meters":24000,"station_id":"ce4bh2h2rcd13ifvqdh0","pricing_plan_id":"cebpf4jnsgd1na2vs0mg"},{"bike_id":"e89764f2-26d8-4aaa-ac73-8c2c48684255","system_id":"levelo_inurba_marseille","lat":43.294153,"lon":5.386305,"is_reserved":false,"is_disabled":false,"rental_uris":{"android":"levelo://app?vid=e89764f2-26d8-4aaa-ac73-8c2c48684255","ios":"levelo://app?vid=e89764f2-26d8-4aaa-ac73-8c2c48684255"},"vehicle_type_id":"4","last_reported":1718222905,"current_range_meters":31200,"station_id":"ce4bh2h2rcd13ifvqdh0","pricing_plan_id":"cebpf4jnsgd1na2vs0mg"},{"bike_id":"121471bd-8b4c-4798-8de1-ea39c1be9f1c","system_id":"levelo_inurba_marseille","lat":43.29419,"lon":5.38624,"is_reserved":false,"is_disabled":false,"rental_uris":{"android":"levelo://app?vid=121471bd-8b4c-4798-8de1-ea39c1be9f1c","ios":"levelo://app?vid=121471bd-8b4c-4798-8de1-ea39c1be9f1c"},"vehicle_type_id":"4","last_reported":1718222905,"current_range_meters":11600,"station_id":"ce4bh2h2rcd13ifvqdh0","pricing_plan_id":"cebpf4jnsgd1na2vs0mg"},{"bike_id":"4ae89784-6f15-4e6a-b5ce-0601e608d31b","system_id":"levelo_inurba_marseille","lat":43.29421,"lon":5.38628,"is_reserved":false,"is_disabled":false,"rental_uris":{"android":"levelo://app?vid=4ae89784-6f15-4e6a-b5ce-0601e608d31b","ios":"levelo://app?vid=4ae89784-6f15-4e6a-b5ce-0601e608d31b"},"vehicle_type_id":"4","last_reported":1718222905,"current_range_meters":23200,"station_id":"ce4bh2h2rcd13ifvqdh0","pricing_plan_id":"cebpf4jnsgd1na2vs0mg"},{"bike_id":"30bc9d2d-60ab-43a8-8299-9b033ea41b28","system_id":"levelo_inurba_marseille","lat":43.29418,"lon":5.38623,"is_reserved":false,"is_disabled":false,"rental_uris":{"android":"levelo://app?vid=30bc9d2d-60ab-43a8-8299-9b033ea41b28","ios":"levelo://app?vid=30bc9d2d-60ab-43a8-8299-9b033ea41b28"},"vehicle_type_id":"4","last_reported":1718222905,"current_range_meters":7200,"station_id":"ce4bh2h2rcd13ifvqdh0","pricing_plan_id":"cebpf4jnsgd1na2vs0mg"},{"bike_id":"ba87a993-ff72-4cf3-adb1-a047734eaab4","system_id":"levelo_inurba_marseille","lat":43.29417,"lon":5.38623,"is_reserved":false,"is_disabled":false,"rental_uris":{"android":"levelo://app?vid=ba87a993-ff72-4cf3-adb1-a047734eaab4","ios":"levelo://app?vid=ba87a993-ff72-4cf3-adb1-a047734eaab4"},"vehicle_type_id":"4","last_reported":1718222905,"current_range_meters":31200,"station_id":"ce4bh2h2rcd13ifvqdh0","pricing_plan_id":"cebpf4jnsgd1na2vs0mg"},{"bike_id":"8d0974bf-b0de-487c-afcf-89516b875c57","system_id":"levelo_inurba_marseille","lat":43.29418,"lon":5.38625,"is_reserved":false,"is_disabled":false,"rental_uris":{"android":"levelo://app?vid=8d0974bf-b0de-487c-afcf-89516b875c57","ios":"levelo://app?vid=8d0974bf-b0de-487c-afcf-89516b875c57"},"vehicle_type_id":"4","last_reported":1718222905,"current_range_meters":10000,"station_id":"ce4bh2h2rcd13ifvqdh0","pricing_plan_id":"cebpf4jnsgd1na2vs0mg"},{"bike_id":"c578fdaf-83f2-404a-a59f-15022cd1345c","system_id":"levelo_inurba_marseille","lat":43.294153,"lon":5.386305,"is_reserved":false,"is_disabled":false,"rental_uris":{"android":"levelo://app?vid=c578fdaf-83f2-404a-a59f-15022cd1345c","ios":"levelo://app?vid=c578fdaf-83f2-404a-a59f-15022cd1345c"},"vehicle_type_id":"4","last_reported":1718222905,"current_range_meters":28000,"station_id":"ce4bh2h2rcd13ifvqdh0","pricing_plan_id":"cebpf4jnsgd1na2vs0mg"},{"bike_id":"9b27092a-66e8-4bdd-8fc0-837b50e716f5","system_id":"levelo_inurba_marseille","lat":43.29421,"lon":5.38632,"is_reserved":false,"is_disabled":false,"rental_uris":{"android":"levelo://app?vid=9b27092a-66e8-4bdd-8fc0-837b50e716f5","ios":"levelo://app?vid=9b27092a-66e8-4bdd-8fc0-837b50e716f5"},"vehicle_type_id":"4","last_reported":1718222905,"current_range_meters":14800,"station_id":"ce4bh2h2rcd13ifvqdh0","pricing_plan_id":"cebpf4jnsgd1na2vs0mg"},{"bike_id":"c992ccf5-7cbd-46d4-a2d3-a5120889e35e","system_id":"levelo_inurba_marseille","lat":43.29412,"lon":5.38616,"is_reserved":false,"is_disabled":false,"rental_uris":{"android":"levelo://app?vid=c992ccf5-7cbd-46d4-a2d3-a5120889e35e","ios":"levelo://app?vid=c992ccf5-7cbd-46d4-a2d3-a5120889e35e"},"vehicle_type_id":"4","last_reported":1718222905,"current_range_meters":20400,"station_id":"ce4bh2h2rcd13ifvqdh0","pricing_plan_id":"cebpf4jnsgd1na2vs0mg"},{"bike_id":"286db708-685b-479f-9fa6-c3a01a4ade48","system_id":"levelo_inurba_marseille","lat":43.29417,"lon":5.38626,"is_reserved":false,"is_disabled":false,"rental_uris":{"android":"levelo://app?vid=286db708-685b-479f-9fa6-c3a01a4ade48","ios":"levelo://app?vid=286db708-685b-479f-9fa6-c3a01a4ade48"},"vehicle_type_id":"4","last_reported":1718222905,"current_range_meters":18800,"station_id":"ce4bh2h2rcd13ifvqdh0","pricing_plan_id":"cebpf4jnsgd1na2vs0mg"},{"bike_id":"c05527a6-951b-4d3d-9c6a-aa21d127d0ac","system_id":"levelo_inurba_marseille","lat":43.29417,"lon":5.38627,"is_reserved":false,"is_disabled":false,"rental_uris":{"android":"levelo://app?vid=c05527a6-951b-4d3d-9c6a-aa21d127d0ac","ios":"levelo://app?vid=c05527a6-951b-4d3d-9c6a-aa21d127d0ac"},"vehicle_type_id":"4","last_reported":1718222905,"current_range_meters":8000,"station_id":"ce4bh2h2rcd13ifvqdh0","pricing_plan_id":"cebpf4jnsgd1na2vs0mg"},{"bike_id":"787e5af7-8bf9-45f6-9450-4c15ca00c0a0","system_id":"levelo_inurba_marseille","lat":43.29414,"lon":5.38623,"is_reserved":false,"is_disabled":false,"rental_uris":{"android":"levelo://app?vid=787e5af7-8bf9-45f6-9450-4c15ca00c0a0","ios":"levelo://app?vid=787e5af7-8bf9-45f6-9450-4c15ca00c0a0"},"vehicle_type_id":"4","last_reported":1718222905,"current_range_meters":13600,"station_id":"ce4bh2h2rcd13ifvqdh0","pricing_plan_id":"cebpf4jnsgd1na2vs0mg"},{"bike_id":"ade4ed54-7a60-4642-8bc1-cb886fb37006","system_id":"levelo_inurba_marseille","lat":43.29415,"lon":5.38626,"is_reserved":false,"is_disabled":false,"rental_uris":{"android":"levelo://app?vid=ade4ed54-7a60-4642-8bc1-cb886fb37006","ios":"levelo://app?vid=ade4ed54-7a60-4642-8bc1-cb886fb37006"},"vehicle_type_id":"4","last_reported":1718222905,"current_range_meters":2800,"station_id":"ce4bh2h2rcd13ifvqdh0","pricing_plan_id":"cebpf4jnsgd1na2vs0mg"},{"bike_id":"b72328e9-61ca-41fe-986c-40df169406c6","system_id":"levelo_inurba_marseille","lat":43.29415,"lon":5.3863,"is_reserved":false,"is_disabled":false,"rental_uris":{"android":"levelo://app?vid=b72328e9-61ca-41fe-986c-40df169406c6","ios":"levelo://app?vid=b72328e9-61ca-41fe-986c-40df169406c6"},"vehicle_type_id":"4","last_reported":1718222905,"current_range_meters":13600,"station_id":"ce4bh2h2rcd13ifvqdh0","pricing_plan_id":"cebpf4jnsgd1na2vs0mg"},{"bike_id":"2f9883e5-d718-4549-821a-34e2899406ba","system_id":"levelo_inurba_marseille","lat":43.29412,"lon":5.38627,"is_reserved":false,"is_disabled":false,"rental_uris":{"android":"levelo://app?vid=2f9883e5-d718-4549-821a-34e2899406ba","ios":"levelo://app?vid=2f9883e5-d718-4549-821a-34e2899406ba"},"vehicle_type_id":"4","last_reported":1718222905,"current_range_meters":24000,"station_id":"ce4bh2h2rcd13ifvqdh0","pricing_plan_id":"cebpf4jnsgd1na2vs0mg"},{"bike_id":"2f3cf927-6382-4f09-a672-207705683c22","system_id":"levelo_inurba_marseille","lat":43.29412,"lon":5.38628,"is_reserved":false,"is_disabled":false,"rental_uris":{"android":"levelo://app?vid=2f3cf927-6382-4f09-a672-207705683c22","ios":"levelo://app?vid=2f3cf927-6382-4f09-a672-207705683c22"},"vehicle_type_id":"4","last_reported":1718222905,"current_range_meters":21600,"station_id":"ce4bh2h2rcd13ifvqdh0","pricing_plan_id":"cebpf4jnsgd1na2vs0mg"},{"bike_id":"88ed3061-a688-44f9-9e56-433d4ca9bd32","system_id":"levelo_inurba_marseille","lat":43.289387,"lon":5.366424,"is_reserved":false,"is_disabled":false,"rental_uris":{"android":"levelo://app?vid=88ed3061-a688-44f9-9e56-433d4ca9bd32","ios":"levelo://app?vid=88ed3061-a688-44f9-9e56-433d4ca9bd32"},"vehicle_type_id":"4","last_reported":1718222905,"current_range_meters":0,"station_id":"ce4bhap2rcd13ifvqek0","pricing_plan_id":"cebpf4jnsgd1na2vs0mg"},{"bike_id":"d02f4395-4ae7-45cf-bb7e-5c5a2c11105f","system_id":"levelo_inurba_marseille","lat":43.289184,"lon":5.366408,"is_reserved":false,"is_disabled":false,"rental_uris":{"android":"levelo://app?vid=d02f4395-4ae7-45cf-bb7e-5c5a2c11105f","ios":"levelo://app?vid=d02f4395-4ae7-45cf-bb7e-5c5a2c11105f"},"vehicle_type_id":"4","last_reported":1718222905,"current_range_meters":12000,"station_id":"ce4bhap2rcd13ifvqek0","pricing_plan_id":"cebpf4jnsgd1na2vs0mg"},{"bike_id":"e64e74fc-e488-421c-ae08-e567bbe790ed","system_id":"levelo_inurba_marseille","lat":43.290319,"lon":5.375732,"is_reserved":false,"is_disabled":false,"rental_uris":{"android":"levelo://app?vid=e64e74fc-e488-421c-ae08-e567bbe790ed","ios":"levelo://app?vid=e64e74fc-e488-421c-ae08-e567bbe790ed"},"vehicle_type_id":"4","last_reported":1718222905,"current_range_meters":26800,"station_id":"ce4bh692rcd13ifvqe90","pricing_plan_id":"cebpf4jnsgd1na2vs0mg"},{"bike_id":"0f5836aa-58fc-4290-9e09-d0d87b74863d","system_id":"levelo_inurba_marseille","lat":43.28932,"lon":5.36634,"is_reserved":false,"is_disabled":false,"rental_uris":{"android":"levelo://app?vid=0f5836aa-58fc-4290-9e09-d0d87b74863d","ios":"levelo://app?vid=0f5836aa-58fc-4290-9e09-d0d87b74863d"},"vehicle_type_id":"4","last_reported":1718222905,"current_range_meters":4400,"station_id":"ce4bhap2rcd13ifvqek0","pricing_plan_id":"cebpf4jnsgd1na2vs0mg"},{"bike_id":"e710f3fe-7bd9-4d05-b6c8-9d9c01905540","system_id":"levelo_inurba_marseille","lat":43.289468,"lon":5.363719,"is_reserved":false,"is_disabled":false,"rental_uris":{"android":"levelo://app?vid=e710f3fe-7bd9-4d05-b6c8-9d9c01905540","ios":"levelo://app?vid=e710f3fe-7bd9-4d05-b6c8-9d9c01905540"},"vehicle_type_id":"4","last_reported":1718222905,"current_range_meters":31200,"station_id":"ce4bhc92rcd13ifvqetg","pricing_plan_id":"cebpf4jnsgd1na2vs0mg"},{"bike_id":"d70e96fd-2115-4849-b9e3-ac88b97ed299","system_id":"levelo_inurba_marseille","lat":43.289468,"lon":5.363719,"is_reserved":false,"is_disabled":false,"rental_uris":{"android":"levelo://app?vid=d70e96fd-2115-4849-b9e3-ac88b97ed299","ios":"levelo://app?vid=d70e96fd-2115-4849-b9e3-ac88b97ed299"},"vehicle_type_id":"4","last_reported":1718222905,"current_range_meters":27200,"station_id":"ce4bhc92rcd13ifvqetg","pricing_plan_id":"cebpf4jnsgd1na2vs0mg"},{"bike_id":"4c8d69e2-ea1b-42f1-89a1-1c34b1d41633","system_id":"levelo_inurba_marseille","lat":43.289468,"lon":5.363719,"is_reserved":false,"is_disabled":false,"rental_uris":{"android":"levelo://app?vid=4c8d69e2-ea1b-42f1-89a1-1c34b1d41633","ios":"levelo://app?vid=4c8d69e2-ea1b-42f1-89a1-1c34b1d41633"},"vehicle_type_id":"4","last_reported":1718222905,"current_range_meters":18000,"station_id":"ce4bhc92rcd13ifvqetg","pricing_plan_id":"cebpf4jnsgd1na2vs0mg"},{"bike_id":"35882ec2-d60b-4585-bfde-e91229c73255","system_id":"levelo_inurba_marseille","lat":43.29273,"lon":5.38441,"is_reserved":false,"is_disabled":false,"rental_uris":{"android":"levelo://app?vid=35882ec2-d60b-4585-bfde-e91229c73255","ios":"levelo://app?vid=35882ec2-d60b-4585-bfde-e91229c73255"},"vehicle_type_id":"4","last_reported":1718222905,"current_range_meters":31200,"station_id":"ce4bh692rcd13ifvqea0","pricing_plan_id":"cebpf4jnsgd1na2vs0mg"},{"bike_id":"97ac3ea6-1072-4d59-9173-eb1dee169d2e","system_id":"levelo_inurba_marseille","lat":43.304274,"lon":5.397513,"is_reserved":false,"is_disabled":false,"rental_uris":{"android":"levelo://app?vid=97ac3ea6-1072-4d59-9173-eb1dee169d2e","ios":"levelo://app?vid=97ac3ea6-1072-4d59-9173-eb1dee169d2e"},"vehicle_type_id":"4","last_reported":1718222905,"current_range_meters":27200,"station_id":"ce4bh092rcd13ifvqd20","pricing_plan_id":"cebpf4jnsgd1na2vs0mg"},{"bike_id":"d32d20df-5137-41e0-8551-7895aaf68107","system_id":"levelo_inurba_marseille","lat":43.292642,"lon":5.384254,"is_reserved":false,"is_disabled":false,"rental_uris":{"android":"levelo://app?vid=d32d20df-5137-41e0-8551-7895aaf68107","ios":"levelo://app?vid=d32d20df-5137-41e0-8551-7895aaf68107"},"vehicle_type_id":"4","last_reported":1718222905,"current_range_meters":800,"station_id":"ce4bh692rcd13ifvqea0","pricing_plan_id":"cebpf4jnsgd1na2vs0mg"},{"bike_id":"2190dac9-8d17-418a-a61a-e1d4c8fe6836","system_id":"levelo_inurba_marseille","lat":43.292642,"lon":5.384254,"is_reserved":false,"is_disabled":false,"rental_uris":{"android":"levelo://app?vid=2190dac9-8d17-418a-a61a-e1d4c8fe6836","ios":"levelo://app?vid=2190dac9-8d17-418a-a61a-e1d4c8fe6836"},"vehicle_type_id":"4","last_reported":1718222905,"current_range_meters":400,"station_id":"ce4bh692rcd13ifvqea0","pricing_plan_id":"cebpf4jnsgd1na2vs0mg"},{"bike_id":"57b2074c-6642-453a-a957-b2535b21904d","system_id":"levelo_inurba_marseille","lat":43.292642,"lon":5.384254,"is_reserved":false,"is_disabled":false,"rental_uris":{"android":"levelo://app?vid=57b2074c-6642-453a-a957-b2535b21904d","ios":"levelo://app?vid=57b2074c-6642-453a-a957-b2535b21904d"},"vehicle_type_id":"4","last_reported":1718222905,"current_range_meters":0,"station_id":"ce4bh692rcd13ifvqea0","pricing_plan_id":"cebpf4jnsgd1na2vs0mg"},{"bike_id":"632234f7-6b30-410f-918a-5ebf4bd1618c","system_id":"levelo_inurba_marseille","lat":43.292644,"lon":5.384257,"is_reserved":false,"is_disabled":false,"rental_uris":{"android":"levelo://app?vid=632234f7-6b30-410f-918a-5ebf4bd1618c","ios":"levelo://app?vid=632234f7-6b30-410f-918a-5ebf4bd1618c"},"vehicle_type_id":"4","last_reported":1718222905,"current_range_meters":10400,"station_id":"ce4bh692rcd13ifvqea0","pricing_plan_id":"cebpf4jnsgd1na2vs0mg"},{"bike_id":"f8bde524-4d3c-46f6-b768-78fa0cb66b39","system_id":"levelo_inurba_marseille","lat":43.292644,"lon":5.384257,"is_reserved":false,"is_disabled":false,"rental_uris":{"android":"levelo://app?vid=f8bde524-4d3c-46f6-b768-78fa0cb66b39","ios":"levelo://app?vid=f8bde524-4d3c-46f6-b768-78fa0cb66b39"},"vehicle_type_id":"4","last_reported":1718222905,"current_range_meters":27600,"station_id":"ce4bh692rcd13ifvqea0","pricing_plan_id":"cebpf4jnsgd1na2vs0mg"},{"bike_id":"bf1e2669-8b46-49c7-a05b-28b506ada997","system_id":"levelo_inurba_marseille","lat":43.304296,"lon":5.397513,"is_reserved":false,"is_disabled":false,"rental_uris":{"android":"levelo://app?vid=bf1e2669-8b46-49c7-a05b-28b506ada997","ios":"levelo://app?vid=bf1e2669-8b46-49c7-a05b-28b506ada997"},"vehicle_type_id":"4","last_reported":1718222905,"current_range_meters":4000,"station_id":"ce4bh092rcd13ifvqd20","pricing_plan_id":"cebpf4jnsgd1na2vs0mg"},{"bike_id":"368e7dba-f8e9-4361-8bb9-94d729505c1b","system_id":"levelo_inurba_marseille","lat":43.292642,"lon":5.384254,"is_reserved":false,"is_disabled":false,"rental_uris":{"android":"levelo://app?vid=368e7dba-f8e9-4361-8bb9-94d729505c1b","ios":"levelo://app?vid=368e7dba-f8e9-4361-8bb9-94d729505c1b"},"vehicle_type_id":"4","last_reported":1718222905,"current_range_meters":10800,"station_id":"ce4bh692rcd13ifvqea0","pricing_plan_id":"cebpf4jnsgd1na2vs0mg"},{"bike_id":"c080266f-006d-4888-a53e-a9436c1e5476","system_id":"levelo_inurba_marseille","lat":43.292644,"lon":5.384257,"is_reserved":false,"is_disabled":false,"rental_uris":{"android":"levelo://app?vid=c080266f-006d-4888-a53e-a9436c1e5476","ios":"levelo://app?vid=c080266f-006d-4888-a53e-a9436c1e5476"},"vehicle_type_id":"4","last_reported":1718222905,"current_range_meters":26800,"station_id":"ce4bh692rcd13ifvqea0","pricing_plan_id":"cebpf4jnsgd1na2vs0mg"},{"bike_id":"8beb66f7-fe5f-4a0a-af21-6b2a4e1fd3f6","system_id":"levelo_inurba_marseille","lat":43.292666,"lon":5.384455,"is_reserved":false,"is_disabled":false,"rental_uris":{"android":"levelo://app?vid=8beb66f7-fe5f-4a0a-af21-6b2a4e1fd3f6","ios":"levelo://app?vid=8beb66f7-fe5f-4a0a-af21-6b2a4e1fd3f6"},"vehicle_type_id":"4","last_reported":1718222905,"current_range_meters":29200,"station_id":"ce4bh692rcd13ifvqea0","pricing_plan_id":"cebpf4jnsgd1na2vs0mg"},{"bike_id":"65b32797-6ed5-4b7c-9034-38eb4c170b56","system_id":"levelo_inurba_marseille","lat":43.304274,"lon":5.397513,"is_reserved":false,"is_disabled":false,"rental_uris":{"android":"levelo://app?vid=65b32797-6ed5-4b7c-9034-38eb4c170b56","ios":"levelo://app?vid=65b32797-6ed5-4b7c-9034-38eb4c170b56"},"vehicle_type_id":"4","last_reported":1718222905,"current_range_meters":20400,"station_id":"ce4bh092rcd13ifvqd20","pricing_plan_id":"cebpf4jnsgd1na2vs0mg"},{"bike_id":"5b0b327a-0831-4899-bbc7-570ce785dcf1","system_id":"levelo_inurba_marseille","lat":43.29262,"lon":5.38441,"is_reserved":false,"is_disabled":false,"rental_uris":{"android":"levelo://app?vid=5b0b327a-0831-4899-bbc7-570ce785dcf1","ios":"levelo://app?vid=5b0b327a-0831-4899-bbc7-570ce785dcf1"},"vehicle_type_id":"4","last_reported":1718222905,"current_range_meters":19200,"station_id":"ce4bh692rcd13ifvqea0","pricing_plan_id":"cebpf4jnsgd1na2vs0mg"},{"bike_id":"f8d455b6-7bf1-438c-ac44-ba3e4456e680","system_id":"levelo_inurba_marseille","lat":43.292642,"lon":5.384254,"is_reserved":false,"is_disabled":false,"rental_uris":{"android":"levelo://app?vid=f8d455b6-7bf1-438c-ac44-ba3e4456e680","ios":"levelo://app?vid=f8d455b6-7bf1-438c-ac44-ba3e4456e680"},"vehicle_type_id":"4","last_reported":1718222905,"current_range_meters":18800,"station_id":"ce4bh692rcd13ifvqea0","pricing_plan_id":"cebpf4jnsgd1na2vs0mg"},{"bike_id":"86e5d8f7-84ef-4942-a0c5-af76ce4b2fd6","system_id":"levelo_inurba_marseille","lat":43.292642,"lon":5.384254,"is_reserved":false,"is_disabled":false,"rental_uris":{"android":"levelo://app?vid=86e5d8f7-84ef-4942-a0c5-af76ce4b2fd6","ios":"levelo://app?vid=86e5d8f7-84ef-4942-a0c5-af76ce4b2fd6"},"vehicle_type_id":"4","last_reported":1718222905,"current_range_meters":400,"station_id":"ce4bh692rcd13ifvqea0","pricing_plan_id":"cebpf4jnsgd1na2vs0mg"},{"bike_id":"45987894-ed5d-4a7b-9739-dc6d4a3ea54a","system_id":"levelo_inurba_marseille","lat":43.304274,"lon":5.397513,"is_reserved":false,"is_disabled":false,"rental_uris":{"android":"levelo://app?vid=45987894-ed5d-4a7b-9739-dc6d4a3ea54a","ios":"levelo://app?vid=45987894-ed5d-4a7b-9739-dc6d4a3ea54a"},"vehicle_type_id":"4","last_reported":1718222905,"current_range_meters":22000,"station_id":"ce4bh092rcd13ifvqd20","pricing_plan_id":"cebpf4jnsgd1na2vs0mg"},{"bike_id":"7c0978b7-c0e7-4f42-89fa-5d6d7d778e6d","system_id":"levelo_inurba_marseille","lat":43.292565,"lon":5.384373,"is_reserved":false,"is_disabled":false,"rental_uris":{"android":"levelo://app?vid=7c0978b7-c0e7-4f42-89fa-5d6d7d778e6d","ios":"levelo://app?vid=7c0978b7-c0e7-4f42-89fa-5d6d7d778e6d"},"vehicle_type_id":"4","last_reported":1718222905,"current_range_meters":27200,"station_id":"ce4bh692rcd13ifvqea0","pricing_plan_id":"cebpf4jnsgd1na2vs0mg"},{"bike_id":"247f1e6e-6937-4d05-9703-575baf3f3e0f","system_id":"levelo_inurba_marseille","lat":43.292642,"lon":5.384254,"is_reserved":false,"is_disabled":false,"rental_uris":{"android":"levelo://app?vid=247f1e6e-6937-4d05-9703-575baf3f3e0f","ios":"levelo://app?vid=247f1e6e-6937-4d05-9703-575baf3f3e0f"},"vehicle_type_id":"4","last_reported":1718222905,"current_range_meters":24000,"station_id":"ce4bh692rcd13ifvqea0","pricing_plan_id":"cebpf4jnsgd1na2vs0mg"},{"bike_id":"ba63e12d-bdde-46a3-9696-c1d41a6edf87","system_id":"levelo_inurba_marseille","lat":43.304296,"lon":5.397513,"is_reserved":false,"is_disabled":false,"rental_uris":{"android":"levelo://app?vid=ba63e12d-bdde-46a3-9696-c1d41a6edf87","ios":"levelo://app?vid=ba63e12d-bdde-46a3-9696-c1d41a6edf87"},