{"last_updated":1713104728,"ttl":30,"version":"2.2","data":{"bikes":[{"bike_id":"ec47ca28-cf07-4978-bb60-aa6de8c282cd","system_id":"levelo_inurba_marseille","lat":43.309076,"lon":5.368465,"is_reserved":false,"is_disabled":false,"rental_uris":{"android":"levelo://app?vid=ec47ca28-cf07-4978-bb60-aa6de8c282cd","ios":"levelo://app?vid=ec47ca28-cf07-4978-bb60-aa6de8c282cd"},"vehicle_type_id":"4","last_reported":1713104728,"current_range_meters":1600,"station_id":"ce4bgn92rcd13ifvqbvg","pricing_plan_id":"cebpf4jnsgd1na2vs0mg"},{"bike_id":"2870aed7-6e36-451a-912f-5c08ec138ff0","system_id":"levelo_inurba_marseille","lat":43.30537,"lon":5.367345,"is_reserved":false,"is_disabled":false,"rental_uris":{"android":"levelo://app?vid=2870aed7-6e36-451a-912f-5c08ec138ff0","ios":"levelo://app?vid=2870aed7-6e36-451a-912f-5c08ec138ff0"},"vehicle_type_id":"4","last_reported":1713104728,"current_range_meters":4000,"station_id":"ce4bgrp2rcd13ifvqc9g","pricing_plan_id":"cebpf4jnsgd1na2vs0mg"},{"bike_id":"bd4eb22f-b92e-469a-aedc-fc291d61f069","system_id":"levelo_inurba_marseille","lat":43.30539,"lon":5.36555,"is_reserved":false,"is_disabled":false,"rental_uris":{"android":"levelo://app?vid=bd4eb22f-b92e-469a-aedc-fc291d61f069","ios":"levelo://app?vid=bd4eb22f-b92e-469a-aedc-fc291d61f069"},"vehicle_type_id":"4","last_reported":1713104728,"current_range_meters":0,"station_id":"ce4bgs12rcd13ifvqcag","pricing_plan_id":"cebpf4jnsgd1na2vs0mg"},{"bike_id":"cac1c2cb-6b37-4398-8ce3-1dd3116f3c08","system_id":"levelo_inurba_marseille","lat":43.306477,"lon":5.373597,"is_reserved":false,"is_disabled":false,"rental_uris":{"android":"levelo://app?vid=cac1c2cb-6b37-4398-8ce3-1dd3116f3c08","ios":"levelo://app?vid=cac1c2cb-6b37-4398-8ce3-1dd3116f3c08"},"vehicle_type_id":"4","last_reported":1713104728,"current_range_meters":0,"station_id":"","pricing_plan_id":"cebpf4jnsgd1na2vs0mg"},{"bike_id":"e828a3c6-cd63-4330-9ded-a14e04fe0677","system_id":"levelo_inurba_marseille","lat":43.32231,"lon":5.36762,"is_reserved":false,"is_disabled":false,"rental_uris":{"android":"levelo://app?vid=e828a3c6-cd63-4330-9ded-a14e04fe0677","ios":"levelo://app?vid=e828a3c6-cd63-4330-9ded-a14e04fe0677"},"vehicle_type_id":"4","last_reported":1713104728,"current_range_meters":14000,"station_id":"","pricing_plan_id":"cebpf4jnsgd1na2vs0mg"},{"bike_id":"c973c696-6cf3-4ef6-9922-20142626237f","system_id":"levelo_inurba_marseille","lat":43.30282,"lon":5.37259,"is_reserved":false,"is_disabled":false,"rental_uris":{"android":"levelo://app?vid=c973c696-6cf3-4ef6-9922-20142626237f","ios":"levelo://app?vid=c973c696-6cf3-4ef6-9922-20142626237f"},"vehicle_type_id":"4","last_reported":1713104728,"current_range_meters":11200,"station_id":"","pricing_plan_id":"cebpf4jnsgd1na2vs0mg"},{"bike_id":"8e563b21-226a-422f-b1a1-572a7c6ea516","system_id":"levelo_inurba_marseille","lat":43.301939,"lon":5.366286,"is_reserved":false,"is_disabled":false,"rental_uris":{"android":"levelo://app?vid=8e563b21-226a-422f-b1a1-572a7c6ea516","ios":"levelo://app?vid=8e563b21-226a-422f-b1a1-572a7c6ea516"},"vehicle_type_id":"4","last_reported":1713104728,"current_range_meters":8800,"station_id":"ce4bgrh2rcd13ifvqc8g","pricing_plan_id":"cebpf4jnsgd1na2vs0mg"},{"bike_id":"b16eb00d-a3a0-4206-ba9f-0ec462c6da42","system_id":"levelo_inurba_marseille","lat":43.308012,"lon":5.381511,"is_reserved":false,"is_disabled":false,"rental_uris":{"android":"levelo://app?vid=b16eb00d-a3a0-4206-ba9f-0ec462c6da42","ios":"levelo://app?vid=b16eb00d-a3a0-4206-ba9f-0ec462c6da42"},"vehicle_type_id":"4","last_reported":1713104728,"current_range_meters":9600,"station_id":"ce4bgt12rcd13ifvqce0","pricing_plan_id":"cebpf4jnsgd1na2vs0mg"},{"bike_id":"dcae020d-574d-4a70-a918-5169c280b297","system_id":"levelo_inurba_marseille","lat":43.308012,"lon":5.381511,"is_reserved":false,"is_disabled":false,"rental_uris":{"android":"levelo://app?vid=dcae020d-574d-4a70-a918-5169c280b297","ios":"levelo://app?vid=dcae020d-574d-4a70-a918-5169c280b297"},"vehicle_type_id":"4","last_reported":1713104728,"current_range_meters":17600,"station_id":"ce4bgt12rcd13ifvqce0","pricing_plan_id":"cebpf4jnsgd1na2vs0mg"},{"bike_id":"97c44039-f4ac-4fe4-b8dd-01a72311ed18","system_id":"levelo_inurba_marseille","lat":43.324771,"lon":5.36557,"is_reserved":false,"is_disabled":false,"rental_uris":{"android":"levelo://app?vid=97c44039-f4ac-4fe4-b8dd-01a72311ed18","ios":"levelo://app?vid=97c44039-f4ac-4fe4-b8dd-01a72311ed18"},"vehicle_type_id":"4","last_reported":1713104728,"current_range_meters":11600,"station_id":"ce4bhs12rcd13ifvqhvg","pricing_plan_id":"cebpf4jnsgd1na2vs0mg"},{"bike_id":"f5e8a1e2-5fd8-4dc5-a7c0-73291ce5aeaa","system_id":"levelo_inurba_marseille","lat":43.324771,"lon":5.36557,"is_reserved":false,"is_disabled":false,"rental_uris":{"android":"levelo://app?vid=f5e8a1e2-5fd8-4dc5-a7c0-73291ce5aeaa","ios":"levelo://app?vid=f5e8a1e2-5fd8-4dc5-a7c0-73291ce5aeaa"},"vehicle_type_id":"4","last_reported":1713104728,"current_range_meters":25200,"station_id":"ce4bhs12rcd13ifvqhvg","pricing_plan_id":"cebpf4jnsgd1na2vs0mg"},{"bike_id":"6071613d-36df-487a-ac4c-dff9b3a872df","system_id":"levelo_inurba_marseille","lat":43.324771,"lon":5.36557,"is_reserved":false,"is_disabled":false,"rental_uris":{"android":"levelo://app?vid=6071613d-36df-487a-ac4c-dff9b3a872df","ios":"levelo://app?vid=6071613d-36df-487a-ac4c-dff9b3a872df"},"vehicle_type_id":"4","last_reported":1713104728,"current_range_meters":21200,"station_id":"ce4bhs12rcd13ifvqhvg","pricing_plan_id":"cebpf4jnsgd1na2vs0mg"},{"bike_id":"5f30f4c6-9131-4628-987a-7c3a81e071f7","system_id":"levelo_inurba_marseille","lat":43.302784,"lon":5.377158,"is_reserved":false,"is_disabled":false,"rental_uris":{"android":"levelo://app?vid=5f30f4c6-9131-4628-987a-7c3a81e071f7","ios":"levelo://app?vid=5f30f4c6-9131-4628-987a-7c3a81e071f7"},"vehicle_type_id":"4","last_reported":1713104728,"current_range_meters":15600,"station_id":"ce4bguh2rcd13ifvqcj0","pricing_plan_id":"cebpf4jnsgd1na2vs0mg"},{"bike_id":"2306105b-f3d8-44d8-9336-92d3be482559","system_id":"levelo_inurba_marseille","lat":43.301429,"lon":5.37413,"is_reserved":false,"is_disabled":false,"rental_uris":{"android":"levelo://app?vid=2306105b-f3d8-44d8-9336-92d3be482559","ios":"levelo://app?vid=2306105b-f3d8-44d8-9336-92d3be482559"},"vehicle_type_id":"4","last_reported":1713104728,"current_range_meters":1200,"station_id":"ce4bgs92rcd13ifvqcc0","pricing_plan_id":"cebpf4jnsgd1na2vs0mg"},{"bike_id":"11f79f87-be15-4cf5-abed-a0fc40f9e36e","system_id":"levelo_inurba_marseille","lat":43.31891,"lon":5.38204,"is_reserved":false,"is_disabled":false,"rental_uris":{"android":"levelo://app?vid=11f79f87-be15-4cf5-abed-a0fc40f9e36e","ios":"levelo://app?vid=11f79f87-be15-4cf5-abed-a0fc40f9e36e"},"vehicle_type_id":"4","last_reported":1713104728,"current_range_meters":20000,"station_id":"","pricing_plan_id":"cebpf4jnsgd1na2vs0mg"},{"bike_id":"4909d0c9-49c6-4e86-8432-af7687b7324a","system_id":"levelo_inurba_marseille","lat":43.313571,"lon":5.384829,"is_reserved":false,"is_disabled":false,"rental_uris":{"android":"levelo://app?vid=4909d0c9-49c6-4e86-8432-af7687b7324a","ios":"levelo://app?vid=4909d0c9-49c6-4e86-8432-af7687b7324a"},"vehicle_type_id":"4","last_reported":1713104728,"current_range_meters":6000,"station_id":"ce4bgt92rcd13ifvqcf0","pricing_plan_id":"cebpf4jnsgd1na2vs0mg"},{"bike_id":"5dda0d0a-808a-45c4-a638-e33d34b27bb6","system_id":"levelo_inurba_marseille","lat":43.31167,"lon":5.38723,"is_reserved":false,"is_disabled":false,"rental_uris":{"android":"levelo://app?vid=5dda0d0a-808a-45c4-a638-e33d34b27bb6","ios":"levelo://app?vid=5dda0d0a-808a-45c4-a638-e33d34b27bb6"},"vehicle_type_id":"4","last_reported":1713104728,"current_range_meters":2400,"station_id":"ce4bgv12rcd13ifvqcp0","pricing_plan_id":"cebpf4jnsgd1na2vs0mg"},{"bike_id":"561e2e47-e359-4195-a266-af747fe6dcd9","system_id":"levelo_inurba_marseille","lat":43.322872,"lon":5.382756,"is_reserved":false,"is_disabled":false,"rental_uris":{"android":"levelo://app?vid=561e2e47-e359-4195-a266-af747fe6dcd9","ios":"levelo://app?vid=561e2e47-e359-4195-a266-af747fe6dcd9"},"vehicle_type_id":"4","last_reported":1713104728,"current_range_meters":29600,"station_id":"ce4bhr12rcd13ifvqhqg","pricing_plan_id":"cebpf4jnsgd1na2vs0mg"},{"bike_id":"9decb110-9e9d-4830-9a97-adcc0e390d6c","system_id":"levelo_inurba_marseille","lat":43.322743,"lon":5.382943,"is_reserved":false,"is_disabled":false,"rental_uris":{"android":"levelo://app?vid=9decb110-9e9d-4830-9a97-adcc0e390d6c","ios":"levelo://app?vid=9decb110-9e9d-4830-9a97-adcc0e390d6c"},"vehicle_type_id":"4","last_reported":1713104728,"current_range_meters":0,"station_id":"ce4bhr12rcd13ifvqhqg","pricing_plan_id":"cebpf4jnsgd1na2vs0mg"},{"bike_id":"55146363-71ce-487a-a7b7-1fdcf101ab65","system_id":"levelo_inurba_marseille","lat":43.297163,"lon":5.365866,"is_reserved":false,"is_disabled":false,"rental_uris":{"android":"levelo://app?vid=55146363-71ce-487a-a7b7-1fdcf101ab65","ios":"levelo://app?vid=55146363-71ce-487a-a7b7-1fdcf101ab65"},"vehicle_type_id":"4","last_reported":1713104728,"current_range_meters":10800,"station_id":"ce4bgn12rcd13ifvqbt0","pricing_plan_id":"cebpf4jnsgd1na2vs0mg"},{"bike_id":"63ca407b-919b-4fce-85cd-fff572fb306a","system_id":"levelo_inurba_marseille","lat":43.296131,"lon":5.370773,"is_reserved":false,"is_disabled":false,"rental_uris":{"android":"levelo://app?vid=63ca407b-919b-4fce-85cd-fff572fb306a","ios":"levelo://app?vid=63ca407b-919b-4fce-85cd-fff572fb306a"},"vehicle_type_id":"4","last_reported":1713104728,"current_range_meters":0,"station_id":"ce4bgnh2rcd13ifvqc0g","pricing_plan_id":"cebpf4jnsgd1na2vs0mg"},{"bike_id":"bacba359-aac2-42ec-b0ae-e94404117d39","system_id":"levelo_inurba_marseille","lat":43.29573,"lon":5.367355,"is_reserved":false,"is_disabled":false,"rental_uris":{"android":"levelo://app?vid=bacba359-aac2-42ec-b0ae-e94404117d39","ios":"levelo://app?vid=bacba359-aac2-42ec-b0ae-e94404117d39"},"vehicle_type_id":"4","last_reported":1713104728,"current_range_meters":0,"station_id":"ce4bgph2rcd13ifvqc2g","pricing_plan_id":"cebpf4jnsgd1na2vs0mg"},{"bike_id":"14e07575-5c01-4973-9c34-840794c7de3a","system_id":"levelo_inurba_marseille","lat":43.296921,"lon":5.376579,"is_reserved":false,"is_disabled":false,"rental_uris":{"android":"levelo://app?vid=14e07575-5c01-4973-9c34-840794c7de3a","ios":"levelo://app?vid=14e07575-5c01-4973-9c34-840794c7de3a"},"vehicle_type_id":"4","last_reported":1713104728,"current_range_meters":4000,"station_id":"ce4bgkh2rcd13ifvqbl0","pricing_plan_id":"cebpf4jnsgd1na2vs0mg"},{"bike_id":"a6675ca4-2ccd-4e0e-a481-49695acfb822","system_id":"levelo_inurba_marseille","lat":43.296935,"lon":5.376544,"is_reserved":false,"is_disabled":false,"rental_uris":{"android":"levelo://app?vid=a6675ca4-2ccd-4e0e-a481-49695acfb822","ios":"levelo://app?vid=a6675ca4-2ccd-4e0e-a481-49695acfb822"},"vehicle_type_id":"4","last_reported":1713104728,"current_range_meters":17200,"station_id":"ce4bgkh2rcd13ifvqbl0","pricing_plan_id":"cebpf4jnsgd1na2vs0mg"},{"bike_id":"0536f80f-1475-4016-99ea-a746a2140154","system_id":"levelo_inurba_marseille","lat":43.30965,"lon":5.3903,"is_reserved":false,"is_disabled":false,"rental_uris":{"android":"levelo://app?vid=0536f80f-1475-4016-99ea-a746a2140154","ios":"levelo://app?vid=0536f80f-1475-4016-99ea-a746a2140154"},"vehicle_type_id":"4","last_reported":1713104728,"current_range_meters":14000,"station_id":"ce4bgup2rcd13ifvqco0","pricing_plan_id":"cebpf4jnsgd1na2vs0mg"},{"bike_id":"6234006b-0a32-49e4-a614-df97aeb0e101","system_id":"levelo_inurba_marseille","lat":43.29764,"lon":5.3794,"is_reserved":false,"is_disabled":false,"rental_uris":{"android":"levelo://app?vid=6234006b-0a32-49e4-a614-df97aeb0e101","ios":"levelo://app?vid=6234006b-0a32-49e4-a614-df97aeb0e101"},"vehicle_type_id":"4","last_reported":1713104728,"current_range_meters":23200,"station_id":"","pricing_plan_id":"cebpf4jnsgd1na2vs0mg"},{"bike_id":"dbedc993-1849-43b0-9ff5-155b78dd2925","system_id":"levelo_inurba_marseille","lat":43.29579,"lon":5.37438,"is_reserved":false,"is_disabled":false,"rental_uris":{"android":"levelo://app?vid=dbedc993-1849-43b0-9ff5-155b78dd2925","ios":"levelo://app?vid=dbedc993-1849-43b0-9ff5-155b78dd2925"},"vehicle_type_id":"4","last_reported":1713104728,"current_range_meters":0,"station_id":"","pricing_plan_id":"cebpf4jnsgd1na2vs0mg"},{"bike_id":"7873a10f-379a-4434-baf1-f19aadabee84","system_id":"levelo_inurba_marseille","lat":43.29916,"lon":5.38295,"is_reserved":false,"is_disabled":false,"rental_uris":{"android":"levelo://app?vid=7873a10f-379a-4434-baf1-f19aadabee84","ios":"levelo://app?vid=7873a10f-379a-4434-baf1-f19aadabee84"},"vehicle_type_id":"4","last_reported":1713104728,"current_range_meters":0,"station_id":"","pricing_plan_id":"cebpf4jnsgd1na2vs0mg"},{"bike_id":"8d3c3049-5888-49b5-8a89-11df784165b9","system_id":"levelo_inurba_marseille","lat":43.298037,"lon":5.381066,"is_reserved":false,"is_disabled":false,"rental_uris":{"android":"levelo://app?vid=8d3c3049-5888-49b5-8a89-11df784165b9","ios":"levelo://app?vid=8d3c3049-5888-49b5-8a89-11df784165b9"},"vehicle_type_id":"4","last_reported":1713104728,"current_range_meters":15200,"station_id":"ce4bgip2rcd13ifvqbb0","pricing_plan_id":"cebpf4jnsgd1na2vs0mg"},{"bike_id":"d71ba083-4c19-4cee-9dda-8f4818e28161","system_id":"levelo_inurba_marseille","lat":43.295279,"lon":5.375048,"is_reserved":false,"is_disabled":false,"rental_uris":{"android":"levelo://app?vid=d71ba083-4c19-4cee-9dda-8f4818e28161","ios":"levelo://app?vid=d71ba083-4c19-4cee-9dda-8f4818e28161"},"vehicle_type_id":"4","last_reported":1713104728,"current_range_meters":0,"station_id":"ce4bgkp2rcd13ifvqbmg","pricing_plan_id":"cebpf4jnsgd1na2vs0mg"},{"bike_id":"ea906c1f-9c7b-4480-b470-38b8b9c24e76","system_id":"levelo_inurba_marseille","lat":43.32367,"lon":5.388836,"is_reserved":false,"is_disabled":false,"rental_uris":{"android":"levelo://app?vid=ea906c1f-9c7b-4480-b470-38b8b9c24e76","ios":"levelo://app?vid=ea906c1f-9c7b-4480-b470-38b8b9c24e76"},"vehicle_type_id":"4","last_reported":1713104728,"current_range_meters":18000,"station_id":"ce4bhqp2rcd13ifvqhog","pricing_plan_id":"cebpf4jnsgd1na2vs0mg"},{"bike_id":"64db5306-0891-4c16-8cfb-a26f8cbd6920","system_id":"levelo_inurba_marseille","lat":43.284219,"lon":5.3497,"is_reserved":false,"is_disabled":false,"rental_uris":{"android":"levelo://app?vid=64db5306-0891-4c16-8cfb-a26f8cbd6920","ios":"levelo://app?vid=64db5306-0891-4c16-8cfb-a26f8cbd6920"},"vehicle_type_id":"4","last_reported":1713104728,"current_range_meters":0,"station_id":"ce4bhbh2rcd13ifvqepg","pricing_plan_id":"cebpf4jnsgd1na2vs0mg"},{"bike_id":"e57c4714-49ee-4373-abde-3e83e759c07e","system_id":"levelo_inurba_marseille","lat":43.29273,"lon":5.36839,"is_reserved":false,"is_disabled":false,"rental_uris":{"android":"levelo://app?vid=e57c4714-49ee-4373-abde-3e83e759c07e","ios":"levelo://app?vid=e57c4714-49ee-4373-abde-3e83e759c07e"},"vehicle_type_id":"4","last_reported":1713104728,"current_range_meters":22800,"station_id":"ce4bhbp2rcd13ifvqesg","pricing_plan_id":"cebpf4jnsgd1na2vs0mg"},{"bike_id":"b4cbdbbb-5604-4619-a053-fc9467efe288","system_id":"levelo_inurba_marseille","lat":43.293009,"lon":5.374584,"is_reserved":false,"is_disabled":false,"rental_uris":{"android":"levelo://app?vid=b4cbdbbb-5604-4619-a053-fc9467efe288","ios":"levelo://app?vid=b4cbdbbb-5604-4619-a053-fc9467efe288"},"vehicle_type_id":"4","last_reported":1713104728,"current_range_meters":400,"station_id":"ce4bgi12rcd13ifvqb70","pricing_plan_id":"cebpf4jnsgd1na2vs0mg"},{"bike_id":"6663251a-395d-4ef4-9c01-89a4420aa0d4","system_id":"levelo_inurba_marseille","lat":43.29236,"lon":5.3648,"is_reserved":false,"is_disabled":false,"rental_uris":{"android":"levelo://app?vid=6663251a-395d-4ef4-9c01-89a4420aa0d4","ios":"levelo://app?vid=6663251a-395d-4ef4-9c01-89a4420aa0d4"},"vehicle_type_id":"4","last_reported":1713104728,"current_range_meters":0,"station_id":"","pricing_plan_id":"cebpf4jnsgd1na2vs0mg"},{"bike_id":"cb7d48f3-5660-4579-b1e5-f9e5c9fcfdbd","system_id":"levelo_inurba_marseille","lat":43.305994,"lon":5.393687,"is_reserved":false,"is_disabled":false,"rental_uris":{"android":"levelo://app?vid=cb7d48f3-5660-4579-b1e5-f9e5c9fcfdbd","ios":"levelo://app?vid=cb7d48f3-5660-4579-b1e5-f9e5c9fcfdbd"},"vehicle_type_id":"4","last_reported":1713104728,"current_range_meters":21200,"station_id":"ce4bh0p2rcd13ifvqd80","pricing_plan_id":"cebpf4jnsgd1na2vs0mg"},{"bike_id":"3fb7827b-34c9-4eca-8fc6-e7f10e0608e7","system_id":"levelo_inurba_marseille","lat":43.29301,"lon":5.37867,"is_reserved":false,"is_disabled":false,"rental_uris":{"android":"levelo://app?vid=3fb7827b-34c9-4eca-8fc6-e7f10e0608e7","ios":"levelo://app?vid=3fb7827b-34c9-4eca-8fc6-e7f10e0608e7"},"vehicle_type_id":"4","last_reported":1713104728,"current_range_meters":12000,"station_id":"","pricing_plan_id":"cebpf4jnsgd1na2vs0mg"},{"bike_id":"2745f145-9d10-449c-a53d-d7ec1b9ffe41","system_id":"levelo_inurba_marseille","lat":43.294153,"lon":5.386305,"is_reserved":false,"is_disabled":false,"rental_uris":{"android":"levelo://app?vid=2745f145-9d10-449c-a53d-d7ec1b9ffe41","ios":"levelo://app?vid=2745f145-9d10-449c-a53d-d7ec1b9ffe41"},"vehicle_type_id":"4","last_reported":1713104728,"current_range_meters":0,"station_id":"ce4bh2h2rcd13ifvqdh0","pricing_plan_id":"cebpf4jnsgd1na2vs0mg"},{"bike_id":"496c6e19-6d42-4048-bcc7-08a6ae45a4c2","system_id":"levelo_inurba_marseille","lat":43.290327,"lon":5.375711,"is_reserved":false,"is_disabled":false,"rental_uris":{"android":"levelo://app?vid=496c6e19-6d42-4048-bcc7-08a6ae45a4c2","ios":"levelo://app?vid=496c6e19-6d42-4048-bcc7-08a6ae45a4c2"},"vehicle_type_id":"4","last_reported":1713104728,"current_range_meters":23600,"station_id":"ce4bh692rcd13ifvqe90","pricing_plan_id":"cebpf4jnsgd1na2vs0mg"},{"bike_id":"983d3541-bee0-4218-88fc-6e69be655117","system_id":"levelo_inurba_marseille","lat":43.29264,"lon":5.38444,"is_reserved":false,"is_disabled":false,"rental_uris":{"android":"levelo://app?vid=983d3541-bee0-4218-88fc-6e69be655117","ios":"levelo://app?vid=983d3541-bee0-4218-88fc-6e69be655117"},"vehicle_type_id":"4","last_reported":1713104728,"current_range_meters":0,"station_id":"ce4bh692rcd13ifvqea0","pricing_plan_id":"cebpf4jnsgd1na2vs0mg"},{"bike_id":"1990824d-a33f-41e7-980e-3e8da025bb99","system_id":"levelo_inurba_marseille","lat":43.297855,"lon":5.393421,"is_reserved":false,"is_disabled":false,"rental_uris":{"android":"levelo://app?vid=1990824d-a33f-41e7-980e-3e8da025bb99","ios":"levelo://app?vid=1990824d-a33f-41e7-980e-3e8da025bb99"},"vehicle_type_id":"4","last_reported":1713104728,"current_range_meters":0,"station_id":"chh1huq6cuj3fo74tm60","pricing_plan_id":"cebpf4jnsgd1na2vs0mg"},{"bike_id":"758f2abe-53bb-4512-9c2c-7ed830eb75ca","system_id":"levelo_inurba_marseille","lat":43.295169,"lon":5.390426,"is_reserved":false,"is_disabled":false,"rental_uris":{"android":"levelo://app?vid=758f2abe-53bb-4512-9c2c-7ed830eb75ca","ios":"levelo://app?vid=758f2abe-53bb-4512-9c2c-7ed830eb75ca"},"vehicle_type_id":"4","last_reported":1713104728,"current_range_meters":15600,"station_id":"ce4bh3p2rcd13ifvqdp0","pricing_plan_id":"cebpf4jnsgd1na2vs0mg"},{"bike_id":"6f13d44d-e95b-43f1-822b-6c9eb9d53434","system_id":"levelo_inurba_marseille","lat":43.33025,"lon":5.39045,"is_reserved":false,"is_disabled":false,"rental_uris":{"android":"levelo://app?vid=6f13d44d-e95b-43f1-822b-6c9eb9d53434","ios":"levelo://app?vid=6f13d44d-e95b-43f1-822b-6c9eb9d53434"},"vehicle_type_id":"4","last_reported":1713104728,"current_range_meters":24000,"station_id":"","pricing_plan_id":"cebpf4jnsgd1na2vs0mg"},{"bike_id":"b67b9e09-76c9-44e0-baae-0b6d110718e7","system_id":"levelo_inurba_marseille","lat":43.290094,"lon":5.381264,"is_reserved":false,"is_disabled":false,"rental_uris":{"android":"levelo://app?vid=b67b9e09-76c9-44e0-baae-0b6d110718e7","ios":"levelo://app?vid=b67b9e09-76c9-44e0-baae-0b6d110718e7"},"vehicle_type_id":"4","last_reported":1713104728,"current_range_meters":1200,"station_id":"ce4bh4p2rcd13ifvqe1g","pricing_plan_id":"cebpf4jnsgd1na2vs0mg"},{"bike_id":"3fa5cfc7-4d99-423e-b2eb-c2b2d9554716","system_id":"levelo_inurba_marseille","lat":43.28856,"lon":5.358371,"is_reserved":false,"is_disabled":false,"rental_uris":{"android":"levelo://app?vid=3fa5cfc7-4d99-423e-b2eb-c2b2d9554716","ios":"levelo://app?vid=3fa5cfc7-4d99-423e-b2eb-c2b2d9554716"},"vehicle_type_id":"4","last_reported":1713104728,"current_range_meters":400,"station_id":"ce4bhb12rcd13ifvqem0","pricing_plan_id":"cebpf4jnsgd1na2vs0mg"},{"bike_id":"ebd51adb-c2f3-4d53-bfd5-e37acdfdcae4","system_id":"levelo_inurba_marseille","lat":43.309371,"lon":5.401449,"is_reserved":false,"is_disabled":false,"rental_uris":{"android":"levelo://app?vid=ebd51adb-c2f3-4d53-bfd5-e37acdfdcae4","ios":"levelo://app?vid=ebd51adb-c2f3-4d53-bfd5-e37acdfdcae4"},"vehicle_type_id":"4","last_reported":1713104728,"current_range_meters":0,"station_id":"ce4bgvp2rcd13ifvqct0","pricing_plan_id":"cebpf4jnsgd1na2vs0mg"},{"bike_id":"12ca2f66-096e-4fe2-bd40-2376803af596","system_id":"levelo_inurba_marseille","lat":43.301117,"lon":5.398795,"is_reserved":false,"is_disabled":false,"rental_uris":{"android":"levelo://app?vid=12ca2f66-096e-4fe2-bd40-2376803af596","ios":"levelo://app?vid=12ca2f66-096e-4fe2-bd40-2376803af596"},"vehicle_type_id":"4","last_reported":1713104728,"current_range_meters":22400,"station_id":"ce4bh0h2rcd13ifvqd40","pricing_plan_id":"cebpf4jnsgd1na2vs0mg"},{"bike_id":"6bf95d24-728c-47a3-8ee9-e386e9fdc95a","system_id":"levelo_inurba_marseille","lat":43.292311,"lon":5.360731,"is_reserved":false,"is_disabled":false,"rental_uris":{"android":"levelo://app?vid=6bf95d24-728c-47a3-8ee9-e386e9fdc95a","ios":"levelo://app?vid=6bf95d24-728c-47a3-8ee9-e386e9fdc95a"},"vehicle_type_id":"4","last_reported":1713104728,"current_range_meters":4000,"station_id":"ce4bhbh2rcd13ifvqeqg","pricing_plan_id":"cebpf4jnsgd1na2vs0mg"},{"bike_id":"356780bf-3bfe-471b-949f-2c2f91529719","system_id":"levelo_inurba_marseille","lat":43.286961,"lon":5.373785,"is_reserved":false,"is_disabled":false,"rental_uris":{"android":"levelo://app?vid=356780bf-3bfe-471b-949f-2c2f91529719","ios":"levelo://app?vid=356780bf-3bfe-471b-949f-2c2f91529719"},"vehicle_type_id":"4","last_reported":1713104728,"current_range_meters":28800,"station_id":"ce4bh3p2rcd13ifvqdq0","pricing_plan_id":"cebpf4jnsgd1na2vs0mg"},{"bike_id":"2e290f34-d06b-44e1-8e60-b116aa627e1e","system_id":"levelo_inurba_marseille","lat":43.291994,"lon":5.392907,"is_reserved":false,"is_disabled":false,"rental_uris":{"android":"levelo://app?vid=2e290f34-d06b-44e1-8e60-b116aa627e1e","ios":"levelo://app?vid=2e290f34-d06b-44e1-8e60-b116aa627e1e"},"vehicle_type_id":"4","last_reported":1713104728,"current_range_meters":2800,"station_id":"ce4bh192rcd13ifvqdd0","pricing_plan_id":"cebpf4jnsgd1na2vs0mg"},{"bike_id":"3538321a-c12c-4a78-90b7-c1ea2b587ff7","system_id":"levelo_inurba_marseille","lat":43.284538,"lon":5.358657,"is_reserved":false,"is_disabled":false,"rental_uris":{"android":"levelo://app?vid=3538321a-c12c-4a78-90b7-c1ea2b587ff7","ios":"levelo://app?vid=3538321a-c12c-4a78-90b7-c1ea2b587ff7"},"vehicle_type_id":"4","last_reported":1713104728,"current_range_meters":400,"station_id":"ce4bhah2rcd13ifvqei0","pricing_plan_id":"cebpf4jnsgd1na2vs0mg"},{"bike_id":"ee1387f7-dabc-42d0-afca-77519b04337f","system_id":"levelo_inurba_marseille","lat":43.279952,"lon":5.400085,"is_reserved":false,"is_disabled":false,"rental_uris":{"android":"levelo://app?vid=ee1387f7-dabc-42d0-afca-77519b04337f","ios":"levelo://app?vid=ee1387f7-dabc-42d0-afca-77519b04337f"},"vehicle_type_id":"4","last_reported":1713104728,"current_range_meters":2000,"station_id":"ce4bho92rcd13ifvqh4g","pricing_plan_id":"cebpf4jnsgd1na2vs0mg"},{"bike_id":"0abeef66-40b5-4f1b-bde2-a8bdd4b0c6b7","system_id":"levelo_inurba_marseille","lat":43.28618,"lon":5.35105,"is_reserved":false,"is_disabled":false,"rental_uris":{"android":"levelo://app?vid=0abeef66-40b5-4f1b-bde2-a8bdd4b0c6b7","ios":"levelo://app?vid=0abeef66-40b5-4f1b-bde2-a8bdd4b0c6b7"},"vehicle_type_id":"4","last_reported":1713104728,"current_range_meters":0,"station_id":"ce4bhch2rcd13ifvqeug","pricing_plan_id":"cebpf4jnsgd1na2vs0mg"},{"bike_id":"1bb44cf2-9a86-447e-a5a4-e6ee746db8d0","system_id":"levelo_inurba_marseille","lat":43.285856,"lon":5.350771,"is_reserved":false,"is_disabled":false,"rental_uris":{"android":"levelo://app?vid=1bb44cf2-9a86-447e-a5a4-e6ee746db8d0","ios":"levelo://app?vid=1bb44cf2-9a86-447e-a5a4-e6ee746db8d0"},"vehicle_type_id":"4","last_reported":1713104728,"current_range_meters":23200,"station_id":"ce4bhch2rcd13ifvqeug","pricing_plan_id":"cebpf4jnsgd1na2vs0mg"},{"bike_id":"46cea04d-2d2d-41f4-b1f8-4ce77b335bfc","system_id":"levelo_inurba_marseille","lat":43.239588,"lon":5.366238,"is_reserved":false,"is_disabled":false,"rental_uris":{"android":"levelo://app?vid=46cea04d-2d2d-41f4-b1f8-4ce77b335bfc","ios":"levelo://app?vid=46cea04d-2d2d-41f4-b1f8-4ce77b335bfc"},"vehicle_type_id":"4","last_reported":1713104728,"current_range_meters":13600,"station_id":"ce4bhi12rcd13ifvqfp0","pricing_plan_id":"cebpf4jnsgd1na2vs0mg"},{"bike_id":"911c94ba-1f59-4a59-9bf1-c8db9823aa26","system_id":"levelo_inurba_marseille","lat":43.285856,"lon":5.350771,"is_reserved":false,"is_disabled":false,"rental_uris":{"android":"levelo://app?vid=911c94ba-1f59-4a59-9bf1-c8db9823aa26","ios":"levelo://app?vid=911c94ba-1f59-4a59-9bf1-c8db9823aa26"},"vehicle_type_id":"4","last_reported":1713104728,"current_range_meters":7600,"station_id":"ce4bhch2rcd13ifvqeug","pricing_plan_id":"cebpf4jnsgd1na2vs0mg"},{"bike_id":"344b9284-d76e-4a2d-8eae-3c9d506a910e","system_id":"levelo_inurba_marseille","lat":43.286961,"lon":5.373785,"is_reserved":false,"is_disabled":false,"rental_uris":{"android":"levelo://app?vid=344b9284-d76e-4a2d-8eae-3c9d506a910e","ios":"levelo://app?vid=344b9284-d76e-4a2d-8eae-3c9d506a910e"},"vehicle_type_id":"4","last_reported":1713104728,"current_range_meters":20000,"station_id":"ce4bh3p2rcd13ifvqdq0","pricing_plan_id":"cebpf4jnsgd1na2vs0mg"},{"bike_id":"5891de92-74a0-441b-a940-8f67ea93e463","system_id":"levelo_inurba_marseille","lat":43.283998,"lon":5.375062,"is_reserved":false,"is_disabled":false,"rental_uris":{"android":"levelo://app?vid=5891de92-74a0-441b-a940-8f67ea93e463","ios":"levelo://app?vid=5891de92-74a0-441b-a940-8f67ea93e463"},"vehicle_type_id":"4","last_reported":1713104728,"current_range_meters":0,"station_id":"ce4bh412rcd13ifvqds0","pricing_plan_id":"cebpf4jnsgd1na2vs0mg"},{"bike_id":"92ab272e-b940-434c-b7df-4a6f2b7f68e3","system_id":"levelo_inurba_marseille","lat":43.28614,"lon":5.35091,"is_reserved":false,"is_disabled":false,"rental_uris":{"android":"levelo://app?vid=92ab272e-b940-434c-b7df-4a6f2b7f68e3","ios":"levelo://app?vid=92ab272e-b940-434c-b7df-4a6f2b7f68e3"},"vehicle_type_id":"4","last_reported":1713104728,"current_range_meters":24800,"station_id":"ce4bhch2rcd13ifvqeug","pricing_plan_id":"cebpf4jnsgd1na2vs0mg"},{"bike_id":"d1261d9a-1162-4d32-a514-fff56f6db6d7","system_id":"levelo_inurba_marseille","lat":43.283998,"lon":5.375062,"is_reserved":false,"is_disabled":false,"rental_uris":{"android":"levelo://app?vid=d1261d9a-1162-4d32-a514-fff56f6db6d7","ios":"levelo://app?vid=d1261d9a-1162-4d32-a514-fff56f6db6d7"},"vehicle_type_id":"4","last_reported":1713104728,"current_range_meters":0,"station_id":"ce4bh412rcd13ifvqds0","pricing_plan_id":"cebpf4jnsgd1na2vs0mg"},{"bike_id":"b7fcf5c7-d052-455d-80d0-61be026ffaf3","system_id":"levelo_inurba_marseille","lat":43.283998,"lon":5.375062,"is_reserved":false,"is_disabled":false,"rental_uris":{"android":"levelo://app?vid=b7fcf5c7-d052-455d-80d0-61be026ffaf3","ios":"levelo://app?vid=b7fcf5c7-d052-455d-80d0-61be026ffaf3"},"vehicle_type_id":"4","last_reported":1713104728,"current_range_meters":1600,"station_id":"ce4bh412rcd13ifvqds0","pricing_plan_id":"cebpf4jnsgd1na2vs0mg"},{"bike_id":"1f4933db-bacc-45a0-afdf-1098affc6efe","system_id":"levelo_inurba_marseille","lat":43.295713,"lon":5.399639,"is_reserved":false,"is_disabled":false,"rental_uris":{"android":"levelo://app?vid=1f4933db-bacc-45a0-afdf-1098affc6efe","ios":"levelo://app?vid=1f4933db-bacc-45a0-afdf-1098affc6efe"},"vehicle_type_id":"4","last_reported":1713104728,"current_range_meters":0,"station_id":"ce4bh312rcd13ifvqdj0","pricing_plan_id":"cebpf4jnsgd1na2vs0mg"},{"bike_id":"ae409f41-c4bc-4e8a-8750-54443190daf9","system_id":"levelo_inurba_marseille","lat":43.284538,"lon":5.358657,"is_reserved":false,"is_disabled":false,"rental_uris":{"android":"levelo://app?vid=ae409f41-c4bc-4e8a-8750-54443190daf9","ios":"levelo://app?vid=ae409f41-c4bc-4e8a-8750-54443190daf9"},"vehicle_type_id":"4","last_reported":1713104728,"current_range_meters":1600,"station_id":"ce4bhah2rcd13ifvqei0","pricing_plan_id":"cebpf4jnsgd1na2vs0mg"},{"bike_id":"7949d55e-0416-4d83-b0e1-eb7d795a84a7","system_id":"levelo_inurba_marseille","lat":43.286595,"lon":5.386795,"is_reserved":false,"is_disabled":false,"rental_uris":{"android":"levelo://app?vid=7949d55e-0416-4d83-b0e1-eb7d795a84a7","ios":"levelo://app?vid=7949d55e-0416-4d83-b0e1-eb7d795a84a7"},"vehicle_type_id":"4","last_reported":1713104728,"current_range_meters":14000,"station_id":"ce4bh492rcd13ifvqdug","pricing_plan_id":"cebpf4jnsgd1na2vs0mg"},{"bike_id":"4f00930c-df1b-43ed-b881-e16f0c69dd79","system_id":"levelo_inurba_marseille","lat":43.284787,"lon":5.384116,"is_reserved":false,"is_disabled":false,"rental_uris":{"android":"levelo://app?vid=4f00930c-df1b-43ed-b881-e16f0c69dd79","ios":"levelo://app?vid=4f00930c-df1b-43ed-b881-e16f0c69dd79"},"vehicle_type_id":"4","last_reported":1713104728,"current_range_meters":11200,"station_id":"ce4bh512rcd13ifvqe3g","pricing_plan_id":"cebpf4jnsgd1na2vs0mg"},{"bike_id":"3761f963-5776-405b-a6ab-447a9544a416","system_id":"levelo_inurba_marseille","lat":43.297946,"lon":5.404063,"is_reserved":false,"is_disabled":false,"rental_uris":{"android":"levelo://app?vid=3761f963-5776-405b-a6ab-447a9544a416","ios":"levelo://app?vid=3761f963-5776-405b-a6ab-447a9544a416"},"vehicle_type_id":"4","last_reported":1713104728,"current_range_meters":0,"station_id":"ce4bh112rcd13ifvqd90","pricing_plan_id":"cebpf4jnsgd1na2vs0mg"},{"bike_id":"4231e44f-6e64-47d9-802b-1946e9c53ecf","system_id":"levelo_inurba_marseille","lat":43.32532,"lon":5.40558,"is_reserved":false,"is_disabled":false,"rental_uris":{"android":"levelo://app?vid=4231e44f-6e64-47d9-802b-1946e9c53ecf","ios":"levelo://app?vid=4231e44f-6e64-47d9-802b-1946e9c53ecf"},"vehicle_type_id":"4","last_reported":1713104728,"current_range_meters":1200,"station_id":"","pricing_plan_id":"cebpf4jnsgd1na2vs0mg"},{"bike_id":"d9ca1156-ced6-4c3a-8439-a241fabfb770","system_id":"levelo_inurba_marseille","lat":43.32533,"lon":5.40562,"is_reserved":false,"is_disabled":false,"rental_uris":{"android":"levelo://app?vid=d9ca1156-ced6-4c3a-8439-a241fabfb770","ios":"levelo://app?vid=d9ca1156-ced6-4c3a-8439-a241fabfb770"},"vehicle_type_id":"4","last_reported":1713104728,"current_range_meters":5200,"station_id":"","pricing_plan_id":"cebpf4jnsgd1na2vs0mg"},{"bike_id":"16354239-de35-43ca-875c-92bb4a5ace82","system_id":"levelo_inurba_marseille","lat":43.32534,"lon":5.40567,"is_reserved":false,"is_disabled":false,"rental_uris":{"android":"levelo://app?vid=16354239-de35-43ca-875c-92bb4a5ace82","ios":"levelo://app?vid=16354239-de35-43ca-875c-92bb4a5ace82"},"vehicle_type_id":"4","last_reported":1713104728,"current_range_meters":20400,"station_id":"","pricing_plan_id":"cebpf4jnsgd1na2vs0mg"},{"bike_id":"3fe78a67-856b-4499-9fd1-a518aeb2aba1","system_id":"levelo_inurba_marseille","lat":43.283494,"lon":5.380945,"is_reserved":false,"is_disabled":false,"rental_uris":{"android":"levelo://app?vid=3fe78a67-856b-4499-9fd1-a518aeb2aba1","ios":"levelo://app?vid=3fe78a67-856b-4499-9fd1-a518aeb2aba1"},"vehicle_type_id":"4","last_reported":1713104728,"current_range_meters":0,"station_id":"ce4bh412rcd13ifvqdr0","pricing_plan_id":"cebpf4jnsgd1na2vs0mg"},{"bike_id":"0aeee4eb-6f6d-4b6c-b248-a72524a03c97","system_id":"levelo_inurba_marseille","lat":43.283494,"lon":5.380945,"is_reserved":false,"is_disabled":false,"rental_uris":{"android":"levelo://app?vid=0aeee4eb-6f6d-4b6c-b248-a72524a03c97","ios":"levelo://app?vid=0aeee4eb-6f6d-4b6c-b248-a72524a03c97"},"vehicle_type_id":"4","last_reported":1713104728,"current_range_meters":16800,"station_id":"ce4bh412rcd13ifvqdr0","pricing_plan_id":"cebpf4jnsgd1na2vs0mg"},{"bike_id":"2b38f887-8705-4613-9b4a-22f88fcc66e3","system_id":"levelo_inurba_marseille","lat":43.282744,"lon":5.350533,"is_reserved":false,"is_disabled":false,"rental_uris":{"android":"levelo://app?vid=2b38f887-8705-4613-9b4a-22f88fcc66e3","ios":"levelo://app?vid=2b38f887-8705-4613-9b4a-22f88fcc66e3"},"vehicle_type_id":"4","last_reported":1713104728,"current_range_meters":2800,"station_id":"ce4bhbp2rcd13ifvqerg","pricing_plan_id":"cebpf4jnsgd1na2vs0mg"},{"bike_id":"1332d472-4094-4420-9b83-196a412cdd64","system_id":"levelo_inurba_marseille","lat":43.28426,"lon":5.3499,"is_reserved":false,"is_disabled":false,"rental_uris":{"android":"levelo://app?vid=1332d472-4094-4420-9b83-196a412cdd64","ios":"levelo://app?vid=1332d472-4094-4420-9b83-196a412cdd64"},"vehicle_type_id":"4","last_reported":1713104728,"current_range_meters":17600,"station_id":"ce4bhbh2rcd13ifvqepg","pricing_plan_id":"cebpf4jnsgd1na2vs0mg"},{"bike_id":"5cea5d1f-42e4-40d5-9664-1a2e43e37e68","system_id":"levelo_inurba_marseille","lat":43.284219,"lon":5.3497,"is_reserved":false,"is_disabled":false,"rental_uris":{"android":"levelo://app?vid=5cea5d1f-42e4-40d5-9664-1a2e43e37e68","ios":"levelo://app?vid=5cea5d1f-42e4-40d5-9664-1a2e43e37e68"},"vehicle_type_id":"4","last_reported":1713104728,"current_range_meters":22000,"station_id":"ce4bhbh2rcd13ifvqepg","pricing_plan_id":"cebpf4jnsgd1na2vs0mg"},{"bike_id":"a78426c4-afc3-4a0c-b292-1d3a8f952312","system_id":"levelo_inurba_marseille","lat":43.284255,"lon":5.349893,"is_reserved":false,"is_disabled":false,"rental_uris":{"android":"levelo://app?vid=a78426c4-afc3-4a0c-b292-1d3a8f952312","ios":"levelo://app?vid=a78426c4-afc3-4a0c-b292-1d3a8f952312"},"vehicle_type_id":"4","last_reported":1713104728,"current_range_meters":8000,"station_id":"ce4bhbh2rcd13ifvqepg","pricing_plan_id":"cebpf4jnsgd1na2vs0mg"},{"bike_id":"5c4b01aa-5f42-46f3-8dc9-0a8d7628b592","system_id":"levelo_inurba_marseille","lat":43.284243,"lon":5.349899,"is_reserved":false,"is_disabled":false,"rental_uris":{"android":"levelo://app?vid=5c4b01aa-5f42-46f3-8dc9-0a8d7628b592","ios":"levelo://app?vid=5c4b01aa-5f42-46f3-8dc9-0a8d7628b592"},"vehicle_type_id":"4","last_reported":1713104728,"current_range_meters":26000,"station_id":"ce4bhbh2rcd13ifvqepg","pricing_plan_id":"cebpf4jnsgd1na2vs0mg"},{"bike_id":"068c77c9-cca6-4c8d-a5f9-c40763e25b0d","system_id":"levelo_inurba_marseille","lat":43.28425,"lon":5.34987,"is_reserved":false,"is_disabled":false,"rental_uris":{"android":"levelo://app?vid=068c77c9-cca6-4c8d-a5f9-c40763e25b0d","ios":"levelo://app?vid=068c77c9-cca6-4c8d-a5f9-c40763e25b0d"},"vehicle_type_id":"4","last_reported":1713104728,"current_range_meters":4400,"station_id":"ce4bhbh2rcd13ifvqepg","pricing_plan_id":"cebpf4jnsgd1na2vs0mg"},{"bike_id":"660c593e-0717-4969-ab02-a2c617e275f4","system_id":"levelo_inurba_marseille","lat":43.28423,"lon":5.34992,"is_reserved":false,"is_disabled":false,"rental_uris":{"android":"levelo://app?vid=660c593e-0717-4969-ab02-a2c617e275f4","ios":"levelo://app?vid=660c593e-0717-4969-ab02-a2c617e275f4"},"vehicle_type_id":"4","last_reported":1713104728,"current_range_meters":9200,"station_id":"ce4bhbh2rcd13ifvqepg","pricing_plan_id":"cebpf4jnsgd1na2vs0mg"},{"bike_id":"0e3a0f43-1cc7-4ad5-a9e2-c4114bcb358c","system_id":"levelo_inurba_marseille","lat":43.28423,"lon":5.34983,"is_reserved":false,"is_disabled":false,"rental_uris":{"android":"levelo://app?vid=0e3a0f43-1cc7-4ad5-a9e2-c4114bcb358c","ios":"levelo://app?vid=0e3a0f43-1cc7-4ad5-a9e2-c4114bcb358c"},"vehicle_type_id":"4","last_reported":1713104728,"current_range_meters":15200,"station_id":"ce4bhbh2rcd13ifvqepg","pricing_plan_id":"cebpf4jnsgd1na2vs0mg"},{"bike_id":"7dba170e-6800-4df9-bd73-250828fcee9a","system_id":"levelo_inurba_marseille","lat":43.28421,"lon":5.34989,"is_reserved":false,"is_disabled":false,"rental_uris":{"android":"levelo://app?vid=7dba170e-6800-4df9-bd73-250828fcee9a","ios":"levelo://app?vid=7dba170e-6800-4df9-bd73-250828fcee9a"},"vehicle_type_id":"4","last_reported":1713104728,"current_range_meters":0,"station_id":"ce4bhbh2rcd13ifvqepg","pricing_plan_id":"cebpf4jnsgd1na2vs0mg"},{"bike_id":"c550122a-f065-456f-8f9d-32657dca51b5","system_id":"levelo_inurba_marseille","lat":43.284223,"lon":5.349801,"is_reserved":false,"is_disabled":false,"rental_uris":{"android":"levelo://app?vid=c550122a-f065-456f-8f9d-32657dca51b5","ios":"levelo://app?vid=c550122a-f065-456f-8f9d-32657dca51b5"},"vehicle_type_id":"4","last_reported":1713104728,"current_range_meters":8000,"station_id":"ce4bhbh2rcd13ifvqepg","pricing_plan_id":"cebpf4jnsgd1na2vs0mg"},{"bike_id":"6cd75571-c0c2-4a40-827b-e1d9c9cba895","system_id":"levelo_inurba_marseille","lat":43.284217,"lon":5.349697,"is_reserved":false,"is_disabled":false,"rental_uris":{"android":"levelo://app?vid=6cd75571-c0c2-4a40-827b-e1d9c9cba895","ios":"levelo://app?vid=6cd75571-c0c2-4a40-827b-e1d9c9cba895"},"vehicle_type_id":"4","last_reported":1713104728,"current_range_meters":2800,"station_id":"ce4bhbh2rcd13ifvqepg","pricing_plan_id":"cebpf4jnsgd1na2vs0mg"},{"bike_id":"795b79c7-d0ef-419d-be69-a9fde20e91ff","system_id":"levelo_inurba_marseille","lat":43.28421,"lon":5.3498,"is_reserved":false,"is_disabled":false,"rental_uris":{"android":"levelo://app?vid=795b79c7-d0ef-419d-be69-a9fde20e91ff","ios":"levelo://app?vid=795b79c7-d0ef-419d-be69-a9fde20e91ff"},"vehicle_type_id":"4","last_reported":1713104728,"current_range_meters":0,"station_id":"ce4bhbh2rcd13ifvqepg","pricing_plan_id":"cebpf4jnsgd1na2vs0mg"},{"bike_id":"96706a9e-4b90-4552-9430-adf2deb70c03","system_id":"levelo_inurba_marseille","lat":43.2842,"lon":5.34983,"is_reserved":false,"is_disabled":false,"rental_uris":{"android":"levelo://app?vid=96706a9e-4b90-4552-9430-adf2deb70c03","ios":"levelo://app?vid=96706a9e-4b90-4552-9430-adf2deb70c03"},"vehicle_type_id":"4","last_reported":1713104728,"current_range_meters":7600,"station_id":"ce4bhbh2rcd13ifvqepg","pricing_plan_id":"cebpf4jnsgd1na2vs0mg"},{"bike_id":"0af2915f-29fd-4896-bf1a-0f88906ce103","system_id":"levelo_inurba_marseille","lat":43.284214,"lon":5.349706,"is_reserved":false,"is_disabled":false,"rental_uris":{"android":"levelo://app?vid=0af2915f-29fd-4896-bf1a-0f88906ce103","ios":"levelo://app?vid=0af2915f-29fd-4896-bf1a-0f88906ce103"},"vehicle_type_id":"4","last_reported":1713104728,"current_range_meters":25600,"station_id":"ce4bhbh2rcd13ifvqepg","pricing_plan_id":"cebpf4jnsgd1na2vs0mg"},{"bike_id":"5cf18cd9-8cd9-4095-aaf3-43656d21e19e","system_id":"levelo_inurba_marseille","lat":43.284197,"lon":5.349835,"is_reserved":false,"is_disabled":false,"rental_uris":{"android":"levelo://app?vid=5cf18cd9-8cd9-4095-aaf3-43656d21e19e","ios":"levelo://app?vid=5cf18cd9-8cd9-4095-aaf3-43656d21e19e"},"vehicle_type_id":"4","last_reported":1713104728,"current_range_meters":29600,"station_id":"ce4bhbh2rcd13ifvqepg","pricing_plan_id":"cebpf4jnsgd1na2vs0mg"},{"bike_id":"4e579d72-72dc-498e-b354-c231ba2706e5","system_id":"levelo_inurba_marseille","lat":43.284219,"lon":5.3497,"is_reserved":false,"is_disabled":false,"rental_uris":{"android":"levelo://app?vid=4e579d72-72dc-498e-b354-c231ba2706e5","ios":"levelo://app?vid=4e579d72-72dc-498e-b354-c231ba2706e5"},"vehicle_type_id":"4","last_reported":1713104728,"current_range_meters":19600,"station_id":"ce4bhbh2rcd13ifvqepg","pricing_plan_id":"cebpf4jnsgd1na2vs0mg"},{"bike_id":"bab079fe-7022-47d7-9612-fa59bab84ca7","system_id":"levelo_inurba_marseille","lat":43.284156,"lon":5.349932,"is_reserved":false,"is_disabled":false,"rental_uris":{"android":"levelo://app?vid=bab079fe-7022-47d7-9612-fa59bab84ca7","ios":"levelo://app?vid=bab079fe-7022-47d7-9612-fa59bab84ca7"},"vehicle_type_id":"4","last_reported":1713104728,"current_range_meters":25200,"station_id":"ce4bhbh2rcd13ifvqepg","pricing_plan_id":"cebpf4jnsgd1na2vs0mg"},{"bike_id":"de3fb13b-65d9-48b6-a0de-847cb95ecc99","system_id":"levelo_inurba_marseille","lat":43.28421,"lon":5.34976,"is_reserved":false,"is_disabled":false,"rental_uris":{"android":"levelo://app?vid=de3fb13b-65d9-48b6-a0de-847cb95ecc99","ios":"levelo://app?vid=de3fb13b-65d9-48b6-a0de-847cb95ecc99"},"vehicle_type_id":"4","last_reported":1713104728,"current_range_meters":0,"station_id":"ce4bhbh2rcd13ifvqepg","pricing_plan_id":"cebpf4jnsgd1na2vs0mg"},{"bike_id":"46b7ce02-9d84-416e-afaf-6c43d0efebc5","system_id":"levelo_inurba_marseille","lat":43.284176,"lon":5.349826,"is_reserved":false,"is_disabled":false,"rental_uris":{"android":"levelo://app?vid=46b7ce02-9d84-416e-afaf-6c43d0efebc5","ios":"levelo://app?vid=46b7ce02-9d84-416e-afaf-6c43d0efebc5"},"vehicle_type_id":"4","last_reported":1713104728,"current_range_meters":28800,"station_id":"ce4bhbh2rcd13ifvqepg","pricing_plan_id":"cebpf4jnsgd1na2vs0mg"},{"bike_id":"c969a8ad-5938-4db9-b144-cf668367094b","system_id":"levelo_inurba_marseille","lat":43.28417,"lon":5.34984,"is_reserved":false,"is_disabled":false,"rental_uris":{"android":"levelo://app?vid=c969a8ad-5938-4db9-b144-cf668367094b","ios":"levelo://app?vid=c969a8ad-5938-4db9-b144-cf668367094b"},"vehicle_type_id":"4","last_reported":1713104728,"current_range_meters":10000,"station_id":"ce4bhbh2rcd13ifvqepg","pricing_plan_id":"cebpf4jnsgd1na2vs0mg"},{"bike_id":"a80308db-2b3b-4c34-8b78-046875c480a2","system_id":"levelo_inurba_marseille","lat":43.28415,"lon":5.34987,"is_reserved":false,"is_disabled":false,"rental_uris":{"android":"levelo://app?vid=a80308db-2b3b-4c34-8b78-046875c480a2","ios":"levelo://app?vid=a80308db-2b3b-4c34-8b78-046875c480a2"},"vehicle_type_id":"4","last_reported":1713104728,"current_range_meters":31600,"station_id":"ce4bhbh2rcd13ifvqepg","pricing_plan_id":"cebpf4jnsgd1na2vs0mg"},{"bike_id":"a2587406-5a63-4c13-81c1-3008caca8ca7","system_id":"levelo_inurba_marseille","lat":43.28414,"lon":5.3499,"is_reserved":false,"is_disabled":false,"rental_uris":{"android":"levelo://app?vid=a2587406-5a63-4c13-81c1-3008caca8ca7","ios":"levelo://app?vid=a2587406-5a63-4c13-81c1-3008caca8ca7"},"vehicle_type_id":"4","last_reported":1713104728,"current_range_meters":8400,"station_id":"ce4bhbh2rcd13ifvqepg","pricing_plan_id":"cebpf4jnsgd1na2vs0mg"},{"bike_id":"039740c3-0e56-441f-8d18-34ad2b6b8922","system_id":"levelo_inurba_marseille","lat":43.28417,"lon":5.3498,"is_reserved":false,"is_disabled":false,"rental_uris":{"android":"levelo://app?vid=039740c3-0e56-441f-8d18-34ad2b6b8922","ios":"levelo://app?vid=039740c3-0e56-441f-8d18-34ad2b6b8922"},"vehicle_type_id":"4","last_reported":1713104728,"current_range_meters":24800,"station_id":"ce4bhbh2rcd13ifvqepg","pricing_plan_id":"cebpf4jnsgd1na2vs0mg"},{"bike_id":"9ea6fc09-bee1-4a79-ac4d-06c29a44f36f","system_id":"levelo_inurba_marseille","lat":43.28415,"lon":5.34984,"is_reserved":false,"is_disabled":false,"rental_uris":{"android":"levelo://app?vid=9ea6fc09-bee1-4a79-ac4d-06c29a44f36f","ios":"levelo://app?vid=9ea6fc09-bee1-4a79-ac4d-06c29a44f36f"},"vehicle_type_id":"4","last_reported":1713104728,"current_range_meters":400,"station_id":"ce4bhbh2rcd13ifvqepg","pricing_plan_id":"cebpf4jnsgd1na2vs0mg"},{"bike_id":"283bbe38-dbdf-4590-8068-853c783375e4","system_id":"levelo_inurba_marseille","lat":43.28416,"lon":5.349803,"is_reserved":false,"is_disabled":false,"rental_uris":{"android":"levelo://app?vid=283bbe38-dbdf-4590-8068-853c783375e4","ios":"levelo://app?vid=283bbe38-dbdf-4590-8068-853c783375e4"},"vehicle_type_id":"4","last_reported":1713104728,"current_range_meters":1200,"station_id":"ce4bhbh2rcd13ifvqepg","pricing_plan_id":"cebpf4jnsgd1na2vs0mg"},{"bike_id":"344b48da-ef8a-4ba1-a9d5-86decf310ca9","system_id":"levelo_inurba_marseille","lat":43.284214,"lon":5.349706,"is_reserved":false,"is_disabled":false,"rental_uris":{"android":"levelo://app?vid=344b48da-ef8a-4ba1-a9d5-86decf310ca9","ios":"levelo://app?vid=344b48da-ef8a-4ba1-a9d5-86decf310ca9"},"vehicle_type_id":"4","last_reported":1713104728,"current_range_meters":0,"station_id":"ce4bhbh2rcd13ifvqepg","pricing_plan_id":"cebpf4jnsgd1na2vs0mg"},{"bike_id":"f476d914-e197-4f9a-a453-386fde46ad13","system_id":"levelo_inurba_marseille","lat":43.28412,"lon":5.3498,"is_reserved":false,"is_disabled":false,"rental_uris":{"android":"levelo://app?vid=f476d914-e197-4f9a-a453-386fde46ad13","ios":"levelo://app?vid=f476d914-e197-4f9a-a453-386fde46ad13"},"vehicle_type_id":"4","last_reported":1713104728,"current_range_meters":6000,"station_id":"ce4bhbh2rcd13ifvqepg","pricing_plan_id":"cebpf4jnsgd1na2vs0mg"},{"bike_id":"93126809-2dd0-4478-85f5-0349a74e21c0","system_id":"levelo_inurba_marseille","lat":43.2841,"lon":5.34985,"is_reserved":false,"is_disabled":false,"rental_uris":{"android":"levelo://app?vid=93126809-2dd0-4478-85f5-0349a74e21c0","ios":"levelo://app?vid=93126809-2dd0-4478-85f5-0349a74e21c0"},"vehicle_type_id":"4","last_reported":1713104728,"current_range_meters":18400,"station_id":"ce4bhbh2rcd13ifvqepg","pricing_plan_id":"cebpf4jnsgd1na2vs0mg"},{"bike_id":"1a02fc51-7dc8-4466-aea2-81709f7ec46d","system_id":"levelo_inurba_marseille","lat":43.284217,"lon":5.349697,"is_reserved":false,"is_disabled":false,"rental_uris":{"android":"levelo://app?vid=1a02fc51-7dc8-4466-aea2-81709f7ec46d","ios":"levelo://app?vid=1a02fc51-7dc8-4466-aea2-81709f7ec46d"},"vehicle_type_id":"4","last_reported":1713104728,"current_range_meters":6400,"station_id":"ce4bhbh2rcd13ifvqepg","pricing_plan_id":"cebpf4jnsgd1na2vs0mg"},{"bike_id":"cf9b0dce-f962-45c7-8f9d-867598fd0c92","system_id":"levelo_inurba_marseille","lat":43.28411,"lon":5.34974,"is_reserved":false,"is_disabled":false,"rental_uris":{"android":"levelo://app?vid=cf9b0dce-f962-45c7-8f9d-867598fd0c92","ios":"levelo://app?vid=cf9b0dce-f962-45c7-8f9d-867598fd0c92"},"vehicle_type_id":"4","last_reported":1713104728,"current_range_meters":15200,"station_id":"ce4bhbh2rcd13ifvqepg","pricing_plan_id":"cebpf4jnsgd1na2vs0mg"},{"bike_id":"2f7c9ad8-3e12-49ce-be2a-318dfa92a84d","system_id":"levelo_inurba_marseille","lat":43.284082,"lon":5.349792,"is_reserved":false,"is_disabled":false,"rental_uris":{"android":"levelo://app?vid=2f7c9ad8-3e12-49ce-be2a-318dfa92a84d","ios":"levelo://app?vid=2f7c9ad8-3e12-49ce-be2a-318dfa92a84d"},"vehicle_type_id":"4","last_reported":1713104728,"current_range_meters":800,"station_id":"ce4bhbh2rcd13ifvqepg","pricing_plan_id":"cebpf4jnsgd1na2vs0mg"},{"bike_id":"c384b320-59c9-4885-8b05-f8e796efb544","system_id":"levelo_inurba_marseille","lat":43.28407,"lon":5.34979,"is_reserved":false,"is_disabled":false,"rental_uris":{"android":"levelo://app?vid=c384b320-59c9-4885-8b05-f8e796efb544","ios":"levelo://app?vid=c384b320-59c9-4885-8b05-f8e796efb544"},"vehicle_type_id":"4","last_reported":1713104728,"current_range_meters":0,"station_id":"ce4bhbh2rcd13ifvqepg","pricing_plan_id":"cebpf4jnsgd1na2vs0mg"},{"bike_id":"db37aebe-570b-4fd4-8b25-8584a7ebd330","system_id":"levelo_inurba_marseille","lat":43.284,"lon":5.349775,"is_reserved":false,"is_disabled":false,"rental_uris":{"android":"levelo://app?vid=db37aebe-570b-4fd4-8b25-8584a7ebd330","ios":"levelo://app?vid=db37aebe-570b-4fd4-8b25-8584a7ebd330"},"vehicle_type_id":"4","last_reported":1713104728,"current_range_meters":22800,"station_id":"ce4bhbh2rcd13ifvqepg","pricing_plan_id":"cebpf4jnsgd1na2vs0mg"},{"bike_id":"c2492caa-a239-43fd-b873-e65b225b56b8","system_id":"levelo_inurba_marseille","lat":43.282744,"lon":5.350533,"is_reserved":false,"is_disabled":false,"rental_uris":{"android":"levelo://app?vid=c2492caa-a239-43fd-b873-e65b225b56b8","ios":"levelo://app?vid=c2492caa-a239-43fd-b873-e65b225b56b8"},"vehicle_type_id":"4","last_reported":1713104728,"current_range_meters":8000,"station_id":"ce4bhbp2rcd13ifvqerg","pricing_plan_id":"cebpf4jnsgd1na2vs0mg"},{"bike_id":"94ef21e0-1d50-48d2-beb0-6d4ac7c82f6b","system_id":"levelo_inurba_marseille","lat":43.28276,"lon":5.35071,"is_reserved":false,"is_disabled":false,"rental_uris":{"android":"levelo://app?vid=94ef21e0-1d50-48d2-beb0-6d4ac7c82f6b","ios":"levelo://app?vid=94ef21e0-1d50-48d2-beb0-6d4ac7c82f6b"},"vehicle_type_id":"4","last_reported":1713104728,"current_range_meters":0,"station_id":"ce4bhbp2rcd13ifvqerg","pricing_plan_id":"cebpf4jnsgd1na2vs0mg"},{"bike_id":"3f28103f-0826-4aa6-b89c-7947b69acc37","system_id":"levelo_inurba_marseille","lat":43.282744,"lon":5.350533,"is_reserved":false,"is_disabled":false,"rental_uris":{"android":"levelo://app?vid=3f28103f-0826-4aa6-b89c-7947b69acc37","ios":"levelo://app?vid=3f28103f-0826-4aa6-b89c-7947b69acc37"},"vehicle_type_id":"4","last_reported":1713104728,"current_range_meters":6800,"station_id":"ce4bhbp2rcd13ifvqerg","pricing_plan_id":"cebpf4jnsgd1na2vs0mg"},{"bike_id":"d60ae90f-320a-4eca-a699-8a137f76a676","system_id":"levelo_inurba_marseille","lat":43.282744,"lon":5.350533,"is_reserved":false,"is_disabled":false,"rental_uris":{"android":"levelo://app?vid=d60ae90f-320a-4eca-a699-8a137f76a676","ios":"levelo://app?vid=d60ae90f-320a-4eca-a699-8a137f76a676"},"vehicle_type_id":"4","last_reported":1713104728,"current_range_meters":28800,"station_id":"ce4bhbp2rcd13ifvqerg","pricing_plan_id":"cebpf4jnsgd1na2vs0mg"},{"bike_id":"b854848f-d59b-4325-a6f4-d16ed58de55a","system_id":"levelo_inurba_marseille","lat":43.28276,"lon":5.3506,"is_reserved":false,"is_disabled":false,"rental_uris":{"android":"levelo://app?vid=b854848f-d59b-4325-a6f4-d16ed58de55a","ios":"levelo://app?vid=b854848f-d59b-4325-a6f4-d16ed58de55a"},"vehicle_type_id":"4","last_reported":1713104728,"current_range_meters":7600,"station_id":"ce4bhbp2rcd13ifvqerg","pricing_plan_id":"cebpf4jnsgd1na2vs0mg"},{"bike_id":"697f1044-3708-4dfb-b858-1e3e95692282","system_id":"levelo_inurba_marseille","lat":43.28276,"lon":5.3506,"is_reserved":false,"is_disabled":false,"rental_uris":{"android":"levelo://app?vid=697f1044-3708-4dfb-b858-1e3e95692282","ios":"levelo://app?vid=697f1044-3708-4dfb-b858-1e3e95692282"},"vehicle_type_id":"4","last_reported":1713104728,"current_range_meters":1600,"station_id":"ce4bhbp2rcd13ifvqerg","pricing_plan_id":"cebpf4jnsgd1na2vs0mg"},{"bike_id":"494783ae-b68b-4de7-8356-8e1e8b4b24ac","system_id":"levelo_inurba_marseille","lat":43.28274,"lon":5.35066,"is_reserved":false,"is_disabled":false,"rental_uris":{"android":"levelo://app?vid=494783ae-b68b-4de7-8356-8e1e8b4b24ac","ios":"levelo://app?vid=494783ae-b68b-4de7-8356-8e1e8b4b24ac"},"vehicle_type_id":"4","last_reported":1713104728,"current_range_meters":0,"station_id":"ce4bhbp2rcd13ifvqerg","pricing_plan_id":"cebpf4jnsgd1na2vs0mg"},{"bike_id":"0603fba7-bd6e-4243-9914-87e68288c005","system_id":"levelo_inurba_marseille","lat":43.282744,"lon":5.350533,"is_reserved":false,"is_disabled":false,"rental_uris":{"android":"levelo://app?vid=0603fba7-bd6e-4243-9914-87e68288c005","ios":"levelo://app?vid=0603fba7-bd6e-4243-9914-87e68288c005"},"vehicle_type_id":"4","last_reported":1713104728,"current_range_meters":28800,"station_id":"ce4bhbp2rcd13ifvqerg","pricing_plan_id":"cebpf4jnsgd1na2vs0mg"},{"bike_id":"0916064e-2787-4834-ae81-2b55e18c22fe","system_id":"levelo_inurba_marseille","lat":43.282744,"lon":5.350533,"is_reserved":false,"is_disabled":false,"rental_uris":{"android":"levelo://app?vid=0916064e-2787-4834-ae81-2b55e18c22fe","ios":"levelo://app?vid=0916064e-2787-4834-ae81-2b55e18c22fe"},"vehicle_type_id":"4","last_reported":1713104728,"current_range_meters":27200,"station_id":"ce4bhbp2rcd13ifvqerg","pricing_plan_id":"cebpf4jnsgd1na2vs0mg"},{"bike_id":"94a8f156-2aae-4961-adf0-5039c1103be0","system_id":"levelo_inurba_marseille","lat":43.282744,"lon":5.350533,"is_reserved":false,"is_disabled":false,"rental_uris":{"android":"levelo://app?vid=94a8f156-2aae-4961-adf0-5039c1103be0","ios":"levelo://app?vid=94a8f156-2aae-4961-adf0-5039c1103be0"},"vehicle_type_id":"4","last_reported":1713104728,"current_range_meters":0,"station_id":"ce4bhbp2rcd13ifvqerg","pricing_plan_id":"cebpf4jnsgd1na2vs0mg"},{"bike_id":"aebf820c-3a0f-4178-92b7-24b4ec6e7531","system_id":"levelo_inurba_marseille","lat":43.282744,"lon":5.350533,"is_reserved":false,"is_disabled":false,"rental_uris":{"android":"levelo://app?vid=aebf820c-3a0f-4178-92b7-24b4ec6e7531","ios":"levelo://app?vid=aebf820c-3a0f-4178-92b7-24b4ec6e7531"},"vehicle_type_id":"4","last_reported":1713104728,"current_range_meters":17600,"station_id":"ce4bhbp2rcd13ifvqerg","pricing_plan_id":"cebpf4jnsgd1na2vs0mg"},{"bike_id":"495fb65b-35e6-427f-aec0-b15317de2c6e","system_id":"levelo_inurba_marseille","lat":43.282733,"lon":5.350567,"is_reserved":false,"is_disabled":false,"rental_uris":{"android":"levelo://app?vid=495fb65b-35e6-427f-aec0-b15317de2c6e","ios":"levelo://app?vid=495fb65b-35e6-427f-aec0-b15317de2c6e"},"vehicle_type_id":"4","last_reported":1713104728,"current_range_meters":0,"station_id":"ce4bhbp2rcd13ifvqerg","pricing_plan_id":"cebpf4jnsgd1na2vs0mg"},{"bike_id":"81a116dd-11a5-41e4-b81a-c68be3eaa0e7","system_id":"levelo_inurba_marseille","lat":43.282744,"lon":5.350533,"is_reserved":false,"is_disabled":false,"rental_uris":{"android":"levelo://app?vid=81a116dd-11a5-41e4-b81a-c68be3eaa0e7","ios":"levelo://app?vid=81a116dd-11a5-41e4-b81a-c68be3eaa0e7"},"vehicle_type_id":"4","last_reported":1713104728,"current_range_meters":27200,"station_id":"ce4bhbp2rcd13ifvqerg","pricing_plan_id":"cebpf4jnsgd1na2vs0mg"},{"bike_id":"1b575c5d-3e31-4ab9-b4a8-ca2ebfb12978","system_id":"levelo_inurba_marseille","lat":43.28266,"lon":5.35079,"is_reserved":false,"is_disabled":false,"rental_uris":{"android":"levelo://app?vid=1b575c5d-3e31-4ab9-b4a8-ca2ebfb12978","ios":"levelo://app?vid=1b575c5d-3e31-4ab9-b4a8-ca2ebfb12978"},"vehicle_type_id":"4","last_reported":1713104728,"current_range_meters":16400,"station_id":"ce4bhbp2rcd13ifvqerg","pricing_plan_id":"cebpf4jnsgd1na2vs0mg"},{"bike_id":"792f06e0-db8d-46a4-909e-0906d81bc571","system_id":"levelo_inurba_marseille","lat":43.28267,"lon":5.35074,"is_reserved":false,"is_disabled":false,"rental_uris":{"android":"levelo://app?vid=792f06e0-db8d-46a4-909e-0906d81bc571","ios":"levelo://app?vid=792f06e0-db8d-46a4-909e-0906d81bc571"},"vehicle_type_id":"4","last_reported":1713104728,"current_range_meters":15200,"station_id":"ce4bhbp2rcd13ifvqerg","pricing_plan_id":"cebpf4jnsgd1na2vs0mg"},{"bike_id":"d8875751-bded-433d-9bdf-1a9dd0207c9f","system_id":"levelo_inurba_marseille","lat":43.301939,"lon":5.366286,"is_reserved":false,"is_disabled":false,"rental_uris":{"android":"levelo://app?vid=d8875751-bded-433d-9bdf-1a9dd0207c9f","ios":"levelo://app?vid=d8875751-bded-433d-9bdf-1a9dd0207c9f"},"vehicle_type_id":"4","last_reported":1713104728,"current_range_meters":19200,"station_id":"ce4bgrh2rcd13ifvqc8g","pricing_plan_id":"cebpf4jnsgd1na2vs0mg"},{"bike_id":"19a185bb-637d-428d-a220-eb47bdac5b54","system_id":"levelo_inurba_marseille","lat":43.28267,"lon":5.35057,"is_reserved":false,"is_disabled":false,"rental_uris":{"android":"levelo://app?vid=19a185bb-637d-428d-a220-eb47bdac5b54","ios":"levelo://app?vid=19a185bb-637d-428d-a220-eb47bdac5b54"},"vehicle_type_id":"4","last_reported":1713104728,"current_range_meters":4400,"station_id":"ce4bhbp2rcd13ifvqerg","pricing_plan_id":"cebpf4jnsgd1na2vs0mg"},{"bike_id":"37bfab25-68b6-4c69-b0c6-980eaa4861e3","system_id":"levelo_inurba_marseille","lat":43.28263,"lon":5.3507,"is_reserved":false,"is_disabled":false,"rental_uris":{"android":"levelo://app?vid=37bfab25-68b6-4c69-b0c6-980eaa4861e3","ios":"levelo://app?vid=37bfab25-68b6-4c69-b0c6-980eaa4861e3"},"vehicle_type_id":"4","last_reported":1713104728,"current_range_meters":0,"station_id":"ce4bhbp2rcd13ifvqerg","pricing_plan_id":"cebpf4jnsgd1na2vs0mg"},{"bike_id":"7820de87-47ea-4326-a295-d052b4b3b500","system_id":"levelo_inurba_marseille","lat":43.281044,"lon":5.378308,"is_reserved":false,"is_disabled":false,"rental_uris":{"android":"levelo://app?vid=7820de87-47ea-4326-a295-d052b4b3b500","ios":"levelo://app?vid=7820de87-47ea-4326-a295-d052b4b3b500"},"vehicle_type_id":"4","last_reported":1713104728,"current_range_meters":14000,"station_id":"ce4bha12rcd13ifvqee0","pricing_plan_id":"cebpf4jnsgd1na2vs0mg"},{"bike_id":"30e249d8-99a7-455a-b432-6192a9986a76","system_id":"levelo_inurba_marseille","lat":43.281044,"lon":5.378308,"is_reserved":false,"is_disabled":false,"rental_uris":{"android":"levelo://app?vid=30e249d8-99a7-455a-b432-6192a9986a76","ios":"levelo://app?vid=30e249d8-99a7-455a-b432-6192a9986a76"},"vehicle_type_id":"4","last_reported":1713104728,"current_range_meters":6400,"station_id":"ce4bha12rcd13ifvqee0","pricing_plan_id":"cebpf4jnsgd1na2vs0mg"},{"bike_id":"c905fccd-ff48-49f0-a7f9-a70179b86a96","system_id":"levelo_inurba_marseille","lat":43.281044,"lon":5.378308,"is_reserved":false,"is_disabled":false,"rental_uris":{"android":"levelo://app?vid=c905fccd-ff48-49f0-a7f9-a70179b86a96","ios":"levelo://app?vid=c905fccd-ff48-49f0-a7f9-a70179b86a96"},"vehicle_type_id":"4","last_reported":1713104728,"current_range_meters":19200,"station_id":"ce4bha12rcd13ifvqee0","pricing_plan_id":"cebpf4jnsgd1na2vs0mg"},{"bike_id":"11790177-16c7-4ae8-aca6-aa918d85223d","system_id":"levelo_inurba_marseille","lat":43.296263,"lon":5.40601,"is_reserved":false,"is_disabled":false,"rental_uris":{"android":"levelo://app?vid=11790177-16c7-4ae8-aca6-aa918d85223d","ios":"levelo://app?vid=11790177-16c7-4ae8-aca6-aa918d85223d"},"vehicle_type_id":"4","last_reported":1713104728,"current_range_meters":800,"station_id":"ce4bh0h2rcd13ifvqd60","pricing_plan_id":"cebpf4jnsgd1na2vs0mg"},{"bike_id":"7e38b240-427c-41fa-8e53-5619c200cbc8","system_id":"levelo_inurba_marseille","lat":43.326605,"lon":5.409903,"is_reserved":false,"is_disabled":false,"rental_uris":{"android":"levelo://app?vid=7e38b240-427c-41fa-8e53-5619c200cbc8","ios":"levelo://app?vid=7e38b240-427c-41fa-8e53-5619c200cbc8"},"vehicle_type_id":"4","last_reported":1713104728,"current_range_meters":19600,"station_id":"ce4bhpp2rcd13ifvqhgg","pricing_plan_id":"cebpf4jnsgd1na2vs0mg"},{"bike_id":"66fe0dd1-d2d5-4488-aac9-fb546a1d5fc0","system_id":"levelo_inurba_marseille","lat":43.326605,"lon":5.409903,"is_reserved":false,"is_disabled":false,"rental_uris":{"android":"levelo://app?vid=66fe0dd1-d2d5-4488-aac9-fb546a1d5fc0","ios":"levelo://app?vid=66fe0dd1-d2d5-4488-aac9-fb546a1d5fc0"},"vehicle_type_id":"4","last_reported":1713104728,"current_range_meters":17600,"station_id":"ce4bhpp2rcd13ifvqhgg","pricing_plan_id":"cebpf4jnsgd1na2vs0mg"},{"bike_id":"aa06c9f5-b521-448c-8187-329b2c9b01e1","system_id":"levelo_inurba_marseille","lat":43.279087,"lon":5.380114,"is_reserved":false,"is_disabled":false,"rental_uris":{"android":"levelo://app?vid=aa06c9f5-b521-448c-8187-329b2c9b01e1","ios":"levelo://app?vid=aa06c9f5-b521-448c-8187-329b2c9b01e1"},"vehicle_type_id":"4","last_reported":1713104728,"current_range_meters":0,"station_id":"ce4bhf92rcd13ifvqf50","pricing_plan_id":"cebpf4jnsgd1na2vs0mg"},{"bike_id":"abdedfbb-fb5d-47e3-a94c-b73cc0e72b34","system_id":"levelo_inurba_marseille","lat":43.275625,"lon":5.384392,"is_reserved":false,"is_disabled":false,"rental_uris":{"android":"levelo://app?vid=abdedfbb-fb5d-47e3-a94c-b73cc0e72b34","ios":"levelo://app?vid=abdedfbb-fb5d-47e3-a94c-b73cc0e72b34"},"vehicle_type_id":"4","last_reported":1713104728,"current_range_meters":4400,"station_id":"ce4bhh92rcd13ifvqfi0","pricing_plan_id":"cebpf4jnsgd1na2vs0mg"},{"bike_id":"447cf028-6a8d-459b-9a4d-6c27a01671cc","system_id":"levelo_inurba_marseille","lat":43.279952,"lon":5.400085,"is_reserved":false,"is_disabled":false,"rental_uris":{"android":"levelo://app?vid=447cf028-6a8d-459b-9a4d-6c27a01671cc","ios":"levelo://app?vid=447cf028-6a8d-459b-9a4d-6c27a01671cc"},"vehicle_type_id":"4","last_reported":1713104728,"current_range_meters":8400,"station_id":"ce4bho92rcd13ifvqh4g","pricing_plan_id":"cebpf4jnsgd1na2vs0mg"},{"bike_id":"2c829fd9-2406-4c8e-9887-a35545468d37","system_id":"levelo_inurba_marseille","lat":43.273613,"lon":5.362705,"is_reserved":false,"is_disabled":false,"rental_uris":{"android":"levelo://app?vid=2c829fd9-2406-4c8e-9887-a35545468d37","ios":"levelo://app?vid=2c829fd9-2406-4c8e-9887-a35545468d37"},"vehicle_type_id":"4","last_reported":1713104728,"current_range_meters":0,"station_id":"ce4bhbh2rcd13ifvqeo0","pricing_plan_id":"cebpf4jnsgd1na2vs0mg"},{"bike_id":"7ba99481-c99d-46b4-93de-936ad9e6ce4e","system_id":"levelo_inurba_marseille","lat":43.311131,"lon":5.377651,"is_reserved":false,"is_disabled":false,"rental_uris":{"android":"levelo://app?vid=7ba99481-c99d-46b4-93de-936ad9e6ce4e","ios":"levelo://app?vid=7ba99481-c99d-46b4-93de-936ad9e6ce4e"},"vehicle_type_id":"4","last_reported":1713104728,"current_range_meters":1600,"station_id":"ce4bgt92rcd13ifvqcg0","pricing_plan_id":"cebpf4jnsgd1na2vs0mg"},{"bike_id":"90f2b659-b1da-4d43-8373-b0ee3de581c5","system_id":"levelo_inurba_marseille","lat":43.292571,"lon":5.409107,"is_reserved":false,"is_disabled":false,"rental_uris":{"android":"levelo://app?vid=90f2b659-b1da-4d43-8373-b0ee3de581c5","ios":"levelo://app?vid=90f2b659-b1da-4d43-8373-b0ee3de581c5"},"vehicle_type_id":"4","last_reported":1713104728,"current_range_meters":2000,"station_id":"ce4bh192rcd13ifvqdc0","pricing_plan_id":"cebpf4jnsgd1na2vs0mg"},{"bike_id":"add572cd-f172-46a8-acc9-68d6a984ba6f","system_id":"levelo_inurba_marseille","lat":43.27621,"lon":5.36114,"is_reserved":false,"is_disabled":false,"rental_uris":{"android":"levelo://app?vid=add572cd-f172-46a8-acc9-68d6a984ba6f","ios":"levelo://app?vid=add572cd-f172-46a8-acc9-68d6a984ba6f"},"vehicle_type_id":"4","last_reported":1713104728,"current_range_meters":0,"station_id":"ce4bgj92rcd13ifvqbe0","pricing_plan_id":"cebpf4jnsgd1na2vs0mg"},{"bike_id":"ae8fa3a0-6e06-4994-b616-23d0ecc628d2","system_id":"levelo_inurba_marseille","lat":43.276179,"lon":5.361009,"is_reserved":false,"is_disabled":false,"rental_uris":{"android":"levelo://app?vid=ae8fa3a0-6e06-4994-b616-23d0ecc628d2","ios":"levelo://app?vid=ae8fa3a0-6e06-4994-b616-23d0ecc628d2"},"vehicle_type_id":"4","last_reported":1713104728,"current_range_meters":12400,"station_id":"ce4bgj92rcd13ifvqbe0","pricing_plan_id":"cebpf4jnsgd1na2vs0mg"},{"bike_id":"4e54a9da-197a-460f-a1ab-723053afd8ef","system_id":"levelo_inurba_marseille","lat":43.301117,"lon":5.398795,"is_reserved":false,"is_disabled":false,"rental_uris":{"android":"levelo://app?vid=4e54a9da-197a-460f-a1ab-723053afd8ef","ios":"levelo://app?vid=4e54a9da-197a-460f-a1ab-723053afd8ef"},"vehicle_type_id":"4","last_reported":1713104728,"current_range_meters":13600,"station_id":"ce4bh0h2rcd13ifvqd40","pricing_plan_id":"cebpf4jnsgd1na2vs0mg"},{"bike_id":"7b7ac10d-566d-4f74-ad10-f13829c719af","system_id":"levelo_inurba_marseille","lat":43.276179,"lon":5.361009,"is_reserved":false,"is_disabled":false,"rental_uris":{"android":"levelo://app?vid=7b7ac10d-566d-4f74-ad10-f13829c719af","ios":"levelo://app?vid=7b7ac10d-566d-4f74-ad10-f13829c719af"},"vehicle_type_id":"4","last_reported":1713104728,"current_range_meters":8000,"station_id":"ce4bgj92rcd13ifvqbe0","pricing_plan_id":"cebpf4jnsgd1na2vs0mg"},{"bike_id":"fce09497-ef25-4792-9492-03a5908cd84a","system_id":"levelo_inurba_marseille","lat":43.273609,"lon":5.362708,"is_reserved":false,"is_disabled":false,"rental_uris":{"android":"levelo://app?vid=fce09497-ef25-4792-9492-03a5908cd84a","ios":"levelo://app?vid=fce09497-ef25-4792-9492-03a5908cd84a"},"vehicle_type_id":"4","last_reported":1713104728,"current_range_meters":7200,"station_id":"ce4bhbh2rcd13ifvqeo0","pricing_plan_id":"cebpf4jnsgd1na2vs0mg"},{"bike_id":"c59f8b34-4eee-436c-a54c-658f2b03fef0","system_id":"levelo_inurba_marseille","lat":43.273613,"lon":5.362705,"is_reserved":false,"is_disabled":false,"rental_uris":{"android":"levelo://app?vid=c59f8b34-4eee-436c-a54c-658f2b03fef0","ios":"levelo://app?vid=c59f8b34-4eee-436c-a54c-658f2b03fef0"},"vehicle_type_id":"4","last_reported":1713104728,"current_range_meters":0,"station_id":"ce4bhbh2rcd13ifvqeo0","pricing_plan_id":"cebpf4jnsgd1na2vs0mg"},{"bike_id":"0ca5e1e9-c248-47b5-ae85-a1313eaeb587","system_id":"levelo_inurba_marseille","lat":43.273613,"lon":5.362705,"is_reserved":false,"is_disabled":false,"rental_uris":{"android":"levelo://app?vid=0ca5e1e9-c248-47b5-ae85-a1313eaeb587","ios":"levelo://app?vid=0ca5e1e9-c248-47b5-ae85-a1313eaeb587"},"vehicle_type_id":"4","last_reported":1713104728,"current_range_meters":31200,"station_id":"ce4bhbh2rcd13ifvqeo0","pricing_plan_id":"cebpf4jnsgd1na2vs0mg"},{"bike_id":"e9bd8f53-4ce1-4588-bd82-bf18f5e15a68","system_id":"levelo_inurba_marseille","lat":43.273613,"lon":5.362705,"is_reserved":false,"is_disabled":false,"rental_uris":{"android":"levelo://app?vid=e9bd8f53-4ce1-4588-bd82-bf18f5e15a68","ios":"levelo://app?vid=e9bd8f53-4ce1-4588-bd82-bf18f5e15a68"},"vehicle_type_id":"4","last_reported":1713104728,"current_range_meters":0,"station_id":"ce4bhbh2rcd13ifvqeo0","pricing_plan_id":"cebpf4jnsgd1na2vs0mg"},{"bike_id":"c5ea077c-df6f-4572-99c1-4599f67d3cf3","system_id":"levelo_inurba_marseille","lat":43.273613,"lon":5.362705,"is_reserved":false,"is_disabled":false,"rental_uris":{"android":"levelo://app?vid=c5ea077c-df6f-4572-99c1-4599f67d3cf3","ios":"levelo://app?vid=c5ea077c-df6f-4572-99c1-4599f67d3cf3"},"vehicle_type_id":"4","last_reported":1713104728,"current_range_meters":8000,"station_id":"ce4bhbh2rcd13ifvqeo0","pricing_plan_id":"cebpf4jnsgd1na2vs0mg"},{"bike_id":"38e9604c-44d4-4cb5-b1bc-8a535d60a4ea","system_id":"levelo_inurba_marseille","lat":43.2738,"lon":5.36251,"is_reserved":false,"is_disabled":false,"rental_uris":{"android":"levelo://app?vid=38e9604c-44d4-4cb5-b1bc-8a535d60a4ea","ios":"levelo://app?vid=38e9604c-44d4-4cb5-b1bc-8a535d60a4ea"},"vehicle_type_id":"4","last_reported":1713104728,"current_range_meters":24000,"station_id":"ce4bh412rcd13ifvqds0","pricing_plan_id":"cebpf4jnsgd1na2vs0mg"},{"bike_id":"84efd9d8-da39-45c9-a155-883f727695ce","system_id":"levelo_inurba_marseille","lat":43.273613,"lon":5.362705,"is_reserved":false,"is_disabled":false,"rental_uris":{"android":"levelo://app?vid=84efd9d8-da39-45c9-a155-883f727695ce","ios":"levelo://app?vid=84efd9d8-da39-45c9-a155-883f727695ce"},"vehicle_type_id":"4","last_reported":1713104728,"current_range_meters":17600,"station_id":"ce4bhbh2rcd13ifvqeo0","pricing_plan_id":"cebpf4jnsgd1na2vs0mg"},{"bike_id":"78073891-2364-4d35-b26b-74625f8deca0","system_id":"levelo_inurba_marseille","lat":43.273794,"lon":5.362516,"is_reserved":false,"is_disabled":false,"rental_uris":{"android":"levelo://app?vid=78073891-2364-4d35-b26b-74625f8deca0","ios":"levelo://app?vid=78073891-2364-4d35-b26b-74625f8deca0"},"vehicle_type_id":"4","last_reported":1713104728,"current_range_meters":30000,"station_id":"ce4bhbh2rcd13ifvqeo0","pricing_plan_id":"cebpf4jnsgd1na2vs0mg"},{"bike_id":"4a0629dd-f209-474f-87a3-0747d837d69c","system_id":"levelo_inurba_marseille","lat":43.27378,"lon":5.3626,"is_reserved":false,"is_disabled":false,"rental_uris":{"android":"levelo://app?vid=4a0629dd-f209-474f-87a3-0747d837d69c","ios":"levelo://app?vid=4a0629dd-f209-474f-87a3-0747d837d69c"},"vehicle_type_id":"4","last_reported":1713104728,"current_range_meters":9600,"station_id":"ce4bhbh2rcd13ifvqeo0","pricing_plan_id":"cebpf4jnsgd1na2vs0mg"},{"bike_id":"49a2459d-fab5-485e-a397-f3ecab7e0cc7","system_id":"levelo_inurba_marseille","lat":43.273613,"lon":5.362705,"is_reserved":false,"is_disabled":false,"rental_uris":{"android":"levelo://app?vid=49a2459d-fab5-485e-a397-f3ecab7e0cc7","ios":"levelo://app?vid=49a2459d-fab5-485e-a397-f3ecab7e0cc7"},"vehicle_type_id":"4","last_reported":1713104728,"current_range_meters":5600,"station_id":"ce4bhbh2rcd13ifvqeo0","pricing_plan_id":"cebpf4jnsgd1na2vs0mg"},{"bike_id":"73060840-e49c-4749-9170-b1f3f2eae139","system_id":"levelo_inurba_marseille","lat":43.273613,"lon":5.362705,"is_reserved":false,"is_disabled":false,"rental_uris":{"android":"levelo://app?vid=73060840-e49c-4749-9170-b1f3f2eae139","ios":"levelo://app?vid=73060840-e49c-4749-9170-b1f3f2eae139"},"vehicle_type_id":"4","last_reported":1713104728,"current_range_meters":16400,"station_id":"ce4bhbh2rcd13ifvqeo0","pricing_plan_id":"cebpf4jnsgd1na2vs0mg"},{"bike_id":"232a88fc-855d-4a8b-9cc5-e571ca85521f","system_id":"levelo_inurba_marseille","lat":43.273613,"lon":5.362705,"is_reserved":false,"is_disabled":false,"rental_uris":{"android":"levelo://app?vid=232a88fc-855d-4a8b-9cc5-e571ca85521f","ios":"levelo://app?vid=232a88fc-855d-4a8b-9cc5-e571ca85521f"},"vehicle_type_id":"4","last_reported":1713104728,"current_range_meters":0,"station_id":"ce4bhbh2rcd13ifvqeo0","pricing_plan_id":"cebpf4jnsgd1na2vs0mg"},{"bike_id":"f6a67c81-8a5d-40d6-b063-9df411cf7dd0","system_id":"levelo_inurba_marseille","lat":43.273613,"lon":5.362705,"is_reserved":false,"is_disabled":false,"rental_uris":{"android":"levelo://app?vid=f6a67c81-8a5d-40d6-b063-9df411cf7dd0","ios":"levelo://app?vid=f6a67c81-8a5d-40d6-b063-9df411cf7dd0"},"vehicle_type_id":"4","last_reported":1713104728,"current_range_meters":17200,"station_id":"ce4bhbh2rcd13ifvqeo0","pricing_plan_id":"cebpf4jnsgd1na2vs0mg"},{"bike_id":"9fe5ed09-afe5-4636-ab0d-331a41588b84","system_id":"levelo_inurba_marseille","lat":43.273613,"lon":5.362705,"is_reserved":false,"is_disabled":false,"rental_uris":{"android":"levelo://app?vid=9fe5ed09-afe5-4636-ab0d-331a41588b84","ios":"levelo://app?vid=9fe5ed09-afe5-4636-ab0d-331a41588b84"},"vehicle_type_id":"4","last_reported":1713104728,"current_range_meters":800,"station_id":"ce4bhbh2rcd13ifvqeo0","pricing_plan_id":"cebpf4jnsgd1na2vs0mg"},{"bike_id":"9502d757-2b14-4bf6-aee9-1156600ca37d","system_id":"levelo_inurba_marseille","lat":43.27375,"lon":5.36252,"is_reserved":false,"is_disabled":false,"rental_uris":{"android":"levelo://app?vid=9502d757-2b14-4bf6-aee9-1156600ca37d","ios":"levelo://app?vid=9502d757-2b14-4bf6-aee9-1156600ca37d"},"vehicle_type_id":"4","last_reported":1713104728,"current_range_meters":9600,"station_id":"ce4bhbh2rcd13ifvqeo0","pricing_plan_id":"cebpf4jnsgd1na2vs0mg"},{"bike_id":"cb29b49c-0825-4250-b679-13cc7865f21c","system_id":"levelo_inurba_marseille","lat":43.273613,"lon":5.362705,"is_reserved":false,"is_disabled":false,"rental_uris":{"android":"levelo://app?vid=cb29b49c-0825-4250-b679-13cc7865f21c","ios":"levelo://app?vid=cb29b49c-0825-4250-b679-13cc7865f21c"},"vehicle_type_id":"4","last_reported":1713104728,"current_range_meters":18800,"station_id":"ce4bhbh2rcd13ifvqeo0","pricing_plan_id":"cebpf4jnsgd1na2vs0mg"},{"bike_id":"ad1a416e-b678-459c-8e42-0ff5380e45b3","system_id":"levelo_inurba_marseille","lat":43.273613,"lon":5.362705,"is_reserved":false,"is_disabled":false,"rental_uris":{"android":"levelo://app?vid=ad1a416e-b678-459c-8e42-0ff5380e45b3","ios":"levelo://app?vid=ad1a416e-b678-459c-8e42-0ff5380e45b3"},"vehicle_type_id":"4","last_reported":1713104728,"current_range_meters":1200,"station_id":"ce4bhbh2rcd13ifvqeo0","pricing_plan_id":"cebpf4jnsgd1na2vs0mg"},{"bike_id":"6862768b-ca35-43d4-a710-45b1a443ca3c","system_id":"levelo_inurba_marseille","lat":43.273613,"lon":5.362705,"is_reserved":false,"is_disabled":false,"rental_uris":{"android":"levelo://app?vid=6862768b-ca35-43d4-a710-45b1a443ca3c","ios":"levelo://app?vid=6862768b-ca35-43d4-a710-45b1a443ca3c"},"vehicle_type_id":"4","last_reported":1713104728,"current_range_meters":11600,"station_id":"ce4bhbh2rcd13ifvqeo0","pricing_plan_id":"cebpf4jnsgd1na2vs0mg"},{"bike_id":"4272daaf-1da2-401b-9179-fa3c1562dae3","system_id":"levelo_inurba_marseille","lat":43.273609,"lon":5.362708,"is_reserved":false,"is_disabled":false,"rental_uris":{"android":"levelo://app?vid=4272daaf-1da2-401b-9179-fa3c1562dae3","ios":"levelo://app?vid=4272daaf-1da2-401b-9179-fa3c1562dae3"},"vehicle_type_id":"4","last_reported":1713104728,"current_range_meters":17600,"station_id":"ce4bhbh2rcd13ifvqeo0","pricing_plan_id":"cebpf4jnsgd1na2vs0mg"},{"bike_id":"e2004822-c98f-40ca-8fdd-549a2960c886","system_id":"levelo_inurba_marseille","lat":43.273613,"lon":5.362705,"is_reserved":false,"is_disabled":false,"rental_uris":{"android":"levelo://app?vid=e2004822-c98f-40ca-8fdd-549a2960c886","ios":"levelo://app?vid=e2004822-c98f-40ca-8fdd-549a2960c886"},"vehicle_type_id":"4","last_reported":1713104728,"current_range_meters":400,"station_id":"ce4bhbh2rcd13ifvqeo0","pricing_plan_id":"cebpf4jnsgd1na2vs0mg"},{"bike_id":"20b4c74a-e6af-444c-91c4-a89e17fda0a4","system_id":"levelo_inurba_marseille","lat":43.273609,"lon":5.362708,"is_reserved":false,"is_disabled":false,"rental_uris":{"android":"levelo://app?vid=20b4c74a-e6af-444c-91c4-a89e17fda0a4","ios":"levelo://app?vid=20b4c74a-e6af-444c-91c4-a89e17fda0a4"},"vehicle_type_id":"4","last_reported":1713104728,"current_range_meters":22800,"station_id":"ce4bhbh2rcd13ifvqeo0","pricing_plan_id":"cebpf4jnsgd1na2vs0mg"},{"bike_id":"2e85d686-6ebc-4353-860d-62931b49e16c","system_id":"levelo_inurba_marseille","lat":43.273613,"lon":5.362705,"is_reserved":false,"is_disabled":false,"rental_uris":{"android":"levelo://app?vid=2e85d686-6ebc-4353-860d-62931b49e16c","ios":"levelo://app?vid=2e85d686-6ebc-4353-860d-62931b49e16c"},"vehicle_type_id":"4","last_reported":1713104728,"current_range_meters":2400,"station_id":"ce4bhbh2rcd13ifvqeo0","pricing_plan_id":"cebpf4jnsgd1na2vs0mg"},{"bike_id":"db314ff5-96e4-4882-a759-b37032f98195","system_id":"levelo_inurba_marseille","lat":43.273609,"lon":5.362708,"is_reserved":false,"is_disabled":false,"rental_uris":{"android":"levelo://app?vid=db314ff5-96e4-4882-a759-b37032f98195","ios":"levelo://app?vid=db314ff5-96e4-4882-a759-b37032f98195"},"vehicle_type_id":"4","last_reported":1713104728,"current_range_meters":30000,"station_id":"ce4bhbh2rcd13ifvqeo0","pricing_plan_id":"cebpf4jnsgd1na2vs0mg"},{"bike_id":"dac5d0e3-84ad-452c-a6b6-25ffe241ea26","system_id":"levelo_inurba_marseille","lat":43.273609,"lon":5.362708,"is_reserved":false,"is_disabled":false,"rental_uris":{"android":"levelo://app?vid=dac5d0e3-84ad-452c-a6b6-25ffe241ea26","ios":"levelo://app?vid=dac5d0e3-84ad-452c-a6b6-25ffe241ea26"},"vehicle_type_id":"4","last_reported":1713104728,"current_range_meters":12800,"station_id":"ce4bhbh2rcd13ifvqeo0","pricing_plan_id":"cebpf4jnsgd1na2vs0mg"},{"bike_id":"a77644b4-8b5e-4842-b34c-3fda0c72fd45","system_id":"levelo_inurba_marseille","lat":43.273609,"lon":5.362708,"is_reserved":false,"is_disabled":false,"rental_uris":{"android":"levelo://app?vid=a77644b4-8b5e-4842-b34c-3fda0c72fd45","ios":"levelo://app?vid=a77644b4-8b5e-4842-b34c-3fda0c72fd45"},"vehicle_type_id":"4","last_reported":1713104728,"current_range_meters":27600,"station_id":"ce4bhbh2rcd13ifvqeo0","pricing_plan_id":"cebpf4jnsgd1na2vs0mg"},{"bike_id":"b86455a1-7a01-4ddc-809b-0e28099770e1","system_id":"levelo_inurba_marseille","lat":43.276769,"lon":5.388787,"is_reserved":false,"is_disabled":false,"rental_uris":{"android":"levelo://app?vid=b86455a1-7a01-4ddc-809b-0e28099770e1","ios":"levelo://app?vid=b86455a1-7a01-4ddc-809b-0e28099770e1"},"vehicle_type_id":"4","last_reported":1713104728,"current_range_meters":18000,"station_id":"ce4bhi12rcd13ifvqfo0","pricing_plan_id":"cebpf4jnsgd1na2vs0mg"},{"bike_id":"decf7a82-1ce5-42dc-a786-7c6b1ec13968","system_id":"levelo_inurba_marseille","lat":43.336148,"lon":5.410349,"is_reserved":false,"is_disabled":false,"rental_uris":{"android":"levelo://app?vid=decf7a82-1ce5-42dc-a786-7c6b1ec13968","ios":"levelo://app?vid=decf7a82-1ce5-42dc-a786-7c6b1ec13968"},"vehicle_type_id":"4","last_reported":1713104728,"current_range_meters":22000,"station_id":"ce4bhqh2rcd13ifvqhmg","pricing_plan_id":"cebpf4jnsgd1na2vs0mg"},{"bike_id":"5782b785-ef32-4955-83b7-09fbe3a337d3","system_id":"levelo_inurba_marseille","lat":43.340804,"lon":5.410219,"is_reserved":false,"is_disabled":false,"rental_uris":{"android":"levelo://app?vid=5782b785-ef32-4955-83b7-09fbe3a337d3","ios":"levelo://app?vid=5782b785-ef32-4955-83b7-09fbe3a337d3"},"vehicle_type_id":"4","last_reported":1713104728,"current_range_meters":31200,"station_id":"ce4bhqh2rcd13ifvqhlg","pricing_plan_id":"cebpf4jnsgd1na2vs0mg"},{"bike_id":"18cb9873-1e1c-4e68-ad0e-275865490423","system_id":"levelo_inurba_marseille","lat":43.336134,"lon":5.410341,"is_reserved":false,"is_disabled":false,"rental_uris":{"android":"levelo://app?vid=18cb9873-1e1c-4e68-ad0e-275865490423","ios":"levelo://app?vid=18cb9873-1e1c-4e68-ad0e-275865490423"},"vehicle_type_id":"4","last_reported":1713104728,"current_range_meters":23600,"station_id":"ce4bhqh2rcd13ifvqhmg","pricing_plan_id":"cebpf4jnsgd1na2vs0mg"},{"bike_id":"9fe469b1-a364-4e1a-8def-508366e09e50","system_id":"levelo_inurba_marseille","lat":43.32702,"lon":5.42012,"is_reserved":false,"is_disabled":false,"rental_uris":{"android":"levelo://app?vid=9fe469b1-a364-4e1a-8def-508366e09e50","ios":"levelo://app?vid=9fe469b1-a364-4e1a-8def-508366e09e50"},"vehicle_type_id":"4","last_reported":1713104728,"current_range_meters":23600,"station_id":"","pricing_plan_id":"cebpf4jnsgd1na2vs0mg"},{"bike_id":"f5f837e9-7d49-405b-af4c-eb1c65b64314","system_id":"levelo_inurba_marseille","lat":43.317121,"lon":5.423936,"is_reserved":false,"is_disabled":false,"rental_uris":{"android":"levelo://app?vid=f5f837e9-7d49-405b-af4c-eb1c65b64314","ios":"levelo://app?vid=f5f837e9-7d49-405b-af4c-eb1c65b64314"},"vehicle_type_id":"4","last_reported":1713104728,"current_range_meters":4800,"station_id":"ce4bhp92rcd13ifvqhbg","pricing_plan_id":"cebpf4jnsgd1na2vs0mg"},{"bike_id":"40029453-c61a-4b18-97d3-8ab3865c1a36","system_id":"levelo_inurba_marseille","lat":43.317121,"lon":5.423936,"is_reserved":false,"is_disabled":false,"rental_uris":{"android":"levelo://app?vid=40029453-c61a-4b18-97d3-8ab3865c1a36","ios":"levelo://app?vid=40029453-c61a-4b18-97d3-8ab3865c1a36"},"vehicle_type_id":"4","last_reported":1713104728,"current_range_meters":7200,"station_id":"ce4bhp92rcd13ifvqhbg","pricing_plan_id":"cebpf4jnsgd1na2vs0mg"},{"bike_id":"b927ae9d-4b2f-4ab4-9cb6-94d6dec41598","system_id":"levelo_inurba_marseille","lat":43.310785,"lon":5.424305,"is_reserved":false,"is_disabled":false,"rental_uris":{"android":"levelo://app?vid=b927ae9d-4b2f-4ab4-9cb6-94d6dec41598","ios":"levelo://app?vid=b927ae9d-4b2f-4ab4-9cb6-94d6dec41598"},"vehicle_type_id":"4","last_reported":1713104728,"current_range_meters":8800,"station_id":"ce4bhp92rcd13ifvqhag","pricing_plan_id":"cebpf4jnsgd1na2vs0mg"},{"bike_id":"0fdcc973-7e2f-450d-a254-916fbe862949","system_id":"levelo_inurba_marseille","lat":43.310785,"lon":5.424305,"is_reserved":false,"is_disabled":false,"rental_uris":{"android":"levelo://app?vid=0fdcc973-7e2f-450d-a254-916fbe862949","ios":"levelo://app?vid=0fdcc973-7e2f-450d-a254-916fbe862949"},"vehicle_type_id":"4","last_reported":1713104728,"current_range_meters":19600,"station_id":"ce4bhp92rcd13ifvqhag","pricing_plan_id":"cebpf4jnsgd1na2vs0mg"},{"bike_id":"06810018-bf01-4d35-b6f8-6bb60fa29b2d","system_id":"levelo_inurba_marseille","lat":43.341451,"lon":5.40899,"is_reserved":false,"is_disabled":false,"rental_uris":{"android":"levelo://app?vid=06810018-bf01-4d35-b6f8-6bb60fa29b2d","ios":"levelo://app?vid=06810018-bf01-4d35-b6f8-6bb60fa29b2d"},"vehicle_type_id":"4","last_reported":1713104728,"current_range_meters":14400,"station_id":"ce4bhqh2rcd13ifvqhlg","pricing_plan_id":"cebpf4jnsgd1na2vs0mg"},{"bike_id":"0d55c1f3-f5b6-44d0-b338-dae6f0a7cfce","system_id":"levelo_inurba_marseille","lat":43.34141,"lon":5.409048,"is_reserved":false,"is_disabled":false,"rental_uris":{"android":"levelo://app?vid=0d55c1f3-f5b6-44d0-b338-dae6f0a7cfce","ios":"levelo://app?vid=0d55c1f3-f5b6-44d0-b338-dae6f0a7cfce"},"vehicle_type_id":"4","last_reported":1713104728,"current_range_meters":6800,"station_id":"ce4bhqh2rcd13ifvqhlg","pricing_plan_id":"cebpf4jnsgd1na2vs0mg"},{"bike_id":"7cb89bab-0f04-4485-a0e5-2ab5cf4d02f2","system_id":"levelo_inurba_marseille","lat":43.34146,"lon":5.408987,"is_reserved":false,"is_disabled":false,"rental_uris":{"android":"levelo://app?vid=7cb89bab-0f04-4485-a0e5-2ab5cf4d02f2","ios":"levelo://app?vid=7cb89bab-0f04-4485-a0e5-2ab5cf4d02f2"},"vehicle_type_id":"4","last_reported":1713104728,"current_range_meters":30400,"station_id":"ce4bhqh2rcd13ifvqhlg","pricing_plan_id":"cebpf4jnsgd1na2vs0mg"},{"bike_id":"50ef8274-a09c-4bbd-b1f0-b5e1c333cda4","system_id":"levelo_inurba_marseille","lat":43.34145,"lon":5.40901,"is_reserved":false,"is_disabled":false,"rental_uris":{"android":"levelo://app?vid=50ef8274-a09c-4bbd-b1f0-b5e1c333cda4","ios":"levelo://app?vid=50ef8274-a09c-4bbd-b1f0-b5e1c333cda4"},"vehicle_type_id":"4","last_reported":1713104728,"current_range_meters":18000,"station_id":"ce4bhqh2rcd13ifvqhlg","pricing_plan_id":"cebpf4jnsgd1na2vs0mg"},{"bike_id":"a3e7e1c7-5f40-4ffb-8a34-09243a6feb79","system_id":"levelo_inurba_marseille","lat":43.34144,"lon":5.40918,"is_reserved":false,"is_disabled":false,"rental_uris":{"android":"levelo://app?vid=a3e7e1c7-5f40-4ffb-8a34-09243a6feb79","ios":"levelo://app?vid=a3e7e1c7-5f40-4ffb-8a34-09243a6feb79"},"vehicle_type_id":"4","last_reported":1713104728,"current_range_meters":26000,"station_id":"ce4bhqh2rcd13ifvqhlg","pricing_plan_id":"cebpf4jnsgd1na2vs0mg"},{"bike_id":"56c38af0-ba2d-4b34-9fb9-736b8a660600","system_id":"levelo_inurba_marseille","lat":43.274103,"lon":5.394016,"is_reserved":false,"is_disabled":false,"rental_uris":{"android":"levelo://app?vid=56c38af0-ba2d-4b34-9fb9-736b8a660600","ios":"levelo://app?vid=56c38af0-ba2d-4b34-9fb9-736b8a660600"},"vehicle_type_id":"4","last_reported":1713104728,"current_range_meters":2000,"station_id":"ce4bhdp2rcd13ifvqf20","pricing_plan_id":"cebpf4jnsgd1na2vs0mg"},{"bike_id":"b8083fa9-3038-4858-9a62-9f76d5e1fd89","system_id":"levelo_inurba_marseille","lat":43.274103,"lon":5.394016,"is_reserved":false,"is_disabled":false,"rental_uris":{"android":"levelo://app?vid=b8083fa9-3038-4858-9a62-9f76d5e1fd89","ios":"levelo://app?vid=b8083fa9-3038-4858-9a62-9f76d5e1fd89"},"vehicle_type_id":"4","last_reported":1713104728,"current_range_meters":2800,"station_id":"ce4bhdp2rcd13ifvqf20","pricing_plan_id":"cebpf4jnsgd1na2vs0mg"},{"bike_id":"8cec0347-ae92-4268-a3f6-9025145af405","system_id":"levelo_inurba_marseille","lat":43.304096,"lon":5.425385,"is_reserved":false,"is_disabled":false,"rental_uris":{"android":"levelo://app?vid=8cec0347-ae92-4268-a3f6-9025145af405","ios":"levelo://app?vid=8cec0347-ae92-4268-a3f6-9025145af405"},"vehicle_type_id":"4","last_reported":1713104728,"current_range_meters":21600,"station_id":"ce4bhoh2rcd13ifvqh6g","pricing_plan_id":"cebpf4jnsgd1na2vs0mg"},{"bike_id":"d64eea22-9798-4a5a-ae44-1b06df7eb167","system_id":"levelo_inurba_marseille","lat":43.295511,"lon":5.422926,"is_reserved":false,"is_disabled":false,"rental_uris":{"android":"levelo://app?vid=d64eea22-9798-4a5a-ae44-1b06df7eb167","ios":"levelo://app?vid=d64eea22-9798-4a5a-ae44-1b06df7eb167"},"vehicle_type_id":"4","last_reported":1713104728,"current_range_meters":12000,"station_id":"ce4bhph2rcd13ifvqhdg","pricing_plan_id":"cebpf4jnsgd1na2vs0mg"},{"bike_id":"53345520-1de2-415d-91e3-dfe22218db6a","system_id":"levelo_inurba_marseille","lat":43.278128,"lon":5.407195,"is_reserved":false,"is_disabled":false,"rental_uris":{"android":"levelo://app?vid=53345520-1de2-415d-91e3-dfe22218db6a","ios":"levelo://app?vid=53345520-1de2-415d-91e3-dfe22218db6a"},"vehicle_type_id":"4","last_reported":1713104728,"current_range_meters":0,"station_id":"ce4bhnh2rcd13ifvqgtg","pricing_plan_id":"cebpf4jnsgd1na2vs0mg"},{"bike_id":"b426cba2-2648-42a6-943f-be6b93229e85","system_id":"levelo_inurba_marseille","lat":43.269467,"lon":5.386439,"is_reserved":false,"is_disabled":false,"rental_uris":{"android":"levelo://app?vid=b426cba2-2648-42a6-943f-be6b93229e85","ios":"levelo://app?vid=b426cba2-2648-42a6-943f-be6b93229e85"},"vehicle_type_id":"4","last_reported":1713104728,"current_range_meters":13600,"station_id":"ce4bhh92rcd13ifvqfh0","pricing_plan_id":"cebpf4jnsgd1na2vs0mg"},{"bike_id":"c66227cb-154f-4af8-a1b6-a7ce6afc8519","system_id":"levelo_inurba_marseille","lat":43.255756,"lon":5.382303,"is_reserved":false,"is_disabled":false,"rental_uris":{"android":"levelo://app?vid=c66227cb-154f-4af8-a1b6-a7ce6afc8519","ios":"levelo://app?vid=c66227cb-154f-4af8-a1b6-a7ce6afc8519"},"vehicle_type_id":"4","last_reported":1713104728,"current_range_meters":6400,"station_id":"ce4bhih2rcd13ifvqfs0","pricing_plan_id":"cebpf4jnsgd1na2vs0mg"},{"bike_id":"e5244029-c50a-4c71-a76f-6580f4ad9177","system_id":"levelo_inurba_marseille","lat":43.26681,"lon":5.382694,"is_reserved":false,"is_disabled":false,"rental_uris":{"android":"levelo://app?vid=e5244029-c50a-4c71-a76f-6580f4ad9177","ios":"levelo://app?vid=e5244029-c50a-4c71-a76f-6580f4ad9177"},"vehicle_type_id":"4","last_reported":1713104728,"current_range_meters":15600,"station_id":"ce4bhg92rcd13ifvqf90","pricing_plan_id":"cebpf4jnsgd1na2vs0mg"},{"bike_id":"d809d793-f2d1-4007-ab17-c2e59338a474","system_id":"levelo_inurba_marseille","lat":43.267966,"lon":5.393976,"is_reserved":false,"is_disabled":false,"rental_uris":{"android":"levelo://app?vid=d809d793-f2d1-4007-ab17-c2e59338a474","ios":"levelo://app?vid=d809d793-f2d1-4007-ab17-c2e59338a474"},"vehicle_type_id":"4","last_reported":1713104728,"current_range_meters":2800,"station_id":"ce4bhh12rcd13ifvqfg0","pricing_plan_id":"cebpf4jnsgd1na2vs0mg"},{"bike_id":"f167af8e-784d-44f5-8db8-2ea82f2144ab","system_id":"levelo_inurba_marseille","lat":43.265571,"lon":5.390032,"is_reserved":false,"is_disabled":false,"rental_uris":{"android":"levelo://app?vid=f167af8e-784d-44f5-8db8-2ea82f2144ab","ios":"levelo://app?vid=f167af8e-784d-44f5-8db8-2ea82f2144ab"},"vehicle_type_id":"4","last_reported":1713104728,"current_range_meters":0,"station_id":"ce4bhe12rcd13ifvqf30","pricing_plan_id":"cebpf4jnsgd1na2vs0mg"},{"bike_id":"7d65ea0d-5ca8-4e52-9c8e-63a25033c911","system_id":"levelo_inurba_marseille","lat":43.265569,"lon":5.390047,"is_reserved":false,"is_disabled":false,"rental_uris":{"android":"levelo://app?vid=7d65ea0d-5ca8-4e52-9c8e-63a25033c911","ios":"levelo://app?vid=7d65ea0d-5ca8-4e52-9c8e-63a25033c911"},"vehicle_type_id":"4","last_reported":1713104728,"current_range_meters":0,"station_id":"ce4bhe12rcd13ifvqf30","pricing_plan_id":"cebpf4jnsgd1na2vs0mg"},{"bike_id":"5a04ef33-68e4-4046-a626-79a6660cc251","system_id":"levelo_inurba_marseille","lat":43.26278,"lon":5.37396,"is_reserved":false,"is_disabled":false,"rental_uris":{"android":"levelo://app?vid=5a04ef33-68e4-4046-a626-79a6660cc251","ios":"levelo://app?vid=5a04ef33-68e4-4046-a626-79a6660cc251"},"vehicle_type_id":"4","last_reported":1713104728,"current_range_meters":2400,"station_id":"","pricing_plan_id":"cebpf4jnsgd1na2vs0mg"},{"bike_id":"8f780479-4dd0-44f1-992c-3fe4cfb36041","system_id":"levelo_inurba_marseille","lat":43.269017,"lon":5.402233,"is_reserved":false,"is_disabled":false,"rental_uris":{"android":"levelo://app?vid=8f780479-4dd0-44f1-992c-3fe4cfb36041","ios":"levelo://app?vid=8f780479-4dd0-44f1-992c-3fe4cfb36041"},"vehicle_type_id":"4","last_reported":1713104728,"current_range_meters":0,"station_id":"","pricing_plan_id":"cebpf4jnsgd1na2vs0mg"},{"bike_id":"6a903e2f-acbc-4dd9-a9d5-60d85ed0a504","system_id":"levelo_inurba_marseille","lat":43.26195,"lon":5.37441,"is_reserved":false,"is_disabled":false,"rental_uris":{"android":"levelo://app?vid=6a903e2f-acbc-4dd9-a9d5-60d85ed0a504","ios":"levelo://app?vid=6a903e2f-acbc-4dd9-a9d5-60d85ed0a504"},"vehicle_type_id":"4","last_reported":1713104728,"current_range_meters":8000,"station_id":"ce4bhgp2rcd13ifvqfc0","pricing_plan_id":"cebpf4jnsgd1na2vs0mg"},{"bike_id":"23d67d7b-40dc-4e4f-b9bf-c1d06fb1d7ca","system_id":"levelo_inurba_marseille","lat":43.26194,"lon":5.3744,"is_reserved":false,"is_disabled":false,"rental_uris":{"android":"levelo://app?vid=23d67d7b-40dc-4e4f-b9bf-c1d06fb1d7ca","ios":"levelo://app?vid=23d67d7b-40dc-4e4f-b9bf-c1d06fb1d7ca"},"vehicle_type_id":"4","last_reported":1713104728,"current_range_meters":8000,"station_id":"ce4bhgp2rcd13ifvqfc0","pricing_plan_id":"cebpf4jnsgd1na2vs0mg"},{"bike_id":"467f2a14-80e4-455e-876c-356272984b56","system_id":"levelo_inurba_marseille","lat":43.276771,"lon":5.388799,"is_reserved":false,"is_disabled":false,"rental_uris":{"android":"levelo://app?vid=467f2a14-80e4-455e-876c-356272984b56","ios":"levelo://app?vid=467f2a14-80e4-455e-876c-356272984b56"},"vehicle_type_id":"4","last_reported":1713104728,"current_range_meters":400,"station_id":"ce4bhi12rcd13ifvqfo0","pricing_plan_id":"cebpf4jnsgd1na2vs0mg"},{"bike_id":"46f84fe1-b2bd-460d-a267-07d239ae24e6","system_id":"levelo_inurba_marseille","lat":43.26193,"lon":5.37443,"is_reserved":false,"is_disabled":false,"rental_uris":{"android":"levelo://app?vid=46f84fe1-b2bd-460d-a267-07d239ae24e6","ios":"levelo://app?vid=46f84fe1-b2bd-460d-a267-07d239ae24e6"},"vehicle_type_id":"4","last_reported":1713104728,"current_range_meters":12000,"station_id":"ce4bhgp2rcd13ifvqfc0","pricing_plan_id":"cebpf4jnsgd1na2vs0mg"},{"bike_id":"07deae21-f6a9-4411-99c8-75e395a63d73","system_id":"levelo_inurba_marseille","lat":43.2968,"lon":5.37291,"is_reserved":false,"is_disabled":false,"rental_uris":{"android":"levelo://app?vid=07deae21-f6a9-4411-99c8-75e395a63d73","ios":"levelo://app?vid=07deae21-f6a9-4411-99c8-75e395a63d73"},"vehicle_type_id":"4","last_reported":1713104728,"current_range_meters":13200,"station_id":"ce4bgk12rcd13ifvqbj0","pricing_plan_id":"cebpf4jnsgd1na2vs0mg"},{"bike_id":"6030400c-6210-4132-8662-e5678867e2f0","system_id":"levelo_inurba_marseille","lat":43.262012,"lon":5.379307,"is_reserved":false,"is_disabled":false,"rental_uris":{"android":"levelo://app?vid=6030400c-6210-4132-8662-e5678867e2f0","ios":"levelo://app?vid=6030400c-6210-4132-8662-e5678867e2f0"},"vehicle_type_id":"4","last_reported":1713104728,"current_range_meters":17600,"station_id":"ce4bhjp2rcd13ifvqg90","pricing_plan_id":"cebpf4jnsgd1na2vs0mg"},{"bike_id":"c749f778-c5ad-4a7b-bcac-1ee5c51360b1","system_id":"levelo_inurba_marseille","lat":43.26202,"lon":5.379299,"is_reserved":false,"is_disabled":false,"rental_uris":{"android":"levelo://app?vid=c749f778-c5ad-4a7b-bcac-1ee5c51360b1","ios":"levelo://app?vid=c749f778-c5ad-4a7b-bcac-1ee5c51360b1"},"vehicle_type_id":"4","last_reported":1713104728,"current_range_meters":2400,"station_id":"ce4bhjp2rcd13ifvqg90","pricing_plan_id":"cebpf4jnsgd1na2vs0mg"},{"bike_id":"e8251692-3144-4ca9-ad7e-d952b65a0789","system_id":"levelo_inurba_marseille","lat":43.262012,"lon":5.379307,"is_reserved":false,"is_disabled":false,"rental_uris":{"android":"levelo://app?vid=e8251692-3144-4ca9-ad7e-d952b65a0789","ios":"levelo://app?vid=e8251692-3144-4ca9-ad7e-d952b65a0789"},"vehicle_type_id":"4","last_reported":1713104728,"current_range_meters":400,"station_id":"ce4bhjp2rcd13ifvqg90","pricing_plan_id":"cebpf4jnsgd1na2vs0mg"},{"bike_id":"e071cc8b-cd7a-4505-9cf6-be89beaf8515","system_id":"levelo_inurba_marseille","lat":43.26202,"lon":5.379299,"is_reserved":false,"is_disabled":false,"rental_uris":{"android":"levelo://app?vid=e071cc8b-cd7a-4505-9cf6-be89beaf8515","ios":"levelo://app?vid=e071cc8b-cd7a-4505-9cf6-be89beaf8515"},"vehicle_type_id":"4","last_reported":1713104728,"current_range_meters":15200,"station_id":"ce4bhjp2rcd13ifvqg90","pricing_plan_id":"cebpf4jnsgd1na2vs0mg"},{"bike_id":"36ad2ab6-e7dd-4973-8892-2065d2ff6242","system_id":"levelo_inurba_marseille","lat":43.26202,"lon":5.379299,"is_reserved":false,"is_disabled":false,"rental_uris":{"android":"levelo://app?vid=36ad2ab6-e7dd-4973-8892-2065d2ff6242","ios":"levelo://app?vid=36ad2ab6-e7dd-4973-8892-2065d2ff6242"},"vehicle_type_id":"4","last_reported":1713104728,"current_range_meters":10800,"station_id":"ce4bhjp2rcd13ifvqg90","pricing_plan_id":"cebpf4jnsgd1na2vs0mg"},{"bike_id":"dbb6d38c-9166-45b9-bf88-ea7344c134f0","system_id":"levelo_inurba_marseille","lat":43.264958,"lon":5.395433,"is_reserved":false,"is_disabled":false,"rental_uris":{"android":"levelo://app?vid=dbb6d38c-9166-45b9-bf88-ea7344c134f0","ios":"levelo://app?vid=dbb6d38c-9166-45b9-bf88-ea7344c134f0"},"vehicle_type_id":"4","last_reported":1713104728,"current_range_meters":12400,"station_id":"ce4bhi12rcd13ifvqfq0","pricing_plan_id":"cebpf4jnsgd1na2vs0mg"},{"bike_id":"05de16be-20f6-4376-99f6-070f85b439b0","system_id":"levelo_inurba_marseille","lat":43.298768,"lon":5.43643,"is_reserved":false,"is_disabled":false,"rental_uris":{"android":"levelo://app?vid=05de16be-20f6-4376-99f6-070f85b439b0","ios":"levelo://app?vid=05de16be-20f6-4376-99f6-070f85b439b0"},"vehicle_type_id":"4","last_reported":1713104728,"current_range_meters":31200,"station_id":"ce4bhpp2rcd13ifvqhfg","pricing_plan_id":"cebpf4jnsgd1na2vs0mg"},{"bike_id":"0c3e6f5b-fc7f-463f-872a-3fdb06ea231e","system_id":"levelo_inurba_marseille","lat":43.29901,"lon":5.43666,"is_reserved":false,"is_disabled":false,"rental_uris":{"android":"levelo://app?vid=0c3e6f5b-fc7f-463f-872a-3fdb06ea231e","ios":"levelo://app?vid=0c3e6f5b-fc7f-463f-872a-3fdb06ea231e"},"vehicle_type_id":"4","last_reported":1713104728,"current_range_meters":22000,"station_id":"ce4bhpp2rcd13ifvqhfg","pricing_plan_id":"cebpf4jnsgd1na2vs0mg"},{"bike_id":"618280f8-76f9-4c45-8971-11fe0cbfae64","system_id":"levelo_inurba_marseille","lat":43.28163,"lon":5.42516,"is_reserved":false,"is_disabled":false,"rental_uris":{"android":"levelo://app?vid=618280f8-76f9-4c45-8971-11fe0cbfae64","ios":"levelo://app?vid=618280f8-76f9-4c45-8971-11fe0cbfae64"},"vehicle_type_id":"4","last_reported":1713104728,"current_range_meters":29200,"station_id":"","pricing_plan_id":"cebpf4jnsgd1na2vs0mg"},{"bike_id":"a548a85d-e429-403e-b90d-401f2d74e0b5","system_id":"levelo_inurba_marseille","lat":43.298943,"lon":5.436653,"is_reserved":false,"is_disabled":false,"rental_uris":{"android":"levelo://app?vid=a548a85d-e429-403e-b90d-401f2d74e0b5","ios":"levelo://app?vid=a548a85d-e429-403e-b90d-401f2d74e0b5"},"vehicle_type_id":"4","last_reported":1713104728,"current_range_meters":31200,"station_id":"ce4bhpp2rcd13ifvqhfg","pricing_plan_id":"cebpf4jnsgd1na2vs0mg"},{"bike_id":"70cef97d-73d1-464b-bbb8-571f30bfd273","system_id":"levelo_inurba_marseille","lat":43.298768,"lon":5.43643,"is_reserved":false,"is_disabled":false,"rental_uris":{"android":"levelo://app?vid=70cef97d-73d1-464b-bbb8-571f30bfd273","ios":"levelo://app?vid=70cef97d-73d1-464b-bbb8-571f30bfd273"},"vehicle_type_id":"4","last_reported":1713104728,"current_range_meters":22800,"station_id":"ce4bhpp2rcd13ifvqhfg","pricing_plan_id":"cebpf4jnsgd1na2vs0mg"},{"bike_id":"f616f9a6-fa2a-4484-b344-9c24f231d980","system_id":"levelo_inurba_marseille","lat":43.29895,"lon":5.43677,"is_reserved":false,"is_disabled":false,"rental_uris":{"android":"levelo://app?vid=f616f9a6-fa2a-4484-b344-9c24f231d980","ios":"levelo://app?vid=f616f9a6-fa2a-4484-b344-9c24f231d980"},"vehicle_type_id":"4","last_reported":1713104728,"current_range_meters":2000,"station_id":"ce4bhpp2rcd13ifvqhfg","pricing_plan_id":"cebpf4jnsgd1na2vs0mg"},{"bike_id":"1b2bb6f9-c416-40c2-8037-fb9a9c2e1b87","system_id":"levelo_inurba_marseille","lat":43.260225,"lon":5.375455,"is_reserved":false,"is_disabled":false,"rental_uris":{"android":"levelo://app?vid=1b2bb6f9-c416-40c2-8037-fb9a9c2e1b87","ios":"levelo://app?vid=1b2bb6f9-c416-40c2-8037-fb9a9c2e1b87"},"vehicle_type_id":"4","last_reported":1713104728,"current_range_meters":19600,"station_id":"ce4bhgh2rcd13ifvqfa0","pricing_plan_id":"cebpf4jnsgd1na2vs0mg"},{"bike_id":"8883a9a8-073d-4211-88c7-bc23533d16f9","system_id":"levelo_inurba_marseille","lat":43.260219,"lon":5.37546,"is_reserved":false,"is_disabled":false,"rental_uris":{"android":"levelo://app?vid=8883a9a8-073d-4211-88c7-bc23533d16f9","ios":"levelo://app?vid=8883a9a8-073d-4211-88c7-bc23533d16f9"},"vehicle_type_id":"4","last_reported":1713104728,"current_range_meters":10800,"station_id":"ce4bhgh2rcd13ifvqfa0","pricing_plan_id":"cebpf4jnsgd1na2vs0mg"},{"bike_id":"1f3adcd9-9595-4dd1-899a-3f2d08743afb","system_id":"levelo_inurba_marseille","lat":43.260219,"lon":5.37546,"is_reserved":false,"is_disabled":false,"rental_uris":{"android":"levelo://app?vid=1f3adcd9-9595-4dd1-899a-3f2d08743afb","ios":"levelo://app?vid=1f3adcd9-9595-4dd1-899a-3f2d08743afb"},"vehicle_type_id":"4","last_reported":1713104728,"current_range_meters":14800,"station_id":"ce4bhgh2rcd13ifvqfa0","pricing_plan_id":"cebpf4jnsgd1na2vs0mg"},{"bike_id":"c9ef8555-ac7d-4bd8-858d-0c1f1e210948","system_id":"levelo_inurba_marseille","lat":43.2603,"lon":5.37552,"is_reserved":false,"is_disabled":false,"rental_uris":{"android":"levelo://app?vid=c9ef8555-ac7d-4bd8-858d-0c1f1e210948","ios":"levelo://app?vid=c9ef8555-ac7d-4bd8-858d-0c1f1e210948"},"vehicle_type_id":"4","last_reported":1713104728,"current_range_meters":0,"station_id":"ce4bhgh2rcd13ifvqfa0","pricing_plan_id":"cebpf4jnsgd1na2vs0mg"},{"bike_id":"dfb56b8b-6424-466d-8967-f75765ca6001","system_id":"levelo_inurba_marseille","lat":43.260219,"lon":5.37546,"is_reserved":false,"is_disabled":false,"rental_uris":{"android":"levelo://app?vid=dfb56b8b-6424-466d-8967-f75765ca6001","ios":"levelo://app?vid=dfb56b8b-6424-466d-8967-f75765ca6001"},"vehicle_type_id":"4","last_reported":1713104728,"current_range_meters":3600,"station_id":"ce4bhgh2rcd13ifvqfa0","pricing_plan_id":"cebpf4jnsgd1na2vs0mg"},{"bike_id":"723cfb76-47ab-4132-a7d5-8be6fa84b7a7","system_id":"levelo_inurba_marseille","lat":43.275625,"lon":5.384392,"is_reserved":false,"is_disabled":false,"rental_uris":{"android":"levelo://app?vid=723cfb76-47ab-4132-a7d5-8be6fa84b7a7","ios":"levelo://app?vid=723cfb76-47ab-4132-a7d5-8be6fa84b7a7"},"vehicle_type_id":"4","last_reported":1713104728,"current_range_meters":0,"station_id":"ce4bhh92rcd13ifvqfi0","pricing_plan_id":"cebpf4jnsgd1na2vs0mg"},{"bike_id":"91bcfec7-73be-4272-9fb9-f59f406e64fd","system_id":"levelo_inurba_marseille","lat":43.28157,"lon":5.42635,"is_reserved":false,"is_disabled":false,"rental_uris":{"android":"levelo://app?vid=91bcfec7-73be-4272-9fb9-f59f406e64fd","ios":"levelo://app?vid=91bcfec7-73be-4272-9fb9-f59f406e64fd"},"vehicle_type_id":"4","last_reported":1713104728,"current_range_meters":1200,"station_id":"ce4bhnh2rcd13ifvqgug","pricing_plan_id":"cebpf4jnsgd1na2vs0mg"},{"bike_id":"6edaacc7-81c0-4279-adfd-a702abebf830","system_id":"levelo_inurba_marseille","lat":43.28153,"lon":5.42642,"is_reserved":false,"is_disabled":false,"rental_uris":{"android":"levelo://app?vid=6edaacc7-81c0-4279-adfd-a702abebf830","ios":"levelo://app?vid=6edaacc7-81c0-4279-adfd-a702abebf830"},"vehicle_type_id":"4","last_reported":1713104728,"current_range_meters":13600,"station_id":"ce4bhnh2rcd13ifvqgug","pricing_plan_id":"cebpf4jnsgd1na2vs0mg"},{"bike_id":"e2f7c8c8-c71c-473a-9c95-6fc48502d6d8","system_id":"levelo_inurba_marseille","lat":43.28156,"lon":5.42645,"is_reserved":false,"is_disabled":false,"rental_uris":{"android":"levelo://app?vid=e2f7c8c8-c71c-473a-9c95-6fc48502d6d8","ios":"levelo://app?vid=e2f7c8c8-c71c-473a-9c95-6fc48502d6d8"},"vehicle_type_id":"4","last_reported":1713104728,"current_range_meters":0,"station_id":"ce4bhnh2rcd13ifvqgug","pricing_plan_id":"cebpf4jnsgd1na2vs0mg"},{"bike_id":"11657569-9398-4ccf-9bb9-6957f18120b7","system_id":"levelo_inurba_marseille","lat":43.281548,"lon":5.42643,"is_reserved":false,"is_disabled":false,"rental_uris":{"android":"levelo://app?vid=11657569-9398-4ccf-9bb9-6957f18120b7","ios":"levelo://app?vid=11657569-9398-4ccf-9bb9-6957f18120b7"},"vehicle_type_id":"4","last_reported":1713104728,"current_range_meters":31200,"station_id":"ce4bhnh2rcd13ifvqgug","pricing_plan_id":"cebpf4jnsgd1na2vs0mg"},{"bike_id":"dad3d462-6ee2-4334-8228-2dde73e09fbe","system_id":"levelo_inurba_marseille","lat":43.28158,"lon":5.42649,"is_reserved":false,"is_disabled":false,"rental_uris":{"android":"levelo://app?vid=dad3d462-6ee2-4334-8228-2dde73e09fbe","ios":"levelo://app?vid=dad3d462-6ee2-4334-8228-2dde73e09fbe"},"vehicle_type_id":"4","last_reported":1713104728,"current_range_meters":1200,"station_id":"ce4bhnh2rcd13ifvqgug","pricing_plan_id":"cebpf4jnsgd1na2vs0mg"},{"bike_id":"46c65e54-09cf-4567-b716-789c726b239a","system_id":"levelo_inurba_marseille","lat":43.28151,"lon":5.42645,"is_reserved":false,"is_disabled":false,"rental_uris":{"android":"levelo://app?vid=46c65e54-09cf-4567-b716-789c726b239a","ios":"levelo://app?vid=46c65e54-09cf-4567-b716-789c726b239a"},"vehicle_type_id":"4","last_reported":1713104728,"current_range_meters":16000,"station_id":"ce4bhnh2rcd13ifvqgug","pricing_plan_id":"cebpf4jnsgd1na2vs0mg"},