{"last_updated":1746688237,"ttl":60,"version":"2.2","data":{"bikes":[{"bike_id":"92725351-a1ce-45d5-a552-16c91880da90","system_id":"levelo_inurba_marseille","lat":43.310677,"lon":5.383494,"is_reserved":false,"is_disabled":false,"rental_uris":{"android":"levelo://app?vid=92725351-a1ce-45d5-a552-16c91880da90","ios":"levelo://app?vid=92725351-a1ce-45d5-a552-16c91880da90"},"vehicle_type_id":"4","last_reported":1746688237,"current_range_meters":2800,"station_id":"ce4bgv92rcd13ifvqcr0","pricing_plan_id":"cebpf4jnsgd1na2vs0mg"},{"bike_id":"c9592205-9409-4f74-aed1-7c4141a58caa","system_id":"levelo_inurba_marseille","lat":43.271381,"lon":5.363664,"is_reserved":false,"is_disabled":false,"rental_uris":{"android":"levelo://app?vid=c9592205-9409-4f74-aed1-7c4141a58caa","ios":"levelo://app?vid=c9592205-9409-4f74-aed1-7c4141a58caa"},"vehicle_type_id":"4","last_reported":1746688237,"current_range_meters":2800,"station_id":"","pricing_plan_id":"cebpf4jnsgd1na2vs0mg"},{"bike_id":"5f89e5d8-8e5e-4a6d-901c-70aafb0a905d","system_id":"levelo_inurba_marseille","lat":43.29255,"lon":5.37477,"is_reserved":false,"is_disabled":false,"rental_uris":{"android":"levelo://app?vid=5f89e5d8-8e5e-4a6d-901c-70aafb0a905d","ios":"levelo://app?vid=5f89e5d8-8e5e-4a6d-901c-70aafb0a905d"},"vehicle_type_id":"4","last_reported":1746688237,"current_range_meters":3200,"station_id":"","pricing_plan_id":"cebpf4jnsgd1na2vs0mg"},{"bike_id":"705f1f6f-d92c-4df1-a512-943b0bf79900","system_id":"levelo_inurba_marseille","lat":43.22507,"lon":5.34788,"is_reserved":false,"is_disabled":false,"rental_uris":{"android":"levelo://app?vid=705f1f6f-d92c-4df1-a512-943b0bf79900","ios":"levelo://app?vid=705f1f6f-d92c-4df1-a512-943b0bf79900"},"vehicle_type_id":"4","last_reported":1746688237,"current_range_meters":3200,"station_id":"st_cvj5dfep6f1abm77gieg","pricing_plan_id":"cebpf4jnsgd1na2vs0mg"},{"bike_id":"c3426032-90ba-428d-ac25-167ce1c74c74","system_id":"levelo_inurba_marseille","lat":43.28448,"lon":5.3919,"is_reserved":false,"is_disabled":false,"rental_uris":{"android":"levelo://app?vid=c3426032-90ba-428d-ac25-167ce1c74c74","ios":"levelo://app?vid=c3426032-90ba-428d-ac25-167ce1c74c74"},"vehicle_type_id":"4","last_reported":1746688237,"current_range_meters":3200,"station_id":"ce4bhoh2rcd13ifvqh5g","pricing_plan_id":"cebpf4jnsgd1na2vs0mg"},{"bike_id":"20d25758-22d9-4e95-bc0f-ee6a37888c38","system_id":"levelo_inurba_marseille","lat":43.27376,"lon":5.36258,"is_reserved":false,"is_disabled":false,"rental_uris":{"android":"levelo://app?vid=20d25758-22d9-4e95-bc0f-ee6a37888c38","ios":"levelo://app?vid=20d25758-22d9-4e95-bc0f-ee6a37888c38"},"vehicle_type_id":"4","last_reported":1746688237,"current_range_meters":4000,"station_id":"ce4bhbh2rcd13ifvqeo0","pricing_plan_id":"cebpf4jnsgd1na2vs0mg"},{"bike_id":"6de07213-62c2-40a7-9abd-0118521d9d0c","system_id":"levelo_inurba_marseille","lat":43.29691,"lon":5.37299,"is_reserved":false,"is_disabled":false,"rental_uris":{"android":"levelo://app?vid=6de07213-62c2-40a7-9abd-0118521d9d0c","ios":"levelo://app?vid=6de07213-62c2-40a7-9abd-0118521d9d0c"},"vehicle_type_id":"4","last_reported":1746688237,"current_range_meters":4000,"station_id":"ce4bgk12rcd13ifvqbj0","pricing_plan_id":"cebpf4jnsgd1na2vs0mg"},{"bike_id":"406e84c6-4b16-44c2-b175-144ad146b8ce","system_id":"levelo_inurba_marseille","lat":43.290557,"lon":5.37173,"is_reserved":false,"is_disabled":false,"rental_uris":{"android":"levelo://app?vid=406e84c6-4b16-44c2-b175-144ad146b8ce","ios":"levelo://app?vid=406e84c6-4b16-44c2-b175-144ad146b8ce"},"vehicle_type_id":"4","last_reported":1746688237,"current_range_meters":4000,"station_id":"ce4bh5p2rcd13ifvqe4g","pricing_plan_id":"cebpf4jnsgd1na2vs0mg"},{"bike_id":"4ffe4636-e089-4bed-8651-8a5d07b6f76b","system_id":"levelo_inurba_marseille","lat":43.31711,"lon":5.40469,"is_reserved":false,"is_disabled":false,"rental_uris":{"android":"levelo://app?vid=4ffe4636-e089-4bed-8651-8a5d07b6f76b","ios":"levelo://app?vid=4ffe4636-e089-4bed-8651-8a5d07b6f76b"},"vehicle_type_id":"4","last_reported":1746688237,"current_range_meters":4400,"station_id":"ce4bh012rcd13ifvqd00","pricing_plan_id":"cebpf4jnsgd1na2vs0mg"},{"bike_id":"8b3475f1-d96a-481f-a6fc-f0269b282c82","system_id":"levelo_inurba_marseille","lat":43.29931,"lon":5.36538,"is_reserved":false,"is_disabled":false,"rental_uris":{"android":"levelo://app?vid=8b3475f1-d96a-481f-a6fc-f0269b282c82","ios":"levelo://app?vid=8b3475f1-d96a-481f-a6fc-f0269b282c82"},"vehicle_type_id":"4","last_reported":1746688237,"current_range_meters":4400,"station_id":"ce4bgm92rcd13ifvqbr0","pricing_plan_id":"cebpf4jnsgd1na2vs0mg"},{"bike_id":"6be85270-949b-41b0-bafa-6a9ac2af25b4","system_id":"levelo_inurba_marseille","lat":43.324,"lon":5.39001,"is_reserved":false,"is_disabled":true,"rental_uris":{"android":"levelo://app?vid=6be85270-949b-41b0-bafa-6a9ac2af25b4","ios":"levelo://app?vid=6be85270-949b-41b0-bafa-6a9ac2af25b4"},"vehicle_type_id":"4","last_reported":1746688237,"current_range_meters":4400,"station_id":"","pricing_plan_id":"cebpf4jnsgd1na2vs0mg"},{"bike_id":"ebcb5402-009b-4a85-a64a-1ddb8811c73b","system_id":"levelo_inurba_marseille","lat":43.302455,"lon":5.40083,"is_reserved":false,"is_disabled":true,"rental_uris":{"android":"levelo://app?vid=ebcb5402-009b-4a85-a64a-1ddb8811c73b","ios":"levelo://app?vid=ebcb5402-009b-4a85-a64a-1ddb8811c73b"},"vehicle_type_id":"4","last_reported":1746688237,"current_range_meters":5600,"station_id":"ce4bgvh2rcd13ifvqcs0","pricing_plan_id":"cebpf4jnsgd1na2vs0mg"},{"bike_id":"88f90c5c-6128-4b9d-bb34-6e1b40933e50","system_id":"levelo_inurba_marseille","lat":43.28189,"lon":5.4264,"is_reserved":false,"is_disabled":false,"rental_uris":{"android":"levelo://app?vid=88f90c5c-6128-4b9d-bb34-6e1b40933e50","ios":"levelo://app?vid=88f90c5c-6128-4b9d-bb34-6e1b40933e50"},"vehicle_type_id":"4","last_reported":1746688237,"current_range_meters":5600,"station_id":"ce4bhnh2rcd13ifvqgug","pricing_plan_id":"cebpf4jnsgd1na2vs0mg"},{"bike_id":"e01523e4-1be4-4374-9972-b703236c947c","system_id":"levelo_inurba_marseille","lat":43.264028,"lon":5.373859,"is_reserved":false,"is_disabled":false,"rental_uris":{"android":"levelo://app?vid=e01523e4-1be4-4374-9972-b703236c947c","ios":"levelo://app?vid=e01523e4-1be4-4374-9972-b703236c947c"},"vehicle_type_id":"4","last_reported":1746688237,"current_range_meters":5600,"station_id":"ce4bhhh2rcd13ifvqfk0","pricing_plan_id":"cebpf4jnsgd1na2vs0mg"},{"bike_id":"2eb3c6b8-2801-4650-907a-e3f09f8c5ba1","system_id":"levelo_inurba_marseille","lat":43.31172,"lon":5.38707,"is_reserved":false,"is_disabled":true,"rental_uris":{"android":"levelo://app?vid=2eb3c6b8-2801-4650-907a-e3f09f8c5ba1","ios":"levelo://app?vid=2eb3c6b8-2801-4650-907a-e3f09f8c5ba1"},"vehicle_type_id":"4","last_reported":1746688237,"current_range_meters":6000,"station_id":"ce4bgv12rcd13ifvqcp0","pricing_plan_id":"cebpf4jnsgd1na2vs0mg"},{"bike_id":"550a0abb-925d-499a-8bb1-f4f2c932bb08","system_id":"levelo_inurba_marseille","lat":43.23963,"lon":5.36632,"is_reserved":false,"is_disabled":false,"rental_uris":{"android":"levelo://app?vid=550a0abb-925d-499a-8bb1-f4f2c932bb08","ios":"levelo://app?vid=550a0abb-925d-499a-8bb1-f4f2c932bb08"},"vehicle_type_id":"4","last_reported":1746688237,"current_range_meters":6000,"station_id":"ce4bhi12rcd13ifvqfp0","pricing_plan_id":"cebpf4jnsgd1na2vs0mg"},{"bike_id":"e16a169d-ac6f-418c-a095-9a9b0792d8ff","system_id":"levelo_inurba_marseille","lat":43.28476,"lon":5.35877,"is_reserved":false,"is_disabled":false,"rental_uris":{"android":"levelo://app?vid=e16a169d-ac6f-418c-a095-9a9b0792d8ff","ios":"levelo://app?vid=e16a169d-ac6f-418c-a095-9a9b0792d8ff"},"vehicle_type_id":"4","last_reported":1746688237,"current_range_meters":6000,"station_id":"ce4bhah2rcd13ifvqei0","pricing_plan_id":"cebpf4jnsgd1na2vs0mg"},{"bike_id":"f29f3537-9728-4a76-a87e-2c92c1714818","system_id":"levelo_inurba_marseille","lat":43.30786,"lon":5.37654,"is_reserved":false,"is_disabled":false,"rental_uris":{"android":"levelo://app?vid=f29f3537-9728-4a76-a87e-2c92c1714818","ios":"levelo://app?vid=f29f3537-9728-4a76-a87e-2c92c1714818"},"vehicle_type_id":"4","last_reported":1746688237,"current_range_meters":6000,"station_id":"ce4bgv92rcd13ifvqcq0","pricing_plan_id":"cebpf4jnsgd1na2vs0mg"},{"bike_id":"aa6eaa6f-a172-4a31-8500-b76476b59cb3","system_id":"levelo_inurba_marseille","lat":43.23196,"lon":5.39975,"is_reserved":false,"is_disabled":false,"rental_uris":{"android":"levelo://app?vid=aa6eaa6f-a172-4a31-8500-b76476b59cb3","ios":"levelo://app?vid=aa6eaa6f-a172-4a31-8500-b76476b59cb3"},"vehicle_type_id":"4","last_reported":1746688237,"current_range_meters":6400,"station_id":"ce4bhn12rcd13ifvqgqg","pricing_plan_id":"cebpf4jnsgd1na2vs0mg"},{"bike_id":"082b5772-10bb-4282-bdbf-aa00094bbf28","system_id":"levelo_inurba_marseille","lat":43.27057,"lon":5.40268,"is_reserved":false,"is_disabled":false,"rental_uris":{"android":"levelo://app?vid=082b5772-10bb-4282-bdbf-aa00094bbf28","ios":"levelo://app?vid=082b5772-10bb-4282-bdbf-aa00094bbf28"},"vehicle_type_id":"4","last_reported":1746688237,"current_range_meters":6400,"station_id":"ce4bhk92rcd13ifvqgc0","pricing_plan_id":"cebpf4jnsgd1na2vs0mg"},{"bike_id":"27c49c0a-bab1-4693-8de3-144abafdcdd4","system_id":"levelo_inurba_marseille","lat":43.28616,"lon":5.35108,"is_reserved":false,"is_disabled":false,"rental_uris":{"android":"levelo://app?vid=27c49c0a-bab1-4693-8de3-144abafdcdd4","ios":"levelo://app?vid=27c49c0a-bab1-4693-8de3-144abafdcdd4"},"vehicle_type_id":"4","last_reported":1746688237,"current_range_meters":6400,"station_id":"ce4bhch2rcd13ifvqeug","pricing_plan_id":"cebpf4jnsgd1na2vs0mg"},{"bike_id":"649893a6-80b1-49ae-b6ca-bf7c45c9c074","system_id":"levelo_inurba_marseille","lat":43.24188,"lon":5.39723,"is_reserved":false,"is_disabled":false,"rental_uris":{"android":"levelo://app?vid=649893a6-80b1-49ae-b6ca-bf7c45c9c074","ios":"levelo://app?vid=649893a6-80b1-49ae-b6ca-bf7c45c9c074"},"vehicle_type_id":"4","last_reported":1746688237,"current_range_meters":6400,"station_id":"ce4bhn12rcd13ifvqgpg","pricing_plan_id":"cebpf4jnsgd1na2vs0mg"},{"bike_id":"9d03e3b9-cc02-47cb-8220-42e752a6ad34","system_id":"levelo_inurba_marseille","lat":43.281526,"lon":5.426405,"is_reserved":false,"is_disabled":false,"rental_uris":{"android":"levelo://app?vid=9d03e3b9-cc02-47cb-8220-42e752a6ad34","ios":"levelo://app?vid=9d03e3b9-cc02-47cb-8220-42e752a6ad34"},"vehicle_type_id":"4","last_reported":1746688237,"current_range_meters":6400,"station_id":"","pricing_plan_id":"cebpf4jnsgd1na2vs0mg"},{"bike_id":"e0553937-f215-4976-8af2-171073a472f8","system_id":"levelo_inurba_marseille","lat":43.25116,"lon":5.40323,"is_reserved":false,"is_disabled":false,"rental_uris":{"android":"levelo://app?vid=e0553937-f215-4976-8af2-171073a472f8","ios":"levelo://app?vid=e0553937-f215-4976-8af2-171073a472f8"},"vehicle_type_id":"4","last_reported":1746688237,"current_range_meters":6400,"station_id":"ce4bhlh2rcd13ifvqgig","pricing_plan_id":"cebpf4jnsgd1na2vs0mg"},{"bike_id":"0e10e92a-439e-4081-803c-5f351bcf88ef","system_id":"levelo_inurba_marseille","lat":43.27948,"lon":5.41061,"is_reserved":false,"is_disabled":false,"rental_uris":{"android":"levelo://app?vid=0e10e92a-439e-4081-803c-5f351bcf88ef","ios":"levelo://app?vid=0e10e92a-439e-4081-803c-5f351bcf88ef"},"vehicle_type_id":"4","last_reported":1746688237,"current_range_meters":6800,"station_id":"ce4bhnp2rcd13ifvqh0g","pricing_plan_id":"cebpf4jnsgd1na2vs0mg"},{"bike_id":"04a2f6ac-433a-4861-8556-795d51ded105","system_id":"levelo_inurba_marseille","lat":43.28618,"lon":5.35108,"is_reserved":false,"is_disabled":false,"rental_uris":{"android":"levelo://app?vid=04a2f6ac-433a-4861-8556-795d51ded105","ios":"levelo://app?vid=04a2f6ac-433a-4861-8556-795d51ded105"},"vehicle_type_id":"4","last_reported":1746688237,"current_range_meters":6800,"station_id":"ce4bhch2rcd13ifvqeug","pricing_plan_id":"cebpf4jnsgd1na2vs0mg"},{"bike_id":"96cde410-af28-430b-883d-e5b9a0d0cbac","system_id":"levelo_inurba_marseille","lat":43.25127,"lon":5.40343,"is_reserved":false,"is_disabled":false,"rental_uris":{"android":"levelo://app?vid=96cde410-af28-430b-883d-e5b9a0d0cbac","ios":"levelo://app?vid=96cde410-af28-430b-883d-e5b9a0d0cbac"},"vehicle_type_id":"4","last_reported":1746688237,"current_range_meters":6800,"station_id":"ce4bhlh2rcd13ifvqgig","pricing_plan_id":"cebpf4jnsgd1na2vs0mg"},{"bike_id":"dfd27e22-9b34-42f8-9fdf-f3a07c5bdce7","system_id":"levelo_inurba_marseille","lat":43.24166,"lon":5.36422,"is_reserved":false,"is_disabled":false,"rental_uris":{"android":"levelo://app?vid=dfd27e22-9b34-42f8-9fdf-f3a07c5bdce7","ios":"levelo://app?vid=dfd27e22-9b34-42f8-9fdf-f3a07c5bdce7"},"vehicle_type_id":"4","last_reported":1746688237,"current_range_meters":6800,"station_id":"cpo36qri1sfpv3e86is0","pricing_plan_id":"cebpf4jnsgd1na2vs0mg"},{"bike_id":"e643ab0a-d97d-4d9f-bf0d-21fd7dcb7558","system_id":"levelo_inurba_marseille","lat":43.32451,"lon":5.411422,"is_reserved":false,"is_disabled":false,"rental_uris":{"android":"levelo://app?vid=e643ab0a-d97d-4d9f-bf0d-21fd7dcb7558","ios":"levelo://app?vid=e643ab0a-d97d-4d9f-bf0d-21fd7dcb7558"},"vehicle_type_id":"4","last_reported":1746688237,"current_range_meters":6800,"station_id":"","pricing_plan_id":"cebpf4jnsgd1na2vs0mg"},{"bike_id":"58c1b0c6-2963-4e5a-9626-a6ed62216dc2","system_id":"levelo_inurba_marseille","lat":43.2986,"lon":5.36287,"is_reserved":false,"is_disabled":false,"rental_uris":{"android":"levelo://app?vid=58c1b0c6-2963-4e5a-9626-a6ed62216dc2","ios":"levelo://app?vid=58c1b0c6-2963-4e5a-9626-a6ed62216dc2"},"vehicle_type_id":"4","last_reported":1746688237,"current_range_meters":6800,"station_id":"ce4bgpp2rcd13ifvqc3g","pricing_plan_id":"cebpf4jnsgd1na2vs0mg"},{"bike_id":"fa63a7e4-e781-4293-89ae-80fbf3b33863","system_id":"levelo_inurba_marseille","lat":43.254597,"lon":5.418837,"is_reserved":false,"is_disabled":true,"rental_uris":{"android":"levelo://app?vid=fa63a7e4-e781-4293-89ae-80fbf3b33863","ios":"levelo://app?vid=fa63a7e4-e781-4293-89ae-80fbf3b33863"},"vehicle_type_id":"4","last_reported":1746688237,"current_range_meters":7200,"station_id":"","pricing_plan_id":"cebpf4jnsgd1na2vs0mg"},{"bike_id":"922f47de-f5fb-4e00-9974-a09ff3caf4c7","system_id":"levelo_inurba_marseille","lat":43.241804,"lon":5.397254,"is_reserved":false,"is_disabled":false,"rental_uris":{"android":"levelo://app?vid=922f47de-f5fb-4e00-9974-a09ff3caf4c7","ios":"levelo://app?vid=922f47de-f5fb-4e00-9974-a09ff3caf4c7"},"vehicle_type_id":"4","last_reported":1746688237,"current_range_meters":7200,"station_id":"ce4bhn12rcd13ifvqgpg","pricing_plan_id":"cebpf4jnsgd1na2vs0mg"},{"bike_id":"2e445f61-4a73-4073-acba-6c82db587ecc","system_id":"levelo_inurba_marseille","lat":43.29477,"lon":5.39632,"is_reserved":false,"is_disabled":true,"rental_uris":{"android":"levelo://app?vid=2e445f61-4a73-4073-acba-6c82db587ecc","ios":"levelo://app?vid=2e445f61-4a73-4073-acba-6c82db587ecc"},"vehicle_type_id":"4","last_reported":1746688237,"current_range_meters":7200,"station_id":"","pricing_plan_id":"cebpf4jnsgd1na2vs0mg"},{"bike_id":"de08f367-3ba8-4ab1-ad17-0f6a6563b4e5","system_id":"levelo_inurba_marseille","lat":43.282,"lon":5.39896,"is_reserved":false,"is_disabled":true,"rental_uris":{"android":"levelo://app?vid=de08f367-3ba8-4ab1-ad17-0f6a6563b4e5","ios":"levelo://app?vid=de08f367-3ba8-4ab1-ad17-0f6a6563b4e5"},"vehicle_type_id":"4","last_reported":1746688237,"current_range_meters":7200,"station_id":"","pricing_plan_id":"cebpf4jnsgd1na2vs0mg"},{"bike_id":"741b655c-a3a9-46a1-bbce-25f85ccce089","system_id":"levelo_inurba_marseille","lat":43.276585,"lon":5.38026,"is_reserved":false,"is_disabled":true,"rental_uris":{"android":"levelo://app?vid=741b655c-a3a9-46a1-bbce-25f85ccce089","ios":"levelo://app?vid=741b655c-a3a9-46a1-bbce-25f85ccce089"},"vehicle_type_id":"4","last_reported":1746688237,"current_range_meters":7200,"station_id":"","pricing_plan_id":"cebpf4jnsgd1na2vs0mg"},{"bike_id":"149dbc3f-738a-4425-9044-fb81967ea585","system_id":"levelo_inurba_marseille","lat":43.2303,"lon":5.35489,"is_reserved":false,"is_disabled":false,"rental_uris":{"android":"levelo://app?vid=149dbc3f-738a-4425-9044-fb81967ea585","ios":"levelo://app?vid=149dbc3f-738a-4425-9044-fb81967ea585"},"vehicle_type_id":"4","last_reported":1746688237,"current_range_meters":8000,"station_id":"cpo3342slgdg3j2ifvpg","pricing_plan_id":"cebpf4jnsgd1na2vs0mg"},{"bike_id":"cb0c7af2-6afd-4b1f-8385-4ddc5f23a118","system_id":"levelo_inurba_marseille","lat":43.292243,"lon":5.360597,"is_reserved":false,"is_disabled":false,"rental_uris":{"android":"levelo://app?vid=cb0c7af2-6afd-4b1f-8385-4ddc5f23a118","ios":"levelo://app?vid=cb0c7af2-6afd-4b1f-8385-4ddc5f23a118"},"vehicle_type_id":"4","last_reported":1746688237,"current_range_meters":8000,"station_id":"ce4bhbh2rcd13ifvqeqg","pricing_plan_id":"cebpf4jnsgd1na2vs0mg"},{"bike_id":"871d92dc-153b-42ec-8d90-34c9e0fb29bf","system_id":"levelo_inurba_marseille","lat":43.30621,"lon":5.39879,"is_reserved":false,"is_disabled":false,"rental_uris":{"android":"levelo://app?vid=871d92dc-153b-42ec-8d90-34c9e0fb29bf","ios":"levelo://app?vid=871d92dc-153b-42ec-8d90-34c9e0fb29bf"},"vehicle_type_id":"4","last_reported":1746688237,"current_range_meters":8000,"station_id":"","pricing_plan_id":"cebpf4jnsgd1na2vs0mg"},{"bike_id":"a96833c3-7aad-4769-953e-d8192a324355","system_id":"levelo_inurba_marseille","lat":43.22503,"lon":5.34787,"is_reserved":false,"is_disabled":false,"rental_uris":{"android":"levelo://app?vid=a96833c3-7aad-4769-953e-d8192a324355","ios":"levelo://app?vid=a96833c3-7aad-4769-953e-d8192a324355"},"vehicle_type_id":"4","last_reported":1746688237,"current_range_meters":8000,"station_id":"st_cvj5dfep6f1abm77gieg","pricing_plan_id":"cebpf4jnsgd1na2vs0mg"},{"bike_id":"028c3799-fdb4-49d4-90e9-300404e8fc36","system_id":"levelo_inurba_marseille","lat":43.32467,"lon":5.36595,"is_reserved":false,"is_disabled":true,"rental_uris":{"android":"levelo://app?vid=028c3799-fdb4-49d4-90e9-300404e8fc36","ios":"levelo://app?vid=028c3799-fdb4-49d4-90e9-300404e8fc36"},"vehicle_type_id":"4","last_reported":1746688237,"current_range_meters":8000,"station_id":"ce4bhs12rcd13ifvqhvg","pricing_plan_id":"cebpf4jnsgd1na2vs0mg"},{"bike_id":"b7bdbe3a-b7ec-4256-908f-dfa71835a5d1","system_id":"levelo_inurba_marseille","lat":43.2888,"lon":5.37132,"is_reserved":false,"is_disabled":false,"rental_uris":{"android":"levelo://app?vid=b7bdbe3a-b7ec-4256-908f-dfa71835a5d1","ios":"levelo://app?vid=b7bdbe3a-b7ec-4256-908f-dfa71835a5d1"},"vehicle_type_id":"4","last_reported":1746688237,"current_range_meters":8000,"station_id":"","pricing_plan_id":"cebpf4jnsgd1na2vs0mg"},{"bike_id":"be3a2ed9-e107-46dc-8066-89cfcff50847","system_id":"levelo_inurba_marseille","lat":43.29239,"lon":5.37128,"is_reserved":false,"is_disabled":false,"rental_uris":{"android":"levelo://app?vid=be3a2ed9-e107-46dc-8066-89cfcff50847","ios":"levelo://app?vid=be3a2ed9-e107-46dc-8066-89cfcff50847"},"vehicle_type_id":"4","last_reported":1746688237,"current_range_meters":8400,"station_id":"","pricing_plan_id":"cebpf4jnsgd1na2vs0mg"},{"bike_id":"e59273d9-1d25-49e7-8fcc-7ac339d3fc05","system_id":"levelo_inurba_marseille","lat":43.316295,"lon":5.40517,"is_reserved":false,"is_disabled":true,"rental_uris":{"android":"levelo://app?vid=e59273d9-1d25-49e7-8fcc-7ac339d3fc05","ios":"levelo://app?vid=e59273d9-1d25-49e7-8fcc-7ac339d3fc05"},"vehicle_type_id":"4","last_reported":1746688237,"current_range_meters":8400,"station_id":"ce4bh012rcd13ifvqd00","pricing_plan_id":"cebpf4jnsgd1na2vs0mg"},{"bike_id":"89420609-8590-4e4d-9042-8fb0e02b5686","system_id":"levelo_inurba_marseille","lat":43.241593,"lon":5.36398,"is_reserved":false,"is_disabled":false,"rental_uris":{"android":"levelo://app?vid=89420609-8590-4e4d-9042-8fb0e02b5686","ios":"levelo://app?vid=89420609-8590-4e4d-9042-8fb0e02b5686"},"vehicle_type_id":"4","last_reported":1746688237,"current_range_meters":8400,"station_id":"cpo36qri1sfpv3e86is0","pricing_plan_id":"cebpf4jnsgd1na2vs0mg"},{"bike_id":"de98c600-f638-4cff-9c9e-a1bfa0672c00","system_id":"levelo_inurba_marseille","lat":43.25737,"lon":5.41099,"is_reserved":false,"is_disabled":false,"rental_uris":{"android":"levelo://app?vid=de98c600-f638-4cff-9c9e-a1bfa0672c00","ios":"levelo://app?vid=de98c600-f638-4cff-9c9e-a1bfa0672c00"},"vehicle_type_id":"4","last_reported":1746688237,"current_range_meters":8400,"station_id":"ce4bhkp2rcd13ifvqgd0","pricing_plan_id":"cebpf4jnsgd1na2vs0mg"},{"bike_id":"c650db92-e467-494a-8ffb-fba552729a60","system_id":"levelo_inurba_marseille","lat":43.2396,"lon":5.36644,"is_reserved":false,"is_disabled":false,"rental_uris":{"android":"levelo://app?vid=c650db92-e467-494a-8ffb-fba552729a60","ios":"levelo://app?vid=c650db92-e467-494a-8ffb-fba552729a60"},"vehicle_type_id":"4","last_reported":1746688237,"current_range_meters":8400,"station_id":"ce4bhi12rcd13ifvqfp0","pricing_plan_id":"cebpf4jnsgd1na2vs0mg"},{"bike_id":"7ac090f6-ac88-4d74-bff6-95aa8d4e1c9d","system_id":"levelo_inurba_marseille","lat":43.28282,"lon":5.35061,"is_reserved":false,"is_disabled":true,"rental_uris":{"android":"levelo://app?vid=7ac090f6-ac88-4d74-bff6-95aa8d4e1c9d","ios":"levelo://app?vid=7ac090f6-ac88-4d74-bff6-95aa8d4e1c9d"},"vehicle_type_id":"4","last_reported":1746688237,"current_range_meters":8800,"station_id":"ce4bhbp2rcd13ifvqerg","pricing_plan_id":"cebpf4jnsgd1na2vs0mg"},{"bike_id":"ce40ea43-bacf-49f3-b5af-ffaf2a1f03b1","system_id":"levelo_inurba_marseille","lat":43.3045,"lon":5.36788,"is_reserved":false,"is_disabled":false,"rental_uris":{"android":"levelo://app?vid=ce40ea43-bacf-49f3-b5af-ffaf2a1f03b1","ios":"levelo://app?vid=ce40ea43-bacf-49f3-b5af-ffaf2a1f03b1"},"vehicle_type_id":"4","last_reported":1746688237,"current_range_meters":8800,"station_id":"","pricing_plan_id":"cebpf4jnsgd1na2vs0mg"},{"bike_id":"957aba25-c5b1-43b8-b7ae-7df1badff429","system_id":"levelo_inurba_marseille","lat":43.31277,"lon":5.40173,"is_reserved":false,"is_disabled":false,"rental_uris":{"android":"levelo://app?vid=957aba25-c5b1-43b8-b7ae-7df1badff429","ios":"levelo://app?vid=957aba25-c5b1-43b8-b7ae-7df1badff429"},"vehicle_type_id":"4","last_reported":1746688237,"current_range_meters":8800,"station_id":"ce4bh092rcd13ifvqd30","pricing_plan_id":"cebpf4jnsgd1na2vs0mg"},{"bike_id":"577c68d3-e214-4444-8d4f-e2a733fa506e","system_id":"levelo_inurba_marseille","lat":43.2708,"lon":5.422875,"is_reserved":false,"is_disabled":true,"rental_uris":{"android":"levelo://app?vid=577c68d3-e214-4444-8d4f-e2a733fa506e","ios":"levelo://app?vid=577c68d3-e214-4444-8d4f-e2a733fa506e"},"vehicle_type_id":"4","last_reported":1746688237,"current_range_meters":8800,"station_id":"ce4bhk92rcd13ifvqgb0","pricing_plan_id":"cebpf4jnsgd1na2vs0mg"},{"bike_id":"1f77a630-8a52-477b-86b4-44132d8564e3","system_id":"levelo_inurba_marseille","lat":43.23209,"lon":5.40045,"is_reserved":false,"is_disabled":false,"rental_uris":{"android":"levelo://app?vid=1f77a630-8a52-477b-86b4-44132d8564e3","ios":"levelo://app?vid=1f77a630-8a52-477b-86b4-44132d8564e3"},"vehicle_type_id":"4","last_reported":1746688237,"current_range_meters":8800,"station_id":"ce4bhn12rcd13ifvqgqg","pricing_plan_id":"cebpf4jnsgd1na2vs0mg"},{"bike_id":"063317dd-9f18-4540-b908-a60cc7cc9848","system_id":"levelo_inurba_marseille","lat":43.29589,"lon":5.37528,"is_reserved":false,"is_disabled":false,"rental_uris":{"android":"levelo://app?vid=063317dd-9f18-4540-b908-a60cc7cc9848","ios":"levelo://app?vid=063317dd-9f18-4540-b908-a60cc7cc9848"},"vehicle_type_id":"4","last_reported":1746688237,"current_range_meters":8800,"station_id":"ce4bgh92rcd13ifvqb50","pricing_plan_id":"cebpf4jnsgd1na2vs0mg"},{"bike_id":"569154da-5aba-4b6a-9874-971785801a0f","system_id":"levelo_inurba_marseille","lat":43.27828,"lon":5.40714,"is_reserved":false,"is_disabled":false,"rental_uris":{"android":"levelo://app?vid=569154da-5aba-4b6a-9874-971785801a0f","ios":"levelo://app?vid=569154da-5aba-4b6a-9874-971785801a0f"},"vehicle_type_id":"4","last_reported":1746688237,"current_range_meters":9200,"station_id":"ce4bhnh2rcd13ifvqgtg","pricing_plan_id":"cebpf4jnsgd1na2vs0mg"},{"bike_id":"f90504b1-69d0-454d-a9d6-21119d763b82","system_id":"levelo_inurba_marseille","lat":43.25103,"lon":5.40337,"is_reserved":false,"is_disabled":false,"rental_uris":{"android":"levelo://app?vid=f90504b1-69d0-454d-a9d6-21119d763b82","ios":"levelo://app?vid=f90504b1-69d0-454d-a9d6-21119d763b82"},"vehicle_type_id":"4","last_reported":1746688237,"current_range_meters":9200,"station_id":"ce4bhlh2rcd13ifvqgig","pricing_plan_id":"cebpf4jnsgd1na2vs0mg"},{"bike_id":"c86c0460-a330-4629-a87c-3337fb16b91e","system_id":"levelo_inurba_marseille","lat":43.21754,"lon":5.34601,"is_reserved":false,"is_disabled":true,"rental_uris":{"android":"levelo://app?vid=c86c0460-a330-4629-a87c-3337fb16b91e","ios":"levelo://app?vid=c86c0460-a330-4629-a87c-3337fb16b91e"},"vehicle_type_id":"4","last_reported":1746688237,"current_range_meters":9600,"station_id":"st_cvj6r9ubvosntc0bgbag","pricing_plan_id":"cebpf4jnsgd1na2vs0mg"},{"bike_id":"8bbd2297-75b9-4288-bc6d-1be3b3ff638a","system_id":"levelo_inurba_marseille","lat":43.27061,"lon":5.40264,"is_reserved":false,"is_disabled":false,"rental_uris":{"android":"levelo://app?vid=8bbd2297-75b9-4288-bc6d-1be3b3ff638a","ios":"levelo://app?vid=8bbd2297-75b9-4288-bc6d-1be3b3ff638a"},"vehicle_type_id":"4","last_reported":1746688237,"current_range_meters":9600,"station_id":"ce4bhk92rcd13ifvqgc0","pricing_plan_id":"cebpf4jnsgd1na2vs0mg"},{"bike_id":"9a8e0843-2f92-428d-bea1-017dbce99426","system_id":"levelo_inurba_marseille","lat":43.30459,"lon":5.3789,"is_reserved":false,"is_disabled":true,"rental_uris":{"android":"levelo://app?vid=9a8e0843-2f92-428d-bea1-017dbce99426","ios":"levelo://app?vid=9a8e0843-2f92-428d-bea1-017dbce99426"},"vehicle_type_id":"4","last_reported":1746688237,"current_range_meters":9600,"station_id":"ce4bgup2rcd13ifvqcn0","pricing_plan_id":"cebpf4jnsgd1na2vs0mg"},{"bike_id":"b15fe93b-1059-4d75-abd3-040e349ce402","system_id":"levelo_inurba_marseille","lat":43.30109,"lon":5.36998,"is_reserved":false,"is_disabled":false,"rental_uris":{"android":"levelo://app?vid=b15fe93b-1059-4d75-abd3-040e349ce402","ios":"levelo://app?vid=b15fe93b-1059-4d75-abd3-040e349ce402"},"vehicle_type_id":"4","last_reported":1746688237,"current_range_meters":9600,"station_id":"","pricing_plan_id":"cebpf4jnsgd1na2vs0mg"},{"bike_id":"3ff97c15-77c0-41de-8e71-21d6d5ebd16f","system_id":"levelo_inurba_marseille","lat":43.30379,"lon":5.42483,"is_reserved":false,"is_disabled":false,"rental_uris":{"android":"levelo://app?vid=3ff97c15-77c0-41de-8e71-21d6d5ebd16f","ios":"levelo://app?vid=3ff97c15-77c0-41de-8e71-21d6d5ebd16f"},"vehicle_type_id":"4","last_reported":1746688237,"current_range_meters":9600,"station_id":"ce4bhoh2rcd13ifvqh6g","pricing_plan_id":"cebpf4jnsgd1na2vs0mg"},{"bike_id":"c9b0b31a-f8a2-4fcb-9273-fef7ef46d5b5","system_id":"levelo_inurba_marseille","lat":43.25584,"lon":5.38232,"is_reserved":false,"is_disabled":false,"rental_uris":{"android":"levelo://app?vid=c9b0b31a-f8a2-4fcb-9273-fef7ef46d5b5","ios":"levelo://app?vid=c9b0b31a-f8a2-4fcb-9273-fef7ef46d5b5"},"vehicle_type_id":"4","last_reported":1746688237,"current_range_meters":9600,"station_id":"ce4bhih2rcd13ifvqfs0","pricing_plan_id":"cebpf4jnsgd1na2vs0mg"},{"bike_id":"da1da5b7-01c4-402d-9f7a-8ee4a44e531b","system_id":"levelo_inurba_marseille","lat":43.23161,"lon":5.43724,"is_reserved":false,"is_disabled":false,"rental_uris":{"android":"levelo://app?vid=da1da5b7-01c4-402d-9f7a-8ee4a44e531b","ios":"levelo://app?vid=da1da5b7-01c4-402d-9f7a-8ee4a44e531b"},"vehicle_type_id":"4","last_reported":1746688237,"current_range_meters":9600,"station_id":"ce4bhmp2rcd13ifvqgog","pricing_plan_id":"cebpf4jnsgd1na2vs0mg"},{"bike_id":"2bce3cf3-a2b4-49ad-b199-fabe0a11816c","system_id":"levelo_inurba_marseille","lat":43.30147,"lon":5.38072,"is_reserved":false,"is_disabled":false,"rental_uris":{"android":"levelo://app?vid=2bce3cf3-a2b4-49ad-b199-fabe0a11816c","ios":"levelo://app?vid=2bce3cf3-a2b4-49ad-b199-fabe0a11816c"},"vehicle_type_id":"4","last_reported":1746688237,"current_range_meters":10000,"station_id":"ce4bgjp2rcd13ifvqbh0","pricing_plan_id":"cebpf4jnsgd1na2vs0mg"},{"bike_id":"d1d21c83-9033-4720-aeec-d3880dfbf0dd","system_id":"levelo_inurba_marseille","lat":43.31756,"lon":5.39028,"is_reserved":false,"is_disabled":false,"rental_uris":{"android":"levelo://app?vid=d1d21c83-9033-4720-aeec-d3880dfbf0dd","ios":"levelo://app?vid=d1d21c83-9033-4720-aeec-d3880dfbf0dd"},"vehicle_type_id":"4","last_reported":1746688237,"current_range_meters":10000,"station_id":"ce4bhqp2rcd13ifvqhng","pricing_plan_id":"cebpf4jnsgd1na2vs0mg"},{"bike_id":"5a6722e8-7e29-4870-b83e-5f99be846d90","system_id":"levelo_inurba_marseille","lat":43.2721,"lon":5.39186,"is_reserved":false,"is_disabled":true,"rental_uris":{"android":"levelo://app?vid=5a6722e8-7e29-4870-b83e-5f99be846d90","ios":"levelo://app?vid=5a6722e8-7e29-4870-b83e-5f99be846d90"},"vehicle_type_id":"4","last_reported":1746688237,"current_range_meters":10000,"station_id":"ce4bhhp2rcd13ifvqfm0","pricing_plan_id":"cebpf4jnsgd1na2vs0mg"},{"bike_id":"eff01a47-9a9f-4a02-be20-e3fd0c3270dd","system_id":"levelo_inurba_marseille","lat":43.3064,"lon":5.40093,"is_reserved":false,"is_disabled":false,"rental_uris":{"android":"levelo://app?vid=eff01a47-9a9f-4a02-be20-e3fd0c3270dd","ios":"levelo://app?vid=eff01a47-9a9f-4a02-be20-e3fd0c3270dd"},"vehicle_type_id":"4","last_reported":1746688237,"current_range_meters":10000,"station_id":"ce4bh112rcd13ifvqda0","pricing_plan_id":"cebpf4jnsgd1na2vs0mg"},{"bike_id":"e5536c63-7559-437b-8afa-b4350cca2c29","system_id":"levelo_inurba_marseille","lat":43.23187,"lon":5.39964,"is_reserved":false,"is_disabled":false,"rental_uris":{"android":"levelo://app?vid=e5536c63-7559-437b-8afa-b4350cca2c29","ios":"levelo://app?vid=e5536c63-7559-437b-8afa-b4350cca2c29"},"vehicle_type_id":"4","last_reported":1746688237,"current_range_meters":10800,"station_id":"ce4bhn12rcd13ifvqgqg","pricing_plan_id":"cebpf4jnsgd1na2vs0mg"},{"bike_id":"20da30d8-616a-42d7-b387-2934b1539b36","system_id":"levelo_inurba_marseille","lat":43.25936,"lon":5.40838,"is_reserved":false,"is_disabled":false,"rental_uris":{"android":"levelo://app?vid=20da30d8-616a-42d7-b387-2934b1539b36","ios":"levelo://app?vid=20da30d8-616a-42d7-b387-2934b1539b36"},"vehicle_type_id":"4","last_reported":1746688237,"current_range_meters":10800,"station_id":"ce4bhm92rcd13ifvqglg","pricing_plan_id":"cebpf4jnsgd1na2vs0mg"},{"bike_id":"50b21fcb-b715-420e-a8ef-b11d57e63836","system_id":"levelo_inurba_marseille","lat":43.25115,"lon":5.40314,"is_reserved":false,"is_disabled":false,"rental_uris":{"android":"levelo://app?vid=50b21fcb-b715-420e-a8ef-b11d57e63836","ios":"levelo://app?vid=50b21fcb-b715-420e-a8ef-b11d57e63836"},"vehicle_type_id":"4","last_reported":1746688237,"current_range_meters":10800,"station_id":"ce4bhlh2rcd13ifvqgig","pricing_plan_id":"cebpf4jnsgd1na2vs0mg"},{"bike_id":"1eace673-3a00-40bd-93b8-c982c5e56958","system_id":"levelo_inurba_marseille","lat":43.295518,"lon":5.422834,"is_reserved":false,"is_disabled":false,"rental_uris":{"android":"levelo://app?vid=1eace673-3a00-40bd-93b8-c982c5e56958","ios":"levelo://app?vid=1eace673-3a00-40bd-93b8-c982c5e56958"},"vehicle_type_id":"4","last_reported":1746688237,"current_range_meters":10800,"station_id":"ce4bhph2rcd13ifvqhdg","pricing_plan_id":"cebpf4jnsgd1na2vs0mg"},{"bike_id":"cb5561fb-3ed2-49bf-bd58-7c8862116c78","system_id":"levelo_inurba_marseille","lat":43.21189,"lon":5.35067,"is_reserved":false,"is_disabled":false,"rental_uris":{"android":"levelo://app?vid=cb5561fb-3ed2-49bf-bd58-7c8862116c78","ios":"levelo://app?vid=cb5561fb-3ed2-49bf-bd58-7c8862116c78"},"vehicle_type_id":"4","last_reported":1746688237,"current_range_meters":10800,"station_id":"st_cvj6sg6p6f1abm77japg","pricing_plan_id":"cebpf4jnsgd1na2vs0mg"},{"bike_id":"919141c0-9a32-463b-b3db-5eeefef206a5","system_id":"levelo_inurba_marseille","lat":43.30298,"lon":5.36897,"is_reserved":false,"is_disabled":false,"rental_uris":{"android":"levelo://app?vid=919141c0-9a32-463b-b3db-5eeefef206a5","ios":"levelo://app?vid=919141c0-9a32-463b-b3db-5eeefef206a5"},"vehicle_type_id":"4","last_reported":1746688237,"current_range_meters":11200,"station_id":"ce4bgqh2rcd13ifvqc5g","pricing_plan_id":"cebpf4jnsgd1na2vs0mg"},{"bike_id":"5453c7c8-d7df-431d-98db-167d3c16d978","system_id":"levelo_inurba_marseille","lat":43.313594,"lon":5.385077,"is_reserved":false,"is_disabled":false,"rental_uris":{"android":"levelo://app?vid=5453c7c8-d7df-431d-98db-167d3c16d978","ios":"levelo://app?vid=5453c7c8-d7df-431d-98db-167d3c16d978"},"vehicle_type_id":"4","last_reported":1746688237,"current_range_meters":11600,"station_id":"ce4bgt92rcd13ifvqcf0","pricing_plan_id":"cebpf4jnsgd1na2vs0mg"},{"bike_id":"9209774a-06b7-47c7-a6eb-adc0c3f47cff","system_id":"levelo_inurba_marseille","lat":43.25565,"lon":5.38252,"is_reserved":false,"is_disabled":false,"rental_uris":{"android":"levelo://app?vid=9209774a-06b7-47c7-a6eb-adc0c3f47cff","ios":"levelo://app?vid=9209774a-06b7-47c7-a6eb-adc0c3f47cff"},"vehicle_type_id":"4","last_reported":1746688237,"current_range_meters":11600,"station_id":"ce4bhih2rcd13ifvqfs0","pricing_plan_id":"cebpf4jnsgd1na2vs0mg"},{"bike_id":"84628364-7e3f-47f9-bbf2-3101fea10d79","system_id":"levelo_inurba_marseille","lat":43.295585,"lon":5.4228,"is_reserved":false,"is_disabled":true,"rental_uris":{"android":"levelo://app?vid=84628364-7e3f-47f9-bbf2-3101fea10d79","ios":"levelo://app?vid=84628364-7e3f-47f9-bbf2-3101fea10d79"},"vehicle_type_id":"4","last_reported":1746688237,"current_range_meters":11600,"station_id":"ce4bhph2rcd13ifvqhdg","pricing_plan_id":"cebpf4jnsgd1na2vs0mg"},{"bike_id":"64dab746-93e0-4824-b34e-65a47b8ffaa8","system_id":"levelo_inurba_marseille","lat":43.29684,"lon":5.3729,"is_reserved":false,"is_disabled":false,"rental_uris":{"android":"levelo://app?vid=64dab746-93e0-4824-b34e-65a47b8ffaa8","ios":"levelo://app?vid=64dab746-93e0-4824-b34e-65a47b8ffaa8"},"vehicle_type_id":"4","last_reported":1746688237,"current_range_meters":12000,"station_id":"ce4bgk12rcd13ifvqbj0","pricing_plan_id":"cebpf4jnsgd1na2vs0mg"},{"bike_id":"1f15f142-0aa6-4262-9be6-feab51b3c83c","system_id":"levelo_inurba_marseille","lat":43.29019,"lon":5.37564,"is_reserved":false,"is_disabled":false,"rental_uris":{"android":"levelo://app?vid=1f15f142-0aa6-4262-9be6-feab51b3c83c","ios":"levelo://app?vid=1f15f142-0aa6-4262-9be6-feab51b3c83c"},"vehicle_type_id":"4","last_reported":1746688237,"current_range_meters":12000,"station_id":"ce4bh692rcd13ifvqe90","pricing_plan_id":"cebpf4jnsgd1na2vs0mg"},{"bike_id":"492a7a57-4c14-4260-ba62-da55dda4a419","system_id":"levelo_inurba_marseille","lat":43.323394,"lon":5.406158,"is_reserved":false,"is_disabled":false,"rental_uris":{"android":"levelo://app?vid=492a7a57-4c14-4260-ba62-da55dda4a419","ios":"levelo://app?vid=492a7a57-4c14-4260-ba62-da55dda4a419"},"vehicle_type_id":"4","last_reported":1746688237,"current_range_meters":12400,"station_id":"ce4bhq92rcd13ifvqhjg","pricing_plan_id":"cebpf4jnsgd1na2vs0mg"},{"bike_id":"e945a495-d359-4bb7-bb94-1340aff95955","system_id":"levelo_inurba_marseille","lat":43.28169,"lon":5.40608,"is_reserved":false,"is_disabled":false,"rental_uris":{"android":"levelo://app?vid=e945a495-d359-4bb7-bb94-1340aff95955","ios":"levelo://app?vid=e945a495-d359-4bb7-bb94-1340aff95955"},"vehicle_type_id":"4","last_reported":1746688237,"current_range_meters":12400,"station_id":"","pricing_plan_id":"cebpf4jnsgd1na2vs0mg"},{"bike_id":"809c8673-c032-46b9-aa07-62c38e26d44e","system_id":"levelo_inurba_marseille","lat":43.25084,"lon":5.38777,"is_reserved":false,"is_disabled":false,"rental_uris":{"android":"levelo://app?vid=809c8673-c032-46b9-aa07-62c38e26d44e","ios":"levelo://app?vid=809c8673-c032-46b9-aa07-62c38e26d44e"},"vehicle_type_id":"4","last_reported":1746688237,"current_range_meters":12800,"station_id":"","pricing_plan_id":"cebpf4jnsgd1na2vs0mg"},{"bike_id":"2574c1c6-9761-4223-8bf8-0f4ec6798a10","system_id":"levelo_inurba_marseille","lat":43.25133,"lon":5.40355,"is_reserved":false,"is_disabled":false,"rental_uris":{"android":"levelo://app?vid=2574c1c6-9761-4223-8bf8-0f4ec6798a10","ios":"levelo://app?vid=2574c1c6-9761-4223-8bf8-0f4ec6798a10"},"vehicle_type_id":"4","last_reported":1746688237,"current_range_meters":12800,"station_id":"ce4bhlh2rcd13ifvqgig","pricing_plan_id":"cebpf4jnsgd1na2vs0mg"},{"bike_id":"ab0829c7-4dad-444c-acbb-a5c3d542fa8c","system_id":"levelo_inurba_marseille","lat":43.240816,"lon":5.377512,"is_reserved":false,"is_disabled":false,"rental_uris":{"android":"levelo://app?vid=ab0829c7-4dad-444c-acbb-a5c3d542fa8c","ios":"levelo://app?vid=ab0829c7-4dad-444c-acbb-a5c3d542fa8c"},"vehicle_type_id":"4","last_reported":1746688237,"current_range_meters":12800,"station_id":"ce4bhnp2rcd13ifvqgvg","pricing_plan_id":"cebpf4jnsgd1na2vs0mg"},{"bike_id":"cdd1a03f-737e-4811-b1b5-58107a288685","system_id":"levelo_inurba_marseille","lat":43.28704,"lon":5.39985,"is_reserved":false,"is_disabled":false,"rental_uris":{"android":"levelo://app?vid=cdd1a03f-737e-4811-b1b5-58107a288685","ios":"levelo://app?vid=cdd1a03f-737e-4811-b1b5-58107a288685"},"vehicle_type_id":"4","last_reported":1746688237,"current_range_meters":12800,"station_id":"ce4bho92rcd13ifvqh3g","pricing_plan_id":"cebpf4jnsgd1na2vs0mg"},{"bike_id":"2fb5d2b7-d4bc-4f68-aeaa-72cdbfa76124","system_id":"levelo_inurba_marseille","lat":43.27838,"lon":5.39214,"is_reserved":false,"is_disabled":false,"rental_uris":{"android":"levelo://app?vid=2fb5d2b7-d4bc-4f68-aeaa-72cdbfa76124","ios":"levelo://app?vid=2fb5d2b7-d4bc-4f68-aeaa-72cdbfa76124"},"vehicle_type_id":"4","last_reported":1746688237,"current_range_meters":13600,"station_id":"ce4bhjp2rcd13ifvqga0","pricing_plan_id":"cebpf4jnsgd1na2vs0mg"},{"bike_id":"2aace568-ac2f-49c7-9458-5246d5166cd0","system_id":"levelo_inurba_marseille","lat":43.28156,"lon":5.42639,"is_reserved":false,"is_disabled":false,"rental_uris":{"android":"levelo://app?vid=2aace568-ac2f-49c7-9458-5246d5166cd0","ios":"levelo://app?vid=2aace568-ac2f-49c7-9458-5246d5166cd0"},"vehicle_type_id":"4","last_reported":1746688237,"current_range_meters":14000,"station_id":"ce4bhnh2rcd13ifvqgug","pricing_plan_id":"cebpf4jnsgd1na2vs0mg"},{"bike_id":"179e39d6-f393-46e0-b36a-f5293148431d","system_id":"levelo_inurba_marseille","lat":43.3247,"lon":5.36589,"is_reserved":false,"is_disabled":true,"rental_uris":{"android":"levelo://app?vid=179e39d6-f393-46e0-b36a-f5293148431d","ios":"levelo://app?vid=179e39d6-f393-46e0-b36a-f5293148431d"},"vehicle_type_id":"4","last_reported":1746688237,"current_range_meters":14000,"station_id":"ce4bhs12rcd13ifvqhvg","pricing_plan_id":"cebpf4jnsgd1na2vs0mg"},{"bike_id":"47cd9dba-9c5a-4de3-a27d-45ec0de547bc","system_id":"levelo_inurba_marseille","lat":43.28833,"lon":5.43318,"is_reserved":false,"is_disabled":false,"rental_uris":{"android":"levelo://app?vid=47cd9dba-9c5a-4de3-a27d-45ec0de547bc","ios":"levelo://app?vid=47cd9dba-9c5a-4de3-a27d-45ec0de547bc"},"vehicle_type_id":"4","last_reported":1746688237,"current_range_meters":14000,"station_id":"ce4bhnh2rcd13ifvqgug","pricing_plan_id":"cebpf4jnsgd1na2vs0mg"},{"bike_id":"bcf4e0a2-3ec1-4ad1-923d-e1a02a1993c5","system_id":"levelo_inurba_marseille","lat":43.28001,"lon":5.40015,"is_reserved":false,"is_disabled":false,"rental_uris":{"android":"levelo://app?vid=bcf4e0a2-3ec1-4ad1-923d-e1a02a1993c5","ios":"levelo://app?vid=bcf4e0a2-3ec1-4ad1-923d-e1a02a1993c5"},"vehicle_type_id":"4","last_reported":1746688237,"current_range_meters":14400,"station_id":"ce4bho92rcd13ifvqh4g","pricing_plan_id":"cebpf4jnsgd1na2vs0mg"},{"bike_id":"7a446a61-a959-4d15-8843-edd4d3291cf4","system_id":"levelo_inurba_marseille","lat":43.29521,"lon":5.38537,"is_reserved":false,"is_disabled":false,"rental_uris":{"android":"levelo://app?vid=7a446a61-a959-4d15-8843-edd4d3291cf4","ios":"levelo://app?vid=7a446a61-a959-4d15-8843-edd4d3291cf4"},"vehicle_type_id":"4","last_reported":1746688237,"current_range_meters":16800,"station_id":"ce4bgih2rcd13ifvqba0","pricing_plan_id":"cebpf4jnsgd1na2vs0mg"},{"bike_id":"caccb556-2ad0-45b8-84b8-819024dd44e6","system_id":"levelo_inurba_marseille","lat":43.29792,"lon":5.36815,"is_reserved":false,"is_disabled":false,"rental_uris":{"android":"levelo://app?vid=caccb556-2ad0-45b8-84b8-819024dd44e6","ios":"levelo://app?vid=caccb556-2ad0-45b8-84b8-819024dd44e6"},"vehicle_type_id":"4","last_reported":1746688237,"current_range_meters":14800,"station_id":"","pricing_plan_id":"cebpf4jnsgd1na2vs0mg"},{"bike_id":"1f0ec024-dd17-4e6c-b386-b5410269e547","system_id":"levelo_inurba_marseille","lat":43.30235,"lon":5.40056,"is_reserved":false,"is_disabled":false,"rental_uris":{"android":"levelo://app?vid=1f0ec024-dd17-4e6c-b386-b5410269e547","ios":"levelo://app?vid=1f0ec024-dd17-4e6c-b386-b5410269e547"},"vehicle_type_id":"4","last_reported":1746688237,"current_range_meters":14800,"station_id":"ce4bgvh2rcd13ifvqcs0","pricing_plan_id":"cebpf4jnsgd1na2vs0mg"},{"bike_id":"6971f759-8594-489e-a8f6-9153c9a9c438","system_id":"levelo_inurba_marseille","lat":43.276837,"lon":5.419664,"is_reserved":false,"is_disabled":false,"rental_uris":{"android":"levelo://app?vid=6971f759-8594-489e-a8f6-9153c9a9c438","ios":"levelo://app?vid=6971f759-8594-489e-a8f6-9153c9a9c438"},"vehicle_type_id":"4","last_reported":1746688237,"current_range_meters":14800,"station_id":"","pricing_plan_id":"cebpf4jnsgd1na2vs0mg"},{"bike_id":"89f953df-2061-408d-8f0d-6a2938e5443a","system_id":"levelo_inurba_marseille","lat":43.23675,"lon":5.4034,"is_reserved":false,"is_disabled":false,"rental_uris":{"android":"levelo://app?vid=89f953df-2061-408d-8f0d-6a2938e5443a","ios":"levelo://app?vid=89f953df-2061-408d-8f0d-6a2938e5443a"},"vehicle_type_id":"4","last_reported":1746688237,"current_range_meters":16000,"station_id":"","pricing_plan_id":"cebpf4jnsgd1na2vs0mg"},{"bike_id":"e6282093-23fb-41a9-859d-c0d9ad966535","system_id":"levelo_inurba_marseille","lat":43.317029,"lon":5.377271,"is_reserved":false,"is_disabled":false,"rental_uris":{"android":"levelo://app?vid=e6282093-23fb-41a9-859d-c0d9ad966535","ios":"levelo://app?vid=e6282093-23fb-41a9-859d-c0d9ad966535"},"vehicle_type_id":"4","last_reported":1746688237,"current_range_meters":16000,"station_id":"ce4bgth2rcd13ifvqch0","pricing_plan_id":"cebpf4jnsgd1na2vs0mg"},{"bike_id":"6a12e15e-b49d-4142-b121-ab33a215e4e1","system_id":"levelo_inurba_marseille","lat":43.31335,"lon":5.3972,"is_reserved":false,"is_disabled":true,"rental_uris":{"android":"levelo://app?vid=6a12e15e-b49d-4142-b121-ab33a215e4e1","ios":"levelo://app?vid=6a12e15e-b49d-4142-b121-ab33a215e4e1"},"vehicle_type_id":"4","last_reported":1746688237,"current_range_meters":16400,"station_id":"ce4bgvp2rcd13ifvqcu0","pricing_plan_id":"cebpf4jnsgd1na2vs0mg"},{"bike_id":"49e1edb5-3fad-4311-9de7-56cceb654a91","system_id":"levelo_inurba_marseille","lat":43.26807,"lon":5.40245,"is_reserved":false,"is_disabled":false,"rental_uris":{"android":"levelo://app?vid=49e1edb5-3fad-4311-9de7-56cceb654a91","ios":"levelo://app?vid=49e1edb5-3fad-4311-9de7-56cceb654a91"},"vehicle_type_id":"4","last_reported":1746688237,"current_range_meters":16400,"station_id":"ce501612rcd8frsf0b60","pricing_plan_id":"cebpf4jnsgd1na2vs0mg"},{"bike_id":"e433a49d-4b63-4b26-816f-c8626448fe9e","system_id":"levelo_inurba_marseille","lat":43.29961,"lon":5.41329,"is_reserved":false,"is_disabled":true,"rental_uris":{"android":"levelo://app?vid=e433a49d-4b63-4b26-816f-c8626448fe9e","ios":"levelo://app?vid=e433a49d-4b63-4b26-816f-c8626448fe9e"},"vehicle_type_id":"4","last_reported":1746688237,"current_range_meters":16400,"station_id":"ce4bhp12rcd13ifvqh9g","pricing_plan_id":"cebpf4jnsgd1na2vs0mg"},{"bike_id":"ca1c24f3-5489-4852-ad73-45ac71d90e90","system_id":"levelo_inurba_marseille","lat":43.28411,"lon":5.3499,"is_reserved":false,"is_disabled":true,"rental_uris":{"android":"levelo://app?vid=ca1c24f3-5489-4852-ad73-45ac71d90e90","ios":"levelo://app?vid=ca1c24f3-5489-4852-ad73-45ac71d90e90"},"vehicle_type_id":"4","last_reported":1746688237,"current_range_meters":16800,"station_id":"ce4bhbh2rcd13ifvqepg","pricing_plan_id":"cebpf4jnsgd1na2vs0mg"},{"bike_id":"e9135506-ad92-4336-9c8f-389560d4b052","system_id":"levelo_inurba_marseille","lat":43.313785,"lon":5.38503,"is_reserved":false,"is_disabled":false,"rental_uris":{"android":"levelo://app?vid=e9135506-ad92-4336-9c8f-389560d4b052","ios":"levelo://app?vid=e9135506-ad92-4336-9c8f-389560d4b052"},"vehicle_type_id":"4","last_reported":1746688237,"current_range_meters":16800,"station_id":"ce4bgt92rcd13ifvqcf0","pricing_plan_id":"cebpf4jnsgd1na2vs0mg"},{"bike_id":"70a29a45-574c-4ff1-aca3-740aa0e705be","system_id":"levelo_inurba_marseille","lat":43.241675,"lon":5.363911,"is_reserved":false,"is_disabled":false,"rental_uris":{"android":"levelo://app?vid=70a29a45-574c-4ff1-aca3-740aa0e705be","ios":"levelo://app?vid=70a29a45-574c-4ff1-aca3-740aa0e705be"},"vehicle_type_id":"4","last_reported":1746688237,"current_range_meters":16800,"station_id":"cpo36qri1sfpv3e86is0","pricing_plan_id":"cebpf4jnsgd1na2vs0mg"},{"bike_id":"386441d1-d0cd-4783-a499-3625d3e469b1","system_id":"levelo_inurba_marseille","lat":43.2818,"lon":5.36347,"is_reserved":false,"is_disabled":true,"rental_uris":{"android":"levelo://app?vid=386441d1-d0cd-4783-a499-3625d3e469b1","ios":"levelo://app?vid=386441d1-d0cd-4783-a499-3625d3e469b1"},"vehicle_type_id":"4","last_reported":1746688237,"current_range_meters":16800,"station_id":"","pricing_plan_id":"cebpf4jnsgd1na2vs0mg"},{"bike_id":"ad3912e1-02bc-450f-9f15-6e4766049115","system_id":"levelo_inurba_marseille","lat":43.29563,"lon":5.4229,"is_reserved":false,"is_disabled":false,"rental_uris":{"android":"levelo://app?vid=ad3912e1-02bc-450f-9f15-6e4766049115","ios":"levelo://app?vid=ad3912e1-02bc-450f-9f15-6e4766049115"},"vehicle_type_id":"4","last_reported":1746688237,"current_range_meters":17200,"station_id":"ce4bhph2rcd13ifvqhdg","pricing_plan_id":"cebpf4jnsgd1na2vs0mg"},{"bike_id":"54272090-29e3-4a6f-9a52-5e9dc22600d2","system_id":"levelo_inurba_marseille","lat":43.26949,"lon":5.4025,"is_reserved":false,"is_disabled":false,"rental_uris":{"android":"levelo://app?vid=54272090-29e3-4a6f-9a52-5e9dc22600d2","ios":"levelo://app?vid=54272090-29e3-4a6f-9a52-5e9dc22600d2"},"vehicle_type_id":"4","last_reported":1746688237,"current_range_meters":17200,"station_id":"cjm6bp8fraef2m0cb0m0","pricing_plan_id":"cebpf4jnsgd1na2vs0mg"},{"bike_id":"e85fb6e7-29b9-4a2c-aa10-343a3bf1aacc","system_id":"levelo_inurba_marseille","lat":43.29907,"lon":5.4366,"is_reserved":false,"is_disabled":false,"rental_uris":{"android":"levelo://app?vid=e85fb6e7-29b9-4a2c-aa10-343a3bf1aacc","ios":"levelo://app?vid=e85fb6e7-29b9-4a2c-aa10-343a3bf1aacc"},"vehicle_type_id":"4","last_reported":1746688237,"current_range_meters":17200,"station_id":"ce4bhpp2rcd13ifvqhfg","pricing_plan_id":"cebpf4jnsgd1na2vs0mg"},{"bike_id":"16d82653-e2e5-4531-a384-7902e244f0cf","system_id":"levelo_inurba_marseille","lat":43.22524,"lon":5.34758,"is_reserved":false,"is_disabled":false,"rental_uris":{"android":"levelo://app?vid=16d82653-e2e5-4531-a384-7902e244f0cf","ios":"levelo://app?vid=16d82653-e2e5-4531-a384-7902e244f0cf"},"vehicle_type_id":"4","last_reported":1746688237,"current_range_meters":17600,"station_id":"st_cvj5dfep6f1abm77gieg","pricing_plan_id":"cebpf4jnsgd1na2vs0mg"},{"bike_id":"3cac0407-9710-44bd-a04a-af262a1048b3","system_id":"levelo_inurba_marseille","lat":43.28116,"lon":5.4261,"is_reserved":false,"is_disabled":false,"rental_uris":{"android":"levelo://app?vid=3cac0407-9710-44bd-a04a-af262a1048b3","ios":"levelo://app?vid=3cac0407-9710-44bd-a04a-af262a1048b3"},"vehicle_type_id":"4","last_reported":1746688237,"current_range_meters":17600,"station_id":"","pricing_plan_id":"cebpf4jnsgd1na2vs0mg"},{"bike_id":"a24371df-1c48-4b09-b36a-701e43ff0b8e","system_id":"levelo_inurba_marseille","lat":43.30252,"lon":5.40055,"is_reserved":false,"is_disabled":false,"rental_uris":{"android":"levelo://app?vid=a24371df-1c48-4b09-b36a-701e43ff0b8e","ios":"levelo://app?vid=a24371df-1c48-4b09-b36a-701e43ff0b8e"},"vehicle_type_id":"4","last_reported":1746688237,"current_range_meters":17600,"station_id":"ce4bgvh2rcd13ifvqcs0","pricing_plan_id":"cebpf4jnsgd1na2vs0mg"},{"bike_id":"89b5c51b-cd9c-475c-ba7a-726b12d22f75","system_id":"levelo_inurba_marseille","lat":43.21203,"lon":5.35073,"is_reserved":false,"is_disabled":false,"rental_uris":{"android":"levelo://app?vid=89b5c51b-cd9c-475c-ba7a-726b12d22f75","ios":"levelo://app?vid=89b5c51b-cd9c-475c-ba7a-726b12d22f75"},"vehicle_type_id":"4","last_reported":1746688237,"current_range_meters":17600,"station_id":"st_cvj6sg6p6f1abm77japg","pricing_plan_id":"cebpf4jnsgd1na2vs0mg"},{"bike_id":"86faaeb0-89f8-42b9-be93-a34d16b7bcf7","system_id":"levelo_inurba_marseille","lat":43.30078,"lon":5.37004,"is_reserved":false,"is_disabled":false,"rental_uris":{"android":"levelo://app?vid=86faaeb0-89f8-42b9-be93-a34d16b7bcf7","ios":"levelo://app?vid=86faaeb0-89f8-42b9-be93-a34d16b7bcf7"},"vehicle_type_id":"4","last_reported":1746688237,"current_range_meters":17600,"station_id":"","pricing_plan_id":"cebpf4jnsgd1na2vs0mg"},{"bike_id":"f3035667-5db8-4d82-95b2-1aa404290e19","system_id":"levelo_inurba_marseille","lat":43.24167,"lon":5.39745,"is_reserved":false,"is_disabled":false,"rental_uris":{"android":"levelo://app?vid=f3035667-5db8-4d82-95b2-1aa404290e19","ios":"levelo://app?vid=f3035667-5db8-4d82-95b2-1aa404290e19"},"vehicle_type_id":"4","last_reported":1746688237,"current_range_meters":17600,"station_id":"ce4bhn12rcd13ifvqgpg","pricing_plan_id":"cebpf4jnsgd1na2vs0mg"},{"bike_id":"fc0953ab-6307-4092-9957-be52c434151e","system_id":"levelo_inurba_marseille","lat":43.27509,"lon":5.42505,"is_reserved":false,"is_disabled":false,"rental_uris":{"android":"levelo://app?vid=fc0953ab-6307-4092-9957-be52c434151e","ios":"levelo://app?vid=fc0953ab-6307-4092-9957-be52c434151e"},"vehicle_type_id":"4","last_reported":1746688237,"current_range_meters":17600,"station_id":"","pricing_plan_id":"cebpf4jnsgd1na2vs0mg"},{"bike_id":"17234c11-f853-47ce-8a1a-6af171af336b","system_id":"levelo_inurba_marseille","lat":43.27199,"lon":5.39181,"is_reserved":false,"is_disabled":true,"rental_uris":{"android":"levelo://app?vid=17234c11-f853-47ce-8a1a-6af171af336b","ios":"levelo://app?vid=17234c11-f853-47ce-8a1a-6af171af336b"},"vehicle_type_id":"4","last_reported":1746688237,"current_range_meters":17600,"station_id":"","pricing_plan_id":"cebpf4jnsgd1na2vs0mg"},{"bike_id":"c2d0fead-1310-4209-b628-7bf3c58e9589","system_id":"levelo_inurba_marseille","lat":43.2515,"lon":5.40397,"is_reserved":false,"is_disabled":false,"rental_uris":{"android":"levelo://app?vid=c2d0fead-1310-4209-b628-7bf3c58e9589","ios":"levelo://app?vid=c2d0fead-1310-4209-b628-7bf3c58e9589"},"vehicle_type_id":"4","last_reported":1746688237,"current_range_meters":18000,"station_id":"","pricing_plan_id":"cebpf4jnsgd1na2vs0mg"},{"bike_id":"ff807334-3ad3-4e40-bbde-648eb2b1c45b","system_id":"levelo_inurba_marseille","lat":43.21207,"lon":5.35087,"is_reserved":false,"is_disabled":false,"rental_uris":{"android":"levelo://app?vid=ff807334-3ad3-4e40-bbde-648eb2b1c45b","ios":"levelo://app?vid=ff807334-3ad3-4e40-bbde-648eb2b1c45b"},"vehicle_type_id":"4","last_reported":1746688237,"current_range_meters":18000,"station_id":"st_cvj6sg6p6f1abm77japg","pricing_plan_id":"cebpf4jnsgd1na2vs0mg"},{"bike_id":"a71a0dfc-7de8-44ee-9bb2-1e81dadd19e0","system_id":"levelo_inurba_marseille","lat":43.317081,"lon":5.43706,"is_reserved":false,"is_disabled":false,"rental_uris":{"android":"levelo://app?vid=a71a0dfc-7de8-44ee-9bb2-1e81dadd19e0","ios":"levelo://app?vid=a71a0dfc-7de8-44ee-9bb2-1e81dadd19e0"},"vehicle_type_id":"4","last_reported":1746688237,"current_range_meters":18000,"station_id":"ce4bhp92rcd13ifvqhcg","pricing_plan_id":"cebpf4jnsgd1na2vs0mg"},{"bike_id":"67c53de5-822d-44c2-9180-529fe89ca322","system_id":"levelo_inurba_marseille","lat":43.30429,"lon":5.39744,"is_reserved":false,"is_disabled":false,"rental_uris":{"android":"levelo://app?vid=67c53de5-822d-44c2-9180-529fe89ca322","ios":"levelo://app?vid=67c53de5-822d-44c2-9180-529fe89ca322"},"vehicle_type_id":"4","last_reported":1746688237,"current_range_meters":18000,"station_id":"ce4bh092rcd13ifvqd20","pricing_plan_id":"cebpf4jnsgd1na2vs0mg"},{"bike_id":"95407fdd-6b53-4c42-85f7-ee3e66f21b13","system_id":"levelo_inurba_marseille","lat":43.24332,"lon":5.38,"is_reserved":false,"is_disabled":false,"rental_uris":{"android":"levelo://app?vid=95407fdd-6b53-4c42-85f7-ee3e66f21b13","ios":"levelo://app?vid=95407fdd-6b53-4c42-85f7-ee3e66f21b13"},"vehicle_type_id":"4","last_reported":1746688237,"current_range_meters":19200,"station_id":"","pricing_plan_id":"cebpf4jnsgd1na2vs0mg"},{"bike_id":"772e5eb7-41ce-4744-9920-bed5061d80b6","system_id":"levelo_inurba_marseille","lat":43.29531,"lon":5.37501,"is_reserved":false,"is_disabled":false,"rental_uris":{"android":"levelo://app?vid=772e5eb7-41ce-4744-9920-bed5061d80b6","ios":"levelo://app?vid=772e5eb7-41ce-4744-9920-bed5061d80b6"},"vehicle_type_id":"4","last_reported":1746688237,"current_range_meters":19200,"station_id":"ce4bgkp2rcd13ifvqbmg","pricing_plan_id":"cebpf4jnsgd1na2vs0mg"},{"bike_id":"c821e32e-d925-441c-80d2-d5a984744aba","system_id":"levelo_inurba_marseille","lat":43.21195,"lon":5.35082,"is_reserved":false,"is_disabled":false,"rental_uris":{"android":"levelo://app?vid=c821e32e-d925-441c-80d2-d5a984744aba","ios":"levelo://app?vid=c821e32e-d925-441c-80d2-d5a984744aba"},"vehicle_type_id":"4","last_reported":1746688237,"current_range_meters":19200,"station_id":"st_cvj6sg6p6f1abm77japg","pricing_plan_id":"cebpf4jnsgd1na2vs0mg"},{"bike_id":"bda5be8e-0919-47ea-aae0-c476c63ec293","system_id":"levelo_inurba_marseille","lat":43.30542,"lon":5.38431,"is_reserved":false,"is_disabled":true,"rental_uris":{"android":"levelo://app?vid=bda5be8e-0919-47ea-aae0-c476c63ec293","ios":"levelo://app?vid=bda5be8e-0919-47ea-aae0-c476c63ec293"},"vehicle_type_id":"4","last_reported":1746688237,"current_range_meters":19200,"station_id":"ce4bgg92rcd13ifvqb30","pricing_plan_id":"cebpf4jnsgd1na2vs0mg"},{"bike_id":"ce80862b-a05e-49f5-805e-5cde21300a8c","system_id":"levelo_inurba_marseille","lat":43.29273,"lon":5.36851,"is_reserved":false,"is_disabled":false,"rental_uris":{"android":"levelo://app?vid=ce80862b-a05e-49f5-805e-5cde21300a8c","ios":"levelo://app?vid=ce80862b-a05e-49f5-805e-5cde21300a8c"},"vehicle_type_id":"4","last_reported":1746688237,"current_range_meters":19200,"station_id":"ce4bhbp2rcd13ifvqesg","pricing_plan_id":"cebpf4jnsgd1na2vs0mg"},{"bike_id":"b47011ee-ee5e-4b3b-b306-cebbb3a9b54a","system_id":"levelo_inurba_marseille","lat":43.29441,"lon":5.39763,"is_reserved":false,"is_disabled":false,"rental_uris":{"android":"levelo://app?vid=b47011ee-ee5e-4b3b-b306-cebbb3a9b54a","ios":"levelo://app?vid=b47011ee-ee5e-4b3b-b306-cebbb3a9b54a"},"vehicle_type_id":"4","last_reported":1746688237,"current_range_meters":19200,"station_id":"ce4bh3h2rcd13ifvqdo0","pricing_plan_id":"cebpf4jnsgd1na2vs0mg"},{"bike_id":"ecf3fb96-71d2-42a8-8b4c-e01dced41bcf","system_id":"levelo_inurba_marseille","lat":43.24808,"lon":5.37459,"is_reserved":false,"is_disabled":false,"rental_uris":{"android":"levelo://app?vid=ecf3fb96-71d2-42a8-8b4c-e01dced41bcf","ios":"levelo://app?vid=ecf3fb96-71d2-42a8-8b4c-e01dced41bcf"},"vehicle_type_id":"4","last_reported":1746688237,"current_range_meters":19600,"station_id":"ce4bhgh2rcd13ifvqfb0","pricing_plan_id":"cebpf4jnsgd1na2vs0mg"},{"bike_id":"90dd7ece-e0e3-4e3f-8585-4f4f345a0f96","system_id":"levelo_inurba_marseille","lat":43.31689,"lon":5.40477,"is_reserved":false,"is_disabled":false,"rental_uris":{"android":"levelo://app?vid=90dd7ece-e0e3-4e3f-8585-4f4f345a0f96","ios":"levelo://app?vid=90dd7ece-e0e3-4e3f-8585-4f4f345a0f96"},"vehicle_type_id":"4","last_reported":1746688237,"current_range_meters":19600,"station_id":"ce4bh012rcd13ifvqd00","pricing_plan_id":"cebpf4jnsgd1na2vs0mg"},{"bike_id":"c00b4dc3-faff-4d5a-88c8-7b701ca8bbe6","system_id":"levelo_inurba_marseille","lat":43.316841,"lon":5.40476,"is_reserved":false,"is_disabled":false,"rental_uris":{"android":"levelo://app?vid=c00b4dc3-faff-4d5a-88c8-7b701ca8bbe6","ios":"levelo://app?vid=c00b4dc3-faff-4d5a-88c8-7b701ca8bbe6"},"vehicle_type_id":"4","last_reported":1746688237,"current_range_meters":19600,"station_id":"ce4bh012rcd13ifvqd00","pricing_plan_id":"cebpf4jnsgd1na2vs0mg"},{"bike_id":"bc4a17a8-edea-4cae-b62d-433382f254e3","system_id":"levelo_inurba_marseille","lat":43.2694,"lon":5.40264,"is_reserved":false,"is_disabled":false,"rental_uris":{"android":"levelo://app?vid=bc4a17a8-edea-4cae-b62d-433382f254e3","ios":"levelo://app?vid=bc4a17a8-edea-4cae-b62d-433382f254e3"},"vehicle_type_id":"4","last_reported":1746688237,"current_range_meters":19600,"station_id":"cjm6bp8fraef2m0cb0m0","pricing_plan_id":"cebpf4jnsgd1na2vs0mg"},{"bike_id":"8667c9cf-b1e4-47a2-a990-8aa6e7913022","system_id":"levelo_inurba_marseille","lat":43.28125,"lon":5.37864,"is_reserved":false,"is_disabled":true,"rental_uris":{"android":"levelo://app?vid=8667c9cf-b1e4-47a2-a990-8aa6e7913022","ios":"levelo://app?vid=8667c9cf-b1e4-47a2-a990-8aa6e7913022"},"vehicle_type_id":"4","last_reported":1746688237,"current_range_meters":19600,"station_id":"ce4bha12rcd13ifvqee0","pricing_plan_id":"cebpf4jnsgd1na2vs0mg"},{"bike_id":"f3e9ab38-3242-4aa5-83f9-529a16ccf936","system_id":"levelo_inurba_marseille","lat":43.22496,"lon":5.34793,"is_reserved":false,"is_disabled":false,"rental_uris":{"android":"levelo://app?vid=f3e9ab38-3242-4aa5-83f9-529a16ccf936","ios":"levelo://app?vid=f3e9ab38-3242-4aa5-83f9-529a16ccf936"},"vehicle_type_id":"4","last_reported":1746688237,"current_range_meters":19600,"station_id":"st_cvj5dfep6f1abm77gieg","pricing_plan_id":"cebpf4jnsgd1na2vs0mg"},{"bike_id":"34b0bc6a-7140-4b5a-838e-d329135fd8f8","system_id":"levelo_inurba_marseille","lat":43.30944,"lon":5.39031,"is_reserved":false,"is_disabled":false,"rental_uris":{"android":"levelo://app?vid=34b0bc6a-7140-4b5a-838e-d329135fd8f8","ios":"levelo://app?vid=34b0bc6a-7140-4b5a-838e-d329135fd8f8"},"vehicle_type_id":"4","last_reported":1746688237,"current_range_meters":20000,"station_id":"ce4bgup2rcd13ifvqco0","pricing_plan_id":"cebpf4jnsgd1na2vs0mg"},{"bike_id":"08f13c7a-2eb9-4abf-8400-826a57aabaef","system_id":"levelo_inurba_marseille","lat":43.316705,"lon":5.372536,"is_reserved":false,"is_disabled":false,"rental_uris":{"android":"levelo://app?vid=08f13c7a-2eb9-4abf-8400-826a57aabaef","ios":"levelo://app?vid=08f13c7a-2eb9-4abf-8400-826a57aabaef"},"vehicle_type_id":"4","last_reported":1746688237,"current_range_meters":20400,"station_id":"","pricing_plan_id":"cebpf4jnsgd1na2vs0mg"},{"bike_id":"630b9dc7-fd82-4d94-a73a-2ca1c54e4ed6","system_id":"levelo_inurba_marseille","lat":43.30146,"lon":5.38086,"is_reserved":false,"is_disabled":false,"rental_uris":{"android":"levelo://app?vid=630b9dc7-fd82-4d94-a73a-2ca1c54e4ed6","ios":"levelo://app?vid=630b9dc7-fd82-4d94-a73a-2ca1c54e4ed6"},"vehicle_type_id":"4","last_reported":1746688237,"current_range_meters":20400,"station_id":"ce4bgjp2rcd13ifvqbh0","pricing_plan_id":"cebpf4jnsgd1na2vs0mg"},{"bike_id":"da3aa9b6-280e-441a-9902-7b55cb9fe3a3","system_id":"levelo_inurba_marseille","lat":43.323576,"lon":5.367566,"is_reserved":false,"is_disabled":false,"rental_uris":{"android":"levelo://app?vid=da3aa9b6-280e-441a-9902-7b55cb9fe3a3","ios":"levelo://app?vid=da3aa9b6-280e-441a-9902-7b55cb9fe3a3"},"vehicle_type_id":"4","last_reported":1746688237,"current_range_meters":20400,"station_id":"ce4bhsh2rcd13ifvqi2g","pricing_plan_id":"cebpf4jnsgd1na2vs0mg"},{"bike_id":"a9c78618-1117-4ee3-a7d4-68848bd522db","system_id":"levelo_inurba_marseille","lat":43.29096,"lon":5.38104,"is_reserved":false,"is_disabled":false,"rental_uris":{"android":"levelo://app?vid=a9c78618-1117-4ee3-a7d4-68848bd522db","ios":"levelo://app?vid=a9c78618-1117-4ee3-a7d4-68848bd522db"},"vehicle_type_id":"4","last_reported":1746688237,"current_range_meters":20400,"station_id":"ce4bh512rcd13ifvqe2g","pricing_plan_id":"cebpf4jnsgd1na2vs0mg"},{"bike_id":"ba38a60a-fe6b-4d9c-9ac1-ebdcd46cf517","system_id":"levelo_inurba_marseille","lat":43.24176,"lon":5.39742,"is_reserved":false,"is_disabled":false,"rental_uris":{"android":"levelo://app?vid=ba38a60a-fe6b-4d9c-9ac1-ebdcd46cf517","ios":"levelo://app?vid=ba38a60a-fe6b-4d9c-9ac1-ebdcd46cf517"},"vehicle_type_id":"4","last_reported":1746688237,"current_range_meters":20800,"station_id":"ce4bhn12rcd13ifvqgpg","pricing_plan_id":"cebpf4jnsgd1na2vs0mg"},{"bike_id":"60cce319-1eb7-46c6-8644-823e2f0364fa","system_id":"levelo_inurba_marseille","lat":43.25494,"lon":5.37648,"is_reserved":false,"is_disabled":false,"rental_uris":{"android":"levelo://app?vid=60cce319-1eb7-46c6-8644-823e2f0364fa","ios":"levelo://app?vid=60cce319-1eb7-46c6-8644-823e2f0364fa"},"vehicle_type_id":"4","last_reported":1746688237,"current_range_meters":20400,"station_id":"ce4bhh12rcd13ifvqff0","pricing_plan_id":"cebpf4jnsgd1na2vs0mg"},{"bike_id":"5a66b016-8425-4ea9-ad57-b6177cc96802","system_id":"levelo_inurba_marseille","lat":43.315753,"lon":5.388993,"is_reserved":false,"is_disabled":false,"rental_uris":{"android":"levelo://app?vid=5a66b016-8425-4ea9-ad57-b6177cc96802","ios":"levelo://app?vid=5a66b016-8425-4ea9-ad57-b6177cc96802"},"vehicle_type_id":"4","last_reported":1746688237,"current_range_meters":20800,"station_id":"","pricing_plan_id":"cebpf4jnsgd1na2vs0mg"},{"bike_id":"f73d450b-fde6-4898-99b1-916875a407c6","system_id":"levelo_inurba_marseille","lat":43.22505,"lon":5.34786,"is_reserved":false,"is_disabled":true,"rental_uris":{"android":"levelo://app?vid=f73d450b-fde6-4898-99b1-916875a407c6","ios":"levelo://app?vid=f73d450b-fde6-4898-99b1-916875a407c6"},"vehicle_type_id":"4","last_reported":1746688237,"current_range_meters":20800,"station_id":"st_cvj5dfep6f1abm77gieg","pricing_plan_id":"cebpf4jnsgd1na2vs0mg"},{"bike_id":"f95b91cc-1c08-489b-9133-c8be04606017","system_id":"levelo_inurba_marseille","lat":43.273696,"lon":5.362457,"is_reserved":false,"is_disabled":false,"rental_uris":{"android":"levelo://app?vid=f95b91cc-1c08-489b-9133-c8be04606017","ios":"levelo://app?vid=f95b91cc-1c08-489b-9133-c8be04606017"},"vehicle_type_id":"4","last_reported":1746688237,"current_range_meters":20800,"station_id":"ce4bhbh2rcd13ifvqeo0","pricing_plan_id":"cebpf4jnsgd1na2vs0mg"},{"bike_id":"75facf72-3d79-4108-a95c-fcce1e0b9a39","system_id":"levelo_inurba_marseille","lat":43.257392,"lon":5.382293,"is_reserved":false,"is_disabled":true,"rental_uris":{"android":"levelo://app?vid=75facf72-3d79-4108-a95c-fcce1e0b9a39","ios":"levelo://app?vid=75facf72-3d79-4108-a95c-fcce1e0b9a39"},"vehicle_type_id":"4","last_reported":1746688237,"current_range_meters":20800,"station_id":"","pricing_plan_id":"cebpf4jnsgd1na2vs0mg"},{"bike_id":"3c8defe8-665f-44db-812c-06b01a972e44","system_id":"levelo_inurba_marseille","lat":43.27173,"lon":5.40994,"is_reserved":false,"is_disabled":false,"rental_uris":{"android":"levelo://app?vid=3c8defe8-665f-44db-812c-06b01a972e44","ios":"levelo://app?vid=3c8defe8-665f-44db-812c-06b01a972e44"},"vehicle_type_id":"4","last_reported":1746688237,"current_range_meters":20800,"station_id":"ce4bhl12rcd13ifvqgf0","pricing_plan_id":"cebpf4jnsgd1na2vs0mg"},{"bike_id":"91e162dc-df90-4b10-94c0-748de28a9b55","system_id":"levelo_inurba_marseille","lat":43.277995,"lon":5.399666,"is_reserved":false,"is_disabled":false,"rental_uris":{"android":"levelo://app?vid=91e162dc-df90-4b10-94c0-748de28a9b55","ios":"levelo://app?vid=91e162dc-df90-4b10-94c0-748de28a9b55"},"vehicle_type_id":"4","last_reported":1746688237,"current_range_meters":21600,"station_id":"","pricing_plan_id":"cebpf4jnsgd1na2vs0mg"},{"bike_id":"77105872-e46d-4c1d-9ea0-bbec84b45f00","system_id":"levelo_inurba_marseille","lat":43.2418,"lon":5.3973,"is_reserved":false,"is_disabled":false,"rental_uris":{"android":"levelo://app?vid=77105872-e46d-4c1d-9ea0-bbec84b45f00","ios":"levelo://app?vid=77105872-e46d-4c1d-9ea0-bbec84b45f00"},"vehicle_type_id":"4","last_reported":1746688237,"current_range_meters":21600,"station_id":"ce4bhn12rcd13ifvqgpg","pricing_plan_id":"cebpf4jnsgd1na2vs0mg"},{"bike_id":"1108c86b-8eee-40fa-bff1-779c0b83c7a7","system_id":"levelo_inurba_marseille","lat":43.30476,"lon":5.3792,"is_reserved":false,"is_disabled":false,"rental_uris":{"android":"levelo://app?vid=1108c86b-8eee-40fa-bff1-779c0b83c7a7","ios":"levelo://app?vid=1108c86b-8eee-40fa-bff1-779c0b83c7a7"},"vehicle_type_id":"4","last_reported":1746688237,"current_range_meters":21600,"station_id":"ce4bgup2rcd13ifvqcn0","pricing_plan_id":"cebpf4jnsgd1na2vs0mg"},{"bike_id":"f973ec70-053f-4600-9b02-c2e648d43a7e","system_id":"levelo_inurba_marseille","lat":43.29908,"lon":5.38136,"is_reserved":false,"is_disabled":false,"rental_uris":{"android":"levelo://app?vid=f973ec70-053f-4600-9b02-c2e648d43a7e","ios":"levelo://app?vid=f973ec70-053f-4600-9b02-c2e648d43a7e"},"vehicle_type_id":"4","last_reported":1746688237,"current_range_meters":22000,"station_id":"ce4bgj12rcd13ifvqbc0","pricing_plan_id":"cebpf4jnsgd1na2vs0mg"},{"bike_id":"33e4d0e7-3ccd-4e75-9dd5-e5580b50f4aa","system_id":"levelo_inurba_marseille","lat":43.28618,"lon":5.35102,"is_reserved":false,"is_disabled":false,"rental_uris":{"android":"levelo://app?vid=33e4d0e7-3ccd-4e75-9dd5-e5580b50f4aa","ios":"levelo://app?vid=33e4d0e7-3ccd-4e75-9dd5-e5580b50f4aa"},"vehicle_type_id":"4","last_reported":1746688237,"current_range_meters":21600,"station_id":"ce4bhch2rcd13ifvqeug","pricing_plan_id":"cebpf4jnsgd1na2vs0mg"},{"bike_id":"81d4cec4-4182-4035-b937-2cdef08d4fe1","system_id":"levelo_inurba_marseille","lat":43.30744,"lon":5.42446,"is_reserved":false,"is_disabled":false,"rental_uris":{"android":"levelo://app?vid=81d4cec4-4182-4035-b937-2cdef08d4fe1","ios":"levelo://app?vid=81d4cec4-4182-4035-b937-2cdef08d4fe1"},"vehicle_type_id":"4","last_reported":1746688237,"current_range_meters":22000,"station_id":"st_cvj6ca6bvosntc0bfgr0","pricing_plan_id":"cebpf4jnsgd1na2vs0mg"},{"bike_id":"37f2c22e-dc87-4650-ae08-b53837cd376a","system_id":"levelo_inurba_marseille","lat":43.23972,"lon":5.36636,"is_reserved":false,"is_disabled":false,"rental_uris":{"android":"levelo://app?vid=37f2c22e-dc87-4650-ae08-b53837cd376a","ios":"levelo://app?vid=37f2c22e-dc87-4650-ae08-b53837cd376a"},"vehicle_type_id":"4","last_reported":1746688237,"current_range_meters":22000,"station_id":"ce4bhi12rcd13ifvqfp0","pricing_plan_id":"cebpf4jnsgd1na2vs0mg"},{"bike_id":"17b5d9fc-a9af-4ef7-b57c-f269d43e9280","system_id":"levelo_inurba_marseille","lat":43.324774,"lon":5.365804,"is_reserved":false,"is_disabled":false,"rental_uris":{"android":"levelo://app?vid=17b5d9fc-a9af-4ef7-b57c-f269d43e9280","ios":"levelo://app?vid=17b5d9fc-a9af-4ef7-b57c-f269d43e9280"},"vehicle_type_id":"4","last_reported":1746688237,"current_range_meters":22000,"station_id":"ce4bhs12rcd13ifvqhvg","pricing_plan_id":"cebpf4jnsgd1na2vs0mg"},{"bike_id":"a0f59bc0-650a-4106-a079-d368ed8a3edf","system_id":"levelo_inurba_marseille","lat":43.27381,"lon":5.39388,"is_reserved":false,"is_disabled":true,"rental_uris":{"android":"levelo://app?vid=a0f59bc0-650a-4106-a079-d368ed8a3edf","ios":"levelo://app?vid=a0f59bc0-650a-4106-a079-d368ed8a3edf"},"vehicle_type_id":"4","last_reported":1746688237,"current_range_meters":22000,"station_id":"ce4bhdp2rcd13ifvqf20","pricing_plan_id":"cebpf4jnsgd1na2vs0mg"},{"bike_id":"81590081-7c0c-4e6b-b3f0-1b05fc7e3976","system_id":"levelo_inurba_marseille","lat":43.30162,"lon":5.38082,"is_reserved":false,"is_disabled":false,"rental_uris":{"android":"levelo://app?vid=81590081-7c0c-4e6b-b3f0-1b05fc7e3976","ios":"levelo://app?vid=81590081-7c0c-4e6b-b3f0-1b05fc7e3976"},"vehicle_type_id":"4","last_reported":1746688237,"current_range_meters":22400,"station_id":"ce4bgjp2rcd13ifvqbh0","pricing_plan_id":"cebpf4jnsgd1na2vs0mg"},{"bike_id":"832db053-d170-40a5-bb95-87fd05d85bd1","system_id":"levelo_inurba_marseille","lat":43.255023,"lon":5.37651,"is_reserved":false,"is_disabled":false,"rental_uris":{"android":"levelo://app?vid=832db053-d170-40a5-bb95-87fd05d85bd1","ios":"levelo://app?vid=832db053-d170-40a5-bb95-87fd05d85bd1"},"vehicle_type_id":"4","last_reported":1746688237,"current_range_meters":22400,"station_id":"ce4bhh12rcd13ifvqff0","pricing_plan_id":"cebpf4jnsgd1na2vs0mg"},{"bike_id":"d1107ecd-be4f-458d-a1cd-17553b1323a8","system_id":"levelo_inurba_marseille","lat":43.214855,"lon":5.348175,"is_reserved":false,"is_disabled":false,"rental_uris":{"android":"levelo://app?vid=d1107ecd-be4f-458d-a1cd-17553b1323a8","ios":"levelo://app?vid=d1107ecd-be4f-458d-a1cd-17553b1323a8"},"vehicle_type_id":"4","last_reported":1746688237,"current_range_meters":22800,"station_id":"","pricing_plan_id":"cebpf4jnsgd1na2vs0mg"},{"bike_id":"3efe50aa-6a3d-4e17-a8ae-822980fea60a","system_id":"levelo_inurba_marseille","lat":43.29245,"lon":5.36084,"is_reserved":false,"is_disabled":false,"rental_uris":{"android":"levelo://app?vid=3efe50aa-6a3d-4e17-a8ae-822980fea60a","ios":"levelo://app?vid=3efe50aa-6a3d-4e17-a8ae-822980fea60a"},"vehicle_type_id":"4","last_reported":1746688237,"current_range_meters":22800,"station_id":"ce4bhbh2rcd13ifvqeqg","pricing_plan_id":"cebpf4jnsgd1na2vs0mg"},{"bike_id":"f597e4b6-c723-45d1-a62d-164b4d4c53ce","system_id":"levelo_inurba_marseille","lat":43.31393,"lon":5.38497,"is_reserved":false,"is_disabled":false,"rental_uris":{"android":"levelo://app?vid=f597e4b6-c723-45d1-a62d-164b4d4c53ce","ios":"levelo://app?vid=f597e4b6-c723-45d1-a62d-164b4d4c53ce"},"vehicle_type_id":"4","last_reported":1746688237,"current_range_meters":22800,"station_id":"ce4bgt92rcd13ifvqcf0","pricing_plan_id":"cebpf4jnsgd1na2vs0mg"},{"bike_id":"d555e0d6-19ba-408b-ad9f-2e129d0a634e","system_id":"levelo_inurba_marseille","lat":43.31082,"lon":5.37588,"is_reserved":false,"is_disabled":false,"rental_uris":{"android":"levelo://app?vid=d555e0d6-19ba-408b-ad9f-2e129d0a634e","ios":"levelo://app?vid=d555e0d6-19ba-408b-ad9f-2e129d0a634e"},"vehicle_type_id":"4","last_reported":1746688237,"current_range_meters":22800,"station_id":"","pricing_plan_id":"cebpf4jnsgd1na2vs0mg"},{"bike_id":"6536cb6e-d928-4440-9089-a7deb10c7d96","system_id":"levelo_inurba_marseille","lat":43.24157,"lon":5.364,"is_reserved":false,"is_disabled":false,"rental_uris":{"android":"levelo://app?vid=6536cb6e-d928-4440-9089-a7deb10c7d96","ios":"levelo://app?vid=6536cb6e-d928-4440-9089-a7deb10c7d96"},"vehicle_type_id":"4","last_reported":1746688237,"current_range_meters":22800,"station_id":"cpo36qri1sfpv3e86is0","pricing_plan_id":"cebpf4jnsgd1na2vs0mg"},{"bike_id":"ec311775-3339-4577-838b-f717d13eb583","system_id":"levelo_inurba_marseille","lat":43.25729,"lon":5.41135,"is_reserved":false,"is_disabled":false,"rental_uris":{"android":"levelo://app?vid=ec311775-3339-4577-838b-f717d13eb583","ios":"levelo://app?vid=ec311775-3339-4577-838b-f717d13eb583"},"vehicle_type_id":"4","last_reported":1746688237,"current_range_meters":22800,"station_id":"ce4bhkp2rcd13ifvqgd0","pricing_plan_id":"cebpf4jnsgd1na2vs0mg"},{"bike_id":"bbc2cdb2-8de8-4652-8d44-8093263f6581","system_id":"levelo_inurba_marseille","lat":43.25106,"lon":5.40326,"is_reserved":false,"is_disabled":false,"rental_uris":{"android":"levelo://app?vid=bbc2cdb2-8de8-4652-8d44-8093263f6581","ios":"levelo://app?vid=bbc2cdb2-8de8-4652-8d44-8093263f6581"},"vehicle_type_id":"4","last_reported":1746688237,"current_range_meters":22800,"station_id":"ce4bhlh2rcd13ifvqgig","pricing_plan_id":"cebpf4jnsgd1na2vs0mg"},{"bike_id":"f1be0eeb-570a-41ec-ba38-e001b9c7d591","system_id":"levelo_inurba_marseille","lat":43.25118,"lon":5.40321,"is_reserved":false,"is_disabled":false,"rental_uris":{"android":"levelo://app?vid=f1be0eeb-570a-41ec-ba38-e001b9c7d591","ios":"levelo://app?vid=f1be0eeb-570a-41ec-ba38-e001b9c7d591"},"vehicle_type_id":"4","last_reported":1746688237,"current_range_meters":23200,"station_id":"ce4bhlh2rcd13ifvqgig","pricing_plan_id":"cebpf4jnsgd1na2vs0mg"},{"bike_id":"b4c5f569-86b0-45f5-b55a-c2587db1b919","system_id":"levelo_inurba_marseille","lat":43.2307,"lon":5.35546,"is_reserved":false,"is_disabled":false,"rental_uris":{"android":"levelo://app?vid=b4c5f569-86b0-45f5-b55a-c2587db1b919","ios":"levelo://app?vid=b4c5f569-86b0-45f5-b55a-c2587db1b919"},"vehicle_type_id":"4","last_reported":1746688237,"current_range_meters":23200,"station_id":"","pricing_plan_id":"cebpf4jnsgd1na2vs0mg"},{"bike_id":"c1041c9f-2085-470a-b13c-f88fd8323115","system_id":"levelo_inurba_marseille","lat":43.277446,"lon":5.386721,"is_reserved":false,"is_disabled":false,"rental_uris":{"android":"levelo://app?vid=c1041c9f-2085-470a-b13c-f88fd8323115","ios":"levelo://app?vid=c1041c9f-2085-470a-b13c-f88fd8323115"},"vehicle_type_id":"4","last_reported":1746688237,"current_range_meters":23200,"station_id":"","pricing_plan_id":"cebpf4jnsgd1na2vs0mg"},{"bike_id":"83a50b95-d68b-4f37-b42f-f4b6d18160f2","system_id":"levelo_inurba_marseille","lat":43.25952,"lon":5.40913,"is_reserved":false,"is_disabled":false,"rental_uris":{"android":"levelo://app?vid=83a50b95-d68b-4f37-b42f-f4b6d18160f2","ios":"levelo://app?vid=83a50b95-d68b-4f37-b42f-f4b6d18160f2"},"vehicle_type_id":"4","last_reported":1746688237,"current_range_meters":23200,"station_id":"ce4bhm92rcd13ifvqglg","pricing_plan_id":"cebpf4jnsgd1na2vs0mg"},{"bike_id":"b9a0c55f-9309-480e-9c44-3590062ab77a","system_id":"levelo_inurba_marseille","lat":43.23192,"lon":5.35552,"is_reserved":false,"is_disabled":true,"rental_uris":{"android":"levelo://app?vid=b9a0c55f-9309-480e-9c44-3590062ab77a","ios":"levelo://app?vid=b9a0c55f-9309-480e-9c44-3590062ab77a"},"vehicle_type_id":"4","last_reported":1746688237,"current_range_meters":23200,"station_id":"ce4bhu92rcd13ifvqi70","pricing_plan_id":"cebpf4jnsgd1na2vs0mg"},{"bike_id":"e1eefe4b-c8d9-4584-bc99-1ff52d9d59bc","system_id":"levelo_inurba_marseille","lat":43.31535,"lon":5.38034,"is_reserved":false,"is_disabled":false,"rental_uris":{"android":"levelo://app?vid=e1eefe4b-c8d9-4584-bc99-1ff52d9d59bc","ios":"levelo://app?vid=e1eefe4b-c8d9-4584-bc99-1ff52d9d59bc"},"vehicle_type_id":"4","last_reported":1746688237,"current_range_meters":24000,"station_id":"ce4bhsp2rcd13ifvqi50","pricing_plan_id":"cebpf4jnsgd1na2vs0mg"},{"bike_id":"087d3db6-f193-4ab2-b62b-f70f15a798a2","system_id":"levelo_inurba_marseille","lat":43.29711,"lon":5.37683,"is_reserved":false,"is_disabled":false,"rental_uris":{"android":"levelo://app?vid=087d3db6-f193-4ab2-b62b-f70f15a798a2","ios":"levelo://app?vid=087d3db6-f193-4ab2-b62b-f70f15a798a2"},"vehicle_type_id":"4","last_reported":1746688237,"current_range_meters":24000,"station_id":"ce4bgkh2rcd13ifvqbl0","pricing_plan_id":"cebpf4jnsgd1na2vs0mg"},{"bike_id":"77edca4d-55bc-4f6d-9c31-13dc55f264c1","system_id":"levelo_inurba_marseille","lat":43.28434,"lon":5.34984,"is_reserved":false,"is_disabled":true,"rental_uris":{"android":"levelo://app?vid=77edca4d-55bc-4f6d-9c31-13dc55f264c1","ios":"levelo://app?vid=77edca4d-55bc-4f6d-9c31-13dc55f264c1"},"vehicle_type_id":"4","last_reported":1746688237,"current_range_meters":24000,"station_id":"ce4bhbh2rcd13ifvqepg","pricing_plan_id":"cebpf4jnsgd1na2vs0mg"},{"bike_id":"3e6600e5-02b9-4290-a755-0079056fa390","system_id":"levelo_inurba_marseille","lat":43.30947,"lon":5.39062,"is_reserved":false,"is_disabled":false,"rental_uris":{"android":"levelo://app?vid=3e6600e5-02b9-4290-a755-0079056fa390","ios":"levelo://app?vid=3e6600e5-02b9-4290-a755-0079056fa390"},"vehicle_type_id":"4","last_reported":1746688237,"current_range_meters":24400,"station_id":"ce4bgup2rcd13ifvqco0","pricing_plan_id":"cebpf4jnsgd1na2vs0mg"},{"bike_id":"936c8d22-0874-4acf-afca-5bf5afcf3472","system_id":"levelo_inurba_marseille","lat":43.31352,"lon":5.38214,"is_reserved":false,"is_disabled":false,"rental_uris":{"android":"levelo://app?vid=936c8d22-0874-4acf-afca-5bf5afcf3472","ios":"levelo://app?vid=936c8d22-0874-4acf-afca-5bf5afcf3472"},"vehicle_type_id":"4","last_reported":1746688237,"current_range_meters":24400,"station_id":"","pricing_plan_id":"cebpf4jnsgd1na2vs0mg"},{"bike_id":"510bab28-85ae-4e1f-9ba3-eac8882a3504","system_id":"levelo_inurba_marseille","lat":43.23964,"lon":5.36636,"is_reserved":false,"is_disabled":false,"rental_uris":{"android":"levelo://app?vid=510bab28-85ae-4e1f-9ba3-eac8882a3504","ios":"levelo://app?vid=510bab28-85ae-4e1f-9ba3-eac8882a3504"},"vehicle_type_id":"4","last_reported":1746688237,"current_range_meters":24400,"station_id":"ce4bhi12rcd13ifvqfp0","pricing_plan_id":"cebpf4jnsgd1na2vs0mg"},{"bike_id":"ad21cab8-b4a2-418f-915f-6f5eeb2f1f3e","system_id":"levelo_inurba_marseille","lat":43.24389,"lon":5.37057,"is_reserved":false,"is_disabled":false,"rental_uris":{"android":"levelo://app?vid=ad21cab8-b4a2-418f-915f-6f5eeb2f1f3e","ios":"levelo://app?vid=ad21cab8-b4a2-418f-915f-6f5eeb2f1f3e"},"vehicle_type_id":"4","last_reported":1746688237,"current_range_meters":23200,"station_id":"ce4bhhh2rcd13ifvqfk0","pricing_plan_id":"cebpf4jnsgd1na2vs0mg"},{"bike_id":"b6ef3f00-dd79-48ff-9fc3-86c640ce7218","system_id":"levelo_inurba_marseille","lat":43.25732,"lon":5.4111,"is_reserved":false,"is_disabled":false,"rental_uris":{"android":"levelo://app?vid=b6ef3f00-dd79-48ff-9fc3-86c640ce7218","ios":"levelo://app?vid=b6ef3f00-dd79-48ff-9fc3-86c640ce7218"},"vehicle_type_id":"4","last_reported":1746688237,"current_range_meters":24400,"station_id":"ce4bhkp2rcd13ifvqgd0","pricing_plan_id":"cebpf4jnsgd1na2vs0mg"},{"bike_id":"6460347f-2464-4c34-a93d-f93b2caed510","system_id":"levelo_inurba_marseille","lat":43.27319,"lon":5.39073,"is_reserved":false,"is_disabled":false,"rental_uris":{"android":"levelo://app?vid=6460347f-2464-4c34-a93d-f93b2caed510","ios":"levelo://app?vid=6460347f-2464-4c34-a93d-f93b2caed510"},"vehicle_type_id":"4","last_reported":1746688237,"current_range_meters":24000,"station_id":"ce4bhgp2rcd13ifvqfe0","pricing_plan_id":"cebpf4jnsgd1na2vs0mg"},{"bike_id":"77e6578b-b8fd-4c21-9b53-158f8b897d05","system_id":"levelo_inurba_marseille","lat":43.26777,"lon":5.39422,"is_reserved":false,"is_disabled":true,"rental_uris":{"android":"levelo://app?vid=77e6578b-b8fd-4c21-9b53-158f8b897d05","ios":"levelo://app?vid=77e6578b-b8fd-4c21-9b53-158f8b897d05"},"vehicle_type_id":"4","last_reported":1746688237,"current_range_meters":24800,"station_id":"ce4bhh12rcd13ifvqfg0","pricing_plan_id":"cebpf4jnsgd1na2vs0mg"},{"bike_id":"cfcf0a27-3831-4e84-9bea-34b38798a087","system_id":"levelo_inurba_marseille","lat":43.211945,"lon":5.35092,"is_reserved":false,"is_disabled":false,"rental_uris":{"android":"levelo://app?vid=cfcf0a27-3831-4e84-9bea-34b38798a087","ios":"levelo://app?vid=cfcf0a27-3831-4e84-9bea-34b38798a087"},"vehicle_type_id":"4","last_reported":1746688237,"current_range_meters":24800,"station_id":"st_cvj6sg6p6f1abm77japg","pricing_plan_id":"cebpf4jnsgd1na2vs0mg"},{"bike_id":"4b12119b-886f-455b-b2ae-8814b17b579d","system_id":"levelo_inurba_marseille","lat":43.24164,"lon":5.39719,"is_reserved":false,"is_disabled":false,"rental_uris":{"android":"levelo://app?vid=4b12119b-886f-455b-b2ae-8814b17b579d","ios":"levelo://app?vid=4b12119b-886f-455b-b2ae-8814b17b579d"},"vehicle_type_id":"4","last_reported":1746688237,"current_range_meters":24800,"station_id":"ce4bhn12rcd13ifvqgpg","pricing_plan_id":"cebpf4jnsgd1na2vs0mg"},{"bike_id":"cd1dd69c-1b2c-404e-b0bf-114f06f0b210","system_id":"levelo_inurba_marseille","lat":43.23255,"lon":5.36078,"is_reserved":false,"is_disabled":false,"rental_uris":{"android":"levelo://app?vid=cd1dd69c-1b2c-404e-b0bf-114f06f0b210","ios":"levelo://app?vid=cd1dd69c-1b2c-404e-b0bf-114f06f0b210"},"vehicle_type_id":"4","last_reported":1746688237,"current_range_meters":24800,"station_id":"","pricing_plan_id":"cebpf4jnsgd1na2vs0mg"},{"bike_id":"433f6fb8-f6ef-4a4c-9ef6-e451913b5776","system_id":"levelo_inurba_marseille","lat":43.27057,"lon":5.40266,"is_reserved":false,"is_disabled":true,"rental_uris":{"android":"levelo://app?vid=433f6fb8-f6ef-4a4c-9ef6-e451913b5776","ios":"levelo://app?vid=433f6fb8-f6ef-4a4c-9ef6-e451913b5776"},"vehicle_type_id":"4","last_reported":1746688237,"current_range_meters":24800,"station_id":"ce4bhk92rcd13ifvqgc0","pricing_plan_id":"cebpf4jnsgd1na2vs0mg"},{"bike_id":"d26fb97c-799b-4029-af88-10b9b5aa5519","system_id":"levelo_inurba_marseille","lat":43.323638,"lon":5.389006,"is_reserved":false,"is_disabled":false,"rental_uris":{"android":"levelo://app?vid=d26fb97c-799b-4029-af88-10b9b5aa5519","ios":"levelo://app?vid=d26fb97c-799b-4029-af88-10b9b5aa5519"},"vehicle_type_id":"4","last_reported":1746688237,"current_range_meters":24800,"station_id":"ce4bhqp2rcd13ifvqhog","pricing_plan_id":"cebpf4jnsgd1na2vs0mg"},{"bike_id":"005c511e-2f41-4c8d-b2c4-44c27f419d45","system_id":"levelo_inurba_marseille","lat":43.25089,"lon":5.39508,"is_reserved":false,"is_disabled":false,"rental_uris":{"android":"levelo://app?vid=005c511e-2f41-4c8d-b2c4-44c27f419d45","ios":"levelo://app?vid=005c511e-2f41-4c8d-b2c4-44c27f419d45"},"vehicle_type_id":"4","last_reported":1746688237,"current_range_meters":24800,"station_id":"ce4bhm12rcd13ifvqgkg","pricing_plan_id":"cebpf4jnsgd1na2vs0mg"},{"bike_id":"545e5687-b7df-4883-81be-75a8925d5f91","system_id":"levelo_inurba_marseille","lat":43.337444,"lon":5.374475,"is_reserved":false,"is_disabled":false,"rental_uris":{"android":"levelo://app?vid=545e5687-b7df-4883-81be-75a8925d5f91","ios":"levelo://app?vid=545e5687-b7df-4883-81be-75a8925d5f91"},"vehicle_type_id":"4","last_reported":1746688237,"current_range_meters":24800,"station_id":"","pricing_plan_id":"cebpf4jnsgd1na2vs0mg"},{"bike_id":"5876e02f-9cbb-4fa0-a09d-9ece3ec39c85","system_id":"levelo_inurba_marseille","lat":43.28607,"lon":5.37068,"is_reserved":false,"is_disabled":false,"rental_uris":{"android":"levelo://app?vid=5876e02f-9cbb-4fa0-a09d-9ece3ec39c85","ios":"levelo://app?vid=5876e02f-9cbb-4fa0-a09d-9ece3ec39c85"},"vehicle_type_id":"4","last_reported":1746688237,"current_range_meters":25200,"station_id":"ce4bht12rcd13ifvqi60","pricing_plan_id":"cebpf4jnsgd1na2vs0mg"},{"bike_id":"18b4e4ad-c796-4705-98cc-e2f24f25726d","system_id":"levelo_inurba_marseille","lat":43.30278,"lon":5.37704,"is_reserved":false,"is_disabled":false,"rental_uris":{"android":"levelo://app?vid=18b4e4ad-c796-4705-98cc-e2f24f25726d","ios":"levelo://app?vid=18b4e4ad-c796-4705-98cc-e2f24f25726d"},"vehicle_type_id":"4","last_reported":1746688237,"current_range_meters":25200,"station_id":"ce4bguh2rcd13ifvqcj0","pricing_plan_id":"cebpf4jnsgd1na2vs0mg"},{"bike_id":"82cf7459-d6da-4d33-b138-9cc1ddf5e901","system_id":"levelo_inurba_marseille","lat":43.31116,"lon":5.37776,"is_reserved":false,"is_disabled":false,"rental_uris":{"android":"levelo://app?vid=82cf7459-d6da-4d33-b138-9cc1ddf5e901","ios":"levelo://app?vid=82cf7459-d6da-4d33-b138-9cc1ddf5e901"},"vehicle_type_id":"4","last_reported":1746688237,"current_range_meters":25200,"station_id":"ce4bgt92rcd13ifvqcg0","pricing_plan_id":"cebpf4jnsgd1na2vs0mg"},{"bike_id":"9a313d11-fb5b-4db4-8cc3-84e731c5a359","system_id":"levelo_inurba_marseille","lat":43.29373,"lon":5.37838,"is_reserved":false,"is_disabled":true,"rental_uris":{"android":"levelo://app?vid=9a313d11-fb5b-4db4-8cc3-84e731c5a359","ios":"levelo://app?vid=9a313d11-fb5b-4db4-8cc3-84e731c5a359"},"vehicle_type_id":"4","last_reported":1746688237,"current_range_meters":25200,"station_id":"ce4bgjh2rcd13ifvqbf0","pricing_plan_id":"cebpf4jnsgd1na2vs0mg"},{"bike_id":"63277f5e-591a-4cad-8a76-1105e4343f72","system_id":"levelo_inurba_marseille","lat":43.26196,"lon":5.40468,"is_reserved":false,"is_disabled":false,"rental_uris":{"android":"levelo://app?vid=63277f5e-591a-4cad-8a76-1105e4343f72","ios":"levelo://app?vid=63277f5e-591a-4cad-8a76-1105e4343f72"},"vehicle_type_id":"4","last_reported":1746688237,"current_range_meters":25200,"station_id":"ce4bhmh2rcd13ifvqgmg","pricing_plan_id":"cebpf4jnsgd1na2vs0mg"},{"bike_id":"219d811d-b73b-4b54-b308-26e57034fa40","system_id":"levelo_inurba_marseille","lat":43.29695,"lon":5.379426,"is_reserved":false,"is_disabled":false,"rental_uris":{"android":"levelo://app?vid=219d811d-b73b-4b54-b308-26e57034fa40","ios":"levelo://app?vid=219d811d-b73b-4b54-b308-26e57034fa40"},"vehicle_type_id":"4","last_reported":1746688237,"current_range_meters":27200,"station_id":"ce4bhbh2rcd13ifvqeqg","pricing_plan_id":"cebpf4jnsgd1na2vs0mg"},{"bike_id":"668d09cf-38a9-49a4-87d3-67b6dce864b1","system_id":"levelo_inurba_marseille","lat":43.28037,"lon":5.37865,"is_reserved":false,"is_disabled":false,"rental_uris":{"android":"levelo://app?vid=668d09cf-38a9-49a4-87d3-67b6dce864b1","ios":"levelo://app?vid=668d09cf-38a9-49a4-87d3-67b6dce864b1"},"vehicle_type_id":"4","last_reported":1746688237,"current_range_meters":25200,"station_id":"","pricing_plan_id":"cebpf4jnsgd1na2vs0mg"},{"bike_id":"1a44ce13-7235-4238-8cae-3805a64ccb78","system_id":"levelo_inurba_marseille","lat":43.29095,"lon":5.38134,"is_reserved":false,"is_disabled":false,"rental_uris":{"android":"levelo://app?vid=1a44ce13-7235-4238-8cae-3805a64ccb78","ios":"levelo://app?vid=1a44ce13-7235-4238-8cae-3805a64ccb78"},"vehicle_type_id":"4","last_reported":1746688237,"current_range_meters":25200,"station_id":"ce4bh512rcd13ifvqe2g","pricing_plan_id":"cebpf4jnsgd1na2vs0mg"},{"bike_id":"b5a62d82-0425-41dd-a4e3-3b5f0949a169","system_id":"levelo_inurba_marseille","lat":43.33739,"lon":5.39178,"is_reserved":false,"is_disabled":false,"rental_uris":{"android":"levelo://app?vid=b5a62d82-0425-41dd-a4e3-3b5f0949a169","ios":"levelo://app?vid=b5a62d82-0425-41dd-a4e3-3b5f0949a169"},"vehicle_type_id":"4","last_reported":1746688237,"current_range_meters":25200,"station_id":"ce4bhr92rcd13ifvqhsg","pricing_plan_id":"cebpf4jnsgd1na2vs0mg"},{"bike_id":"5f33288e-9481-4de5-920e-089c9fb26f68","system_id":"levelo_inurba_marseille","lat":43.29312,"lon":5.37173,"is_reserved":false,"is_disabled":false,"rental_uris":{"android":"levelo://app?vid=5f33288e-9481-4de5-920e-089c9fb26f68","ios":"levelo://app?vid=5f33288e-9481-4de5-920e-089c9fb26f68"},"vehicle_type_id":"4","last_reported":1746688237,"current_range_meters":24800,"station_id":"ce4bgh92rcd13ifvqb40","pricing_plan_id":"cebpf4jnsgd1na2vs0mg"},{"bike_id":"66d39f5f-1aac-423b-9ea7-bf9c1b0e5079","system_id":"levelo_inurba_marseille","lat":43.27507,"lon":5.411298,"is_reserved":false,"is_disabled":false,"rental_uris":{"android":"levelo://app?vid=66d39f5f-1aac-423b-9ea7-bf9c1b0e5079","ios":"levelo://app?vid=66d39f5f-1aac-423b-9ea7-bf9c1b0e5079"},"vehicle_type_id":"4","last_reported":1746688237,"current_range_meters":25200,"station_id":"","pricing_plan_id":"cebpf4jnsgd1na2vs0mg"},{"bike_id":"943c17e1-2f10-4f8b-b508-00da99e73e39","system_id":"levelo_inurba_marseille","lat":43.23155,"lon":5.40016,"is_reserved":false,"is_disabled":false,"rental_uris":{"android":"levelo://app?vid=943c17e1-2f10-4f8b-b508-00da99e73e39","ios":"levelo://app?vid=943c17e1-2f10-4f8b-b508-00da99e73e39"},"vehicle_type_id":"4","last_reported":1746688237,"current_range_meters":25600,"station_id":"ce4bhn12rcd13ifvqgqg","pricing_plan_id":"cebpf4jnsgd1na2vs0mg"},{"bike_id":"6c036e22-2880-4ca3-8ec2-3c1c93aa2e22","system_id":"levelo_inurba_marseille","lat":43.33029,"lon":5.39055,"is_reserved":false,"is_disabled":false,"rental_uris":{"android":"levelo://app?vid=6c036e22-2880-4ca3-8ec2-3c1c93aa2e22","ios":"levelo://app?vid=6c036e22-2880-4ca3-8ec2-3c1c93aa2e22"},"vehicle_type_id":"4","last_reported":1746688237,"current_range_meters":25600,"station_id":"ce4bhr92rcd13ifvqhrg","pricing_plan_id":"cebpf4jnsgd1na2vs0mg"},{"bike_id":"b8028275-38d4-43d3-8766-3f46166cf91f","system_id":"levelo_inurba_marseille","lat":43.28153,"lon":5.42641,"is_reserved":false,"is_disabled":false,"rental_uris":{"android":"levelo://app?vid=b8028275-38d4-43d3-8766-3f46166cf91f","ios":"levelo://app?vid=b8028275-38d4-43d3-8766-3f46166cf91f"},"vehicle_type_id":"4","last_reported":1746688237,"current_range_meters":25600,"station_id":"ce4bhnh2rcd13ifvqgug","pricing_plan_id":"cebpf4jnsgd1na2vs0mg"},{"bike_id":"8b1c58dc-a3de-4c9f-8feb-5ff6401fe506","system_id":"levelo_inurba_marseille","lat":43.301894,"lon":5.380705,"is_reserved":false,"is_disabled":true,"rental_uris":{"android":"levelo://app?vid=8b1c58dc-a3de-4c9f-8feb-5ff6401fe506","ios":"levelo://app?vid=8b1c58dc-a3de-4c9f-8feb-5ff6401fe506"},"vehicle_type_id":"4","last_reported":1746688237,"current_range_meters":26000,"station_id":"ce4bgjp2rcd13ifvqbh0","pricing_plan_id":"cebpf4jnsgd1na2vs0mg"},{"bike_id":"320445d7-aaf7-43ec-baaf-4e67030e8b62","system_id":"levelo_inurba_marseille","lat":43.27135,"lon":5.40442,"is_reserved":false,"is_disabled":false,"rental_uris":{"android":"levelo://app?vid=320445d7-aaf7-43ec-baaf-4e67030e8b62","ios":"levelo://app?vid=320445d7-aaf7-43ec-baaf-4e67030e8b62"},"vehicle_type_id":"4","last_reported":1746688237,"current_range_meters":26000,"station_id":"","pricing_plan_id":"cebpf4jnsgd1na2vs0mg"},{"bike_id":"82c7ad49-2b47-42b0-ae00-f5ed96512a26","system_id":"levelo_inurba_marseille","lat":43.262235,"lon":5.404504,"is_reserved":false,"is_disabled":false,"rental_uris":{"android":"levelo://app?vid=82c7ad49-2b47-42b0-ae00-f5ed96512a26","ios":"levelo://app?vid=82c7ad49-2b47-42b0-ae00-f5ed96512a26"},"vehicle_type_id":"4","last_reported":1746688237,"current_range_meters":26000,"station_id":"ce4bhmh2rcd13ifvqgmg","pricing_plan_id":"cebpf4jnsgd1na2vs0mg"},{"bike_id":"b2987c7b-aca8-40d4-9313-e79d51161e43","system_id":"levelo_inurba_marseille","lat":43.31067,"lon":5.38353,"is_reserved":false,"is_disabled":false,"rental_uris":{"android":"levelo://app?vid=b2987c7b-aca8-40d4-9313-e79d51161e43","ios":"levelo://app?vid=b2987c7b-aca8-40d4-9313-e79d51161e43"},"vehicle_type_id":"4","last_reported":1746688237,"current_range_meters":26000,"station_id":"ce4bgv92rcd13ifvqcr0","pricing_plan_id":"cebpf4jnsgd1na2vs0mg"},{"bike_id":"c72646b0-a27b-4a8a-b8a4-ff0dac367554","system_id":"levelo_inurba_marseille","lat":43.28738,"lon":5.40007,"is_reserved":false,"is_disabled":false,"rental_uris":{"android":"levelo://app?vid=c72646b0-a27b-4a8a-b8a4-ff0dac367554","ios":"levelo://app?vid=c72646b0-a27b-4a8a-b8a4-ff0dac367554"},"vehicle_type_id":"4","last_reported":1746688237,"current_range_meters":26000,"station_id":"ce4bho92rcd13ifvqh3g","pricing_plan_id":"cebpf4jnsgd1na2vs0mg"},{"bike_id":"7dd541b9-e858-4734-8b38-bf5cec4a45d8","system_id":"levelo_inurba_marseille","lat":43.301101,"lon":5.371666,"is_reserved":false,"is_disabled":false,"rental_uris":{"android":"levelo://app?vid=7dd541b9-e858-4734-8b38-bf5cec4a45d8","ios":"levelo://app?vid=7dd541b9-e858-4734-8b38-bf5cec4a45d8"},"vehicle_type_id":"4","last_reported":1746688237,"current_range_meters":26000,"station_id":"","pricing_plan_id":"cebpf4jnsgd1na2vs0mg"},{"bike_id":"e143f927-77fa-433f-8c67-63fa7888f990","system_id":"levelo_inurba_marseille","lat":43.27497,"lon":5.42445,"is_reserved":false,"is_disabled":false,"rental_uris":{"android":"levelo://app?vid=e143f927-77fa-433f-8c67-63fa7888f990","ios":"levelo://app?vid=e143f927-77fa-433f-8c67-63fa7888f990"},"vehicle_type_id":"4","last_reported":1746688237,"current_range_meters":26000,"station_id":"","pricing_plan_id":"cebpf4jnsgd1na2vs0mg"},{"bike_id":"12245c9f-8fcb-41b2-84a8-21faee689bd4","system_id":"levelo_inurba_marseille","lat":43.25576,"lon":5.38196,"is_reserved":false,"is_disabled":false,"rental_uris":{"android":"levelo://app?vid=12245c9f-8fcb-41b2-84a8-21faee689bd4","ios":"levelo://app?vid=12245c9f-8fcb-41b2-84a8-21faee689bd4"},"vehicle_type_id":"4","last_reported":1746688237,"current_range_meters":26800,"station_id":"ce4bhih2rcd13ifvqfs0","pricing_plan_id":"cebpf4jnsgd1na2vs0mg"},{"bike_id":"20345bfa-2101-4954-8f91-7cb7c68930b3","system_id":"levelo_inurba_marseille","lat":43.26564,"lon":5.39018,"is_reserved":false,"is_disabled":false,"rental_uris":{"android":"levelo://app?vid=20345bfa-2101-4954-8f91-7cb7c68930b3","ios":"levelo://app?vid=20345bfa-2101-4954-8f91-7cb7c68930b3"},"vehicle_type_id":"4","last_reported":1746688237,"current_range_meters":26800,"station_id":"ce4bhe12rcd13ifvqf30","pricing_plan_id":"cebpf4jnsgd1na2vs0mg"},{"bike_id":"c756c762-b429-4a4a-a98b-7719a878557b","system_id":"levelo_inurba_marseille","lat":43.283142,"lon":5.350334,"is_reserved":false,"is_disabled":false,"rental_uris":{"android":"levelo://app?vid=c756c762-b429-4a4a-a98b-7719a878557b","ios":"levelo://app?vid=c756c762-b429-4a4a-a98b-7719a878557b"},"vehicle_type_id":"4","last_reported":1746688237,"current_range_meters":27200,"station_id":"ce4bhbp2rcd13ifvqerg","pricing_plan_id":"cebpf4jnsgd1na2vs0mg"},{"bike_id":"0ba8250e-7150-4c3c-b4a9-796c5cf1ca93","system_id":"levelo_inurba_marseille","lat":43.32472,"lon":5.36573,"is_reserved":false,"is_disabled":false,"rental_uris":{"android":"levelo://app?vid=0ba8250e-7150-4c3c-b4a9-796c5cf1ca93","ios":"levelo://app?vid=0ba8250e-7150-4c3c-b4a9-796c5cf1ca93"},"vehicle_type_id":"4","last_reported":1746688237,"current_range_meters":27200,"station_id":"ce4bhs12rcd13ifvqhvg","pricing_plan_id":"cebpf4jnsgd1na2vs0mg"},{"bike_id":"44f0b8e1-e648-4856-92c6-3eca80ec6d69","system_id":"levelo_inurba_marseille","lat":43.27241,"lon":5.39214,"is_reserved":false,"is_disabled":true,"rental_uris":{"android":"levelo://app?vid=44f0b8e1-e648-4856-92c6-3eca80ec6d69","ios":"levelo://app?vid=44f0b8e1-e648-4856-92c6-3eca80ec6d69"},"vehicle_type_id":"4","last_reported":1746688237,"current_range_meters":27600,"station_id":"ce4bhhp2rcd13ifvqfm0","pricing_plan_id":"cebpf4jnsgd1na2vs0mg"},{"bike_id":"aaad35d7-e5e4-4eee-a4a8-42310b4d6d99","system_id":"levelo_inurba_marseille","lat":43.24188,"lon":5.39731,"is_reserved":false,"is_disabled":false,"rental_uris":{"android":"levelo://app?vid=aaad35d7-e5e4-4eee-a4a8-42310b4d6d99","ios":"levelo://app?vid=aaad35d7-e5e4-4eee-a4a8-42310b4d6d99"},"vehicle_type_id":"4","last_reported":1746688237,"current_range_meters":27600,"station_id":"ce4bhn12rcd13ifvqgpg","pricing_plan_id":"cebpf4jnsgd1na2vs0mg"},{"bike_id":"6fdcf860-3d0b-4523-b728-0ac1a309bb24","system_id":"levelo_inurba_marseille","lat":43.30465,"lon":5.37905,"is_reserved":false,"is_disabled":false,"rental_uris":{"android":"levelo://app?vid=6fdcf860-3d0b-4523-b728-0ac1a309bb24","ios":"levelo://app?vid=6fdcf860-3d0b-4523-b728-0ac1a309bb24"},"vehicle_type_id":"4","last_reported":1746688237,"current_range_meters":27600,"station_id":"ce4bgup2rcd13ifvqcn0","pricing_plan_id":"cebpf4jnsgd1na2vs0mg"},{"bike_id":"ef2affaf-e901-428f-8c05-dd60cc1eafde","system_id":"levelo_inurba_marseille","lat":43.28138,"lon":5.39854,"is_reserved":false,"is_disabled":false,"rental_uris":{"android":"levelo://app?vid=ef2affaf-e901-428f-8c05-dd60cc1eafde","ios":"levelo://app?vid=ef2affaf-e901-428f-8c05-dd60cc1eafde"},"vehicle_type_id":"4","last_reported":1746688237,"current_range_meters":27600,"station_id":"","pricing_plan_id":"cebpf4jnsgd1na2vs0mg"},{"bike_id":"f0deccb7-a270-4fd4-a51e-39844e0ae45a","system_id":"levelo_inurba_marseille","lat":43.347675,"lon":5.349566,"is_reserved":false,"is_disabled":false,"rental_uris":{"android":"levelo://app?vid=f0deccb7-a270-4fd4-a51e-39844e0ae45a","ios":"levelo://app?vid=f0deccb7-a270-4fd4-a51e-39844e0ae45a"},"vehicle_type_id":"4","last_reported":1746688237,"current_range_meters":27600,"station_id":"","pricing_plan_id":"cebpf4jnsgd1na2vs0mg"},{"bike_id":"5aec86d2-85bd-4331-84a9-f9b1cb49ff81","system_id":"levelo_inurba_marseille","lat":43.31388,"lon":5.38501,"is_reserved":false,"is_disabled":false,"rental_uris":{"android":"levelo://app?vid=5aec86d2-85bd-4331-84a9-f9b1cb49ff81","ios":"levelo://app?vid=5aec86d2-85bd-4331-84a9-f9b1cb49ff81"},"vehicle_type_id":"4","last_reported":1746688237,"current_range_meters":27600,"station_id":"ce4bgt92rcd13ifvqcf0","pricing_plan_id":"cebpf4jnsgd1na2vs0mg"},{"bike_id":"d12db517-702a-4e47-8999-107d76ce5cd9","system_id":"levelo_inurba_marseille","lat":43.29916,"lon":5.38146,"is_reserved":false,"is_disabled":false,"rental_uris":{"android":"levelo://app?vid=d12db517-702a-4e47-8999-107d76ce5cd9","ios":"levelo://app?vid=d12db517-702a-4e47-8999-107d76ce5cd9"},"vehicle_type_id":"4","last_reported":1746688237,"current_range_meters":27600,"station_id":"ce4bgj12rcd13ifvqbc0","pricing_plan_id":"cebpf4jnsgd1na2vs0mg"},{"bike_id":"c2e7fab7-958f-4344-b417-737c6e426d50","system_id":"levelo_inurba_marseille","lat":43.26703,"lon":5.38268,"is_reserved":false,"is_disabled":true,"rental_uris":{"android":"levelo://app?vid=c2e7fab7-958f-4344-b417-737c6e426d50","ios":"levelo://app?vid=c2e7fab7-958f-4344-b417-737c6e426d50"},"vehicle_type_id":"4","last_reported":1746688237,"current_range_meters":27600,"station_id":"ce4bhg92rcd13ifvqf90","pricing_plan_id":"cebpf4jnsgd1na2vs0mg"},{"bike_id":"818ab763-3284-47a4-b130-745cd1ff68bb","system_id":"levelo_inurba_marseille","lat":43.29141,"lon":5.40091,"is_reserved":false,"is_disabled":false,"rental_uris":{"android":"levelo://app?vid=818ab763-3284-47a4-b130-745cd1ff68bb","ios":"levelo://app?vid=818ab763-3284-47a4-b130-745cd1ff68bb"},"vehicle_type_id":"4","last_reported":1746688237,"current_range_meters":27600,"station_id":"","pricing_plan_id":"cebpf4jnsgd1na2vs0mg"},{"bike_id":"3c89cc1d-1749-4495-9184-686611282d9c","system_id":"levelo_inurba_marseille","lat":43.27069,"lon":5.40262,"is_reserved":false,"is_disabled":false,"rental_uris":{"android":"levelo://app?vid=3c89cc1d-1749-4495-9184-686611282d9c","ios":"levelo://app?vid=3c89cc1d-1749-4495-9184-686611282d9c"},"vehicle_type_id":"4","last_reported":1746688237,"current_range_meters":27600,"station_id":"ce4bhk92rcd13ifvqgc0","pricing_plan_id":"cebpf4jnsgd1na2vs0mg"},{"bike_id":"993ccbff-7aa9-4262-996b-53a2f0438afe","system_id":"levelo_inurba_marseille","lat":43.27428,"lon":5.39414,"is_reserved":false,"is_disabled":true,"rental_uris":{"android":"levelo://app?vid=993ccbff-7aa9-4262-996b-53a2f0438afe","ios":"levelo://app?vid=993ccbff-7aa9-4262-996b-53a2f0438afe"},"vehicle_type_id":"4","last_reported":1746688237,"current_range_meters":27600,"station_id":"ce4bhdp2rcd13ifvqf20","pricing_plan_id":"cebpf4jnsgd1na2vs0mg"},{"bike_id":"e531dea5-e0d0-4ec3-a9d5-a1711cdf45a9","system_id":"levelo_inurba_marseille","lat":43.31544,"lon":5.38044,"is_reserved":false,"is_disabled":false,"rental_uris":{"android":"levelo://app?vid=e531dea5-e0d0-4ec3-a9d5-a1711cdf45a9","ios":"levelo://app?vid=e531dea5-e0d0-4ec3-a9d5-a1711cdf45a9"},"vehicle_type_id":"4","last_reported":1746688237,"current_range_meters":28000,"station_id":"ce4bhsp2rcd13ifvqi50","pricing_plan_id":"cebpf4jnsgd1na2vs0mg"},{"bike_id":"c5430509-7623-4443-bb41-e94ad75fea3d","system_id":"levelo_inurba_marseille","lat":43.23183,"lon":5.39991,"is_reserved":false,"is_disabled":false,"rental_uris":{"android":"levelo://app?vid=c5430509-7623-4443-bb41-e94ad75fea3d","ios":"levelo://app?vid=c5430509-7623-4443-bb41-e94ad75fea3d"},"vehicle_type_id":"4","last_reported":1746688237,"current_range_meters":28000,"station_id":"ce4bhn12rcd13ifvqgqg","pricing_plan_id":"cebpf4jnsgd1na2vs0mg"},{"bike_id":"e3c79266-72f3-4931-8d06-91ae40a46803","system_id":"levelo_inurba_marseille","lat":43.29369,"lon":5.37858,"is_reserved":false,"is_disabled":true,"rental_uris":{"android":"levelo://app?vid=e3c79266-72f3-4931-8d06-91ae40a46803","ios":"levelo://app?vid=e3c79266-72f3-4931-8d06-91ae40a46803"},"vehicle_type_id":"4","last_reported":1746688237,"current_range_meters":28000,"station_id":"ce4bgjh2rcd13ifvqbf0","pricing_plan_id":"cebpf4jnsgd1na2vs0mg"},{"bike_id":"78bd7230-a3ee-4391-ab28-184a9eed3a61","system_id":"levelo_inurba_marseille","lat":43.26808,"lon":5.40254,"is_reserved":false,"is_disabled":false,"rental_uris":{"android":"levelo://app?vid=78bd7230-a3ee-4391-ab28-184a9eed3a61","ios":"levelo://app?vid=78bd7230-a3ee-4391-ab28-184a9eed3a61"},"vehicle_type_id":"4","last_reported":1746688237,"current_range_meters":28000,"station_id":"ce501612rcd8frsf0b60","pricing_plan_id":"cebpf4jnsgd1na2vs0mg"},{"bike_id":"c4cb2815-8164-4332-9c6a-955772530cf4","system_id":"levelo_inurba_marseille","lat":43.25724,"lon":5.41113,"is_reserved":false,"is_disabled":false,"rental_uris":{"android":"levelo://app?vid=c4cb2815-8164-4332-9c6a-955772530cf4","ios":"levelo://app?vid=c4cb2815-8164-4332-9c6a-955772530cf4"},"vehicle_type_id":"4","last_reported":1746688237,"current_range_meters":28000,"station_id":"ce4bhkp2rcd13ifvqgd0","pricing_plan_id":"cebpf4jnsgd1na2vs0mg"},{"bike_id":"2f7204e4-aba0-4ac4-806d-39a4adcd808b","system_id":"levelo_inurba_marseille","lat":43.28178,"lon":5.42675,"is_reserved":false,"is_disabled":false,"rental_uris":{"android":"levelo://app?vid=2f7204e4-aba0-4ac4-806d-39a4adcd808b","ios":"levelo://app?vid=2f7204e4-aba0-4ac4-806d-39a4adcd808b"},