{"last_updated":1730146189,"ttl":60,"version":"2.2","data":{"bikes":[{"bike_id":"719b00fa-0bd9-4126-be08-f0948e879714","system_id":"levelo_inurba_marseille","lat":43.2732,"lon":5.39085,"is_reserved":false,"is_disabled":false,"rental_uris":{"android":"levelo://app?vid=719b00fa-0bd9-4126-be08-f0948e879714","ios":"levelo://app?vid=719b00fa-0bd9-4126-be08-f0948e879714"},"vehicle_type_id":"4","last_reported":1730146189,"current_range_meters":37600,"station_id":"ce4bhgp2rcd13ifvqfe0","pricing_plan_id":"cebpf4jnsgd1na2vs0mg"},{"bike_id":"5b6da0fb-5d65-41eb-8aa7-edd3cba55e1e","system_id":"levelo_inurba_marseille","lat":43.30352,"lon":5.41881,"is_reserved":false,"is_disabled":false,"rental_uris":{"android":"levelo://app?vid=5b6da0fb-5d65-41eb-8aa7-edd3cba55e1e","ios":"levelo://app?vid=5b6da0fb-5d65-41eb-8aa7-edd3cba55e1e"},"vehicle_type_id":"4","last_reported":1730146189,"current_range_meters":5600,"station_id":"ce4bhop2rcd13ifvqh7g","pricing_plan_id":"cebpf4jnsgd1na2vs0mg"},{"bike_id":"9e4044e9-dd72-4f58-b85b-2423a1de6b75","system_id":"levelo_inurba_marseille","lat":43.27184,"lon":5.40998,"is_reserved":false,"is_disabled":false,"rental_uris":{"android":"levelo://app?vid=9e4044e9-dd72-4f58-b85b-2423a1de6b75","ios":"levelo://app?vid=9e4044e9-dd72-4f58-b85b-2423a1de6b75"},"vehicle_type_id":"4","last_reported":1730146189,"current_range_meters":10000,"station_id":"ce4bhl12rcd13ifvqgf0","pricing_plan_id":"cebpf4jnsgd1na2vs0mg"},{"bike_id":"4aebdb59-bbc7-456e-b060-33c91b8172d0","system_id":"levelo_inurba_marseille","lat":43.29911,"lon":5.38258,"is_reserved":false,"is_disabled":false,"rental_uris":{"android":"levelo://app?vid=4aebdb59-bbc7-456e-b060-33c91b8172d0","ios":"levelo://app?vid=4aebdb59-bbc7-456e-b060-33c91b8172d0"},"vehicle_type_id":"4","last_reported":1730146189,"current_range_meters":29600,"station_id":"","pricing_plan_id":"cebpf4jnsgd1na2vs0mg"},{"bike_id":"83f7db1f-5175-4f37-854b-cde355acc9c6","system_id":"levelo_inurba_marseille","lat":43.3229,"lon":5.38282,"is_reserved":false,"is_disabled":false,"rental_uris":{"android":"levelo://app?vid=83f7db1f-5175-4f37-854b-cde355acc9c6","ios":"levelo://app?vid=83f7db1f-5175-4f37-854b-cde355acc9c6"},"vehicle_type_id":"4","last_reported":1730146189,"current_range_meters":38800,"station_id":"ce4bhr12rcd13ifvqhqg","pricing_plan_id":"cebpf4jnsgd1na2vs0mg"},{"bike_id":"a5b6a568-8ad5-427b-a790-d24b56179168","system_id":"levelo_inurba_marseille","lat":43.30609,"lon":5.39359,"is_reserved":false,"is_disabled":false,"rental_uris":{"android":"levelo://app?vid=a5b6a568-8ad5-427b-a790-d24b56179168","ios":"levelo://app?vid=a5b6a568-8ad5-427b-a790-d24b56179168"},"vehicle_type_id":"4","last_reported":1730146189,"current_range_meters":38800,"station_id":"ce4bh0p2rcd13ifvqd80","pricing_plan_id":"cebpf4jnsgd1na2vs0mg"},{"bike_id":"d55c9e77-4a35-4dfb-8600-34e8d3a87e3b","system_id":"levelo_inurba_marseille","lat":43.30301,"lon":5.39206,"is_reserved":false,"is_disabled":false,"rental_uris":{"android":"levelo://app?vid=d55c9e77-4a35-4dfb-8600-34e8d3a87e3b","ios":"levelo://app?vid=d55c9e77-4a35-4dfb-8600-34e8d3a87e3b"},"vehicle_type_id":"4","last_reported":1730146189,"current_range_meters":36400,"station_id":"ce4bgkh2rcd13ifvqbk0","pricing_plan_id":"cebpf4jnsgd1na2vs0mg"},{"bike_id":"62b5614c-5f33-4953-a27e-e0c821552090","system_id":"levelo_inurba_marseille","lat":43.23189,"lon":5.35544,"is_reserved":false,"is_disabled":false,"rental_uris":{"android":"levelo://app?vid=62b5614c-5f33-4953-a27e-e0c821552090","ios":"levelo://app?vid=62b5614c-5f33-4953-a27e-e0c821552090"},"vehicle_type_id":"4","last_reported":1730146189,"current_range_meters":36800,"station_id":"ce4bhu92rcd13ifvqi70","pricing_plan_id":"cebpf4jnsgd1na2vs0mg"},{"bike_id":"0da64c64-7553-412e-901d-cd07329f19eb","system_id":"levelo_inurba_marseille","lat":43.29438,"lon":5.39754,"is_reserved":false,"is_disabled":false,"rental_uris":{"android":"levelo://app?vid=0da64c64-7553-412e-901d-cd07329f19eb","ios":"levelo://app?vid=0da64c64-7553-412e-901d-cd07329f19eb"},"vehicle_type_id":"4","last_reported":1730146189,"current_range_meters":10800,"station_id":"ce4bh3h2rcd13ifvqdo0","pricing_plan_id":"cebpf4jnsgd1na2vs0mg"},{"bike_id":"d2ac1fc9-25ff-492d-8d29-5a0f34791c02","system_id":"levelo_inurba_marseille","lat":43.29594,"lon":5.38106,"is_reserved":false,"is_disabled":false,"rental_uris":{"android":"levelo://app?vid=d2ac1fc9-25ff-492d-8d29-5a0f34791c02","ios":"levelo://app?vid=d2ac1fc9-25ff-492d-8d29-5a0f34791c02"},"vehicle_type_id":"4","last_reported":1730146189,"current_range_meters":14400,"station_id":"ce4bgl12rcd13ifvqbo0","pricing_plan_id":"cebpf4jnsgd1na2vs0mg"},{"bike_id":"23c7ad63-8334-4bff-bd39-4ba1de8c7506","system_id":"levelo_inurba_marseille","lat":43.29027,"lon":5.38654,"is_reserved":false,"is_disabled":false,"rental_uris":{"android":"levelo://app?vid=23c7ad63-8334-4bff-bd39-4ba1de8c7506","ios":"levelo://app?vid=23c7ad63-8334-4bff-bd39-4ba1de8c7506"},"vehicle_type_id":"4","last_reported":1730146189,"current_range_meters":38800,"station_id":"ce4bh4p2rcd13ifvqe0g","pricing_plan_id":"cebpf4jnsgd1na2vs0mg"},{"bike_id":"9da47013-7556-4f47-95c9-7f7ca36bde87","system_id":"levelo_inurba_marseille","lat":43.28941,"lon":5.36633,"is_reserved":false,"is_disabled":false,"rental_uris":{"android":"levelo://app?vid=9da47013-7556-4f47-95c9-7f7ca36bde87","ios":"levelo://app?vid=9da47013-7556-4f47-95c9-7f7ca36bde87"},"vehicle_type_id":"4","last_reported":1730146189,"current_range_meters":32400,"station_id":"ce4bhap2rcd13ifvqek0","pricing_plan_id":"cebpf4jnsgd1na2vs0mg"},{"bike_id":"0415be9b-88d6-4d85-9d1e-3930b85f0223","system_id":"levelo_inurba_marseille","lat":43.30423,"lon":5.39751,"is_reserved":false,"is_disabled":false,"rental_uris":{"android":"levelo://app?vid=0415be9b-88d6-4d85-9d1e-3930b85f0223","ios":"levelo://app?vid=0415be9b-88d6-4d85-9d1e-3930b85f0223"},"vehicle_type_id":"4","last_reported":1730146189,"current_range_meters":38800,"station_id":"ce4bh092rcd13ifvqd20","pricing_plan_id":"cebpf4jnsgd1na2vs0mg"},{"bike_id":"8d191566-d8a6-44ba-bebe-2a9d6ff01fde","system_id":"levelo_inurba_marseille","lat":43.27246,"lon":5.38693,"is_reserved":false,"is_disabled":false,"rental_uris":{"android":"levelo://app?vid=8d191566-d8a6-44ba-bebe-2a9d6ff01fde","ios":"levelo://app?vid=8d191566-d8a6-44ba-bebe-2a9d6ff01fde"},"vehicle_type_id":"4","last_reported":1730146189,"current_range_meters":26800,"station_id":"","pricing_plan_id":"cebpf4jnsgd1na2vs0mg"},{"bike_id":"91dec084-bb38-4da5-8771-160af9476950","system_id":"levelo_inurba_marseille","lat":43.29164,"lon":5.37161,"is_reserved":false,"is_disabled":false,"rental_uris":{"android":"levelo://app?vid=91dec084-bb38-4da5-8771-160af9476950","ios":"levelo://app?vid=91dec084-bb38-4da5-8771-160af9476950"},"vehicle_type_id":"4","last_reported":1730146189,"current_range_meters":11200,"station_id":"ce4bha92rcd13ifvqeh0","pricing_plan_id":"cebpf4jnsgd1na2vs0mg"},{"bike_id":"6189713a-16c5-4ce0-b9cd-f73b37540f7b","system_id":"levelo_inurba_marseille","lat":43.273839,"lon":5.362472,"is_reserved":false,"is_disabled":false,"rental_uris":{"android":"levelo://app?vid=6189713a-16c5-4ce0-b9cd-f73b37540f7b","ios":"levelo://app?vid=6189713a-16c5-4ce0-b9cd-f73b37540f7b"},"vehicle_type_id":"4","last_reported":1730146189,"current_range_meters":10000,"station_id":"ce4bhbh2rcd13ifvqeo0","pricing_plan_id":"cebpf4jnsgd1na2vs0mg"},{"bike_id":"18d073cb-83b6-4a56-b36c-f24538a0e583","system_id":"levelo_inurba_marseille","lat":43.23186,"lon":5.39986,"is_reserved":false,"is_disabled":false,"rental_uris":{"android":"levelo://app?vid=18d073cb-83b6-4a56-b36c-f24538a0e583","ios":"levelo://app?vid=18d073cb-83b6-4a56-b36c-f24538a0e583"},"vehicle_type_id":"4","last_reported":1730146189,"current_range_meters":2000,"station_id":"ce4bhn12rcd13ifvqgqg","pricing_plan_id":"cebpf4jnsgd1na2vs0mg"},{"bike_id":"92f6ed1c-79dc-4eb8-b37f-584bfe085c1d","system_id":"levelo_inurba_marseille","lat":43.312615,"lon":5.401675,"is_reserved":false,"is_disabled":false,"rental_uris":{"android":"levelo://app?vid=92f6ed1c-79dc-4eb8-b37f-584bfe085c1d","ios":"levelo://app?vid=92f6ed1c-79dc-4eb8-b37f-584bfe085c1d"},"vehicle_type_id":"4","last_reported":1730146189,"current_range_meters":24400,"station_id":"ce4bh092rcd13ifvqd30","pricing_plan_id":"cebpf4jnsgd1na2vs0mg"},{"bike_id":"c4589ab5-bcbe-4008-b577-c015e773a1a8","system_id":"levelo_inurba_marseille","lat":43.32332,"lon":5.40625,"is_reserved":false,"is_disabled":false,"rental_uris":{"android":"levelo://app?vid=c4589ab5-bcbe-4008-b577-c015e773a1a8","ios":"levelo://app?vid=c4589ab5-bcbe-4008-b577-c015e773a1a8"},"vehicle_type_id":"4","last_reported":1730146189,"current_range_meters":27600,"station_id":"ce4bhq92rcd13ifvqhjg","pricing_plan_id":"cebpf4jnsgd1na2vs0mg"},{"bike_id":"559e0993-d3ec-4994-8a4d-edbc5593d328","system_id":"levelo_inurba_marseille","lat":43.22934,"lon":5.35378,"is_reserved":false,"is_disabled":false,"rental_uris":{"android":"levelo://app?vid=559e0993-d3ec-4994-8a4d-edbc5593d328","ios":"levelo://app?vid=559e0993-d3ec-4994-8a4d-edbc5593d328"},"vehicle_type_id":"4","last_reported":1730146189,"current_range_meters":3600,"station_id":"cpo3532slgdg3j2ikp40","pricing_plan_id":"cebpf4jnsgd1na2vs0mg"},{"bike_id":"5d473ec4-2745-4406-90b3-7a99a8f9839a","system_id":"levelo_inurba_marseille","lat":43.30783,"lon":5.37647,"is_reserved":false,"is_disabled":false,"rental_uris":{"android":"levelo://app?vid=5d473ec4-2745-4406-90b3-7a99a8f9839a","ios":"levelo://app?vid=5d473ec4-2745-4406-90b3-7a99a8f9839a"},"vehicle_type_id":"4","last_reported":1730146189,"current_range_meters":22400,"station_id":"ce4bgv12rcd13ifvqcp0","pricing_plan_id":"cebpf4jnsgd1na2vs0mg"},{"bike_id":"8ba2fca5-9471-490e-bc44-2bba6618a5e6","system_id":"levelo_inurba_marseille","lat":43.2784,"lon":5.39208,"is_reserved":false,"is_disabled":false,"rental_uris":{"android":"levelo://app?vid=8ba2fca5-9471-490e-bc44-2bba6618a5e6","ios":"levelo://app?vid=8ba2fca5-9471-490e-bc44-2bba6618a5e6"},"vehicle_type_id":"4","last_reported":1730146189,"current_range_meters":8400,"station_id":"ce4bhjp2rcd13ifvqga0","pricing_plan_id":"cebpf4jnsgd1na2vs0mg"},{"bike_id":"d1dacee6-8f47-4ca5-823b-a2ea6c3413e8","system_id":"levelo_inurba_marseille","lat":43.23195,"lon":5.35559,"is_reserved":false,"is_disabled":false,"rental_uris":{"android":"levelo://app?vid=d1dacee6-8f47-4ca5-823b-a2ea6c3413e8","ios":"levelo://app?vid=d1dacee6-8f47-4ca5-823b-a2ea6c3413e8"},"vehicle_type_id":"4","last_reported":1730146189,"current_range_meters":39200,"station_id":"ce4bhu92rcd13ifvqi70","pricing_plan_id":"cebpf4jnsgd1na2vs0mg"},{"bike_id":"7a608df9-d38c-4539-9618-def54653a395","system_id":"levelo_inurba_marseille","lat":43.29774,"lon":5.37111,"is_reserved":false,"is_disabled":false,"rental_uris":{"android":"levelo://app?vid=7a608df9-d38c-4539-9618-def54653a395","ios":"levelo://app?vid=7a608df9-d38c-4539-9618-def54653a395"},"vehicle_type_id":"4","last_reported":1730146189,"current_range_meters":34000,"station_id":"ce4bgop2rcd13ifvqc1g","pricing_plan_id":"cebpf4jnsgd1na2vs0mg"},{"bike_id":"97c61ba7-a09d-4cba-8027-b654cf50d5c2","system_id":"levelo_inurba_marseille","lat":43.29794,"lon":5.40406,"is_reserved":false,"is_disabled":false,"rental_uris":{"android":"levelo://app?vid=97c61ba7-a09d-4cba-8027-b654cf50d5c2","ios":"levelo://app?vid=97c61ba7-a09d-4cba-8027-b654cf50d5c2"},"vehicle_type_id":"4","last_reported":1730146189,"current_range_meters":38800,"station_id":"ce4bh112rcd13ifvqd90","pricing_plan_id":"cebpf4jnsgd1na2vs0mg"},{"bike_id":"918a42ab-9b9b-4598-9aeb-f8b26ea46eb4","system_id":"levelo_inurba_marseille","lat":43.29035,"lon":5.38629,"is_reserved":false,"is_disabled":false,"rental_uris":{"android":"levelo://app?vid=918a42ab-9b9b-4598-9aeb-f8b26ea46eb4","ios":"levelo://app?vid=918a42ab-9b9b-4598-9aeb-f8b26ea46eb4"},"vehicle_type_id":"4","last_reported":1730146189,"current_range_meters":38800,"station_id":"ce4bh4p2rcd13ifvqe0g","pricing_plan_id":"cebpf4jnsgd1na2vs0mg"},{"bike_id":"3772f486-5636-4066-ad98-f7d32b7a1e50","system_id":"levelo_inurba_marseille","lat":43.28708,"lon":5.37937,"is_reserved":false,"is_disabled":false,"rental_uris":{"android":"levelo://app?vid=3772f486-5636-4066-ad98-f7d32b7a1e50","ios":"levelo://app?vid=3772f486-5636-4066-ad98-f7d32b7a1e50"},"vehicle_type_id":"4","last_reported":1730146189,"current_range_meters":8800,"station_id":"ce4bh9p2rcd13ifvqec0","pricing_plan_id":"cebpf4jnsgd1na2vs0mg"},{"bike_id":"26bd4a28-1716-4095-b0c5-99fef942b45b","system_id":"levelo_inurba_marseille","lat":43.28407,"lon":5.37508,"is_reserved":false,"is_disabled":false,"rental_uris":{"android":"levelo://app?vid=26bd4a28-1716-4095-b0c5-99fef942b45b","ios":"levelo://app?vid=26bd4a28-1716-4095-b0c5-99fef942b45b"},"vehicle_type_id":"4","last_reported":1730146189,"current_range_meters":6000,"station_id":"ce4bh412rcd13ifvqds0","pricing_plan_id":"cebpf4jnsgd1na2vs0mg"},{"bike_id":"ff4fa59f-df4e-4303-83f9-bad00f804abe","system_id":"levelo_inurba_marseille","lat":43.28399,"lon":5.37506,"is_reserved":false,"is_disabled":false,"rental_uris":{"android":"levelo://app?vid=ff4fa59f-df4e-4303-83f9-bad00f804abe","ios":"levelo://app?vid=ff4fa59f-df4e-4303-83f9-bad00f804abe"},"vehicle_type_id":"4","last_reported":1730146189,"current_range_meters":12000,"station_id":"ce4bh412rcd13ifvqds0","pricing_plan_id":"cebpf4jnsgd1na2vs0mg"},{"bike_id":"f8e40ec6-02d7-48d8-9484-3fe6f97bc7b1","system_id":"levelo_inurba_marseille","lat":43.28661,"lon":5.36342,"is_reserved":false,"is_disabled":false,"rental_uris":{"android":"levelo://app?vid=f8e40ec6-02d7-48d8-9484-3fe6f97bc7b1","ios":"levelo://app?vid=f8e40ec6-02d7-48d8-9484-3fe6f97bc7b1"},"vehicle_type_id":"4","last_reported":1730146189,"current_range_meters":19600,"station_id":"ce4bhah2rcd13ifvqej0","pricing_plan_id":"cebpf4jnsgd1na2vs0mg"},{"bike_id":"b4526fcf-d38e-49e0-91b0-68590f1a11f5","system_id":"levelo_inurba_marseille","lat":43.29205,"lon":5.39335,"is_reserved":false,"is_disabled":false,"rental_uris":{"android":"levelo://app?vid=b4526fcf-d38e-49e0-91b0-68590f1a11f5","ios":"levelo://app?vid=b4526fcf-d38e-49e0-91b0-68590f1a11f5"},"vehicle_type_id":"4","last_reported":1730146189,"current_range_meters":24800,"station_id":"ce4bh192rcd13ifvqdd0","pricing_plan_id":"cebpf4jnsgd1na2vs0mg"},{"bike_id":"643158b2-cb68-48c6-95fc-a266109d9d26","system_id":"levelo_inurba_marseille","lat":43.31215,"lon":5.36864,"is_reserved":false,"is_disabled":false,"rental_uris":{"android":"levelo://app?vid=643158b2-cb68-48c6-95fc-a266109d9d26","ios":"levelo://app?vid=643158b2-cb68-48c6-95fc-a266109d9d26"},"vehicle_type_id":"4","last_reported":1730146189,"current_range_meters":8000,"station_id":"ce4bgl92rcd13ifvqbq0","pricing_plan_id":"cebpf4jnsgd1na2vs0mg"},{"bike_id":"02d97ab0-ea3e-4e7c-b5d7-08bc8dd1610f","system_id":"levelo_inurba_marseille","lat":43.27829,"lon":5.3921,"is_reserved":false,"is_disabled":false,"rental_uris":{"android":"levelo://app?vid=02d97ab0-ea3e-4e7c-b5d7-08bc8dd1610f","ios":"levelo://app?vid=02d97ab0-ea3e-4e7c-b5d7-08bc8dd1610f"},"vehicle_type_id":"4","last_reported":1730146189,"current_range_meters":14800,"station_id":"ce4bhjp2rcd13ifvqga0","pricing_plan_id":"cebpf4jnsgd1na2vs0mg"},{"bike_id":"5b0a34de-11b0-4ff8-9149-d6c3310f6681","system_id":"levelo_inurba_marseille","lat":43.29525,"lon":5.38533,"is_reserved":false,"is_disabled":false,"rental_uris":{"android":"levelo://app?vid=5b0a34de-11b0-4ff8-9149-d6c3310f6681","ios":"levelo://app?vid=5b0a34de-11b0-4ff8-9149-d6c3310f6681"},"vehicle_type_id":"4","last_reported":1730146189,"current_range_meters":3600,"station_id":"ce4bgih2rcd13ifvqba0","pricing_plan_id":"cebpf4jnsgd1na2vs0mg"},{"bike_id":"adeacf7c-16b9-4173-ab8e-c49573383005","system_id":"levelo_inurba_marseille","lat":43.32668,"lon":5.4099,"is_reserved":false,"is_disabled":false,"rental_uris":{"android":"levelo://app?vid=adeacf7c-16b9-4173-ab8e-c49573383005","ios":"levelo://app?vid=adeacf7c-16b9-4173-ab8e-c49573383005"},"vehicle_type_id":"4","last_reported":1730146189,"current_range_meters":19600,"station_id":"ce4bhpp2rcd13ifvqhgg","pricing_plan_id":"cebpf4jnsgd1na2vs0mg"},{"bike_id":"17c8cb4b-2976-4794-8802-8c9f68880de3","system_id":"levelo_inurba_marseille","lat":43.292633,"lon":5.384364,"is_reserved":false,"is_disabled":false,"rental_uris":{"android":"levelo://app?vid=17c8cb4b-2976-4794-8802-8c9f68880de3","ios":"levelo://app?vid=17c8cb4b-2976-4794-8802-8c9f68880de3"},"vehicle_type_id":"4","last_reported":1730146189,"current_range_meters":15200,"station_id":"ce4bgr92rcd13ifvqc6g","pricing_plan_id":"cebpf4jnsgd1na2vs0mg"},{"bike_id":"af416fb4-e878-4dc2-b683-9157ae537931","system_id":"levelo_inurba_marseille","lat":43.265739,"lon":5.390067,"is_reserved":false,"is_disabled":false,"rental_uris":{"android":"levelo://app?vid=af416fb4-e878-4dc2-b683-9157ae537931","ios":"levelo://app?vid=af416fb4-e878-4dc2-b683-9157ae537931"},"vehicle_type_id":"4","last_reported":1730146189,"current_range_meters":38800,"station_id":"ce4bhe12rcd13ifvqf30","pricing_plan_id":"cebpf4jnsgd1na2vs0mg"},{"bike_id":"d47c2b9a-0cdb-48ba-ab00-4ef349e9a48e","system_id":"levelo_inurba_marseille","lat":43.29026,"lon":5.38636,"is_reserved":false,"is_disabled":false,"rental_uris":{"android":"levelo://app?vid=d47c2b9a-0cdb-48ba-ab00-4ef349e9a48e","ios":"levelo://app?vid=d47c2b9a-0cdb-48ba-ab00-4ef349e9a48e"},"vehicle_type_id":"4","last_reported":1730146189,"current_range_meters":38800,"station_id":"ce4bh4p2rcd13ifvqe0g","pricing_plan_id":"cebpf4jnsgd1na2vs0mg"},{"bike_id":"edee228c-76f1-4f9d-b4f7-5773b8a0b850","system_id":"levelo_inurba_marseille","lat":43.23193,"lon":5.35552,"is_reserved":false,"is_disabled":false,"rental_uris":{"android":"levelo://app?vid=edee228c-76f1-4f9d-b4f7-5773b8a0b850","ios":"levelo://app?vid=edee228c-76f1-4f9d-b4f7-5773b8a0b850"},"vehicle_type_id":"4","last_reported":1730146189,"current_range_meters":24000,"station_id":"ce4bhu92rcd13ifvqi70","pricing_plan_id":"cebpf4jnsgd1na2vs0mg"},{"bike_id":"27a3bee1-4ace-4ffd-b4ef-7e7fd88242e2","system_id":"levelo_inurba_marseille","lat":43.31128,"lon":5.37766,"is_reserved":false,"is_disabled":false,"rental_uris":{"android":"levelo://app?vid=27a3bee1-4ace-4ffd-b4ef-7e7fd88242e2","ios":"levelo://app?vid=27a3bee1-4ace-4ffd-b4ef-7e7fd88242e2"},"vehicle_type_id":"4","last_reported":1730146189,"current_range_meters":36400,"station_id":"ce4bgt92rcd13ifvqcg0","pricing_plan_id":"cebpf4jnsgd1na2vs0mg"},{"bike_id":"ebe0eeeb-8a09-4022-9b28-e1dd47503425","system_id":"levelo_inurba_marseille","lat":43.29212,"lon":5.39325,"is_reserved":false,"is_disabled":false,"rental_uris":{"android":"levelo://app?vid=ebe0eeeb-8a09-4022-9b28-e1dd47503425","ios":"levelo://app?vid=ebe0eeeb-8a09-4022-9b28-e1dd47503425"},"vehicle_type_id":"4","last_reported":1730146189,"current_range_meters":4000,"station_id":"ce4bh192rcd13ifvqdd0","pricing_plan_id":"cebpf4jnsgd1na2vs0mg"},{"bike_id":"cc4f48bc-1ebf-481e-a42a-ef03c2092f7c","system_id":"levelo_inurba_marseille","lat":43.27907,"lon":5.38004,"is_reserved":false,"is_disabled":false,"rental_uris":{"android":"levelo://app?vid=cc4f48bc-1ebf-481e-a42a-ef03c2092f7c","ios":"levelo://app?vid=cc4f48bc-1ebf-481e-a42a-ef03c2092f7c"},"vehicle_type_id":"4","last_reported":1730146189,"current_range_meters":36000,"station_id":"ce4bhf92rcd13ifvqf50","pricing_plan_id":"cebpf4jnsgd1na2vs0mg"},{"bike_id":"8dbc8004-b936-46b7-a08f-c23fdb5990a5","system_id":"levelo_inurba_marseille","lat":43.30648,"lon":5.40081,"is_reserved":false,"is_disabled":false,"rental_uris":{"android":"levelo://app?vid=8dbc8004-b936-46b7-a08f-c23fdb5990a5","ios":"levelo://app?vid=8dbc8004-b936-46b7-a08f-c23fdb5990a5"},"vehicle_type_id":"4","last_reported":1730146189,"current_range_meters":38800,"station_id":"ce4bh112rcd13ifvqda0","pricing_plan_id":"cebpf4jnsgd1na2vs0mg"},{"bike_id":"ed33e0fd-26d8-42ed-b26e-d63294267c63","system_id":"levelo_inurba_marseille","lat":43.28865,"lon":5.35858,"is_reserved":false,"is_disabled":false,"rental_uris":{"android":"levelo://app?vid=ed33e0fd-26d8-42ed-b26e-d63294267c63","ios":"levelo://app?vid=ed33e0fd-26d8-42ed-b26e-d63294267c63"},"vehicle_type_id":"4","last_reported":1730146189,"current_range_meters":16000,"station_id":"ce4bhb12rcd13ifvqem0","pricing_plan_id":"cebpf4jnsgd1na2vs0mg"},{"bike_id":"2f921f60-1890-404a-898c-6dae28d2ff64","system_id":"levelo_inurba_marseille","lat":43.3211,"lon":5.3678,"is_reserved":false,"is_disabled":false,"rental_uris":{"android":"levelo://app?vid=2f921f60-1890-404a-898c-6dae28d2ff64","ios":"levelo://app?vid=2f921f60-1890-404a-898c-6dae28d2ff64"},"vehicle_type_id":"4","last_reported":1730146189,"current_range_meters":39200,"station_id":"ce4bhrh2rcd13ifvqhug","pricing_plan_id":"cebpf4jnsgd1na2vs0mg"},{"bike_id":"e4b5c7c4-a37f-4a0f-ba5b-b290a8f3951e","system_id":"levelo_inurba_marseille","lat":43.27904,"lon":5.38003,"is_reserved":false,"is_disabled":false,"rental_uris":{"android":"levelo://app?vid=e4b5c7c4-a37f-4a0f-ba5b-b290a8f3951e","ios":"levelo://app?vid=e4b5c7c4-a37f-4a0f-ba5b-b290a8f3951e"},"vehicle_type_id":"4","last_reported":1730146189,"current_range_meters":38800,"station_id":"ce4bhf92rcd13ifvqf50","pricing_plan_id":"cebpf4jnsgd1na2vs0mg"},{"bike_id":"e7c28416-4a7f-4d06-99c7-70505e487027","system_id":"levelo_inurba_marseille","lat":43.29273,"lon":5.36844,"is_reserved":false,"is_disabled":false,"rental_uris":{"android":"levelo://app?vid=e7c28416-4a7f-4d06-99c7-70505e487027","ios":"levelo://app?vid=e7c28416-4a7f-4d06-99c7-70505e487027"},"vehicle_type_id":"4","last_reported":1730146189,"current_range_meters":38800,"station_id":"ce4bhbp2rcd13ifvqesg","pricing_plan_id":"cebpf4jnsgd1na2vs0mg"},{"bike_id":"cd420958-f98b-438b-bf94-edd1a2ff26f8","system_id":"levelo_inurba_marseille","lat":43.317,"lon":5.40461,"is_reserved":false,"is_disabled":false,"rental_uris":{"android":"levelo://app?vid=cd420958-f98b-438b-bf94-edd1a2ff26f8","ios":"levelo://app?vid=cd420958-f98b-438b-bf94-edd1a2ff26f8"},"vehicle_type_id":"4","last_reported":1730146189,"current_range_meters":25600,"station_id":"ce4bh012rcd13ifvqd00","pricing_plan_id":"cebpf4jnsgd1na2vs0mg"},{"bike_id":"9989b398-ea1f-43b4-92f6-cb3a0e8d8247","system_id":"levelo_inurba_marseille","lat":43.31332,"lon":5.39698,"is_reserved":false,"is_disabled":false,"rental_uris":{"android":"levelo://app?vid=9989b398-ea1f-43b4-92f6-cb3a0e8d8247","ios":"levelo://app?vid=9989b398-ea1f-43b4-92f6-cb3a0e8d8247"},"vehicle_type_id":"4","last_reported":1730146189,"current_range_meters":38800,"station_id":"ce4bgvp2rcd13ifvqcu0","pricing_plan_id":"cebpf4jnsgd1na2vs0mg"},{"bike_id":"d3d87dcd-c6af-4bf3-9cd6-fa7570cc73e4","system_id":"levelo_inurba_marseille","lat":43.31355,"lon":5.38494,"is_reserved":false,"is_disabled":false,"rental_uris":{"android":"levelo://app?vid=d3d87dcd-c6af-4bf3-9cd6-fa7570cc73e4","ios":"levelo://app?vid=d3d87dcd-c6af-4bf3-9cd6-fa7570cc73e4"},"vehicle_type_id":"4","last_reported":1730146189,"current_range_meters":2000,"station_id":"ce4bgt92rcd13ifvqcf0","pricing_plan_id":"cebpf4jnsgd1na2vs0mg"},{"bike_id":"3ece1632-2cd7-47b8-8c35-2f00c04a5941","system_id":"levelo_inurba_marseille","lat":43.29412,"lon":5.38591,"is_reserved":false,"is_disabled":false,"rental_uris":{"android":"levelo://app?vid=3ece1632-2cd7-47b8-8c35-2f00c04a5941","ios":"levelo://app?vid=3ece1632-2cd7-47b8-8c35-2f00c04a5941"},"vehicle_type_id":"4","last_reported":1730146189,"current_range_meters":38400,"station_id":"ce4bh2h2rcd13ifvqdh0","pricing_plan_id":"cebpf4jnsgd1na2vs0mg"},{"bike_id":"5bb2358b-cdbe-4758-a53b-b3d6e8b9778f","system_id":"levelo_inurba_marseille","lat":43.30262,"lon":5.40086,"is_reserved":false,"is_disabled":false,"rental_uris":{"android":"levelo://app?vid=5bb2358b-cdbe-4758-a53b-b3d6e8b9778f","ios":"levelo://app?vid=5bb2358b-cdbe-4758-a53b-b3d6e8b9778f"},"vehicle_type_id":"4","last_reported":1730146189,"current_range_meters":38000,"station_id":"ce4bgvh2rcd13ifvqcs0","pricing_plan_id":"cebpf4jnsgd1na2vs0mg"},{"bike_id":"a10d175c-5a4f-4df4-8e9c-2d909a837363","system_id":"levelo_inurba_marseille","lat":43.29314,"lon":5.38154,"is_reserved":false,"is_disabled":false,"rental_uris":{"android":"levelo://app?vid=a10d175c-5a4f-4df4-8e9c-2d909a837363","ios":"levelo://app?vid=a10d175c-5a4f-4df4-8e9c-2d909a837363"},"vehicle_type_id":"4","last_reported":1730146189,"current_range_meters":9200,"station_id":"","pricing_plan_id":"cebpf4jnsgd1na2vs0mg"},{"bike_id":"8876377b-7139-451e-af58-ac554c84a384","system_id":"levelo_inurba_marseille","lat":43.32484,"lon":5.36582,"is_reserved":false,"is_disabled":false,"rental_uris":{"android":"levelo://app?vid=8876377b-7139-451e-af58-ac554c84a384","ios":"levelo://app?vid=8876377b-7139-451e-af58-ac554c84a384"},"vehicle_type_id":"4","last_reported":1730146189,"current_range_meters":37600,"station_id":"ce4bhs12rcd13ifvqhvg","pricing_plan_id":"cebpf4jnsgd1na2vs0mg"},{"bike_id":"cd8988cf-34e0-4cd8-92c1-67d3cd8c964e","system_id":"levelo_inurba_marseille","lat":43.2396,"lon":5.36641,"is_reserved":false,"is_disabled":false,"rental_uris":{"android":"levelo://app?vid=cd8988cf-34e0-4cd8-92c1-67d3cd8c964e","ios":"levelo://app?vid=cd8988cf-34e0-4cd8-92c1-67d3cd8c964e"},"vehicle_type_id":"4","last_reported":1730146189,"current_range_meters":9600,"station_id":"ce4bhi12rcd13ifvqfp0","pricing_plan_id":"cebpf4jnsgd1na2vs0mg"},{"bike_id":"58750843-dc43-4f10-8f78-8975e20a15ef","system_id":"levelo_inurba_marseille","lat":43.27183,"lon":5.4099,"is_reserved":false,"is_disabled":false,"rental_uris":{"android":"levelo://app?vid=58750843-dc43-4f10-8f78-8975e20a15ef","ios":"levelo://app?vid=58750843-dc43-4f10-8f78-8975e20a15ef"},"vehicle_type_id":"4","last_reported":1730146189,"current_range_meters":3200,"station_id":"ce4bhl12rcd13ifvqgf0","pricing_plan_id":"cebpf4jnsgd1na2vs0mg"},{"bike_id":"35e7479f-975f-4700-abf5-8a4ddf7e416c","system_id":"levelo_inurba_marseille","lat":43.29422,"lon":5.38623,"is_reserved":false,"is_disabled":false,"rental_uris":{"android":"levelo://app?vid=35e7479f-975f-4700-abf5-8a4ddf7e416c","ios":"levelo://app?vid=35e7479f-975f-4700-abf5-8a4ddf7e416c"},"vehicle_type_id":"4","last_reported":1730146189,"current_range_meters":37600,"station_id":"ce4bh2h2rcd13ifvqdh0","pricing_plan_id":"cebpf4jnsgd1na2vs0mg"},{"bike_id":"df61b96c-b629-4fb1-8a4b-d3354e3de566","system_id":"levelo_inurba_marseille","lat":43.28271,"lon":5.35069,"is_reserved":false,"is_disabled":false,"rental_uris":{"android":"levelo://app?vid=df61b96c-b629-4fb1-8a4b-d3354e3de566","ios":"levelo://app?vid=df61b96c-b629-4fb1-8a4b-d3354e3de566"},"vehicle_type_id":"4","last_reported":1730146189,"current_range_meters":38800,"station_id":"ce4bhbp2rcd13ifvqerg","pricing_plan_id":"cebpf4jnsgd1na2vs0mg"},{"bike_id":"cdb47324-5f09-417b-9c69-253828aede39","system_id":"levelo_inurba_marseille","lat":43.30324,"lon":5.40441,"is_reserved":false,"is_disabled":false,"rental_uris":{"android":"levelo://app?vid=cdb47324-5f09-417b-9c69-253828aede39","ios":"levelo://app?vid=cdb47324-5f09-417b-9c69-253828aede39"},"vehicle_type_id":"4","last_reported":1730146189,"current_range_meters":38800,"station_id":"ce4bh012rcd13ifvqd10","pricing_plan_id":"cebpf4jnsgd1na2vs0mg"},{"bike_id":"04ae1999-2d09-44ca-b25d-fa8aa10185ac","system_id":"levelo_inurba_marseille","lat":43.26566,"lon":5.3904,"is_reserved":false,"is_disabled":false,"rental_uris":{"android":"levelo://app?vid=04ae1999-2d09-44ca-b25d-fa8aa10185ac","ios":"levelo://app?vid=04ae1999-2d09-44ca-b25d-fa8aa10185ac"},"vehicle_type_id":"4","last_reported":1730146189,"current_range_meters":38800,"station_id":"ce4bhe12rcd13ifvqf30","pricing_plan_id":"cebpf4jnsgd1na2vs0mg"},{"bike_id":"fe0f4ad9-8221-48ed-be5d-c64547a2f47a","system_id":"levelo_inurba_marseille","lat":43.28624,"lon":5.38348,"is_reserved":false,"is_disabled":false,"rental_uris":{"android":"levelo://app?vid=fe0f4ad9-8221-48ed-be5d-c64547a2f47a","ios":"levelo://app?vid=fe0f4ad9-8221-48ed-be5d-c64547a2f47a"},"vehicle_type_id":"4","last_reported":1730146189,"current_range_meters":20000,"station_id":"ce4bh4p2rcd13ifvqe1g","pricing_plan_id":"cebpf4jnsgd1na2vs0mg"},{"bike_id":"874cf7cd-35e4-40b8-9bd0-202ef026488c","system_id":"levelo_inurba_marseille","lat":43.30648,"lon":5.40089,"is_reserved":false,"is_disabled":false,"rental_uris":{"android":"levelo://app?vid=874cf7cd-35e4-40b8-9bd0-202ef026488c","ios":"levelo://app?vid=874cf7cd-35e4-40b8-9bd0-202ef026488c"},"vehicle_type_id":"4","last_reported":1730146189,"current_range_meters":30000,"station_id":"ce4bh112rcd13ifvqda0","pricing_plan_id":"cebpf4jnsgd1na2vs0mg"},{"bike_id":"92777e31-d40d-4b96-9fe9-2bdcf94b6b0b","system_id":"levelo_inurba_marseille","lat":43.30145,"lon":5.38072,"is_reserved":false,"is_disabled":false,"rental_uris":{"android":"levelo://app?vid=92777e31-d40d-4b96-9fe9-2bdcf94b6b0b","ios":"levelo://app?vid=92777e31-d40d-4b96-9fe9-2bdcf94b6b0b"},"vehicle_type_id":"4","last_reported":1730146189,"current_range_meters":4000,"station_id":"ce4bgjp2rcd13ifvqbh0","pricing_plan_id":"cebpf4jnsgd1na2vs0mg"},{"bike_id":"a846678d-cd93-4890-9fdc-977c67090280","system_id":"levelo_inurba_marseille","lat":43.28416,"lon":5.37517,"is_reserved":false,"is_disabled":false,"rental_uris":{"android":"levelo://app?vid=a846678d-cd93-4890-9fdc-977c67090280","ios":"levelo://app?vid=a846678d-cd93-4890-9fdc-977c67090280"},"vehicle_type_id":"4","last_reported":1730146189,"current_range_meters":34800,"station_id":"ce4bh412rcd13ifvqds0","pricing_plan_id":"cebpf4jnsgd1na2vs0mg"},{"bike_id":"d4188e16-8406-4b53-aa64-16ff21bddc18","system_id":"levelo_inurba_marseille","lat":43.27556,"lon":5.38414,"is_reserved":false,"is_disabled":false,"rental_uris":{"android":"levelo://app?vid=d4188e16-8406-4b53-aa64-16ff21bddc18","ios":"levelo://app?vid=d4188e16-8406-4b53-aa64-16ff21bddc18"},"vehicle_type_id":"4","last_reported":1730146189,"current_range_meters":38800,"station_id":"ce4bhh92rcd13ifvqfi0","pricing_plan_id":"cebpf4jnsgd1na2vs0mg"},{"bike_id":"c103f3cf-a699-4d79-9cc1-df1ab22121e9","system_id":"levelo_inurba_marseille","lat":43.28663,"lon":5.3635,"is_reserved":false,"is_disabled":false,"rental_uris":{"android":"levelo://app?vid=c103f3cf-a699-4d79-9cc1-df1ab22121e9","ios":"levelo://app?vid=c103f3cf-a699-4d79-9cc1-df1ab22121e9"},"vehicle_type_id":"4","last_reported":1730146189,"current_range_meters":36000,"station_id":"ce4bhah2rcd13ifvqej0","pricing_plan_id":"cebpf4jnsgd1na2vs0mg"},{"bike_id":"21b0d405-022c-4046-9483-b0c711fb60b5","system_id":"levelo_inurba_marseille","lat":43.29553,"lon":5.42281,"is_reserved":false,"is_disabled":false,"rental_uris":{"android":"levelo://app?vid=21b0d405-022c-4046-9483-b0c711fb60b5","ios":"levelo://app?vid=21b0d405-022c-4046-9483-b0c711fb60b5"},"vehicle_type_id":"4","last_reported":1730146189,"current_range_meters":38800,"station_id":"ce4bhph2rcd13ifvqhdg","pricing_plan_id":"cebpf4jnsgd1na2vs0mg"},{"bike_id":"d7870a3d-e1f0-4599-8e44-e305221e683a","system_id":"levelo_inurba_marseille","lat":43.28925,"lon":5.38388,"is_reserved":false,"is_disabled":false,"rental_uris":{"android":"levelo://app?vid=d7870a3d-e1f0-4599-8e44-e305221e683a","ios":"levelo://app?vid=d7870a3d-e1f0-4599-8e44-e305221e683a"},"vehicle_type_id":"4","last_reported":1730146189,"current_range_meters":15200,"station_id":"ce4bh612rcd13ifvqe6g","pricing_plan_id":"cebpf4jnsgd1na2vs0mg"},{"bike_id":"e113f747-4daa-44f7-a218-9e030daa2565","system_id":"levelo_inurba_marseille","lat":43.32105,"lon":5.36779,"is_reserved":false,"is_disabled":false,"rental_uris":{"android":"levelo://app?vid=e113f747-4daa-44f7-a218-9e030daa2565","ios":"levelo://app?vid=e113f747-4daa-44f7-a218-9e030daa2565"},"vehicle_type_id":"4","last_reported":1730146189,"current_range_meters":19200,"station_id":"ce4bhrh2rcd13ifvqhug","pricing_plan_id":"cebpf4jnsgd1na2vs0mg"},{"bike_id":"66e28388-948c-4989-b2c4-2a01d249c29c","system_id":"levelo_inurba_marseille","lat":43.29529,"lon":5.38539,"is_reserved":false,"is_disabled":false,"rental_uris":{"android":"levelo://app?vid=66e28388-948c-4989-b2c4-2a01d249c29c","ios":"levelo://app?vid=66e28388-948c-4989-b2c4-2a01d249c29c"},"vehicle_type_id":"4","last_reported":1730146189,"current_range_meters":21600,"station_id":"ce4bgih2rcd13ifvqba0","pricing_plan_id":"cebpf4jnsgd1na2vs0mg"},{"bike_id":"c83bf92a-895e-4031-90cc-0a4806604b3f","system_id":"levelo_inurba_marseille","lat":43.23054,"lon":5.35491,"is_reserved":false,"is_disabled":false,"rental_uris":{"android":"levelo://app?vid=c83bf92a-895e-4031-90cc-0a4806604b3f","ios":"levelo://app?vid=c83bf92a-895e-4031-90cc-0a4806604b3f"},"vehicle_type_id":"4","last_reported":1730146189,"current_range_meters":36000,"station_id":"cpo3342slgdg3j2ifvpg","pricing_plan_id":"cebpf4jnsgd1na2vs0mg"},{"bike_id":"3f4e9f7d-d364-447b-b7a3-5938ab5df8c4","system_id":"levelo_inurba_marseille","lat":43.32489,"lon":5.36566,"is_reserved":false,"is_disabled":false,"rental_uris":{"android":"levelo://app?vid=3f4e9f7d-d364-447b-b7a3-5938ab5df8c4","ios":"levelo://app?vid=3f4e9f7d-d364-447b-b7a3-5938ab5df8c4"},"vehicle_type_id":"4","last_reported":1730146189,"current_range_meters":22000,"station_id":"ce4bhs12rcd13ifvqhvg","pricing_plan_id":"cebpf4jnsgd1na2vs0mg"},{"bike_id":"9fd56fad-5f3d-42b4-b491-7b57b76bc0cf","system_id":"levelo_inurba_marseille","lat":43.27817,"lon":5.4072,"is_reserved":false,"is_disabled":false,"rental_uris":{"android":"levelo://app?vid=9fd56fad-5f3d-42b4-b491-7b57b76bc0cf","ios":"levelo://app?vid=9fd56fad-5f3d-42b4-b491-7b57b76bc0cf"},"vehicle_type_id":"4","last_reported":1730146189,"current_range_meters":15200,"station_id":"ce4bhnh2rcd13ifvqgtg","pricing_plan_id":"cebpf4jnsgd1na2vs0mg"},{"bike_id":"d84610d6-c6a3-4a38-822d-08ccd78292c6","system_id":"levelo_inurba_marseille","lat":43.28946,"lon":5.36412,"is_reserved":false,"is_disabled":false,"rental_uris":{"android":"levelo://app?vid=d84610d6-c6a3-4a38-822d-08ccd78292c6","ios":"levelo://app?vid=d84610d6-c6a3-4a38-822d-08ccd78292c6"},"vehicle_type_id":"4","last_reported":1730146189,"current_range_meters":38800,"station_id":"ce4bhc92rcd13ifvqetg","pricing_plan_id":"cebpf4jnsgd1na2vs0mg"},{"bike_id":"7353f0d4-08c1-40d5-a093-7c161f54875c","system_id":"levelo_inurba_marseille","lat":43.26551,"lon":5.37297,"is_reserved":false,"is_disabled":false,"rental_uris":{"android":"levelo://app?vid=7353f0d4-08c1-40d5-a093-7c161f54875c","ios":"levelo://app?vid=7353f0d4-08c1-40d5-a093-7c161f54875c"},"vehicle_type_id":"4","last_reported":1730146189,"current_range_meters":32000,"station_id":"ce4bhg12rcd13ifvqf70","pricing_plan_id":"cebpf4jnsgd1na2vs0mg"},{"bike_id":"817841de-45b8-450f-a0c6-5a2991569958","system_id":"levelo_inurba_marseille","lat":43.28932,"lon":5.36395,"is_reserved":false,"is_disabled":false,"rental_uris":{"android":"levelo://app?vid=817841de-45b8-450f-a0c6-5a2991569958","ios":"levelo://app?vid=817841de-45b8-450f-a0c6-5a2991569958"},"vehicle_type_id":"4","last_reported":1730146189,"current_range_meters":32800,"station_id":"ce4bhc92rcd13ifvqetg","pricing_plan_id":"cebpf4jnsgd1na2vs0mg"},{"bike_id":"6fef1a91-9d9d-495d-8efa-e36fc7dcedfd","system_id":"levelo_inurba_marseille","lat":43.29283,"lon":5.37454,"is_reserved":false,"is_disabled":false,"rental_uris":{"android":"levelo://app?vid=6fef1a91-9d9d-495d-8efa-e36fc7dcedfd","ios":"levelo://app?vid=6fef1a91-9d9d-495d-8efa-e36fc7dcedfd"},"vehicle_type_id":"4","last_reported":1730146189,"current_range_meters":39200,"station_id":"ce4bgi12rcd13ifvqb70","pricing_plan_id":"cebpf4jnsgd1na2vs0mg"},{"bike_id":"d282e357-9446-48bd-8907-50155ed5b35f","system_id":"levelo_inurba_marseille","lat":43.274414,"lon":5.414956,"is_reserved":false,"is_disabled":false,"rental_uris":{"android":"levelo://app?vid=d282e357-9446-48bd-8907-50155ed5b35f","ios":"levelo://app?vid=d282e357-9446-48bd-8907-50155ed5b35f"},"vehicle_type_id":"4","last_reported":1730146189,"current_range_meters":12400,"station_id":"","pricing_plan_id":"cebpf4jnsgd1na2vs0mg"},{"bike_id":"4d1d08db-cff8-4cc6-8b78-f2c19a05ae5b","system_id":"levelo_inurba_marseille","lat":43.29522,"lon":5.38543,"is_reserved":false,"is_disabled":false,"rental_uris":{"android":"levelo://app?vid=4d1d08db-cff8-4cc6-8b78-f2c19a05ae5b","ios":"levelo://app?vid=4d1d08db-cff8-4cc6-8b78-f2c19a05ae5b"},"vehicle_type_id":"4","last_reported":1730146189,"current_range_meters":15200,"station_id":"ce4bgih2rcd13ifvqba0","pricing_plan_id":"cebpf4jnsgd1na2vs0mg"},{"bike_id":"4d66afb4-54af-4867-a686-241e6de1cbbd","system_id":"levelo_inurba_marseille","lat":43.32529,"lon":5.41446,"is_reserved":false,"is_disabled":false,"rental_uris":{"android":"levelo://app?vid=4d66afb4-54af-4867-a686-241e6de1cbbd","ios":"levelo://app?vid=4d66afb4-54af-4867-a686-241e6de1cbbd"},"vehicle_type_id":"4","last_reported":1730146189,"current_range_meters":38000,"station_id":"ce4bhq12rcd13ifvqhhg","pricing_plan_id":"cebpf4jnsgd1na2vs0mg"},{"bike_id":"45eaf231-2671-4086-8d1f-485423372edf","system_id":"levelo_inurba_marseille","lat":43.3091,"lon":5.3685,"is_reserved":false,"is_disabled":false,"rental_uris":{"android":"levelo://app?vid=45eaf231-2671-4086-8d1f-485423372edf","ios":"levelo://app?vid=45eaf231-2671-4086-8d1f-485423372edf"},"vehicle_type_id":"4","last_reported":1730146189,"current_range_meters":26800,"station_id":"ce4bgn92rcd13ifvqbvg","pricing_plan_id":"cebpf4jnsgd1na2vs0mg"},{"bike_id":"d7130213-5f63-4734-a5d3-ec784fc960ee","system_id":"levelo_inurba_marseille","lat":43.28649,"lon":5.35479,"is_reserved":false,"is_disabled":false,"rental_uris":{"android":"levelo://app?vid=d7130213-5f63-4734-a5d3-ec784fc960ee","ios":"levelo://app?vid=d7130213-5f63-4734-a5d3-ec784fc960ee"},"vehicle_type_id":"4","last_reported":1730146189,"current_range_meters":16800,"station_id":"","pricing_plan_id":"cebpf4jnsgd1na2vs0mg"},{"bike_id":"90c8200e-54ac-43e4-b6dc-b62c65fea28e","system_id":"levelo_inurba_marseille","lat":43.29523,"lon":5.38541,"is_reserved":false,"is_disabled":false,"rental_uris":{"android":"levelo://app?vid=90c8200e-54ac-43e4-b6dc-b62c65fea28e","ios":"levelo://app?vid=90c8200e-54ac-43e4-b6dc-b62c65fea28e"},"vehicle_type_id":"4","last_reported":1730146189,"current_range_meters":6800,"station_id":"ce4bgih2rcd13ifvqba0","pricing_plan_id":"cebpf4jnsgd1na2vs0mg"},{"bike_id":"b6e45330-34df-4b01-92c2-9bcd5851043a","system_id":"levelo_inurba_marseille","lat":43.31133,"lon":5.38858,"is_reserved":false,"is_disabled":false,"rental_uris":{"android":"levelo://app?vid=b6e45330-34df-4b01-92c2-9bcd5851043a","ios":"levelo://app?vid=b6e45330-34df-4b01-92c2-9bcd5851043a"},"vehicle_type_id":"4","last_reported":1730146189,"current_range_meters":6800,"station_id":"ce4bh092rcd13ifvqd30","pricing_plan_id":"cebpf4jnsgd1na2vs0mg"},{"bike_id":"7b7dffd3-846d-43d0-8b5c-786ecc645cca","system_id":"levelo_inurba_marseille","lat":43.28941,"lon":5.36633,"is_reserved":false,"is_disabled":false,"rental_uris":{"android":"levelo://app?vid=7b7dffd3-846d-43d0-8b5c-786ecc645cca","ios":"levelo://app?vid=7b7dffd3-846d-43d0-8b5c-786ecc645cca"},"vehicle_type_id":"4","last_reported":1730146189,"current_range_meters":39200,"station_id":"ce4bhap2rcd13ifvqek0","pricing_plan_id":"cebpf4jnsgd1na2vs0mg"},{"bike_id":"d52963e1-13cf-446a-8bf0-5bce0fe52fb2","system_id":"levelo_inurba_marseille","lat":43.29968,"lon":5.38494,"is_reserved":false,"is_disabled":false,"rental_uris":{"android":"levelo://app?vid=d52963e1-13cf-446a-8bf0-5bce0fe52fb2","ios":"levelo://app?vid=d52963e1-13cf-446a-8bf0-5bce0fe52fb2"},"vehicle_type_id":"4","last_reported":1730146189,"current_range_meters":10000,"station_id":"ce4bgj92rcd13ifvqbd0","pricing_plan_id":"cebpf4jnsgd1na2vs0mg"},{"bike_id":"51c9a55b-f289-4d6a-a0f6-ba5c3ca71285","system_id":"levelo_inurba_marseille","lat":43.284851,"lon":5.385709,"is_reserved":false,"is_disabled":false,"rental_uris":{"android":"levelo://app?vid=51c9a55b-f289-4d6a-a0f6-ba5c3ca71285","ios":"levelo://app?vid=51c9a55b-f289-4d6a-a0f6-ba5c3ca71285"},"vehicle_type_id":"4","last_reported":1730146189,"current_range_meters":30400,"station_id":"ce4bh8p2rcd13ifvqeb0","pricing_plan_id":"cebpf4jnsgd1na2vs0mg"},{"bike_id":"f3b058ed-8a0e-4829-adb4-cf1ea18a2a53","system_id":"levelo_inurba_marseille","lat":43.29792,"lon":5.39344,"is_reserved":false,"is_disabled":false,"rental_uris":{"android":"levelo://app?vid=f3b058ed-8a0e-4829-adb4-cf1ea18a2a53","ios":"levelo://app?vid=f3b058ed-8a0e-4829-adb4-cf1ea18a2a53"},"vehicle_type_id":"4","last_reported":1730146189,"current_range_meters":16000,"station_id":"chh1huq6cuj3fo74tm60","pricing_plan_id":"cebpf4jnsgd1na2vs0mg"},{"bike_id":"483a242c-ff66-4b30-9b1e-99fa173f6f27","system_id":"levelo_inurba_marseille","lat":43.28095,"lon":5.37836,"is_reserved":false,"is_disabled":false,"rental_uris":{"android":"levelo://app?vid=483a242c-ff66-4b30-9b1e-99fa173f6f27","ios":"levelo://app?vid=483a242c-ff66-4b30-9b1e-99fa173f6f27"},"vehicle_type_id":"4","last_reported":1730146189,"current_range_meters":36400,"station_id":"ce4bha12rcd13ifvqee0","pricing_plan_id":"cebpf4jnsgd1na2vs0mg"},{"bike_id":"8c481f3d-6b8d-4cff-9fe9-4866a2d5404c","system_id":"levelo_inurba_marseille","lat":43.31169,"lon":5.38711,"is_reserved":false,"is_disabled":false,"rental_uris":{"android":"levelo://app?vid=8c481f3d-6b8d-4cff-9fe9-4866a2d5404c","ios":"levelo://app?vid=8c481f3d-6b8d-4cff-9fe9-4866a2d5404c"},"vehicle_type_id":"4","last_reported":1730146189,"current_range_meters":16400,"station_id":"ce4bgv12rcd13ifvqcp0","pricing_plan_id":"cebpf4jnsgd1na2vs0mg"},{"bike_id":"0767fba8-2acc-437e-85a2-d8e45257d9b6","system_id":"levelo_inurba_marseille","lat":43.31328,"lon":5.39695,"is_reserved":false,"is_disabled":false,"rental_uris":{"android":"levelo://app?vid=0767fba8-2acc-437e-85a2-d8e45257d9b6","ios":"levelo://app?vid=0767fba8-2acc-437e-85a2-d8e45257d9b6"},"vehicle_type_id":"4","last_reported":1730146189,"current_range_meters":37600,"station_id":"ce4bgvp2rcd13ifvqcu0","pricing_plan_id":"cebpf4jnsgd1na2vs0mg"},{"bike_id":"dc9dcad7-42f0-42a3-a1ed-1a0a385a0d23","system_id":"levelo_inurba_marseille","lat":43.29896,"lon":5.43672,"is_reserved":false,"is_disabled":false,"rental_uris":{"android":"levelo://app?vid=dc9dcad7-42f0-42a3-a1ed-1a0a385a0d23","ios":"levelo://app?vid=dc9dcad7-42f0-42a3-a1ed-1a0a385a0d23"},"vehicle_type_id":"4","last_reported":1730146189,"current_range_meters":28800,"station_id":"ce4bhpp2rcd13ifvqhfg","pricing_plan_id":"cebpf4jnsgd1na2vs0mg"},{"bike_id":"f7a50275-88a4-4be4-ac33-5cce1242cfaa","system_id":"levelo_inurba_marseille","lat":43.31657,"lon":5.37687,"is_reserved":false,"is_disabled":false,"rental_uris":{"android":"levelo://app?vid=f7a50275-88a4-4be4-ac33-5cce1242cfaa","ios":"levelo://app?vid=f7a50275-88a4-4be4-ac33-5cce1242cfaa"},"vehicle_type_id":"4","last_reported":1730146189,"current_range_meters":38000,"station_id":"","pricing_plan_id":"cebpf4jnsgd1na2vs0mg"},{"bike_id":"4e184361-fb5d-4fe8-aa0a-578cda203f08","system_id":"levelo_inurba_marseille","lat":43.29264,"lon":5.38431,"is_reserved":false,"is_disabled":false,"rental_uris":{"android":"levelo://app?vid=4e184361-fb5d-4fe8-aa0a-578cda203f08","ios":"levelo://app?vid=4e184361-fb5d-4fe8-aa0a-578cda203f08"},"vehicle_type_id":"4","last_reported":1730146189,"current_range_meters":19600,"station_id":"ce4bh692rcd13ifvqea0","pricing_plan_id":"cebpf4jnsgd1na2vs0mg"},{"bike_id":"321a8978-1cf1-4595-a7e8-70ec1748a208","system_id":"levelo_inurba_marseille","lat":43.29171,"lon":5.37146,"is_reserved":false,"is_disabled":false,"rental_uris":{"android":"levelo://app?vid=321a8978-1cf1-4595-a7e8-70ec1748a208","ios":"levelo://app?vid=321a8978-1cf1-4595-a7e8-70ec1748a208"},"vehicle_type_id":"4","last_reported":1730146189,"current_range_meters":39200,"station_id":"ce4bha92rcd13ifvqeh0","pricing_plan_id":"cebpf4jnsgd1na2vs0mg"},{"bike_id":"6627e12e-9cb1-4b91-ab1a-b51812344191","system_id":"levelo_inurba_marseille","lat":43.27073,"lon":5.42282,"is_reserved":false,"is_disabled":false,"rental_uris":{"android":"levelo://app?vid=6627e12e-9cb1-4b91-ab1a-b51812344191","ios":"levelo://app?vid=6627e12e-9cb1-4b91-ab1a-b51812344191"},"vehicle_type_id":"4","last_reported":1730146189,"current_range_meters":23200,"station_id":"ce4bhk92rcd13ifvqgb0","pricing_plan_id":"cebpf4jnsgd1na2vs0mg"},{"bike_id":"4a7d2e78-51b9-46d2-bf89-98a48709d13a","system_id":"levelo_inurba_marseille","lat":43.31722,"lon":5.42395,"is_reserved":false,"is_disabled":false,"rental_uris":{"android":"levelo://app?vid=4a7d2e78-51b9-46d2-bf89-98a48709d13a","ios":"levelo://app?vid=4a7d2e78-51b9-46d2-bf89-98a48709d13a"},"vehicle_type_id":"4","last_reported":1730146189,"current_range_meters":36000,"station_id":"ce4bhp92rcd13ifvqhbg","pricing_plan_id":"cebpf4jnsgd1na2vs0mg"},{"bike_id":"bdad40da-4714-4179-a84e-4bbe5a2c808e","system_id":"levelo_inurba_marseille","lat":43.268147,"lon":5.411201,"is_reserved":false,"is_disabled":false,"rental_uris":{"android":"levelo://app?vid=bdad40da-4714-4179-a84e-4bbe5a2c808e","ios":"levelo://app?vid=bdad40da-4714-4179-a84e-4bbe5a2c808e"},"vehicle_type_id":"4","last_reported":1730146189,"current_range_meters":23200,"station_id":"","pricing_plan_id":"cebpf4jnsgd1na2vs0mg"},{"bike_id":"49cbb257-b422-4752-8852-fd416a7dd3f9","system_id":"levelo_inurba_marseille","lat":43.29908,"lon":5.38158,"is_reserved":false,"is_disabled":false,"rental_uris":{"android":"levelo://app?vid=49cbb257-b422-4752-8852-fd416a7dd3f9","ios":"levelo://app?vid=49cbb257-b422-4752-8852-fd416a7dd3f9"},"vehicle_type_id":"4","last_reported":1730146189,"current_range_meters":38000,"station_id":"ce4bgj12rcd13ifvqbc0","pricing_plan_id":"cebpf4jnsgd1na2vs0mg"},{"bike_id":"0c53382f-83fb-45ec-871d-d4e880c7383e","system_id":"levelo_inurba_marseille","lat":43.28,"lon":5.40021,"is_reserved":false,"is_disabled":false,"rental_uris":{"android":"levelo://app?vid=0c53382f-83fb-45ec-871d-d4e880c7383e","ios":"levelo://app?vid=0c53382f-83fb-45ec-871d-d4e880c7383e"},"vehicle_type_id":"4","last_reported":1730146189,"current_range_meters":14000,"station_id":"ce4bho92rcd13ifvqh4g","pricing_plan_id":"cebpf4jnsgd1na2vs0mg"},{"bike_id":"6f487d93-ed54-4bc3-8917-f0af52bd63dd","system_id":"levelo_inurba_marseille","lat":43.27922,"lon":5.39582,"is_reserved":false,"is_disabled":false,"rental_uris":{"android":"levelo://app?vid=6f487d93-ed54-4bc3-8917-f0af52bd63dd","ios":"levelo://app?vid=6f487d93-ed54-4bc3-8917-f0af52bd63dd"},"vehicle_type_id":"4","last_reported":1730146189,"current_range_meters":8000,"station_id":"ce4bhf92rcd13ifvqf40","pricing_plan_id":"cebpf4jnsgd1na2vs0mg"},{"bike_id":"9befed88-9f8c-464c-b07b-093bd97066bb","system_id":"levelo_inurba_marseille","lat":43.29805,"lon":5.37136,"is_reserved":false,"is_disabled":false,"rental_uris":{"android":"levelo://app?vid=9befed88-9f8c-464c-b07b-093bd97066bb","ios":"levelo://app?vid=9befed88-9f8c-464c-b07b-093bd97066bb"},"vehicle_type_id":"4","last_reported":1730146189,"current_range_meters":14000,"station_id":"","pricing_plan_id":"cebpf4jnsgd1na2vs0mg"},{"bike_id":"f37e3b02-a49c-4c4e-b112-f9c8c24edf90","system_id":"levelo_inurba_marseille","lat":43.27177,"lon":5.39059,"is_reserved":false,"is_disabled":false,"rental_uris":{"android":"levelo://app?vid=f37e3b02-a49c-4c4e-b112-f9c8c24edf90","ios":"levelo://app?vid=f37e3b02-a49c-4c4e-b112-f9c8c24edf90"},"vehicle_type_id":"4","last_reported":1730146189,"current_range_meters":4000,"station_id":"ce4bhu92rcd13ifvqi70","pricing_plan_id":"cebpf4jnsgd1na2vs0mg"},{"bike_id":"d5761e20-ac4a-40bc-9eb3-fea1cd5dc0ad","system_id":"levelo_inurba_marseille","lat":43.31712,"lon":5.43707,"is_reserved":false,"is_disabled":false,"rental_uris":{"android":"levelo://app?vid=d5761e20-ac4a-40bc-9eb3-fea1cd5dc0ad","ios":"levelo://app?vid=d5761e20-ac4a-40bc-9eb3-fea1cd5dc0ad"},"vehicle_type_id":"4","last_reported":1730146189,"current_range_meters":16400,"station_id":"ce4bhp92rcd13ifvqhcg","pricing_plan_id":"cebpf4jnsgd1na2vs0mg"},{"bike_id":"9bfe4f20-6ac4-4372-aec3-cf444f192a78","system_id":"levelo_inurba_marseille","lat":43.29905,"lon":5.43659,"is_reserved":false,"is_disabled":false,"rental_uris":{"android":"levelo://app?vid=9bfe4f20-6ac4-4372-aec3-cf444f192a78","ios":"levelo://app?vid=9bfe4f20-6ac4-4372-aec3-cf444f192a78"},"vehicle_type_id":"4","last_reported":1730146189,"current_range_meters":25600,"station_id":"ce4bhpp2rcd13ifvqhfg","pricing_plan_id":"cebpf4jnsgd1na2vs0mg"},{"bike_id":"030d5436-e5c6-49ae-96dd-772652ca16f5","system_id":"levelo_inurba_marseille","lat":43.31935,"lon":5.3942,"is_reserved":false,"is_disabled":false,"rental_uris":{"android":"levelo://app?vid=030d5436-e5c6-49ae-96dd-772652ca16f5","ios":"levelo://app?vid=030d5436-e5c6-49ae-96dd-772652ca16f5"},"vehicle_type_id":"4","last_reported":1730146189,"current_range_meters":38400,"station_id":"","pricing_plan_id":"cebpf4jnsgd1na2vs0mg"},{"bike_id":"99be546e-23a0-4a8f-897d-f4ebd4b3bc15","system_id":"levelo_inurba_marseille","lat":43.27378,"lon":5.36257,"is_reserved":false,"is_disabled":false,"rental_uris":{"android":"levelo://app?vid=99be546e-23a0-4a8f-897d-f4ebd4b3bc15","ios":"levelo://app?vid=99be546e-23a0-4a8f-897d-f4ebd4b3bc15"},"vehicle_type_id":"4","last_reported":1730146189,"current_range_meters":38800,"station_id":"ce4bhbh2rcd13ifvqeo0","pricing_plan_id":"cebpf4jnsgd1na2vs0mg"},{"bike_id":"5e918a46-16d8-438e-88a0-86a0e45c5e53","system_id":"levelo_inurba_marseille","lat":43.25113,"lon":5.40338,"is_reserved":false,"is_disabled":false,"rental_uris":{"android":"levelo://app?vid=5e918a46-16d8-438e-88a0-86a0e45c5e53","ios":"levelo://app?vid=5e918a46-16d8-438e-88a0-86a0e45c5e53"},"vehicle_type_id":"4","last_reported":1730146189,"current_range_meters":18000,"station_id":"ce4bhlh2rcd13ifvqgig","pricing_plan_id":"cebpf4jnsgd1na2vs0mg"},{"bike_id":"7a81de10-e5a3-4226-8568-980704f6447e","system_id":"levelo_inurba_marseille","lat":43.29575,"lon":5.39957,"is_reserved":false,"is_disabled":false,"rental_uris":{"android":"levelo://app?vid=7a81de10-e5a3-4226-8568-980704f6447e","ios":"levelo://app?vid=7a81de10-e5a3-4226-8568-980704f6447e"},"vehicle_type_id":"4","last_reported":1730146189,"current_range_meters":28000,"station_id":"ce4bh312rcd13ifvqdj0","pricing_plan_id":"cebpf4jnsgd1na2vs0mg"},{"bike_id":"db407270-14e4-450d-916b-188e766022fd","system_id":"levelo_inurba_marseille","lat":43.28079,"lon":5.39652,"is_reserved":false,"is_disabled":false,"rental_uris":{"android":"levelo://app?vid=db407270-14e4-450d-916b-188e766022fd","ios":"levelo://app?vid=db407270-14e4-450d-916b-188e766022fd"},"vehicle_type_id":"4","last_reported":1730146189,"current_range_meters":20000,"station_id":"ce4bho12rcd13ifvqh2g","pricing_plan_id":"cebpf4jnsgd1na2vs0mg"},{"bike_id":"d68f8255-cc10-4db7-bc68-d9dd662dbe47","system_id":"levelo_inurba_marseille","lat":43.2951,"lon":5.39038,"is_reserved":false,"is_disabled":false,"rental_uris":{"android":"levelo://app?vid=d68f8255-cc10-4db7-bc68-d9dd662dbe47","ios":"levelo://app?vid=d68f8255-cc10-4db7-bc68-d9dd662dbe47"},"vehicle_type_id":"4","last_reported":1730146189,"current_range_meters":2800,"station_id":"ce4bh3p2rcd13ifvqdp0","pricing_plan_id":"cebpf4jnsgd1na2vs0mg"},{"bike_id":"1b0fd3f0-29d5-4908-8ab9-1a00b8883aba","system_id":"levelo_inurba_marseille","lat":43.30877,"lon":5.39622,"is_reserved":false,"is_disabled":false,"rental_uris":{"android":"levelo://app?vid=1b0fd3f0-29d5-4908-8ab9-1a00b8883aba","ios":"levelo://app?vid=1b0fd3f0-29d5-4908-8ab9-1a00b8883aba"},"vehicle_type_id":"4","last_reported":1730146189,"current_range_meters":38800,"station_id":"ce4bh012rcd13ifvqcv0","pricing_plan_id":"cebpf4jnsgd1na2vs0mg"},{"bike_id":"86af7185-af18-474c-bcb9-202fb450d530","system_id":"levelo_inurba_marseille","lat":43.28369,"lon":5.38619,"is_reserved":false,"is_disabled":false,"rental_uris":{"android":"levelo://app?vid=86af7185-af18-474c-bcb9-202fb450d530","ios":"levelo://app?vid=86af7185-af18-474c-bcb9-202fb450d530"},"vehicle_type_id":"4","last_reported":1730146189,"current_range_meters":38000,"station_id":"ce4bh492rcd13ifvqdvg","pricing_plan_id":"cebpf4jnsgd1na2vs0mg"},{"bike_id":"bf0f96cf-0556-405e-a53d-bf2cceb406fb","system_id":"levelo_inurba_marseille","lat":43.28703,"lon":5.37389,"is_reserved":false,"is_disabled":false,"rental_uris":{"android":"levelo://app?vid=bf0f96cf-0556-405e-a53d-bf2cceb406fb","ios":"levelo://app?vid=bf0f96cf-0556-405e-a53d-bf2cceb406fb"},"vehicle_type_id":"4","last_reported":1730146189,"current_range_meters":7200,"station_id":"ce4bh3p2rcd13ifvqdq0","pricing_plan_id":"cebpf4jnsgd1na2vs0mg"},{"bike_id":"95524438-3562-41dc-9a8e-cbd1cf94ed37","system_id":"levelo_inurba_marseille","lat":43.30258,"lon":5.40073,"is_reserved":false,"is_disabled":false,"rental_uris":{"android":"levelo://app?vid=95524438-3562-41dc-9a8e-cbd1cf94ed37","ios":"levelo://app?vid=95524438-3562-41dc-9a8e-cbd1cf94ed37"},"vehicle_type_id":"4","last_reported":1730146189,"current_range_meters":5600,"station_id":"ce4bgvh2rcd13ifvqcs0","pricing_plan_id":"cebpf4jnsgd1na2vs0mg"},{"bike_id":"e31650d1-6313-4c09-96ff-bc5a7403b852","system_id":"levelo_inurba_marseille","lat":43.323303,"lon":5.406317,"is_reserved":false,"is_disabled":false,"rental_uris":{"android":"levelo://app?vid=e31650d1-6313-4c09-96ff-bc5a7403b852","ios":"levelo://app?vid=e31650d1-6313-4c09-96ff-bc5a7403b852"},"vehicle_type_id":"4","last_reported":1730146189,"current_range_meters":38800,"station_id":"ce4bhq92rcd13ifvqhjg","pricing_plan_id":"cebpf4jnsgd1na2vs0mg"},{"bike_id":"aefac986-b0c6-43dd-b63b-a00cd751d12d","system_id":"levelo_inurba_marseille","lat":43.31988,"lon":5.3814,"is_reserved":false,"is_disabled":false,"rental_uris":{"android":"levelo://app?vid=aefac986-b0c6-43dd-b63b-a00cd751d12d","ios":"levelo://app?vid=aefac986-b0c6-43dd-b63b-a00cd751d12d"},"vehicle_type_id":"4","last_reported":1730146189,"current_range_meters":38800,"station_id":"ce4bhr12rcd13ifvqhpg","pricing_plan_id":"cebpf4jnsgd1na2vs0mg"},{"bike_id":"f581e29b-f342-4b13-9690-dc98c45a898a","system_id":"levelo_inurba_marseille","lat":43.28656,"lon":5.36354,"is_reserved":false,"is_disabled":false,"rental_uris":{"android":"levelo://app?vid=f581e29b-f342-4b13-9690-dc98c45a898a","ios":"levelo://app?vid=f581e29b-f342-4b13-9690-dc98c45a898a"},"vehicle_type_id":"4","last_reported":1730146189,"current_range_meters":26000,"station_id":"ce4bhah2rcd13ifvqej0","pricing_plan_id":"cebpf4jnsgd1na2vs0mg"},{"bike_id":"3349e631-1dd3-4485-a190-bed9d9005520","system_id":"levelo_inurba_marseille","lat":43.29513,"lon":5.39039,"is_reserved":false,"is_disabled":false,"rental_uris":{"android":"levelo://app?vid=3349e631-1dd3-4485-a190-bed9d9005520","ios":"levelo://app?vid=3349e631-1dd3-4485-a190-bed9d9005520"},"vehicle_type_id":"4","last_reported":1730146189,"current_range_meters":9200,"station_id":"ce4bh3p2rcd13ifvqdp0","pricing_plan_id":"cebpf4jnsgd1na2vs0mg"},{"bike_id":"5002b26a-a976-4817-951f-7e1d96948e09","system_id":"levelo_inurba_marseille","lat":43.30324,"lon":5.40436,"is_reserved":false,"is_disabled":false,"rental_uris":{"android":"levelo://app?vid=5002b26a-a976-4817-951f-7e1d96948e09","ios":"levelo://app?vid=5002b26a-a976-4817-951f-7e1d96948e09"},"vehicle_type_id":"4","last_reported":1730146189,"current_range_meters":16800,"station_id":"ce4bh012rcd13ifvqd10","pricing_plan_id":"cebpf4jnsgd1na2vs0mg"},{"bike_id":"a115272b-d982-443a-87c0-8ebb7cafe252","system_id":"levelo_inurba_marseille","lat":43.24072,"lon":5.37762,"is_reserved":false,"is_disabled":false,"rental_uris":{"android":"levelo://app?vid=a115272b-d982-443a-87c0-8ebb7cafe252","ios":"levelo://app?vid=a115272b-d982-443a-87c0-8ebb7cafe252"},"vehicle_type_id":"4","last_reported":1730146189,"current_range_meters":27200,"station_id":"ce4bhnp2rcd13ifvqgvg","pricing_plan_id":"cebpf4jnsgd1na2vs0mg"},{"bike_id":"e9d21191-c6a6-4908-9641-483ac77be378","system_id":"levelo_inurba_marseille","lat":43.31689,"lon":5.37766,"is_reserved":false,"is_disabled":false,"rental_uris":{"android":"levelo://app?vid=e9d21191-c6a6-4908-9641-483ac77be378","ios":"levelo://app?vid=e9d21191-c6a6-4908-9641-483ac77be378"},"vehicle_type_id":"4","last_reported":1730146189,"current_range_meters":38800,"station_id":"ce4bgth2rcd13ifvqch0","pricing_plan_id":"cebpf4jnsgd1na2vs0mg"},{"bike_id":"b9342b5e-ebd2-487d-abdc-955016487de0","system_id":"levelo_inurba_marseille","lat":43.29028,"lon":5.38654,"is_reserved":false,"is_disabled":false,"rental_uris":{"android":"levelo://app?vid=b9342b5e-ebd2-487d-abdc-955016487de0","ios":"levelo://app?vid=b9342b5e-ebd2-487d-abdc-955016487de0"},"vehicle_type_id":"4","last_reported":1730146189,"current_range_meters":38800,"station_id":"ce4bh4p2rcd13ifvqe0g","pricing_plan_id":"cebpf4jnsgd1na2vs0mg"},{"bike_id":"d69e25e2-20ff-49df-8a54-e2627fc9db27","system_id":"levelo_inurba_marseille","lat":43.25868,"lon":5.399,"is_reserved":false,"is_disabled":false,"rental_uris":{"android":"levelo://app?vid=d69e25e2-20ff-49df-8a54-e2627fc9db27","ios":"levelo://app?vid=d69e25e2-20ff-49df-8a54-e2627fc9db27"},"vehicle_type_id":"4","last_reported":1730146189,"current_range_meters":8800,"station_id":"ce4bhl92rcd13ifvqghg","pricing_plan_id":"cebpf4jnsgd1na2vs0mg"},{"bike_id":"b7c42eaa-6f41-4bc8-9fdf-775fc8c8bc19","system_id":"levelo_inurba_marseille","lat":43.29027,"lon":5.38655,"is_reserved":false,"is_disabled":false,"rental_uris":{"android":"levelo://app?vid=b7c42eaa-6f41-4bc8-9fdf-775fc8c8bc19","ios":"levelo://app?vid=b7c42eaa-6f41-4bc8-9fdf-775fc8c8bc19"},"vehicle_type_id":"4","last_reported":1730146189,"current_range_meters":38400,"station_id":"ce4bh4p2rcd13ifvqe0g","pricing_plan_id":"cebpf4jnsgd1na2vs0mg"},{"bike_id":"4ffe2141-3a01-4d3e-90e1-a96e26104f33","system_id":"levelo_inurba_marseille","lat":43.30905,"lon":5.36836,"is_reserved":false,"is_disabled":false,"rental_uris":{"android":"levelo://app?vid=4ffe2141-3a01-4d3e-90e1-a96e26104f33","ios":"levelo://app?vid=4ffe2141-3a01-4d3e-90e1-a96e26104f33"},"vehicle_type_id":"4","last_reported":1730146189,"current_range_meters":38000,"station_id":"ce4bgn92rcd13ifvqbvg","pricing_plan_id":"cebpf4jnsgd1na2vs0mg"},{"bike_id":"1eff294a-efba-4a3e-8998-9849ddb2d364","system_id":"levelo_inurba_marseille","lat":43.27916,"lon":5.39576,"is_reserved":false,"is_disabled":false,"rental_uris":{"android":"levelo://app?vid=1eff294a-efba-4a3e-8998-9849ddb2d364","ios":"levelo://app?vid=1eff294a-efba-4a3e-8998-9849ddb2d364"},"vehicle_type_id":"4","last_reported":1730146189,"current_range_meters":9600,"station_id":"ce4bhf92rcd13ifvqf40","pricing_plan_id":"cebpf4jnsgd1na2vs0mg"},{"bike_id":"2fe375e5-01ad-410a-ad33-b23487ca7b26","system_id":"levelo_inurba_marseille","lat":43.28846,"lon":5.39332,"is_reserved":false,"is_disabled":false,"rental_uris":{"android":"levelo://app?vid=2fe375e5-01ad-410a-ad33-b23487ca7b26","ios":"levelo://app?vid=2fe375e5-01ad-410a-ad33-b23487ca7b26"},"vehicle_type_id":"4","last_reported":1730146189,"current_range_meters":36800,"station_id":"ce4bh2p2rcd13ifvqdi0","pricing_plan_id":"cebpf4jnsgd1na2vs0mg"},{"bike_id":"c6a47bda-4a0e-4854-beb1-47fe1761ed49","system_id":"levelo_inurba_marseille","lat":43.29785,"lon":5.39346,"is_reserved":false,"is_disabled":false,"rental_uris":{"android":"levelo://app?vid=c6a47bda-4a0e-4854-beb1-47fe1761ed49","ios":"levelo://app?vid=c6a47bda-4a0e-4854-beb1-47fe1761ed49"},"vehicle_type_id":"4","last_reported":1730146189,"current_range_meters":6000,"station_id":"chh1huq6cuj3fo74tm60","pricing_plan_id":"cebpf4jnsgd1na2vs0mg"},{"bike_id":"617ee951-2e5c-473e-b71d-f9df52efa0cd","system_id":"levelo_inurba_marseille","lat":43.27981,"lon":5.38755,"is_reserved":false,"is_disabled":false,"rental_uris":{"android":"levelo://app?vid=617ee951-2e5c-473e-b71d-f9df52efa0cd","ios":"levelo://app?vid=617ee951-2e5c-473e-b71d-f9df52efa0cd"},"vehicle_type_id":"4","last_reported":1730146189,"current_range_meters":38800,"station_id":"ce4bhg12rcd13ifvqf80","pricing_plan_id":"cebpf4jnsgd1na2vs0mg"},{"bike_id":"03892c30-173f-42f0-aa9b-9ffed04c53bd","system_id":"levelo_inurba_marseille","lat":43.29712,"lon":5.36617,"is_reserved":false,"is_disabled":false,"rental_uris":{"android":"levelo://app?vid=03892c30-173f-42f0-aa9b-9ffed04c53bd","ios":"levelo://app?vid=03892c30-173f-42f0-aa9b-9ffed04c53bd"},"vehicle_type_id":"4","last_reported":1730146189,"current_range_meters":28400,"station_id":"ce4bgn12rcd13ifvqbt0","pricing_plan_id":"cebpf4jnsgd1na2vs0mg"},{"bike_id":"fd541e4a-7b9a-453a-8959-e0c3ee2ad888","system_id":"levelo_inurba_marseille","lat":43.29595,"lon":5.38103,"is_reserved":false,"is_disabled":false,"rental_uris":{"android":"levelo://app?vid=fd541e4a-7b9a-453a-8959-e0c3ee2ad888","ios":"levelo://app?vid=fd541e4a-7b9a-453a-8959-e0c3ee2ad888"},"vehicle_type_id":"4","last_reported":1730146189,"current_range_meters":38800,"station_id":"ce4bgl12rcd13ifvqbo0","pricing_plan_id":"cebpf4jnsgd1na2vs0mg"},{"bike_id":"510a5fc5-038b-4b7e-95a7-062cbdaa3be9","system_id":"levelo_inurba_marseille","lat":43.31272,"lon":5.40167,"is_reserved":false,"is_disabled":false,"rental_uris":{"android":"levelo://app?vid=510a5fc5-038b-4b7e-95a7-062cbdaa3be9","ios":"levelo://app?vid=510a5fc5-038b-4b7e-95a7-062cbdaa3be9"},"vehicle_type_id":"4","last_reported":1730146189,"current_range_meters":17200,"station_id":"ce4bh092rcd13ifvqd30","pricing_plan_id":"cebpf4jnsgd1na2vs0mg"},{"bike_id":"de476be1-c659-4ea9-9e4a-4be379bd6192","system_id":"levelo_inurba_marseille","lat":43.29526,"lon":5.38543,"is_reserved":false,"is_disabled":false,"rental_uris":{"android":"levelo://app?vid=de476be1-c659-4ea9-9e4a-4be379bd6192","ios":"levelo://app?vid=de476be1-c659-4ea9-9e4a-4be379bd6192"},"vehicle_type_id":"4","last_reported":1730146189,"current_range_meters":20800,"station_id":"ce4bgih2rcd13ifvqba0","pricing_plan_id":"cebpf4jnsgd1na2vs0mg"},{"bike_id":"5a343c2c-b013-4634-aadf-9e6e4e37fb46","system_id":"levelo_inurba_marseille","lat":43.31498,"lon":5.37311,"is_reserved":false,"is_disabled":false,"rental_uris":{"android":"levelo://app?vid=5a343c2c-b013-4634-aadf-9e6e4e37fb46","ios":"levelo://app?vid=5a343c2c-b013-4634-aadf-9e6e4e37fb46"},"vehicle_type_id":"4","last_reported":1730146189,"current_range_meters":13600,"station_id":"ce4bgt12rcd13ifvqcd0","pricing_plan_id":"cebpf4jnsgd1na2vs0mg"},{"bike_id":"5d820ce0-2d55-46e5-b74d-cc75a18e2e27","system_id":"levelo_inurba_marseille","lat":43.26993,"lon":5.39242,"is_reserved":false,"is_disabled":false,"rental_uris":{"android":"levelo://app?vid=5d820ce0-2d55-46e5-b74d-cc75a18e2e27","ios":"levelo://app?vid=5d820ce0-2d55-46e5-b74d-cc75a18e2e27"},"vehicle_type_id":"4","last_reported":1730146189,"current_range_meters":30800,"station_id":"ce4bgh92rcd13ifvqb40","pricing_plan_id":"cebpf4jnsgd1na2vs0mg"},{"bike_id":"a4603ba6-3f91-46d7-ad56-9b320fac50c1","system_id":"levelo_inurba_marseille","lat":43.30882,"lon":5.37181,"is_reserved":false,"is_disabled":false,"rental_uris":{"android":"levelo://app?vid=a4603ba6-3f91-46d7-ad56-9b320fac50c1","ios":"levelo://app?vid=a4603ba6-3f91-46d7-ad56-9b320fac50c1"},"vehicle_type_id":"4","last_reported":1730146189,"current_range_meters":7200,"station_id":"ce4bguh2rcd13ifvqckg","pricing_plan_id":"cebpf4jnsgd1na2vs0mg"},{"bike_id":"d676a344-6d06-4545-8b43-7c6ae28fd17e","system_id":"levelo_inurba_marseille","lat":43.29415,"lon":5.38623,"is_reserved":false,"is_disabled":false,"rental_uris":{"android":"levelo://app?vid=d676a344-6d06-4545-8b43-7c6ae28fd17e","ios":"levelo://app?vid=d676a344-6d06-4545-8b43-7c6ae28fd17e"},"vehicle_type_id":"4","last_reported":1730146189,"current_range_meters":38800,"station_id":"ce4bh2h2rcd13ifvqdh0","pricing_plan_id":"cebpf4jnsgd1na2vs0mg"},{"bike_id":"e94be738-1f81-4ef2-8919-b6162fbe12c8","system_id":"levelo_inurba_marseille","lat":43.32374,"lon":5.38885,"is_reserved":false,"is_disabled":false,"rental_uris":{"android":"levelo://app?vid=e94be738-1f81-4ef2-8919-b6162fbe12c8","ios":"levelo://app?vid=e94be738-1f81-4ef2-8919-b6162fbe12c8"},"vehicle_type_id":"4","last_reported":1730146189,"current_range_meters":31200,"station_id":"ce4bhqp2rcd13ifvqhog","pricing_plan_id":"cebpf4jnsgd1na2vs0mg"},{"bike_id":"7fda42aa-28d7-4fc7-858b-960ce986865c","system_id":"levelo_inurba_marseille","lat":43.23202,"lon":5.35548,"is_reserved":false,"is_disabled":false,"rental_uris":{"android":"levelo://app?vid=7fda42aa-28d7-4fc7-858b-960ce986865c","ios":"levelo://app?vid=7fda42aa-28d7-4fc7-858b-960ce986865c"},"vehicle_type_id":"4","last_reported":1730146189,"current_range_meters":21600,"station_id":"ce4bhu92rcd13ifvqi70","pricing_plan_id":"cebpf4jnsgd1na2vs0mg"},{"bike_id":"a051b244-3280-41a1-a3de-979ee02c7059","system_id":"levelo_inurba_marseille","lat":43.28932,"lon":5.36639,"is_reserved":false,"is_disabled":false,"rental_uris":{"android":"levelo://app?vid=a051b244-3280-41a1-a3de-979ee02c7059","ios":"levelo://app?vid=a051b244-3280-41a1-a3de-979ee02c7059"},"vehicle_type_id":"4","last_reported":1730146189,"current_range_meters":37600,"station_id":"ce4bhap2rcd13ifvqek0","pricing_plan_id":"cebpf4jnsgd1na2vs0mg"},{"bike_id":"0a4fa2ab-aeb8-4514-88f9-36c9c3678a85","system_id":"levelo_inurba_marseille","lat":43.28615,"lon":5.35101,"is_reserved":false,"is_disabled":false,"rental_uris":{"android":"levelo://app?vid=0a4fa2ab-aeb8-4514-88f9-36c9c3678a85","ios":"levelo://app?vid=0a4fa2ab-aeb8-4514-88f9-36c9c3678a85"},"vehicle_type_id":"4","last_reported":1730146189,"current_range_meters":35200,"station_id":"ce4bhch2rcd13ifvqeug","pricing_plan_id":"cebpf4jnsgd1na2vs0mg"},{"bike_id":"13af717a-3dc4-4773-857d-74f753a7a4cf","system_id":"levelo_inurba_marseille","lat":43.2893,"lon":5.36642,"is_reserved":false,"is_disabled":false,"rental_uris":{"android":"levelo://app?vid=13af717a-3dc4-4773-857d-74f753a7a4cf","ios":"levelo://app?vid=13af717a-3dc4-4773-857d-74f753a7a4cf"},"vehicle_type_id":"4","last_reported":1730146189,"current_range_meters":4400,"station_id":"ce4bhap2rcd13ifvqek0","pricing_plan_id":"cebpf4jnsgd1na2vs0mg"},{"bike_id":"c708a84e-1b14-4911-9b76-7bed6a5f0a60","system_id":"levelo_inurba_marseille","lat":43.28937,"lon":5.36634,"is_reserved":false,"is_disabled":false,"rental_uris":{"android":"levelo://app?vid=c708a84e-1b14-4911-9b76-7bed6a5f0a60","ios":"levelo://app?vid=c708a84e-1b14-4911-9b76-7bed6a5f0a60"},"vehicle_type_id":"4","last_reported":1730146189,"current_range_meters":38000,"station_id":"ce4bhap2rcd13ifvqek0","pricing_plan_id":"cebpf4jnsgd1na2vs0mg"},{"bike_id":"83467386-666c-4ada-becc-1dacdd2aa408","system_id":"levelo_inurba_marseille","lat":43.27813,"lon":5.40725,"is_reserved":false,"is_disabled":false,"rental_uris":{"android":"levelo://app?vid=83467386-666c-4ada-becc-1dacdd2aa408","ios":"levelo://app?vid=83467386-666c-4ada-becc-1dacdd2aa408"},"vehicle_type_id":"4","last_reported":1730146189,"current_range_meters":4400,"station_id":"ce4bhnh2rcd13ifvqgtg","pricing_plan_id":"cebpf4jnsgd1na2vs0mg"},{"bike_id":"cf7e6558-3551-4e04-b42d-9ddce72c2b12","system_id":"levelo_inurba_marseille","lat":43.27382,"lon":5.36254,"is_reserved":false,"is_disabled":false,"rental_uris":{"android":"levelo://app?vid=cf7e6558-3551-4e04-b42d-9ddce72c2b12","ios":"levelo://app?vid=cf7e6558-3551-4e04-b42d-9ddce72c2b12"},"vehicle_type_id":"4","last_reported":1730146189,"current_range_meters":31200,"station_id":"ce4bhbh2rcd13ifvqeo0","pricing_plan_id":"cebpf4jnsgd1na2vs0mg"},{"bike_id":"414b37e3-7f51-47d0-b26c-139d06b823ac","system_id":"levelo_inurba_marseille","lat":43.28004,"lon":5.40003,"is_reserved":false,"is_disabled":false,"rental_uris":{"android":"levelo://app?vid=414b37e3-7f51-47d0-b26c-139d06b823ac","ios":"levelo://app?vid=414b37e3-7f51-47d0-b26c-139d06b823ac"},"vehicle_type_id":"4","last_reported":1730146189,"current_range_meters":2800,"station_id":"ce4bho92rcd13ifvqh4g","pricing_plan_id":"cebpf4jnsgd1na2vs0mg"},{"bike_id":"dcd98ba9-c8cc-4340-a071-62f2c6f4e9dc","system_id":"levelo_inurba_marseille","lat":43.30883,"lon":5.37198,"is_reserved":false,"is_disabled":false,"rental_uris":{"android":"levelo://app?vid=dcd98ba9-c8cc-4340-a071-62f2c6f4e9dc","ios":"levelo://app?vid=dcd98ba9-c8cc-4340-a071-62f2c6f4e9dc"},"vehicle_type_id":"4","last_reported":1730146189,"current_range_meters":5600,"station_id":"ce4bguh2rcd13ifvqckg","pricing_plan_id":"cebpf4jnsgd1na2vs0mg"},{"bike_id":"82aeab4e-d74d-4b17-9d95-0eab62ee46b1","system_id":"levelo_inurba_marseille","lat":43.30873,"lon":5.39634,"is_reserved":false,"is_disabled":false,"rental_uris":{"android":"levelo://app?vid=82aeab4e-d74d-4b17-9d95-0eab62ee46b1","ios":"levelo://app?vid=82aeab4e-d74d-4b17-9d95-0eab62ee46b1"},"vehicle_type_id":"4","last_reported":1730146189,"current_range_meters":38800,"station_id":"ce4bh012rcd13ifvqcv0","pricing_plan_id":"cebpf4jnsgd1na2vs0mg"},{"bike_id":"9fcb6089-7406-43af-bee1-c142a90f597d","system_id":"levelo_inurba_marseille","lat":43.27499,"lon":5.42451,"is_reserved":false,"is_disabled":false,"rental_uris":{"android":"levelo://app?vid=9fcb6089-7406-43af-bee1-c142a90f597d","ios":"levelo://app?vid=9fcb6089-7406-43af-bee1-c142a90f597d"},"vehicle_type_id":"4","last_reported":1730146189,"current_range_meters":39200,"station_id":"ce4bhn92rcd13ifvqgrg","pricing_plan_id":"cebpf4jnsgd1na2vs0mg"},{"bike_id":"c0d64a74-49fc-4c0a-99f1-efa7511daf40","system_id":"levelo_inurba_marseille","lat":43.26553,"lon":5.37291,"is_reserved":false,"is_disabled":false,"rental_uris":{"android":"levelo://app?vid=c0d64a74-49fc-4c0a-99f1-efa7511daf40","ios":"levelo://app?vid=c0d64a74-49fc-4c0a-99f1-efa7511daf40"},"vehicle_type_id":"4","last_reported":1730146189,"current_range_meters":38800,"station_id":"ce4bhg12rcd13ifvqf70","pricing_plan_id":"cebpf4jnsgd1na2vs0mg"},{"bike_id":"5c05f131-a563-4378-9457-751dbcbf2546","system_id":"levelo_inurba_marseille","lat":43.28859,"lon":5.35861,"is_reserved":false,"is_disabled":false,"rental_uris":{"android":"levelo://app?vid=5c05f131-a563-4378-9457-751dbcbf2546","ios":"levelo://app?vid=5c05f131-a563-4378-9457-751dbcbf2546"},"vehicle_type_id":"4","last_reported":1730146189,"current_range_meters":17600,"station_id":"ce4bhb12rcd13ifvqem0","pricing_plan_id":"cebpf4jnsgd1na2vs0mg"},{"bike_id":"b813d4d8-9d97-470a-b667-136139dc5331","system_id":"levelo_inurba_marseille","lat":43.30877,"lon":5.37184,"is_reserved":false,"is_disabled":false,"rental_uris":{"android":"levelo://app?vid=b813d4d8-9d97-470a-b667-136139dc5331","ios":"levelo://app?vid=b813d4d8-9d97-470a-b667-136139dc5331"},"vehicle_type_id":"4","last_reported":1730146189,"current_range_meters":39200,"station_id":"ce4bguh2rcd13ifvqckg","pricing_plan_id":"cebpf4jnsgd1na2vs0mg"},{"bike_id":"6d426020-479c-4cb2-808a-4d4613fbd9f4","system_id":"levelo_inurba_marseille","lat":43.29034,"lon":5.3865,"is_reserved":false,"is_disabled":false,"rental_uris":{"android":"levelo://app?vid=6d426020-479c-4cb2-808a-4d4613fbd9f4","ios":"levelo://app?vid=6d426020-479c-4cb2-808a-4d4613fbd9f4"},"vehicle_type_id":"4","last_reported":1730146189,"current_range_meters":38800,"station_id":"ce4bh4p2rcd13ifvqe0g","pricing_plan_id":"cebpf4jnsgd1na2vs0mg"},{"bike_id":"37635e21-b06e-48a7-92ec-abffe892e01e","system_id":"levelo_inurba_marseille","lat":43.30884,"lon":5.37194,"is_reserved":false,"is_disabled":false,"rental_uris":{"android":"levelo://app?vid=37635e21-b06e-48a7-92ec-abffe892e01e","ios":"levelo://app?vid=37635e21-b06e-48a7-92ec-abffe892e01e"},"vehicle_type_id":"4","last_reported":1730146189,"current_range_meters":38800,"station_id":"ce4bguh2rcd13ifvqckg","pricing_plan_id":"cebpf4jnsgd1na2vs0mg"},{"bike_id":"df742668-dada-40fd-989b-2ddf5c08a54b","system_id":"levelo_inurba_marseille","lat":43.30651,"lon":5.40091,"is_reserved":false,"is_disabled":false,"rental_uris":{"android":"levelo://app?vid=df742668-dada-40fd-989b-2ddf5c08a54b","ios":"levelo://app?vid=df742668-dada-40fd-989b-2ddf5c08a54b"},"vehicle_type_id":"4","last_reported":1730146189,"current_range_meters":38800,"station_id":"ce4bh112rcd13ifvqda0","pricing_plan_id":"cebpf4jnsgd1na2vs0mg"},{"bike_id":"ab070e69-7cae-4239-96b8-e1a31f22d5d7","system_id":"levelo_inurba_marseille","lat":43.29095,"lon":5.38006,"is_reserved":false,"is_disabled":false,"rental_uris":{"android":"levelo://app?vid=ab070e69-7cae-4239-96b8-e1a31f22d5d7","ios":"levelo://app?vid=ab070e69-7cae-4239-96b8-e1a31f22d5d7"},"vehicle_type_id":"4","last_reported":1730146189,"current_range_meters":30400,"station_id":"ce4bgjh2rcd13ifvqbf0","pricing_plan_id":"cebpf4jnsgd1na2vs0mg"},{"bike_id":"fe25f5d9-6650-4a56-850d-364c19acef0a","system_id":"levelo_inurba_marseille","lat":43.28937,"lon":5.36401,"is_reserved":false,"is_disabled":false,"rental_uris":{"android":"levelo://app?vid=fe25f5d9-6650-4a56-850d-364c19acef0a","ios":"levelo://app?vid=fe25f5d9-6650-4a56-850d-364c19acef0a"},"vehicle_type_id":"4","last_reported":1730146189,"current_range_meters":18800,"station_id":"ce4bhc92rcd13ifvqetg","pricing_plan_id":"cebpf4jnsgd1na2vs0mg"},{"bike_id":"1fcd3223-ff2b-47b7-8567-0be995b0330f","system_id":"levelo_inurba_marseille","lat":43.27497,"lon":5.42448,"is_reserved":false,"is_disabled":false,"rental_uris":{"android":"levelo://app?vid=1fcd3223-ff2b-47b7-8567-0be995b0330f","ios":"levelo://app?vid=1fcd3223-ff2b-47b7-8567-0be995b0330f"},"vehicle_type_id":"4","last_reported":1730146189,"current_range_meters":39200,"station_id":"ce4bhn92rcd13ifvqgrg","pricing_plan_id":"cebpf4jnsgd1na2vs0mg"},{"bike_id":"f4b58118-bd8b-48c2-94fd-250965cf9e7a","system_id":"levelo_inurba_marseille","lat":43.23185,"lon":5.39981,"is_reserved":false,"is_disabled":false,"rental_uris":{"android":"levelo://app?vid=f4b58118-bd8b-48c2-94fd-250965cf9e7a","ios":"levelo://app?vid=f4b58118-bd8b-48c2-94fd-250965cf9e7a"},"vehicle_type_id":"4","last_reported":1730146189,"current_range_meters":16400,"station_id":"ce4bhn12rcd13ifvqgqg","pricing_plan_id":"cebpf4jnsgd1na2vs0mg"},{"bike_id":"1312e32e-f045-4767-9a1d-f1ecdb3bf349","system_id":"levelo_inurba_marseille","lat":43.29536,"lon":5.38557,"is_reserved":false,"is_disabled":false,"rental_uris":{"android":"levelo://app?vid=1312e32e-f045-4767-9a1d-f1ecdb3bf349","ios":"levelo://app?vid=1312e32e-f045-4767-9a1d-f1ecdb3bf349"},"vehicle_type_id":"4","last_reported":1730146189,"current_range_meters":7200,"station_id":"ce4bgih2rcd13ifvqba0","pricing_plan_id":"cebpf4jnsgd1na2vs0mg"},{"bike_id":"6751de5a-588c-4e53-ab5b-a455683af8ef","system_id":"levelo_inurba_marseille","lat":43.296509,"lon":5.377635,"is_reserved":false,"is_disabled":false,"rental_uris":{"android":"levelo://app?vid=6751de5a-588c-4e53-ab5b-a455683af8ef","ios":"levelo://app?vid=6751de5a-588c-4e53-ab5b-a455683af8ef"},"vehicle_type_id":"4","last_reported":1730146189,"current_range_meters":31200,"station_id":"ce4bgi92rcd13ifvqb90","pricing_plan_id":"cebpf4jnsgd1na2vs0mg"},{"bike_id":"5ee787f4-b1e1-43d7-afec-192952f8f431","system_id":"levelo_inurba_marseille","lat":43.23968,"lon":5.36641,"is_reserved":false,"is_disabled":false,"rental_uris":{"android":"levelo://app?vid=5ee787f4-b1e1-43d7-afec-192952f8f431","ios":"levelo://app?vid=5ee787f4-b1e1-43d7-afec-192952f8f431"},"vehicle_type_id":"4","last_reported":1730146189,"current_range_meters":9200,"station_id":"ce4bhi12rcd13ifvqfp0","pricing_plan_id":"cebpf4jnsgd1na2vs0mg"},{"bike_id":"cd95e405-50e7-470f-85bd-fcb15f115cc9","system_id":"levelo_inurba_marseille","lat":43.26955,"lon":5.38628,"is_reserved":false,"is_disabled":false,"rental_uris":{"android":"levelo://app?vid=cd95e405-50e7-470f-85bd-fcb15f115cc9","ios":"levelo://app?vid=cd95e405-50e7-470f-85bd-fcb15f115cc9"},"vehicle_type_id":"4","last_reported":1730146189,"current_range_meters":38800,"station_id":"ce4bhh92rcd13ifvqfh0","pricing_plan_id":"cebpf4jnsgd1na2vs0mg"},{"bike_id":"fbfdf18c-b235-49fc-8361-4cc1f402764c","system_id":"levelo_inurba_marseille","lat":43.2942,"lon":5.38608,"is_reserved":false,"is_disabled":false,"rental_uris":{"android":"levelo://app?vid=fbfdf18c-b235-49fc-8361-4cc1f402764c","ios":"levelo://app?vid=fbfdf18c-b235-49fc-8361-4cc1f402764c"},"vehicle_type_id":"4","last_reported":1730146189,"current_range_meters":7200,"station_id":"ce4bh2h2rcd13ifvqdh0","pricing_plan_id":"cebpf4jnsgd1na2vs0mg"},{"bike_id":"2a6466af-b364-48ca-b0f6-94b98802e85a","system_id":"levelo_inurba_marseille","lat":43.29864,"lon":5.38898,"is_reserved":false,"is_disabled":false,"rental_uris":{"android":"levelo://app?vid=2a6466af-b364-48ca-b0f6-94b98802e85a","ios":"levelo://app?vid=2a6466af-b364-48ca-b0f6-94b98802e85a"},"vehicle_type_id":"4","last_reported":1730146189,"current_range_meters":21600,"station_id":"ce4bh392rcd13ifvqdl0","pricing_plan_id":"cebpf4jnsgd1na2vs0mg"},{"bike_id":"8fac999c-77b0-4bab-95c9-b9a6a3bb48b2","system_id":"levelo_inurba_marseille","lat":43.31262,"lon":5.40165,"is_reserved":false,"is_disabled":false,"rental_uris":{"android":"levelo://app?vid=8fac999c-77b0-4bab-95c9-b9a6a3bb48b2","ios":"levelo://app?vid=8fac999c-77b0-4bab-95c9-b9a6a3bb48b2"},"vehicle_type_id":"4","last_reported":1730146189,"current_range_meters":32000,"station_id":"ce4bh092rcd13ifvqd30","pricing_plan_id":"cebpf4jnsgd1na2vs0mg"},{"bike_id":"dec3dc47-699a-4724-8780-38f800bd0b11","system_id":"levelo_inurba_marseille","lat":43.28936,"lon":5.36642,"is_reserved":false,"is_disabled":false,"rental_uris":{"android":"levelo://app?vid=dec3dc47-699a-4724-8780-38f800bd0b11","ios":"levelo://app?vid=dec3dc47-699a-4724-8780-38f800bd0b11"},"vehicle_type_id":"4","last_reported":1730146189,"current_range_meters":39200,"station_id":"ce4bhap2rcd13ifvqek0","pricing_plan_id":"cebpf4jnsgd1na2vs0mg"},{"bike_id":"4f21f473-d6ef-4678-b028-ed29a51ab020","system_id":"levelo_inurba_marseille","lat":43.31676,"lon":5.43557,"is_reserved":false,"is_disabled":false,"rental_uris":{"android":"levelo://app?vid=4f21f473-d6ef-4678-b028-ed29a51ab020","ios":"levelo://app?vid=4f21f473-d6ef-4678-b028-ed29a51ab020"},"vehicle_type_id":"4","last_reported":1730146189,"current_range_meters":27600,"station_id":"","pricing_plan_id":"cebpf4jnsgd1na2vs0mg"},{"bike_id":"24a79491-5a51-481e-a96e-8eee113b6434","system_id":"levelo_inurba_marseille","lat":43.29259,"lon":5.38432,"is_reserved":false,"is_disabled":false,"rental_uris":{"android":"levelo://app?vid=24a79491-5a51-481e-a96e-8eee113b6434","ios":"levelo://app?vid=24a79491-5a51-481e-a96e-8eee113b6434"},"vehicle_type_id":"4","last_reported":1730146189,"current_range_meters":9600,"station_id":"ce4bh692rcd13ifvqea0","pricing_plan_id":"cebpf4jnsgd1na2vs0mg"},{"bike_id":"0a23fda2-fd77-4479-8a89-43818ad7b0be","system_id":"levelo_inurba_marseille","lat":43.30337,"lon":5.40434,"is_reserved":false,"is_disabled":false,"rental_uris":{"android":"levelo://app?vid=0a23fda2-fd77-4479-8a89-43818ad7b0be","ios":"levelo://app?vid=0a23fda2-fd77-4479-8a89-43818ad7b0be"},"vehicle_type_id":"4","last_reported":1730146189,"current_range_meters":24800,"station_id":"ce4bh012rcd13ifvqd10","pricing_plan_id":"cebpf4jnsgd1na2vs0mg"},{"bike_id":"d97d7e58-0bdb-4114-9249-8f863e0e9a7c","system_id":"levelo_inurba_marseille","lat":43.28417,"lon":5.37523,"is_reserved":false,"is_disabled":false,"rental_uris":{"android":"levelo://app?vid=d97d7e58-0bdb-4114-9249-8f863e0e9a7c","ios":"levelo://app?vid=d97d7e58-0bdb-4114-9249-8f863e0e9a7c"},"vehicle_type_id":"4","last_reported":1730146189,"current_range_meters":9200,"station_id":"ce4bh412rcd13ifvqds0","pricing_plan_id":"cebpf4jnsgd1na2vs0mg"},{"bike_id":"c50ed6e5-425f-41f0-afd6-95cf8cfdc848","system_id":"levelo_inurba_marseille","lat":43.3089,"lon":5.3964,"is_reserved":false,"is_disabled":false,"rental_uris":{"android":"levelo://app?vid=c50ed6e5-425f-41f0-afd6-95cf8cfdc848","ios":"levelo://app?vid=c50ed6e5-425f-41f0-afd6-95cf8cfdc848"},"vehicle_type_id":"4","last_reported":1730146189,"current_range_meters":30400,"station_id":"ce4bh012rcd13ifvqcv0","pricing_plan_id":"cebpf4jnsgd1na2vs0mg"},{"bike_id":"f06a33d9-a4b8-4248-8422-bfa380d536dc","system_id":"levelo_inurba_marseille","lat":43.28104,"lon":5.3784,"is_reserved":false,"is_disabled":false,"rental_uris":{"android":"levelo://app?vid=f06a33d9-a4b8-4248-8422-bfa380d536dc","ios":"levelo://app?vid=f06a33d9-a4b8-4248-8422-bfa380d536dc"},"vehicle_type_id":"4","last_reported":1730146189,"current_range_meters":12400,"station_id":"ce4bha12rcd13ifvqee0","pricing_plan_id":"cebpf4jnsgd1na2vs0mg"},{"bike_id":"5d8df523-bcf5-40d9-87db-5f6aac45833a","system_id":"levelo_inurba_marseille","lat":43.28098,"lon":5.37837,"is_reserved":false,"is_disabled":false,"rental_uris":{"android":"levelo://app?vid=5d8df523-bcf5-40d9-87db-5f6aac45833a","ios":"levelo://app?vid=5d8df523-bcf5-40d9-87db-5f6aac45833a"},"vehicle_type_id":"4","last_reported":1730146189,"current_range_meters":36000,"station_id":"ce4bha12rcd13ifvqee0","pricing_plan_id":"cebpf4jnsgd1na2vs0mg"},{"bike_id":"fddc5e1c-c058-4d13-afb8-9a5f5518e6a5","system_id":"levelo_inurba_marseille","lat":43.27561,"lon":5.38421,"is_reserved":false,"is_disabled":false,"rental_uris":{"android":"levelo://app?vid=fddc5e1c-c058-4d13-afb8-9a5f5518e6a5","ios":"levelo://app?vid=fddc5e1c-c058-4d13-afb8-9a5f5518e6a5"},"vehicle_type_id":"4","last_reported":1730146189,"current_range_meters":24000,"station_id":"ce4bhh92rcd13ifvqfi0","pricing_plan_id":"cebpf4jnsgd1na2vs0mg"},{"bike_id":"5b6d551c-4696-4b02-b35f-f7531f5aaf7d","system_id":"levelo_inurba_marseille","lat":43.29612,"lon":5.38108,"is_reserved":false,"is_disabled":false,"rental_uris":{"android":"levelo://app?vid=5b6d551c-4696-4b02-b35f-f7531f5aaf7d","ios":"levelo://app?vid=5b6d551c-4696-4b02-b35f-f7531f5aaf7d"},"vehicle_type_id":"4","last_reported":1730146189,"current_range_meters":35600,"station_id":"ce4bgl12rcd13ifvqbo0","pricing_plan_id":"cebpf4jnsgd1na2vs0mg"},{"bike_id":"8b34a2ee-ed56-4dc7-bc1c-f3aa05af698b","system_id":"levelo_inurba_marseille","lat":43.28694,"lon":5.37374,"is_reserved":false,"is_disabled":false,"rental_uris":{"android":"levelo://app?vid=8b34a2ee-ed56-4dc7-bc1c-f3aa05af698b","ios":"levelo://app?vid=8b34a2ee-ed56-4dc7-bc1c-f3aa05af698b"},"vehicle_type_id":"4","last_reported":1730146189,"current_range_meters":38000,"station_id":"ce4bh3p2rcd13ifvqdq0","pricing_plan_id":"cebpf4jnsgd1na2vs0mg"},{"bike_id":"b7cdb225-b8d2-428a-9659-1844801c9c20","system_id":"levelo_inurba_marseille","lat":43.31321,"lon":5.39696,"is_reserved":false,"is_disabled":false,"rental_uris":{"android":"levelo://app?vid=b7cdb225-b8d2-428a-9659-1844801c9c20","ios":"levelo://app?vid=b7cdb225-b8d2-428a-9659-1844801c9c20"},"vehicle_type_id":"4","last_reported":1730146189,"current_range_meters":35600,"station_id":"ce4bgvp2rcd13ifvqcu0","pricing_plan_id":"cebpf4jnsgd1na2vs0mg"},{"bike_id":"587f35f1-4ca3-4726-938e-103307e4500f","system_id":"levelo_inurba_marseille","lat":43.28933,"lon":5.36403,"is_reserved":false,"is_disabled":false,"rental_uris":{"android":"levelo://app?vid=587f35f1-4ca3-4726-938e-103307e4500f","ios":"levelo://app?vid=587f35f1-4ca3-4726-938e-103307e4500f"},"vehicle_type_id":"4","last_reported":1730146189,"current_range_meters":20400,"station_id":"ce4bhc92rcd13ifvqetg","pricing_plan_id":"cebpf4jnsgd1na2vs0mg"},{"bike_id":"21ef18f5-00a4-44b1-9ab7-d4bc0d6b1dd4","system_id":"levelo_inurba_marseille","lat":43.26562,"lon":5.39005,"is_reserved":false,"is_disabled":false,"rental_uris":{"android":"levelo://app?vid=21ef18f5-00a4-44b1-9ab7-d4bc0d6b1dd4","ios":"levelo://app?vid=21ef18f5-00a4-44b1-9ab7-d4bc0d6b1dd4"},"vehicle_type_id":"4","last_reported":1730146189,"current_range_meters":38800,"station_id":"ce4bhe12rcd13ifvqf30","pricing_plan_id":"cebpf4jnsgd1na2vs0mg"},{"bike_id":"bab86e61-1499-42cd-8d12-0947c6d58573","system_id":"levelo_inurba_marseille","lat":43.29794,"lon":5.38122,"is_reserved":false,"is_disabled":false,"rental_uris":{"android":"levelo://app?vid=bab86e61-1499-42cd-8d12-0947c6d58573","ios":"levelo://app?vid=bab86e61-1499-42cd-8d12-0947c6d58573"},"vehicle_type_id":"4","last_reported":1730146189,"current_range_meters":38800,"station_id":"ce4bgip2rcd13ifvqbb0","pricing_plan_id":"cebpf4jnsgd1na2vs0mg"},{"bike_id":"31667409-da4c-4835-82b7-8670e324a15d","system_id":"levelo_inurba_marseille","lat":43.28947,"lon":5.36635,"is_reserved":false,"is_disabled":false,"rental_uris":{"android":"levelo://app?vid=31667409-da4c-4835-82b7-8670e324a15d","ios":"levelo://app?vid=31667409-da4c-4835-82b7-8670e324a15d"},"vehicle_type_id":"4","last_reported":1730146189,"current_range_meters":10800,"station_id":"ce4bhap2rcd13ifvqek0","pricing_plan_id":"cebpf4jnsgd1na2vs0mg"},{"bike_id":"62db9d61-085e-43ce-a931-78ef669e3260","system_id":"levelo_inurba_marseille","lat":43.28744,"lon":5.37436,"is_reserved":false,"is_disabled":false,"rental_uris":{"android":"levelo://app?vid=62db9d61-085e-43ce-a931-78ef669e3260","ios":"levelo://app?vid=62db9d61-085e-43ce-a931-78ef669e3260"},"vehicle_type_id":"4","last_reported":1730146189,"current_range_meters":37600,"station_id":"ce4bh3p2rcd13ifvqdq0","pricing_plan_id":"cebpf4jnsgd1na2vs0mg"},{"bike_id":"322ab797-980a-4657-b653-ad8aac214a45","system_id":"levelo_inurba_marseille","lat":43.26958,"lon":5.38639,"is_reserved":false,"is_disabled":false,"rental_uris":{"android":"levelo://app?vid=322ab797-980a-4657-b653-ad8aac214a45","ios":"levelo://app?vid=322ab797-980a-4657-b653-ad8aac214a45"},"vehicle_type_id":"4","last_reported":1730146189,"current_range_meters":36400,"station_id":"ce4bhh92rcd13ifvqfh0","pricing_plan_id":"cebpf4jnsgd1na2vs0mg"},{"bike_id":"124ad471-eb5a-4502-a27e-211d0965082e","system_id":"levelo_inurba_marseille","lat":43.27616,"lon":5.36114,"is_reserved":false,"is_disabled":false,"rental_uris":{"android":"levelo://app?vid=124ad471-eb5a-4502-a27e-211d0965082e","ios":"levelo://app?vid=124ad471-eb5a-4502-a27e-211d0965082e"},"vehicle_type_id":"4","last_reported":1730146189,"current_range_meters":38800,"station_id":"ce4bgj92rcd13ifvqbe0","pricing_plan_id":"cebpf4jnsgd1na2vs0mg"},{"bike_id":"7a149a9b-24ed-4621-8de1-69522f0c7171","system_id":"levelo_inurba_marseille","lat":43.30886,"lon":5.39634,"is_reserved":false,"is_disabled":false,"rental_uris":{"android":"levelo://app?vid=7a149a9b-24ed-4621-8de1-69522f0c7171","ios":"levelo://app?vid=7a149a9b-24ed-4621-8de1-69522f0c7171"},"vehicle_type_id":"4","last_reported":1730146189,"current_range_meters":33200,"station_id":"ce4bh012rcd13ifvqcv0","pricing_plan_id":"cebpf4jnsgd1na2vs0mg"},{"bike_id":"2e132625-0bc6-4ffc-9b34-88db153bb307","system_id":"levelo_inurba_marseille","lat":43.27996,"lon":5.40017,"is_reserved":false,"is_disabled":false,"rental_uris":{"android":"levelo://app?vid=2e132625-0bc6-4ffc-9b34-88db153bb307","ios":"levelo://app?vid=2e132625-0bc6-4ffc-9b34-88db153bb307"},"vehicle_type_id":"4","last_reported":1730146189,"current_range_meters":38800,"station_id":"ce4bho92rcd13ifvqh4g","pricing_plan_id":"cebpf4jnsgd1na2vs0mg"},{"bike_id":"5a3eccb6-ab64-462d-a678-b301d864c3d3","system_id":"levelo_inurba_marseille","lat":43.29687,"lon":5.37283,"is_reserved":false,"is_disabled":false,"rental_uris":{"android":"levelo://app?vid=5a3eccb6-ab64-462d-a678-b301d864c3d3","ios":"levelo://app?vid=5a3eccb6-ab64-462d-a678-b301d864c3d3"},"vehicle_type_id":"4","last_reported":1730146189,"current_range_meters":31200,"station_id":"ce4bgk12rcd13ifvqbj0","pricing_plan_id":"cebpf4jnsgd1na2vs0mg"},{"bike_id":"cfee1988-9f0f-43b5-972d-658b297c2748","system_id":"levelo_inurba_marseille","lat":43.30301,"lon":5.39204,"is_reserved":false,"is_disabled":false,"rental_uris":{"android":"levelo://app?vid=cfee1988-9f0f-43b5-972d-658b297c2748","ios":"levelo://app?vid=cfee1988-9f0f-43b5-972d-658b297c2748"},"vehicle_type_id":"4","last_reported":1730146189,"current_range_meters":38800,"station_id":"ce4bgkh2rcd13ifvqbk0","pricing_plan_id":"cebpf4jnsgd1na2vs0mg"},{"bike_id":"df4da2d7-04e5-48a1-8925-07bc05ee873d","system_id":"levelo_inurba_marseille","lat":43.23965,"lon":5.36631,"is_reserved":false,"is_disabled":false,"rental_uris":{"android":"levelo://app?vid=df4da2d7-04e5-48a1-8925-07bc05ee873d","ios":"levelo://app?vid=df4da2d7-04e5-48a1-8925-07bc05ee873d"},"vehicle_type_id":"4","last_reported":1730146189,"current_range_meters":5600,"station_id":"ce4bhi12rcd13ifvqfp0","pricing_plan_id":"cebpf4jnsgd1na2vs0mg"},{"bike_id":"737837b8-7066-4d20-89f3-91917ea0193c","system_id":"levelo_inurba_marseille","lat":43.28451,"lon":5.35885,"is_reserved":false,"is_disabled":false,"rental_uris":{"android":"levelo://app?vid=737837b8-7066-4d20-89f3-91917ea0193c","ios":"levelo://app?vid=737837b8-7066-4d20-89f3-91917ea0193c"},"vehicle_type_id":"4","last_reported":1730146189,"current_range_meters":22800,"station_id":"ce4bhah2rcd13ifvqei0","pricing_plan_id":"cebpf4jnsgd1na2vs0mg"},{"bike_id":"96b94954-d0a4-4c78-90db-8aa56937e1b0","system_id":"levelo_inurba_marseille","lat":43.27422,"lon":5.39423,"is_reserved":false,"is_disabled":false,"rental_uris":{"android":"levelo://app?vid=96b94954-d0a4-4c78-90db-8aa56937e1b0","ios":"levelo://app?vid=96b94954-d0a4-4c78-90db-8aa56937e1b0"},"vehicle_type_id":"4","last_reported":1730146189,"current_range_meters":32800,"station_id":"ce4bhdp2rcd13ifvqf20","pricing_plan_id":"cebpf4jnsgd1na2vs0mg"},{"bike_id":"b3d19fe9-784a-4138-a42f-b8e41f21cf22","system_id":"levelo_inurba_marseille","lat":43.27955,"lon":5.41051,"is_reserved":false,"is_disabled":false,"rental_uris":{"android":"levelo://app?vid=b3d19fe9-784a-4138-a42f-b8e41f21cf22","ios":"levelo://app?vid=b3d19fe9-784a-4138-a42f-b8e41f21cf22"},"vehicle_type_id":"4","last_reported":1730146189,"current_range_meters":8800,"station_id":"ce4bhnp2rcd13ifvqh0g","pricing_plan_id":"cebpf4jnsgd1na2vs0mg"},{"bike_id":"dda48482-bb25-488a-b8aa-27ddaee48b7c","system_id":"levelo_inurba_marseille","lat":43.30632,"lon":5.40094,"is_reserved":false,"is_disabled":false,"rental_uris":{"android":"levelo://app?vid=dda48482-bb25-488a-b8aa-27ddaee48b7c","ios":"levelo://app?vid=dda48482-bb25-488a-b8aa-27ddaee48b7c"},"vehicle_type_id":"4","last_reported":1730146189,"current_range_meters":22000,"station_id":"ce4bh112rcd13ifvqda0","pricing_plan_id":"cebpf4jnsgd1na2vs0mg"},{"bike_id":"1f02a00c-e697-4446-8389-72dcdacc9f45","system_id":"levelo_inurba_marseille","lat":43.3249,"lon":5.36569,"is_reserved":false,"is_disabled":false,"rental_uris":{"android":"levelo://app?vid=1f02a00c-e697-4446-8389-72dcdacc9f45","ios":"levelo://app?vid=1f02a00c-e697-4446-8389-72dcdacc9f45"},"vehicle_type_id":"4","last_reported":1730146189,"current_range_meters":32400,"station_id":"ce4bhs12rcd13ifvqhvg","pricing_plan_id":"cebpf4jnsgd1na2vs0mg"},{"bike_id":"8e93bc1b-1b4f-4129-bbbf-603daf4b7dff","system_id":"levelo_inurba_marseille","lat":43.29572,"lon":5.39957,"is_reserved":false,"is_disabled":false,"rental_uris":{"android":"levelo://app?vid=8e93bc1b-1b4f-4129-bbbf-603daf4b7dff","ios":"levelo://app?vid=8e93bc1b-1b4f-4129-bbbf-603daf4b7dff"},"vehicle_type_id":"4","last_reported":1730146189,"current_range_meters":38800,"station_id":"ce4bh312rcd13ifvqdj0","pricing_plan_id":"cebpf4jnsgd1na2vs0mg"},{"bike_id":"ad405ab8-1e42-4d13-8f85-a3e6a93fbd14","system_id":"levelo_inurba_marseille","lat":43.293396,"lon":5.371123,"is_reserved":false,"is_disabled":false,"rental_uris":{"android":"levelo://app?vid=ad405ab8-1e42-4d13-8f85-a3e6a93fbd14","ios":"levelo://app?vid=ad405ab8-1e42-4d13-8f85-a3e6a93fbd14"},"vehicle_type_id":"4","last_reported":1730146189,"current_range_meters":24800,"station_id":"ce4bgh92rcd13ifvqb40","pricing_plan_id":"cebpf4jnsgd1na2vs0mg"},{"bike_id":"8df59989-c20b-4948-9500-aeae8410f9ef","system_id":"levelo_inurba_marseille","lat":43.29532,"lon":5.38543,"is_reserved":false,"is_disabled":false,"rental_uris":{"android":"levelo://app?vid=8df59989-c20b-4948-9500-aeae8410f9ef","ios":"levelo://app?vid=8df59989-c20b-4948-9500-aeae8410f9ef"},"vehicle_type_id":"4","last_reported":1730146189,"current_range_meters":6000,"station_id":"ce4bgih2rcd13ifvqba0","pricing_plan_id":"cebpf4jnsgd1na2vs0mg"},{"bike_id":"a202a1c1-08b7-4727-8318-f9aeef312751","system_id":"levelo_inurba_marseille","lat":43.25822,"lon":5.39437,"is_reserved":false,"is_disabled":false,"rental_uris":{"android":"levelo://app?vid=a202a1c1-08b7-4727-8318-f9aeef312751","ios":"levelo://app?vid=a202a1c1-08b7-4727-8318-f9aeef312751"},"vehicle_type_id":"4","last_reported":1730146189,"current_range_meters":16800,"station_id":"ce4bhip2rcd13ifvqft0","pricing_plan_id":"cebpf4jnsgd1na2vs0mg"},{"bike_id":"1fae7eeb-dee3-4945-8e95-ba4348be2125","system_id":"levelo_inurba_marseille","lat":43.28113,"lon":5.37843,"is_reserved":false,"is_disabled":false,"rental_uris":{"android":"levelo://app?vid=1fae7eeb-dee3-4945-8e95-ba4348be2125","ios":"levelo://app?vid=1fae7eeb-dee3-4945-8e95-ba4348be2125"},"vehicle_type_id":"4","last_reported":1730146189,"current_range_meters":19600,"station_id":"ce4bha12rcd13ifvqee0","pricing_plan_id":"cebpf4jnsgd1na2vs0mg"},{"bike_id":"d6aa198d-8bc3-46fe-b194-9ee8756e7b92","system_id":"levelo_inurba_marseille","lat":43.30643,"lon":5.40098,"is_reserved":false,"is_disabled":false,"rental_uris":{"android":"levelo://app?vid=d6aa198d-8bc3-46fe-b194-9ee8756e7b92","ios":"levelo://app?vid=d6aa198d-8bc3-46fe-b194-9ee8756e7b92"},"vehicle_type_id":"4","last_reported":1730146189,"current_range_meters":32000,"station_id":"ce4bh112rcd13ifvqda0","pricing_plan_id":"cebpf4jnsgd1na2vs0mg"},{"bike_id":"b58344b2-0596-4519-acb1-31f568d12e30","system_id":"levelo_inurba_marseille","lat":43.298052,"lon":5.403728,"is_reserved":false,"is_disabled":false,"rental_uris":{"android":"levelo://app?vid=b58344b2-0596-4519-acb1-31f568d12e30","ios":"levelo://app?vid=b58344b2-0596-4519-acb1-31f568d12e30"},"vehicle_type_id":"4","last_reported":1730146189,"current_range_meters":14000,"station_id":"ce4bh112rcd13ifvqd90","pricing_plan_id":"cebpf4jnsgd1na2vs0mg"},{"bike_id":"b285efc1-4c49-4be7-9b2d-90c5c463460a","system_id":"levelo_inurba_marseille","lat":43.2936,"lon":5.37849,"is_reserved":false,"is_disabled":false,"rental_uris":{"android":"levelo://app?vid=b285efc1-4c49-4be7-9b2d-90c5c463460a","ios":"levelo://app?vid=b285efc1-4c49-4be7-9b2d-90c5c463460a"},"vehicle_type_id":"4","last_reported":1730146189,"current_range_meters":3600,"station_id":"ce4bgjh2rcd13ifvqbf0","pricing_plan_id":"cebpf4jnsgd1na2vs0mg"},{"bike_id":"e3fc5793-05c7-4816-8c51-e428fb71369d","system_id":"levelo_inurba_marseille","lat":43.29417,"lon":5.38626,"is_reserved":false,"is_disabled":false,"rental_uris":{"android":"levelo://app?vid=e3fc5793-05c7-4816-8c51-e428fb71369d","ios":"levelo://app?vid=e3fc5793-05c7-4816-8c51-e428fb71369d"},"vehicle_type_id":"4","last_reported":1730146189,"current_range_meters":38800,"station_id":"ce4bh2h2rcd13ifvqdh0","pricing_plan_id":"cebpf4jnsgd1na2vs0mg"},{"bike_id":"956b8573-2415-40f4-bf3b-a6ec1f71d870","system_id":"levelo_inurba_marseille","lat":43.24689,"lon":5.38148,"is_reserved":false,"is_disabled":false,"rental_uris":{"android":"levelo://app?vid=956b8573-2415-40f4-bf3b-a6ec1f71d870","ios":"levelo://app?vid=956b8573-2415-40f4-bf3b-a6ec1f71d870"},"vehicle_type_id":"4","last_reported":1730146189,"current_range_meters":22000,"station_id":"ce4bhih2rcd13ifvqfr0","pricing_plan_id":"cebpf4jnsgd1na2vs0mg"},{"bike_id":"9f9e5986-d5db-40dd-a672-147886d40406","system_id":"levelo_inurba_marseille","lat":43.23177,"lon":5.39989,"is_reserved":false,"is_disabled":false,"rental_uris":{"android":"levelo://app?vid=9f9e5986-d5db-40dd-a672-147886d40406","ios":"levelo://app?vid=9f9e5986-d5db-40dd-a672-147886d40406"},"vehicle_type_id":"4","last_reported":1730146189,"current_range_meters":19600,"station_id":"ce4bhn12rcd13ifvqgqg","pricing_plan_id":"cebpf4jnsgd1na2vs0mg"},{"bike_id":"8815a7eb-0b44-44aa-94e9-d7eea83c7e62","system_id":"levelo_inurba_marseille","lat":43.24993,"lon":5.38935,"is_reserved":false,"is_disabled":false,"rental_uris":{"android":"levelo://app?vid=8815a7eb-0b44-44aa-94e9-d7eea83c7e62","ios":"levelo://app?vid=8815a7eb-0b44-44aa-94e9-d7eea83c7e62"},"vehicle_type_id":"4","last_reported":1730146189,"current_range_meters":4000,"station_id":"ce4bhgp2rcd13ifvqfd0","pricing_plan_id":"cebpf4jnsgd1na2vs0mg"},{"bike_id":"0611bcc3-a3c0-4998-9ace-3db937549733","system_id":"levelo_inurba_marseille","lat":43.28925,"lon":5.364,"is_reserved":false,"is_disabled":false,"rental_uris":{"android":"levelo://app?vid=0611bcc3-a3c0-4998-9ace-3db937549733","ios":"levelo://app?vid=0611bcc3-a3c0-4998-9ace-3db937549733"},"vehicle_type_id":"4","last_reported":1730146189,"current_range_meters":38800,"station_id":"ce4bhc92rcd13ifvqetg","pricing_plan_id":"cebpf4jnsgd1na2vs0mg"},{"bike_id":"590e8cf5-f4cc-447b-8f61-f5a192d4582f","system_id":"levelo_inurba_marseille","lat":43.29716,"lon":5.40398,"is_reserved":false,"is_disabled":false,"rental_uris":{"android":"levelo://app?vid=590e8cf5-f4cc-447b-8f61-f5a192d4582f","ios":"levelo://app?vid=590e8cf5-f4cc-447b-8f61-f5a192d4582f"},"vehicle_type_id":"4","last_reported":1730146189,"current_range_meters":28800,"station_id":"","pricing_plan_id":"cebpf4jnsgd1na2vs0mg"},{"bike_id":"2cb25abe-a4bf-4a82-b770-8b7dc0456ae6","system_id":"levelo_inurba_marseille","lat":43.31259,"lon":5.40166,"is_reserved":false,"is_disabled":false,"rental_uris":{"android":"levelo://app?vid=2cb25abe-a4bf-4a82-b770-8b7dc0456ae6","ios":"levelo://app?vid=2cb25abe-a4bf-4a82-b770-8b7dc0456ae6"},"vehicle_type_id":"4","last_reported":1730146189,"current_range_meters":38800,"station_id":"ce4bh092rcd13ifvqd30","pricing_plan_id":"cebpf4jnsgd1na2vs0mg"},{"bike_id":"c9c64f10-9e6e-40dc-8b02-df3bf7a516ab","system_id":"levelo_inurba_marseille","lat":43.286178,"lon":5.350989,"is_reserved":false,"is_disabled":false,"rental_uris":{"android":"levelo://app?vid=c9c64f10-9e6e-40dc-8b02-df3bf7a516ab","ios":"levelo://app?vid=c9c64f10-9e6e-40dc-8b02-df3bf7a516ab"},"vehicle_type_id":"4","last_reported":1730146189,"current_range_meters":14000,"station_id":"ce4bhoh2rcd13ifvqh5g","pricing_plan_id":"cebpf4jnsgd1na2vs0mg"},{"bike_id":"6a6fe5b8-bf7c-4fdc-b9dd-e9328619a2a0","system_id":"levelo_inurba_marseille","lat":43.2416,"lon":5.36399,"is_reserved":false,"is_disabled":false,"rental_uris":{"android":"levelo://app?vid=6a6fe5b8-bf7c-4fdc-b9dd-e9328619a2a0","ios":"levelo://app?vid=6a6fe5b8-bf7c-4fdc-b9dd-e9328619a2a0"},"vehicle_type_id":"4","last_reported":1730146189,"current_range_meters":7200,"station_id":"cpo36qri1sfpv3e86is0","pricing_plan_id":"cebpf4jnsgd1na2vs0mg"},{"bike_id":"1b65bad1-6199-47b2-bf81-1031e5a2c2ec","system_id":"levelo_inurba_marseille","lat":43.28618,"lon":5.35109,"is_reserved":false,"is_disabled":false,"rental_uris":{"android":"levelo://app?vid=1b65bad1-6199-47b2-bf81-1031e5a2c2ec","ios":"levelo://app?vid=1b65bad1-6199-47b2-bf81-1031e5a2c2ec"},"vehicle_type_id":"4","last_reported":1730146189,"current_range_meters":38800,"station_id":"ce4bhch2rcd13ifvqeug","pricing_plan_id":"cebpf4jnsgd1na2vs0mg"},{"bike_id":"a6afd1a1-c845-4857-ae11-698c34990530","system_id":"levelo_inurba_marseille","lat":43.30887,"lon":5.39635,"is_reserved":false,"is_disabled":false,"rental_uris":{"android":"levelo://app?vid=a6afd1a1-c845-4857-ae11-698c34990530","ios":"levelo://app?vid=a6afd1a1-c845-4857-ae11-698c34990530"},"vehicle_type_id":"4","last_reported":1730146189,"current_range_meters":38800,"station_id":"ce4bh012rcd13ifvqcv0","pricing_plan_id":"cebpf4jnsgd1na2vs0mg"},{"bike_id":"0bbdf646-65cf-4b5f-98cb-46a8b961e208","system_id":"levelo_inurba_marseille","lat":43.31083,"lon":5.42432,"is_reserved":false,"is_disabled":false,"rental_uris":{"android":"levelo://app?vid=0bbdf646-65cf-4b5f-98cb-46a8b961e208","ios":"levelo://app?vid=0bbdf646-65cf-4b5f-98cb-46a8b961e208"},"vehicle_type_id":"4","last_reported":1730146189,"current_range_meters":38800,"station_id":"ce4bhp92rcd13ifvqhag","pricing_plan_id":"cebpf4jnsgd1na2vs0mg"},{"bike_id":"304d4dcd-2068-450b-aae4-089ade6ec320","system_id":"levelo_inurba_marseille","lat":43.2718,"lon":5.4099,"is_reserved":false,"is_disabled":false,"rental_uris":{"android":"levelo://app?vid=304d4dcd-2068-450b-aae4-089ade6ec320","ios":"levelo://app?vid=304d4dcd-2068-450b-aae4-089ade6ec320"},"vehicle_type_id":"4","last_reported":1730146189,"current_range_meters":6000,"station_id":"ce4bhl12rcd13ifvqgf0","pricing_plan_id":"cebpf4jnsgd1na2vs0mg"},{"bike_id":"a3c986df-8bb4-4aa0-9365-ff741272c0c9","system_id":"levelo_inurba_marseille","lat":43.32292,"lon":5.38264,"is_reserved":false,"is_disabled":false,"rental_uris":{"android":"levelo://app?vid=a3c986df-8bb4-4aa0-9365-ff741272c0c9","ios":"levelo://app?vid=a3c986df-8bb4-4aa0-9365-ff741272c0c9"},"vehicle_type_id":"4","last_reported":1730146189,"current_range_meters":19600,"station_id":"ce4bhr12rcd13ifvqhqg","pricing_plan_id":"cebpf4jnsgd1na2vs0mg"},{"bike_id":"266575d8-09f9-4cd7-833a-204d10e502df","system_id":"levelo_inurba_marseille","lat":43.32105,"lon":5.36778,"is_reserved":false,"is_disabled":false,"rental_uris":{"android":"levelo://app?vid=266575d8-09f9-4cd7-833a-204d10e502df","ios":"levelo://app?vid=266575d8-09f9-4cd7-833a-204d10e502df"},"vehicle_type_id":"4","last_reported":1730146189,"current_range_meters":29600,"station_id":"ce4bhrh2rcd13ifvqhug","pricing_plan_id":"cebpf4jnsgd1na2vs0mg"},