{"last_updated":1777363524,"ttl":60,"version":"2.2","data":{"bikes":[{"bike_id":"91e4eed8-7aa0-4ca6-bc8b-33ffc5693469","system_id":"levelo_inurba_marseille","lat":43.31334,"lon":5.37908,"is_reserved":false,"is_disabled":false,"rental_uris":{"android":"levelo://app?vid=91e4eed8-7aa0-4ca6-bc8b-33ffc5693469","ios":"levelo://app?vid=91e4eed8-7aa0-4ca6-bc8b-33ffc5693469"},"vehicle_type_id":"4","last_reported":1777363525,"current_range_meters":2800,"station_id":"","pricing_plan_id":"cebpf4jnsgd1na2vs0mg"},{"bike_id":"ca2342be-515c-4616-bb9f-ce0c4059af5b","system_id":"levelo_inurba_marseille","lat":43.28719,"lon":5.37943,"is_reserved":false,"is_disabled":false,"rental_uris":{"android":"levelo://app?vid=ca2342be-515c-4616-bb9f-ce0c4059af5b","ios":"levelo://app?vid=ca2342be-515c-4616-bb9f-ce0c4059af5b"},"vehicle_type_id":"4","last_reported":1777363525,"current_range_meters":2800,"station_id":"ce4bh9p2rcd13ifvqec0","pricing_plan_id":"cebpf4jnsgd1na2vs0mg"},{"bike_id":"86a8665b-3093-420b-b9cb-59598a2de914","system_id":"levelo_inurba_marseille","lat":43.24468,"lon":5.42539,"is_reserved":false,"is_disabled":true,"rental_uris":{"android":"levelo://app?vid=86a8665b-3093-420b-b9cb-59598a2de914","ios":"levelo://app?vid=86a8665b-3093-420b-b9cb-59598a2de914"},"vehicle_type_id":"4","last_reported":1777363525,"current_range_meters":2800,"station_id":"st_d4a3vfp97mjs738cd8kg","pricing_plan_id":"cebpf4jnsgd1na2vs0mg"},{"bike_id":"ad26b8dc-edee-444c-8fc3-cb83169b331a","system_id":"levelo_inurba_marseille","lat":43.28152,"lon":5.42648,"is_reserved":false,"is_disabled":false,"rental_uris":{"android":"levelo://app?vid=ad26b8dc-edee-444c-8fc3-cb83169b331a","ios":"levelo://app?vid=ad26b8dc-edee-444c-8fc3-cb83169b331a"},"vehicle_type_id":"4","last_reported":1777363525,"current_range_meters":2800,"station_id":"ce4bhnh2rcd13ifvqgug","pricing_plan_id":"cebpf4jnsgd1na2vs0mg"},{"bike_id":"6d476bab-61da-454e-92e1-b901f49561e4","system_id":"levelo_inurba_marseille","lat":43.2763,"lon":5.36104,"is_reserved":false,"is_disabled":false,"rental_uris":{"android":"levelo://app?vid=6d476bab-61da-454e-92e1-b901f49561e4","ios":"levelo://app?vid=6d476bab-61da-454e-92e1-b901f49561e4"},"vehicle_type_id":"4","last_reported":1777363525,"current_range_meters":2800,"station_id":"ce4bgj92rcd13ifvqbe0","pricing_plan_id":"cebpf4jnsgd1na2vs0mg"},{"bike_id":"28d079a5-cf7c-4140-9847-eb9e7773f4a9","system_id":"levelo_inurba_marseille","lat":43.29809,"lon":5.38107,"is_reserved":false,"is_disabled":false,"rental_uris":{"android":"levelo://app?vid=28d079a5-cf7c-4140-9847-eb9e7773f4a9","ios":"levelo://app?vid=28d079a5-cf7c-4140-9847-eb9e7773f4a9"},"vehicle_type_id":"4","last_reported":1777363525,"current_range_meters":2800,"station_id":"ce4bgip2rcd13ifvqbb0","pricing_plan_id":"cebpf4jnsgd1na2vs0mg"},{"bike_id":"0f1d3d83-e8b0-4d8e-a0c9-aba4c5bbe46c","system_id":"levelo_inurba_marseille","lat":43.28941,"lon":5.36628,"is_reserved":false,"is_disabled":false,"rental_uris":{"android":"levelo://app?vid=0f1d3d83-e8b0-4d8e-a0c9-aba4c5bbe46c","ios":"levelo://app?vid=0f1d3d83-e8b0-4d8e-a0c9-aba4c5bbe46c"},"vehicle_type_id":"4","last_reported":1777363525,"current_range_meters":2800,"station_id":"ce4bhap2rcd13ifvqek0","pricing_plan_id":"cebpf4jnsgd1na2vs0mg"},{"bike_id":"7e17da21-de27-4e4b-9912-876e46bc8a36","system_id":"levelo_inurba_marseille","lat":43.32113,"lon":5.36769,"is_reserved":false,"is_disabled":false,"rental_uris":{"android":"levelo://app?vid=7e17da21-de27-4e4b-9912-876e46bc8a36","ios":"levelo://app?vid=7e17da21-de27-4e4b-9912-876e46bc8a36"},"vehicle_type_id":"4","last_reported":1777363525,"current_range_meters":3200,"station_id":"ce4bhrh2rcd13ifvqhug","pricing_plan_id":"cebpf4jnsgd1na2vs0mg"},{"bike_id":"b21748b2-fb24-4ee6-8e6a-c7c61264faec","system_id":"levelo_inurba_marseille","lat":43.27351,"lon":5.42191,"is_reserved":false,"is_disabled":false,"rental_uris":{"android":"levelo://app?vid=b21748b2-fb24-4ee6-8e6a-c7c61264faec","ios":"levelo://app?vid=b21748b2-fb24-4ee6-8e6a-c7c61264faec"},"vehicle_type_id":"4","last_reported":1777363525,"current_range_meters":3200,"station_id":"","pricing_plan_id":"cebpf4jnsgd1na2vs0mg"},{"bike_id":"435297f7-e5fc-4160-b337-aaa007c8b5cf","system_id":"levelo_inurba_marseille","lat":43.2847,"lon":5.48399,"is_reserved":false,"is_disabled":false,"rental_uris":{"android":"levelo://app?vid=435297f7-e5fc-4160-b337-aaa007c8b5cf","ios":"levelo://app?vid=435297f7-e5fc-4160-b337-aaa007c8b5cf"},"vehicle_type_id":"4","last_reported":1777363525,"current_range_meters":3200,"station_id":"","pricing_plan_id":"cebpf4jnsgd1na2vs0mg"},{"bike_id":"b4d9b492-c746-46ed-bddf-343e9b749f81","system_id":"levelo_inurba_marseille","lat":43.32746,"lon":5.36864,"is_reserved":false,"is_disabled":true,"rental_uris":{"android":"levelo://app?vid=b4d9b492-c746-46ed-bddf-343e9b749f81","ios":"levelo://app?vid=b4d9b492-c746-46ed-bddf-343e9b749f81"},"vehicle_type_id":"4","last_reported":1777363525,"current_range_meters":3200,"station_id":"","pricing_plan_id":"cebpf4jnsgd1na2vs0mg"},{"bike_id":"708cc4cd-01c8-498f-94e7-58fcdd3a6081","system_id":"levelo_inurba_marseille","lat":43.30311,"lon":5.36892,"is_reserved":false,"is_disabled":false,"rental_uris":{"android":"levelo://app?vid=708cc4cd-01c8-498f-94e7-58fcdd3a6081","ios":"levelo://app?vid=708cc4cd-01c8-498f-94e7-58fcdd3a6081"},"vehicle_type_id":"4","last_reported":1777363525,"current_range_meters":3200,"station_id":"ce4bgqh2rcd13ifvqc5g","pricing_plan_id":"cebpf4jnsgd1na2vs0mg"},{"bike_id":"092e285a-79f6-4d15-8df6-cd3d645612d7","system_id":"levelo_inurba_marseille","lat":43.29269,"lon":5.36842,"is_reserved":false,"is_disabled":false,"rental_uris":{"android":"levelo://app?vid=092e285a-79f6-4d15-8df6-cd3d645612d7","ios":"levelo://app?vid=092e285a-79f6-4d15-8df6-cd3d645612d7"},"vehicle_type_id":"4","last_reported":1777363525,"current_range_meters":3200,"station_id":"ce4bhbp2rcd13ifvqesg","pricing_plan_id":"cebpf4jnsgd1na2vs0mg"},{"bike_id":"f0c74e8b-a798-4dae-9ccd-9d533f5a173e","system_id":"levelo_inurba_marseille","lat":43.31183,"lon":5.3872,"is_reserved":false,"is_disabled":true,"rental_uris":{"android":"levelo://app?vid=f0c74e8b-a798-4dae-9ccd-9d533f5a173e","ios":"levelo://app?vid=f0c74e8b-a798-4dae-9ccd-9d533f5a173e"},"vehicle_type_id":"4","last_reported":1777363525,"current_range_meters":3200,"station_id":"ce4bgv12rcd13ifvqcp0","pricing_plan_id":"cebpf4jnsgd1na2vs0mg"},{"bike_id":"9dd4933c-657d-469e-a8bd-459efbf2a17f","system_id":"levelo_inurba_marseille","lat":43.30947,"lon":5.39026,"is_reserved":false,"is_disabled":false,"rental_uris":{"android":"levelo://app?vid=9dd4933c-657d-469e-a8bd-459efbf2a17f","ios":"levelo://app?vid=9dd4933c-657d-469e-a8bd-459efbf2a17f"},"vehicle_type_id":"4","last_reported":1777363525,"current_range_meters":3200,"station_id":"ce4bgup2rcd13ifvqco0","pricing_plan_id":"cebpf4jnsgd1na2vs0mg"},{"bike_id":"80b161cc-6e40-44e8-9454-73c670e460e2","system_id":"levelo_inurba_marseille","lat":43.28484,"lon":5.48395,"is_reserved":false,"is_disabled":false,"rental_uris":{"android":"levelo://app?vid=80b161cc-6e40-44e8-9454-73c670e460e2","ios":"levelo://app?vid=80b161cc-6e40-44e8-9454-73c670e460e2"},"vehicle_type_id":"4","last_reported":1777363525,"current_range_meters":3200,"station_id":"","pricing_plan_id":"cebpf4jnsgd1na2vs0mg"},{"bike_id":"3c6e83ba-662d-40f2-a863-69a1c726f9cc","system_id":"levelo_inurba_marseille","lat":43.3135,"lon":5.36711,"is_reserved":false,"is_disabled":false,"rental_uris":{"android":"levelo://app?vid=3c6e83ba-662d-40f2-a863-69a1c726f9cc","ios":"levelo://app?vid=3c6e83ba-662d-40f2-a863-69a1c726f9cc"},"vehicle_type_id":"4","last_reported":1777363525,"current_range_meters":3200,"station_id":"ce4bgr92rcd13ifvqc6g","pricing_plan_id":"cebpf4jnsgd1na2vs0mg"},{"bike_id":"91183ceb-9bba-439a-9d44-8227abb72885","system_id":"levelo_inurba_marseille","lat":43.29974,"lon":5.37161,"is_reserved":false,"is_disabled":false,"rental_uris":{"android":"levelo://app?vid=91183ceb-9bba-439a-9d44-8227abb72885","ios":"levelo://app?vid=91183ceb-9bba-439a-9d44-8227abb72885"},"vehicle_type_id":"4","last_reported":1777363525,"current_range_meters":3200,"station_id":"ce4bgr92rcd13ifvqc7g","pricing_plan_id":"cebpf4jnsgd1na2vs0mg"},{"bike_id":"fd8225ca-19c6-4e3b-add4-d7417684ee99","system_id":"levelo_inurba_marseille","lat":43.29043,"lon":5.39945,"is_reserved":false,"is_disabled":false,"rental_uris":{"android":"levelo://app?vid=fd8225ca-19c6-4e3b-add4-d7417684ee99","ios":"levelo://app?vid=fd8225ca-19c6-4e3b-add4-d7417684ee99"},"vehicle_type_id":"4","last_reported":1777363525,"current_range_meters":3600,"station_id":"ce4bh392rcd13ifvqdm0","pricing_plan_id":"cebpf4jnsgd1na2vs0mg"},{"bike_id":"95fcacf0-7086-4a79-916d-eb3549d744d3","system_id":"levelo_inurba_marseille","lat":43.337444,"lon":5.374475,"is_reserved":false,"is_disabled":false,"rental_uris":{"android":"levelo://app?vid=95fcacf0-7086-4a79-916d-eb3549d744d3","ios":"levelo://app?vid=95fcacf0-7086-4a79-916d-eb3549d744d3"},"vehicle_type_id":"4","last_reported":1777363525,"current_range_meters":3600,"station_id":"","pricing_plan_id":"cebpf4jnsgd1na2vs0mg"},{"bike_id":"a12bff03-7417-452f-8acb-a1d3c1fe28e2","system_id":"levelo_inurba_marseille","lat":43.33752,"lon":5.37473,"is_reserved":false,"is_disabled":true,"rental_uris":{"android":"levelo://app?vid=a12bff03-7417-452f-8acb-a1d3c1fe28e2","ios":"levelo://app?vid=a12bff03-7417-452f-8acb-a1d3c1fe28e2"},"vehicle_type_id":"4","last_reported":1777363525,"current_range_meters":3600,"station_id":"","pricing_plan_id":"cebpf4jnsgd1na2vs0mg"},{"bike_id":"781d8d3d-fabf-4ca2-9f47-16929586692d","system_id":"levelo_inurba_marseille","lat":43.27512,"lon":5.43413,"is_reserved":false,"is_disabled":false,"rental_uris":{"android":"levelo://app?vid=781d8d3d-fabf-4ca2-9f47-16929586692d","ios":"levelo://app?vid=781d8d3d-fabf-4ca2-9f47-16929586692d"},"vehicle_type_id":"4","last_reported":1777363525,"current_range_meters":3600,"station_id":"","pricing_plan_id":"cebpf4jnsgd1na2vs0mg"},{"bike_id":"1c267b42-3346-4d3e-b54a-e87588a5d7e7","system_id":"levelo_inurba_marseille","lat":43.2316,"lon":5.43697,"is_reserved":false,"is_disabled":false,"rental_uris":{"android":"levelo://app?vid=1c267b42-3346-4d3e-b54a-e87588a5d7e7","ios":"levelo://app?vid=1c267b42-3346-4d3e-b54a-e87588a5d7e7"},"vehicle_type_id":"4","last_reported":1777363525,"current_range_meters":3600,"station_id":"ce4bhmp2rcd13ifvqgog","pricing_plan_id":"cebpf4jnsgd1na2vs0mg"},{"bike_id":"127186fe-87fe-4347-8c14-2b72a4effa84","system_id":"levelo_inurba_marseille","lat":43.32102,"lon":5.36773,"is_reserved":false,"is_disabled":false,"rental_uris":{"android":"levelo://app?vid=127186fe-87fe-4347-8c14-2b72a4effa84","ios":"levelo://app?vid=127186fe-87fe-4347-8c14-2b72a4effa84"},"vehicle_type_id":"4","last_reported":1777363525,"current_range_meters":3600,"station_id":"ce4bhrh2rcd13ifvqhug","pricing_plan_id":"cebpf4jnsgd1na2vs0mg"},{"bike_id":"e43374dc-44fd-4feb-85bb-df4014260ccf","system_id":"levelo_inurba_marseille","lat":43.2973,"lon":5.37678,"is_reserved":false,"is_disabled":false,"rental_uris":{"android":"levelo://app?vid=e43374dc-44fd-4feb-85bb-df4014260ccf","ios":"levelo://app?vid=e43374dc-44fd-4feb-85bb-df4014260ccf"},"vehicle_type_id":"4","last_reported":1777363525,"current_range_meters":4000,"station_id":"ce4bgkh2rcd13ifvqbl0","pricing_plan_id":"cebpf4jnsgd1na2vs0mg"},{"bike_id":"6b9ceb44-f98b-4474-bf14-5e53602be7a5","system_id":"levelo_inurba_marseille","lat":43.33544,"lon":5.37467,"is_reserved":false,"is_disabled":false,"rental_uris":{"android":"levelo://app?vid=6b9ceb44-f98b-4474-bf14-5e53602be7a5","ios":"levelo://app?vid=6b9ceb44-f98b-4474-bf14-5e53602be7a5"},"vehicle_type_id":"4","last_reported":1777363525,"current_range_meters":4000,"station_id":"st_d46tts09ee8s73dlu43g","pricing_plan_id":"cebpf4jnsgd1na2vs0mg"},{"bike_id":"9b5baea0-8918-43c0-a144-c6619ff90e19","system_id":"levelo_inurba_marseille","lat":43.30149,"lon":5.38085,"is_reserved":false,"is_disabled":false,"rental_uris":{"android":"levelo://app?vid=9b5baea0-8918-43c0-a144-c6619ff90e19","ios":"levelo://app?vid=9b5baea0-8918-43c0-a144-c6619ff90e19"},"vehicle_type_id":"4","last_reported":1777363525,"current_range_meters":4000,"station_id":"ce4bgjp2rcd13ifvqbh0","pricing_plan_id":"cebpf4jnsgd1na2vs0mg"},{"bike_id":"1a7ec196-77b7-40d7-8def-74ef75b194f3","system_id":"levelo_inurba_marseille","lat":43.25581,"lon":5.38223,"is_reserved":false,"is_disabled":false,"rental_uris":{"android":"levelo://app?vid=1a7ec196-77b7-40d7-8def-74ef75b194f3","ios":"levelo://app?vid=1a7ec196-77b7-40d7-8def-74ef75b194f3"},"vehicle_type_id":"4","last_reported":1777363525,"current_range_meters":4000,"station_id":"ce4bhih2rcd13ifvqfs0","pricing_plan_id":"cebpf4jnsgd1na2vs0mg"},{"bike_id":"0e24658a-c8e3-4d58-91cb-8f30d574e813","system_id":"levelo_inurba_marseille","lat":43.32493,"lon":5.36555,"is_reserved":false,"is_disabled":false,"rental_uris":{"android":"levelo://app?vid=0e24658a-c8e3-4d58-91cb-8f30d574e813","ios":"levelo://app?vid=0e24658a-c8e3-4d58-91cb-8f30d574e813"},"vehicle_type_id":"4","last_reported":1777363525,"current_range_meters":4000,"station_id":"ce4bhs12rcd13ifvqhvg","pricing_plan_id":"cebpf4jnsgd1na2vs0mg"},{"bike_id":"bf755b54-9bfc-4f5a-b759-04d952b762e5","system_id":"levelo_inurba_marseille","lat":43.24398,"lon":5.37077,"is_reserved":false,"is_disabled":false,"rental_uris":{"android":"levelo://app?vid=bf755b54-9bfc-4f5a-b759-04d952b762e5","ios":"levelo://app?vid=bf755b54-9bfc-4f5a-b759-04d952b762e5"},"vehicle_type_id":"4","last_reported":1777363525,"current_range_meters":4000,"station_id":"ce4bhhh2rcd13ifvqfk0","pricing_plan_id":"cebpf4jnsgd1na2vs0mg"},{"bike_id":"202e6908-a300-4b14-9a01-5d0406eafcd5","system_id":"levelo_inurba_marseille","lat":43.31045,"lon":5.37029,"is_reserved":false,"is_disabled":false,"rental_uris":{"android":"levelo://app?vid=202e6908-a300-4b14-9a01-5d0406eafcd5","ios":"levelo://app?vid=202e6908-a300-4b14-9a01-5d0406eafcd5"},"vehicle_type_id":"4","last_reported":1777363525,"current_range_meters":4000,"station_id":"","pricing_plan_id":"cebpf4jnsgd1na2vs0mg"},{"bike_id":"a8394e99-c444-4e45-aa9d-488be5811ac1","system_id":"levelo_inurba_marseille","lat":43.25327,"lon":5.42179,"is_reserved":false,"is_disabled":false,"rental_uris":{"android":"levelo://app?vid=a8394e99-c444-4e45-aa9d-488be5811ac1","ios":"levelo://app?vid=a8394e99-c444-4e45-aa9d-488be5811ac1"},"vehicle_type_id":"4","last_reported":1777363525,"current_range_meters":4000,"station_id":"st_d2m65c5bi1j21697t3ng","pricing_plan_id":"cebpf4jnsgd1na2vs0mg"},{"bike_id":"87048b71-a564-4cde-b485-a2f98217d8ac","system_id":"levelo_inurba_marseille","lat":43.30532,"lon":5.36544,"is_reserved":false,"is_disabled":false,"rental_uris":{"android":"levelo://app?vid=87048b71-a564-4cde-b485-a2f98217d8ac","ios":"levelo://app?vid=87048b71-a564-4cde-b485-a2f98217d8ac"},"vehicle_type_id":"4","last_reported":1777363525,"current_range_meters":4000,"station_id":"ce4bgs12rcd13ifvqcag","pricing_plan_id":"cebpf4jnsgd1na2vs0mg"},{"bike_id":"6c0e44b5-b4c6-4989-a0ec-b3c6d257ac1d","system_id":"levelo_inurba_marseille","lat":43.33186,"lon":5.37828,"is_reserved":false,"is_disabled":false,"rental_uris":{"android":"levelo://app?vid=6c0e44b5-b4c6-4989-a0ec-b3c6d257ac1d","ios":"levelo://app?vid=6c0e44b5-b4c6-4989-a0ec-b3c6d257ac1d"},"vehicle_type_id":"4","last_reported":1777363525,"current_range_meters":4400,"station_id":"","pricing_plan_id":"cebpf4jnsgd1na2vs0mg"},{"bike_id":"8f13b61e-8a25-4927-8213-0f8d3090195b","system_id":"levelo_inurba_marseille","lat":43.28476,"lon":5.48404,"is_reserved":false,"is_disabled":false,"rental_uris":{"android":"levelo://app?vid=8f13b61e-8a25-4927-8213-0f8d3090195b","ios":"levelo://app?vid=8f13b61e-8a25-4927-8213-0f8d3090195b"},"vehicle_type_id":"4","last_reported":1777363525,"current_range_meters":4400,"station_id":"","pricing_plan_id":"cebpf4jnsgd1na2vs0mg"},{"bike_id":"ef8152fa-69a8-4897-80ba-16fd9081cac1","system_id":"levelo_inurba_marseille","lat":43.261921,"lon":5.374464,"is_reserved":false,"is_disabled":true,"rental_uris":{"android":"levelo://app?vid=ef8152fa-69a8-4897-80ba-16fd9081cac1","ios":"levelo://app?vid=ef8152fa-69a8-4897-80ba-16fd9081cac1"},"vehicle_type_id":"4","last_reported":1777363525,"current_range_meters":4400,"station_id":"ce4bhgp2rcd13ifvqfc0","pricing_plan_id":"cebpf4jnsgd1na2vs0mg"},{"bike_id":"9f77f16b-502d-4ac5-8568-c59f78ec076e","system_id":"levelo_inurba_marseille","lat":43.29048,"lon":5.37757,"is_reserved":false,"is_disabled":false,"rental_uris":{"android":"levelo://app?vid=9f77f16b-502d-4ac5-8568-c59f78ec076e","ios":"levelo://app?vid=9f77f16b-502d-4ac5-8568-c59f78ec076e"},"vehicle_type_id":"4","last_reported":1777363525,"current_range_meters":4400,"station_id":"","pricing_plan_id":"cebpf4jnsgd1na2vs0mg"},{"bike_id":"43ce5c52-9ccd-4e8b-8315-e8bf3322bdb0","system_id":"levelo_inurba_marseille","lat":43.29029,"lon":5.37555,"is_reserved":false,"is_disabled":false,"rental_uris":{"android":"levelo://app?vid=43ce5c52-9ccd-4e8b-8315-e8bf3322bdb0","ios":"levelo://app?vid=43ce5c52-9ccd-4e8b-8315-e8bf3322bdb0"},"vehicle_type_id":"4","last_reported":1777363525,"current_range_meters":4400,"station_id":"ce4bh692rcd13ifvqe90","pricing_plan_id":"cebpf4jnsgd1na2vs0mg"},{"bike_id":"2b8a961d-f16d-45f3-a2ff-a8ccbb59941d","system_id":"levelo_inurba_marseille","lat":43.23163,"lon":5.43723,"is_reserved":false,"is_disabled":false,"rental_uris":{"android":"levelo://app?vid=2b8a961d-f16d-45f3-a2ff-a8ccbb59941d","ios":"levelo://app?vid=2b8a961d-f16d-45f3-a2ff-a8ccbb59941d"},"vehicle_type_id":"4","last_reported":1777363525,"current_range_meters":4400,"station_id":"ce4bhmp2rcd13ifvqgog","pricing_plan_id":"cebpf4jnsgd1na2vs0mg"},{"bike_id":"ba232b12-0530-4684-bdcc-232e54b7d12b","system_id":"levelo_inurba_marseille","lat":43.25003,"lon":5.38933,"is_reserved":false,"is_disabled":false,"rental_uris":{"android":"levelo://app?vid=ba232b12-0530-4684-bdcc-232e54b7d12b","ios":"levelo://app?vid=ba232b12-0530-4684-bdcc-232e54b7d12b"},"vehicle_type_id":"4","last_reported":1777363525,"current_range_meters":4400,"station_id":"ce4bhgp2rcd13ifvqfd0","pricing_plan_id":"cebpf4jnsgd1na2vs0mg"},{"bike_id":"2e013045-b635-4629-a87d-995ec1628a85","system_id":"levelo_inurba_marseille","lat":43.321,"lon":5.36763,"is_reserved":false,"is_disabled":false,"rental_uris":{"android":"levelo://app?vid=2e013045-b635-4629-a87d-995ec1628a85","ios":"levelo://app?vid=2e013045-b635-4629-a87d-995ec1628a85"},"vehicle_type_id":"4","last_reported":1777363525,"current_range_meters":4400,"station_id":"ce4bhrh2rcd13ifvqhug","pricing_plan_id":"cebpf4jnsgd1na2vs0mg"},{"bike_id":"1576122b-83f8-45fc-9bb9-cdce552914cf","system_id":"levelo_inurba_marseille","lat":43.30258,"lon":5.40052,"is_reserved":false,"is_disabled":false,"rental_uris":{"android":"levelo://app?vid=1576122b-83f8-45fc-9bb9-cdce552914cf","ios":"levelo://app?vid=1576122b-83f8-45fc-9bb9-cdce552914cf"},"vehicle_type_id":"4","last_reported":1777363525,"current_range_meters":4400,"station_id":"ce4bgvh2rcd13ifvqcs0","pricing_plan_id":"cebpf4jnsgd1na2vs0mg"},{"bike_id":"16aa0379-90da-413e-9ad5-138f4fff1a8a","system_id":"levelo_inurba_marseille","lat":43.241796,"lon":5.397319,"is_reserved":false,"is_disabled":false,"rental_uris":{"android":"levelo://app?vid=16aa0379-90da-413e-9ad5-138f4fff1a8a","ios":"levelo://app?vid=16aa0379-90da-413e-9ad5-138f4fff1a8a"},"vehicle_type_id":"4","last_reported":1777363525,"current_range_meters":4400,"station_id":"ce4bhn12rcd13ifvqgpg","pricing_plan_id":"cebpf4jnsgd1na2vs0mg"},{"bike_id":"978a8e33-a2d2-4a7f-a5ca-02c98d7caef3","system_id":"levelo_inurba_marseille","lat":43.26928,"lon":5.38914,"is_reserved":false,"is_disabled":false,"rental_uris":{"android":"levelo://app?vid=978a8e33-a2d2-4a7f-a5ca-02c98d7caef3","ios":"levelo://app?vid=978a8e33-a2d2-4a7f-a5ca-02c98d7caef3"},"vehicle_type_id":"4","last_reported":1777363525,"current_range_meters":4400,"station_id":"ce4bhhh2rcd13ifvqfl0","pricing_plan_id":"cebpf4jnsgd1na2vs0mg"},{"bike_id":"a02a899b-5b27-4d3f-99ba-4caf1e4bedb5","system_id":"levelo_inurba_marseille","lat":43.32488,"lon":5.36567,"is_reserved":false,"is_disabled":false,"rental_uris":{"android":"levelo://app?vid=a02a899b-5b27-4d3f-99ba-4caf1e4bedb5","ios":"levelo://app?vid=a02a899b-5b27-4d3f-99ba-4caf1e4bedb5"},"vehicle_type_id":"4","last_reported":1777363525,"current_range_meters":4800,"station_id":"ce4bhs12rcd13ifvqhvg","pricing_plan_id":"cebpf4jnsgd1na2vs0mg"},{"bike_id":"a090f956-9e56-42fc-bdb4-afdadde398dc","system_id":"levelo_inurba_marseille","lat":43.27491,"lon":5.42448,"is_reserved":false,"is_disabled":false,"rental_uris":{"android":"levelo://app?vid=a090f956-9e56-42fc-bdb4-afdadde398dc","ios":"levelo://app?vid=a090f956-9e56-42fc-bdb4-afdadde398dc"},"vehicle_type_id":"4","last_reported":1777363525,"current_range_meters":4800,"station_id":"ce4bhn92rcd13ifvqgrg","pricing_plan_id":"cebpf4jnsgd1na2vs0mg"},{"bike_id":"d91a79ea-757d-4fb0-822d-efffb3df9a9a","system_id":"levelo_inurba_marseille","lat":43.24631,"lon":5.389,"is_reserved":false,"is_disabled":false,"rental_uris":{"android":"levelo://app?vid=d91a79ea-757d-4fb0-822d-efffb3df9a9a","ios":"levelo://app?vid=d91a79ea-757d-4fb0-822d-efffb3df9a9a"},"vehicle_type_id":"4","last_reported":1777363525,"current_range_meters":4800,"station_id":"ce4bhg12rcd13ifvqf60","pricing_plan_id":"cebpf4jnsgd1na2vs0mg"},{"bike_id":"5cbef2a7-8e83-4097-9949-5967c82353a9","system_id":"levelo_inurba_marseille","lat":43.32496,"lon":5.38294,"is_reserved":false,"is_disabled":false,"rental_uris":{"android":"levelo://app?vid=5cbef2a7-8e83-4097-9949-5967c82353a9","ios":"levelo://app?vid=5cbef2a7-8e83-4097-9949-5967c82353a9"},"vehicle_type_id":"4","last_reported":1777363525,"current_range_meters":4800,"station_id":"st_d4asgbiv49dc73anf9m0","pricing_plan_id":"cebpf4jnsgd1na2vs0mg"},{"bike_id":"b1cea831-5991-44e8-a8f3-6dd3d79c393d","system_id":"levelo_inurba_marseille","lat":43.30133,"lon":5.37397,"is_reserved":false,"is_disabled":false,"rental_uris":{"android":"levelo://app?vid=b1cea831-5991-44e8-a8f3-6dd3d79c393d","ios":"levelo://app?vid=b1cea831-5991-44e8-a8f3-6dd3d79c393d"},"vehicle_type_id":"4","last_reported":1777363525,"current_range_meters":4800,"station_id":"ce4bgs92rcd13ifvqcc0","pricing_plan_id":"cebpf4jnsgd1na2vs0mg"},{"bike_id":"8e18a4ee-5453-4edd-9ccf-093d4d754d6c","system_id":"levelo_inurba_marseille","lat":43.28978,"lon":5.37838,"is_reserved":false,"is_disabled":false,"rental_uris":{"android":"levelo://app?vid=8e18a4ee-5453-4edd-9ccf-093d4d754d6c","ios":"levelo://app?vid=8e18a4ee-5453-4edd-9ccf-093d4d754d6c"},"vehicle_type_id":"4","last_reported":1777363525,"current_range_meters":4800,"station_id":"ce4bh9p2rcd13ifvqed0","pricing_plan_id":"cebpf4jnsgd1na2vs0mg"},{"bike_id":"b06f20e2-7b40-4e46-b06e-55bc14e04088","system_id":"levelo_inurba_marseille","lat":43.24488,"lon":5.42713,"is_reserved":false,"is_disabled":false,"rental_uris":{"android":"levelo://app?vid=b06f20e2-7b40-4e46-b06e-55bc14e04088","ios":"levelo://app?vid=b06f20e2-7b40-4e46-b06e-55bc14e04088"},"vehicle_type_id":"4","last_reported":1777363525,"current_range_meters":4800,"station_id":"","pricing_plan_id":"cebpf4jnsgd1na2vs0mg"},{"bike_id":"77f1be50-d55c-4753-b02a-0b5e7117e7c7","system_id":"levelo_inurba_marseille","lat":43.31305,"lon":5.38194,"is_reserved":false,"is_disabled":false,"rental_uris":{"android":"levelo://app?vid=77f1be50-d55c-4753-b02a-0b5e7117e7c7","ios":"levelo://app?vid=77f1be50-d55c-4753-b02a-0b5e7117e7c7"},"vehicle_type_id":"4","last_reported":1777363525,"current_range_meters":4800,"station_id":"","pricing_plan_id":"cebpf4jnsgd1na2vs0mg"},{"bike_id":"7691273e-33d0-40e7-9122-ebb011af1b54","system_id":"levelo_inurba_marseille","lat":43.24663,"lon":5.38163,"is_reserved":false,"is_disabled":false,"rental_uris":{"android":"levelo://app?vid=7691273e-33d0-40e7-9122-ebb011af1b54","ios":"levelo://app?vid=7691273e-33d0-40e7-9122-ebb011af1b54"},"vehicle_type_id":"4","last_reported":1777363525,"current_range_meters":4800,"station_id":"ce4bhih2rcd13ifvqfr0","pricing_plan_id":"cebpf4jnsgd1na2vs0mg"},{"bike_id":"6b8549bf-30d2-490f-8f61-d9ca43e4d06c","system_id":"levelo_inurba_marseille","lat":43.27021,"lon":5.40244,"is_reserved":false,"is_disabled":false,"rental_uris":{"android":"levelo://app?vid=6b8549bf-30d2-490f-8f61-d9ca43e4d06c","ios":"levelo://app?vid=6b8549bf-30d2-490f-8f61-d9ca43e4d06c"},"vehicle_type_id":"4","last_reported":1777363525,"current_range_meters":4800,"station_id":"ce4bhk92rcd13ifvqgc0","pricing_plan_id":"cebpf4jnsgd1na2vs0mg"},{"bike_id":"87cc790b-60cd-436a-82f4-3796eb0e0cc9","system_id":"levelo_inurba_marseille","lat":43.29182,"lon":5.43591,"is_reserved":false,"is_disabled":false,"rental_uris":{"android":"levelo://app?vid=87cc790b-60cd-436a-82f4-3796eb0e0cc9","ios":"levelo://app?vid=87cc790b-60cd-436a-82f4-3796eb0e0cc9"},"vehicle_type_id":"4","last_reported":1777363525,"current_range_meters":4800,"station_id":"","pricing_plan_id":"cebpf4jnsgd1na2vs0mg"},{"bike_id":"7f28a9bd-4511-4c27-a4c4-9894e931dbc3","system_id":"levelo_inurba_marseille","lat":43.30188,"lon":5.36616,"is_reserved":false,"is_disabled":false,"rental_uris":{"android":"levelo://app?vid=7f28a9bd-4511-4c27-a4c4-9894e931dbc3","ios":"levelo://app?vid=7f28a9bd-4511-4c27-a4c4-9894e931dbc3"},"vehicle_type_id":"4","last_reported":1777363525,"current_range_meters":4800,"station_id":"ce4bgrh2rcd13ifvqc8g","pricing_plan_id":"cebpf4jnsgd1na2vs0mg"},{"bike_id":"35fc42da-8bbc-455a-884d-2a590f9f58c1","system_id":"levelo_inurba_marseille","lat":43.26176,"lon":5.40489,"is_reserved":false,"is_disabled":false,"rental_uris":{"android":"levelo://app?vid=35fc42da-8bbc-455a-884d-2a590f9f58c1","ios":"levelo://app?vid=35fc42da-8bbc-455a-884d-2a590f9f58c1"},"vehicle_type_id":"4","last_reported":1777363525,"current_range_meters":4800,"station_id":"ce4bhmh2rcd13ifvqgmg","pricing_plan_id":"cebpf4jnsgd1na2vs0mg"},{"bike_id":"d20ccda7-29ef-4aa5-bbf2-63f1e6c3dcf5","system_id":"levelo_inurba_marseille","lat":43.32086,"lon":5.36774,"is_reserved":false,"is_disabled":false,"rental_uris":{"android":"levelo://app?vid=d20ccda7-29ef-4aa5-bbf2-63f1e6c3dcf5","ios":"levelo://app?vid=d20ccda7-29ef-4aa5-bbf2-63f1e6c3dcf5"},"vehicle_type_id":"4","last_reported":1777363525,"current_range_meters":4800,"station_id":"ce4bhrh2rcd13ifvqhug","pricing_plan_id":"cebpf4jnsgd1na2vs0mg"},{"bike_id":"e8aaa3c0-a7e7-489e-9492-f9159477f028","system_id":"levelo_inurba_marseille","lat":43.2893,"lon":5.36629,"is_reserved":false,"is_disabled":false,"rental_uris":{"android":"levelo://app?vid=e8aaa3c0-a7e7-489e-9492-f9159477f028","ios":"levelo://app?vid=e8aaa3c0-a7e7-489e-9492-f9159477f028"},"vehicle_type_id":"4","last_reported":1777363525,"current_range_meters":5600,"station_id":"ce4bhap2rcd13ifvqek0","pricing_plan_id":"cebpf4jnsgd1na2vs0mg"},{"bike_id":"ad40a6e0-1825-4608-890e-5faf961bf270","system_id":"levelo_inurba_marseille","lat":43.31388,"lon":5.36669,"is_reserved":false,"is_disabled":false,"rental_uris":{"android":"levelo://app?vid=ad40a6e0-1825-4608-890e-5faf961bf270","ios":"levelo://app?vid=ad40a6e0-1825-4608-890e-5faf961bf270"},"vehicle_type_id":"4","last_reported":1777363525,"current_range_meters":5600,"station_id":"","pricing_plan_id":"cebpf4jnsgd1na2vs0mg"},{"bike_id":"4a0847e5-9845-4c99-af21-02a5f36a791f","system_id":"levelo_inurba_marseille","lat":43.2558,"lon":5.38236,"is_reserved":false,"is_disabled":false,"rental_uris":{"android":"levelo://app?vid=4a0847e5-9845-4c99-af21-02a5f36a791f","ios":"levelo://app?vid=4a0847e5-9845-4c99-af21-02a5f36a791f"},"vehicle_type_id":"4","last_reported":1777363525,"current_range_meters":5600,"station_id":"ce4bhih2rcd13ifvqfs0","pricing_plan_id":"cebpf4jnsgd1na2vs0mg"},{"bike_id":"18fb2c29-003a-46d2-b6ad-810f8e8b2d12","system_id":"levelo_inurba_marseille","lat":43.28992,"lon":5.35584,"is_reserved":false,"is_disabled":false,"rental_uris":{"android":"levelo://app?vid=18fb2c29-003a-46d2-b6ad-810f8e8b2d12","ios":"levelo://app?vid=18fb2c29-003a-46d2-b6ad-810f8e8b2d12"},"vehicle_type_id":"4","last_reported":1777363525,"current_range_meters":5600,"station_id":"ce4bhb92rcd13ifvqen0","pricing_plan_id":"cebpf4jnsgd1na2vs0mg"},{"bike_id":"8b1f5d0b-fff3-453f-8e5c-32008a7ce404","system_id":"levelo_inurba_marseille","lat":43.2694,"lon":5.40269,"is_reserved":false,"is_disabled":false,"rental_uris":{"android":"levelo://app?vid=8b1f5d0b-fff3-453f-8e5c-32008a7ce404","ios":"levelo://app?vid=8b1f5d0b-fff3-453f-8e5c-32008a7ce404"},"vehicle_type_id":"4","last_reported":1777363525,"current_range_meters":5600,"station_id":"cjm6bp8fraef2m0cb0m0","pricing_plan_id":"cebpf4jnsgd1na2vs0mg"},{"bike_id":"b504488c-4a5c-43df-b299-e768506d1980","system_id":"levelo_inurba_marseille","lat":43.29307,"lon":5.37146,"is_reserved":false,"is_disabled":true,"rental_uris":{"android":"levelo://app?vid=b504488c-4a5c-43df-b299-e768506d1980","ios":"levelo://app?vid=b504488c-4a5c-43df-b299-e768506d1980"},"vehicle_type_id":"4","last_reported":1777363525,"current_range_meters":5600,"station_id":"ce4bgh92rcd13ifvqb40","pricing_plan_id":"cebpf4jnsgd1na2vs0mg"},{"bike_id":"1b3df52f-2017-438d-9f0a-bde2d21cc330","system_id":"levelo_inurba_marseille","lat":43.2897,"lon":5.37839,"is_reserved":false,"is_disabled":false,"rental_uris":{"android":"levelo://app?vid=1b3df52f-2017-438d-9f0a-bde2d21cc330","ios":"levelo://app?vid=1b3df52f-2017-438d-9f0a-bde2d21cc330"},"vehicle_type_id":"4","last_reported":1777363525,"current_range_meters":5600,"station_id":"ce4bh9p2rcd13ifvqed0","pricing_plan_id":"cebpf4jnsgd1na2vs0mg"},{"bike_id":"248241ed-a435-44bc-81d7-733d752b62c6","system_id":"levelo_inurba_marseille","lat":43.31347,"lon":5.36714,"is_reserved":false,"is_disabled":false,"rental_uris":{"android":"levelo://app?vid=248241ed-a435-44bc-81d7-733d752b62c6","ios":"levelo://app?vid=248241ed-a435-44bc-81d7-733d752b62c6"},"vehicle_type_id":"4","last_reported":1777363525,"current_range_meters":5600,"station_id":"ce4bgr92rcd13ifvqc6g","pricing_plan_id":"cebpf4jnsgd1na2vs0mg"},{"bike_id":"2735ea2d-c96f-4ceb-aefb-b92c23c11e43","system_id":"levelo_inurba_marseille","lat":43.31123,"lon":5.37767,"is_reserved":false,"is_disabled":false,"rental_uris":{"android":"levelo://app?vid=2735ea2d-c96f-4ceb-aefb-b92c23c11e43","ios":"levelo://app?vid=2735ea2d-c96f-4ceb-aefb-b92c23c11e43"},"vehicle_type_id":"4","last_reported":1777363525,"current_range_meters":5600,"station_id":"ce4bgt92rcd13ifvqcg0","pricing_plan_id":"cebpf4jnsgd1na2vs0mg"},{"bike_id":"2e1487b5-ffbe-4174-a3cb-5f2ca03b60ce","system_id":"levelo_inurba_marseille","lat":43.28473,"lon":5.48398,"is_reserved":false,"is_disabled":false,"rental_uris":{"android":"levelo://app?vid=2e1487b5-ffbe-4174-a3cb-5f2ca03b60ce","ios":"levelo://app?vid=2e1487b5-ffbe-4174-a3cb-5f2ca03b60ce"},"vehicle_type_id":"4","last_reported":1777363525,"current_range_meters":5600,"station_id":"st_d3svhcjqgbts73a3dn0g","pricing_plan_id":"cebpf4jnsgd1na2vs0mg"},{"bike_id":"1d51c702-75ba-494d-89c9-6b8c4379e860","system_id":"levelo_inurba_marseille","lat":43.3119,"lon":5.37719,"is_reserved":false,"is_disabled":false,"rental_uris":{"android":"levelo://app?vid=1d51c702-75ba-494d-89c9-6b8c4379e860","ios":"levelo://app?vid=1d51c702-75ba-494d-89c9-6b8c4379e860"},"vehicle_type_id":"4","last_reported":1777363525,"current_range_meters":5600,"station_id":"","pricing_plan_id":"cebpf4jnsgd1na2vs0mg"},{"bike_id":"29c332ec-e485-47c8-b82b-79dd4cfd74bc","system_id":"levelo_inurba_marseille","lat":43.30945,"lon":5.39044,"is_reserved":false,"is_disabled":false,"rental_uris":{"android":"levelo://app?vid=29c332ec-e485-47c8-b82b-79dd4cfd74bc","ios":"levelo://app?vid=29c332ec-e485-47c8-b82b-79dd4cfd74bc"},"vehicle_type_id":"4","last_reported":1777363525,"current_range_meters":5600,"station_id":"ce4bgup2rcd13ifvqco0","pricing_plan_id":"cebpf4jnsgd1na2vs0mg"},{"bike_id":"7d24a3ee-0eb9-47a1-8904-33af700bdc69","system_id":"levelo_inurba_marseille","lat":43.28492,"lon":5.48407,"is_reserved":false,"is_disabled":false,"rental_uris":{"android":"levelo://app?vid=7d24a3ee-0eb9-47a1-8904-33af700bdc69","ios":"levelo://app?vid=7d24a3ee-0eb9-47a1-8904-33af700bdc69"},"vehicle_type_id":"4","last_reported":1777363525,"current_range_meters":6000,"station_id":"st_d3svhcjqgbts73a3dn0g","pricing_plan_id":"cebpf4jnsgd1na2vs0mg"},{"bike_id":"27cd71a7-0940-4415-a67f-21597fbf1cd9","system_id":"levelo_inurba_marseille","lat":43.34534,"lon":5.37787,"is_reserved":false,"is_disabled":true,"rental_uris":{"android":"levelo://app?vid=27cd71a7-0940-4415-a67f-21597fbf1cd9","ios":"levelo://app?vid=27cd71a7-0940-4415-a67f-21597fbf1cd9"},"vehicle_type_id":"4","last_reported":1777363525,"current_range_meters":6000,"station_id":"","pricing_plan_id":"cebpf4jnsgd1na2vs0mg"},{"bike_id":"f447fec5-f118-42c2-be2c-8ef32b6d20a2","system_id":"levelo_inurba_marseille","lat":43.25963,"lon":5.41685,"is_reserved":false,"is_disabled":false,"rental_uris":{"android":"levelo://app?vid=f447fec5-f118-42c2-be2c-8ef32b6d20a2","ios":"levelo://app?vid=f447fec5-f118-42c2-be2c-8ef32b6d20a2"},"vehicle_type_id":"4","last_reported":1777363525,"current_range_meters":6000,"station_id":"","pricing_plan_id":"cebpf4jnsgd1na2vs0mg"},{"bike_id":"14869599-ab60-4e86-8f2c-d0b35d29b95e","system_id":"levelo_inurba_marseille","lat":43.2563,"lon":5.4185,"is_reserved":false,"is_disabled":false,"rental_uris":{"android":"levelo://app?vid=14869599-ab60-4e86-8f2c-d0b35d29b95e","ios":"levelo://app?vid=14869599-ab60-4e86-8f2c-d0b35d29b95e"},"vehicle_type_id":"4","last_reported":1777363525,"current_range_meters":6000,"station_id":"","pricing_plan_id":"cebpf4jnsgd1na2vs0mg"},{"bike_id":"c57cd684-555b-441e-893b-2c046cfccd08","system_id":"levelo_inurba_marseille","lat":43.30558,"lon":5.36504,"is_reserved":false,"is_disabled":false,"rental_uris":{"android":"levelo://app?vid=c57cd684-555b-441e-893b-2c046cfccd08","ios":"levelo://app?vid=c57cd684-555b-441e-893b-2c046cfccd08"},"vehicle_type_id":"4","last_reported":1777363525,"current_range_meters":6000,"station_id":"ce4bgs12rcd13ifvqcag","pricing_plan_id":"cebpf4jnsgd1na2vs0mg"},{"bike_id":"879e92af-a08b-4550-983a-fe38aeb5346f","system_id":"levelo_inurba_marseille","lat":43.32462,"lon":5.36569,"is_reserved":false,"is_disabled":false,"rental_uris":{"android":"levelo://app?vid=879e92af-a08b-4550-983a-fe38aeb5346f","ios":"levelo://app?vid=879e92af-a08b-4550-983a-fe38aeb5346f"},"vehicle_type_id":"4","last_reported":1777363525,"current_range_meters":6000,"station_id":"ce4bhs12rcd13ifvqhvg","pricing_plan_id":"cebpf4jnsgd1na2vs0mg"},{"bike_id":"4d06cad1-2e4a-4159-99f3-38d6bcb9cc90","system_id":"levelo_inurba_marseille","lat":43.23195,"lon":5.35546,"is_reserved":false,"is_disabled":false,"rental_uris":{"android":"levelo://app?vid=4d06cad1-2e4a-4159-99f3-38d6bcb9cc90","ios":"levelo://app?vid=4d06cad1-2e4a-4159-99f3-38d6bcb9cc90"},"vehicle_type_id":"4","last_reported":1777363525,"current_range_meters":6000,"station_id":"ce4bhu92rcd13ifvqi70","pricing_plan_id":"cebpf4jnsgd1na2vs0mg"},{"bike_id":"dfd285f1-0a48-44f6-b0d7-8286d4981c32","system_id":"levelo_inurba_marseille","lat":43.25339,"lon":5.4217,"is_reserved":false,"is_disabled":false,"rental_uris":{"android":"levelo://app?vid=dfd285f1-0a48-44f6-b0d7-8286d4981c32","ios":"levelo://app?vid=dfd285f1-0a48-44f6-b0d7-8286d4981c32"},"vehicle_type_id":"4","last_reported":1777363525,"current_range_meters":6000,"station_id":"st_d2m65c5bi1j21697t3ng","pricing_plan_id":"cebpf4jnsgd1na2vs0mg"},{"bike_id":"9feac244-8f6d-4afc-bfad-32db7367a2cb","system_id":"levelo_inurba_marseille","lat":43.287,"lon":5.37934,"is_reserved":false,"is_disabled":false,"rental_uris":{"android":"levelo://app?vid=9feac244-8f6d-4afc-bfad-32db7367a2cb","ios":"levelo://app?vid=9feac244-8f6d-4afc-bfad-32db7367a2cb"},"vehicle_type_id":"4","last_reported":1777363525,"current_range_meters":6000,"station_id":"ce4bh9p2rcd13ifvqec0","pricing_plan_id":"cebpf4jnsgd1na2vs0mg"},{"bike_id":"e1d594d5-fcc7-4770-8033-43da6061edeb","system_id":"levelo_inurba_marseille","lat":43.29515,"lon":5.37509,"is_reserved":false,"is_disabled":false,"rental_uris":{"android":"levelo://app?vid=e1d594d5-fcc7-4770-8033-43da6061edeb","ios":"levelo://app?vid=e1d594d5-fcc7-4770-8033-43da6061edeb"},"vehicle_type_id":"4","last_reported":1777363525,"current_range_meters":6000,"station_id":"ce4bgkp2rcd13ifvqbmg","pricing_plan_id":"cebpf4jnsgd1na2vs0mg"},{"bike_id":"09a00132-8621-41d8-ac82-8d6cfa6a8c48","system_id":"levelo_inurba_marseille","lat":43.30123,"lon":5.43103,"is_reserved":false,"is_disabled":false,"rental_uris":{"android":"levelo://app?vid=09a00132-8621-41d8-ac82-8d6cfa6a8c48","ios":"levelo://app?vid=09a00132-8621-41d8-ac82-8d6cfa6a8c48"},"vehicle_type_id":"4","last_reported":1777363525,"current_range_meters":6000,"station_id":"st_d3js3co5814s73ftftug","pricing_plan_id":"cebpf4jnsgd1na2vs0mg"},{"bike_id":"c9b0c981-5af0-475e-a8b7-e303895704a4","system_id":"levelo_inurba_marseille","lat":43.25929,"lon":5.40874,"is_reserved":false,"is_disabled":false,"rental_uris":{"android":"levelo://app?vid=c9b0c981-5af0-475e-a8b7-e303895704a4","ios":"levelo://app?vid=c9b0c981-5af0-475e-a8b7-e303895704a4"},"vehicle_type_id":"4","last_reported":1777363525,"current_range_meters":6000,"station_id":"ce4bhm92rcd13ifvqglg","pricing_plan_id":"cebpf4jnsgd1na2vs0mg"},{"bike_id":"38f90a3e-50fc-4ca6-983b-164999be6a71","system_id":"levelo_inurba_marseille","lat":43.31168,"lon":5.38696,"is_reserved":false,"is_disabled":false,"rental_uris":{"android":"levelo://app?vid=38f90a3e-50fc-4ca6-983b-164999be6a71","ios":"levelo://app?vid=38f90a3e-50fc-4ca6-983b-164999be6a71"},"vehicle_type_id":"4","last_reported":1777363525,"current_range_meters":6000,"station_id":"ce4bgv12rcd13ifvqcp0","pricing_plan_id":"cebpf4jnsgd1na2vs0mg"},{"bike_id":"e4510fb5-7943-4cb5-b78e-ada425d86478","system_id":"levelo_inurba_marseille","lat":43.26569,"lon":5.39007,"is_reserved":false,"is_disabled":false,"rental_uris":{"android":"levelo://app?vid=e4510fb5-7943-4cb5-b78e-ada425d86478","ios":"levelo://app?vid=e4510fb5-7943-4cb5-b78e-ada425d86478"},"vehicle_type_id":"4","last_reported":1777363525,"current_range_meters":6000,"station_id":"ce4bhe12rcd13ifvqf30","pricing_plan_id":"cebpf4jnsgd1na2vs0mg"},{"bike_id":"025b0dd6-a6d6-4231-a248-4bf1d595788c","system_id":"levelo_inurba_marseille","lat":43.28697,"lon":5.46684,"is_reserved":false,"is_disabled":false,"rental_uris":{"android":"levelo://app?vid=025b0dd6-a6d6-4231-a248-4bf1d595788c","ios":"levelo://app?vid=025b0dd6-a6d6-4231-a248-4bf1d595788c"},"vehicle_type_id":"4","last_reported":1777363525,"current_range_meters":6000,"station_id":"st_d6tc3vkotcvc738tfjhg","pricing_plan_id":"cebpf4jnsgd1na2vs0mg"},{"bike_id":"1f3fc4fe-af8e-441d-913d-a251dad4a1e4","system_id":"levelo_inurba_marseille","lat":43.28413,"lon":5.34993,"is_reserved":false,"is_disabled":false,"rental_uris":{"android":"levelo://app?vid=1f3fc4fe-af8e-441d-913d-a251dad4a1e4","ios":"levelo://app?vid=1f3fc4fe-af8e-441d-913d-a251dad4a1e4"},"vehicle_type_id":"4","last_reported":1777363525,"current_range_meters":6400,"station_id":"ce4bhbh2rcd13ifvqepg","pricing_plan_id":"cebpf4jnsgd1na2vs0mg"},{"bike_id":"5367fafd-42a5-4c52-bd35-5d85953af91c","system_id":"levelo_inurba_marseille","lat":43.30731,"lon":5.37847,"is_reserved":false,"is_disabled":true,"rental_uris":{"android":"levelo://app?vid=5367fafd-42a5-4c52-bd35-5d85953af91c","ios":"levelo://app?vid=5367fafd-42a5-4c52-bd35-5d85953af91c"},"vehicle_type_id":"4","last_reported":1777363525,"current_range_meters":6400,"station_id":"","pricing_plan_id":"cebpf4jnsgd1na2vs0mg"},{"bike_id":"005251cc-a6ae-4683-bea5-f856f52fb5c1","system_id":"levelo_inurba_marseille","lat":43.23139,"lon":5.43722,"is_reserved":false,"is_disabled":false,"rental_uris":{"android":"levelo://app?vid=005251cc-a6ae-4683-bea5-f856f52fb5c1","ios":"levelo://app?vid=005251cc-a6ae-4683-bea5-f856f52fb5c1"},"vehicle_type_id":"4","last_reported":1777363525,"current_range_meters":6400,"station_id":"ce4bhmp2rcd13ifvqgog","pricing_plan_id":"cebpf4jnsgd1na2vs0mg"},{"bike_id":"8ac0bd5f-2f2a-4833-ada5-2e9beded5ddb","system_id":"levelo_inurba_marseille","lat":43.31503,"lon":5.39136,"is_reserved":false,"is_disabled":false,"rental_uris":{"android":"levelo://app?vid=8ac0bd5f-2f2a-4833-ada5-2e9beded5ddb","ios":"levelo://app?vid=8ac0bd5f-2f2a-4833-ada5-2e9beded5ddb"},"vehicle_type_id":"4","last_reported":1777363525,"current_range_meters":6400,"station_id":"","pricing_plan_id":"cebpf4jnsgd1na2vs0mg"},{"bike_id":"16d472fe-eb19-4acc-8aa8-94088ad37de6","system_id":"levelo_inurba_marseille","lat":43.35154,"lon":5.36414,"is_reserved":false,"is_disabled":false,"rental_uris":{"android":"levelo://app?vid=16d472fe-eb19-4acc-8aa8-94088ad37de6","ios":"levelo://app?vid=16d472fe-eb19-4acc-8aa8-94088ad37de6"},"vehicle_type_id":"4","last_reported":1777363525,"current_range_meters":6400,"station_id":"","pricing_plan_id":"cebpf4jnsgd1na2vs0mg"},{"bike_id":"74929e98-c2e0-43cc-b447-0901251d01cb","system_id":"levelo_inurba_marseille","lat":43.2549,"lon":5.37677,"is_reserved":false,"is_disabled":false,"rental_uris":{"android":"levelo://app?vid=74929e98-c2e0-43cc-b447-0901251d01cb","ios":"levelo://app?vid=74929e98-c2e0-43cc-b447-0901251d01cb"},"vehicle_type_id":"4","last_reported":1777363525,"current_range_meters":6400,"station_id":"ce4bhh12rcd13ifvqff0","pricing_plan_id":"cebpf4jnsgd1na2vs0mg"},{"bike_id":"e5cd69c7-9379-4379-93b8-62cf25a54177","system_id":"levelo_inurba_marseille","lat":43.337497,"lon":5.374492,"is_reserved":false,"is_disabled":false,"rental_uris":{"android":"levelo://app?vid=e5cd69c7-9379-4379-93b8-62cf25a54177","ios":"levelo://app?vid=e5cd69c7-9379-4379-93b8-62cf25a54177"},"vehicle_type_id":"4","last_reported":1777363525,"current_range_meters":6400,"station_id":"","pricing_plan_id":"cebpf4jnsgd1na2vs0mg"},{"bike_id":"e993cba1-46e4-4461-855f-3f2092ae4ac8","system_id":"levelo_inurba_marseille","lat":43.28437,"lon":5.34986,"is_reserved":false,"is_disabled":true,"rental_uris":{"android":"levelo://app?vid=e993cba1-46e4-4461-855f-3f2092ae4ac8","ios":"levelo://app?vid=e993cba1-46e4-4461-855f-3f2092ae4ac8"},"vehicle_type_id":"4","last_reported":1777363525,"current_range_meters":6400,"station_id":"ce4bhbh2rcd13ifvqepg","pricing_plan_id":"cebpf4jnsgd1na2vs0mg"},{"bike_id":"16e943be-0880-430f-b619-cbe210a96917","system_id":"levelo_inurba_marseille","lat":43.32492,"lon":5.38303,"is_reserved":false,"is_disabled":false,"rental_uris":{"android":"levelo://app?vid=16e943be-0880-430f-b619-cbe210a96917","ios":"levelo://app?vid=16e943be-0880-430f-b619-cbe210a96917"},"vehicle_type_id":"4","last_reported":1777363525,"current_range_meters":6400,"station_id":"st_d4asgbiv49dc73anf9m0","pricing_plan_id":"cebpf4jnsgd1na2vs0mg"},{"bike_id":"567aba8a-3140-4516-9bad-05a36f076896","system_id":"levelo_inurba_marseille","lat":43.27306,"lon":5.39098,"is_reserved":false,"is_disabled":false,"rental_uris":{"android":"levelo://app?vid=567aba8a-3140-4516-9bad-05a36f076896","ios":"levelo://app?vid=567aba8a-3140-4516-9bad-05a36f076896"},"vehicle_type_id":"4","last_reported":1777363525,"current_range_meters":6400,"station_id":"ce4bhgp2rcd13ifvqfe0","pricing_plan_id":"cebpf4jnsgd1na2vs0mg"},{"bike_id":"9daae5fc-029a-4575-8080-71abfd7ee94e","system_id":"levelo_inurba_marseille","lat":43.21186,"lon":5.35092,"is_reserved":false,"is_disabled":false,"rental_uris":{"android":"levelo://app?vid=9daae5fc-029a-4575-8080-71abfd7ee94e","ios":"levelo://app?vid=9daae5fc-029a-4575-8080-71abfd7ee94e"},"vehicle_type_id":"4","last_reported":1777363525,"current_range_meters":6400,"station_id":"st_cvj6sg6p6f1abm77japg","pricing_plan_id":"cebpf4jnsgd1na2vs0mg"},{"bike_id":"486a6bd7-6877-47a7-872d-b6d92138ce35","system_id":"levelo_inurba_marseille","lat":43.28155,"lon":5.4264,"is_reserved":false,"is_disabled":false,"rental_uris":{"android":"levelo://app?vid=486a6bd7-6877-47a7-872d-b6d92138ce35","ios":"levelo://app?vid=486a6bd7-6877-47a7-872d-b6d92138ce35"},"vehicle_type_id":"4","last_reported":1777363525,"current_range_meters":6400,"station_id":"ce4bhnh2rcd13ifvqgug","pricing_plan_id":"cebpf4jnsgd1na2vs0mg"},{"bike_id":"4a0537c9-355e-4f45-ab1d-f058f5e5c26f","system_id":"levelo_inurba_marseille","lat":43.28935,"lon":5.36639,"is_reserved":false,"is_disabled":false,"rental_uris":{"android":"levelo://app?vid=4a0537c9-355e-4f45-ab1d-f058f5e5c26f","ios":"levelo://app?vid=4a0537c9-355e-4f45-ab1d-f058f5e5c26f"},"vehicle_type_id":"4","last_reported":1777363525,"current_range_meters":6400,"station_id":"ce4bhap2rcd13ifvqek0","pricing_plan_id":"cebpf4jnsgd1na2vs0mg"},{"bike_id":"dc4f256b-dad1-4b0e-b0aa-70815278bacb","system_id":"levelo_inurba_marseille","lat":43.28967,"lon":5.39318,"is_reserved":false,"is_disabled":false,"rental_uris":{"android":"levelo://app?vid=dc4f256b-dad1-4b0e-b0aa-70815278bacb","ios":"levelo://app?vid=dc4f256b-dad1-4b0e-b0aa-70815278bacb"},"vehicle_type_id":"4","last_reported":1777363525,"current_range_meters":6400,"station_id":"","pricing_plan_id":"cebpf4jnsgd1na2vs0mg"},{"bike_id":"5966df63-83c6-4f34-ae95-a22fe39c03ab","system_id":"levelo_inurba_marseille","lat":43.2657,"lon":5.38985,"is_reserved":false,"is_disabled":true,"rental_uris":{"android":"levelo://app?vid=5966df63-83c6-4f34-ae95-a22fe39c03ab","ios":"levelo://app?vid=5966df63-83c6-4f34-ae95-a22fe39c03ab"},"vehicle_type_id":"4","last_reported":1777363525,"current_range_meters":6400,"station_id":"ce4bhe12rcd13ifvqf30","pricing_plan_id":"cebpf4jnsgd1na2vs0mg"},{"bike_id":"ca05d757-aee0-497c-918a-e06e06e3c564","system_id":"levelo_inurba_marseille","lat":43.30539,"lon":5.36679,"is_reserved":false,"is_disabled":false,"rental_uris":{"android":"levelo://app?vid=ca05d757-aee0-497c-918a-e06e06e3c564","ios":"levelo://app?vid=ca05d757-aee0-497c-918a-e06e06e3c564"},"vehicle_type_id":"4","last_reported":1777363525,"current_range_meters":6400,"station_id":"ce4bgrp2rcd13ifvqc9g","pricing_plan_id":"cebpf4jnsgd1na2vs0mg"},{"bike_id":"bd84e8de-f092-44b3-94d1-fa29ee530462","system_id":"levelo_inurba_marseille","lat":43.26927,"lon":5.38909,"is_reserved":false,"is_disabled":false,"rental_uris":{"android":"levelo://app?vid=bd84e8de-f092-44b3-94d1-fa29ee530462","ios":"levelo://app?vid=bd84e8de-f092-44b3-94d1-fa29ee530462"},"vehicle_type_id":"4","last_reported":1777363525,"current_range_meters":6800,"station_id":"ce4bhhh2rcd13ifvqfl0","pricing_plan_id":"cebpf4jnsgd1na2vs0mg"},{"bike_id":"9f2fc3f7-556e-4c37-a225-50c0d5d924cd","system_id":"levelo_inurba_marseille","lat":43.24635,"lon":5.43141,"is_reserved":false,"is_disabled":false,"rental_uris":{"android":"levelo://app?vid=9f2fc3f7-556e-4c37-a225-50c0d5d924cd","ios":"levelo://app?vid=9f2fc3f7-556e-4c37-a225-50c0d5d924cd"},"vehicle_type_id":"4","last_reported":1777363525,"current_range_meters":6800,"station_id":"st_d2m6c4gdas8pm72e190g","pricing_plan_id":"cebpf4jnsgd1na2vs0mg"},{"bike_id":"e593377f-0b04-468e-be39-461905e9f322","system_id":"levelo_inurba_marseille","lat":43.2465,"lon":5.38891,"is_reserved":false,"is_disabled":false,"rental_uris":{"android":"levelo://app?vid=e593377f-0b04-468e-be39-461905e9f322","ios":"levelo://app?vid=e593377f-0b04-468e-be39-461905e9f322"},"vehicle_type_id":"4","last_reported":1777363525,"current_range_meters":6800,"station_id":"ce4bhg12rcd13ifvqf60","pricing_plan_id":"cebpf4jnsgd1na2vs0mg"},{"bike_id":"55ffa9cb-0e63-4320-8c55-2d765a24cf5f","system_id":"levelo_inurba_marseille","lat":43.24165,"lon":5.364,"is_reserved":false,"is_disabled":false,"rental_uris":{"android":"levelo://app?vid=55ffa9cb-0e63-4320-8c55-2d765a24cf5f","ios":"levelo://app?vid=55ffa9cb-0e63-4320-8c55-2d765a24cf5f"},"vehicle_type_id":"4","last_reported":1777363525,"current_range_meters":6800,"station_id":"cpo36qri1sfpv3e86is0","pricing_plan_id":"cebpf4jnsgd1na2vs0mg"},{"bike_id":"b5088cd7-5e45-457a-ae9f-32446d67355c","system_id":"levelo_inurba_marseille","lat":43.32473,"lon":5.36577,"is_reserved":false,"is_disabled":false,"rental_uris":{"android":"levelo://app?vid=b5088cd7-5e45-457a-ae9f-32446d67355c","ios":"levelo://app?vid=b5088cd7-5e45-457a-ae9f-32446d67355c"},"vehicle_type_id":"4","last_reported":1777363525,"current_range_meters":6800,"station_id":"ce4bhs12rcd13ifvqhvg","pricing_plan_id":"cebpf4jnsgd1na2vs0mg"},{"bike_id":"611d54c8-ba91-44ce-b076-39102a0ba0ab","system_id":"levelo_inurba_marseille","lat":43.3134,"lon":5.36711,"is_reserved":false,"is_disabled":false,"rental_uris":{"android":"levelo://app?vid=611d54c8-ba91-44ce-b076-39102a0ba0ab","ios":"levelo://app?vid=611d54c8-ba91-44ce-b076-39102a0ba0ab"},"vehicle_type_id":"4","last_reported":1777363525,"current_range_meters":6800,"station_id":"ce4bgr92rcd13ifvqc6g","pricing_plan_id":"cebpf4jnsgd1na2vs0mg"},{"bike_id":"9e2682f2-afa5-44eb-83c3-396915ca22b6","system_id":"levelo_inurba_marseille","lat":43.27527,"lon":5.42447,"is_reserved":false,"is_disabled":false,"rental_uris":{"android":"levelo://app?vid=9e2682f2-afa5-44eb-83c3-396915ca22b6","ios":"levelo://app?vid=9e2682f2-afa5-44eb-83c3-396915ca22b6"},"vehicle_type_id":"4","last_reported":1777363525,"current_range_meters":6800,"station_id":"ce4bhn92rcd13ifvqgrg","pricing_plan_id":"cebpf4jnsgd1na2vs0mg"},{"bike_id":"a6cfd14b-75d2-4f9d-9367-3fa42b7b1d2c","system_id":"levelo_inurba_marseille","lat":43.32105,"lon":5.36784,"is_reserved":false,"is_disabled":false,"rental_uris":{"android":"levelo://app?vid=a6cfd14b-75d2-4f9d-9367-3fa42b7b1d2c","ios":"levelo://app?vid=a6cfd14b-75d2-4f9d-9367-3fa42b7b1d2c"},"vehicle_type_id":"4","last_reported":1777363525,"current_range_meters":6800,"station_id":"ce4bhrh2rcd13ifvqhug","pricing_plan_id":"cebpf4jnsgd1na2vs0mg"},{"bike_id":"b0fde660-1d65-4bd4-99e5-32f6a8a9a982","system_id":"levelo_inurba_marseille","lat":43.30471,"lon":5.37919,"is_reserved":false,"is_disabled":false,"rental_uris":{"android":"levelo://app?vid=b0fde660-1d65-4bd4-99e5-32f6a8a9a982","ios":"levelo://app?vid=b0fde660-1d65-4bd4-99e5-32f6a8a9a982"},"vehicle_type_id":"4","last_reported":1777363525,"current_range_meters":6800,"station_id":"ce4bgup2rcd13ifvqcn0","pricing_plan_id":"cebpf4jnsgd1na2vs0mg"},{"bike_id":"52773601-2a24-4a86-9c82-463ed16cf75e","system_id":"levelo_inurba_marseille","lat":43.26229,"lon":5.3875,"is_reserved":false,"is_disabled":false,"rental_uris":{"android":"levelo://app?vid=52773601-2a24-4a86-9c82-463ed16cf75e","ios":"levelo://app?vid=52773601-2a24-4a86-9c82-463ed16cf75e"},"vehicle_type_id":"4","last_reported":1777363525,"current_range_meters":6800,"station_id":"","pricing_plan_id":"cebpf4jnsgd1na2vs0mg"},{"bike_id":"40a9bc21-bd4a-4fff-84c4-6d865a2ae1bf","system_id":"levelo_inurba_marseille","lat":43.337444,"lon":5.374475,"is_reserved":false,"is_disabled":false,"rental_uris":{"android":"levelo://app?vid=40a9bc21-bd4a-4fff-84c4-6d865a2ae1bf","ios":"levelo://app?vid=40a9bc21-bd4a-4fff-84c4-6d865a2ae1bf"},"vehicle_type_id":"4","last_reported":1777363525,"current_range_meters":6800,"station_id":"","pricing_plan_id":"cebpf4jnsgd1na2vs0mg"},{"bike_id":"93b45866-f66d-4729-beed-fc668232a420","system_id":"levelo_inurba_marseille","lat":43.31282,"lon":5.4016,"is_reserved":false,"is_disabled":false,"rental_uris":{"android":"levelo://app?vid=93b45866-f66d-4729-beed-fc668232a420","ios":"levelo://app?vid=93b45866-f66d-4729-beed-fc668232a420"},"vehicle_type_id":"4","last_reported":1777363525,"current_range_meters":7200,"station_id":"ce4bh092rcd13ifvqd30","pricing_plan_id":"cebpf4jnsgd1na2vs0mg"},{"bike_id":"3462feaa-c9a2-441c-b3a1-f70058c367e6","system_id":"levelo_inurba_marseille","lat":43.24395,"lon":5.37067,"is_reserved":false,"is_disabled":false,"rental_uris":{"android":"levelo://app?vid=3462feaa-c9a2-441c-b3a1-f70058c367e6","ios":"levelo://app?vid=3462feaa-c9a2-441c-b3a1-f70058c367e6"},"vehicle_type_id":"4","last_reported":1777363525,"current_range_meters":7200,"station_id":"","pricing_plan_id":"cebpf4jnsgd1na2vs0mg"},{"bike_id":"f813821a-ce52-40b8-a9c3-302d9351356b","system_id":"levelo_inurba_marseille","lat":43.25806,"lon":5.38845,"is_reserved":false,"is_disabled":true,"rental_uris":{"android":"levelo://app?vid=f813821a-ce52-40b8-a9c3-302d9351356b","ios":"levelo://app?vid=f813821a-ce52-40b8-a9c3-302d9351356b"},"vehicle_type_id":"4","last_reported":1777363525,"current_range_meters":7200,"station_id":"","pricing_plan_id":"cebpf4jnsgd1na2vs0mg"},{"bike_id":"0d4dfb01-63c5-4be7-bdb0-5163c6b2578c","system_id":"levelo_inurba_marseille","lat":43.31895,"lon":5.36807,"is_reserved":false,"is_disabled":false,"rental_uris":{"android":"levelo://app?vid=0d4dfb01-63c5-4be7-bdb0-5163c6b2578c","ios":"levelo://app?vid=0d4dfb01-63c5-4be7-bdb0-5163c6b2578c"},"vehicle_type_id":"4","last_reported":1777363525,"current_range_meters":7200,"station_id":"st_d6o2h0d0559c73evc1b0","pricing_plan_id":"cebpf4jnsgd1na2vs0mg"},{"bike_id":"f34173ba-e522-42fc-89f1-ad871c6b29c4","system_id":"levelo_inurba_marseille","lat":43.29478,"lon":5.43314,"is_reserved":false,"is_disabled":false,"rental_uris":{"android":"levelo://app?vid=f34173ba-e522-42fc-89f1-ad871c6b29c4","ios":"levelo://app?vid=f34173ba-e522-42fc-89f1-ad871c6b29c4"},"vehicle_type_id":"4","last_reported":1777363525,"current_range_meters":7200,"station_id":"st_d3j5ugp08ojc73fj9d10","pricing_plan_id":"cebpf4jnsgd1na2vs0mg"},{"bike_id":"02ebb0f5-8793-4f8a-8f6e-65aad3bcbf41","system_id":"levelo_inurba_marseille","lat":43.30933,"lon":5.39027,"is_reserved":false,"is_disabled":false,"rental_uris":{"android":"levelo://app?vid=02ebb0f5-8793-4f8a-8f6e-65aad3bcbf41","ios":"levelo://app?vid=02ebb0f5-8793-4f8a-8f6e-65aad3bcbf41"},"vehicle_type_id":"4","last_reported":1777363525,"current_range_meters":7200,"station_id":"ce4bgup2rcd13ifvqco0","pricing_plan_id":"cebpf4jnsgd1na2vs0mg"},{"bike_id":"e2f4f5b7-b06b-4898-bad0-3e342eb52875","system_id":"levelo_inurba_marseille","lat":43.2897,"lon":5.3783,"is_reserved":false,"is_disabled":false,"rental_uris":{"android":"levelo://app?vid=e2f4f5b7-b06b-4898-bad0-3e342eb52875","ios":"levelo://app?vid=e2f4f5b7-b06b-4898-bad0-3e342eb52875"},"vehicle_type_id":"4","last_reported":1777363525,"current_range_meters":7200,"station_id":"ce4bh9p2rcd13ifvqed0","pricing_plan_id":"cebpf4jnsgd1na2vs0mg"},{"bike_id":"f9f92c5c-5f51-4e1c-a4a4-da02d7396e3a","system_id":"levelo_inurba_marseille","lat":43.21748,"lon":5.34607,"is_reserved":false,"is_disabled":false,"rental_uris":{"android":"levelo://app?vid=f9f92c5c-5f51-4e1c-a4a4-da02d7396e3a","ios":"levelo://app?vid=f9f92c5c-5f51-4e1c-a4a4-da02d7396e3a"},"vehicle_type_id":"4","last_reported":1777363525,"current_range_meters":7200,"station_id":"st_cvj6r9ubvosntc0bgbag","pricing_plan_id":"cebpf4jnsgd1na2vs0mg"},{"bike_id":"2b2662f1-d28b-44f2-b2c8-61c6569e4c3d","system_id":"levelo_inurba_marseille","lat":43.29268,"lon":5.4014,"is_reserved":false,"is_disabled":true,"rental_uris":{"android":"levelo://app?vid=2b2662f1-d28b-44f2-b2c8-61c6569e4c3d","ios":"levelo://app?vid=2b2662f1-d28b-44f2-b2c8-61c6569e4c3d"},"vehicle_type_id":"4","last_reported":1777363525,"current_range_meters":7200,"station_id":"ce4bh312rcd13ifvqdk0","pricing_plan_id":"cebpf4jnsgd1na2vs0mg"},{"bike_id":"e45585c9-772e-429d-bd94-a336f8b49733","system_id":"levelo_inurba_marseille","lat":43.30144,"lon":5.37411,"is_reserved":false,"is_disabled":false,"rental_uris":{"android":"levelo://app?vid=e45585c9-772e-429d-bd94-a336f8b49733","ios":"levelo://app?vid=e45585c9-772e-429d-bd94-a336f8b49733"},"vehicle_type_id":"4","last_reported":1777363525,"current_range_meters":7200,"station_id":"ce4bgs92rcd13ifvqcc0","pricing_plan_id":"cebpf4jnsgd1na2vs0mg"},{"bike_id":"afde96ac-1493-4085-af72-e5da568a87fd","system_id":"levelo_inurba_marseille","lat":43.28463,"lon":5.48406,"is_reserved":false,"is_disabled":false,"rental_uris":{"android":"levelo://app?vid=afde96ac-1493-4085-af72-e5da568a87fd","ios":"levelo://app?vid=afde96ac-1493-4085-af72-e5da568a87fd"},"vehicle_type_id":"4","last_reported":1777363525,"current_range_meters":7200,"station_id":"st_d3svhcjqgbts73a3dn0g","pricing_plan_id":"cebpf4jnsgd1na2vs0mg"},{"bike_id":"934d24fd-bc0f-4086-ad83-8ea475709d64","system_id":"levelo_inurba_marseille","lat":43.31375,"lon":5.36713,"is_reserved":false,"is_disabled":false,"rental_uris":{"android":"levelo://app?vid=934d24fd-bc0f-4086-ad83-8ea475709d64","ios":"levelo://app?vid=934d24fd-bc0f-4086-ad83-8ea475709d64"},"vehicle_type_id":"4","last_reported":1777363525,"current_range_meters":7200,"station_id":"ce4bgr92rcd13ifvqc6g","pricing_plan_id":"cebpf4jnsgd1na2vs0mg"},{"bike_id":"20111a87-41c4-4eaf-9fe8-f7469b02a4e4","system_id":"levelo_inurba_marseille","lat":43.30108,"lon":5.43078,"is_reserved":false,"is_disabled":false,"rental_uris":{"android":"levelo://app?vid=20111a87-41c4-4eaf-9fe8-f7469b02a4e4","ios":"levelo://app?vid=20111a87-41c4-4eaf-9fe8-f7469b02a4e4"},"vehicle_type_id":"4","last_reported":1777363525,"current_range_meters":7200,"station_id":"st_d3js3co5814s73ftftug","pricing_plan_id":"cebpf4jnsgd1na2vs0mg"},{"bike_id":"74401aa6-0ab0-4ef1-82d5-db7fc4944eed","system_id":"levelo_inurba_marseille","lat":43.27376,"lon":5.36257,"is_reserved":false,"is_disabled":false,"rental_uris":{"android":"levelo://app?vid=74401aa6-0ab0-4ef1-82d5-db7fc4944eed","ios":"levelo://app?vid=74401aa6-0ab0-4ef1-82d5-db7fc4944eed"},"vehicle_type_id":"4","last_reported":1777363525,"current_range_meters":7200,"station_id":"ce4bhbh2rcd13ifvqeo0","pricing_plan_id":"cebpf4jnsgd1na2vs0mg"},{"bike_id":"d90369f6-6d00-4c39-b10d-1269107ad65e","system_id":"levelo_inurba_marseille","lat":43.24999,"lon":5.38928,"is_reserved":false,"is_disabled":false,"rental_uris":{"android":"levelo://app?vid=d90369f6-6d00-4c39-b10d-1269107ad65e","ios":"levelo://app?vid=d90369f6-6d00-4c39-b10d-1269107ad65e"},"vehicle_type_id":"4","last_reported":1777363525,"current_range_meters":7200,"station_id":"ce4bhgp2rcd13ifvqfd0","pricing_plan_id":"cebpf4jnsgd1na2vs0mg"},{"bike_id":"c04c42cf-36a4-4a3c-b656-dde2fe1bae7e","system_id":"levelo_inurba_marseille","lat":43.28574,"lon":5.40268,"is_reserved":false,"is_disabled":false,"rental_uris":{"android":"levelo://app?vid=c04c42cf-36a4-4a3c-b656-dde2fe1bae7e","ios":"levelo://app?vid=c04c42cf-36a4-4a3c-b656-dde2fe1bae7e"},"vehicle_type_id":"4","last_reported":1777363525,"current_range_meters":7200,"station_id":"","pricing_plan_id":"cebpf4jnsgd1na2vs0mg"},{"bike_id":"53dda291-caff-4c5b-a904-ced786c0d3b0","system_id":"levelo_inurba_marseille","lat":43.29912,"lon":5.37471,"is_reserved":false,"is_disabled":true,"rental_uris":{"android":"levelo://app?vid=53dda291-caff-4c5b-a904-ced786c0d3b0","ios":"levelo://app?vid=53dda291-caff-4c5b-a904-ced786c0d3b0"},"vehicle_type_id":"4","last_reported":1777363525,"current_range_meters":8000,"station_id":"ce4bgjh2rcd13ifvqbg0","pricing_plan_id":"cebpf4jnsgd1na2vs0mg"},{"bike_id":"0747a464-faa8-4625-8178-f1aac5fd59de","system_id":"levelo_inurba_marseille","lat":43.29071,"lon":5.39965,"is_reserved":false,"is_disabled":false,"rental_uris":{"android":"levelo://app?vid=0747a464-faa8-4625-8178-f1aac5fd59de","ios":"levelo://app?vid=0747a464-faa8-4625-8178-f1aac5fd59de"},"vehicle_type_id":"4","last_reported":1777363525,"current_range_meters":8000,"station_id":"ce4bh392rcd13ifvqdm0","pricing_plan_id":"cebpf4jnsgd1na2vs0mg"},{"bike_id":"94b1d427-102e-4c64-aa76-0c93e226150f","system_id":"levelo_inurba_marseille","lat":43.28469,"lon":5.48409,"is_reserved":false,"is_disabled":false,"rental_uris":{"android":"levelo://app?vid=94b1d427-102e-4c64-aa76-0c93e226150f","ios":"levelo://app?vid=94b1d427-102e-4c64-aa76-0c93e226150f"},"vehicle_type_id":"4","last_reported":1777363525,"current_range_meters":8000,"station_id":"st_d3svhcjqgbts73a3dn0g","pricing_plan_id":"cebpf4jnsgd1na2vs0mg"},{"bike_id":"cc28c43e-0c05-4039-91d2-f06b567b89e4","system_id":"levelo_inurba_marseille","lat":43.30363,"lon":5.397675,"is_reserved":false,"is_disabled":false,"rental_uris":{"android":"levelo://app?vid=cc28c43e-0c05-4039-91d2-f06b567b89e4","ios":"levelo://app?vid=cc28c43e-0c05-4039-91d2-f06b567b89e4"},"vehicle_type_id":"4","last_reported":1777363525,"current_range_meters":8000,"station_id":"","pricing_plan_id":"cebpf4jnsgd1na2vs0mg"},{"bike_id":"59a112b8-c144-4fb6-a53a-5bed39720797","system_id":"levelo_inurba_marseille","lat":43.30654,"lon":5.4009,"is_reserved":false,"is_disabled":false,"rental_uris":{"android":"levelo://app?vid=59a112b8-c144-4fb6-a53a-5bed39720797","ios":"levelo://app?vid=59a112b8-c144-4fb6-a53a-5bed39720797"},"vehicle_type_id":"4","last_reported":1777363525,"current_range_meters":8000,"station_id":"ce4bh112rcd13ifvqda0","pricing_plan_id":"cebpf4jnsgd1na2vs0mg"},{"bike_id":"d2276d1c-4dd8-4805-b674-72347073e05f","system_id":"levelo_inurba_marseille","lat":43.28857,"lon":5.42516,"is_reserved":false,"is_disabled":false,"rental_uris":{"android":"levelo://app?vid=d2276d1c-4dd8-4805-b674-72347073e05f","ios":"levelo://app?vid=d2276d1c-4dd8-4805-b674-72347073e05f"},"vehicle_type_id":"4","last_reported":1777363525,"current_range_meters":8000,"station_id":"st_d3b462108ojc7389ooeg","pricing_plan_id":"cebpf4jnsgd1na2vs0mg"},{"bike_id":"3a44cd5e-c225-4113-8afe-6916106046b2","system_id":"levelo_inurba_marseille","lat":43.28698,"lon":5.39978,"is_reserved":false,"is_disabled":false,"rental_uris":{"android":"levelo://app?vid=3a44cd5e-c225-4113-8afe-6916106046b2","ios":"levelo://app?vid=3a44cd5e-c225-4113-8afe-6916106046b2"},"vehicle_type_id":"4","last_reported":1777363525,"current_range_meters":8000,"station_id":"ce4bho92rcd13ifvqh3g","pricing_plan_id":"cebpf4jnsgd1na2vs0mg"},{"bike_id":"f1e6f377-74d1-441b-9def-2e35146c14cc","system_id":"levelo_inurba_marseille","lat":43.24812,"lon":5.37458,"is_reserved":false,"is_disabled":false,"rental_uris":{"android":"levelo://app?vid=f1e6f377-74d1-441b-9def-2e35146c14cc","ios":"levelo://app?vid=f1e6f377-74d1-441b-9def-2e35146c14cc"},"vehicle_type_id":"4","last_reported":1777363525,"current_range_meters":8000,"station_id":"ce4bhgh2rcd13ifvqfb0","pricing_plan_id":"cebpf4jnsgd1na2vs0mg"},{"bike_id":"808ca02c-c70e-4860-82a5-49ed8da2603a","system_id":"levelo_inurba_marseille","lat":43.26573,"lon":5.39005,"is_reserved":false,"is_disabled":false,"rental_uris":{"android":"levelo://app?vid=808ca02c-c70e-4860-82a5-49ed8da2603a","ios":"levelo://app?vid=808ca02c-c70e-4860-82a5-49ed8da2603a"},"vehicle_type_id":"4","last_reported":1777363525,"current_range_meters":8000,"station_id":"ce4bhe12rcd13ifvqf30","pricing_plan_id":"cebpf4jnsgd1na2vs0mg"},{"bike_id":"626afedd-d732-4bc8-be6f-6408a29380b2","system_id":"levelo_inurba_marseille","lat":43.21188,"lon":5.35083,"is_reserved":false,"is_disabled":false,"rental_uris":{"android":"levelo://app?vid=626afedd-d732-4bc8-be6f-6408a29380b2","ios":"levelo://app?vid=626afedd-d732-4bc8-be6f-6408a29380b2"},"vehicle_type_id":"4","last_reported":1777363525,"current_range_meters":8000,"station_id":"st_cvj6sg6p6f1abm77japg","pricing_plan_id":"cebpf4jnsgd1na2vs0mg"},{"bike_id":"a7ef47ae-ac7a-4811-8371-2ebdbd6eea38","system_id":"levelo_inurba_marseille","lat":43.21731,"lon":5.34585,"is_reserved":false,"is_disabled":false,"rental_uris":{"android":"levelo://app?vid=a7ef47ae-ac7a-4811-8371-2ebdbd6eea38","ios":"levelo://app?vid=a7ef47ae-ac7a-4811-8371-2ebdbd6eea38"},"vehicle_type_id":"4","last_reported":1777363525,"current_range_meters":8000,"station_id":"st_cvj6r9ubvosntc0bgbag","pricing_plan_id":"cebpf4jnsgd1na2vs0mg"},{"bike_id":"d14de05e-8665-4c3d-949e-102c763303bf","system_id":"levelo_inurba_marseille","lat":43.28607,"lon":5.37057,"is_reserved":false,"is_disabled":false,"rental_uris":{"android":"levelo://app?vid=d14de05e-8665-4c3d-949e-102c763303bf","ios":"levelo://app?vid=d14de05e-8665-4c3d-949e-102c763303bf"},"vehicle_type_id":"4","last_reported":1777363525,"current_range_meters":8000,"station_id":"ce4bht12rcd13ifvqi60","pricing_plan_id":"cebpf4jnsgd1na2vs0mg"},{"bike_id":"76907408-a8ff-4688-9cbf-66e48bb415e8","system_id":"levelo_inurba_marseille","lat":43.28694,"lon":5.46697,"is_reserved":false,"is_disabled":false,"rental_uris":{"android":"levelo://app?vid=76907408-a8ff-4688-9cbf-66e48bb415e8","ios":"levelo://app?vid=76907408-a8ff-4688-9cbf-66e48bb415e8"},"vehicle_type_id":"4","last_reported":1777363525,"current_range_meters":8000,"station_id":"st_d6tc3vkotcvc738tfjhg","pricing_plan_id":"cebpf4jnsgd1na2vs0mg"},{"bike_id":"987eda33-b3ad-4fac-a63c-0e3ff496e921","system_id":"levelo_inurba_marseille","lat":43.32349,"lon":5.36745,"is_reserved":false,"is_disabled":false,"rental_uris":{"android":"levelo://app?vid=987eda33-b3ad-4fac-a63c-0e3ff496e921","ios":"levelo://app?vid=987eda33-b3ad-4fac-a63c-0e3ff496e921"},"vehicle_type_id":"4","last_reported":1777363525,"current_range_meters":8000,"station_id":"ce4bhsh2rcd13ifvqi2g","pricing_plan_id":"cebpf4jnsgd1na2vs0mg"},{"bike_id":"da56ec45-4418-4a83-92d3-cc6973f09018","system_id":"levelo_inurba_marseille","lat":43.286168,"lon":5.351031,"is_reserved":false,"is_disabled":false,"rental_uris":{"android":"levelo://app?vid=da56ec45-4418-4a83-92d3-cc6973f09018","ios":"levelo://app?vid=da56ec45-4418-4a83-92d3-cc6973f09018"},"vehicle_type_id":"4","last_reported":1777363525,"current_range_meters":8000,"station_id":"ce4bhch2rcd13ifvqeug","pricing_plan_id":"cebpf4jnsgd1na2vs0mg"},{"bike_id":"1af30173-61ce-4456-8676-69a8c72658bd","system_id":"levelo_inurba_marseille","lat":43.30551,"lon":5.36685,"is_reserved":false,"is_disabled":false,"rental_uris":{"android":"levelo://app?vid=1af30173-61ce-4456-8676-69a8c72658bd","ios":"levelo://app?vid=1af30173-61ce-4456-8676-69a8c72658bd"},"vehicle_type_id":"4","last_reported":1777363525,"current_range_meters":8000,"station_id":"ce4bgrp2rcd13ifvqc9g","pricing_plan_id":"cebpf4jnsgd1na2vs0mg"},{"bike_id":"6b4aa15b-259f-4e69-9c10-9ad064f7be7c","system_id":"levelo_inurba_marseille","lat":43.25571,"lon":5.38228,"is_reserved":false,"is_disabled":false,"rental_uris":{"android":"levelo://app?vid=6b4aa15b-259f-4e69-9c10-9ad064f7be7c","ios":"levelo://app?vid=6b4aa15b-259f-4e69-9c10-9ad064f7be7c"},"vehicle_type_id":"4","last_reported":1777363525,"current_range_meters":8000,"station_id":"ce4bhih2rcd13ifvqfs0","pricing_plan_id":"cebpf4jnsgd1na2vs0mg"},{"bike_id":"9f543810-4dfb-4951-9c10-acd2d2940820","system_id":"levelo_inurba_marseille","lat":43.28521,"lon":5.39551,"is_reserved":false,"is_disabled":true,"rental_uris":{"android":"levelo://app?vid=9f543810-4dfb-4951-9c10-acd2d2940820","ios":"levelo://app?vid=9f543810-4dfb-4951-9c10-acd2d2940820"},"vehicle_type_id":"4","last_reported":1777363525,"current_range_meters":8000,"station_id":"","pricing_plan_id":"cebpf4jnsgd1na2vs0mg"},{"bike_id":"8b4e6bd3-1e82-4277-a45a-3a8abaa4e3ab","system_id":"levelo_inurba_marseille","lat":43.28472,"lon":5.48398,"is_reserved":false,"is_disabled":false,"rental_uris":{"android":"levelo://app?vid=8b4e6bd3-1e82-4277-a45a-3a8abaa4e3ab","ios":"levelo://app?vid=8b4e6bd3-1e82-4277-a45a-3a8abaa4e3ab"},"vehicle_type_id":"4","last_reported":1777363525,"current_range_meters":8000,"station_id":"","pricing_plan_id":"cebpf4jnsgd1na2vs0mg"},{"bike_id":"a3aba329-c9c2-4793-952f-f5cc163325d9","system_id":"levelo_inurba_marseille","lat":43.3048,"lon":5.37893,"is_reserved":false,"is_disabled":false,"rental_uris":{"android":"levelo://app?vid=a3aba329-c9c2-4793-952f-f5cc163325d9","ios":"levelo://app?vid=a3aba329-c9c2-4793-952f-f5cc163325d9"},"vehicle_type_id":"4","last_reported":1777363525,"current_range_meters":8000,"station_id":"ce4bgup2rcd13ifvqcn0","pricing_plan_id":"cebpf4jnsgd1na2vs0mg"},{"bike_id":"5099fcc8-f95e-4589-bb9a-71165fa185c1","system_id":"levelo_inurba_marseille","lat":43.28457,"lon":5.38494,"is_reserved":false,"is_disabled":false,"rental_uris":{"android":"levelo://app?vid=5099fcc8-f95e-4589-bb9a-71165fa185c1","ios":"levelo://app?vid=5099fcc8-f95e-4589-bb9a-71165fa185c1"},"vehicle_type_id":"4","last_reported":1777363525,"current_range_meters":8400,"station_id":"","pricing_plan_id":"cebpf4jnsgd1na2vs0mg"},{"bike_id":"ca970bed-dff0-40b1-aa6e-d0db5b10d8ee","system_id":"levelo_inurba_marseille","lat":43.27409,"lon":5.394,"is_reserved":false,"is_disabled":true,"rental_uris":{"android":"levelo://app?vid=ca970bed-dff0-40b1-aa6e-d0db5b10d8ee","ios":"levelo://app?vid=ca970bed-dff0-40b1-aa6e-d0db5b10d8ee"},"vehicle_type_id":"4","last_reported":1777363525,"current_range_meters":8400,"station_id":"ce4bhdp2rcd13ifvqf20","pricing_plan_id":"cebpf4jnsgd1na2vs0mg"},{"bike_id":"0804075a-e3e9-45aa-bdba-bff63f7392a3","system_id":"levelo_inurba_marseille","lat":43.29913,"lon":5.37465,"is_reserved":false,"is_disabled":false,"rental_uris":{"android":"levelo://app?vid=0804075a-e3e9-45aa-bdba-bff63f7392a3","ios":"levelo://app?vid=0804075a-e3e9-45aa-bdba-bff63f7392a3"},"vehicle_type_id":"4","last_reported":1777363525,"current_range_meters":8400,"station_id":"ce4bgjh2rcd13ifvqbg0","pricing_plan_id":"cebpf4jnsgd1na2vs0mg"},{"bike_id":"227e4028-246b-4a4b-bf88-36b7ff5228dd","system_id":"levelo_inurba_marseille","lat":43.2949,"lon":5.37568,"is_reserved":false,"is_disabled":true,"rental_uris":{"android":"levelo://app?vid=227e4028-246b-4a4b-bf88-36b7ff5228dd","ios":"levelo://app?vid=227e4028-246b-4a4b-bf88-36b7ff5228dd"},"vehicle_type_id":"4","last_reported":1777363525,"current_range_meters":8400,"station_id":"","pricing_plan_id":"cebpf4jnsgd1na2vs0mg"},{"bike_id":"dabc5e28-b9df-4b1a-affa-f2e365a8b45b","system_id":"levelo_inurba_marseille","lat":43.32117,"lon":5.36781,"is_reserved":false,"is_disabled":false,"rental_uris":{"android":"levelo://app?vid=dabc5e28-b9df-4b1a-affa-f2e365a8b45b","ios":"levelo://app?vid=dabc5e28-b9df-4b1a-affa-f2e365a8b45b"},"vehicle_type_id":"4","last_reported":1777363525,"current_range_meters":8400,"station_id":"ce4bhrh2rcd13ifvqhug","pricing_plan_id":"cebpf4jnsgd1na2vs0mg"},{"bike_id":"00d7d66c-a206-4114-99dd-f3574cc6b396","system_id":"levelo_inurba_marseille","lat":43.30949,"lon":5.39026,"is_reserved":false,"is_disabled":false,"rental_uris":{"android":"levelo://app?vid=00d7d66c-a206-4114-99dd-f3574cc6b396","ios":"levelo://app?vid=00d7d66c-a206-4114-99dd-f3574cc6b396"},"vehicle_type_id":"4","last_reported":1777363525,"current_range_meters":8400,"station_id":"ce4bgup2rcd13ifvqco0","pricing_plan_id":"cebpf4jnsgd1na2vs0mg"},{"bike_id":"1dd5a03c-2a08-4cbb-84c3-e1291de638d7","system_id":"levelo_inurba_marseille","lat":43.28929,"lon":5.39614,"is_reserved":false,"is_disabled":false,"rental_uris":{"android":"levelo://app?vid=1dd5a03c-2a08-4cbb-84c3-e1291de638d7","ios":"levelo://app?vid=1dd5a03c-2a08-4cbb-84c3-e1291de638d7"},"vehicle_type_id":"4","last_reported":1777363525,"current_range_meters":8400,"station_id":"ce4bh3h2rcd13ifvqdn0","pricing_plan_id":"cebpf4jnsgd1na2vs0mg"},{"bike_id":"b26f72b1-3436-474e-8d21-a89781343c8b","system_id":"levelo_inurba_marseille","lat":43.25939,"lon":5.40918,"is_reserved":false,"is_disabled":false,"rental_uris":{"android":"levelo://app?vid=b26f72b1-3436-474e-8d21-a89781343c8b","ios":"levelo://app?vid=b26f72b1-3436-474e-8d21-a89781343c8b"},"vehicle_type_id":"4","last_reported":1777363525,"current_range_meters":8400,"station_id":"ce4bhm92rcd13ifvqglg","pricing_plan_id":"cebpf4jnsgd1na2vs0mg"},{"bike_id":"80e1e11c-3ddb-4ade-a02f-05f6f042e922","system_id":"levelo_inurba_marseille","lat":43.30135,"lon":5.37421,"is_reserved":false,"is_disabled":false,"rental_uris":{"android":"levelo://app?vid=80e1e11c-3ddb-4ade-a02f-05f6f042e922","ios":"levelo://app?vid=80e1e11c-3ddb-4ade-a02f-05f6f042e922"},"vehicle_type_id":"4","last_reported":1777363525,"current_range_meters":8400,"station_id":"ce4bgs92rcd13ifvqcc0","pricing_plan_id":"cebpf4jnsgd1na2vs0mg"},{"bike_id":"81e52b6e-bff7-4875-a0d8-d533ea21c465","system_id":"levelo_inurba_marseille","lat":43.28165,"lon":5.42656,"is_reserved":false,"is_disabled":false,"rental_uris":{"android":"levelo://app?vid=81e52b6e-bff7-4875-a0d8-d533ea21c465","ios":"levelo://app?vid=81e52b6e-bff7-4875-a0d8-d533ea21c465"},"vehicle_type_id":"4","last_reported":1777363525,"current_range_meters":8400,"station_id":"ce4bhnh2rcd13ifvqgug","pricing_plan_id":"cebpf4jnsgd1na2vs0mg"},{"bike_id":"d330eb69-1576-4ab7-b2c5-efd06e60a03f","system_id":"levelo_inurba_marseille","lat":43.26197,"lon":5.37917,"is_reserved":false,"is_disabled":false,"rental_uris":{"android":"levelo://app?vid=d330eb69-1576-4ab7-b2c5-efd06e60a03f","ios":"levelo://app?vid=d330eb69-1576-4ab7-b2c5-efd06e60a03f"},"vehicle_type_id":"4","last_reported":1777363525,"current_range_meters":8400,"station_id":"","pricing_plan_id":"cebpf4jnsgd1na2vs0mg"},{"bike_id":"17f0e7a0-71c7-456f-bd78-5984932b5801","system_id":"levelo_inurba_marseille","lat":43.263776,"lon":5.410618,"is_reserved":false,"is_disabled":false,"rental_uris":{"android":"levelo://app?vid=17f0e7a0-71c7-456f-bd78-5984932b5801","ios":"levelo://app?vid=17f0e7a0-71c7-456f-bd78-5984932b5801"},"vehicle_type_id":"4","last_reported":1777363525,"current_range_meters":8400,"station_id":"st_d4e5ca6na9uc73bfl5fg","pricing_plan_id":"cebpf4jnsgd1na2vs0mg"},{"bike_id":"4a6072da-faf4-4315-a34c-1222fd8ed265","system_id":"levelo_inurba_marseille","lat":43.27966,"lon":5.3875,"is_reserved":false,"is_disabled":false,"rental_uris":{"android":"levelo://app?vid=4a6072da-faf4-4315-a34c-1222fd8ed265","ios":"levelo://app?vid=4a6072da-faf4-4315-a34c-1222fd8ed265"},"vehicle_type_id":"4","last_reported":1777363525,"current_range_meters":8400,"station_id":"ce4bhg12rcd13ifvqf80","pricing_plan_id":"cebpf4jnsgd1na2vs0mg"},{"bike_id":"270ca009-9515-4a12-be52-3d4bdef64a90","system_id":"levelo_inurba_marseille","lat":43.30882,"lon":5.37194,"is_reserved":false,"is_disabled":false,"rental_uris":{"android":"levelo://app?vid=270ca009-9515-4a12-be52-3d4bdef64a90","ios":"levelo://app?vid=270ca009-9515-4a12-be52-3d4bdef64a90"},"vehicle_type_id":"4","last_reported":1777363525,"current_range_meters":8400,"station_id":"ce4bguh2rcd13ifvqckg","pricing_plan_id":"cebpf4jnsgd1na2vs0mg"},{"bike_id":"92b0e79d-5118-4cdc-a154-ad1d52d847b8","system_id":"levelo_inurba_marseille","lat":43.29608,"lon":5.36065,"is_reserved":false,"is_disabled":false,"rental_uris":{"android":"levelo://app?vid=92b0e79d-5118-4cdc-a154-ad1d52d847b8","ios":"levelo://app?vid=92b0e79d-5118-4cdc-a154-ad1d52d847b8"},"vehicle_type_id":"4","last_reported":1777363525,"current_range_meters":8400,"station_id":"","pricing_plan_id":"cebpf4jnsgd1na2vs0mg"},{"bike_id":"ccc64b12-fba8-4953-9e4c-789c15629674","system_id":"levelo_inurba_marseille","lat":43.23203,"lon":5.35082,"is_reserved":false,"is_disabled":false,"rental_uris":{"android":"levelo://app?vid=ccc64b12-fba8-4953-9e4c-789c15629674","ios":"levelo://app?vid=ccc64b12-fba8-4953-9e4c-789c15629674"},"vehicle_type_id":"4","last_reported":1777363525,"current_range_meters":8400,"station_id":"","pricing_plan_id":"cebpf4jnsgd1na2vs0mg"},{"bike_id":"e5a38a57-f482-4b24-aa4f-e4a7978b3480","system_id":"levelo_inurba_marseille","lat":43.3034,"lon":5.42472,"is_reserved":false,"is_disabled":false,"rental_uris":{"android":"levelo://app?vid=e5a38a57-f482-4b24-aa4f-e4a7978b3480","ios":"levelo://app?vid=e5a38a57-f482-4b24-aa4f-e4a7978b3480"},"vehicle_type_id":"4","last_reported":1777363525,"current_range_meters":8400,"station_id":"","pricing_plan_id":"cebpf4jnsgd1na2vs0mg"},{"bike_id":"f13c1412-9987-4b53-aa5c-79a6ecb2ba2d","system_id":"levelo_inurba_marseille","lat":43.32378,"lon":5.36788,"is_reserved":false,"is_disabled":false,"rental_uris":{"android":"levelo://app?vid=f13c1412-9987-4b53-aa5c-79a6ecb2ba2d","ios":"levelo://app?vid=f13c1412-9987-4b53-aa5c-79a6ecb2ba2d"},"vehicle_type_id":"4","last_reported":1777363525,"current_range_meters":8400,"station_id":"ce4bhsh2rcd13ifvqi2g","pricing_plan_id":"cebpf4jnsgd1na2vs0mg"},{"bike_id":"581d8856-c041-400f-9f90-49f3e0fce49b","system_id":"levelo_inurba_marseille","lat":43.28,"lon":5.400081,"is_reserved":false,"is_disabled":false,"rental_uris":{"android":"levelo://app?vid=581d8856-c041-400f-9f90-49f3e0fce49b","ios":"levelo://app?vid=581d8856-c041-400f-9f90-49f3e0fce49b"},"vehicle_type_id":"4","last_reported":1777363525,"current_range_meters":8400,"station_id":"ce4bho92rcd13ifvqh4g","pricing_plan_id":"cebpf4jnsgd1na2vs0mg"},{"bike_id":"b51fa990-87ae-4793-8080-f160c926dc4d","system_id":"levelo_inurba_marseille","lat":43.29031,"lon":5.38647,"is_reserved":false,"is_disabled":false,"rental_uris":{"android":"levelo://app?vid=b51fa990-87ae-4793-8080-f160c926dc4d","ios":"levelo://app?vid=b51fa990-87ae-4793-8080-f160c926dc4d"},"vehicle_type_id":"4","last_reported":1777363525,"current_range_meters":8400,"station_id":"ce4bh4p2rcd13ifvqe0g","pricing_plan_id":"cebpf4jnsgd1na2vs0mg"},{"bike_id":"b9885613-2ab7-4bfa-8e62-7d197a46e827","system_id":"levelo_inurba_marseille","lat":43.25083,"lon":5.39527,"is_reserved":false,"is_disabled":false,"rental_uris":{"android":"levelo://app?vid=b9885613-2ab7-4bfa-8e62-7d197a46e827","ios":"levelo://app?vid=b9885613-2ab7-4bfa-8e62-7d197a46e827"},"vehicle_type_id":"4","last_reported":1777363525,"current_range_meters":8400,"station_id":"ce4bhm12rcd13ifvqgkg","pricing_plan_id":"cebpf4jnsgd1na2vs0mg"},{"bike_id":"0cf8e320-11d9-4a42-b407-91ba1ec863d7","system_id":"levelo_inurba_marseille","lat":43.29798,"lon":5.3811,"is_reserved":false,"is_disabled":false,"rental_uris":{"android":"levelo://app?vid=0cf8e320-11d9-4a42-b407-91ba1ec863d7","ios":"levelo://app?vid=0cf8e320-11d9-4a42-b407-91ba1ec863d7"},"vehicle_type_id":"4","last_reported":1777363525,"current_range_meters":8400,"station_id":"ce4bgip2rcd13ifvqbb0","pricing_plan_id":"cebpf4jnsgd1na2vs0mg"},{"bike_id":"60dba6de-54c0-480e-929d-4ee08e29c2b6","system_id":"levelo_inurba_marseille","lat":43.31221,"lon":5.36834,"is_reserved":false,"is_disabled":false,"rental_uris":{"android":"levelo://app?vid=60dba6de-54c0-480e-929d-4ee08e29c2b6","ios":"levelo://app?vid=60dba6de-54c0-480e-929d-4ee08e29c2b6"},"vehicle_type_id":"4","last_reported":1777363525,"current_range_meters":8400,"station_id":"ce4bgl92rcd13ifvqbq0","pricing_plan_id":"cebpf4jnsgd1na2vs0mg"},{"bike_id":"708bbe50-855c-4670-ad18-78169d289eef","system_id":"levelo_inurba_marseille","lat":43.27208,"lon":5.39181,"is_reserved":false,"is_disabled":false,"rental_uris":{"android":"levelo://app?vid=708bbe50-855c-4670-ad18-78169d289eef","ios":"levelo://app?vid=708bbe50-855c-4670-ad18-78169d289eef"},"vehicle_type_id":"4","last_reported":1777363525,"current_range_meters":8800,"station_id":"ce4bhhp2rcd13ifvqfm0","pricing_plan_id":"cebpf4jnsgd1na2vs0mg"},{"bike_id":"835b890c-8b59-44c6-9d4b-9eeecdc3eb6a","system_id":"levelo_inurba_marseille","lat":43.24156,"lon":5.39734,"is_reserved":false,"is_disabled":false,"rental_uris":{"android":"levelo://app?vid=835b890c-8b59-44c6-9d4b-9eeecdc3eb6a","ios":"levelo://app?vid=835b890c-8b59-44c6-9d4b-9eeecdc3eb6a"},"vehicle_type_id":"4","last_reported":1777363525,"current_range_meters":8800,"station_id":"ce4bhn12rcd13ifvqgpg","pricing_plan_id":"cebpf4jnsgd1na2vs0mg"},{"bike_id":"4541a58b-5803-4873-8531-8182c7674429","system_id":"levelo_inurba_marseille","lat":43.28481,"lon":5.48411,"is_reserved":false,"is_disabled":false,"rental_uris":{"android":"levelo://app?vid=4541a58b-5803-4873-8531-8182c7674429","ios":"levelo://app?vid=4541a58b-5803-4873-8531-8182c7674429"},"vehicle_type_id":"4","last_reported":1777363525,"current_range_meters":8800,"station_id":"st_d3svhcjqgbts73a3dn0g","pricing_plan_id":"cebpf4jnsgd1na2vs0mg"},{"bike_id":"57f9cfa4-4f27-43d0-9285-a190ac2c5eb4","system_id":"levelo_inurba_marseille","lat":43.26207,"lon":5.37915,"is_reserved":false,"is_disabled":false,"rental_uris":{"android":"levelo://app?vid=57f9cfa4-4f27-43d0-9285-a190ac2c5eb4","ios":"levelo://app?vid=57f9cfa4-4f27-43d0-9285-a190ac2c5eb4"},"vehicle_type_id":"4","last_reported":1777363525,"current_range_meters":8800,"station_id":"ce4bhjp2rcd13ifvqg90","pricing_plan_id":"cebpf4jnsgd1na2vs0mg"},{"bike_id":"23b9edcd-305b-48b3-b42b-c5b2d1a2cdca","system_id":"levelo_inurba_marseille","lat":43.27049,"lon":5.38639,"is_reserved":false,"is_disabled":false,"rental_uris":{"android":"levelo://app?vid=23b9edcd-305b-48b3-b42b-c5b2d1a2cdca","ios":"levelo://app?vid=23b9edcd-305b-48b3-b42b-c5b2d1a2cdca"},"vehicle_type_id":"4","last_reported":1777363525,"current_range_meters":8800,"station_id":"","pricing_plan_id":"cebpf4jnsgd1na2vs0mg"},{"bike_id":"2519ee8d-92c6-419f-941a-6566274d07bb","system_id":"levelo_inurba_marseille","lat":43.30885,"lon":5.3967,"is_reserved":false,"is_disabled":false,"rental_uris":{"android":"levelo://app?vid=2519ee8d-92c6-419f-941a-6566274d07bb","ios":"levelo://app?vid=2519ee8d-92c6-419f-941a-6566274d07bb"},"vehicle_type_id":"4","last_reported":1777363525,"current_range_meters":8800,"station_id":"ce4bh012rcd13ifvqcv0","pricing_plan_id":"cebpf4jnsgd1na2vs0mg"},{"bike_id":"726dd15c-fb6a-4fc2-a070-d7544dabd2b5","system_id":"levelo_inurba_marseille","lat":43.29973,"lon":5.37176,"is_reserved":false,"is_disabled":false,"rental_uris":{"android":"levelo://app?vid=726dd15c-fb6a-4fc2-a070-d7544dabd2b5","ios":"levelo://app?vid=726dd15c-fb6a-4fc2-a070-d7544dabd2b5"},"vehicle_type_id":"4","last_reported":1777363525,"current_range_meters":8800,"station_id":"ce4bgr92rcd13ifvqc7g","pricing_plan_id":"cebpf4jnsgd1na2vs0mg"},{"bike_id":"11effbb2-3489-4e85-aec9-0e018fcdcc03","system_id":"levelo_inurba_marseille","lat":43.23194,"lon":5.35533,"is_reserved":false,"is_disabled":false,"rental_uris":{"android":"levelo://app?vid=11effbb2-3489-4e85-aec9-0e018fcdcc03","ios":"levelo://app?vid=11effbb2-3489-4e85-aec9-0e018fcdcc03"},"vehicle_type_id":"4","last_reported":1777363525,"current_range_meters":8800,"station_id":"ce4bhu92rcd13ifvqi70","pricing_plan_id":"cebpf4jnsgd1na2vs0mg"},{"bike_id":"77ed610d-27dc-4c77-b7fe-0ddde0c56e14","system_id":"levelo_inurba_marseille","lat":43.26229,"lon":5.38762,"is_reserved":false,"is_disabled":false,"rental_uris":{"android":"levelo://app?vid=77ed610d-27dc-4c77-b7fe-0ddde0c56e14","ios":"levelo://app?vid=77ed610d-27dc-4c77-b7fe-0ddde0c56e14"},"vehicle_type_id":"4","last_reported":1777363525,"current_range_meters":8800,"station_id":"","pricing_plan_id":"cebpf4jnsgd1na2vs0mg"},{"bike_id":"35a6cb4b-5d8c-4bef-b99f-fe238abc9fa9","system_id":"levelo_inurba_marseille","lat":43.21744,"lon":5.34596,"is_reserved":false,"is_disabled":false,"rental_uris":{"android":"levelo://app?vid=35a6cb4b-5d8c-4bef-b99f-fe238abc9fa9","ios":"levelo://app?vid=35a6cb4b-5d8c-4bef-b99f-fe238abc9fa9"},"vehicle_type_id":"4","last_reported":1777363525,"current_range_meters":8800,"station_id":"st_cvj6r9ubvosntc0bgbag","pricing_plan_id":"cebpf4jnsgd1na2vs0mg"},{"bike_id":"04d07930-42f0-4c92-9bce-6eaea7bbfac2","system_id":"levelo_inurba_marseille","lat":43.29567,"lon":5.38257,"is_reserved":false,"is_disabled":false,"rental_uris":{"android":"levelo://app?vid=04d07930-42f0-4c92-9bce-6eaea7bbfac2","ios":"levelo://app?vid=04d07930-42f0-4c92-9bce-6eaea7bbfac2"},"vehicle_type_id":"4","last_reported":1777363525,"current_range_meters":8800,"station_id":"","pricing_plan_id":"cebpf4jnsgd1na2vs0mg"},{"bike_id":"39e0d96e-ddf6-4a1e-a414-64ecda3ae264","system_id":"levelo_inurba_marseille","lat":43.26553,"lon":5.37282,"is_reserved":false,"is_disabled":false,"rental_uris":{"android":"levelo://app?vid=39e0d96e-ddf6-4a1e-a414-64ecda3ae264","ios":"levelo://app?vid=39e0d96e-ddf6-4a1e-a414-64ecda3ae264"},"vehicle_type_id":"4","last_reported":1777363525,"current_range_meters":8800,"station_id":"ce4bhg12rcd13ifvqf70","pricing_plan_id":"cebpf4jnsgd1na2vs0mg"},{"bike_id":"0f78f2e1-f129-49c2-88a1-d8b63a47edd3","system_id":"levelo_inurba_marseille","lat":43.3094,"lon":5.39048,"is_reserved":false,"is_disabled":false,"rental_uris":{"android":"levelo://app?vid=0f78f2e1-f129-49c2-88a1-d8b63a47edd3","ios":"levelo://app?vid=0f78f2e1-f129-49c2-88a1-d8b63a47edd3"},"vehicle_type_id":"4","last_reported":1777363525,"current_range_meters":8800,"station_id":"ce4bgup2rcd13ifvqco0","pricing_plan_id":"cebpf4jnsgd1na2vs0mg"},{"bike_id":"0f278ce4-d678-4686-bb2c-8a7d40c47e59","system_id":"levelo_inurba_marseille","lat":43.31057,"lon":5.37162,"is_reserved":false,"is_disabled":false,"rental_uris":{"android":"levelo://app?vid=0f278ce4-d678-4686-bb2c-8a7d40c47e59","ios":"levelo://app?vid=0f278ce4-d678-4686-bb2c-8a7d40c47e59"},"vehicle_type_id":"4","last_reported":1777363525,"current_range_meters":8800,"station_id":"st_d4kl2rp97mjs73e7tdfg","pricing_plan_id":"cebpf4jnsgd1na2vs0mg"},{"bike_id":"b9824a6b-1abf-4f9e-80f4-56c02deb08e1","system_id":"levelo_inurba_marseille","lat":43.30535,"lon":5.36551,"is_reserved":false,"is_disabled":false,"rental_uris":{"android":"levelo://app?vid=b9824a6b-1abf-4f9e-80f4-56c02deb08e1","ios":"levelo://app?vid=b9824a6b-1abf-4f9e-80f4-56c02deb08e1"},"vehicle_type_id":"4","last_reported":1777363525,"current_range_meters":8800,"station_id":"ce4bgs12rcd13ifvqcag","pricing_plan_id":"cebpf4jnsgd1na2vs0mg"},{"bike_id":"a43d30a7-37d0-4af3-8295-45682f684945","system_id":"levelo_inurba_marseille","lat":43.30552,"lon":5.36538,"is_reserved":false,"is_disabled":false,"rental_uris":{"android":"levelo://app?vid=a43d30a7-37d0-4af3-8295-45682f684945","ios":"levelo://app?vid=a43d30a7-37d0-4af3-8295-45682f684945"},"vehicle_type_id":"4","last_reported":1777363525,"current_range_meters":8800,"station_id":"ce4bgs12rcd13ifvqcag","pricing_plan_id":"cebpf4jnsgd1na2vs0mg"},{"bike_id":"7af94e07-b252-4182-bd46-44aa47299e5c","system_id":"levelo_inurba_marseille","lat":43.30893,"lon":5.37166,"is_reserved":false,"is_disabled":false,"rental_uris":{"android":"levelo://app?vid=7af94e07-b252-4182-bd46-44aa47299e5c","ios":"levelo://app?vid=7af94e07-b252-4182-bd46-44aa47299e5c"},"vehicle_type_id":"4","last_reported":1777363525,"current_range_meters":8800,"station_id":"ce4bguh2rcd13ifvqckg","pricing_plan_id":"cebpf4jnsgd1na2vs0mg"},{"bike_id":"bcd67e65-43b0-4b23-bb5c-0bdd7484ac57","system_id":"levelo_inurba_marseille","lat":43.33173,"lon":5.37785,"is_reserved":false,"is_disabled":false,"rental_uris":{"android":"levelo://app?vid=bcd67e65-43b0-4b23-bb5c-0bdd7484ac57","ios":"levelo://app?vid=bcd67e65-43b0-4b23-bb5c-0bdd7484ac57"},"vehicle_type_id":"4","last_reported":1777363525,"current_range_meters":9200,"station_id":"","pricing_plan_id":"cebpf4jnsgd1na2vs0mg"},{"bike_id":"f88170bd-dd89-4d9e-9bf8-2e4d03554146","system_id":"levelo_inurba_marseille","lat":43.26682,"lon":5.38267,"is_reserved":false,"is_disabled":false,"rental_uris":{"android":"levelo://app?vid=f88170bd-dd89-4d9e-9bf8-2e4d03554146","ios":"levelo://app?vid=f88170bd-dd89-4d9e-9bf8-2e4d03554146"},"vehicle_type_id":"4","last_reported":1777363525,"current_range_meters":9200,"station_id":"ce4bhg92rcd13ifvqf90","pricing_plan_id":"cebpf4jnsgd1na2vs0mg"},{"bike_id":"ef809088-19f7-4902-a559-51469dadba8c","system_id":"levelo_inurba_marseille","lat":43.27102,"lon":5.39036,"is_reserved":false,"is_disabled":false,"rental_uris":{"android":"levelo://app?vid=ef809088-19f7-4902-a559-51469dadba8c","ios":"levelo://app?vid=ef809088-19f7-4902-a559-51469dadba8c"},"vehicle_type_id":"4","last_reported":1777363525,"current_range_meters":9200,"station_id":"","pricing_plan_id":"cebpf4jnsgd1na2vs0mg"},{"bike_id":"4335f1a9-cc02-4b9e-b8b7-36121017c3bb","system_id":"levelo_inurba_marseille","lat":43.30431,"lon":5.38885,"is_reserved":false,"is_disabled":false,"rental_uris":{"android":"levelo://app?vid=4335f1a9-cc02-4b9e-b8b7-36121017c3bb","ios":"levelo://app?vid=4335f1a9-cc02-4b9e-b8b7-36121017c3bb"},"vehicle_type_id":"4","last_reported":1777363525,"current_range_meters":9200,"station_id":"ce4bgk12rcd13ifvqbi0","pricing_plan_id":"cebpf4jnsgd1na2vs0mg"},{"bike_id":"f11e3633-986d-40f4-8b5f-6b5e41220dfc","system_id":"levelo_inurba_marseille","lat":43.31907,"lon":5.36795,"is_reserved":false,"is_disabled":false,"rental_uris":{"android":"levelo://app?vid=f11e3633-986d-40f4-8b5f-6b5e41220dfc","ios":"levelo://app?vid=f11e3633-986d-40f4-8b5f-6b5e41220dfc"},"vehicle_type_id":"4","last_reported":1777363525,"current_range_meters":9200,"station_id":"st_d6o2h0d0559c73evc1b0","pricing_plan_id":"cebpf4jnsgd1na2vs0mg"},{"bike_id":"fa0ec372-a7cd-43f3-89c6-001ffe9b1a93","system_id":"levelo_inurba_marseille","lat":43.27469,"lon":5.42481,"is_reserved":false,"is_disabled":false,"rental_uris":{"android":"levelo://app?vid=fa0ec372-a7cd-43f3-89c6-001ffe9b1a93","ios":"levelo://app?vid=fa0ec372-a7cd-43f3-89c6-001ffe9b1a93"},"vehicle_type_id":"4","last_reported":1777363525,"current_range_meters":9200,"station_id":"ce4bhn92rcd13ifvqgrg","pricing_plan_id":"cebpf4jnsgd1na2vs0mg"},{"bike_id":"72380ac0-399d-4b80-bf49-fa9a0ced653e","system_id":"levelo_inurba_marseille","lat":43.30152,"lon":5.38101,"is_reserved":false,"is_disabled":false,"rental_uris":{"android":"levelo://app?vid=72380ac0-399d-4b80-bf49-fa9a0ced653e","ios":"levelo://app?vid=72380ac0-399d-4b80-bf49-fa9a0ced653e"},"vehicle_type_id":"4","last_reported":1777363525,"current_range_meters":9200,"station_id":"ce4bgjp2rcd13ifvqbh0","pricing_plan_id":"cebpf4jnsgd1na2vs0mg"},{"bike_id":"02c5d054-5510-4530-86fb-90dcea2b7708","system_id":"levelo_inurba_marseille","lat":43.29065,"lon":5.37159,"is_reserved":false,"is_disabled":false,"rental_uris":{"android":"levelo://app?vid=02c5d054-5510-4530-86fb-90dcea2b7708","ios":"levelo://app?vid=02c5d054-5510-4530-86fb-90dcea2b7708"},"vehicle_type_id":"4","last_reported":1777363525,"current_range_meters":9200,"station_id":"ce4bh5p2rcd13ifvqe4g","pricing_plan_id":"cebpf4jnsgd1na2vs0mg"},{"bike_id":"deddff9e-0355-41cb-bf8b-34e128421f4c","system_id":"levelo_inurba_marseille","lat":43.29749,"lon":5.37682,"is_reserved":false,"is_disabled":false,"rental_uris":{"android":"levelo://app?vid=deddff9e-0355-41cb-bf8b-34e128421f4c","ios":"levelo://app?vid=deddff9e-0355-41cb-bf8b-34e128421f4c"},"vehicle_type_id":"4","last_reported":1777363525,"current_range_meters":9200,"station_id":"ce4bgkh2rcd13ifvqbl0","pricing_plan_id":"cebpf4jnsgd1na2vs0mg"},{"bike_id":"df85ba2d-0517-452a-af9b-09c32988cef8","system_id":"levelo_inurba_marseille","lat":43.241537,"lon":5.397286,"is_reserved":false,"is_disabled":false,"rental_uris":{"android":"levelo://app?vid=df85ba2d-0517-452a-af9b-09c32988cef8","ios":"levelo://app?vid=df85ba2d-0517-452a-af9b-09c32988cef8"},"vehicle_type_id":"4","last_reported":1777363525,"current_range_meters":9200,"station_id":"ce4bhn12rcd13ifvqgpg","pricing_plan_id":"cebpf4jnsgd1na2vs0mg"},{"bike_id":"098fad60-bc18-409c-92c2-8302d3f39290","system_id":"levelo_inurba_marseille","lat":43.26783,"lon":5.39411,"is_reserved":false,"is_disabled":false,"rental_uris":{"android":"levelo://app?vid=098fad60-bc18-409c-92c2-8302d3f39290","ios":"levelo://app?vid=098fad60-bc18-409c-92c2-8302d3f39290"},"vehicle_type_id":"4","last_reported":1777363525,"current_range_meters":9200,"station_id":"ce4bhh12rcd13ifvqfg0","pricing_plan_id":"cebpf4jnsgd1na2vs0mg"},{"bike_id":"a0faf62e-3fd3-41e6-8c3f-14765bb7d79d","system_id":"levelo_inurba_marseille","lat":43.29607,"lon":5.38017,"is_reserved":false,"is_disabled":false,"rental_uris":{"android":"levelo://app?vid=a0faf62e-3fd3-41e6-8c3f-14765bb7d79d","ios":"levelo://app?vid=a0faf62e-3fd3-41e6-8c3f-14765bb7d79d"},"vehicle_type_id":"4","last_reported":1777363525,"current_range_meters":9200,"station_id":"","pricing_plan_id":"cebpf4jnsgd1na2vs0mg"},{"bike_id":"66714737-efab-49bd-9ae0-08cccdd2918e","system_id":"levelo_inurba_marseille","lat":43.29584,"lon":5.37522,"is_reserved":false,"is_disabled":false,"rental_uris":{"android":"levelo://app?vid=66714737-efab-49bd-9ae0-08cccdd2918e","ios":"levelo://app?vid=66714737-efab-49bd-9ae0-08cccdd2918e"},"vehicle_type_id":"4","last_reported":1777363525,"current_range_meters":9600,"station_id":"ce4bgh92rcd13ifvqb50","pricing_plan_id":"cebpf4jnsgd1na2vs0mg"},{"bike_id":"0c17c7bb-7d23-4755-9f4b-21aa0ae2cf05","system_id":"levelo_inurba_marseille","lat":43.24396,"lon":5.3707,"is_reserved":false,"is_disabled":false,"rental_uris":{"android":"levelo://app?vid=0c17c7bb-7d23-4755-9f4b-21aa0ae2cf05","ios":"levelo://app?vid=0c17c7bb-7d23-4755-9f4b-21aa0ae2cf05"},"vehicle_type_id":"4","last_reported":1777363525,"current_range_meters":9600,"station_id":"ce4bhhh2rcd13ifvqfk0","pricing_plan_id":"cebpf4jnsgd1na2vs0mg"},{"bike_id":"32f2b2b8-ccb1-4c58-8eee-85314b2a01f0","system_id":"levelo_inurba_marseille","lat":43.30125,"lon":5.43111,"is_reserved":false,"is_disabled":false,"rental_uris":{"android":"levelo://app?vid=32f2b2b8-ccb1-4c58-8eee-85314b2a01f0","ios":"levelo://app?vid=32f2b2b8-ccb1-4c58-8eee-85314b2a01f0"},"vehicle_type_id":"4","last_reported":1777363525,"current_range_meters":9600,"station_id":"st_d3js3co5814s73ftftug","pricing_plan_id":"cebpf4jnsgd1na2vs0mg"},{"bike_id":"f7a5267e-ffda-4cb3-8f6e-89eeda61dbbe","system_id":"levelo_inurba_marseille","lat":43.27812,"lon":5.40734,"is_reserved":false,"is_disabled":true,"rental_uris":{"android":"levelo://app?vid=f7a5267e-ffda-4cb3-8f6e-89eeda61dbbe","ios":"levelo://app?vid=f7a5267e-ffda-4cb3-8f6e-89eeda61dbbe"},"vehicle_type_id":"4","last_reported":1777363525,"current_range_meters":9600,"station_id":"ce4bhnh2rcd13ifvqgtg","pricing_plan_id":"cebpf4jnsgd1na2vs0mg"},{"bike_id":"e116e98a-e7c1-4e2d-9ae3-1a759c33b548","system_id":"levelo_inurba_marseille","lat":43.337444,"lon":5.374475,"is_reserved":false,"is_disabled":false,"rental_uris":{"android":"levelo://app?vid=e116e98a-e7c1-4e2d-9ae3-1a759c33b548","ios":"levelo://app?vid=e116e98a-e7c1-4e2d-9ae3-1a759c33b548"},"vehicle_type_id":"4","last_reported":1777363525,"current_range_meters":9600,"station_id":"ce4bgop2rcd13ifvqc1g","pricing_plan_id":"cebpf4jnsgd1na2vs0mg"},{"bike_id":"b9c0ca4a-61af-4a0b-994f-7b554a71a91c","system_id":"levelo_inurba_marseille","lat":43.32354,"lon":5.36733,"is_reserved":false,"is_disabled":false,"rental_uris":{"android":"levelo://app?vid=b9c0ca4a-61af-4a0b-994f-7b554a71a91c","ios":"levelo://app?vid=b9c0ca4a-61af-4a0b-994f-7b554a71a91c"},"vehicle_type_id":"4","last_reported":1777363525,"current_range_meters":9600,"station_id":"ce4bhsh2rcd13ifvqi2g","pricing_plan_id":"cebpf4jnsgd1na2vs0mg"},{"bike_id":"eb27abcf-4f01-48a4-9495-dcda68cace44","system_id":"levelo_inurba_marseille","lat":43.30141,"lon":5.38082,"is_reserved":false,"is_disabled":false,"rental_uris":{"android":"levelo://app?vid=eb27abcf-4f01-48a4-9495-dcda68cace44","ios":"levelo://app?vid=eb27abcf-4f01-48a4-9495-dcda68cace44"},"vehicle_type_id":"4","last_reported":1777363525,"current_range_meters":9600,"station_id":"ce4bgjp2rcd13ifvqbh0","pricing_plan_id":"cebpf4jnsgd1na2vs0mg"},{"bike_id":"e80d5e8b-5487-495b-8e4e-927b33e81747","system_id":"levelo_inurba_marseille","lat":43.24068,"lon":5.37762,"is_reserved":false,"is_disabled":false,"rental_uris":{"android":"levelo://app?vid=e80d5e8b-5487-495b-8e4e-927b33e81747","ios":"levelo://app?vid=e80d5e8b-5487-495b-8e4e-927b33e81747"},"vehicle_type_id":"4","last_reported":1777363525,"current_range_meters":9600,"station_id":"ce4bhnp2rcd13ifvqgvg","pricing_plan_id":"cebpf4jnsgd1na2vs0mg"},{"bike_id":"5f89b9c1-7d43-4b08-937e-eab558419f59","system_id":"levelo_inurba_marseille","lat":43.30536,"lon":5.36527,"is_reserved":false,"is_disabled":false,"rental_uris":{"android":"levelo://app?vid=5f89b9c1-7d43-4b08-937e-eab558419f59","ios":"levelo://app?vid=5f89b9c1-7d43-4b08-937e-eab558419f59"},"vehicle_type_id":"4","last_reported":1777363525,"current_range_meters":9600,"station_id":"ce4bgs12rcd13ifvqcag","pricing_plan_id":"cebpf4jnsgd1na2vs0mg"},{"bike_id":"f21e1623-5e51-4882-99e8-3ad041c9e17f","system_id":"levelo_inurba_marseille","lat":43.21723,"lon":5.34627,"is_reserved":false,"is_disabled":false,"rental_uris":{"android":"levelo://app?vid=f21e1623-5e51-4882-99e8-3ad041c9e17f","ios":"levelo://app?vid=f21e1623-5e51-4882-99e8-3ad041c9e17f"},"vehicle_type_id":"4","last_reported":1777363525,"current_range_meters":9600,"station_id":"st_cvj6r9ubvosntc0bgbag","pricing_plan_id":"cebpf4jnsgd1na2vs0mg"},{"bike_id":"ee5bca21-2a39-4c24-aced-c94d2451e251","system_id":"levelo_inurba_marseille","lat":43.27984,"lon":5.41653,"is_reserved":false,"is_disabled":false,"rental_uris":{"android":"levelo://app?vid=ee5bca21-2a39-4c24-aced-c94d2451e251","ios":"levelo://app?vid=ee5bca21-2a39-4c24-aced-c94d2451e251"},"vehicle_type_id":"4","last_reported":1777363525,"current_range_meters":9600,"station_id":"ce4bho12rcd13ifvqh1g","pricing_plan_id":"cebpf4jnsgd1na2vs0mg"},{"bike_id":"d8ed8289-69e9-4e21-809b-47a820f4cbed","system_id":"levelo_inurba_marseille","lat":43.26682,"lon":5.38261,"is_reserved":false,"is_disabled":false,"rental_uris":{"android":"levelo://app?vid=d8ed8289-69e9-4e21-809b-47a820f4cbed","ios":"levelo://app?vid=d8ed8289-69e9-4e21-809b-47a820f4cbed"},"vehicle_type_id":"4","last_reported":1777363525,"current_range_meters":9600,"station_id":"ce4bhg92rcd13ifvqf90","pricing_plan_id":"cebpf4jnsgd1na2vs0mg"},{"bike_id":"8ddf78e6-7053-4f51-a052-cbf410efa6bf","system_id":"levelo_inurba_marseille","lat":43.31243,"lon":5.36856,"is_reserved":false,"is_disabled":false,"rental_uris":{"android":"levelo://app?vid=8ddf78e6-7053-4f51-a052-cbf410efa6bf","ios":"levelo://app?vid=8ddf78e6-7053-4f51-a052-cbf410efa6bf"},"vehicle_type_id":"4","last_reported":1777363525,"current_range_meters":9600,"station_id":"ce4bgl92rcd13ifvqbq0","pricing_plan_id":"cebpf4jnsgd1na2vs0mg"},{"bike_id":"6ea21d3f-2604-46a6-b05e-a569c8d0df03","system_id":"levelo_inurba_marseille","lat":43.31356,"lon":5.367,"is_reserved":false,"is_disabled":false,"rental_uris":{"android":"levelo://app?vid=6ea21d3f-2604-46a6-b05e-a569c8d0df03","ios":"levelo://app?vid=6ea21d3f-2604-46a6-b05e-a569c8d0df03"},"vehicle_type_id":"4","last_reported":1777363525,"current_range_meters":9600,"station_id":"ce4bgr92rcd13ifvqc6g","pricing_plan_id":"cebpf4jnsgd1na2vs0mg"},{"bike_id":"2a9f517f-dc7e-442a-8a6e-b3ad6200cb4e","system_id":"levelo_inurba_marseille","lat":43.33545,"lon":5.37449,"is_reserved":false,"is_disabled":false,"rental_uris":{"android":"levelo://app?vid=2a9f517f-dc7e-442a-8a6e-b3ad6200cb4e","ios":"levelo://app?vid=2a9f517f-dc7e-442a-8a6e-b3ad6200cb4e"},"vehicle_type_id":"4","last_reported":1777363525,"current_range_meters":9600,"station_id":"st_d46tts09ee8s73dlu43g","pricing_plan_id":"cebpf4jnsgd1na2vs0mg"},{"bike_id":"fb8e8988-a3db-4169-b63b-1eff5392c32a","system_id":"levelo_inurba_marseille","lat":43.28268,"lon":5.35063,"is_reserved":false,"is_disabled":false,"rental_uris":{"android":"levelo://app?vid=fb8e8988-a3db-4169-b63b-1eff5392c32a","ios":"levelo://app?vid=fb8e8988-a3db-4169-b63b-1eff5392c32a"},"vehicle_type_id":"4","last_reported":1777363525,"current_range_meters":9600,"station_id":"ce4bhbp2rcd13ifvqerg","pricing_plan_id":"cebpf4jnsgd1na2vs0mg"},{"bike_id":"072edbe1-1e73-4a99-b370-decdd506161f","system_id":"levelo_inurba_marseille","lat":43.30545,"lon":5.36694,"is_reserved":false,"is_disabled":false,"rental_uris":{"android":"levelo://app?vid=072edbe1-1e73-4a99-b370-decdd506161f","ios":"levelo://app?vid=072edbe1-1e73-4a99-b370-decdd506161f"},"vehicle_type_id":"4","last_reported":1777363525,"current_range_meters":9600,"station_id":"ce4bgrp2rcd13ifvqc9g","pricing_plan_id":"cebpf4jnsgd1na2vs0mg"},{"bike_id":"5a082d0b-9dcd-4b27-b749-e7a082c3a4b6","system_id":"levelo_inurba_marseille","lat":43.25149,"lon":5.40456,"is_reserved":false,"is_disabled":false,"rental_uris":{"android":"levelo://app?vid=5a082d0b-9dcd-4b27-b749-e7a082c3a4b6","ios":"levelo://app?vid=5a082d0b-9dcd-4b27-b749-e7a082c3a4b6"},"vehicle_type_id":"4","last_reported":1777363525,"current_range_meters":9600,"station_id":"","pricing_plan_id":"cebpf4jnsgd1na2vs0mg"},{"bike_id":"270a6499-47b9-4485-bafb-290ac5859c02","system_id":"levelo_inurba_marseille","lat":43.30953,"lon":5.39038,"is_reserved":false,"is_disabled":false,"rental_uris":{"android":"levelo://app?vid=270a6499-47b9-4485-bafb-290ac5859c02","ios":"levelo://app?vid=270a6499-47b9-4485-bafb-290ac5859c02"},"vehicle_type_id":"4","last_reported":1777363525,"current_range_meters":9600,"station_id":"ce4bgup2rcd13ifvqco0","pricing_plan_id":"cebpf4jnsgd1na2vs0mg"},{"bike_id":"b2f4375d-7e08-4ebd-b4b6-9f49c6fdecbb","system_id":"levelo_inurba_marseille","lat":43.21187,"lon":5.35079,"is_reserved":false,"is_disabled":false,"rental_uris":{"android":"levelo://app?vid=b2f4375d-7e08-4ebd-b4b6-9f49c6fdecbb","ios":"levelo://app?vid=b2f4375d-7e08-4ebd-b4b6-9f49c6fdecbb"},"vehicle_type_id":"4","last_reported":1777363525,"current_range_meters":9600,"station_id":"st_cvj6sg6p6f1abm77japg","pricing_plan_id":"cebpf4jnsgd1na2vs0mg"},{"bike_id":"04ad3113-27a5-48ea-ae18-79eeaf0717d1","system_id":"levelo_inurba_marseille","lat":43.30347,"lon":5.4186,"is_reserved":false,"is_disabled":false,"rental_uris":{"android":"levelo://app?vid=04ad3113-27a5-48ea-ae18-79eeaf0717d1","ios":"levelo://app?vid=04ad3113-27a5-48ea-ae18-79eeaf0717d1"},"vehicle_type_id":"4","last_reported":1777363525,"current_range_meters":9600,"station_id":"ce4bhop2rcd13ifvqh7g","pricing_plan_id":"cebpf4jnsgd1na2vs0mg"},