{"last_updated":1684152778,"ttl":30,"version":"2.2","data":{"bikes":[{"bike_id":"dd7796ed-bde8-49ac-b370-18be77c1486d","system_id":"levelo_inurba_marseille","lat":43.313391,"lon":5.36706,"is_reserved":false,"is_disabled":false,"rental_uris":{"android":"levelo://app?vid=dd7796ed-bde8-49ac-b370-18be77c1486d","ios":"levelo://app?vid=dd7796ed-bde8-49ac-b370-18be77c1486d"},"vehicle_type_id":"4","last_reported":1684152778,"current_range_meters":20400,"station_id":"ce4bgr92rcd13ifvqc6g","pricing_plan_id":"free"},{"bike_id":"5ca3eb26-730c-4ddd-8f7c-28af1d0237bc","system_id":"levelo_inurba_marseille","lat":43.313391,"lon":5.36706,"is_reserved":false,"is_disabled":false,"rental_uris":{"android":"levelo://app?vid=5ca3eb26-730c-4ddd-8f7c-28af1d0237bc","ios":"levelo://app?vid=5ca3eb26-730c-4ddd-8f7c-28af1d0237bc"},"vehicle_type_id":"4","last_reported":1684152778,"current_range_meters":31600,"station_id":"ce4bgr92rcd13ifvqc6g","pricing_plan_id":"free"},{"bike_id":"c2eccfb1-0b28-4292-987a-9146201d45db","system_id":"levelo_inurba_marseille","lat":43.31341,"lon":5.367098,"is_reserved":false,"is_disabled":false,"rental_uris":{"android":"levelo://app?vid=c2eccfb1-0b28-4292-987a-9146201d45db","ios":"levelo://app?vid=c2eccfb1-0b28-4292-987a-9146201d45db"},"vehicle_type_id":"4","last_reported":1684152778,"current_range_meters":24400,"station_id":"ce4bgr92rcd13ifvqc6g","pricing_plan_id":"free"},{"bike_id":"c6433706-30c1-464d-b04c-4caf8465ea3d","system_id":"levelo_inurba_marseille","lat":43.31341,"lon":5.367098,"is_reserved":false,"is_disabled":false,"rental_uris":{"android":"levelo://app?vid=c6433706-30c1-464d-b04c-4caf8465ea3d","ios":"levelo://app?vid=c6433706-30c1-464d-b04c-4caf8465ea3d"},"vehicle_type_id":"4","last_reported":1684152778,"current_range_meters":31200,"station_id":"ce4bgr92rcd13ifvqc6g","pricing_plan_id":"free"},{"bike_id":"53915d08-1a59-4b47-9ff7-6b6e44353cbf","system_id":"levelo_inurba_marseille","lat":43.31341,"lon":5.367098,"is_reserved":false,"is_disabled":false,"rental_uris":{"android":"levelo://app?vid=53915d08-1a59-4b47-9ff7-6b6e44353cbf","ios":"levelo://app?vid=53915d08-1a59-4b47-9ff7-6b6e44353cbf"},"vehicle_type_id":"4","last_reported":1684152778,"current_range_meters":30000,"station_id":"ce4bgr92rcd13ifvqc6g","pricing_plan_id":"free"},{"bike_id":"ebd85715-465c-4bc3-8a8e-88a21b831910","system_id":"levelo_inurba_marseille","lat":43.313391,"lon":5.36706,"is_reserved":false,"is_disabled":false,"rental_uris":{"android":"levelo://app?vid=ebd85715-465c-4bc3-8a8e-88a21b831910","ios":"levelo://app?vid=ebd85715-465c-4bc3-8a8e-88a21b831910"},"vehicle_type_id":"4","last_reported":1684152778,"current_range_meters":32000,"station_id":"ce4bgr92rcd13ifvqc6g","pricing_plan_id":"free"},{"bike_id":"dc079656-3e75-4da9-b5c3-1da65dd69f70","system_id":"levelo_inurba_marseille","lat":43.31341,"lon":5.367098,"is_reserved":false,"is_disabled":false,"rental_uris":{"android":"levelo://app?vid=dc079656-3e75-4da9-b5c3-1da65dd69f70","ios":"levelo://app?vid=dc079656-3e75-4da9-b5c3-1da65dd69f70"},"vehicle_type_id":"4","last_reported":1684152778,"current_range_meters":30400,"station_id":"ce4bgr92rcd13ifvqc6g","pricing_plan_id":"free"},{"bike_id":"482a44d1-39b4-4fc8-b86b-72da1ee75b45","system_id":"levelo_inurba_marseille","lat":43.31341,"lon":5.367098,"is_reserved":false,"is_disabled":false,"rental_uris":{"android":"levelo://app?vid=482a44d1-39b4-4fc8-b86b-72da1ee75b45","ios":"levelo://app?vid=482a44d1-39b4-4fc8-b86b-72da1ee75b45"},"vehicle_type_id":"4","last_reported":1684152778,"current_range_meters":30800,"station_id":"ce4bgr92rcd13ifvqc6g","pricing_plan_id":"free"},{"bike_id":"d1b6f8e9-1fba-41a8-b044-84fe3d6908d4","system_id":"levelo_inurba_marseille","lat":43.313391,"lon":5.36706,"is_reserved":false,"is_disabled":false,"rental_uris":{"android":"levelo://app?vid=d1b6f8e9-1fba-41a8-b044-84fe3d6908d4","ios":"levelo://app?vid=d1b6f8e9-1fba-41a8-b044-84fe3d6908d4"},"vehicle_type_id":"4","last_reported":1684152778,"current_range_meters":22000,"station_id":"ce4bgr92rcd13ifvqc6g","pricing_plan_id":"free"},{"bike_id":"373356db-0992-4ad8-8a4d-10e5ff0b5236","system_id":"levelo_inurba_marseille","lat":43.312239,"lon":5.368562,"is_reserved":false,"is_disabled":false,"rental_uris":{"android":"levelo://app?vid=373356db-0992-4ad8-8a4d-10e5ff0b5236","ios":"levelo://app?vid=373356db-0992-4ad8-8a4d-10e5ff0b5236"},"vehicle_type_id":"4","last_reported":1684152778,"current_range_meters":23200,"station_id":"ce4bgl92rcd13ifvqbq0","pricing_plan_id":"free"},{"bike_id":"4a9a83c9-a0b1-496f-bedf-8b4ad704fdc8","system_id":"levelo_inurba_marseille","lat":43.312239,"lon":5.368562,"is_reserved":false,"is_disabled":false,"rental_uris":{"android":"levelo://app?vid=4a9a83c9-a0b1-496f-bedf-8b4ad704fdc8","ios":"levelo://app?vid=4a9a83c9-a0b1-496f-bedf-8b4ad704fdc8"},"vehicle_type_id":"4","last_reported":1684152778,"current_range_meters":0,"station_id":"ce4bgl92rcd13ifvqbq0","pricing_plan_id":"free"},{"bike_id":"0933e61f-9bc8-447b-af03-e939be20c0e1","system_id":"levelo_inurba_marseille","lat":43.312239,"lon":5.368562,"is_reserved":false,"is_disabled":false,"rental_uris":{"android":"levelo://app?vid=0933e61f-9bc8-447b-af03-e939be20c0e1","ios":"levelo://app?vid=0933e61f-9bc8-447b-af03-e939be20c0e1"},"vehicle_type_id":"4","last_reported":1684152778,"current_range_meters":20000,"station_id":"ce4bgl92rcd13ifvqbq0","pricing_plan_id":"free"},{"bike_id":"2040bf8f-005d-4cc6-b2c9-8b2b600ccfe9","system_id":"levelo_inurba_marseille","lat":43.312239,"lon":5.368562,"is_reserved":false,"is_disabled":false,"rental_uris":{"android":"levelo://app?vid=2040bf8f-005d-4cc6-b2c9-8b2b600ccfe9","ios":"levelo://app?vid=2040bf8f-005d-4cc6-b2c9-8b2b600ccfe9"},"vehicle_type_id":"4","last_reported":1684152778,"current_range_meters":11600,"station_id":"ce4bgl92rcd13ifvqbq0","pricing_plan_id":"free"},{"bike_id":"c74fb969-41ad-40bc-84c4-6c1ee421afd1","system_id":"levelo_inurba_marseille","lat":43.312239,"lon":5.368562,"is_reserved":false,"is_disabled":false,"rental_uris":{"android":"levelo://app?vid=c74fb969-41ad-40bc-84c4-6c1ee421afd1","ios":"levelo://app?vid=c74fb969-41ad-40bc-84c4-6c1ee421afd1"},"vehicle_type_id":"4","last_reported":1684152778,"current_range_meters":28400,"station_id":"ce4bgl92rcd13ifvqbq0","pricing_plan_id":"free"},{"bike_id":"41bc8246-d390-4da3-bc01-4a28982578bc","system_id":"levelo_inurba_marseille","lat":43.312239,"lon":5.368562,"is_reserved":false,"is_disabled":false,"rental_uris":{"android":"levelo://app?vid=41bc8246-d390-4da3-bc01-4a28982578bc","ios":"levelo://app?vid=41bc8246-d390-4da3-bc01-4a28982578bc"},"vehicle_type_id":"4","last_reported":1684152778,"current_range_meters":15600,"station_id":"ce4bgl92rcd13ifvqbq0","pricing_plan_id":"free"},{"bike_id":"eb568464-d375-48c4-b993-8960430cc46f","system_id":"levelo_inurba_marseille","lat":43.312239,"lon":5.368562,"is_reserved":false,"is_disabled":false,"rental_uris":{"android":"levelo://app?vid=eb568464-d375-48c4-b993-8960430cc46f","ios":"levelo://app?vid=eb568464-d375-48c4-b993-8960430cc46f"},"vehicle_type_id":"4","last_reported":1684152778,"current_range_meters":31600,"station_id":"ce4bgl92rcd13ifvqbq0","pricing_plan_id":"free"},{"bike_id":"fde7c021-0635-4e81-900c-5219274b06a4","system_id":"levelo_inurba_marseille","lat":43.315199,"lon":5.36664,"is_reserved":false,"is_disabled":false,"rental_uris":{"android":"levelo://app?vid=fde7c021-0635-4e81-900c-5219274b06a4","ios":"levelo://app?vid=fde7c021-0635-4e81-900c-5219274b06a4"},"vehicle_type_id":"4","last_reported":1684152778,"current_range_meters":18000,"station_id":"ce4bh9p2rcd13ifvqec0","pricing_plan_id":"free"},{"bike_id":"d68da2f4-bfd4-4034-addc-07c5710c3213","system_id":"levelo_inurba_marseille","lat":43.31372,"lon":5.37077,"is_reserved":false,"is_disabled":false,"rental_uris":{"android":"levelo://app?vid=d68da2f4-bfd4-4034-addc-07c5710c3213","ios":"levelo://app?vid=d68da2f4-bfd4-4034-addc-07c5710c3213"},"vehicle_type_id":"4","last_reported":1684152778,"current_range_meters":6000,"station_id":"","pricing_plan_id":"free"},{"bike_id":"f3cb09a8-a472-462a-bcb0-eab67e4ac9ad","system_id":"levelo_inurba_marseille","lat":43.309076,"lon":5.368465,"is_reserved":false,"is_disabled":false,"rental_uris":{"android":"levelo://app?vid=f3cb09a8-a472-462a-bcb0-eab67e4ac9ad","ios":"levelo://app?vid=f3cb09a8-a472-462a-bcb0-eab67e4ac9ad"},"vehicle_type_id":"4","last_reported":1684152778,"current_range_meters":30000,"station_id":"ce4bgn92rcd13ifvqbvg","pricing_plan_id":"free"},{"bike_id":"ae242033-b203-4131-82b6-62fa78bd396e","system_id":"levelo_inurba_marseille","lat":43.309076,"lon":5.368465,"is_reserved":false,"is_disabled":false,"rental_uris":{"android":"levelo://app?vid=ae242033-b203-4131-82b6-62fa78bd396e","ios":"levelo://app?vid=ae242033-b203-4131-82b6-62fa78bd396e"},"vehicle_type_id":"4","last_reported":1684152778,"current_range_meters":32000,"station_id":"ce4bgn92rcd13ifvqbvg","pricing_plan_id":"free"},{"bike_id":"a09761f3-fa1b-4b02-a228-1fde2d8bfd3f","system_id":"levelo_inurba_marseille","lat":43.309076,"lon":5.368465,"is_reserved":false,"is_disabled":false,"rental_uris":{"android":"levelo://app?vid=a09761f3-fa1b-4b02-a228-1fde2d8bfd3f","ios":"levelo://app?vid=a09761f3-fa1b-4b02-a228-1fde2d8bfd3f"},"vehicle_type_id":"4","last_reported":1684152778,"current_range_meters":31200,"station_id":"ce4bgn92rcd13ifvqbvg","pricing_plan_id":"free"},{"bike_id":"c806a11d-f1a9-4d7b-a8b4-de2af32328f9","system_id":"levelo_inurba_marseille","lat":43.309076,"lon":5.368465,"is_reserved":false,"is_disabled":false,"rental_uris":{"android":"levelo://app?vid=c806a11d-f1a9-4d7b-a8b4-de2af32328f9","ios":"levelo://app?vid=c806a11d-f1a9-4d7b-a8b4-de2af32328f9"},"vehicle_type_id":"4","last_reported":1684152778,"current_range_meters":31200,"station_id":"ce4bgn92rcd13ifvqbvg","pricing_plan_id":"free"},{"bike_id":"602ca2f4-ff22-4701-bba7-a86fcaa095dc","system_id":"levelo_inurba_marseille","lat":43.309076,"lon":5.368465,"is_reserved":false,"is_disabled":false,"rental_uris":{"android":"levelo://app?vid=602ca2f4-ff22-4701-bba7-a86fcaa095dc","ios":"levelo://app?vid=602ca2f4-ff22-4701-bba7-a86fcaa095dc"},"vehicle_type_id":"4","last_reported":1684152778,"current_range_meters":15200,"station_id":"ce4bgn92rcd13ifvqbvg","pricing_plan_id":"free"},{"bike_id":"4da9a26a-eef6-4d0d-a0df-9405cf3a1216","system_id":"levelo_inurba_marseille","lat":43.309076,"lon":5.368465,"is_reserved":false,"is_disabled":false,"rental_uris":{"android":"levelo://app?vid=4da9a26a-eef6-4d0d-a0df-9405cf3a1216","ios":"levelo://app?vid=4da9a26a-eef6-4d0d-a0df-9405cf3a1216"},"vehicle_type_id":"4","last_reported":1684152778,"current_range_meters":30000,"station_id":"ce4bgn92rcd13ifvqbvg","pricing_plan_id":"free"},{"bike_id":"8eba9ce4-fdb7-4a98-bb92-030ff0e10291","system_id":"levelo_inurba_marseille","lat":43.309076,"lon":5.368465,"is_reserved":false,"is_disabled":false,"rental_uris":{"android":"levelo://app?vid=8eba9ce4-fdb7-4a98-bb92-030ff0e10291","ios":"levelo://app?vid=8eba9ce4-fdb7-4a98-bb92-030ff0e10291"},"vehicle_type_id":"4","last_reported":1684152778,"current_range_meters":12400,"station_id":"ce4bgn92rcd13ifvqbvg","pricing_plan_id":"free"},{"bike_id":"bf38f831-6e15-4ed1-8557-759d579ddeb3","system_id":"levelo_inurba_marseille","lat":43.309076,"lon":5.368465,"is_reserved":false,"is_disabled":false,"rental_uris":{"android":"levelo://app?vid=bf38f831-6e15-4ed1-8557-759d579ddeb3","ios":"levelo://app?vid=bf38f831-6e15-4ed1-8557-759d579ddeb3"},"vehicle_type_id":"4","last_reported":1684152778,"current_range_meters":26400,"station_id":"ce4bgn92rcd13ifvqbvg","pricing_plan_id":"free"},{"bike_id":"923b7890-e6f7-4b82-88dd-b5e3d35b75a7","system_id":"levelo_inurba_marseille","lat":43.314811,"lon":5.373103,"is_reserved":false,"is_disabled":false,"rental_uris":{"android":"levelo://app?vid=923b7890-e6f7-4b82-88dd-b5e3d35b75a7","ios":"levelo://app?vid=923b7890-e6f7-4b82-88dd-b5e3d35b75a7"},"vehicle_type_id":"4","last_reported":1684152778,"current_range_meters":0,"station_id":"ce4bgt12rcd13ifvqcd0","pricing_plan_id":"free"},{"bike_id":"693143c2-4c9c-42d8-a1a1-c3ed5ce6d074","system_id":"levelo_inurba_marseille","lat":43.314811,"lon":5.373104,"is_reserved":false,"is_disabled":false,"rental_uris":{"android":"levelo://app?vid=693143c2-4c9c-42d8-a1a1-c3ed5ce6d074","ios":"levelo://app?vid=693143c2-4c9c-42d8-a1a1-c3ed5ce6d074"},"vehicle_type_id":"4","last_reported":1684152778,"current_range_meters":24400,"station_id":"ce4bgt12rcd13ifvqcd0","pricing_plan_id":"free"},{"bike_id":"f560fd9d-9152-48da-b6b7-132a7a4e1e57","system_id":"levelo_inurba_marseille","lat":43.30588,"lon":5.36563,"is_reserved":false,"is_disabled":false,"rental_uris":{"android":"levelo://app?vid=f560fd9d-9152-48da-b6b7-132a7a4e1e57","ios":"levelo://app?vid=f560fd9d-9152-48da-b6b7-132a7a4e1e57"},"vehicle_type_id":"4","last_reported":1684152778,"current_range_meters":7600,"station_id":"","pricing_plan_id":"free"},{"bike_id":"cca9c822-8a21-470d-95db-9fba32c9d870","system_id":"levelo_inurba_marseille","lat":43.305368,"lon":5.367343,"is_reserved":false,"is_disabled":false,"rental_uris":{"android":"levelo://app?vid=cca9c822-8a21-470d-95db-9fba32c9d870","ios":"levelo://app?vid=cca9c822-8a21-470d-95db-9fba32c9d870"},"vehicle_type_id":"4","last_reported":1684152778,"current_range_meters":3600,"station_id":"ce4bgrp2rcd13ifvqc9g","pricing_plan_id":"free"},{"bike_id":"39c37687-7287-413d-8881-12743724332c","system_id":"levelo_inurba_marseille","lat":43.305368,"lon":5.367343,"is_reserved":false,"is_disabled":false,"rental_uris":{"android":"levelo://app?vid=39c37687-7287-413d-8881-12743724332c","ios":"levelo://app?vid=39c37687-7287-413d-8881-12743724332c"},"vehicle_type_id":"4","last_reported":1684152778,"current_range_meters":22800,"station_id":"ce4bgrp2rcd13ifvqc9g","pricing_plan_id":"free"},{"bike_id":"9172d9be-44ed-478b-839a-0e0295e9b473","system_id":"levelo_inurba_marseille","lat":43.305368,"lon":5.367343,"is_reserved":false,"is_disabled":false,"rental_uris":{"android":"levelo://app?vid=9172d9be-44ed-478b-839a-0e0295e9b473","ios":"levelo://app?vid=9172d9be-44ed-478b-839a-0e0295e9b473"},"vehicle_type_id":"4","last_reported":1684152778,"current_range_meters":21600,"station_id":"ce4bgrp2rcd13ifvqc9g","pricing_plan_id":"free"},{"bike_id":"88784f83-2d50-4bc7-b9e4-6a696b5f89e6","system_id":"levelo_inurba_marseille","lat":43.305368,"lon":5.367343,"is_reserved":false,"is_disabled":false,"rental_uris":{"android":"levelo://app?vid=88784f83-2d50-4bc7-b9e4-6a696b5f89e6","ios":"levelo://app?vid=88784f83-2d50-4bc7-b9e4-6a696b5f89e6"},"vehicle_type_id":"4","last_reported":1684152778,"current_range_meters":800,"station_id":"ce4bgrp2rcd13ifvqc9g","pricing_plan_id":"free"},{"bike_id":"f9f8a8e3-97e5-405d-91f2-59d5339c7ff0","system_id":"levelo_inurba_marseille","lat":43.305368,"lon":5.367343,"is_reserved":false,"is_disabled":false,"rental_uris":{"android":"levelo://app?vid=f9f8a8e3-97e5-405d-91f2-59d5339c7ff0","ios":"levelo://app?vid=f9f8a8e3-97e5-405d-91f2-59d5339c7ff0"},"vehicle_type_id":"4","last_reported":1684152778,"current_range_meters":24400,"station_id":"ce4bgrp2rcd13ifvqc9g","pricing_plan_id":"free"},{"bike_id":"a22ba24d-5f16-45f2-9cd0-3fdbfb536648","system_id":"levelo_inurba_marseille","lat":43.30541,"lon":5.36553,"is_reserved":false,"is_disabled":false,"rental_uris":{"android":"levelo://app?vid=a22ba24d-5f16-45f2-9cd0-3fdbfb536648","ios":"levelo://app?vid=a22ba24d-5f16-45f2-9cd0-3fdbfb536648"},"vehicle_type_id":"4","last_reported":1684152778,"current_range_meters":30400,"station_id":"","pricing_plan_id":"free"},{"bike_id":"36acce14-ee21-45fc-b83b-f8d6cb49c4ee","system_id":"levelo_inurba_marseille","lat":43.305368,"lon":5.367343,"is_reserved":false,"is_disabled":false,"rental_uris":{"android":"levelo://app?vid=36acce14-ee21-45fc-b83b-f8d6cb49c4ee","ios":"levelo://app?vid=36acce14-ee21-45fc-b83b-f8d6cb49c4ee"},"vehicle_type_id":"4","last_reported":1684152778,"current_range_meters":0,"station_id":"ce4bgrp2rcd13ifvqc9g","pricing_plan_id":"free"},{"bike_id":"df9347cc-f1e5-4fc8-b005-691bee52caa2","system_id":"levelo_inurba_marseille","lat":43.30533,"lon":5.36544,"is_reserved":false,"is_disabled":false,"rental_uris":{"android":"levelo://app?vid=df9347cc-f1e5-4fc8-b005-691bee52caa2","ios":"levelo://app?vid=df9347cc-f1e5-4fc8-b005-691bee52caa2"},"vehicle_type_id":"4","last_reported":1684152778,"current_range_meters":17200,"station_id":"","pricing_plan_id":"free"},{"bike_id":"1fd92b99-b7fc-4665-9e1b-50d868bcd2ed","system_id":"levelo_inurba_marseille","lat":43.30533,"lon":5.36541,"is_reserved":false,"is_disabled":false,"rental_uris":{"android":"levelo://app?vid=1fd92b99-b7fc-4665-9e1b-50d868bcd2ed","ios":"levelo://app?vid=1fd92b99-b7fc-4665-9e1b-50d868bcd2ed"},"vehicle_type_id":"4","last_reported":1684152778,"current_range_meters":15600,"station_id":"","pricing_plan_id":"free"},{"bike_id":"2598d9f8-1f4c-4cb2-b837-ae5f0c3016e0","system_id":"levelo_inurba_marseille","lat":43.30531,"lon":5.36538,"is_reserved":false,"is_disabled":false,"rental_uris":{"android":"levelo://app?vid=2598d9f8-1f4c-4cb2-b837-ae5f0c3016e0","ios":"levelo://app?vid=2598d9f8-1f4c-4cb2-b837-ae5f0c3016e0"},"vehicle_type_id":"4","last_reported":1684152778,"current_range_meters":22000,"station_id":"","pricing_plan_id":"free"},{"bike_id":"3c587fca-f5cc-4dc0-bc9e-c954f2edffe8","system_id":"levelo_inurba_marseille","lat":43.31203,"lon":5.37785,"is_reserved":false,"is_disabled":false,"rental_uris":{"android":"levelo://app?vid=3c587fca-f5cc-4dc0-bc9e-c954f2edffe8","ios":"levelo://app?vid=3c587fca-f5cc-4dc0-bc9e-c954f2edffe8"},"vehicle_type_id":"4","last_reported":1684152778,"current_range_meters":5200,"station_id":"","pricing_plan_id":"free"},{"bike_id":"dc9becac-3c4b-4ec7-9937-d0fc230a5bcf","system_id":"levelo_inurba_marseille","lat":43.317075,"lon":5.377367,"is_reserved":false,"is_disabled":false,"rental_uris":{"android":"levelo://app?vid=dc9becac-3c4b-4ec7-9937-d0fc230a5bcf","ios":"levelo://app?vid=dc9becac-3c4b-4ec7-9937-d0fc230a5bcf"},"vehicle_type_id":"4","last_reported":1684152778,"current_range_meters":17600,"station_id":"ce4bgth2rcd13ifvqch0","pricing_plan_id":"free"},{"bike_id":"3835d3d7-920e-4f54-83ee-bde9bbe25abe","system_id":"levelo_inurba_marseille","lat":43.317075,"lon":5.377367,"is_reserved":false,"is_disabled":false,"rental_uris":{"android":"levelo://app?vid=3835d3d7-920e-4f54-83ee-bde9bbe25abe","ios":"levelo://app?vid=3835d3d7-920e-4f54-83ee-bde9bbe25abe"},"vehicle_type_id":"4","last_reported":1684152778,"current_range_meters":6800,"station_id":"ce4bgth2rcd13ifvqch0","pricing_plan_id":"free"},{"bike_id":"036e7558-270b-45d8-a65a-77792940928e","system_id":"levelo_inurba_marseille","lat":43.317075,"lon":5.377367,"is_reserved":false,"is_disabled":false,"rental_uris":{"android":"levelo://app?vid=036e7558-270b-45d8-a65a-77792940928e","ios":"levelo://app?vid=036e7558-270b-45d8-a65a-77792940928e"},"vehicle_type_id":"4","last_reported":1684152778,"current_range_meters":26000,"station_id":"ce4bgth2rcd13ifvqch0","pricing_plan_id":"free"},{"bike_id":"40f4fb3d-2a55-4548-a0d8-2c060c9205a6","system_id":"levelo_inurba_marseille","lat":43.30316,"lon":5.36893,"is_reserved":false,"is_disabled":false,"rental_uris":{"android":"levelo://app?vid=40f4fb3d-2a55-4548-a0d8-2c060c9205a6","ios":"levelo://app?vid=40f4fb3d-2a55-4548-a0d8-2c060c9205a6"},"vehicle_type_id":"4","last_reported":1684152778,"current_range_meters":23200,"station_id":"ce4bgqh2rcd13ifvqc5g","pricing_plan_id":"free"},{"bike_id":"f2ca3299-9cf5-4add-afdd-040d6d835eb3","system_id":"levelo_inurba_marseille","lat":43.30304,"lon":5.368987,"is_reserved":false,"is_disabled":false,"rental_uris":{"android":"levelo://app?vid=f2ca3299-9cf5-4add-afdd-040d6d835eb3","ios":"levelo://app?vid=f2ca3299-9cf5-4add-afdd-040d6d835eb3"},"vehicle_type_id":"4","last_reported":1684152778,"current_range_meters":800,"station_id":"ce4bgqh2rcd13ifvqc5g","pricing_plan_id":"free"},{"bike_id":"dab45318-c1da-4fbc-b715-576590eb45aa","system_id":"levelo_inurba_marseille","lat":43.30304,"lon":5.368987,"is_reserved":false,"is_disabled":false,"rental_uris":{"android":"levelo://app?vid=dab45318-c1da-4fbc-b715-576590eb45aa","ios":"levelo://app?vid=dab45318-c1da-4fbc-b715-576590eb45aa"},"vehicle_type_id":"4","last_reported":1684152778,"current_range_meters":30400,"station_id":"ce4bgqh2rcd13ifvqc5g","pricing_plan_id":"free"},{"bike_id":"9dc0acf4-f9d0-4d17-b137-6d775f83c10f","system_id":"levelo_inurba_marseille","lat":43.30304,"lon":5.368987,"is_reserved":false,"is_disabled":false,"rental_uris":{"android":"levelo://app?vid=9dc0acf4-f9d0-4d17-b137-6d775f83c10f","ios":"levelo://app?vid=9dc0acf4-f9d0-4d17-b137-6d775f83c10f"},"vehicle_type_id":"4","last_reported":1684152778,"current_range_meters":26800,"station_id":"ce4bgqh2rcd13ifvqc5g","pricing_plan_id":"free"},{"bike_id":"c250dc65-3c44-4346-9db8-3cb808cc21cb","system_id":"levelo_inurba_marseille","lat":43.303046,"lon":5.368981,"is_reserved":false,"is_disabled":false,"rental_uris":{"android":"levelo://app?vid=c250dc65-3c44-4346-9db8-3cb808cc21cb","ios":"levelo://app?vid=c250dc65-3c44-4346-9db8-3cb808cc21cb"},"vehicle_type_id":"4","last_reported":1684152778,"current_range_meters":30800,"station_id":"ce4bgqh2rcd13ifvqc5g","pricing_plan_id":"free"},{"bike_id":"fa35d025-74fd-4a2f-89d2-bec6b257345a","system_id":"levelo_inurba_marseille","lat":43.30304,"lon":5.368987,"is_reserved":false,"is_disabled":false,"rental_uris":{"android":"levelo://app?vid=fa35d025-74fd-4a2f-89d2-bec6b257345a","ios":"levelo://app?vid=fa35d025-74fd-4a2f-89d2-bec6b257345a"},"vehicle_type_id":"4","last_reported":1684152778,"current_range_meters":4800,"station_id":"ce4bgqh2rcd13ifvqc5g","pricing_plan_id":"free"},{"bike_id":"bbf932b9-5268-448a-8dad-14837c416d84","system_id":"levelo_inurba_marseille","lat":43.315289,"lon":5.380349,"is_reserved":false,"is_disabled":false,"rental_uris":{"android":"levelo://app?vid=bbf932b9-5268-448a-8dad-14837c416d84","ios":"levelo://app?vid=bbf932b9-5268-448a-8dad-14837c416d84"},"vehicle_type_id":"4","last_reported":1684152778,"current_range_meters":17600,"station_id":"ce4bhsp2rcd13ifvqi50","pricing_plan_id":"free"},{"bike_id":"f8a2747a-70a7-45b5-8529-5b4d4ca57feb","system_id":"levelo_inurba_marseille","lat":43.301939,"lon":5.366286,"is_reserved":false,"is_disabled":false,"rental_uris":{"android":"levelo://app?vid=f8a2747a-70a7-45b5-8529-5b4d4ca57feb","ios":"levelo://app?vid=f8a2747a-70a7-45b5-8529-5b4d4ca57feb"},"vehicle_type_id":"4","last_reported":1684152778,"current_range_meters":28400,"station_id":"ce4bgrh2rcd13ifvqc8g","pricing_plan_id":"free"},{"bike_id":"76f6acf8-57d4-4b67-b493-31c882ae13e3","system_id":"levelo_inurba_marseille","lat":43.301939,"lon":5.366286,"is_reserved":false,"is_disabled":false,"rental_uris":{"android":"levelo://app?vid=76f6acf8-57d4-4b67-b493-31c882ae13e3","ios":"levelo://app?vid=76f6acf8-57d4-4b67-b493-31c882ae13e3"},"vehicle_type_id":"4","last_reported":1684152778,"current_range_meters":27600,"station_id":"ce4bgrh2rcd13ifvqc8g","pricing_plan_id":"free"},{"bike_id":"7427fcb2-8532-4b1d-8d2c-8e972442612c","system_id":"levelo_inurba_marseille","lat":43.301939,"lon":5.366286,"is_reserved":false,"is_disabled":false,"rental_uris":{"android":"levelo://app?vid=7427fcb2-8532-4b1d-8d2c-8e972442612c","ios":"levelo://app?vid=7427fcb2-8532-4b1d-8d2c-8e972442612c"},"vehicle_type_id":"4","last_reported":1684152778,"current_range_meters":14400,"station_id":"ce4bgrh2rcd13ifvqc8g","pricing_plan_id":"free"},{"bike_id":"a4db9302-13c4-4c9b-95ed-2d51b5a1d1ce","system_id":"levelo_inurba_marseille","lat":43.301742,"lon":5.366196,"is_reserved":false,"is_disabled":false,"rental_uris":{"android":"levelo://app?vid=a4db9302-13c4-4c9b-95ed-2d51b5a1d1ce","ios":"levelo://app?vid=a4db9302-13c4-4c9b-95ed-2d51b5a1d1ce"},"vehicle_type_id":"4","last_reported":1684152778,"current_range_meters":25200,"station_id":"","pricing_plan_id":"free"},{"bike_id":"d33fdb13-d31d-4169-b082-33ef25e9b179","system_id":"levelo_inurba_marseille","lat":43.31395,"lon":5.38207,"is_reserved":false,"is_disabled":false,"rental_uris":{"android":"levelo://app?vid=d33fdb13-d31d-4169-b082-33ef25e9b179","ios":"levelo://app?vid=d33fdb13-d31d-4169-b082-33ef25e9b179"},"vehicle_type_id":"4","last_reported":1684152778,"current_range_meters":29200,"station_id":"","pricing_plan_id":"free"},{"bike_id":"b8d061d6-c6d2-4029-957e-73193b552b49","system_id":"levelo_inurba_marseille","lat":43.30473,"lon":5.37903,"is_reserved":false,"is_disabled":false,"rental_uris":{"android":"levelo://app?vid=b8d061d6-c6d2-4029-957e-73193b552b49","ios":"levelo://app?vid=b8d061d6-c6d2-4029-957e-73193b552b49"},"vehicle_type_id":"4","last_reported":1684152778,"current_range_meters":10400,"station_id":"ce4bgup2rcd13ifvqcn0","pricing_plan_id":"free"},{"bike_id":"f74d6f88-563b-4963-a691-9b1e4b7238af","system_id":"levelo_inurba_marseille","lat":43.304606,"lon":5.379026,"is_reserved":false,"is_disabled":false,"rental_uris":{"android":"levelo://app?vid=f74d6f88-563b-4963-a691-9b1e4b7238af","ios":"levelo://app?vid=f74d6f88-563b-4963-a691-9b1e4b7238af"},"vehicle_type_id":"4","last_reported":1684152778,"current_range_meters":11600,"station_id":"ce4bgup2rcd13ifvqcn0","pricing_plan_id":"free"},{"bike_id":"7cb03b74-db14-42e5-bd30-0302c55d6f31","system_id":"levelo_inurba_marseille","lat":43.304606,"lon":5.379026,"is_reserved":false,"is_disabled":false,"rental_uris":{"android":"levelo://app?vid=7cb03b74-db14-42e5-bd30-0302c55d6f31","ios":"levelo://app?vid=7cb03b74-db14-42e5-bd30-0302c55d6f31"},"vehicle_type_id":"4","last_reported":1684152778,"current_range_meters":19200,"station_id":"ce4bgup2rcd13ifvqcn0","pricing_plan_id":"free"},{"bike_id":"69388a1f-4ce6-4ce9-8d44-5c2b0847e3bb","system_id":"levelo_inurba_marseille","lat":43.304606,"lon":5.379026,"is_reserved":false,"is_disabled":false,"rental_uris":{"android":"levelo://app?vid=69388a1f-4ce6-4ce9-8d44-5c2b0847e3bb","ios":"levelo://app?vid=69388a1f-4ce6-4ce9-8d44-5c2b0847e3bb"},"vehicle_type_id":"4","last_reported":1684152778,"current_range_meters":16400,"station_id":"ce4bgup2rcd13ifvqcn0","pricing_plan_id":"free"},{"bike_id":"2a4dc8c6-d9f1-43bf-9836-e1026be5d133","system_id":"levelo_inurba_marseille","lat":43.30144,"lon":5.37397,"is_reserved":false,"is_disabled":false,"rental_uris":{"android":"levelo://app?vid=2a4dc8c6-d9f1-43bf-9836-e1026be5d133","ios":"levelo://app?vid=2a4dc8c6-d9f1-43bf-9836-e1026be5d133"},"vehicle_type_id":"4","last_reported":1684152778,"current_range_meters":20400,"station_id":"ce4bgs92rcd13ifvqcc0","pricing_plan_id":"free"},{"bike_id":"cf79e005-9ce6-4414-9312-9a0722d6eb60","system_id":"levelo_inurba_marseille","lat":43.30139,"lon":5.37408,"is_reserved":false,"is_disabled":false,"rental_uris":{"android":"levelo://app?vid=cf79e005-9ce6-4414-9312-9a0722d6eb60","ios":"levelo://app?vid=cf79e005-9ce6-4414-9312-9a0722d6eb60"},"vehicle_type_id":"4","last_reported":1684152778,"current_range_meters":12400,"station_id":"ce4bgs92rcd13ifvqcc0","pricing_plan_id":"free"},{"bike_id":"20338800-271c-4c32-99c9-74cc24bd67d4","system_id":"levelo_inurba_marseille","lat":43.313571,"lon":5.384829,"is_reserved":false,"is_disabled":false,"rental_uris":{"android":"levelo://app?vid=20338800-271c-4c32-99c9-74cc24bd67d4","ios":"levelo://app?vid=20338800-271c-4c32-99c9-74cc24bd67d4"},"vehicle_type_id":"4","last_reported":1684152778,"current_range_meters":5200,"station_id":"ce4bgt92rcd13ifvqcf0","pricing_plan_id":"free"},{"bike_id":"7ca60e87-de89-43f9-8093-7b6625b636d9","system_id":"levelo_inurba_marseille","lat":43.313571,"lon":5.384829,"is_reserved":false,"is_disabled":false,"rental_uris":{"android":"levelo://app?vid=7ca60e87-de89-43f9-8093-7b6625b636d9","ios":"levelo://app?vid=7ca60e87-de89-43f9-8093-7b6625b636d9"},"vehicle_type_id":"4","last_reported":1684152778,"current_range_meters":12800,"station_id":"ce4bgt92rcd13ifvqcf0","pricing_plan_id":"free"},{"bike_id":"db64f9ad-13cc-45b4-acf4-77f7e4b8ca3a","system_id":"levelo_inurba_marseille","lat":43.313571,"lon":5.384829,"is_reserved":false,"is_disabled":false,"rental_uris":{"android":"levelo://app?vid=db64f9ad-13cc-45b4-acf4-77f7e4b8ca3a","ios":"levelo://app?vid=db64f9ad-13cc-45b4-acf4-77f7e4b8ca3a"},"vehicle_type_id":"4","last_reported":1684152778,"current_range_meters":800,"station_id":"ce4bgt92rcd13ifvqcf0","pricing_plan_id":"free"},{"bike_id":"eb0f5893-fbd5-45d5-a4f4-b668d98782d5","system_id":"levelo_inurba_marseille","lat":43.313571,"lon":5.384829,"is_reserved":false,"is_disabled":false,"rental_uris":{"android":"levelo://app?vid=eb0f5893-fbd5-45d5-a4f4-b668d98782d5","ios":"levelo://app?vid=eb0f5893-fbd5-45d5-a4f4-b668d98782d5"},"vehicle_type_id":"4","last_reported":1684152778,"current_range_meters":22800,"station_id":"ce4bgt92rcd13ifvqcf0","pricing_plan_id":"free"},{"bike_id":"21cd4d71-9d35-49ae-ada7-38a67a52f2e5","system_id":"levelo_inurba_marseille","lat":43.313571,"lon":5.384829,"is_reserved":false,"is_disabled":false,"rental_uris":{"android":"levelo://app?vid=21cd4d71-9d35-49ae-ada7-38a67a52f2e5","ios":"levelo://app?vid=21cd4d71-9d35-49ae-ada7-38a67a52f2e5"},"vehicle_type_id":"4","last_reported":1684152778,"current_range_meters":27200,"station_id":"ce4bgt92rcd13ifvqcf0","pricing_plan_id":"free"},{"bike_id":"4b378660-81e2-41e8-b289-78cf8da67388","system_id":"levelo_inurba_marseille","lat":43.313571,"lon":5.384829,"is_reserved":false,"is_disabled":false,"rental_uris":{"android":"levelo://app?vid=4b378660-81e2-41e8-b289-78cf8da67388","ios":"levelo://app?vid=4b378660-81e2-41e8-b289-78cf8da67388"},"vehicle_type_id":"4","last_reported":1684152778,"current_range_meters":6800,"station_id":"ce4bgt92rcd13ifvqcf0","pricing_plan_id":"free"},{"bike_id":"96549889-4950-4cfb-9c25-089b0655fc3f","system_id":"levelo_inurba_marseille","lat":43.313571,"lon":5.384829,"is_reserved":false,"is_disabled":false,"rental_uris":{"android":"levelo://app?vid=96549889-4950-4cfb-9c25-089b0655fc3f","ios":"levelo://app?vid=96549889-4950-4cfb-9c25-089b0655fc3f"},"vehicle_type_id":"4","last_reported":1684152778,"current_range_meters":15600,"station_id":"ce4bgt92rcd13ifvqcf0","pricing_plan_id":"free"},{"bike_id":"39bac226-c075-4ca4-a028-3a8457ae5a8c","system_id":"levelo_inurba_marseille","lat":43.313571,"lon":5.384829,"is_reserved":false,"is_disabled":false,"rental_uris":{"android":"levelo://app?vid=39bac226-c075-4ca4-a028-3a8457ae5a8c","ios":"levelo://app?vid=39bac226-c075-4ca4-a028-3a8457ae5a8c"},"vehicle_type_id":"4","last_reported":1684152778,"current_range_meters":27600,"station_id":"ce4bgt92rcd13ifvqcf0","pricing_plan_id":"free"},{"bike_id":"bdf0dcda-580a-4844-a395-2c3106ab86f2","system_id":"levelo_inurba_marseille","lat":43.313571,"lon":5.384829,"is_reserved":false,"is_disabled":false,"rental_uris":{"android":"levelo://app?vid=bdf0dcda-580a-4844-a395-2c3106ab86f2","ios":"levelo://app?vid=bdf0dcda-580a-4844-a395-2c3106ab86f2"},"vehicle_type_id":"4","last_reported":1684152778,"current_range_meters":4000,"station_id":"ce4bgt92rcd13ifvqcf0","pricing_plan_id":"free"},{"bike_id":"37b38e1f-0ca7-465f-8b82-d485123a0d9e","system_id":"levelo_inurba_marseille","lat":43.313571,"lon":5.384829,"is_reserved":false,"is_disabled":false,"rental_uris":{"android":"levelo://app?vid=37b38e1f-0ca7-465f-8b82-d485123a0d9e","ios":"levelo://app?vid=37b38e1f-0ca7-465f-8b82-d485123a0d9e"},"vehicle_type_id":"4","last_reported":1684152778,"current_range_meters":31600,"station_id":"ce4bgt92rcd13ifvqcf0","pricing_plan_id":"free"},{"bike_id":"e45e8687-fca4-450c-ab08-b15c8431d640","system_id":"levelo_inurba_marseille","lat":43.298433,"lon":5.362774,"is_reserved":false,"is_disabled":false,"rental_uris":{"android":"levelo://app?vid=e45e8687-fca4-450c-ab08-b15c8431d640","ios":"levelo://app?vid=e45e8687-fca4-450c-ab08-b15c8431d640"},"vehicle_type_id":"4","last_reported":1684152778,"current_range_meters":31200,"station_id":"ce4bgpp2rcd13ifvqc3g","pricing_plan_id":"free"},{"bike_id":"76c43fd9-1b2d-4183-8f80-941c664bced9","system_id":"levelo_inurba_marseille","lat":43.298433,"lon":5.362774,"is_reserved":false,"is_disabled":false,"rental_uris":{"android":"levelo://app?vid=76c43fd9-1b2d-4183-8f80-941c664bced9","ios":"levelo://app?vid=76c43fd9-1b2d-4183-8f80-941c664bced9"},"vehicle_type_id":"4","last_reported":1684152778,"current_range_meters":31600,"station_id":"ce4bgpp2rcd13ifvqc3g","pricing_plan_id":"free"},{"bike_id":"af349693-f8ef-405a-bafa-45c53c7f0af1","system_id":"levelo_inurba_marseille","lat":43.298433,"lon":5.362774,"is_reserved":false,"is_disabled":false,"rental_uris":{"android":"levelo://app?vid=af349693-f8ef-405a-bafa-45c53c7f0af1","ios":"levelo://app?vid=af349693-f8ef-405a-bafa-45c53c7f0af1"},"vehicle_type_id":"4","last_reported":1684152778,"current_range_meters":31600,"station_id":"ce4bgpp2rcd13ifvqc3g","pricing_plan_id":"free"},{"bike_id":"0fe7dc17-2f89-4463-80e6-9da4c1bc832e","system_id":"levelo_inurba_marseille","lat":43.298433,"lon":5.362774,"is_reserved":false,"is_disabled":false,"rental_uris":{"android":"levelo://app?vid=0fe7dc17-2f89-4463-80e6-9da4c1bc832e","ios":"levelo://app?vid=0fe7dc17-2f89-4463-80e6-9da4c1bc832e"},"vehicle_type_id":"4","last_reported":1684152778,"current_range_meters":31600,"station_id":"ce4bgpp2rcd13ifvqc3g","pricing_plan_id":"free"},{"bike_id":"be4584a8-9f27-4f3c-bef2-03c28532b814","system_id":"levelo_inurba_marseille","lat":43.298433,"lon":5.362774,"is_reserved":false,"is_disabled":false,"rental_uris":{"android":"levelo://app?vid=be4584a8-9f27-4f3c-bef2-03c28532b814","ios":"levelo://app?vid=be4584a8-9f27-4f3c-bef2-03c28532b814"},"vehicle_type_id":"4","last_reported":1684152778,"current_range_meters":30400,"station_id":"ce4bgpp2rcd13ifvqc3g","pricing_plan_id":"free"},{"bike_id":"ad9a8dd7-7c5a-4ad5-959c-8c55df8ccdcb","system_id":"levelo_inurba_marseille","lat":43.298433,"lon":5.362774,"is_reserved":false,"is_disabled":false,"rental_uris":{"android":"levelo://app?vid=ad9a8dd7-7c5a-4ad5-959c-8c55df8ccdcb","ios":"levelo://app?vid=ad9a8dd7-7c5a-4ad5-959c-8c55df8ccdcb"},"vehicle_type_id":"4","last_reported":1684152778,"current_range_meters":29200,"station_id":"ce4bgpp2rcd13ifvqc3g","pricing_plan_id":"free"},{"bike_id":"a46365c4-12ea-4d31-ba2b-289293c8ca1e","system_id":"levelo_inurba_marseille","lat":43.298433,"lon":5.362774,"is_reserved":false,"is_disabled":false,"rental_uris":{"android":"levelo://app?vid=a46365c4-12ea-4d31-ba2b-289293c8ca1e","ios":"levelo://app?vid=a46365c4-12ea-4d31-ba2b-289293c8ca1e"},"vehicle_type_id":"4","last_reported":1684152778,"current_range_meters":31200,"station_id":"ce4bgpp2rcd13ifvqc3g","pricing_plan_id":"free"},{"bike_id":"874a8500-1e33-4f41-bc04-5528f98d4c21","system_id":"levelo_inurba_marseille","lat":43.298433,"lon":5.362774,"is_reserved":false,"is_disabled":false,"rental_uris":{"android":"levelo://app?vid=874a8500-1e33-4f41-bc04-5528f98d4c21","ios":"levelo://app?vid=874a8500-1e33-4f41-bc04-5528f98d4c21"},"vehicle_type_id":"4","last_reported":1684152778,"current_range_meters":31600,"station_id":"ce4bgpp2rcd13ifvqc3g","pricing_plan_id":"free"},{"bike_id":"613fd0b2-1ffd-4b2b-9fdc-74748131c277","system_id":"levelo_inurba_marseille","lat":43.311722,"lon":5.387247,"is_reserved":false,"is_disabled":false,"rental_uris":{"android":"levelo://app?vid=613fd0b2-1ffd-4b2b-9fdc-74748131c277","ios":"levelo://app?vid=613fd0b2-1ffd-4b2b-9fdc-74748131c277"},"vehicle_type_id":"4","last_reported":1684152778,"current_range_meters":5600,"station_id":"ce4bgv12rcd13ifvqcp0","pricing_plan_id":"free"},{"bike_id":"1e98acf5-398a-4e52-9426-b800df0d069c","system_id":"levelo_inurba_marseille","lat":43.299243,"lon":5.37481,"is_reserved":false,"is_disabled":false,"rental_uris":{"android":"levelo://app?vid=1e98acf5-398a-4e52-9426-b800df0d069c","ios":"levelo://app?vid=1e98acf5-398a-4e52-9426-b800df0d069c"},"vehicle_type_id":"4","last_reported":1684152778,"current_range_meters":7600,"station_id":"ce4bgjh2rcd13ifvqbg0","pricing_plan_id":"free"},{"bike_id":"be840c93-0dae-4113-b065-6e63692db62c","system_id":"levelo_inurba_marseille","lat":43.32752,"lon":5.36691,"is_reserved":false,"is_disabled":false,"rental_uris":{"android":"levelo://app?vid=be840c93-0dae-4113-b065-6e63692db62c","ios":"levelo://app?vid=be840c93-0dae-4113-b065-6e63692db62c"},"vehicle_type_id":"4","last_reported":1684152778,"current_range_meters":3600,"station_id":"","pricing_plan_id":"free"},{"bike_id":"db08d003-515e-43e1-a73d-72504a5f3259","system_id":"levelo_inurba_marseille","lat":43.311722,"lon":5.387247,"is_reserved":false,"is_disabled":false,"rental_uris":{"android":"levelo://app?vid=db08d003-515e-43e1-a73d-72504a5f3259","ios":"levelo://app?vid=db08d003-515e-43e1-a73d-72504a5f3259"},"vehicle_type_id":"4","last_reported":1684152778,"current_range_meters":1600,"station_id":"ce4bgv12rcd13ifvqcp0","pricing_plan_id":"free"},{"bike_id":"223a3942-eae0-44ef-a497-aa5c208469bf","system_id":"levelo_inurba_marseille","lat":43.32815,"lon":5.36672,"is_reserved":false,"is_disabled":false,"rental_uris":{"android":"levelo://app?vid=223a3942-eae0-44ef-a497-aa5c208469bf","ios":"levelo://app?vid=223a3942-eae0-44ef-a497-aa5c208469bf"},"vehicle_type_id":"4","last_reported":1684152778,"current_range_meters":16000,"station_id":"","pricing_plan_id":"free"},{"bike_id":"1f8ff4b4-3830-42a4-b581-4dec2c0dec42","system_id":"levelo_inurba_marseille","lat":43.32821,"lon":5.36678,"is_reserved":false,"is_disabled":false,"rental_uris":{"android":"levelo://app?vid=1f8ff4b4-3830-42a4-b581-4dec2c0dec42","ios":"levelo://app?vid=1f8ff4b4-3830-42a4-b581-4dec2c0dec42"},"vehicle_type_id":"4","last_reported":1684152778,"current_range_meters":17600,"station_id":"ce4bhs92rcd13ifvqi0g","pricing_plan_id":"free"},{"bike_id":"ce99431c-8377-4512-9962-530c9a4ca775","system_id":"levelo_inurba_marseille","lat":43.32822,"lon":5.36684,"is_reserved":false,"is_disabled":false,"rental_uris":{"android":"levelo://app?vid=ce99431c-8377-4512-9962-530c9a4ca775","ios":"levelo://app?vid=ce99431c-8377-4512-9962-530c9a4ca775"},"vehicle_type_id":"4","last_reported":1684152778,"current_range_meters":20800,"station_id":"ce4bhs92rcd13ifvqi0g","pricing_plan_id":"free"},{"bike_id":"8dc14bae-26ff-4e8b-814a-dd0635a7d4e2","system_id":"levelo_inurba_marseille","lat":43.32823,"lon":5.36683,"is_reserved":false,"is_disabled":false,"rental_uris":{"android":"levelo://app?vid=8dc14bae-26ff-4e8b-814a-dd0635a7d4e2","ios":"levelo://app?vid=8dc14bae-26ff-4e8b-814a-dd0635a7d4e2"},"vehicle_type_id":"4","last_reported":1684152778,"current_range_meters":24400,"station_id":"ce4bhs92rcd13ifvqi0g","pricing_plan_id":"free"},{"bike_id":"c63852da-5f0e-4508-a2f6-b6a25d66b0c6","system_id":"levelo_inurba_marseille","lat":43.328371,"lon":5.366909,"is_reserved":false,"is_disabled":false,"rental_uris":{"android":"levelo://app?vid=c63852da-5f0e-4508-a2f6-b6a25d66b0c6","ios":"levelo://app?vid=c63852da-5f0e-4508-a2f6-b6a25d66b0c6"},"vehicle_type_id":"4","last_reported":1684152778,"current_range_meters":5600,"station_id":"ce4bhs92rcd13ifvqi0g","pricing_plan_id":"free"},{"bike_id":"1b448613-613a-40d5-8c09-58c4ba87a63c","system_id":"levelo_inurba_marseille","lat":43.32824,"lon":5.36678,"is_reserved":false,"is_disabled":false,"rental_uris":{"android":"levelo://app?vid=1b448613-613a-40d5-8c09-58c4ba87a63c","ios":"levelo://app?vid=1b448613-613a-40d5-8c09-58c4ba87a63c"},"vehicle_type_id":"4","last_reported":1684152778,"current_range_meters":13600,"station_id":"ce4bhs92rcd13ifvqi0g","pricing_plan_id":"free"},{"bike_id":"d65e3504-e852-446c-b998-21e150a744c8","system_id":"levelo_inurba_marseille","lat":43.32824,"lon":5.36669,"is_reserved":false,"is_disabled":false,"rental_uris":{"android":"levelo://app?vid=d65e3504-e852-446c-b998-21e150a744c8","ios":"levelo://app?vid=d65e3504-e852-446c-b998-21e150a744c8"},"vehicle_type_id":"4","last_reported":1684152778,"current_range_meters":11200,"station_id":"ce4bhs92rcd13ifvqi0g","pricing_plan_id":"free"},{"bike_id":"c3a65bde-22f0-4855-b7ef-bf12dd2073e1","system_id":"levelo_inurba_marseille","lat":43.32825,"lon":5.36681,"is_reserved":false,"is_disabled":false,"rental_uris":{"android":"levelo://app?vid=c3a65bde-22f0-4855-b7ef-bf12dd2073e1","ios":"levelo://app?vid=c3a65bde-22f0-4855-b7ef-bf12dd2073e1"},"vehicle_type_id":"4","last_reported":1684152778,"current_range_meters":1200,"station_id":"ce4bhs92rcd13ifvqi0g","pricing_plan_id":"free"},{"bike_id":"14b6bcff-37dd-4d87-9f56-f9f851b88984","system_id":"levelo_inurba_marseille","lat":43.32826,"lon":5.36682,"is_reserved":false,"is_disabled":false,"rental_uris":{"android":"levelo://app?vid=14b6bcff-37dd-4d87-9f56-f9f851b88984","ios":"levelo://app?vid=14b6bcff-37dd-4d87-9f56-f9f851b88984"},"vehicle_type_id":"4","last_reported":1684152778,"current_range_meters":20800,"station_id":"ce4bhs92rcd13ifvqi0g","pricing_plan_id":"free"},{"bike_id":"9f9608df-03c7-4243-8d9c-952bb1e12abd","system_id":"levelo_inurba_marseille","lat":43.32829,"lon":5.3668,"is_reserved":false,"is_disabled":false,"rental_uris":{"android":"levelo://app?vid=9f9608df-03c7-4243-8d9c-952bb1e12abd","ios":"levelo://app?vid=9f9608df-03c7-4243-8d9c-952bb1e12abd"},"vehicle_type_id":"4","last_reported":1684152778,"current_range_meters":26000,"station_id":"ce4bhs92rcd13ifvqi0g","pricing_plan_id":"free"},{"bike_id":"c5f0b0c3-4bf8-45ef-8bea-11b311b83762","system_id":"levelo_inurba_marseille","lat":43.32831,"lon":5.36681,"is_reserved":false,"is_disabled":false,"rental_uris":{"android":"levelo://app?vid=c5f0b0c3-4bf8-45ef-8bea-11b311b83762","ios":"levelo://app?vid=c5f0b0c3-4bf8-45ef-8bea-11b311b83762"},"vehicle_type_id":"4","last_reported":1684152778,"current_range_meters":9600,"station_id":"ce4bhs92rcd13ifvqi0g","pricing_plan_id":"free"},{"bike_id":"b0d568b7-7214-4f54-9476-038c1091f2e7","system_id":"levelo_inurba_marseille","lat":43.29716,"lon":5.36611,"is_reserved":false,"is_disabled":false,"rental_uris":{"android":"levelo://app?vid=b0d568b7-7214-4f54-9476-038c1091f2e7","ios":"levelo://app?vid=b0d568b7-7214-4f54-9476-038c1091f2e7"},"vehicle_type_id":"4","last_reported":1684152778,"current_range_meters":14800,"station_id":"ce4bgn12rcd13ifvqbt0","pricing_plan_id":"free"},{"bike_id":"9cc8f129-0fa0-48dd-8f06-6fcce9762c84","system_id":"levelo_inurba_marseille","lat":43.2968,"lon":5.37291,"is_reserved":false,"is_disabled":false,"rental_uris":{"android":"levelo://app?vid=9cc8f129-0fa0-48dd-8f06-6fcce9762c84","ios":"levelo://app?vid=9cc8f129-0fa0-48dd-8f06-6fcce9762c84"},"vehicle_type_id":"4","last_reported":1684152778,"current_range_meters":27200,"station_id":"ce4bgk12rcd13ifvqbj0","pricing_plan_id":"free"},{"bike_id":"e16e9fb7-58da-43dc-9b8b-a38685928d53","system_id":"levelo_inurba_marseille","lat":43.296129,"lon":5.370777,"is_reserved":false,"is_disabled":false,"rental_uris":{"android":"levelo://app?vid=e16e9fb7-58da-43dc-9b8b-a38685928d53","ios":"levelo://app?vid=e16e9fb7-58da-43dc-9b8b-a38685928d53"},"vehicle_type_id":"4","last_reported":1684152778,"current_range_meters":2000,"station_id":"ce4bgnh2rcd13ifvqc0g","pricing_plan_id":"free"},{"bike_id":"f1ed07e3-c3ec-4dc1-a9c2-beefb0a81178","system_id":"levelo_inurba_marseille","lat":43.296131,"lon":5.370773,"is_reserved":false,"is_disabled":false,"rental_uris":{"android":"levelo://app?vid=f1ed07e3-c3ec-4dc1-a9c2-beefb0a81178","ios":"levelo://app?vid=f1ed07e3-c3ec-4dc1-a9c2-beefb0a81178"},"vehicle_type_id":"4","last_reported":1684152778,"current_range_meters":22000,"station_id":"ce4bgnh2rcd13ifvqc0g","pricing_plan_id":"free"},{"bike_id":"aad534c0-45c3-4d19-968a-bcee7689e317","system_id":"levelo_inurba_marseille","lat":43.296921,"lon":5.376579,"is_reserved":false,"is_disabled":false,"rental_uris":{"android":"levelo://app?vid=aad534c0-45c3-4d19-968a-bcee7689e317","ios":"levelo://app?vid=aad534c0-45c3-4d19-968a-bcee7689e317"},"vehicle_type_id":"4","last_reported":1684152778,"current_range_meters":20000,"station_id":"ce4bgkh2rcd13ifvqbl0","pricing_plan_id":"free"},{"bike_id":"a0e025d8-e578-4d00-9312-336b1a10c64c","system_id":"levelo_inurba_marseille","lat":43.296921,"lon":5.376579,"is_reserved":false,"is_disabled":false,"rental_uris":{"android":"levelo://app?vid=a0e025d8-e578-4d00-9312-336b1a10c64c","ios":"levelo://app?vid=a0e025d8-e578-4d00-9312-336b1a10c64c"},"vehicle_type_id":"4","last_reported":1684152778,"current_range_meters":30400,"station_id":"ce4bgkh2rcd13ifvqbl0","pricing_plan_id":"free"},{"bike_id":"6de6335d-ca1d-496a-abe2-1f6e142e508c","system_id":"levelo_inurba_marseille","lat":43.296921,"lon":5.376579,"is_reserved":false,"is_disabled":false,"rental_uris":{"android":"levelo://app?vid=6de6335d-ca1d-496a-abe2-1f6e142e508c","ios":"levelo://app?vid=6de6335d-ca1d-496a-abe2-1f6e142e508c"},"vehicle_type_id":"4","last_reported":1684152778,"current_range_meters":11600,"station_id":"ce4bgkh2rcd13ifvqbl0","pricing_plan_id":"free"},{"bike_id":"abc81c9f-fa58-464d-a78b-a1fe3335a444","system_id":"levelo_inurba_marseille","lat":43.296921,"lon":5.376579,"is_reserved":false,"is_disabled":false,"rental_uris":{"android":"levelo://app?vid=abc81c9f-fa58-464d-a78b-a1fe3335a444","ios":"levelo://app?vid=abc81c9f-fa58-464d-a78b-a1fe3335a444"},"vehicle_type_id":"4","last_reported":1684152778,"current_range_meters":2400,"station_id":"ce4bgkh2rcd13ifvqbl0","pricing_plan_id":"free"},{"bike_id":"0b2e4326-a956-479e-9c92-653220fd551e","system_id":"levelo_inurba_marseille","lat":43.309589,"lon":5.390258,"is_reserved":false,"is_disabled":false,"rental_uris":{"android":"levelo://app?vid=0b2e4326-a956-479e-9c92-653220fd551e","ios":"levelo://app?vid=0b2e4326-a956-479e-9c92-653220fd551e"},"vehicle_type_id":"4","last_reported":1684152778,"current_range_meters":30400,"station_id":"ce4bgup2rcd13ifvqco0","pricing_plan_id":"free"},{"bike_id":"d919106f-decd-42fd-b0c9-43d94c1174e1","system_id":"levelo_inurba_marseille","lat":43.31758,"lon":5.39011,"is_reserved":false,"is_disabled":false,"rental_uris":{"android":"levelo://app?vid=d919106f-decd-42fd-b0c9-43d94c1174e1","ios":"levelo://app?vid=d919106f-decd-42fd-b0c9-43d94c1174e1"},"vehicle_type_id":"4","last_reported":1684152778,"current_range_meters":30400,"station_id":"ce4bhqp2rcd13ifvqhng","pricing_plan_id":"free"},{"bike_id":"f9f46d8d-6036-45c3-a190-8982afa2cf53","system_id":"levelo_inurba_marseille","lat":43.317557,"lon":5.390173,"is_reserved":false,"is_disabled":false,"rental_uris":{"android":"levelo://app?vid=f9f46d8d-6036-45c3-a190-8982afa2cf53","ios":"levelo://app?vid=f9f46d8d-6036-45c3-a190-8982afa2cf53"},"vehicle_type_id":"4","last_reported":1684152778,"current_range_meters":31200,"station_id":"ce4bhqp2rcd13ifvqhng","pricing_plan_id":"free"},{"bike_id":"1853e885-f6d9-4035-ac66-4985f18502b6","system_id":"levelo_inurba_marseille","lat":43.31757,"lon":5.39016,"is_reserved":false,"is_disabled":false,"rental_uris":{"android":"levelo://app?vid=1853e885-f6d9-4035-ac66-4985f18502b6","ios":"levelo://app?vid=1853e885-f6d9-4035-ac66-4985f18502b6"},"vehicle_type_id":"4","last_reported":1684152778,"current_range_meters":30000,"station_id":"ce4bhqp2rcd13ifvqhng","pricing_plan_id":"free"},{"bike_id":"d5fd43b1-21b3-4128-a316-f7b0de96d01e","system_id":"levelo_inurba_marseille","lat":43.31763,"lon":5.39018,"is_reserved":false,"is_disabled":false,"rental_uris":{"android":"levelo://app?vid=d5fd43b1-21b3-4128-a316-f7b0de96d01e","ios":"levelo://app?vid=d5fd43b1-21b3-4128-a316-f7b0de96d01e"},"vehicle_type_id":"4","last_reported":1684152778,"current_range_meters":31200,"station_id":"ce4bhqp2rcd13ifvqhng","pricing_plan_id":"free"},{"bike_id":"73a7ca90-c05d-441a-a99a-23016e05c3dc","system_id":"levelo_inurba_marseille","lat":43.298037,"lon":5.381066,"is_reserved":false,"is_disabled":false,"rental_uris":{"android":"levelo://app?vid=73a7ca90-c05d-441a-a99a-23016e05c3dc","ios":"levelo://app?vid=73a7ca90-c05d-441a-a99a-23016e05c3dc"},"vehicle_type_id":"4","last_reported":1684152778,"current_range_meters":0,"station_id":"ce4bgip2rcd13ifvqbb0","pricing_plan_id":"free"},{"bike_id":"dd1aa3ea-406d-4d3d-abd3-0230b86c959a","system_id":"levelo_inurba_marseille","lat":43.298037,"lon":5.381066,"is_reserved":false,"is_disabled":false,"rental_uris":{"android":"levelo://app?vid=dd1aa3ea-406d-4d3d-abd3-0230b86c959a","ios":"levelo://app?vid=dd1aa3ea-406d-4d3d-abd3-0230b86c959a"},"vehicle_type_id":"4","last_reported":1684152778,"current_range_meters":2800,"station_id":"ce4bgip2rcd13ifvqbb0","pricing_plan_id":"free"},{"bike_id":"55697244-7d82-4aff-b2df-d5f06518baa0","system_id":"levelo_inurba_marseille","lat":43.298037,"lon":5.381066,"is_reserved":false,"is_disabled":false,"rental_uris":{"android":"levelo://app?vid=55697244-7d82-4aff-b2df-d5f06518baa0","ios":"levelo://app?vid=55697244-7d82-4aff-b2df-d5f06518baa0"},"vehicle_type_id":"4","last_reported":1684152778,"current_range_meters":17200,"station_id":"ce4bgip2rcd13ifvqbb0","pricing_plan_id":"free"},{"bike_id":"1ad6193f-a66e-4f46-965e-94a46c198a74","system_id":"levelo_inurba_marseille","lat":43.295748,"lon":5.37522,"is_reserved":false,"is_disabled":false,"rental_uris":{"android":"levelo://app?vid=1ad6193f-a66e-4f46-965e-94a46c198a74","ios":"levelo://app?vid=1ad6193f-a66e-4f46-965e-94a46c198a74"},"vehicle_type_id":"4","last_reported":1684152778,"current_range_meters":29600,"station_id":"ce4bgh92rcd13ifvqb50","pricing_plan_id":"free"},{"bike_id":"82dfe574-3ec4-4218-b1f6-107844640ab0","system_id":"levelo_inurba_marseille","lat":43.298037,"lon":5.381066,"is_reserved":false,"is_disabled":false,"rental_uris":{"android":"levelo://app?vid=82dfe574-3ec4-4218-b1f6-107844640ab0","ios":"levelo://app?vid=82dfe574-3ec4-4218-b1f6-107844640ab0"},"vehicle_type_id":"4","last_reported":1684152778,"current_range_meters":10400,"station_id":"ce4bgip2rcd13ifvqbb0","pricing_plan_id":"free"},{"bike_id":"30cd2816-9a31-4403-b6b6-b4d87432661e","system_id":"levelo_inurba_marseille","lat":43.298037,"lon":5.381066,"is_reserved":false,"is_disabled":false,"rental_uris":{"android":"levelo://app?vid=30cd2816-9a31-4403-b6b6-b4d87432661e","ios":"levelo://app?vid=30cd2816-9a31-4403-b6b6-b4d87432661e"},"vehicle_type_id":"4","last_reported":1684152778,"current_range_meters":0,"station_id":"ce4bgip2rcd13ifvqbb0","pricing_plan_id":"free"},{"bike_id":"2a80fff1-7111-4c65-8e9a-9392f5194e21","system_id":"levelo_inurba_marseille","lat":43.304278,"lon":5.388868,"is_reserved":false,"is_disabled":false,"rental_uris":{"android":"levelo://app?vid=2a80fff1-7111-4c65-8e9a-9392f5194e21","ios":"levelo://app?vid=2a80fff1-7111-4c65-8e9a-9392f5194e21"},"vehicle_type_id":"4","last_reported":1684152778,"current_range_meters":8000,"station_id":"ce4bgk12rcd13ifvqbi0","pricing_plan_id":"free"},{"bike_id":"b50d0b22-409b-4e16-a04f-e31a42c41740","system_id":"levelo_inurba_marseille","lat":43.298037,"lon":5.381066,"is_reserved":false,"is_disabled":false,"rental_uris":{"android":"levelo://app?vid=b50d0b22-409b-4e16-a04f-e31a42c41740","ios":"levelo://app?vid=b50d0b22-409b-4e16-a04f-e31a42c41740"},"vehicle_type_id":"4","last_reported":1684152778,"current_range_meters":22800,"station_id":"ce4bgip2rcd13ifvqbb0","pricing_plan_id":"free"},{"bike_id":"0c9b82c3-34d0-4c53-8cdd-021ad6c72fbc","system_id":"levelo_inurba_marseille","lat":43.296277,"lon":5.377108,"is_reserved":false,"is_disabled":false,"rental_uris":{"android":"levelo://app?vid=0c9b82c3-34d0-4c53-8cdd-021ad6c72fbc","ios":"levelo://app?vid=0c9b82c3-34d0-4c53-8cdd-021ad6c72fbc"},"vehicle_type_id":"4","last_reported":1684152778,"current_range_meters":10400,"station_id":"ce4bgi92rcd13ifvqb90","pricing_plan_id":"free"},{"bike_id":"9ec1a55f-8c74-4a8f-b32c-0166f897593e","system_id":"levelo_inurba_marseille","lat":43.32363,"lon":5.38871,"is_reserved":false,"is_disabled":false,"rental_uris":{"android":"levelo://app?vid=9ec1a55f-8c74-4a8f-b32c-0166f897593e","ios":"levelo://app?vid=9ec1a55f-8c74-4a8f-b32c-0166f897593e"},"vehicle_type_id":"4","last_reported":1684152778,"current_range_meters":0,"station_id":"","pricing_plan_id":"free"},{"bike_id":"1a705e8e-b254-4ef5-ac1a-3b23d1742151","system_id":"levelo_inurba_marseille","lat":43.32367,"lon":5.38885,"is_reserved":false,"is_disabled":false,"rental_uris":{"android":"levelo://app?vid=1a705e8e-b254-4ef5-ac1a-3b23d1742151","ios":"levelo://app?vid=1a705e8e-b254-4ef5-ac1a-3b23d1742151"},"vehicle_type_id":"4","last_reported":1684152778,"current_range_meters":28800,"station_id":"","pricing_plan_id":"free"},{"bike_id":"a2995897-6545-4c56-bce8-ef03c6928498","system_id":"levelo_inurba_marseille","lat":43.29601,"lon":5.381084,"is_reserved":false,"is_disabled":false,"rental_uris":{"android":"levelo://app?vid=a2995897-6545-4c56-bce8-ef03c6928498","ios":"levelo://app?vid=a2995897-6545-4c56-bce8-ef03c6928498"},"vehicle_type_id":"4","last_reported":1684152778,"current_range_meters":15600,"station_id":"ce4bgl12rcd13ifvqbo0","pricing_plan_id":"free"},{"bike_id":"2e57748a-d7b8-4967-b4bc-71852a6210dd","system_id":"levelo_inurba_marseille","lat":43.29602,"lon":5.381084,"is_reserved":false,"is_disabled":false,"rental_uris":{"android":"levelo://app?vid=2e57748a-d7b8-4967-b4bc-71852a6210dd","ios":"levelo://app?vid=2e57748a-d7b8-4967-b4bc-71852a6210dd"},"vehicle_type_id":"4","last_reported":1684152778,"current_range_meters":22400,"station_id":"ce4bgl12rcd13ifvqbo0","pricing_plan_id":"free"},{"bike_id":"26eba9e6-e48a-41b5-b761-1f18b43c28ce","system_id":"levelo_inurba_marseille","lat":43.305994,"lon":5.393687,"is_reserved":false,"is_disabled":false,"rental_uris":{"android":"levelo://app?vid=26eba9e6-e48a-41b5-b761-1f18b43c28ce","ios":"levelo://app?vid=26eba9e6-e48a-41b5-b761-1f18b43c28ce"},"vehicle_type_id":"4","last_reported":1684152778,"current_range_meters":32000,"station_id":"ce4bh0p2rcd13ifvqd80","pricing_plan_id":"free"},{"bike_id":"dedf864f-7eb4-43bf-b565-2cf422b06049","system_id":"levelo_inurba_marseille","lat":43.29298,"lon":5.37445,"is_reserved":false,"is_disabled":false,"rental_uris":{"android":"levelo://app?vid=dedf864f-7eb4-43bf-b565-2cf422b06049","ios":"levelo://app?vid=dedf864f-7eb4-43bf-b565-2cf422b06049"},"vehicle_type_id":"4","last_reported":1684152778,"current_range_meters":13600,"station_id":"ce4bgi12rcd13ifvqb70","pricing_plan_id":"free"},{"bike_id":"098d360f-3f1c-438f-bc49-47a525c6a0a1","system_id":"levelo_inurba_marseille","lat":43.305994,"lon":5.393687,"is_reserved":false,"is_disabled":false,"rental_uris":{"android":"levelo://app?vid=098d360f-3f1c-438f-bc49-47a525c6a0a1","ios":"levelo://app?vid=098d360f-3f1c-438f-bc49-47a525c6a0a1"},"vehicle_type_id":"4","last_reported":1684152778,"current_range_meters":19200,"station_id":"ce4bh0p2rcd13ifvqd80","pricing_plan_id":"free"},{"bike_id":"2fea0499-7e0b-4533-a85f-e1b6c880d97a","system_id":"levelo_inurba_marseille","lat":43.305994,"lon":5.393687,"is_reserved":false,"is_disabled":false,"rental_uris":{"android":"levelo://app?vid=2fea0499-7e0b-4533-a85f-e1b6c880d97a","ios":"levelo://app?vid=2fea0499-7e0b-4533-a85f-e1b6c880d97a"},"vehicle_type_id":"4","last_reported":1684152778,"current_range_meters":11600,"station_id":"ce4bh0p2rcd13ifvqd80","pricing_plan_id":"free"},{"bike_id":"962b5afd-28a6-4cdb-8617-27631110d31d","system_id":"levelo_inurba_marseille","lat":43.302992,"lon":5.392136,"is_reserved":false,"is_disabled":false,"rental_uris":{"android":"levelo://app?vid=962b5afd-28a6-4cdb-8617-27631110d31d","ios":"levelo://app?vid=962b5afd-28a6-4cdb-8617-27631110d31d"},"vehicle_type_id":"4","last_reported":1684152778,"current_range_meters":26400,"station_id":"ce4bgkh2rcd13ifvqbk0","pricing_plan_id":"free"},{"bike_id":"b28a5485-69e4-4ee8-9520-3f820eec6280","system_id":"levelo_inurba_marseille","lat":43.302992,"lon":5.392136,"is_reserved":false,"is_disabled":false,"rental_uris":{"android":"levelo://app?vid=b28a5485-69e4-4ee8-9520-3f820eec6280","ios":"levelo://app?vid=b28a5485-69e4-4ee8-9520-3f820eec6280"},"vehicle_type_id":"4","last_reported":1684152778,"current_range_meters":2800,"station_id":"ce4bgkh2rcd13ifvqbk0","pricing_plan_id":"free"},{"bike_id":"4ce9bd8e-5397-441c-8954-6d7da9c62908","system_id":"levelo_inurba_marseille","lat":43.302992,"lon":5.392136,"is_reserved":false,"is_disabled":false,"rental_uris":{"android":"levelo://app?vid=4ce9bd8e-5397-441c-8954-6d7da9c62908","ios":"levelo://app?vid=4ce9bd8e-5397-441c-8954-6d7da9c62908"},"vehicle_type_id":"4","last_reported":1684152778,"current_range_meters":5600,"station_id":"ce4bgkh2rcd13ifvqbk0","pricing_plan_id":"free"},{"bike_id":"ad8675c0-98f3-44f0-b95a-3e33d1e1079d","system_id":"levelo_inurba_marseille","lat":43.2936,"lon":5.37835,"is_reserved":false,"is_disabled":false,"rental_uris":{"android":"levelo://app?vid=ad8675c0-98f3-44f0-b95a-3e33d1e1079d","ios":"levelo://app?vid=ad8675c0-98f3-44f0-b95a-3e33d1e1079d"},"vehicle_type_id":"4","last_reported":1684152778,"current_range_meters":30000,"station_id":"ce4bgjh2rcd13ifvqbf0","pricing_plan_id":"free"},{"bike_id":"a17d9098-05b8-4063-841f-61d17ac3817a","system_id":"levelo_inurba_marseille","lat":43.2936,"lon":5.37835,"is_reserved":false,"is_disabled":false,"rental_uris":{"android":"levelo://app?vid=a17d9098-05b8-4063-841f-61d17ac3817a","ios":"levelo://app?vid=a17d9098-05b8-4063-841f-61d17ac3817a"},"vehicle_type_id":"4","last_reported":1684152778,"current_range_meters":3600,"station_id":"ce4bgjh2rcd13ifvqbf0","pricing_plan_id":"free"},{"bike_id":"cc879cb3-fc86-4ce7-86e8-646af5598237","system_id":"levelo_inurba_marseille","lat":43.291671,"lon":5.371575,"is_reserved":false,"is_disabled":false,"rental_uris":{"android":"levelo://app?vid=cc879cb3-fc86-4ce7-86e8-646af5598237","ios":"levelo://app?vid=cc879cb3-fc86-4ce7-86e8-646af5598237"},"vehicle_type_id":"4","last_reported":1684152778,"current_range_meters":27200,"station_id":"ce4bha92rcd13ifvqeh0","pricing_plan_id":"free"},{"bike_id":"8ea16897-c1c6-4555-8750-d35524a757f6","system_id":"levelo_inurba_marseille","lat":43.29197,"lon":5.35808,"is_reserved":false,"is_disabled":false,"rental_uris":{"android":"levelo://app?vid=8ea16897-c1c6-4555-8750-d35524a757f6","ios":"levelo://app?vid=8ea16897-c1c6-4555-8750-d35524a757f6"},"vehicle_type_id":"4","last_reported":1684152778,"current_range_meters":25600,"station_id":"ce4bhb12rcd13ifvqel0","pricing_plan_id":"free"},{"bike_id":"99c1b919-fba7-4cd7-9318-6be53d76c44d","system_id":"levelo_inurba_marseille","lat":43.29197,"lon":5.35802,"is_reserved":false,"is_disabled":false,"rental_uris":{"android":"levelo://app?vid=99c1b919-fba7-4cd7-9318-6be53d76c44d","ios":"levelo://app?vid=99c1b919-fba7-4cd7-9318-6be53d76c44d"},"vehicle_type_id":"4","last_reported":1684152778,"current_range_meters":10400,"station_id":"ce4bhb12rcd13ifvqel0","pricing_plan_id":"free"},{"bike_id":"ed4a735a-fa31-4d19-941a-293f85bb7b9c","system_id":"levelo_inurba_marseille","lat":43.309047,"lon":5.396551,"is_reserved":false,"is_disabled":false,"rental_uris":{"android":"levelo://app?vid=ed4a735a-fa31-4d19-941a-293f85bb7b9c","ios":"levelo://app?vid=ed4a735a-fa31-4d19-941a-293f85bb7b9c"},"vehicle_type_id":"4","last_reported":1684152778,"current_range_meters":22400,"station_id":"ce4bh012rcd13ifvqcv0","pricing_plan_id":"free"},{"bike_id":"b39c45f2-dd5c-44ea-a1fc-ea18d4499c78","system_id":"levelo_inurba_marseille","lat":43.309038,"lon":5.396546,"is_reserved":false,"is_disabled":false,"rental_uris":{"android":"levelo://app?vid=b39c45f2-dd5c-44ea-a1fc-ea18d4499c78","ios":"levelo://app?vid=b39c45f2-dd5c-44ea-a1fc-ea18d4499c78"},"vehicle_type_id":"4","last_reported":1684152778,"current_range_meters":16800,"station_id":"ce4bh012rcd13ifvqcv0","pricing_plan_id":"free"},{"bike_id":"7de5942d-8cdf-4656-a27a-f64dfc2a0967","system_id":"levelo_inurba_marseille","lat":43.309038,"lon":5.396546,"is_reserved":false,"is_disabled":false,"rental_uris":{"android":"levelo://app?vid=7de5942d-8cdf-4656-a27a-f64dfc2a0967","ios":"levelo://app?vid=7de5942d-8cdf-4656-a27a-f64dfc2a0967"},"vehicle_type_id":"4","last_reported":1684152778,"current_range_meters":26000,"station_id":"ce4bh012rcd13ifvqcv0","pricing_plan_id":"free"},{"bike_id":"6ccdb233-12d9-4126-9d8d-6b050d55ecc8","system_id":"levelo_inurba_marseille","lat":43.29529,"lon":5.385581,"is_reserved":false,"is_disabled":false,"rental_uris":{"android":"levelo://app?vid=6ccdb233-12d9-4126-9d8d-6b050d55ecc8","ios":"levelo://app?vid=6ccdb233-12d9-4126-9d8d-6b050d55ecc8"},"vehicle_type_id":"4","last_reported":1684152778,"current_range_meters":26800,"station_id":"ce4bgih2rcd13ifvqba0","pricing_plan_id":"free"},{"bike_id":"615b7300-8ef8-40d4-a99b-d98ae5a9c85a","system_id":"levelo_inurba_marseille","lat":43.290624,"lon":5.359245,"is_reserved":false,"is_disabled":false,"rental_uris":{"android":"levelo://app?vid=615b7300-8ef8-40d4-a99b-d98ae5a9c85a","ios":"levelo://app?vid=615b7300-8ef8-40d4-a99b-d98ae5a9c85a"},"vehicle_type_id":"4","last_reported":1684152778,"current_range_meters":23600,"station_id":"ce4bha92rcd13ifvqeg0","pricing_plan_id":"free"},{"bike_id":"2bd337e0-3018-4f56-ad45-f363bade373e","system_id":"levelo_inurba_marseille","lat":43.290624,"lon":5.359245,"is_reserved":false,"is_disabled":false,"rental_uris":{"android":"levelo://app?vid=2bd337e0-3018-4f56-ad45-f363bade373e","ios":"levelo://app?vid=2bd337e0-3018-4f56-ad45-f363bade373e"},"vehicle_type_id":"4","last_reported":1684152778,"current_range_meters":25200,"station_id":"ce4bha92rcd13ifvqeg0","pricing_plan_id":"free"},{"bike_id":"be8978f2-7ec0-4d65-807c-b39722dc4f20","system_id":"levelo_inurba_marseille","lat":43.290624,"lon":5.359245,"is_reserved":false,"is_disabled":false,"rental_uris":{"android":"levelo://app?vid=be8978f2-7ec0-4d65-807c-b39722dc4f20","ios":"levelo://app?vid=be8978f2-7ec0-4d65-807c-b39722dc4f20"},"vehicle_type_id":"4","last_reported":1684152778,"current_range_meters":31600,"station_id":"ce4bha92rcd13ifvqeg0","pricing_plan_id":"free"},{"bike_id":"831b6a63-7f75-4889-9705-12e4b4bf91d5","system_id":"levelo_inurba_marseille","lat":43.294153,"lon":5.386305,"is_reserved":false,"is_disabled":false,"rental_uris":{"android":"levelo://app?vid=831b6a63-7f75-4889-9705-12e4b4bf91d5","ios":"levelo://app?vid=831b6a63-7f75-4889-9705-12e4b4bf91d5"},"vehicle_type_id":"4","last_reported":1684152778,"current_range_meters":29200,"station_id":"ce4bh2h2rcd13ifvqdh0","pricing_plan_id":"free"},{"bike_id":"d8e713d5-4718-4cd4-8a82-cedd7e2ac96d","system_id":"levelo_inurba_marseille","lat":43.290327,"lon":5.375711,"is_reserved":false,"is_disabled":false,"rental_uris":{"android":"levelo://app?vid=d8e713d5-4718-4cd4-8a82-cedd7e2ac96d","ios":"levelo://app?vid=d8e713d5-4718-4cd4-8a82-cedd7e2ac96d"},"vehicle_type_id":"4","last_reported":1684152778,"current_range_meters":24400,"station_id":"ce4bh692rcd13ifvqe90","pricing_plan_id":"free"},{"bike_id":"be1a6ea7-0ad0-49ec-aeda-9c836603305d","system_id":"levelo_inurba_marseille","lat":43.29419,"lon":5.38624,"is_reserved":false,"is_disabled":false,"rental_uris":{"android":"levelo://app?vid=be1a6ea7-0ad0-49ec-aeda-9c836603305d","ios":"levelo://app?vid=be1a6ea7-0ad0-49ec-aeda-9c836603305d"},"vehicle_type_id":"4","last_reported":1684152778,"current_range_meters":8000,"station_id":"ce4bh2h2rcd13ifvqdh0","pricing_plan_id":"free"},{"bike_id":"349c43c5-acfc-4983-9320-5033493b1b98","system_id":"levelo_inurba_marseille","lat":43.289468,"lon":5.363719,"is_reserved":false,"is_disabled":false,"rental_uris":{"android":"levelo://app?vid=349c43c5-acfc-4983-9320-5033493b1b98","ios":"levelo://app?vid=349c43c5-acfc-4983-9320-5033493b1b98"},"vehicle_type_id":"4","last_reported":1684152778,"current_range_meters":22000,"station_id":"ce4bhc92rcd13ifvqetg","pricing_plan_id":"free"},{"bike_id":"7ad5fa5b-e68c-4721-8e8a-e9d796d2267a","system_id":"levelo_inurba_marseille","lat":43.294162,"lon":5.386292,"is_reserved":false,"is_disabled":false,"rental_uris":{"android":"levelo://app?vid=7ad5fa5b-e68c-4721-8e8a-e9d796d2267a","ios":"levelo://app?vid=7ad5fa5b-e68c-4721-8e8a-e9d796d2267a"},"vehicle_type_id":"4","last_reported":1684152778,"current_range_meters":16000,"station_id":"ce4bh2h2rcd13ifvqdh0","pricing_plan_id":"free"},{"bike_id":"02a301df-df94-4927-97eb-d9265b8c8827","system_id":"levelo_inurba_marseille","lat":43.289468,"lon":5.363719,"is_reserved":false,"is_disabled":false,"rental_uris":{"android":"levelo://app?vid=02a301df-df94-4927-97eb-d9265b8c8827","ios":"levelo://app?vid=02a301df-df94-4927-97eb-d9265b8c8827"},"vehicle_type_id":"4","last_reported":1684152778,"current_range_meters":12400,"station_id":"ce4bhc92rcd13ifvqetg","pricing_plan_id":"free"},{"bike_id":"27ead4df-1012-4fcf-9d3f-efc7c9f60768","system_id":"levelo_inurba_marseille","lat":43.289468,"lon":5.363719,"is_reserved":false,"is_disabled":false,"rental_uris":{"android":"levelo://app?vid=27ead4df-1012-4fcf-9d3f-efc7c9f60768","ios":"levelo://app?vid=27ead4df-1012-4fcf-9d3f-efc7c9f60768"},"vehicle_type_id":"4","last_reported":1684152778,"current_range_meters":24800,"station_id":"ce4bhc92rcd13ifvqetg","pricing_plan_id":"free"},{"bike_id":"9ff1b1cb-fcf1-4414-b026-af68713522da","system_id":"levelo_inurba_marseille","lat":43.289468,"lon":5.363719,"is_reserved":false,"is_disabled":false,"rental_uris":{"android":"levelo://app?vid=9ff1b1cb-fcf1-4414-b026-af68713522da","ios":"levelo://app?vid=9ff1b1cb-fcf1-4414-b026-af68713522da"},"vehicle_type_id":"4","last_reported":1684152778,"current_range_meters":1200,"station_id":"ce4bhc92rcd13ifvqetg","pricing_plan_id":"free"},{"bike_id":"db5b2d73-a000-44d2-b3bf-ca7563f544f2","system_id":"levelo_inurba_marseille","lat":43.304296,"lon":5.397513,"is_reserved":false,"is_disabled":false,"rental_uris":{"android":"levelo://app?vid=db5b2d73-a000-44d2-b3bf-ca7563f544f2","ios":"levelo://app?vid=db5b2d73-a000-44d2-b3bf-ca7563f544f2"},"vehicle_type_id":"4","last_reported":1684152778,"current_range_meters":16800,"station_id":"ce4bh092rcd13ifvqd20","pricing_plan_id":"free"},{"bike_id":"404d3168-37d8-4784-8ac9-6e0850780851","system_id":"levelo_inurba_marseille","lat":43.30432,"lon":5.39758,"is_reserved":false,"is_disabled":false,"rental_uris":{"android":"levelo://app?vid=404d3168-37d8-4784-8ac9-6e0850780851","ios":"levelo://app?vid=404d3168-37d8-4784-8ac9-6e0850780851"},"vehicle_type_id":"4","last_reported":1684152778,"current_range_meters":18800,"station_id":"ce4bh092rcd13ifvqd20","pricing_plan_id":"free"},{"bike_id":"6e666fbf-3cf2-4393-9b83-4a18aedb4898","system_id":"levelo_inurba_marseille","lat":43.290103,"lon":5.356114,"is_reserved":false,"is_disabled":false,"rental_uris":{"android":"levelo://app?vid=6e666fbf-3cf2-4393-9b83-4a18aedb4898","ios":"levelo://app?vid=6e666fbf-3cf2-4393-9b83-4a18aedb4898"},"vehicle_type_id":"4","last_reported":1684152778,"current_range_meters":18400,"station_id":"ce4bhb92rcd13ifvqen0","pricing_plan_id":"free"},{"bike_id":"d08d5e69-3850-4906-a1a6-5081e6e9215b","system_id":"levelo_inurba_marseille","lat":43.330442,"lon":5.389148,"is_reserved":false,"is_disabled":false,"rental_uris":{"android":"levelo://app?vid=d08d5e69-3850-4906-a1a6-5081e6e9215b","ios":"levelo://app?vid=d08d5e69-3850-4906-a1a6-5081e6e9215b"},"vehicle_type_id":"4","last_reported":1684152778,"current_range_meters":800,"station_id":"ce4bhr92rcd13ifvqhrg","pricing_plan_id":"free"},{"bike_id":"65028b00-b050-4928-8940-88ef4339e867","system_id":"levelo_inurba_marseille","lat":43.29002,"lon":5.35609,"is_reserved":false,"is_disabled":false,"rental_uris":{"android":"levelo://app?vid=65028b00-b050-4928-8940-88ef4339e867","ios":"levelo://app?vid=65028b00-b050-4928-8940-88ef4339e867"},"vehicle_type_id":"4","last_reported":1684152778,"current_range_meters":30800,"station_id":"ce4bhb92rcd13ifvqen0","pricing_plan_id":"free"},{"bike_id":"32908682-2b24-4a3a-90e0-f56c5a1f8deb","system_id":"levelo_inurba_marseille","lat":43.290995,"lon":5.381361,"is_reserved":false,"is_disabled":false,"rental_uris":{"android":"levelo://app?vid=32908682-2b24-4a3a-90e0-f56c5a1f8deb","ios":"levelo://app?vid=32908682-2b24-4a3a-90e0-f56c5a1f8deb"},"vehicle_type_id":"4","last_reported":1684152778,"current_range_meters":0,"station_id":"ce4bh512rcd13ifvqe2g","pricing_plan_id":"free"},{"bike_id":"85289eeb-a73c-4fb2-91ea-01fa032d11a7","system_id":"levelo_inurba_marseille","lat":43.290995,"lon":5.381361,"is_reserved":false,"is_disabled":false,"rental_uris":{"android":"levelo://app?vid=85289eeb-a73c-4fb2-91ea-01fa032d11a7","ios":"levelo://app?vid=85289eeb-a73c-4fb2-91ea-01fa032d11a7"},"vehicle_type_id":"4","last_reported":1684152778,"current_range_meters":3200,"station_id":"ce4bh512rcd13ifvqe2g","pricing_plan_id":"free"},{"bike_id":"bfe4a5db-4df0-400c-9973-01be31aac7b5","system_id":"levelo_inurba_marseille","lat":43.290995,"lon":5.381361,"is_reserved":false,"is_disabled":false,"rental_uris":{"android":"levelo://app?vid=bfe4a5db-4df0-400c-9973-01be31aac7b5","ios":"levelo://app?vid=bfe4a5db-4df0-400c-9973-01be31aac7b5"},"vehicle_type_id":"4","last_reported":1684152778,"current_range_meters":23200,"station_id":"ce4bh512rcd13ifvqe2g","pricing_plan_id":"free"},{"bike_id":"9ede244f-1c44-43d9-b337-0792883db070","system_id":"levelo_inurba_marseille","lat":43.289741,"lon":5.378306,"is_reserved":false,"is_disabled":false,"rental_uris":{"android":"levelo://app?vid=9ede244f-1c44-43d9-b337-0792883db070","ios":"levelo://app?vid=9ede244f-1c44-43d9-b337-0792883db070"},"vehicle_type_id":"4","last_reported":1684152778,"current_range_meters":30800,"station_id":"ce4bh9p2rcd13ifvqed0","pricing_plan_id":"free"},{"bike_id":"30eab717-ea12-463c-9ee1-f9feb2cdc977","system_id":"levelo_inurba_marseille","lat":43.2901,"lon":5.381269,"is_reserved":false,"is_disabled":false,"rental_uris":{"android":"levelo://app?vid=30eab717-ea12-463c-9ee1-f9feb2cdc977","ios":"levelo://app?vid=30eab717-ea12-463c-9ee1-f9feb2cdc977"},"vehicle_type_id":"4","last_reported":1684152778,"current_range_meters":2000,"station_id":"ce4bh4p2rcd13ifvqe1g","pricing_plan_id":"free"},{"bike_id":"a644ae46-7eab-4ece-b842-a78fc03eaa6b","system_id":"levelo_inurba_marseille","lat":43.337328,"lon":5.374538,"is_reserved":false,"is_disabled":false,"rental_uris":{"android":"levelo://app?vid=a644ae46-7eab-4ece-b842-a78fc03eaa6b","ios":"levelo://app?vid=a644ae46-7eab-4ece-b842-a78fc03eaa6b"},"vehicle_type_id":"4","last_reported":1684152778,"current_range_meters":23600,"station_id":"ce4bhah2rcd13ifvqei0","pricing_plan_id":"free"},{"bike_id":"0aaf129a-7f4a-4b0c-837f-833be83b7a49","system_id":"levelo_inurba_marseille","lat":43.337436,"lon":5.374627,"is_reserved":false,"is_disabled":false,"rental_uris":{"android":"levelo://app?vid=0aaf129a-7f4a-4b0c-837f-833be83b7a49","ios":"levelo://app?vid=0aaf129a-7f4a-4b0c-837f-833be83b7a49"},"vehicle_type_id":"4","last_reported":1684152778,"current_range_meters":24400,"station_id":"ce4bhnp2rcd13ifvqgvg","pricing_plan_id":"free"},{"bike_id":"f68899ca-ec51-4bc4-b770-4aca1cebc57d","system_id":"levelo_inurba_marseille","lat":43.33745,"lon":5.37455,"is_reserved":false,"is_disabled":false,"rental_uris":{"android":"levelo://app?vid=f68899ca-ec51-4bc4-b770-4aca1cebc57d","ios":"levelo://app?vid=f68899ca-ec51-4bc4-b770-4aca1cebc57d"},"vehicle_type_id":"4","last_reported":1684152778,"current_range_meters":30000,"station_id":"","pricing_plan_id":"free"},{"bike_id":"7d9dfb80-b5b6-4f07-a905-f7d1a70f3a2c","system_id":"levelo_inurba_marseille","lat":43.30642,"lon":5.401031,"is_reserved":false,"is_disabled":false,"rental_uris":{"android":"levelo://app?vid=7d9dfb80-b5b6-4f07-a905-f7d1a70f3a2c","ios":"levelo://app?vid=7d9dfb80-b5b6-4f07-a905-f7d1a70f3a2c"},"vehicle_type_id":"4","last_reported":1684152778,"current_range_meters":5200,"station_id":"ce4bh112rcd13ifvqda0","pricing_plan_id":"free"},{"bike_id":"8f91d106-188a-493e-8f10-81e26ab698d1","system_id":"levelo_inurba_marseille","lat":43.298681,"lon":5.397225,"is_reserved":false,"is_disabled":false,"rental_uris":{"android":"levelo://app?vid=8f91d106-188a-493e-8f10-81e26ab698d1","ios":"levelo://app?vid=8f91d106-188a-493e-8f10-81e26ab698d1"},"vehicle_type_id":"4","last_reported":1684152778,"current_range_meters":3200,"station_id":"ce4bh0h2rcd13ifvqd50","pricing_plan_id":"free"},{"bike_id":"86d315d3-a64b-47dd-8a89-b8b674e8afb5","system_id":"levelo_inurba_marseille","lat":43.286593,"lon":5.363346,"is_reserved":false,"is_disabled":false,"rental_uris":{"android":"levelo://app?vid=86d315d3-a64b-47dd-8a89-b8b674e8afb5","ios":"levelo://app?vid=86d315d3-a64b-47dd-8a89-b8b674e8afb5"},"vehicle_type_id":"4","last_reported":1684152778,"current_range_meters":28000,"station_id":"ce4bhah2rcd13ifvqej0","pricing_plan_id":"free"},{"bike_id":"c7fa592b-9fa9-454d-9a5b-3dddbc1d4089","system_id":"levelo_inurba_marseille","lat":43.286591,"lon":5.363346,"is_reserved":false,"is_disabled":false,"rental_uris":{"android":"levelo://app?vid=c7fa592b-9fa9-454d-9a5b-3dddbc1d4089","ios":"levelo://app?vid=c7fa592b-9fa9-454d-9a5b-3dddbc1d4089"},"vehicle_type_id":"4","last_reported":1684152778,"current_range_meters":23600,"station_id":"ce4bhah2rcd13ifvqej0","pricing_plan_id":"free"},{"bike_id":"549c8040-4066-4975-9bcd-6e9c4d6ac581","system_id":"levelo_inurba_marseille","lat":43.290231,"lon":5.386514,"is_reserved":false,"is_disabled":false,"rental_uris":{"android":"levelo://app?vid=549c8040-4066-4975-9bcd-6e9c4d6ac581","ios":"levelo://app?vid=549c8040-4066-4975-9bcd-6e9c4d6ac581"},"vehicle_type_id":"4","last_reported":1684152778,"current_range_meters":1200,"station_id":"ce4bhgp2rcd13ifvqfc0","pricing_plan_id":"free"},{"bike_id":"807fb672-d165-4cea-a385-33ae7b306cec","system_id":"levelo_inurba_marseille","lat":43.291994,"lon":5.392907,"is_reserved":false,"is_disabled":false,"rental_uris":{"android":"levelo://app?vid=807fb672-d165-4cea-a385-33ae7b306cec","ios":"levelo://app?vid=807fb672-d165-4cea-a385-33ae7b306cec"},"vehicle_type_id":"4","last_reported":1684152778,"current_range_meters":31200,"station_id":"ce4bh192rcd13ifvqdd0","pricing_plan_id":"free"},{"bike_id":"49369762-6f04-4552-bb59-0ed596762703","system_id":"levelo_inurba_marseille","lat":43.291994,"lon":5.392907,"is_reserved":false,"is_disabled":false,"rental_uris":{"android":"levelo://app?vid=49369762-6f04-4552-bb59-0ed596762703","ios":"levelo://app?vid=49369762-6f04-4552-bb59-0ed596762703"},"vehicle_type_id":"4","last_reported":1684152778,"current_range_meters":30400,"station_id":"ce4bh192rcd13ifvqdd0","pricing_plan_id":"free"},{"bike_id":"be637540-617e-41d8-a7fd-ec5273d88802","system_id":"levelo_inurba_marseille","lat":43.291994,"lon":5.392907,"is_reserved":false,"is_disabled":false,"rental_uris":{"android":"levelo://app?vid=be637540-617e-41d8-a7fd-ec5273d88802","ios":"levelo://app?vid=be637540-617e-41d8-a7fd-ec5273d88802"},"vehicle_type_id":"4","last_reported":1684152778,"current_range_meters":30800,"station_id":"ce4bh192rcd13ifvqdd0","pricing_plan_id":"free"},{"bike_id":"31dd0b8a-afbc-4636-a028-41f3c2168e3c","system_id":"levelo_inurba_marseille","lat":43.291994,"lon":5.392907,"is_reserved":false,"is_disabled":false,"rental_uris":{"android":"levelo://app?vid=31dd0b8a-afbc-4636-a028-41f3c2168e3c","ios":"levelo://app?vid=31dd0b8a-afbc-4636-a028-41f3c2168e3c"},"vehicle_type_id":"4","last_reported":1684152778,"current_range_meters":31200,"station_id":"ce4bh192rcd13ifvqdd0","pricing_plan_id":"free"},{"bike_id":"b68a576e-cf36-4dc0-b424-cd4b3307d257","system_id":"levelo_inurba_marseille","lat":43.291994,"lon":5.392907,"is_reserved":false,"is_disabled":false,"rental_uris":{"android":"levelo://app?vid=b68a576e-cf36-4dc0-b424-cd4b3307d257","ios":"levelo://app?vid=b68a576e-cf36-4dc0-b424-cd4b3307d257"},"vehicle_type_id":"4","last_reported":1684152778,"current_range_meters":29200,"station_id":"ce4bh192rcd13ifvqdd0","pricing_plan_id":"free"},{"bike_id":"b946a406-2689-47a7-9a39-c62befb3ffbc","system_id":"levelo_inurba_marseille","lat":43.291994,"lon":5.392907,"is_reserved":false,"is_disabled":false,"rental_uris":{"android":"levelo://app?vid=b946a406-2689-47a7-9a39-c62befb3ffbc","ios":"levelo://app?vid=b946a406-2689-47a7-9a39-c62befb3ffbc"},"vehicle_type_id":"4","last_reported":1684152778,"current_range_meters":31200,"station_id":"ce4bh192rcd13ifvqdd0","pricing_plan_id":"free"},{"bike_id":"d91644b3-a460-41bb-a35f-0797ee39f34d","system_id":"levelo_inurba_marseille","lat":43.291994,"lon":5.392907,"is_reserved":false,"is_disabled":false,"rental_uris":{"android":"levelo://app?vid=d91644b3-a460-41bb-a35f-0797ee39f34d","ios":"levelo://app?vid=d91644b3-a460-41bb-a35f-0797ee39f34d"},"vehicle_type_id":"4","last_reported":1684152778,"current_range_meters":29600,"station_id":"ce4bh192rcd13ifvqdd0","pricing_plan_id":"free"},{"bike_id":"bf07577e-04c7-4f55-b428-0e0ced45c38d","system_id":"levelo_inurba_marseille","lat":43.291994,"lon":5.392907,"is_reserved":false,"is_disabled":false,"rental_uris":{"android":"levelo://app?vid=bf07577e-04c7-4f55-b428-0e0ced45c38d","ios":"levelo://app?vid=bf07577e-04c7-4f55-b428-0e0ced45c38d"},"vehicle_type_id":"4","last_reported":1684152778,"current_range_meters":31200,"station_id":"ce4bh192rcd13ifvqdd0","pricing_plan_id":"free"},{"bike_id":"a75e186c-00ce-4c79-8a4a-67c8478528ce","system_id":"levelo_inurba_marseille","lat":43.291994,"lon":5.392907,"is_reserved":false,"is_disabled":false,"rental_uris":{"android":"levelo://app?vid=a75e186c-00ce-4c79-8a4a-67c8478528ce","ios":"levelo://app?vid=a75e186c-00ce-4c79-8a4a-67c8478528ce"},"vehicle_type_id":"4","last_reported":1684152778,"current_range_meters":31200,"station_id":"ce4bh192rcd13ifvqdd0","pricing_plan_id":"free"},{"bike_id":"fc1facba-34fa-478c-86f6-7a0bec9a47ab","system_id":"levelo_inurba_marseille","lat":43.291994,"lon":5.392907,"is_reserved":false,"is_disabled":false,"rental_uris":{"android":"levelo://app?vid=fc1facba-34fa-478c-86f6-7a0bec9a47ab","ios":"levelo://app?vid=fc1facba-34fa-478c-86f6-7a0bec9a47ab"},"vehicle_type_id":"4","last_reported":1684152778,"current_range_meters":31200,"station_id":"ce4bh192rcd13ifvqdd0","pricing_plan_id":"free"},{"bike_id":"d6df134b-04b3-49a7-b80a-13f74d164a1d","system_id":"levelo_inurba_marseille","lat":43.285848,"lon":5.350787,"is_reserved":false,"is_disabled":false,"rental_uris":{"android":"levelo://app?vid=d6df134b-04b3-49a7-b80a-13f74d164a1d","ios":"levelo://app?vid=d6df134b-04b3-49a7-b80a-13f74d164a1d"},"vehicle_type_id":"4","last_reported":1684152778,"current_range_meters":19200,"station_id":"ce4bhch2rcd13ifvqeug","pricing_plan_id":"free"},{"bike_id":"180de164-acb0-44aa-b8b8-2726f92750a1","system_id":"levelo_inurba_marseille","lat":43.286224,"lon":5.35136,"is_reserved":false,"is_disabled":false,"rental_uris":{"android":"levelo://app?vid=180de164-acb0-44aa-b8b8-2726f92750a1","ios":"levelo://app?vid=180de164-acb0-44aa-b8b8-2726f92750a1"},"vehicle_type_id":"4","last_reported":1684152778,"current_range_meters":10800,"station_id":"ce4bhbp2rcd13ifvqerg","pricing_plan_id":"free"},{"bike_id":"4da944e7-4bf8-4a1f-a9fe-9a3bde81f918","system_id":"levelo_inurba_marseille","lat":43.285856,"lon":5.350771,"is_reserved":false,"is_disabled":false,"rental_uris":{"android":"levelo://app?vid=4da944e7-4bf8-4a1f-a9fe-9a3bde81f918","ios":"levelo://app?vid=4da944e7-4bf8-4a1f-a9fe-9a3bde81f918"},"vehicle_type_id":"4","last_reported":1684152778,"current_range_meters":22000,"station_id":"ce4bhch2rcd13ifvqeug","pricing_plan_id":"free"},{"bike_id":"7c84b1e2-8962-4679-a840-ae274eec1961","system_id":"levelo_inurba_marseille","lat":43.285856,"lon":5.350771,"is_reserved":false,"is_disabled":false,"rental_uris":{"android":"levelo://app?vid=7c84b1e2-8962-4679-a840-ae274eec1961","ios":"levelo://app?vid=7c84b1e2-8962-4679-a840-ae274eec1961"},"vehicle_type_id":"4","last_reported":1684152778,"current_range_meters":21600,"station_id":"ce4bhch2rcd13ifvqeug","pricing_plan_id":"free"},{"bike_id":"de247f98-9ab1-4a43-8b49-c23d406d46b3","system_id":"levelo_inurba_marseille","lat":43.285856,"lon":5.350771,"is_reserved":false,"is_disabled":false,"rental_uris":{"android":"levelo://app?vid=de247f98-9ab1-4a43-8b49-c23d406d46b3","ios":"levelo://app?vid=de247f98-9ab1-4a43-8b49-c23d406d46b3"},"vehicle_type_id":"4","last_reported":1684152778,"current_range_meters":19600,"station_id":"ce4bhch2rcd13ifvqeug","pricing_plan_id":"free"},{"bike_id":"f2630f5d-e98b-46ff-ad45-90ab33edf2e4","system_id":"levelo_inurba_marseille","lat":43.285856,"lon":5.350771,"is_reserved":false,"is_disabled":false,"rental_uris":{"android":"levelo://app?vid=f2630f5d-e98b-46ff-ad45-90ab33edf2e4","ios":"levelo://app?vid=f2630f5d-e98b-46ff-ad45-90ab33edf2e4"},"vehicle_type_id":"4","last_reported":1684152778,"current_range_meters":14000,"station_id":"ce4bhch2rcd13ifvqeug","pricing_plan_id":"free"},{"bike_id":"bbd7436b-1f5c-4d85-a8ea-79bcb268f93e","system_id":"levelo_inurba_marseille","lat":43.285856,"lon":5.350771,"is_reserved":false,"is_disabled":false,"rental_uris":{"android":"levelo://app?vid=bbd7436b-1f5c-4d85-a8ea-79bcb268f93e","ios":"levelo://app?vid=bbd7436b-1f5c-4d85-a8ea-79bcb268f93e"},"vehicle_type_id":"4","last_reported":1684152778,"current_range_meters":5200,"station_id":"ce4bhch2rcd13ifvqeug","pricing_plan_id":"free"},{"bike_id":"13097756-b7e8-4515-8c93-eed717af7a29","system_id":"levelo_inurba_marseille","lat":43.285856,"lon":5.350771,"is_reserved":false,"is_disabled":false,"rental_uris":{"android":"levelo://app?vid=13097756-b7e8-4515-8c93-eed717af7a29","ios":"levelo://app?vid=13097756-b7e8-4515-8c93-eed717af7a29"},"vehicle_type_id":"4","last_reported":1684152778,"current_range_meters":10800,"station_id":"ce4bhch2rcd13ifvqeug","pricing_plan_id":"free"},{"bike_id":"b59359ca-64d2-442b-bd20-7ab4bf14a9be","system_id":"levelo_inurba_marseille","lat":43.286595,"lon":5.386795,"is_reserved":false,"is_disabled":false,"rental_uris":{"android":"levelo://app?vid=b59359ca-64d2-442b-bd20-7ab4bf14a9be","ios":"levelo://app?vid=b59359ca-64d2-442b-bd20-7ab4bf14a9be"},"vehicle_type_id":"4","last_reported":1684152778,"current_range_meters":12400,"station_id":"ce4bh492rcd13ifvqdug","pricing_plan_id":"free"},{"bike_id":"7fd8af32-2a20-4f33-b198-92e6ed9fb88b","system_id":"levelo_inurba_marseille","lat":43.32333,"lon":5.40615,"is_reserved":false,"is_disabled":false,"rental_uris":{"android":"levelo://app?vid=7fd8af32-2a20-4f33-b198-92e6ed9fb88b","ios":"levelo://app?vid=7fd8af32-2a20-4f33-b198-92e6ed9fb88b"},"vehicle_type_id":"4","last_reported":1684152778,"current_range_meters":22000,"station_id":"ce4bhq92rcd13ifvqhjg","pricing_plan_id":"free"},{"bike_id":"d7952765-7462-4c1e-b3ca-5d06319afdef","system_id":"levelo_inurba_marseille","lat":43.33714,"lon":5.39198,"is_reserved":false,"is_disabled":false,"rental_uris":{"android":"levelo://app?vid=d7952765-7462-4c1e-b3ca-5d06319afdef","ios":"levelo://app?vid=d7952765-7462-4c1e-b3ca-5d06319afdef"},"vehicle_type_id":"4","last_reported":1684152778,"current_range_meters":3200,"station_id":"ce4bhr92rcd13ifvqhsg","pricing_plan_id":"free"},{"bike_id":"abc1e03b-ffea-4cc5-be93-d7a46693d420","system_id":"levelo_inurba_marseille","lat":43.32334,"lon":5.40617,"is_reserved":false,"is_disabled":false,"rental_uris":{"android":"levelo://app?vid=abc1e03b-ffea-4cc5-be93-d7a46693d420","ios":"levelo://app?vid=abc1e03b-ffea-4cc5-be93-d7a46693d420"},"vehicle_type_id":"4","last_reported":1684152778,"current_range_meters":27600,"station_id":"ce4bhq92rcd13ifvqhjg","pricing_plan_id":"free"},{"bike_id":"dceb2bbd-2bc7-43b0-80eb-1d0724be1760","system_id":"levelo_inurba_marseille","lat":43.32342,"lon":5.40614,"is_reserved":false,"is_disabled":false,"rental_uris":{"android":"levelo://app?vid=dceb2bbd-2bc7-43b0-80eb-1d0724be1760","ios":"levelo://app?vid=dceb2bbd-2bc7-43b0-80eb-1d0724be1760"},"vehicle_type_id":"4","last_reported":1684152778,"current_range_meters":28800,"station_id":"ce4bhq92rcd13ifvqhjg","pricing_plan_id":"free"},{"bike_id":"422e969b-de68-4e39-b3ca-0164d4efd97f","system_id":"levelo_inurba_marseille","lat":43.284219,"lon":5.3497,"is_reserved":false,"is_disabled":false,"rental_uris":{"android":"levelo://app?vid=422e969b-de68-4e39-b3ca-0164d4efd97f","ios":"levelo://app?vid=422e969b-de68-4e39-b3ca-0164d4efd97f"},"vehicle_type_id":"4","last_reported":1684152778,"current_range_meters":0,"station_id":"ce4bhbh2rcd13ifvqepg","pricing_plan_id":"free"},{"bike_id":"b557dae2-3d4d-44b6-a788-6ef45dc42c42","system_id":"levelo_inurba_marseille","lat":43.284219,"lon":5.3497,"is_reserved":false,"is_disabled":false,"rental_uris":{"android":"levelo://app?vid=b557dae2-3d4d-44b6-a788-6ef45dc42c42","ios":"levelo://app?vid=b557dae2-3d4d-44b6-a788-6ef45dc42c42"},"vehicle_type_id":"4","last_reported":1684152778,"current_range_meters":18400,"station_id":"ce4bhbh2rcd13ifvqepg","pricing_plan_id":"free"},{"bike_id":"2d5de33f-8a72-4225-aa5b-0b90e4e03758","system_id":"levelo_inurba_marseille","lat":43.284217,"lon":5.349697,"is_reserved":false,"is_disabled":false,"rental_uris":{"android":"levelo://app?vid=2d5de33f-8a72-4225-aa5b-0b90e4e03758","ios":"levelo://app?vid=2d5de33f-8a72-4225-aa5b-0b90e4e03758"},"vehicle_type_id":"4","last_reported":1684152778,"current_range_meters":31600,"station_id":"ce4bhbh2rcd13ifvqepg","pricing_plan_id":"free"},{"bike_id":"c07c3e35-d52d-4b10-9a22-49a78bfbbfb8","system_id":"levelo_inurba_marseille","lat":43.284217,"lon":5.349697,"is_reserved":false,"is_disabled":false,"rental_uris":{"android":"levelo://app?vid=c07c3e35-d52d-4b10-9a22-49a78bfbbfb8","ios":"levelo://app?vid=c07c3e35-d52d-4b10-9a22-49a78bfbbfb8"},"vehicle_type_id":"4","last_reported":1684152778,"current_range_meters":2400,"station_id":"ce4bhbh2rcd13ifvqepg","pricing_plan_id":"free"},{"bike_id":"25d3f0c2-a677-47ae-8627-c6a36dd0e124","system_id":"levelo_inurba_marseille","lat":43.284219,"lon":5.3497,"is_reserved":false,"is_disabled":false,"rental_uris":{"android":"levelo://app?vid=25d3f0c2-a677-47ae-8627-c6a36dd0e124","ios":"levelo://app?vid=25d3f0c2-a677-47ae-8627-c6a36dd0e124"},"vehicle_type_id":"4","last_reported":1684152778,"current_range_meters":800,"station_id":"ce4bhbh2rcd13ifvqepg","pricing_plan_id":"free"},{"bike_id":"8b7bb9fd-73fb-41be-868a-86b4fd445df3","system_id":"levelo_inurba_marseille","lat":43.284217,"lon":5.349697,"is_reserved":false,"is_disabled":false,"rental_uris":{"android":"levelo://app?vid=8b7bb9fd-73fb-41be-868a-86b4fd445df3","ios":"levelo://app?vid=8b7bb9fd-73fb-41be-868a-86b4fd445df3"},"vehicle_type_id":"4","last_reported":1684152778,"current_range_meters":31600,"station_id":"ce4bhbh2rcd13ifvqepg","pricing_plan_id":"free"},{"bike_id":"4308e5dd-65b5-4891-bed5-2457cf84e029","system_id":"levelo_inurba_marseille","lat":43.284217,"lon":5.349697,"is_reserved":false,"is_disabled":false,"rental_uris":{"android":"levelo://app?vid=4308e5dd-65b5-4891-bed5-2457cf84e029","ios":"levelo://app?vid=4308e5dd-65b5-4891-bed5-2457cf84e029"},"vehicle_type_id":"4","last_reported":1684152778,"current_range_meters":12000,"station_id":"ce4bhbh2rcd13ifvqepg","pricing_plan_id":"free"},{"bike_id":"e50ecd6f-e855-496f-8a8e-f94ead1768c9","system_id":"levelo_inurba_marseille","lat":43.284217,"lon":5.349697,"is_reserved":false,"is_disabled":false,"rental_uris":{"android":"levelo://app?vid=e50ecd6f-e855-496f-8a8e-f94ead1768c9","ios":"levelo://app?vid=e50ecd6f-e855-496f-8a8e-f94ead1768c9"},"vehicle_type_id":"4","last_reported":1684152778,"current_range_meters":22000,"station_id":"ce4bhbh2rcd13ifvqepg","pricing_plan_id":"free"},{"bike_id":"4f4af6fe-dc18-4dca-b938-c12f44d9f3ae","system_id":"levelo_inurba_marseille","lat":43.284219,"lon":5.3497,"is_reserved":false,"is_disabled":false,"rental_uris":{"android":"levelo://app?vid=4f4af6fe-dc18-4dca-b938-c12f44d9f3ae","ios":"levelo://app?vid=4f4af6fe-dc18-4dca-b938-c12f44d9f3ae"},"vehicle_type_id":"4","last_reported":1684152778,"current_range_meters":19200,"station_id":"ce4bhbh2rcd13ifvqepg","pricing_plan_id":"free"},{"bike_id":"72cbb59e-93ed-48a8-9b5c-762f32e3ae96","system_id":"levelo_inurba_marseille","lat":43.284219,"lon":5.3497,"is_reserved":false,"is_disabled":false,"rental_uris":{"android":"levelo://app?vid=72cbb59e-93ed-48a8-9b5c-762f32e3ae96","ios":"levelo://app?vid=72cbb59e-93ed-48a8-9b5c-762f32e3ae96"},"vehicle_type_id":"4","last_reported":1684152778,"current_range_meters":31600,"station_id":"ce4bhbh2rcd13ifvqepg","pricing_plan_id":"free"},{"bike_id":"3b300651-be76-4054-b6e5-2981d85f0620","system_id":"levelo_inurba_marseille","lat":43.284217,"lon":5.349697,"is_reserved":false,"is_disabled":false,"rental_uris":{"android":"levelo://app?vid=3b300651-be76-4054-b6e5-2981d85f0620","ios":"levelo://app?vid=3b300651-be76-4054-b6e5-2981d85f0620"},"vehicle_type_id":"4","last_reported":1684152778,"current_range_meters":5600,"station_id":"ce4bhbh2rcd13ifvqepg","pricing_plan_id":"free"},{"bike_id":"31ce516f-af55-40df-8d94-55cd7c5eba62","system_id":"levelo_inurba_marseille","lat":43.28942,"lon":5.39633,"is_reserved":false,"is_disabled":false,"rental_uris":{"android":"levelo://app?vid=31ce516f-af55-40df-8d94-55cd7c5eba62","ios":"levelo://app?vid=31ce516f-af55-40df-8d94-55cd7c5eba62"},"vehicle_type_id":"4","last_reported":1684152778,"current_range_meters":17600,"station_id":"ce4bh3h2rcd13ifvqdn0","pricing_plan_id":"free"},{"bike_id":"166e4342-e63d-4faa-a493-a373fd31d29e","system_id":"levelo_inurba_marseille","lat":43.28275,"lon":5.35077,"is_reserved":false,"is_disabled":false,"rental_uris":{"android":"levelo://app?vid=166e4342-e63d-4faa-a493-a373fd31d29e","ios":"levelo://app?vid=166e4342-e63d-4faa-a493-a373fd31d29e"},"vehicle_type_id":"4","last_reported":1684152778,"current_range_meters":15600,"station_id":"ce4bhbp2rcd13ifvqerg","pricing_plan_id":"free"},{"bike_id":"5a09c442-e8c2-4e63-a07f-6c1aadda1425","system_id":"levelo_inurba_marseille","lat":43.282744,"lon":5.350533,"is_reserved":false,"is_disabled":false,"rental_uris":{"android":"levelo://app?vid=5a09c442-e8c2-4e63-a07f-6c1aadda1425","ios":"levelo://app?vid=5a09c442-e8c2-4e63-a07f-6c1aadda1425"},"vehicle_type_id":"4","last_reported":1684152778,"current_range_meters":19200,"station_id":"ce4bhbp2rcd13ifvqerg","pricing_plan_id":"free"},{"bike_id":"48ac5627-b2b3-433f-848c-d74a389b9df2","system_id":"levelo_inurba_marseille","lat":43.28271,"lon":5.35076,"is_reserved":false,"is_disabled":false,"rental_uris":{"android":"levelo://app?vid=48ac5627-b2b3-433f-848c-d74a389b9df2","ios":"levelo://app?vid=48ac5627-b2b3-433f-848c-d74a389b9df2"},"vehicle_type_id":"4","last_reported":1684152778,"current_range_meters":29200,"station_id":"ce4bhbp2rcd13ifvqerg","pricing_plan_id":"free"},{"bike_id":"19f39cc9-a147-4b4c-a1a4-880655e869da","system_id":"levelo_inurba_marseille","lat":43.28275,"lon":5.35057,"is_reserved":false,"is_disabled":false,"rental_uris":{"android":"levelo://app?vid=19f39cc9-a147-4b4c-a1a4-880655e869da","ios":"levelo://app?vid=19f39cc9-a147-4b4c-a1a4-880655e869da"},"vehicle_type_id":"4","last_reported":1684152778,"current_range_meters":7200,"station_id":"ce4bhbp2rcd13ifvqerg","pricing_plan_id":"free"},{"bike_id":"52edccc5-6d6e-4d54-abaf-26bf297e3ebf","system_id":"levelo_inurba_marseille","lat":43.28269,"lon":5.35068,"is_reserved":false,"is_disabled":false,"rental_uris":{"android":"levelo://app?vid=52edccc5-6d6e-4d54-abaf-26bf297e3ebf","ios":"levelo://app?vid=52edccc5-6d6e-4d54-abaf-26bf297e3ebf"},"vehicle_type_id":"4","last_reported":1684152778,"current_range_meters":27600,"station_id":"ce4bhbp2rcd13ifvqerg","pricing_plan_id":"free"},{"bike_id":"7985aff8-8f46-4d34-87b7-932bba7490d9","system_id":"levelo_inurba_marseille","lat":43.28269,"lon":5.35061,"is_reserved":false,"is_disabled":false,"rental_uris":{"android":"levelo://app?vid=7985aff8-8f46-4d34-87b7-932bba7490d9","ios":"levelo://app?vid=7985aff8-8f46-4d34-87b7-932bba7490d9"},"vehicle_type_id":"4","last_reported":1684152778,"current_range_meters":2400,"station_id":"ce4bhbp2rcd13ifvqerg","pricing_plan_id":"free"},{"bike_id":"acc0cfa1-98e8-40c3-901e-43f95c36dece","system_id":"levelo_inurba_marseille","lat":43.28039,"lon":5.369297,"is_reserved":false,"is_disabled":false,"rental_uris":{"android":"levelo://app?vid=acc0cfa1-98e8-40c3-901e-43f95c36dece","ios":"levelo://app?vid=acc0cfa1-98e8-40c3-901e-43f95c36dece"},"vehicle_type_id":"4","last_reported":1684152778,"current_range_meters":0,"station_id":"ce4bha12rcd13ifvqef0","pricing_plan_id":"free"},{"bike_id":"be57935a-f647-45f4-983d-dd2e8d062271","system_id":"levelo_inurba_marseille","lat":43.28039,"lon":5.369297,"is_reserved":false,"is_disabled":false,"rental_uris":{"android":"levelo://app?vid=be57935a-f647-45f4-983d-dd2e8d062271","ios":"levelo://app?vid=be57935a-f647-45f4-983d-dd2e8d062271"},"vehicle_type_id":"4","last_reported":1684152778,"current_range_meters":800,"station_id":"ce4bha12rcd13ifvqef0","pricing_plan_id":"free"},{"bike_id":"2d53bd2d-1bdc-429f-a6a2-a600dc06f90e","system_id":"levelo_inurba_marseille","lat":43.282754,"lon":5.350519,"is_reserved":false,"is_disabled":false,"rental_uris":{"android":"levelo://app?vid=2d53bd2d-1bdc-429f-a6a2-a600dc06f90e","ios":"levelo://app?vid=2d53bd2d-1bdc-429f-a6a2-a600dc06f90e"},"vehicle_type_id":"4","last_reported":1684152778,"current_range_meters":24800,"station_id":"ce4bhbp2rcd13ifvqerg","pricing_plan_id":"free"},{"bike_id":"1f0ddf90-2e10-4041-be36-26b04f0f8a69","system_id":"levelo_inurba_marseille","lat":43.28039,"lon":5.369297,"is_reserved":false,"is_disabled":false,"rental_uris":{"android":"levelo://app?vid=1f0ddf90-2e10-4041-be36-26b04f0f8a69","ios":"levelo://app?vid=1f0ddf90-2e10-4041-be36-26b04f0f8a69"},"vehicle_type_id":"4","last_reported":1684152778,"current_range_meters":400,"station_id":"ce4bha12rcd13ifvqef0","pricing_plan_id":"free"},{"bike_id":"e7e1b4b3-b0f4-4172-9109-a63cf7db29c4","system_id":"levelo_inurba_marseille","lat":43.282744,"lon":5.350533,"is_reserved":false,"is_disabled":false,"rental_uris":{"android":"levelo://app?vid=e7e1b4b3-b0f4-4172-9109-a63cf7db29c4","ios":"levelo://app?vid=e7e1b4b3-b0f4-4172-9109-a63cf7db29c4"},"vehicle_type_id":"4","last_reported":1684152778,"current_range_meters":8400,"station_id":"ce4bhbp2rcd13ifvqerg","pricing_plan_id":"free"},{"bike_id":"cd86d3d6-b994-499b-b24c-53e6fc82af8a","system_id":"levelo_inurba_marseille","lat":43.281044,"lon":5.378308,"is_reserved":false,"is_disabled":false,"rental_uris":{"android":"levelo://app?vid=cd86d3d6-b994-499b-b24c-53e6fc82af8a","ios":"levelo://app?vid=cd86d3d6-b994-499b-b24c-53e6fc82af8a"},"vehicle_type_id":"4","last_reported":1684152778,"current_range_meters":2000,"station_id":"ce4bha12rcd13ifvqee0","pricing_plan_id":"free"},{"bike_id":"29376f8f-a5d1-45f9-b39f-1f5784d67aab","system_id":"levelo_inurba_marseille","lat":43.28104,"lon":5.37827,"is_reserved":false,"is_disabled":false,"rental_uris":{"android":"levelo://app?vid=29376f8f-a5d1-45f9-b39f-1f5784d67aab","ios":"levelo://app?vid=29376f8f-a5d1-45f9-b39f-1f5784d67aab"},"vehicle_type_id":"4","last_reported":1684152778,"current_range_meters":12400,"station_id":"ce4bha12rcd13ifvqee0","pricing_plan_id":"free"},{"bike_id":"76ac5a27-e0cf-44a6-b001-38e4fcd06c24","system_id":"levelo_inurba_marseille","lat":43.281044,"lon":5.378308,"is_reserved":false,"is_disabled":false,"rental_uris":{"android":"levelo://app?vid=76ac5a27-e0cf-44a6-b001-38e4fcd06c24","ios":"levelo://app?vid=76ac5a27-e0cf-44a6-b001-38e4fcd06c24"},"vehicle_type_id":"4","last_reported":1684152778,"current_range_meters":9600,"station_id":"ce4bha12rcd13ifvqee0","pricing_plan_id":"free"},{"bike_id":"1711d4bb-fb4d-4e07-8ced-eebe7913a01e","system_id":"levelo_inurba_marseille","lat":43.279953,"lon":5.361631,"is_reserved":false,"is_disabled":false,"rental_uris":{"android":"levelo://app?vid=1711d4bb-fb4d-4e07-8ced-eebe7913a01e","ios":"levelo://app?vid=1711d4bb-fb4d-4e07-8ced-eebe7913a01e"},"vehicle_type_id":"4","last_reported":1684152778,"current_range_meters":28400,"station_id":"ce4bgh92rcd13ifvqb40","pricing_plan_id":"free"},{"bike_id":"c390b2c1-3a4c-40f8-9518-9d94c3b28745","system_id":"levelo_inurba_marseille","lat":43.320045,"lon":5.415048,"is_reserved":false,"is_disabled":false,"rental_uris":{"android":"levelo://app?vid=c390b2c1-3a4c-40f8-9518-9d94c3b28745","ios":"levelo://app?vid=c390b2c1-3a4c-40f8-9518-9d94c3b28745"},"vehicle_type_id":"4","last_reported":1684152778,"current_range_meters":30800,"station_id":"ce4bhq92rcd13ifvqhkg","pricing_plan_id":"free"},{"bike_id":"6a407717-bbb2-4706-9272-b24f77fe5d0d","system_id":"levelo_inurba_marseille","lat":43.279631,"lon":5.387383,"is_reserved":false,"is_disabled":false,"rental_uris":{"android":"levelo://app?vid=6a407717-bbb2-4706-9272-b24f77fe5d0d","ios":"levelo://app?vid=6a407717-bbb2-4706-9272-b24f77fe5d0d"},"vehicle_type_id":"4","last_reported":1684152778,"current_range_meters":27200,"station_id":"","pricing_plan_id":"free"},{"bike_id":"0ce2148b-a088-44a3-bbd6-dc944e2aa396","system_id":"levelo_inurba_marseille","lat":43.320045,"lon":5.415048,"is_reserved":false,"is_disabled":false,"rental_uris":{"android":"levelo://app?vid=0ce2148b-a088-44a3-bbd6-dc944e2aa396","ios":"levelo://app?vid=0ce2148b-a088-44a3-bbd6-dc944e2aa396"},"vehicle_type_id":"4","last_reported":1684152778,"current_range_meters":17200,"station_id":"ce4bhq92rcd13ifvqhkg","pricing_plan_id":"free"},{"bike_id":"f6f259b8-1c21-4f7a-8315-a87221ff3bda","system_id":"levelo_inurba_marseille","lat":43.29258,"lon":5.40893,"is_reserved":false,"is_disabled":false,"rental_uris":{"android":"levelo://app?vid=f6f259b8-1c21-4f7a-8315-a87221ff3bda","ios":"levelo://app?vid=f6f259b8-1c21-4f7a-8315-a87221ff3bda"},"vehicle_type_id":"4","last_reported":1684152778,"current_range_meters":22000,"station_id":"ce4bh192rcd13ifvqdc0","pricing_plan_id":"free"},{"bike_id":"545cdb8d-157b-4618-89d4-ad384a60c0a3","system_id":"levelo_inurba_marseille","lat":43.325233,"lon":5.414318,"is_reserved":false,"is_disabled":false,"rental_uris":{"android":"levelo://app?vid=545cdb8d-157b-4618-89d4-ad384a60c0a3","ios":"levelo://app?vid=545cdb8d-157b-4618-89d4-ad384a60c0a3"},"vehicle_type_id":"4","last_reported":1684152778,"current_range_meters":28000,"station_id":"ce4bhq12rcd13ifvqhhg","pricing_plan_id":"free"},{"bike_id":"b5201b95-f225-41c3-aacc-4a2ab71899b6","system_id":"levelo_inurba_marseille","lat":43.32551,"lon":5.41426,"is_reserved":false,"is_disabled":false,"rental_uris":{"android":"levelo://app?vid=b5201b95-f225-41c3-aacc-4a2ab71899b6","ios":"levelo://app?vid=b5201b95-f225-41c3-aacc-4a2ab71899b6"},"vehicle_type_id":"4","last_reported":1684152778,"current_range_meters":31200,"station_id":"","pricing_plan_id":"free"},{"bike_id":"a7dfea8f-5f27-414a-948a-4670fdc65786","system_id":"levelo_inurba_marseille","lat":43.3254,"lon":5.41433,"is_reserved":false,"is_disabled":false,"rental_uris":{"android":"levelo://app?vid=a7dfea8f-5f27-414a-948a-4670fdc65786","ios":"levelo://app?vid=a7dfea8f-5f27-414a-948a-4670fdc65786"},"vehicle_type_id":"4","last_reported":1684152778,"current_range_meters":12800,"station_id":"ce4bhq12rcd13ifvqhhg","pricing_plan_id":"free"},{"bike_id":"e3b97df0-641f-46db-80cc-471e49a73030","system_id":"levelo_inurba_marseille","lat":43.27623,"lon":5.36112,"is_reserved":false,"is_disabled":false,"rental_uris":{"android":"levelo://app?vid=e3b97df0-641f-46db-80cc-471e49a73030","ios":"levelo://app?vid=e3b97df0-641f-46db-80cc-471e49a73030"},"vehicle_type_id":"4","last_reported":1684152778,"current_range_meters":30800,"station_id":"ce4bgj92rcd13ifvqbe0","pricing_plan_id":"free"},{"bike_id":"45a9113e-9210-4d6b-88f1-4de08e105358","system_id":"levelo_inurba_marseille","lat":43.325233,"lon":5.414318,"is_reserved":false,"is_disabled":false,"rental_uris":{"android":"levelo://app?vid=45a9113e-9210-4d6b-88f1-4de08e105358","ios":"levelo://app?vid=45a9113e-9210-4d6b-88f1-4de08e105358"},"vehicle_type_id":"4","last_reported":1684152778,"current_range_meters":5600,"station_id":"ce4bhq12rcd13ifvqhhg","pricing_plan_id":"free"},{"bike_id":"bcd8eec6-fcaa-4636-9f59-0453c7ea2936","system_id":"levelo_inurba_marseille","lat":43.27621,"lon":5.36109,"is_reserved":false,"is_disabled":false,"rental_uris":{"android":"levelo://app?vid=bcd8eec6-fcaa-4636-9f59-0453c7ea2936","ios":"levelo://app?vid=bcd8eec6-fcaa-4636-9f59-0453c7ea2936"},"vehicle_type_id":"4","last_reported":1684152778,"current_range_meters":14400,"station_id":"ce4bgj92rcd13ifvqbe0","pricing_plan_id":"free"},{"bike_id":"9dfb59a0-a8f5-492a-861d-ab6ec18d7583","system_id":"levelo_inurba_marseille","lat":43.325233,"lon":5.414318,"is_reserved":false,"is_disabled":false,"rental_uris":{"android":"levelo://app?vid=9dfb59a0-a8f5-492a-861d-ab6ec18d7583","ios":"levelo://app?vid=9dfb59a0-a8f5-492a-861d-ab6ec18d7583"},"vehicle_type_id":"4","last_reported":1684152778,"current_range_meters":31600,"station_id":"ce4bhq12rcd13ifvqhhg","pricing_plan_id":"free"},{"bike_id":"01e8285a-60dd-4f5d-bc72-648dc380291b","system_id":"levelo_inurba_marseille","lat":43.32536,"lon":5.41443,"is_reserved":false,"is_disabled":false,"rental_uris":{"android":"levelo://app?vid=01e8285a-60dd-4f5d-bc72-648dc380291b","ios":"levelo://app?vid=01e8285a-60dd-4f5d-bc72-648dc380291b"},