{"last_updated":1700899682,"ttl":30,"version":"2.2","data":{"bikes":[{"bike_id":"dfce69a5-2fe5-48a2-a2e8-79582b567774","system_id":"levelo_inurba_marseille","lat":43.309076,"lon":5.368465,"is_reserved":false,"is_disabled":false,"rental_uris":{"android":"levelo://app?vid=dfce69a5-2fe5-48a2-a2e8-79582b567774","ios":"levelo://app?vid=dfce69a5-2fe5-48a2-a2e8-79582b567774"},"vehicle_type_id":"4","last_reported":1700899682,"current_range_meters":28400,"station_id":"ce4bgn92rcd13ifvqbvg","pricing_plan_id":"free"},{"bike_id":"82ce7cf4-60db-4161-ae87-fe70a7b21179","system_id":"levelo_inurba_marseille","lat":43.309039,"lon":5.371797,"is_reserved":false,"is_disabled":false,"rental_uris":{"android":"levelo://app?vid=82ce7cf4-60db-4161-ae87-fe70a7b21179","ios":"levelo://app?vid=82ce7cf4-60db-4161-ae87-fe70a7b21179"},"vehicle_type_id":"4","last_reported":1700899682,"current_range_meters":29600,"station_id":"ce4bguh2rcd13ifvqckg","pricing_plan_id":"free"},{"bike_id":"4f479843-3b65-4f86-97fe-5abe33f8675a","system_id":"levelo_inurba_marseille","lat":43.309039,"lon":5.371797,"is_reserved":false,"is_disabled":false,"rental_uris":{"android":"levelo://app?vid=4f479843-3b65-4f86-97fe-5abe33f8675a","ios":"levelo://app?vid=4f479843-3b65-4f86-97fe-5abe33f8675a"},"vehicle_type_id":"4","last_reported":1700899682,"current_range_meters":8000,"station_id":"ce4bguh2rcd13ifvqckg","pricing_plan_id":"free"},{"bike_id":"a51ae5b4-b0fb-4ac5-9930-e8fb0ec50610","system_id":"levelo_inurba_marseille","lat":43.305368,"lon":5.367343,"is_reserved":false,"is_disabled":false,"rental_uris":{"android":"levelo://app?vid=a51ae5b4-b0fb-4ac5-9930-e8fb0ec50610","ios":"levelo://app?vid=a51ae5b4-b0fb-4ac5-9930-e8fb0ec50610"},"vehicle_type_id":"4","last_reported":1700899682,"current_range_meters":12800,"station_id":"ce4bgrp2rcd13ifvqc9g","pricing_plan_id":"free"},{"bike_id":"e66813bb-b4e8-449c-aac5-3d595dee199c","system_id":"levelo_inurba_marseille","lat":43.305706,"lon":5.365654,"is_reserved":false,"is_disabled":false,"rental_uris":{"android":"levelo://app?vid=e66813bb-b4e8-449c-aac5-3d595dee199c","ios":"levelo://app?vid=e66813bb-b4e8-449c-aac5-3d595dee199c"},"vehicle_type_id":"4","last_reported":1700899682,"current_range_meters":29200,"station_id":"ce4bgs12rcd13ifvqcag","pricing_plan_id":"free"},{"bike_id":"d6ab450f-3da4-44e1-91ef-3188484f0fa3","system_id":"levelo_inurba_marseille","lat":43.305706,"lon":5.365654,"is_reserved":false,"is_disabled":false,"rental_uris":{"android":"levelo://app?vid=d6ab450f-3da4-44e1-91ef-3188484f0fa3","ios":"levelo://app?vid=d6ab450f-3da4-44e1-91ef-3188484f0fa3"},"vehicle_type_id":"4","last_reported":1700899682,"current_range_meters":24800,"station_id":"ce4bgs12rcd13ifvqcag","pricing_plan_id":"free"},{"bike_id":"493543f2-f4de-4d1e-9733-277010a6099b","system_id":"levelo_inurba_marseille","lat":43.305706,"lon":5.365654,"is_reserved":false,"is_disabled":false,"rental_uris":{"android":"levelo://app?vid=493543f2-f4de-4d1e-9733-277010a6099b","ios":"levelo://app?vid=493543f2-f4de-4d1e-9733-277010a6099b"},"vehicle_type_id":"4","last_reported":1700899682,"current_range_meters":24400,"station_id":"ce4bgs12rcd13ifvqcag","pricing_plan_id":"free"},{"bike_id":"0e3a20c0-fbe4-4be1-8a70-167c2d1fc9f6","system_id":"levelo_inurba_marseille","lat":43.305187,"lon":5.36567,"is_reserved":false,"is_disabled":false,"rental_uris":{"android":"levelo://app?vid=0e3a20c0-fbe4-4be1-8a70-167c2d1fc9f6","ios":"levelo://app?vid=0e3a20c0-fbe4-4be1-8a70-167c2d1fc9f6"},"vehicle_type_id":"4","last_reported":1700899682,"current_range_meters":0,"station_id":"ce4bgs12rcd13ifvqcag","pricing_plan_id":"free"},{"bike_id":"26c8d2b4-6f9f-4b89-acb4-143a4297ec47","system_id":"levelo_inurba_marseille","lat":43.305989,"lon":5.37225,"is_reserved":false,"is_disabled":false,"rental_uris":{"android":"levelo://app?vid=26c8d2b4-6f9f-4b89-acb4-143a4297ec47","ios":"levelo://app?vid=26c8d2b4-6f9f-4b89-acb4-143a4297ec47"},"vehicle_type_id":"4","last_reported":1700899682,"current_range_meters":30400,"station_id":"ce4bgqh2rcd13ifvqc4g","pricing_plan_id":"free"},{"bike_id":"2f3f821f-f550-4513-9ea1-607b4d7f7915","system_id":"levelo_inurba_marseille","lat":43.305989,"lon":5.37225,"is_reserved":false,"is_disabled":false,"rental_uris":{"android":"levelo://app?vid=2f3f821f-f550-4513-9ea1-607b4d7f7915","ios":"levelo://app?vid=2f3f821f-f550-4513-9ea1-607b4d7f7915"},"vehicle_type_id":"4","last_reported":1700899682,"current_range_meters":29200,"station_id":"ce4bgqh2rcd13ifvqc4g","pricing_plan_id":"free"},{"bike_id":"573a870a-b6c4-429d-8587-8103772b84bc","system_id":"levelo_inurba_marseille","lat":43.308171,"lon":5.376595,"is_reserved":false,"is_disabled":false,"rental_uris":{"android":"levelo://app?vid=573a870a-b6c4-429d-8587-8103772b84bc","ios":"levelo://app?vid=573a870a-b6c4-429d-8587-8103772b84bc"},"vehicle_type_id":"4","last_reported":1700899682,"current_range_meters":5600,"station_id":"ce4bgv92rcd13ifvqcq0","pricing_plan_id":"free"},{"bike_id":"f427a2c3-6e4a-446b-ae2f-9be8aa7f4122","system_id":"levelo_inurba_marseille","lat":43.31719,"lon":5.376813,"is_reserved":false,"is_disabled":false,"rental_uris":{"android":"levelo://app?vid=f427a2c3-6e4a-446b-ae2f-9be8aa7f4122","ios":"levelo://app?vid=f427a2c3-6e4a-446b-ae2f-9be8aa7f4122"},"vehicle_type_id":"4","last_reported":1700899682,"current_range_meters":25600,"station_id":"ce4bgth2rcd13ifvqch0","pricing_plan_id":"free"},{"bike_id":"b898b018-f57d-4901-bab2-fdd15d391de9","system_id":"levelo_inurba_marseille","lat":43.317168,"lon":5.376883,"is_reserved":false,"is_disabled":false,"rental_uris":{"android":"levelo://app?vid=b898b018-f57d-4901-bab2-fdd15d391de9","ios":"levelo://app?vid=b898b018-f57d-4901-bab2-fdd15d391de9"},"vehicle_type_id":"4","last_reported":1700899682,"current_range_meters":28000,"station_id":"ce4bgth2rcd13ifvqch0","pricing_plan_id":"free"},{"bike_id":"4a12da52-9a31-447d-9886-290c9866d443","system_id":"levelo_inurba_marseille","lat":43.307945,"lon":5.376487,"is_reserved":false,"is_disabled":false,"rental_uris":{"android":"levelo://app?vid=4a12da52-9a31-447d-9886-290c9866d443","ios":"levelo://app?vid=4a12da52-9a31-447d-9886-290c9866d443"},"vehicle_type_id":"4","last_reported":1700899682,"current_range_meters":31200,"station_id":"ce4bgv92rcd13ifvqcq0","pricing_plan_id":"free"},{"bike_id":"96eaa8c0-23e0-44b9-88f7-61654c4c627f","system_id":"levelo_inurba_marseille","lat":43.307945,"lon":5.376487,"is_reserved":false,"is_disabled":false,"rental_uris":{"android":"levelo://app?vid=96eaa8c0-23e0-44b9-88f7-61654c4c627f","ios":"levelo://app?vid=96eaa8c0-23e0-44b9-88f7-61654c4c627f"},"vehicle_type_id":"4","last_reported":1700899682,"current_range_meters":30800,"station_id":"ce4bgv92rcd13ifvqcq0","pricing_plan_id":"free"},{"bike_id":"8850d316-6e90-4fde-9f36-1d707477c318","system_id":"levelo_inurba_marseille","lat":43.307945,"lon":5.376487,"is_reserved":false,"is_disabled":false,"rental_uris":{"android":"levelo://app?vid=8850d316-6e90-4fde-9f36-1d707477c318","ios":"levelo://app?vid=8850d316-6e90-4fde-9f36-1d707477c318"},"vehicle_type_id":"4","last_reported":1700899682,"current_range_meters":24000,"station_id":"ce4bgv92rcd13ifvqcq0","pricing_plan_id":"free"},{"bike_id":"d0838722-4519-4ead-99e9-d3f441a66736","system_id":"levelo_inurba_marseille","lat":43.317075,"lon":5.377367,"is_reserved":false,"is_disabled":false,"rental_uris":{"android":"levelo://app?vid=d0838722-4519-4ead-99e9-d3f441a66736","ios":"levelo://app?vid=d0838722-4519-4ead-99e9-d3f441a66736"},"vehicle_type_id":"4","last_reported":1700899682,"current_range_meters":24400,"station_id":"ce4bgth2rcd13ifvqch0","pricing_plan_id":"free"},{"bike_id":"9fdf340d-8b1b-41cf-a8fd-3039275a75bd","system_id":"levelo_inurba_marseille","lat":43.303046,"lon":5.368981,"is_reserved":false,"is_disabled":false,"rental_uris":{"android":"levelo://app?vid=9fdf340d-8b1b-41cf-a8fd-3039275a75bd","ios":"levelo://app?vid=9fdf340d-8b1b-41cf-a8fd-3039275a75bd"},"vehicle_type_id":"4","last_reported":1700899682,"current_range_meters":22800,"station_id":"ce4bgqh2rcd13ifvqc5g","pricing_plan_id":"free"},{"bike_id":"cf92051e-3b73-41ee-8f87-07a63c97f5fc","system_id":"levelo_inurba_marseille","lat":43.315327,"lon":5.380362,"is_reserved":false,"is_disabled":false,"rental_uris":{"android":"levelo://app?vid=cf92051e-3b73-41ee-8f87-07a63c97f5fc","ios":"levelo://app?vid=cf92051e-3b73-41ee-8f87-07a63c97f5fc"},"vehicle_type_id":"4","last_reported":1700899682,"current_range_meters":17200,"station_id":"ce4bhsp2rcd13ifvqi50","pricing_plan_id":"free"},{"bike_id":"d69025b0-8b89-4c4d-be9b-24cc15a18fef","system_id":"levelo_inurba_marseille","lat":43.30272,"lon":5.36906,"is_reserved":false,"is_disabled":false,"rental_uris":{"android":"levelo://app?vid=d69025b0-8b89-4c4d-be9b-24cc15a18fef","ios":"levelo://app?vid=d69025b0-8b89-4c4d-be9b-24cc15a18fef"},"vehicle_type_id":"4","last_reported":1700899682,"current_range_meters":18000,"station_id":"","pricing_plan_id":"free"},{"bike_id":"5b839f33-d76f-45a9-800d-361f0d025709","system_id":"levelo_inurba_marseille","lat":43.315293,"lon":5.380349,"is_reserved":false,"is_disabled":false,"rental_uris":{"android":"levelo://app?vid=5b839f33-d76f-45a9-800d-361f0d025709","ios":"levelo://app?vid=5b839f33-d76f-45a9-800d-361f0d025709"},"vehicle_type_id":"4","last_reported":1700899682,"current_range_meters":20000,"station_id":"ce4bhsp2rcd13ifvqi50","pricing_plan_id":"free"},{"bike_id":"9f5fe5d2-b5f4-4b5e-ae8b-9fdabc923653","system_id":"levelo_inurba_marseille","lat":43.304606,"lon":5.379026,"is_reserved":false,"is_disabled":false,"rental_uris":{"android":"levelo://app?vid=9f5fe5d2-b5f4-4b5e-ae8b-9fdabc923653","ios":"levelo://app?vid=9f5fe5d2-b5f4-4b5e-ae8b-9fdabc923653"},"vehicle_type_id":"4","last_reported":1700899682,"current_range_meters":21600,"station_id":"ce4bgup2rcd13ifvqcn0","pricing_plan_id":"free"},{"bike_id":"d248aa88-e2e7-4ce8-b0bd-a90c451e56c8","system_id":"levelo_inurba_marseille","lat":43.304606,"lon":5.379026,"is_reserved":false,"is_disabled":false,"rental_uris":{"android":"levelo://app?vid=d248aa88-e2e7-4ce8-b0bd-a90c451e56c8","ios":"levelo://app?vid=d248aa88-e2e7-4ce8-b0bd-a90c451e56c8"},"vehicle_type_id":"4","last_reported":1700899682,"current_range_meters":30800,"station_id":"ce4bgup2rcd13ifvqcn0","pricing_plan_id":"free"},{"bike_id":"3537fba9-594f-4cfa-8b91-7796b8520999","system_id":"levelo_inurba_marseille","lat":43.304606,"lon":5.379026,"is_reserved":false,"is_disabled":false,"rental_uris":{"android":"levelo://app?vid=3537fba9-594f-4cfa-8b91-7796b8520999","ios":"levelo://app?vid=3537fba9-594f-4cfa-8b91-7796b8520999"},"vehicle_type_id":"4","last_reported":1700899682,"current_range_meters":31200,"station_id":"ce4bgup2rcd13ifvqcn0","pricing_plan_id":"free"},{"bike_id":"5728f5cb-2fb7-4672-8197-2f13ebac31fe","system_id":"levelo_inurba_marseille","lat":43.304606,"lon":5.379026,"is_reserved":false,"is_disabled":false,"rental_uris":{"android":"levelo://app?vid=5728f5cb-2fb7-4672-8197-2f13ebac31fe","ios":"levelo://app?vid=5728f5cb-2fb7-4672-8197-2f13ebac31fe"},"vehicle_type_id":"4","last_reported":1700899682,"current_range_meters":27200,"station_id":"ce4bgup2rcd13ifvqcn0","pricing_plan_id":"free"},{"bike_id":"64f8ad7f-8812-4d50-a1bc-9dfec8e4e01f","system_id":"levelo_inurba_marseille","lat":43.304606,"lon":5.379026,"is_reserved":false,"is_disabled":false,"rental_uris":{"android":"levelo://app?vid=64f8ad7f-8812-4d50-a1bc-9dfec8e4e01f","ios":"levelo://app?vid=64f8ad7f-8812-4d50-a1bc-9dfec8e4e01f"},"vehicle_type_id":"4","last_reported":1700899682,"current_range_meters":32000,"station_id":"ce4bgup2rcd13ifvqcn0","pricing_plan_id":"free"},{"bike_id":"7ae50ca8-be13-4935-97a0-71b26072c469","system_id":"levelo_inurba_marseille","lat":43.304606,"lon":5.379026,"is_reserved":false,"is_disabled":false,"rental_uris":{"android":"levelo://app?vid=7ae50ca8-be13-4935-97a0-71b26072c469","ios":"levelo://app?vid=7ae50ca8-be13-4935-97a0-71b26072c469"},"vehicle_type_id":"4","last_reported":1700899682,"current_range_meters":19200,"station_id":"ce4bgup2rcd13ifvqcn0","pricing_plan_id":"free"},{"bike_id":"f84c71d8-2afe-4889-bb13-0f15b72420c1","system_id":"levelo_inurba_marseille","lat":43.304606,"lon":5.379026,"is_reserved":false,"is_disabled":false,"rental_uris":{"android":"levelo://app?vid=f84c71d8-2afe-4889-bb13-0f15b72420c1","ios":"levelo://app?vid=f84c71d8-2afe-4889-bb13-0f15b72420c1"},"vehicle_type_id":"4","last_reported":1700899682,"current_range_meters":20400,"station_id":"ce4bgup2rcd13ifvqcn0","pricing_plan_id":"free"},{"bike_id":"ca06037b-a6a3-410d-93f8-ff70bfff1a43","system_id":"levelo_inurba_marseille","lat":43.304606,"lon":5.379026,"is_reserved":false,"is_disabled":false,"rental_uris":{"android":"levelo://app?vid=ca06037b-a6a3-410d-93f8-ff70bfff1a43","ios":"levelo://app?vid=ca06037b-a6a3-410d-93f8-ff70bfff1a43"},"vehicle_type_id":"4","last_reported":1700899682,"current_range_meters":15200,"station_id":"ce4bgup2rcd13ifvqcn0","pricing_plan_id":"free"},{"bike_id":"3dc2f81b-07b9-46c0-9430-9e266e1cea0b","system_id":"levelo_inurba_marseille","lat":43.3046,"lon":5.37904,"is_reserved":false,"is_disabled":false,"rental_uris":{"android":"levelo://app?vid=3dc2f81b-07b9-46c0-9430-9e266e1cea0b","ios":"levelo://app?vid=3dc2f81b-07b9-46c0-9430-9e266e1cea0b"},"vehicle_type_id":"4","last_reported":1700899682,"current_range_meters":21600,"station_id":"ce4bgup2rcd13ifvqcn0","pricing_plan_id":"free"},{"bike_id":"03d44aa7-3a69-44ea-be14-a0f2c4bcca84","system_id":"levelo_inurba_marseille","lat":43.304606,"lon":5.379026,"is_reserved":false,"is_disabled":false,"rental_uris":{"android":"levelo://app?vid=03d44aa7-3a69-44ea-be14-a0f2c4bcca84","ios":"levelo://app?vid=03d44aa7-3a69-44ea-be14-a0f2c4bcca84"},"vehicle_type_id":"4","last_reported":1700899682,"current_range_meters":25200,"station_id":"ce4bgup2rcd13ifvqcn0","pricing_plan_id":"free"},{"bike_id":"bfdf1953-a0ec-41af-865f-f369c4822762","system_id":"levelo_inurba_marseille","lat":43.304606,"lon":5.379026,"is_reserved":false,"is_disabled":false,"rental_uris":{"android":"levelo://app?vid=bfdf1953-a0ec-41af-865f-f369c4822762","ios":"levelo://app?vid=bfdf1953-a0ec-41af-865f-f369c4822762"},"vehicle_type_id":"4","last_reported":1700899682,"current_range_meters":30800,"station_id":"ce4bgup2rcd13ifvqcn0","pricing_plan_id":"free"},{"bike_id":"6e211921-90ba-4dee-a70f-68daa8538b59","system_id":"levelo_inurba_marseille","lat":43.304606,"lon":5.379026,"is_reserved":false,"is_disabled":false,"rental_uris":{"android":"levelo://app?vid=6e211921-90ba-4dee-a70f-68daa8538b59","ios":"levelo://app?vid=6e211921-90ba-4dee-a70f-68daa8538b59"},"vehicle_type_id":"4","last_reported":1700899682,"current_range_meters":16800,"station_id":"ce4bgup2rcd13ifvqcn0","pricing_plan_id":"free"},{"bike_id":"8a3bec1d-37e5-44cf-8e16-94650879c61d","system_id":"levelo_inurba_marseille","lat":43.302784,"lon":5.377158,"is_reserved":false,"is_disabled":false,"rental_uris":{"android":"levelo://app?vid=8a3bec1d-37e5-44cf-8e16-94650879c61d","ios":"levelo://app?vid=8a3bec1d-37e5-44cf-8e16-94650879c61d"},"vehicle_type_id":"4","last_reported":1700899682,"current_range_meters":16800,"station_id":"ce4bguh2rcd13ifvqcj0","pricing_plan_id":"free"},{"bike_id":"babfdd7e-6cd2-4e72-8866-ac8539f5db7f","system_id":"levelo_inurba_marseille","lat":43.31994,"lon":5.381475,"is_reserved":false,"is_disabled":false,"rental_uris":{"android":"levelo://app?vid=babfdd7e-6cd2-4e72-8866-ac8539f5db7f","ios":"levelo://app?vid=babfdd7e-6cd2-4e72-8866-ac8539f5db7f"},"vehicle_type_id":"4","last_reported":1700899682,"current_range_meters":31200,"station_id":"ce4bhr12rcd13ifvqhpg","pricing_plan_id":"free"},{"bike_id":"b26e99ca-4d47-4ed0-b501-a4b987ea012a","system_id":"levelo_inurba_marseille","lat":43.31996,"lon":5.38152,"is_reserved":false,"is_disabled":false,"rental_uris":{"android":"levelo://app?vid=b26e99ca-4d47-4ed0-b501-a4b987ea012a","ios":"levelo://app?vid=b26e99ca-4d47-4ed0-b501-a4b987ea012a"},"vehicle_type_id":"4","last_reported":1700899682,"current_range_meters":25200,"station_id":"ce4bhr12rcd13ifvqhpg","pricing_plan_id":"free"},{"bike_id":"297c48cb-ada2-41fa-a9b3-36f330453cd6","system_id":"levelo_inurba_marseille","lat":43.31998,"lon":5.38152,"is_reserved":false,"is_disabled":false,"rental_uris":{"android":"levelo://app?vid=297c48cb-ada2-41fa-a9b3-36f330453cd6","ios":"levelo://app?vid=297c48cb-ada2-41fa-a9b3-36f330453cd6"},"vehicle_type_id":"4","last_reported":1700899682,"current_range_meters":31200,"station_id":"ce4bhr12rcd13ifvqhpg","pricing_plan_id":"free"},{"bike_id":"eaae71a3-c885-4b31-bb42-207a46915b29","system_id":"levelo_inurba_marseille","lat":43.299222,"lon":5.365554,"is_reserved":false,"is_disabled":false,"rental_uris":{"android":"levelo://app?vid=eaae71a3-c885-4b31-bb42-207a46915b29","ios":"levelo://app?vid=eaae71a3-c885-4b31-bb42-207a46915b29"},"vehicle_type_id":"4","last_reported":1700899682,"current_range_meters":26400,"station_id":"ce4bgm92rcd13ifvqbr0","pricing_plan_id":"free"},{"bike_id":"370cb26f-10c2-4896-a531-833a7555abd9","system_id":"levelo_inurba_marseille","lat":43.305473,"lon":5.383723,"is_reserved":false,"is_disabled":false,"rental_uris":{"android":"levelo://app?vid=370cb26f-10c2-4896-a531-833a7555abd9","ios":"levelo://app?vid=370cb26f-10c2-4896-a531-833a7555abd9"},"vehicle_type_id":"4","last_reported":1700899682,"current_range_meters":29600,"station_id":"ce4bgg92rcd13ifvqb30","pricing_plan_id":"free"},{"bike_id":"a11ceb9d-1757-4ba8-9748-19ac2f1cfc93","system_id":"levelo_inurba_marseille","lat":43.305364,"lon":5.384119,"is_reserved":false,"is_disabled":false,"rental_uris":{"android":"levelo://app?vid=a11ceb9d-1757-4ba8-9748-19ac2f1cfc93","ios":"levelo://app?vid=a11ceb9d-1757-4ba8-9748-19ac2f1cfc93"},"vehicle_type_id":"4","last_reported":1700899682,"current_range_meters":25200,"station_id":"ce4bgg92rcd13ifvqb30","pricing_plan_id":"free"},{"bike_id":"53a9e83b-58e2-49a6-82ac-862a31d3e870","system_id":"levelo_inurba_marseille","lat":43.297794,"lon":5.370888,"is_reserved":false,"is_disabled":false,"rental_uris":{"android":"levelo://app?vid=53a9e83b-58e2-49a6-82ac-862a31d3e870","ios":"levelo://app?vid=53a9e83b-58e2-49a6-82ac-862a31d3e870"},"vehicle_type_id":"4","last_reported":1700899682,"current_range_meters":24800,"station_id":"ce4bgop2rcd13ifvqc1g","pricing_plan_id":"free"},{"bike_id":"57f07daa-f979-41b2-bf81-49ff7a829b2a","system_id":"levelo_inurba_marseille","lat":43.3229,"lon":5.382579,"is_reserved":false,"is_disabled":false,"rental_uris":{"android":"levelo://app?vid=57f07daa-f979-41b2-bf81-49ff7a829b2a","ios":"levelo://app?vid=57f07daa-f979-41b2-bf81-49ff7a829b2a"},"vehicle_type_id":"4","last_reported":1700899682,"current_range_meters":30400,"station_id":"ce4bhr12rcd13ifvqhqg","pricing_plan_id":"free"},{"bike_id":"f9ce9c3f-5ce0-442f-986c-f1a94ddddd6a","system_id":"levelo_inurba_marseille","lat":43.322872,"lon":5.382756,"is_reserved":false,"is_disabled":false,"rental_uris":{"android":"levelo://app?vid=f9ce9c3f-5ce0-442f-986c-f1a94ddddd6a","ios":"levelo://app?vid=f9ce9c3f-5ce0-442f-986c-f1a94ddddd6a"},"vehicle_type_id":"4","last_reported":1700899682,"current_range_meters":30000,"station_id":"ce4bhr12rcd13ifvqhqg","pricing_plan_id":"free"},{"bike_id":"4c2d2c54-cd26-435c-85b5-90ef4562f5c8","system_id":"levelo_inurba_marseille","lat":43.322872,"lon":5.382756,"is_reserved":false,"is_disabled":false,"rental_uris":{"android":"levelo://app?vid=4c2d2c54-cd26-435c-85b5-90ef4562f5c8","ios":"levelo://app?vid=4c2d2c54-cd26-435c-85b5-90ef4562f5c8"},"vehicle_type_id":"4","last_reported":1700899682,"current_range_meters":28800,"station_id":"ce4bhr12rcd13ifvqhqg","pricing_plan_id":"free"},{"bike_id":"f8736720-e966-45a6-a671-1e9c1c844291","system_id":"levelo_inurba_marseille","lat":43.322872,"lon":5.382756,"is_reserved":false,"is_disabled":false,"rental_uris":{"android":"levelo://app?vid=f8736720-e966-45a6-a671-1e9c1c844291","ios":"levelo://app?vid=f8736720-e966-45a6-a671-1e9c1c844291"},"vehicle_type_id":"4","last_reported":1700899682,"current_range_meters":26000,"station_id":"ce4bhr12rcd13ifvqhqg","pricing_plan_id":"free"},{"bike_id":"7c93eefc-07fe-4a09-b42f-ee22a5cbe113","system_id":"levelo_inurba_marseille","lat":43.322872,"lon":5.382756,"is_reserved":false,"is_disabled":false,"rental_uris":{"android":"levelo://app?vid=7c93eefc-07fe-4a09-b42f-ee22a5cbe113","ios":"levelo://app?vid=7c93eefc-07fe-4a09-b42f-ee22a5cbe113"},"vehicle_type_id":"4","last_reported":1700899682,"current_range_meters":26400,"station_id":"ce4bhr12rcd13ifvqhqg","pricing_plan_id":"free"},{"bike_id":"4625bec6-4af3-44cb-8699-3acd72afd201","system_id":"levelo_inurba_marseille","lat":43.322872,"lon":5.382756,"is_reserved":false,"is_disabled":false,"rental_uris":{"android":"levelo://app?vid=4625bec6-4af3-44cb-8699-3acd72afd201","ios":"levelo://app?vid=4625bec6-4af3-44cb-8699-3acd72afd201"},"vehicle_type_id":"4","last_reported":1700899682,"current_range_meters":22800,"station_id":"ce4bhr12rcd13ifvqhqg","pricing_plan_id":"free"},{"bike_id":"07a03e0e-e12b-474e-a940-8baf07c98432","system_id":"levelo_inurba_marseille","lat":43.328371,"lon":5.366909,"is_reserved":false,"is_disabled":false,"rental_uris":{"android":"levelo://app?vid=07a03e0e-e12b-474e-a940-8baf07c98432","ios":"levelo://app?vid=07a03e0e-e12b-474e-a940-8baf07c98432"},"vehicle_type_id":"4","last_reported":1700899682,"current_range_meters":16000,"station_id":"ce4bhs92rcd13ifvqi0g","pricing_plan_id":"free"},{"bike_id":"6313ab13-1d2b-4b5e-9d92-c3fcbb288d70","system_id":"levelo_inurba_marseille","lat":43.297163,"lon":5.365866,"is_reserved":false,"is_disabled":false,"rental_uris":{"android":"levelo://app?vid=6313ab13-1d2b-4b5e-9d92-c3fcbb288d70","ios":"levelo://app?vid=6313ab13-1d2b-4b5e-9d92-c3fcbb288d70"},"vehicle_type_id":"4","last_reported":1700899682,"current_range_meters":25600,"station_id":"ce4bgn12rcd13ifvqbt0","pricing_plan_id":"free"},{"bike_id":"d2dfb988-ecba-41d5-8ac1-cdc2348bdd62","system_id":"levelo_inurba_marseille","lat":43.297163,"lon":5.365866,"is_reserved":false,"is_disabled":false,"rental_uris":{"android":"levelo://app?vid=d2dfb988-ecba-41d5-8ac1-cdc2348bdd62","ios":"levelo://app?vid=d2dfb988-ecba-41d5-8ac1-cdc2348bdd62"},"vehicle_type_id":"4","last_reported":1700899682,"current_range_meters":27200,"station_id":"ce4bgn12rcd13ifvqbt0","pricing_plan_id":"free"},{"bike_id":"319846df-048c-433c-beef-c4cf6361e7df","system_id":"levelo_inurba_marseille","lat":43.297163,"lon":5.365866,"is_reserved":false,"is_disabled":false,"rental_uris":{"android":"levelo://app?vid=319846df-048c-433c-beef-c4cf6361e7df","ios":"levelo://app?vid=319846df-048c-433c-beef-c4cf6361e7df"},"vehicle_type_id":"4","last_reported":1700899682,"current_range_meters":30000,"station_id":"ce4bgn12rcd13ifvqbt0","pricing_plan_id":"free"},{"bike_id":"4d7509f5-9559-42ca-a60d-bef9e80f0981","system_id":"levelo_inurba_marseille","lat":43.2996,"lon":5.37917,"is_reserved":false,"is_disabled":false,"rental_uris":{"android":"levelo://app?vid=4d7509f5-9559-42ca-a60d-bef9e80f0981","ios":"levelo://app?vid=4d7509f5-9559-42ca-a60d-bef9e80f0981"},"vehicle_type_id":"4","last_reported":1700899682,"current_range_meters":0,"station_id":"","pricing_plan_id":"free"},{"bike_id":"91ea429b-0379-495d-8d3b-cbac9d1a9ae5","system_id":"levelo_inurba_marseille","lat":43.2968,"lon":5.37291,"is_reserved":false,"is_disabled":false,"rental_uris":{"android":"levelo://app?vid=91ea429b-0379-495d-8d3b-cbac9d1a9ae5","ios":"levelo://app?vid=91ea429b-0379-495d-8d3b-cbac9d1a9ae5"},"vehicle_type_id":"4","last_reported":1700899682,"current_range_meters":28000,"station_id":"ce4bgk12rcd13ifvqbj0","pricing_plan_id":"free"},{"bike_id":"11f77723-1b30-4487-8e52-b663c43af7a6","system_id":"levelo_inurba_marseille","lat":43.296131,"lon":5.370791,"is_reserved":false,"is_disabled":false,"rental_uris":{"android":"levelo://app?vid=11f77723-1b30-4487-8e52-b663c43af7a6","ios":"levelo://app?vid=11f77723-1b30-4487-8e52-b663c43af7a6"},"vehicle_type_id":"4","last_reported":1700899682,"current_range_meters":31200,"station_id":"ce4bgnh2rcd13ifvqc0g","pricing_plan_id":"free"},{"bike_id":"36997de2-1b02-486b-9756-353fd6f2397c","system_id":"levelo_inurba_marseille","lat":43.29573,"lon":5.367355,"is_reserved":false,"is_disabled":false,"rental_uris":{"android":"levelo://app?vid=36997de2-1b02-486b-9756-353fd6f2397c","ios":"levelo://app?vid=36997de2-1b02-486b-9756-353fd6f2397c"},"vehicle_type_id":"4","last_reported":1700899682,"current_range_meters":19200,"station_id":"ce4bgph2rcd13ifvqc2g","pricing_plan_id":"free"},{"bike_id":"aa461f5c-571a-405c-b94b-381d6ba0ca55","system_id":"levelo_inurba_marseille","lat":43.309589,"lon":5.390258,"is_reserved":false,"is_disabled":false,"rental_uris":{"android":"levelo://app?vid=aa461f5c-571a-405c-b94b-381d6ba0ca55","ios":"levelo://app?vid=aa461f5c-571a-405c-b94b-381d6ba0ca55"},"vehicle_type_id":"4","last_reported":1700899682,"current_range_meters":29600,"station_id":"ce4bgup2rcd13ifvqco0","pricing_plan_id":"free"},{"bike_id":"4ae65ddd-0ffc-49df-bfdc-241736d2ef8c","system_id":"levelo_inurba_marseille","lat":43.309589,"lon":5.390258,"is_reserved":false,"is_disabled":false,"rental_uris":{"android":"levelo://app?vid=4ae65ddd-0ffc-49df-bfdc-241736d2ef8c","ios":"levelo://app?vid=4ae65ddd-0ffc-49df-bfdc-241736d2ef8c"},"vehicle_type_id":"4","last_reported":1700899682,"current_range_meters":31600,"station_id":"ce4bgup2rcd13ifvqco0","pricing_plan_id":"free"},{"bike_id":"06969aba-5bbb-48fd-a7a2-8f719ef6ee84","system_id":"levelo_inurba_marseille","lat":43.309589,"lon":5.390258,"is_reserved":false,"is_disabled":false,"rental_uris":{"android":"levelo://app?vid=06969aba-5bbb-48fd-a7a2-8f719ef6ee84","ios":"levelo://app?vid=06969aba-5bbb-48fd-a7a2-8f719ef6ee84"},"vehicle_type_id":"4","last_reported":1700899682,"current_range_meters":31200,"station_id":"ce4bgup2rcd13ifvqco0","pricing_plan_id":"free"},{"bike_id":"42fec819-9d0c-49b9-a603-df0408214b2e","system_id":"levelo_inurba_marseille","lat":43.309589,"lon":5.390258,"is_reserved":false,"is_disabled":false,"rental_uris":{"android":"levelo://app?vid=42fec819-9d0c-49b9-a603-df0408214b2e","ios":"levelo://app?vid=42fec819-9d0c-49b9-a603-df0408214b2e"},"vehicle_type_id":"4","last_reported":1700899682,"current_range_meters":15200,"station_id":"ce4bgup2rcd13ifvqco0","pricing_plan_id":"free"},{"bike_id":"48e9b64d-1128-4519-8d2e-b65c1a45e1fd","system_id":"levelo_inurba_marseille","lat":43.309589,"lon":5.390258,"is_reserved":false,"is_disabled":false,"rental_uris":{"android":"levelo://app?vid=48e9b64d-1128-4519-8d2e-b65c1a45e1fd","ios":"levelo://app?vid=48e9b64d-1128-4519-8d2e-b65c1a45e1fd"},"vehicle_type_id":"4","last_reported":1700899682,"current_range_meters":30000,"station_id":"ce4bgup2rcd13ifvqco0","pricing_plan_id":"free"},{"bike_id":"64d68a8e-ed98-4ca5-88e7-b6c24ada9d5e","system_id":"levelo_inurba_marseille","lat":43.295748,"lon":5.37522,"is_reserved":false,"is_disabled":false,"rental_uris":{"android":"levelo://app?vid=64d68a8e-ed98-4ca5-88e7-b6c24ada9d5e","ios":"levelo://app?vid=64d68a8e-ed98-4ca5-88e7-b6c24ada9d5e"},"vehicle_type_id":"4","last_reported":1700899682,"current_range_meters":29200,"station_id":"ce4bgh92rcd13ifvqb50","pricing_plan_id":"free"},{"bike_id":"5548de08-4af7-48c8-801f-4b78c4ef5e89","system_id":"levelo_inurba_marseille","lat":43.298037,"lon":5.381066,"is_reserved":false,"is_disabled":false,"rental_uris":{"android":"levelo://app?vid=5548de08-4af7-48c8-801f-4b78c4ef5e89","ios":"levelo://app?vid=5548de08-4af7-48c8-801f-4b78c4ef5e89"},"vehicle_type_id":"4","last_reported":1700899682,"current_range_meters":28000,"station_id":"ce4bgip2rcd13ifvqbb0","pricing_plan_id":"free"},{"bike_id":"7d5ced87-e785-4e12-9829-98b68fbdb3e3","system_id":"levelo_inurba_marseille","lat":43.304274,"lon":5.388873,"is_reserved":false,"is_disabled":false,"rental_uris":{"android":"levelo://app?vid=7d5ced87-e785-4e12-9829-98b68fbdb3e3","ios":"levelo://app?vid=7d5ced87-e785-4e12-9829-98b68fbdb3e3"},"vehicle_type_id":"4","last_reported":1700899682,"current_range_meters":28400,"station_id":"ce4bgk12rcd13ifvqbi0","pricing_plan_id":"free"},{"bike_id":"7b3c52d8-e0f2-4e35-9744-5c9e78e45371","system_id":"levelo_inurba_marseille","lat":43.296263,"lon":5.377094,"is_reserved":false,"is_disabled":false,"rental_uris":{"android":"levelo://app?vid=7b3c52d8-e0f2-4e35-9744-5c9e78e45371","ios":"levelo://app?vid=7b3c52d8-e0f2-4e35-9744-5c9e78e45371"},"vehicle_type_id":"4","last_reported":1700899682,"current_range_meters":24000,"station_id":"ce4bgi92rcd13ifvqb90","pricing_plan_id":"free"},{"bike_id":"2089f581-cf31-48f3-a7ce-90acd2412cf3","system_id":"levelo_inurba_marseille","lat":43.296263,"lon":5.377094,"is_reserved":false,"is_disabled":false,"rental_uris":{"android":"levelo://app?vid=2089f581-cf31-48f3-a7ce-90acd2412cf3","ios":"levelo://app?vid=2089f581-cf31-48f3-a7ce-90acd2412cf3"},"vehicle_type_id":"4","last_reported":1700899682,"current_range_meters":31200,"station_id":"ce4bgi92rcd13ifvqb90","pricing_plan_id":"free"},{"bike_id":"bb1d07e5-d8fc-4050-a0fc-b4a4c34532a4","system_id":"levelo_inurba_marseille","lat":43.295279,"lon":5.375048,"is_reserved":false,"is_disabled":false,"rental_uris":{"android":"levelo://app?vid=bb1d07e5-d8fc-4050-a0fc-b4a4c34532a4","ios":"levelo://app?vid=bb1d07e5-d8fc-4050-a0fc-b4a4c34532a4"},"vehicle_type_id":"4","last_reported":1700899682,"current_range_meters":30400,"station_id":"ce4bgkp2rcd13ifvqbmg","pricing_plan_id":"free"},{"bike_id":"02d3f03b-203d-46b0-bdc1-efd6a358da29","system_id":"levelo_inurba_marseille","lat":43.299707,"lon":5.384859,"is_reserved":false,"is_disabled":false,"rental_uris":{"android":"levelo://app?vid=02d3f03b-203d-46b0-bdc1-efd6a358da29","ios":"levelo://app?vid=02d3f03b-203d-46b0-bdc1-efd6a358da29"},"vehicle_type_id":"4","last_reported":1700899682,"current_range_meters":30400,"station_id":"ce4bgj92rcd13ifvqbd0","pricing_plan_id":"free"},{"bike_id":"16f97d73-5b9b-47db-8038-aea43e2e3d2a","system_id":"levelo_inurba_marseille","lat":43.295279,"lon":5.375048,"is_reserved":false,"is_disabled":false,"rental_uris":{"android":"levelo://app?vid=16f97d73-5b9b-47db-8038-aea43e2e3d2a","ios":"levelo://app?vid=16f97d73-5b9b-47db-8038-aea43e2e3d2a"},"vehicle_type_id":"4","last_reported":1700899682,"current_range_meters":27600,"station_id":"ce4bgkp2rcd13ifvqbmg","pricing_plan_id":"free"},{"bike_id":"6b621983-5e9e-42f7-990d-ad5a093820d2","system_id":"levelo_inurba_marseille","lat":43.293801,"lon":5.363066,"is_reserved":false,"is_disabled":false,"rental_uris":{"android":"levelo://app?vid=6b621983-5e9e-42f7-990d-ad5a093820d2","ios":"levelo://app?vid=6b621983-5e9e-42f7-990d-ad5a093820d2"},"vehicle_type_id":"4","last_reported":1700899682,"current_range_meters":1600,"station_id":"","pricing_plan_id":"free"},{"bike_id":"b5e0185b-342e-4a52-ac72-1e9cca22446b","system_id":"levelo_inurba_marseille","lat":43.32367,"lon":5.388836,"is_reserved":false,"is_disabled":false,"rental_uris":{"android":"levelo://app?vid=b5e0185b-342e-4a52-ac72-1e9cca22446b","ios":"levelo://app?vid=b5e0185b-342e-4a52-ac72-1e9cca22446b"},"vehicle_type_id":"4","last_reported":1700899682,"current_range_meters":26000,"station_id":"ce4bhqp2rcd13ifvqhog","pricing_plan_id":"free"},{"bike_id":"d864841a-7f0a-429e-88c5-e775d70b3fe8","system_id":"levelo_inurba_marseille","lat":43.29601,"lon":5.381084,"is_reserved":false,"is_disabled":false,"rental_uris":{"android":"levelo://app?vid=d864841a-7f0a-429e-88c5-e775d70b3fe8","ios":"levelo://app?vid=d864841a-7f0a-429e-88c5-e775d70b3fe8"},"vehicle_type_id":"4","last_reported":1700899682,"current_range_meters":24400,"station_id":"ce4bgl12rcd13ifvqbo0","pricing_plan_id":"free"},{"bike_id":"ff45a289-0995-49e7-a77c-12a042259d78","system_id":"levelo_inurba_marseille","lat":43.29601,"lon":5.381084,"is_reserved":false,"is_disabled":false,"rental_uris":{"android":"levelo://app?vid=ff45a289-0995-49e7-a77c-12a042259d78","ios":"levelo://app?vid=ff45a289-0995-49e7-a77c-12a042259d78"},"vehicle_type_id":"4","last_reported":1700899682,"current_range_meters":28800,"station_id":"ce4bgl12rcd13ifvqbo0","pricing_plan_id":"free"},{"bike_id":"224ac8fb-e591-43dc-9c7d-4f8272363473","system_id":"levelo_inurba_marseille","lat":43.292749,"lon":5.368402,"is_reserved":false,"is_disabled":false,"rental_uris":{"android":"levelo://app?vid=224ac8fb-e591-43dc-9c7d-4f8272363473","ios":"levelo://app?vid=224ac8fb-e591-43dc-9c7d-4f8272363473"},"vehicle_type_id":"4","last_reported":1700899682,"current_range_meters":18800,"station_id":"ce4bhbp2rcd13ifvqesg","pricing_plan_id":"free"},{"bike_id":"f954be7c-2b0e-485d-8910-c4cb93648c89","system_id":"levelo_inurba_marseille","lat":43.29303,"lon":5.37445,"is_reserved":false,"is_disabled":false,"rental_uris":{"android":"levelo://app?vid=f954be7c-2b0e-485d-8910-c4cb93648c89","ios":"levelo://app?vid=f954be7c-2b0e-485d-8910-c4cb93648c89"},"vehicle_type_id":"4","last_reported":1700899682,"current_range_meters":31600,"station_id":"ce4bgi12rcd13ifvqb70","pricing_plan_id":"free"},{"bike_id":"32941cb4-11b4-43e6-978f-7ccbb634a780","system_id":"levelo_inurba_marseille","lat":43.292311,"lon":5.360731,"is_reserved":false,"is_disabled":false,"rental_uris":{"android":"levelo://app?vid=32941cb4-11b4-43e6-978f-7ccbb634a780","ios":"levelo://app?vid=32941cb4-11b4-43e6-978f-7ccbb634a780"},"vehicle_type_id":"4","last_reported":1700899682,"current_range_meters":30400,"station_id":"ce4bhbh2rcd13ifvqeqg","pricing_plan_id":"free"},{"bike_id":"1c0d1398-e3ad-4b58-86dc-b643751c91da","system_id":"levelo_inurba_marseille","lat":43.291675,"lon":5.371583,"is_reserved":false,"is_disabled":false,"rental_uris":{"android":"levelo://app?vid=1c0d1398-e3ad-4b58-86dc-b643751c91da","ios":"levelo://app?vid=1c0d1398-e3ad-4b58-86dc-b643751c91da"},"vehicle_type_id":"4","last_reported":1700899682,"current_range_meters":23200,"station_id":"ce4bha92rcd13ifvqeh0","pricing_plan_id":"free"},{"bike_id":"cb35b119-84c1-485c-aba0-a69f99cf82cb","system_id":"levelo_inurba_marseille","lat":43.309047,"lon":5.396551,"is_reserved":false,"is_disabled":false,"rental_uris":{"android":"levelo://app?vid=cb35b119-84c1-485c-aba0-a69f99cf82cb","ios":"levelo://app?vid=cb35b119-84c1-485c-aba0-a69f99cf82cb"},"vehicle_type_id":"4","last_reported":1700899682,"current_range_meters":25600,"station_id":"ce4bh012rcd13ifvqcv0","pricing_plan_id":"free"},{"bike_id":"4f99e85c-af4c-4425-80cd-2e1e9e795e2c","system_id":"levelo_inurba_marseille","lat":43.313304,"lon":5.396863,"is_reserved":false,"is_disabled":false,"rental_uris":{"android":"levelo://app?vid=4f99e85c-af4c-4425-80cd-2e1e9e795e2c","ios":"levelo://app?vid=4f99e85c-af4c-4425-80cd-2e1e9e795e2c"},"vehicle_type_id":"4","last_reported":1700899682,"current_range_meters":25600,"station_id":"ce4bgvp2rcd13ifvqcu0","pricing_plan_id":"free"},{"bike_id":"08e318de-e6be-4d92-bb43-f34e2aee1130","system_id":"levelo_inurba_marseille","lat":43.313291,"lon":5.396838,"is_reserved":false,"is_disabled":false,"rental_uris":{"android":"levelo://app?vid=08e318de-e6be-4d92-bb43-f34e2aee1130","ios":"levelo://app?vid=08e318de-e6be-4d92-bb43-f34e2aee1130"},"vehicle_type_id":"4","last_reported":1700899682,"current_range_meters":26400,"station_id":"ce4bgvp2rcd13ifvqcu0","pricing_plan_id":"free"},{"bike_id":"7cd9be1a-99b0-41ae-9072-ad1706b74100","system_id":"levelo_inurba_marseille","lat":43.3088,"lon":5.39644,"is_reserved":false,"is_disabled":false,"rental_uris":{"android":"levelo://app?vid=7cd9be1a-99b0-41ae-9072-ad1706b74100","ios":"levelo://app?vid=7cd9be1a-99b0-41ae-9072-ad1706b74100"},"vehicle_type_id":"4","last_reported":1700899682,"current_range_meters":23200,"station_id":"ce4bh012rcd13ifvqcv0","pricing_plan_id":"free"},{"bike_id":"811b560c-73ad-4229-94e8-f200ecb55f0b","system_id":"levelo_inurba_marseille","lat":43.31329,"lon":5.39696,"is_reserved":false,"is_disabled":false,"rental_uris":{"android":"levelo://app?vid=811b560c-73ad-4229-94e8-f200ecb55f0b","ios":"levelo://app?vid=811b560c-73ad-4229-94e8-f200ecb55f0b"},"vehicle_type_id":"4","last_reported":1700899682,"current_range_meters":15200,"station_id":"ce4bgvp2rcd13ifvqcu0","pricing_plan_id":"free"},{"bike_id":"a98cfd21-f959-491a-98e7-d3d1cf14dab7","system_id":"levelo_inurba_marseille","lat":43.313274,"lon":5.396961,"is_reserved":false,"is_disabled":false,"rental_uris":{"android":"levelo://app?vid=a98cfd21-f959-491a-98e7-d3d1cf14dab7","ios":"levelo://app?vid=a98cfd21-f959-491a-98e7-d3d1cf14dab7"},"vehicle_type_id":"4","last_reported":1700899682,"current_range_meters":29600,"station_id":"ce4bgvp2rcd13ifvqcu0","pricing_plan_id":"free"},{"bike_id":"6e82d0f5-eb7f-4cea-81d4-b337539bfcee","system_id":"levelo_inurba_marseille","lat":43.31326,"lon":5.39699,"is_reserved":false,"is_disabled":false,"rental_uris":{"android":"levelo://app?vid=6e82d0f5-eb7f-4cea-81d4-b337539bfcee","ios":"levelo://app?vid=6e82d0f5-eb7f-4cea-81d4-b337539bfcee"},"vehicle_type_id":"4","last_reported":1700899682,"current_range_meters":18800,"station_id":"ce4bgvp2rcd13ifvqcu0","pricing_plan_id":"free"},{"bike_id":"938c9426-1e08-4298-bcf0-0ef4aad6473c","system_id":"levelo_inurba_marseille","lat":43.313301,"lon":5.397002,"is_reserved":false,"is_disabled":false,"rental_uris":{"android":"levelo://app?vid=938c9426-1e08-4298-bcf0-0ef4aad6473c","ios":"levelo://app?vid=938c9426-1e08-4298-bcf0-0ef4aad6473c"},"vehicle_type_id":"4","last_reported":1700899682,"current_range_meters":29600,"station_id":"ce4bgvp2rcd13ifvqcu0","pricing_plan_id":"free"},{"bike_id":"1d10a1b1-d55f-4279-928a-9c6858f32ca9","system_id":"levelo_inurba_marseille","lat":43.33211,"lon":5.38112,"is_reserved":false,"is_disabled":false,"rental_uris":{"android":"levelo://app?vid=1d10a1b1-d55f-4279-928a-9c6858f32ca9","ios":"levelo://app?vid=1d10a1b1-d55f-4279-928a-9c6858f32ca9"},"vehicle_type_id":"4","last_reported":1700899682,"current_range_meters":0,"station_id":"","pricing_plan_id":"free"},{"bike_id":"3b01ceb2-62e3-4327-9522-8ce832461d0b","system_id":"levelo_inurba_marseille","lat":43.290779,"lon":5.371482,"is_reserved":false,"is_disabled":false,"rental_uris":{"android":"levelo://app?vid=3b01ceb2-62e3-4327-9522-8ce832461d0b","ios":"levelo://app?vid=3b01ceb2-62e3-4327-9522-8ce832461d0b"},"vehicle_type_id":"4","last_reported":1700899682,"current_range_meters":30000,"station_id":"ce4bh5p2rcd13ifvqe4g","pricing_plan_id":"free"},{"bike_id":"b14ce939-ebff-4623-859d-94eae85bc418","system_id":"levelo_inurba_marseille","lat":43.290297,"lon":5.359199,"is_reserved":false,"is_disabled":false,"rental_uris":{"android":"levelo://app?vid=b14ce939-ebff-4623-859d-94eae85bc418","ios":"levelo://app?vid=b14ce939-ebff-4623-859d-94eae85bc418"},"vehicle_type_id":"4","last_reported":1700899682,"current_range_meters":6000,"station_id":"","pricing_plan_id":"free"},{"bike_id":"cd941fdd-0e84-4b1d-857f-67b777ab9e1d","system_id":"levelo_inurba_marseille","lat":43.29413,"lon":5.38622,"is_reserved":false,"is_disabled":false,"rental_uris":{"android":"levelo://app?vid=cd941fdd-0e84-4b1d-857f-67b777ab9e1d","ios":"levelo://app?vid=cd941fdd-0e84-4b1d-857f-67b777ab9e1d"},"vehicle_type_id":"4","last_reported":1700899682,"current_range_meters":27200,"station_id":"ce4bh2h2rcd13ifvqdh0","pricing_plan_id":"free"},{"bike_id":"e7e9652f-9c51-4bbc-aba6-380b6b87c25c","system_id":"levelo_inurba_marseille","lat":43.289184,"lon":5.366408,"is_reserved":false,"is_disabled":false,"rental_uris":{"android":"levelo://app?vid=e7e9652f-9c51-4bbc-aba6-380b6b87c25c","ios":"levelo://app?vid=e7e9652f-9c51-4bbc-aba6-380b6b87c25c"},"vehicle_type_id":"4","last_reported":1700899682,"current_range_meters":20400,"station_id":"ce4bhap2rcd13ifvqek0","pricing_plan_id":"free"},{"bike_id":"331aef77-56d6-4fee-9c17-34458dbe9d2b","system_id":"levelo_inurba_marseille","lat":43.28939,"lon":5.36393,"is_reserved":false,"is_disabled":false,"rental_uris":{"android":"levelo://app?vid=331aef77-56d6-4fee-9c17-34458dbe9d2b","ios":"levelo://app?vid=331aef77-56d6-4fee-9c17-34458dbe9d2b"},"vehicle_type_id":"4","last_reported":1700899682,"current_range_meters":30000,"station_id":"ce4bhc92rcd13ifvqetg","pricing_plan_id":"free"},{"bike_id":"93addec7-8a92-43ca-9fd9-744d4e483d13","system_id":"levelo_inurba_marseille","lat":43.3304,"lon":5.38922,"is_reserved":false,"is_disabled":false,"rental_uris":{"android":"levelo://app?vid=93addec7-8a92-43ca-9fd9-744d4e483d13","ios":"levelo://app?vid=93addec7-8a92-43ca-9fd9-744d4e483d13"},"vehicle_type_id":"4","last_reported":1700899682,"current_range_meters":1200,"station_id":"ce4bhr92rcd13ifvqhrg","pricing_plan_id":"free"},{"bike_id":"79283f3d-278d-4058-9d93-4b32f9c3a23b","system_id":"levelo_inurba_marseille","lat":43.290995,"lon":5.381361,"is_reserved":false,"is_disabled":false,"rental_uris":{"android":"levelo://app?vid=79283f3d-278d-4058-9d93-4b32f9c3a23b","ios":"levelo://app?vid=79283f3d-278d-4058-9d93-4b32f9c3a23b"},"vehicle_type_id":"4","last_reported":1700899682,"current_range_meters":30400,"station_id":"ce4bh512rcd13ifvqe2g","pricing_plan_id":"free"},{"bike_id":"8e0c1dd2-43ea-4066-aef2-738ecc14fd65","system_id":"levelo_inurba_marseille","lat":43.290995,"lon":5.381361,"is_reserved":false,"is_disabled":false,"rental_uris":{"android":"levelo://app?vid=8e0c1dd2-43ea-4066-aef2-738ecc14fd65","ios":"levelo://app?vid=8e0c1dd2-43ea-4066-aef2-738ecc14fd65"},"vehicle_type_id":"4","last_reported":1700899682,"current_range_meters":24000,"station_id":"ce4bh512rcd13ifvqe2g","pricing_plan_id":"free"},{"bike_id":"7f26825a-7c61-40dc-ad18-5d67fa9e2034","system_id":"levelo_inurba_marseille","lat":43.289743,"lon":5.378304,"is_reserved":false,"is_disabled":false,"rental_uris":{"android":"levelo://app?vid=7f26825a-7c61-40dc-ad18-5d67fa9e2034","ios":"levelo://app?vid=7f26825a-7c61-40dc-ad18-5d67fa9e2034"},"vehicle_type_id":"4","last_reported":1700899682,"current_range_meters":29600,"station_id":"ce4bh9p2rcd13ifvqed0","pricing_plan_id":"free"},{"bike_id":"d2641d72-2230-4ef6-ad95-3541abc9b9c5","system_id":"levelo_inurba_marseille","lat":43.289743,"lon":5.378304,"is_reserved":false,"is_disabled":false,"rental_uris":{"android":"levelo://app?vid=d2641d72-2230-4ef6-ad95-3541abc9b9c5","ios":"levelo://app?vid=d2641d72-2230-4ef6-ad95-3541abc9b9c5"},"vehicle_type_id":"4","last_reported":1700899682,"current_range_meters":22800,"station_id":"ce4bh9p2rcd13ifvqed0","pricing_plan_id":"free"},{"bike_id":"3965c67d-ccf1-4194-98fd-3a335690130e","system_id":"levelo_inurba_marseille","lat":43.28856,"lon":5.358371,"is_reserved":false,"is_disabled":false,"rental_uris":{"android":"levelo://app?vid=3965c67d-ccf1-4194-98fd-3a335690130e","ios":"levelo://app?vid=3965c67d-ccf1-4194-98fd-3a335690130e"},"vehicle_type_id":"4","last_reported":1700899682,"current_range_meters":15200,"station_id":"ce4bhb12rcd13ifvqem0","pricing_plan_id":"free"},{"bike_id":"63930bac-dba8-4359-a8d1-182651ab01d7","system_id":"levelo_inurba_marseille","lat":43.312609,"lon":5.401662,"is_reserved":false,"is_disabled":false,"rental_uris":{"android":"levelo://app?vid=63930bac-dba8-4359-a8d1-182651ab01d7","ios":"levelo://app?vid=63930bac-dba8-4359-a8d1-182651ab01d7"},"vehicle_type_id":"4","last_reported":1700899682,"current_range_meters":10000,"station_id":"ce4bh092rcd13ifvqd30","pricing_plan_id":"free"},{"bike_id":"512ca2c8-907c-4c52-b91d-c611e6053637","system_id":"levelo_inurba_marseille","lat":43.31275,"lon":5.401698,"is_reserved":false,"is_disabled":false,"rental_uris":{"android":"levelo://app?vid=512ca2c8-907c-4c52-b91d-c611e6053637","ios":"levelo://app?vid=512ca2c8-907c-4c52-b91d-c611e6053637"},"vehicle_type_id":"4","last_reported":1700899682,"current_range_meters":31200,"station_id":"ce4bh092rcd13ifvqd30","pricing_plan_id":"free"},{"bike_id":"a36bcf99-62cd-41bd-97f0-f36d1b1ae8c6","system_id":"levelo_inurba_marseille","lat":43.309371,"lon":5.401449,"is_reserved":false,"is_disabled":false,"rental_uris":{"android":"levelo://app?vid=a36bcf99-62cd-41bd-97f0-f36d1b1ae8c6","ios":"levelo://app?vid=a36bcf99-62cd-41bd-97f0-f36d1b1ae8c6"},"vehicle_type_id":"4","last_reported":1700899682,"current_range_meters":30800,"station_id":"ce4bgvp2rcd13ifvqct0","pricing_plan_id":"free"},{"bike_id":"6d3380cd-34a6-405f-9e14-9dfad01eb06b","system_id":"levelo_inurba_marseille","lat":43.312609,"lon":5.401662,"is_reserved":false,"is_disabled":false,"rental_uris":{"android":"levelo://app?vid=6d3380cd-34a6-405f-9e14-9dfad01eb06b","ios":"levelo://app?vid=6d3380cd-34a6-405f-9e14-9dfad01eb06b"},"vehicle_type_id":"4","last_reported":1700899682,"current_range_meters":26400,"station_id":"ce4bh092rcd13ifvqd30","pricing_plan_id":"free"},{"bike_id":"767800d5-fc15-4b0c-813f-26453fcc36b5","system_id":"levelo_inurba_marseille","lat":43.3093,"lon":5.401478,"is_reserved":false,"is_disabled":false,"rental_uris":{"android":"levelo://app?vid=767800d5-fc15-4b0c-813f-26453fcc36b5","ios":"levelo://app?vid=767800d5-fc15-4b0c-813f-26453fcc36b5"},"vehicle_type_id":"4","last_reported":1700899682,"current_range_meters":22000,"station_id":"ce4bgvp2rcd13ifvqct0","pricing_plan_id":"free"},{"bike_id":"ed3f905f-4c4a-41fb-98a0-1b9d048491fb","system_id":"levelo_inurba_marseille","lat":43.28727,"lon":5.36078,"is_reserved":false,"is_disabled":false,"rental_uris":{"android":"levelo://app?vid=ed3f905f-4c4a-41fb-98a0-1b9d048491fb","ios":"levelo://app?vid=ed3f905f-4c4a-41fb-98a0-1b9d048491fb"},"vehicle_type_id":"4","last_reported":1700899682,"current_range_meters":27600,"station_id":"cki0cbj6b192h4jlfktg","pricing_plan_id":"free"},{"bike_id":"f6ab1f2d-e3f4-4446-9f45-33b3091a0e3f","system_id":"levelo_inurba_marseille","lat":43.28727,"lon":5.36078,"is_reserved":false,"is_disabled":false,"rental_uris":{"android":"levelo://app?vid=f6ab1f2d-e3f4-4446-9f45-33b3091a0e3f","ios":"levelo://app?vid=f6ab1f2d-e3f4-4446-9f45-33b3091a0e3f"},"vehicle_type_id":"4","last_reported":1700899682,"current_range_meters":28400,"station_id":"cki0cbj6b192h4jlfktg","pricing_plan_id":"free"},{"bike_id":"3a5e1e7c-8831-46ec-b121-fd247f623ff5","system_id":"levelo_inurba_marseille","lat":43.298681,"lon":5.397225,"is_reserved":false,"is_disabled":false,"rental_uris":{"android":"levelo://app?vid=3a5e1e7c-8831-46ec-b121-fd247f623ff5","ios":"levelo://app?vid=3a5e1e7c-8831-46ec-b121-fd247f623ff5"},"vehicle_type_id":"4","last_reported":1700899682,"current_range_meters":28800,"station_id":"ce4bh0h2rcd13ifvqd50","pricing_plan_id":"free"},{"bike_id":"a1ce60ea-bd27-4a98-b3f1-8483100c6f6c","system_id":"levelo_inurba_marseille","lat":43.298681,"lon":5.397225,"is_reserved":false,"is_disabled":false,"rental_uris":{"android":"levelo://app?vid=a1ce60ea-bd27-4a98-b3f1-8483100c6f6c","ios":"levelo://app?vid=a1ce60ea-bd27-4a98-b3f1-8483100c6f6c"},"vehicle_type_id":"4","last_reported":1700899682,"current_range_meters":9600,"station_id":"ce4bh0h2rcd13ifvqd50","pricing_plan_id":"free"},{"bike_id":"f0dd7707-ba88-4235-91e6-a42a6d1a0c9c","system_id":"levelo_inurba_marseille","lat":43.286591,"lon":5.363346,"is_reserved":false,"is_disabled":false,"rental_uris":{"android":"levelo://app?vid=f0dd7707-ba88-4235-91e6-a42a6d1a0c9c","ios":"levelo://app?vid=f0dd7707-ba88-4235-91e6-a42a6d1a0c9c"},"vehicle_type_id":"4","last_reported":1700899682,"current_range_meters":30000,"station_id":"ce4bhah2rcd13ifvqej0","pricing_plan_id":"free"},{"bike_id":"689be10d-4b1e-4143-9c49-b99c81400a1e","system_id":"levelo_inurba_marseille","lat":43.298681,"lon":5.397225,"is_reserved":false,"is_disabled":false,"rental_uris":{"android":"levelo://app?vid=689be10d-4b1e-4143-9c49-b99c81400a1e","ios":"levelo://app?vid=689be10d-4b1e-4143-9c49-b99c81400a1e"},"vehicle_type_id":"4","last_reported":1700899682,"current_range_meters":30800,"station_id":"ce4bh0h2rcd13ifvqd50","pricing_plan_id":"free"},{"bike_id":"a114aae6-8ceb-4886-b20a-6780de28c969","system_id":"levelo_inurba_marseille","lat":43.286039,"lon":5.370679,"is_reserved":false,"is_disabled":false,"rental_uris":{"android":"levelo://app?vid=a114aae6-8ceb-4886-b20a-6780de28c969","ios":"levelo://app?vid=a114aae6-8ceb-4886-b20a-6780de28c969"},"vehicle_type_id":"4","last_reported":1700899682,"current_range_meters":30000,"station_id":"ce4bht12rcd13ifvqi60","pricing_plan_id":"free"},{"bike_id":"c39575a3-19c0-48eb-b5e0-f695c09b81fc","system_id":"levelo_inurba_marseille","lat":43.287185,"lon":5.379373,"is_reserved":false,"is_disabled":false,"rental_uris":{"android":"levelo://app?vid=c39575a3-19c0-48eb-b5e0-f695c09b81fc","ios":"levelo://app?vid=c39575a3-19c0-48eb-b5e0-f695c09b81fc"},"vehicle_type_id":"4","last_reported":1700899682,"current_range_meters":23200,"station_id":"ce4bh9p2rcd13ifvqec0","pricing_plan_id":"free"},{"bike_id":"e75b0bff-1808-498e-a0af-0a9ca68396e0","system_id":"levelo_inurba_marseille","lat":43.28706,"lon":5.37941,"is_reserved":false,"is_disabled":false,"rental_uris":{"android":"levelo://app?vid=e75b0bff-1808-498e-a0af-0a9ca68396e0","ios":"levelo://app?vid=e75b0bff-1808-498e-a0af-0a9ca68396e0"},"vehicle_type_id":"4","last_reported":1700899682,"current_range_meters":27200,"station_id":"ce4bh9p2rcd13ifvqec0","pricing_plan_id":"free"},{"bike_id":"5a59fb82-b826-494f-9bf0-d5372d5ab734","system_id":"levelo_inurba_marseille","lat":43.28708,"lon":5.37951,"is_reserved":false,"is_disabled":false,"rental_uris":{"android":"levelo://app?vid=5a59fb82-b826-494f-9bf0-d5372d5ab734","ios":"levelo://app?vid=5a59fb82-b826-494f-9bf0-d5372d5ab734"},"vehicle_type_id":"4","last_reported":1700899682,"current_range_meters":7600,"station_id":"ce4bh9p2rcd13ifvqec0","pricing_plan_id":"free"},{"bike_id":"bd7806b1-cdf2-4a1e-b5e0-df163e1f8f4c","system_id":"levelo_inurba_marseille","lat":43.2846,"lon":5.35887,"is_reserved":false,"is_disabled":false,"rental_uris":{"android":"levelo://app?vid=bd7806b1-cdf2-4a1e-b5e0-df163e1f8f4c","ios":"levelo://app?vid=bd7806b1-cdf2-4a1e-b5e0-df163e1f8f4c"},"vehicle_type_id":"4","last_reported":1700899682,"current_range_meters":21200,"station_id":"ce4bhah2rcd13ifvqei0","pricing_plan_id":"free"},{"bike_id":"ee4891d5-a13a-49e9-80b2-724d3220b9c2","system_id":"levelo_inurba_marseille","lat":43.28458,"lon":5.35885,"is_reserved":false,"is_disabled":false,"rental_uris":{"android":"levelo://app?vid=ee4891d5-a13a-49e9-80b2-724d3220b9c2","ios":"levelo://app?vid=ee4891d5-a13a-49e9-80b2-724d3220b9c2"},"vehicle_type_id":"4","last_reported":1700899682,"current_range_meters":21200,"station_id":"ce4bhah2rcd13ifvqei0","pricing_plan_id":"free"},{"bike_id":"bec460e9-8bd7-4de2-b033-6f6fc15d3b46","system_id":"levelo_inurba_marseille","lat":43.28457,"lon":5.35887,"is_reserved":false,"is_disabled":false,"rental_uris":{"android":"levelo://app?vid=bec460e9-8bd7-4de2-b033-6f6fc15d3b46","ios":"levelo://app?vid=bec460e9-8bd7-4de2-b033-6f6fc15d3b46"},"vehicle_type_id":"4","last_reported":1700899682,"current_range_meters":30800,"station_id":"ce4bhah2rcd13ifvqei0","pricing_plan_id":"free"},{"bike_id":"06e92924-ac72-4cc0-bd4a-10e475d117f9","system_id":"levelo_inurba_marseille","lat":43.284534,"lon":5.358662,"is_reserved":false,"is_disabled":false,"rental_uris":{"android":"levelo://app?vid=06e92924-ac72-4cc0-bd4a-10e475d117f9","ios":"levelo://app?vid=06e92924-ac72-4cc0-bd4a-10e475d117f9"},"vehicle_type_id":"4","last_reported":1700899682,"current_range_meters":22000,"station_id":"ce4bhah2rcd13ifvqei0","pricing_plan_id":"free"},{"bike_id":"52451758-9074-43bc-8aaf-e1be3ff78e0b","system_id":"levelo_inurba_marseille","lat":43.28456,"lon":5.3589,"is_reserved":false,"is_disabled":false,"rental_uris":{"android":"levelo://app?vid=52451758-9074-43bc-8aaf-e1be3ff78e0b","ios":"levelo://app?vid=52451758-9074-43bc-8aaf-e1be3ff78e0b"},"vehicle_type_id":"4","last_reported":1700899682,"current_range_meters":18400,"station_id":"ce4bhah2rcd13ifvqei0","pricing_plan_id":"free"},{"bike_id":"7f290dac-b761-4a08-9e2c-c94ce0063aa1","system_id":"levelo_inurba_marseille","lat":43.284534,"lon":5.358662,"is_reserved":false,"is_disabled":false,"rental_uris":{"android":"levelo://app?vid=7f290dac-b761-4a08-9e2c-c94ce0063aa1","ios":"levelo://app?vid=7f290dac-b761-4a08-9e2c-c94ce0063aa1"},"vehicle_type_id":"4","last_reported":1700899682,"current_range_meters":31200,"station_id":"ce4bhah2rcd13ifvqei0","pricing_plan_id":"free"},{"bike_id":"61cc7b97-d233-4710-86c8-d385a58acb08","system_id":"levelo_inurba_marseille","lat":43.284534,"lon":5.358662,"is_reserved":false,"is_disabled":false,"rental_uris":{"android":"levelo://app?vid=61cc7b97-d233-4710-86c8-d385a58acb08","ios":"levelo://app?vid=61cc7b97-d233-4710-86c8-d385a58acb08"},"vehicle_type_id":"4","last_reported":1700899682,"current_range_meters":32000,"station_id":"ce4bhah2rcd13ifvqei0","pricing_plan_id":"free"},{"bike_id":"6322721f-c60f-45c4-aa49-c3f137b3e9ee","system_id":"levelo_inurba_marseille","lat":43.294314,"lon":5.397498,"is_reserved":false,"is_disabled":false,"rental_uris":{"android":"levelo://app?vid=6322721f-c60f-45c4-aa49-c3f137b3e9ee","ios":"levelo://app?vid=6322721f-c60f-45c4-aa49-c3f137b3e9ee"},"vehicle_type_id":"4","last_reported":1700899682,"current_range_meters":24800,"station_id":"ce4bh3h2rcd13ifvqdo0","pricing_plan_id":"free"},{"bike_id":"464fb64a-e97b-4368-9517-d9757701de11","system_id":"levelo_inurba_marseille","lat":43.28624,"lon":5.35101,"is_reserved":false,"is_disabled":false,"rental_uris":{"android":"levelo://app?vid=464fb64a-e97b-4368-9517-d9757701de11","ios":"levelo://app?vid=464fb64a-e97b-4368-9517-d9757701de11"},"vehicle_type_id":"4","last_reported":1700899682,"current_range_meters":26400,"station_id":"ce4bhch2rcd13ifvqeug","pricing_plan_id":"free"},{"bike_id":"0659d491-e5a1-4057-8389-a0d7efdd059b","system_id":"levelo_inurba_marseille","lat":43.28618,"lon":5.35103,"is_reserved":false,"is_disabled":false,"rental_uris":{"android":"levelo://app?vid=0659d491-e5a1-4057-8389-a0d7efdd059b","ios":"levelo://app?vid=0659d491-e5a1-4057-8389-a0d7efdd059b"},"vehicle_type_id":"4","last_reported":1700899682,"current_range_meters":30800,"station_id":"ce4bhch2rcd13ifvqeug","pricing_plan_id":"free"},{"bike_id":"83625a1f-1393-4ee9-b456-59f8738e0ee7","system_id":"levelo_inurba_marseille","lat":43.295713,"lon":5.399639,"is_reserved":false,"is_disabled":false,"rental_uris":{"android":"levelo://app?vid=83625a1f-1393-4ee9-b456-59f8738e0ee7","ios":"levelo://app?vid=83625a1f-1393-4ee9-b456-59f8738e0ee7"},"vehicle_type_id":"4","last_reported":1700899682,"current_range_meters":31200,"station_id":"ce4bh312rcd13ifvqdj0","pricing_plan_id":"free"},{"bike_id":"58774b5f-0034-468b-adf0-d1b238f8238e","system_id":"levelo_inurba_marseille","lat":43.295713,"lon":5.399639,"is_reserved":false,"is_disabled":false,"rental_uris":{"android":"levelo://app?vid=58774b5f-0034-468b-adf0-d1b238f8238e","ios":"levelo://app?vid=58774b5f-0034-468b-adf0-d1b238f8238e"},"vehicle_type_id":"4","last_reported":1700899682,"current_range_meters":26800,"station_id":"ce4bh312rcd13ifvqdj0","pricing_plan_id":"free"},{"bike_id":"8ea2241d-8243-4aa8-9c3c-f5504f491d5a","system_id":"levelo_inurba_marseille","lat":43.295713,"lon":5.399639,"is_reserved":false,"is_disabled":false,"rental_uris":{"android":"levelo://app?vid=8ea2241d-8243-4aa8-9c3c-f5504f491d5a","ios":"levelo://app?vid=8ea2241d-8243-4aa8-9c3c-f5504f491d5a"},"vehicle_type_id":"4","last_reported":1700899682,"current_range_meters":29200,"station_id":"ce4bh312rcd13ifvqdj0","pricing_plan_id":"free"},{"bike_id":"2f00a144-d3b5-431b-8a0d-f61d4c685e49","system_id":"levelo_inurba_marseille","lat":43.295713,"lon":5.399639,"is_reserved":false,"is_disabled":false,"rental_uris":{"android":"levelo://app?vid=2f00a144-d3b5-431b-8a0d-f61d4c685e49","ios":"levelo://app?vid=2f00a144-d3b5-431b-8a0d-f61d4c685e49"},"vehicle_type_id":"4","last_reported":1700899682,"current_range_meters":26000,"station_id":"ce4bh312rcd13ifvqdj0","pricing_plan_id":"free"},{"bike_id":"75ce5a95-7b13-4d7f-90be-e760348a2028","system_id":"levelo_inurba_marseille","lat":43.286595,"lon":5.386795,"is_reserved":false,"is_disabled":false,"rental_uris":{"android":"levelo://app?vid=75ce5a95-7b13-4d7f-90be-e760348a2028","ios":"levelo://app?vid=75ce5a95-7b13-4d7f-90be-e760348a2028"},"vehicle_type_id":"4","last_reported":1700899682,"current_range_meters":18000,"station_id":"ce4bh492rcd13ifvqdug","pricing_plan_id":"free"},{"bike_id":"61750f1c-3419-4714-8f5a-0fc4d84c6398","system_id":"levelo_inurba_marseille","lat":43.31889,"lon":5.40727,"is_reserved":false,"is_disabled":false,"rental_uris":{"android":"levelo://app?vid=61750f1c-3419-4714-8f5a-0fc4d84c6398","ios":"levelo://app?vid=61750f1c-3419-4714-8f5a-0fc4d84c6398"},"vehicle_type_id":"4","last_reported":1700899682,"current_range_meters":18800,"station_id":"ce4bhq12rcd13ifvqhig","pricing_plan_id":"free"},{"bike_id":"85e4ecba-9efd-43c9-9c6b-00bb89a9eb10","system_id":"levelo_inurba_marseille","lat":43.319179,"lon":5.407725,"is_reserved":false,"is_disabled":false,"rental_uris":{"android":"levelo://app?vid=85e4ecba-9efd-43c9-9c6b-00bb89a9eb10","ios":"levelo://app?vid=85e4ecba-9efd-43c9-9c6b-00bb89a9eb10"},"vehicle_type_id":"4","last_reported":1700899682,"current_range_meters":28400,"station_id":"ce4bhq12rcd13ifvqhig","pricing_plan_id":"free"},{"bike_id":"b0beddf5-7bb3-41c4-bfcf-47f938baf159","system_id":"levelo_inurba_marseille","lat":43.319179,"lon":5.407725,"is_reserved":false,"is_disabled":false,"rental_uris":{"android":"levelo://app?vid=b0beddf5-7bb3-41c4-bfcf-47f938baf159","ios":"levelo://app?vid=b0beddf5-7bb3-41c4-bfcf-47f938baf159"},"vehicle_type_id":"4","last_reported":1700899682,"current_range_meters":30400,"station_id":"ce4bhq12rcd13ifvqhig","pricing_plan_id":"free"},{"bike_id":"60fb846c-95d4-493d-8ff0-fc77dde513c4","system_id":"levelo_inurba_marseille","lat":43.33717,"lon":5.391857,"is_reserved":false,"is_disabled":false,"rental_uris":{"android":"levelo://app?vid=60fb846c-95d4-493d-8ff0-fc77dde513c4","ios":"levelo://app?vid=60fb846c-95d4-493d-8ff0-fc77dde513c4"},"vehicle_type_id":"4","last_reported":1700899682,"current_range_meters":31200,"station_id":"ce4bhr92rcd13ifvqhsg","pricing_plan_id":"free"},{"bike_id":"a2aef97f-9672-490c-9adb-8f935edcc814","system_id":"levelo_inurba_marseille","lat":43.323464,"lon":5.406297,"is_reserved":false,"is_disabled":false,"rental_uris":{"android":"levelo://app?vid=a2aef97f-9672-490c-9adb-8f935edcc814","ios":"levelo://app?vid=a2aef97f-9672-490c-9adb-8f935edcc814"},"vehicle_type_id":"4","last_reported":1700899682,"current_range_meters":31200,"station_id":"ce4bhq92rcd13ifvqhjg","pricing_plan_id":"free"},{"bike_id":"88bb355f-c8f4-47cf-976f-181a9f95e494","system_id":"levelo_inurba_marseille","lat":43.284787,"lon":5.384116,"is_reserved":false,"is_disabled":false,"rental_uris":{"android":"levelo://app?vid=88bb355f-c8f4-47cf-976f-181a9f95e494","ios":"levelo://app?vid=88bb355f-c8f4-47cf-976f-181a9f95e494"},"vehicle_type_id":"4","last_reported":1700899682,"current_range_meters":27200,"station_id":"ce4bh512rcd13ifvqe3g","pricing_plan_id":"free"},{"bike_id":"8e9c8066-4934-4cb8-b2f1-d92d58cb420a","system_id":"levelo_inurba_marseille","lat":43.284793,"lon":5.384119,"is_reserved":false,"is_disabled":false,"rental_uris":{"android":"levelo://app?vid=8e9c8066-4934-4cb8-b2f1-d92d58cb420a","ios":"levelo://app?vid=8e9c8066-4934-4cb8-b2f1-d92d58cb420a"},"vehicle_type_id":"4","last_reported":1700899682,"current_range_meters":19200,"station_id":"ce4bh512rcd13ifvqe3g","pricing_plan_id":"free"},{"bike_id":"74ba1c7e-7070-4005-84f5-f7725b1c0e2b","system_id":"levelo_inurba_marseille","lat":43.288501,"lon":5.393087,"is_reserved":false,"is_disabled":false,"rental_uris":{"android":"levelo://app?vid=74ba1c7e-7070-4005-84f5-f7725b1c0e2b","ios":"levelo://app?vid=74ba1c7e-7070-4005-84f5-f7725b1c0e2b"},"vehicle_type_id":"4","last_reported":1700899682,"current_range_meters":28800,"station_id":"ce4bh2p2rcd13ifvqdi0","pricing_plan_id":"free"},{"bike_id":"b7aa7631-9089-48a7-89bb-a254278a2e06","system_id":"levelo_inurba_marseille","lat":43.28471,"lon":5.38437,"is_reserved":false,"is_disabled":false,"rental_uris":{"android":"levelo://app?vid=b7aa7631-9089-48a7-89bb-a254278a2e06","ios":"levelo://app?vid=b7aa7631-9089-48a7-89bb-a254278a2e06"},"vehicle_type_id":"4","last_reported":1700899682,"current_range_meters":23200,"station_id":"ce4bh512rcd13ifvqe3g","pricing_plan_id":"free"},{"bike_id":"9eb70c97-0c99-4ae2-ac40-696931bf9f87","system_id":"levelo_inurba_marseille","lat":43.284787,"lon":5.384116,"is_reserved":false,"is_disabled":false,"rental_uris":{"android":"levelo://app?vid=9eb70c97-0c99-4ae2-ac40-696931bf9f87","ios":"levelo://app?vid=9eb70c97-0c99-4ae2-ac40-696931bf9f87"},"vehicle_type_id":"4","last_reported":1700899682,"current_range_meters":30800,"station_id":"ce4bh512rcd13ifvqe3g","pricing_plan_id":"free"},{"bike_id":"7ed68669-0f74-4ee9-ab72-301a3b65d8be","system_id":"levelo_inurba_marseille","lat":43.284219,"lon":5.3497,"is_reserved":false,"is_disabled":false,"rental_uris":{"android":"levelo://app?vid=7ed68669-0f74-4ee9-ab72-301a3b65d8be","ios":"levelo://app?vid=7ed68669-0f74-4ee9-ab72-301a3b65d8be"},"vehicle_type_id":"4","last_reported":1700899682,"current_range_meters":30000,"station_id":"ce4bhbh2rcd13ifvqepg","pricing_plan_id":"free"},{"bike_id":"e2284003-4e46-4e0a-93e7-73d05c3666d9","system_id":"levelo_inurba_marseille","lat":43.33508,"lon":5.397755,"is_reserved":false,"is_disabled":false,"rental_uris":{"android":"levelo://app?vid=e2284003-4e46-4e0a-93e7-73d05c3666d9","ios":"levelo://app?vid=e2284003-4e46-4e0a-93e7-73d05c3666d9"},"vehicle_type_id":"4","last_reported":1700899682,"current_range_meters":23200,"station_id":"","pricing_plan_id":"free"},{"bike_id":"521d8a2c-51ec-4f55-bd49-ab9278d2ff0c","system_id":"levelo_inurba_marseille","lat":43.292688,"lon":5.401313,"is_reserved":false,"is_disabled":false,"rental_uris":{"android":"levelo://app?vid=521d8a2c-51ec-4f55-bd49-ab9278d2ff0c","ios":"levelo://app?vid=521d8a2c-51ec-4f55-bd49-ab9278d2ff0c"},"vehicle_type_id":"4","last_reported":1700899682,"current_range_meters":30800,"station_id":"ce4bh312rcd13ifvqdk0","pricing_plan_id":"free"},{"bike_id":"a0513cbe-1f28-425f-aec2-068e863b5b76","system_id":"levelo_inurba_marseille","lat":43.282674,"lon":5.350847,"is_reserved":false,"is_disabled":false,"rental_uris":{"android":"levelo://app?vid=a0513cbe-1f28-425f-aec2-068e863b5b76","ios":"levelo://app?vid=a0513cbe-1f28-425f-aec2-068e863b5b76"},"vehicle_type_id":"4","last_reported":1700899682,"current_range_meters":25600,"station_id":"ce4bhbp2rcd13ifvqerg","pricing_plan_id":"free"},{"bike_id":"5b671571-78b2-4f57-8063-0989c709b238","system_id":"levelo_inurba_marseille","lat":43.282744,"lon":5.350533,"is_reserved":false,"is_disabled":false,"rental_uris":{"android":"levelo://app?vid=5b671571-78b2-4f57-8063-0989c709b238","ios":"levelo://app?vid=5b671571-78b2-4f57-8063-0989c709b238"},"vehicle_type_id":"4","last_reported":1700899682,"current_range_meters":27600,"station_id":"ce4bhbp2rcd13ifvqerg","pricing_plan_id":"free"},{"bike_id":"6dbedfeb-c4f9-42f6-ac13-aa2b2db183c5","system_id":"levelo_inurba_marseille","lat":43.283502,"lon":5.386471,"is_reserved":false,"is_disabled":false,"rental_uris":{"android":"levelo://app?vid=6dbedfeb-c4f9-42f6-ac13-aa2b2db183c5","ios":"levelo://app?vid=6dbedfeb-c4f9-42f6-ac13-aa2b2db183c5"},"vehicle_type_id":"4","last_reported":1700899682,"current_range_meters":27200,"station_id":"ce4bh492rcd13ifvqdvg","pricing_plan_id":"free"},{"bike_id":"fe237562-43c7-4803-90d9-fc332cff1f9d","system_id":"levelo_inurba_marseille","lat":43.28039,"lon":5.369297,"is_reserved":false,"is_disabled":false,"rental_uris":{"android":"levelo://app?vid=fe237562-43c7-4803-90d9-fc332cff1f9d","ios":"levelo://app?vid=fe237562-43c7-4803-90d9-fc332cff1f9d"},"vehicle_type_id":"4","last_reported":1700899682,"current_range_meters":12400,"station_id":"ce4bha12rcd13ifvqef0","pricing_plan_id":"free"},{"bike_id":"89d3002a-936f-492d-bba4-96fa740cc32c","system_id":"levelo_inurba_marseille","lat":43.283502,"lon":5.386471,"is_reserved":false,"is_disabled":false,"rental_uris":{"android":"levelo://app?vid=89d3002a-936f-492d-bba4-96fa740cc32c","ios":"levelo://app?vid=89d3002a-936f-492d-bba4-96fa740cc32c"},"vehicle_type_id":"4","last_reported":1700899682,"current_range_meters":25200,"station_id":"ce4bh492rcd13ifvqdvg","pricing_plan_id":"free"},{"bike_id":"92af5a52-3ab4-44de-aff9-defbc1fddbe3","system_id":"levelo_inurba_marseille","lat":43.28039,"lon":5.369297,"is_reserved":false,"is_disabled":false,"rental_uris":{"android":"levelo://app?vid=92af5a52-3ab4-44de-aff9-defbc1fddbe3","ios":"levelo://app?vid=92af5a52-3ab4-44de-aff9-defbc1fddbe3"},"vehicle_type_id":"4","last_reported":1700899682,"current_range_meters":13200,"station_id":"ce4bha12rcd13ifvqef0","pricing_plan_id":"free"},{"bike_id":"09a88198-c1d5-46a8-9a74-3393cd531e27","system_id":"levelo_inurba_marseille","lat":43.28039,"lon":5.369297,"is_reserved":false,"is_disabled":false,"rental_uris":{"android":"levelo://app?vid=09a88198-c1d5-46a8-9a74-3393cd531e27","ios":"levelo://app?vid=09a88198-c1d5-46a8-9a74-3393cd531e27"},"vehicle_type_id":"4","last_reported":1700899682,"current_range_meters":32000,"station_id":"ce4bha12rcd13ifvqef0","pricing_plan_id":"free"},{"bike_id":"0d43bfa7-ce7d-4cb2-bc4e-2d23e0a1648a","system_id":"levelo_inurba_marseille","lat":43.28039,"lon":5.369297,"is_reserved":false,"is_disabled":false,"rental_uris":{"android":"levelo://app?vid=0d43bfa7-ce7d-4cb2-bc4e-2d23e0a1648a","ios":"levelo://app?vid=0d43bfa7-ce7d-4cb2-bc4e-2d23e0a1648a"},"vehicle_type_id":"4","last_reported":1700899682,"current_range_meters":16400,"station_id":"ce4bha12rcd13ifvqef0","pricing_plan_id":"free"},{"bike_id":"74284440-1425-47d5-934b-84af2e9d55bb","system_id":"levelo_inurba_marseille","lat":43.290392,"lon":5.399568,"is_reserved":false,"is_disabled":false,"rental_uris":{"android":"levelo://app?vid=74284440-1425-47d5-934b-84af2e9d55bb","ios":"levelo://app?vid=74284440-1425-47d5-934b-84af2e9d55bb"},"vehicle_type_id":"4","last_reported":1700899682,"current_range_meters":30800,"station_id":"ce4bh392rcd13ifvqdm0","pricing_plan_id":"free"},{"bike_id":"b034cdb6-09c5-4202-9433-1c1beb7f0486","system_id":"levelo_inurba_marseille","lat":43.290377,"lon":5.399567,"is_reserved":false,"is_disabled":false,"rental_uris":{"android":"levelo://app?vid=b034cdb6-09c5-4202-9433-1c1beb7f0486","ios":"levelo://app?vid=b034cdb6-09c5-4202-9433-1c1beb7f0486"},"vehicle_type_id":"4","last_reported":1700899682,"current_range_meters":30400,"station_id":"ce4bh392rcd13ifvqdm0","pricing_plan_id":"free"},{"bike_id":"0d35adbe-2043-439c-b86e-7f690da7ae15","system_id":"levelo_inurba_marseille","lat":43.2904,"lon":5.39963,"is_reserved":false,"is_disabled":false,"rental_uris":{"android":"levelo://app?vid=0d35adbe-2043-439c-b86e-7f690da7ae15","ios":"levelo://app?vid=0d35adbe-2043-439c-b86e-7f690da7ae15"},"vehicle_type_id":"4","last_reported":1700899682,"current_range_meters":29200,"station_id":"ce4bh392rcd13ifvqdm0","pricing_plan_id":"free"},{"bike_id":"5ef4e5a7-bc4c-481f-9a95-06d795dc8cc3","system_id":"levelo_inurba_marseille","lat":43.290359,"lon":5.399648,"is_reserved":false,"is_disabled":false,"rental_uris":{"android":"levelo://app?vid=5ef4e5a7-bc4c-481f-9a95-06d795dc8cc3","ios":"levelo://app?vid=5ef4e5a7-bc4c-481f-9a95-06d795dc8cc3"},"vehicle_type_id":"4","last_reported":1700899682,"current_range_meters":5600,"station_id":"ce4bh392rcd13ifvqdm0","pricing_plan_id":"free"},{"bike_id":"974f222d-7f3f-4944-9495-2f28ec8b6aa2","system_id":"levelo_inurba_marseille","lat":43.29033,"lon":5.39966,"is_reserved":false,"is_disabled":false,"rental_uris":{"android":"levelo://app?vid=974f222d-7f3f-4944-9495-2f28ec8b6aa2","ios":"levelo://app?vid=974f222d-7f3f-4944-9495-2f28ec8b6aa2"},"vehicle_type_id":"4","last_reported":1700899682,"current_range_meters":14400,"station_id":"ce4bh392rcd13ifvqdm0","pricing_plan_id":"free"},{"bike_id":"1ffceedc-796d-43e9-ba0e-2a29448ac059","system_id":"levelo_inurba_marseille","lat":43.290401,"lon":5.399825,"is_reserved":false,"is_disabled":false,"rental_uris":{"android":"levelo://app?vid=1ffceedc-796d-43e9-ba0e-2a29448ac059","ios":"levelo://app?vid=1ffceedc-796d-43e9-ba0e-2a29448ac059"},"vehicle_type_id":"4","last_reported":1700899682,"current_range_meters":0,"station_id":"ce4bh392rcd13ifvqdm0","pricing_plan_id":"free"},{"bike_id":"0b0baffb-2111-4377-ab4f-2f7e73686aca","system_id":"levelo_inurba_marseille","lat":43.296263,"lon":5.40601,"is_reserved":false,"is_disabled":false,"rental_uris":{"android":"levelo://app?vid=0b0baffb-2111-4377-ab4f-2f7e73686aca","ios":"levelo://app?vid=0b0baffb-2111-4377-ab4f-2f7e73686aca"},"vehicle_type_id":"4","last_reported":1700899682,"current_range_meters":27600,"station_id":"ce4bh0h2rcd13ifvqd60","pricing_plan_id":"free"},{"bike_id":"31f5282b-8934-4340-aca5-eaa938efb58e","system_id":"levelo_inurba_marseille","lat":43.284462,"lon":5.392121,"is_reserved":false,"is_disabled":false,"rental_uris":{"android":"levelo://app?vid=31f5282b-8934-4340-aca5-eaa938efb58e","ios":"levelo://app?vid=31f5282b-8934-4340-aca5-eaa938efb58e"},"vehicle_type_id":"4","last_reported":1700899682,"current_range_meters":30000,"station_id":"ce4bhoh2rcd13ifvqh5g","pricing_plan_id":"free"},{"bike_id":"ec6d5c9f-4941-48f3-94d6-3679e8f24620","system_id":"levelo_inurba_marseille","lat":43.326605,"lon":5.409903,"is_reserved":false,"is_disabled":false,"rental_uris":{"android":"levelo://app?vid=ec6d5c9f-4941-48f3-94d6-3679e8f24620","ios":"levelo://app?vid=ec6d5c9f-4941-48f3-94d6-3679e8f24620"},"vehicle_type_id":"4","last_reported":1700899682,"current_range_meters":29600,"station_id":"ce4bhpp2rcd13ifvqhgg","pricing_plan_id":"free"},{"bike_id":"fd114853-7457-45d8-9582-8acd9b09cf99","system_id":"levelo_inurba_marseille","lat":43.326605,"lon":5.409903,"is_reserved":false,"is_disabled":false,"rental_uris":{"android":"levelo://app?vid=fd114853-7457-45d8-9582-8acd9b09cf99","ios":"levelo://app?vid=fd114853-7457-45d8-9582-8acd9b09cf99"},"vehicle_type_id":"4","last_reported":1700899682,"current_range_meters":16800,"station_id":"ce4bhpp2rcd13ifvqhgg","pricing_plan_id":"free"},{"bike_id":"27937e94-ddb2-47f8-a077-4be732443cc4","system_id":"levelo_inurba_marseille","lat":43.287154,"lon":5.399979,"is_reserved":false,"is_disabled":false,"rental_uris":{"android":"levelo://app?vid=27937e94-ddb2-47f8-a077-4be732443cc4","ios":"levelo://app?vid=27937e94-ddb2-47f8-a077-4be732443cc4"},"vehicle_type_id":"4","last_reported":1700899682,"current_range_meters":31200,"station_id":"ce4bho92rcd13ifvqh3g","pricing_plan_id":"free"},{"bike_id":"8becd227-da02-4e05-b541-acd5ddfe0e96","system_id":"levelo_inurba_marseille","lat":43.28716,"lon":5.39997,"is_reserved":false,"is_disabled":false,"rental_uris":{"android":"levelo://app?vid=8becd227-da02-4e05-b541-acd5ddfe0e96","ios":"levelo://app?vid=8becd227-da02-4e05-b541-acd5ddfe0e96"},"vehicle_type_id":"4","last_reported":1700899682,"current_range_meters":28800,"station_id":"ce4bho92rcd13ifvqh3g","pricing_plan_id":"free"},{"bike_id":"27acdbf5-43bc-44ce-8eba-b63c97170fea","system_id":"levelo_inurba_marseille","lat":43.287154,"lon":5.399979,"is_reserved":false,"is_disabled":false,"rental_uris":{"android":"levelo://app?vid=27acdbf5-43bc-44ce-8eba-b63c97170fea","ios":"levelo://app?vid=27acdbf5-43bc-44ce-8eba-b63c97170fea"},"vehicle_type_id":"4","last_reported":1700899682,"current_range_meters":29600,"station_id":"ce4bho92rcd13ifvqh3g","pricing_plan_id":"free"},{"bike_id":"d1b5c516-b496-412b-b6ec-6fb07b03d1a9","system_id":"levelo_inurba_marseille","lat":43.287154,"lon":5.399979,"is_reserved":false,"is_disabled":false,"rental_uris":{"android":"levelo://app?vid=d1b5c516-b496-412b-b6ec-6fb07b03d1a9","ios":"levelo://app?vid=d1b5c516-b496-412b-b6ec-6fb07b03d1a9"},"vehicle_type_id":"4","last_reported":1700899682,"current_range_meters":27600,"station_id":"ce4bho92rcd13ifvqh3g","pricing_plan_id":"free"},{"bike_id":"23a8d197-1f7a-4300-b5bc-b1efa668f5f9","system_id":"levelo_inurba_marseille","lat":43.286997,"lon":5.399833,"is_reserved":false,"is_disabled":false,"rental_uris":{"android":"levelo://app?vid=23a8d197-1f7a-4300-b5bc-b1efa668f5f9","ios":"levelo://app?vid=23a8d197-1f7a-4300-b5bc-b1efa668f5f9"},"vehicle_type_id":"4","last_reported":1700899682,"current_range_meters":18800,"station_id":"ce4bho92rcd13ifvqh3g","pricing_plan_id":"free"},{"bike_id":"45b42ef8-d4eb-45c5-a2de-59833e810b7f","system_id":"levelo_inurba_marseille","lat":43.320045,"lon":5.415048,"is_reserved":false,"is_disabled":false,"rental_uris":{"android":"levelo://app?vid=45b42ef8-d4eb-45c5-a2de-59833e810b7f","ios":"levelo://app?vid=45b42ef8-d4eb-45c5-a2de-59833e810b7f"},"vehicle_type_id":"4","last_reported":1700899682,"current_range_meters":22400,"station_id":"ce4bhq92rcd13ifvqhkg","pricing_plan_id":"free"},{"bike_id":"132c4a55-d653-4891-a55f-7f478e4778e6","system_id":"levelo_inurba_marseille","lat":43.320045,"lon":5.415046,"is_reserved":false,"is_disabled":false,"rental_uris":{"android":"levelo://app?vid=132c4a55-d653-4891-a55f-7f478e4778e6","ios":"levelo://app?vid=132c4a55-d653-4891-a55f-7f478e4778e6"},"vehicle_type_id":"4","last_reported":1700899682,"current_range_meters":30400,"station_id":"ce4bhq92rcd13ifvqhkg","pricing_plan_id":"free"},{"bike_id":"9dcf3490-4150-49c9-b594-b85a6311d749","system_id":"levelo_inurba_marseille","lat":43.292571,"lon":5.409107,"is_reserved":false,"is_disabled":false,"rental_uris":{"android":"levelo://app?vid=9dcf3490-4150-49c9-b594-b85a6311d749","ios":"levelo://app?vid=9dcf3490-4150-49c9-b594-b85a6311d749"},"vehicle_type_id":"4","last_reported":1700899682,"current_range_meters":31200,"station_id":"ce4bh192rcd13ifvqdc0","pricing_plan_id":"free"},{"bike_id":"0a7d255e-499b-4057-821b-08d215075f2e","system_id":"levelo_inurba_marseille","lat":43.292571,"lon":5.409107,"is_reserved":false,"is_disabled":false,"rental_uris":{"android":"levelo://app?vid=0a7d255e-499b-4057-821b-08d215075f2e","ios":"levelo://app?vid=0a7d255e-499b-4057-821b-08d215075f2e"},"vehicle_type_id":"4","last_reported":1700899682,"current_range_meters":31200,"station_id":"ce4bh192rcd13ifvqdc0","pricing_plan_id":"free"},{"bike_id":"026f72c0-eba9-4313-b651-a426147b19e5","system_id":"levelo_inurba_marseille","lat":43.292549,"lon":5.409096,"is_reserved":false,"is_disabled":false,"rental_uris":{"android":"levelo://app?vid=026f72c0-eba9-4313-b651-a426147b19e5","ios":"levelo://app?vid=026f72c0-eba9-4313-b651-a426147b19e5"},"vehicle_type_id":"4","last_reported":1700899682,"current_range_meters":16800,"station_id":"ce4bh192rcd13ifvqdc0","pricing_plan_id":"free"},{"bike_id":"22d347e4-9673-489d-af28-13b064fc6114","system_id":"levelo_inurba_marseille","lat":43.292571,"lon":5.409107,"is_reserved":false,"is_disabled":false,"rental_uris":{"android":"levelo://app?vid=22d347e4-9673-489d-af28-13b064fc6114","ios":"levelo://app?vid=22d347e4-9673-489d-af28-13b064fc6114"},"vehicle_type_id":"4","last_reported":1700899682,"current_range_meters":28800,"station_id":"ce4bh192rcd13ifvqdc0","pricing_plan_id":"free"},{"bike_id":"773e27eb-4857-43dd-a4f5-28f78c183ea7","system_id":"levelo_inurba_marseille","lat":43.292569,"lon":5.409107,"is_reserved":false,"is_disabled":false,"rental_uris":{"android":"levelo://app?vid=773e27eb-4857-43dd-a4f5-28f78c183ea7","ios":"levelo://app?vid=773e27eb-4857-43dd-a4f5-28f78c183ea7"},"vehicle_type_id":"4","last_reported":1700899682,"current_range_meters":8800,"station_id":"ce4bh192rcd13ifvqdc0","pricing_plan_id":"free"},{"bike_id":"c25ea147-e804-4786-9d25-91f61a8ed59a","system_id":"levelo_inurba_marseille","lat":43.293651,"lon":5.41268,"is_reserved":false,"is_disabled":false,"rental_uris":{"android":"levelo://app?vid=c25ea147-e804-4786-9d25-91f61a8ed59a","ios":"levelo://app?vid=c25ea147-e804-4786-9d25-91f61a8ed59a"},"vehicle_type_id":"4","last_reported":1700899682,"current_range_meters":0,"station_id":"","pricing_plan_id":"free"},{"bike_id":"57395c6d-8375-485a-a945-4288be678215","system_id":"levelo_inurba_marseille","lat":43.275625,"lon":5.384392,"is_reserved":false,"is_disabled":false,"rental_uris":{"android":"levelo://app?vid=57395c6d-8375-485a-a945-4288be678215","ios":"levelo://app?vid=57395c6d-8375-485a-a945-4288be678215"},"vehicle_type_id":"4","last_reported":1700899682,"current_range_meters":10800,"station_id":"ce4bhh92rcd13ifvqfi0","pricing_plan_id":"free"},{"bike_id":"afbe1c8e-59e6-444c-a06d-40b4c873ce79","system_id":"levelo_inurba_marseille","lat":43.33612,"lon":5.410321,"is_reserved":false,"is_disabled":false,"rental_uris":{"android":"levelo://app?vid=afbe1c8e-59e6-444c-a06d-40b4c873ce79","ios":"levelo://app?vid=afbe1c8e-59e6-444c-a06d-40b4c873ce79"},"vehicle_type_id":"4","last_reported":1700899682,"current_range_meters":28000,"station_id":"ce4bhqh2rcd13ifvqhmg","pricing_plan_id":"free"},{"bike_id":"a7e93d14-e94b-4c46-8fed-114a943442ad","system_id":"levelo_inurba_marseille","lat":43.336134,"lon":5.410341,"is_reserved":false,"is_disabled":false,"rental_uris":{"android":"levelo://app?vid=a7e93d14-e94b-4c46-8fed-114a943442ad","ios":"levelo://app?vid=a7e93d14-e94b-4c46-8fed-114a943442ad"},"vehicle_type_id":"4","last_reported":1700899682,"current_range_meters":27600,"station_id":"ce4bhqh2rcd13ifvqhmg","pricing_plan_id":"free"},{"bike_id":"2aba52bf-9cdb-4dd3-a1ea-4c8b2bed0e7d","system_id":"levelo_inurba_marseille","lat":43.279952,"lon":5.400085,"is_reserved":false,"is_disabled":false,"rental_uris":{"android":"levelo://app?vid=2aba52bf-9cdb-4dd3-a1ea-4c8b2bed0e7d","ios":"levelo://app?vid=2aba52bf-9cdb-4dd3-a1ea-4c8b2bed0e7d"},"vehicle_type_id":"4","last_reported":1700899682,"current_range_meters":8000,"station_id":"ce4bho92rcd13ifvqh4g","pricing_plan_id":"free"},{"bike_id":"561d56c0-616a-4955-bd15-b0e0ddd3d6ba","system_id":"levelo_inurba_marseille","lat":43.279952,"lon":5.400085,"is_reserved":false,"is_disabled":false,"rental_uris":{"android":"levelo://app?vid=561d56c0-616a-4955-bd15-b0e0ddd3d6ba","ios":"levelo://app?vid=561d56c0-616a-4955-bd15-b0e0ddd3d6ba"},"vehicle_type_id":"4","last_reported":1700899682,"current_range_meters":30800,"station_id":"ce4bho92rcd13ifvqh4g","pricing_plan_id":"free"},{"bike_id":"3b5836a7-12bc-4eeb-81a3-25b20505d9af","system_id":"levelo_inurba_marseille","lat":43.31723,"lon":5.42402,"is_reserved":false,"is_disabled":false,"rental_uris":{"android":"levelo://app?vid=3b5836a7-12bc-4eeb-81a3-25b20505d9af","ios":"levelo://app?vid=3b5836a7-12bc-4eeb-81a3-25b20505d9af"},"vehicle_type_id":"4","last_reported":1700899682,"current_range_meters":28800,"station_id":"ce4bhp92rcd13ifvqhbg","pricing_plan_id":"free"},{"bike_id":"fa915871-633d-4be7-98af-649f7fd9a7d7","system_id":"levelo_inurba_marseille","lat":43.340804,"lon":5.410219,"is_reserved":false,"is_disabled":false,"rental_uris":{"android":"levelo://app?vid=fa915871-633d-4be7-98af-649f7fd9a7d7","ios":"levelo://app?vid=fa915871-633d-4be7-98af-649f7fd9a7d7"},"vehicle_type_id":"4","last_reported":1700899682,"current_range_meters":30000,"station_id":"ce4bhqh2rcd13ifvqhlg","pricing_plan_id":"free"},{"bike_id":"0989525e-4879-4c54-80ae-9266d361ee31","system_id":"levelo_inurba_marseille","lat":43.273125,"lon":5.390731,"is_reserved":false,"is_disabled":false,"rental_uris":{"android":"levelo://app?vid=0989525e-4879-4c54-80ae-9266d361ee31","ios":"levelo://app?vid=0989525e-4879-4c54-80ae-9266d361ee31"},"vehicle_type_id":"4","last_reported":1700899682,"current_range_meters":31200,"station_id":"ce4bhgp2rcd13ifvqfe0","pricing_plan_id":"free"},{"bike_id":"9374765d-8f2d-4808-8fd8-58d8d59b7b99","system_id":"levelo_inurba_marseille","lat":43.274099,"lon":5.394019,"is_reserved":false,"is_disabled":false,"rental_uris":{"android":"levelo://app?vid=9374765d-8f2d-4808-8fd8-58d8d59b7b99","ios":"levelo://app?vid=9374765d-8f2d-4808-8fd8-58d8d59b7b99"},"vehicle_type_id":"4","last_reported":1700899682,"current_range_meters":17600,"station_id":"ce4bhdp2rcd13ifvqf20","pricing_plan_id":"free"},{"bike_id":"da84617e-655d-46a7-87d0-fcc0f762af6f","system_id":"levelo_inurba_marseille","lat":43.273125,"lon":5.390731,"is_reserved":false,"is_disabled":false,"rental_uris":{"android":"levelo://app?vid=da84617e-655d-46a7-87d0-fcc0f762af6f","ios":"levelo://app?vid=da84617e-655d-46a7-87d0-fcc0f762af6f"},"vehicle_type_id":"4","last_reported":1700899682,"current_range_meters":31200,"station_id":"ce4bhgp2rcd13ifvqfe0","pricing_plan_id":"free"},{"bike_id":"d617807c-32fa-4a81-8852-d232b7257f2e","system_id":"levelo_inurba_marseille","lat":43.304096,"lon":5.425385,"is_reserved":false,"is_disabled":false,"rental_uris":{"android":"levelo://app?vid=d617807c-32fa-4a81-8852-d232b7257f2e","ios":"levelo://app?vid=d617807c-32fa-4a81-8852-d232b7257f2e"},"vehicle_type_id":"4","last_reported":1700899682,"current_range_meters":26400,"station_id":"ce4bhoh2rcd13ifvqh6g","pricing_plan_id":"free"},{"bike_id":"39ba2a28-4e45-47ae-b54e-2e865e84aa2a","system_id":"levelo_inurba_marseille","lat":43.295523,"lon":5.422926,"is_reserved":false,"is_disabled":false,"rental_uris":{"android":"levelo://app?vid=39ba2a28-4e45-47ae-b54e-2e865e84aa2a","ios":"levelo://app?vid=39ba2a28-4e45-47ae-b54e-2e865e84aa2a"},"vehicle_type_id":"4","last_reported":1700899682,"current_range_meters":26800,"station_id":"ce4bhph2rcd13ifvqhdg","pricing_plan_id":"free"},{"bike_id":"118822d8-6e1e-4e74-a488-66c0b9bac4ea","system_id":"levelo_inurba_marseille","lat":43.295511,"lon":5.422926,"is_reserved":false,"is_disabled":false,"rental_uris":{"android":"levelo://app?vid=118822d8-6e1e-4e74-a488-66c0b9bac4ea","ios":"levelo://app?vid=118822d8-6e1e-4e74-a488-66c0b9bac4ea"},"vehicle_type_id":"4","last_reported":1700899682,"current_range_meters":20400,"station_id":"ce4bhph2rcd13ifvqhdg","pricing_plan_id":"free"},{"bike_id":"c0e7c921-2f34-4325-9644-1440c95e11ac","system_id":"levelo_inurba_marseille","lat":43.295523,"lon":5.422926,"is_reserved":false,"is_disabled":false,"rental_uris":{"android":"levelo://app?vid=c0e7c921-2f34-4325-9644-1440c95e11ac","ios":"levelo://app?vid=c0e7c921-2f34-4325-9644-1440c95e11ac"},"vehicle_type_id":"4","last_reported":1700899682,"current_range_meters":27600,"station_id":"ce4bhph2rcd13ifvqhdg","pricing_plan_id":"free"},{"bike_id":"9f3ea0ae-761e-43b1-ad64-979f3efc0236","system_id":"levelo_inurba_marseille","lat":43.295511,"lon":5.422926,"is_reserved":false,"is_disabled":false,"rental_uris":{"android":"levelo://app?vid=9f3ea0ae-761e-43b1-ad64-979f3efc0236","ios":"levelo://app?vid=9f3ea0ae-761e-43b1-ad64-979f3efc0236"},"vehicle_type_id":"4","last_reported":1700899682,"current_range_meters":22400,"station_id":"ce4bhph2rcd13ifvqhdg","pricing_plan_id":"free"},{"bike_id":"58636f9d-7758-4e31-a17e-c4e04578fa5d","system_id":"levelo_inurba_marseille","lat":43.295523,"lon":5.422926,"is_reserved":false,"is_disabled":false,"rental_uris":{"android":"levelo://app?vid=58636f9d-7758-4e31-a17e-c4e04578fa5d","ios":"levelo://app?vid=58636f9d-7758-4e31-a17e-c4e04578fa5d"},"vehicle_type_id":"4","last_reported":1700899682,"current_range_meters":18800,"station_id":"ce4bhph2rcd13ifvqhdg","pricing_plan_id":"free"},{"bike_id":"6d892d9f-8bb7-466b-91e4-6b4cd5e06b20","system_id":"levelo_inurba_marseille","lat":43.295511,"lon":5.422926,"is_reserved":false,"is_disabled":false,"rental_uris":{"android":"levelo://app?vid=6d892d9f-8bb7-466b-91e4-6b4cd5e06b20","ios":"levelo://app?vid=6d892d9f-8bb7-466b-91e4-6b4cd5e06b20"},"vehicle_type_id":"4","last_reported":1700899682,"current_range_meters":25600,"station_id":"ce4bhph2rcd13ifvqhdg","pricing_plan_id":"free"},{"bike_id":"ec3d03da-78c9-4642-80f1-267154a38bb0","system_id":"levelo_inurba_marseille","lat":43.295511,"lon":5.422926,"is_reserved":false,"is_disabled":false,"rental_uris":{"android":"levelo://app?vid=ec3d03da-78c9-4642-80f1-267154a38bb0","ios":"levelo://app?vid=ec3d03da-78c9-4642-80f1-267154a38bb0"},"vehicle_type_id":"4","last_reported":1700899682,"current_range_meters":32000,"station_id":"ce4bhph2rcd13ifvqhdg","pricing_plan_id":"free"},{"bike_id":"9830637b-caf5-476f-85b7-c02033487ff2","system_id":"levelo_inurba_marseille","lat":43.295511,"lon":5.422926,"is_reserved":false,"is_disabled":false,"rental_uris":{"android":"levelo://app?vid=9830637b-caf5-476f-85b7-c02033487ff2","ios":"levelo://app?vid=9830637b-caf5-476f-85b7-c02033487ff2"},"vehicle_type_id":"4","last_reported":1700899682,"current_range_meters":32000,"station_id":"ce4bhph2rcd13ifvqhdg","pricing_plan_id":"free"},{"bike_id":"60384595-5838-46d3-8ef9-ce34760ba3f9","system_id":"levelo_inurba_marseille","lat":43.295511,"lon":5.422926,"is_reserved":false,"is_disabled":false,"rental_uris":{"android":"levelo://app?vid=60384595-5838-46d3-8ef9-ce34760ba3f9","ios":"levelo://app?vid=60384595-5838-46d3-8ef9-ce34760ba3f9"},"vehicle_type_id":"4","last_reported":1700899682,"current_range_meters":32000,"station_id":"ce4bhph2rcd13ifvqhdg","pricing_plan_id":"free"},{"bike_id":"9601f78c-95e4-4b05-8fd8-3e24e690d168","system_id":"levelo_inurba_marseille","lat":43.272116,"lon":5.391763,"is_reserved":false,"is_disabled":false,"rental_uris":{"android":"levelo://app?vid=9601f78c-95e4-4b05-8fd8-3e24e690d168","ios":"levelo://app?vid=9601f78c-95e4-4b05-8fd8-3e24e690d168"},"vehicle_type_id":"4","last_reported":1700899682,"current_range_meters":21200,"station_id":"ce4bhhp2rcd13ifvqfm0","pricing_plan_id":"free"},{"bike_id":"4b84335b-d8ea-4c10-a773-eba543bcef9a","system_id":"levelo_inurba_marseille","lat":43.272116,"lon":5.391747,"is_reserved":false,"is_disabled":false,"rental_uris":{"android":"levelo://app?vid=4b84335b-d8ea-4c10-a773-eba543bcef9a","ios":"levelo://app?vid=4b84335b-d8ea-4c10-a773-eba543bcef9a"},"vehicle_type_id":"4","last_reported":1700899682,"current_range_meters":30400,"station_id":"ce4bhhp2rcd13ifvqfm0","pricing_plan_id":"free"},{"bike_id":"39238042-01ee-47dc-acbb-aa162904e1a2","system_id":"levelo_inurba_marseille","lat":43.272116,"lon":5.391747,"is_reserved":false,"is_disabled":false,"rental_uris":{"android":"levelo://app?vid=39238042-01ee-47dc-acbb-aa162904e1a2","ios":"levelo://app?vid=39238042-01ee-47dc-acbb-aa162904e1a2"},"vehicle_type_id":"4","last_reported":1700899682,"current_range_meters":20000,"station_id":"ce4bhhp2rcd13ifvqfm0","pricing_plan_id":"free"},{"bike_id":"e7bfdac8-4573-4c3e-9c62-d861f7698767","system_id":"levelo_inurba_marseille","lat":43.272118,"lon":5.391758,"is_reserved":false,"is_disabled":false,"rental_uris":{"android":"levelo://app?vid=e7bfdac8-4573-4c3e-9c62-d861f7698767","ios":"levelo://app?vid=e7bfdac8-4573-4c3e-9c62-d861f7698767"},"vehicle_type_id":"4","last_reported":1700899682,"current_range_meters":23200,"station_id":"ce4bhhp2rcd13ifvqfm0","pricing_plan_id":"free"},{"bike_id":"28e8ce00-6b21-4e06-9930-c7c4408cc650","system_id":"levelo_inurba_marseille","lat":43.278164,"lon":5.407143,"is_reserved":false,"is_disabled":false,"rental_uris":{"android":"levelo://app?vid=28e8ce00-6b21-4e06-9930-c7c4408cc650","ios":"levelo://app?vid=28e8ce00-6b21-4e06-9930-c7c4408cc650"},"vehicle_type_id":"4","last_reported":1700899682,"current_range_meters":0,"station_id":"","pricing_plan_id":"free"},{"bike_id":"24ccef75-d2c6-4ffe-92c2-279a19e4ba7e","system_id":"levelo_inurba_marseille","lat":43.279535,"lon":5.410496,"is_reserved":false,"is_disabled":false,"rental_uris":{"android":"levelo://app?vid=24ccef75-d2c6-4ffe-92c2-279a19e4ba7e","ios":"levelo://app?vid=24ccef75-d2c6-4ffe-92c2-279a19e4ba7e"},"vehicle_type_id":"4","last_reported":1700899682,"current_range_meters":31200,"station_id":"ce4bhnp2rcd13ifvqh0g","pricing_plan_id":"free"},{"bike_id":"765e706f-68e6-4b58-8a26-eaf2140a98f6","system_id":"levelo_inurba_marseille","lat":43.269319,"lon":5.389397,"is_reserved":false,"is_disabled":false,"rental_uris":{"android":"levelo://app?vid=765e706f-68e6-4b58-8a26-eaf2140a98f6","ios":"levelo://app?vid=765e706f-68e6-4b58-8a26-eaf2140a98f6"},"vehicle_type_id":"4","last_reported":1700899682,"current_range_meters":6400,"station_id":"ce4bhhh2rcd13ifvqfl0","pricing_plan_id":"free"},{"bike_id":"5faa1283-c606-45c1-a856-fb51506bdf8d","system_id":"levelo_inurba_marseille","lat":43.2656,"lon":5.37282,"is_reserved":false,"is_disabled":false,"rental_uris":{"android":"levelo://app?vid=5faa1283-c606-45c1-a856-fb51506bdf8d","ios":"levelo://app?vid=5faa1283-c606-45c1-a856-fb51506bdf8d"},"vehicle_type_id":"4","last_reported":1700899682,"current_range_meters":23600,"station_id":"ce4bhg12rcd13ifvqf70","pricing_plan_id":"free"},{"bike_id":"2c7a5353-01d9-4c2c-bf58-3b3aa380c2f9","system_id":"levelo_inurba_marseille","lat":43.26557,"lon":5.37287,"is_reserved":false,"is_disabled":false,"rental_uris":{"android":"levelo://app?vid=2c7a5353-01d9-4c2c-bf58-3b3aa380c2f9","ios":"levelo://app?vid=2c7a5353-01d9-4c2c-bf58-3b3aa380c2f9"},"vehicle_type_id":"4","last_reported":1700899682,"current_range_meters":17200,"station_id":"ce4bhg12rcd13ifvqf70","pricing_plan_id":"free"},{"bike_id":"694a66da-7c22-42d6-992f-345a598776f8","system_id":"levelo_inurba_marseille","lat":43.26681,"lon":5.382694,"is_reserved":false,"is_disabled":false,"rental_uris":{"android":"levelo://app?vid=694a66da-7c22-42d6-992f-345a598776f8","ios":"levelo://app?vid=694a66da-7c22-42d6-992f-345a598776f8"},"vehicle_type_id":"4","last_reported":1700899682,"current_range_meters":22000,"station_id":"ce4bhg92rcd13ifvqf90","pricing_plan_id":"free"},{"bike_id":"f23d8119-b478-4639-98c5-6883279f9f84","system_id":"levelo_inurba_marseille","lat":43.32592,"lon":5.43067,"is_reserved":false,"is_disabled":false,"rental_uris":{"android":"levelo://app?vid=f23d8119-b478-4639-98c5-6883279f9f84","ios":"levelo://app?vid=f23d8119-b478-4639-98c5-6883279f9f84"},"vehicle_type_id":"4","last_reported":1700899682,"current_range_meters":27600,"station_id":"","pricing_plan_id":"free"},{"bike_id":"e7b368e8-9edf-4ac8-acef-7e9558d427aa","system_id":"levelo_inurba_marseille","lat":43.32591,"lon":5.430713,"is_reserved":false,"is_disabled":false,"rental_uris":{"android":"levelo://app?vid=e7b368e8-9edf-4ac8-acef-7e9558d427aa","ios":"levelo://app?vid=e7b368e8-9edf-4ac8-acef-7e9558d427aa"},"vehicle_type_id":"4","last_reported":1700899682,"current_range_meters":0,"station_id":"","pricing_plan_id":"free"},{"bike_id":"ed30d6a1-b23a-49e5-9c83-5546be72a734","system_id":"levelo_inurba_marseille","lat":43.3259,"lon":5.43075,"is_reserved":false,"is_disabled":false,"rental_uris":{"android":"levelo://app?vid=ed30d6a1-b23a-49e5-9c83-5546be72a734","ios":"levelo://app?vid=ed30d6a1-b23a-49e5-9c83-5546be72a734"},"vehicle_type_id":"4","last_reported":1700899682,"current_range_meters":22400,"station_id":"","pricing_plan_id":"free"},{"bike_id":"d67469ee-5362-4610-a163-fe05ae3cf4f7","system_id":"levelo_inurba_marseille","lat":43.32604,"lon":5.430817,"is_reserved":false,"is_disabled":false,"rental_uris":{"android":"levelo://app?vid=d67469ee-5362-4610-a163-fe05ae3cf4f7","ios":"levelo://app?vid=d67469ee-5362-4610-a163-fe05ae3cf4f7"},"vehicle_type_id":"4","last_reported":1700899682,"current_range_meters":10800,"station_id":"","pricing_plan_id":"free"},{"bike_id":"3738f45f-0f0f-4195-af48-2b999cb83df1","system_id":"levelo_inurba_marseille","lat":43.27996,"lon":5.416624,"is_reserved":false,"is_disabled":false,"rental_uris":{"android":"levelo://app?vid=3738f45f-0f0f-4195-af48-2b999cb83df1","ios":"levelo://app?vid=3738f45f-0f0f-4195-af48-2b999cb83df1"},"vehicle_type_id":"4","last_reported":1700899682,"current_range_meters":28800,"station_id":"ce4bho12rcd13ifvqh1g","pricing_plan_id":"free"},{"bike_id":"2b5f0b27-ae58-4e9e-bd76-c585f78e8a73","system_id":"levelo_inurba_marseille","lat":43.26386,"lon":5.37454,"is_reserved":false,"is_disabled":false,"rental_uris":{"android":"levelo://app?vid=2b5f0b27-ae58-4e9e-bd76-c585f78e8a73","ios":"levelo://app?vid=2b5f0b27-ae58-4e9e-bd76-c585f78e8a73"},"vehicle_type_id":"4","last_reported":1700899682,"current_range_meters":11600,"station_id":"","pricing_plan_id":"free"},{"bike_id":"aac734c2-9e1a-401a-9f21-659f4c007e40","system_id":"levelo_inurba_marseille","lat":43.265571,"lon":5.390032,"is_reserved":false,"is_disabled":false,"rental_uris":{"android":"levelo://app?vid=aac734c2-9e1a-401a-9f21-659f4c007e40","ios":"levelo://app?vid=aac734c2-9e1a-401a-9f21-659f4c007e40"},"vehicle_type_id":"4","last_reported":1700899682,"current_range_meters":29600,"station_id":"ce4bhe12rcd13ifvqf30","pricing_plan_id":"free"},{"bike_id":"acbe10bc-171f-4ba0-b59f-d106d152eb5b","system_id":"levelo_inurba_marseille","lat":43.265571,"lon":5.390032,"is_reserved":false,"is_disabled":false,"rental_uris":{"android":"levelo://app?vid=acbe10bc-171f-4ba0-b59f-d106d152eb5b","ios":"levelo://app?vid=acbe10bc-171f-4ba0-b59f-d106d152eb5b"},"vehicle_type_id":"4","last_reported":1700899682,"current_range_meters":18800,"station_id":"ce4bhe12rcd13ifvqf30","pricing_plan_id":"free"},{"bike_id":"fd781e85-cb05-4246-8c92-f25c7b1d9f7d","system_id":"levelo_inurba_marseille","lat":43.26562,"lon":5.390057,"is_reserved":false,"is_disabled":false,"rental_uris":{"android":"levelo://app?vid=fd781e85-cb05-4246-8c92-f25c7b1d9f7d","ios":"levelo://app?vid=fd781e85-cb05-4246-8c92-f25c7b1d9f7d"},"vehicle_type_id":"4","last_reported":1700899682,"current_range_meters":19200,"station_id":"ce4bhe12rcd13ifvqf30","pricing_plan_id":"free"},{"bike_id":"31760e03-00b1-4db1-be63-a88aead1238c","system_id":"levelo_inurba_marseille","lat":43.265787,"lon":5.39102,"is_reserved":false,"is_disabled":false,"rental_uris":{"android":"levelo://app?vid=31760e03-00b1-4db1-be63-a88aead1238c","ios":"levelo://app?vid=31760e03-00b1-4db1-be63-a88aead1238c"},"vehicle_type_id":"4","last_reported":1700899682,"current_range_meters":27200,"station_id":"ce4bhe12rcd13ifvqf30","pricing_plan_id":"free"},{"bike_id":"e76efcfe-40d6-4620-ab0f-71f8c51c34fd","system_id":"levelo_inurba_marseille","lat":43.26944,"lon":5.4025,"is_reserved":false,"is_disabled":false,"rental_uris":{"android":"levelo://app?vid=e76efcfe-40d6-4620-ab0f-71f8c51c34fd","ios":"levelo://app?vid=e76efcfe-40d6-4620-ab0f-71f8c51c34fd"},"vehicle_type_id":"4","last_reported":1700899682,"current_range_meters":2400,"station_id":"cjm6bp8fraef2m0cb0m0","pricing_plan_id":"free"},{"bike_id":"dbc279b1-4335-4bcc-9eef-f924e0f80a07","system_id":"levelo_inurba_marseille","lat":43.26949,"lon":5.40262,"is_reserved":false,"is_disabled":false,"rental_uris":{"android":"levelo://app?vid=dbc279b1-4335-4bcc-9eef-f924e0f80a07","ios":"levelo://app?vid=dbc279b1-4335-4bcc-9eef-f924e0f80a07"},"vehicle_type_id":"4","last_reported":1700899682,"current_range_meters":26400,"station_id":"cjm6bp8fraef2m0cb0m0","pricing_plan_id":"free"},{"bike_id":"80f89bbe-5ef0-4f11-9f5b-8a1f2ebfd112","system_id":"levelo_inurba_marseille","lat":43.26936,"lon":5.40251,"is_reserved":false,"is_disabled":false,"rental_uris":{"android":"levelo://app?vid=80f89bbe-5ef0-4f11-9f5b-8a1f2ebfd112","ios":"levelo://app?vid=80f89bbe-5ef0-4f11-9f5b-8a1f2ebfd112"},"vehicle_type_id":"4","last_reported":1700899682,"current_range_meters":21600,"station_id":"cjm6bp8fraef2m0cb0m0","pricing_plan_id":"free"},{"bike_id":"9eff6edb-46ad-4cfe-9732-b4fe2ea5c109","system_id":"levelo_inurba_marseille","lat":43.26236,"lon":5.37642,"is_reserved":false,"is_disabled":false,"rental_uris":{"android":"levelo://app?vid=9eff6edb-46ad-4cfe-9732-b4fe2ea5c109","ios":"levelo://app?vid=9eff6edb-46ad-4cfe-9732-b4fe2ea5c109"},"vehicle_type_id":"4","last_reported":1700899682,"current_range_meters":20000,"station_id":"","pricing_plan_id":"free"},{"bike_id":"b016eaec-f2d2-4ee8-8214-1ed08a0b9470","system_id":"levelo_inurba_marseille","lat":43.261782,"lon":5.374515,"is_reserved":false,"is_disabled":false,"rental_uris":{"android":"levelo://app?vid=b016eaec-f2d2-4ee8-8214-1ed08a0b9470","ios":"levelo://app?vid=b016eaec-f2d2-4ee8-8214-1ed08a0b9470"},"vehicle_type_id":"4","last_reported":1700899682,"current_range_meters":30400,"station_id":"ce4bhgp2rcd13ifvqfc0","pricing_plan_id":"free"},{"bike_id":"f809b2bb-3716-4d7b-8de4-7c32b60e559d","system_id":"levelo_inurba_marseille","lat":43.317104,"lon":5.436818,"is_reserved":false,"is_disabled":false,"rental_uris":{"android":"levelo://app?vid=f809b2bb-3716-4d7b-8de4-7c32b60e559d","ios":"levelo://app?vid=f809b2bb-3716-4d7b-8de4-7c32b60e559d"},"vehicle_type_id":"4","last_reported":1700899682,"current_range_meters":17600,"station_id":"ce4bhp92rcd13ifvqhcg","pricing_plan_id":"free"},{"bike_id":"46163101-d36f-4b9d-b2d0-b570d3e9c51c","system_id":"levelo_inurba_marseille","lat":43.317104,"lon":5.436818,"is_reserved":false,"is_disabled":false,"rental_uris":{"android":"levelo://app?vid=46163101-d36f-4b9d-b2d0-b570d3e9c51c","ios":"levelo://app?vid=46163101-d36f-4b9d-b2d0-b570d3e9c51c"},"vehicle_type_id":"4","last_reported":1700899682,"current_range_meters":30400,"station_id":"ce4bhp92rcd13ifvqhcg","pricing_plan_id":"free"},{"bike_id":"1b98b7d3-c287-45d9-80ab-ed0171f3329e","system_id":"levelo_inurba_marseille","lat":43.317104,"lon":5.436818,"is_reserved":false,"is_disabled":false,"rental_uris":{"android":"levelo://app?vid=1b98b7d3-c287-45d9-80ab-ed0171f3329e","ios":"levelo://app?vid=1b98b7d3-c287-45d9-80ab-ed0171f3329e"},"vehicle_type_id":"4","last_reported":1700899682,"current_range_meters":31200,"station_id":"ce4bhp92rcd13ifvqhcg","pricing_plan_id":"free"},{"bike_id":"a6cf9b04-855d-4dc5-9c72-ce4a8e5bbb9c","system_id":"levelo_inurba_marseille","lat":43.317104,"lon":5.436818,"is_reserved":false,"is_disabled":false,"rental_uris":{"android":"levelo://app?vid=a6cf9b04-855d-4dc5-9c72-ce4a8e5bbb9c","ios":"levelo://app?vid=a6cf9b04-855d-4dc5-9c72-ce4a8e5bbb9c"},"vehicle_type_id":"4","last_reported":1700899682,"current_range_meters":25600,"station_id":"ce4bhp92rcd13ifvqhcg","pricing_plan_id":"free"},{"bike_id":"2f057b81-6fc8-4570-8186-e577abd426a5","system_id":"levelo_inurba_marseille","lat":43.262012,"lon":5.379307,"is_reserved":false,"is_disabled":false,"rental_uris":{"android":"levelo://app?vid=2f057b81-6fc8-4570-8186-e577abd426a5","ios":"levelo://app?vid=2f057b81-6fc8-4570-8186-e577abd426a5"},"vehicle_type_id":"4","last_reported":1700899682,"current_range_meters":26000,"station_id":"ce4bhjp2rcd13ifvqg90","pricing_plan_id":"free"},{"bike_id":"b90bea52-ddea-4d2d-9218-d46213e3866d","system_id":"levelo_inurba_marseille","lat":43.26202,"lon":5.379299,"is_reserved":false,"is_disabled":false,"rental_uris":{"android":"levelo://app?vid=b90bea52-ddea-4d2d-9218-d46213e3866d","ios":"levelo://app?vid=b90bea52-ddea-4d2d-9218-d46213e3866d"},"vehicle_type_id":"4","last_reported":1700899682,"current_range_meters":14000,"station_id":"ce4bhjp2rcd13ifvqg90","pricing_plan_id":"free"},{"bike_id":"4572da7b-b339-4c7f-80aa-57f54e950769","system_id":"levelo_inurba_marseille","lat":43.271388,"lon":5.409269,"is_reserved":false,"is_disabled":false,"rental_uris":{"android":"levelo://app?vid=4572da7b-b339-4c7f-80aa-57f54e950769","ios":"levelo://app?vid=4572da7b-b339-4c7f-80aa-57f54e950769"},"vehicle_type_id":"4","last_reported":1700899682,"current_range_meters":26800,"station_id":"ce4bhl12rcd13ifvqgf0","pricing_plan_id":"free"},{"bike_id":"731477c7-3eda-47fa-a9be-55a54d5ff8fe","system_id":"levelo_inurba_marseille","lat":43.271368,"lon":5.40928,"is_reserved":false,"is_disabled":false,"rental_uris":{"android":"levelo://app?vid=731477c7-3eda-47fa-a9be-55a54d5ff8fe","ios":"levelo://app?vid=731477c7-3eda-47fa-a9be-55a54d5ff8fe"},"vehicle_type_id":"4","last_reported":1700899682,"current_range_meters":27600,"station_id":"ce4bhl12rcd13ifvqgf0","pricing_plan_id":"free"},{"bike_id":"3feec791-ffcf-49b4-a3ec-8839e018235b","system_id":"levelo_inurba_marseille","lat":43.271388,"lon":5.409269,"is_reserved":false,"is_disabled":false,"rental_uris":{"android":"levelo://app?vid=3feec791-ffcf-49b4-a3ec-8839e018235b","ios":"levelo://app?vid=3feec791-ffcf-49b4-a3ec-8839e018235b"},"vehicle_type_id":"4","last_reported":1700899682,"current_range_meters":30400,"station_id":"ce4bhl12rcd13ifvqgf0","pricing_plan_id":"free"},{"bike_id":"e1f80245-a4f8-49a5-9bf0-a2f5414a6e9b","system_id":"levelo_inurba_marseille","lat":43.27172,"lon":5.40994,"is_reserved":false,"is_disabled":false,"rental_uris":{"android":"levelo://app?vid=e1f80245-a4f8-49a5-9bf0-a2f5414a6e9b","ios":"levelo://app?vid=e1f80245-a4f8-49a5-9bf0-a2f5414a6e9b"},"vehicle_type_id":"4","last_reported":1700899682,"current_range_meters":31200,"station_id":"ce4bhl12rcd13ifvqgf0","pricing_plan_id":"free"},{"bike_id":"d44143eb-1416-4ed0-a16f-5b1daf2e908b","system_id":"levelo_inurba_marseille","lat":43.267959,"lon":5.402687,"is_reserved":false,"is_disabled":false,"rental_uris":{"android":"levelo://app?vid=d44143eb-1416-4ed0-a16f-5b1daf2e908b","ios":"levelo://app?vid=d44143eb-1416-4ed0-a16f-5b1daf2e908b"},"vehicle_type_id":"4","last_reported":1700899682,"current_range_meters":30000,"station_id":"ce501612rcd8frsf0b60","pricing_plan_id":"free"},