{"last_updated":1719594490,"ttl":30,"version":"2.2","data":{"bikes":[{"bike_id":"1746d02b-550d-4aa2-8c72-6a13c4b5a0aa","system_id":"levelo_inurba_marseille","lat":43.31368,"lon":5.36837,"is_reserved":false,"is_disabled":false,"rental_uris":{"android":"levelo://app?vid=1746d02b-550d-4aa2-8c72-6a13c4b5a0aa","ios":"levelo://app?vid=1746d02b-550d-4aa2-8c72-6a13c4b5a0aa"},"vehicle_type_id":"4","last_reported":1719594490,"current_range_meters":22000,"station_id":"","pricing_plan_id":"cebpf4jnsgd1na2vs0mg"},{"bike_id":"4a94410f-4cd0-41af-95cb-4edeba7e486c","system_id":"levelo_inurba_marseille","lat":43.31105,"lon":5.370523,"is_reserved":false,"is_disabled":false,"rental_uris":{"android":"levelo://app?vid=4a94410f-4cd0-41af-95cb-4edeba7e486c","ios":"levelo://app?vid=4a94410f-4cd0-41af-95cb-4edeba7e486c"},"vehicle_type_id":"4","last_reported":1719594490,"current_range_meters":30400,"station_id":"","pricing_plan_id":"cebpf4jnsgd1na2vs0mg"},{"bike_id":"e4d405b0-6c9d-4210-8392-487c7b5dd60f","system_id":"levelo_inurba_marseille","lat":43.309076,"lon":5.368465,"is_reserved":false,"is_disabled":false,"rental_uris":{"android":"levelo://app?vid=e4d405b0-6c9d-4210-8392-487c7b5dd60f","ios":"levelo://app?vid=e4d405b0-6c9d-4210-8392-487c7b5dd60f"},"vehicle_type_id":"4","last_reported":1719594490,"current_range_meters":0,"station_id":"ce4bgn92rcd13ifvqbvg","pricing_plan_id":"cebpf4jnsgd1na2vs0mg"},{"bike_id":"12bc1522-4035-4860-af54-e9807fdee064","system_id":"levelo_inurba_marseille","lat":43.314811,"lon":5.373103,"is_reserved":false,"is_disabled":false,"rental_uris":{"android":"levelo://app?vid=12bc1522-4035-4860-af54-e9807fdee064","ios":"levelo://app?vid=12bc1522-4035-4860-af54-e9807fdee064"},"vehicle_type_id":"4","last_reported":1719594490,"current_range_meters":13200,"station_id":"ce4bgt12rcd13ifvqcd0","pricing_plan_id":"cebpf4jnsgd1na2vs0mg"},{"bike_id":"4224a6ad-7b7c-47e0-9a8f-43c2dc76ecf1","system_id":"levelo_inurba_marseille","lat":43.31506,"lon":5.37303,"is_reserved":false,"is_disabled":false,"rental_uris":{"android":"levelo://app?vid=4224a6ad-7b7c-47e0-9a8f-43c2dc76ecf1","ios":"levelo://app?vid=4224a6ad-7b7c-47e0-9a8f-43c2dc76ecf1"},"vehicle_type_id":"4","last_reported":1719594490,"current_range_meters":0,"station_id":"ce4bgt12rcd13ifvqcd0","pricing_plan_id":"cebpf4jnsgd1na2vs0mg"},{"bike_id":"e02d3198-dbf4-4feb-8596-a7026df8ecba","system_id":"levelo_inurba_marseille","lat":43.314811,"lon":5.373104,"is_reserved":false,"is_disabled":false,"rental_uris":{"android":"levelo://app?vid=e02d3198-dbf4-4feb-8596-a7026df8ecba","ios":"levelo://app?vid=e02d3198-dbf4-4feb-8596-a7026df8ecba"},"vehicle_type_id":"4","last_reported":1719594490,"current_range_meters":10400,"station_id":"ce4bgt12rcd13ifvqcd0","pricing_plan_id":"cebpf4jnsgd1na2vs0mg"},{"bike_id":"1eee121b-9216-413e-bc9c-aa859a95f52e","system_id":"levelo_inurba_marseille","lat":43.30897,"lon":5.3718,"is_reserved":false,"is_disabled":false,"rental_uris":{"android":"levelo://app?vid=1eee121b-9216-413e-bc9c-aa859a95f52e","ios":"levelo://app?vid=1eee121b-9216-413e-bc9c-aa859a95f52e"},"vehicle_type_id":"4","last_reported":1719594490,"current_range_meters":26000,"station_id":"ce4bguh2rcd13ifvqckg","pricing_plan_id":"cebpf4jnsgd1na2vs0mg"},{"bike_id":"cf0dc801-20c3-4148-b67d-a1736daf50c0","system_id":"levelo_inurba_marseille","lat":43.309039,"lon":5.371797,"is_reserved":false,"is_disabled":false,"rental_uris":{"android":"levelo://app?vid=cf0dc801-20c3-4148-b67d-a1736daf50c0","ios":"levelo://app?vid=cf0dc801-20c3-4148-b67d-a1736daf50c0"},"vehicle_type_id":"4","last_reported":1719594490,"current_range_meters":0,"station_id":"ce4bguh2rcd13ifvqckg","pricing_plan_id":"cebpf4jnsgd1na2vs0mg"},{"bike_id":"3943897b-237c-4941-8f36-20e7f7f5fee6","system_id":"levelo_inurba_marseille","lat":43.31429,"lon":5.37546,"is_reserved":false,"is_disabled":false,"rental_uris":{"android":"levelo://app?vid=3943897b-237c-4941-8f36-20e7f7f5fee6","ios":"levelo://app?vid=3943897b-237c-4941-8f36-20e7f7f5fee6"},"vehicle_type_id":"4","last_reported":1719594490,"current_range_meters":26400,"station_id":"","pricing_plan_id":"cebpf4jnsgd1na2vs0mg"},{"bike_id":"20556435-8b0f-47b0-9472-d09d827ba54a","system_id":"levelo_inurba_marseille","lat":43.31421,"lon":5.37621,"is_reserved":false,"is_disabled":false,"rental_uris":{"android":"levelo://app?vid=20556435-8b0f-47b0-9472-d09d827ba54a","ios":"levelo://app?vid=20556435-8b0f-47b0-9472-d09d827ba54a"},"vehicle_type_id":"4","last_reported":1719594490,"current_range_meters":14000,"station_id":"","pricing_plan_id":"cebpf4jnsgd1na2vs0mg"},{"bike_id":"6d4b91a7-8c12-430c-885e-9db29307fac7","system_id":"levelo_inurba_marseille","lat":43.30546,"lon":5.36656,"is_reserved":false,"is_disabled":false,"rental_uris":{"android":"levelo://app?vid=6d4b91a7-8c12-430c-885e-9db29307fac7","ios":"levelo://app?vid=6d4b91a7-8c12-430c-885e-9db29307fac7"},"vehicle_type_id":"4","last_reported":1719594490,"current_range_meters":24800,"station_id":"","pricing_plan_id":"cebpf4jnsgd1na2vs0mg"},{"bike_id":"7c23ea15-6416-4da4-bac1-efa8637b0174","system_id":"levelo_inurba_marseille","lat":43.305714,"lon":5.365633,"is_reserved":false,"is_disabled":false,"rental_uris":{"android":"levelo://app?vid=7c23ea15-6416-4da4-bac1-efa8637b0174","ios":"levelo://app?vid=7c23ea15-6416-4da4-bac1-efa8637b0174"},"vehicle_type_id":"4","last_reported":1719594490,"current_range_meters":21200,"station_id":"ce4bgs12rcd13ifvqcag","pricing_plan_id":"cebpf4jnsgd1na2vs0mg"},{"bike_id":"04064287-4eea-44aa-a6ca-27e3e544ed5f","system_id":"levelo_inurba_marseille","lat":43.311125,"lon":5.377624,"is_reserved":false,"is_disabled":false,"rental_uris":{"android":"levelo://app?vid=04064287-4eea-44aa-a6ca-27e3e544ed5f","ios":"levelo://app?vid=04064287-4eea-44aa-a6ca-27e3e544ed5f"},"vehicle_type_id":"4","last_reported":1719594490,"current_range_meters":0,"station_id":"ce4bgt92rcd13ifvqcg0","pricing_plan_id":"cebpf4jnsgd1na2vs0mg"},{"bike_id":"5f990476-20d8-4f51-b78c-fdc4b251a0e3","system_id":"levelo_inurba_marseille","lat":43.311131,"lon":5.377651,"is_reserved":false,"is_disabled":false,"rental_uris":{"android":"levelo://app?vid=5f990476-20d8-4f51-b78c-fdc4b251a0e3","ios":"levelo://app?vid=5f990476-20d8-4f51-b78c-fdc4b251a0e3"},"vehicle_type_id":"4","last_reported":1719594490,"current_range_meters":31600,"station_id":"ce4bgt92rcd13ifvqcg0","pricing_plan_id":"cebpf4jnsgd1na2vs0mg"},{"bike_id":"c0da52f6-305e-43e8-acb5-8f4da4abc53c","system_id":"levelo_inurba_marseille","lat":43.311131,"lon":5.377651,"is_reserved":false,"is_disabled":false,"rental_uris":{"android":"levelo://app?vid=c0da52f6-305e-43e8-acb5-8f4da4abc53c","ios":"levelo://app?vid=c0da52f6-305e-43e8-acb5-8f4da4abc53c"},"vehicle_type_id":"4","last_reported":1719594490,"current_range_meters":20000,"station_id":"ce4bgt92rcd13ifvqcg0","pricing_plan_id":"cebpf4jnsgd1na2vs0mg"},{"bike_id":"1ee0c11b-de51-4552-882c-a8c5285ab96a","system_id":"levelo_inurba_marseille","lat":43.315289,"lon":5.380349,"is_reserved":false,"is_disabled":false,"rental_uris":{"android":"levelo://app?vid=1ee0c11b-de51-4552-882c-a8c5285ab96a","ios":"levelo://app?vid=1ee0c11b-de51-4552-882c-a8c5285ab96a"},"vehicle_type_id":"4","last_reported":1719594490,"current_range_meters":5200,"station_id":"ce4bhsp2rcd13ifvqi50","pricing_plan_id":"cebpf4jnsgd1na2vs0mg"},{"bike_id":"3a326ba4-e82d-4ead-8e50-bc5699d156f8","system_id":"levelo_inurba_marseille","lat":43.30179,"lon":5.36621,"is_reserved":false,"is_disabled":false,"rental_uris":{"android":"levelo://app?vid=3a326ba4-e82d-4ead-8e50-bc5699d156f8","ios":"levelo://app?vid=3a326ba4-e82d-4ead-8e50-bc5699d156f8"},"vehicle_type_id":"4","last_reported":1719594490,"current_range_meters":8800,"station_id":"ce4bgrh2rcd13ifvqc8g","pricing_plan_id":"cebpf4jnsgd1na2vs0mg"},{"bike_id":"e5131073-ea35-4a7a-8b4d-45d02255b8a6","system_id":"levelo_inurba_marseille","lat":43.31262,"lon":5.38208,"is_reserved":false,"is_disabled":false,"rental_uris":{"android":"levelo://app?vid=e5131073-ea35-4a7a-8b4d-45d02255b8a6","ios":"levelo://app?vid=e5131073-ea35-4a7a-8b4d-45d02255b8a6"},"vehicle_type_id":"4","last_reported":1719594490,"current_range_meters":26400,"station_id":"","pricing_plan_id":"cebpf4jnsgd1na2vs0mg"},{"bike_id":"0f821fb7-dafb-460d-987a-ea7387f9cfc4","system_id":"levelo_inurba_marseille","lat":43.30803,"lon":5.3815,"is_reserved":false,"is_disabled":false,"rental_uris":{"android":"levelo://app?vid=0f821fb7-dafb-460d-987a-ea7387f9cfc4","ios":"levelo://app?vid=0f821fb7-dafb-460d-987a-ea7387f9cfc4"},"vehicle_type_id":"4","last_reported":1719594490,"current_range_meters":4800,"station_id":"ce4bgt12rcd13ifvqce0","pricing_plan_id":"cebpf4jnsgd1na2vs0mg"},{"bike_id":"632987bb-00b9-4334-8bef-5d5f766db490","system_id":"levelo_inurba_marseille","lat":43.304606,"lon":5.379026,"is_reserved":false,"is_disabled":false,"rental_uris":{"android":"levelo://app?vid=632987bb-00b9-4334-8bef-5d5f766db490","ios":"levelo://app?vid=632987bb-00b9-4334-8bef-5d5f766db490"},"vehicle_type_id":"4","last_reported":1719594490,"current_range_meters":0,"station_id":"ce4bgup2rcd13ifvqcn0","pricing_plan_id":"cebpf4jnsgd1na2vs0mg"},{"bike_id":"d5531a6e-c1ca-466e-bac2-6f3d9db38026","system_id":"levelo_inurba_marseille","lat":43.324771,"lon":5.36557,"is_reserved":false,"is_disabled":false,"rental_uris":{"android":"levelo://app?vid=d5531a6e-c1ca-466e-bac2-6f3d9db38026","ios":"levelo://app?vid=d5531a6e-c1ca-466e-bac2-6f3d9db38026"},"vehicle_type_id":"4","last_reported":1719594490,"current_range_meters":0,"station_id":"ce4bhs12rcd13ifvqhvg","pricing_plan_id":"cebpf4jnsgd1na2vs0mg"},{"bike_id":"c7d098ab-af25-4aa0-904d-a2d415d39747","system_id":"levelo_inurba_marseille","lat":43.304606,"lon":5.379026,"is_reserved":false,"is_disabled":false,"rental_uris":{"android":"levelo://app?vid=c7d098ab-af25-4aa0-904d-a2d415d39747","ios":"levelo://app?vid=c7d098ab-af25-4aa0-904d-a2d415d39747"},"vehicle_type_id":"4","last_reported":1719594490,"current_range_meters":18800,"station_id":"ce4bgup2rcd13ifvqcn0","pricing_plan_id":"cebpf4jnsgd1na2vs0mg"},{"bike_id":"00a3049a-4d83-41c5-8f13-e87131ba5b2e","system_id":"levelo_inurba_marseille","lat":43.324771,"lon":5.36557,"is_reserved":false,"is_disabled":false,"rental_uris":{"android":"levelo://app?vid=00a3049a-4d83-41c5-8f13-e87131ba5b2e","ios":"levelo://app?vid=00a3049a-4d83-41c5-8f13-e87131ba5b2e"},"vehicle_type_id":"4","last_reported":1719594490,"current_range_meters":23200,"station_id":"ce4bhs12rcd13ifvqhvg","pricing_plan_id":"cebpf4jnsgd1na2vs0mg"},{"bike_id":"4c27e99b-55f7-474c-a9ab-1052b5608f5b","system_id":"levelo_inurba_marseille","lat":43.324771,"lon":5.36557,"is_reserved":false,"is_disabled":false,"rental_uris":{"android":"levelo://app?vid=4c27e99b-55f7-474c-a9ab-1052b5608f5b","ios":"levelo://app?vid=4c27e99b-55f7-474c-a9ab-1052b5608f5b"},"vehicle_type_id":"4","last_reported":1719594490,"current_range_meters":0,"station_id":"ce4bhs12rcd13ifvqhvg","pricing_plan_id":"cebpf4jnsgd1na2vs0mg"},{"bike_id":"147ae512-a8fd-4e60-a441-50c9a74e7772","system_id":"levelo_inurba_marseille","lat":43.310804,"lon":5.38359,"is_reserved":false,"is_disabled":false,"rental_uris":{"android":"levelo://app?vid=147ae512-a8fd-4e60-a441-50c9a74e7772","ios":"levelo://app?vid=147ae512-a8fd-4e60-a441-50c9a74e7772"},"vehicle_type_id":"4","last_reported":1719594490,"current_range_meters":0,"station_id":"ce4bgv92rcd13ifvqcr0","pricing_plan_id":"cebpf4jnsgd1na2vs0mg"},{"bike_id":"c8660aac-5b07-43c4-a1dd-57bc14dc99fa","system_id":"levelo_inurba_marseille","lat":43.302784,"lon":5.377158,"is_reserved":false,"is_disabled":false,"rental_uris":{"android":"levelo://app?vid=c8660aac-5b07-43c4-a1dd-57bc14dc99fa","ios":"levelo://app?vid=c8660aac-5b07-43c4-a1dd-57bc14dc99fa"},"vehicle_type_id":"4","last_reported":1719594490,"current_range_meters":800,"station_id":"ce4bguh2rcd13ifvqcj0","pricing_plan_id":"cebpf4jnsgd1na2vs0mg"},{"bike_id":"5764ed28-1088-4250-8310-d8c67d747cdc","system_id":"levelo_inurba_marseille","lat":43.302784,"lon":5.377158,"is_reserved":false,"is_disabled":false,"rental_uris":{"android":"levelo://app?vid=5764ed28-1088-4250-8310-d8c67d747cdc","ios":"levelo://app?vid=5764ed28-1088-4250-8310-d8c67d747cdc"},"vehicle_type_id":"4","last_reported":1719594490,"current_range_meters":16000,"station_id":"ce4bguh2rcd13ifvqcj0","pricing_plan_id":"cebpf4jnsgd1na2vs0mg"},{"bike_id":"1a876d7f-3de3-4635-8636-1638fdeb9874","system_id":"levelo_inurba_marseille","lat":43.302784,"lon":5.377158,"is_reserved":false,"is_disabled":false,"rental_uris":{"android":"levelo://app?vid=1a876d7f-3de3-4635-8636-1638fdeb9874","ios":"levelo://app?vid=1a876d7f-3de3-4635-8636-1638fdeb9874"},"vehicle_type_id":"4","last_reported":1719594490,"current_range_meters":5200,"station_id":"ce4bguh2rcd13ifvqcj0","pricing_plan_id":"cebpf4jnsgd1na2vs0mg"},{"bike_id":"7a9758ca-f10f-476e-be0f-3a2dec022123","system_id":"levelo_inurba_marseille","lat":43.29994,"lon":5.36823,"is_reserved":false,"is_disabled":false,"rental_uris":{"android":"levelo://app?vid=7a9758ca-f10f-476e-be0f-3a2dec022123","ios":"levelo://app?vid=7a9758ca-f10f-476e-be0f-3a2dec022123"},"vehicle_type_id":"4","last_reported":1719594490,"current_range_meters":17200,"station_id":"","pricing_plan_id":"cebpf4jnsgd1na2vs0mg"},{"bike_id":"c5d488bf-b89f-4c04-936f-8edc56a3b77d","system_id":"levelo_inurba_marseille","lat":43.319935,"lon":5.381699,"is_reserved":false,"is_disabled":false,"rental_uris":{"android":"levelo://app?vid=c5d488bf-b89f-4c04-936f-8edc56a3b77d","ios":"levelo://app?vid=c5d488bf-b89f-4c04-936f-8edc56a3b77d"},"vehicle_type_id":"4","last_reported":1719594490,"current_range_meters":0,"station_id":"ce4bhr12rcd13ifvqhpg","pricing_plan_id":"cebpf4jnsgd1na2vs0mg"},{"bike_id":"6c2a0b49-fde4-42e0-9bf1-d19dec235569","system_id":"levelo_inurba_marseille","lat":43.319935,"lon":5.381699,"is_reserved":false,"is_disabled":false,"rental_uris":{"android":"levelo://app?vid=6c2a0b49-fde4-42e0-9bf1-d19dec235569","ios":"levelo://app?vid=6c2a0b49-fde4-42e0-9bf1-d19dec235569"},"vehicle_type_id":"4","last_reported":1719594490,"current_range_meters":0,"station_id":"ce4bhr12rcd13ifvqhpg","pricing_plan_id":"cebpf4jnsgd1na2vs0mg"},{"bike_id":"7fbedb87-5b4d-4714-9867-b9ee761c300e","system_id":"levelo_inurba_marseille","lat":43.319935,"lon":5.381699,"is_reserved":false,"is_disabled":false,"rental_uris":{"android":"levelo://app?vid=7fbedb87-5b4d-4714-9867-b9ee761c300e","ios":"levelo://app?vid=7fbedb87-5b4d-4714-9867-b9ee761c300e"},"vehicle_type_id":"4","last_reported":1719594490,"current_range_meters":10800,"station_id":"ce4bhr12rcd13ifvqhpg","pricing_plan_id":"cebpf4jnsgd1na2vs0mg"},{"bike_id":"cdff3609-95bc-4e87-9301-15974eb9376b","system_id":"levelo_inurba_marseille","lat":43.319935,"lon":5.381699,"is_reserved":false,"is_disabled":false,"rental_uris":{"android":"levelo://app?vid=cdff3609-95bc-4e87-9301-15974eb9376b","ios":"levelo://app?vid=cdff3609-95bc-4e87-9301-15974eb9376b"},"vehicle_type_id":"4","last_reported":1719594490,"current_range_meters":22800,"station_id":"ce4bhr12rcd13ifvqhpg","pricing_plan_id":"cebpf4jnsgd1na2vs0mg"},{"bike_id":"e219a01a-04fa-4579-bbb6-c1ee7149fe2b","system_id":"levelo_inurba_marseille","lat":43.319935,"lon":5.381699,"is_reserved":false,"is_disabled":false,"rental_uris":{"android":"levelo://app?vid=e219a01a-04fa-4579-bbb6-c1ee7149fe2b","ios":"levelo://app?vid=e219a01a-04fa-4579-bbb6-c1ee7149fe2b"},"vehicle_type_id":"4","last_reported":1719594490,"current_range_meters":21200,"station_id":"ce4bhr12rcd13ifvqhpg","pricing_plan_id":"cebpf4jnsgd1na2vs0mg"},{"bike_id":"a95d157d-19fe-4f2a-bd4a-36b0b49e54ec","system_id":"levelo_inurba_marseille","lat":43.313571,"lon":5.384829,"is_reserved":false,"is_disabled":false,"rental_uris":{"android":"levelo://app?vid=a95d157d-19fe-4f2a-bd4a-36b0b49e54ec","ios":"levelo://app?vid=a95d157d-19fe-4f2a-bd4a-36b0b49e54ec"},"vehicle_type_id":"4","last_reported":1719594490,"current_range_meters":0,"station_id":"ce4bgt92rcd13ifvqcf0","pricing_plan_id":"cebpf4jnsgd1na2vs0mg"},{"bike_id":"f620f462-eb36-4c92-8ecc-69fb25920631","system_id":"levelo_inurba_marseille","lat":43.299456,"lon":5.365438,"is_reserved":false,"is_disabled":false,"rental_uris":{"android":"levelo://app?vid=f620f462-eb36-4c92-8ecc-69fb25920631","ios":"levelo://app?vid=f620f462-eb36-4c92-8ecc-69fb25920631"},"vehicle_type_id":"4","last_reported":1719594490,"current_range_meters":11600,"station_id":"","pricing_plan_id":"cebpf4jnsgd1na2vs0mg"},{"bike_id":"29c60a80-49de-43ef-9d0a-034f4d18bc21","system_id":"levelo_inurba_marseille","lat":43.299222,"lon":5.365554,"is_reserved":false,"is_disabled":false,"rental_uris":{"android":"levelo://app?vid=29c60a80-49de-43ef-9d0a-034f4d18bc21","ios":"levelo://app?vid=29c60a80-49de-43ef-9d0a-034f4d18bc21"},"vehicle_type_id":"4","last_reported":1719594490,"current_range_meters":2000,"station_id":"ce4bgm92rcd13ifvqbr0","pricing_plan_id":"cebpf4jnsgd1na2vs0mg"},{"bike_id":"552f1283-c80c-4a2e-9b70-9b3c62bca8ea","system_id":"levelo_inurba_marseille","lat":43.304,"lon":5.38104,"is_reserved":false,"is_disabled":false,"rental_uris":{"android":"levelo://app?vid=552f1283-c80c-4a2e-9b70-9b3c62bca8ea","ios":"levelo://app?vid=552f1283-c80c-4a2e-9b70-9b3c62bca8ea"},"vehicle_type_id":"4","last_reported":1719594490,"current_range_meters":24000,"station_id":"","pricing_plan_id":"cebpf4jnsgd1na2vs0mg"},{"bike_id":"b58eda0c-599e-4b99-a8f1-1dd94840e0e5","system_id":"levelo_inurba_marseille","lat":43.299724,"lon":5.371829,"is_reserved":false,"is_disabled":false,"rental_uris":{"android":"levelo://app?vid=b58eda0c-599e-4b99-a8f1-1dd94840e0e5","ios":"levelo://app?vid=b58eda0c-599e-4b99-a8f1-1dd94840e0e5"},"vehicle_type_id":"4","last_reported":1719594490,"current_range_meters":27600,"station_id":"ce4bgr92rcd13ifvqc7g","pricing_plan_id":"cebpf4jnsgd1na2vs0mg"},{"bike_id":"7919748f-7346-430a-9155-febab4042689","system_id":"levelo_inurba_marseille","lat":43.305364,"lon":5.384119,"is_reserved":false,"is_disabled":false,"rental_uris":{"android":"levelo://app?vid=7919748f-7346-430a-9155-febab4042689","ios":"levelo://app?vid=7919748f-7346-430a-9155-febab4042689"},"vehicle_type_id":"4","last_reported":1719594490,"current_range_meters":4400,"station_id":"ce4bgg92rcd13ifvqb30","pricing_plan_id":"cebpf4jnsgd1na2vs0mg"},{"bike_id":"b4e90371-b51b-4bb3-9f26-7d543acd8573","system_id":"levelo_inurba_marseille","lat":43.30957,"lon":5.38631,"is_reserved":false,"is_disabled":false,"rental_uris":{"android":"levelo://app?vid=b4e90371-b51b-4bb3-9f26-7d543acd8573","ios":"levelo://app?vid=b4e90371-b51b-4bb3-9f26-7d543acd8573"},"vehicle_type_id":"4","last_reported":1719594490,"current_range_meters":26400,"station_id":"","pricing_plan_id":"cebpf4jnsgd1na2vs0mg"},{"bike_id":"286df428-eb8f-4e1a-b8bb-8f3ad9562c3c","system_id":"levelo_inurba_marseille","lat":43.305364,"lon":5.384119,"is_reserved":false,"is_disabled":false,"rental_uris":{"android":"levelo://app?vid=286df428-eb8f-4e1a-b8bb-8f3ad9562c3c","ios":"levelo://app?vid=286df428-eb8f-4e1a-b8bb-8f3ad9562c3c"},"vehicle_type_id":"4","last_reported":1719594490,"current_range_meters":3600,"station_id":"ce4bgg92rcd13ifvqb30","pricing_plan_id":"cebpf4jnsgd1na2vs0mg"},{"bike_id":"154cc0fa-7e88-460c-84e3-25076710a2e7","system_id":"levelo_inurba_marseille","lat":43.299243,"lon":5.374807,"is_reserved":false,"is_disabled":false,"rental_uris":{"android":"levelo://app?vid=154cc0fa-7e88-460c-84e3-25076710a2e7","ios":"levelo://app?vid=154cc0fa-7e88-460c-84e3-25076710a2e7"},"vehicle_type_id":"4","last_reported":1719594490,"current_range_meters":4800,"station_id":"ce4bgjh2rcd13ifvqbg0","pricing_plan_id":"cebpf4jnsgd1na2vs0mg"},{"bike_id":"fe1a72d2-73c1-478b-b071-799f4974fd1a","system_id":"levelo_inurba_marseille","lat":43.298433,"lon":5.362774,"is_reserved":false,"is_disabled":false,"rental_uris":{"android":"levelo://app?vid=fe1a72d2-73c1-478b-b071-799f4974fd1a","ios":"levelo://app?vid=fe1a72d2-73c1-478b-b071-799f4974fd1a"},"vehicle_type_id":"4","last_reported":1719594490,"current_range_meters":3200,"station_id":"ce4bgpp2rcd13ifvqc3g","pricing_plan_id":"cebpf4jnsgd1na2vs0mg"},{"bike_id":"18858c23-d712-4b64-bec6-23bab7f0effd","system_id":"levelo_inurba_marseille","lat":43.300709,"lon":5.379111,"is_reserved":false,"is_disabled":false,"rental_uris":{"android":"levelo://app?vid=18858c23-d712-4b64-bec6-23bab7f0effd","ios":"levelo://app?vid=18858c23-d712-4b64-bec6-23bab7f0effd"},"vehicle_type_id":"4","last_reported":1719594490,"current_range_meters":27600,"station_id":"","pricing_plan_id":"cebpf4jnsgd1na2vs0mg"},{"bike_id":"1cb0a495-b6b6-4836-9e0d-da21878c1b28","system_id":"levelo_inurba_marseille","lat":43.297835,"lon":5.371011,"is_reserved":false,"is_disabled":false,"rental_uris":{"android":"levelo://app?vid=1cb0a495-b6b6-4836-9e0d-da21878c1b28","ios":"levelo://app?vid=1cb0a495-b6b6-4836-9e0d-da21878c1b28"},"vehicle_type_id":"4","last_reported":1719594490,"current_range_meters":6000,"station_id":"","pricing_plan_id":"cebpf4jnsgd1na2vs0mg"},{"bike_id":"887768d6-5f1b-465e-b5cd-7f37809448cd","system_id":"levelo_inurba_marseille","lat":43.322843,"lon":5.382623,"is_reserved":false,"is_disabled":false,"rental_uris":{"android":"levelo://app?vid=887768d6-5f1b-465e-b5cd-7f37809448cd","ios":"levelo://app?vid=887768d6-5f1b-465e-b5cd-7f37809448cd"},"vehicle_type_id":"4","last_reported":1719594490,"current_range_meters":31200,"station_id":"ce4bhr12rcd13ifvqhqg","pricing_plan_id":"cebpf4jnsgd1na2vs0mg"},{"bike_id":"e6612135-71fa-45d9-ad65-84124da45ac5","system_id":"levelo_inurba_marseille","lat":43.322872,"lon":5.382756,"is_reserved":false,"is_disabled":false,"rental_uris":{"android":"levelo://app?vid=e6612135-71fa-45d9-ad65-84124da45ac5","ios":"levelo://app?vid=e6612135-71fa-45d9-ad65-84124da45ac5"},"vehicle_type_id":"4","last_reported":1719594490,"current_range_meters":18400,"station_id":"ce4bhr12rcd13ifvqhqg","pricing_plan_id":"cebpf4jnsgd1na2vs0mg"},{"bike_id":"7d2a14f1-ae94-45cb-95b1-47544f37f54a","system_id":"levelo_inurba_marseille","lat":43.322872,"lon":5.382756,"is_reserved":false,"is_disabled":false,"rental_uris":{"android":"levelo://app?vid=7d2a14f1-ae94-45cb-95b1-47544f37f54a","ios":"levelo://app?vid=7d2a14f1-ae94-45cb-95b1-47544f37f54a"},"vehicle_type_id":"4","last_reported":1719594490,"current_range_meters":8800,"station_id":"ce4bhr12rcd13ifvqhqg","pricing_plan_id":"cebpf4jnsgd1na2vs0mg"},{"bike_id":"ae21b710-d977-4a4e-a8b8-a97d0fd0c096","system_id":"levelo_inurba_marseille","lat":43.297163,"lon":5.365866,"is_reserved":false,"is_disabled":false,"rental_uris":{"android":"levelo://app?vid=ae21b710-d977-4a4e-a8b8-a97d0fd0c096","ios":"levelo://app?vid=ae21b710-d977-4a4e-a8b8-a97d0fd0c096"},"vehicle_type_id":"4","last_reported":1719594490,"current_range_meters":30000,"station_id":"ce4bgn12rcd13ifvqbt0","pricing_plan_id":"cebpf4jnsgd1na2vs0mg"},{"bike_id":"a87f8486-e6f3-48ac-879f-a2b1d699acf5","system_id":"levelo_inurba_marseille","lat":43.2968,"lon":5.37291,"is_reserved":false,"is_disabled":false,"rental_uris":{"android":"levelo://app?vid=a87f8486-e6f3-48ac-879f-a2b1d699acf5","ios":"levelo://app?vid=a87f8486-e6f3-48ac-879f-a2b1d699acf5"},"vehicle_type_id":"4","last_reported":1719594490,"current_range_meters":24400,"station_id":"ce4bgk12rcd13ifvqbj0","pricing_plan_id":"cebpf4jnsgd1na2vs0mg"},{"bike_id":"f7b8525a-7b99-4fd4-aac1-aad42e2a3b77","system_id":"levelo_inurba_marseille","lat":43.29659,"lon":5.36238,"is_reserved":false,"is_disabled":false,"rental_uris":{"android":"levelo://app?vid=f7b8525a-7b99-4fd4-aac1-aad42e2a3b77","ios":"levelo://app?vid=f7b8525a-7b99-4fd4-aac1-aad42e2a3b77"},"vehicle_type_id":"4","last_reported":1719594490,"current_range_meters":16400,"station_id":"","pricing_plan_id":"cebpf4jnsgd1na2vs0mg"},{"bike_id":"55ef1705-8f1e-4bfb-8caa-10240763c558","system_id":"levelo_inurba_marseille","lat":43.2965,"lon":5.36247,"is_reserved":false,"is_disabled":false,"rental_uris":{"android":"levelo://app?vid=55ef1705-8f1e-4bfb-8caa-10240763c558","ios":"levelo://app?vid=55ef1705-8f1e-4bfb-8caa-10240763c558"},"vehicle_type_id":"4","last_reported":1719594490,"current_range_meters":15200,"station_id":"","pricing_plan_id":"cebpf4jnsgd1na2vs0mg"},{"bike_id":"8c0f720d-61a7-477d-b211-686a368532e4","system_id":"levelo_inurba_marseille","lat":43.29573,"lon":5.367355,"is_reserved":false,"is_disabled":false,"rental_uris":{"android":"levelo://app?vid=8c0f720d-61a7-477d-b211-686a368532e4","ios":"levelo://app?vid=8c0f720d-61a7-477d-b211-686a368532e4"},"vehicle_type_id":"4","last_reported":1719594490,"current_range_meters":19200,"station_id":"ce4bgph2rcd13ifvqc2g","pricing_plan_id":"cebpf4jnsgd1na2vs0mg"},{"bike_id":"5f78fa69-d842-4a57-a267-8deffd4d2347","system_id":"levelo_inurba_marseille","lat":43.2958,"lon":5.36744,"is_reserved":false,"is_disabled":false,"rental_uris":{"android":"levelo://app?vid=5f78fa69-d842-4a57-a267-8deffd4d2347","ios":"levelo://app?vid=5f78fa69-d842-4a57-a267-8deffd4d2347"},"vehicle_type_id":"4","last_reported":1719594490,"current_range_meters":1600,"station_id":"ce4bgph2rcd13ifvqc2g","pricing_plan_id":"cebpf4jnsgd1na2vs0mg"},{"bike_id":"47e730fa-24be-4a1f-9435-2267e83f7571","system_id":"levelo_inurba_marseille","lat":43.29573,"lon":5.367355,"is_reserved":false,"is_disabled":false,"rental_uris":{"android":"levelo://app?vid=47e730fa-24be-4a1f-9435-2267e83f7571","ios":"levelo://app?vid=47e730fa-24be-4a1f-9435-2267e83f7571"},"vehicle_type_id":"4","last_reported":1719594490,"current_range_meters":19200,"station_id":"ce4bgph2rcd13ifvqc2g","pricing_plan_id":"cebpf4jnsgd1na2vs0mg"},{"bike_id":"8e277700-d0ae-4a1b-bf17-9a816ca0a073","system_id":"levelo_inurba_marseille","lat":43.299028,"lon":5.381509,"is_reserved":false,"is_disabled":false,"rental_uris":{"android":"levelo://app?vid=8e277700-d0ae-4a1b-bf17-9a816ca0a073","ios":"levelo://app?vid=8e277700-d0ae-4a1b-bf17-9a816ca0a073"},"vehicle_type_id":"4","last_reported":1719594490,"current_range_meters":16000,"station_id":"ce4bgj12rcd13ifvqbc0","pricing_plan_id":"cebpf4jnsgd1na2vs0mg"},{"bike_id":"6d90989b-a72c-45a7-81f5-2efe856d3656","system_id":"levelo_inurba_marseille","lat":43.2991,"lon":5.3813,"is_reserved":false,"is_disabled":false,"rental_uris":{"android":"levelo://app?vid=6d90989b-a72c-45a7-81f5-2efe856d3656","ios":"levelo://app?vid=6d90989b-a72c-45a7-81f5-2efe856d3656"},"vehicle_type_id":"4","last_reported":1719594490,"current_range_meters":22800,"station_id":"ce4bgj12rcd13ifvqbc0","pricing_plan_id":"cebpf4jnsgd1na2vs0mg"},{"bike_id":"01549686-de4f-4563-a22d-0892a337e59d","system_id":"levelo_inurba_marseille","lat":43.296921,"lon":5.376579,"is_reserved":false,"is_disabled":false,"rental_uris":{"android":"levelo://app?vid=01549686-de4f-4563-a22d-0892a337e59d","ios":"levelo://app?vid=01549686-de4f-4563-a22d-0892a337e59d"},"vehicle_type_id":"4","last_reported":1719594490,"current_range_meters":800,"station_id":"ce4bgkh2rcd13ifvqbl0","pricing_plan_id":"cebpf4jnsgd1na2vs0mg"},{"bike_id":"7f41caae-e4fc-4aa1-b2a4-59ffd4538de4","system_id":"levelo_inurba_marseille","lat":43.299028,"lon":5.381509,"is_reserved":false,"is_disabled":false,"rental_uris":{"android":"levelo://app?vid=7f41caae-e4fc-4aa1-b2a4-59ffd4538de4","ios":"levelo://app?vid=7f41caae-e4fc-4aa1-b2a4-59ffd4538de4"},"vehicle_type_id":"4","last_reported":1719594490,"current_range_meters":28800,"station_id":"ce4bgj12rcd13ifvqbc0","pricing_plan_id":"cebpf4jnsgd1na2vs0mg"},{"bike_id":"b6563acd-0f5b-40e3-a0ac-7f79d7b6dffb","system_id":"levelo_inurba_marseille","lat":43.29908,"lon":5.38141,"is_reserved":false,"is_disabled":false,"rental_uris":{"android":"levelo://app?vid=b6563acd-0f5b-40e3-a0ac-7f79d7b6dffb","ios":"levelo://app?vid=b6563acd-0f5b-40e3-a0ac-7f79d7b6dffb"},"vehicle_type_id":"4","last_reported":1719594490,"current_range_meters":0,"station_id":"ce4bgj12rcd13ifvqbc0","pricing_plan_id":"cebpf4jnsgd1na2vs0mg"},{"bike_id":"a3258160-5f76-4d38-be16-2dce91d46e8c","system_id":"levelo_inurba_marseille","lat":43.299047,"lon":5.381387,"is_reserved":false,"is_disabled":false,"rental_uris":{"android":"levelo://app?vid=a3258160-5f76-4d38-be16-2dce91d46e8c","ios":"levelo://app?vid=a3258160-5f76-4d38-be16-2dce91d46e8c"},"vehicle_type_id":"4","last_reported":1719594490,"current_range_meters":0,"station_id":"ce4bgj12rcd13ifvqbc0","pricing_plan_id":"cebpf4jnsgd1na2vs0mg"},{"bike_id":"d980da68-34f7-400b-b7f1-b30abf5fdf03","system_id":"levelo_inurba_marseille","lat":43.29908,"lon":5.38145,"is_reserved":false,"is_disabled":false,"rental_uris":{"android":"levelo://app?vid=d980da68-34f7-400b-b7f1-b30abf5fdf03","ios":"levelo://app?vid=d980da68-34f7-400b-b7f1-b30abf5fdf03"},"vehicle_type_id":"4","last_reported":1719594490,"current_range_meters":5200,"station_id":"ce4bgj12rcd13ifvqbc0","pricing_plan_id":"cebpf4jnsgd1na2vs0mg"},{"bike_id":"a4c28c7e-3101-47f4-be37-887a7b4d087c","system_id":"levelo_inurba_marseille","lat":43.299028,"lon":5.381509,"is_reserved":false,"is_disabled":false,"rental_uris":{"android":"levelo://app?vid=a4c28c7e-3101-47f4-be37-887a7b4d087c","ios":"levelo://app?vid=a4c28c7e-3101-47f4-be37-887a7b4d087c"},"vehicle_type_id":"4","last_reported":1719594490,"current_range_meters":6800,"station_id":"ce4bgj12rcd13ifvqbc0","pricing_plan_id":"cebpf4jnsgd1na2vs0mg"},{"bike_id":"ed4992aa-635f-412e-989c-3455c7be833b","system_id":"levelo_inurba_marseille","lat":43.309589,"lon":5.390258,"is_reserved":false,"is_disabled":false,"rental_uris":{"android":"levelo://app?vid=ed4992aa-635f-412e-989c-3455c7be833b","ios":"levelo://app?vid=ed4992aa-635f-412e-989c-3455c7be833b"},"vehicle_type_id":"4","last_reported":1719594490,"current_range_meters":9200,"station_id":"ce4bgup2rcd13ifvqco0","pricing_plan_id":"cebpf4jnsgd1na2vs0mg"},{"bike_id":"d6967747-1aa4-46a4-9650-9f21f9fb5beb","system_id":"levelo_inurba_marseille","lat":43.309589,"lon":5.390258,"is_reserved":false,"is_disabled":false,"rental_uris":{"android":"levelo://app?vid=d6967747-1aa4-46a4-9650-9f21f9fb5beb","ios":"levelo://app?vid=d6967747-1aa4-46a4-9650-9f21f9fb5beb"},"vehicle_type_id":"4","last_reported":1719594490,"current_range_meters":16800,"station_id":"ce4bgup2rcd13ifvqco0","pricing_plan_id":"cebpf4jnsgd1na2vs0mg"},{"bike_id":"48d049c2-4277-46ce-bebc-073add3cb65b","system_id":"levelo_inurba_marseille","lat":43.309589,"lon":5.390258,"is_reserved":false,"is_disabled":false,"rental_uris":{"android":"levelo://app?vid=48d049c2-4277-46ce-bebc-073add3cb65b","ios":"levelo://app?vid=48d049c2-4277-46ce-bebc-073add3cb65b"},"vehicle_type_id":"4","last_reported":1719594490,"current_range_meters":22000,"station_id":"ce4bgup2rcd13ifvqco0","pricing_plan_id":"cebpf4jnsgd1na2vs0mg"},{"bike_id":"e3e7847b-1624-4dd2-a7fa-e1848cb26885","system_id":"levelo_inurba_marseille","lat":43.309589,"lon":5.390258,"is_reserved":false,"is_disabled":false,"rental_uris":{"android":"levelo://app?vid=e3e7847b-1624-4dd2-a7fa-e1848cb26885","ios":"levelo://app?vid=e3e7847b-1624-4dd2-a7fa-e1848cb26885"},"vehicle_type_id":"4","last_reported":1719594490,"current_range_meters":0,"station_id":"ce4bgup2rcd13ifvqco0","pricing_plan_id":"cebpf4jnsgd1na2vs0mg"},{"bike_id":"18d05ee5-b428-490c-9f28-24ce10d66650","system_id":"levelo_inurba_marseille","lat":43.309589,"lon":5.390258,"is_reserved":false,"is_disabled":false,"rental_uris":{"android":"levelo://app?vid=18d05ee5-b428-490c-9f28-24ce10d66650","ios":"levelo://app?vid=18d05ee5-b428-490c-9f28-24ce10d66650"},"vehicle_type_id":"4","last_reported":1719594490,"current_range_meters":7600,"station_id":"ce4bgup2rcd13ifvqco0","pricing_plan_id":"cebpf4jnsgd1na2vs0mg"},{"bike_id":"fd3b9346-29f3-462c-8db0-e918850efc97","system_id":"levelo_inurba_marseille","lat":43.309589,"lon":5.390258,"is_reserved":false,"is_disabled":false,"rental_uris":{"android":"levelo://app?vid=fd3b9346-29f3-462c-8db0-e918850efc97","ios":"levelo://app?vid=fd3b9346-29f3-462c-8db0-e918850efc97"},"vehicle_type_id":"4","last_reported":1719594490,"current_range_meters":14000,"station_id":"ce4bgup2rcd13ifvqco0","pricing_plan_id":"cebpf4jnsgd1na2vs0mg"},{"bike_id":"62ccbaa8-f1ad-40ae-bf6e-88fe4e7296cb","system_id":"levelo_inurba_marseille","lat":43.309589,"lon":5.390258,"is_reserved":false,"is_disabled":false,"rental_uris":{"android":"levelo://app?vid=62ccbaa8-f1ad-40ae-bf6e-88fe4e7296cb","ios":"levelo://app?vid=62ccbaa8-f1ad-40ae-bf6e-88fe4e7296cb"},"vehicle_type_id":"4","last_reported":1719594490,"current_range_meters":7200,"station_id":"ce4bgup2rcd13ifvqco0","pricing_plan_id":"cebpf4jnsgd1na2vs0mg"},{"bike_id":"c27fe051-814c-407c-a02f-334217511a21","system_id":"levelo_inurba_marseille","lat":43.317557,"lon":5.390173,"is_reserved":false,"is_disabled":false,"rental_uris":{"android":"levelo://app?vid=c27fe051-814c-407c-a02f-334217511a21","ios":"levelo://app?vid=c27fe051-814c-407c-a02f-334217511a21"},"vehicle_type_id":"4","last_reported":1719594490,"current_range_meters":12800,"station_id":"ce4bhqp2rcd13ifvqhng","pricing_plan_id":"cebpf4jnsgd1na2vs0mg"},{"bike_id":"942f8b2c-886c-4d33-834e-b115d5250206","system_id":"levelo_inurba_marseille","lat":43.317557,"lon":5.390173,"is_reserved":false,"is_disabled":false,"rental_uris":{"android":"levelo://app?vid=942f8b2c-886c-4d33-834e-b115d5250206","ios":"levelo://app?vid=942f8b2c-886c-4d33-834e-b115d5250206"},"vehicle_type_id":"4","last_reported":1719594490,"current_range_meters":23600,"station_id":"ce4bhqp2rcd13ifvqhng","pricing_plan_id":"cebpf4jnsgd1na2vs0mg"},{"bike_id":"0f5580e0-44bb-479a-9d6d-b24d3388639b","system_id":"levelo_inurba_marseille","lat":43.298037,"lon":5.381066,"is_reserved":false,"is_disabled":false,"rental_uris":{"android":"levelo://app?vid=0f5580e0-44bb-479a-9d6d-b24d3388639b","ios":"levelo://app?vid=0f5580e0-44bb-479a-9d6d-b24d3388639b"},"vehicle_type_id":"4","last_reported":1719594490,"current_range_meters":9200,"station_id":"ce4bgip2rcd13ifvqbb0","pricing_plan_id":"cebpf4jnsgd1na2vs0mg"},{"bike_id":"a7ba1ddb-852d-4d14-91dd-bfa4afad6f97","system_id":"levelo_inurba_marseille","lat":43.298037,"lon":5.381066,"is_reserved":false,"is_disabled":false,"rental_uris":{"android":"levelo://app?vid=a7ba1ddb-852d-4d14-91dd-bfa4afad6f97","ios":"levelo://app?vid=a7ba1ddb-852d-4d14-91dd-bfa4afad6f97"},"vehicle_type_id":"4","last_reported":1719594490,"current_range_meters":10400,"station_id":"ce4bgip2rcd13ifvqbb0","pricing_plan_id":"cebpf4jnsgd1na2vs0mg"},{"bike_id":"713d7b30-cd14-4448-83d2-4680b61aac87","system_id":"levelo_inurba_marseille","lat":43.298037,"lon":5.381066,"is_reserved":false,"is_disabled":false,"rental_uris":{"android":"levelo://app?vid=713d7b30-cd14-4448-83d2-4680b61aac87","ios":"levelo://app?vid=713d7b30-cd14-4448-83d2-4680b61aac87"},"vehicle_type_id":"4","last_reported":1719594490,"current_range_meters":27600,"station_id":"ce4bgip2rcd13ifvqbb0","pricing_plan_id":"cebpf4jnsgd1na2vs0mg"},{"bike_id":"65ec7327-b8f5-4e9a-811e-570922e2f45f","system_id":"levelo_inurba_marseille","lat":43.298037,"lon":5.381066,"is_reserved":false,"is_disabled":false,"rental_uris":{"android":"levelo://app?vid=65ec7327-b8f5-4e9a-811e-570922e2f45f","ios":"levelo://app?vid=65ec7327-b8f5-4e9a-811e-570922e2f45f"},"vehicle_type_id":"4","last_reported":1719594490,"current_range_meters":7600,"station_id":"ce4bgip2rcd13ifvqbb0","pricing_plan_id":"cebpf4jnsgd1na2vs0mg"},{"bike_id":"29ea72f3-fc1e-4c39-888d-334fe10d33d7","system_id":"levelo_inurba_marseille","lat":43.298037,"lon":5.381066,"is_reserved":false,"is_disabled":false,"rental_uris":{"android":"levelo://app?vid=29ea72f3-fc1e-4c39-888d-334fe10d33d7","ios":"levelo://app?vid=29ea72f3-fc1e-4c39-888d-334fe10d33d7"},"vehicle_type_id":"4","last_reported":1719594490,"current_range_meters":0,"station_id":"ce4bgip2rcd13ifvqbb0","pricing_plan_id":"cebpf4jnsgd1na2vs0mg"},{"bike_id":"a7289104-e32d-4a22-bbec-1248e9b493b2","system_id":"levelo_inurba_marseille","lat":43.304274,"lon":5.388873,"is_reserved":false,"is_disabled":false,"rental_uris":{"android":"levelo://app?vid=a7289104-e32d-4a22-bbec-1248e9b493b2","ios":"levelo://app?vid=a7289104-e32d-4a22-bbec-1248e9b493b2"},"vehicle_type_id":"4","last_reported":1719594490,"current_range_meters":10000,"station_id":"ce4bgk12rcd13ifvqbi0","pricing_plan_id":"cebpf4jnsgd1na2vs0mg"},{"bike_id":"320bf8fe-add3-47b5-af2c-9f1c1c5a0bc5","system_id":"levelo_inurba_marseille","lat":43.304278,"lon":5.388868,"is_reserved":false,"is_disabled":false,"rental_uris":{"android":"levelo://app?vid=320bf8fe-add3-47b5-af2c-9f1c1c5a0bc5","ios":"levelo://app?vid=320bf8fe-add3-47b5-af2c-9f1c1c5a0bc5"},"vehicle_type_id":"4","last_reported":1719594490,"current_range_meters":0,"station_id":"ce4bgk12rcd13ifvqbi0","pricing_plan_id":"cebpf4jnsgd1na2vs0mg"},{"bike_id":"6caa23d0-3789-4d6b-9c8d-d78f001500ec","system_id":"levelo_inurba_marseille","lat":43.296263,"lon":5.377094,"is_reserved":false,"is_disabled":false,"rental_uris":{"android":"levelo://app?vid=6caa23d0-3789-4d6b-9c8d-d78f001500ec","ios":"levelo://app?vid=6caa23d0-3789-4d6b-9c8d-d78f001500ec"},"vehicle_type_id":"4","last_reported":1719594490,"current_range_meters":0,"station_id":"ce4bgi92rcd13ifvqb90","pricing_plan_id":"cebpf4jnsgd1na2vs0mg"},{"bike_id":"df83a7a7-33d5-4257-931f-cb78ef3ef386","system_id":"levelo_inurba_marseille","lat":43.29612,"lon":5.377,"is_reserved":false,"is_disabled":false,"rental_uris":{"android":"levelo://app?vid=df83a7a7-33d5-4257-931f-cb78ef3ef386","ios":"levelo://app?vid=df83a7a7-33d5-4257-931f-cb78ef3ef386"},"vehicle_type_id":"4","last_reported":1719594490,"current_range_meters":0,"station_id":"ce4bgi92rcd13ifvqb90","pricing_plan_id":"cebpf4jnsgd1na2vs0mg"},{"bike_id":"bae81f69-3c24-4274-998a-8a3b08e77aee","system_id":"levelo_inurba_marseille","lat":43.298037,"lon":5.381066,"is_reserved":false,"is_disabled":false,"rental_uris":{"android":"levelo://app?vid=bae81f69-3c24-4274-998a-8a3b08e77aee","ios":"levelo://app?vid=bae81f69-3c24-4274-998a-8a3b08e77aee"},"vehicle_type_id":"4","last_reported":1719594490,"current_range_meters":7200,"station_id":"ce4bgip2rcd13ifvqbb0","pricing_plan_id":"cebpf4jnsgd1na2vs0mg"},{"bike_id":"5834dc55-68d2-4d0f-a12d-c9c11f2a2c1c","system_id":"levelo_inurba_marseille","lat":43.296062,"lon":5.377118,"is_reserved":false,"is_disabled":false,"rental_uris":{"android":"levelo://app?vid=5834dc55-68d2-4d0f-a12d-c9c11f2a2c1c","ios":"levelo://app?vid=5834dc55-68d2-4d0f-a12d-c9c11f2a2c1c"},"vehicle_type_id":"4","last_reported":1719594490,"current_range_meters":0,"station_id":"ce4bgi92rcd13ifvqb90","pricing_plan_id":"cebpf4jnsgd1na2vs0mg"},{"bike_id":"96c524b5-5fea-48cc-8433-ae5d29ca8d5d","system_id":"levelo_inurba_marseille","lat":43.296277,"lon":5.377108,"is_reserved":false,"is_disabled":false,"rental_uris":{"android":"levelo://app?vid=96c524b5-5fea-48cc-8433-ae5d29ca8d5d","ios":"levelo://app?vid=96c524b5-5fea-48cc-8433-ae5d29ca8d5d"},"vehicle_type_id":"4","last_reported":1719594490,"current_range_meters":1200,"station_id":"ce4bgi92rcd13ifvqb90","pricing_plan_id":"cebpf4jnsgd1na2vs0mg"},{"bike_id":"c560e996-bc83-4ac9-ae20-ee620ca7a961","system_id":"levelo_inurba_marseille","lat":43.29969,"lon":5.38495,"is_reserved":false,"is_disabled":false,"rental_uris":{"android":"levelo://app?vid=c560e996-bc83-4ac9-ae20-ee620ca7a961","ios":"levelo://app?vid=c560e996-bc83-4ac9-ae20-ee620ca7a961"},"vehicle_type_id":"4","last_reported":1719594490,"current_range_meters":0,"station_id":"ce4bgj92rcd13ifvqbd0","pricing_plan_id":"cebpf4jnsgd1na2vs0mg"},{"bike_id":"a2cbe02a-6210-4896-aa5a-07bb5999d4b5","system_id":"levelo_inurba_marseille","lat":43.2997,"lon":5.38497,"is_reserved":false,"is_disabled":false,"rental_uris":{"android":"levelo://app?vid=a2cbe02a-6210-4896-aa5a-07bb5999d4b5","ios":"levelo://app?vid=a2cbe02a-6210-4896-aa5a-07bb5999d4b5"},"vehicle_type_id":"4","last_reported":1719594490,"current_range_meters":0,"station_id":"ce4bgj92rcd13ifvqbd0","pricing_plan_id":"cebpf4jnsgd1na2vs0mg"},{"bike_id":"12701b2f-e9ab-4d23-86c5-bd5b11e0f5dd","system_id":"levelo_inurba_marseille","lat":43.299673,"lon":5.384948,"is_reserved":false,"is_disabled":false,"rental_uris":{"android":"levelo://app?vid=12701b2f-e9ab-4d23-86c5-bd5b11e0f5dd","ios":"levelo://app?vid=12701b2f-e9ab-4d23-86c5-bd5b11e0f5dd"},"vehicle_type_id":"4","last_reported":1719594490,"current_range_meters":16400,"station_id":"","pricing_plan_id":"cebpf4jnsgd1na2vs0mg"},{"bike_id":"19433d86-670f-427e-8bd3-ab0344621228","system_id":"levelo_inurba_marseille","lat":43.299724,"lon":5.384848,"is_reserved":false,"is_disabled":false,"rental_uris":{"android":"levelo://app?vid=19433d86-670f-427e-8bd3-ab0344621228","ios":"levelo://app?vid=19433d86-670f-427e-8bd3-ab0344621228"},"vehicle_type_id":"4","last_reported":1719594490,"current_range_meters":11200,"station_id":"ce4bgj92rcd13ifvqbd0","pricing_plan_id":"cebpf4jnsgd1na2vs0mg"},{"bike_id":"4ac88047-3901-408b-bffe-ed4e27734f50","system_id":"levelo_inurba_marseille","lat":43.29966,"lon":5.38498,"is_reserved":false,"is_disabled":false,"rental_uris":{"android":"levelo://app?vid=4ac88047-3901-408b-bffe-ed4e27734f50","ios":"levelo://app?vid=4ac88047-3901-408b-bffe-ed4e27734f50"},"vehicle_type_id":"4","last_reported":1719594490,"current_range_meters":0,"station_id":"ce4bgj92rcd13ifvqbd0","pricing_plan_id":"cebpf4jnsgd1na2vs0mg"},{"bike_id":"468effaa-c61f-4044-9895-ab098acf3238","system_id":"levelo_inurba_marseille","lat":43.29965,"lon":5.385,"is_reserved":false,"is_disabled":false,"rental_uris":{"android":"levelo://app?vid=468effaa-c61f-4044-9895-ab098acf3238","ios":"levelo://app?vid=468effaa-c61f-4044-9895-ab098acf3238"},"vehicle_type_id":"4","last_reported":1719594490,"current_range_meters":0,"station_id":"ce4bgj92rcd13ifvqbd0","pricing_plan_id":"cebpf4jnsgd1na2vs0mg"},{"bike_id":"49538d0e-0ccc-4c04-8824-db79411ccde2","system_id":"levelo_inurba_marseille","lat":43.299724,"lon":5.384848,"is_reserved":false,"is_disabled":false,"rental_uris":{"android":"levelo://app?vid=49538d0e-0ccc-4c04-8824-db79411ccde2","ios":"levelo://app?vid=49538d0e-0ccc-4c04-8824-db79411ccde2"},"vehicle_type_id":"4","last_reported":1719594490,"current_range_meters":800,"station_id":"ce4bgj92rcd13ifvqbd0","pricing_plan_id":"cebpf4jnsgd1na2vs0mg"},{"bike_id":"4f80785a-32f8-47e3-a179-74404053d5bf","system_id":"levelo_inurba_marseille","lat":43.299724,"lon":5.384848,"is_reserved":false,"is_disabled":false,"rental_uris":{"android":"levelo://app?vid=4f80785a-32f8-47e3-a179-74404053d5bf","ios":"levelo://app?vid=4f80785a-32f8-47e3-a179-74404053d5bf"},"vehicle_type_id":"4","last_reported":1719594490,"current_range_meters":0,"station_id":"ce4bgj92rcd13ifvqbd0","pricing_plan_id":"cebpf4jnsgd1na2vs0mg"},{"bike_id":"0b8f4579-2eaa-4485-819d-cd6656c5d5f2","system_id":"levelo_inurba_marseille","lat":43.301396,"lon":5.387812,"is_reserved":false,"is_disabled":false,"rental_uris":{"android":"levelo://app?vid=0b8f4579-2eaa-4485-819d-cd6656c5d5f2","ios":"levelo://app?vid=0b8f4579-2eaa-4485-819d-cd6656c5d5f2"},"vehicle_type_id":"4","last_reported":1719594490,"current_range_meters":25600,"station_id":"ce4bghh2rcd13ifvqb60","pricing_plan_id":"cebpf4jnsgd1na2vs0mg"},{"bike_id":"0f7fc794-c632-44fc-a763-71aa8dff4862","system_id":"levelo_inurba_marseille","lat":43.32367,"lon":5.388836,"is_reserved":false,"is_disabled":false,"rental_uris":{"android":"levelo://app?vid=0f7fc794-c632-44fc-a763-71aa8dff4862","ios":"levelo://app?vid=0f7fc794-c632-44fc-a763-71aa8dff4862"},"vehicle_type_id":"4","last_reported":1719594490,"current_range_meters":0,"station_id":"ce4bhqp2rcd13ifvqhog","pricing_plan_id":"cebpf4jnsgd1na2vs0mg"},{"bike_id":"cc0b672f-ba38-43f2-bd6a-e9f11261f90b","system_id":"levelo_inurba_marseille","lat":43.32367,"lon":5.388836,"is_reserved":false,"is_disabled":false,"rental_uris":{"android":"levelo://app?vid=cc0b672f-ba38-43f2-bd6a-e9f11261f90b","ios":"levelo://app?vid=cc0b672f-ba38-43f2-bd6a-e9f11261f90b"},"vehicle_type_id":"4","last_reported":1719594490,"current_range_meters":4800,"station_id":"ce4bhqp2rcd13ifvqhog","pricing_plan_id":"cebpf4jnsgd1na2vs0mg"},{"bike_id":"5e6d1754-946f-4246-854b-caf89f2ed5a9","system_id":"levelo_inurba_marseille","lat":43.32367,"lon":5.388836,"is_reserved":false,"is_disabled":false,"rental_uris":{"android":"levelo://app?vid=5e6d1754-946f-4246-854b-caf89f2ed5a9","ios":"levelo://app?vid=5e6d1754-946f-4246-854b-caf89f2ed5a9"},"vehicle_type_id":"4","last_reported":1719594490,"current_range_meters":21600,"station_id":"ce4bhqp2rcd13ifvqhog","pricing_plan_id":"cebpf4jnsgd1na2vs0mg"},{"bike_id":"0ad3234b-5262-4050-ba88-b8c72d44a3b7","system_id":"levelo_inurba_marseille","lat":43.32367,"lon":5.388836,"is_reserved":false,"is_disabled":false,"rental_uris":{"android":"levelo://app?vid=0ad3234b-5262-4050-ba88-b8c72d44a3b7","ios":"levelo://app?vid=0ad3234b-5262-4050-ba88-b8c72d44a3b7"},"vehicle_type_id":"4","last_reported":1719594490,"current_range_meters":6800,"station_id":"ce4bhqp2rcd13ifvqhog","pricing_plan_id":"cebpf4jnsgd1na2vs0mg"},{"bike_id":"81af51a8-7a31-45b2-a2ed-4c9620f68fab","system_id":"levelo_inurba_marseille","lat":43.30584,"lon":5.39205,"is_reserved":false,"is_disabled":false,"rental_uris":{"android":"levelo://app?vid=81af51a8-7a31-45b2-a2ed-4c9620f68fab","ios":"levelo://app?vid=81af51a8-7a31-45b2-a2ed-4c9620f68fab"},"vehicle_type_id":"4","last_reported":1719594490,"current_range_meters":6800,"station_id":"","pricing_plan_id":"cebpf4jnsgd1na2vs0mg"},{"bike_id":"bd62125d-5dfd-40a9-a4bd-d9969cdffe04","system_id":"levelo_inurba_marseille","lat":43.29608,"lon":5.38111,"is_reserved":false,"is_disabled":false,"rental_uris":{"android":"levelo://app?vid=bd62125d-5dfd-40a9-a4bd-d9969cdffe04","ios":"levelo://app?vid=bd62125d-5dfd-40a9-a4bd-d9969cdffe04"},"vehicle_type_id":"4","last_reported":1719594490,"current_range_meters":24000,"station_id":"ce4bgl12rcd13ifvqbo0","pricing_plan_id":"cebpf4jnsgd1na2vs0mg"},{"bike_id":"765f16f2-6331-45d1-b62d-f7bc239dfc76","system_id":"levelo_inurba_marseille","lat":43.29602,"lon":5.381084,"is_reserved":false,"is_disabled":false,"rental_uris":{"android":"levelo://app?vid=765f16f2-6331-45d1-b62d-f7bc239dfc76","ios":"levelo://app?vid=765f16f2-6331-45d1-b62d-f7bc239dfc76"},"vehicle_type_id":"4","last_reported":1719594490,"current_range_meters":28400,"station_id":"ce4bgl12rcd13ifvqbo0","pricing_plan_id":"cebpf4jnsgd1na2vs0mg"},{"bike_id":"68a120ef-4f05-4cff-8e46-dae702b5f8b6","system_id":"levelo_inurba_marseille","lat":43.29596,"lon":5.38102,"is_reserved":false,"is_disabled":false,"rental_uris":{"android":"levelo://app?vid=68a120ef-4f05-4cff-8e46-dae702b5f8b6","ios":"levelo://app?vid=68a120ef-4f05-4cff-8e46-dae702b5f8b6"},"vehicle_type_id":"4","last_reported":1719594490,"current_range_meters":28400,"station_id":"ce4bgl12rcd13ifvqbo0","pricing_plan_id":"cebpf4jnsgd1na2vs0mg"},{"bike_id":"abd8664a-b7d2-4a1b-9576-564850e9c2aa","system_id":"levelo_inurba_marseille","lat":43.29596,"lon":5.38103,"is_reserved":false,"is_disabled":false,"rental_uris":{"android":"levelo://app?vid=abd8664a-b7d2-4a1b-9576-564850e9c2aa","ios":"levelo://app?vid=abd8664a-b7d2-4a1b-9576-564850e9c2aa"},"vehicle_type_id":"4","last_reported":1719594490,"current_range_meters":21200,"station_id":"ce4bgl12rcd13ifvqbo0","pricing_plan_id":"cebpf4jnsgd1na2vs0mg"},{"bike_id":"5f246656-736f-4ee0-91c5-2b171c5f1004","system_id":"levelo_inurba_marseille","lat":43.29602,"lon":5.381084,"is_reserved":false,"is_disabled":false,"rental_uris":{"android":"levelo://app?vid=5f246656-736f-4ee0-91c5-2b171c5f1004","ios":"levelo://app?vid=5f246656-736f-4ee0-91c5-2b171c5f1004"},"vehicle_type_id":"4","last_reported":1719594490,"current_range_meters":2000,"station_id":"ce4bgl12rcd13ifvqbo0","pricing_plan_id":"cebpf4jnsgd1na2vs0mg"},{"bike_id":"e4ec2326-6db8-4ffc-94eb-edbbfa84b64d","system_id":"levelo_inurba_marseille","lat":43.293259,"lon":5.371586,"is_reserved":false,"is_disabled":false,"rental_uris":{"android":"levelo://app?vid=e4ec2326-6db8-4ffc-94eb-edbbfa84b64d","ios":"levelo://app?vid=e4ec2326-6db8-4ffc-94eb-edbbfa84b64d"},"vehicle_type_id":"4","last_reported":1719594490,"current_range_meters":5200,"station_id":"ce4bgh92rcd13ifvqb40","pricing_plan_id":"cebpf4jnsgd1na2vs0mg"},{"bike_id":"c4afdce8-1e30-459c-ac08-59e8a06817be","system_id":"levelo_inurba_marseille","lat":43.293259,"lon":5.371586,"is_reserved":false,"is_disabled":false,"rental_uris":{"android":"levelo://app?vid=c4afdce8-1e30-459c-ac08-59e8a06817be","ios":"levelo://app?vid=c4afdce8-1e30-459c-ac08-59e8a06817be"},"vehicle_type_id":"4","last_reported":1719594490,"current_range_meters":3600,"station_id":"ce4bgh92rcd13ifvqb40","pricing_plan_id":"cebpf4jnsgd1na2vs0mg"},{"bike_id":"1ca1f08b-9b5b-4e8c-bd9c-d7bc1bc7fbce","system_id":"levelo_inurba_marseille","lat":43.292749,"lon":5.368402,"is_reserved":false,"is_disabled":false,"rental_uris":{"android":"levelo://app?vid=1ca1f08b-9b5b-4e8c-bd9c-d7bc1bc7fbce","ios":"levelo://app?vid=1ca1f08b-9b5b-4e8c-bd9c-d7bc1bc7fbce"},"vehicle_type_id":"4","last_reported":1719594490,"current_range_meters":18800,"station_id":"ce4bhbp2rcd13ifvqesg","pricing_plan_id":"cebpf4jnsgd1na2vs0mg"},{"bike_id":"b0f1d425-dece-4035-b892-13372c34f7af","system_id":"levelo_inurba_marseille","lat":43.29459,"lon":5.37933,"is_reserved":false,"is_disabled":false,"rental_uris":{"android":"levelo://app?vid=b0f1d425-dece-4035-b892-13372c34f7af","ios":"levelo://app?vid=b0f1d425-dece-4035-b892-13372c34f7af"},"vehicle_type_id":"4","last_reported":1719594490,"current_range_meters":7600,"station_id":"","pricing_plan_id":"cebpf4jnsgd1na2vs0mg"},{"bike_id":"3c0406ef-958a-41d3-be71-8acae7d73922","system_id":"levelo_inurba_marseille","lat":43.293009,"lon":5.374584,"is_reserved":false,"is_disabled":false,"rental_uris":{"android":"levelo://app?vid=3c0406ef-958a-41d3-be71-8acae7d73922","ios":"levelo://app?vid=3c0406ef-958a-41d3-be71-8acae7d73922"},"vehicle_type_id":"4","last_reported":1719594490,"current_range_meters":1200,"station_id":"ce4bgi12rcd13ifvqb70","pricing_plan_id":"cebpf4jnsgd1na2vs0mg"},{"bike_id":"15830a40-7a28-48e4-9a54-a867995d727f","system_id":"levelo_inurba_marseille","lat":43.29297,"lon":5.37449,"is_reserved":false,"is_disabled":false,"rental_uris":{"android":"levelo://app?vid=15830a40-7a28-48e4-9a54-a867995d727f","ios":"levelo://app?vid=15830a40-7a28-48e4-9a54-a867995d727f"},"vehicle_type_id":"4","last_reported":1719594490,"current_range_meters":0,"station_id":"ce4bgi12rcd13ifvqb70","pricing_plan_id":"cebpf4jnsgd1na2vs0mg"},{"bike_id":"ffcc096d-3318-4c29-b66e-dcb0d3f7f1dd","system_id":"levelo_inurba_marseille","lat":43.29296,"lon":5.3745,"is_reserved":false,"is_disabled":false,"rental_uris":{"android":"levelo://app?vid=ffcc096d-3318-4c29-b66e-dcb0d3f7f1dd","ios":"levelo://app?vid=ffcc096d-3318-4c29-b66e-dcb0d3f7f1dd"},"vehicle_type_id":"4","last_reported":1719594490,"current_range_meters":14000,"station_id":"ce4bgi12rcd13ifvqb70","pricing_plan_id":"cebpf4jnsgd1na2vs0mg"},{"bike_id":"4687bb3a-08bc-495c-81c5-39a52884cbe0","system_id":"levelo_inurba_marseille","lat":43.2936,"lon":5.37835,"is_reserved":false,"is_disabled":false,"rental_uris":{"android":"levelo://app?vid=4687bb3a-08bc-495c-81c5-39a52884cbe0","ios":"levelo://app?vid=4687bb3a-08bc-495c-81c5-39a52884cbe0"},"vehicle_type_id":"4","last_reported":1719594490,"current_range_meters":15200,"station_id":"ce4bgjh2rcd13ifvqbf0","pricing_plan_id":"cebpf4jnsgd1na2vs0mg"},{"bike_id":"2242f5b2-b142-49e8-b12f-f84286f8f8ab","system_id":"levelo_inurba_marseille","lat":43.292311,"lon":5.360731,"is_reserved":false,"is_disabled":false,"rental_uris":{"android":"levelo://app?vid=2242f5b2-b142-49e8-b12f-f84286f8f8ab","ios":"levelo://app?vid=2242f5b2-b142-49e8-b12f-f84286f8f8ab"},"vehicle_type_id":"4","last_reported":1719594490,"current_range_meters":26800,"station_id":"ce4bhbh2rcd13ifvqeqg","pricing_plan_id":"cebpf4jnsgd1na2vs0mg"},{"bike_id":"921df33e-d15e-4d64-8c8d-46678c2bf589","system_id":"levelo_inurba_marseille","lat":43.2936,"lon":5.37835,"is_reserved":false,"is_disabled":false,"rental_uris":{"android":"levelo://app?vid=921df33e-d15e-4d64-8c8d-46678c2bf589","ios":"levelo://app?vid=921df33e-d15e-4d64-8c8d-46678c2bf589"},"vehicle_type_id":"4","last_reported":1719594490,"current_range_meters":0,"station_id":"ce4bgjh2rcd13ifvqbf0","pricing_plan_id":"cebpf4jnsgd1na2vs0mg"},{"bike_id":"e2862693-18d3-4239-bbbb-62e393a2e9fc","system_id":"levelo_inurba_marseille","lat":43.292311,"lon":5.360731,"is_reserved":false,"is_disabled":false,"rental_uris":{"android":"levelo://app?vid=e2862693-18d3-4239-bbbb-62e393a2e9fc","ios":"levelo://app?vid=e2862693-18d3-4239-bbbb-62e393a2e9fc"},"vehicle_type_id":"4","last_reported":1719594490,"current_range_meters":5600,"station_id":"ce4bhbh2rcd13ifvqeqg","pricing_plan_id":"cebpf4jnsgd1na2vs0mg"},{"bike_id":"53338fed-5776-4d38-a7a0-8aa669021b85","system_id":"levelo_inurba_marseille","lat":43.292311,"lon":5.360731,"is_reserved":false,"is_disabled":false,"rental_uris":{"android":"levelo://app?vid=53338fed-5776-4d38-a7a0-8aa669021b85","ios":"levelo://app?vid=53338fed-5776-4d38-a7a0-8aa669021b85"},"vehicle_type_id":"4","last_reported":1719594490,"current_range_meters":10400,"station_id":"ce4bhbh2rcd13ifvqeqg","pricing_plan_id":"cebpf4jnsgd1na2vs0mg"},{"bike_id":"ce1bea56-8812-4dd2-862a-29c6bc064397","system_id":"levelo_inurba_marseille","lat":43.30095,"lon":5.39078,"is_reserved":false,"is_disabled":false,"rental_uris":{"android":"levelo://app?vid=ce1bea56-8812-4dd2-862a-29c6bc064397","ios":"levelo://app?vid=ce1bea56-8812-4dd2-862a-29c6bc064397"},"vehicle_type_id":"4","last_reported":1719594490,"current_range_meters":0,"station_id":"ce4bh192rcd13ifvqdb0","pricing_plan_id":"cebpf4jnsgd1na2vs0mg"},{"bike_id":"647396a7-da56-466d-bdf1-8fb122a46398","system_id":"levelo_inurba_marseille","lat":43.292311,"lon":5.360731,"is_reserved":false,"is_disabled":false,"rental_uris":{"android":"levelo://app?vid=647396a7-da56-466d-bdf1-8fb122a46398","ios":"levelo://app?vid=647396a7-da56-466d-bdf1-8fb122a46398"},"vehicle_type_id":"4","last_reported":1719594490,"current_range_meters":1600,"station_id":"ce4bhbh2rcd13ifvqeqg","pricing_plan_id":"cebpf4jnsgd1na2vs0mg"},{"bike_id":"eff08d72-d4e0-489d-a35e-b6a0641392b1","system_id":"levelo_inurba_marseille","lat":43.298764,"lon":5.388973,"is_reserved":false,"is_disabled":false,"rental_uris":{"android":"levelo://app?vid=eff08d72-d4e0-489d-a35e-b6a0641392b1","ios":"levelo://app?vid=eff08d72-d4e0-489d-a35e-b6a0641392b1"},"vehicle_type_id":"4","last_reported":1719594490,"current_range_meters":4800,"station_id":"ce4bh392rcd13ifvqdl0","pricing_plan_id":"cebpf4jnsgd1na2vs0mg"},{"bike_id":"8769442a-41db-4ba0-b6fb-eddef6cf9162","system_id":"levelo_inurba_marseille","lat":43.291675,"lon":5.371583,"is_reserved":false,"is_disabled":false,"rental_uris":{"android":"levelo://app?vid=8769442a-41db-4ba0-b6fb-eddef6cf9162","ios":"levelo://app?vid=8769442a-41db-4ba0-b6fb-eddef6cf9162"},"vehicle_type_id":"4","last_reported":1719594490,"current_range_meters":2000,"station_id":"ce4bha92rcd13ifvqeh0","pricing_plan_id":"cebpf4jnsgd1na2vs0mg"},{"bike_id":"3ca9ff62-1144-48f3-9352-fdc81bc965b4","system_id":"levelo_inurba_marseille","lat":43.29873,"lon":5.38906,"is_reserved":false,"is_disabled":false,"rental_uris":{"android":"levelo://app?vid=3ca9ff62-1144-48f3-9352-fdc81bc965b4","ios":"levelo://app?vid=3ca9ff62-1144-48f3-9352-fdc81bc965b4"},"vehicle_type_id":"4","last_reported":1719594490,"current_range_meters":1600,"station_id":"ce4bh392rcd13ifvqdl0","pricing_plan_id":"cebpf4jnsgd1na2vs0mg"},{"bike_id":"4f334489-b583-4cd2-817c-c7287d70110d","system_id":"levelo_inurba_marseille","lat":43.291675,"lon":5.371583,"is_reserved":false,"is_disabled":false,"rental_uris":{"android":"levelo://app?vid=4f334489-b583-4cd2-817c-c7287d70110d","ios":"levelo://app?vid=4f334489-b583-4cd2-817c-c7287d70110d"},"vehicle_type_id":"4","last_reported":1719594490,"current_range_meters":20800,"station_id":"ce4bha92rcd13ifvqeh0","pricing_plan_id":"cebpf4jnsgd1na2vs0mg"},{"bike_id":"be3386a9-2bc4-486d-9583-e3a89a561aae","system_id":"levelo_inurba_marseille","lat":43.298764,"lon":5.388973,"is_reserved":false,"is_disabled":false,"rental_uris":{"android":"levelo://app?vid=be3386a9-2bc4-486d-9583-e3a89a561aae","ios":"levelo://app?vid=be3386a9-2bc4-486d-9583-e3a89a561aae"},"vehicle_type_id":"4","last_reported":1719594490,"current_range_meters":6400,"station_id":"ce4bh392rcd13ifvqdl0","pricing_plan_id":"cebpf4jnsgd1na2vs0mg"},{"bike_id":"77407735-68e3-4bc7-8357-0c6f078596b1","system_id":"levelo_inurba_marseille","lat":43.30111,"lon":5.39185,"is_reserved":false,"is_disabled":false,"rental_uris":{"android":"levelo://app?vid=77407735-68e3-4bc7-8357-0c6f078596b1","ios":"levelo://app?vid=77407735-68e3-4bc7-8357-0c6f078596b1"},"vehicle_type_id":"4","last_reported":1719594490,"current_range_meters":10400,"station_id":"","pricing_plan_id":"cebpf4jnsgd1na2vs0mg"},{"bike_id":"e2002ba5-8580-42a6-bd15-4694c1352fbe","system_id":"levelo_inurba_marseille","lat":43.313291,"lon":5.396838,"is_reserved":false,"is_disabled":false,"rental_uris":{"android":"levelo://app?vid=e2002ba5-8580-42a6-bd15-4694c1352fbe","ios":"levelo://app?vid=e2002ba5-8580-42a6-bd15-4694c1352fbe"},"vehicle_type_id":"4","last_reported":1719594490,"current_range_meters":14000,"station_id":"ce4bgvp2rcd13ifvqcu0","pricing_plan_id":"cebpf4jnsgd1na2vs0mg"},{"bike_id":"41e6b3c0-d6d4-47e0-a15d-6c81fd0527e3","system_id":"levelo_inurba_marseille","lat":43.3088,"lon":5.39623,"is_reserved":false,"is_disabled":false,"rental_uris":{"android":"levelo://app?vid=41e6b3c0-d6d4-47e0-a15d-6c81fd0527e3","ios":"levelo://app?vid=41e6b3c0-d6d4-47e0-a15d-6c81fd0527e3"},"vehicle_type_id":"4","last_reported":1719594490,"current_range_meters":12000,"station_id":"ce4bh012rcd13ifvqcv0","pricing_plan_id":"cebpf4jnsgd1na2vs0mg"},{"bike_id":"fd21b812-bfeb-4aef-838e-6cabae4002ec","system_id":"levelo_inurba_marseille","lat":43.29197,"lon":5.3581,"is_reserved":false,"is_disabled":false,"rental_uris":{"android":"levelo://app?vid=fd21b812-bfeb-4aef-838e-6cabae4002ec","ios":"levelo://app?vid=fd21b812-bfeb-4aef-838e-6cabae4002ec"},"vehicle_type_id":"4","last_reported":1719594490,"current_range_meters":22000,"station_id":"ce4bhb12rcd13ifvqel0","pricing_plan_id":"cebpf4jnsgd1na2vs0mg"},{"bike_id":"df943b28-4fde-44b4-b041-461ad75f4ccb","system_id":"levelo_inurba_marseille","lat":43.29198,"lon":5.35798,"is_reserved":false,"is_disabled":false,"rental_uris":{"android":"levelo://app?vid=df943b28-4fde-44b4-b041-461ad75f4ccb","ios":"levelo://app?vid=df943b28-4fde-44b4-b041-461ad75f4ccb"},"vehicle_type_id":"4","last_reported":1719594490,"current_range_meters":27200,"station_id":"ce4bhb12rcd13ifvqel0","pricing_plan_id":"cebpf4jnsgd1na2vs0mg"},{"bike_id":"adbd8612-cfd6-479d-bf4c-3190fdcd6275","system_id":"levelo_inurba_marseille","lat":43.29196,"lon":5.3579,"is_reserved":false,"is_disabled":false,"rental_uris":{"android":"levelo://app?vid=adbd8612-cfd6-479d-bf4c-3190fdcd6275","ios":"levelo://app?vid=adbd8612-cfd6-479d-bf4c-3190fdcd6275"},"vehicle_type_id":"4","last_reported":1719594490,"current_range_meters":5200,"station_id":"ce4bhb12rcd13ifvqel0","pricing_plan_id":"cebpf4jnsgd1na2vs0mg"},{"bike_id":"d8e373d0-bf7c-4b13-ac9a-7dd3f14a705b","system_id":"levelo_inurba_marseille","lat":43.29195,"lon":5.35792,"is_reserved":false,"is_disabled":false,"rental_uris":{"android":"levelo://app?vid=d8e373d0-bf7c-4b13-ac9a-7dd3f14a705b","ios":"levelo://app?vid=d8e373d0-bf7c-4b13-ac9a-7dd3f14a705b"},"vehicle_type_id":"4","last_reported":1719594490,"current_range_meters":27200,"station_id":"ce4bhb12rcd13ifvqel0","pricing_plan_id":"cebpf4jnsgd1na2vs0mg"},{"bike_id":"2f6337f9-af35-4731-9d06-da18b10bca92","system_id":"levelo_inurba_marseille","lat":43.309038,"lon":5.396546,"is_reserved":false,"is_disabled":false,"rental_uris":{"android":"levelo://app?vid=2f6337f9-af35-4731-9d06-da18b10bca92","ios":"levelo://app?vid=2f6337f9-af35-4731-9d06-da18b10bca92"},"vehicle_type_id":"4","last_reported":1719594490,"current_range_meters":19200,"station_id":"ce4bh012rcd13ifvqcv0","pricing_plan_id":"cebpf4jnsgd1na2vs0mg"},{"bike_id":"89fb3659-eb17-4de2-b644-8253c3f167f1","system_id":"levelo_inurba_marseille","lat":43.292005,"lon":5.357875,"is_reserved":false,"is_disabled":false,"rental_uris":{"android":"levelo://app?vid=89fb3659-eb17-4de2-b644-8253c3f167f1","ios":"levelo://app?vid=89fb3659-eb17-4de2-b644-8253c3f167f1"},"vehicle_type_id":"4","last_reported":1719594490,"current_range_meters":30400,"station_id":"ce4bhb12rcd13ifvqel0","pricing_plan_id":"cebpf4jnsgd1na2vs0mg"},{"bike_id":"5243f871-79e5-4f8f-aa5c-6b871f2889c2","system_id":"levelo_inurba_marseille","lat":43.29189,"lon":5.35807,"is_reserved":false,"is_disabled":false,"rental_uris":{"android":"levelo://app?vid=5243f871-79e5-4f8f-aa5c-6b871f2889c2","ios":"levelo://app?vid=5243f871-79e5-4f8f-aa5c-6b871f2889c2"},"vehicle_type_id":"4","last_reported":1719594490,"current_range_meters":26800,"station_id":"ce4bhb12rcd13ifvqel0","pricing_plan_id":"cebpf4jnsgd1na2vs0mg"},{"bike_id":"d5cb139b-2da2-4900-8ee8-653fdccda6d1","system_id":"levelo_inurba_marseille","lat":43.313291,"lon":5.396838,"is_reserved":false,"is_disabled":false,"rental_uris":{"android":"levelo://app?vid=d5cb139b-2da2-4900-8ee8-653fdccda6d1","ios":"levelo://app?vid=d5cb139b-2da2-4900-8ee8-653fdccda6d1"},"vehicle_type_id":"4","last_reported":1719594490,"current_range_meters":800,"station_id":"ce4bgvp2rcd13ifvqcu0","pricing_plan_id":"cebpf4jnsgd1na2vs0mg"},{"bike_id":"e9742bbf-c6c1-4e7d-a2ea-da9f75bfa877","system_id":"levelo_inurba_marseille","lat":43.313291,"lon":5.396838,"is_reserved":false,"is_disabled":false,"rental_uris":{"android":"levelo://app?vid=e9742bbf-c6c1-4e7d-a2ea-da9f75bfa877","ios":"levelo://app?vid=e9742bbf-c6c1-4e7d-a2ea-da9f75bfa877"},"vehicle_type_id":"4","last_reported":1719594490,"current_range_meters":14800,"station_id":"ce4bgvp2rcd13ifvqcu0","pricing_plan_id":"cebpf4jnsgd1na2vs0mg"},{"bike_id":"792b611e-97fa-4c6d-97a6-d803229cc75f","system_id":"levelo_inurba_marseille","lat":43.313291,"lon":5.396838,"is_reserved":false,"is_disabled":false,"rental_uris":{"android":"levelo://app?vid=792b611e-97fa-4c6d-97a6-d803229cc75f","ios":"levelo://app?vid=792b611e-97fa-4c6d-97a6-d803229cc75f"},"vehicle_type_id":"4","last_reported":1719594490,"current_range_meters":31600,"station_id":"ce4bgvp2rcd13ifvqcu0","pricing_plan_id":"cebpf4jnsgd1na2vs0mg"},{"bike_id":"e931383e-8b09-4d02-9dc9-6341bf2cab67","system_id":"levelo_inurba_marseille","lat":43.29529,"lon":5.385581,"is_reserved":false,"is_disabled":false,"rental_uris":{"android":"levelo://app?vid=e931383e-8b09-4d02-9dc9-6341bf2cab67","ios":"levelo://app?vid=e931383e-8b09-4d02-9dc9-6341bf2cab67"},"vehicle_type_id":"4","last_reported":1719594490,"current_range_meters":2400,"station_id":"ce4bgih2rcd13ifvqba0","pricing_plan_id":"cebpf4jnsgd1na2vs0mg"},{"bike_id":"f12d6879-5a70-4cde-ab73-e3d7b013d983","system_id":"levelo_inurba_marseille","lat":43.29529,"lon":5.385581,"is_reserved":false,"is_disabled":false,"rental_uris":{"android":"levelo://app?vid=f12d6879-5a70-4cde-ab73-e3d7b013d983","ios":"levelo://app?vid=f12d6879-5a70-4cde-ab73-e3d7b013d983"},"vehicle_type_id":"4","last_reported":1719594490,"current_range_meters":2000,"station_id":"ce4bgih2rcd13ifvqba0","pricing_plan_id":"cebpf4jnsgd1na2vs0mg"},{"bike_id":"caf7497d-0ef7-49bc-b707-8a0749072a43","system_id":"levelo_inurba_marseille","lat":43.29529,"lon":5.385581,"is_reserved":false,"is_disabled":false,"rental_uris":{"android":"levelo://app?vid=caf7497d-0ef7-49bc-b707-8a0749072a43","ios":"levelo://app?vid=caf7497d-0ef7-49bc-b707-8a0749072a43"},"vehicle_type_id":"4","last_reported":1719594490,"current_range_meters":1200,"station_id":"ce4bgih2rcd13ifvqba0","pricing_plan_id":"cebpf4jnsgd1na2vs0mg"},{"bike_id":"3b92b428-f2a7-4311-b4dc-962207dd4787","system_id":"levelo_inurba_marseille","lat":43.29532,"lon":5.38549,"is_reserved":false,"is_disabled":false,"rental_uris":{"android":"levelo://app?vid=3b92b428-f2a7-4311-b4dc-962207dd4787","ios":"levelo://app?vid=3b92b428-f2a7-4311-b4dc-962207dd4787"},"vehicle_type_id":"4","last_reported":1719594490,"current_range_meters":0,"station_id":"ce4bgih2rcd13ifvqba0","pricing_plan_id":"cebpf4jnsgd1na2vs0mg"},{"bike_id":"4fe0a57c-14f3-4282-a236-5a255a8d3a6b","system_id":"levelo_inurba_marseille","lat":43.29529,"lon":5.385581,"is_reserved":false,"is_disabled":false,"rental_uris":{"android":"levelo://app?vid=4fe0a57c-14f3-4282-a236-5a255a8d3a6b","ios":"levelo://app?vid=4fe0a57c-14f3-4282-a236-5a255a8d3a6b"},"vehicle_type_id":"4","last_reported":1719594490,"current_range_meters":28000,"station_id":"ce4bgih2rcd13ifvqba0","pricing_plan_id":"cebpf4jnsgd1na2vs0mg"},{"bike_id":"03d7ad3e-6d75-4c37-879b-d3a40d1f57d3","system_id":"levelo_inurba_marseille","lat":43.29529,"lon":5.385581,"is_reserved":false,"is_disabled":false,"rental_uris":{"android":"levelo://app?vid=03d7ad3e-6d75-4c37-879b-d3a40d1f57d3","ios":"levelo://app?vid=03d7ad3e-6d75-4c37-879b-d3a40d1f57d3"},"vehicle_type_id":"4","last_reported":1719594490,"current_range_meters":11200,"station_id":"ce4bgih2rcd13ifvqba0","pricing_plan_id":"cebpf4jnsgd1na2vs0mg"},{"bike_id":"310a9e75-324b-4b78-a672-f3abc1dcbb2b","system_id":"levelo_inurba_marseille","lat":43.29529,"lon":5.385581,"is_reserved":false,"is_disabled":false,"rental_uris":{"android":"levelo://app?vid=310a9e75-324b-4b78-a672-f3abc1dcbb2b","ios":"levelo://app?vid=310a9e75-324b-4b78-a672-f3abc1dcbb2b"},"vehicle_type_id":"4","last_reported":1719594490,"current_range_meters":3200,"station_id":"ce4bgih2rcd13ifvqba0","pricing_plan_id":"cebpf4jnsgd1na2vs0mg"},{"bike_id":"ec1d062a-2e4b-4475-ae91-571c409a5a96","system_id":"levelo_inurba_marseille","lat":43.29529,"lon":5.385581,"is_reserved":false,"is_disabled":false,"rental_uris":{"android":"levelo://app?vid=ec1d062a-2e4b-4475-ae91-571c409a5a96","ios":"levelo://app?vid=ec1d062a-2e4b-4475-ae91-571c409a5a96"},"vehicle_type_id":"4","last_reported":1719594490,"current_range_meters":20400,"station_id":"ce4bgih2rcd13ifvqba0","pricing_plan_id":"cebpf4jnsgd1na2vs0mg"},{"bike_id":"51d534de-55d7-4071-b45e-aae9b0f94833","system_id":"levelo_inurba_marseille","lat":43.290779,"lon":5.371482,"is_reserved":false,"is_disabled":false,"rental_uris":{"android":"levelo://app?vid=51d534de-55d7-4071-b45e-aae9b0f94833","ios":"levelo://app?vid=51d534de-55d7-4071-b45e-aae9b0f94833"},"vehicle_type_id":"4","last_reported":1719594490,"current_range_meters":12000,"station_id":"ce4bh5p2rcd13ifvqe4g","pricing_plan_id":"cebpf4jnsgd1na2vs0mg"},{"bike_id":"beccfb87-d05c-441d-b0c3-bbbc02654237","system_id":"levelo_inurba_marseille","lat":43.290779,"lon":5.371482,"is_reserved":false,"is_disabled":false,"rental_uris":{"android":"levelo://app?vid=beccfb87-d05c-441d-b0c3-bbbc02654237","ios":"levelo://app?vid=beccfb87-d05c-441d-b0c3-bbbc02654237"},"vehicle_type_id":"4","last_reported":1719594490,"current_range_meters":20000,"station_id":"ce4bh5p2rcd13ifvqe4g","pricing_plan_id":"cebpf4jnsgd1na2vs0mg"},{"bike_id":"01a7a51f-e04f-4408-acab-0af2d475bd5c","system_id":"levelo_inurba_marseille","lat":43.290779,"lon":5.371482,"is_reserved":false,"is_disabled":false,"rental_uris":{"android":"levelo://app?vid=01a7a51f-e04f-4408-acab-0af2d475bd5c","ios":"levelo://app?vid=01a7a51f-e04f-4408-acab-0af2d475bd5c"},"vehicle_type_id":"4","last_reported":1719594490,"current_range_meters":12000,"station_id":"ce4bh5p2rcd13ifvqe4g","pricing_plan_id":"cebpf4jnsgd1na2vs0mg"},{"bike_id":"5b098403-84e1-4636-87a7-98a3cf633fa3","system_id":"levelo_inurba_marseille","lat":43.298037,"lon":5.381066,"is_reserved":false,"is_disabled":false,"rental_uris":{"android":"levelo://app?vid=5b098403-84e1-4636-87a7-98a3cf633fa3","ios":"levelo://app?vid=5b098403-84e1-4636-87a7-98a3cf633fa3"},"vehicle_type_id":"4","last_reported":1719594490,"current_range_meters":18000,"station_id":"ce4bgip2rcd13ifvqbb0","pricing_plan_id":"cebpf4jnsgd1na2vs0mg"},{"bike_id":"d2777f5f-ccae-4dd0-b01a-fda4c888da94","system_id":"levelo_inurba_marseille","lat":43.290624,"lon":5.359245,"is_reserved":false,"is_disabled":false,"rental_uris":{"android":"levelo://app?vid=d2777f5f-ccae-4dd0-b01a-fda4c888da94","ios":"levelo://app?vid=d2777f5f-ccae-4dd0-b01a-fda4c888da94"},"vehicle_type_id":"4","last_reported":1719594490,"current_range_meters":6800,"station_id":"ce4bha92rcd13ifvqeg0","pricing_plan_id":"cebpf4jnsgd1na2vs0mg"},{"bike_id":"86df12cb-07ac-4f72-8662-11cca712e6af","system_id":"levelo_inurba_marseille","lat":43.294153,"lon":5.386305,"is_reserved":false,"is_disabled":false,"rental_uris":{"android":"levelo://app?vid=86df12cb-07ac-4f72-8662-11cca712e6af","ios":"levelo://app?vid=86df12cb-07ac-4f72-8662-11cca712e6af"},"vehicle_type_id":"4","last_reported":1719594490,"current_range_meters":14800,"station_id":"ce4bh2h2rcd13ifvqdh0","pricing_plan_id":"cebpf4jnsgd1na2vs0mg"},{"bike_id":"11d67139-2a64-4385-9809-452ea7c61497","system_id":"levelo_inurba_marseille","lat":43.29419,"lon":5.38616,"is_reserved":false,"is_disabled":false,"rental_uris":{"android":"levelo://app?vid=11d67139-2a64-4385-9809-452ea7c61497","ios":"levelo://app?vid=11d67139-2a64-4385-9809-452ea7c61497"},"vehicle_type_id":"4","last_reported":1719594490,"current_range_meters":0,"station_id":"ce4bh2h2rcd13ifvqdh0","pricing_plan_id":"cebpf4jnsgd1na2vs0mg"},{"bike_id":"2a0b1829-9f1f-4cc9-ba73-bfcfb7b1fe56","system_id":"levelo_inurba_marseille","lat":43.2942,"lon":5.38622,"is_reserved":false,"is_disabled":false,"rental_uris":{"android":"levelo://app?vid=2a0b1829-9f1f-4cc9-ba73-bfcfb7b1fe56","ios":"levelo://app?vid=2a0b1829-9f1f-4cc9-ba73-bfcfb7b1fe56"},"vehicle_type_id":"4","last_reported":1719594490,"current_range_meters":0,"station_id":"ce4bh2h2rcd13ifvqdh0","pricing_plan_id":"cebpf4jnsgd1na2vs0mg"},{"bike_id":"0e502750-095b-4708-99fd-75b70f4a6b78","system_id":"levelo_inurba_marseille","lat":43.294153,"lon":5.386305,"is_reserved":false,"is_disabled":false,"rental_uris":{"android":"levelo://app?vid=0e502750-095b-4708-99fd-75b70f4a6b78","ios":"levelo://app?vid=0e502750-095b-4708-99fd-75b70f4a6b78"},"vehicle_type_id":"4","last_reported":1719594490,"current_range_meters":2000,"station_id":"ce4bh2h2rcd13ifvqdh0","pricing_plan_id":"cebpf4jnsgd1na2vs0mg"},{"bike_id":"9d62630e-a6e7-430b-b2f2-1c827d99a7e2","system_id":"levelo_inurba_marseille","lat":43.29418,"lon":5.38621,"is_reserved":false,"is_disabled":false,"rental_uris":{"android":"levelo://app?vid=9d62630e-a6e7-430b-b2f2-1c827d99a7e2","ios":"levelo://app?vid=9d62630e-a6e7-430b-b2f2-1c827d99a7e2"},"vehicle_type_id":"4","last_reported":1719594490,"current_range_meters":9600,"station_id":"ce4bh2h2rcd13ifvqdh0","pricing_plan_id":"cebpf4jnsgd1na2vs0mg"},{"bike_id":"3488ad98-92ca-43a4-b271-f15ef6cfeae4","system_id":"levelo_inurba_marseille","lat":43.29417,"lon":5.38622,"is_reserved":false,"is_disabled":false,"rental_uris":{"android":"levelo://app?vid=3488ad98-92ca-43a4-b271-f15ef6cfeae4","ios":"levelo://app?vid=3488ad98-92ca-43a4-b271-f15ef6cfeae4"},"vehicle_type_id":"4","last_reported":1719594490,"current_range_meters":0,"station_id":"ce4bh2h2rcd13ifvqdh0","pricing_plan_id":"cebpf4jnsgd1na2vs0mg"},{"bike_id":"24964c1e-d760-4864-8f74-1a2e90025595","system_id":"levelo_inurba_marseille","lat":43.29418,"lon":5.38625,"is_reserved":false,"is_disabled":false,"rental_uris":{"android":"levelo://app?vid=24964c1e-d760-4864-8f74-1a2e90025595","ios":"levelo://app?vid=24964c1e-d760-4864-8f74-1a2e90025595"},"vehicle_type_id":"4","last_reported":1719594490,"current_range_meters":15200,"station_id":"ce4bh2h2rcd13ifvqdh0","pricing_plan_id":"cebpf4jnsgd1na2vs0mg"},{"bike_id":"696bcae9-2e0a-48ee-b994-17d82a2be0f0","system_id":"levelo_inurba_marseille","lat":43.294162,"lon":5.386292,"is_reserved":false,"is_disabled":false,"rental_uris":{"android":"levelo://app?vid=696bcae9-2e0a-48ee-b994-17d82a2be0f0","ios":"levelo://app?vid=696bcae9-2e0a-48ee-b994-17d82a2be0f0"},"vehicle_type_id":"4","last_reported":1719594490,"current_range_meters":23200,"station_id":"ce4bh2h2rcd13ifvqdh0","pricing_plan_id":"cebpf4jnsgd1na2vs0mg"},{"bike_id":"ce177b25-eecb-4948-afa9-b55898e67fd7","system_id":"levelo_inurba_marseille","lat":43.29416,"lon":5.38624,"is_reserved":false,"is_disabled":false,"rental_uris":{"android":"levelo://app?vid=ce177b25-eecb-4948-afa9-b55898e67fd7","ios":"levelo://app?vid=ce177b25-eecb-4948-afa9-b55898e67fd7"},"vehicle_type_id":"4","last_reported":1719594490,"current_range_meters":4000,"station_id":"ce4bh2h2rcd13ifvqdh0","pricing_plan_id":"cebpf4jnsgd1na2vs0mg"},{"bike_id":"af1ab136-9943-488d-b33f-238eb2b7df82","system_id":"levelo_inurba_marseille","lat":43.29415,"lon":5.38623,"is_reserved":false,"is_disabled":false,"rental_uris":{"android":"levelo://app?vid=af1ab136-9943-488d-b33f-238eb2b7df82","ios":"levelo://app?vid=af1ab136-9943-488d-b33f-238eb2b7df82"},"vehicle_type_id":"4","last_reported":1719594490,"current_range_meters":6800,"station_id":"ce4bh2h2rcd13ifvqdh0","pricing_plan_id":"cebpf4jnsgd1na2vs0mg"},{"bike_id":"03258859-28e7-40ba-ab55-5cff0248b934","system_id":"levelo_inurba_marseille","lat":43.294153,"lon":5.386305,"is_reserved":false,"is_disabled":false,"rental_uris":{"android":"levelo://app?vid=03258859-28e7-40ba-ab55-5cff0248b934","ios":"levelo://app?vid=03258859-28e7-40ba-ab55-5cff0248b934"},"vehicle_type_id":"4","last_reported":1719594490,"current_range_meters":2400,"station_id":"ce4bh2h2rcd13ifvqdh0","pricing_plan_id":"cebpf4jnsgd1na2vs0mg"},{"bike_id":"0f2d1d74-d93c-430a-ae0a-9760e66b9002","system_id":"levelo_inurba_marseille","lat":43.29415,"lon":5.38624,"is_reserved":false,"is_disabled":false,"rental_uris":{"android":"levelo://app?vid=0f2d1d74-d93c-430a-ae0a-9760e66b9002","ios":"levelo://app?vid=0f2d1d74-d93c-430a-ae0a-9760e66b9002"},"vehicle_type_id":"4","last_reported":1719594490,"current_range_meters":4400,"station_id":"ce4bh2h2rcd13ifvqdh0","pricing_plan_id":"cebpf4jnsgd1na2vs0mg"},{"bike_id":"8b45e6ed-fd9c-41a4-a4cb-2c04ced57aef","system_id":"levelo_inurba_marseille","lat":43.294162,"lon":5.386292,"is_reserved":false,"is_disabled":false,"rental_uris":{"android":"levelo://app?vid=8b45e6ed-fd9c-41a4-a4cb-2c04ced57aef","ios":"levelo://app?vid=8b45e6ed-fd9c-41a4-a4cb-2c04ced57aef"},"vehicle_type_id":"4","last_reported":1719594490,"current_range_meters":0,"station_id":"ce4bh2h2rcd13ifvqdh0","pricing_plan_id":"cebpf4jnsgd1na2vs0mg"},{"bike_id":"eab9a2a7-15ba-402c-b7df-64ba0f1cb535","system_id":"levelo_inurba_marseille","lat":43.29414,"lon":5.38624,"is_reserved":false,"is_disabled":false,"rental_uris":{"android":"levelo://app?vid=eab9a2a7-15ba-402c-b7df-64ba0f1cb535","ios":"levelo://app?vid=eab9a2a7-15ba-402c-b7df-64ba0f1cb535"},"vehicle_type_id":"4","last_reported":1719594490,"current_range_meters":23600,"station_id":"ce4bh2h2rcd13ifvqdh0","pricing_plan_id":"cebpf4jnsgd1na2vs0mg"},{"bike_id":"4ce7a8da-97ec-4674-8989-f0e636cd7651","system_id":"levelo_inurba_marseille","lat":43.294162,"lon":5.386292,"is_reserved":false,"is_disabled":false,"rental_uris":{"android":"levelo://app?vid=4ce7a8da-97ec-4674-8989-f0e636cd7651","ios":"levelo://app?vid=4ce7a8da-97ec-4674-8989-f0e636cd7651"},"vehicle_type_id":"4","last_reported":1719594490,"current_range_meters":4400,"station_id":"ce4bh2h2rcd13ifvqdh0","pricing_plan_id":"cebpf4jnsgd1na2vs0mg"},{"bike_id":"1ca48cd0-d4af-46ab-bf45-fb23ae587f8b","system_id":"levelo_inurba_marseille","lat":43.294162,"lon":5.386292,"is_reserved":false,"is_disabled":false,"rental_uris":{"android":"levelo://app?vid=1ca48cd0-d4af-46ab-bf45-fb23ae587f8b","ios":"levelo://app?vid=1ca48cd0-d4af-46ab-bf45-fb23ae587f8b"},"vehicle_type_id":"4","last_reported":1719594490,"current_range_meters":22800,"station_id":"ce4bh2h2rcd13ifvqdh0","pricing_plan_id":"cebpf4jnsgd1na2vs0mg"},{"bike_id":"930bae34-3bb6-49f7-bedf-585087bd7fff","system_id":"levelo_inurba_marseille","lat":43.294162,"lon":5.386292,"is_reserved":false,"is_disabled":false,"rental_uris":{"android":"levelo://app?vid=930bae34-3bb6-49f7-bedf-585087bd7fff","ios":"levelo://app?vid=930bae34-3bb6-49f7-bedf-585087bd7fff"},"vehicle_type_id":"4","last_reported":1719594490,"current_range_meters":15600,"station_id":"ce4bh2h2rcd13ifvqdh0","pricing_plan_id":"cebpf4jnsgd1na2vs0mg"},{"bike_id":"1ee868d1-a350-4359-b302-a226bad9a49c","system_id":"levelo_inurba_marseille","lat":43.290319,"lon":5.375732,"is_reserved":false,"is_disabled":false,"rental_uris":{"android":"levelo://app?vid=1ee868d1-a350-4359-b302-a226bad9a49c","ios":"levelo://app?vid=1ee868d1-a350-4359-b302-a226bad9a49c"},"vehicle_type_id":"4","last_reported":1719594490,"current_range_meters":0,"station_id":"ce4bh692rcd13ifvqe90","pricing_plan_id":"cebpf4jnsgd1na2vs0mg"},{"bike_id":"f06699a2-670f-4b01-8846-06be1ba0fe96","system_id":"levelo_inurba_marseille","lat":43.2893,"lon":5.36642,"is_reserved":false,"is_disabled":false,"rental_uris":{"android":"levelo://app?vid=f06699a2-670f-4b01-8846-06be1ba0fe96","ios":"levelo://app?vid=f06699a2-670f-4b01-8846-06be1ba0fe96"},"vehicle_type_id":"4","last_reported":1719594490,"current_range_meters":0,"station_id":"ce4bhap2rcd13ifvqek0","pricing_plan_id":"cebpf4jnsgd1na2vs0mg"},{"bike_id":"70ea0434-e692-48bc-a444-bceab87157da","system_id":"levelo_inurba_marseille","lat":43.289184,"lon":5.366408,"is_reserved":false,"is_disabled":false,"rental_uris":{"android":"levelo://app?vid=70ea0434-e692-48bc-a444-bceab87157da","ios":"levelo://app?vid=70ea0434-e692-48bc-a444-bceab87157da"},"vehicle_type_id":"4","last_reported":1719594490,"current_range_meters":5200,"station_id":"ce4bhap2rcd13ifvqek0","pricing_plan_id":"cebpf4jnsgd1na2vs0mg"},{"bike_id":"9a2c9a8c-4eaf-447d-93aa-84f30ab1e93c","system_id":"levelo_inurba_marseille","lat":43.28933,"lon":5.36394,"is_reserved":false,"is_disabled":false,"rental_uris":{"android":"levelo://app?vid=9a2c9a8c-4eaf-447d-93aa-84f30ab1e93c","ios":"levelo://app?vid=9a2c9a8c-4eaf-447d-93aa-84f30ab1e93c"},"vehicle_type_id":"4","last_reported":1719594490,"current_range_meters":7200,"station_id":"","pricing_plan_id":"cebpf4jnsgd1na2vs0mg"},{"bike_id":"35156699-bb94-4f60-aca1-37a75f83f3f1","system_id":"levelo_inurba_marseille","lat":43.29271,"lon":5.38425,"is_reserved":false,"is_disabled":false,"rental_uris":{"android":"levelo://app?vid=35156699-bb94-4f60-aca1-37a75f83f3f1","ios":"levelo://app?vid=35156699-bb94-4f60-aca1-37a75f83f3f1"},"vehicle_type_id":"4","last_reported":1719594490,"current_range_meters":18000,"station_id":"ce4bh692rcd13ifvqea0","pricing_plan_id":"cebpf4jnsgd1na2vs0mg"},{"bike_id":"c9c4912e-34a0-48cb-aa44-7df3f41fcd70","system_id":"levelo_inurba_marseille","lat":43.292644,"lon":5.384257,"is_reserved":false,"is_disabled":false,"rental_uris":{"android":"levelo://app?vid=c9c4912e-34a0-48cb-aa44-7df3f41fcd70","ios":"levelo://app?vid=c9c4912e-34a0-48cb-aa44-7df3f41fcd70"},"vehicle_type_id":"4","last_reported":1719594490,"current_range_meters":31600,"station_id":"ce4bh692rcd13ifvqea0","pricing_plan_id":"cebpf4jnsgd1na2vs0mg"},{"bike_id":"7dff012c-0d9a-4fad-b1ca-db75cb98664a","system_id":"levelo_inurba_marseille","lat":43.2926,"lon":5.38433,"is_reserved":false,"is_disabled":false,"rental_uris":{"android":"levelo://app?vid=7dff012c-0d9a-4fad-b1ca-db75cb98664a","ios":"levelo://app?vid=7dff012c-0d9a-4fad-b1ca-db75cb98664a"},"vehicle_type_id":"4","last_reported":1719594490,"current_range_meters":28000,"station_id":"ce4bh692rcd13ifvqea0","pricing_plan_id":"cebpf4jnsgd1na2vs0mg"},{"bike_id":"1798f7bd-7b1f-4e43-ba3b-4ba7ce8a6ebc","system_id":"levelo_inurba_marseille","lat":43.29305,"lon":5.38532,"is_reserved":false,"is_disabled":false,"rental_uris":{"android":"levelo://app?vid=1798f7bd-7b1f-4e43-ba3b-4ba7ce8a6ebc","ios":"levelo://app?vid=1798f7bd-7b1f-4e43-ba3b-4ba7ce8a6ebc"},"vehicle_type_id":"4","last_reported":1719594490,"current_range_meters":0,"station_id":"","pricing_plan_id":"cebpf4jnsgd1na2vs0mg"},{"bike_id":"129119fc-2c10-441d-8d37-56fb2289ee3e","system_id":"levelo_inurba_marseille","lat":43.29258,"lon":5.38437,"is_reserved":false,"is_disabled":false,"rental_uris":{"android":"levelo://app?vid=129119fc-2c10-441d-8d37-56fb2289ee3e","ios":"levelo://app?vid=129119fc-2c10-441d-8d37-56fb2289ee3e"},"vehicle_type_id":"4","last_reported":1719594490,"current_range_meters":22800,"station_id":"ce4bh692rcd13ifvqea0","pricing_plan_id":"cebpf4jnsgd1na2vs0mg"},{"bike_id":"89b813b5-5d6b-40a8-a1d6-cb42d501a370","system_id":"levelo_inurba_marseille","lat":43.29258,"lon":5.38443,"is_reserved":false,"is_disabled":false,"rental_uris":{"android":"levelo://app?vid=89b813b5-5d6b-40a8-a1d6-cb42d501a370","ios":"levelo://app?vid=89b813b5-5d6b-40a8-a1d6-cb42d501a370"},"vehicle_type_id":"4","last_reported":1719594490,"current_range_meters":4400,"station_id":"ce4bh692rcd13ifvqea0","pricing_plan_id":"cebpf4jnsgd1na2vs0mg"},{"bike_id":"495cf85d-d5cc-48de-80eb-4afe2a7d27c9","system_id":"levelo_inurba_marseille","lat":43.292642,"lon":5.384254,"is_reserved":false,"is_disabled":false,"rental_uris":{"android":"levelo://app?vid=495cf85d-d5cc-48de-80eb-4afe2a7d27c9","ios":"levelo://app?vid=495cf85d-d5cc-48de-80eb-4afe2a7d27c9"},"vehicle_type_id":"4","last_reported":1719594490,"current_range_meters":31200,"station_id":"ce4bh692rcd13ifvqea0","pricing_plan_id":"cebpf4jnsgd1na2vs0mg"},{"bike_id":"35b103d3-24c7-454c-88d9-137b32a6c0a8","system_id":"levelo_inurba_marseille","lat":43.29252,"lon":5.38443,"is_reserved":false,"is_disabled":false,"rental_uris":{"android":"levelo://app?vid=35b103d3-24c7-454c-88d9-137b32a6c0a8","ios":"levelo://app?vid=35b103d3-24c7-454c-88d9-137b32a6c0a8"},"vehicle_type_id":"4","last_reported":1719594490,"current_range_meters":0,"station_id":"ce4bh692rcd13ifvqea0","pricing_plan_id":"cebpf4jnsgd1na2vs0mg"},{"bike_id":"267940ca-da77-4646-af17-3599c9e7f636","system_id":"levelo_inurba_marseille","lat":43.290104,"lon":5.356111,"is_reserved":false,"is_disabled":false,"rental_uris":{"android":"levelo://app?vid=267940ca-da77-4646-af17-3599c9e7f636","ios":"levelo://app?vid=267940ca-da77-4646-af17-3599c9e7f636"},"vehicle_type_id":"4","last_reported":1719594490,"current_range_meters":0,"station_id":"ce4bhb92rcd13ifvqen0","pricing_plan_id":"cebpf4jnsgd1na2vs0mg"},{"bike_id":"caf599d8-37e8-4c50-bb53-e9bfcfcb429f","system_id":"levelo_inurba_marseille","lat":43.290995,"lon":5.381361,"is_reserved":false,"is_disabled":false,"rental_uris":{"android":"levelo://app?vid=caf599d8-37e8-4c50-bb53-e9bfcfcb429f","ios":"levelo://app?vid=caf599d8-37e8-4c50-bb53-e9bfcfcb429f"},"vehicle_type_id":"4","last_reported":1719594490,"current_range_meters":3600,"station_id":"ce4bh512rcd13ifvqe2g","pricing_plan_id":"cebpf4jnsgd1na2vs0mg"},{"bike_id":"199a9e66-6517-47e2-8823-aa378b8d1d23","system_id":"levelo_inurba_marseille","lat":43.290995,"lon":5.381361,"is_reserved":false,"is_disabled":false,"rental_uris":{"android":"levelo://app?vid=199a9e66-6517-47e2-8823-aa378b8d1d23","ios":"levelo://app?vid=199a9e66-6517-47e2-8823-aa378b8d1d23"},"vehicle_type_id":"4","last_reported":1719594490,"current_range_meters":0,"station_id":"ce4bh512rcd13ifvqe2g","pricing_plan_id":"cebpf4jnsgd1na2vs0mg"},{"bike_id":"b6640ae8-592a-466b-b4e8-5bc9e94bec27","system_id":"levelo_inurba_marseille","lat":43.330442,"lon":5.389148,"is_reserved":false,"is_disabled":false,"rental_uris":{"android":"levelo://app?vid=b6640ae8-592a-466b-b4e8-5bc9e94bec27","ios":"levelo://app?vid=b6640ae8-592a-466b-b4e8-5bc9e94bec27"},"vehicle_type_id":"4","last_reported":1719594490,"current_range_meters":7600,"station_id":"ce4bhr92rcd13ifvqhrg","pricing_plan_id":"cebpf4jnsgd1na2vs0mg"},{"bike_id":"e1b31af5-2bc4-4923-b40c-e2898322a4fb","system_id":"levelo_inurba_marseille","lat":43.33023,"lon":5.39047,"is_reserved":false,"is_disabled":false,"rental_uris":{"android":"levelo://app?vid=e1b31af5-2bc4-4923-b40c-e2898322a4fb","ios":"levelo://app?vid=e1b31af5-2bc4-4923-b40c-e2898322a4fb"},"vehicle_type_id":"4","last_reported":1719594490,"current_range_meters":14000,"station_id":"ce4bhr92rcd13ifvqhrg","pricing_plan_id":"cebpf4jnsgd1na2vs0mg"},{"bike_id":"8056bbf9-3a8c-4e05-909e-f7d0836e09d1","system_id":"levelo_inurba_marseille","lat":43.330442,"lon":5.389148,"is_reserved":false,"is_disabled":false,"rental_uris":{"android":"levelo://app?vid=8056bbf9-3a8c-4e05-909e-f7d0836e09d1","ios":"levelo://app?vid=8056bbf9-3a8c-4e05-909e-f7d0836e09d1"},"vehicle_type_id":"4","last_reported":1719594490,"current_range_meters":13200,"station_id":"ce4bhr92rcd13ifvqhrg","pricing_plan_id":"cebpf4jnsgd1na2vs0mg"},{"bike_id":"fa4fcc51-388d-44eb-9f10-6a4df1f0671e","system_id":"levelo_inurba_marseille","lat":43.295169,"lon":5.390426,"is_reserved":false,"is_disabled":false,"rental_uris":{"android":"levelo://app?vid=fa4fcc51-388d-44eb-9f10-6a4df1f0671e","ios":"levelo://app?vid=fa4fcc51-388d-44eb-9f10-6a4df1f0671e"},"vehicle_type_id":"4","last_reported":1719594490,"current_range_meters":400,"station_id":"ce4bh3p2rcd13ifvqdp0","pricing_plan_id":"cebpf4jnsgd1na2vs0mg"},{"bike_id":"23435b51-ab3b-4d9d-80d6-fecaa2e6575c","system_id":"levelo_inurba_marseille","lat":43.330442,"lon":5.389148,"is_reserved":false,"is_disabled":false,"rental_uris":{"android":"levelo://app?vid=23435b51-ab3b-4d9d-80d6-fecaa2e6575c","ios":"levelo://app?vid=23435b51-ab3b-4d9d-80d6-fecaa2e6575c"},"vehicle_type_id":"4","last_reported":1719594490,"current_range_meters":10800,"station_id":"ce4bhr92rcd13ifvqhrg","pricing_plan_id":"cebpf4jnsgd1na2vs0mg"},{"bike_id":"f5b0f49f-8dd3-4af1-b657-0b09627b471f","system_id":"levelo_inurba_marseille","lat":43.31066,"lon":5.40089,"is_reserved":false,"is_disabled":false,"rental_uris":{"android":"levelo://app?vid=f5b0f49f-8dd3-4af1-b657-0b09627b471f","ios":"levelo://app?vid=f5b0f49f-8dd3-4af1-b657-0b09627b471f"},"vehicle_type_id":"4","last_reported":1719594490,"current_range_meters":25600,"station_id":"","pricing_plan_id":"cebpf4jnsgd1na2vs0mg"},{"bike_id":"e0e63d44-a6c6-4f54-985b-6d5062c601f3","system_id":"levelo_inurba_marseille","lat":43.29024,"lon":5.38127,"is_reserved":false,"is_disabled":false,"rental_uris":{"android":"levelo://app?vid=e0e63d44-a6c6-4f54-985b-6d5062c601f3","ios":"levelo://app?vid=e0e63d44-a6c6-4f54-985b-6d5062c601f3"},"vehicle_type_id":"4","last_reported":1719594490,"current_range_meters":0,"station_id":"ce4bh4p2rcd13ifvqe1g","pricing_plan_id":"cebpf4jnsgd1na2vs0mg"},{"bike_id":"6cb841b1-e3d8-48e6-a5b9-c65a2f18b91e","system_id":"levelo_inurba_marseille","lat":43.31059,"lon":5.40098,"is_reserved":false,"is_disabled":false,"rental_uris":{"android":"levelo://app?vid=6cb841b1-e3d8-48e6-a5b9-c65a2f18b91e","ios":"levelo://app?vid=6cb841b1-e3d8-48e6-a5b9-c65a2f18b91e"},"vehicle_type_id":"4","last_reported":1719594490,"current_range_meters":5200,"station_id":"","pricing_plan_id":"cebpf4jnsgd1na2vs0mg"},{"bike_id":"f2099c3c-e10a-4f42-881e-323e700e7269","system_id":"levelo_inurba_marseille","lat":43.28856,"lon":5.358371,"is_reserved":false,"is_disabled":false,"rental_uris":{"android":"levelo://app?vid=f2099c3c-e10a-4f42-881e-323e700e7269","ios":"levelo://app?vid=f2099c3c-e10a-4f42-881e-323e700e7269"},"vehicle_type_id":"4","last_reported":1719594490,"current_range_meters":31200,"station_id":"ce4bhb12rcd13ifvqem0","pricing_plan_id":"cebpf4jnsgd1na2vs0mg"},{"bike_id":"97dbcb34-1e4c-432b-b879-d482c218934e","system_id":"levelo_inurba_marseille","lat":43.312609,"lon":5.401662,"is_reserved":false,"is_disabled":false,"rental_uris":{"android":"levelo://app?vid=97dbcb34-1e4c-432b-b879-d482c218934e","ios":"levelo://app?vid=97dbcb34-1e4c-432b-b879-d482c218934e"},"vehicle_type_id":"4","last_reported":1719594490,"current_range_meters":3200,"station_id":"ce4bh092rcd13ifvqd30","pricing_plan_id":"cebpf4jnsgd1na2vs0mg"},{"bike_id":"15e45297-dd95-4fc9-91f5-59650dcb97ec","system_id":"levelo_inurba_marseille","lat":43.295169,"lon":5.390426,"is_reserved":false,"is_disabled":false,"rental_uris":{"android":"levelo://app?vid=15e45297-dd95-4fc9-91f5-59650dcb97ec","ios":"levelo://app?vid=15e45297-dd95-4fc9-91f5-59650dcb97ec"},"vehicle_type_id":"4","last_reported":1719594490,"current_range_meters":5200,"station_id":"ce4bh3p2rcd13ifvqdp0","pricing_plan_id":"cebpf4jnsgd1na2vs0mg"},{"bike_id":"893eaead-9d2f-45c9-9e62-66185745d370","system_id":"levelo_inurba_marseille","lat":43.28848,"lon":5.35848,"is_reserved":false,"is_disabled":false,"rental_uris":{"android":"levelo://app?vid=893eaead-9d2f-45c9-9e62-66185745d370","ios":"levelo://app?vid=893eaead-9d2f-45c9-9e62-66185745d370"},"vehicle_type_id":"4","last_reported":1719594490,"current_range_meters":18800,"station_id":"ce4bhb12rcd13ifvqem0","pricing_plan_id":"cebpf4jnsgd1na2vs0mg"},{"bike_id":"8fd53f21-8841-48c6-bd71-f07aab4acdec","system_id":"levelo_inurba_marseille","lat":43.28856,"lon":5.358371,"is_reserved":false,"is_disabled":false,"rental_uris":{"android":"levelo://app?vid=8fd53f21-8841-48c6-bd71-f07aab4acdec","ios":"levelo://app?vid=8fd53f21-8841-48c6-bd71-f07aab4acdec"},"vehicle_type_id":"4","last_reported":1719594490,"current_range_meters":20400,"station_id":"ce4bhb12rcd13ifvqem0","pricing_plan_id":"cebpf4jnsgd1na2vs0mg"},{"bike_id":"9408bb3a-9032-454b-81a9-05ca7a70d488","system_id":"levelo_inurba_marseille","lat":43.28856,"lon":5.358371,"is_reserved":false,"is_disabled":false,"rental_uris":{"android":"levelo://app?vid=9408bb3a-9032-454b-81a9-05ca7a70d488","ios":"levelo://app?vid=9408bb3a-9032-454b-81a9-05ca7a70d488"},"vehicle_type_id":"4","last_reported":1719594490,"current_range_meters":31200,"station_id":"ce4bhb12rcd13ifvqem0","pricing_plan_id":"cebpf4jnsgd1na2vs0mg"},{"bike_id":"5623b87c-a846-45db-bf5e-1b073b0dfc49","system_id":"levelo_inurba_marseille","lat":43.312609,"lon":5.401662,"is_reserved":false,"is_disabled":false,"rental_uris":{"android":"levelo://app?vid=5623b87c-a846-45db-bf5e-1b073b0dfc49","ios":"levelo://app?vid=5623b87c-a846-45db-bf5e-1b073b0dfc49"},"vehicle_type_id":"4","last_reported":1719594490,"current_range_meters":5600,"station_id":"ce4bh092rcd13ifvqd30","pricing_plan_id":"cebpf4jnsgd1na2vs0mg"},{"bike_id":"11da98ef-d0c3-43c2-a7e4-890f2c23ccbc","system_id":"levelo_inurba_marseille","lat":43.337359,"lon":5.374673,"is_reserved":false,"is_disabled":false,"rental_uris":{"android":"levelo://app?vid=11da98ef-d0c3-43c2-a7e4-890f2c23ccbc","ios":"levelo://app?vid=11da98ef-d0c3-43c2-a7e4-890f2c23ccbc"},"vehicle_type_id":"4","last_reported":1719594490,"current_range_meters":6400,"station_id":"","pricing_plan_id":"cebpf4jnsgd1na2vs0mg"},{"bike_id":"bb65fb70-df82-47d8-b27f-438620895501","system_id":"levelo_inurba_marseille","lat":43.33735,"lon":5.37474,"is_reserved":false,"is_disabled":false,"rental_uris":{"android":"levelo://app?vid=bb65fb70-df82-47d8-b27f-438620895501","ios":"levelo://app?vid=bb65fb70-df82-47d8-b27f-438620895501"},"vehicle_type_id":"4","last_reported":1719594490,"current_range_meters":13200,"station_id":"","pricing_plan_id":"cebpf4jnsgd1na2vs0mg"},{"bike_id":"8043cc8a-f702-4e45-9523-d56dfd7ee432","system_id":"levelo_inurba_marseille","lat":43.337383,"lon":5.374716,"is_reserved":false,"is_disabled":false,"rental_uris":{"android":"levelo://app?vid=8043cc8a-f702-4e45-9523-d56dfd7ee432","ios":"levelo://app?vid=8043cc8a-f702-4e45-9523-d56dfd7ee432"},"vehicle_type_id":"0","last_reported":1719594490,"current_range_meters":17600,"station_id":"","pricing_plan_id":"cebpf4jnsgd1na2vs0mg"},{"bike_id":"b7795541-28aa-4e81-b58a-415697b09fc4","system_id":"levelo_inurba_marseille","lat":43.312609,"lon":5.401662,"is_reserved":false,"is_disabled":false,"rental_uris":{"android":"levelo://app?vid=b7795541-28aa-4e81-b58a-415697b09fc4","ios":"levelo://app?vid=b7795541-28aa-4e81-b58a-415697b09fc4"},"vehicle_type_id":"4","last_reported":1719594490,"current_range_meters":23200,"station_id":"ce4bh092rcd13ifvqd30","pricing_plan_id":"cebpf4jnsgd1na2vs0mg"},{"bike_id":"c25a3696-e1cc-43ba-8656-23d4a118ee2e","system_id":"levelo_inurba_marseille","lat":43.337388,"lon":5.374716,"is_reserved":false,"is_disabled":false,"rental_uris":{"android":"levelo://app?vid=c25a3696-e1cc-43ba-8656-23d4a118ee2e","ios":"levelo://app?vid=c25a3696-e1cc-43ba-8656-23d4a118ee2e"},"vehicle_type_id":"4","last_reported":1719594490,"current_range_meters":10800,"station_id":"","pricing_plan_id":"cebpf4jnsgd1na2vs0mg"},{"bike_id":"bf709b1a-1e81-4c69-a36a-dfef45d67fee","system_id":"levelo_inurba_marseille","lat":43.337391,"lon":5.374707,"is_reserved":false,"is_disabled":false,"rental_uris":{"android":"levelo://app?vid=bf709b1a-1e81-4c69-a36a-dfef45d67fee","ios":"levelo://app?vid=bf709b1a-1e81-4c69-a36a-dfef45d67fee"},"vehicle_type_id":"4","last_reported":1719594490,"current_range_meters":12800,"station_id":"","pricing_plan_id":"cebpf4jnsgd1na2vs0mg"},{"bike_id":"2a0fb516-a307-4861-b129-104556c40f00","system_id":"levelo_inurba_marseille","lat":43.337404,"lon":5.374671,"is_reserved":false,"is_disabled":false,"rental_uris":{"android":"levelo://app?vid=2a0fb516-a307-4861-b129-104556c40f00","ios":"levelo://app?vid=2a0fb516-a307-4861-b129-104556c40f00"},"vehicle_type_id":"0","last_reported":1719594490,"current_range_meters":10400,"station_id":"","pricing_plan_id":"cebpf4jnsgd1na2vs0mg"},{"bike_id":"aa527c2c-31a5-479b-bfbe-daae0d9bb514","system_id":"levelo_inurba_marseille","lat":43.337411,"lon":5.374639,"is_reserved":false,"is_disabled":false,"rental_uris":{"android":"levelo://app?vid=aa527c2c-31a5-479b-bfbe-daae0d9bb514","ios":"levelo://app?vid=aa527c2c-31a5-479b-bfbe-daae0d9bb514"},"vehicle_type_id":"0","last_reported":1719594490,"current_range_meters":8000,"station_id":"","pricing_plan_id":"cebpf4jnsgd1na2vs0mg"},{"bike_id":"9b81675f-44cd-4cbe-9733-2d36a516d8f7","system_id":"levelo_inurba_marseille","lat":43.337416,"lon":5.374689,"is_reserved":false,"is_disabled":false,"rental_uris":{"android":"levelo://app?vid=9b81675f-44cd-4cbe-9733-2d36a516d8f7","ios":"levelo://app?vid=9b81675f-44cd-4cbe-9733-2d36a516d8f7"},"vehicle_type_id":"0","last_reported":1719594490,"current_range_meters":20400,"station_id":"","pricing_plan_id":"cebpf4jnsgd1na2vs0mg"},{"bike_id":"70df0eff-7892-4d64-8b33-f9b25d3cdb77","system_id":"levelo_inurba_marseille","lat":43.337426,"lon":5.374672,"is_reserved":false,"is_disabled":false,"rental_uris":{"android":"levelo://app?vid=70df0eff-7892-4d64-8b33-f9b25d3cdb77","ios":"levelo://app?vid=70df0eff-7892-4d64-8b33-f9b25d3cdb77"},"vehicle_type_id":"4","last_reported":1719594490,"current_range_meters":12800,"station_id":"","pricing_plan_id":"cebpf4jnsgd1na2vs0mg"},{"bike_id":"cbff8e2e-87ad-4d9e-a09d-9b1fba1c0aeb","system_id":"levelo_inurba_marseille","lat":43.337424,"lon":5.374709,"is_reserved":false,"is_disabled":false,"rental_uris":{"android":"levelo://app?vid=cbff8e2e-87ad-4d9e-a09d-9b1fba1c0aeb","ios":"levelo://app?vid=cbff8e2e-87ad-4d9e-a09d-9b1fba1c0aeb"},"vehicle_type_id":"0","last_reported":1719594490,"current_range_meters":18400,"station_id":"","pricing_plan_id":"cebpf4jnsgd1na2vs0mg"},{"bike_id":"985eda3a-8205-4c72-8b0d-a44593dd15b5","system_id":"levelo_inurba_marseille","lat":43.337444,"lon":5.374693,"is_reserved":false,"is_disabled":false,"rental_uris":{"android":"levelo://app?vid=985eda3a-8205-4c72-8b0d-a44593dd15b5","ios":"levelo://app?vid=985eda3a-8205-4c72-8b0d-a44593dd15b5"},"vehicle_type_id":"0","last_reported":1719594490,"current_range_meters":11600,"station_id":"","pricing_plan_id":"cebpf4jnsgd1na2vs0mg"},{"bike_id":"6d54ce4a-9a1e-47cf-be43-7fcaf15459a1","system_id":"levelo_inurba_marseille","lat":43.309371,"lon":5.401449,"is_reserved":false,"is_disabled":false,"rental_uris":{"android":"levelo://app?vid=6d54ce4a-9a1e-47cf-be43-7fcaf15459a1","ios":"levelo://app?vid=6d54ce4a-9a1e-47cf-be43-7fcaf15459a1"},"vehicle_type_id":"4","last_reported":1719594490,"current_range_meters":0,"station_id":"ce4bgvp2rcd13ifvqct0","pricing_plan_id":"cebpf4jnsgd1na2vs0mg"},{"bike_id":"073e87c3-ccdf-4ebe-a0b3-a6c3c78bbf5f","system_id":"levelo_inurba_marseille","lat":43.337509,"lon":5.374606,"is_reserved":false,"is_disabled":false,"rental_uris":{"android":"levelo://app?vid=073e87c3-ccdf-4ebe-a0b3-a6c3c78bbf5f","ios":"levelo://app?vid=073e87c3-ccdf-4ebe-a0b3-a6c3c78bbf5f"},"vehicle_type_id":"4","last_reported":1719594490,"current_range_meters":22800,"station_id":"","pricing_plan_id":"cebpf4jnsgd1na2vs0mg"},{"bike_id":"8d29b23f-0cde-4f18-ac65-67f5119dad3f","system_id":"levelo_inurba_marseille","lat":43.306412,"lon":5.401035,"is_reserved":false,"is_disabled":false,"rental_uris":{"android":"levelo://app?vid=8d29b23f-0cde-4f18-ac65-67f5119dad3f","ios":"levelo://app?vid=8d29b23f-0cde-4f18-ac65-67f5119dad3f"},"vehicle_type_id":"4","last_reported":1719594490,"current_range_meters":0,"station_id":"ce4bh112rcd13ifvqda0","pricing_plan_id":"cebpf4jnsgd1na2vs0mg"},{"bike_id":"bd9a6c26-2db3-4e30-92c7-c85ae97147aa","system_id":"levelo_inurba_marseille","lat":43.337537,"lon":5.37452,"is_reserved":false,"is_disabled":false,"rental_uris":{"android":"levelo://app?vid=bd9a6c26-2db3-4e30-92c7-c85ae97147aa","ios":"levelo://app?vid=bd9a6c26-2db3-4e30-92c7-c85ae97147aa"},"vehicle_type_id":"0","last_reported":1719594490,"current_range_meters":22400,"station_id":"","pricing_plan_id":"cebpf4jnsgd1na2vs0mg"},{"bike_id":"569e9d29-bf0a-4e7b-be92-97e5f61f7c87","system_id":"levelo_inurba_marseille","lat":43.337574,"lon":5.374407,"is_reserved":false,"is_disabled":false,"rental_uris":{"android":"levelo://app?vid=569e9d29-bf0a-4e7b-be92-97e5f61f7c87","ios":"levelo://app?vid=569e9d29-bf0a-4e7b-be92-97e5f61f7c87"},"vehicle_type_id":"4","last_reported":1719594490,"current_range_meters":18000,"station_id":"","pricing_plan_id":"cebpf4jnsgd1na2vs0mg"},{"bike_id":"43f7bf83-ea9e-4332-b362-03a974949e40","system_id":"levelo_inurba_marseille","lat":43.33756,"lon":5.37471,"is_reserved":false,"is_disabled":false,"rental_uris":{"android":"levelo://app?vid=43f7bf83-ea9e-4332-b362-03a974949e40","ios":"levelo://app?vid=43f7bf83-ea9e-4332-b362-03a974949e40"},"vehicle_type_id":"4","last_reported":1719594490,"current_range_meters":13600,"station_id":"","pricing_plan_id":"cebpf4jnsgd1na2vs0mg"},{"bike_id":"5c744c2f-abe7-418a-8f1b-e28b1ae9a337","system_id":"levelo_inurba_marseille","lat":43.306412,"lon":5.401035,"is_reserved":false,"is_disabled":false,"rental_uris":{"android":"levelo://app?vid=5c744c2f-abe7-418a-8f1b-e28b1ae9a337","ios":"levelo://app?vid=5c744c2f-abe7-418a-8f1b-e28b1ae9a337"},"vehicle_type_id":"4","last_reported":1719594490,"current_range_meters":26800,"station_id":"ce4bh112rcd13ifvqda0","pricing_plan_id":"cebpf4jnsgd1na2vs0mg"},{"bike_id":"7bd78e97-05c9-46f5-86b4-70eea56dc591","system_id":"levelo_inurba_marseille","lat":43.30533,"lon":5.40094,"is_reserved":false,"is_disabled":false,"rental_uris":{"android":"levelo://app?vid=7bd78e97-05c9-46f5-86b4-70eea56dc591","ios":"levelo://app?vid=7bd78e97-05c9-46f5-86b4-70eea56dc591"},"vehicle_type_id":"4","last_reported":1719594490,"current_range_meters":27600,"station_id":"","pricing_plan_id":"cebpf4jnsgd1na2vs0mg"},{"bike_id":"930c4834-9202-40f1-9f9c-3c79749afabf","system_id":"levelo_inurba_marseille","lat":43.32637,"lon":5.39754,"is_reserved":false,"is_disabled":false,"rental_uris":{"android":"levelo://app?vid=930c4834-9202-40f1-9f9c-3c79749afabf","ios":"levelo://app?vid=930c4834-9202-40f1-9f9c-3c79749afabf"},"vehicle_type_id":"4","last_reported":1719594490,"current_range_meters":12400,"station_id":"","pricing_plan_id":"cebpf4jnsgd1na2vs0mg"},{"bike_id":"6626df74-2aeb-4434-8336-e80aa41de2a6","system_id":"levelo_inurba_marseille","lat":43.298681,"lon":5.397225,"is_reserved":false,"is_disabled":false,"rental_uris":{"android":"levelo://app?vid=6626df74-2aeb-4434-8336-e80aa41de2a6","ios":"levelo://app?vid=6626df74-2aeb-4434-8336-e80aa41de2a6"},"vehicle_type_id":"4","last_reported":1719594490,"current_range_meters":16000,"station_id":"ce4bh0h2rcd13ifvqd50","pricing_plan_id":"cebpf4jnsgd1na2vs0mg"},{"bike_id":"2f36d72c-4bcf-40fa-a54b-bb4d79552111","system_id":"levelo_inurba_marseille","lat":43.298681,"lon":5.397225,"is_reserved":false,"is_disabled":false,"rental_uris":{"android":"levelo://app?vid=2f36d72c-4bcf-40fa-a54b-bb4d79552111","ios":"levelo://app?vid=2f36d72c-4bcf-40fa-a54b-bb4d79552111"},"vehicle_type_id":"4","last_reported":1719594490,"current_range_meters":14000,"station_id":"ce4bh0h2rcd13ifvqd50","pricing_plan_id":"cebpf4jnsgd1na2vs0mg"},{"bike_id":"c1610612-b833-4dc1-8274-97add2f49625","system_id":"levelo_inurba_marseille","lat":43.286961,"lon":5.373785,"is_reserved":false,"is_disabled":false,"rental_uris":{"android":"levelo://app?vid=c1610612-b833-4dc1-8274-97add2f49625","ios":"levelo://app?vid=c1610612-b833-4dc1-8274-97add2f49625"},"vehicle_type_id":"4","last_reported":1719594490,"current_range_meters":26000,"station_id":"ce4bh3p2rcd13ifvqdq0","pricing_plan_id":"cebpf4jnsgd1na2vs0mg"},