{"last_updated":1709849199,"ttl":30,"version":"2.2","data":{"bikes":[{"bike_id":"0651f271-6ed2-42ae-bd0d-63ad2d1db97f","system_id":"levelo_inurba_marseille","lat":43.31341,"lon":5.367098,"is_reserved":false,"is_disabled":false,"rental_uris":{"android":"levelo://app?vid=0651f271-6ed2-42ae-bd0d-63ad2d1db97f","ios":"levelo://app?vid=0651f271-6ed2-42ae-bd0d-63ad2d1db97f"},"vehicle_type_id":"4","last_reported":1709849199,"current_range_meters":1200,"station_id":"ce4bgr92rcd13ifvqc6g","pricing_plan_id":"cebpf4jnsgd1na2vs0mg"},{"bike_id":"363b1128-dd6b-4ab7-926f-c250150d1183","system_id":"levelo_inurba_marseille","lat":43.31341,"lon":5.367098,"is_reserved":false,"is_disabled":false,"rental_uris":{"android":"levelo://app?vid=363b1128-dd6b-4ab7-926f-c250150d1183","ios":"levelo://app?vid=363b1128-dd6b-4ab7-926f-c250150d1183"},"vehicle_type_id":"4","last_reported":1709849199,"current_range_meters":15600,"station_id":"ce4bgr92rcd13ifvqc6g","pricing_plan_id":"cebpf4jnsgd1na2vs0mg"},{"bike_id":"09f02337-fc03-4b14-829c-e41f456a8a28","system_id":"levelo_inurba_marseille","lat":43.313391,"lon":5.36706,"is_reserved":false,"is_disabled":false,"rental_uris":{"android":"levelo://app?vid=09f02337-fc03-4b14-829c-e41f456a8a28","ios":"levelo://app?vid=09f02337-fc03-4b14-829c-e41f456a8a28"},"vehicle_type_id":"4","last_reported":1709849199,"current_range_meters":21200,"station_id":"ce4bgr92rcd13ifvqc6g","pricing_plan_id":"cebpf4jnsgd1na2vs0mg"},{"bike_id":"2ce167d3-f1e2-40e1-8642-23503595651d","system_id":"levelo_inurba_marseille","lat":43.31211,"lon":5.36846,"is_reserved":false,"is_disabled":false,"rental_uris":{"android":"levelo://app?vid=2ce167d3-f1e2-40e1-8642-23503595651d","ios":"levelo://app?vid=2ce167d3-f1e2-40e1-8642-23503595651d"},"vehicle_type_id":"4","last_reported":1709849199,"current_range_meters":4800,"station_id":"ce4bgl92rcd13ifvqbq0","pricing_plan_id":"cebpf4jnsgd1na2vs0mg"},{"bike_id":"e90e84db-b651-45a4-9e49-d036a41c286a","system_id":"levelo_inurba_marseille","lat":43.312239,"lon":5.368562,"is_reserved":false,"is_disabled":false,"rental_uris":{"android":"levelo://app?vid=e90e84db-b651-45a4-9e49-d036a41c286a","ios":"levelo://app?vid=e90e84db-b651-45a4-9e49-d036a41c286a"},"vehicle_type_id":"4","last_reported":1709849199,"current_range_meters":10000,"station_id":"ce4bgl92rcd13ifvqbq0","pricing_plan_id":"cebpf4jnsgd1na2vs0mg"},{"bike_id":"9cb230e3-c764-422d-b107-119a2ed1a6d9","system_id":"levelo_inurba_marseille","lat":43.309039,"lon":5.371797,"is_reserved":false,"is_disabled":false,"rental_uris":{"android":"levelo://app?vid=9cb230e3-c764-422d-b107-119a2ed1a6d9","ios":"levelo://app?vid=9cb230e3-c764-422d-b107-119a2ed1a6d9"},"vehicle_type_id":"4","last_reported":1709849199,"current_range_meters":30400,"station_id":"ce4bguh2rcd13ifvqckg","pricing_plan_id":"cebpf4jnsgd1na2vs0mg"},{"bike_id":"551213d9-110c-4577-b2ac-0765bfe5df77","system_id":"levelo_inurba_marseille","lat":43.316277,"lon":5.37418,"is_reserved":false,"is_disabled":false,"rental_uris":{"android":"levelo://app?vid=551213d9-110c-4577-b2ac-0765bfe5df77","ios":"levelo://app?vid=551213d9-110c-4577-b2ac-0765bfe5df77"},"vehicle_type_id":"4","last_reported":1709849199,"current_range_meters":3200,"station_id":"","pricing_plan_id":"cebpf4jnsgd1na2vs0mg"},{"bike_id":"8a8dd7fa-5048-4ca8-9285-ad13e9cf41ce","system_id":"levelo_inurba_marseille","lat":43.305368,"lon":5.367343,"is_reserved":false,"is_disabled":false,"rental_uris":{"android":"levelo://app?vid=8a8dd7fa-5048-4ca8-9285-ad13e9cf41ce","ios":"levelo://app?vid=8a8dd7fa-5048-4ca8-9285-ad13e9cf41ce"},"vehicle_type_id":"4","last_reported":1709849199,"current_range_meters":26400,"station_id":"ce4bgrp2rcd13ifvqc9g","pricing_plan_id":"cebpf4jnsgd1na2vs0mg"},{"bike_id":"6aee1431-22a3-4044-b6b8-2984c27224a6","system_id":"levelo_inurba_marseille","lat":43.305712,"lon":5.365641,"is_reserved":false,"is_disabled":false,"rental_uris":{"android":"levelo://app?vid=6aee1431-22a3-4044-b6b8-2984c27224a6","ios":"levelo://app?vid=6aee1431-22a3-4044-b6b8-2984c27224a6"},"vehicle_type_id":"4","last_reported":1709849199,"current_range_meters":27600,"station_id":"ce4bgs12rcd13ifvqcag","pricing_plan_id":"cebpf4jnsgd1na2vs0mg"},{"bike_id":"1fc4a890-d84c-4080-9aad-84598584102e","system_id":"levelo_inurba_marseille","lat":43.305368,"lon":5.367343,"is_reserved":false,"is_disabled":false,"rental_uris":{"android":"levelo://app?vid=1fc4a890-d84c-4080-9aad-84598584102e","ios":"levelo://app?vid=1fc4a890-d84c-4080-9aad-84598584102e"},"vehicle_type_id":"4","last_reported":1709849199,"current_range_meters":31200,"station_id":"ce4bgrp2rcd13ifvqc9g","pricing_plan_id":"cebpf4jnsgd1na2vs0mg"},{"bike_id":"69b82fa9-bfc4-461c-8be7-a2719b4438fe","system_id":"levelo_inurba_marseille","lat":43.305368,"lon":5.367343,"is_reserved":false,"is_disabled":false,"rental_uris":{"android":"levelo://app?vid=69b82fa9-bfc4-461c-8be7-a2719b4438fe","ios":"levelo://app?vid=69b82fa9-bfc4-461c-8be7-a2719b4438fe"},"vehicle_type_id":"4","last_reported":1709849199,"current_range_meters":29600,"station_id":"ce4bgrp2rcd13ifvqc9g","pricing_plan_id":"cebpf4jnsgd1na2vs0mg"},{"bike_id":"2faebe19-c31c-454c-9886-d5abdacf3d6e","system_id":"levelo_inurba_marseille","lat":43.30604,"lon":5.37222,"is_reserved":false,"is_disabled":false,"rental_uris":{"android":"levelo://app?vid=2faebe19-c31c-454c-9886-d5abdacf3d6e","ios":"levelo://app?vid=2faebe19-c31c-454c-9886-d5abdacf3d6e"},"vehicle_type_id":"4","last_reported":1709849199,"current_range_meters":17600,"station_id":"ce4bgqh2rcd13ifvqc4g","pricing_plan_id":"cebpf4jnsgd1na2vs0mg"},{"bike_id":"b3589cbe-7430-4ef2-95e6-edd5e0026c98","system_id":"levelo_inurba_marseille","lat":43.305989,"lon":5.37225,"is_reserved":false,"is_disabled":false,"rental_uris":{"android":"levelo://app?vid=b3589cbe-7430-4ef2-95e6-edd5e0026c98","ios":"levelo://app?vid=b3589cbe-7430-4ef2-95e6-edd5e0026c98"},"vehicle_type_id":"4","last_reported":1709849199,"current_range_meters":7600,"station_id":"ce4bgqh2rcd13ifvqc4g","pricing_plan_id":"cebpf4jnsgd1na2vs0mg"},{"bike_id":"89bc293d-6a54-4ebf-af0b-d7727d5e659d","system_id":"levelo_inurba_marseille","lat":43.305989,"lon":5.37225,"is_reserved":false,"is_disabled":false,"rental_uris":{"android":"levelo://app?vid=89bc293d-6a54-4ebf-af0b-d7727d5e659d","ios":"levelo://app?vid=89bc293d-6a54-4ebf-af0b-d7727d5e659d"},"vehicle_type_id":"4","last_reported":1709849199,"current_range_meters":22400,"station_id":"ce4bgqh2rcd13ifvqc4g","pricing_plan_id":"cebpf4jnsgd1na2vs0mg"},{"bike_id":"6b39f1c8-1ffb-4c2b-a97c-32b38768c3cc","system_id":"levelo_inurba_marseille","lat":43.305989,"lon":5.37225,"is_reserved":false,"is_disabled":false,"rental_uris":{"android":"levelo://app?vid=6b39f1c8-1ffb-4c2b-a97c-32b38768c3cc","ios":"levelo://app?vid=6b39f1c8-1ffb-4c2b-a97c-32b38768c3cc"},"vehicle_type_id":"4","last_reported":1709849199,"current_range_meters":29200,"station_id":"ce4bgqh2rcd13ifvqc4g","pricing_plan_id":"cebpf4jnsgd1na2vs0mg"},{"bike_id":"b8782740-eef3-4450-926e-94052507a618","system_id":"levelo_inurba_marseille","lat":43.305989,"lon":5.37225,"is_reserved":false,"is_disabled":false,"rental_uris":{"android":"levelo://app?vid=b8782740-eef3-4450-926e-94052507a618","ios":"levelo://app?vid=b8782740-eef3-4450-926e-94052507a618"},"vehicle_type_id":"4","last_reported":1709849199,"current_range_meters":0,"station_id":"ce4bgqh2rcd13ifvqc4g","pricing_plan_id":"cebpf4jnsgd1na2vs0mg"},{"bike_id":"1c242fb6-d321-40f9-a89b-7cf748ca74e0","system_id":"levelo_inurba_marseille","lat":43.311125,"lon":5.377624,"is_reserved":false,"is_disabled":false,"rental_uris":{"android":"levelo://app?vid=1c242fb6-d321-40f9-a89b-7cf748ca74e0","ios":"levelo://app?vid=1c242fb6-d321-40f9-a89b-7cf748ca74e0"},"vehicle_type_id":"4","last_reported":1709849199,"current_range_meters":2800,"station_id":"ce4bgt92rcd13ifvqcg0","pricing_plan_id":"cebpf4jnsgd1na2vs0mg"},{"bike_id":"0bd9efce-6726-4650-ad0f-0d0a75c818ab","system_id":"levelo_inurba_marseille","lat":43.311131,"lon":5.377651,"is_reserved":false,"is_disabled":false,"rental_uris":{"android":"levelo://app?vid=0bd9efce-6726-4650-ad0f-0d0a75c818ab","ios":"levelo://app?vid=0bd9efce-6726-4650-ad0f-0d0a75c818ab"},"vehicle_type_id":"4","last_reported":1709849199,"current_range_meters":26400,"station_id":"ce4bgt92rcd13ifvqcg0","pricing_plan_id":"cebpf4jnsgd1na2vs0mg"},{"bike_id":"e854b945-1aad-4958-bd5e-0ef366edd7ad","system_id":"levelo_inurba_marseille","lat":43.311125,"lon":5.377624,"is_reserved":false,"is_disabled":false,"rental_uris":{"android":"levelo://app?vid=e854b945-1aad-4958-bd5e-0ef366edd7ad","ios":"levelo://app?vid=e854b945-1aad-4958-bd5e-0ef366edd7ad"},"vehicle_type_id":"4","last_reported":1709849199,"current_range_meters":28400,"station_id":"ce4bgt92rcd13ifvqcg0","pricing_plan_id":"cebpf4jnsgd1na2vs0mg"},{"bike_id":"13efe1f2-c1b5-4f07-89b6-91dae5b565d3","system_id":"levelo_inurba_marseille","lat":43.311131,"lon":5.377651,"is_reserved":false,"is_disabled":false,"rental_uris":{"android":"levelo://app?vid=13efe1f2-c1b5-4f07-89b6-91dae5b565d3","ios":"levelo://app?vid=13efe1f2-c1b5-4f07-89b6-91dae5b565d3"},"vehicle_type_id":"4","last_reported":1709849199,"current_range_meters":4800,"station_id":"ce4bgt92rcd13ifvqcg0","pricing_plan_id":"cebpf4jnsgd1na2vs0mg"},{"bike_id":"037cb742-b4f5-4306-9e39-8a3aa42de0b6","system_id":"levelo_inurba_marseille","lat":43.307945,"lon":5.376487,"is_reserved":false,"is_disabled":false,"rental_uris":{"android":"levelo://app?vid=037cb742-b4f5-4306-9e39-8a3aa42de0b6","ios":"levelo://app?vid=037cb742-b4f5-4306-9e39-8a3aa42de0b6"},"vehicle_type_id":"4","last_reported":1709849199,"current_range_meters":6400,"station_id":"ce4bgv92rcd13ifvqcq0","pricing_plan_id":"cebpf4jnsgd1na2vs0mg"},{"bike_id":"04f23646-8c8b-4c6f-b7b3-4c4ea49a294c","system_id":"levelo_inurba_marseille","lat":43.307945,"lon":5.376487,"is_reserved":false,"is_disabled":false,"rental_uris":{"android":"levelo://app?vid=04f23646-8c8b-4c6f-b7b3-4c4ea49a294c","ios":"levelo://app?vid=04f23646-8c8b-4c6f-b7b3-4c4ea49a294c"},"vehicle_type_id":"4","last_reported":1709849199,"current_range_meters":7200,"station_id":"ce4bgv92rcd13ifvqcq0","pricing_plan_id":"cebpf4jnsgd1na2vs0mg"},{"bike_id":"d1cad779-55a6-43b1-9b65-aa0d58b6ed00","system_id":"levelo_inurba_marseille","lat":43.30785,"lon":5.37649,"is_reserved":false,"is_disabled":false,"rental_uris":{"android":"levelo://app?vid=d1cad779-55a6-43b1-9b65-aa0d58b6ed00","ios":"levelo://app?vid=d1cad779-55a6-43b1-9b65-aa0d58b6ed00"},"vehicle_type_id":"4","last_reported":1709849199,"current_range_meters":10800,"station_id":"ce4bgv92rcd13ifvqcq0","pricing_plan_id":"cebpf4jnsgd1na2vs0mg"},{"bike_id":"c8cbe2d4-74a3-4084-9110-ad01cb6a2d6b","system_id":"levelo_inurba_marseille","lat":43.307945,"lon":5.376487,"is_reserved":false,"is_disabled":false,"rental_uris":{"android":"levelo://app?vid=c8cbe2d4-74a3-4084-9110-ad01cb6a2d6b","ios":"levelo://app?vid=c8cbe2d4-74a3-4084-9110-ad01cb6a2d6b"},"vehicle_type_id":"4","last_reported":1709849199,"current_range_meters":23600,"station_id":"ce4bgv92rcd13ifvqcq0","pricing_plan_id":"cebpf4jnsgd1na2vs0mg"},{"bike_id":"533bae6f-4380-4631-a8e3-c07b92db79ab","system_id":"levelo_inurba_marseille","lat":43.307945,"lon":5.376487,"is_reserved":false,"is_disabled":false,"rental_uris":{"android":"levelo://app?vid=533bae6f-4380-4631-a8e3-c07b92db79ab","ios":"levelo://app?vid=533bae6f-4380-4631-a8e3-c07b92db79ab"},"vehicle_type_id":"4","last_reported":1709849199,"current_range_meters":10800,"station_id":"ce4bgv92rcd13ifvqcq0","pricing_plan_id":"cebpf4jnsgd1na2vs0mg"},{"bike_id":"5121ec67-5391-43a2-b51c-8ce377ed7d25","system_id":"levelo_inurba_marseille","lat":43.307945,"lon":5.376487,"is_reserved":false,"is_disabled":false,"rental_uris":{"android":"levelo://app?vid=5121ec67-5391-43a2-b51c-8ce377ed7d25","ios":"levelo://app?vid=5121ec67-5391-43a2-b51c-8ce377ed7d25"},"vehicle_type_id":"4","last_reported":1709849199,"current_range_meters":24400,"station_id":"ce4bgv92rcd13ifvqcq0","pricing_plan_id":"cebpf4jnsgd1na2vs0mg"},{"bike_id":"3a49a684-4bff-4adb-b2e6-c5bf4c12daa7","system_id":"levelo_inurba_marseille","lat":43.317075,"lon":5.377367,"is_reserved":false,"is_disabled":false,"rental_uris":{"android":"levelo://app?vid=3a49a684-4bff-4adb-b2e6-c5bf4c12daa7","ios":"levelo://app?vid=3a49a684-4bff-4adb-b2e6-c5bf4c12daa7"},"vehicle_type_id":"4","last_reported":1709849199,"current_range_meters":25200,"station_id":"ce4bgth2rcd13ifvqch0","pricing_plan_id":"cebpf4jnsgd1na2vs0mg"},{"bike_id":"8213d658-1307-4375-95ae-0c2009be6d92","system_id":"levelo_inurba_marseille","lat":43.303046,"lon":5.368981,"is_reserved":false,"is_disabled":false,"rental_uris":{"android":"levelo://app?vid=8213d658-1307-4375-95ae-0c2009be6d92","ios":"levelo://app?vid=8213d658-1307-4375-95ae-0c2009be6d92"},"vehicle_type_id":"4","last_reported":1709849199,"current_range_meters":24800,"station_id":"ce4bgqh2rcd13ifvqc5g","pricing_plan_id":"cebpf4jnsgd1na2vs0mg"},{"bike_id":"7709f547-cb12-4b5a-b911-b29961c8f3f9","system_id":"levelo_inurba_marseille","lat":43.315289,"lon":5.380349,"is_reserved":false,"is_disabled":false,"rental_uris":{"android":"levelo://app?vid=7709f547-cb12-4b5a-b911-b29961c8f3f9","ios":"levelo://app?vid=7709f547-cb12-4b5a-b911-b29961c8f3f9"},"vehicle_type_id":"4","last_reported":1709849199,"current_range_meters":6000,"station_id":"ce4bhsp2rcd13ifvqi50","pricing_plan_id":"cebpf4jnsgd1na2vs0mg"},{"bike_id":"d62eb374-41c4-44e2-a45a-67af6aba0579","system_id":"levelo_inurba_marseille","lat":43.32367,"lon":5.388836,"is_reserved":false,"is_disabled":false,"rental_uris":{"android":"levelo://app?vid=d62eb374-41c4-44e2-a45a-67af6aba0579","ios":"levelo://app?vid=d62eb374-41c4-44e2-a45a-67af6aba0579"},"vehicle_type_id":"4","last_reported":1709849199,"current_range_meters":10400,"station_id":"ce4bhqp2rcd13ifvqhog","pricing_plan_id":"cebpf4jnsgd1na2vs0mg"},{"bike_id":"66aaf3f4-80e8-4aaa-8482-319d74ea0c3d","system_id":"levelo_inurba_marseille","lat":43.301939,"lon":5.366286,"is_reserved":false,"is_disabled":false,"rental_uris":{"android":"levelo://app?vid=66aaf3f4-80e8-4aaa-8482-319d74ea0c3d","ios":"levelo://app?vid=66aaf3f4-80e8-4aaa-8482-319d74ea0c3d"},"vehicle_type_id":"4","last_reported":1709849199,"current_range_meters":21200,"station_id":"ce4bgrh2rcd13ifvqc8g","pricing_plan_id":"cebpf4jnsgd1na2vs0mg"},{"bike_id":"860d8ad8-77c1-40d9-ac71-4724f9a9c1b0","system_id":"levelo_inurba_marseille","lat":43.301939,"lon":5.366286,"is_reserved":false,"is_disabled":false,"rental_uris":{"android":"levelo://app?vid=860d8ad8-77c1-40d9-ac71-4724f9a9c1b0","ios":"levelo://app?vid=860d8ad8-77c1-40d9-ac71-4724f9a9c1b0"},"vehicle_type_id":"4","last_reported":1709849199,"current_range_meters":13600,"station_id":"ce4bgrh2rcd13ifvqc8g","pricing_plan_id":"cebpf4jnsgd1na2vs0mg"},{"bike_id":"00ab42d3-af2a-40fe-81fe-19c5b2b2320f","system_id":"levelo_inurba_marseille","lat":43.308012,"lon":5.381511,"is_reserved":false,"is_disabled":false,"rental_uris":{"android":"levelo://app?vid=00ab42d3-af2a-40fe-81fe-19c5b2b2320f","ios":"levelo://app?vid=00ab42d3-af2a-40fe-81fe-19c5b2b2320f"},"vehicle_type_id":"4","last_reported":1709849199,"current_range_meters":4400,"station_id":"ce4bgt12rcd13ifvqce0","pricing_plan_id":"cebpf4jnsgd1na2vs0mg"},{"bike_id":"6d1bada7-ab6a-4a82-ac1f-6198f93f2649","system_id":"levelo_inurba_marseille","lat":43.308012,"lon":5.381511,"is_reserved":false,"is_disabled":false,"rental_uris":{"android":"levelo://app?vid=6d1bada7-ab6a-4a82-ac1f-6198f93f2649","ios":"levelo://app?vid=6d1bada7-ab6a-4a82-ac1f-6198f93f2649"},"vehicle_type_id":"4","last_reported":1709849199,"current_range_meters":8400,"station_id":"ce4bgt12rcd13ifvqce0","pricing_plan_id":"cebpf4jnsgd1na2vs0mg"},{"bike_id":"51a9ce75-50f6-447f-b760-ea12453c01db","system_id":"levelo_inurba_marseille","lat":43.308012,"lon":5.381511,"is_reserved":false,"is_disabled":false,"rental_uris":{"android":"levelo://app?vid=51a9ce75-50f6-447f-b760-ea12453c01db","ios":"levelo://app?vid=51a9ce75-50f6-447f-b760-ea12453c01db"},"vehicle_type_id":"4","last_reported":1709849199,"current_range_meters":0,"station_id":"ce4bgt12rcd13ifvqce0","pricing_plan_id":"cebpf4jnsgd1na2vs0mg"},{"bike_id":"b2f873f3-e457-467b-80a9-bc3475e27068","system_id":"levelo_inurba_marseille","lat":43.308012,"lon":5.381511,"is_reserved":false,"is_disabled":false,"rental_uris":{"android":"levelo://app?vid=b2f873f3-e457-467b-80a9-bc3475e27068","ios":"levelo://app?vid=b2f873f3-e457-467b-80a9-bc3475e27068"},"vehicle_type_id":"4","last_reported":1709849199,"current_range_meters":4800,"station_id":"ce4bgt12rcd13ifvqce0","pricing_plan_id":"cebpf4jnsgd1na2vs0mg"},{"bike_id":"30c31a14-b61a-4d88-8ffa-86437427d437","system_id":"levelo_inurba_marseille","lat":43.308012,"lon":5.381511,"is_reserved":false,"is_disabled":false,"rental_uris":{"android":"levelo://app?vid=30c31a14-b61a-4d88-8ffa-86437427d437","ios":"levelo://app?vid=30c31a14-b61a-4d88-8ffa-86437427d437"},"vehicle_type_id":"4","last_reported":1709849199,"current_range_meters":4800,"station_id":"ce4bgt12rcd13ifvqce0","pricing_plan_id":"cebpf4jnsgd1na2vs0mg"},{"bike_id":"d9fa10c9-a73a-4df6-b667-efa91b8b591a","system_id":"levelo_inurba_marseille","lat":43.308012,"lon":5.381511,"is_reserved":false,"is_disabled":false,"rental_uris":{"android":"levelo://app?vid=d9fa10c9-a73a-4df6-b667-efa91b8b591a","ios":"levelo://app?vid=d9fa10c9-a73a-4df6-b667-efa91b8b591a"},"vehicle_type_id":"4","last_reported":1709849199,"current_range_meters":2800,"station_id":"ce4bgt12rcd13ifvqce0","pricing_plan_id":"cebpf4jnsgd1na2vs0mg"},{"bike_id":"21df76d8-0e40-4902-96b1-55dd0607ba36","system_id":"levelo_inurba_marseille","lat":43.3248,"lon":5.36562,"is_reserved":false,"is_disabled":false,"rental_uris":{"android":"levelo://app?vid=21df76d8-0e40-4902-96b1-55dd0607ba36","ios":"levelo://app?vid=21df76d8-0e40-4902-96b1-55dd0607ba36"},"vehicle_type_id":"4","last_reported":1709849199,"current_range_meters":5600,"station_id":"ce4bhs12rcd13ifvqhvg","pricing_plan_id":"cebpf4jnsgd1na2vs0mg"},{"bike_id":"c5d96930-1fa7-4b6c-a496-e773a9e69ecb","system_id":"levelo_inurba_marseille","lat":43.324771,"lon":5.36557,"is_reserved":false,"is_disabled":false,"rental_uris":{"android":"levelo://app?vid=c5d96930-1fa7-4b6c-a496-e773a9e69ecb","ios":"levelo://app?vid=c5d96930-1fa7-4b6c-a496-e773a9e69ecb"},"vehicle_type_id":"4","last_reported":1709849199,"current_range_meters":2400,"station_id":"ce4bhs12rcd13ifvqhvg","pricing_plan_id":"cebpf4jnsgd1na2vs0mg"},{"bike_id":"4c6cd592-6a61-4c18-a4f6-d6b16566e405","system_id":"levelo_inurba_marseille","lat":43.324771,"lon":5.36557,"is_reserved":false,"is_disabled":false,"rental_uris":{"android":"levelo://app?vid=4c6cd592-6a61-4c18-a4f6-d6b16566e405","ios":"levelo://app?vid=4c6cd592-6a61-4c18-a4f6-d6b16566e405"},"vehicle_type_id":"4","last_reported":1709849199,"current_range_meters":2400,"station_id":"ce4bhs12rcd13ifvqhvg","pricing_plan_id":"cebpf4jnsgd1na2vs0mg"},{"bike_id":"0bf9e245-d208-461e-8bfa-0b116c692185","system_id":"levelo_inurba_marseille","lat":43.304606,"lon":5.379026,"is_reserved":false,"is_disabled":false,"rental_uris":{"android":"levelo://app?vid=0bf9e245-d208-461e-8bfa-0b116c692185","ios":"levelo://app?vid=0bf9e245-d208-461e-8bfa-0b116c692185"},"vehicle_type_id":"4","last_reported":1709849199,"current_range_meters":3600,"station_id":"ce4bgup2rcd13ifvqcn0","pricing_plan_id":"cebpf4jnsgd1na2vs0mg"},{"bike_id":"7543e2f4-cad6-43cc-ada3-26ce75172a81","system_id":"levelo_inurba_marseille","lat":43.31071,"lon":5.383557,"is_reserved":false,"is_disabled":false,"rental_uris":{"android":"levelo://app?vid=7543e2f4-cad6-43cc-ada3-26ce75172a81","ios":"levelo://app?vid=7543e2f4-cad6-43cc-ada3-26ce75172a81"},"vehicle_type_id":"4","last_reported":1709849199,"current_range_meters":18000,"station_id":"ce4bgv92rcd13ifvqcr0","pricing_plan_id":"cebpf4jnsgd1na2vs0mg"},{"bike_id":"9859c636-2c1c-4a6d-a0da-a1286fb394ba","system_id":"levelo_inurba_marseille","lat":43.310804,"lon":5.38359,"is_reserved":false,"is_disabled":false,"rental_uris":{"android":"levelo://app?vid=9859c636-2c1c-4a6d-a0da-a1286fb394ba","ios":"levelo://app?vid=9859c636-2c1c-4a6d-a0da-a1286fb394ba"},"vehicle_type_id":"4","last_reported":1709849199,"current_range_meters":11600,"station_id":"ce4bgv92rcd13ifvqcr0","pricing_plan_id":"cebpf4jnsgd1na2vs0mg"},{"bike_id":"297138cb-1aae-4c2a-a967-b4162516145a","system_id":"levelo_inurba_marseille","lat":43.31075,"lon":5.38361,"is_reserved":false,"is_disabled":false,"rental_uris":{"android":"levelo://app?vid=297138cb-1aae-4c2a-a967-b4162516145a","ios":"levelo://app?vid=297138cb-1aae-4c2a-a967-b4162516145a"},"vehicle_type_id":"4","last_reported":1709849199,"current_range_meters":22400,"station_id":"ce4bgv92rcd13ifvqcr0","pricing_plan_id":"cebpf4jnsgd1na2vs0mg"},{"bike_id":"31c53828-7aa5-4e7c-b3ac-566b011882cb","system_id":"levelo_inurba_marseille","lat":43.310804,"lon":5.38359,"is_reserved":false,"is_disabled":false,"rental_uris":{"android":"levelo://app?vid=31c53828-7aa5-4e7c-b3ac-566b011882cb","ios":"levelo://app?vid=31c53828-7aa5-4e7c-b3ac-566b011882cb"},"vehicle_type_id":"4","last_reported":1709849199,"current_range_meters":18800,"station_id":"ce4bgv92rcd13ifvqcr0","pricing_plan_id":"cebpf4jnsgd1na2vs0mg"},{"bike_id":"b35f4fdf-838a-4c16-b862-a4868c49ce51","system_id":"levelo_inurba_marseille","lat":43.310804,"lon":5.38359,"is_reserved":false,"is_disabled":false,"rental_uris":{"android":"levelo://app?vid=b35f4fdf-838a-4c16-b862-a4868c49ce51","ios":"levelo://app?vid=b35f4fdf-838a-4c16-b862-a4868c49ce51"},"vehicle_type_id":"4","last_reported":1709849199,"current_range_meters":4400,"station_id":"ce4bgv92rcd13ifvqcr0","pricing_plan_id":"cebpf4jnsgd1na2vs0mg"},{"bike_id":"16cc38a8-d5bc-4c1f-b890-b46e9059752e","system_id":"levelo_inurba_marseille","lat":43.302784,"lon":5.377158,"is_reserved":false,"is_disabled":false,"rental_uris":{"android":"levelo://app?vid=16cc38a8-d5bc-4c1f-b890-b46e9059752e","ios":"levelo://app?vid=16cc38a8-d5bc-4c1f-b890-b46e9059752e"},"vehicle_type_id":"4","last_reported":1709849199,"current_range_meters":22400,"station_id":"ce4bguh2rcd13ifvqcj0","pricing_plan_id":"cebpf4jnsgd1na2vs0mg"},{"bike_id":"e5531e22-a0a1-427d-963e-033a6d04df0e","system_id":"levelo_inurba_marseille","lat":43.301429,"lon":5.37413,"is_reserved":false,"is_disabled":false,"rental_uris":{"android":"levelo://app?vid=e5531e22-a0a1-427d-963e-033a6d04df0e","ios":"levelo://app?vid=e5531e22-a0a1-427d-963e-033a6d04df0e"},"vehicle_type_id":"4","last_reported":1709849199,"current_range_meters":0,"station_id":"ce4bgs92rcd13ifvqcc0","pricing_plan_id":"cebpf4jnsgd1na2vs0mg"},{"bike_id":"0363fb8b-2eda-48f9-9159-5daeb34cca67","system_id":"levelo_inurba_marseille","lat":43.320004,"lon":5.381504,"is_reserved":false,"is_disabled":false,"rental_uris":{"android":"levelo://app?vid=0363fb8b-2eda-48f9-9159-5daeb34cca67","ios":"levelo://app?vid=0363fb8b-2eda-48f9-9159-5daeb34cca67"},"vehicle_type_id":"4","last_reported":1709849199,"current_range_meters":7600,"station_id":"ce4bhr12rcd13ifvqhpg","pricing_plan_id":"cebpf4jnsgd1na2vs0mg"},{"bike_id":"205073f9-2844-4463-b6e3-a367483d4686","system_id":"levelo_inurba_marseille","lat":43.31999,"lon":5.38154,"is_reserved":false,"is_disabled":false,"rental_uris":{"android":"levelo://app?vid=205073f9-2844-4463-b6e3-a367483d4686","ios":"levelo://app?vid=205073f9-2844-4463-b6e3-a367483d4686"},"vehicle_type_id":"4","last_reported":1709849199,"current_range_meters":10000,"station_id":"ce4bhr12rcd13ifvqhpg","pricing_plan_id":"cebpf4jnsgd1na2vs0mg"},{"bike_id":"b910ed65-d4cd-4f13-b7d7-321373fd07ea","system_id":"levelo_inurba_marseille","lat":43.313571,"lon":5.384829,"is_reserved":false,"is_disabled":false,"rental_uris":{"android":"levelo://app?vid=b910ed65-d4cd-4f13-b7d7-321373fd07ea","ios":"levelo://app?vid=b910ed65-d4cd-4f13-b7d7-321373fd07ea"},"vehicle_type_id":"4","last_reported":1709849199,"current_range_meters":23200,"station_id":"ce4bgt92rcd13ifvqcf0","pricing_plan_id":"cebpf4jnsgd1na2vs0mg"},{"bike_id":"73291c6a-f045-402e-92c2-5aa6ca6ec782","system_id":"levelo_inurba_marseille","lat":43.313571,"lon":5.384829,"is_reserved":false,"is_disabled":false,"rental_uris":{"android":"levelo://app?vid=73291c6a-f045-402e-92c2-5aa6ca6ec782","ios":"levelo://app?vid=73291c6a-f045-402e-92c2-5aa6ca6ec782"},"vehicle_type_id":"4","last_reported":1709849199,"current_range_meters":24800,"station_id":"ce4bgt92rcd13ifvqcf0","pricing_plan_id":"cebpf4jnsgd1na2vs0mg"},{"bike_id":"cf139c3c-ca32-4dfd-abe0-5a4a30e718c8","system_id":"levelo_inurba_marseille","lat":43.31369,"lon":5.38493,"is_reserved":false,"is_disabled":false,"rental_uris":{"android":"levelo://app?vid=cf139c3c-ca32-4dfd-abe0-5a4a30e718c8","ios":"levelo://app?vid=cf139c3c-ca32-4dfd-abe0-5a4a30e718c8"},"vehicle_type_id":"4","last_reported":1709849199,"current_range_meters":12400,"station_id":"ce4bgt92rcd13ifvqcf0","pricing_plan_id":"cebpf4jnsgd1na2vs0mg"},{"bike_id":"c98f223e-ca5b-4ddc-9dc1-01a09628d930","system_id":"levelo_inurba_marseille","lat":43.313571,"lon":5.384829,"is_reserved":false,"is_disabled":false,"rental_uris":{"android":"levelo://app?vid=c98f223e-ca5b-4ddc-9dc1-01a09628d930","ios":"levelo://app?vid=c98f223e-ca5b-4ddc-9dc1-01a09628d930"},"vehicle_type_id":"4","last_reported":1709849199,"current_range_meters":20000,"station_id":"ce4bgt92rcd13ifvqcf0","pricing_plan_id":"cebpf4jnsgd1na2vs0mg"},{"bike_id":"93034e52-9284-452e-bf9f-486929c40ec5","system_id":"levelo_inurba_marseille","lat":43.3137,"lon":5.385,"is_reserved":false,"is_disabled":false,"rental_uris":{"android":"levelo://app?vid=93034e52-9284-452e-bf9f-486929c40ec5","ios":"levelo://app?vid=93034e52-9284-452e-bf9f-486929c40ec5"},"vehicle_type_id":"4","last_reported":1709849199,"current_range_meters":4400,"station_id":"ce4bgt92rcd13ifvqcf0","pricing_plan_id":"cebpf4jnsgd1na2vs0mg"},{"bike_id":"500a3dba-2ffc-4190-ba3b-02ddf78963ed","system_id":"levelo_inurba_marseille","lat":43.299724,"lon":5.371829,"is_reserved":false,"is_disabled":false,"rental_uris":{"android":"levelo://app?vid=500a3dba-2ffc-4190-ba3b-02ddf78963ed","ios":"levelo://app?vid=500a3dba-2ffc-4190-ba3b-02ddf78963ed"},"vehicle_type_id":"4","last_reported":1709849199,"current_range_meters":25600,"station_id":"ce4bgr92rcd13ifvqc7g","pricing_plan_id":"cebpf4jnsgd1na2vs0mg"},{"bike_id":"0fe6fa2d-db31-4620-a751-2eb9209dd56a","system_id":"levelo_inurba_marseille","lat":43.299222,"lon":5.365554,"is_reserved":false,"is_disabled":false,"rental_uris":{"android":"levelo://app?vid=0fe6fa2d-db31-4620-a751-2eb9209dd56a","ios":"levelo://app?vid=0fe6fa2d-db31-4620-a751-2eb9209dd56a"},"vehicle_type_id":"4","last_reported":1709849199,"current_range_meters":2000,"station_id":"ce4bgm92rcd13ifvqbr0","pricing_plan_id":"cebpf4jnsgd1na2vs0mg"},{"bike_id":"76993ecf-ef85-4313-903f-e6177343ff2f","system_id":"levelo_inurba_marseille","lat":43.299222,"lon":5.365554,"is_reserved":false,"is_disabled":false,"rental_uris":{"android":"levelo://app?vid=76993ecf-ef85-4313-903f-e6177343ff2f","ios":"levelo://app?vid=76993ecf-ef85-4313-903f-e6177343ff2f"},"vehicle_type_id":"4","last_reported":1709849199,"current_range_meters":0,"station_id":"ce4bgm92rcd13ifvqbr0","pricing_plan_id":"cebpf4jnsgd1na2vs0mg"},{"bike_id":"9c0cfe1f-9ab0-4ebc-adbc-4abaf6f2c94f","system_id":"levelo_inurba_marseille","lat":43.29851,"lon":5.36287,"is_reserved":false,"is_disabled":false,"rental_uris":{"android":"levelo://app?vid=9c0cfe1f-9ab0-4ebc-adbc-4abaf6f2c94f","ios":"levelo://app?vid=9c0cfe1f-9ab0-4ebc-adbc-4abaf6f2c94f"},"vehicle_type_id":"4","last_reported":1709849199,"current_range_meters":10000,"station_id":"ce4bgpp2rcd13ifvqc3g","pricing_plan_id":"cebpf4jnsgd1na2vs0mg"},{"bike_id":"1fea4229-3fcb-46c1-8878-ee3d31e5fc00","system_id":"levelo_inurba_marseille","lat":43.298433,"lon":5.362774,"is_reserved":false,"is_disabled":false,"rental_uris":{"android":"levelo://app?vid=1fea4229-3fcb-46c1-8878-ee3d31e5fc00","ios":"levelo://app?vid=1fea4229-3fcb-46c1-8878-ee3d31e5fc00"},"vehicle_type_id":"4","last_reported":1709849199,"current_range_meters":22000,"station_id":"ce4bgpp2rcd13ifvqc3g","pricing_plan_id":"cebpf4jnsgd1na2vs0mg"},{"bike_id":"0dd5961d-c04c-4c98-b17b-9943dd23a45e","system_id":"levelo_inurba_marseille","lat":43.298433,"lon":5.362774,"is_reserved":false,"is_disabled":false,"rental_uris":{"android":"levelo://app?vid=0dd5961d-c04c-4c98-b17b-9943dd23a45e","ios":"levelo://app?vid=0dd5961d-c04c-4c98-b17b-9943dd23a45e"},"vehicle_type_id":"4","last_reported":1709849199,"current_range_meters":8000,"station_id":"ce4bgpp2rcd13ifvqc3g","pricing_plan_id":"cebpf4jnsgd1na2vs0mg"},{"bike_id":"ccba4b6e-f54d-42fa-bdda-f29a59c049c9","system_id":"levelo_inurba_marseille","lat":43.305364,"lon":5.384119,"is_reserved":false,"is_disabled":false,"rental_uris":{"android":"levelo://app?vid=ccba4b6e-f54d-42fa-bdda-f29a59c049c9","ios":"levelo://app?vid=ccba4b6e-f54d-42fa-bdda-f29a59c049c9"},"vehicle_type_id":"4","last_reported":1709849199,"current_range_meters":15200,"station_id":"ce4bgg92rcd13ifvqb30","pricing_plan_id":"cebpf4jnsgd1na2vs0mg"},{"bike_id":"31f6e901-df84-4cb1-b6cb-c68aae13d821","system_id":"levelo_inurba_marseille","lat":43.305364,"lon":5.384119,"is_reserved":false,"is_disabled":false,"rental_uris":{"android":"levelo://app?vid=31f6e901-df84-4cb1-b6cb-c68aae13d821","ios":"levelo://app?vid=31f6e901-df84-4cb1-b6cb-c68aae13d821"},"vehicle_type_id":"4","last_reported":1709849199,"current_range_meters":3200,"station_id":"ce4bgg92rcd13ifvqb30","pricing_plan_id":"cebpf4jnsgd1na2vs0mg"},{"bike_id":"18358f0e-399e-4c89-ac05-8b756d131ba8","system_id":"levelo_inurba_marseille","lat":43.311821,"lon":5.387119,"is_reserved":false,"is_disabled":false,"rental_uris":{"android":"levelo://app?vid=18358f0e-399e-4c89-ac05-8b756d131ba8","ios":"levelo://app?vid=18358f0e-399e-4c89-ac05-8b756d131ba8"},"vehicle_type_id":"4","last_reported":1709849199,"current_range_meters":4400,"station_id":"ce4bgv12rcd13ifvqcp0","pricing_plan_id":"cebpf4jnsgd1na2vs0mg"},{"bike_id":"2936e85a-e704-466c-b1f3-6c5bc8ea4d4f","system_id":"levelo_inurba_marseille","lat":43.305364,"lon":5.384119,"is_reserved":false,"is_disabled":false,"rental_uris":{"android":"levelo://app?vid=2936e85a-e704-466c-b1f3-6c5bc8ea4d4f","ios":"levelo://app?vid=2936e85a-e704-466c-b1f3-6c5bc8ea4d4f"},"vehicle_type_id":"4","last_reported":1709849199,"current_range_meters":0,"station_id":"ce4bgg92rcd13ifvqb30","pricing_plan_id":"cebpf4jnsgd1na2vs0mg"},{"bike_id":"9f68305d-f10a-421b-9e9a-6796f50ed107","system_id":"levelo_inurba_marseille","lat":43.311722,"lon":5.387247,"is_reserved":false,"is_disabled":false,"rental_uris":{"android":"levelo://app?vid=9f68305d-f10a-421b-9e9a-6796f50ed107","ios":"levelo://app?vid=9f68305d-f10a-421b-9e9a-6796f50ed107"},"vehicle_type_id":"4","last_reported":1709849199,"current_range_meters":14400,"station_id":"ce4bgv12rcd13ifvqcp0","pricing_plan_id":"cebpf4jnsgd1na2vs0mg"},{"bike_id":"86088588-74c6-42bd-a8fb-470ff7644883","system_id":"levelo_inurba_marseille","lat":43.311722,"lon":5.387247,"is_reserved":false,"is_disabled":false,"rental_uris":{"android":"levelo://app?vid=86088588-74c6-42bd-a8fb-470ff7644883","ios":"levelo://app?vid=86088588-74c6-42bd-a8fb-470ff7644883"},"vehicle_type_id":"4","last_reported":1709849199,"current_range_meters":11600,"station_id":"ce4bgv12rcd13ifvqcp0","pricing_plan_id":"cebpf4jnsgd1na2vs0mg"},{"bike_id":"2522edcf-360d-4624-94f5-d3931c5b7ef1","system_id":"levelo_inurba_marseille","lat":43.311722,"lon":5.387247,"is_reserved":false,"is_disabled":false,"rental_uris":{"android":"levelo://app?vid=2522edcf-360d-4624-94f5-d3931c5b7ef1","ios":"levelo://app?vid=2522edcf-360d-4624-94f5-d3931c5b7ef1"},"vehicle_type_id":"4","last_reported":1709849199,"current_range_meters":3600,"station_id":"ce4bgv12rcd13ifvqcp0","pricing_plan_id":"cebpf4jnsgd1na2vs0mg"},{"bike_id":"72177171-27b9-4912-bb1a-cb60f7b2c9ad","system_id":"levelo_inurba_marseille","lat":43.311722,"lon":5.387247,"is_reserved":false,"is_disabled":false,"rental_uris":{"android":"levelo://app?vid=72177171-27b9-4912-bb1a-cb60f7b2c9ad","ios":"levelo://app?vid=72177171-27b9-4912-bb1a-cb60f7b2c9ad"},"vehicle_type_id":"4","last_reported":1709849199,"current_range_meters":5600,"station_id":"ce4bgv12rcd13ifvqcp0","pricing_plan_id":"cebpf4jnsgd1na2vs0mg"},{"bike_id":"50d4a730-ced0-4c46-9d3a-160de26c0fec","system_id":"levelo_inurba_marseille","lat":43.311722,"lon":5.387247,"is_reserved":false,"is_disabled":false,"rental_uris":{"android":"levelo://app?vid=50d4a730-ced0-4c46-9d3a-160de26c0fec","ios":"levelo://app?vid=50d4a730-ced0-4c46-9d3a-160de26c0fec"},"vehicle_type_id":"4","last_reported":1709849199,"current_range_meters":23600,"station_id":"ce4bgv12rcd13ifvqcp0","pricing_plan_id":"cebpf4jnsgd1na2vs0mg"},{"bike_id":"3de07d31-64a7-460c-8981-e17039f19cae","system_id":"levelo_inurba_marseille","lat":43.297774,"lon":5.370875,"is_reserved":false,"is_disabled":false,"rental_uris":{"android":"levelo://app?vid=3de07d31-64a7-460c-8981-e17039f19cae","ios":"levelo://app?vid=3de07d31-64a7-460c-8981-e17039f19cae"},"vehicle_type_id":"4","last_reported":1709849199,"current_range_meters":24000,"station_id":"ce4bgop2rcd13ifvqc1g","pricing_plan_id":"cebpf4jnsgd1na2vs0mg"},{"bike_id":"43725db1-c618-46ed-8a77-5856726da4fe","system_id":"levelo_inurba_marseille","lat":43.297794,"lon":5.370888,"is_reserved":false,"is_disabled":false,"rental_uris":{"android":"levelo://app?vid=43725db1-c618-46ed-8a77-5856726da4fe","ios":"levelo://app?vid=43725db1-c618-46ed-8a77-5856726da4fe"},"vehicle_type_id":"4","last_reported":1709849199,"current_range_meters":31200,"station_id":"ce4bgop2rcd13ifvqc1g","pricing_plan_id":"cebpf4jnsgd1na2vs0mg"},{"bike_id":"5fa6298f-bb19-4f68-95ce-78a081aeaac3","system_id":"levelo_inurba_marseille","lat":43.322872,"lon":5.382756,"is_reserved":false,"is_disabled":false,"rental_uris":{"android":"levelo://app?vid=5fa6298f-bb19-4f68-95ce-78a081aeaac3","ios":"levelo://app?vid=5fa6298f-bb19-4f68-95ce-78a081aeaac3"},"vehicle_type_id":"4","last_reported":1709849199,"current_range_meters":0,"station_id":"ce4bhr12rcd13ifvqhqg","pricing_plan_id":"cebpf4jnsgd1na2vs0mg"},{"bike_id":"2bd7dd91-2812-4d05-b19e-f2defca5ad93","system_id":"levelo_inurba_marseille","lat":43.297794,"lon":5.370888,"is_reserved":false,"is_disabled":false,"rental_uris":{"android":"levelo://app?vid=2bd7dd91-2812-4d05-b19e-f2defca5ad93","ios":"levelo://app?vid=2bd7dd91-2812-4d05-b19e-f2defca5ad93"},"vehicle_type_id":"4","last_reported":1709849199,"current_range_meters":14400,"station_id":"ce4bgop2rcd13ifvqc1g","pricing_plan_id":"cebpf4jnsgd1na2vs0mg"},{"bike_id":"299e1b1d-026d-4cfd-9bd6-7cc24e19ad4c","system_id":"levelo_inurba_marseille","lat":43.322872,"lon":5.382756,"is_reserved":false,"is_disabled":false,"rental_uris":{"android":"levelo://app?vid=299e1b1d-026d-4cfd-9bd6-7cc24e19ad4c","ios":"levelo://app?vid=299e1b1d-026d-4cfd-9bd6-7cc24e19ad4c"},"vehicle_type_id":"4","last_reported":1709849199,"current_range_meters":31200,"station_id":"ce4bhr12rcd13ifvqhqg","pricing_plan_id":"cebpf4jnsgd1na2vs0mg"},{"bike_id":"e2267438-f67f-4875-8372-83a51af1157d","system_id":"levelo_inurba_marseille","lat":43.322872,"lon":5.382756,"is_reserved":false,"is_disabled":false,"rental_uris":{"android":"levelo://app?vid=e2267438-f67f-4875-8372-83a51af1157d","ios":"levelo://app?vid=e2267438-f67f-4875-8372-83a51af1157d"},"vehicle_type_id":"4","last_reported":1709849199,"current_range_meters":0,"station_id":"ce4bhr12rcd13ifvqhqg","pricing_plan_id":"cebpf4jnsgd1na2vs0mg"},{"bike_id":"7a1c88bf-e5fb-4ca4-a110-f35064f867c4","system_id":"levelo_inurba_marseille","lat":43.322872,"lon":5.382756,"is_reserved":false,"is_disabled":false,"rental_uris":{"android":"levelo://app?vid=7a1c88bf-e5fb-4ca4-a110-f35064f867c4","ios":"levelo://app?vid=7a1c88bf-e5fb-4ca4-a110-f35064f867c4"},"vehicle_type_id":"4","last_reported":1709849199,"current_range_meters":16800,"station_id":"ce4bhr12rcd13ifvqhqg","pricing_plan_id":"cebpf4jnsgd1na2vs0mg"},{"bike_id":"86b46df3-868b-4c5d-84aa-9e29bfde67d4","system_id":"levelo_inurba_marseille","lat":43.322872,"lon":5.382756,"is_reserved":false,"is_disabled":false,"rental_uris":{"android":"levelo://app?vid=86b46df3-868b-4c5d-84aa-9e29bfde67d4","ios":"levelo://app?vid=86b46df3-868b-4c5d-84aa-9e29bfde67d4"},"vehicle_type_id":"4","last_reported":1709849199,"current_range_meters":31200,"station_id":"ce4bhr12rcd13ifvqhqg","pricing_plan_id":"cebpf4jnsgd1na2vs0mg"},{"bike_id":"89281250-89ef-4dd7-84fe-26879b55f408","system_id":"levelo_inurba_marseille","lat":43.322872,"lon":5.382756,"is_reserved":false,"is_disabled":false,"rental_uris":{"android":"levelo://app?vid=89281250-89ef-4dd7-84fe-26879b55f408","ios":"levelo://app?vid=89281250-89ef-4dd7-84fe-26879b55f408"},"vehicle_type_id":"4","last_reported":1709849199,"current_range_meters":13600,"station_id":"ce4bhr12rcd13ifvqhqg","pricing_plan_id":"cebpf4jnsgd1na2vs0mg"},{"bike_id":"371e6a2c-3338-4dae-a4e7-3f648e3af128","system_id":"levelo_inurba_marseille","lat":43.322872,"lon":5.382756,"is_reserved":false,"is_disabled":false,"rental_uris":{"android":"levelo://app?vid=371e6a2c-3338-4dae-a4e7-3f648e3af128","ios":"levelo://app?vid=371e6a2c-3338-4dae-a4e7-3f648e3af128"},"vehicle_type_id":"4","last_reported":1709849199,"current_range_meters":30000,"station_id":"ce4bhr12rcd13ifvqhqg","pricing_plan_id":"cebpf4jnsgd1na2vs0mg"},{"bike_id":"c0664275-516d-4cfb-8db1-2225aa364432","system_id":"levelo_inurba_marseille","lat":43.322872,"lon":5.382756,"is_reserved":false,"is_disabled":false,"rental_uris":{"android":"levelo://app?vid=c0664275-516d-4cfb-8db1-2225aa364432","ios":"levelo://app?vid=c0664275-516d-4cfb-8db1-2225aa364432"},"vehicle_type_id":"4","last_reported":1709849199,"current_range_meters":17600,"station_id":"ce4bhr12rcd13ifvqhqg","pricing_plan_id":"cebpf4jnsgd1na2vs0mg"},{"bike_id":"8ac2c0a7-0fde-4645-99cb-8e715ee9b2c8","system_id":"levelo_inurba_marseille","lat":43.297163,"lon":5.365866,"is_reserved":false,"is_disabled":false,"rental_uris":{"android":"levelo://app?vid=8ac2c0a7-0fde-4645-99cb-8e715ee9b2c8","ios":"levelo://app?vid=8ac2c0a7-0fde-4645-99cb-8e715ee9b2c8"},"vehicle_type_id":"4","last_reported":1709849199,"current_range_meters":400,"station_id":"ce4bgn12rcd13ifvqbt0","pricing_plan_id":"cebpf4jnsgd1na2vs0mg"},{"bike_id":"18cf7580-6b1a-4743-84c1-f0e42ef51f90","system_id":"levelo_inurba_marseille","lat":43.297163,"lon":5.365866,"is_reserved":false,"is_disabled":false,"rental_uris":{"android":"levelo://app?vid=18cf7580-6b1a-4743-84c1-f0e42ef51f90","ios":"levelo://app?vid=18cf7580-6b1a-4743-84c1-f0e42ef51f90"},"vehicle_type_id":"4","last_reported":1709849199,"current_range_meters":18000,"station_id":"ce4bgn12rcd13ifvqbt0","pricing_plan_id":"cebpf4jnsgd1na2vs0mg"},{"bike_id":"a5bd8dab-285d-48cb-9326-2c1bf31ebbec","system_id":"levelo_inurba_marseille","lat":43.297163,"lon":5.365866,"is_reserved":false,"is_disabled":false,"rental_uris":{"android":"levelo://app?vid=a5bd8dab-285d-48cb-9326-2c1bf31ebbec","ios":"levelo://app?vid=a5bd8dab-285d-48cb-9326-2c1bf31ebbec"},"vehicle_type_id":"4","last_reported":1709849199,"current_range_meters":30000,"station_id":"ce4bgn12rcd13ifvqbt0","pricing_plan_id":"cebpf4jnsgd1na2vs0mg"},{"bike_id":"81d64cc5-6ab5-41a5-aac1-6b2c90f9e6a4","system_id":"levelo_inurba_marseille","lat":43.29709,"lon":5.36619,"is_reserved":false,"is_disabled":false,"rental_uris":{"android":"levelo://app?vid=81d64cc5-6ab5-41a5-aac1-6b2c90f9e6a4","ios":"levelo://app?vid=81d64cc5-6ab5-41a5-aac1-6b2c90f9e6a4"},"vehicle_type_id":"4","last_reported":1709849199,"current_range_meters":23200,"station_id":"ce4bgn12rcd13ifvqbt0","pricing_plan_id":"cebpf4jnsgd1na2vs0mg"},{"bike_id":"5d641731-83bd-4215-bc88-db8de18628a7","system_id":"levelo_inurba_marseille","lat":43.297163,"lon":5.365866,"is_reserved":false,"is_disabled":false,"rental_uris":{"android":"levelo://app?vid=5d641731-83bd-4215-bc88-db8de18628a7","ios":"levelo://app?vid=5d641731-83bd-4215-bc88-db8de18628a7"},"vehicle_type_id":"4","last_reported":1709849199,"current_range_meters":4800,"station_id":"ce4bgn12rcd13ifvqbt0","pricing_plan_id":"cebpf4jnsgd1na2vs0mg"},{"bike_id":"02667502-2fec-4148-a30e-64fa6b1bab13","system_id":"levelo_inurba_marseille","lat":43.297163,"lon":5.365866,"is_reserved":false,"is_disabled":false,"rental_uris":{"android":"levelo://app?vid=02667502-2fec-4148-a30e-64fa6b1bab13","ios":"levelo://app?vid=02667502-2fec-4148-a30e-64fa6b1bab13"},"vehicle_type_id":"4","last_reported":1709849199,"current_range_meters":25200,"station_id":"ce4bgn12rcd13ifvqbt0","pricing_plan_id":"cebpf4jnsgd1na2vs0mg"},{"bike_id":"e4f8a414-bc43-445f-b321-75166f7b2e6a","system_id":"levelo_inurba_marseille","lat":43.295823,"lon":5.368003,"is_reserved":false,"is_disabled":false,"rental_uris":{"android":"levelo://app?vid=e4f8a414-bc43-445f-b321-75166f7b2e6a","ios":"levelo://app?vid=e4f8a414-bc43-445f-b321-75166f7b2e6a"},"vehicle_type_id":"4","last_reported":1709849199,"current_range_meters":7200,"station_id":"","pricing_plan_id":"cebpf4jnsgd1na2vs0mg"},{"bike_id":"67021861-57ff-4dd3-8c30-587afcab9b85","system_id":"levelo_inurba_marseille","lat":43.29573,"lon":5.367355,"is_reserved":false,"is_disabled":false,"rental_uris":{"android":"levelo://app?vid=67021861-57ff-4dd3-8c30-587afcab9b85","ios":"levelo://app?vid=67021861-57ff-4dd3-8c30-587afcab9b85"},"vehicle_type_id":"4","last_reported":1709849199,"current_range_meters":6800,"station_id":"ce4bgph2rcd13ifvqc2g","pricing_plan_id":"cebpf4jnsgd1na2vs0mg"},{"bike_id":"3e1209ba-73b5-4977-ab0b-f939b99b23f0","system_id":"levelo_inurba_marseille","lat":43.299028,"lon":5.381509,"is_reserved":false,"is_disabled":false,"rental_uris":{"android":"levelo://app?vid=3e1209ba-73b5-4977-ab0b-f939b99b23f0","ios":"levelo://app?vid=3e1209ba-73b5-4977-ab0b-f939b99b23f0"},"vehicle_type_id":"4","last_reported":1709849199,"current_range_meters":11200,"station_id":"ce4bgj12rcd13ifvqbc0","pricing_plan_id":"cebpf4jnsgd1na2vs0mg"},{"bike_id":"d8120890-7650-4b42-9879-3fb52ca6e91d","system_id":"levelo_inurba_marseille","lat":43.299028,"lon":5.381509,"is_reserved":false,"is_disabled":false,"rental_uris":{"android":"levelo://app?vid=d8120890-7650-4b42-9879-3fb52ca6e91d","ios":"levelo://app?vid=d8120890-7650-4b42-9879-3fb52ca6e91d"},"vehicle_type_id":"4","last_reported":1709849199,"current_range_meters":18000,"station_id":"ce4bgj12rcd13ifvqbc0","pricing_plan_id":"cebpf4jnsgd1na2vs0mg"},{"bike_id":"654307aa-71d2-4845-90b3-6d028698e0ac","system_id":"levelo_inurba_marseille","lat":43.309589,"lon":5.390258,"is_reserved":false,"is_disabled":false,"rental_uris":{"android":"levelo://app?vid=654307aa-71d2-4845-90b3-6d028698e0ac","ios":"levelo://app?vid=654307aa-71d2-4845-90b3-6d028698e0ac"},"vehicle_type_id":"4","last_reported":1709849199,"current_range_meters":13200,"station_id":"ce4bgup2rcd13ifvqco0","pricing_plan_id":"cebpf4jnsgd1na2vs0mg"},{"bike_id":"747449bc-eb8d-43d2-b1a8-e3998768102f","system_id":"levelo_inurba_marseille","lat":43.317564,"lon":5.39012,"is_reserved":false,"is_disabled":false,"rental_uris":{"android":"levelo://app?vid=747449bc-eb8d-43d2-b1a8-e3998768102f","ios":"levelo://app?vid=747449bc-eb8d-43d2-b1a8-e3998768102f"},"vehicle_type_id":"4","last_reported":1709849199,"current_range_meters":22400,"station_id":"ce4bhqp2rcd13ifvqhng","pricing_plan_id":"cebpf4jnsgd1na2vs0mg"},{"bike_id":"481d78f6-e968-4346-8805-3a65a2e9a50c","system_id":"levelo_inurba_marseille","lat":43.317557,"lon":5.390173,"is_reserved":false,"is_disabled":false,"rental_uris":{"android":"levelo://app?vid=481d78f6-e968-4346-8805-3a65a2e9a50c","ios":"levelo://app?vid=481d78f6-e968-4346-8805-3a65a2e9a50c"},"vehicle_type_id":"4","last_reported":1709849199,"current_range_meters":24400,"station_id":"ce4bhqp2rcd13ifvqhng","pricing_plan_id":"cebpf4jnsgd1na2vs0mg"},{"bike_id":"16f7fe0a-a554-4ec3-839f-7ecca952472f","system_id":"levelo_inurba_marseille","lat":43.3176,"lon":5.39012,"is_reserved":false,"is_disabled":false,"rental_uris":{"android":"levelo://app?vid=16f7fe0a-a554-4ec3-839f-7ecca952472f","ios":"levelo://app?vid=16f7fe0a-a554-4ec3-839f-7ecca952472f"},"vehicle_type_id":"4","last_reported":1709849199,"current_range_meters":2400,"station_id":"ce4bhqp2rcd13ifvqhng","pricing_plan_id":"cebpf4jnsgd1na2vs0mg"},{"bike_id":"8032fd1c-480c-496d-b498-7dbea2cd1255","system_id":"levelo_inurba_marseille","lat":43.31754,"lon":5.39015,"is_reserved":false,"is_disabled":false,"rental_uris":{"android":"levelo://app?vid=8032fd1c-480c-496d-b498-7dbea2cd1255","ios":"levelo://app?vid=8032fd1c-480c-496d-b498-7dbea2cd1255"},"vehicle_type_id":"4","last_reported":1709849199,"current_range_meters":26000,"station_id":"ce4bhqp2rcd13ifvqhng","pricing_plan_id":"cebpf4jnsgd1na2vs0mg"},{"bike_id":"8fced112-2c10-4b7a-a55f-15d0a87cf457","system_id":"levelo_inurba_marseille","lat":43.31754,"lon":5.39019,"is_reserved":false,"is_disabled":false,"rental_uris":{"android":"levelo://app?vid=8fced112-2c10-4b7a-a55f-15d0a87cf457","ios":"levelo://app?vid=8fced112-2c10-4b7a-a55f-15d0a87cf457"},"vehicle_type_id":"4","last_reported":1709849199,"current_range_meters":4000,"station_id":"ce4bhqp2rcd13ifvqhng","pricing_plan_id":"cebpf4jnsgd1na2vs0mg"},{"bike_id":"fbf4bc01-1489-42df-9b36-78c5a7600041","system_id":"levelo_inurba_marseille","lat":43.317557,"lon":5.390173,"is_reserved":false,"is_disabled":false,"rental_uris":{"android":"levelo://app?vid=fbf4bc01-1489-42df-9b36-78c5a7600041","ios":"levelo://app?vid=fbf4bc01-1489-42df-9b36-78c5a7600041"},"vehicle_type_id":"4","last_reported":1709849199,"current_range_meters":2400,"station_id":"ce4bhqp2rcd13ifvqhng","pricing_plan_id":"cebpf4jnsgd1na2vs0mg"},{"bike_id":"a50d8518-274b-4c10-b0b7-650050baa7d7","system_id":"levelo_inurba_marseille","lat":43.31757,"lon":5.39041,"is_reserved":false,"is_disabled":false,"rental_uris":{"android":"levelo://app?vid=a50d8518-274b-4c10-b0b7-650050baa7d7","ios":"levelo://app?vid=a50d8518-274b-4c10-b0b7-650050baa7d7"},"vehicle_type_id":"4","last_reported":1709849199,"current_range_meters":29200,"station_id":"ce4bhqp2rcd13ifvqhng","pricing_plan_id":"cebpf4jnsgd1na2vs0mg"},{"bike_id":"0a332c5a-c6ea-485b-b4bd-355a508efc14","system_id":"levelo_inurba_marseille","lat":43.29586,"lon":5.37512,"is_reserved":false,"is_disabled":false,"rental_uris":{"android":"levelo://app?vid=0a332c5a-c6ea-485b-b4bd-355a508efc14","ios":"levelo://app?vid=0a332c5a-c6ea-485b-b4bd-355a508efc14"},"vehicle_type_id":"4","last_reported":1709849199,"current_range_meters":0,"station_id":"ce4bgh92rcd13ifvqb50","pricing_plan_id":"cebpf4jnsgd1na2vs0mg"},{"bike_id":"c447b1a7-3c37-43b6-8506-0d1dedaae41a","system_id":"levelo_inurba_marseille","lat":43.295748,"lon":5.37522,"is_reserved":false,"is_disabled":false,"rental_uris":{"android":"levelo://app?vid=c447b1a7-3c37-43b6-8506-0d1dedaae41a","ios":"levelo://app?vid=c447b1a7-3c37-43b6-8506-0d1dedaae41a"},"vehicle_type_id":"4","last_reported":1709849199,"current_range_meters":27200,"station_id":"ce4bgh92rcd13ifvqb50","pricing_plan_id":"cebpf4jnsgd1na2vs0mg"},{"bike_id":"707abdb3-2c17-4205-9685-79302b1cfaf7","system_id":"levelo_inurba_marseille","lat":43.304363,"lon":5.388863,"is_reserved":false,"is_disabled":false,"rental_uris":{"android":"levelo://app?vid=707abdb3-2c17-4205-9685-79302b1cfaf7","ios":"levelo://app?vid=707abdb3-2c17-4205-9685-79302b1cfaf7"},"vehicle_type_id":"4","last_reported":1709849199,"current_range_meters":3600,"station_id":"ce4bgk12rcd13ifvqbi0","pricing_plan_id":"cebpf4jnsgd1na2vs0mg"},{"bike_id":"49b98ffb-e5d9-4574-81df-66416a135b4f","system_id":"levelo_inurba_marseille","lat":43.30439,"lon":5.388897,"is_reserved":false,"is_disabled":false,"rental_uris":{"android":"levelo://app?vid=49b98ffb-e5d9-4574-81df-66416a135b4f","ios":"levelo://app?vid=49b98ffb-e5d9-4574-81df-66416a135b4f"},"vehicle_type_id":"4","last_reported":1709849199,"current_range_meters":14800,"station_id":"ce4bgk12rcd13ifvqbi0","pricing_plan_id":"cebpf4jnsgd1na2vs0mg"},{"bike_id":"50758912-8d02-4100-8370-55cb044e1f60","system_id":"levelo_inurba_marseille","lat":43.304317,"lon":5.388873,"is_reserved":false,"is_disabled":false,"rental_uris":{"android":"levelo://app?vid=50758912-8d02-4100-8370-55cb044e1f60","ios":"levelo://app?vid=50758912-8d02-4100-8370-55cb044e1f60"},"vehicle_type_id":"4","last_reported":1709849199,"current_range_meters":9200,"station_id":"ce4bgk12rcd13ifvqbi0","pricing_plan_id":"cebpf4jnsgd1na2vs0mg"},{"bike_id":"6d3f6036-6f10-418a-88af-5dc67494ca3a","system_id":"levelo_inurba_marseille","lat":43.299741,"lon":5.384871,"is_reserved":false,"is_disabled":false,"rental_uris":{"android":"levelo://app?vid=6d3f6036-6f10-418a-88af-5dc67494ca3a","ios":"levelo://app?vid=6d3f6036-6f10-418a-88af-5dc67494ca3a"},"vehicle_type_id":"4","last_reported":1709849199,"current_range_meters":30400,"station_id":"","pricing_plan_id":"cebpf4jnsgd1na2vs0mg"},{"bike_id":"2ddf732e-f833-4995-aa6d-10ceb9cb6612","system_id":"levelo_inurba_marseille","lat":43.295279,"lon":5.375048,"is_reserved":false,"is_disabled":false,"rental_uris":{"android":"levelo://app?vid=2ddf732e-f833-4995-aa6d-10ceb9cb6612","ios":"levelo://app?vid=2ddf732e-f833-4995-aa6d-10ceb9cb6612"},"vehicle_type_id":"4","last_reported":1709849199,"current_range_meters":30800,"station_id":"ce4bgkp2rcd13ifvqbmg","pricing_plan_id":"cebpf4jnsgd1na2vs0mg"},{"bike_id":"9bbc1577-5246-4e4f-8b28-4de99f2aff7a","system_id":"levelo_inurba_marseille","lat":43.295279,"lon":5.375048,"is_reserved":false,"is_disabled":false,"rental_uris":{"android":"levelo://app?vid=9bbc1577-5246-4e4f-8b28-4de99f2aff7a","ios":"levelo://app?vid=9bbc1577-5246-4e4f-8b28-4de99f2aff7a"},"vehicle_type_id":"4","last_reported":1709849199,"current_range_meters":20000,"station_id":"ce4bgkp2rcd13ifvqbmg","pricing_plan_id":"cebpf4jnsgd1na2vs0mg"},{"bike_id":"5f2f7ac3-3e64-499f-abd9-697fe271d6d8","system_id":"levelo_inurba_marseille","lat":43.32365,"lon":5.38881,"is_reserved":false,"is_disabled":false,"rental_uris":{"android":"levelo://app?vid=5f2f7ac3-3e64-499f-abd9-697fe271d6d8","ios":"levelo://app?vid=5f2f7ac3-3e64-499f-abd9-697fe271d6d8"},"vehicle_type_id":"4","last_reported":1709849199,"current_range_meters":4800,"station_id":"ce4bhqp2rcd13ifvqhog","pricing_plan_id":"cebpf4jnsgd1na2vs0mg"},{"bike_id":"97a4d82a-f758-40b0-a6a5-85d948c1a27e","system_id":"levelo_inurba_marseille","lat":43.32364,"lon":5.38885,"is_reserved":false,"is_disabled":false,"rental_uris":{"android":"levelo://app?vid=97a4d82a-f758-40b0-a6a5-85d948c1a27e","ios":"levelo://app?vid=97a4d82a-f758-40b0-a6a5-85d948c1a27e"},"vehicle_type_id":"4","last_reported":1709849199,"current_range_meters":2000,"station_id":"ce4bhqp2rcd13ifvqhog","pricing_plan_id":"cebpf4jnsgd1na2vs0mg"},{"bike_id":"87229f76-c6ad-44b7-a3e4-14204eaf182c","system_id":"levelo_inurba_marseille","lat":43.32364,"lon":5.38885,"is_reserved":false,"is_disabled":false,"rental_uris":{"android":"levelo://app?vid=87229f76-c6ad-44b7-a3e4-14204eaf182c","ios":"levelo://app?vid=87229f76-c6ad-44b7-a3e4-14204eaf182c"},"vehicle_type_id":"4","last_reported":1709849199,"current_range_meters":2400,"station_id":"ce4bhqp2rcd13ifvqhog","pricing_plan_id":"cebpf4jnsgd1na2vs0mg"},{"bike_id":"32cf131d-1564-4297-adb3-6e0cfb2b8f2b","system_id":"levelo_inurba_marseille","lat":43.32367,"lon":5.388836,"is_reserved":false,"is_disabled":false,"rental_uris":{"android":"levelo://app?vid=32cf131d-1564-4297-adb3-6e0cfb2b8f2b","ios":"levelo://app?vid=32cf131d-1564-4297-adb3-6e0cfb2b8f2b"},"vehicle_type_id":"4","last_reported":1709849199,"current_range_meters":7200,"station_id":"ce4bhqp2rcd13ifvqhog","pricing_plan_id":"cebpf4jnsgd1na2vs0mg"},{"bike_id":"5f1221d4-84bd-4819-87f7-89986a7b862f","system_id":"levelo_inurba_marseille","lat":43.32367,"lon":5.388836,"is_reserved":false,"is_disabled":false,"rental_uris":{"android":"levelo://app?vid=5f1221d4-84bd-4819-87f7-89986a7b862f","ios":"levelo://app?vid=5f1221d4-84bd-4819-87f7-89986a7b862f"},"vehicle_type_id":"4","last_reported":1709849199,"current_range_meters":8000,"station_id":"ce4bhqp2rcd13ifvqhog","pricing_plan_id":"cebpf4jnsgd1na2vs0mg"},{"bike_id":"fef7fb17-8feb-442d-ada1-e933f379d802","system_id":"levelo_inurba_marseille","lat":43.323688,"lon":5.388932,"is_reserved":false,"is_disabled":false,"rental_uris":{"android":"levelo://app?vid=fef7fb17-8feb-442d-ada1-e933f379d802","ios":"levelo://app?vid=fef7fb17-8feb-442d-ada1-e933f379d802"},"vehicle_type_id":"4","last_reported":1709849199,"current_range_meters":13600,"station_id":"ce4bhqp2rcd13ifvqhog","pricing_plan_id":"cebpf4jnsgd1na2vs0mg"},{"bike_id":"d0b7a5ac-8adc-4bf7-8ec6-c6ea5b96b959","system_id":"levelo_inurba_marseille","lat":43.295981,"lon":5.381063,"is_reserved":false,"is_disabled":false,"rental_uris":{"android":"levelo://app?vid=d0b7a5ac-8adc-4bf7-8ec6-c6ea5b96b959","ios":"levelo://app?vid=d0b7a5ac-8adc-4bf7-8ec6-c6ea5b96b959"},"vehicle_type_id":"4","last_reported":1709849199,"current_range_meters":2800,"station_id":"ce4bgl12rcd13ifvqbo0","pricing_plan_id":"cebpf4jnsgd1na2vs0mg"},{"bike_id":"dbbe6583-632c-467e-99be-ea822f3e8ca2","system_id":"levelo_inurba_marseille","lat":43.311722,"lon":5.387247,"is_reserved":false,"is_disabled":false,"rental_uris":{"android":"levelo://app?vid=dbbe6583-632c-467e-99be-ea822f3e8ca2","ios":"levelo://app?vid=dbbe6583-632c-467e-99be-ea822f3e8ca2"},"vehicle_type_id":"4","last_reported":1709849199,"current_range_meters":26400,"station_id":"ce4bgv12rcd13ifvqcp0","pricing_plan_id":"cebpf4jnsgd1na2vs0mg"},{"bike_id":"d64797bf-3e7d-4978-b290-c37142db2f54","system_id":"levelo_inurba_marseille","lat":43.29312,"lon":5.37181,"is_reserved":false,"is_disabled":false,"rental_uris":{"android":"levelo://app?vid=d64797bf-3e7d-4978-b290-c37142db2f54","ios":"levelo://app?vid=d64797bf-3e7d-4978-b290-c37142db2f54"},"vehicle_type_id":"4","last_reported":1709849199,"current_range_meters":28000,"station_id":"ce4bgh92rcd13ifvqb40","pricing_plan_id":"cebpf4jnsgd1na2vs0mg"},{"bike_id":"1853145b-3e25-44b1-89f2-12721d9c5e40","system_id":"levelo_inurba_marseille","lat":43.292749,"lon":5.368402,"is_reserved":false,"is_disabled":false,"rental_uris":{"android":"levelo://app?vid=1853145b-3e25-44b1-89f2-12721d9c5e40","ios":"levelo://app?vid=1853145b-3e25-44b1-89f2-12721d9c5e40"},"vehicle_type_id":"4","last_reported":1709849199,"current_range_meters":31200,"station_id":"ce4bhbp2rcd13ifvqesg","pricing_plan_id":"cebpf4jnsgd1na2vs0mg"},{"bike_id":"3caa7b4e-c48b-46f1-89e4-4248da3c7d2f","system_id":"levelo_inurba_marseille","lat":43.2931,"lon":5.3719,"is_reserved":false,"is_disabled":false,"rental_uris":{"android":"levelo://app?vid=3caa7b4e-c48b-46f1-89e4-4248da3c7d2f","ios":"levelo://app?vid=3caa7b4e-c48b-46f1-89e4-4248da3c7d2f"},"vehicle_type_id":"4","last_reported":1709849199,"current_range_meters":8400,"station_id":"ce4bgh92rcd13ifvqb40","pricing_plan_id":"cebpf4jnsgd1na2vs0mg"},{"bike_id":"08dc89cd-566e-4406-8ff3-4477ce41c059","system_id":"levelo_inurba_marseille","lat":43.293259,"lon":5.371586,"is_reserved":false,"is_disabled":false,"rental_uris":{"android":"levelo://app?vid=08dc89cd-566e-4406-8ff3-4477ce41c059","ios":"levelo://app?vid=08dc89cd-566e-4406-8ff3-4477ce41c059"},"vehicle_type_id":"4","last_reported":1709849199,"current_range_meters":800,"station_id":"ce4bgh92rcd13ifvqb40","pricing_plan_id":"cebpf4jnsgd1na2vs0mg"},{"bike_id":"bd09d4b8-c75a-40d8-9f02-4e1f335604d2","system_id":"levelo_inurba_marseille","lat":43.29279,"lon":5.36838,"is_reserved":false,"is_disabled":false,"rental_uris":{"android":"levelo://app?vid=bd09d4b8-c75a-40d8-9f02-4e1f335604d2","ios":"levelo://app?vid=bd09d4b8-c75a-40d8-9f02-4e1f335604d2"},"vehicle_type_id":"4","last_reported":1709849199,"current_range_meters":30000,"station_id":"ce4bhbp2rcd13ifvqesg","pricing_plan_id":"cebpf4jnsgd1na2vs0mg"},{"bike_id":"f95d4691-44eb-4c0d-82b2-4d899d685b20","system_id":"levelo_inurba_marseille","lat":43.292749,"lon":5.368402,"is_reserved":false,"is_disabled":false,"rental_uris":{"android":"levelo://app?vid=f95d4691-44eb-4c0d-82b2-4d899d685b20","ios":"levelo://app?vid=f95d4691-44eb-4c0d-82b2-4d899d685b20"},"vehicle_type_id":"4","last_reported":1709849199,"current_range_meters":29200,"station_id":"ce4bhbp2rcd13ifvqesg","pricing_plan_id":"cebpf4jnsgd1na2vs0mg"},{"bike_id":"ea6ec237-5293-4454-93aa-53e57b76b5f7","system_id":"levelo_inurba_marseille","lat":43.29277,"lon":5.36845,"is_reserved":false,"is_disabled":false,"rental_uris":{"android":"levelo://app?vid=ea6ec237-5293-4454-93aa-53e57b76b5f7","ios":"levelo://app?vid=ea6ec237-5293-4454-93aa-53e57b76b5f7"},"vehicle_type_id":"4","last_reported":1709849199,"current_range_meters":6800,"station_id":"ce4bhbp2rcd13ifvqesg","pricing_plan_id":"cebpf4jnsgd1na2vs0mg"},{"bike_id":"60090123-ea92-49c7-9767-82fcda844ff8","system_id":"levelo_inurba_marseille","lat":43.29305,"lon":5.37178,"is_reserved":false,"is_disabled":false,"rental_uris":{"android":"levelo://app?vid=60090123-ea92-49c7-9767-82fcda844ff8","ios":"levelo://app?vid=60090123-ea92-49c7-9767-82fcda844ff8"},"vehicle_type_id":"4","last_reported":1709849199,"current_range_meters":10800,"station_id":"ce4bgh92rcd13ifvqb40","pricing_plan_id":"cebpf4jnsgd1na2vs0mg"},{"bike_id":"7431ca50-5baa-4c6c-b791-117967ff0cc6","system_id":"levelo_inurba_marseille","lat":43.29304,"lon":5.37182,"is_reserved":false,"is_disabled":false,"rental_uris":{"android":"levelo://app?vid=7431ca50-5baa-4c6c-b791-117967ff0cc6","ios":"levelo://app?vid=7431ca50-5baa-4c6c-b791-117967ff0cc6"},"vehicle_type_id":"4","last_reported":1709849199,"current_range_meters":8400,"station_id":"ce4bgh92rcd13ifvqb40","pricing_plan_id":"cebpf4jnsgd1na2vs0mg"},{"bike_id":"95fa5727-6ce5-451c-8681-8119006d2b53","system_id":"levelo_inurba_marseille","lat":43.292749,"lon":5.368402,"is_reserved":false,"is_disabled":false,"rental_uris":{"android":"levelo://app?vid=95fa5727-6ce5-451c-8681-8119006d2b53","ios":"levelo://app?vid=95fa5727-6ce5-451c-8681-8119006d2b53"},"vehicle_type_id":"4","last_reported":1709849199,"current_range_meters":0,"station_id":"ce4bhbp2rcd13ifvqesg","pricing_plan_id":"cebpf4jnsgd1na2vs0mg"},{"bike_id":"39354bae-6707-4c2c-a271-de7f747bc966","system_id":"levelo_inurba_marseille","lat":43.292749,"lon":5.368402,"is_reserved":false,"is_disabled":false,"rental_uris":{"android":"levelo://app?vid=39354bae-6707-4c2c-a271-de7f747bc966","ios":"levelo://app?vid=39354bae-6707-4c2c-a271-de7f747bc966"},"vehicle_type_id":"4","last_reported":1709849199,"current_range_meters":28000,"station_id":"ce4bhbp2rcd13ifvqesg","pricing_plan_id":"cebpf4jnsgd1na2vs0mg"},{"bike_id":"42b18fee-383d-4dc4-bc85-1f1e999dda99","system_id":"levelo_inurba_marseille","lat":43.29271,"lon":5.36837,"is_reserved":false,"is_disabled":false,"rental_uris":{"android":"levelo://app?vid=42b18fee-383d-4dc4-bc85-1f1e999dda99","ios":"levelo://app?vid=42b18fee-383d-4dc4-bc85-1f1e999dda99"},"vehicle_type_id":"4","last_reported":1709849199,"current_range_meters":24000,"station_id":"ce4bhbp2rcd13ifvqesg","pricing_plan_id":"cebpf4jnsgd1na2vs0mg"},{"bike_id":"daf5ccb6-1436-429e-87e0-a41ead77d9da","system_id":"levelo_inurba_marseille","lat":43.305994,"lon":5.393687,"is_reserved":false,"is_disabled":false,"rental_uris":{"android":"levelo://app?vid=daf5ccb6-1436-429e-87e0-a41ead77d9da","ios":"levelo://app?vid=daf5ccb6-1436-429e-87e0-a41ead77d9da"},"vehicle_type_id":"4","last_reported":1709849199,"current_range_meters":17600,"station_id":"ce4bh0p2rcd13ifvqd80","pricing_plan_id":"cebpf4jnsgd1na2vs0mg"},{"bike_id":"7c342656-f549-4bb6-a722-ff59200e354f","system_id":"levelo_inurba_marseille","lat":43.305994,"lon":5.393687,"is_reserved":false,"is_disabled":false,"rental_uris":{"android":"levelo://app?vid=7c342656-f549-4bb6-a722-ff59200e354f","ios":"levelo://app?vid=7c342656-f549-4bb6-a722-ff59200e354f"},"vehicle_type_id":"4","last_reported":1709849199,"current_range_meters":10000,"station_id":"ce4bh0p2rcd13ifvqd80","pricing_plan_id":"cebpf4jnsgd1na2vs0mg"},{"bike_id":"a7e7d482-9696-4a38-be95-e0bddba664c6","system_id":"levelo_inurba_marseille","lat":43.305994,"lon":5.393687,"is_reserved":false,"is_disabled":false,"rental_uris":{"android":"levelo://app?vid=a7e7d482-9696-4a38-be95-e0bddba664c6","ios":"levelo://app?vid=a7e7d482-9696-4a38-be95-e0bddba664c6"},"vehicle_type_id":"4","last_reported":1709849199,"current_range_meters":23200,"station_id":"ce4bh0p2rcd13ifvqd80","pricing_plan_id":"cebpf4jnsgd1na2vs0mg"},{"bike_id":"e3f38dab-4902-4e69-922f-89c17016e42f","system_id":"levelo_inurba_marseille","lat":43.302992,"lon":5.392136,"is_reserved":false,"is_disabled":false,"rental_uris":{"android":"levelo://app?vid=e3f38dab-4902-4e69-922f-89c17016e42f","ios":"levelo://app?vid=e3f38dab-4902-4e69-922f-89c17016e42f"},"vehicle_type_id":"4","last_reported":1709849199,"current_range_meters":24000,"station_id":"ce4bgkh2rcd13ifvqbk0","pricing_plan_id":"cebpf4jnsgd1na2vs0mg"},{"bike_id":"01aa57a9-ce62-4967-86ed-28faa48e0524","system_id":"levelo_inurba_marseille","lat":43.303002,"lon":5.392142,"is_reserved":false,"is_disabled":false,"rental_uris":{"android":"levelo://app?vid=01aa57a9-ce62-4967-86ed-28faa48e0524","ios":"levelo://app?vid=01aa57a9-ce62-4967-86ed-28faa48e0524"},"vehicle_type_id":"4","last_reported":1709849199,"current_range_meters":14400,"station_id":"ce4bgkh2rcd13ifvqbk0","pricing_plan_id":"cebpf4jnsgd1na2vs0mg"},{"bike_id":"1602924a-0dd5-42f5-8d55-9f0d4def448b","system_id":"levelo_inurba_marseille","lat":43.302992,"lon":5.392136,"is_reserved":false,"is_disabled":false,"rental_uris":{"android":"levelo://app?vid=1602924a-0dd5-42f5-8d55-9f0d4def448b","ios":"levelo://app?vid=1602924a-0dd5-42f5-8d55-9f0d4def448b"},"vehicle_type_id":"4","last_reported":1709849199,"current_range_meters":20000,"station_id":"ce4bgkh2rcd13ifvqbk0","pricing_plan_id":"cebpf4jnsgd1na2vs0mg"},{"bike_id":"7e2e50db-54b2-46aa-8d3e-d042c673c5d5","system_id":"levelo_inurba_marseille","lat":43.293715,"lon":5.378495,"is_reserved":false,"is_disabled":false,"rental_uris":{"android":"levelo://app?vid=7e2e50db-54b2-46aa-8d3e-d042c673c5d5","ios":"levelo://app?vid=7e2e50db-54b2-46aa-8d3e-d042c673c5d5"},"vehicle_type_id":"4","last_reported":1709849199,"current_range_meters":24000,"station_id":"ce4bgjh2rcd13ifvqbf0","pricing_plan_id":"cebpf4jnsgd1na2vs0mg"},{"bike_id":"77df7ff2-e33d-4cfd-b71c-73b007735fc7","system_id":"levelo_inurba_marseille","lat":43.29368,"lon":5.37841,"is_reserved":false,"is_disabled":false,"rental_uris":{"android":"levelo://app?vid=77df7ff2-e33d-4cfd-b71c-73b007735fc7","ios":"levelo://app?vid=77df7ff2-e33d-4cfd-b71c-73b007735fc7"},"vehicle_type_id":"4","last_reported":1709849199,"current_range_meters":8000,"station_id":"ce4bgjh2rcd13ifvqbf0","pricing_plan_id":"cebpf4jnsgd1na2vs0mg"},{"bike_id":"6d8e48d8-09af-40b6-befd-61481452ab6a","system_id":"levelo_inurba_marseille","lat":43.2936,"lon":5.37835,"is_reserved":false,"is_disabled":false,"rental_uris":{"android":"levelo://app?vid=6d8e48d8-09af-40b6-befd-61481452ab6a","ios":"levelo://app?vid=6d8e48d8-09af-40b6-befd-61481452ab6a"},"vehicle_type_id":"4","last_reported":1709849199,"current_range_meters":16000,"station_id":"ce4bgjh2rcd13ifvqbf0","pricing_plan_id":"cebpf4jnsgd1na2vs0mg"},{"bike_id":"70ef8625-bbd6-48ff-bdde-bc928fe7a1d4","system_id":"levelo_inurba_marseille","lat":43.302992,"lon":5.392136,"is_reserved":false,"is_disabled":false,"rental_uris":{"android":"levelo://app?vid=70ef8625-bbd6-48ff-bdde-bc928fe7a1d4","ios":"levelo://app?vid=70ef8625-bbd6-48ff-bdde-bc928fe7a1d4"},"vehicle_type_id":"4","last_reported":1709849199,"current_range_meters":10000,"station_id":"ce4bgkh2rcd13ifvqbk0","pricing_plan_id":"cebpf4jnsgd1na2vs0mg"},{"bike_id":"35e5a675-5a76-4bd7-ae70-3d4a848ce353","system_id":"levelo_inurba_marseille","lat":43.2936,"lon":5.37835,"is_reserved":false,"is_disabled":false,"rental_uris":{"android":"levelo://app?vid=35e5a675-5a76-4bd7-ae70-3d4a848ce353","ios":"levelo://app?vid=35e5a675-5a76-4bd7-ae70-3d4a848ce353"},"vehicle_type_id":"4","last_reported":1709849199,"current_range_meters":24800,"station_id":"ce4bgjh2rcd13ifvqbf0","pricing_plan_id":"cebpf4jnsgd1na2vs0mg"},{"bike_id":"52a14b6c-c90c-4cd4-a7bd-3e1f642f10f2","system_id":"levelo_inurba_marseille","lat":43.29376,"lon":5.37879,"is_reserved":false,"is_disabled":false,"rental_uris":{"android":"levelo://app?vid=52a14b6c-c90c-4cd4-a7bd-3e1f642f10f2","ios":"levelo://app?vid=52a14b6c-c90c-4cd4-a7bd-3e1f642f10f2"},"vehicle_type_id":"4","last_reported":1709849199,"current_range_meters":0,"station_id":"ce4bgjh2rcd13ifvqbf0","pricing_plan_id":"cebpf4jnsgd1na2vs0mg"},{"bike_id":"f979a464-b62a-4c3c-9d64-84f390cff858","system_id":"levelo_inurba_marseille","lat":43.300852,"lon":5.390859,"is_reserved":false,"is_disabled":false,"rental_uris":{"android":"levelo://app?vid=f979a464-b62a-4c3c-9d64-84f390cff858","ios":"levelo://app?vid=f979a464-b62a-4c3c-9d64-84f390cff858"},"vehicle_type_id":"4","last_reported":1709849199,"current_range_meters":1600,"station_id":"ce4bh192rcd13ifvqdb0","pricing_plan_id":"cebpf4jnsgd1na2vs0mg"},{"bike_id":"a6da7e50-e2c8-45f8-8ad3-93546c1ea6fc","system_id":"levelo_inurba_marseille","lat":43.292311,"lon":5.360731,"is_reserved":false,"is_disabled":false,"rental_uris":{"android":"levelo://app?vid=a6da7e50-e2c8-45f8-8ad3-93546c1ea6fc","ios":"levelo://app?vid=a6da7e50-e2c8-45f8-8ad3-93546c1ea6fc"},"vehicle_type_id":"4","last_reported":1709849199,"current_range_meters":23600,"station_id":"ce4bhbh2rcd13ifvqeqg","pricing_plan_id":"cebpf4jnsgd1na2vs0mg"},{"bike_id":"e0f125f9-6d41-4f79-8cbc-f7dff487c3d0","system_id":"levelo_inurba_marseille","lat":43.292311,"lon":5.360731,"is_reserved":false,"is_disabled":false,"rental_uris":{"android":"levelo://app?vid=e0f125f9-6d41-4f79-8cbc-f7dff487c3d0","ios":"levelo://app?vid=e0f125f9-6d41-4f79-8cbc-f7dff487c3d0"},"vehicle_type_id":"4","last_reported":1709849199,"current_range_meters":26800,"station_id":"ce4bhbh2rcd13ifvqeqg","pricing_plan_id":"cebpf4jnsgd1na2vs0mg"},{"bike_id":"f897383b-d934-421f-b4a0-a07b66916f26","system_id":"levelo_inurba_marseille","lat":43.300852,"lon":5.390859,"is_reserved":false,"is_disabled":false,"rental_uris":{"android":"levelo://app?vid=f897383b-d934-421f-b4a0-a07b66916f26","ios":"levelo://app?vid=f897383b-d934-421f-b4a0-a07b66916f26"},"vehicle_type_id":"4","last_reported":1709849199,"current_range_meters":8800,"station_id":"ce4bh192rcd13ifvqdb0","pricing_plan_id":"cebpf4jnsgd1na2vs0mg"},{"bike_id":"7b7f322f-5982-4eae-bc42-bddeed3e0a0c","system_id":"levelo_inurba_marseille","lat":43.292311,"lon":5.360731,"is_reserved":false,"is_disabled":false,"rental_uris":{"android":"levelo://app?vid=7b7f322f-5982-4eae-bc42-bddeed3e0a0c","ios":"levelo://app?vid=7b7f322f-5982-4eae-bc42-bddeed3e0a0c"},"vehicle_type_id":"4","last_reported":1709849199,"current_range_meters":7600,"station_id":"ce4bhbh2rcd13ifvqeqg","pricing_plan_id":"cebpf4jnsgd1na2vs0mg"},{"bike_id":"4f0b161d-6de2-4275-b76b-b76aac827fe8","system_id":"levelo_inurba_marseille","lat":43.292311,"lon":5.360731,"is_reserved":false,"is_disabled":false,"rental_uris":{"android":"levelo://app?vid=4f0b161d-6de2-4275-b76b-b76aac827fe8","ios":"levelo://app?vid=4f0b161d-6de2-4275-b76b-b76aac827fe8"},"vehicle_type_id":"4","last_reported":1709849199,"current_range_meters":30000,"station_id":"ce4bhbh2rcd13ifvqeqg","pricing_plan_id":"cebpf4jnsgd1na2vs0mg"},{"bike_id":"7b65b06d-13f0-43b3-be4d-19c4a7e86904","system_id":"levelo_inurba_marseille","lat":43.292311,"lon":5.360731,"is_reserved":false,"is_disabled":false,"rental_uris":{"android":"levelo://app?vid=7b65b06d-13f0-43b3-be4d-19c4a7e86904","ios":"levelo://app?vid=7b65b06d-13f0-43b3-be4d-19c4a7e86904"},"vehicle_type_id":"4","last_reported":1709849199,"current_range_meters":25200,"station_id":"ce4bhbh2rcd13ifvqeqg","pricing_plan_id":"cebpf4jnsgd1na2vs0mg"},{"bike_id":"dfcd7023-1759-4d20-bb12-03a25ec1c620","system_id":"levelo_inurba_marseille","lat":43.29223,"lon":5.36064,"is_reserved":false,"is_disabled":false,"rental_uris":{"android":"levelo://app?vid=dfcd7023-1759-4d20-bb12-03a25ec1c620","ios":"levelo://app?vid=dfcd7023-1759-4d20-bb12-03a25ec1c620"},"vehicle_type_id":"4","last_reported":1709849199,"current_range_meters":28000,"station_id":"ce4bhbh2rcd13ifvqeqg","pricing_plan_id":"cebpf4jnsgd1na2vs0mg"},{"bike_id":"f697610a-0546-41d5-90d2-d47b0b109c01","system_id":"levelo_inurba_marseille","lat":43.300852,"lon":5.390859,"is_reserved":false,"is_disabled":false,"rental_uris":{"android":"levelo://app?vid=f697610a-0546-41d5-90d2-d47b0b109c01","ios":"levelo://app?vid=f697610a-0546-41d5-90d2-d47b0b109c01"},"vehicle_type_id":"4","last_reported":1709849199,"current_range_meters":30000,"station_id":"ce4bh192rcd13ifvqdb0","pricing_plan_id":"cebpf4jnsgd1na2vs0mg"},{"bike_id":"9686a5e7-b68b-4ad2-aa19-5309ea3bcc91","system_id":"levelo_inurba_marseille","lat":43.30085,"lon":5.390856,"is_reserved":false,"is_disabled":false,"rental_uris":{"android":"levelo://app?vid=9686a5e7-b68b-4ad2-aa19-5309ea3bcc91","ios":"levelo://app?vid=9686a5e7-b68b-4ad2-aa19-5309ea3bcc91"},"vehicle_type_id":"4","last_reported":1709849199,"current_range_meters":26800,"station_id":"ce4bh192rcd13ifvqdb0","pricing_plan_id":"cebpf4jnsgd1na2vs0mg"},{"bike_id":"43421eb6-6efe-4014-ae38-863e3f4c72c4","system_id":"levelo_inurba_marseille","lat":43.292221,"lon":5.360447,"is_reserved":false,"is_disabled":false,"rental_uris":{"android":"levelo://app?vid=43421eb6-6efe-4014-ae38-863e3f4c72c4","ios":"levelo://app?vid=43421eb6-6efe-4014-ae38-863e3f4c72c4"},"vehicle_type_id":"4","last_reported":1709849199,"current_range_meters":7600,"station_id":"ce4bhbh2rcd13ifvqeqg","pricing_plan_id":"cebpf4jnsgd1na2vs0mg"},{"bike_id":"cce3c9ac-5724-47e1-86cf-285e31a97ed9","system_id":"levelo_inurba_marseille","lat":43.292195,"lon":5.36051,"is_reserved":false,"is_disabled":false,"rental_uris":{"android":"levelo://app?vid=cce3c9ac-5724-47e1-86cf-285e31a97ed9","ios":"levelo://app?vid=cce3c9ac-5724-47e1-86cf-285e31a97ed9"},"vehicle_type_id":"4","last_reported":1709849199,"current_range_meters":12000,"station_id":"ce4bhbh2rcd13ifvqeqg","pricing_plan_id":"cebpf4jnsgd1na2vs0mg"},{"bike_id":"f8a1455e-9a3f-4a67-aed3-f8603aadb925","system_id":"levelo_inurba_marseille","lat":43.30085,"lon":5.390856,"is_reserved":false,"is_disabled":false,"rental_uris":{"android":"levelo://app?vid=f8a1455e-9a3f-4a67-aed3-f8603aadb925","ios":"levelo://app?vid=f8a1455e-9a3f-4a67-aed3-f8603aadb925"},"vehicle_type_id":"4","last_reported":1709849199,"current_range_meters":16400,"station_id":"ce4bh192rcd13ifvqdb0","pricing_plan_id":"cebpf4jnsgd1na2vs0mg"},{"bike_id":"57402cf4-c6a2-4605-83cc-92df7197bef6","system_id":"levelo_inurba_marseille","lat":43.29219,"lon":5.36053,"is_reserved":false,"is_disabled":false,"rental_uris":{"android":"levelo://app?vid=57402cf4-c6a2-4605-83cc-92df7197bef6","ios":"levelo://app?vid=57402cf4-c6a2-4605-83cc-92df7197bef6"},"vehicle_type_id":"4","last_reported":1709849199,"current_range_meters":27200,"station_id":"ce4bhbh2rcd13ifvqeqg","pricing_plan_id":"cebpf4jnsgd1na2vs0mg"},{"bike_id":"1f992004-a2de-4635-9997-aae4055d7b97","system_id":"levelo_inurba_marseille","lat":43.29215,"lon":5.3606,"is_reserved":false,"is_disabled":false,"rental_uris":{"android":"levelo://app?vid=1f992004-a2de-4635-9997-aae4055d7b97","ios":"levelo://app?vid=1f992004-a2de-4635-9997-aae4055d7b97"},"vehicle_type_id":"4","last_reported":1709849199,"current_range_meters":29600,"station_id":"ce4bhbh2rcd13ifvqeqg","pricing_plan_id":"cebpf4jnsgd1na2vs0mg"},{"bike_id":"0c50ab61-df3d-497a-8618-e678bdb833ce","system_id":"levelo_inurba_marseille","lat":43.29887,"lon":5.38902,"is_reserved":false,"is_disabled":false,"rental_uris":{"android":"levelo://app?vid=0c50ab61-df3d-497a-8618-e678bdb833ce","ios":"levelo://app?vid=0c50ab61-df3d-497a-8618-e678bdb833ce"},"vehicle_type_id":"4","last_reported":1709849199,"current_range_meters":4800,"station_id":"ce4bh392rcd13ifvqdl0","pricing_plan_id":"cebpf4jnsgd1na2vs0mg"},{"bike_id":"3b825ce0-b599-431d-9a98-ed070843428c","system_id":"levelo_inurba_marseille","lat":43.298764,"lon":5.388973,"is_reserved":false,"is_disabled":false,"rental_uris":{"android":"levelo://app?vid=3b825ce0-b599-431d-9a98-ed070843428c","ios":"levelo://app?vid=3b825ce0-b599-431d-9a98-ed070843428c"},"vehicle_type_id":"4","last_reported":1709849199,"current_range_meters":14400,"station_id":"ce4bh392rcd13ifvqdl0","pricing_plan_id":"cebpf4jnsgd1na2vs0mg"},{"bike_id":"08663a49-9fb5-4ee0-8284-0a1e8ad9fc11","system_id":"levelo_inurba_marseille","lat":43.292579,"lon":5.376188,"is_reserved":false,"is_disabled":false,"rental_uris":{"android":"levelo://app?vid=08663a49-9fb5-4ee0-8284-0a1e8ad9fc11","ios":"levelo://app?vid=08663a49-9fb5-4ee0-8284-0a1e8ad9fc11"},"vehicle_type_id":"4","last_reported":1709849199,"current_range_meters":8800,"station_id":"","pricing_plan_id":"cebpf4jnsgd1na2vs0mg"},{"bike_id":"68e38947-a45d-4a7c-b5ee-5d736f62a2f4","system_id":"levelo_inurba_marseille","lat":43.291671,"lon":5.371575,"is_reserved":false,"is_disabled":false,"rental_uris":{"android":"levelo://app?vid=68e38947-a45d-4a7c-b5ee-5d736f62a2f4","ios":"levelo://app?vid=68e38947-a45d-4a7c-b5ee-5d736f62a2f4"},"vehicle_type_id":"4","last_reported":1709849199,"current_range_meters":20800,"station_id":"ce4bha92rcd13ifvqeh0","pricing_plan_id":"cebpf4jnsgd1na2vs0mg"},{"bike_id":"8f5715fd-c447-4b39-946b-3194868f5708","system_id":"levelo_inurba_marseille","lat":43.291675,"lon":5.371583,"is_reserved":false,"is_disabled":false,"rental_uris":{"android":"levelo://app?vid=8f5715fd-c447-4b39-946b-3194868f5708","ios":"levelo://app?vid=8f5715fd-c447-4b39-946b-3194868f5708"},"vehicle_type_id":"4","last_reported":1709849199,"current_range_meters":0,"station_id":"ce4bha92rcd13ifvqeh0","pricing_plan_id":"cebpf4jnsgd1na2vs0mg"},{"bike_id":"dcb94e3b-be07-42d0-9111-86fda5fbd37d","system_id":"levelo_inurba_marseille","lat":43.291987,"lon":5.360543,"is_reserved":false,"is_disabled":false,"rental_uris":{"android":"levelo://app?vid=dcb94e3b-be07-42d0-9111-86fda5fbd37d","ios":"levelo://app?vid=dcb94e3b-be07-42d0-9111-86fda5fbd37d"},"vehicle_type_id":"4","last_reported":1709849199,"current_range_meters":31200,"station_id":"ce4bhbh2rcd13ifvqeqg","pricing_plan_id":"cebpf4jnsgd1na2vs0mg"},{"bike_id":"a61cc2c5-6d6e-4616-8970-869c80ea4012","system_id":"levelo_inurba_marseille","lat":43.2989,"lon":5.38913,"is_reserved":false,"is_disabled":false,"rental_uris":{"android":"levelo://app?vid=a61cc2c5-6d6e-4616-8970-869c80ea4012","ios":"levelo://app?vid=a61cc2c5-6d6e-4616-8970-869c80ea4012"},"vehicle_type_id":"4","last_reported":1709849199,"current_range_meters":21600,"station_id":"ce4bh392rcd13ifvqdl0","pricing_plan_id":"cebpf4jnsgd1na2vs0mg"},{"bike_id":"e28cac17-aed0-41f1-80e8-7af9058c3f0c","system_id":"levelo_inurba_marseille","lat":43.29889,"lon":5.38912,"is_reserved":false,"is_disabled":false,"rental_uris":{"android":"levelo://app?vid=e28cac17-aed0-41f1-80e8-7af9058c3f0c","ios":"levelo://app?vid=e28cac17-aed0-41f1-80e8-7af9058c3f0c"},"vehicle_type_id":"4","last_reported":1709849199,"current_range_meters":18800,"station_id":"ce4bh392rcd13ifvqdl0","pricing_plan_id":"cebpf4jnsgd1na2vs0mg"},{"bike_id":"e8158ab6-9ca3-4c09-a548-b1260a5a9fec","system_id":"levelo_inurba_marseille","lat":43.291675,"lon":5.371583,"is_reserved":false,"is_disabled":false,"rental_uris":{"android":"levelo://app?vid=e8158ab6-9ca3-4c09-a548-b1260a5a9fec","ios":"levelo://app?vid=e8158ab6-9ca3-4c09-a548-b1260a5a9fec"},"vehicle_type_id":"4","last_reported":1709849199,"current_range_meters":18000,"station_id":"ce4bha92rcd13ifvqeh0","pricing_plan_id":"cebpf4jnsgd1na2vs0mg"},{"bike_id":"1facc159-7fcf-4cb1-a00b-9d974957b69e","system_id":"levelo_inurba_marseille","lat":43.29882,"lon":5.38908,"is_reserved":false,"is_disabled":false,"rental_uris":{"android":"levelo://app?vid=1facc159-7fcf-4cb1-a00b-9d974957b69e","ios":"levelo://app?vid=1facc159-7fcf-4cb1-a00b-9d974957b69e"},"vehicle_type_id":"4","last_reported":1709849199,"current_range_meters":4000,"station_id":"ce4bh392rcd13ifvqdl0","pricing_plan_id":"cebpf4jnsgd1na2vs0mg"},{"bike_id":"95df29af-5340-41b9-8969-3cd13d102315","system_id":"levelo_inurba_marseille","lat":43.29884,"lon":5.38911,"is_reserved":false,"is_disabled":false,"rental_uris":{"android":"levelo://app?vid=95df29af-5340-41b9-8969-3cd13d102315","ios":"levelo://app?vid=95df29af-5340-41b9-8969-3cd13d102315"},"vehicle_type_id":"4","last_reported":1709849199,"current_range_meters":17600,"station_id":"ce4bh392rcd13ifvqdl0","pricing_plan_id":"cebpf4jnsgd1na2vs0mg"},{"bike_id":"84cabd40-6408-420b-80f5-239b50cef53e","system_id":"levelo_inurba_marseille","lat":43.298837,"lon":5.389107,"is_reserved":false,"is_disabled":false,"rental_uris":{"android":"levelo://app?vid=84cabd40-6408-420b-80f5-239b50cef53e","ios":"levelo://app?vid=84cabd40-6408-420b-80f5-239b50cef53e"},"vehicle_type_id":"4","last_reported":1709849199,"current_range_meters":4800,"station_id":"ce4bh392rcd13ifvqdl0","pricing_plan_id":"cebpf4jnsgd1na2vs0mg"},{"bike_id":"49aa0daa-8a88-446f-ba67-ff79ffb8d7c9","system_id":"levelo_inurba_marseille","lat":43.29881,"lon":5.38908,"is_reserved":false,"is_disabled":false,"rental_uris":{"android":"levelo://app?vid=49aa0daa-8a88-446f-ba67-ff79ffb8d7c9","ios":"levelo://app?vid=49aa0daa-8a88-446f-ba67-ff79ffb8d7c9"},"vehicle_type_id":"4","last_reported":1709849199,"current_range_meters":25200,"station_id":"ce4bh392rcd13ifvqdl0","pricing_plan_id":"cebpf4jnsgd1na2vs0mg"},{"bike_id":"3fb103d5-3bc2-480c-a852-19e1705dbc83","system_id":"levelo_inurba_marseille","lat":43.298835,"lon":5.38912,"is_reserved":false,"is_disabled":false,"rental_uris":{"android":"levelo://app?vid=3fb103d5-3bc2-480c-a852-19e1705dbc83","ios":"levelo://app?vid=3fb103d5-3bc2-480c-a852-19e1705dbc83"},"vehicle_type_id":"4","last_reported":1709849199,"current_range_meters":2800,"station_id":"ce4bh392rcd13ifvqdl0","pricing_plan_id":"cebpf4jnsgd1na2vs0mg"},{"bike_id":"cf296181-1fbc-43ed-96aa-191c6614a1bd","system_id":"levelo_inurba_marseille","lat":43.298764,"lon":5.388973,"is_reserved":false,"is_disabled":false,"rental_uris":{"android":"levelo://app?vid=cf296181-1fbc-43ed-96aa-191c6614a1bd","ios":"levelo://app?vid=cf296181-1fbc-43ed-96aa-191c6614a1bd"},"vehicle_type_id":"4","last_reported":1709849199,"current_range_meters":21200,"station_id":"ce4bh392rcd13ifvqdl0","pricing_plan_id":"cebpf4jnsgd1na2vs0mg"},{"bike_id":"f3e7f653-1577-41b7-bb86-18df7f1ba36b","system_id":"levelo_inurba_marseille","lat":43.298764,"lon":5.388973,"is_reserved":false,"is_disabled":false,"rental_uris":{"android":"levelo://app?vid=f3e7f653-1577-41b7-bb86-18df7f1ba36b","ios":"levelo://app?vid=f3e7f653-1577-41b7-bb86-18df7f1ba36b"},"vehicle_type_id":"4","last_reported":1709849199,"current_range_meters":13600,"station_id":"ce4bh392rcd13ifvqdl0","pricing_plan_id":"cebpf4jnsgd1na2vs0mg"},{"bike_id":"d4f19ff2-7011-414a-831a-a4df5fde0ac4","system_id":"levelo_inurba_marseille","lat":43.298809,"lon":5.389126,"is_reserved":false,"is_disabled":false,"rental_uris":{"android":"levelo://app?vid=d4f19ff2-7011-414a-831a-a4df5fde0ac4","ios":"levelo://app?vid=d4f19ff2-7011-414a-831a-a4df5fde0ac4"},"vehicle_type_id":"4","last_reported":1709849199,"current_range_meters":22800,"station_id":"ce4bh392rcd13ifvqdl0","pricing_plan_id":"cebpf4jnsgd1na2vs0mg"},{"bike_id":"3d06c08d-eb08-43bc-ab95-ae2db2b91045","system_id":"levelo_inurba_marseille","lat":43.298764,"lon":5.388973,"is_reserved":false,"is_disabled":false,"rental_uris":{"android":"levelo://app?vid=3d06c08d-eb08-43bc-ab95-ae2db2b91045","ios":"levelo://app?vid=3d06c08d-eb08-43bc-ab95-ae2db2b91045"},"vehicle_type_id":"4","last_reported":1709849199,"current_range_meters":0,"station_id":"ce4bh392rcd13ifvqdl0","pricing_plan_id":"cebpf4jnsgd1na2vs0mg"},{"bike_id":"97b1a386-dac7-41f8-a29b-59b42e6c6eef","system_id":"levelo_inurba_marseille","lat":43.298764,"lon":5.388973,"is_reserved":false,"is_disabled":false,"rental_uris":{"android":"levelo://app?vid=97b1a386-dac7-41f8-a29b-59b42e6c6eef","ios":"levelo://app?vid=97b1a386-dac7-41f8-a29b-59b42e6c6eef"},"vehicle_type_id":"4","last_reported":1709849199,"current_range_meters":0,"station_id":"ce4bh392rcd13ifvqdl0","pricing_plan_id":"cebpf4jnsgd1na2vs0mg"},{"bike_id":"743413dd-02e7-4578-a963-12c25dbfa588","system_id":"levelo_inurba_marseille","lat":43.298764,"lon":5.388973,"is_reserved":false,"is_disabled":false,"rental_uris":{"android":"levelo://app?vid=743413dd-02e7-4578-a963-12c25dbfa588","ios":"levelo://app?vid=743413dd-02e7-4578-a963-12c25dbfa588"},"vehicle_type_id":"4","last_reported":1709849199,"current_range_meters":800,"station_id":"ce4bh392rcd13ifvqdl0","pricing_plan_id":"cebpf4jnsgd1na2vs0mg"},{"bike_id":"9e47374d-174b-4c69-8da2-4751104298e2","system_id":"levelo_inurba_marseille","lat":43.298764,"lon":5.388973,"is_reserved":false,"is_disabled":false,"rental_uris":{"android":"levelo://app?vid=9e47374d-174b-4c69-8da2-4751104298e2","ios":"levelo://app?vid=9e47374d-174b-4c69-8da2-4751104298e2"},"vehicle_type_id":"4","last_reported":1709849199,"current_range_meters":26800,"station_id":"ce4bh392rcd13ifvqdl0","pricing_plan_id":"cebpf4jnsgd1na2vs0mg"},{"bike_id":"7f711e3b-d2ff-4c0f-bd09-696609701ee9","system_id":"levelo_inurba_marseille","lat":43.29874,"lon":5.38912,"is_reserved":false,"is_disabled":false,"rental_uris":{"android":"levelo://app?vid=7f711e3b-d2ff-4c0f-bd09-696609701ee9","ios":"levelo://app?vid=7f711e3b-d2ff-4c0f-bd09-696609701ee9"},"vehicle_type_id":"4","last_reported":1709849199,"current_range_meters":24800,"station_id":"ce4bh392rcd13ifvqdl0","pricing_plan_id":"cebpf4jnsgd1na2vs0mg"},{"bike_id":"82cd196c-6207-4c1b-939c-e5050703b497","system_id":"levelo_inurba_marseille","lat":43.298764,"lon":5.388973,"is_reserved":false,"is_disabled":false,"rental_uris":{"android":"levelo://app?vid=82cd196c-6207-4c1b-939c-e5050703b497","ios":"levelo://app?vid=82cd196c-6207-4c1b-939c-e5050703b497"},"vehicle_type_id":"4","last_reported":1709849199,"current_range_meters":18400,"station_id":"ce4bh392rcd13ifvqdl0","pricing_plan_id":"cebpf4jnsgd1na2vs0mg"},{"bike_id":"7da052f8-8830-415e-8c23-37055984b4da","system_id":"levelo_inurba_marseille","lat":43.298764,"lon":5.388973,"is_reserved":false,"is_disabled":false,"rental_uris":{"android":"levelo://app?vid=7da052f8-8830-415e-8c23-37055984b4da","ios":"levelo://app?vid=7da052f8-8830-415e-8c23-37055984b4da"},"vehicle_type_id":"4","last_reported":1709849199,"current_range_meters":9200,"station_id":"ce4bh392rcd13ifvqdl0","pricing_plan_id":"cebpf4jnsgd1na2vs0mg"},{"bike_id":"14d78d9b-81fe-49b1-a127-27e707e23a48","system_id":"levelo_inurba_marseille","lat":43.291994,"lon":5.357886,"is_reserved":false,"is_disabled":false,"rental_uris":{"android":"levelo://app?vid=14d78d9b-81fe-49b1-a127-27e707e23a48","ios":"levelo://app?vid=14d78d9b-81fe-49b1-a127-27e707e23a48"},"vehicle_type_id":"4","last_reported":1709849199,"current_range_meters":24800,"station_id":"ce4bhb12rcd13ifvqel0","pricing_plan_id":"cebpf4jnsgd1na2vs0mg"},{"bike_id":"31009e8f-e69c-4299-beec-2dd7771423a6","system_id":"levelo_inurba_marseille","lat":43.291994,"lon":5.357886,"is_reserved":false,"is_disabled":false,"rental_uris":{"android":"levelo://app?vid=31009e8f-e69c-4299-beec-2dd7771423a6","ios":"levelo://app?vid=31009e8f-e69c-4299-beec-2dd7771423a6"},"vehicle_type_id":"4","last_reported":1709849199,"current_range_meters":14800,"station_id":"ce4bhb12rcd13ifvqel0","pricing_plan_id":"cebpf4jnsgd1na2vs0mg"},{"bike_id":"f708068d-192b-4657-ad49-8fa7006f19c8","system_id":"levelo_inurba_marseille","lat":43.291994,"lon":5.357886,"is_reserved":false,"is_disabled":false,"rental_uris":{"android":"levelo://app?vid=f708068d-192b-4657-ad49-8fa7006f19c8","ios":"levelo://app?vid=f708068d-192b-4657-ad49-8fa7006f19c8"},"vehicle_type_id":"4","last_reported":1709849199,"current_range_meters":7200,"station_id":"ce4bhb12rcd13ifvqel0","pricing_plan_id":"cebpf4jnsgd1na2vs0mg"},{"bike_id":"86e0b3d0-5198-4283-96b9-2faa0529b451","system_id":"levelo_inurba_marseille","lat":43.291994,"lon":5.357886,"is_reserved":false,"is_disabled":false,"rental_uris":{"android":"levelo://app?vid=86e0b3d0-5198-4283-96b9-2faa0529b451","ios":"levelo://app?vid=86e0b3d0-5198-4283-96b9-2faa0529b451"},"vehicle_type_id":"4","last_reported":1709849199,"current_range_meters":14800,"station_id":"ce4bhb12rcd13ifvqel0","pricing_plan_id":"cebpf4jnsgd1na2vs0mg"},{"bike_id":"3e012a1e-93f3-45e0-ab19-2a18b0f3704d","system_id":"levelo_inurba_marseille","lat":43.291994,"lon":5.357886,"is_reserved":false,"is_disabled":false,"rental_uris":{"android":"levelo://app?vid=3e012a1e-93f3-45e0-ab19-2a18b0f3704d","ios":"levelo://app?vid=3e012a1e-93f3-45e0-ab19-2a18b0f3704d"},"vehicle_type_id":"4","last_reported":1709849199,"current_range_meters":9600,"station_id":"ce4bhb12rcd13ifvqel0","pricing_plan_id":"cebpf4jnsgd1na2vs0mg"},{"bike_id":"8b0bbdcc-e511-4906-a077-02deb4d4a8ac","system_id":"levelo_inurba_marseille","lat":43.291994,"lon":5.357886,"is_reserved":false,"is_disabled":false,"rental_uris":{"android":"levelo://app?vid=8b0bbdcc-e511-4906-a077-02deb4d4a8ac","ios":"levelo://app?vid=8b0bbdcc-e511-4906-a077-02deb4d4a8ac"},"vehicle_type_id":"4","last_reported":1709849199,"current_range_meters":11600,"station_id":"ce4bhb12rcd13ifvqel0","pricing_plan_id":"cebpf4jnsgd1na2vs0mg"},{"bike_id":"46189881-14d9-43d2-bbbb-6d33b9b376ba","system_id":"levelo_inurba_marseille","lat":43.291994,"lon":5.357886,"is_reserved":false,"is_disabled":false,"rental_uris":{"android":"levelo://app?vid=46189881-14d9-43d2-bbbb-6d33b9b376ba","ios":"levelo://app?vid=46189881-14d9-43d2-bbbb-6d33b9b376ba"},"vehicle_type_id":"4","last_reported":1709849199,"current_range_meters":400,"station_id":"ce4bhb12rcd13ifvqel0","pricing_plan_id":"cebpf4jnsgd1na2vs0mg"},{"bike_id":"f6c2d6e6-c433-4ffd-86f5-87e435ea927e","system_id":"levelo_inurba_marseille","lat":43.313291,"lon":5.396838,"is_reserved":false,"is_disabled":false,"rental_uris":{"android":"levelo://app?vid=f6c2d6e6-c433-4ffd-86f5-87e435ea927e","ios":"levelo://app?vid=f6c2d6e6-c433-4ffd-86f5-87e435ea927e"},"vehicle_type_id":"4","last_reported":1709849199,"current_range_meters":20800,"station_id":"ce4bgvp2rcd13ifvqcu0","pricing_plan_id":"cebpf4jnsgd1na2vs0mg"},{"bike_id":"ba0f29d1-0165-4e8a-9daa-3c80df8e5eda","system_id":"levelo_inurba_marseille","lat":43.313291,"lon":5.396838,"is_reserved":false,"is_disabled":false,"rental_uris":{"android":"levelo://app?vid=ba0f29d1-0165-4e8a-9daa-3c80df8e5eda","ios":"levelo://app?vid=ba0f29d1-0165-4e8a-9daa-3c80df8e5eda"},"vehicle_type_id":"4","last_reported":1709849199,"current_range_meters":10400,"station_id":"ce4bgvp2rcd13ifvqcu0","pricing_plan_id":"cebpf4jnsgd1na2vs0mg"},{"bike_id":"208179f7-fc0f-4f64-bfeb-d47aadc0ce19","system_id":"levelo_inurba_marseille","lat":43.31331,"lon":5.39692,"is_reserved":false,"is_disabled":false,"rental_uris":{"android":"levelo://app?vid=208179f7-fc0f-4f64-bfeb-d47aadc0ce19","ios":"levelo://app?vid=208179f7-fc0f-4f64-bfeb-d47aadc0ce19"},"vehicle_type_id":"4","last_reported":1709849199,"current_range_meters":0,"station_id":"ce4bgvp2rcd13ifvqcu0","pricing_plan_id":"cebpf4jnsgd1na2vs0mg"},{"bike_id":"194cfb5a-4e77-4454-994b-82e0d816d7da","system_id":"levelo_inurba_marseille","lat":43.291994,"lon":5.357886,"is_reserved":false,"is_disabled":false,"rental_uris":{"android":"levelo://app?vid=194cfb5a-4e77-4454-994b-82e0d816d7da","ios":"levelo://app?vid=194cfb5a-4e77-4454-994b-82e0d816d7da"},"vehicle_type_id":"4","last_reported":1709849199,"current_range_meters":27600,"station_id":"ce4bhb12rcd13ifvqel0","pricing_plan_id":"cebpf4jnsgd1na2vs0mg"},{"bike_id":"91c986ae-76e4-4c1a-af04-1b51b9765cc3","system_id":"levelo_inurba_marseille","lat":43.31331,"lon":5.39696,"is_reserved":false,"is_disabled":false,"rental_uris":{"android":"levelo://app?vid=91c986ae-76e4-4c1a-af04-1b51b9765cc3","ios":"levelo://app?vid=91c986ae-76e4-4c1a-af04-1b51b9765cc3"},"vehicle_type_id":"4","last_reported":1709849199,"current_range_meters":0,"station_id":"ce4bgvp2rcd13ifvqcu0","pricing_plan_id":"cebpf4jnsgd1na2vs0mg"},{"bike_id":"d968c11f-ab7a-44ff-8814-c75c0f9cb465","system_id":"levelo_inurba_marseille","lat":43.309038,"lon":5.396546,"is_reserved":false,"is_disabled":false,"rental_uris":{"android":"levelo://app?vid=d968c11f-ab7a-44ff-8814-c75c0f9cb465","ios":"levelo://app?vid=d968c11f-ab7a-44ff-8814-c75c0f9cb465"},"vehicle_type_id":"4","last_reported":1709849199,"current_range_meters":10000,"station_id":"ce4bh012rcd13ifvqcv0","pricing_plan_id":"cebpf4jnsgd1na2vs0mg"},{"bike_id":"cc580d74-4386-49c8-bad5-809f345c5526","system_id":"levelo_inurba_marseille","lat":43.2954,"lon":5.38541,"is_reserved":false,"is_disabled":false,"rental_uris":{"android":"levelo://app?vid=cc580d74-4386-49c8-bad5-809f345c5526","ios":"levelo://app?vid=cc580d74-4386-49c8-bad5-809f345c5526"},"vehicle_type_id":"4","last_reported":1709849199,"current_range_meters":4800,"station_id":"ce4bgih2rcd13ifvqba0","pricing_plan_id":"cebpf4jnsgd1na2vs0mg"},{"bike_id":"d97e2ec8-232d-4927-8000-20483ce145c1","system_id":"levelo_inurba_marseille","lat":43.309038,"lon":5.396546,"is_reserved":false,"is_disabled":false,"rental_uris":{"android":"levelo://app?vid=d97e2ec8-232d-4927-8000-20483ce145c1","ios":"levelo://app?vid=d97e2ec8-232d-4927-8000-20483ce145c1"},"vehicle_type_id":"4","last_reported":1709849199,"current_range_meters":5200,"station_id":"ce4bh012rcd13ifvqcv0","pricing_plan_id":"cebpf4jnsgd1na2vs0mg"},{"bike_id":"79d943ae-f532-499b-a1b0-a24429ee53c3","system_id":"levelo_inurba_marseille","lat":43.309038,"lon":5.396546,"is_reserved":false,"is_disabled":false,"rental_uris":{"android":"levelo://app?vid=79d943ae-f532-499b-a1b0-a24429ee53c3","ios":"levelo://app?vid=79d943ae-f532-499b-a1b0-a24429ee53c3"},"vehicle_type_id":"4","last_reported":1709849199,"current_range_meters":7200,"station_id":"ce4bh012rcd13ifvqcv0","pricing_plan_id":"cebpf4jnsgd1na2vs0mg"},{"bike_id":"a7afa684-2ac3-4ad4-bf4b-3fae6a594b79","system_id":"levelo_inurba_marseille","lat":43.29529,"lon":5.385581,"is_reserved":false,"is_disabled":false,"rental_uris":{"android":"levelo://app?vid=a7afa684-2ac3-4ad4-bf4b-3fae6a594b79","ios":"levelo://app?vid=a7afa684-2ac3-4ad4-bf4b-3fae6a594b79"},"vehicle_type_id":"4","last_reported":1709849199,"current_range_meters":30800,"station_id":"ce4bgih2rcd13ifvqba0","pricing_plan_id":"cebpf4jnsgd1na2vs0mg"},{"bike_id":"0348e0b8-6903-4714-8855-242a3a60c408","system_id":"levelo_inurba_marseille","lat":43.29537,"lon":5.38543,"is_reserved":false,"is_disabled":false,"rental_uris":{"android":"levelo://app?vid=0348e0b8-6903-4714-8855-242a3a60c408","ios":"levelo://app?vid=0348e0b8-6903-4714-8855-242a3a60c408"},"vehicle_type_id":"4","last_reported":1709849199,"current_range_meters":20400,"station_id":"ce4bgih2rcd13ifvqba0","pricing_plan_id":"cebpf4jnsgd1na2vs0mg"},{"bike_id":"d6c1288a-5ead-40c7-a406-c18022798f2f","system_id":"levelo_inurba_marseille","lat":43.29529,"lon":5.385581,"is_reserved":false,"is_disabled":false,"rental_uris":{"android":"levelo://app?vid=d6c1288a-5ead-40c7-a406-c18022798f2f","ios":"levelo://app?vid=d6c1288a-5ead-40c7-a406-c18022798f2f"},"vehicle_type_id":"4","last_reported":1709849199,"current_range_meters":5200,"station_id":"ce4bgih2rcd13ifvqba0","pricing_plan_id":"cebpf4jnsgd1na2vs0mg"},{"bike_id":"861e788e-cea4-43b0-9af0-a0b6414fd3c1","system_id":"levelo_inurba_marseille","lat":43.309047,"lon":5.396551,"is_reserved":false,"is_disabled":false,"rental_uris":{"android":"levelo://app?vid=861e788e-cea4-43b0-9af0-a0b6414fd3c1","ios":"levelo://app?vid=861e788e-cea4-43b0-9af0-a0b6414fd3c1"},"vehicle_type_id":"4","last_reported":1709849199,"current_range_meters":8400,"station_id":"ce4bh012rcd13ifvqcv0","pricing_plan_id":"cebpf4jnsgd1na2vs0mg"},{"bike_id":"3dd2291b-92d6-4f09-b1a2-6cefc4f5321f","system_id":"levelo_inurba_marseille","lat":43.29535,"lon":5.385407,"is_reserved":false,"is_disabled":false,"rental_uris":{"android":"levelo://app?vid=3dd2291b-92d6-4f09-b1a2-6cefc4f5321f","ios":"levelo://app?vid=3dd2291b-92d6-4f09-b1a2-6cefc4f5321f"},"vehicle_type_id":"4","last_reported":1709849199,"current_range_meters":0,"station_id":"ce4bgih2rcd13ifvqba0","pricing_plan_id":"cebpf4jnsgd1na2vs0mg"},{"bike_id":"ac6718ba-da06-47e3-a032-2a7745e9eeb9","system_id":"levelo_inurba_marseille","lat":43.29529,"lon":5.385581,"is_reserved":false,"is_disabled":false,"rental_uris":{"android":"levelo://app?vid=ac6718ba-da06-47e3-a032-2a7745e9eeb9","ios":"levelo://app?vid=ac6718ba-da06-47e3-a032-2a7745e9eeb9"},"vehicle_type_id":"4","last_reported":1709849199,"current_range_meters":20800,"station_id":"ce4bgih2rcd13ifvqba0","pricing_plan_id":"cebpf4jnsgd1na2vs0mg"},{"bike_id":"daba8c6f-9cb3-4a86-9d8c-768d9cf35f6e","system_id":"levelo_inurba_marseille","lat":43.29529,"lon":5.385581,"is_reserved":false,"is_disabled":false,"rental_uris":{"android":"levelo://app?vid=daba8c6f-9cb3-4a86-9d8c-768d9cf35f6e","ios":"levelo://app?vid=daba8c6f-9cb3-4a86-9d8c-768d9cf35f6e"},"vehicle_type_id":"4","last_reported":1709849199,"current_range_meters":2000,"station_id":"ce4bgih2rcd13ifvqba0","pricing_plan_id":"cebpf4jnsgd1na2vs0mg"},{"bike_id":"fcc63295-ee4f-44ad-ab2b-ab1d4704b291","system_id":"levelo_inurba_marseille","lat":43.29538,"lon":5.38548,"is_reserved":false,"is_disabled":false,"rental_uris":{"android":"levelo://app?vid=fcc63295-ee4f-44ad-ab2b-ab1d4704b291","ios":"levelo://app?vid=fcc63295-ee4f-44ad-ab2b-ab1d4704b291"},"vehicle_type_id":"4","last_reported":1709849199,"current_range_meters":20000,"station_id":"ce4bgih2rcd13ifvqba0","pricing_plan_id":"cebpf4jnsgd1na2vs0mg"},{"bike_id":"2b018541-e70c-4827-a686-d89e096b343e","system_id":"levelo_inurba_marseille","lat":43.29531,"lon":5.38537,"is_reserved":false,"is_disabled":false,"rental_uris":{"android":"levelo://app?vid=2b018541-e70c-4827-a686-d89e096b343e","ios":"levelo://app?vid=2b018541-e70c-4827-a686-d89e096b343e"},"vehicle_type_id":"4","last_reported":1709849199,"current_range_meters":8400,"station_id":"ce4bgih2rcd13ifvqba0","pricing_plan_id":"cebpf4jnsgd1na2vs0mg"},{"bike_id":"abf4f0f8-69b1-42c6-a990-10af1be9d44b","system_id":"levelo_inurba_marseille","lat":43.295364,"lon":5.385479,"is_reserved":false,"is_disabled":false,"rental_uris":{"android":"levelo://app?vid=abf4f0f8-69b1-42c6-a990-10af1be9d44b","ios":"levelo://app?vid=abf4f0f8-69b1-42c6-a990-10af1be9d44b"},"vehicle_type_id":"4","last_reported":1709849199,"current_range_meters":29200,"station_id":"ce4bgih2rcd13ifvqba0","pricing_plan_id":"cebpf4jnsgd1na2vs0mg"},{"bike_id":"b58d2895-7577-4a80-8cd3-d71c13433fd2","system_id":"levelo_inurba_marseille","lat":43.29529,"lon":5.385581,"is_reserved":false,"is_disabled":false,"rental_uris":{"android":"levelo://app?vid=b58d2895-7577-4a80-8cd3-d71c13433fd2","ios":"levelo://app?vid=b58d2895-7577-4a80-8cd3-d71c13433fd2"},"vehicle_type_id":"4","last_reported":1709849199,"current_range_meters":18800,"station_id":"ce4bgih2rcd13ifvqba0","pricing_plan_id":"cebpf4jnsgd1na2vs0mg"},{"bike_id":"9959b2ce-90d8-48c6-8533-c375bb488446","system_id":"levelo_inurba_marseille","lat":43.29529,"lon":5.385581,"is_reserved":false,"is_disabled":false,"rental_uris":{"android":"levelo://app?vid=9959b2ce-90d8-48c6-8533-c375bb488446","ios":"levelo://app?vid=9959b2ce-90d8-48c6-8533-c375bb488446"},"vehicle_type_id":"4","last_reported":1709849199,"current_range_meters":10000,"station_id":"ce4bgih2rcd13ifvqba0","pricing_plan_id":"cebpf4jnsgd1na2vs0mg"},{"bike_id":"901852e3-0109-4280-aaad-a406c02f07ec","system_id":"levelo_inurba_marseille","lat":43.295342,"lon":5.385467,"is_reserved":false,"is_disabled":false,"rental_uris":{"android":"levelo://app?vid=901852e3-0109-4280-aaad-a406c02f07ec","ios":"levelo://app?vid=901852e3-0109-4280-aaad-a406c02f07ec"},"vehicle_type_id":"4","last_reported":1709849199,"current_range_meters":0,"station_id":"ce4bgih2rcd13ifvqba0","pricing_plan_id":"cebpf4jnsgd1na2vs0mg"},{"bike_id":"9625ab19-b47c-4692-9390-0f20ec865f75","system_id":"levelo_inurba_marseille","lat":43.29532,"lon":5.38544,"is_reserved":false,"is_disabled":false,"rental_uris":{"android":"levelo://app?vid=9625ab19-b47c-4692-9390-0f20ec865f75","ios":"levelo://app?vid=9625ab19-b47c-4692-9390-0f20ec865f75"},"vehicle_type_id":"4","last_reported":1709849199,"current_range_meters":27200,"station_id":"ce4bgih2rcd13ifvqba0","pricing_plan_id":"cebpf4jnsgd1na2vs0mg"},{"bike_id":"e431106a-2343-4b26-a00d-0cc5a778d84b","system_id":"levelo_inurba_marseille","lat":43.29529,"lon":5.385581,"is_reserved":false,"is_disabled":false,"rental_uris":{"android":"levelo://app?vid=e431106a-2343-4b26-a00d-0cc5a778d84b","ios":"levelo://app?vid=e431106a-2343-4b26-a00d-0cc5a778d84b"},"vehicle_type_id":"4","last_reported":1709849199,"current_range_meters":6800,"station_id":"ce4bgih2rcd13ifvqba0","pricing_plan_id":"cebpf4jnsgd1na2vs0mg"},{"bike_id":"2229a4ab-368a-42f8-ad8c-424ccc61fd8f","system_id":"levelo_inurba_marseille","lat":43.29535,"lon":5.38553,"is_reserved":false,"is_disabled":false,"rental_uris":{"android":"levelo://app?vid=2229a4ab-368a-42f8-ad8c-424ccc61fd8f","ios":"levelo://app?vid=2229a4ab-368a-42f8-ad8c-424ccc61fd8f"},"vehicle_type_id":"4","last_reported":1709849199,"current_range_meters":26000,"station_id":"ce4bgih2rcd13ifvqba0","pricing_plan_id":"cebpf4jnsgd1na2vs0mg"},{"bike_id":"006182fc-b33c-4021-bd0d-1aba98d08401","system_id":"levelo_inurba_marseille","lat":43.29529,"lon":5.385581,"is_reserved":false,"is_disabled":false,"rental_uris":{"android":"levelo://app?vid=006182fc-b33c-4021-bd0d-1aba98d08401","ios":"levelo://app?vid=006182fc-b33c-4021-bd0d-1aba98d08401"},"vehicle_type_id":"4","last_reported":1709849199,"current_range_meters":26000,"station_id":"ce4bgih2rcd13ifvqba0","pricing_plan_id":"cebpf4jnsgd1na2vs0mg"},{"bike_id":"f656855c-8fd2-4a28-9bc8-5a76052fb0b6","system_id":"levelo_inurba_marseille","lat":43.29527,"lon":5.38543,"is_reserved":false,"is_disabled":false,"rental_uris":{"android":"levelo://app?vid=f656855c-8fd2-4a28-9bc8-5a76052fb0b6","ios":"levelo://app?vid=f656855c-8fd2-4a28-9bc8-5a76052fb0b6"},"vehicle_type_id":"4","last_reported":1709849199,"current_range_meters":0,"station_id":"ce4bgih2rcd13ifvqba0","pricing_plan_id":"cebpf4jnsgd1na2vs0mg"},{"bike_id":"b4158117-6370-402b-8e59-144d3f5f7df3","system_id":"levelo_inurba_marseille","lat":43.29529,"lon":5.385581,"is_reserved":false,"is_disabled":false,"rental_uris":{"android":"levelo://app?vid=b4158117-6370-402b-8e59-144d3f5f7df3","ios":"levelo://app?vid=b4158117-6370-402b-8e59-144d3f5f7df3"},"vehicle_type_id":"4","last_reported":1709849199,"current_range_meters":19600,"station_id":"ce4bgih2rcd13ifvqba0","pricing_plan_id":"cebpf4jnsgd1na2vs0mg"},{"bike_id":"79471986-fdec-4147-b78f-fd3b1bcec6db","system_id":"levelo_inurba_marseille","lat":43.29529,"lon":5.385581,"is_reserved":false,"is_disabled":false,"rental_uris":{"android":"levelo://app?vid=79471986-fdec-4147-b78f-fd3b1bcec6db","ios":"levelo://app?vid=79471986-fdec-4147-b78f-fd3b1bcec6db"},"vehicle_type_id":"4","last_reported":1709849199,"current_range_meters":25200,"station_id":"ce4bgih2rcd13ifvqba0","pricing_plan_id":"cebpf4jnsgd1na2vs0mg"},{"bike_id":"6724f916-bd19-4949-9d02-647a44bf8eb8","system_id":"levelo_inurba_marseille","lat":43.29529,"lon":5.385581,"is_reserved":false,"is_disabled":false,"rental_uris":{"android":"levelo://app?vid=6724f916-bd19-4949-9d02-647a44bf8eb8","ios":"levelo://app?vid=6724f916-bd19-4949-9d02-647a44bf8eb8"},"vehicle_type_id":"4","last_reported":1709849199,"current_range_meters":15200,"station_id":"ce4bgih2rcd13ifvqba0","pricing_plan_id":"cebpf4jnsgd1na2vs0mg"},{"bike_id":"1962b10f-bd4c-49f9-a7f5-335462964026","system_id":"levelo_inurba_marseille","lat":43.295282,"lon":5.385548,"is_reserved":false,"is_disabled":false,"rental_uris":{"android":"levelo://app?vid=1962b10f-bd4c-49f9-a7f5-335462964026","ios":"levelo://app?vid=1962b10f-bd4c-49f9-a7f5-335462964026"},"vehicle_type_id":"4","last_reported":1709849199,"current_range_meters":12800,"station_id":"ce4bgih2rcd13ifvqba0","pricing_plan_id":"cebpf4jnsgd1na2vs0mg"},{"bike_id":"1c23038a-0f10-4733-9b44-42eca68b193e","system_id":"levelo_inurba_marseille","lat":43.29078,"lon":5.37185,"is_reserved":false,"is_disabled":false,"rental_uris":{"android":"levelo://app?vid=1c23038a-0f10-4733-9b44-42eca68b193e","ios":"levelo://app?vid=1c23038a-0f10-4733-9b44-42eca68b193e"},"vehicle_type_id":"4","last_reported":1709849199,"current_range_meters":10800,"station_id":"ce4bh5p2rcd13ifvqe4g","pricing_plan_id":"cebpf4jnsgd1na2vs0mg"},