{"last_updated":1706821572,"ttl":30,"version":"2.2","data":{"bikes":[{"bike_id":"82932cb7-d26b-4003-b7a0-164aa48d5223","system_id":"levelo_inurba_marseille","lat":43.3134,"lon":5.36702,"is_reserved":false,"is_disabled":false,"rental_uris":{"android":"levelo://app?vid=82932cb7-d26b-4003-b7a0-164aa48d5223","ios":"levelo://app?vid=82932cb7-d26b-4003-b7a0-164aa48d5223"},"vehicle_type_id":"4","last_reported":1706821572,"current_range_meters":1200,"station_id":"ce4bgr92rcd13ifvqc6g","pricing_plan_id":"free"},{"bike_id":"d009e85e-5794-4fe6-b60d-4276d8f326a0","system_id":"levelo_inurba_marseille","lat":43.313391,"lon":5.36706,"is_reserved":false,"is_disabled":false,"rental_uris":{"android":"levelo://app?vid=d009e85e-5794-4fe6-b60d-4276d8f326a0","ios":"levelo://app?vid=d009e85e-5794-4fe6-b60d-4276d8f326a0"},"vehicle_type_id":"4","last_reported":1706821572,"current_range_meters":19200,"station_id":"ce4bgr92rcd13ifvqc6g","pricing_plan_id":"free"},{"bike_id":"b9ab5909-5139-4da5-b6bd-5b30b9890eb9","system_id":"levelo_inurba_marseille","lat":43.31341,"lon":5.367098,"is_reserved":false,"is_disabled":false,"rental_uris":{"android":"levelo://app?vid=b9ab5909-5139-4da5-b6bd-5b30b9890eb9","ios":"levelo://app?vid=b9ab5909-5139-4da5-b6bd-5b30b9890eb9"},"vehicle_type_id":"4","last_reported":1706821572,"current_range_meters":20000,"station_id":"ce4bgr92rcd13ifvqc6g","pricing_plan_id":"free"},{"bike_id":"9447d855-6e7a-433c-9ad3-30bd150e709a","system_id":"levelo_inurba_marseille","lat":43.31351,"lon":5.36698,"is_reserved":false,"is_disabled":false,"rental_uris":{"android":"levelo://app?vid=9447d855-6e7a-433c-9ad3-30bd150e709a","ios":"levelo://app?vid=9447d855-6e7a-433c-9ad3-30bd150e709a"},"vehicle_type_id":"4","last_reported":1706821572,"current_range_meters":27200,"station_id":"ce4bgr92rcd13ifvqc6g","pricing_plan_id":"free"},{"bike_id":"a8e578cc-6c27-41c5-bde8-8b1142de6255","system_id":"levelo_inurba_marseille","lat":43.3135,"lon":5.36723,"is_reserved":false,"is_disabled":false,"rental_uris":{"android":"levelo://app?vid=a8e578cc-6c27-41c5-bde8-8b1142de6255","ios":"levelo://app?vid=a8e578cc-6c27-41c5-bde8-8b1142de6255"},"vehicle_type_id":"4","last_reported":1706821572,"current_range_meters":24400,"station_id":"ce4bgr92rcd13ifvqc6g","pricing_plan_id":"free"},{"bike_id":"bdbb7867-0c28-41f8-94bd-a4517ab72c61","system_id":"levelo_inurba_marseille","lat":43.312239,"lon":5.368562,"is_reserved":false,"is_disabled":false,"rental_uris":{"android":"levelo://app?vid=bdbb7867-0c28-41f8-94bd-a4517ab72c61","ios":"levelo://app?vid=bdbb7867-0c28-41f8-94bd-a4517ab72c61"},"vehicle_type_id":"4","last_reported":1706821572,"current_range_meters":14000,"station_id":"ce4bgl92rcd13ifvqbq0","pricing_plan_id":"free"},{"bike_id":"9d6d9e56-461d-4ab3-903b-48fad7fae135","system_id":"levelo_inurba_marseille","lat":43.312239,"lon":5.368562,"is_reserved":false,"is_disabled":false,"rental_uris":{"android":"levelo://app?vid=9d6d9e56-461d-4ab3-903b-48fad7fae135","ios":"levelo://app?vid=9d6d9e56-461d-4ab3-903b-48fad7fae135"},"vehicle_type_id":"4","last_reported":1706821572,"current_range_meters":6000,"station_id":"ce4bgl92rcd13ifvqbq0","pricing_plan_id":"free"},{"bike_id":"def64640-9359-4eac-9481-985fafb91e5e","system_id":"levelo_inurba_marseille","lat":43.312239,"lon":5.368562,"is_reserved":false,"is_disabled":false,"rental_uris":{"android":"levelo://app?vid=def64640-9359-4eac-9481-985fafb91e5e","ios":"levelo://app?vid=def64640-9359-4eac-9481-985fafb91e5e"},"vehicle_type_id":"4","last_reported":1706821572,"current_range_meters":32000,"station_id":"ce4bgl92rcd13ifvqbq0","pricing_plan_id":"free"},{"bike_id":"9a5a6102-231e-4225-9330-a138355fb4fc","system_id":"levelo_inurba_marseille","lat":43.312239,"lon":5.368562,"is_reserved":false,"is_disabled":false,"rental_uris":{"android":"levelo://app?vid=9a5a6102-231e-4225-9330-a138355fb4fc","ios":"levelo://app?vid=9a5a6102-231e-4225-9330-a138355fb4fc"},"vehicle_type_id":"4","last_reported":1706821572,"current_range_meters":0,"station_id":"ce4bgl92rcd13ifvqbq0","pricing_plan_id":"free"},{"bike_id":"5153265e-9aa3-48d8-b4ef-aead9d0f1140","system_id":"levelo_inurba_marseille","lat":43.312239,"lon":5.368562,"is_reserved":false,"is_disabled":false,"rental_uris":{"android":"levelo://app?vid=5153265e-9aa3-48d8-b4ef-aead9d0f1140","ios":"levelo://app?vid=5153265e-9aa3-48d8-b4ef-aead9d0f1140"},"vehicle_type_id":"4","last_reported":1706821572,"current_range_meters":21600,"station_id":"ce4bgl92rcd13ifvqbq0","pricing_plan_id":"free"},{"bike_id":"854cb7c9-dcbe-43dc-bb87-fc8b872258e6","system_id":"levelo_inurba_marseille","lat":43.312239,"lon":5.368562,"is_reserved":false,"is_disabled":false,"rental_uris":{"android":"levelo://app?vid=854cb7c9-dcbe-43dc-bb87-fc8b872258e6","ios":"levelo://app?vid=854cb7c9-dcbe-43dc-bb87-fc8b872258e6"},"vehicle_type_id":"4","last_reported":1706821572,"current_range_meters":0,"station_id":"ce4bgl92rcd13ifvqbq0","pricing_plan_id":"free"},{"bike_id":"f161ae11-8e29-4206-948a-c6175618ee3d","system_id":"levelo_inurba_marseille","lat":43.312239,"lon":5.368562,"is_reserved":false,"is_disabled":false,"rental_uris":{"android":"levelo://app?vid=f161ae11-8e29-4206-948a-c6175618ee3d","ios":"levelo://app?vid=f161ae11-8e29-4206-948a-c6175618ee3d"},"vehicle_type_id":"4","last_reported":1706821572,"current_range_meters":22000,"station_id":"ce4bgl92rcd13ifvqbq0","pricing_plan_id":"free"},{"bike_id":"3a7f311c-a7ef-4019-b708-5ba935abfbfc","system_id":"levelo_inurba_marseille","lat":43.31306,"lon":5.37258,"is_reserved":false,"is_disabled":false,"rental_uris":{"android":"levelo://app?vid=3a7f311c-a7ef-4019-b708-5ba935abfbfc","ios":"levelo://app?vid=3a7f311c-a7ef-4019-b708-5ba935abfbfc"},"vehicle_type_id":"4","last_reported":1706821572,"current_range_meters":18400,"station_id":"","pricing_plan_id":"free"},{"bike_id":"1c16901d-858a-449e-ab72-37797c027f84","system_id":"levelo_inurba_marseille","lat":43.3149,"lon":5.373015,"is_reserved":false,"is_disabled":false,"rental_uris":{"android":"levelo://app?vid=1c16901d-858a-449e-ab72-37797c027f84","ios":"levelo://app?vid=1c16901d-858a-449e-ab72-37797c027f84"},"vehicle_type_id":"4","last_reported":1706821572,"current_range_meters":0,"station_id":"ce4bgt12rcd13ifvqcd0","pricing_plan_id":"free"},{"bike_id":"9cf7be41-e77a-41a2-806c-4df62a13853e","system_id":"levelo_inurba_marseille","lat":43.309039,"lon":5.371797,"is_reserved":false,"is_disabled":false,"rental_uris":{"android":"levelo://app?vid=9cf7be41-e77a-41a2-806c-4df62a13853e","ios":"levelo://app?vid=9cf7be41-e77a-41a2-806c-4df62a13853e"},"vehicle_type_id":"4","last_reported":1706821572,"current_range_meters":9200,"station_id":"ce4bguh2rcd13ifvqckg","pricing_plan_id":"free"},{"bike_id":"415525b4-76fe-4f47-a34d-731d474f8ff0","system_id":"levelo_inurba_marseille","lat":43.308884,"lon":5.372029,"is_reserved":false,"is_disabled":false,"rental_uris":{"android":"levelo://app?vid=415525b4-76fe-4f47-a34d-731d474f8ff0","ios":"levelo://app?vid=415525b4-76fe-4f47-a34d-731d474f8ff0"},"vehicle_type_id":"4","last_reported":1706821572,"current_range_meters":19600,"station_id":"","pricing_plan_id":"free"},{"bike_id":"33ad758e-857e-4527-9136-7424c67f1be3","system_id":"levelo_inurba_marseille","lat":43.309039,"lon":5.371797,"is_reserved":false,"is_disabled":false,"rental_uris":{"android":"levelo://app?vid=33ad758e-857e-4527-9136-7424c67f1be3","ios":"levelo://app?vid=33ad758e-857e-4527-9136-7424c67f1be3"},"vehicle_type_id":"4","last_reported":1706821572,"current_range_meters":16000,"station_id":"ce4bguh2rcd13ifvqckg","pricing_plan_id":"free"},{"bike_id":"1e2d9b78-459b-4af5-8b66-e03b0dde964a","system_id":"levelo_inurba_marseille","lat":43.30552,"lon":5.36535,"is_reserved":false,"is_disabled":false,"rental_uris":{"android":"levelo://app?vid=1e2d9b78-459b-4af5-8b66-e03b0dde964a","ios":"levelo://app?vid=1e2d9b78-459b-4af5-8b66-e03b0dde964a"},"vehicle_type_id":"4","last_reported":1706821572,"current_range_meters":0,"station_id":"ce4bgs12rcd13ifvqcag","pricing_plan_id":"free"},{"bike_id":"0e166d2a-cfbe-47f2-8eb4-213bccf954d1","system_id":"levelo_inurba_marseille","lat":43.305706,"lon":5.365654,"is_reserved":false,"is_disabled":false,"rental_uris":{"android":"levelo://app?vid=0e166d2a-cfbe-47f2-8eb4-213bccf954d1","ios":"levelo://app?vid=0e166d2a-cfbe-47f2-8eb4-213bccf954d1"},"vehicle_type_id":"4","last_reported":1706821572,"current_range_meters":0,"station_id":"ce4bgs12rcd13ifvqcag","pricing_plan_id":"free"},{"bike_id":"29a21b05-a250-49de-bbc6-df7579d7998c","system_id":"levelo_inurba_marseille","lat":43.305989,"lon":5.37225,"is_reserved":false,"is_disabled":false,"rental_uris":{"android":"levelo://app?vid=29a21b05-a250-49de-bbc6-df7579d7998c","ios":"levelo://app?vid=29a21b05-a250-49de-bbc6-df7579d7998c"},"vehicle_type_id":"4","last_reported":1706821572,"current_range_meters":7200,"station_id":"ce4bgqh2rcd13ifvqc4g","pricing_plan_id":"free"},{"bike_id":"898b2fa9-d424-4f6d-95fb-cd1a01a36756","system_id":"levelo_inurba_marseille","lat":43.31119,"lon":5.37759,"is_reserved":false,"is_disabled":false,"rental_uris":{"android":"levelo://app?vid=898b2fa9-d424-4f6d-95fb-cd1a01a36756","ios":"levelo://app?vid=898b2fa9-d424-4f6d-95fb-cd1a01a36756"},"vehicle_type_id":"4","last_reported":1706821572,"current_range_meters":0,"station_id":"ce4bgt92rcd13ifvqcg0","pricing_plan_id":"free"},{"bike_id":"b31d54cf-e644-4917-a308-d07fb3195eea","system_id":"levelo_inurba_marseille","lat":43.307945,"lon":5.376487,"is_reserved":false,"is_disabled":false,"rental_uris":{"android":"levelo://app?vid=b31d54cf-e644-4917-a308-d07fb3195eea","ios":"levelo://app?vid=b31d54cf-e644-4917-a308-d07fb3195eea"},"vehicle_type_id":"4","last_reported":1706821572,"current_range_meters":1600,"station_id":"ce4bgv92rcd13ifvqcq0","pricing_plan_id":"free"},{"bike_id":"6357a2be-e704-4102-9ec8-a482ec11ed9b","system_id":"levelo_inurba_marseille","lat":43.307945,"lon":5.376487,"is_reserved":false,"is_disabled":false,"rental_uris":{"android":"levelo://app?vid=6357a2be-e704-4102-9ec8-a482ec11ed9b","ios":"levelo://app?vid=6357a2be-e704-4102-9ec8-a482ec11ed9b"},"vehicle_type_id":"4","last_reported":1706821572,"current_range_meters":6000,"station_id":"ce4bgv92rcd13ifvqcq0","pricing_plan_id":"free"},{"bike_id":"b21f5c34-98e9-40a4-9595-318511423343","system_id":"levelo_inurba_marseille","lat":43.317075,"lon":5.377367,"is_reserved":false,"is_disabled":false,"rental_uris":{"android":"levelo://app?vid=b21f5c34-98e9-40a4-9595-318511423343","ios":"levelo://app?vid=b21f5c34-98e9-40a4-9595-318511423343"},"vehicle_type_id":"4","last_reported":1706821572,"current_range_meters":25200,"station_id":"ce4bgth2rcd13ifvqch0","pricing_plan_id":"free"},{"bike_id":"eff868a7-7b1a-495c-bcbd-769a368c2260","system_id":"levelo_inurba_marseille","lat":43.30304,"lon":5.368987,"is_reserved":false,"is_disabled":false,"rental_uris":{"android":"levelo://app?vid=eff868a7-7b1a-495c-bcbd-769a368c2260","ios":"levelo://app?vid=eff868a7-7b1a-495c-bcbd-769a368c2260"},"vehicle_type_id":"4","last_reported":1706821572,"current_range_meters":22800,"station_id":"ce4bgqh2rcd13ifvqc5g","pricing_plan_id":"free"},{"bike_id":"1e14c22f-cfa6-494e-9775-3cf5e28e1cb8","system_id":"levelo_inurba_marseille","lat":43.303046,"lon":5.368981,"is_reserved":false,"is_disabled":false,"rental_uris":{"android":"levelo://app?vid=1e14c22f-cfa6-494e-9775-3cf5e28e1cb8","ios":"levelo://app?vid=1e14c22f-cfa6-494e-9775-3cf5e28e1cb8"},"vehicle_type_id":"4","last_reported":1706821572,"current_range_meters":0,"station_id":"ce4bgqh2rcd13ifvqc5g","pricing_plan_id":"free"},{"bike_id":"7c4afd42-a745-49bf-ba00-51fec898e9de","system_id":"levelo_inurba_marseille","lat":43.303046,"lon":5.368981,"is_reserved":false,"is_disabled":false,"rental_uris":{"android":"levelo://app?vid=7c4afd42-a745-49bf-ba00-51fec898e9de","ios":"levelo://app?vid=7c4afd42-a745-49bf-ba00-51fec898e9de"},"vehicle_type_id":"4","last_reported":1706821572,"current_range_meters":19600,"station_id":"ce4bgqh2rcd13ifvqc5g","pricing_plan_id":"free"},{"bike_id":"36cafc18-9312-47f8-8743-fadef2794582","system_id":"levelo_inurba_marseille","lat":43.301939,"lon":5.366286,"is_reserved":false,"is_disabled":false,"rental_uris":{"android":"levelo://app?vid=36cafc18-9312-47f8-8743-fadef2794582","ios":"levelo://app?vid=36cafc18-9312-47f8-8743-fadef2794582"},"vehicle_type_id":"4","last_reported":1706821572,"current_range_meters":400,"station_id":"ce4bgrh2rcd13ifvqc8g","pricing_plan_id":"free"},{"bike_id":"94dfc882-fd48-4805-868f-4fb02cebbdc2","system_id":"levelo_inurba_marseille","lat":43.301939,"lon":5.366286,"is_reserved":false,"is_disabled":false,"rental_uris":{"android":"levelo://app?vid=94dfc882-fd48-4805-868f-4fb02cebbdc2","ios":"levelo://app?vid=94dfc882-fd48-4805-868f-4fb02cebbdc2"},"vehicle_type_id":"4","last_reported":1706821572,"current_range_meters":17200,"station_id":"ce4bgrh2rcd13ifvqc8g","pricing_plan_id":"free"},{"bike_id":"26a2256d-b5f3-47f2-8f88-fd49bb301d72","system_id":"levelo_inurba_marseille","lat":43.304664,"lon":5.37901,"is_reserved":false,"is_disabled":false,"rental_uris":{"android":"levelo://app?vid=26a2256d-b5f3-47f2-8f88-fd49bb301d72","ios":"levelo://app?vid=26a2256d-b5f3-47f2-8f88-fd49bb301d72"},"vehicle_type_id":"4","last_reported":1706821572,"current_range_meters":0,"station_id":"ce4bgup2rcd13ifvqcn0","pricing_plan_id":"free"},{"bike_id":"913b59fd-c2f1-4722-8693-c3993314d595","system_id":"levelo_inurba_marseille","lat":43.31341,"lon":5.367098,"is_reserved":false,"is_disabled":false,"rental_uris":{"android":"levelo://app?vid=913b59fd-c2f1-4722-8693-c3993314d595","ios":"levelo://app?vid=913b59fd-c2f1-4722-8693-c3993314d595"},"vehicle_type_id":"4","last_reported":1706821572,"current_range_meters":24400,"station_id":"ce4bgr92rcd13ifvqc6g","pricing_plan_id":"free"},{"bike_id":"41ea9c01-ecd4-4388-8a24-d0339ea2b974","system_id":"levelo_inurba_marseille","lat":43.30455,"lon":5.37901,"is_reserved":false,"is_disabled":false,"rental_uris":{"android":"levelo://app?vid=41ea9c01-ecd4-4388-8a24-d0339ea2b974","ios":"levelo://app?vid=41ea9c01-ecd4-4388-8a24-d0339ea2b974"},"vehicle_type_id":"4","last_reported":1706821572,"current_range_meters":0,"station_id":"ce4bgup2rcd13ifvqcn0","pricing_plan_id":"free"},{"bike_id":"b29aff8a-d845-486d-9610-4eb264c2c178","system_id":"levelo_inurba_marseille","lat":43.30139,"lon":5.37408,"is_reserved":false,"is_disabled":false,"rental_uris":{"android":"levelo://app?vid=b29aff8a-d845-486d-9610-4eb264c2c178","ios":"levelo://app?vid=b29aff8a-d845-486d-9610-4eb264c2c178"},"vehicle_type_id":"4","last_reported":1706821572,"current_range_meters":0,"station_id":"ce4bgs92rcd13ifvqcc0","pricing_plan_id":"free"},{"bike_id":"64d78273-fffd-4887-a48e-68932349843e","system_id":"levelo_inurba_marseille","lat":43.319925,"lon":5.381419,"is_reserved":false,"is_disabled":false,"rental_uris":{"android":"levelo://app?vid=64d78273-fffd-4887-a48e-68932349843e","ios":"levelo://app?vid=64d78273-fffd-4887-a48e-68932349843e"},"vehicle_type_id":"4","last_reported":1706821572,"current_range_meters":25600,"station_id":"","pricing_plan_id":"free"},{"bike_id":"750ede20-1a92-4656-b5f3-684b58e12ed0","system_id":"levelo_inurba_marseille","lat":43.319935,"lon":5.381699,"is_reserved":false,"is_disabled":false,"rental_uris":{"android":"levelo://app?vid=750ede20-1a92-4656-b5f3-684b58e12ed0","ios":"levelo://app?vid=750ede20-1a92-4656-b5f3-684b58e12ed0"},"vehicle_type_id":"4","last_reported":1706821572,"current_range_meters":1600,"station_id":"ce4bhr12rcd13ifvqhpg","pricing_plan_id":"free"},{"bike_id":"33aa6591-fee3-4190-8337-a93734a2451e","system_id":"levelo_inurba_marseille","lat":43.319935,"lon":5.381699,"is_reserved":false,"is_disabled":false,"rental_uris":{"android":"levelo://app?vid=33aa6591-fee3-4190-8337-a93734a2451e","ios":"levelo://app?vid=33aa6591-fee3-4190-8337-a93734a2451e"},"vehicle_type_id":"4","last_reported":1706821572,"current_range_meters":26000,"station_id":"ce4bhr12rcd13ifvqhpg","pricing_plan_id":"free"},{"bike_id":"5d1f62cd-175b-4219-aa13-aee81343a1e5","system_id":"levelo_inurba_marseille","lat":43.319935,"lon":5.381699,"is_reserved":false,"is_disabled":false,"rental_uris":{"android":"levelo://app?vid=5d1f62cd-175b-4219-aa13-aee81343a1e5","ios":"levelo://app?vid=5d1f62cd-175b-4219-aa13-aee81343a1e5"},"vehicle_type_id":"4","last_reported":1706821572,"current_range_meters":17600,"station_id":"ce4bhr12rcd13ifvqhpg","pricing_plan_id":"free"},{"bike_id":"0a431524-38b9-4c1b-956e-85b95de4b027","system_id":"levelo_inurba_marseille","lat":43.319935,"lon":5.381699,"is_reserved":false,"is_disabled":false,"rental_uris":{"android":"levelo://app?vid=0a431524-38b9-4c1b-956e-85b95de4b027","ios":"levelo://app?vid=0a431524-38b9-4c1b-956e-85b95de4b027"},"vehicle_type_id":"4","last_reported":1706821572,"current_range_meters":400,"station_id":"ce4bhr12rcd13ifvqhpg","pricing_plan_id":"free"},{"bike_id":"d44ce61f-67ef-4d51-b216-d9251b48baa0","system_id":"levelo_inurba_marseille","lat":43.319935,"lon":5.381699,"is_reserved":false,"is_disabled":false,"rental_uris":{"android":"levelo://app?vid=d44ce61f-67ef-4d51-b216-d9251b48baa0","ios":"levelo://app?vid=d44ce61f-67ef-4d51-b216-d9251b48baa0"},"vehicle_type_id":"4","last_reported":1706821572,"current_range_meters":14400,"station_id":"ce4bhr12rcd13ifvqhpg","pricing_plan_id":"free"},{"bike_id":"71d56451-cebf-4006-aa6b-bed0df139352","system_id":"levelo_inurba_marseille","lat":43.305364,"lon":5.384119,"is_reserved":false,"is_disabled":false,"rental_uris":{"android":"levelo://app?vid=71d56451-cebf-4006-aa6b-bed0df139352","ios":"levelo://app?vid=71d56451-cebf-4006-aa6b-bed0df139352"},"vehicle_type_id":"4","last_reported":1706821572,"current_range_meters":19200,"station_id":"ce4bgg92rcd13ifvqb30","pricing_plan_id":"free"},{"bike_id":"894b44a7-54f7-41b4-bb98-30de2e4f98db","system_id":"levelo_inurba_marseille","lat":43.31374,"lon":5.38482,"is_reserved":false,"is_disabled":false,"rental_uris":{"android":"levelo://app?vid=894b44a7-54f7-41b4-bb98-30de2e4f98db","ios":"levelo://app?vid=894b44a7-54f7-41b4-bb98-30de2e4f98db"},"vehicle_type_id":"4","last_reported":1706821572,"current_range_meters":18000,"station_id":"ce4bgt92rcd13ifvqcf0","pricing_plan_id":"free"},{"bike_id":"46c5fcf0-2722-4bbe-a99d-0958e8038721","system_id":"levelo_inurba_marseille","lat":43.313662,"lon":5.384958,"is_reserved":false,"is_disabled":false,"rental_uris":{"android":"levelo://app?vid=46c5fcf0-2722-4bbe-a99d-0958e8038721","ios":"levelo://app?vid=46c5fcf0-2722-4bbe-a99d-0958e8038721"},"vehicle_type_id":"4","last_reported":1706821572,"current_range_meters":0,"station_id":"ce4bgt92rcd13ifvqcf0","pricing_plan_id":"free"},{"bike_id":"9efc4540-ed4d-4586-a1a3-3c3a73eb51d6","system_id":"levelo_inurba_marseille","lat":43.299724,"lon":5.371829,"is_reserved":false,"is_disabled":false,"rental_uris":{"android":"levelo://app?vid=9efc4540-ed4d-4586-a1a3-3c3a73eb51d6","ios":"levelo://app?vid=9efc4540-ed4d-4586-a1a3-3c3a73eb51d6"},"vehicle_type_id":"4","last_reported":1706821572,"current_range_meters":3600,"station_id":"ce4bgr92rcd13ifvqc7g","pricing_plan_id":"free"},{"bike_id":"9c775f24-4710-483c-8578-012462f90a5e","system_id":"levelo_inurba_marseille","lat":43.299724,"lon":5.371829,"is_reserved":false,"is_disabled":false,"rental_uris":{"android":"levelo://app?vid=9c775f24-4710-483c-8578-012462f90a5e","ios":"levelo://app?vid=9c775f24-4710-483c-8578-012462f90a5e"},"vehicle_type_id":"4","last_reported":1706821572,"current_range_meters":8000,"station_id":"ce4bgr92rcd13ifvqc7g","pricing_plan_id":"free"},{"bike_id":"314f8753-d666-463d-93f2-cb8320abcf85","system_id":"levelo_inurba_marseille","lat":43.299724,"lon":5.371829,"is_reserved":false,"is_disabled":false,"rental_uris":{"android":"levelo://app?vid=314f8753-d666-463d-93f2-cb8320abcf85","ios":"levelo://app?vid=314f8753-d666-463d-93f2-cb8320abcf85"},"vehicle_type_id":"4","last_reported":1706821572,"current_range_meters":6000,"station_id":"ce4bgr92rcd13ifvqc7g","pricing_plan_id":"free"},{"bike_id":"57169314-ff87-4841-afd6-b61cb14eb6a0","system_id":"levelo_inurba_marseille","lat":43.298433,"lon":5.362774,"is_reserved":false,"is_disabled":false,"rental_uris":{"android":"levelo://app?vid=57169314-ff87-4841-afd6-b61cb14eb6a0","ios":"levelo://app?vid=57169314-ff87-4841-afd6-b61cb14eb6a0"},"vehicle_type_id":"4","last_reported":1706821572,"current_range_meters":23600,"station_id":"ce4bgpp2rcd13ifvqc3g","pricing_plan_id":"free"},{"bike_id":"7bd0936a-5220-4edf-856d-d62cc18e0b54","system_id":"levelo_inurba_marseille","lat":43.305364,"lon":5.384119,"is_reserved":false,"is_disabled":false,"rental_uris":{"android":"levelo://app?vid=7bd0936a-5220-4edf-856d-d62cc18e0b54","ios":"levelo://app?vid=7bd0936a-5220-4edf-856d-d62cc18e0b54"},"vehicle_type_id":"4","last_reported":1706821572,"current_range_meters":20400,"station_id":"ce4bgg92rcd13ifvqb30","pricing_plan_id":"free"},{"bike_id":"671e61a1-a887-42ec-82bd-d22f67ea330c","system_id":"levelo_inurba_marseille","lat":43.311722,"lon":5.387247,"is_reserved":false,"is_disabled":false,"rental_uris":{"android":"levelo://app?vid=671e61a1-a887-42ec-82bd-d22f67ea330c","ios":"levelo://app?vid=671e61a1-a887-42ec-82bd-d22f67ea330c"},"vehicle_type_id":"4","last_reported":1706821572,"current_range_meters":5200,"station_id":"ce4bgv12rcd13ifvqcp0","pricing_plan_id":"free"},{"bike_id":"1ee319aa-4037-484f-a455-a561c1c9a4f6","system_id":"levelo_inurba_marseille","lat":43.311722,"lon":5.387247,"is_reserved":false,"is_disabled":false,"rental_uris":{"android":"levelo://app?vid=1ee319aa-4037-484f-a455-a561c1c9a4f6","ios":"levelo://app?vid=1ee319aa-4037-484f-a455-a561c1c9a4f6"},"vehicle_type_id":"4","last_reported":1706821572,"current_range_meters":7200,"station_id":"ce4bgv12rcd13ifvqcp0","pricing_plan_id":"free"},{"bike_id":"cd6d6bcf-3cf6-457a-8ec0-d6d00f01909c","system_id":"levelo_inurba_marseille","lat":43.311722,"lon":5.387247,"is_reserved":false,"is_disabled":false,"rental_uris":{"android":"levelo://app?vid=cd6d6bcf-3cf6-457a-8ec0-d6d00f01909c","ios":"levelo://app?vid=cd6d6bcf-3cf6-457a-8ec0-d6d00f01909c"},"vehicle_type_id":"4","last_reported":1706821572,"current_range_meters":24800,"station_id":"ce4bgv12rcd13ifvqcp0","pricing_plan_id":"free"},{"bike_id":"26373327-9b05-44e4-8356-c2fbabc0ad9f","system_id":"levelo_inurba_marseille","lat":43.311722,"lon":5.387247,"is_reserved":false,"is_disabled":false,"rental_uris":{"android":"levelo://app?vid=26373327-9b05-44e4-8356-c2fbabc0ad9f","ios":"levelo://app?vid=26373327-9b05-44e4-8356-c2fbabc0ad9f"},"vehicle_type_id":"4","last_reported":1706821572,"current_range_meters":20800,"station_id":"ce4bgv12rcd13ifvqcp0","pricing_plan_id":"free"},{"bike_id":"5432b4d5-6f3f-4046-a600-0c38ec8ae75f","system_id":"levelo_inurba_marseille","lat":43.311722,"lon":5.387247,"is_reserved":false,"is_disabled":false,"rental_uris":{"android":"levelo://app?vid=5432b4d5-6f3f-4046-a600-0c38ec8ae75f","ios":"levelo://app?vid=5432b4d5-6f3f-4046-a600-0c38ec8ae75f"},"vehicle_type_id":"4","last_reported":1706821572,"current_range_meters":16400,"station_id":"ce4bgv12rcd13ifvqcp0","pricing_plan_id":"free"},{"bike_id":"a4d68b0a-4423-409c-ab55-90eedde5d8f9","system_id":"levelo_inurba_marseille","lat":43.322872,"lon":5.382756,"is_reserved":false,"is_disabled":false,"rental_uris":{"android":"levelo://app?vid=a4d68b0a-4423-409c-ab55-90eedde5d8f9","ios":"levelo://app?vid=a4d68b0a-4423-409c-ab55-90eedde5d8f9"},"vehicle_type_id":"4","last_reported":1706821572,"current_range_meters":12800,"station_id":"ce4bhr12rcd13ifvqhqg","pricing_plan_id":"free"},{"bike_id":"ababc665-0323-4196-966a-430eb84efd6d","system_id":"levelo_inurba_marseille","lat":43.322872,"lon":5.382756,"is_reserved":false,"is_disabled":false,"rental_uris":{"android":"levelo://app?vid=ababc665-0323-4196-966a-430eb84efd6d","ios":"levelo://app?vid=ababc665-0323-4196-966a-430eb84efd6d"},"vehicle_type_id":"4","last_reported":1706821572,"current_range_meters":3200,"station_id":"ce4bhr12rcd13ifvqhqg","pricing_plan_id":"free"},{"bike_id":"c5d0d7d5-9b16-4eb0-a7f6-5fa1faf28471","system_id":"levelo_inurba_marseille","lat":43.322872,"lon":5.382756,"is_reserved":false,"is_disabled":false,"rental_uris":{"android":"levelo://app?vid=c5d0d7d5-9b16-4eb0-a7f6-5fa1faf28471","ios":"levelo://app?vid=c5d0d7d5-9b16-4eb0-a7f6-5fa1faf28471"},"vehicle_type_id":"4","last_reported":1706821572,"current_range_meters":6000,"station_id":"ce4bhr12rcd13ifvqhqg","pricing_plan_id":"free"},{"bike_id":"b43645aa-f2e5-486d-a2fa-bf46e0a03dc2","system_id":"levelo_inurba_marseille","lat":43.322872,"lon":5.382756,"is_reserved":false,"is_disabled":false,"rental_uris":{"android":"levelo://app?vid=b43645aa-f2e5-486d-a2fa-bf46e0a03dc2","ios":"levelo://app?vid=b43645aa-f2e5-486d-a2fa-bf46e0a03dc2"},"vehicle_type_id":"4","last_reported":1706821572,"current_range_meters":13600,"station_id":"ce4bhr12rcd13ifvqhqg","pricing_plan_id":"free"},{"bike_id":"b069e964-d710-4a2f-993a-1ab0b01ca06a","system_id":"levelo_inurba_marseille","lat":43.322872,"lon":5.382756,"is_reserved":false,"is_disabled":false,"rental_uris":{"android":"levelo://app?vid=b069e964-d710-4a2f-993a-1ab0b01ca06a","ios":"levelo://app?vid=b069e964-d710-4a2f-993a-1ab0b01ca06a"},"vehicle_type_id":"4","last_reported":1706821572,"current_range_meters":8000,"station_id":"ce4bhr12rcd13ifvqhqg","pricing_plan_id":"free"},{"bike_id":"2f814de7-ab89-4e81-bd56-ab00af80498f","system_id":"levelo_inurba_marseille","lat":43.322872,"lon":5.382756,"is_reserved":false,"is_disabled":false,"rental_uris":{"android":"levelo://app?vid=2f814de7-ab89-4e81-bd56-ab00af80498f","ios":"levelo://app?vid=2f814de7-ab89-4e81-bd56-ab00af80498f"},"vehicle_type_id":"4","last_reported":1706821572,"current_range_meters":18400,"station_id":"ce4bhr12rcd13ifvqhqg","pricing_plan_id":"free"},{"bike_id":"b667764d-fe48-4325-becc-a4e6eea43d1a","system_id":"levelo_inurba_marseille","lat":43.322872,"lon":5.382756,"is_reserved":false,"is_disabled":false,"rental_uris":{"android":"levelo://app?vid=b667764d-fe48-4325-becc-a4e6eea43d1a","ios":"levelo://app?vid=b667764d-fe48-4325-becc-a4e6eea43d1a"},"vehicle_type_id":"4","last_reported":1706821572,"current_range_meters":400,"station_id":"ce4bhr12rcd13ifvqhqg","pricing_plan_id":"free"},{"bike_id":"6268e9ea-d457-41cb-b090-f7f91ef35cfb","system_id":"levelo_inurba_marseille","lat":43.322872,"lon":5.382756,"is_reserved":false,"is_disabled":false,"rental_uris":{"android":"levelo://app?vid=6268e9ea-d457-41cb-b090-f7f91ef35cfb","ios":"levelo://app?vid=6268e9ea-d457-41cb-b090-f7f91ef35cfb"},"vehicle_type_id":"4","last_reported":1706821572,"current_range_meters":31600,"station_id":"ce4bhr12rcd13ifvqhqg","pricing_plan_id":"free"},{"bike_id":"04133053-7e22-49fe-9a8e-cfae27a54d05","system_id":"levelo_inurba_marseille","lat":43.322872,"lon":5.382756,"is_reserved":false,"is_disabled":false,"rental_uris":{"android":"levelo://app?vid=04133053-7e22-49fe-9a8e-cfae27a54d05","ios":"levelo://app?vid=04133053-7e22-49fe-9a8e-cfae27a54d05"},"vehicle_type_id":"4","last_reported":1706821572,"current_range_meters":10800,"station_id":"ce4bhr12rcd13ifvqhqg","pricing_plan_id":"free"},{"bike_id":"9781ebb3-155f-4467-bcb9-a79d2aadab6e","system_id":"levelo_inurba_marseille","lat":43.322872,"lon":5.382756,"is_reserved":false,"is_disabled":false,"rental_uris":{"android":"levelo://app?vid=9781ebb3-155f-4467-bcb9-a79d2aadab6e","ios":"levelo://app?vid=9781ebb3-155f-4467-bcb9-a79d2aadab6e"},"vehicle_type_id":"4","last_reported":1706821572,"current_range_meters":4000,"station_id":"ce4bhr12rcd13ifvqhqg","pricing_plan_id":"free"},{"bike_id":"9efb79d0-e2ba-456d-ba9a-99a10d4c7b7e","system_id":"levelo_inurba_marseille","lat":43.328371,"lon":5.366909,"is_reserved":false,"is_disabled":false,"rental_uris":{"android":"levelo://app?vid=9efb79d0-e2ba-456d-ba9a-99a10d4c7b7e","ios":"levelo://app?vid=9efb79d0-e2ba-456d-ba9a-99a10d4c7b7e"},"vehicle_type_id":"4","last_reported":1706821572,"current_range_meters":18800,"station_id":"ce4bhs92rcd13ifvqi0g","pricing_plan_id":"free"},{"bike_id":"54d2e451-9cd4-400a-bfa8-eb46cefbc970","system_id":"levelo_inurba_marseille","lat":43.328371,"lon":5.366909,"is_reserved":false,"is_disabled":false,"rental_uris":{"android":"levelo://app?vid=54d2e451-9cd4-400a-bfa8-eb46cefbc970","ios":"levelo://app?vid=54d2e451-9cd4-400a-bfa8-eb46cefbc970"},"vehicle_type_id":"4","last_reported":1706821572,"current_range_meters":30400,"station_id":"ce4bhs92rcd13ifvqi0g","pricing_plan_id":"free"},{"bike_id":"65fc335e-45c8-4311-b5d8-53a51b4b3050","system_id":"levelo_inurba_marseille","lat":43.2968,"lon":5.37291,"is_reserved":false,"is_disabled":false,"rental_uris":{"android":"levelo://app?vid=65fc335e-45c8-4311-b5d8-53a51b4b3050","ios":"levelo://app?vid=65fc335e-45c8-4311-b5d8-53a51b4b3050"},"vehicle_type_id":"4","last_reported":1706821572,"current_range_meters":0,"station_id":"ce4bgk12rcd13ifvqbj0","pricing_plan_id":"free"},{"bike_id":"9f123490-797c-48bf-b0fe-6381975956a5","system_id":"levelo_inurba_marseille","lat":43.31751,"lon":5.38907,"is_reserved":false,"is_disabled":false,"rental_uris":{"android":"levelo://app?vid=9f123490-797c-48bf-b0fe-6381975956a5","ios":"levelo://app?vid=9f123490-797c-48bf-b0fe-6381975956a5"},"vehicle_type_id":"4","last_reported":1706821572,"current_range_meters":22400,"station_id":"","pricing_plan_id":"free"},{"bike_id":"d21fc585-85c4-4169-a659-5a9bbe555387","system_id":"levelo_inurba_marseille","lat":43.309589,"lon":5.390258,"is_reserved":false,"is_disabled":false,"rental_uris":{"android":"levelo://app?vid=d21fc585-85c4-4169-a659-5a9bbe555387","ios":"levelo://app?vid=d21fc585-85c4-4169-a659-5a9bbe555387"},"vehicle_type_id":"4","last_reported":1706821572,"current_range_meters":8800,"station_id":"ce4bgup2rcd13ifvqco0","pricing_plan_id":"free"},{"bike_id":"ee3a87b0-3f71-4919-9631-aa353e17a6ff","system_id":"levelo_inurba_marseille","lat":43.309589,"lon":5.390258,"is_reserved":false,"is_disabled":false,"rental_uris":{"android":"levelo://app?vid=ee3a87b0-3f71-4919-9631-aa353e17a6ff","ios":"levelo://app?vid=ee3a87b0-3f71-4919-9631-aa353e17a6ff"},"vehicle_type_id":"4","last_reported":1706821572,"current_range_meters":0,"station_id":"ce4bgup2rcd13ifvqco0","pricing_plan_id":"free"},{"bike_id":"fba8f1ce-1af3-4c2e-b41f-531c50a370ee","system_id":"levelo_inurba_marseille","lat":43.317557,"lon":5.390173,"is_reserved":false,"is_disabled":false,"rental_uris":{"android":"levelo://app?vid=fba8f1ce-1af3-4c2e-b41f-531c50a370ee","ios":"levelo://app?vid=fba8f1ce-1af3-4c2e-b41f-531c50a370ee"},"vehicle_type_id":"4","last_reported":1706821572,"current_range_meters":3600,"station_id":"ce4bhqp2rcd13ifvqhng","pricing_plan_id":"free"},{"bike_id":"646447d3-b90a-4c79-80bc-61cfee8e1fb0","system_id":"levelo_inurba_marseille","lat":43.317557,"lon":5.390173,"is_reserved":false,"is_disabled":false,"rental_uris":{"android":"levelo://app?vid=646447d3-b90a-4c79-80bc-61cfee8e1fb0","ios":"levelo://app?vid=646447d3-b90a-4c79-80bc-61cfee8e1fb0"},"vehicle_type_id":"4","last_reported":1706821572,"current_range_meters":0,"station_id":"ce4bhqp2rcd13ifvqhng","pricing_plan_id":"free"},{"bike_id":"ae8f0e56-9237-4255-b933-26929014c570","system_id":"levelo_inurba_marseille","lat":43.317557,"lon":5.390173,"is_reserved":false,"is_disabled":false,"rental_uris":{"android":"levelo://app?vid=ae8f0e56-9237-4255-b933-26929014c570","ios":"levelo://app?vid=ae8f0e56-9237-4255-b933-26929014c570"},"vehicle_type_id":"4","last_reported":1706821572,"current_range_meters":17200,"station_id":"ce4bhqp2rcd13ifvqhng","pricing_plan_id":"free"},{"bike_id":"3fecf167-fccf-451d-8a9a-2c9fc14b9ce3","system_id":"levelo_inurba_marseille","lat":43.317557,"lon":5.390173,"is_reserved":false,"is_disabled":false,"rental_uris":{"android":"levelo://app?vid=3fecf167-fccf-451d-8a9a-2c9fc14b9ce3","ios":"levelo://app?vid=3fecf167-fccf-451d-8a9a-2c9fc14b9ce3"},"vehicle_type_id":"4","last_reported":1706821572,"current_range_meters":23200,"station_id":"ce4bhqp2rcd13ifvqhng","pricing_plan_id":"free"},{"bike_id":"0f139272-6f67-4685-8718-38ab061d180e","system_id":"levelo_inurba_marseille","lat":43.304274,"lon":5.388873,"is_reserved":false,"is_disabled":false,"rental_uris":{"android":"levelo://app?vid=0f139272-6f67-4685-8718-38ab061d180e","ios":"levelo://app?vid=0f139272-6f67-4685-8718-38ab061d180e"},"vehicle_type_id":"4","last_reported":1706821572,"current_range_meters":21200,"station_id":"ce4bgk12rcd13ifvqbi0","pricing_plan_id":"free"},{"bike_id":"be24d8e1-06fb-4c2e-bed5-6288dae4a36e","system_id":"levelo_inurba_marseille","lat":43.304278,"lon":5.388868,"is_reserved":false,"is_disabled":false,"rental_uris":{"android":"levelo://app?vid=be24d8e1-06fb-4c2e-bed5-6288dae4a36e","ios":"levelo://app?vid=be24d8e1-06fb-4c2e-bed5-6288dae4a36e"},"vehicle_type_id":"4","last_reported":1706821572,"current_range_meters":10000,"station_id":"ce4bgk12rcd13ifvqbi0","pricing_plan_id":"free"},{"bike_id":"32f6da02-cdf8-4a61-bf11-c6fb4a51a8ad","system_id":"levelo_inurba_marseille","lat":43.304274,"lon":5.388873,"is_reserved":false,"is_disabled":false,"rental_uris":{"android":"levelo://app?vid=32f6da02-cdf8-4a61-bf11-c6fb4a51a8ad","ios":"levelo://app?vid=32f6da02-cdf8-4a61-bf11-c6fb4a51a8ad"},"vehicle_type_id":"4","last_reported":1706821572,"current_range_meters":6400,"station_id":"ce4bgk12rcd13ifvqbi0","pricing_plan_id":"free"},{"bike_id":"67e40863-27eb-46a5-9fe8-d8f4d95bfde2","system_id":"levelo_inurba_marseille","lat":43.29782,"lon":5.38107,"is_reserved":false,"is_disabled":false,"rental_uris":{"android":"levelo://app?vid=67e40863-27eb-46a5-9fe8-d8f4d95bfde2","ios":"levelo://app?vid=67e40863-27eb-46a5-9fe8-d8f4d95bfde2"},"vehicle_type_id":"4","last_reported":1706821572,"current_range_meters":19200,"station_id":"ce4bgip2rcd13ifvqbb0","pricing_plan_id":"free"},{"bike_id":"71a50fd8-e257-4128-9981-904459175cc4","system_id":"levelo_inurba_marseille","lat":43.296277,"lon":5.377108,"is_reserved":false,"is_disabled":false,"rental_uris":{"android":"levelo://app?vid=71a50fd8-e257-4128-9981-904459175cc4","ios":"levelo://app?vid=71a50fd8-e257-4128-9981-904459175cc4"},"vehicle_type_id":"4","last_reported":1706821572,"current_range_meters":16000,"station_id":"ce4bgi92rcd13ifvqb90","pricing_plan_id":"free"},{"bike_id":"7ab581a0-3933-4376-b965-8072a9b2dd64","system_id":"levelo_inurba_marseille","lat":43.32367,"lon":5.388836,"is_reserved":false,"is_disabled":false,"rental_uris":{"android":"levelo://app?vid=7ab581a0-3933-4376-b965-8072a9b2dd64","ios":"levelo://app?vid=7ab581a0-3933-4376-b965-8072a9b2dd64"},"vehicle_type_id":"4","last_reported":1706821572,"current_range_meters":4000,"station_id":"ce4bhqp2rcd13ifvqhog","pricing_plan_id":"free"},{"bike_id":"2a37d63c-d71d-4e9b-a9b7-8c3c2525a16f","system_id":"levelo_inurba_marseille","lat":43.32367,"lon":5.388836,"is_reserved":false,"is_disabled":false,"rental_uris":{"android":"levelo://app?vid=2a37d63c-d71d-4e9b-a9b7-8c3c2525a16f","ios":"levelo://app?vid=2a37d63c-d71d-4e9b-a9b7-8c3c2525a16f"},"vehicle_type_id":"4","last_reported":1706821572,"current_range_meters":5600,"station_id":"ce4bhqp2rcd13ifvqhog","pricing_plan_id":"free"},{"bike_id":"df49dca8-eff4-4fb6-b5ec-7abf9e25044f","system_id":"levelo_inurba_marseille","lat":43.32367,"lon":5.388836,"is_reserved":false,"is_disabled":false,"rental_uris":{"android":"levelo://app?vid=df49dca8-eff4-4fb6-b5ec-7abf9e25044f","ios":"levelo://app?vid=df49dca8-eff4-4fb6-b5ec-7abf9e25044f"},"vehicle_type_id":"4","last_reported":1706821572,"current_range_meters":17600,"station_id":"ce4bhqp2rcd13ifvqhog","pricing_plan_id":"free"},{"bike_id":"50e7ecc8-37e3-4fdf-8029-d6592c9bdba6","system_id":"levelo_inurba_marseille","lat":43.32367,"lon":5.388836,"is_reserved":false,"is_disabled":false,"rental_uris":{"android":"levelo://app?vid=50e7ecc8-37e3-4fdf-8029-d6592c9bdba6","ios":"levelo://app?vid=50e7ecc8-37e3-4fdf-8029-d6592c9bdba6"},"vehicle_type_id":"4","last_reported":1706821572,"current_range_meters":9600,"station_id":"ce4bhqp2rcd13ifvqhog","pricing_plan_id":"free"},{"bike_id":"d245749e-1cc3-4f73-8b63-addd261ec499","system_id":"levelo_inurba_marseille","lat":43.32367,"lon":5.388836,"is_reserved":false,"is_disabled":false,"rental_uris":{"android":"levelo://app?vid=d245749e-1cc3-4f73-8b63-addd261ec499","ios":"levelo://app?vid=d245749e-1cc3-4f73-8b63-addd261ec499"},"vehicle_type_id":"4","last_reported":1706821572,"current_range_meters":5200,"station_id":"ce4bhqp2rcd13ifvqhog","pricing_plan_id":"free"},{"bike_id":"ba6df169-e42e-41e1-9099-8133b958ca2c","system_id":"levelo_inurba_marseille","lat":43.32367,"lon":5.388836,"is_reserved":false,"is_disabled":false,"rental_uris":{"android":"levelo://app?vid=ba6df169-e42e-41e1-9099-8133b958ca2c","ios":"levelo://app?vid=ba6df169-e42e-41e1-9099-8133b958ca2c"},"vehicle_type_id":"4","last_reported":1706821572,"current_range_meters":4800,"station_id":"ce4bhqp2rcd13ifvqhog","pricing_plan_id":"free"},{"bike_id":"5118de90-c727-4c12-bf98-99f5b63d7830","system_id":"levelo_inurba_marseille","lat":43.32367,"lon":5.388836,"is_reserved":false,"is_disabled":false,"rental_uris":{"android":"levelo://app?vid=5118de90-c727-4c12-bf98-99f5b63d7830","ios":"levelo://app?vid=5118de90-c727-4c12-bf98-99f5b63d7830"},"vehicle_type_id":"4","last_reported":1706821572,"current_range_meters":4800,"station_id":"ce4bhqp2rcd13ifvqhog","pricing_plan_id":"free"},{"bike_id":"efa6bd51-c94f-4107-9e97-437d3697b8cb","system_id":"levelo_inurba_marseille","lat":43.32367,"lon":5.388836,"is_reserved":false,"is_disabled":false,"rental_uris":{"android":"levelo://app?vid=efa6bd51-c94f-4107-9e97-437d3697b8cb","ios":"levelo://app?vid=efa6bd51-c94f-4107-9e97-437d3697b8cb"},"vehicle_type_id":"4","last_reported":1706821572,"current_range_meters":5200,"station_id":"ce4bhqp2rcd13ifvqhog","pricing_plan_id":"free"},{"bike_id":"8a95fa2d-22e9-49e9-b83e-c425ecfb1916","system_id":"levelo_inurba_marseille","lat":43.32371,"lon":5.388827,"is_reserved":false,"is_disabled":false,"rental_uris":{"android":"levelo://app?vid=8a95fa2d-22e9-49e9-b83e-c425ecfb1916","ios":"levelo://app?vid=8a95fa2d-22e9-49e9-b83e-c425ecfb1916"},"vehicle_type_id":"4","last_reported":1706821572,"current_range_meters":26000,"station_id":"ce4bhqp2rcd13ifvqhog","pricing_plan_id":"free"},{"bike_id":"4670db28-ee8e-4bde-9e2d-8955d8a4647c","system_id":"levelo_inurba_marseille","lat":43.29605,"lon":5.38095,"is_reserved":false,"is_disabled":false,"rental_uris":{"android":"levelo://app?vid=4670db28-ee8e-4bde-9e2d-8955d8a4647c","ios":"levelo://app?vid=4670db28-ee8e-4bde-9e2d-8955d8a4647c"},"vehicle_type_id":"4","last_reported":1706821572,"current_range_meters":6000,"station_id":"ce4bgl12rcd13ifvqbo0","pricing_plan_id":"free"},{"bike_id":"78e54708-26d6-4641-ba3a-56fab91b7e0e","system_id":"levelo_inurba_marseille","lat":43.29601,"lon":5.381084,"is_reserved":false,"is_disabled":false,"rental_uris":{"android":"levelo://app?vid=78e54708-26d6-4641-ba3a-56fab91b7e0e","ios":"levelo://app?vid=78e54708-26d6-4641-ba3a-56fab91b7e0e"},"vehicle_type_id":"4","last_reported":1706821572,"current_range_meters":0,"station_id":"ce4bgl12rcd13ifvqbo0","pricing_plan_id":"free"},{"bike_id":"3ef6f2c7-8bcf-49cd-8beb-2eb054cd0961","system_id":"levelo_inurba_marseille","lat":43.296,"lon":5.38101,"is_reserved":false,"is_disabled":false,"rental_uris":{"android":"levelo://app?vid=3ef6f2c7-8bcf-49cd-8beb-2eb054cd0961","ios":"levelo://app?vid=3ef6f2c7-8bcf-49cd-8beb-2eb054cd0961"},"vehicle_type_id":"4","last_reported":1706821572,"current_range_meters":11200,"station_id":"ce4bgl12rcd13ifvqbo0","pricing_plan_id":"free"},{"bike_id":"ce65d65d-0811-486a-a293-ea2aa489aaab","system_id":"levelo_inurba_marseille","lat":43.295952,"lon":5.381031,"is_reserved":false,"is_disabled":false,"rental_uris":{"android":"levelo://app?vid=ce65d65d-0811-486a-a293-ea2aa489aaab","ios":"levelo://app?vid=ce65d65d-0811-486a-a293-ea2aa489aaab"},"vehicle_type_id":"4","last_reported":1706821572,"current_range_meters":0,"station_id":"ce4bgl12rcd13ifvqbo0","pricing_plan_id":"free"},{"bike_id":"49a97404-72bd-46c3-a483-f508344e67e7","system_id":"levelo_inurba_marseille","lat":43.293249,"lon":5.371578,"is_reserved":false,"is_disabled":false,"rental_uris":{"android":"levelo://app?vid=49a97404-72bd-46c3-a483-f508344e67e7","ios":"levelo://app?vid=49a97404-72bd-46c3-a483-f508344e67e7"},"vehicle_type_id":"4","last_reported":1706821572,"current_range_meters":6800,"station_id":"ce4bgh92rcd13ifvqb40","pricing_plan_id":"free"},{"bike_id":"35e9c1a3-9bfc-40a0-80b6-079b8b91d610","system_id":"levelo_inurba_marseille","lat":43.292749,"lon":5.368402,"is_reserved":false,"is_disabled":false,"rental_uris":{"android":"levelo://app?vid=35e9c1a3-9bfc-40a0-80b6-079b8b91d610","ios":"levelo://app?vid=35e9c1a3-9bfc-40a0-80b6-079b8b91d610"},"vehicle_type_id":"4","last_reported":1706821572,"current_range_meters":10800,"station_id":"ce4bhbp2rcd13ifvqesg","pricing_plan_id":"free"},{"bike_id":"3d22a4e2-53d1-41fc-a54e-53acf5f7d7f9","system_id":"levelo_inurba_marseille","lat":43.292749,"lon":5.368402,"is_reserved":false,"is_disabled":false,"rental_uris":{"android":"levelo://app?vid=3d22a4e2-53d1-41fc-a54e-53acf5f7d7f9","ios":"levelo://app?vid=3d22a4e2-53d1-41fc-a54e-53acf5f7d7f9"},"vehicle_type_id":"4","last_reported":1706821572,"current_range_meters":21600,"station_id":"ce4bhbp2rcd13ifvqesg","pricing_plan_id":"free"},{"bike_id":"78aad8d7-19b9-4760-9614-d317706800d4","system_id":"levelo_inurba_marseille","lat":43.292749,"lon":5.368402,"is_reserved":false,"is_disabled":false,"rental_uris":{"android":"levelo://app?vid=78aad8d7-19b9-4760-9614-d317706800d4","ios":"levelo://app?vid=78aad8d7-19b9-4760-9614-d317706800d4"},"vehicle_type_id":"4","last_reported":1706821572,"current_range_meters":20800,"station_id":"ce4bhbp2rcd13ifvqesg","pricing_plan_id":"free"},{"bike_id":"ea724b38-3269-4e2b-9538-5e666e3f8efa","system_id":"levelo_inurba_marseille","lat":43.292749,"lon":5.368398,"is_reserved":false,"is_disabled":false,"rental_uris":{"android":"levelo://app?vid=ea724b38-3269-4e2b-9538-5e666e3f8efa","ios":"levelo://app?vid=ea724b38-3269-4e2b-9538-5e666e3f8efa"},"vehicle_type_id":"4","last_reported":1706821572,"current_range_meters":3600,"station_id":"ce4bhbp2rcd13ifvqesg","pricing_plan_id":"free"},{"bike_id":"5a27ee9d-d168-43a1-8005-5b175a522e9d","system_id":"levelo_inurba_marseille","lat":43.292749,"lon":5.368402,"is_reserved":false,"is_disabled":false,"rental_uris":{"android":"levelo://app?vid=5a27ee9d-d168-43a1-8005-5b175a522e9d","ios":"levelo://app?vid=5a27ee9d-d168-43a1-8005-5b175a522e9d"},"vehicle_type_id":"4","last_reported":1706821572,"current_range_meters":26000,"station_id":"ce4bhbp2rcd13ifvqesg","pricing_plan_id":"free"},{"bike_id":"5535d129-8743-400a-bd2c-5f51d3a0807c","system_id":"levelo_inurba_marseille","lat":43.292755,"lon":5.368392,"is_reserved":false,"is_disabled":false,"rental_uris":{"android":"levelo://app?vid=5535d129-8743-400a-bd2c-5f51d3a0807c","ios":"levelo://app?vid=5535d129-8743-400a-bd2c-5f51d3a0807c"},"vehicle_type_id":"4","last_reported":1706821572,"current_range_meters":22800,"station_id":"ce4bhbp2rcd13ifvqesg","pricing_plan_id":"free"},{"bike_id":"9c3723f9-a95c-446f-b4f2-6095c4fc7d4d","system_id":"levelo_inurba_marseille","lat":43.292749,"lon":5.368402,"is_reserved":false,"is_disabled":false,"rental_uris":{"android":"levelo://app?vid=9c3723f9-a95c-446f-b4f2-6095c4fc7d4d","ios":"levelo://app?vid=9c3723f9-a95c-446f-b4f2-6095c4fc7d4d"},"vehicle_type_id":"4","last_reported":1706821572,"current_range_meters":10400,"station_id":"ce4bhbp2rcd13ifvqesg","pricing_plan_id":"free"},{"bike_id":"dd82ae11-8d33-4733-a293-2895ba296241","system_id":"levelo_inurba_marseille","lat":43.29275,"lon":5.36842,"is_reserved":false,"is_disabled":false,"rental_uris":{"android":"levelo://app?vid=dd82ae11-8d33-4733-a293-2895ba296241","ios":"levelo://app?vid=dd82ae11-8d33-4733-a293-2895ba296241"},"vehicle_type_id":"4","last_reported":1706821572,"current_range_meters":2400,"station_id":"ce4bhbp2rcd13ifvqesg","pricing_plan_id":"free"},{"bike_id":"46ce8125-9a91-43e2-8ea4-9a1c7b4a6327","system_id":"levelo_inurba_marseille","lat":43.294162,"lon":5.386292,"is_reserved":false,"is_disabled":false,"rental_uris":{"android":"levelo://app?vid=46ce8125-9a91-43e2-8ea4-9a1c7b4a6327","ios":"levelo://app?vid=46ce8125-9a91-43e2-8ea4-9a1c7b4a6327"},"vehicle_type_id":"4","last_reported":1706821572,"current_range_meters":15200,"station_id":"ce4bh2h2rcd13ifvqdh0","pricing_plan_id":"free"},{"bike_id":"43d2aa9e-3050-43b1-9645-839105dd7976","system_id":"levelo_inurba_marseille","lat":43.292749,"lon":5.368402,"is_reserved":false,"is_disabled":false,"rental_uris":{"android":"levelo://app?vid=43d2aa9e-3050-43b1-9645-839105dd7976","ios":"levelo://app?vid=43d2aa9e-3050-43b1-9645-839105dd7976"},"vehicle_type_id":"4","last_reported":1706821572,"current_range_meters":0,"station_id":"ce4bhbp2rcd13ifvqesg","pricing_plan_id":"free"},{"bike_id":"d95fa448-0dd1-47be-b016-0ba368234a52","system_id":"levelo_inurba_marseille","lat":43.29274,"lon":5.36853,"is_reserved":false,"is_disabled":false,"rental_uris":{"android":"levelo://app?vid=d95fa448-0dd1-47be-b016-0ba368234a52","ios":"levelo://app?vid=d95fa448-0dd1-47be-b016-0ba368234a52"},"vehicle_type_id":"4","last_reported":1706821572,"current_range_meters":6000,"station_id":"ce4bhbp2rcd13ifvqesg","pricing_plan_id":"free"},{"bike_id":"a816be58-6068-46fe-b9b2-36ac2eb6284d","system_id":"levelo_inurba_marseille","lat":43.292749,"lon":5.368402,"is_reserved":false,"is_disabled":false,"rental_uris":{"android":"levelo://app?vid=a816be58-6068-46fe-b9b2-36ac2eb6284d","ios":"levelo://app?vid=a816be58-6068-46fe-b9b2-36ac2eb6284d"},"vehicle_type_id":"4","last_reported":1706821572,"current_range_meters":6800,"station_id":"ce4bhbp2rcd13ifvqesg","pricing_plan_id":"free"},{"bike_id":"317012b3-a904-4233-b09e-6a2bff5d1b57","system_id":"levelo_inurba_marseille","lat":43.292749,"lon":5.368402,"is_reserved":false,"is_disabled":false,"rental_uris":{"android":"levelo://app?vid=317012b3-a904-4233-b09e-6a2bff5d1b57","ios":"levelo://app?vid=317012b3-a904-4233-b09e-6a2bff5d1b57"},"vehicle_type_id":"4","last_reported":1706821572,"current_range_meters":4400,"station_id":"ce4bhbp2rcd13ifvqesg","pricing_plan_id":"free"},{"bike_id":"017b0daf-e82a-425d-9b11-add5f496a4e2","system_id":"levelo_inurba_marseille","lat":43.292749,"lon":5.368402,"is_reserved":false,"is_disabled":false,"rental_uris":{"android":"levelo://app?vid=017b0daf-e82a-425d-9b11-add5f496a4e2","ios":"levelo://app?vid=017b0daf-e82a-425d-9b11-add5f496a4e2"},"vehicle_type_id":"4","last_reported":1706821572,"current_range_meters":0,"station_id":"ce4bhbp2rcd13ifvqesg","pricing_plan_id":"free"},{"bike_id":"f169fcfa-d3c4-4a60-8112-0607ef004037","system_id":"levelo_inurba_marseille","lat":43.29272,"lon":5.36837,"is_reserved":false,"is_disabled":false,"rental_uris":{"android":"levelo://app?vid=f169fcfa-d3c4-4a60-8112-0607ef004037","ios":"levelo://app?vid=f169fcfa-d3c4-4a60-8112-0607ef004037"},"vehicle_type_id":"4","last_reported":1706821572,"current_range_meters":0,"station_id":"ce4bhbp2rcd13ifvqesg","pricing_plan_id":"free"},{"bike_id":"042c9333-f09a-4385-b574-5f9abd88a319","system_id":"levelo_inurba_marseille","lat":43.292749,"lon":5.368402,"is_reserved":false,"is_disabled":false,"rental_uris":{"android":"levelo://app?vid=042c9333-f09a-4385-b574-5f9abd88a319","ios":"levelo://app?vid=042c9333-f09a-4385-b574-5f9abd88a319"},"vehicle_type_id":"4","last_reported":1706821572,"current_range_meters":2800,"station_id":"ce4bhbp2rcd13ifvqesg","pricing_plan_id":"free"},{"bike_id":"46751822-489a-4960-8d58-fa22e83b9cae","system_id":"levelo_inurba_marseille","lat":43.292749,"lon":5.368402,"is_reserved":false,"is_disabled":false,"rental_uris":{"android":"levelo://app?vid=46751822-489a-4960-8d58-fa22e83b9cae","ios":"levelo://app?vid=46751822-489a-4960-8d58-fa22e83b9cae"},"vehicle_type_id":"4","last_reported":1706821572,"current_range_meters":0,"station_id":"ce4bhbp2rcd13ifvqesg","pricing_plan_id":"free"},{"bike_id":"c2c6a545-e08e-49a7-acf9-26cbd8f13aab","system_id":"levelo_inurba_marseille","lat":43.2927,"lon":5.36839,"is_reserved":false,"is_disabled":false,"rental_uris":{"android":"levelo://app?vid=c2c6a545-e08e-49a7-acf9-26cbd8f13aab","ios":"levelo://app?vid=c2c6a545-e08e-49a7-acf9-26cbd8f13aab"},"vehicle_type_id":"4","last_reported":1706821572,"current_range_meters":4400,"station_id":"ce4bhbp2rcd13ifvqesg","pricing_plan_id":"free"},{"bike_id":"7e8fd30c-bf6e-441c-b965-4e6a8eb9e50b","system_id":"levelo_inurba_marseille","lat":43.292749,"lon":5.368402,"is_reserved":false,"is_disabled":false,"rental_uris":{"android":"levelo://app?vid=7e8fd30c-bf6e-441c-b965-4e6a8eb9e50b","ios":"levelo://app?vid=7e8fd30c-bf6e-441c-b965-4e6a8eb9e50b"},"vehicle_type_id":"4","last_reported":1706821572,"current_range_meters":27600,"station_id":"ce4bhbp2rcd13ifvqesg","pricing_plan_id":"free"},{"bike_id":"e311eba2-c901-4dcc-aadb-4a829e46de51","system_id":"levelo_inurba_marseille","lat":43.292749,"lon":5.368402,"is_reserved":false,"is_disabled":false,"rental_uris":{"android":"levelo://app?vid=e311eba2-c901-4dcc-aadb-4a829e46de51","ios":"levelo://app?vid=e311eba2-c901-4dcc-aadb-4a829e46de51"},"vehicle_type_id":"4","last_reported":1706821572,"current_range_meters":23200,"station_id":"ce4bhbp2rcd13ifvqesg","pricing_plan_id":"free"},{"bike_id":"8fa160d0-6228-4d23-9ad3-69c81c46ab5d","system_id":"levelo_inurba_marseille","lat":43.292749,"lon":5.368402,"is_reserved":false,"is_disabled":false,"rental_uris":{"android":"levelo://app?vid=8fa160d0-6228-4d23-9ad3-69c81c46ab5d","ios":"levelo://app?vid=8fa160d0-6228-4d23-9ad3-69c81c46ab5d"},"vehicle_type_id":"4","last_reported":1706821572,"current_range_meters":5600,"station_id":"ce4bhbp2rcd13ifvqesg","pricing_plan_id":"free"},{"bike_id":"7be72cc3-3301-4613-83e0-99d037a8723f","system_id":"levelo_inurba_marseille","lat":43.292749,"lon":5.368402,"is_reserved":false,"is_disabled":false,"rental_uris":{"android":"levelo://app?vid=7be72cc3-3301-4613-83e0-99d037a8723f","ios":"levelo://app?vid=7be72cc3-3301-4613-83e0-99d037a8723f"},"vehicle_type_id":"4","last_reported":1706821572,"current_range_meters":5200,"station_id":"ce4bhbp2rcd13ifvqesg","pricing_plan_id":"free"},{"bike_id":"48b7a46c-4b4e-4c3f-8d02-8ae9e3bf3a19","system_id":"levelo_inurba_marseille","lat":43.292749,"lon":5.368402,"is_reserved":false,"is_disabled":false,"rental_uris":{"android":"levelo://app?vid=48b7a46c-4b4e-4c3f-8d02-8ae9e3bf3a19","ios":"levelo://app?vid=48b7a46c-4b4e-4c3f-8d02-8ae9e3bf3a19"},"vehicle_type_id":"4","last_reported":1706821572,"current_range_meters":26800,"station_id":"ce4bhbp2rcd13ifvqesg","pricing_plan_id":"free"},{"bike_id":"3e523946-a610-4b17-9847-aaf10210e7db","system_id":"levelo_inurba_marseille","lat":43.292749,"lon":5.368402,"is_reserved":false,"is_disabled":false,"rental_uris":{"android":"levelo://app?vid=3e523946-a610-4b17-9847-aaf10210e7db","ios":"levelo://app?vid=3e523946-a610-4b17-9847-aaf10210e7db"},"vehicle_type_id":"4","last_reported":1706821572,"current_range_meters":20400,"station_id":"ce4bhbp2rcd13ifvqesg","pricing_plan_id":"free"},{"bike_id":"8cf46eff-a068-4f15-81e3-a2c9c1291c7c","system_id":"levelo_inurba_marseille","lat":43.29267,"lon":5.36842,"is_reserved":false,"is_disabled":false,"rental_uris":{"android":"levelo://app?vid=8cf46eff-a068-4f15-81e3-a2c9c1291c7c","ios":"levelo://app?vid=8cf46eff-a068-4f15-81e3-a2c9c1291c7c"},"vehicle_type_id":"4","last_reported":1706821572,"current_range_meters":9200,"station_id":"ce4bhbp2rcd13ifvqesg","pricing_plan_id":"free"},{"bike_id":"09419ce6-7d68-4ead-8737-b62a95edc1ad","system_id":"levelo_inurba_marseille","lat":43.292749,"lon":5.368402,"is_reserved":false,"is_disabled":false,"rental_uris":{"android":"levelo://app?vid=09419ce6-7d68-4ead-8737-b62a95edc1ad","ios":"levelo://app?vid=09419ce6-7d68-4ead-8737-b62a95edc1ad"},"vehicle_type_id":"4","last_reported":1706821572,"current_range_meters":26800,"station_id":"ce4bhbp2rcd13ifvqesg","pricing_plan_id":"free"},{"bike_id":"edb06cd4-ada0-4113-97f4-0b53784d54be","system_id":"levelo_inurba_marseille","lat":43.29302,"lon":5.3746,"is_reserved":false,"is_disabled":false,"rental_uris":{"android":"levelo://app?vid=edb06cd4-ada0-4113-97f4-0b53784d54be","ios":"levelo://app?vid=edb06cd4-ada0-4113-97f4-0b53784d54be"},"vehicle_type_id":"4","last_reported":1706821572,"current_range_meters":4000,"station_id":"ce4bgi12rcd13ifvqb70","pricing_plan_id":"free"},{"bike_id":"61082777-a711-46cb-9d0e-858779c375b5","system_id":"levelo_inurba_marseille","lat":43.305994,"lon":5.393687,"is_reserved":false,"is_disabled":false,"rental_uris":{"android":"levelo://app?vid=61082777-a711-46cb-9d0e-858779c375b5","ios":"levelo://app?vid=61082777-a711-46cb-9d0e-858779c375b5"},"vehicle_type_id":"4","last_reported":1706821572,"current_range_meters":23200,"station_id":"ce4bh0p2rcd13ifvqd80","pricing_plan_id":"free"},{"bike_id":"8f03b9d5-b939-4f11-b019-dc43860966ae","system_id":"levelo_inurba_marseille","lat":43.30314,"lon":5.3919,"is_reserved":false,"is_disabled":false,"rental_uris":{"android":"levelo://app?vid=8f03b9d5-b939-4f11-b019-dc43860966ae","ios":"levelo://app?vid=8f03b9d5-b939-4f11-b019-dc43860966ae"},"vehicle_type_id":"4","last_reported":1706821572,"current_range_meters":6800,"station_id":"ce4bgkh2rcd13ifvqbk0","pricing_plan_id":"free"},{"bike_id":"8a81e84e-06c5-45d7-9b6d-2d249c1cf9ac","system_id":"levelo_inurba_marseille","lat":43.305994,"lon":5.393687,"is_reserved":false,"is_disabled":false,"rental_uris":{"android":"levelo://app?vid=8a81e84e-06c5-45d7-9b6d-2d249c1cf9ac","ios":"levelo://app?vid=8a81e84e-06c5-45d7-9b6d-2d249c1cf9ac"},"vehicle_type_id":"4","last_reported":1706821572,"current_range_meters":0,"station_id":"ce4bh0p2rcd13ifvqd80","pricing_plan_id":"free"},{"bike_id":"9fc57076-e02e-4ccc-b490-2f3e94a8e7d8","system_id":"levelo_inurba_marseille","lat":43.2936,"lon":5.37835,"is_reserved":false,"is_disabled":false,"rental_uris":{"android":"levelo://app?vid=9fc57076-e02e-4ccc-b490-2f3e94a8e7d8","ios":"levelo://app?vid=9fc57076-e02e-4ccc-b490-2f3e94a8e7d8"},"vehicle_type_id":"4","last_reported":1706821572,"current_range_meters":16000,"station_id":"ce4bgjh2rcd13ifvqbf0","pricing_plan_id":"free"},{"bike_id":"39bed894-1b87-44bd-9805-be19d430707e","system_id":"levelo_inurba_marseille","lat":43.302992,"lon":5.392136,"is_reserved":false,"is_disabled":false,"rental_uris":{"android":"levelo://app?vid=39bed894-1b87-44bd-9805-be19d430707e","ios":"levelo://app?vid=39bed894-1b87-44bd-9805-be19d430707e"},"vehicle_type_id":"4","last_reported":1706821572,"current_range_meters":20400,"station_id":"ce4bgkh2rcd13ifvqbk0","pricing_plan_id":"free"},{"bike_id":"3cb84d99-a630-4d0d-b151-4386949045dd","system_id":"levelo_inurba_marseille","lat":43.298764,"lon":5.388973,"is_reserved":false,"is_disabled":false,"rental_uris":{"android":"levelo://app?vid=3cb84d99-a630-4d0d-b151-4386949045dd","ios":"levelo://app?vid=3cb84d99-a630-4d0d-b151-4386949045dd"},"vehicle_type_id":"4","last_reported":1706821572,"current_range_meters":3600,"station_id":"ce4bh392rcd13ifvqdl0","pricing_plan_id":"free"},{"bike_id":"3e5e158d-eb44-43a4-bfdf-789fa14ef8bd","system_id":"levelo_inurba_marseille","lat":43.291675,"lon":5.371583,"is_reserved":false,"is_disabled":false,"rental_uris":{"android":"levelo://app?vid=3e5e158d-eb44-43a4-bfdf-789fa14ef8bd","ios":"levelo://app?vid=3e5e158d-eb44-43a4-bfdf-789fa14ef8bd"},"vehicle_type_id":"4","last_reported":1706821572,"current_range_meters":17600,"station_id":"ce4bha92rcd13ifvqeh0","pricing_plan_id":"free"},{"bike_id":"67272d4c-5d0c-4edf-a12e-1790b8a03d98","system_id":"levelo_inurba_marseille","lat":43.313475,"lon":5.396655,"is_reserved":false,"is_disabled":false,"rental_uris":{"android":"levelo://app?vid=67272d4c-5d0c-4edf-a12e-1790b8a03d98","ios":"levelo://app?vid=67272d4c-5d0c-4edf-a12e-1790b8a03d98"},"vehicle_type_id":"4","last_reported":1706821572,"current_range_meters":15600,"station_id":"","pricing_plan_id":"free"},{"bike_id":"a78cc2da-28af-4a67-adfa-a375f706f786","system_id":"levelo_inurba_marseille","lat":43.291994,"lon":5.357886,"is_reserved":false,"is_disabled":false,"rental_uris":{"android":"levelo://app?vid=a78cc2da-28af-4a67-adfa-a375f706f786","ios":"levelo://app?vid=a78cc2da-28af-4a67-adfa-a375f706f786"},"vehicle_type_id":"4","last_reported":1706821572,"current_range_meters":0,"station_id":"ce4bhb12rcd13ifvqel0","pricing_plan_id":"free"},{"bike_id":"fd1ccdb4-b72e-4037-9e33-7d5f31ad140c","system_id":"levelo_inurba_marseille","lat":43.31322,"lon":5.39687,"is_reserved":false,"is_disabled":false,"rental_uris":{"android":"levelo://app?vid=fd1ccdb4-b72e-4037-9e33-7d5f31ad140c","ios":"levelo://app?vid=fd1ccdb4-b72e-4037-9e33-7d5f31ad140c"},"vehicle_type_id":"4","last_reported":1706821572,"current_range_meters":14800,"station_id":"ce4bgvp2rcd13ifvqcu0","pricing_plan_id":"free"},{"bike_id":"87727315-b2e8-4741-8513-c6fa9f41bf10","system_id":"levelo_inurba_marseille","lat":43.31328,"lon":5.39688,"is_reserved":false,"is_disabled":false,"rental_uris":{"android":"levelo://app?vid=87727315-b2e8-4741-8513-c6fa9f41bf10","ios":"levelo://app?vid=87727315-b2e8-4741-8513-c6fa9f41bf10"},"vehicle_type_id":"4","last_reported":1706821572,"current_range_meters":6800,"station_id":"ce4bgvp2rcd13ifvqcu0","pricing_plan_id":"free"},{"bike_id":"f448e916-3647-423b-a728-5f525867e401","system_id":"levelo_inurba_marseille","lat":43.31335,"lon":5.39688,"is_reserved":false,"is_disabled":false,"rental_uris":{"android":"levelo://app?vid=f448e916-3647-423b-a728-5f525867e401","ios":"levelo://app?vid=f448e916-3647-423b-a728-5f525867e401"},"vehicle_type_id":"4","last_reported":1706821572,"current_range_meters":5600,"station_id":"ce4bgvp2rcd13ifvqcu0","pricing_plan_id":"free"},{"bike_id":"7f911037-81fc-42db-a46e-20ae80ece393","system_id":"levelo_inurba_marseille","lat":43.3133,"lon":5.39689,"is_reserved":false,"is_disabled":false,"rental_uris":{"android":"levelo://app?vid=7f911037-81fc-42db-a46e-20ae80ece393","ios":"levelo://app?vid=7f911037-81fc-42db-a46e-20ae80ece393"},"vehicle_type_id":"4","last_reported":1706821572,"current_range_meters":5200,"station_id":"ce4bgvp2rcd13ifvqcu0","pricing_plan_id":"free"},{"bike_id":"b67d32b6-d53a-4bc3-ac8e-4086407151f4","system_id":"levelo_inurba_marseille","lat":43.313328,"lon":5.396903,"is_reserved":false,"is_disabled":false,"rental_uris":{"android":"levelo://app?vid=b67d32b6-d53a-4bc3-ac8e-4086407151f4","ios":"levelo://app?vid=b67d32b6-d53a-4bc3-ac8e-4086407151f4"},"vehicle_type_id":"4","last_reported":1706821572,"current_range_meters":3200,"station_id":"ce4bgvp2rcd13ifvqcu0","pricing_plan_id":"free"},{"bike_id":"9bca7773-0269-4da2-84e2-2245ac834de6","system_id":"levelo_inurba_marseille","lat":43.31325,"lon":5.39691,"is_reserved":false,"is_disabled":false,"rental_uris":{"android":"levelo://app?vid=9bca7773-0269-4da2-84e2-2245ac834de6","ios":"levelo://app?vid=9bca7773-0269-4da2-84e2-2245ac834de6"},"vehicle_type_id":"4","last_reported":1706821572,"current_range_meters":3200,"station_id":"ce4bgvp2rcd13ifvqcu0","pricing_plan_id":"free"},{"bike_id":"34f9b118-51c9-4565-a5fd-502a141f777e","system_id":"levelo_inurba_marseille","lat":43.313291,"lon":5.396838,"is_reserved":false,"is_disabled":false,"rental_uris":{"android":"levelo://app?vid=34f9b118-51c9-4565-a5fd-502a141f777e","ios":"levelo://app?vid=34f9b118-51c9-4565-a5fd-502a141f777e"},"vehicle_type_id":"4","last_reported":1706821572,"current_range_meters":0,"station_id":"ce4bgvp2rcd13ifvqcu0","pricing_plan_id":"free"},{"bike_id":"eb402e66-ea55-41c3-88f1-8afbe8afb56e","system_id":"levelo_inurba_marseille","lat":43.31325,"lon":5.39692,"is_reserved":false,"is_disabled":false,"rental_uris":{"android":"levelo://app?vid=eb402e66-ea55-41c3-88f1-8afbe8afb56e","ios":"levelo://app?vid=eb402e66-ea55-41c3-88f1-8afbe8afb56e"},"vehicle_type_id":"4","last_reported":1706821572,"current_range_meters":2400,"station_id":"ce4bgvp2rcd13ifvqcu0","pricing_plan_id":"free"},{"bike_id":"4e4365e4-a262-4917-9c3a-1ce9d4fd8b13","system_id":"levelo_inurba_marseille","lat":43.31346,"lon":5.39697,"is_reserved":false,"is_disabled":false,"rental_uris":{"android":"levelo://app?vid=4e4365e4-a262-4917-9c3a-1ce9d4fd8b13","ios":"levelo://app?vid=4e4365e4-a262-4917-9c3a-1ce9d4fd8b13"},"vehicle_type_id":"4","last_reported":1706821572,"current_range_meters":4800,"station_id":"ce4bgvp2rcd13ifvqcu0","pricing_plan_id":"free"},{"bike_id":"81e4f0b4-8c20-4b1d-a3e2-4d6b9731d31e","system_id":"levelo_inurba_marseille","lat":43.309047,"lon":5.396551,"is_reserved":false,"is_disabled":false,"rental_uris":{"android":"levelo://app?vid=81e4f0b4-8c20-4b1d-a3e2-4d6b9731d31e","ios":"levelo://app?vid=81e4f0b4-8c20-4b1d-a3e2-4d6b9731d31e"},"vehicle_type_id":"4","last_reported":1706821572,"current_range_meters":11600,"station_id":"ce4bh012rcd13ifvqcv0","pricing_plan_id":"free"},{"bike_id":"6c89bae1-942b-48ad-b5ba-aace7c5ee035","system_id":"levelo_inurba_marseille","lat":43.309047,"lon":5.396551,"is_reserved":false,"is_disabled":false,"rental_uris":{"android":"levelo://app?vid=6c89bae1-942b-48ad-b5ba-aace7c5ee035","ios":"levelo://app?vid=6c89bae1-942b-48ad-b5ba-aace7c5ee035"},"vehicle_type_id":"4","last_reported":1706821572,"current_range_meters":6000,"station_id":"ce4bh012rcd13ifvqcv0","pricing_plan_id":"free"},{"bike_id":"87989443-7fa3-4b52-a83a-15f62c484860","system_id":"levelo_inurba_marseille","lat":43.313291,"lon":5.396838,"is_reserved":false,"is_disabled":false,"rental_uris":{"android":"levelo://app?vid=87989443-7fa3-4b52-a83a-15f62c484860","ios":"levelo://app?vid=87989443-7fa3-4b52-a83a-15f62c484860"},"vehicle_type_id":"4","last_reported":1706821572,"current_range_meters":30800,"station_id":"ce4bgvp2rcd13ifvqcu0","pricing_plan_id":"free"},{"bike_id":"87f346ed-bfc3-40a8-995b-0c1363fb1aaa","system_id":"levelo_inurba_marseille","lat":43.29539,"lon":5.38544,"is_reserved":false,"is_disabled":false,"rental_uris":{"android":"levelo://app?vid=87f346ed-bfc3-40a8-995b-0c1363fb1aaa","ios":"levelo://app?vid=87f346ed-bfc3-40a8-995b-0c1363fb1aaa"},"vehicle_type_id":"4","last_reported":1706821572,"current_range_meters":0,"station_id":"ce4bgih2rcd13ifvqba0","pricing_plan_id":"free"},{"bike_id":"2aa0c0ab-545b-44c1-8bbb-5d6ff0c109ca","system_id":"levelo_inurba_marseille","lat":43.293354,"lon":5.381903,"is_reserved":false,"is_disabled":false,"rental_uris":{"android":"levelo://app?vid=2aa0c0ab-545b-44c1-8bbb-5d6ff0c109ca","ios":"levelo://app?vid=2aa0c0ab-545b-44c1-8bbb-5d6ff0c109ca"},"vehicle_type_id":"4","last_reported":1706821572,"current_range_meters":17600,"station_id":"","pricing_plan_id":"free"},{"bike_id":"74b381b2-4847-47b5-a503-bf2ec563a87d","system_id":"levelo_inurba_marseille","lat":43.290624,"lon":5.359245,"is_reserved":false,"is_disabled":false,"rental_uris":{"android":"levelo://app?vid=74b381b2-4847-47b5-a503-bf2ec563a87d","ios":"levelo://app?vid=74b381b2-4847-47b5-a503-bf2ec563a87d"},"vehicle_type_id":"4","last_reported":1706821572,"current_range_meters":16000,"station_id":"ce4bha92rcd13ifvqeg0","pricing_plan_id":"free"},{"bike_id":"dcdd243c-420f-445b-8d98-d93341d4523b","system_id":"levelo_inurba_marseille","lat":43.290779,"lon":5.371482,"is_reserved":false,"is_disabled":false,"rental_uris":{"android":"levelo://app?vid=dcdd243c-420f-445b-8d98-d93341d4523b","ios":"levelo://app?vid=dcdd243c-420f-445b-8d98-d93341d4523b"},"vehicle_type_id":"4","last_reported":1706821572,"current_range_meters":24000,"station_id":"ce4bh5p2rcd13ifvqe4g","pricing_plan_id":"free"},{"bike_id":"b4b16144-62c4-466d-a1bc-60ceadfcc9a6","system_id":"levelo_inurba_marseille","lat":43.328927,"lon":5.388732,"is_reserved":false,"is_disabled":false,"rental_uris":{"android":"levelo://app?vid=b4b16144-62c4-466d-a1bc-60ceadfcc9a6","ios":"levelo://app?vid=b4b16144-62c4-466d-a1bc-60ceadfcc9a6"},"vehicle_type_id":"4","last_reported":1706821572,"current_range_meters":18800,"station_id":"","pricing_plan_id":"free"},{"bike_id":"51979d1f-ec71-4eaf-939a-a4c322f0a4d2","system_id":"levelo_inurba_marseille","lat":43.30215,"lon":5.39467,"is_reserved":false,"is_disabled":false,"rental_uris":{"android":"levelo://app?vid=51979d1f-ec71-4eaf-939a-a4c322f0a4d2","ios":"levelo://app?vid=51979d1f-ec71-4eaf-939a-a4c322f0a4d2"},"vehicle_type_id":"4","last_reported":1706821572,"current_range_meters":0,"station_id":"ce4bh0p2rcd13ifvqd70","pricing_plan_id":"free"},{"bike_id":"a57fa556-09a8-4b4c-84f7-5102de93df33","system_id":"levelo_inurba_marseille","lat":43.302008,"lon":5.394694,"is_reserved":false,"is_disabled":false,"rental_uris":{"android":"levelo://app?vid=a57fa556-09a8-4b4c-84f7-5102de93df33","ios":"levelo://app?vid=a57fa556-09a8-4b4c-84f7-5102de93df33"},"vehicle_type_id":"4","last_reported":1706821572,"current_range_meters":10800,"station_id":"ce4bh0p2rcd13ifvqd70","pricing_plan_id":"free"},{"bike_id":"75b6e8e6-efda-4bc9-95f5-ee09429214f5","system_id":"levelo_inurba_marseille","lat":43.304296,"lon":5.397513,"is_reserved":false,"is_disabled":false,"rental_uris":{"android":"levelo://app?vid=75b6e8e6-efda-4bc9-95f5-ee09429214f5","ios":"levelo://app?vid=75b6e8e6-efda-4bc9-95f5-ee09429214f5"},"vehicle_type_id":"4","last_reported":1706821572,"current_range_meters":28400,"station_id":"ce4bh092rcd13ifvqd20","pricing_plan_id":"free"},{"bike_id":"5cccaa3a-8b18-4508-a20f-13b822480392","system_id":"levelo_inurba_marseille","lat":43.290624,"lon":5.359245,"is_reserved":false,"is_disabled":false,"rental_uris":{"android":"levelo://app?vid=5cccaa3a-8b18-4508-a20f-13b822480392","ios":"levelo://app?vid=5cccaa3a-8b18-4508-a20f-13b822480392"},"vehicle_type_id":"4","last_reported":1706821572,"current_range_meters":23200,"station_id":"ce4bha92rcd13ifvqeg0","pricing_plan_id":"free"},{"bike_id":"2c1e47ad-3478-424c-8c66-23a600b1f0dc","system_id":"levelo_inurba_marseille","lat":43.290441,"lon":5.359123,"is_reserved":false,"is_disabled":false,"rental_uris":{"android":"levelo://app?vid=2c1e47ad-3478-424c-8c66-23a600b1f0dc","ios":"levelo://app?vid=2c1e47ad-3478-424c-8c66-23a600b1f0dc"},"vehicle_type_id":"4","last_reported":1706821572,"current_range_meters":8800,"station_id":"","pricing_plan_id":"free"},{"bike_id":"6c7be141-7772-461f-b145-baabdf0c1f24","system_id":"levelo_inurba_marseille","lat":43.290631,"lon":5.359244,"is_reserved":false,"is_disabled":false,"rental_uris":{"android":"levelo://app?vid=6c7be141-7772-461f-b145-baabdf0c1f24","ios":"levelo://app?vid=6c7be141-7772-461f-b145-baabdf0c1f24"},"vehicle_type_id":"4","last_reported":1706821572,"current_range_meters":12000,"station_id":"ce4bha92rcd13ifvqeg0","pricing_plan_id":"free"},{"bike_id":"c09e57a0-d271-4298-8fc1-fb9242e8ec03","system_id":"levelo_inurba_marseille","lat":43.2942,"lon":5.38619,"is_reserved":false,"is_disabled":false,"rental_uris":{"android":"levelo://app?vid=c09e57a0-d271-4298-8fc1-fb9242e8ec03","ios":"levelo://app?vid=c09e57a0-d271-4298-8fc1-fb9242e8ec03"},"vehicle_type_id":"4","last_reported":1706821572,"current_range_meters":0,"station_id":"ce4bh2h2rcd13ifvqdh0","pricing_plan_id":"free"},{"bike_id":"5a4ba190-8464-4a63-a74e-0759b26fa9e6","system_id":"levelo_inurba_marseille","lat":43.294153,"lon":5.386305,"is_reserved":false,"is_disabled":false,"rental_uris":{"android":"levelo://app?vid=5a4ba190-8464-4a63-a74e-0759b26fa9e6","ios":"levelo://app?vid=5a4ba190-8464-4a63-a74e-0759b26fa9e6"},"vehicle_type_id":"4","last_reported":1706821572,"current_range_meters":0,"station_id":"ce4bh2h2rcd13ifvqdh0","pricing_plan_id":"free"},{"bike_id":"a6b65f71-df3c-4a1b-b8ee-85ec53986204","system_id":"levelo_inurba_marseille","lat":43.29418,"lon":5.38622,"is_reserved":false,"is_disabled":false,"rental_uris":{"android":"levelo://app?vid=a6b65f71-df3c-4a1b-b8ee-85ec53986204","ios":"levelo://app?vid=a6b65f71-df3c-4a1b-b8ee-85ec53986204"},"vehicle_type_id":"4","last_reported":1706821572,"current_range_meters":16400,"station_id":"ce4bh2h2rcd13ifvqdh0","pricing_plan_id":"free"},{"bike_id":"1bb63ae1-8cfe-426c-a99c-2f735fc06b02","system_id":"levelo_inurba_marseille","lat":43.294153,"lon":5.386305,"is_reserved":false,"is_disabled":false,"rental_uris":{"android":"levelo://app?vid=1bb63ae1-8cfe-426c-a99c-2f735fc06b02","ios":"levelo://app?vid=1bb63ae1-8cfe-426c-a99c-2f735fc06b02"},"vehicle_type_id":"4","last_reported":1706821572,"current_range_meters":12800,"station_id":"ce4bh2h2rcd13ifvqdh0","pricing_plan_id":"free"},{"bike_id":"665f8cc3-4594-49c2-a6cf-a457e801690f","system_id":"levelo_inurba_marseille","lat":43.294153,"lon":5.386305,"is_reserved":false,"is_disabled":false,"rental_uris":{"android":"levelo://app?vid=665f8cc3-4594-49c2-a6cf-a457e801690f","ios":"levelo://app?vid=665f8cc3-4594-49c2-a6cf-a457e801690f"},"vehicle_type_id":"4","last_reported":1706821572,"current_range_meters":8000,"station_id":"ce4bh2h2rcd13ifvqdh0","pricing_plan_id":"free"},{"bike_id":"3e9b057e-c1ed-4527-b50e-9d11efeadf45","system_id":"levelo_inurba_marseille","lat":43.29414,"lon":5.38621,"is_reserved":false,"is_disabled":false,"rental_uris":{"android":"levelo://app?vid=3e9b057e-c1ed-4527-b50e-9d11efeadf45","ios":"levelo://app?vid=3e9b057e-c1ed-4527-b50e-9d11efeadf45"},"vehicle_type_id":"4","last_reported":1706821572,"current_range_meters":4400,"station_id":"ce4bh2h2rcd13ifvqdh0","pricing_plan_id":"free"},{"bike_id":"3eb9012e-926c-4e05-a1d9-e3184ece6dad","system_id":"levelo_inurba_marseille","lat":43.290319,"lon":5.375732,"is_reserved":false,"is_disabled":false,"rental_uris":{"android":"levelo://app?vid=3eb9012e-926c-4e05-a1d9-e3184ece6dad","ios":"levelo://app?vid=3eb9012e-926c-4e05-a1d9-e3184ece6dad"},"vehicle_type_id":"4","last_reported":1706821572,"current_range_meters":27600,"station_id":"ce4bh692rcd13ifvqe90","pricing_plan_id":"free"},{"bike_id":"0419ff6b-c04f-4510-a810-1e12770cc4b8","system_id":"levelo_inurba_marseille","lat":43.294153,"lon":5.386305,"is_reserved":false,"is_disabled":false,"rental_uris":{"android":"levelo://app?vid=0419ff6b-c04f-4510-a810-1e12770cc4b8","ios":"levelo://app?vid=0419ff6b-c04f-4510-a810-1e12770cc4b8"},"vehicle_type_id":"4","last_reported":1706821572,"current_range_meters":4400,"station_id":"ce4bh2h2rcd13ifvqdh0","pricing_plan_id":"free"},{"bike_id":"105feb2c-171f-41d6-a0d9-8fdc10e3c257","system_id":"levelo_inurba_marseille","lat":43.289184,"lon":5.366408,"is_reserved":false,"is_disabled":false,"rental_uris":{"android":"levelo://app?vid=105feb2c-171f-41d6-a0d9-8fdc10e3c257","ios":"levelo://app?vid=105feb2c-171f-41d6-a0d9-8fdc10e3c257"},"vehicle_type_id":"4","last_reported":1706821572,"current_range_meters":0,"station_id":"ce4bhap2rcd13ifvqek0","pricing_plan_id":"free"},{"bike_id":"4d3c0461-1203-48c2-b105-6d2ef172eaf8","system_id":"levelo_inurba_marseille","lat":43.29412,"lon":5.38623,"is_reserved":false,"is_disabled":false,"rental_uris":{"android":"levelo://app?vid=4d3c0461-1203-48c2-b105-6d2ef172eaf8","ios":"levelo://app?vid=4d3c0461-1203-48c2-b105-6d2ef172eaf8"},"vehicle_type_id":"4","last_reported":1706821572,"current_range_meters":1200,"station_id":"ce4bh2h2rcd13ifvqdh0","pricing_plan_id":"free"},{"bike_id":"67fe4afa-5a13-478d-9ca2-c203ca2214b0","system_id":"levelo_inurba_marseille","lat":43.289184,"lon":5.366408,"is_reserved":false,"is_disabled":false,"rental_uris":{"android":"levelo://app?vid=67fe4afa-5a13-478d-9ca2-c203ca2214b0","ios":"levelo://app?vid=67fe4afa-5a13-478d-9ca2-c203ca2214b0"},"vehicle_type_id":"4","last_reported":1706821572,"current_range_meters":0,"station_id":"ce4bhap2rcd13ifvqek0","pricing_plan_id":"free"},{"bike_id":"d0b61783-3ed3-4e27-905c-351ee1c04d7d","system_id":"levelo_inurba_marseille","lat":43.289184,"lon":5.366408,"is_reserved":false,"is_disabled":false,"rental_uris":{"android":"levelo://app?vid=d0b61783-3ed3-4e27-905c-351ee1c04d7d","ios":"levelo://app?vid=d0b61783-3ed3-4e27-905c-351ee1c04d7d"},"vehicle_type_id":"4","last_reported":1706821572,"current_range_meters":31600,"station_id":"ce4bhap2rcd13ifvqek0","pricing_plan_id":"free"},{"bike_id":"39a5b2fc-1160-473c-a9ce-f66035edb8b9","system_id":"levelo_inurba_marseille","lat":43.289184,"lon":5.366408,"is_reserved":false,"is_disabled":false,"rental_uris":{"android":"levelo://app?vid=39a5b2fc-1160-473c-a9ce-f66035edb8b9","ios":"levelo://app?vid=39a5b2fc-1160-473c-a9ce-f66035edb8b9"},"vehicle_type_id":"4","last_reported":1706821572,"current_range_meters":27600,"station_id":"ce4bhap2rcd13ifvqek0","pricing_plan_id":"free"},{"bike_id":"c912b22d-7828-451a-8678-c7b2a981d7bc","system_id":"levelo_inurba_marseille","lat":43.289184,"lon":5.366408,"is_reserved":false,"is_disabled":false,"rental_uris":{"android":"levelo://app?vid=c912b22d-7828-451a-8678-c7b2a981d7bc","ios":"levelo://app?vid=c912b22d-7828-451a-8678-c7b2a981d7bc"},"vehicle_type_id":"4","last_reported":1706821572,"current_range_meters":23200,"station_id":"ce4bhap2rcd13ifvqek0","pricing_plan_id":"free"},{"bike_id":"6e655cfd-fb09-4d8d-a46e-fc6e8cf967e9","system_id":"levelo_inurba_marseille","lat":43.289468,"lon":5.363719,"is_reserved":false,"is_disabled":false,"rental_uris":{"android":"levelo://app?vid=6e655cfd-fb09-4d8d-a46e-fc6e8cf967e9","ios":"levelo://app?vid=6e655cfd-fb09-4d8d-a46e-fc6e8cf967e9"},"vehicle_type_id":"4","last_reported":1706821572,"current_range_meters":26400,"station_id":"ce4bhc92rcd13ifvqetg","pricing_plan_id":"free"},{"bike_id":"b0c58f94-81dd-4919-aef7-11df3eedefa1","system_id":"levelo_inurba_marseille","lat":43.289439,"lon":5.363971,"is_reserved":false,"is_disabled":false,"rental_uris":{"android":"levelo://app?vid=b0c58f94-81dd-4919-aef7-11df3eedefa1","ios":"levelo://app?vid=b0c58f94-81dd-4919-aef7-11df3eedefa1"},"vehicle_type_id":"4","last_reported":1706821572,"current_range_meters":0,"station_id":"ce4bhc92rcd13ifvqetg","pricing_plan_id":"free"},{"bike_id":"2bfde91a-d68f-4ae7-99ce-7e2414dfbf22","system_id":"levelo_inurba_marseille","lat":43.289184,"lon":5.366408,"is_reserved":false,"is_disabled":false,"rental_uris":{"android":"levelo://app?vid=2bfde91a-d68f-4ae7-99ce-7e2414dfbf22","ios":"levelo://app?vid=2bfde91a-d68f-4ae7-99ce-7e2414dfbf22"},"vehicle_type_id":"4","last_reported":1706821572,"current_range_meters":12400,"station_id":"ce4bhap2rcd13ifvqek0","pricing_plan_id":"free"},{"bike_id":"2f12ef4e-92f0-45c3-8d3f-38161ca29894","system_id":"levelo_inurba_marseille","lat":43.28943,"lon":5.364019,"is_reserved":false,"is_disabled":false,"rental_uris":{"android":"levelo://app?vid=2f12ef4e-92f0-45c3-8d3f-38161ca29894","ios":"levelo://app?vid=2f12ef4e-92f0-45c3-8d3f-38161ca29894"},"vehicle_type_id":"4","last_reported":1706821572,"current_range_meters":8800,"station_id":"ce4bhc92rcd13ifvqetg","pricing_plan_id":"free"},{"bike_id":"b8d21f03-11ac-4602-9ebf-b56c137c8ce5","system_id":"levelo_inurba_marseille","lat":43.289468,"lon":5.363719,"is_reserved":false,"is_disabled":false,"rental_uris":{"android":"levelo://app?vid=b8d21f03-11ac-4602-9ebf-b56c137c8ce5","ios":"levelo://app?vid=b8d21f03-11ac-4602-9ebf-b56c137c8ce5"},"vehicle_type_id":"4","last_reported":1706821572,"current_range_meters":12000,"station_id":"ce4bhc92rcd13ifvqetg","pricing_plan_id":"free"},{"bike_id":"98ca7dde-8564-44f3-8f87-da8e1b5aa8b9","system_id":"levelo_inurba_marseille","lat":43.294,"lon":5.38629,"is_reserved":false,"is_disabled":false,"rental_uris":{"android":"levelo://app?vid=98ca7dde-8564-44f3-8f87-da8e1b5aa8b9","ios":"levelo://app?vid=98ca7dde-8564-44f3-8f87-da8e1b5aa8b9"},"vehicle_type_id":"4","last_reported":1706821572,"current_range_meters":3600,"station_id":"ce4bh2h2rcd13ifvqdh0","pricing_plan_id":"free"},{"bike_id":"a445dc65-2fc4-4348-a411-08c20b5680b7","system_id":"levelo_inurba_marseille","lat":43.289468,"lon":5.363719,"is_reserved":false,"is_disabled":false,"rental_uris":{"android":"levelo://app?vid=a445dc65-2fc4-4348-a411-08c20b5680b7","ios":"levelo://app?vid=a445dc65-2fc4-4348-a411-08c20b5680b7"},"vehicle_type_id":"4","last_reported":1706821572,"current_range_meters":0,"station_id":"ce4bhc92rcd13ifvqetg","pricing_plan_id":"free"},{"bike_id":"53494036-26a1-474d-a7c9-6ea425d3786b","system_id":"levelo_inurba_marseille","lat":43.29268,"lon":5.38441,"is_reserved":false,"is_disabled":false,"rental_uris":{"android":"levelo://app?vid=53494036-26a1-474d-a7c9-6ea425d3786b","ios":"levelo://app?vid=53494036-26a1-474d-a7c9-6ea425d3786b"},"vehicle_type_id":"4","last_reported":1706821572,"current_range_meters":0,"station_id":"ce4bh692rcd13ifvqea0","pricing_plan_id":"free"},{"bike_id":"0ff2386b-1e50-4d77-b2f2-7f45076c3b2c","system_id":"levelo_inurba_marseille","lat":43.292642,"lon":5.384254,"is_reserved":false,"is_disabled":false,"rental_uris":{"android":"levelo://app?vid=0ff2386b-1e50-4d77-b2f2-7f45076c3b2c","ios":"levelo://app?vid=0ff2386b-1e50-4d77-b2f2-7f45076c3b2c"},"vehicle_type_id":"4","last_reported":1706821572,"current_range_meters":4400,"station_id":"ce4bh692rcd13ifvqea0","pricing_plan_id":"free"},{"bike_id":"93ade44b-2a51-4c8a-b182-b427ac53a566","system_id":"levelo_inurba_marseille","lat":43.29261,"lon":5.38444,"is_reserved":false,"is_disabled":false,"rental_uris":{"android":"levelo://app?vid=93ade44b-2a51-4c8a-b182-b427ac53a566","ios":"levelo://app?vid=93ade44b-2a51-4c8a-b182-b427ac53a566"},"vehicle_type_id":"4","last_reported":1706821572,"current_range_meters":0,"station_id":"ce4bh692rcd13ifvqea0","pricing_plan_id":"free"},{"bike_id":"a1693382-cd5d-40b4-8ab4-3b349e6158d8","system_id":"levelo_inurba_marseille","lat":43.290104,"lon":5.356111,"is_reserved":false,"is_disabled":false,"rental_uris":{"android":"levelo://app?vid=a1693382-cd5d-40b4-8ab4-3b349e6158d8","ios":"levelo://app?vid=a1693382-cd5d-40b4-8ab4-3b349e6158d8"},"vehicle_type_id":"4","last_reported":1706821572,"current_range_meters":15600,"station_id":"ce4bhb92rcd13ifvqen0","pricing_plan_id":"free"},{"bike_id":"b336cafc-f3f4-4d05-9435-f081523f9abe","system_id":"levelo_inurba_marseille","lat":43.290104,"lon":5.356111,"is_reserved":false,"is_disabled":false,"rental_uris":{"android":"levelo://app?vid=b336cafc-f3f4-4d05-9435-f081523f9abe","ios":"levelo://app?vid=b336cafc-f3f4-4d05-9435-f081523f9abe"},"vehicle_type_id":"4","last_reported":1706821572,"current_range_meters":21200,"station_id":"ce4bhb92rcd13ifvqen0","pricing_plan_id":"free"},{"bike_id":"e56c4a07-f07f-4800-bc40-a431f349fa17","system_id":"levelo_inurba_marseille","lat":43.306412,"lon":5.401035,"is_reserved":false,"is_disabled":false,"rental_uris":{"android":"levelo://app?vid=e56c4a07-f07f-4800-bc40-a431f349fa17","ios":"levelo://app?vid=e56c4a07-f07f-4800-bc40-a431f349fa17"},"vehicle_type_id":"4","last_reported":1706821572,"current_range_meters":1200,"station_id":"ce4bh112rcd13ifvqda0","pricing_plan_id":"free"},{"bike_id":"de0b2a19-a75b-4f1a-a843-bb85cf004731","system_id":"levelo_inurba_marseille","lat":43.29794,"lon":5.3934,"is_reserved":false,"is_disabled":false,"rental_uris":{"android":"levelo://app?vid=de0b2a19-a75b-4f1a-a843-bb85cf004731","ios":"levelo://app?vid=de0b2a19-a75b-4f1a-a843-bb85cf004731"},"vehicle_type_id":"4","last_reported":1706821572,"current_range_meters":19600,"station_id":"chh1huq6cuj3fo74tm60","pricing_plan_id":"free"},{"bike_id":"da08a89b-ae2e-4543-b0ac-1662cb6e63e6","system_id":"levelo_inurba_marseille","lat":43.29789,"lon":5.39337,"is_reserved":false,"is_disabled":false,"rental_uris":{"android":"levelo://app?vid=da08a89b-ae2e-4543-b0ac-1662cb6e63e6","ios":"levelo://app?vid=da08a89b-ae2e-4543-b0ac-1662cb6e63e6"},"vehicle_type_id":"4","last_reported":1706821572,"current_range_meters":400,"station_id":"chh1huq6cuj3fo74tm60","pricing_plan_id":"free"},{"bike_id":"21eb654b-38e3-484f-87eb-0f576a6f30d1","system_id":"levelo_inurba_marseille","lat":43.297815,"lon":5.393548,"is_reserved":false,"is_disabled":false,"rental_uris":{"android":"levelo://app?vid=21eb654b-38e3-484f-87eb-0f576a6f30d1","ios":"levelo://app?vid=21eb654b-38e3-484f-87eb-0f576a6f30d1"},"vehicle_type_id":"4","last_reported":1706821572,"current_range_meters":24000,"station_id":"chh1huq6cuj3fo74tm60","pricing_plan_id":"free"},{"bike_id":"61a7ba17-2521-4c09-aef0-81f07e57ec7b","system_id":"levelo_inurba_marseille","lat":43.29529,"lon":5.39032,"is_reserved":false,"is_disabled":false,"rental_uris":{"android":"levelo://app?vid=61a7ba17-2521-4c09-aef0-81f07e57ec7b","ios":"levelo://app?vid=61a7ba17-2521-4c09-aef0-81f07e57ec7b"},"vehicle_type_id":"4","last_reported":1706821572,"current_range_meters":26400,"station_id":"ce4bh3p2rcd13ifvqdp0","pricing_plan_id":"free"},{"bike_id":"5ef6c031-a2da-411e-ac46-bc5c9a72bb40","system_id":"levelo_inurba_marseille","lat":43.29529,"lon":5.390354,"is_reserved":false,"is_disabled":false,"rental_uris":{"android":"levelo://app?vid=5ef6c031-a2da-411e-ac46-bc5c9a72bb40","ios":"levelo://app?vid=5ef6c031-a2da-411e-ac46-bc5c9a72bb40"},"vehicle_type_id":"4","last_reported":1706821572,"current_range_meters":0,"station_id":"ce4bh3p2rcd13ifvqdp0","pricing_plan_id":"free"},{"bike_id":"129114f2-a34b-4a60-a3a4-89d0867f63f9","system_id":"levelo_inurba_marseille","lat":43.330442,"lon":5.389148,"is_reserved":false,"is_disabled":false,"rental_uris":{"android":"levelo://app?vid=129114f2-a34b-4a60-a3a4-89d0867f63f9","ios":"levelo://app?vid=129114f2-a34b-4a60-a3a4-89d0867f63f9"},"vehicle_type_id":"4","last_reported":1706821572,"current_range_meters":14400,"station_id":"ce4bhr92rcd13ifvqhrg","pricing_plan_id":"free"},{"bike_id":"4f3e8428-a987-4219-8d81-7eaf62aa4307","system_id":"levelo_inurba_marseille","lat":43.289743,"lon":5.378304,"is_reserved":false,"is_disabled":false,"rental_uris":{"android":"levelo://app?vid=4f3e8428-a987-4219-8d81-7eaf62aa4307","ios":"levelo://app?vid=4f3e8428-a987-4219-8d81-7eaf62aa4307"},"vehicle_type_id":"4","last_reported":1706821572,"current_range_meters":0,"station_id":"ce4bh9p2rcd13ifvqed0","pricing_plan_id":"free"},{"bike_id":"a491302e-3c65-41f7-a413-5a567107ab32","system_id":"levelo_inurba_marseille","lat":43.295298,"lon":5.390433,"is_reserved":false,"is_disabled":false,"rental_uris":{"android":"levelo://app?vid=a491302e-3c65-41f7-a413-5a567107ab32","ios":"levelo://app?vid=a491302e-3c65-41f7-a413-5a567107ab32"},"vehicle_type_id":"4","last_reported":1706821572,"current_range_meters":0,"station_id":"ce4bh3p2rcd13ifvqdp0","pricing_plan_id":"free"},{"bike_id":"1b26e9c4-7fc6-49aa-9499-cf686af3f3aa","system_id":"levelo_inurba_marseille","lat":43.330442,"lon":5.389148,"is_reserved":false,"is_disabled":false,"rental_uris":{"android":"levelo://app?vid=1b26e9c4-7fc6-49aa-9499-cf686af3f3aa","ios":"levelo://app?vid=1b26e9c4-7fc6-49aa-9499-cf686af3f3aa"},"vehicle_type_id":"4","last_reported":1706821572,"current_range_meters":13200,"station_id":"ce4bhr92rcd13ifvqhrg","pricing_plan_id":"free"},{"bike_id":"02bbcf94-f878-4daa-83e1-66167daadfe4","system_id":"levelo_inurba_marseille","lat":43.28856,"lon":5.358371,"is_reserved":false,"is_disabled":false,"rental_uris":{"android":"levelo://app?vid=02bbcf94-f878-4daa-83e1-66167daadfe4","ios":"levelo://app?vid=02bbcf94-f878-4daa-83e1-66167daadfe4"},"vehicle_type_id":"4","last_reported":1706821572,"current_range_meters":24800,"station_id":"ce4bhb12rcd13ifvqem0","pricing_plan_id":"free"},{"bike_id":"de734ec6-a23d-4969-8a7b-84a4306e2792","system_id":"levelo_inurba_marseille","lat":43.28861,"lon":5.35873,"is_reserved":false,"is_disabled":false,"rental_uris":{"android":"levelo://app?vid=de734ec6-a23d-4969-8a7b-84a4306e2792","ios":"levelo://app?vid=de734ec6-a23d-4969-8a7b-84a4306e2792"},"vehicle_type_id":"4","last_reported":1706821572,"current_range_meters":2800,"station_id":"ce4bhb12rcd13ifvqem0","pricing_plan_id":"free"},{"bike_id":"a2e4e29f-beda-4e41-9300-983cd9874ac9","system_id":"levelo_inurba_marseille","lat":43.28858,"lon":5.35871,"is_reserved":false,"is_disabled":false,"rental_uris":{"android":"levelo://app?vid=a2e4e29f-beda-4e41-9300-983cd9874ac9","ios":"levelo://app?vid=a2e4e29f-beda-4e41-9300-983cd9874ac9"},"vehicle_type_id":"4","last_reported":1706821572,"current_range_meters":17600,"station_id":"ce4bhb12rcd13ifvqem0","pricing_plan_id":"free"},{"bike_id":"fc5e1abd-c6a8-49fe-a177-bd96f74a41e2","system_id":"levelo_inurba_marseille","lat":43.28856,"lon":5.358371,"is_reserved":false,"is_disabled":false,"rental_uris":{"android":"levelo://app?vid=fc5e1abd-c6a8-49fe-a177-bd96f74a41e2","ios":"levelo://app?vid=fc5e1abd-c6a8-49fe-a177-bd96f74a41e2"},"vehicle_type_id":"4","last_reported":1706821572,"current_range_meters":22800,"station_id":"ce4bhb12rcd13ifvqem0","pricing_plan_id":"free"},{"bike_id":"74f792d7-04d3-4cc0-bbf9-4fbb7cac9085","system_id":"levelo_inurba_marseille","lat":43.28852,"lon":5.35884,"is_reserved":false,"is_disabled":false,"rental_uris":{"android":"levelo://app?vid=74f792d7-04d3-4cc0-bbf9-4fbb7cac9085","ios":"levelo://app?vid=74f792d7-04d3-4cc0-bbf9-4fbb7cac9085"},"vehicle_type_id":"4","last_reported":1706821572,"current_range_meters":0,"station_id":"ce4bhb12rcd13ifvqem0","pricing_plan_id":"free"},{"bike_id":"9a163306-55f4-452b-abb8-1fc8b6192e5f","system_id":"levelo_inurba_marseille","lat":43.28856,"lon":5.358371,"is_reserved":false,"is_disabled":false,"rental_uris":{"android":"levelo://app?vid=9a163306-55f4-452b-abb8-1fc8b6192e5f","ios":"levelo://app?vid=9a163306-55f4-452b-abb8-1fc8b6192e5f"},"vehicle_type_id":"4","last_reported":1706821572,"current_range_meters":2000,"station_id":"ce4bhb12rcd13ifvqem0","pricing_plan_id":"free"},{"bike_id":"722fda1d-1e67-4f7a-9f23-691f54699f10","system_id":"levelo_inurba_marseille","lat":43.28856,"lon":5.358371,"is_reserved":false,"is_disabled":false,"rental_uris":{"android":"levelo://app?vid=722fda1d-1e67-4f7a-9f23-691f54699f10","ios":"levelo://app?vid=722fda1d-1e67-4f7a-9f23-691f54699f10"},"vehicle_type_id":"4","last_reported":1706821572,"current_range_meters":19200,"station_id":"ce4bhb12rcd13ifvqem0","pricing_plan_id":"free"},{"bike_id":"5e529af9-c9b1-40aa-91f3-25d6c3ef02dc","system_id":"levelo_inurba_marseille","lat":43.28856,"lon":5.358371,"is_reserved":false,"is_disabled":false,"rental_uris":{"android":"levelo://app?vid=5e529af9-c9b1-40aa-91f3-25d6c3ef02dc","ios":"levelo://app?vid=5e529af9-c9b1-40aa-91f3-25d6c3ef02dc"},"vehicle_type_id":"4","last_reported":1706821572,"current_range_meters":0,"station_id":"ce4bhb12rcd13ifvqem0","pricing_plan_id":"free"},{"bike_id":"4dea2505-7482-4166-a6c1-d47027e35e33","system_id":"levelo_inurba_marseille","lat":43.28856,"lon":5.358371,"is_reserved":false,"is_disabled":false,"rental_uris":{"android":"levelo://app?vid=4dea2505-7482-4166-a6c1-d47027e35e33","ios":"levelo://app?vid=4dea2505-7482-4166-a6c1-d47027e35e33"},"vehicle_type_id":"4","last_reported":1706821572,"current_range_meters":7600,"station_id":"ce4bhb12rcd13ifvqem0","pricing_plan_id":"free"},{"bike_id":"7a1b413f-69ad-42d8-b859-a87b3362e77e","system_id":"levelo_inurba_marseille","lat":43.28856,"lon":5.358371,"is_reserved":false,"is_disabled":false,"rental_uris":{"android":"levelo://app?vid=7a1b413f-69ad-42d8-b859-a87b3362e77e","ios":"levelo://app?vid=7a1b413f-69ad-42d8-b859-a87b3362e77e"},"vehicle_type_id":"4","last_reported":1706821572,"current_range_meters":23200,"station_id":"ce4bhb12rcd13ifvqem0","pricing_plan_id":"free"},{"bike_id":"cfe68aef-9e8a-4093-bde9-feb1bf368a18","system_id":"levelo_inurba_marseille","lat":43.312609,"lon":5.401662,"is_reserved":false,"is_disabled":false,"rental_uris":{"android":"levelo://app?vid=cfe68aef-9e8a-4093-bde9-feb1bf368a18","ios":"levelo://app?vid=cfe68aef-9e8a-4093-bde9-feb1bf368a18"},"vehicle_type_id":"4","last_reported":1706821572,"current_range_meters":9200,"station_id":"ce4bh092rcd13ifvqd30","pricing_plan_id":"free"},{"bike_id":"0806c7ab-e343-4f0d-bf12-8a7646a48ddb","system_id":"levelo_inurba_marseille","lat":43.312609,"lon":5.401662,"is_reserved":false,"is_disabled":false,"rental_uris":{"android":"levelo://app?vid=0806c7ab-e343-4f0d-bf12-8a7646a48ddb","ios":"levelo://app?vid=0806c7ab-e343-4f0d-bf12-8a7646a48ddb"},"vehicle_type_id":"4","last_reported":1706821572,"current_range_meters":4800,"station_id":"ce4bh092rcd13ifvqd30","pricing_plan_id":"free"},{"bike_id":"7d8d1491-6e9a-4ad6-9a04-e543ec0a6c16","system_id":"levelo_inurba_marseille","lat":43.312609,"lon":5.401662,"is_reserved":false,"is_disabled":false,"rental_uris":{"android":"levelo://app?vid=7d8d1491-6e9a-4ad6-9a04-e543ec0a6c16","ios":"levelo://app?vid=7d8d1491-6e9a-4ad6-9a04-e543ec0a6c16"},"vehicle_type_id":"4","last_reported":1706821572,"current_range_meters":18000,"station_id":"ce4bh092rcd13ifvqd30","pricing_plan_id":"free"},{"bike_id":"c43c9ef4-4191-46f5-8e1b-94ff38a10d88","system_id":"levelo_inurba_marseille","lat":43.309371,"lon":5.401449,"is_reserved":false,"is_disabled":false,"rental_uris":{"android":"levelo://app?vid=c43c9ef4-4191-46f5-8e1b-94ff38a10d88","ios":"levelo://app?vid=c43c9ef4-4191-46f5-8e1b-94ff38a10d88"},"vehicle_type_id":"4","last_reported":1706821572,"current_range_meters":0,"station_id":"ce4bgvp2rcd13ifvqct0","pricing_plan_id":"free"},{"bike_id":"9ceebb53-7f9b-4fe8-b91f-7e9091166155","system_id":"levelo_inurba_marseille","lat":43.309371,"lon":5.401449,"is_reserved":false,"is_disabled":false,"rental_uris":{"android":"levelo://app?vid=9ceebb53-7f9b-4fe8-b91f-7e9091166155","ios":"levelo://app?vid=9ceebb53-7f9b-4fe8-b91f-7e9091166155"},"vehicle_type_id":"4","last_reported":1706821572,"current_range_meters":10400,"station_id":"ce4bgvp2rcd13ifvqct0","pricing_plan_id":"free"},{"bike_id":"755af9ae-b78b-4630-8802-53c91a2c3306","system_id":"levelo_inurba_marseille","lat":43.306412,"lon":5.401035,"is_reserved":false,"is_disabled":false,"rental_uris":{"android":"levelo://app?vid=755af9ae-b78b-4630-8802-53c91a2c3306","ios":"levelo://app?vid=755af9ae-b78b-4630-8802-53c91a2c3306"},"vehicle_type_id":"4","last_reported":1706821572,"current_range_meters":17200,"station_id":"ce4bh112rcd13ifvqda0","pricing_plan_id":"free"},{"bike_id":"c95c05a4-3a8f-4345-9961-47941d22cd92","system_id":"levelo_inurba_marseille","lat":43.306412,"lon":5.401035,"is_reserved":false,"is_disabled":false,"rental_uris":{"android":"levelo://app?vid=c95c05a4-3a8f-4345-9961-47941d22cd92","ios":"levelo://app?vid=c95c05a4-3a8f-4345-9961-47941d22cd92"},"vehicle_type_id":"4","last_reported":1706821572,"current_range_meters":14800,"station_id":"ce4bh112rcd13ifvqda0","pricing_plan_id":"free"},{"bike_id":"ee505d07-8da2-42d9-ae7f-4fd74dbb66cf","system_id":"levelo_inurba_marseille","lat":43.306412,"lon":5.401035,"is_reserved":false,"is_disabled":false,"rental_uris":{"android":"levelo://app?vid=ee505d07-8da2-42d9-ae7f-4fd74dbb66cf","ios":"levelo://app?vid=ee505d07-8da2-42d9-ae7f-4fd74dbb66cf"},"vehicle_type_id":"4","last_reported":1706821572,"current_range_meters":6800,"station_id":"ce4bh112rcd13ifvqda0","pricing_plan_id":"free"},{"bike_id":"39b9e327-f3dc-4ebf-be46-20d556fa39e7","system_id":"levelo_inurba_marseille","lat":43.30642,"lon":5.401031,"is_reserved":false,"is_disabled":false,"rental_uris":{"android":"levelo://app?vid=39b9e327-f3dc-4ebf-be46-20d556fa39e7","ios":"levelo://app?vid=39b9e327-f3dc-4ebf-be46-20d556fa39e7"},"vehicle_type_id":"4","last_reported":1706821572,"current_range_meters":8000,"station_id":"ce4bh112rcd13ifvqda0","pricing_plan_id":"free"},{"bike_id":"639adece-011c-40a9-851a-df16445be4f7","system_id":"levelo_inurba_marseille","lat":43.301117,"lon":5.398795,"is_reserved":false,"is_disabled":false,"rental_uris":{"android":"levelo://app?vid=639adece-011c-40a9-851a-df16445be4f7","ios":"levelo://app?vid=639adece-011c-40a9-851a-df16445be4f7"},"vehicle_type_id":"4","last_reported":1706821572,"current_range_meters":800,"station_id":"ce4bh0h2rcd13ifvqd40","pricing_plan_id":"free"},{"bike_id":"a92fecb2-cce1-45fa-a6c6-174b16ca62fa","system_id":"levelo_inurba_marseille","lat":43.337834,"lon":5.374506,"is_reserved":false,"is_disabled":false,"rental_uris":{"android":"levelo://app?vid=a92fecb2-cce1-45fa-a6c6-174b16ca62fa","ios":"levelo://app?vid=a92fecb2-cce1-45fa-a6c6-174b16ca62fa"},"vehicle_type_id":"4","last_reported":1706821572,"current_range_meters":28800,"station_id":"","pricing_plan_id":"free"},{"bike_id":"8e01ce0f-96e2-4704-87fb-2035dd478f82","system_id":"levelo_inurba_marseille","lat":43.301117,"lon":5.398795,"is_reserved":false,"is_disabled":false,"rental_uris":{"android":"levelo://app?vid=8e01ce0f-96e2-4704-87fb-2035dd478f82","ios":"levelo://app?vid=8e01ce0f-96e2-4704-87fb-2035dd478f82"},"vehicle_type_id":"4","last_reported":1706821572,"current_range_meters":0,"station_id":"ce4bh0h2rcd13ifvqd40","pricing_plan_id":"free"},{"bike_id":"11292ed4-7f89-4a31-80de-9eac6b278d46","system_id":"levelo_inurba_marseille","lat":43.28727,"lon":5.36078,"is_reserved":false,"is_disabled":false,"rental_uris":{"android":"levelo://app?vid=11292ed4-7f89-4a31-80de-9eac6b278d46","ios":"levelo://app?vid=11292ed4-7f89-4a31-80de-9eac6b278d46"},"vehicle_type_id":"4","last_reported":1706821572,"current_range_meters":14800,"station_id":"cki0cbj6b192h4jlfktg","pricing_plan_id":"free"},{"bike_id":"b664ef4d-4d0e-40d0-92a0-ecf760b3dc95","system_id":"levelo_inurba_marseille","lat":43.30456,"lon":5.40059,"is_reserved":false,"is_disabled":false,"rental_uris":{"android":"levelo://app?vid=b664ef4d-4d0e-40d0-92a0-ecf760b3dc95","ios":"levelo://app?vid=b664ef4d-4d0e-40d0-92a0-ecf760b3dc95"},"vehicle_type_id":"4","last_reported":1706821572,"current_range_meters":21600,"station_id":"","pricing_plan_id":"free"},{"bike_id":"ecf1b32c-a0f0-4809-9666-6adfbb3832cf","system_id":"levelo_inurba_marseille","lat":43.28727,"lon":5.36078,"is_reserved":false,"is_disabled":false,"rental_uris":{"android":"levelo://app?vid=ecf1b32c-a0f0-4809-9666-6adfbb3832cf","ios":"levelo://app?vid=ecf1b32c-a0f0-4809-9666-6adfbb3832cf"},"vehicle_type_id":"4","last_reported":1706821572,"current_range_meters":2800,"station_id":"cki0cbj6b192h4jlfktg","pricing_plan_id":"free"},{"bike_id":"e632fc8c-2174-4252-857e-b75b04edb890","system_id":"levelo_inurba_marseille","lat":43.28727,"lon":5.36078,"is_reserved":false,"is_disabled":false,"rental_uris":{"android":"levelo://app?vid=e632fc8c-2174-4252-857e-b75b04edb890","ios":"levelo://app?vid=e632fc8c-2174-4252-857e-b75b04edb890"},"vehicle_type_id":"4","last_reported":1706821572,"current_range_meters":17200,"station_id":"cki0cbj6b192h4jlfktg","pricing_plan_id":"free"},{"bike_id":"1bee168c-ac37-4879-b914-ceff4d989cac","system_id":"levelo_inurba_marseille","lat":43.28727,"lon":5.36078,"is_reserved":false,"is_disabled":false,"rental_uris":{"android":"levelo://app?vid=1bee168c-ac37-4879-b914-ceff4d989cac","ios":"levelo://app?vid=1bee168c-ac37-4879-b914-ceff4d989cac"},"vehicle_type_id":"4","last_reported":1706821572,"current_range_meters":18000,"station_id":"cki0cbj6b192h4jlfktg","pricing_plan_id":"free"},{"bike_id":"27e5110e-37d5-4e4b-a904-91fcd02a4b97","system_id":"levelo_inurba_marseille","lat":43.28727,"lon":5.36078,"is_reserved":false,"is_disabled":false,"rental_uris":{"android":"levelo://app?vid=27e5110e-37d5-4e4b-a904-91fcd02a4b97","ios":"levelo://app?vid=27e5110e-37d5-4e4b-a904-91fcd02a4b97"},"vehicle_type_id":"4","last_reported":1706821572,"current_range_meters":17600,"station_id":"cki0cbj6b192h4jlfktg","pricing_plan_id":"free"},{"bike_id":"e80112be-963e-439d-b39d-2be24efc54ea","system_id":"levelo_inurba_marseille","lat":43.28727,"lon":5.36078,"is_reserved":false,"is_disabled":false,"rental_uris":{"android":"levelo://app?vid=e80112be-963e-439d-b39d-2be24efc54ea","ios":"levelo://app?vid=e80112be-963e-439d-b39d-2be24efc54ea"},"vehicle_type_id":"4","last_reported":1706821572,"current_range_meters":0,"station_id":"cki0cbj6b192h4jlfktg","pricing_plan_id":"free"},{"bike_id":"951e8b96-1ca4-46c8-a504-0f47907d59d0","system_id":"levelo_inurba_marseille","lat":43.28727,"lon":5.36078,"is_reserved":false,"is_disabled":false,"rental_uris":{"android":"levelo://app?vid=951e8b96-1ca4-46c8-a504-0f47907d59d0","ios":"levelo://app?vid=951e8b96-1ca4-46c8-a504-0f47907d59d0"},"vehicle_type_id":"4","last_reported":1706821572,"current_range_meters":0,"station_id":"cki0cbj6b192h4jlfktg","pricing_plan_id":"free"},{"bike_id":"933cb5fc-c3ed-4083-8134-4784226a658d","system_id":"levelo_inurba_marseille","lat":43.286961,"lon":5.373785,"is_reserved":false,"is_disabled":false,"rental_uris":{"android":"levelo://app?vid=933cb5fc-c3ed-4083-8134-4784226a658d","ios":"levelo://app?vid=933cb5fc-c3ed-4083-8134-4784226a658d"},"vehicle_type_id":"4","last_reported":1706821572,"current_range_meters":5600,"station_id":"ce4bh3p2rcd13ifvqdq0","pricing_plan_id":"free"},{"bike_id":"c1840086-dddf-4009-8bbc-1978f3a63e63","system_id":"levelo_inurba_marseille","lat":43.286591,"lon":5.363346,"is_reserved":false,"is_disabled":false,"rental_uris":{"android":"levelo://app?vid=c1840086-dddf-4009-8bbc-1978f3a63e63","ios":"levelo://app?vid=c1840086-dddf-4009-8bbc-1978f3a63e63"},"vehicle_type_id":"4","last_reported":1706821572,"current_range_meters":15200,"station_id":"ce4bhah2rcd13ifvqej0","pricing_plan_id":"free"},{"bike_id":"7b117be2-bb1d-44a7-8f5f-49b02c23723a","system_id":"levelo_inurba_marseille","lat":43.298681,"lon":5.397225,"is_reserved":false,"is_disabled":false,"rental_uris":{"android":"levelo://app?vid=7b117be2-bb1d-44a7-8f5f-49b02c23723a","ios":"levelo://app?vid=7b117be2-bb1d-44a7-8f5f-49b02c23723a"},"vehicle_type_id":"4","last_reported":1706821572,"current_range_meters":14800,"station_id":"ce4bh0h2rcd13ifvqd50","pricing_plan_id":"free"},{"bike_id":"7643e1be-20fa-4a0d-842d-6324b7c8ba1d","system_id":"levelo_inurba_marseille","lat":43.298681,"lon":5.397225,"is_reserved":false,"is_disabled":false,"rental_uris":{"android":"levelo://app?vid=7643e1be-20fa-4a0d-842d-6324b7c8ba1d","ios":"levelo://app?vid=7643e1be-20fa-4a0d-842d-6324b7c8ba1d"},"vehicle_type_id":"4","last_reported":1706821572,"current_range_meters":8400,"station_id":"ce4bh0h2rcd13ifvqd50","pricing_plan_id":"free"},{"bike_id":"c89dfdb3-aad4-4086-9438-ed982e83ef35","system_id":"levelo_inurba_marseille","lat":43.286591,"lon":5.363346,"is_reserved":false,"is_disabled":false,"rental_uris":{"android":"levelo://app?vid=c89dfdb3-aad4-4086-9438-ed982e83ef35","ios":"levelo://app?vid=c89dfdb3-aad4-4086-9438-ed982e83ef35"},"vehicle_type_id":"4","last_reported":1706821572,"current_range_meters":12000,"station_id":"ce4bhah2rcd13ifvqej0","pricing_plan_id":"free"},{"bike_id":"7f03f483-bf2d-4abf-8fe4-70fb921ac507","system_id":"levelo_inurba_marseille","lat":43.286593,"lon":5.363346,"is_reserved":false,"is_disabled":false,"rental_uris":{"android":"levelo://app?vid=7f03f483-bf2d-4abf-8fe4-70fb921ac507","ios":"levelo://app?vid=7f03f483-bf2d-4abf-8fe4-70fb921ac507"},"vehicle_type_id":"4","last_reported":1706821572,"current_range_meters":10800,"station_id":"ce4bhah2rcd13ifvqej0","pricing_plan_id":"free"},{"bike_id":"d3b0ed5a-298c-40f2-8089-d8c72a92f4a4","system_id":"levelo_inurba_marseille","lat":43.286961,"lon":5.373785,"is_reserved":false,"is_disabled":false,"rental_uris":{"android":"levelo://app?vid=d3b0ed5a-298c-40f2-8089-d8c72a92f4a4","ios":"levelo://app?vid=d3b0ed5a-298c-40f2-8089-d8c72a92f4a4"},"vehicle_type_id":"4","last_reported":1706821572,"current_range_meters":22400,"station_id":"ce4bh3p2rcd13ifvqdq0","pricing_plan_id":"free"},{"bike_id":"f10cdebb-edbc-4201-b2b8-43a978f7e2c5","system_id":"levelo_inurba_marseille","lat":43.298681,"lon":5.397225,"is_reserved":false,"is_disabled":false,"rental_uris":{"android":"levelo://app?vid=f10cdebb-edbc-4201-b2b8-43a978f7e2c5","ios":"levelo://app?vid=f10cdebb-edbc-4201-b2b8-43a978f7e2c5"},"vehicle_type_id":"4","last_reported":1706821572,"current_range_meters":14000,"station_id":"ce4bh0h2rcd13ifvqd50","pricing_plan_id":"free"},{"bike_id":"63f80ce5-99c8-4806-b400-bfb2a956cd13","system_id":"levelo_inurba_marseille","lat":43.298681,"lon":5.397225,"is_reserved":false,"is_disabled":false,"rental_uris":{"android":"levelo://app?vid=63f80ce5-99c8-4806-b400-bfb2a956cd13","ios":"levelo://app?vid=63f80ce5-99c8-4806-b400-bfb2a956cd13"},"vehicle_type_id":"4","last_reported":1706821572,"current_range_meters":30400,"station_id":"ce4bh0h2rcd13ifvqd50","pricing_plan_id":"free"},{"bike_id":"a686798f-628b-4c62-bd3e-6be9e3830620","system_id":"levelo_inurba_marseille","lat":43.298681,"lon":5.397225,"is_reserved":false,"is_disabled":false,"rental_uris":{"android":"levelo://app?vid=a686798f-628b-4c62-bd3e-6be9e3830620","ios":"levelo://app?vid=a686798f-628b-4c62-bd3e-6be9e3830620"},"vehicle_type_id":"4","last_reported":1706821572,"current_range_meters":12800,"station_id":"ce4bh0h2rcd13ifvqd50","pricing_plan_id":"free"},{"bike_id":"f7687913-5308-4c3a-82ed-94dd52535bf8","system_id":"levelo_inurba_marseille","lat":43.295194,"lon":5.39397,"is_reserved":false,"is_disabled":false,"rental_uris":{"android":"levelo://app?vid=f7687913-5308-4c3a-82ed-94dd52535bf8","ios":"levelo://app?vid=f7687913-5308-4c3a-82ed-94dd52535bf8"},