{"last_updated":1758384636,"ttl":60,"version":"2.2","data":{"bikes":[{"bike_id":"93a7b1c0-c69b-4015-8a0a-e76df1bb0c01","system_id":"levelo_inurba_marseille","lat":43.239629,"lon":5.366235,"is_reserved":false,"is_disabled":false,"rental_uris":{"android":"levelo://app?vid=93a7b1c0-c69b-4015-8a0a-e76df1bb0c01","ios":"levelo://app?vid=93a7b1c0-c69b-4015-8a0a-e76df1bb0c01"},"vehicle_type_id":"4","last_reported":1758384636,"current_range_meters":2800,"station_id":"ce4bhi12rcd13ifvqfp0","pricing_plan_id":"cebpf4jnsgd1na2vs0mg"},{"bike_id":"73e870d6-ed53-463d-a61c-608035c7e13a","system_id":"levelo_inurba_marseille","lat":43.23197,"lon":5.35551,"is_reserved":false,"is_disabled":false,"rental_uris":{"android":"levelo://app?vid=73e870d6-ed53-463d-a61c-608035c7e13a","ios":"levelo://app?vid=73e870d6-ed53-463d-a61c-608035c7e13a"},"vehicle_type_id":"4","last_reported":1758384636,"current_range_meters":2800,"station_id":"ce4bhu92rcd13ifvqi70","pricing_plan_id":"cebpf4jnsgd1na2vs0mg"},{"bike_id":"7cbf7c6c-25c9-4494-968c-692061ccf16e","system_id":"levelo_inurba_marseille","lat":43.26563,"lon":5.37283,"is_reserved":false,"is_disabled":false,"rental_uris":{"android":"levelo://app?vid=7cbf7c6c-25c9-4494-968c-692061ccf16e","ios":"levelo://app?vid=7cbf7c6c-25c9-4494-968c-692061ccf16e"},"vehicle_type_id":"4","last_reported":1758384636,"current_range_meters":2800,"station_id":"ce4bhg12rcd13ifvqf70","pricing_plan_id":"cebpf4jnsgd1na2vs0mg"},{"bike_id":"1ff1c966-3e36-41d6-ad4f-88adb6c17964","system_id":"levelo_inurba_marseille","lat":43.272121,"lon":5.391762,"is_reserved":false,"is_disabled":false,"rental_uris":{"android":"levelo://app?vid=1ff1c966-3e36-41d6-ad4f-88adb6c17964","ios":"levelo://app?vid=1ff1c966-3e36-41d6-ad4f-88adb6c17964"},"vehicle_type_id":"4","last_reported":1758384636,"current_range_meters":2800,"station_id":"ce4bhhp2rcd13ifvqfm0","pricing_plan_id":"cebpf4jnsgd1na2vs0mg"},{"bike_id":"304f17e2-af47-4952-9b43-c2748c7b6ab1","system_id":"levelo_inurba_marseille","lat":43.225359,"lon":5.3483,"is_reserved":false,"is_disabled":false,"rental_uris":{"android":"levelo://app?vid=304f17e2-af47-4952-9b43-c2748c7b6ab1","ios":"levelo://app?vid=304f17e2-af47-4952-9b43-c2748c7b6ab1"},"vehicle_type_id":"4","last_reported":1758384636,"current_range_meters":2800,"station_id":"","pricing_plan_id":"cebpf4jnsgd1na2vs0mg"},{"bike_id":"854083d4-e9af-4128-9428-97b40ae44fd4","system_id":"levelo_inurba_marseille","lat":43.2903,"lon":5.38645,"is_reserved":false,"is_disabled":false,"rental_uris":{"android":"levelo://app?vid=854083d4-e9af-4128-9428-97b40ae44fd4","ios":"levelo://app?vid=854083d4-e9af-4128-9428-97b40ae44fd4"},"vehicle_type_id":"4","last_reported":1758384636,"current_range_meters":4400,"station_id":"ce4bh4p2rcd13ifvqe0g","pricing_plan_id":"cebpf4jnsgd1na2vs0mg"},{"bike_id":"be084b6b-24fa-490c-b1ec-5652d734fb92","system_id":"levelo_inurba_marseille","lat":43.29038,"lon":5.39967,"is_reserved":false,"is_disabled":false,"rental_uris":{"android":"levelo://app?vid=be084b6b-24fa-490c-b1ec-5652d734fb92","ios":"levelo://app?vid=be084b6b-24fa-490c-b1ec-5652d734fb92"},"vehicle_type_id":"4","last_reported":1758384636,"current_range_meters":2800,"station_id":"ce4bh392rcd13ifvqdm0","pricing_plan_id":"cebpf4jnsgd1na2vs0mg"},{"bike_id":"8dfda0a4-d2d3-414f-bdb3-f986fe919946","system_id":"levelo_inurba_marseille","lat":43.24172,"lon":5.39733,"is_reserved":false,"is_disabled":false,"rental_uris":{"android":"levelo://app?vid=8dfda0a4-d2d3-414f-bdb3-f986fe919946","ios":"levelo://app?vid=8dfda0a4-d2d3-414f-bdb3-f986fe919946"},"vehicle_type_id":"4","last_reported":1758384636,"current_range_meters":2800,"station_id":"ce4bhn12rcd13ifvqgpg","pricing_plan_id":"cebpf4jnsgd1na2vs0mg"},{"bike_id":"50c1c1e3-58c2-4ff0-a78a-a7e499f3540c","system_id":"levelo_inurba_marseille","lat":43.28888,"lon":5.43295,"is_reserved":false,"is_disabled":false,"rental_uris":{"android":"levelo://app?vid=50c1c1e3-58c2-4ff0-a78a-a7e499f3540c","ios":"levelo://app?vid=50c1c1e3-58c2-4ff0-a78a-a7e499f3540c"},"vehicle_type_id":"4","last_reported":1758384636,"current_range_meters":2800,"station_id":"","pricing_plan_id":"cebpf4jnsgd1na2vs0mg"},{"bike_id":"2756534c-6138-4832-a7f5-e41114171434","system_id":"levelo_inurba_marseille","lat":43.29609,"lon":5.38101,"is_reserved":false,"is_disabled":false,"rental_uris":{"android":"levelo://app?vid=2756534c-6138-4832-a7f5-e41114171434","ios":"levelo://app?vid=2756534c-6138-4832-a7f5-e41114171434"},"vehicle_type_id":"4","last_reported":1758384636,"current_range_meters":3200,"station_id":"ce4bgl12rcd13ifvqbo0","pricing_plan_id":"cebpf4jnsgd1na2vs0mg"},{"bike_id":"81700828-b112-4a87-bbc1-eaa3df5101ff","system_id":"levelo_inurba_marseille","lat":43.28652,"lon":5.351548,"is_reserved":false,"is_disabled":false,"rental_uris":{"android":"levelo://app?vid=81700828-b112-4a87-bbc1-eaa3df5101ff","ios":"levelo://app?vid=81700828-b112-4a87-bbc1-eaa3df5101ff"},"vehicle_type_id":"4","last_reported":1758384636,"current_range_meters":3200,"station_id":"","pricing_plan_id":"cebpf4jnsgd1na2vs0mg"},{"bike_id":"3d4939a6-20e7-4630-8948-acb79b47d185","system_id":"levelo_inurba_marseille","lat":43.30306,"lon":5.36894,"is_reserved":false,"is_disabled":false,"rental_uris":{"android":"levelo://app?vid=3d4939a6-20e7-4630-8948-acb79b47d185","ios":"levelo://app?vid=3d4939a6-20e7-4630-8948-acb79b47d185"},"vehicle_type_id":"4","last_reported":1758384636,"current_range_meters":0,"station_id":"ce4bgqh2rcd13ifvqc5g","pricing_plan_id":"cebpf4jnsgd1na2vs0mg"},{"bike_id":"55b35779-5305-41fc-b7b5-5e9f33c79dc3","system_id":"levelo_inurba_marseille","lat":43.25501,"lon":5.37649,"is_reserved":false,"is_disabled":false,"rental_uris":{"android":"levelo://app?vid=55b35779-5305-41fc-b7b5-5e9f33c79dc3","ios":"levelo://app?vid=55b35779-5305-41fc-b7b5-5e9f33c79dc3"},"vehicle_type_id":"4","last_reported":1758384636,"current_range_meters":3200,"station_id":"ce4bhh12rcd13ifvqff0","pricing_plan_id":"cebpf4jnsgd1na2vs0mg"},{"bike_id":"2f1d311c-77f8-4161-bcb4-c2ca954168cd","system_id":"levelo_inurba_marseille","lat":43.3027,"lon":5.3772,"is_reserved":false,"is_disabled":false,"rental_uris":{"android":"levelo://app?vid=2f1d311c-77f8-4161-bcb4-c2ca954168cd","ios":"levelo://app?vid=2f1d311c-77f8-4161-bcb4-c2ca954168cd"},"vehicle_type_id":"4","last_reported":1758384636,"current_range_meters":3200,"station_id":"ce4bguh2rcd13ifvqcj0","pricing_plan_id":"cebpf4jnsgd1na2vs0mg"},{"bike_id":"fce43978-0792-453f-b1b6-dbdc2e463c48","system_id":"levelo_inurba_marseille","lat":43.31714,"lon":5.43707,"is_reserved":false,"is_disabled":false,"rental_uris":{"android":"levelo://app?vid=fce43978-0792-453f-b1b6-dbdc2e463c48","ios":"levelo://app?vid=fce43978-0792-453f-b1b6-dbdc2e463c48"},"vehicle_type_id":"4","last_reported":1758384636,"current_range_meters":3200,"station_id":"ce4bhp92rcd13ifvqhcg","pricing_plan_id":"cebpf4jnsgd1na2vs0mg"},{"bike_id":"85c8e685-734d-4760-966b-86b771a65d9b","system_id":"levelo_inurba_marseille","lat":43.21179,"lon":5.35081,"is_reserved":false,"is_disabled":true,"rental_uris":{"android":"levelo://app?vid=85c8e685-734d-4760-966b-86b771a65d9b","ios":"levelo://app?vid=85c8e685-734d-4760-966b-86b771a65d9b"},"vehicle_type_id":"4","last_reported":1758384636,"current_range_meters":3600,"station_id":"st_cvj6sg6p6f1abm77japg","pricing_plan_id":"cebpf4jnsgd1na2vs0mg"},{"bike_id":"5e1549e6-879c-42e0-8ce8-b9675e30105c","system_id":"levelo_inurba_marseille","lat":43.2118,"lon":5.35085,"is_reserved":false,"is_disabled":false,"rental_uris":{"android":"levelo://app?vid=5e1549e6-879c-42e0-8ce8-b9675e30105c","ios":"levelo://app?vid=5e1549e6-879c-42e0-8ce8-b9675e30105c"},"vehicle_type_id":"4","last_reported":1758384636,"current_range_meters":3600,"station_id":"st_cvj6sg6p6f1abm77japg","pricing_plan_id":"cebpf4jnsgd1na2vs0mg"},{"bike_id":"a3eb1dcd-c5cf-4391-8c07-776c1895713a","system_id":"levelo_inurba_marseille","lat":43.24611,"lon":5.43175,"is_reserved":false,"is_disabled":false,"rental_uris":{"android":"levelo://app?vid=a3eb1dcd-c5cf-4391-8c07-776c1895713a","ios":"levelo://app?vid=a3eb1dcd-c5cf-4391-8c07-776c1895713a"},"vehicle_type_id":"4","last_reported":1758384636,"current_range_meters":3600,"station_id":"st_d2m6c4gdas8pm72e190g","pricing_plan_id":"cebpf4jnsgd1na2vs0mg"},{"bike_id":"42323a1a-489c-43cb-90ae-c675b27444d5","system_id":"levelo_inurba_marseille","lat":43.21641,"lon":5.3437,"is_reserved":false,"is_disabled":false,"rental_uris":{"android":"levelo://app?vid=42323a1a-489c-43cb-90ae-c675b27444d5","ios":"levelo://app?vid=42323a1a-489c-43cb-90ae-c675b27444d5"},"vehicle_type_id":"4","last_reported":1758384636,"current_range_meters":3600,"station_id":"","pricing_plan_id":"cebpf4jnsgd1na2vs0mg"},{"bike_id":"10971db7-9c66-40a2-a9fa-64becabfb7e2","system_id":"levelo_inurba_marseille","lat":43.284361,"lon":5.349821,"is_reserved":false,"is_disabled":false,"rental_uris":{"android":"levelo://app?vid=10971db7-9c66-40a2-a9fa-64becabfb7e2","ios":"levelo://app?vid=10971db7-9c66-40a2-a9fa-64becabfb7e2"},"vehicle_type_id":"4","last_reported":1758384636,"current_range_meters":4000,"station_id":"","pricing_plan_id":"cebpf4jnsgd1na2vs0mg"},{"bike_id":"577d0e24-bf90-43b8-a759-bea08b7d7e19","system_id":"levelo_inurba_marseille","lat":43.21745,"lon":5.34601,"is_reserved":false,"is_disabled":true,"rental_uris":{"android":"levelo://app?vid=577d0e24-bf90-43b8-a759-bea08b7d7e19","ios":"levelo://app?vid=577d0e24-bf90-43b8-a759-bea08b7d7e19"},"vehicle_type_id":"4","last_reported":1758384636,"current_range_meters":4000,"station_id":"st_cvj6r9ubvosntc0bgbag","pricing_plan_id":"cebpf4jnsgd1na2vs0mg"},{"bike_id":"b44ff654-3c29-4dce-b24e-df82a04ae493","system_id":"levelo_inurba_marseille","lat":43.28154,"lon":5.42655,"is_reserved":false,"is_disabled":false,"rental_uris":{"android":"levelo://app?vid=b44ff654-3c29-4dce-b24e-df82a04ae493","ios":"levelo://app?vid=b44ff654-3c29-4dce-b24e-df82a04ae493"},"vehicle_type_id":"4","last_reported":1758384636,"current_range_meters":4000,"station_id":"ce4bhnh2rcd13ifvqgug","pricing_plan_id":"cebpf4jnsgd1na2vs0mg"},{"bike_id":"c9b55aa2-cdeb-4d1f-835b-88436642bf02","system_id":"levelo_inurba_marseille","lat":43.27577,"lon":5.38414,"is_reserved":false,"is_disabled":false,"rental_uris":{"android":"levelo://app?vid=c9b55aa2-cdeb-4d1f-835b-88436642bf02","ios":"levelo://app?vid=c9b55aa2-cdeb-4d1f-835b-88436642bf02"},"vehicle_type_id":"4","last_reported":1758384636,"current_range_meters":4000,"station_id":"ce4bhh92rcd13ifvqfi0","pricing_plan_id":"cebpf4jnsgd1na2vs0mg"},{"bike_id":"c087075d-2020-4437-b6e9-a71c9778db4a","system_id":"levelo_inurba_marseille","lat":43.2781,"lon":5.40708,"is_reserved":false,"is_disabled":false,"rental_uris":{"android":"levelo://app?vid=c087075d-2020-4437-b6e9-a71c9778db4a","ios":"levelo://app?vid=c087075d-2020-4437-b6e9-a71c9778db4a"},"vehicle_type_id":"4","last_reported":1758384636,"current_range_meters":4000,"station_id":"ce4bhnh2rcd13ifvqgtg","pricing_plan_id":"cebpf4jnsgd1na2vs0mg"},{"bike_id":"34405edd-d522-4c95-9af9-525c52e699fb","system_id":"levelo_inurba_marseille","lat":43.28942,"lon":5.36637,"is_reserved":false,"is_disabled":false,"rental_uris":{"android":"levelo://app?vid=34405edd-d522-4c95-9af9-525c52e699fb","ios":"levelo://app?vid=34405edd-d522-4c95-9af9-525c52e699fb"},"vehicle_type_id":"4","last_reported":1758384636,"current_range_meters":4000,"station_id":"ce4bhap2rcd13ifvqek0","pricing_plan_id":"cebpf4jnsgd1na2vs0mg"},{"bike_id":"bfc5d698-f994-4e1c-8a8e-a87ea821a4e2","system_id":"levelo_inurba_marseille","lat":43.30549,"lon":5.36539,"is_reserved":false,"is_disabled":false,"rental_uris":{"android":"levelo://app?vid=bfc5d698-f994-4e1c-8a8e-a87ea821a4e2","ios":"levelo://app?vid=bfc5d698-f994-4e1c-8a8e-a87ea821a4e2"},"vehicle_type_id":"4","last_reported":1758384636,"current_range_meters":4400,"station_id":"ce4bgs12rcd13ifvqcag","pricing_plan_id":"cebpf4jnsgd1na2vs0mg"},{"bike_id":"e942f984-8fe7-48d1-8f04-3806656b9996","system_id":"levelo_inurba_marseille","lat":43.3364,"lon":5.37918,"is_reserved":false,"is_disabled":false,"rental_uris":{"android":"levelo://app?vid=e942f984-8fe7-48d1-8f04-3806656b9996","ios":"levelo://app?vid=e942f984-8fe7-48d1-8f04-3806656b9996"},"vehicle_type_id":"4","last_reported":1758384636,"current_range_meters":4400,"station_id":"","pricing_plan_id":"cebpf4jnsgd1na2vs0mg"},{"bike_id":"2eae411f-d2f6-4d53-8436-7c0368df71b8","system_id":"levelo_inurba_marseille","lat":43.25587,"lon":5.38224,"is_reserved":false,"is_disabled":false,"rental_uris":{"android":"levelo://app?vid=2eae411f-d2f6-4d53-8436-7c0368df71b8","ios":"levelo://app?vid=2eae411f-d2f6-4d53-8436-7c0368df71b8"},"vehicle_type_id":"4","last_reported":1758384636,"current_range_meters":4400,"station_id":"ce4bhih2rcd13ifvqfs0","pricing_plan_id":"cebpf4jnsgd1na2vs0mg"},{"bike_id":"82309cb9-9522-4e73-b7af-a2e09582f8d4","system_id":"levelo_inurba_marseille","lat":43.23175,"lon":5.39993,"is_reserved":false,"is_disabled":false,"rental_uris":{"android":"levelo://app?vid=82309cb9-9522-4e73-b7af-a2e09582f8d4","ios":"levelo://app?vid=82309cb9-9522-4e73-b7af-a2e09582f8d4"},"vehicle_type_id":"4","last_reported":1758384636,"current_range_meters":4400,"station_id":"ce4bhn12rcd13ifvqgqg","pricing_plan_id":"cebpf4jnsgd1na2vs0mg"},{"bike_id":"52aeac29-5898-45e0-b049-808ad1a325f5","system_id":"levelo_inurba_marseille","lat":43.29033,"lon":5.37572,"is_reserved":false,"is_disabled":false,"rental_uris":{"android":"levelo://app?vid=52aeac29-5898-45e0-b049-808ad1a325f5","ios":"levelo://app?vid=52aeac29-5898-45e0-b049-808ad1a325f5"},"vehicle_type_id":"4","last_reported":1758384636,"current_range_meters":4400,"station_id":"ce4bh692rcd13ifvqe90","pricing_plan_id":"cebpf4jnsgd1na2vs0mg"},{"bike_id":"5309a266-ebd5-412f-8e74-1d3b81911952","system_id":"levelo_inurba_marseille","lat":43.289734,"lon":5.378352,"is_reserved":false,"is_disabled":false,"rental_uris":{"android":"levelo://app?vid=5309a266-ebd5-412f-8e74-1d3b81911952","ios":"levelo://app?vid=5309a266-ebd5-412f-8e74-1d3b81911952"},"vehicle_type_id":"4","last_reported":1758384636,"current_range_meters":4800,"station_id":"ce4bh9p2rcd13ifvqed0","pricing_plan_id":"cebpf4jnsgd1na2vs0mg"},{"bike_id":"b4007283-d32f-4909-97c8-0dd7602dca3a","system_id":"levelo_inurba_marseille","lat":43.21192,"lon":5.35067,"is_reserved":false,"is_disabled":false,"rental_uris":{"android":"levelo://app?vid=b4007283-d32f-4909-97c8-0dd7602dca3a","ios":"levelo://app?vid=b4007283-d32f-4909-97c8-0dd7602dca3a"},"vehicle_type_id":"4","last_reported":1758384636,"current_range_meters":4800,"station_id":"st_cvj6sg6p6f1abm77japg","pricing_plan_id":"cebpf4jnsgd1na2vs0mg"},{"bike_id":"ae65102c-20e4-4e6f-8730-c21082d4add0","system_id":"levelo_inurba_marseille","lat":43.23181,"lon":5.39988,"is_reserved":false,"is_disabled":false,"rental_uris":{"android":"levelo://app?vid=ae65102c-20e4-4e6f-8730-c21082d4add0","ios":"levelo://app?vid=ae65102c-20e4-4e6f-8730-c21082d4add0"},"vehicle_type_id":"4","last_reported":1758384636,"current_range_meters":4400,"station_id":"ce4bhn12rcd13ifvqgqg","pricing_plan_id":"cebpf4jnsgd1na2vs0mg"},{"bike_id":"463e56af-4b18-419c-a87c-cd95d1dba38f","system_id":"levelo_inurba_marseille","lat":43.23193,"lon":5.35557,"is_reserved":false,"is_disabled":false,"rental_uris":{"android":"levelo://app?vid=463e56af-4b18-419c-a87c-cd95d1dba38f","ios":"levelo://app?vid=463e56af-4b18-419c-a87c-cd95d1dba38f"},"vehicle_type_id":"4","last_reported":1758384636,"current_range_meters":4800,"station_id":"ce4bhu92rcd13ifvqi70","pricing_plan_id":"cebpf4jnsgd1na2vs0mg"},{"bike_id":"9f0f401b-ff98-4040-b24f-13fefb233bef","system_id":"levelo_inurba_marseille","lat":43.21184,"lon":5.35073,"is_reserved":false,"is_disabled":false,"rental_uris":{"android":"levelo://app?vid=9f0f401b-ff98-4040-b24f-13fefb233bef","ios":"levelo://app?vid=9f0f401b-ff98-4040-b24f-13fefb233bef"},"vehicle_type_id":"4","last_reported":1758384636,"current_range_meters":4800,"station_id":"st_cvj6sg6p6f1abm77japg","pricing_plan_id":"cebpf4jnsgd1na2vs0mg"},{"bike_id":"6dc49f8f-31b8-485c-b489-e3fd253e6676","system_id":"levelo_inurba_marseille","lat":43.32656,"lon":5.40971,"is_reserved":false,"is_disabled":true,"rental_uris":{"android":"levelo://app?vid=6dc49f8f-31b8-485c-b489-e3fd253e6676","ios":"levelo://app?vid=6dc49f8f-31b8-485c-b489-e3fd253e6676"},"vehicle_type_id":"4","last_reported":1758384636,"current_range_meters":5600,"station_id":"ce4bhpp2rcd13ifvqhgg","pricing_plan_id":"cebpf4jnsgd1na2vs0mg"},{"bike_id":"fc40df1c-5e33-48b3-adeb-93bc5ef49f37","system_id":"levelo_inurba_marseille","lat":43.29262,"lon":5.38432,"is_reserved":false,"is_disabled":false,"rental_uris":{"android":"levelo://app?vid=fc40df1c-5e33-48b3-adeb-93bc5ef49f37","ios":"levelo://app?vid=fc40df1c-5e33-48b3-adeb-93bc5ef49f37"},"vehicle_type_id":"4","last_reported":1758384636,"current_range_meters":5600,"station_id":"ce4bh692rcd13ifvqea0","pricing_plan_id":"cebpf4jnsgd1na2vs0mg"},{"bike_id":"4a42c3a7-350b-4a49-9c56-c4b3d7531c94","system_id":"levelo_inurba_marseille","lat":43.305533,"lon":5.366949,"is_reserved":false,"is_disabled":false,"rental_uris":{"android":"levelo://app?vid=4a42c3a7-350b-4a49-9c56-c4b3d7531c94","ios":"levelo://app?vid=4a42c3a7-350b-4a49-9c56-c4b3d7531c94"},"vehicle_type_id":"4","last_reported":1758384636,"current_range_meters":5600,"station_id":"ce4bgrp2rcd13ifvqc9g","pricing_plan_id":"cebpf4jnsgd1na2vs0mg"},{"bike_id":"cad97885-b582-49b2-8b83-0a6c3d079fc6","system_id":"levelo_inurba_marseille","lat":43.297018,"lon":5.365873,"is_reserved":false,"is_disabled":false,"rental_uris":{"android":"levelo://app?vid=cad97885-b582-49b2-8b83-0a6c3d079fc6","ios":"levelo://app?vid=cad97885-b582-49b2-8b83-0a6c3d079fc6"},"vehicle_type_id":"4","last_reported":1758384636,"current_range_meters":6000,"station_id":"ce4bgn12rcd13ifvqbt0","pricing_plan_id":"cebpf4jnsgd1na2vs0mg"},{"bike_id":"dd54508b-cebc-429e-947d-94cace74c022","system_id":"levelo_inurba_marseille","lat":43.23959,"lon":5.36618,"is_reserved":false,"is_disabled":true,"rental_uris":{"android":"levelo://app?vid=dd54508b-cebc-429e-947d-94cace74c022","ios":"levelo://app?vid=dd54508b-cebc-429e-947d-94cace74c022"},"vehicle_type_id":"4","last_reported":1758384636,"current_range_meters":6000,"station_id":"ce4bhi12rcd13ifvqfp0","pricing_plan_id":"cebpf4jnsgd1na2vs0mg"},{"bike_id":"7f1aa86b-0513-420e-9f4d-e5ec11ef87e8","system_id":"levelo_inurba_marseille","lat":43.27326,"lon":5.39069,"is_reserved":false,"is_disabled":false,"rental_uris":{"android":"levelo://app?vid=7f1aa86b-0513-420e-9f4d-e5ec11ef87e8","ios":"levelo://app?vid=7f1aa86b-0513-420e-9f4d-e5ec11ef87e8"},"vehicle_type_id":"4","last_reported":1758384636,"current_range_meters":5600,"station_id":"ce4bhgp2rcd13ifvqfe0","pricing_plan_id":"cebpf4jnsgd1na2vs0mg"},{"bike_id":"36aa95cd-7c5b-4344-acc2-f933b860804a","system_id":"levelo_inurba_marseille","lat":43.29025,"lon":5.38129,"is_reserved":false,"is_disabled":false,"rental_uris":{"android":"levelo://app?vid=36aa95cd-7c5b-4344-acc2-f933b860804a","ios":"levelo://app?vid=36aa95cd-7c5b-4344-acc2-f933b860804a"},"vehicle_type_id":"4","last_reported":1758384636,"current_range_meters":8000,"station_id":"ce4bh4p2rcd13ifvqe1g","pricing_plan_id":"cebpf4jnsgd1na2vs0mg"},{"bike_id":"9d690e21-e284-42e5-8451-87ea946bc51f","system_id":"levelo_inurba_marseille","lat":43.27435,"lon":5.39414,"is_reserved":false,"is_disabled":false,"rental_uris":{"android":"levelo://app?vid=9d690e21-e284-42e5-8451-87ea946bc51f","ios":"levelo://app?vid=9d690e21-e284-42e5-8451-87ea946bc51f"},"vehicle_type_id":"4","last_reported":1758384636,"current_range_meters":6400,"station_id":"ce4bhdp2rcd13ifvqf20","pricing_plan_id":"cebpf4jnsgd1na2vs0mg"},{"bike_id":"d3f6e9e8-9364-4a93-b986-ef736ab400c4","system_id":"levelo_inurba_marseille","lat":43.27078,"lon":5.42292,"is_reserved":false,"is_disabled":false,"rental_uris":{"android":"levelo://app?vid=d3f6e9e8-9364-4a93-b986-ef736ab400c4","ios":"levelo://app?vid=d3f6e9e8-9364-4a93-b986-ef736ab400c4"},"vehicle_type_id":"4","last_reported":1758384636,"current_range_meters":6800,"station_id":"ce4bhk92rcd13ifvqgb0","pricing_plan_id":"cebpf4jnsgd1na2vs0mg"},{"bike_id":"211bce42-6821-4452-8c60-5cd57224b9f8","system_id":"levelo_inurba_marseille","lat":43.25705,"lon":5.39415,"is_reserved":false,"is_disabled":false,"rental_uris":{"android":"levelo://app?vid=211bce42-6821-4452-8c60-5cd57224b9f8","ios":"levelo://app?vid=211bce42-6821-4452-8c60-5cd57224b9f8"},"vehicle_type_id":"4","last_reported":1758384636,"current_range_meters":6800,"station_id":"ce4bhip2rcd13ifvqft0","pricing_plan_id":"cebpf4jnsgd1na2vs0mg"},{"bike_id":"6912b17e-adca-40da-8558-fdf88625cf11","system_id":"levelo_inurba_marseille","lat":43.27971,"lon":5.38742,"is_reserved":false,"is_disabled":false,"rental_uris":{"android":"levelo://app?vid=6912b17e-adca-40da-8558-fdf88625cf11","ios":"levelo://app?vid=6912b17e-adca-40da-8558-fdf88625cf11"},"vehicle_type_id":"4","last_reported":1758384636,"current_range_meters":6400,"station_id":"ce4bhg12rcd13ifvqf80","pricing_plan_id":"cebpf4jnsgd1na2vs0mg"},{"bike_id":"e1065c32-ac19-477b-812a-39f964d50769","system_id":"levelo_inurba_marseille","lat":43.231953,"lon":5.355413,"is_reserved":false,"is_disabled":true,"rental_uris":{"android":"levelo://app?vid=e1065c32-ac19-477b-812a-39f964d50769","ios":"levelo://app?vid=e1065c32-ac19-477b-812a-39f964d50769"},"vehicle_type_id":"4","last_reported":1758384636,"current_range_meters":7200,"station_id":"ce4bhu92rcd13ifvqi70","pricing_plan_id":"cebpf4jnsgd1na2vs0mg"},{"bike_id":"6f7c21db-5069-413e-9003-b245b2d0bb8d","system_id":"levelo_inurba_marseille","lat":43.29029,"lon":5.38644,"is_reserved":false,"is_disabled":false,"rental_uris":{"android":"levelo://app?vid=6f7c21db-5069-413e-9003-b245b2d0bb8d","ios":"levelo://app?vid=6f7c21db-5069-413e-9003-b245b2d0bb8d"},"vehicle_type_id":"4","last_reported":1758384636,"current_range_meters":8400,"station_id":"ce4bh4p2rcd13ifvqe0g","pricing_plan_id":"cebpf4jnsgd1na2vs0mg"},{"bike_id":"3c9735e9-fd7e-4079-8199-725760347837","system_id":"levelo_inurba_marseille","lat":43.21188,"lon":5.35068,"is_reserved":false,"is_disabled":false,"rental_uris":{"android":"levelo://app?vid=3c9735e9-fd7e-4079-8199-725760347837","ios":"levelo://app?vid=3c9735e9-fd7e-4079-8199-725760347837"},"vehicle_type_id":"4","last_reported":1758384636,"current_range_meters":8000,"station_id":"st_cvj6sg6p6f1abm77japg","pricing_plan_id":"cebpf4jnsgd1na2vs0mg"},{"bike_id":"6ee0d209-a8d7-442a-934a-edc4363f0493","system_id":"levelo_inurba_marseille","lat":43.28079,"lon":5.39653,"is_reserved":false,"is_disabled":false,"rental_uris":{"android":"levelo://app?vid=6ee0d209-a8d7-442a-934a-edc4363f0493","ios":"levelo://app?vid=6ee0d209-a8d7-442a-934a-edc4363f0493"},"vehicle_type_id":"4","last_reported":1758384636,"current_range_meters":8000,"station_id":"ce4bho12rcd13ifvqh2g","pricing_plan_id":"cebpf4jnsgd1na2vs0mg"},{"bike_id":"5bb42022-0e19-48bc-a5b4-218bb1d7482e","system_id":"levelo_inurba_marseille","lat":43.31272,"lon":5.37728,"is_reserved":false,"is_disabled":false,"rental_uris":{"android":"levelo://app?vid=5bb42022-0e19-48bc-a5b4-218bb1d7482e","ios":"levelo://app?vid=5bb42022-0e19-48bc-a5b4-218bb1d7482e"},"vehicle_type_id":"4","last_reported":1758384636,"current_range_meters":8000,"station_id":"","pricing_plan_id":"cebpf4jnsgd1na2vs0mg"},{"bike_id":"bf6e6d27-c09e-4725-9fbc-20073fd5a515","system_id":"levelo_inurba_marseille","lat":43.289376,"lon":5.396214,"is_reserved":false,"is_disabled":false,"rental_uris":{"android":"levelo://app?vid=bf6e6d27-c09e-4725-9fbc-20073fd5a515","ios":"levelo://app?vid=bf6e6d27-c09e-4725-9fbc-20073fd5a515"},"vehicle_type_id":"4","last_reported":1758384636,"current_range_meters":8000,"station_id":"","pricing_plan_id":"cebpf4jnsgd1na2vs0mg"},{"bike_id":"0960e3dd-c358-4474-bd10-8223758e1f6b","system_id":"levelo_inurba_marseille","lat":43.296996,"lon":5.376855,"is_reserved":false,"is_disabled":false,"rental_uris":{"android":"levelo://app?vid=0960e3dd-c358-4474-bd10-8223758e1f6b","ios":"levelo://app?vid=0960e3dd-c358-4474-bd10-8223758e1f6b"},"vehicle_type_id":"4","last_reported":1758384636,"current_range_meters":8000,"station_id":"","pricing_plan_id":"cebpf4jnsgd1na2vs0mg"},{"bike_id":"3e682cf4-5ea7-4563-9004-71435c031ec4","system_id":"levelo_inurba_marseille","lat":43.2119,"lon":5.35083,"is_reserved":false,"is_disabled":false,"rental_uris":{"android":"levelo://app?vid=3e682cf4-5ea7-4563-9004-71435c031ec4","ios":"levelo://app?vid=3e682cf4-5ea7-4563-9004-71435c031ec4"},"vehicle_type_id":"4","last_reported":1758384636,"current_range_meters":8400,"station_id":"st_cvj6sg6p6f1abm77japg","pricing_plan_id":"cebpf4jnsgd1na2vs0mg"},{"bike_id":"71a9049b-a3af-4a7f-97e3-d4fef3d71785","system_id":"levelo_inurba_marseille","lat":43.23958,"lon":5.36624,"is_reserved":false,"is_disabled":false,"rental_uris":{"android":"levelo://app?vid=71a9049b-a3af-4a7f-97e3-d4fef3d71785","ios":"levelo://app?vid=71a9049b-a3af-4a7f-97e3-d4fef3d71785"},"vehicle_type_id":"4","last_reported":1758384636,"current_range_meters":8400,"station_id":"ce4bhi12rcd13ifvqfp0","pricing_plan_id":"cebpf4jnsgd1na2vs0mg"},{"bike_id":"9fb6aca1-1ae7-438b-be81-528c4386681d","system_id":"levelo_inurba_marseille","lat":43.28932,"lon":5.38401,"is_reserved":false,"is_disabled":false,"rental_uris":{"android":"levelo://app?vid=9fb6aca1-1ae7-438b-be81-528c4386681d","ios":"levelo://app?vid=9fb6aca1-1ae7-438b-be81-528c4386681d"},"vehicle_type_id":"4","last_reported":1758384636,"current_range_meters":8000,"station_id":"ce4bh612rcd13ifvqe6g","pricing_plan_id":"cebpf4jnsgd1na2vs0mg"},{"bike_id":"90ec948a-ca2e-4a69-b9d1-fa757e73f9c4","system_id":"levelo_inurba_marseille","lat":43.29049,"lon":5.37564,"is_reserved":false,"is_disabled":false,"rental_uris":{"android":"levelo://app?vid=90ec948a-ca2e-4a69-b9d1-fa757e73f9c4","ios":"levelo://app?vid=90ec948a-ca2e-4a69-b9d1-fa757e73f9c4"},"vehicle_type_id":"4","last_reported":1758384636,"current_range_meters":8000,"station_id":"ce4bh692rcd13ifvqe90","pricing_plan_id":"cebpf4jnsgd1na2vs0mg"},{"bike_id":"c627b34a-8e81-4438-af3b-4fd0aab1c160","system_id":"levelo_inurba_marseille","lat":43.2965,"lon":5.36047,"is_reserved":false,"is_disabled":false,"rental_uris":{"android":"levelo://app?vid=c627b34a-8e81-4438-af3b-4fd0aab1c160","ios":"levelo://app?vid=c627b34a-8e81-4438-af3b-4fd0aab1c160"},"vehicle_type_id":"4","last_reported":1758384636,"current_range_meters":8400,"station_id":"","pricing_plan_id":"cebpf4jnsgd1na2vs0mg"},{"bike_id":"96f009f8-621e-4a91-95d4-904922edda0d","system_id":"levelo_inurba_marseille","lat":43.24172,"lon":5.36396,"is_reserved":false,"is_disabled":false,"rental_uris":{"android":"levelo://app?vid=96f009f8-621e-4a91-95d4-904922edda0d","ios":"levelo://app?vid=96f009f8-621e-4a91-95d4-904922edda0d"},"vehicle_type_id":"4","last_reported":1758384636,"current_range_meters":8400,"station_id":"cpo36qri1sfpv3e86is0","pricing_plan_id":"cebpf4jnsgd1na2vs0mg"},{"bike_id":"7dd65b1b-fb7b-4087-9803-34d477de11ae","system_id":"levelo_inurba_marseille","lat":43.21182,"lon":5.35082,"is_reserved":false,"is_disabled":false,"rental_uris":{"android":"levelo://app?vid=7dd65b1b-fb7b-4087-9803-34d477de11ae","ios":"levelo://app?vid=7dd65b1b-fb7b-4087-9803-34d477de11ae"},"vehicle_type_id":"4","last_reported":1758384636,"current_range_meters":8800,"station_id":"st_cvj6sg6p6f1abm77japg","pricing_plan_id":"cebpf4jnsgd1na2vs0mg"},{"bike_id":"56e2f522-bbbe-4867-b3a5-d4875c818000","system_id":"levelo_inurba_marseille","lat":43.31175,"lon":5.38712,"is_reserved":false,"is_disabled":false,"rental_uris":{"android":"levelo://app?vid=56e2f522-bbbe-4867-b3a5-d4875c818000","ios":"levelo://app?vid=56e2f522-bbbe-4867-b3a5-d4875c818000"},"vehicle_type_id":"4","last_reported":1758384636,"current_range_meters":8800,"station_id":"ce4bgv12rcd13ifvqcp0","pricing_plan_id":"cebpf4jnsgd1na2vs0mg"},{"bike_id":"37e6e080-81a6-4eab-8575-f36033f8e3fc","system_id":"levelo_inurba_marseille","lat":43.29034,"lon":5.37581,"is_reserved":false,"is_disabled":false,"rental_uris":{"android":"levelo://app?vid=37e6e080-81a6-4eab-8575-f36033f8e3fc","ios":"levelo://app?vid=37e6e080-81a6-4eab-8575-f36033f8e3fc"},"vehicle_type_id":"4","last_reported":1758384636,"current_range_meters":8400,"station_id":"ce4bh692rcd13ifvqe90","pricing_plan_id":"cebpf4jnsgd1na2vs0mg"},{"bike_id":"3082f593-a5a6-48f9-afa8-383813f7af0b","system_id":"levelo_inurba_marseille","lat":43.21746,"lon":5.34604,"is_reserved":false,"is_disabled":true,"rental_uris":{"android":"levelo://app?vid=3082f593-a5a6-48f9-afa8-383813f7af0b","ios":"levelo://app?vid=3082f593-a5a6-48f9-afa8-383813f7af0b"},"vehicle_type_id":"4","last_reported":1758384636,"current_range_meters":8800,"station_id":"st_cvj6r9ubvosntc0bgbag","pricing_plan_id":"cebpf4jnsgd1na2vs0mg"},{"bike_id":"16963c12-5290-4aa3-b03c-6ad99fa20bcf","system_id":"levelo_inurba_marseille","lat":43.266807,"lon":5.382671,"is_reserved":false,"is_disabled":false,"rental_uris":{"android":"levelo://app?vid=16963c12-5290-4aa3-b03c-6ad99fa20bcf","ios":"levelo://app?vid=16963c12-5290-4aa3-b03c-6ad99fa20bcf"},"vehicle_type_id":"4","last_reported":1758384636,"current_range_meters":6400,"station_id":"ce4bhg92rcd13ifvqf90","pricing_plan_id":"cebpf4jnsgd1na2vs0mg"},{"bike_id":"79ff97ed-523c-499a-81c0-c504066209ed","system_id":"levelo_inurba_marseille","lat":43.24388,"lon":5.37051,"is_reserved":false,"is_disabled":false,"rental_uris":{"android":"levelo://app?vid=79ff97ed-523c-499a-81c0-c504066209ed","ios":"levelo://app?vid=79ff97ed-523c-499a-81c0-c504066209ed"},"vehicle_type_id":"4","last_reported":1758384636,"current_range_meters":9200,"station_id":"ce4bhhh2rcd13ifvqfk0","pricing_plan_id":"cebpf4jnsgd1na2vs0mg"},{"bike_id":"33d69153-3ab1-466b-9006-3187feb06b56","system_id":"levelo_inurba_marseille","lat":43.21198,"lon":5.35075,"is_reserved":false,"is_disabled":false,"rental_uris":{"android":"levelo://app?vid=33d69153-3ab1-466b-9006-3187feb06b56","ios":"levelo://app?vid=33d69153-3ab1-466b-9006-3187feb06b56"},"vehicle_type_id":"4","last_reported":1758384636,"current_range_meters":9200,"station_id":"st_cvj6sg6p6f1abm77japg","pricing_plan_id":"cebpf4jnsgd1na2vs0mg"},{"bike_id":"8dce0caf-882d-46e1-9cee-df15a74fd5cd","system_id":"levelo_inurba_marseille","lat":43.29925,"lon":5.36541,"is_reserved":false,"is_disabled":false,"rental_uris":{"android":"levelo://app?vid=8dce0caf-882d-46e1-9cee-df15a74fd5cd","ios":"levelo://app?vid=8dce0caf-882d-46e1-9cee-df15a74fd5cd"},"vehicle_type_id":"4","last_reported":1758384636,"current_range_meters":9200,"station_id":"ce4bgm92rcd13ifvqbr0","pricing_plan_id":"cebpf4jnsgd1na2vs0mg"},{"bike_id":"fcb3f6af-c7d4-4ccc-be82-7f951e8865a2","system_id":"levelo_inurba_marseille","lat":43.21192,"lon":5.35085,"is_reserved":false,"is_disabled":false,"rental_uris":{"android":"levelo://app?vid=fcb3f6af-c7d4-4ccc-be82-7f951e8865a2","ios":"levelo://app?vid=fcb3f6af-c7d4-4ccc-be82-7f951e8865a2"},"vehicle_type_id":"4","last_reported":1758384636,"current_range_meters":9600,"station_id":"st_cvj6sg6p6f1abm77japg","pricing_plan_id":"cebpf4jnsgd1na2vs0mg"},{"bike_id":"435e0388-58d6-4f63-a722-7d6b7a20fce0","system_id":"levelo_inurba_marseille","lat":43.29195,"lon":5.39324,"is_reserved":false,"is_disabled":false,"rental_uris":{"android":"levelo://app?vid=435e0388-58d6-4f63-a722-7d6b7a20fce0","ios":"levelo://app?vid=435e0388-58d6-4f63-a722-7d6b7a20fce0"},"vehicle_type_id":"4","last_reported":1758384636,"current_range_meters":9600,"station_id":"ce4bh192rcd13ifvqdd0","pricing_plan_id":"cebpf4jnsgd1na2vs0mg"},{"bike_id":"c06f205f-b149-48e1-af6e-4e386850564e","system_id":"levelo_inurba_marseille","lat":43.24396,"lon":5.37124,"is_reserved":false,"is_disabled":true,"rental_uris":{"android":"levelo://app?vid=c06f205f-b149-48e1-af6e-4e386850564e","ios":"levelo://app?vid=c06f205f-b149-48e1-af6e-4e386850564e"},"vehicle_type_id":"4","last_reported":1758384636,"current_range_meters":9600,"station_id":"ce4bhhh2rcd13ifvqfk0","pricing_plan_id":"cebpf4jnsgd1na2vs0mg"},{"bike_id":"0e7612a4-3b2d-44eb-906b-f4504ffd2a7f","system_id":"levelo_inurba_marseille","lat":43.302432,"lon":5.400695,"is_reserved":false,"is_disabled":true,"rental_uris":{"android":"levelo://app?vid=0e7612a4-3b2d-44eb-906b-f4504ffd2a7f","ios":"levelo://app?vid=0e7612a4-3b2d-44eb-906b-f4504ffd2a7f"},"vehicle_type_id":"4","last_reported":1758384636,"current_range_meters":9600,"station_id":"ce4bgvh2rcd13ifvqcs0","pricing_plan_id":"cebpf4jnsgd1na2vs0mg"},{"bike_id":"250a922f-a980-4f2c-a9ff-88a56e851ad8","system_id":"levelo_inurba_marseille","lat":43.30536,"lon":5.36544,"is_reserved":false,"is_disabled":false,"rental_uris":{"android":"levelo://app?vid=250a922f-a980-4f2c-a9ff-88a56e851ad8","ios":"levelo://app?vid=250a922f-a980-4f2c-a9ff-88a56e851ad8"},"vehicle_type_id":"4","last_reported":1758384636,"current_range_meters":9600,"station_id":"ce4bgs12rcd13ifvqcag","pricing_plan_id":"cebpf4jnsgd1na2vs0mg"},{"bike_id":"16e44d70-4656-4d00-a94d-ec6a58cef2cc","system_id":"levelo_inurba_marseille","lat":43.296848,"lon":5.372796,"is_reserved":false,"is_disabled":false,"rental_uris":{"android":"levelo://app?vid=16e44d70-4656-4d00-a94d-ec6a58cef2cc","ios":"levelo://app?vid=16e44d70-4656-4d00-a94d-ec6a58cef2cc"},"vehicle_type_id":"4","last_reported":1758384636,"current_range_meters":9600,"station_id":"ce4bgk12rcd13ifvqbj0","pricing_plan_id":"cebpf4jnsgd1na2vs0mg"},{"bike_id":"a44c3e96-8b1b-4951-bd8f-9c4966073125","system_id":"levelo_inurba_marseille","lat":43.29578,"lon":5.37518,"is_reserved":false,"is_disabled":false,"rental_uris":{"android":"levelo://app?vid=a44c3e96-8b1b-4951-bd8f-9c4966073125","ios":"levelo://app?vid=a44c3e96-8b1b-4951-bd8f-9c4966073125"},"vehicle_type_id":"4","last_reported":1758384636,"current_range_meters":9600,"station_id":"ce4bgh92rcd13ifvqb50","pricing_plan_id":"cebpf4jnsgd1na2vs0mg"},{"bike_id":"00d8aac7-7eac-4bb0-a929-ae70d9e24cb5","system_id":"levelo_inurba_marseille","lat":43.25495,"lon":5.3765,"is_reserved":false,"is_disabled":false,"rental_uris":{"android":"levelo://app?vid=00d8aac7-7eac-4bb0-a929-ae70d9e24cb5","ios":"levelo://app?vid=00d8aac7-7eac-4bb0-a929-ae70d9e24cb5"},"vehicle_type_id":"4","last_reported":1758384636,"current_range_meters":12800,"station_id":"ce4bhh12rcd13ifvqff0","pricing_plan_id":"cebpf4jnsgd1na2vs0mg"},{"bike_id":"5b84af94-a4d6-4b46-a63f-085ff5681f73","system_id":"levelo_inurba_marseille","lat":43.212,"lon":5.35065,"is_reserved":false,"is_disabled":false,"rental_uris":{"android":"levelo://app?vid=5b84af94-a4d6-4b46-a63f-085ff5681f73","ios":"levelo://app?vid=5b84af94-a4d6-4b46-a63f-085ff5681f73"},"vehicle_type_id":"4","last_reported":1758384636,"current_range_meters":10000,"station_id":"st_cvj6sg6p6f1abm77japg","pricing_plan_id":"cebpf4jnsgd1na2vs0mg"},{"bike_id":"b766d582-d4f0-4f9a-9867-0ae0b8177870","system_id":"levelo_inurba_marseille","lat":43.21192,"lon":5.35076,"is_reserved":false,"is_disabled":false,"rental_uris":{"android":"levelo://app?vid=b766d582-d4f0-4f9a-9867-0ae0b8177870","ios":"levelo://app?vid=b766d582-d4f0-4f9a-9867-0ae0b8177870"},"vehicle_type_id":"4","last_reported":1758384636,"current_range_meters":10000,"station_id":"st_cvj6sg6p6f1abm77japg","pricing_plan_id":"cebpf4jnsgd1na2vs0mg"},{"bike_id":"4da34491-c7bf-458f-8637-96b1be765593","system_id":"levelo_inurba_marseille","lat":43.292657,"lon":5.3722,"is_reserved":false,"is_disabled":false,"rental_uris":{"android":"levelo://app?vid=4da34491-c7bf-458f-8637-96b1be765593","ios":"levelo://app?vid=4da34491-c7bf-458f-8637-96b1be765593"},"vehicle_type_id":"4","last_reported":1758384636,"current_range_meters":10000,"station_id":"ce4bgh92rcd13ifvqb40","pricing_plan_id":"cebpf4jnsgd1na2vs0mg"},{"bike_id":"e6f59a7f-e88f-4d65-bed3-135ed8be6983","system_id":"levelo_inurba_marseille","lat":43.32364,"lon":5.38878,"is_reserved":false,"is_disabled":false,"rental_uris":{"android":"levelo://app?vid=e6f59a7f-e88f-4d65-bed3-135ed8be6983","ios":"levelo://app?vid=e6f59a7f-e88f-4d65-bed3-135ed8be6983"},"vehicle_type_id":"4","last_reported":1758384636,"current_range_meters":10000,"station_id":"ce4bhqp2rcd13ifvqhog","pricing_plan_id":"cebpf4jnsgd1na2vs0mg"},{"bike_id":"484972b1-4c24-4632-a25b-e9139e5874ae","system_id":"levelo_inurba_marseille","lat":43.29579,"lon":5.37518,"is_reserved":false,"is_disabled":false,"rental_uris":{"android":"levelo://app?vid=484972b1-4c24-4632-a25b-e9139e5874ae","ios":"levelo://app?vid=484972b1-4c24-4632-a25b-e9139e5874ae"},"vehicle_type_id":"4","last_reported":1758384636,"current_range_meters":10000,"station_id":"ce4bgh92rcd13ifvqb50","pricing_plan_id":"cebpf4jnsgd1na2vs0mg"},{"bike_id":"617dca4b-4508-4d52-9e62-d583d919ac44","system_id":"levelo_inurba_marseille","lat":43.29742,"lon":5.37096,"is_reserved":false,"is_disabled":false,"rental_uris":{"android":"levelo://app?vid=617dca4b-4508-4d52-9e62-d583d919ac44","ios":"levelo://app?vid=617dca4b-4508-4d52-9e62-d583d919ac44"},"vehicle_type_id":"4","last_reported":1758384636,"current_range_meters":10000,"station_id":"ce4bgop2rcd13ifvqc1g","pricing_plan_id":"cebpf4jnsgd1na2vs0mg"},{"bike_id":"db925381-dc3c-4987-a0d3-b25f70f9d11d","system_id":"levelo_inurba_marseille","lat":43.29794,"lon":5.40397,"is_reserved":false,"is_disabled":false,"rental_uris":{"android":"levelo://app?vid=db925381-dc3c-4987-a0d3-b25f70f9d11d","ios":"levelo://app?vid=db925381-dc3c-4987-a0d3-b25f70f9d11d"},"vehicle_type_id":"4","last_reported":1758384636,"current_range_meters":10000,"station_id":"ce4bh112rcd13ifvqd90","pricing_plan_id":"cebpf4jnsgd1na2vs0mg"},{"bike_id":"6961806a-60b8-47b4-b598-1b2be15d15fc","system_id":"levelo_inurba_marseille","lat":43.28977,"lon":5.3784,"is_reserved":false,"is_disabled":false,"rental_uris":{"android":"levelo://app?vid=6961806a-60b8-47b4-b598-1b2be15d15fc","ios":"levelo://app?vid=6961806a-60b8-47b4-b598-1b2be15d15fc"},"vehicle_type_id":"4","last_reported":1758384636,"current_range_meters":10000,"station_id":"ce4bh9p2rcd13ifvqed0","pricing_plan_id":"cebpf4jnsgd1na2vs0mg"},{"bike_id":"575f379b-682e-45a6-a90b-e2da032a9ae0","system_id":"levelo_inurba_marseille","lat":43.21177,"lon":5.35092,"is_reserved":false,"is_disabled":false,"rental_uris":{"android":"levelo://app?vid=575f379b-682e-45a6-a90b-e2da032a9ae0","ios":"levelo://app?vid=575f379b-682e-45a6-a90b-e2da032a9ae0"},"vehicle_type_id":"4","last_reported":1758384636,"current_range_meters":10000,"station_id":"st_cvj6sg6p6f1abm77japg","pricing_plan_id":"cebpf4jnsgd1na2vs0mg"},{"bike_id":"b77580f2-2757-4ce2-89a7-bf551bfbec7a","system_id":"levelo_inurba_marseille","lat":43.292906,"lon":5.374648,"is_reserved":false,"is_disabled":false,"rental_uris":{"android":"levelo://app?vid=b77580f2-2757-4ce2-89a7-bf551bfbec7a","ios":"levelo://app?vid=b77580f2-2757-4ce2-89a7-bf551bfbec7a"},"vehicle_type_id":"4","last_reported":1758384636,"current_range_meters":10800,"station_id":"","pricing_plan_id":"cebpf4jnsgd1na2vs0mg"},{"bike_id":"86d02cdb-29d9-4ba1-ba4b-4311365242de","system_id":"levelo_inurba_marseille","lat":43.31726,"lon":5.42395,"is_reserved":false,"is_disabled":false,"rental_uris":{"android":"levelo://app?vid=86d02cdb-29d9-4ba1-ba4b-4311365242de","ios":"levelo://app?vid=86d02cdb-29d9-4ba1-ba4b-4311365242de"},"vehicle_type_id":"4","last_reported":1758384636,"current_range_meters":10000,"station_id":"ce4bhp92rcd13ifvqhbg","pricing_plan_id":"cebpf4jnsgd1na2vs0mg"},{"bike_id":"09eb5b50-e64b-4707-91da-066137085bc0","system_id":"levelo_inurba_marseille","lat":43.30535,"lon":5.36559,"is_reserved":false,"is_disabled":false,"rental_uris":{"android":"levelo://app?vid=09eb5b50-e64b-4707-91da-066137085bc0","ios":"levelo://app?vid=09eb5b50-e64b-4707-91da-066137085bc0"},"vehicle_type_id":"4","last_reported":1758384636,"current_range_meters":10800,"station_id":"ce4bgs12rcd13ifvqcag","pricing_plan_id":"cebpf4jnsgd1na2vs0mg"},{"bike_id":"3b50abd9-8f3d-466e-805d-20879e953967","system_id":"levelo_inurba_marseille","lat":43.24084,"lon":5.37754,"is_reserved":false,"is_disabled":false,"rental_uris":{"android":"levelo://app?vid=3b50abd9-8f3d-466e-805d-20879e953967","ios":"levelo://app?vid=3b50abd9-8f3d-466e-805d-20879e953967"},"vehicle_type_id":"4","last_reported":1758384636,"current_range_meters":10800,"station_id":"ce4bhnp2rcd13ifvqgvg","pricing_plan_id":"cebpf4jnsgd1na2vs0mg"},{"bike_id":"32d82af9-1871-4c04-8d7c-ed0d03501e9b","system_id":"levelo_inurba_marseille","lat":43.31274,"lon":5.401715,"is_reserved":false,"is_disabled":false,"rental_uris":{"android":"levelo://app?vid=32d82af9-1871-4c04-8d7c-ed0d03501e9b","ios":"levelo://app?vid=32d82af9-1871-4c04-8d7c-ed0d03501e9b"},"vehicle_type_id":"4","last_reported":1758384636,"current_range_meters":12400,"station_id":"ce4bh092rcd13ifvqd30","pricing_plan_id":"cebpf4jnsgd1na2vs0mg"},{"bike_id":"00050e15-e62f-46dd-a7c0-0153ae0b4be1","system_id":"levelo_inurba_marseille","lat":43.29572,"lon":5.39976,"is_reserved":false,"is_disabled":false,"rental_uris":{"android":"levelo://app?vid=00050e15-e62f-46dd-a7c0-0153ae0b4be1","ios":"levelo://app?vid=00050e15-e62f-46dd-a7c0-0153ae0b4be1"},"vehicle_type_id":"4","last_reported":1758384636,"current_range_meters":11200,"station_id":"ce4bh312rcd13ifvqdj0","pricing_plan_id":"cebpf4jnsgd1na2vs0mg"},{"bike_id":"757a1d80-5ef0-428b-9235-35f505a9cf08","system_id":"levelo_inurba_marseille","lat":43.30419,"lon":5.4128,"is_reserved":false,"is_disabled":false,"rental_uris":{"android":"levelo://app?vid=757a1d80-5ef0-428b-9235-35f505a9cf08","ios":"levelo://app?vid=757a1d80-5ef0-428b-9235-35f505a9cf08"},"vehicle_type_id":"4","last_reported":1758384636,"current_range_meters":10800,"station_id":"ce4bhop2rcd13ifvqh8g","pricing_plan_id":"cebpf4jnsgd1na2vs0mg"},{"bike_id":"6157ca4f-c9d5-475a-99c8-67b2b30d07c1","system_id":"levelo_inurba_marseille","lat":43.30538,"lon":5.36537,"is_reserved":false,"is_disabled":false,"rental_uris":{"android":"levelo://app?vid=6157ca4f-c9d5-475a-99c8-67b2b30d07c1","ios":"levelo://app?vid=6157ca4f-c9d5-475a-99c8-67b2b30d07c1"},"vehicle_type_id":"4","last_reported":1758384636,"current_range_meters":11200,"station_id":"ce4bgs12rcd13ifvqcag","pricing_plan_id":"cebpf4jnsgd1na2vs0mg"},{"bike_id":"c4706891-6ce1-4440-91ff-a3ecf2ff007e","system_id":"levelo_inurba_marseille","lat":43.26374,"lon":5.40075,"is_reserved":false,"is_disabled":false,"rental_uris":{"android":"levelo://app?vid=c4706891-6ce1-4440-91ff-a3ecf2ff007e","ios":"levelo://app?vid=c4706891-6ce1-4440-91ff-a3ecf2ff007e"},"vehicle_type_id":"4","last_reported":1758384636,"current_range_meters":11600,"station_id":"","pricing_plan_id":"cebpf4jnsgd1na2vs0mg"},{"bike_id":"98e8af00-4b83-49fb-a286-0d2396c92bd0","system_id":"levelo_inurba_marseille","lat":43.30898,"lon":5.36856,"is_reserved":false,"is_disabled":true,"rental_uris":{"android":"levelo://app?vid=98e8af00-4b83-49fb-a286-0d2396c92bd0","ios":"levelo://app?vid=98e8af00-4b83-49fb-a286-0d2396c92bd0"},"vehicle_type_id":"4","last_reported":1758384636,"current_range_meters":11600,"station_id":"ce4bgn92rcd13ifvqbvg","pricing_plan_id":"cebpf4jnsgd1na2vs0mg"},{"bike_id":"21100b46-a46f-4dba-8aca-533ef91f921b","system_id":"levelo_inurba_marseille","lat":43.21196,"lon":5.35065,"is_reserved":false,"is_disabled":false,"rental_uris":{"android":"levelo://app?vid=21100b46-a46f-4dba-8aca-533ef91f921b","ios":"levelo://app?vid=21100b46-a46f-4dba-8aca-533ef91f921b"},"vehicle_type_id":"4","last_reported":1758384636,"current_range_meters":11600,"station_id":"st_cvj6sg6p6f1abm77japg","pricing_plan_id":"cebpf4jnsgd1na2vs0mg"},{"bike_id":"05ca0aa0-5596-4971-a0c3-94e65df6bd50","system_id":"levelo_inurba_marseille","lat":43.22556,"lon":5.41622,"is_reserved":false,"is_disabled":false,"rental_uris":{"android":"levelo://app?vid=05ca0aa0-5596-4971-a0c3-94e65df6bd50","ios":"levelo://app?vid=05ca0aa0-5596-4971-a0c3-94e65df6bd50"},"vehicle_type_id":"4","last_reported":1758384636,"current_range_meters":11600,"station_id":"st_d2o4gvlbi1j2169b742g","pricing_plan_id":"cebpf4jnsgd1na2vs0mg"},{"bike_id":"a3f4bb5b-7062-4b21-8f38-a8542f25541e","system_id":"levelo_inurba_marseille","lat":43.27919,"lon":5.39578,"is_reserved":false,"is_disabled":false,"rental_uris":{"android":"levelo://app?vid=a3f4bb5b-7062-4b21-8f38-a8542f25541e","ios":"levelo://app?vid=a3f4bb5b-7062-4b21-8f38-a8542f25541e"},"vehicle_type_id":"4","last_reported":1758384636,"current_range_meters":11600,"station_id":"ce4bhf92rcd13ifvqf40","pricing_plan_id":"cebpf4jnsgd1na2vs0mg"},{"bike_id":"9dda362f-31ca-490a-a5c0-06c09f1dbe36","system_id":"levelo_inurba_marseille","lat":43.23963,"lon":5.36622,"is_reserved":false,"is_disabled":false,"rental_uris":{"android":"levelo://app?vid=9dda362f-31ca-490a-a5c0-06c09f1dbe36","ios":"levelo://app?vid=9dda362f-31ca-490a-a5c0-06c09f1dbe36"},"vehicle_type_id":"4","last_reported":1758384636,"current_range_meters":12000,"station_id":"ce4bhi12rcd13ifvqfp0","pricing_plan_id":"cebpf4jnsgd1na2vs0mg"},{"bike_id":"00edb624-7241-4d20-8767-11409cd558d1","system_id":"levelo_inurba_marseille","lat":43.23192,"lon":5.35553,"is_reserved":false,"is_disabled":false,"rental_uris":{"android":"levelo://app?vid=00edb624-7241-4d20-8767-11409cd558d1","ios":"levelo://app?vid=00edb624-7241-4d20-8767-11409cd558d1"},"vehicle_type_id":"4","last_reported":1758384636,"current_range_meters":12000,"station_id":"ce4bhu92rcd13ifvqi70","pricing_plan_id":"cebpf4jnsgd1na2vs0mg"},{"bike_id":"11f536f5-f858-4572-b106-c5cc3146e3cd","system_id":"levelo_inurba_marseille","lat":43.25337,"lon":5.42171,"is_reserved":false,"is_disabled":false,"rental_uris":{"android":"levelo://app?vid=11f536f5-f858-4572-b106-c5cc3146e3cd","ios":"levelo://app?vid=11f536f5-f858-4572-b106-c5cc3146e3cd"},"vehicle_type_id":"4","last_reported":1758384636,"current_range_meters":12000,"station_id":"st_d2m65c5bi1j21697t3ng","pricing_plan_id":"cebpf4jnsgd1na2vs0mg"},{"bike_id":"b63f64d7-b69c-4beb-8478-932de87b7a46","system_id":"levelo_inurba_marseille","lat":43.2119,"lon":5.35078,"is_reserved":false,"is_disabled":false,"rental_uris":{"android":"levelo://app?vid=b63f64d7-b69c-4beb-8478-932de87b7a46","ios":"levelo://app?vid=b63f64d7-b69c-4beb-8478-932de87b7a46"},"vehicle_type_id":"4","last_reported":1758384636,"current_range_meters":12400,"station_id":"","pricing_plan_id":"cebpf4jnsgd1na2vs0mg"},{"bike_id":"cd0ae379-5b21-41b4-8808-096e8a7761ea","system_id":"levelo_inurba_marseille","lat":43.29275,"lon":5.36842,"is_reserved":false,"is_disabled":false,"rental_uris":{"android":"levelo://app?vid=cd0ae379-5b21-41b4-8808-096e8a7761ea","ios":"levelo://app?vid=cd0ae379-5b21-41b4-8808-096e8a7761ea"},"vehicle_type_id":"4","last_reported":1758384636,"current_range_meters":12400,"station_id":"ce4bhbp2rcd13ifvqesg","pricing_plan_id":"cebpf4jnsgd1na2vs0mg"},{"bike_id":"161b73f1-3b0e-4ae1-a4cc-f38b49a2e583","system_id":"levelo_inurba_marseille","lat":43.23201,"lon":5.35549,"is_reserved":false,"is_disabled":false,"rental_uris":{"android":"levelo://app?vid=161b73f1-3b0e-4ae1-a4cc-f38b49a2e583","ios":"levelo://app?vid=161b73f1-3b0e-4ae1-a4cc-f38b49a2e583"},"vehicle_type_id":"4","last_reported":1758384636,"current_range_meters":12400,"station_id":"ce4bhu92rcd13ifvqi70","pricing_plan_id":"cebpf4jnsgd1na2vs0mg"},{"bike_id":"b357c907-3ee9-4080-95df-e223adffb4df","system_id":"levelo_inurba_marseille","lat":43.29533,"lon":5.38551,"is_reserved":false,"is_disabled":false,"rental_uris":{"android":"levelo://app?vid=b357c907-3ee9-4080-95df-e223adffb4df","ios":"levelo://app?vid=b357c907-3ee9-4080-95df-e223adffb4df"},"vehicle_type_id":"4","last_reported":1758384636,"current_range_meters":12400,"station_id":"ce4bgih2rcd13ifvqba0","pricing_plan_id":"cebpf4jnsgd1na2vs0mg"},{"bike_id":"100fc699-7bc2-45de-9e70-967069e79569","system_id":"levelo_inurba_marseille","lat":43.279411,"lon":5.410441,"is_reserved":false,"is_disabled":false,"rental_uris":{"android":"levelo://app?vid=100fc699-7bc2-45de-9e70-967069e79569","ios":"levelo://app?vid=100fc699-7bc2-45de-9e70-967069e79569"},"vehicle_type_id":"4","last_reported":1758384636,"current_range_meters":12400,"station_id":"ce4bhnp2rcd13ifvqh0g","pricing_plan_id":"cebpf4jnsgd1na2vs0mg"},{"bike_id":"5be64b69-d707-4abf-9434-810dbcb414b9","system_id":"levelo_inurba_marseille","lat":43.30951,"lon":5.39046,"is_reserved":false,"is_disabled":false,"rental_uris":{"android":"levelo://app?vid=5be64b69-d707-4abf-9434-810dbcb414b9","ios":"levelo://app?vid=5be64b69-d707-4abf-9434-810dbcb414b9"},"vehicle_type_id":"4","last_reported":1758384636,"current_range_meters":12000,"station_id":"ce4bgup2rcd13ifvqco0","pricing_plan_id":"cebpf4jnsgd1na2vs0mg"},{"bike_id":"00edb624-7241-4d20-8767-11409cd558d1","system_id":"levelo_inurba_marseille","lat":43.23192,"lon":5.35553,"is_reserved":false,"is_disabled":false,"rental_uris":{"android":"levelo://app?vid=00edb624-7241-4d20-8767-11409cd558d1","ios":"levelo://app?vid=00edb624-7241-4d20-8767-11409cd558d1"},"vehicle_type_id":"4","last_reported":1758384636,"current_range_meters":12000,"station_id":"ce4bhu92rcd13ifvqi70","pricing_plan_id":"cebpf4jnsgd1na2vs0mg"},{"bike_id":"d4b0d41e-6377-4f0d-9d28-41025cb634ce","system_id":"levelo_inurba_marseille","lat":43.295333,"lon":5.385482,"is_reserved":false,"is_disabled":false,"rental_uris":{"android":"levelo://app?vid=d4b0d41e-6377-4f0d-9d28-41025cb634ce","ios":"levelo://app?vid=d4b0d41e-6377-4f0d-9d28-41025cb634ce"},"vehicle_type_id":"4","last_reported":1758384636,"current_range_meters":12000,"station_id":"ce4bgih2rcd13ifvqba0","pricing_plan_id":"cebpf4jnsgd1na2vs0mg"},{"bike_id":"52b5f431-e387-4016-a9e0-232087690347","system_id":"levelo_inurba_marseille","lat":43.2119,"lon":5.3507,"is_reserved":false,"is_disabled":false,"rental_uris":{"android":"levelo://app?vid=52b5f431-e387-4016-a9e0-232087690347","ios":"levelo://app?vid=52b5f431-e387-4016-a9e0-232087690347"},"vehicle_type_id":"4","last_reported":1758384636,"current_range_meters":12400,"station_id":"st_cvj6sg6p6f1abm77japg","pricing_plan_id":"cebpf4jnsgd1na2vs0mg"},{"bike_id":"7fb58d99-54fa-4834-9399-d93d773fcc6f","system_id":"levelo_inurba_marseille","lat":43.21186,"lon":5.35076,"is_reserved":false,"is_disabled":false,"rental_uris":{"android":"levelo://app?vid=7fb58d99-54fa-4834-9399-d93d773fcc6f","ios":"levelo://app?vid=7fb58d99-54fa-4834-9399-d93d773fcc6f"},"vehicle_type_id":"4","last_reported":1758384636,"current_range_meters":12400,"station_id":"st_cvj6sg6p6f1abm77japg","pricing_plan_id":"cebpf4jnsgd1na2vs0mg"},{"bike_id":"d5e31001-214c-4203-b2ad-78b503011d6a","system_id":"levelo_inurba_marseille","lat":43.23189,"lon":5.35558,"is_reserved":false,"is_disabled":false,"rental_uris":{"android":"levelo://app?vid=d5e31001-214c-4203-b2ad-78b503011d6a","ios":"levelo://app?vid=d5e31001-214c-4203-b2ad-78b503011d6a"},"vehicle_type_id":"4","last_reported":1758384636,"current_range_meters":12400,"station_id":"ce4bhu92rcd13ifvqi70","pricing_plan_id":"cebpf4jnsgd1na2vs0mg"},{"bike_id":"1c184486-5df7-4033-bfa8-af74c49cbd92","system_id":"levelo_inurba_marseille","lat":43.23201,"lon":5.35557,"is_reserved":false,"is_disabled":false,"rental_uris":{"android":"levelo://app?vid=1c184486-5df7-4033-bfa8-af74c49cbd92","ios":"levelo://app?vid=1c184486-5df7-4033-bfa8-af74c49cbd92"},"vehicle_type_id":"4","last_reported":1758384636,"current_range_meters":12400,"station_id":"ce4bhu92rcd13ifvqi70","pricing_plan_id":"cebpf4jnsgd1na2vs0mg"},{"bike_id":"0d4511f6-72a6-4d8b-aebd-ffafb3cf934c","system_id":"levelo_inurba_marseille","lat":43.24171,"lon":5.36401,"is_reserved":false,"is_disabled":false,"rental_uris":{"android":"levelo://app?vid=0d4511f6-72a6-4d8b-aebd-ffafb3cf934c","ios":"levelo://app?vid=0d4511f6-72a6-4d8b-aebd-ffafb3cf934c"},"vehicle_type_id":"4","last_reported":1758384636,"current_range_meters":12800,"station_id":"cpo36qri1sfpv3e86is0","pricing_plan_id":"cebpf4jnsgd1na2vs0mg"},{"bike_id":"035be1b5-37eb-4ce0-af39-f012d6e605bd","system_id":"levelo_inurba_marseille","lat":43.24168,"lon":5.364,"is_reserved":false,"is_disabled":false,"rental_uris":{"android":"levelo://app?vid=035be1b5-37eb-4ce0-af39-f012d6e605bd","ios":"levelo://app?vid=035be1b5-37eb-4ce0-af39-f012d6e605bd"},"vehicle_type_id":"4","last_reported":1758384636,"current_range_meters":12800,"station_id":"cpo36qri1sfpv3e86is0","pricing_plan_id":"cebpf4jnsgd1na2vs0mg"},{"bike_id":"2177c49e-6f31-470d-86af-c63bb9a4bb24","system_id":"levelo_inurba_marseille","lat":43.29573,"lon":5.37512,"is_reserved":false,"is_disabled":false,"rental_uris":{"android":"levelo://app?vid=2177c49e-6f31-470d-86af-c63bb9a4bb24","ios":"levelo://app?vid=2177c49e-6f31-470d-86af-c63bb9a4bb24"},"vehicle_type_id":"4","last_reported":1758384636,"current_range_meters":12800,"station_id":"ce4bgh92rcd13ifvqb50","pricing_plan_id":"cebpf4jnsgd1na2vs0mg"},{"bike_id":"db65a355-3a39-4cd0-9cca-3cdd8dbf9f72","system_id":"levelo_inurba_marseille","lat":43.29033,"lon":5.3865,"is_reserved":false,"is_disabled":false,"rental_uris":{"android":"levelo://app?vid=db65a355-3a39-4cd0-9cca-3cdd8dbf9f72","ios":"levelo://app?vid=db65a355-3a39-4cd0-9cca-3cdd8dbf9f72"},"vehicle_type_id":"4","last_reported":1758384636,"current_range_meters":12800,"station_id":"ce4bh4p2rcd13ifvqe0g","pricing_plan_id":"cebpf4jnsgd1na2vs0mg"},{"bike_id":"d403b2f2-f869-4a83-a470-dec41196bdc3","system_id":"levelo_inurba_marseille","lat":43.32368,"lon":5.38884,"is_reserved":false,"is_disabled":false,"rental_uris":{"android":"levelo://app?vid=d403b2f2-f869-4a83-a470-dec41196bdc3","ios":"levelo://app?vid=d403b2f2-f869-4a83-a470-dec41196bdc3"},"vehicle_type_id":"4","last_reported":1758384636,"current_range_meters":12800,"station_id":"ce4bhqp2rcd13ifvqhog","pricing_plan_id":"cebpf4jnsgd1na2vs0mg"},{"bike_id":"2a00cb84-e9e6-4781-804d-0494d7480777","system_id":"levelo_inurba_marseille","lat":43.2256,"lon":5.4161,"is_reserved":false,"is_disabled":false,"rental_uris":{"android":"levelo://app?vid=2a00cb84-e9e6-4781-804d-0494d7480777","ios":"levelo://app?vid=2a00cb84-e9e6-4781-804d-0494d7480777"},"vehicle_type_id":"4","last_reported":1758384636,"current_range_meters":13600,"station_id":"st_d2o4gvlbi1j2169b742g","pricing_plan_id":"cebpf4jnsgd1na2vs0mg"},{"bike_id":"213f818a-2fc2-423a-8734-2921a1895f7c","system_id":"levelo_inurba_marseille","lat":43.21197,"lon":5.35086,"is_reserved":false,"is_disabled":false,"rental_uris":{"android":"levelo://app?vid=213f818a-2fc2-423a-8734-2921a1895f7c","ios":"levelo://app?vid=213f818a-2fc2-423a-8734-2921a1895f7c"},"vehicle_type_id":"4","last_reported":1758384636,"current_range_meters":13600,"station_id":"st_cvj6sg6p6f1abm77japg","pricing_plan_id":"cebpf4jnsgd1na2vs0mg"},{"bike_id":"56177aef-54ed-48c1-9927-d24db7b9a432","system_id":"levelo_inurba_marseille","lat":43.30465,"lon":5.37912,"is_reserved":false,"is_disabled":false,"rental_uris":{"android":"levelo://app?vid=56177aef-54ed-48c1-9927-d24db7b9a432","ios":"levelo://app?vid=56177aef-54ed-48c1-9927-d24db7b9a432"},"vehicle_type_id":"4","last_reported":1758384636,"current_range_meters":13600,"station_id":"ce4bgup2rcd13ifvqcn0","pricing_plan_id":"cebpf4jnsgd1na2vs0mg"},{"bike_id":"70be9764-0cb7-45ea-8d0b-cdd2fb921eec","system_id":"levelo_inurba_marseille","lat":43.255,"lon":5.37651,"is_reserved":false,"is_disabled":false,"rental_uris":{"android":"levelo://app?vid=70be9764-0cb7-45ea-8d0b-cdd2fb921eec","ios":"levelo://app?vid=70be9764-0cb7-45ea-8d0b-cdd2fb921eec"},"vehicle_type_id":"4","last_reported":1758384636,"current_range_meters":13600,"station_id":"ce4bhh12rcd13ifvqff0","pricing_plan_id":"cebpf4jnsgd1na2vs0mg"},{"bike_id":"5fc88f18-6823-4c47-959b-04c2de15d324","system_id":"levelo_inurba_marseille","lat":43.2969,"lon":5.37309,"is_reserved":false,"is_disabled":false,"rental_uris":{"android":"levelo://app?vid=5fc88f18-6823-4c47-959b-04c2de15d324","ios":"levelo://app?vid=5fc88f18-6823-4c47-959b-04c2de15d324"},"vehicle_type_id":"4","last_reported":1758384636,"current_range_meters":12800,"station_id":"ce4bgk12rcd13ifvqbj0","pricing_plan_id":"cebpf4jnsgd1na2vs0mg"},{"bike_id":"f483fc73-4248-480f-be97-ba90423161b3","system_id":"levelo_inurba_marseille","lat":43.29201,"lon":5.39328,"is_reserved":false,"is_disabled":false,"rental_uris":{"android":"levelo://app?vid=f483fc73-4248-480f-be97-ba90423161b3","ios":"levelo://app?vid=f483fc73-4248-480f-be97-ba90423161b3"},"vehicle_type_id":"4","last_reported":1758384636,"current_range_meters":13600,"station_id":"ce4bh192rcd13ifvqdd0","pricing_plan_id":"cebpf4jnsgd1na2vs0mg"},{"bike_id":"c1843d42-9f15-4235-8c7f-0c60147cb155","system_id":"levelo_inurba_marseille","lat":43.21194,"lon":5.3508,"is_reserved":false,"is_disabled":false,"rental_uris":{"android":"levelo://app?vid=c1843d42-9f15-4235-8c7f-0c60147cb155","ios":"levelo://app?vid=c1843d42-9f15-4235-8c7f-0c60147cb155"},"vehicle_type_id":"4","last_reported":1758384636,"current_range_meters":13600,"station_id":"st_cvj6sg6p6f1abm77japg","pricing_plan_id":"cebpf4jnsgd1na2vs0mg"},{"bike_id":"438ead59-de14-4fa0-a61d-03a70a4122ae","system_id":"levelo_inurba_marseille","lat":43.97269,"lon":4.89149,"is_reserved":false,"is_disabled":true,"rental_uris":{"android":"levelo://app?vid=438ead59-de14-4fa0-a61d-03a70a4122ae","ios":"levelo://app?vid=438ead59-de14-4fa0-a61d-03a70a4122ae"},"vehicle_type_id":"4","last_reported":1758384636,"current_range_meters":13600,"station_id":"","pricing_plan_id":"cebpf4jnsgd1na2vs0mg"},{"bike_id":"36e133c0-33e2-4c6c-8ae5-933914b7bfb4","system_id":"levelo_inurba_marseille","lat":43.2953,"lon":5.38543,"is_reserved":false,"is_disabled":false,"rental_uris":{"android":"levelo://app?vid=36e133c0-33e2-4c6c-8ae5-933914b7bfb4","ios":"levelo://app?vid=36e133c0-33e2-4c6c-8ae5-933914b7bfb4"},"vehicle_type_id":"4","last_reported":1758384636,"current_range_meters":14000,"station_id":"ce4bgih2rcd13ifvqba0","pricing_plan_id":"cebpf4jnsgd1na2vs0mg"},{"bike_id":"0f7caa9f-1d1a-40d7-9b4a-2f8720e63681","system_id":"levelo_inurba_marseille","lat":43.30868,"lon":5.37542,"is_reserved":false,"is_disabled":false,"rental_uris":{"android":"levelo://app?vid=0f7caa9f-1d1a-40d7-9b4a-2f8720e63681","ios":"levelo://app?vid=0f7caa9f-1d1a-40d7-9b4a-2f8720e63681"},"vehicle_type_id":"4","last_reported":1758384636,"current_range_meters":14000,"station_id":"","pricing_plan_id":"cebpf4jnsgd1na2vs0mg"},{"bike_id":"c0d84852-7c77-4a41-a34a-3a121dcda733","system_id":"levelo_inurba_marseille","lat":43.28858,"lon":5.35851,"is_reserved":false,"is_disabled":false,"rental_uris":{"android":"levelo://app?vid=c0d84852-7c77-4a41-a34a-3a121dcda733","ios":"levelo://app?vid=c0d84852-7c77-4a41-a34a-3a121dcda733"},"vehicle_type_id":"4","last_reported":1758384636,"current_range_meters":14000,"station_id":"ce4bhb12rcd13ifvqem0","pricing_plan_id":"cebpf4jnsgd1na2vs0mg"},{"bike_id":"f752aa8c-ed7e-4239-b71e-771a2a3cec1e","system_id":"levelo_inurba_marseille","lat":43.21189,"lon":5.35067,"is_reserved":false,"is_disabled":false,"rental_uris":{"android":"levelo://app?vid=f752aa8c-ed7e-4239-b71e-771a2a3cec1e","ios":"levelo://app?vid=f752aa8c-ed7e-4239-b71e-771a2a3cec1e"},"vehicle_type_id":"4","last_reported":1758384636,"current_range_meters":14000,"station_id":"st_cvj6sg6p6f1abm77japg","pricing_plan_id":"cebpf4jnsgd1na2vs0mg"},{"bike_id":"55d1bc08-fd54-4a82-afc7-2adcaa7b1c4e","system_id":"levelo_inurba_marseille","lat":43.30034,"lon":5.37691,"is_reserved":false,"is_disabled":false,"rental_uris":{"android":"levelo://app?vid=55d1bc08-fd54-4a82-afc7-2adcaa7b1c4e","ios":"levelo://app?vid=55d1bc08-fd54-4a82-afc7-2adcaa7b1c4e"},"vehicle_type_id":"4","last_reported":1758384636,"current_range_meters":14000,"station_id":"","pricing_plan_id":"cebpf4jnsgd1na2vs0mg"},{"bike_id":"2d82061a-a240-43d1-93a6-ab71cf777b3c","system_id":"levelo_inurba_marseille","lat":43.21193,"lon":5.35076,"is_reserved":false,"is_disabled":false,"rental_uris":{"android":"levelo://app?vid=2d82061a-a240-43d1-93a6-ab71cf777b3c","ios":"levelo://app?vid=2d82061a-a240-43d1-93a6-ab71cf777b3c"},"vehicle_type_id":"4","last_reported":1758384636,"current_range_meters":14000,"station_id":"st_cvj6sg6p6f1abm77japg","pricing_plan_id":"cebpf4jnsgd1na2vs0mg"},{"bike_id":"3ddd109f-6940-4f22-9160-786f75d3c0db","system_id":"levelo_inurba_marseille","lat":43.24182,"lon":5.36364,"is_reserved":false,"is_disabled":false,"rental_uris":{"android":"levelo://app?vid=3ddd109f-6940-4f22-9160-786f75d3c0db","ios":"levelo://app?vid=3ddd109f-6940-4f22-9160-786f75d3c0db"},"vehicle_type_id":"4","last_reported":1758384636,"current_range_meters":14000,"station_id":"cpo36qri1sfpv3e86is0","pricing_plan_id":"cebpf4jnsgd1na2vs0mg"},{"bike_id":"a07a513e-e5a9-4481-8592-d991379bc662","system_id":"levelo_inurba_marseille","lat":43.337536,"lon":5.374536,"is_reserved":false,"is_disabled":false,"rental_uris":{"android":"levelo://app?vid=a07a513e-e5a9-4481-8592-d991379bc662","ios":"levelo://app?vid=a07a513e-e5a9-4481-8592-d991379bc662"},"vehicle_type_id":"4","last_reported":1758384636,"current_range_meters":14000,"station_id":"","pricing_plan_id":"cebpf4jnsgd1na2vs0mg"},{"bike_id":"18d275b9-91ba-40b8-9085-12833ff2cf0a","system_id":"levelo_inurba_marseille","lat":43.29571,"lon":5.37479,"is_reserved":false,"is_disabled":false,"rental_uris":{"android":"levelo://app?vid=18d275b9-91ba-40b8-9085-12833ff2cf0a","ios":"levelo://app?vid=18d275b9-91ba-40b8-9085-12833ff2cf0a"},"vehicle_type_id":"4","last_reported":1758384636,"current_range_meters":14400,"station_id":"ce4bgh92rcd13ifvqb50","pricing_plan_id":"cebpf4jnsgd1na2vs0mg"},{"bike_id":"ca4a38fa-bdba-4f13-b70c-9ea8e36e9975","system_id":"levelo_inurba_marseille","lat":43.296227,"lon":5.371477,"is_reserved":false,"is_disabled":false,"rental_uris":{"android":"levelo://app?vid=ca4a38fa-bdba-4f13-b70c-9ea8e36e9975","ios":"levelo://app?vid=ca4a38fa-bdba-4f13-b70c-9ea8e36e9975"},"vehicle_type_id":"4","last_reported":1758384636,"current_range_meters":14400,"station_id":"ce4bgnh2rcd13ifvqc0g","pricing_plan_id":"cebpf4jnsgd1na2vs0mg"},{"bike_id":"97893650-9a0c-47e4-baee-ec60bbc1b06d","system_id":"levelo_inurba_marseille","lat":43.25718,"lon":5.41113,"is_reserved":false,"is_disabled":true,"rental_uris":{"android":"levelo://app?vid=97893650-9a0c-47e4-baee-ec60bbc1b06d","ios":"levelo://app?vid=97893650-9a0c-47e4-baee-ec60bbc1b06d"},"vehicle_type_id":"4","last_reported":1758384636,"current_range_meters":14400,"station_id":"ce4bhkp2rcd13ifvqgd0","pricing_plan_id":"cebpf4jnsgd1na2vs0mg"},{"bike_id":"d0665e4f-00da-46e5-b2cc-396a4c65bcca","system_id":"levelo_inurba_marseille","lat":43.23189,"lon":5.35545,"is_reserved":false,"is_disabled":false,"rental_uris":{"android":"levelo://app?vid=d0665e4f-00da-46e5-b2cc-396a4c65bcca","ios":"levelo://app?vid=d0665e4f-00da-46e5-b2cc-396a4c65bcca"},"vehicle_type_id":"4","last_reported":1758384636,"current_range_meters":14400,"station_id":"ce4bhu92rcd13ifvqi70","pricing_plan_id":"cebpf4jnsgd1na2vs0mg"},{"bike_id":"09b9cae1-e5f7-46a0-a57e-b259018cc30f","system_id":"levelo_inurba_marseille","lat":43.31217,"lon":5.36856,"is_reserved":false,"is_disabled":false,"rental_uris":{"android":"levelo://app?vid=09b9cae1-e5f7-46a0-a57e-b259018cc30f","ios":"levelo://app?vid=09b9cae1-e5f7-46a0-a57e-b259018cc30f"},"vehicle_type_id":"4","last_reported":1758384636,"current_range_meters":14000,"station_id":"ce4bgl92rcd13ifvqbq0","pricing_plan_id":"cebpf4jnsgd1na2vs0mg"},{"bike_id":"2015c1f2-c286-408a-b930-50d865ce0bb9","system_id":"levelo_inurba_marseille","lat":43.21165,"lon":5.35078,"is_reserved":false,"is_disabled":false,"rental_uris":{"android":"levelo://app?vid=2015c1f2-c286-408a-b930-50d865ce0bb9","ios":"levelo://app?vid=2015c1f2-c286-408a-b930-50d865ce0bb9"},"vehicle_type_id":"4","last_reported":1758384636,"current_range_meters":14400,"station_id":"st_cvj6sg6p6f1abm77japg","pricing_plan_id":"cebpf4jnsgd1na2vs0mg"},{"bike_id":"ac4192fe-ff51-4094-abc4-bf95f9a77832","system_id":"levelo_inurba_marseille","lat":43.2996,"lon":5.41324,"is_reserved":false,"is_disabled":false,"rental_uris":{"android":"levelo://app?vid=ac4192fe-ff51-4094-abc4-bf95f9a77832","ios":"levelo://app?vid=ac4192fe-ff51-4094-abc4-bf95f9a77832"},"vehicle_type_id":"4","last_reported":1758384636,"current_range_meters":14400,"station_id":"ce4bhp12rcd13ifvqh9g","pricing_plan_id":"cebpf4jnsgd1na2vs0mg"},{"bike_id":"7e975dd6-3305-4242-b876-a5c89e47261f","system_id":"levelo_inurba_marseille","lat":43.23961,"lon":5.36615,"is_reserved":false,"is_disabled":false,"rental_uris":{"android":"levelo://app?vid=7e975dd6-3305-4242-b876-a5c89e47261f","ios":"levelo://app?vid=7e975dd6-3305-4242-b876-a5c89e47261f"},"vehicle_type_id":"4","last_reported":1758384636,"current_range_meters":14800,"station_id":"ce4bhi12rcd13ifvqfp0","pricing_plan_id":"cebpf4jnsgd1na2vs0mg"},{"bike_id":"8f90c6e9-c2a0-414b-a280-ed01b517d1e8","system_id":"levelo_inurba_marseille","lat":43.21198,"lon":5.35063,"is_reserved":false,"is_disabled":false,"rental_uris":{"android":"levelo://app?vid=8f90c6e9-c2a0-414b-a280-ed01b517d1e8","ios":"levelo://app?vid=8f90c6e9-c2a0-414b-a280-ed01b517d1e8"},"vehicle_type_id":"4","last_reported":1758384636,"current_range_meters":14800,"station_id":"st_cvj6sg6p6f1abm77japg","pricing_plan_id":"cebpf4jnsgd1na2vs0mg"},{"bike_id":"dd921819-adff-43ba-bd32-f6c51daef0e0","system_id":"levelo_inurba_marseille","lat":43.2657,"lon":5.39013,"is_reserved":false,"is_disabled":false,"rental_uris":{"android":"levelo://app?vid=dd921819-adff-43ba-bd32-f6c51daef0e0","ios":"levelo://app?vid=dd921819-adff-43ba-bd32-f6c51daef0e0"},"vehicle_type_id":"4","last_reported":1758384636,"current_range_meters":14800,"station_id":"ce4bhe12rcd13ifvqf30","pricing_plan_id":"cebpf4jnsgd1na2vs0mg"},{"bike_id":"ee6d0940-1dc3-470c-8280-f336617079e2","system_id":"levelo_inurba_marseille","lat":43.23063,"lon":5.35495,"is_reserved":false,"is_disabled":false,"rental_uris":{"android":"levelo://app?vid=ee6d0940-1dc3-470c-8280-f336617079e2","ios":"levelo://app?vid=ee6d0940-1dc3-470c-8280-f336617079e2"},"vehicle_type_id":"4","last_reported":1758384636,"current_range_meters":15200,"station_id":"cpo3342slgdg3j2ifvpg","pricing_plan_id":"cebpf4jnsgd1na2vs0mg"},{"bike_id":"68adab37-f5ad-4072-b58a-fe6c68285ca6","system_id":"levelo_inurba_marseille","lat":43.30627,"lon":5.37672,"is_reserved":false,"is_disabled":false,"rental_uris":{"android":"levelo://app?vid=68adab37-f5ad-4072-b58a-fe6c68285ca6","ios":"levelo://app?vid=68adab37-f5ad-4072-b58a-fe6c68285ca6"},"vehicle_type_id":"4","last_reported":1758384636,"current_range_meters":15200,"station_id":"","pricing_plan_id":"cebpf4jnsgd1na2vs0mg"},{"bike_id":"cb94f6fb-c6b1-4767-8172-43052216677a","system_id":"levelo_inurba_marseille","lat":43.307678,"lon":5.372462,"is_reserved":false,"is_disabled":false,"rental_uris":{"android":"levelo://app?vid=cb94f6fb-c6b1-4767-8172-43052216677a","ios":"levelo://app?vid=cb94f6fb-c6b1-4767-8172-43052216677a"},"vehicle_type_id":"4","last_reported":1758384636,"current_range_meters":15200,"station_id":"ce4bguh2rcd13ifvqckg","pricing_plan_id":"cebpf4jnsgd1na2vs0mg"},{"bike_id":"534ff5b4-9e83-493b-9063-104ef0af4212","system_id":"levelo_inurba_marseille","lat":43.28003,"lon":5.41649,"is_reserved":false,"is_disabled":true,"rental_uris":{"android":"levelo://app?vid=534ff5b4-9e83-493b-9063-104ef0af4212","ios":"levelo://app?vid=534ff5b4-9e83-493b-9063-104ef0af4212"},"vehicle_type_id":"4","last_reported":1758384636,"current_range_meters":15200,"station_id":"ce4bho12rcd13ifvqh1g","pricing_plan_id":"cebpf4jnsgd1na2vs0mg"},{"bike_id":"87ec7018-a1f0-4cb9-b200-64c1653757e0","system_id":"levelo_inurba_marseille","lat":43.29032,"lon":5.38128,"is_reserved":false,"is_disabled":false,"rental_uris":{"android":"levelo://app?vid=87ec7018-a1f0-4cb9-b200-64c1653757e0","ios":"levelo://app?vid=87ec7018-a1f0-4cb9-b200-64c1653757e0"},"vehicle_type_id":"4","last_reported":1758384636,"current_range_meters":16400,"station_id":"ce4bh4p2rcd13ifvqe1g","pricing_plan_id":"cebpf4jnsgd1na2vs0mg"},{"bike_id":"60a5e849-0cc3-4075-b987-ee2dd7c93ce3","system_id":"levelo_inurba_marseille","lat":43.2119,"lon":5.35076,"is_reserved":false,"is_disabled":false,"rental_uris":{"android":"levelo://app?vid=60a5e849-0cc3-4075-b987-ee2dd7c93ce3","ios":"levelo://app?vid=60a5e849-0cc3-4075-b987-ee2dd7c93ce3"},"vehicle_type_id":"4","last_reported":1758384636,"current_range_meters":16000,"station_id":"st_cvj6sg6p6f1abm77japg","pricing_plan_id":"cebpf4jnsgd1na2vs0mg"},{"bike_id":"97514a44-1f4d-4ae1-a270-04ca7b75c621","system_id":"levelo_inurba_marseille","lat":43.28871,"lon":5.42528,"is_reserved":false,"is_disabled":false,"rental_uris":{"android":"levelo://app?vid=97514a44-1f4d-4ae1-a270-04ca7b75c621","ios":"levelo://app?vid=97514a44-1f4d-4ae1-a270-04ca7b75c621"},"vehicle_type_id":"4","last_reported":1758384636,"current_range_meters":16000,"station_id":"","pricing_plan_id":"cebpf4jnsgd1na2vs0mg"},{"bike_id":"ca82bcbd-3e2b-41b3-b731-7fa354ae768f","system_id":"levelo_inurba_marseille","lat":43.29366,"lon":5.37838,"is_reserved":false,"is_disabled":false,"rental_uris":{"android":"levelo://app?vid=ca82bcbd-3e2b-41b3-b731-7fa354ae768f","ios":"levelo://app?vid=ca82bcbd-3e2b-41b3-b731-7fa354ae768f"},"vehicle_type_id":"4","last_reported":1758384636,"current_range_meters":16000,"station_id":"ce4bgjh2rcd13ifvqbf0","pricing_plan_id":"cebpf4jnsgd1na2vs0mg"},{"bike_id":"9637c146-59d7-436a-a4f3-e8022fe36949","system_id":"levelo_inurba_marseille","lat":43.21192,"lon":5.35069,"is_reserved":false,"is_disabled":false,"rental_uris":{"android":"levelo://app?vid=9637c146-59d7-436a-a4f3-e8022fe36949","ios":"levelo://app?vid=9637c146-59d7-436a-a4f3-e8022fe36949"},"vehicle_type_id":"4","last_reported":1758384636,"current_range_meters":16000,"station_id":"st_cvj6sg6p6f1abm77japg","pricing_plan_id":"cebpf4jnsgd1na2vs0mg"},{"bike_id":"5319fae8-be79-4d87-b5d0-b333eba32d6a","system_id":"levelo_inurba_marseille","lat":43.21164,"lon":5.35098,"is_reserved":false,"is_disabled":false,"rental_uris":{"android":"levelo://app?vid=5319fae8-be79-4d87-b5d0-b333eba32d6a","ios":"levelo://app?vid=5319fae8-be79-4d87-b5d0-b333eba32d6a"},"vehicle_type_id":"4","last_reported":1758384636,"current_range_meters":16000,"station_id":"st_cvj6sg6p6f1abm77japg","pricing_plan_id":"cebpf4jnsgd1na2vs0mg"},{"bike_id":"8171bb39-1823-4beb-9d0f-da3a0a84e3df","system_id":"levelo_inurba_marseille","lat":43.23056,"lon":5.35507,"is_reserved":false,"is_disabled":false,"rental_uris":{"android":"levelo://app?vid=8171bb39-1823-4beb-9d0f-da3a0a84e3df","ios":"levelo://app?vid=8171bb39-1823-4beb-9d0f-da3a0a84e3df"},"vehicle_type_id":"4","last_reported":1758384636,"current_range_meters":16000,"station_id":"cpo3342slgdg3j2ifvpg","pricing_plan_id":"cebpf4jnsgd1na2vs0mg"},{"bike_id":"f2dee12c-938d-4399-975f-2f3d524b8a48","system_id":"levelo_inurba_marseille","lat":43.29579,"lon":5.3674,"is_reserved":false,"is_disabled":false,"rental_uris":{"android":"levelo://app?vid=f2dee12c-938d-4399-975f-2f3d524b8a48","ios":"levelo://app?vid=f2dee12c-938d-4399-975f-2f3d524b8a48"},"vehicle_type_id":"4","last_reported":1758384636,"current_range_meters":15200,"station_id":"ce4bgph2rcd13ifvqc2g","pricing_plan_id":"cebpf4jnsgd1na2vs0mg"},{"bike_id":"a3797e3d-07a3-441c-8434-4c614eae3326","system_id":"levelo_inurba_marseille","lat":43.25523,"lon":5.3762,"is_reserved":false,"is_disabled":false,"rental_uris":{"android":"levelo://app?vid=a3797e3d-07a3-441c-8434-4c614eae3326","ios":"levelo://app?vid=a3797e3d-07a3-441c-8434-4c614eae3326"},"vehicle_type_id":"4","last_reported":1758384636,"current_range_meters":16000,"station_id":"ce4bhh12rcd13ifvqff0","pricing_plan_id":"cebpf4jnsgd1na2vs0mg"},{"bike_id":"43d57fd4-047e-4ac8-97e5-ec9b96239472","system_id":"levelo_inurba_marseille","lat":43.33096,"lon":5.39537,"is_reserved":false,"is_disabled":false,"rental_uris":{"android":"levelo://app?vid=43d57fd4-047e-4ac8-97e5-ec9b96239472","ios":"levelo://app?vid=43d57fd4-047e-4ac8-97e5-ec9b96239472"},"vehicle_type_id":"4","last_reported":1758384636,"current_range_meters":16000,"station_id":"","pricing_plan_id":"cebpf4jnsgd1na2vs0mg"},{"bike_id":"c9c038e2-6ff3-4dc3-8b34-aafe84da64db","system_id":"levelo_inurba_marseille","lat":43.28943,"lon":5.36647,"is_reserved":false,"is_disabled":false,"rental_uris":{"android":"levelo://app?vid=c9c038e2-6ff3-4dc3-8b34-aafe84da64db","ios":"levelo://app?vid=c9c038e2-6ff3-4dc3-8b34-aafe84da64db"},"vehicle_type_id":"4","last_reported":1758384636,"current_range_meters":16000,"station_id":"ce4bhap2rcd13ifvqek0","pricing_plan_id":"cebpf4jnsgd1na2vs0mg"},{"bike_id":"ad3b9a79-2fea-4743-a6da-194a3004707a","system_id":"levelo_inurba_marseille","lat":43.29376,"lon":5.37855,"is_reserved":false,"is_disabled":true,"rental_uris":{"android":"levelo://app?vid=ad3b9a79-2fea-4743-a6da-194a3004707a","ios":"levelo://app?vid=ad3b9a79-2fea-4743-a6da-194a3004707a"},"vehicle_type_id":"4","last_reported":1758384636,"current_range_meters":16000,"station_id":"ce4bgjh2rcd13ifvqbf0","pricing_plan_id":"cebpf4jnsgd1na2vs0mg"},{"bike_id":"d801b961-8b0f-429d-9d3e-817010448aec","system_id":"levelo_inurba_marseille","lat":43.337632,"lon":5.374376,"is_reserved":false,"is_disabled":false,"rental_uris":{"android":"levelo://app?vid=d801b961-8b0f-429d-9d3e-817010448aec","ios":"levelo://app?vid=d801b961-8b0f-429d-9d3e-817010448aec"},"vehicle_type_id":"4","last_reported":1758384636,"current_range_meters":16400,"station_id":"","pricing_plan_id":"cebpf4jnsgd1na2vs0mg"},{"bike_id":"118b6d7e-3328-44e2-ae13-d04071b8c00f","system_id":"levelo_inurba_marseille","lat":43.21189,"lon":5.35076,"is_reserved":false,"is_disabled":false,"rental_uris":{"android":"levelo://app?vid=118b6d7e-3328-44e2-ae13-d04071b8c00f","ios":"levelo://app?vid=118b6d7e-3328-44e2-ae13-d04071b8c00f"},"vehicle_type_id":"4","last_reported":1758384636,"current_range_meters":16400,"station_id":"st_cvj6sg6p6f1abm77japg","pricing_plan_id":"cebpf4jnsgd1na2vs0mg"},{"bike_id":"5ef819c2-54a4-470a-86c3-fbfeea8f48c7","system_id":"levelo_inurba_marseille","lat":43.28941,"lon":5.36651,"is_reserved":false,"is_disabled":false,"rental_uris":{"android":"levelo://app?vid=5ef819c2-54a4-470a-86c3-fbfeea8f48c7","ios":"levelo://app?vid=5ef819c2-54a4-470a-86c3-fbfeea8f48c7"},"vehicle_type_id":"4","last_reported":1758384636,"current_range_meters":16400,"station_id":"ce4bhap2rcd13ifvqek0","pricing_plan_id":"cebpf4jnsgd1na2vs0mg"},{"bike_id":"8c98f7a3-22ae-457d-8ebf-2fdf0fc7f698","system_id":"levelo_inurba_marseille","lat":43.23065,"lon":5.35488,"is_reserved":false,"is_disabled":false,"rental_uris":{"android":"levelo://app?vid=8c98f7a3-22ae-457d-8ebf-2fdf0fc7f698","ios":"levelo://app?vid=8c98f7a3-22ae-457d-8ebf-2fdf0fc7f698"},"vehicle_type_id":"4","last_reported":1758384636,"current_range_meters":16400,"station_id":"cpo3342slgdg3j2ifvpg","pricing_plan_id":"cebpf4jnsgd1na2vs0mg"},{"bike_id":"eb103872-17f2-4b2f-a1c9-35607b3611bc","system_id":"levelo_inurba_marseille","lat":43.30165,"lon":5.38098,"is_reserved":false,"is_disabled":false,"rental_uris":{"android":"levelo://app?vid=eb103872-17f2-4b2f-a1c9-35607b3611bc","ios":"levelo://app?vid=eb103872-17f2-4b2f-a1c9-35607b3611bc"},"vehicle_type_id":"4","last_reported":1758384636,"current_range_meters":16400,"station_id":"ce4bgjp2rcd13ifvqbh0","pricing_plan_id":"cebpf4jnsgd1na2vs0mg"},{"bike_id":"1ad80281-dd47-45f4-a07d-3e0743506f7e","system_id":"levelo_inurba_marseille","lat":43.29581,"lon":5.36746,"is_reserved":false,"is_disabled":false,"rental_uris":{"android":"levelo://app?vid=1ad80281-dd47-45f4-a07d-3e0743506f7e","ios":"levelo://app?vid=1ad80281-dd47-45f4-a07d-3e0743506f7e"},"vehicle_type_id":"4","last_reported":1758384636,"current_range_meters":16800,"station_id":"ce4bgph2rcd13ifvqc2g","pricing_plan_id":"cebpf4jnsgd1na2vs0mg"},{"bike_id":"64366c47-edfa-45ef-909f-525d8947a216","system_id":"levelo_inurba_marseille","lat":43.30544,"lon":5.38416,"is_reserved":false,"is_disabled":false,"rental_uris":{"android":"levelo://app?vid=64366c47-edfa-45ef-909f-525d8947a216","ios":"levelo://app?vid=64366c47-edfa-45ef-909f-525d8947a216"},"vehicle_type_id":"4","last_reported":1758384636,"current_range_meters":16800,"station_id":"ce4bgg92rcd13ifvqb30","pricing_plan_id":"cebpf4jnsgd1na2vs0mg"},{"bike_id":"a70740ca-116c-4641-9323-86d41a6fd87b","system_id":"levelo_inurba_marseille","lat":43.296317,"lon":5.377137,"is_reserved":false,"is_disabled":false,"rental_uris":{"android":"levelo://app?vid=a70740ca-116c-4641-9323-86d41a6fd87b","ios":"levelo://app?vid=a70740ca-116c-4641-9323-86d41a6fd87b"},"vehicle_type_id":"4","last_reported":1758384636,"current_range_meters":16800,"station_id":"ce4bgi92rcd13ifvqb90","pricing_plan_id":"cebpf4jnsgd1na2vs0mg"},{"bike_id":"d309effb-ef13-4c29-b1b9-d1857e082fac","system_id":"levelo_inurba_marseille","lat":43.2306,"lon":5.35535,"is_reserved":false,"is_disabled":false,"rental_uris":{"android":"levelo://app?vid=d309effb-ef13-4c29-b1b9-d1857e082fac","ios":"levelo://app?vid=d309effb-ef13-4c29-b1b9-d1857e082fac"},"vehicle_type_id":"4","last_reported":1758384636,"current_range_meters":16800,"station_id":"cpo3342slgdg3j2ifvpg","pricing_plan_id":"cebpf4jnsgd1na2vs0mg"},{"bike_id":"13895d34-3fd6-44cb-81ea-813a0420d39a","system_id":"levelo_inurba_marseille","lat":43.29276,"lon":5.36842,"is_reserved":false,"is_disabled":false,"rental_uris":{"android":"levelo://app?vid=13895d34-3fd6-44cb-81ea-813a0420d39a","ios":"levelo://app?vid=13895d34-3fd6-44cb-81ea-813a0420d39a"},"vehicle_type_id":"4","last_reported":1758384636,"current_range_meters":16800,"station_id":"ce4bhbp2rcd13ifvqesg","pricing_plan_id":"cebpf4jnsgd1na2vs0mg"},{"bike_id":"61183c5b-24a7-40b0-a073-cfa757e6c464","system_id":"levelo_inurba_marseille","lat":43.23963,"lon":5.36617,"is_reserved":false,"is_disabled":false,"rental_uris":{"android":"levelo://app?vid=61183c5b-24a7-40b0-a073-cfa757e6c464","ios":"levelo://app?vid=61183c5b-24a7-40b0-a073-cfa757e6c464"},"vehicle_type_id":"4","last_reported":1758384636,"current_range_meters":16800,"station_id":"ce4bhi12rcd13ifvqfp0","pricing_plan_id":"cebpf4jnsgd1na2vs0mg"},{"bike_id":"52891033-621a-4634-afe5-8bb6d992286c","system_id":"levelo_inurba_marseille","lat":43.27627,"lon":5.36107,"is_reserved":false,"is_disabled":false,"rental_uris":{"android":"levelo://app?vid=52891033-621a-4634-afe5-8bb6d992286c","ios":"levelo://app?vid=52891033-621a-4634-afe5-8bb6d992286c"},"vehicle_type_id":"4","last_reported":1758384636,"current_range_meters":16800,"station_id":"ce4bgj92rcd13ifvqbe0","pricing_plan_id":"cebpf4jnsgd1na2vs0mg"},{"bike_id":"43d8cf6d-ac84-495f-a7ea-69bbd7c6d7e2","system_id":"levelo_inurba_marseille","lat":43.28421,"lon":5.34986,"is_reserved":false,"is_disabled":false,"rental_uris":{"android":"levelo://app?vid=43d8cf6d-ac84-495f-a7ea-69bbd7c6d7e2","ios":"levelo://app?vid=43d8cf6d-ac84-495f-a7ea-69bbd7c6d7e2"},"vehicle_type_id":"4","last_reported":1758384636,"current_range_meters":16800,"station_id":"ce4bhbh2rcd13ifvqepg","pricing_plan_id":"cebpf4jnsgd1na2vs0mg"},{"bike_id":"df7d541c-d893-41ad-bd79-5aef65b5318a","system_id":"levelo_inurba_marseille","lat":43.28936,"lon":5.36636,"is_reserved":false,"is_disabled":false,"rental_uris":{"android":"levelo://app?vid=df7d541c-d893-41ad-bd79-5aef65b5318a","ios":"levelo://app?vid=df7d541c-d893-41ad-bd79-5aef65b5318a"},"vehicle_type_id":"4","last_reported":1758384636,"current_range_meters":17200,"station_id":"ce4bhap2rcd13ifvqek0","pricing_plan_id":"cebpf4jnsgd1na2vs0mg"},{"bike_id":"e86857f8-f405-4657-b145-ec58ed187087","system_id":"levelo_inurba_marseille","lat":43.31484,"lon":5.3881,"is_reserved":false,"is_disabled":false,"rental_uris":{"android":"levelo://app?vid=e86857f8-f405-4657-b145-ec58ed187087","ios":"levelo://app?vid=e86857f8-f405-4657-b145-ec58ed187087"},"vehicle_type_id":"4","last_reported":1758384636,"current_range_meters":17200,"station_id":"ce4bgt92rcd13ifvqcf0","pricing_plan_id":"cebpf4jnsgd1na2vs0mg"},{"bike_id":"b2c99988-9bf6-41d9-8e64-44ce2d788623","system_id":"levelo_inurba_marseille","lat":43.28485,"lon":5.38427,"is_reserved":false,"is_disabled":false,"rental_uris":{"android":"levelo://app?vid=b2c99988-9bf6-41d9-8e64-44ce2d788623","ios":"levelo://app?vid=b2c99988-9bf6-41d9-8e64-44ce2d788623"},"vehicle_type_id":"4","last_reported":1758384636,"current_range_meters":17200,"station_id":"ce4bh512rcd13ifvqe3g","pricing_plan_id":"cebpf4jnsgd1na2vs0mg"},{"bike_id":"363d99e5-837c-43c8-abcc-c80ef2e2786a","system_id":"levelo_inurba_marseille","lat":43.21186,"lon":5.35098,"is_reserved":false,"is_disabled":false,"rental_uris":{"android":"levelo://app?vid=363d99e5-837c-43c8-abcc-c80ef2e2786a","ios":"levelo://app?vid=363d99e5-837c-43c8-abcc-c80ef2e2786a"},"vehicle_type_id":"4","last_reported":1758384636,"current_range_meters":17200,"station_id":"st_cvj6sg6p6f1abm77japg","pricing_plan_id":"cebpf4jnsgd1na2vs0mg"},{"bike_id":"62309829-9f7e-46ec-92fb-22799356757d","system_id":"levelo_inurba_marseille","lat":43.30779,"lon":5.37659,"is_reserved":false,"is_disabled":false,"rental_uris":{"android":"levelo://app?vid=62309829-9f7e-46ec-92fb-22799356757d","ios":"levelo://app?vid=62309829-9f7e-46ec-92fb-22799356757d"},"vehicle_type_id":"4","last_reported":1758384636,"current_range_meters":16800,"station_id":"ce4bgv92rcd13ifvqcq0","pricing_plan_id":"cebpf4jnsgd1na2vs0mg"},{"bike_id":"401d647c-0509-4bf9-99d0-bf9b290253db","system_id":"levelo_inurba_marseille","lat":43.28041,"lon":5.35339,"is_reserved":false,"is_disabled":false,"rental_uris":{"android":"levelo://app?vid=401d647c-0509-4bf9-99d0-bf9b290253db","ios":"levelo://app?vid=401d647c-0509-4bf9-99d0-bf9b290253db"},"vehicle_type_id":"4","last_reported":1758384636,"current_range_meters":17200,"station_id":"","pricing_plan_id":"cebpf4jnsgd1na2vs0mg"},{"bike_id":"6a8899bd-da83-4a9e-80e9-5992ac3bfa60","system_id":"levelo_inurba_marseille","lat":43.26576,"lon":5.39006,"is_reserved":false,"is_disabled":false,"rental_uris":{"android":"levelo://app?vid=6a8899bd-da83-4a9e-80e9-5992ac3bfa60","ios":"levelo://app?vid=6a8899bd-da83-4a9e-80e9-5992ac3bfa60"},"vehicle_type_id":"4","last_reported":1758384636,"current_range_meters":17200,"station_id":"ce4bhe12rcd13ifvqf30","pricing_plan_id":"cebpf4jnsgd1na2vs0mg"},{"bike_id":"d2667e4e-8f97-413d-81b1-13a394c6285f","system_id":"levelo_inurba_marseille","lat":43.21753,"lon":5.34583,"is_reserved":false,"is_disabled":true,"rental_uris":{"android":"levelo://app?vid=d2667e4e-8f97-413d-81b1-13a394c6285f","ios":"levelo://app?vid=d2667e4e-8f97-413d-81b1-13a394c6285f"},"vehicle_type_id":"4","last_reported":1758384636,"current_range_meters":17200,"station_id":"st_cvj6r9ubvosntc0bgbag","pricing_plan_id":"cebpf4jnsgd1na2vs0mg"},{"bike_id":"95d3f5fb-a098-44b1-ae35-65f1bc9617dd","system_id":"levelo_inurba_marseille","lat":43.30601,"lon":5.393731,"is_reserved":false,"is_disabled":false,"rental_uris":{"android":"levelo://app?vid=95d3f5fb-a098-44b1-ae35-65f1bc9617dd","ios":"levelo://app?vid=95d3f5fb-a098-44b1-ae35-65f1bc9617dd"},"vehicle_type_id":"4","last_reported":1758384636,"current_range_meters":17200,"station_id":"ce4bh0p2rcd13ifvqd80","pricing_plan_id":"cebpf4jnsgd1na2vs0mg"},{"bike_id":"76bbf107-7ec5-4826-b296-ab629ecd14ab","system_id":"levelo_inurba_marseille","lat":43.2985,"lon":5.42012,"is_reserved":false,"is_disabled":false,"rental_uris":{"android":"levelo://app?vid=76bbf107-7ec5-4826-b296-ab629ecd14ab","ios":"levelo://app?vid=76bbf107-7ec5-4826-b296-ab629ecd14ab"},"vehicle_type_id":"4","last_reported":1758384636,"current_range_meters":17200,"station_id":"","pricing_plan_id":"cebpf4jnsgd1na2vs0mg"},{"bike_id":"6d3aee29-c659-4608-a83b-a938aae5bfd1","system_id":"levelo_inurba_marseille","lat":43.26934,"lon":5.38927,"is_reserved":false,"is_disabled":false,"rental_uris":{"android":"levelo://app?vid=6d3aee29-c659-4608-a83b-a938aae5bfd1","ios":"levelo://app?vid=6d3aee29-c659-4608-a83b-a938aae5bfd1"},"vehicle_type_id":"4","last_reported":1758384636,"current_range_meters":17200,"station_id":"ce4bhhh2rcd13ifvqfl0","pricing_plan_id":"cebpf4jnsgd1na2vs0mg"},{"bike_id":"483eb671-470d-4559-876d-6bf14b424a2c","system_id":"levelo_inurba_marseille","lat":43.23062,"lon":5.35481,"is_reserved":false,"is_disabled":false,"rental_uris":{"android":"levelo://app?vid=483eb671-470d-4559-876d-6bf14b424a2c","ios":"levelo://app?vid=483eb671-470d-4559-876d-6bf14b424a2c"},"vehicle_type_id":"4","last_reported":1758384636,"current_range_meters":17600,"station_id":"cpo3342slgdg3j2ifvpg","pricing_plan_id":"cebpf4jnsgd1na2vs0mg"},{"bike_id":"c8345a32-b47f-4143-8deb-43190697bcaf","system_id":"levelo_inurba_marseille","lat":43.23199,"lon":5.35548,"is_reserved":false,"is_disabled":false,"rental_uris":{"android":"levelo://app?vid=c8345a32-b47f-4143-8deb-43190697bcaf","ios":"levelo://app?vid=c8345a32-b47f-4143-8deb-43190697bcaf"},"vehicle_type_id":"4","last_reported":1758384636,"current_range_meters":17600,"station_id":"ce4bhu92rcd13ifvqi70","pricing_plan_id":"cebpf4jnsgd1na2vs0mg"},{"bike_id":"8038ea64-8442-4d19-85be-e67d69b29b93","system_id":"levelo_inurba_marseille","lat":43.28424,"lon":5.34983,"is_reserved":false,"is_disabled":false,"rental_uris":{"android":"levelo://app?vid=8038ea64-8442-4d19-85be-e67d69b29b93","ios":"levelo://app?vid=8038ea64-8442-4d19-85be-e67d69b29b93"},"vehicle_type_id":"4","last_reported":1758384636,"current_range_meters":17600,"station_id":"ce4bhbh2rcd13ifvqepg","pricing_plan_id":"cebpf4jnsgd1na2vs0mg"},{"bike_id":"046ba709-b940-4fa3-9690-1d81db536e4b","system_id":"levelo_inurba_marseille","lat":43.22561,"lon":5.41655,"is_reserved":false,"is_disabled":false,"rental_uris":{"android":"levelo://app?vid=046ba709-b940-4fa3-9690-1d81db536e4b","ios":"levelo://app?vid=046ba709-b940-4fa3-9690-1d81db536e4b"},"vehicle_type_id":"4","last_reported":1758384636,"current_range_meters":17600,"station_id":"st_d2o4gvlbi1j2169b742g","pricing_plan_id":"cebpf4jnsgd1na2vs0mg"},{"bike_id":"cd9f80d1-2797-4053-a2cc-7f1e9178fa7d","system_id":"levelo_inurba_marseille","lat":43.22555,"lon":5.41617,"is_reserved":false,"is_disabled":false,"rental_uris":{"android":"levelo://app?vid=cd9f80d1-2797-4053-a2cc-7f1e9178fa7d","ios":"levelo://app?vid=cd9f80d1-2797-4053-a2cc-7f1e9178fa7d"},"vehicle_type_id":"4","last_reported":1758384636,"current_range_meters":17600,"station_id":"st_d2o4gvlbi1j2169b742g","pricing_plan_id":"cebpf4jnsgd1na2vs0mg"},{"bike_id":"44a7a776-97c3-45d1-901a-5e8af14765f9","system_id":"levelo_inurba_marseille","lat":43.24171,"lon":5.36396,"is_reserved":false,"is_disabled":false,"rental_uris":{"android":"levelo://app?vid=44a7a776-97c3-45d1-901a-5e8af14765f9","ios":"levelo://app?vid=44a7a776-97c3-45d1-901a-5e8af14765f9"},"vehicle_type_id":"4","last_reported":1758384636,"current_range_meters":17600,"station_id":"cpo36qri1sfpv3e86is0","pricing_plan_id":"cebpf4jnsgd1na2vs0mg"},{"bike_id":"8c211dc3-37d2-4efe-9dd8-6731b17e749b","system_id":"levelo_inurba_marseille","lat":43.29799,"lon":5.38104,"is_reserved":false,"is_disabled":false,"rental_uris":{"android":"levelo://app?vid=8c211dc3-37d2-4efe-9dd8-6731b17e749b","ios":"levelo://app?vid=8c211dc3-37d2-4efe-9dd8-6731b17e749b"},"vehicle_type_id":"4","last_reported":1758384636,"current_range_meters":17600,"station_id":"ce4bgip2rcd13ifvqbb0","pricing_plan_id":"cebpf4jnsgd1na2vs0mg"},{"bike_id":"234f3b8d-078f-4441-9725-5eae668f1473","system_id":"levelo_inurba_marseille","lat":43.23058,"lon":5.35492,"is_reserved":false,"is_disabled":false,"rental_uris":{"android":"levelo://app?vid=234f3b8d-078f-4441-9725-5eae668f1473","ios":"levelo://app?vid=234f3b8d-078f-4441-9725-5eae668f1473"},"vehicle_type_id":"4","last_reported":1758384636,"current_range_meters":18000,"station_id":"cpo3342slgdg3j2ifvpg","pricing_plan_id":"cebpf4jnsgd1na2vs0mg"},{"bike_id":"577d3c29-6b4b-4ec6-b481-78fe8b41a934","system_id":"levelo_inurba_marseille","lat":43.225328,"lon":5.348331,"is_reserved":false,"is_disabled":false,"rental_uris":{"android":"levelo://app?vid=577d3c29-6b4b-4ec6-b481-78fe8b41a934","ios":"levelo://app?vid=577d3c29-6b4b-4ec6-b481-78fe8b41a934"},"vehicle_type_id":"4","last_reported":1758384636,"current_range_meters":18000,"station_id":"","pricing_plan_id":"cebpf4jnsgd1na2vs0mg"},{"bike_id":"2b14457c-1603-4e0d-bedb-de6dfe3d27e5","system_id":"levelo_inurba_marseille","lat":43.30798,"lon":5.38158,"is_reserved":false,"is_disabled":false,"rental_uris":{"android":"levelo://app?vid=2b14457c-1603-4e0d-bedb-de6dfe3d27e5","ios":"levelo://app?vid=2b14457c-1603-4e0d-bedb-de6dfe3d27e5"},"vehicle_type_id":"4","last_reported":1758384636,"current_range_meters":18000,"station_id":"ce4bgt12rcd13ifvqce0","pricing_plan_id":"cebpf4jnsgd1na2vs0mg"},{"bike_id":"f1fed1ca-8816-44c8-8d21-52e8ab64d46d","system_id":"levelo_inurba_marseille","lat":43.25945,"lon":5.37546,"is_reserved":false,"is_disabled":false,"rental_uris":{"android":"levelo://app?vid=f1fed1ca-8816-44c8-8d21-52e8ab64d46d","ios":"levelo://app?vid=f1fed1ca-8816-44c8-8d21-52e8ab64d46d"},"vehicle_type_id":"4","last_reported":1758384636,"current_range_meters":18000,"station_id":"","pricing_plan_id":"cebpf4jnsgd1na2vs0mg"},{"bike_id":"00ba1b13-39a8-4708-b05f-70cad7d13461","system_id":"levelo_inurba_marseille","lat":43.32383,"lon":5.38875,"is_reserved":false,"is_disabled":false,"rental_uris":{"android":"levelo://app?vid=00ba1b13-39a8-4708-b05f-70cad7d13461","ios":"levelo://app?vid=00ba1b13-39a8-4708-b05f-70cad7d13461"},"vehicle_type_id":"4","last_reported":1758384636,"current_range_meters":18000,"station_id":"ce4bhqp2rcd13ifvqhog","pricing_plan_id":"cebpf4jnsgd1na2vs0mg"},{"bike_id":"75cdae86-aa3c-46f9-92bf-f3662c1063cf","system_id":"levelo_inurba_marseille","lat":43.33739,"lon":5.39179,"is_reserved":false,"is_disabled":false,"rental_uris":{"android":"levelo://app?vid=75cdae86-aa3c-46f9-92bf-f3662c1063cf","ios":"levelo://app?vid=75cdae86-aa3c-46f9-92bf-f3662c1063cf"},"vehicle_type_id":"4","last_reported":1758384636,"current_range_meters":18000,"station_id":"ce4bhr92rcd13ifvqhsg","pricing_plan_id":"cebpf4jnsgd1na2vs0mg"},{"bike_id":"829a9c6a-2907-4fcf-996b-1dc6eb22c894","system_id":"levelo_inurba_marseille","lat":43.22562,"lon":5.41631,"is_reserved":false,"is_disabled":false,"rental_uris":{"android":"levelo://app?vid=829a9c6a-2907-4fcf-996b-1dc6eb22c894","ios":"levelo://app?vid=829a9c6a-2907-4fcf-996b-1dc6eb22c894"},"vehicle_type_id":"4","last_reported":1758384636,"current_range_meters":18000,"station_id":"st_d2o4gvlbi1j2169b742g","pricing_plan_id":"cebpf4jnsgd1na2vs0mg"},{"bike_id":"a3a4206e-9698-40c4-99a7-c2a694b15382","system_id":"levelo_inurba_marseille","lat":43.25907,"lon":5.40881,"is_reserved":false,"is_disabled":false,"rental_uris":{"android":"levelo://app?vid=a3a4206e-9698-40c4-99a7-c2a694b15382","ios":"levelo://app?vid=a3a4206e-9698-40c4-99a7-c2a694b15382"},"vehicle_type_id":"4","last_reported":1758384636,"current_range_meters":18000,"station_id":"ce4bhm92rcd13ifvqglg","pricing_plan_id":"cebpf4jnsgd1na2vs0mg"},{"bike_id":"6cfbb092-4707-45dc-8bd5-51f4ba88845d","system_id":"levelo_inurba_marseille","lat":43.29035,"lon":5.39963,"is_reserved":false,"is_disabled":false,"rental_uris":{"android":"levelo://app?vid=6cfbb092-4707-45dc-8bd5-51f4ba88845d","ios":"levelo://app?vid=6cfbb092-4707-45dc-8bd5-51f4ba88845d"},"vehicle_type_id":"4","last_reported":1758384636,"current_range_meters":18000,"station_id":"ce4bh392rcd13ifvqdm0","pricing_plan_id":"cebpf4jnsgd1na2vs0mg"},{"bike_id":"043e2cf5-48ef-484f-94a6-db745333cde6","system_id":"levelo_inurba_marseille","lat":43.241821,"lon":5.364631,"is_reserved":false,"is_disabled":false,"rental_uris":{"android":"levelo://app?vid=043e2cf5-48ef-484f-94a6-db745333cde6","ios":"levelo://app?vid=043e2cf5-48ef-484f-94a6-db745333cde6"},"vehicle_type_id":"4","last_reported":1758384636,"current_range_meters":18000,"station_id":"","pricing_plan_id":"cebpf4jnsgd1na2vs0mg"},{"bike_id":"1c2ec2b3-5fa4-4dad-b085-89cc349ccb29","system_id":"levelo_inurba_marseille","lat":43.31723,"lon":5.42414,"is_reserved":false,"is_disabled":false,"rental_uris":{"android":"levelo://app?vid=1c2ec2b3-5fa4-4dad-b085-89cc349ccb29","ios":"levelo://app?vid=1c2ec2b3-5fa4-4dad-b085-89cc349ccb29"},"vehicle_type_id":"4","last_reported":1758384636,"current_range_meters":18800,"station_id":"ce4bhp92rcd13ifvqhbg","pricing_plan_id":"cebpf4jnsgd1na2vs0mg"},{"bike_id":"c73eb9db-2fff-4bde-b86e-a5d88034326c","system_id":"levelo_inurba_marseille","lat":43.281555,"lon":5.426407,"is_reserved":false,"is_disabled":false,"rental_uris":{"android":"levelo://app?vid=c73eb9db-2fff-4bde-b86e-a5d88034326c","ios":"levelo://app?vid=c73eb9db-2fff-4bde-b86e-a5d88034326c"},"vehicle_type_id":"4","last_reported":1758384636,"current_range_meters":18800,"station_id":"ce4bhnh2rcd13ifvqgug","pricing_plan_id":"cebpf4jnsgd1na2vs0mg"},{"bike_id":"f3805ac9-2ab6-41f8-b374-0887d951860e","system_id":"levelo_inurba_marseille","lat":43.21719,"lon":5.3462,"is_reserved":false,"is_disabled":true,"rental_uris":{"android":"levelo://app?vid=f3805ac9-2ab6-41f8-b374-0887d951860e","ios":"levelo://app?vid=f3805ac9-2ab6-41f8-b374-0887d951860e"},"vehicle_type_id":"4","last_reported":1758384636,"current_range_meters":18800,"station_id":"st_cvj6r9ubvosntc0bgbag","pricing_plan_id":"cebpf4jnsgd1na2vs0mg"},{"bike_id":"9176512c-2cc1-4df2-a8e0-6be514fbcdbf","system_id":"levelo_inurba_marseille","lat":43.33748,"lon":5.37465,"is_reserved":false,"is_disabled":false,"rental_uris":{"android":"levelo://app?vid=9176512c-2cc1-4df2-a8e0-6be514fbcdbf","ios":"levelo://app?vid=9176512c-2cc1-4df2-a8e0-6be514fbcdbf"},"vehicle_type_id":"4","last_reported":1758384636,"current_range_meters":18800,"station_id":"","pricing_plan_id":"cebpf4jnsgd1na2vs0mg"},{"bike_id":"3616f394-a7e9-4c17-a458-9aeed6b05377","system_id":"levelo_inurba_marseille","lat":43.2842,"lon":5.3498,"is_reserved":false,"is_disabled":false,"rental_uris":{"android":"levelo://app?vid=3616f394-a7e9-4c17-a458-9aeed6b05377","ios":"levelo://app?vid=3616f394-a7e9-4c17-a458-9aeed6b05377"},"vehicle_type_id":"4","last_reported":1758384636,"current_range_meters":18800,"station_id":"ce4bhbh2rcd13ifvqepg","pricing_plan_id":"cebpf4jnsgd1na2vs0mg"},{"bike_id":"42bd3f03-99c8-440c-ba36-9c8cafcc5a77","system_id":"levelo_inurba_marseille","lat":43.246034,"lon":5.431533,"is_reserved":false,"is_disabled":false,"rental_uris":{"android":"levelo://app?vid=42bd3f03-99c8-440c-ba36-9c8cafcc5a77","ios":"levelo://app?vid=42bd3f03-99c8-440c-ba36-9c8cafcc5a77"},"vehicle_type_id":"4","last_reported":1758384636,"current_range_meters":19200,"station_id":"st_d2m6c4gdas8pm72e190g","pricing_plan_id":"cebpf4jnsgd1na2vs0mg"},{"bike_id":"f781bf64-4106-49be-ad37-fa241d9bdcc8","system_id":"levelo_inurba_marseille","lat":43.27566,"lon":5.38414,"is_reserved":false,"is_disabled":false,"rental_uris":{"android":"levelo://app?vid=f781bf64-4106-49be-ad37-fa241d9bdcc8","ios":"levelo://app?vid=f781bf64-4106-49be-ad37-fa241d9bdcc8"},"vehicle_type_id":"4","last_reported":1758384636,"current_range_meters":19200,"station_id":"ce4bhh92rcd13ifvqfi0","pricing_plan_id":"cebpf4jnsgd1na2vs0mg"},{"bike_id":"a121288d-6df6-4b73-a816-4e415a547654","system_id":"levelo_inurba_marseille","lat":43.3125,"lon":5.36877,"is_reserved":false,"is_disabled":false,"rental_uris":{"android":"levelo://app?vid=a121288d-6df6-4b73-a816-4e415a547654","ios":"levelo://app?vid=a121288d-6df6-4b73-a816-4e415a547654"},"vehicle_type_id":"4","last_reported":1758384636,"current_range_meters":19200,"station_id":"ce4bgl92rcd13ifvqbq0","pricing_plan_id":"cebpf4jnsgd1na2vs0mg"},{"bike_id":"6be3bd8b-eada-4f83-bfbf-82d34cec3c94","system_id":"levelo_inurba_marseille","lat":43.337724,"lon":5.374496,"is_reserved":false,"is_disabled":false,"rental_uris":{"android":"levelo://app?vid=6be3bd8b-eada-4f83-bfbf-82d34cec3c94","ios":"levelo://app?vid=6be3bd8b-eada-4f83-bfbf-82d34cec3c94"},"vehicle_type_id":"4","last_reported":1758384636,"current_range_meters":19200,"station_id":"","pricing_plan_id":"cebpf4jnsgd1na2vs0mg"},{"bike_id":"651949af-66da-4b73-8bd4-ca1090a14da7","system_id":"levelo_inurba_marseille","lat":43.23046,"lon":5.35491,"is_reserved":false,"is_disabled":false,"rental_uris":{"android":"levelo://app?vid=651949af-66da-4b73-8bd4-ca1090a14da7","ios":"levelo://app?vid=651949af-66da-4b73-8bd4-ca1090a14da7"},"vehicle_type_id":"4","last_reported":1758384636,"current_range_meters":19200,"station_id":"cpo3342slgdg3j2ifvpg","pricing_plan_id":"cebpf4jnsgd1na2vs0mg"},{"bike_id":"1f977bff-d1b4-4bf8-9052-7ce7d6469f2f","system_id":"levelo_inurba_marseille","lat":43.29899,"lon":5.4367,"is_reserved":false,"is_disabled":false,"rental_uris":{"android":"levelo://app?vid=1f977bff-d1b4-4bf8-9052-7ce7d6469f2f","ios":"levelo://app?vid=1f977bff-d1b4-4bf8-9052-7ce7d6469f2f"},"vehicle_type_id":"4","last_reported":1758384636,"current_range_meters":19200,"station_id":"ce4bhpp2rcd13ifvqhfg","pricing_plan_id":"cebpf4jnsgd1na2vs0mg"},{"bike_id":"43acfb41-4453-47f0-a0f7-7135ec4aef97","system_id":"levelo_inurba_marseille","lat":43.28464,"lon":5.35878,"is_reserved":false,"is_disabled":false,"rental_uris":{"android":"levelo://app?vid=43acfb41-4453-47f0-a0f7-7135ec4aef97","ios":"levelo://app?vid=43acfb41-4453-47f0-a0f7-7135ec4aef97"},"vehicle_type_id":"4","last_reported":1758384636,"current_range_meters":19600,"station_id":"ce4bhah2rcd13ifvqei0","pricing_plan_id":"cebpf4jnsgd1na2vs0mg"},{"bike_id":"eab56b05-c472-4eee-971d-1b447d2dee8a","system_id":"levelo_inurba_marseille","lat":43.280548,"lon":5.368303,"is_reserved":false,"is_disabled":false,"rental_uris":{"android":"levelo://app?vid=eab56b05-c472-4eee-971d-1b447d2dee8a","ios":"levelo://app?vid=eab56b05-c472-4eee-971d-1b447d2dee8a"},"vehicle_type_id":"4","last_reported":1758384636,"current_range_meters":19600,"station_id":"ce4bha12rcd13ifvqef0","pricing_plan_id":"cebpf4jnsgd1na2vs0mg"},{"bike_id":"f581ccb4-ae4a-44ef-9aee-8da2f62ff531","system_id":"levelo_inurba_marseille","lat":43.31244,"lon":5.36824,"is_reserved":false,"is_disabled":false,"rental_uris":{"android":"levelo://app?vid=f581ccb4-ae4a-44ef-9aee-8da2f62ff531","ios":"levelo://app?vid=f581ccb4-ae4a-44ef-9aee-8da2f62ff531"},"vehicle_type_id":"4","last_reported":1758384636,"current_range_meters":19600,"station_id":"ce4bgl92rcd13ifvqbq0","pricing_plan_id":"cebpf4jnsgd1na2vs0mg"},{"bike_id":"7c291a54-9a33-4037-97cb-c06fe5ab7011","system_id":"levelo_inurba_marseille","lat":43.315112,"lon":5.388072,"is_reserved":false,"is_disabled":false,"rental_uris":{"android":"levelo://app?vid=7c291a54-9a33-4037-97cb-c06fe5ab7011","ios":"levelo://app?vid=7c291a54-9a33-4037-97cb-c06fe5ab7011"},"vehicle_type_id":"4","last_reported":1758384636,"current_range_meters":19600,"station_id":"","pricing_plan_id":"cebpf4jnsgd1na2vs0mg"},{"bike_id":"3cc9d3e2-2e84-4bd6-9def-927a87eae525","system_id":"levelo_inurba_marseille","lat":43.29579,"lon":5.36744,"is_reserved":false,"is_disabled":false,"rental_uris":{"android":"levelo://app?vid=3cc9d3e2-2e84-4bd6-9def-927a87eae525","ios":"levelo://app?vid=3cc9d3e2-2e84-4bd6-9def-927a87eae525"},"vehicle_type_id":"4","last_reported":1758384636,"current_range_meters":20800,"station_id":"ce4bgph2rcd13ifvqc2g","pricing_plan_id":"cebpf4jnsgd1na2vs0mg"},{"bike_id":"2ded24f2-aa89-430d-a55f-7c3bc0aeff86","system_id":"levelo_inurba_marseille","lat":43.31099,"lon":5.42457,"is_reserved":false,"is_disabled":false,"rental_uris":{"android":"levelo://app?vid=2ded24f2-aa89-430d-a55f-7c3bc0aeff86","ios":"levelo://app?vid=2ded24f2-aa89-430d-a55f-7c3bc0aeff86"},"vehicle_type_id":"4","last_reported":1758384636,"current_range_meters":19600,"station_id":"ce4bhp92rcd13ifvqhag","pricing_plan_id":"cebpf4jnsgd1na2vs0mg"},{"bike_id":"02d61225-669a-456c-8754-601446571b27","system_id":"levelo_inurba_marseille","lat":43.23201,"lon":5.35549,"is_reserved":false,"is_disabled":false,"rental_uris":{"android":"levelo://app?vid=02d61225-669a-456c-8754-601446571b27","ios":"levelo://app?vid=02d61225-669a-456c-8754-601446571b27"},"vehicle_type_id":"4","last_reported":1758384636,"current_range_meters":19600,"station_id":"ce4bhu92rcd13ifvqi70","pricing_plan_id":"cebpf4jnsgd1na2vs0mg"},{"bike_id":"07bf7daf-7f0f-4cf7-90db-b9f0e0dfa16a","system_id":"levelo_inurba_marseille","lat":43.21186,"lon":5.35074,"is_reserved":false,"is_disabled":false,"rental_uris":{"android":"levelo://app?vid=07bf7daf-7f0f-4cf7-90db-b9f0e0dfa16a","ios":"levelo://app?vid=07bf7daf-7f0f-4cf7-90db-b9f0e0dfa16a"},"vehicle_type_id":"4","last_reported":1758384636,"current_range_meters":19600,"station_id":"st_cvj6sg6p6f1abm77japg","pricing_plan_id":"cebpf4jnsgd1na2vs0mg"},{"bike_id":"188d7c32-975f-482f-9175-a8858ac2a8dc","system_id":"levelo_inurba_marseille","lat":43.3237,"lon":5.38887,"is_reserved":false,"is_disabled":false,"rental_uris":{"android":"levelo://app?vid=188d7c32-975f-482f-9175-a8858ac2a8dc","ios":"levelo://app?vid=188d7c32-975f-482f-9175-a8858ac2a8dc"},