{"last_updated":1747747562,"ttl":60,"version":"2.2","data":{"bikes":[{"bike_id":"c0b9fd4f-e181-46ce-b0bf-f5119973334f","system_id":"levelo_inurba_marseille","lat":43.33771,"lon":5.37424,"is_reserved":false,"is_disabled":true,"rental_uris":{"android":"levelo://app?vid=c0b9fd4f-e181-46ce-b0bf-f5119973334f","ios":"levelo://app?vid=c0b9fd4f-e181-46ce-b0bf-f5119973334f"},"vehicle_type_id":"4","last_reported":1747747562,"current_range_meters":0,"station_id":"","pricing_plan_id":"cebpf4jnsgd1na2vs0mg"},{"bike_id":"fc2577e7-1497-425b-9d4f-ab8d7dc843c6","system_id":"levelo_inurba_marseille","lat":43.33771,"lon":5.37485,"is_reserved":false,"is_disabled":true,"rental_uris":{"android":"levelo://app?vid=fc2577e7-1497-425b-9d4f-ab8d7dc843c6","ios":"levelo://app?vid=fc2577e7-1497-425b-9d4f-ab8d7dc843c6"},"vehicle_type_id":"4","last_reported":1747747562,"current_range_meters":0,"station_id":"","pricing_plan_id":"cebpf4jnsgd1na2vs0mg"},{"bike_id":"e9dd3aa4-b5e7-4480-926d-d7f537719bfa","system_id":"levelo_inurba_marseille","lat":43.23038,"lon":5.40188,"is_reserved":false,"is_disabled":true,"rental_uris":{"android":"levelo://app?vid=e9dd3aa4-b5e7-4480-926d-d7f537719bfa","ios":"levelo://app?vid=e9dd3aa4-b5e7-4480-926d-d7f537719bfa"},"vehicle_type_id":"4","last_reported":1747747562,"current_range_meters":0,"station_id":"","pricing_plan_id":"cebpf4jnsgd1na2vs0mg"},{"bike_id":"44c6bb51-a0af-47af-8b68-ea7a44553a88","system_id":"levelo_inurba_marseille","lat":43.299658,"lon":5.384869,"is_reserved":false,"is_disabled":true,"rental_uris":{"android":"levelo://app?vid=44c6bb51-a0af-47af-8b68-ea7a44553a88","ios":"levelo://app?vid=44c6bb51-a0af-47af-8b68-ea7a44553a88"},"vehicle_type_id":"4","last_reported":1747747562,"current_range_meters":0,"station_id":"ce4bgj92rcd13ifvqbd0","pricing_plan_id":"cebpf4jnsgd1na2vs0mg"},{"bike_id":"b99652a3-7096-4676-87e4-1cfcc128956c","system_id":"levelo_inurba_marseille","lat":43.28412,"lon":5.34977,"is_reserved":false,"is_disabled":true,"rental_uris":{"android":"levelo://app?vid=b99652a3-7096-4676-87e4-1cfcc128956c","ios":"levelo://app?vid=b99652a3-7096-4676-87e4-1cfcc128956c"},"vehicle_type_id":"4","last_reported":1747747562,"current_range_meters":0,"station_id":"ce4bhbh2rcd13ifvqepg","pricing_plan_id":"cebpf4jnsgd1na2vs0mg"},{"bike_id":"df118673-c2b2-4894-af3b-27f79527f227","system_id":"levelo_inurba_marseille","lat":43.28269,"lon":5.35062,"is_reserved":false,"is_disabled":true,"rental_uris":{"android":"levelo://app?vid=df118673-c2b2-4894-af3b-27f79527f227","ios":"levelo://app?vid=df118673-c2b2-4894-af3b-27f79527f227"},"vehicle_type_id":"4","last_reported":1747747562,"current_range_meters":0,"station_id":"ce4bhbp2rcd13ifvqerg","pricing_plan_id":"cebpf4jnsgd1na2vs0mg"},{"bike_id":"81912f7e-d8da-4952-9eee-8626bdd21403","system_id":"levelo_inurba_marseille","lat":43.23149,"lon":5.43725,"is_reserved":false,"is_disabled":true,"rental_uris":{"android":"levelo://app?vid=81912f7e-d8da-4952-9eee-8626bdd21403","ios":"levelo://app?vid=81912f7e-d8da-4952-9eee-8626bdd21403"},"vehicle_type_id":"4","last_reported":1747747562,"current_range_meters":0,"station_id":"ce4bhmp2rcd13ifvqgog","pricing_plan_id":"cebpf4jnsgd1na2vs0mg"},{"bike_id":"c096b84d-0381-4398-8259-54809d444fae","system_id":"levelo_inurba_marseille","lat":43.23192,"lon":5.35568,"is_reserved":false,"is_disabled":true,"rental_uris":{"android":"levelo://app?vid=c096b84d-0381-4398-8259-54809d444fae","ios":"levelo://app?vid=c096b84d-0381-4398-8259-54809d444fae"},"vehicle_type_id":"4","last_reported":1747747562,"current_range_meters":0,"station_id":"ce4bhu92rcd13ifvqi70","pricing_plan_id":"cebpf4jnsgd1na2vs0mg"},{"bike_id":"df6f3c2f-22f0-47fb-9d38-7b4f0cf09c78","system_id":"levelo_inurba_marseille","lat":43.24178,"lon":5.39732,"is_reserved":false,"is_disabled":true,"rental_uris":{"android":"levelo://app?vid=df6f3c2f-22f0-47fb-9d38-7b4f0cf09c78","ios":"levelo://app?vid=df6f3c2f-22f0-47fb-9d38-7b4f0cf09c78"},"vehicle_type_id":"4","last_reported":1747747562,"current_range_meters":400,"station_id":"ce4bhn12rcd13ifvqgpg","pricing_plan_id":"cebpf4jnsgd1na2vs0mg"},{"bike_id":"663a698d-eb03-4971-9dc3-e121ecd1896d","system_id":"levelo_inurba_marseille","lat":43.28068,"lon":5.39656,"is_reserved":false,"is_disabled":true,"rental_uris":{"android":"levelo://app?vid=663a698d-eb03-4971-9dc3-e121ecd1896d","ios":"levelo://app?vid=663a698d-eb03-4971-9dc3-e121ecd1896d"},"vehicle_type_id":"4","last_reported":1747747562,"current_range_meters":800,"station_id":"ce4bho12rcd13ifvqh2g","pricing_plan_id":"cebpf4jnsgd1na2vs0mg"},{"bike_id":"f9343492-b560-4f0a-9f5d-7ec34243d3c8","system_id":"levelo_inurba_marseille","lat":43.298065,"lon":5.380986,"is_reserved":false,"is_disabled":true,"rental_uris":{"android":"levelo://app?vid=f9343492-b560-4f0a-9f5d-7ec34243d3c8","ios":"levelo://app?vid=f9343492-b560-4f0a-9f5d-7ec34243d3c8"},"vehicle_type_id":"4","last_reported":1747747562,"current_range_meters":1200,"station_id":"ce4bgip2rcd13ifvqbb0","pricing_plan_id":"cebpf4jnsgd1na2vs0mg"},{"bike_id":"e200812e-467a-4f62-a447-92f5a5768cab","system_id":"levelo_inurba_marseille","lat":43.23157,"lon":5.43715,"is_reserved":false,"is_disabled":true,"rental_uris":{"android":"levelo://app?vid=e200812e-467a-4f62-a447-92f5a5768cab","ios":"levelo://app?vid=e200812e-467a-4f62-a447-92f5a5768cab"},"vehicle_type_id":"4","last_reported":1747747562,"current_range_meters":1200,"station_id":"ce4bhmp2rcd13ifvqgog","pricing_plan_id":"cebpf4jnsgd1na2vs0mg"},{"bike_id":"1e3d1f90-912d-42c3-aa22-c82a2fa4340d","system_id":"levelo_inurba_marseille","lat":43.337444,"lon":5.374475,"is_reserved":false,"is_disabled":true,"rental_uris":{"android":"levelo://app?vid=1e3d1f90-912d-42c3-aa22-c82a2fa4340d","ios":"levelo://app?vid=1e3d1f90-912d-42c3-aa22-c82a2fa4340d"},"vehicle_type_id":"4","last_reported":1747747562,"current_range_meters":2000,"station_id":"","pricing_plan_id":"cebpf4jnsgd1na2vs0mg"},{"bike_id":"49396641-a5d3-48a7-b20b-3c4744584536","system_id":"levelo_inurba_marseille","lat":43.30589,"lon":5.39358,"is_reserved":false,"is_disabled":true,"rental_uris":{"android":"levelo://app?vid=49396641-a5d3-48a7-b20b-3c4744584536","ios":"levelo://app?vid=49396641-a5d3-48a7-b20b-3c4744584536"},"vehicle_type_id":"4","last_reported":1747747562,"current_range_meters":2000,"station_id":"ce4bh0p2rcd13ifvqd80","pricing_plan_id":"cebpf4jnsgd1na2vs0mg"},{"bike_id":"5ab52c08-a463-4786-9181-55f566e9b1c2","system_id":"levelo_inurba_marseille","lat":43.29035,"lon":5.3865,"is_reserved":false,"is_disabled":true,"rental_uris":{"android":"levelo://app?vid=5ab52c08-a463-4786-9181-55f566e9b1c2","ios":"levelo://app?vid=5ab52c08-a463-4786-9181-55f566e9b1c2"},"vehicle_type_id":"4","last_reported":1747747562,"current_range_meters":2000,"station_id":"ce4bh4p2rcd13ifvqe0g","pricing_plan_id":"cebpf4jnsgd1na2vs0mg"},{"bike_id":"26cf3fee-2aeb-45b6-935b-b04fee83b1a4","system_id":"levelo_inurba_marseille","lat":43.28461,"lon":5.35888,"is_reserved":false,"is_disabled":true,"rental_uris":{"android":"levelo://app?vid=26cf3fee-2aeb-45b6-935b-b04fee83b1a4","ios":"levelo://app?vid=26cf3fee-2aeb-45b6-935b-b04fee83b1a4"},"vehicle_type_id":"4","last_reported":1747747562,"current_range_meters":2000,"station_id":"ce4bhah2rcd13ifvqei0","pricing_plan_id":"cebpf4jnsgd1na2vs0mg"},{"bike_id":"8123d2c7-2017-49c4-8e9e-f0db8dc3477c","system_id":"levelo_inurba_marseille","lat":43.28725,"lon":5.37929,"is_reserved":false,"is_disabled":false,"rental_uris":{"android":"levelo://app?vid=8123d2c7-2017-49c4-8e9e-f0db8dc3477c","ios":"levelo://app?vid=8123d2c7-2017-49c4-8e9e-f0db8dc3477c"},"vehicle_type_id":"4","last_reported":1747747562,"current_range_meters":2800,"station_id":"","pricing_plan_id":"cebpf4jnsgd1na2vs0mg"},{"bike_id":"3c2e874b-823b-4069-8a4a-aca4fb4238f3","system_id":"levelo_inurba_marseille","lat":43.27614,"lon":5.3976,"is_reserved":false,"is_disabled":false,"rental_uris":{"android":"levelo://app?vid=3c2e874b-823b-4069-8a4a-aca4fb4238f3","ios":"levelo://app?vid=3c2e874b-823b-4069-8a4a-aca4fb4238f3"},"vehicle_type_id":"4","last_reported":1747747562,"current_range_meters":3200,"station_id":"","pricing_plan_id":"cebpf4jnsgd1na2vs0mg"},{"bike_id":"3e5ddf8e-d4d9-4e76-9a46-ced37a3679ae","system_id":"levelo_inurba_marseille","lat":43.26191,"lon":5.37452,"is_reserved":false,"is_disabled":false,"rental_uris":{"android":"levelo://app?vid=3e5ddf8e-d4d9-4e76-9a46-ced37a3679ae","ios":"levelo://app?vid=3e5ddf8e-d4d9-4e76-9a46-ced37a3679ae"},"vehicle_type_id":"4","last_reported":1747747562,"current_range_meters":3200,"station_id":"ce4bhgp2rcd13ifvqfc0","pricing_plan_id":"cebpf4jnsgd1na2vs0mg"},{"bike_id":"a2f377fc-ceeb-44c6-b80d-9be882a97936","system_id":"levelo_inurba_marseille","lat":43.31761,"lon":5.39024,"is_reserved":false,"is_disabled":false,"rental_uris":{"android":"levelo://app?vid=a2f377fc-ceeb-44c6-b80d-9be882a97936","ios":"levelo://app?vid=a2f377fc-ceeb-44c6-b80d-9be882a97936"},"vehicle_type_id":"4","last_reported":1747747562,"current_range_meters":3200,"station_id":"ce4bhqp2rcd13ifvqhng","pricing_plan_id":"cebpf4jnsgd1na2vs0mg"},{"bike_id":"9f890c8b-39d1-42e9-b860-28bc6c8178d7","system_id":"levelo_inurba_marseille","lat":43.283461,"lon":5.381023,"is_reserved":false,"is_disabled":false,"rental_uris":{"android":"levelo://app?vid=9f890c8b-39d1-42e9-b860-28bc6c8178d7","ios":"levelo://app?vid=9f890c8b-39d1-42e9-b860-28bc6c8178d7"},"vehicle_type_id":"4","last_reported":1747747562,"current_range_meters":3600,"station_id":"","pricing_plan_id":"cebpf4jnsgd1na2vs0mg"},{"bike_id":"cf2e5c45-aac0-4784-a8f5-2a28a2e32c91","system_id":"levelo_inurba_marseille","lat":43.27175,"lon":5.40982,"is_reserved":false,"is_disabled":false,"rental_uris":{"android":"levelo://app?vid=cf2e5c45-aac0-4784-a8f5-2a28a2e32c91","ios":"levelo://app?vid=cf2e5c45-aac0-4784-a8f5-2a28a2e32c91"},"vehicle_type_id":"4","last_reported":1747747562,"current_range_meters":4000,"station_id":"ce4bhl12rcd13ifvqgf0","pricing_plan_id":"cebpf4jnsgd1na2vs0mg"},{"bike_id":"f8b55107-0665-449d-ad18-b3f718a04966","system_id":"levelo_inurba_marseille","lat":43.251303,"lon":5.403313,"is_reserved":false,"is_disabled":false,"rental_uris":{"android":"levelo://app?vid=f8b55107-0665-449d-ad18-b3f718a04966","ios":"levelo://app?vid=f8b55107-0665-449d-ad18-b3f718a04966"},"vehicle_type_id":"4","last_reported":1747747562,"current_range_meters":4000,"station_id":"ce4bhlh2rcd13ifvqgig","pricing_plan_id":"cebpf4jnsgd1na2vs0mg"},{"bike_id":"f03d84a5-28fa-4c07-9f1a-75e8c3d0c293","system_id":"levelo_inurba_marseille","lat":43.27937,"lon":5.41043,"is_reserved":false,"is_disabled":false,"rental_uris":{"android":"levelo://app?vid=f03d84a5-28fa-4c07-9f1a-75e8c3d0c293","ios":"levelo://app?vid=f03d84a5-28fa-4c07-9f1a-75e8c3d0c293"},"vehicle_type_id":"4","last_reported":1747747562,"current_range_meters":4400,"station_id":"ce4bhnp2rcd13ifvqh0g","pricing_plan_id":"cebpf4jnsgd1na2vs0mg"},{"bike_id":"73fa1b3b-267a-48cc-bf03-0b55e96d62b2","system_id":"levelo_inurba_marseille","lat":43.28615,"lon":5.35105,"is_reserved":false,"is_disabled":false,"rental_uris":{"android":"levelo://app?vid=73fa1b3b-267a-48cc-bf03-0b55e96d62b2","ios":"levelo://app?vid=73fa1b3b-267a-48cc-bf03-0b55e96d62b2"},"vehicle_type_id":"4","last_reported":1747747562,"current_range_meters":4800,"station_id":"ce4bhch2rcd13ifvqeug","pricing_plan_id":"cebpf4jnsgd1na2vs0mg"},{"bike_id":"a37669bd-2564-43db-89a0-87e3e5536417","system_id":"levelo_inurba_marseille","lat":43.24388,"lon":5.37065,"is_reserved":false,"is_disabled":false,"rental_uris":{"android":"levelo://app?vid=a37669bd-2564-43db-89a0-87e3e5536417","ios":"levelo://app?vid=a37669bd-2564-43db-89a0-87e3e5536417"},"vehicle_type_id":"4","last_reported":1747747562,"current_range_meters":4800,"station_id":"ce4bhhh2rcd13ifvqfk0","pricing_plan_id":"cebpf4jnsgd1na2vs0mg"},{"bike_id":"cee9f231-6dd2-43c3-ab20-a19ccee7a965","system_id":"levelo_inurba_marseille","lat":43.27056,"lon":5.40265,"is_reserved":false,"is_disabled":false,"rental_uris":{"android":"levelo://app?vid=cee9f231-6dd2-43c3-ab20-a19ccee7a965","ios":"levelo://app?vid=cee9f231-6dd2-43c3-ab20-a19ccee7a965"},"vehicle_type_id":"4","last_reported":1747747562,"current_range_meters":5600,"station_id":"ce4bhk92rcd13ifvqgc0","pricing_plan_id":"cebpf4jnsgd1na2vs0mg"},{"bike_id":"a3b22a45-7508-44d1-984d-e57ded39ce7c","system_id":"levelo_inurba_marseille","lat":43.30326,"lon":5.40439,"is_reserved":false,"is_disabled":false,"rental_uris":{"android":"levelo://app?vid=a3b22a45-7508-44d1-984d-e57ded39ce7c","ios":"levelo://app?vid=a3b22a45-7508-44d1-984d-e57ded39ce7c"},"vehicle_type_id":"4","last_reported":1747747562,"current_range_meters":6000,"station_id":"ce4bh012rcd13ifvqd10","pricing_plan_id":"cebpf4jnsgd1na2vs0mg"},{"bike_id":"ecb1e4dd-c803-4c06-8f97-6a1fbe80c879","system_id":"levelo_inurba_marseille","lat":43.303337,"lon":5.404345,"is_reserved":false,"is_disabled":false,"rental_uris":{"android":"levelo://app?vid=ecb1e4dd-c803-4c06-8f97-6a1fbe80c879","ios":"levelo://app?vid=ecb1e4dd-c803-4c06-8f97-6a1fbe80c879"},"vehicle_type_id":"4","last_reported":1747747562,"current_range_meters":6000,"station_id":"ce4bh012rcd13ifvqd10","pricing_plan_id":"cebpf4jnsgd1na2vs0mg"},{"bike_id":"dd7c0cde-7eb6-4e64-bf6f-6554154fdaa3","system_id":"levelo_inurba_marseille","lat":43.24069,"lon":5.37765,"is_reserved":false,"is_disabled":false,"rental_uris":{"android":"levelo://app?vid=dd7c0cde-7eb6-4e64-bf6f-6554154fdaa3","ios":"levelo://app?vid=dd7c0cde-7eb6-4e64-bf6f-6554154fdaa3"},"vehicle_type_id":"4","last_reported":1747747562,"current_range_meters":6000,"station_id":"ce4bhnp2rcd13ifvqgvg","pricing_plan_id":"cebpf4jnsgd1na2vs0mg"},{"bike_id":"606508ee-25bb-4724-83f0-1e13e508df37","system_id":"levelo_inurba_marseille","lat":43.3248,"lon":5.36573,"is_reserved":false,"is_disabled":false,"rental_uris":{"android":"levelo://app?vid=606508ee-25bb-4724-83f0-1e13e508df37","ios":"levelo://app?vid=606508ee-25bb-4724-83f0-1e13e508df37"},"vehicle_type_id":"4","last_reported":1747747562,"current_range_meters":6000,"station_id":"ce4bhs12rcd13ifvqhvg","pricing_plan_id":"cebpf4jnsgd1na2vs0mg"},{"bike_id":"e64e36d1-c3e7-4427-9260-70ac75fa0a1c","system_id":"levelo_inurba_marseille","lat":43.31109,"lon":5.37877,"is_reserved":false,"is_disabled":false,"rental_uris":{"android":"levelo://app?vid=e64e36d1-c3e7-4427-9260-70ac75fa0a1c","ios":"levelo://app?vid=e64e36d1-c3e7-4427-9260-70ac75fa0a1c"},"vehicle_type_id":"4","last_reported":1747747562,"current_range_meters":6400,"station_id":"","pricing_plan_id":"cebpf4jnsgd1na2vs0mg"},{"bike_id":"20bee342-4a3f-4f34-940d-bb6cf00d52ae","system_id":"levelo_inurba_marseille","lat":43.26669,"lon":5.38589,"is_reserved":false,"is_disabled":false,"rental_uris":{"android":"levelo://app?vid=20bee342-4a3f-4f34-940d-bb6cf00d52ae","ios":"levelo://app?vid=20bee342-4a3f-4f34-940d-bb6cf00d52ae"},"vehicle_type_id":"4","last_reported":1747747562,"current_range_meters":6400,"station_id":"","pricing_plan_id":"cebpf4jnsgd1na2vs0mg"},{"bike_id":"071bc46f-fc0e-440b-b96f-94050dbf0423","system_id":"levelo_inurba_marseille","lat":43.2962,"lon":5.37721,"is_reserved":false,"is_disabled":false,"rental_uris":{"android":"levelo://app?vid=071bc46f-fc0e-440b-b96f-94050dbf0423","ios":"levelo://app?vid=071bc46f-fc0e-440b-b96f-94050dbf0423"},"vehicle_type_id":"4","last_reported":1747747562,"current_range_meters":6400,"station_id":"ce4bgi92rcd13ifvqb90","pricing_plan_id":"cebpf4jnsgd1na2vs0mg"},{"bike_id":"fd75852b-aa6e-4e0d-81eb-426bc55f475e","system_id":"levelo_inurba_marseille","lat":43.26227,"lon":5.40459,"is_reserved":false,"is_disabled":false,"rental_uris":{"android":"levelo://app?vid=fd75852b-aa6e-4e0d-81eb-426bc55f475e","ios":"levelo://app?vid=fd75852b-aa6e-4e0d-81eb-426bc55f475e"},"vehicle_type_id":"4","last_reported":1747747562,"current_range_meters":6400,"station_id":"ce4bhmh2rcd13ifvqgmg","pricing_plan_id":"cebpf4jnsgd1na2vs0mg"},{"bike_id":"b099718c-a230-45c2-a3af-0274c3556de5","system_id":"levelo_inurba_marseille","lat":43.24178,"lon":5.39731,"is_reserved":false,"is_disabled":false,"rental_uris":{"android":"levelo://app?vid=b099718c-a230-45c2-a3af-0274c3556de5","ios":"levelo://app?vid=b099718c-a230-45c2-a3af-0274c3556de5"},"vehicle_type_id":"4","last_reported":1747747562,"current_range_meters":6400,"station_id":"ce4bhn12rcd13ifvqgpg","pricing_plan_id":"cebpf4jnsgd1na2vs0mg"},{"bike_id":"ad8cfcc6-58f5-4218-b13a-5a54e5d98fa3","system_id":"levelo_inurba_marseille","lat":43.33738,"lon":5.374654,"is_reserved":false,"is_disabled":false,"rental_uris":{"android":"levelo://app?vid=ad8cfcc6-58f5-4218-b13a-5a54e5d98fa3","ios":"levelo://app?vid=ad8cfcc6-58f5-4218-b13a-5a54e5d98fa3"},"vehicle_type_id":"4","last_reported":1747747562,"current_range_meters":6800,"station_id":"","pricing_plan_id":"cebpf4jnsgd1na2vs0mg"},{"bike_id":"e8925d46-be9e-4783-9ad6-d2e1862eea95","system_id":"levelo_inurba_marseille","lat":43.29015,"lon":5.38139,"is_reserved":false,"is_disabled":false,"rental_uris":{"android":"levelo://app?vid=e8925d46-be9e-4783-9ad6-d2e1862eea95","ios":"levelo://app?vid=e8925d46-be9e-4783-9ad6-d2e1862eea95"},"vehicle_type_id":"4","last_reported":1747747562,"current_range_meters":6800,"station_id":"ce4bh4p2rcd13ifvqe1g","pricing_plan_id":"cebpf4jnsgd1na2vs0mg"},{"bike_id":"670b7cd2-c343-4090-97b2-cb93517d51c3","system_id":"levelo_inurba_marseille","lat":43.26213,"lon":5.3745,"is_reserved":false,"is_disabled":false,"rental_uris":{"android":"levelo://app?vid=670b7cd2-c343-4090-97b2-cb93517d51c3","ios":"levelo://app?vid=670b7cd2-c343-4090-97b2-cb93517d51c3"},"vehicle_type_id":"4","last_reported":1747747562,"current_range_meters":6800,"station_id":"ce4bhgp2rcd13ifvqfc0","pricing_plan_id":"cebpf4jnsgd1na2vs0mg"},{"bike_id":"06e452b4-00bd-4194-8cf0-97e51cbae02e","system_id":"levelo_inurba_marseille","lat":43.23193,"lon":5.39987,"is_reserved":false,"is_disabled":false,"rental_uris":{"android":"levelo://app?vid=06e452b4-00bd-4194-8cf0-97e51cbae02e","ios":"levelo://app?vid=06e452b4-00bd-4194-8cf0-97e51cbae02e"},"vehicle_type_id":"4","last_reported":1747747562,"current_range_meters":6800,"station_id":"ce4bhn12rcd13ifvqgqg","pricing_plan_id":"cebpf4jnsgd1na2vs0mg"},{"bike_id":"3092bcd5-15cf-401a-beb8-6d78dcd08af8","system_id":"levelo_inurba_marseille","lat":43.32368,"lon":5.38884,"is_reserved":false,"is_disabled":false,"rental_uris":{"android":"levelo://app?vid=3092bcd5-15cf-401a-beb8-6d78dcd08af8","ios":"levelo://app?vid=3092bcd5-15cf-401a-beb8-6d78dcd08af8"},"vehicle_type_id":"4","last_reported":1747747562,"current_range_meters":6800,"station_id":"ce4bhqp2rcd13ifvqhog","pricing_plan_id":"cebpf4jnsgd1na2vs0mg"},{"bike_id":"bcbdbd69-7be8-42f8-a855-a4358565de8f","system_id":"levelo_inurba_marseille","lat":43.27718,"lon":5.4138,"is_reserved":false,"is_disabled":false,"rental_uris":{"android":"levelo://app?vid=bcbdbd69-7be8-42f8-a855-a4358565de8f","ios":"levelo://app?vid=bcbdbd69-7be8-42f8-a855-a4358565de8f"},"vehicle_type_id":"4","last_reported":1747747562,"current_range_meters":7200,"station_id":"","pricing_plan_id":"cebpf4jnsgd1na2vs0mg"},{"bike_id":"9656d1ba-07ee-4321-aa29-bc85fcb1e3e4","system_id":"levelo_inurba_marseille","lat":43.28158,"lon":5.42646,"is_reserved":false,"is_disabled":false,"rental_uris":{"android":"levelo://app?vid=9656d1ba-07ee-4321-aa29-bc85fcb1e3e4","ios":"levelo://app?vid=9656d1ba-07ee-4321-aa29-bc85fcb1e3e4"},"vehicle_type_id":"4","last_reported":1747747562,"current_range_meters":7200,"station_id":"ce4bhnh2rcd13ifvqgug","pricing_plan_id":"cebpf4jnsgd1na2vs0mg"},{"bike_id":"8f0f531d-6a65-4647-8a6f-baa3d982f42f","system_id":"levelo_inurba_marseille","lat":43.2811,"lon":5.42563,"is_reserved":false,"is_disabled":false,"rental_uris":{"android":"levelo://app?vid=8f0f531d-6a65-4647-8a6f-baa3d982f42f","ios":"levelo://app?vid=8f0f531d-6a65-4647-8a6f-baa3d982f42f"},"vehicle_type_id":"4","last_reported":1747747562,"current_range_meters":8000,"station_id":"","pricing_plan_id":"cebpf4jnsgd1na2vs0mg"},{"bike_id":"7a6f320a-8a07-483e-a04d-d58942312e9d","system_id":"levelo_inurba_marseille","lat":43.29649,"lon":5.39068,"is_reserved":false,"is_disabled":false,"rental_uris":{"android":"levelo://app?vid=7a6f320a-8a07-483e-a04d-d58942312e9d","ios":"levelo://app?vid=7a6f320a-8a07-483e-a04d-d58942312e9d"},"vehicle_type_id":"4","last_reported":1747747562,"current_range_meters":8000,"station_id":"","pricing_plan_id":"cebpf4jnsgd1na2vs0mg"},{"bike_id":"2c0025c7-9f0b-4176-9545-f37468af056f","system_id":"levelo_inurba_marseille","lat":43.31164,"lon":5.38723,"is_reserved":false,"is_disabled":false,"rental_uris":{"android":"levelo://app?vid=2c0025c7-9f0b-4176-9545-f37468af056f","ios":"levelo://app?vid=2c0025c7-9f0b-4176-9545-f37468af056f"},"vehicle_type_id":"4","last_reported":1747747562,"current_range_meters":8000,"station_id":"ce4bgv12rcd13ifvqcp0","pricing_plan_id":"cebpf4jnsgd1na2vs0mg"},{"bike_id":"85eaca89-9437-48d0-9bca-a254337b88db","system_id":"levelo_inurba_marseille","lat":43.27457,"lon":5.4098,"is_reserved":false,"is_disabled":false,"rental_uris":{"android":"levelo://app?vid=85eaca89-9437-48d0-9bca-a254337b88db","ios":"levelo://app?vid=85eaca89-9437-48d0-9bca-a254337b88db"},"vehicle_type_id":"4","last_reported":1747747562,"current_range_meters":8400,"station_id":"","pricing_plan_id":"cebpf4jnsgd1na2vs0mg"},{"bike_id":"16bafe36-7ac0-4761-a627-15e8aeec04ec","system_id":"levelo_inurba_marseille","lat":43.29032,"lon":5.38651,"is_reserved":false,"is_disabled":false,"rental_uris":{"android":"levelo://app?vid=16bafe36-7ac0-4761-a627-15e8aeec04ec","ios":"levelo://app?vid=16bafe36-7ac0-4761-a627-15e8aeec04ec"},"vehicle_type_id":"4","last_reported":1747747562,"current_range_meters":8400,"station_id":"ce4bh4p2rcd13ifvqe0g","pricing_plan_id":"cebpf4jnsgd1na2vs0mg"},{"bike_id":"6b33c5c8-a645-4cf9-b1ef-0c6445076710","system_id":"levelo_inurba_marseille","lat":43.28147,"lon":5.42647,"is_reserved":false,"is_disabled":false,"rental_uris":{"android":"levelo://app?vid=6b33c5c8-a645-4cf9-b1ef-0c6445076710","ios":"levelo://app?vid=6b33c5c8-a645-4cf9-b1ef-0c6445076710"},"vehicle_type_id":"4","last_reported":1747747562,"current_range_meters":8400,"station_id":"ce4bhnh2rcd13ifvqgug","pricing_plan_id":"cebpf4jnsgd1na2vs0mg"},{"bike_id":"4990ba5a-703f-485b-bcc9-6e3971bfa3db","system_id":"levelo_inurba_marseille","lat":43.24074,"lon":5.37724,"is_reserved":false,"is_disabled":false,"rental_uris":{"android":"levelo://app?vid=4990ba5a-703f-485b-bcc9-6e3971bfa3db","ios":"levelo://app?vid=4990ba5a-703f-485b-bcc9-6e3971bfa3db"},"vehicle_type_id":"4","last_reported":1747747562,"current_range_meters":8400,"station_id":"ce4bhnp2rcd13ifvqgvg","pricing_plan_id":"cebpf4jnsgd1na2vs0mg"},{"bike_id":"c52d52a1-3bde-4afd-a5cb-3d96be253c54","system_id":"levelo_inurba_marseille","lat":43.27936,"lon":5.4106,"is_reserved":false,"is_disabled":false,"rental_uris":{"android":"levelo://app?vid=c52d52a1-3bde-4afd-a5cb-3d96be253c54","ios":"levelo://app?vid=c52d52a1-3bde-4afd-a5cb-3d96be253c54"},"vehicle_type_id":"4","last_reported":1747747562,"current_range_meters":8400,"station_id":"ce4bhnp2rcd13ifvqh0g","pricing_plan_id":"cebpf4jnsgd1na2vs0mg"},{"bike_id":"c076ad54-d589-4eeb-ac51-e1376a33ec39","system_id":"levelo_inurba_marseille","lat":43.295511,"lon":5.422894,"is_reserved":false,"is_disabled":false,"rental_uris":{"android":"levelo://app?vid=c076ad54-d589-4eeb-ac51-e1376a33ec39","ios":"levelo://app?vid=c076ad54-d589-4eeb-ac51-e1376a33ec39"},"vehicle_type_id":"4","last_reported":1747747562,"current_range_meters":8400,"station_id":"ce4bhph2rcd13ifvqhdg","pricing_plan_id":"cebpf4jnsgd1na2vs0mg"},{"bike_id":"3f674ae8-1774-4119-b3a3-4e4d105fb60c","system_id":"levelo_inurba_marseille","lat":43.31228,"lon":5.36836,"is_reserved":false,"is_disabled":false,"rental_uris":{"android":"levelo://app?vid=3f674ae8-1774-4119-b3a3-4e4d105fb60c","ios":"levelo://app?vid=3f674ae8-1774-4119-b3a3-4e4d105fb60c"},"vehicle_type_id":"4","last_reported":1747747562,"current_range_meters":9200,"station_id":"ce4bgl92rcd13ifvqbq0","pricing_plan_id":"cebpf4jnsgd1na2vs0mg"},{"bike_id":"dae5b4c5-a9c9-40ce-9443-e34769cb9ccf","system_id":"levelo_inurba_marseille","lat":43.28084,"lon":5.37832,"is_reserved":false,"is_disabled":false,"rental_uris":{"android":"levelo://app?vid=dae5b4c5-a9c9-40ce-9443-e34769cb9ccf","ios":"levelo://app?vid=dae5b4c5-a9c9-40ce-9443-e34769cb9ccf"},"vehicle_type_id":"4","last_reported":1747747562,"current_range_meters":9200,"station_id":"ce4bha12rcd13ifvqee0","pricing_plan_id":"cebpf4jnsgd1na2vs0mg"},{"bike_id":"3f8d3df2-4bfa-4c21-af33-2d6ca36c62f5","system_id":"levelo_inurba_marseille","lat":43.24658,"lon":5.38163,"is_reserved":false,"is_disabled":false,"rental_uris":{"android":"levelo://app?vid=3f8d3df2-4bfa-4c21-af33-2d6ca36c62f5","ios":"levelo://app?vid=3f8d3df2-4bfa-4c21-af33-2d6ca36c62f5"},"vehicle_type_id":"4","last_reported":1747747562,"current_range_meters":9200,"station_id":"ce4bhih2rcd13ifvqfr0","pricing_plan_id":"cebpf4jnsgd1na2vs0mg"},{"bike_id":"bffbaf88-357a-4e87-a68c-a9a27a6e01e6","system_id":"levelo_inurba_marseille","lat":43.262,"lon":5.42119,"is_reserved":false,"is_disabled":false,"rental_uris":{"android":"levelo://app?vid=bffbaf88-357a-4e87-a68c-a9a27a6e01e6","ios":"levelo://app?vid=bffbaf88-357a-4e87-a68c-a9a27a6e01e6"},"vehicle_type_id":"4","last_reported":1747747562,"current_range_meters":9600,"station_id":"","pricing_plan_id":"cebpf4jnsgd1na2vs0mg"},{"bike_id":"44ffd575-5bd8-4f79-a615-dadcf776f47b","system_id":"levelo_inurba_marseille","lat":43.29924,"lon":5.3748,"is_reserved":false,"is_disabled":false,"rental_uris":{"android":"levelo://app?vid=44ffd575-5bd8-4f79-a615-dadcf776f47b","ios":"levelo://app?vid=44ffd575-5bd8-4f79-a615-dadcf776f47b"},"vehicle_type_id":"4","last_reported":1747747562,"current_range_meters":9600,"station_id":"ce4bgjh2rcd13ifvqbg0","pricing_plan_id":"cebpf4jnsgd1na2vs0mg"},{"bike_id":"6ccd19ed-4a37-46b6-af17-86d5525575a8","system_id":"levelo_inurba_marseille","lat":43.31478,"lon":5.37334,"is_reserved":false,"is_disabled":false,"rental_uris":{"android":"levelo://app?vid=6ccd19ed-4a37-46b6-af17-86d5525575a8","ios":"levelo://app?vid=6ccd19ed-4a37-46b6-af17-86d5525575a8"},"vehicle_type_id":"4","last_reported":1747747562,"current_range_meters":9600,"station_id":"ce4bgt12rcd13ifvqcd0","pricing_plan_id":"cebpf4jnsgd1na2vs0mg"},{"bike_id":"b9818231-cfac-4a38-98f7-e83570a054fa","system_id":"levelo_inurba_marseille","lat":43.30932,"lon":5.40151,"is_reserved":false,"is_disabled":false,"rental_uris":{"android":"levelo://app?vid=b9818231-cfac-4a38-98f7-e83570a054fa","ios":"levelo://app?vid=b9818231-cfac-4a38-98f7-e83570a054fa"},"vehicle_type_id":"4","last_reported":1747747562,"current_range_meters":9600,"station_id":"ce4bgvp2rcd13ifvqct0","pricing_plan_id":"cebpf4jnsgd1na2vs0mg"},{"bike_id":"2f939f9e-c828-4c50-a90e-169b5985b0ce","system_id":"levelo_inurba_marseille","lat":43.28456,"lon":5.3589,"is_reserved":false,"is_disabled":false,"rental_uris":{"android":"levelo://app?vid=2f939f9e-c828-4c50-a90e-169b5985b0ce","ios":"levelo://app?vid=2f939f9e-c828-4c50-a90e-169b5985b0ce"},"vehicle_type_id":"4","last_reported":1747747562,"current_range_meters":9600,"station_id":"ce4bhah2rcd13ifvqei0","pricing_plan_id":"cebpf4jnsgd1na2vs0mg"},{"bike_id":"598900bc-cc96-46f3-b8f9-32958f862dd5","system_id":"levelo_inurba_marseille","lat":43.304018,"lon":5.367783,"is_reserved":false,"is_disabled":false,"rental_uris":{"android":"levelo://app?vid=598900bc-cc96-46f3-b8f9-32958f862dd5","ios":"levelo://app?vid=598900bc-cc96-46f3-b8f9-32958f862dd5"},"vehicle_type_id":"4","last_reported":1747747562,"current_range_meters":10000,"station_id":"","pricing_plan_id":"cebpf4jnsgd1na2vs0mg"},{"bike_id":"079ed722-3a1c-493d-89de-626a8497e4ab","system_id":"levelo_inurba_marseille","lat":43.2957,"lon":5.39991,"is_reserved":false,"is_disabled":false,"rental_uris":{"android":"levelo://app?vid=079ed722-3a1c-493d-89de-626a8497e4ab","ios":"levelo://app?vid=079ed722-3a1c-493d-89de-626a8497e4ab"},"vehicle_type_id":"4","last_reported":1747747562,"current_range_meters":10000,"station_id":"ce4bh312rcd13ifvqdj0","pricing_plan_id":"cebpf4jnsgd1na2vs0mg"},{"bike_id":"ab756091-2c46-457a-8903-1638e5289e41","system_id":"levelo_inurba_marseille","lat":43.23195,"lon":5.39976,"is_reserved":false,"is_disabled":false,"rental_uris":{"android":"levelo://app?vid=ab756091-2c46-457a-8903-1638e5289e41","ios":"levelo://app?vid=ab756091-2c46-457a-8903-1638e5289e41"},"vehicle_type_id":"4","last_reported":1747747562,"current_range_meters":10000,"station_id":"ce4bhn12rcd13ifvqgqg","pricing_plan_id":"cebpf4jnsgd1na2vs0mg"},{"bike_id":"dd7fba58-2be7-4c3f-a64e-0e0ac913f5ed","system_id":"levelo_inurba_marseille","lat":43.280675,"lon":5.396459,"is_reserved":false,"is_disabled":false,"rental_uris":{"android":"levelo://app?vid=dd7fba58-2be7-4c3f-a64e-0e0ac913f5ed","ios":"levelo://app?vid=dd7fba58-2be7-4c3f-a64e-0e0ac913f5ed"},"vehicle_type_id":"4","last_reported":1747747562,"current_range_meters":10000,"station_id":"ce4bho12rcd13ifvqh2g","pricing_plan_id":"cebpf4jnsgd1na2vs0mg"},{"bike_id":"5d0fc42b-f851-4bfa-ab89-f2d2458bd53d","system_id":"levelo_inurba_marseille","lat":43.279952,"lon":5.400111,"is_reserved":false,"is_disabled":false,"rental_uris":{"android":"levelo://app?vid=5d0fc42b-f851-4bfa-ab89-f2d2458bd53d","ios":"levelo://app?vid=5d0fc42b-f851-4bfa-ab89-f2d2458bd53d"},"vehicle_type_id":"4","last_reported":1747747562,"current_range_meters":10000,"station_id":"ce4bho92rcd13ifvqh4g","pricing_plan_id":"cebpf4jnsgd1na2vs0mg"},{"bike_id":"75be543c-df59-4bdd-9085-cfd368ed0508","system_id":"levelo_inurba_marseille","lat":43.26552,"lon":5.37287,"is_reserved":false,"is_disabled":false,"rental_uris":{"android":"levelo://app?vid=75be543c-df59-4bdd-9085-cfd368ed0508","ios":"levelo://app?vid=75be543c-df59-4bdd-9085-cfd368ed0508"},"vehicle_type_id":"4","last_reported":1747747562,"current_range_meters":10800,"station_id":"ce4bhg12rcd13ifvqf70","pricing_plan_id":"cebpf4jnsgd1na2vs0mg"},{"bike_id":"71e146ad-5169-4dc5-a288-c7c746aad618","system_id":"levelo_inurba_marseille","lat":43.23188,"lon":5.3998,"is_reserved":false,"is_disabled":false,"rental_uris":{"android":"levelo://app?vid=71e146ad-5169-4dc5-a288-c7c746aad618","ios":"levelo://app?vid=71e146ad-5169-4dc5-a288-c7c746aad618"},"vehicle_type_id":"4","last_reported":1747747562,"current_range_meters":10800,"station_id":"ce4bhn12rcd13ifvqgqg","pricing_plan_id":"cebpf4jnsgd1na2vs0mg"},{"bike_id":"04235778-16c2-40e6-b3f3-9c42140beee8","system_id":"levelo_inurba_marseille","lat":43.31889,"lon":5.40745,"is_reserved":false,"is_disabled":false,"rental_uris":{"android":"levelo://app?vid=04235778-16c2-40e6-b3f3-9c42140beee8","ios":"levelo://app?vid=04235778-16c2-40e6-b3f3-9c42140beee8"},"vehicle_type_id":"4","last_reported":1747747562,"current_range_meters":10800,"station_id":"ce4bhq12rcd13ifvqhig","pricing_plan_id":"cebpf4jnsgd1na2vs0mg"},{"bike_id":"e8162579-a5ad-485f-ad83-fec8a2ebe7e1","system_id":"levelo_inurba_marseille","lat":43.26826,"lon":5.39099,"is_reserved":false,"is_disabled":false,"rental_uris":{"android":"levelo://app?vid=e8162579-a5ad-485f-ad83-fec8a2ebe7e1","ios":"levelo://app?vid=e8162579-a5ad-485f-ad83-fec8a2ebe7e1"},"vehicle_type_id":"4","last_reported":1747747562,"current_range_meters":11200,"station_id":"","pricing_plan_id":"cebpf4jnsgd1na2vs0mg"},{"bike_id":"33e5cbd5-31c8-4fa0-9d70-cf685e1c2a15","system_id":"levelo_inurba_marseille","lat":43.25153,"lon":5.4036,"is_reserved":false,"is_disabled":false,"rental_uris":{"android":"levelo://app?vid=33e5cbd5-31c8-4fa0-9d70-cf685e1c2a15","ios":"levelo://app?vid=33e5cbd5-31c8-4fa0-9d70-cf685e1c2a15"},"vehicle_type_id":"4","last_reported":1747747562,"current_range_meters":11200,"station_id":"","pricing_plan_id":"cebpf4jnsgd1na2vs0mg"},{"bike_id":"5ea7a3aa-164e-480d-9c67-f53bfa6f1590","system_id":"levelo_inurba_marseille","lat":43.29804,"lon":5.38094,"is_reserved":false,"is_disabled":false,"rental_uris":{"android":"levelo://app?vid=5ea7a3aa-164e-480d-9c67-f53bfa6f1590","ios":"levelo://app?vid=5ea7a3aa-164e-480d-9c67-f53bfa6f1590"},"vehicle_type_id":"4","last_reported":1747747562,"current_range_meters":11200,"station_id":"ce4bgip2rcd13ifvqbb0","pricing_plan_id":"cebpf4jnsgd1na2vs0mg"},{"bike_id":"93640866-d843-4350-8b08-c6fbdaf6077d","system_id":"levelo_inurba_marseille","lat":43.29749,"lon":5.37114,"is_reserved":false,"is_disabled":false,"rental_uris":{"android":"levelo://app?vid=93640866-d843-4350-8b08-c6fbdaf6077d","ios":"levelo://app?vid=93640866-d843-4350-8b08-c6fbdaf6077d"},"vehicle_type_id":"4","last_reported":1747747562,"current_range_meters":11200,"station_id":"ce4bgop2rcd13ifvqc1g","pricing_plan_id":"cebpf4jnsgd1na2vs0mg"},{"bike_id":"211d782c-93fe-44fc-931b-5c466bfda976","system_id":"levelo_inurba_marseille","lat":43.269482,"lon":5.386308,"is_reserved":false,"is_disabled":false,"rental_uris":{"android":"levelo://app?vid=211d782c-93fe-44fc-931b-5c466bfda976","ios":"levelo://app?vid=211d782c-93fe-44fc-931b-5c466bfda976"},"vehicle_type_id":"4","last_reported":1747747562,"current_range_meters":11200,"station_id":"ce4bhh92rcd13ifvqfh0","pricing_plan_id":"cebpf4jnsgd1na2vs0mg"},{"bike_id":"98a6af6c-4e2f-4f75-b744-fe7062c9d3a4","system_id":"levelo_inurba_marseille","lat":43.25937,"lon":5.409,"is_reserved":false,"is_disabled":false,"rental_uris":{"android":"levelo://app?vid=98a6af6c-4e2f-4f75-b744-fe7062c9d3a4","ios":"levelo://app?vid=98a6af6c-4e2f-4f75-b744-fe7062c9d3a4"},"vehicle_type_id":"4","last_reported":1747747562,"current_range_meters":11200,"station_id":"ce4bhm92rcd13ifvqglg","pricing_plan_id":"cebpf4jnsgd1na2vs0mg"},{"bike_id":"1a340bac-8012-4c7c-b50a-247d19f083a9","system_id":"levelo_inurba_marseille","lat":43.21191,"lon":5.35073,"is_reserved":false,"is_disabled":false,"rental_uris":{"android":"levelo://app?vid=1a340bac-8012-4c7c-b50a-247d19f083a9","ios":"levelo://app?vid=1a340bac-8012-4c7c-b50a-247d19f083a9"},"vehicle_type_id":"4","last_reported":1747747562,"current_range_meters":11200,"station_id":"st_cvj6sg6p6f1abm77japg","pricing_plan_id":"cebpf4jnsgd1na2vs0mg"},{"bike_id":"b4cffc18-bb2f-4281-9143-2ebb81e89c43","system_id":"levelo_inurba_marseille","lat":43.2658,"lon":5.39028,"is_reserved":false,"is_disabled":false,"rental_uris":{"android":"levelo://app?vid=b4cffc18-bb2f-4281-9143-2ebb81e89c43","ios":"levelo://app?vid=b4cffc18-bb2f-4281-9143-2ebb81e89c43"},"vehicle_type_id":"4","last_reported":1747747562,"current_range_meters":11600,"station_id":"ce4bhe12rcd13ifvqf30","pricing_plan_id":"cebpf4jnsgd1na2vs0mg"},{"bike_id":"59b8a132-4666-485c-b6ad-3e889f0d9322","system_id":"levelo_inurba_marseille","lat":43.254947,"lon":5.376611,"is_reserved":false,"is_disabled":false,"rental_uris":{"android":"levelo://app?vid=59b8a132-4666-485c-b6ad-3e889f0d9322","ios":"levelo://app?vid=59b8a132-4666-485c-b6ad-3e889f0d9322"},"vehicle_type_id":"4","last_reported":1747747562,"current_range_meters":11600,"station_id":"ce4bhh12rcd13ifvqff0","pricing_plan_id":"cebpf4jnsgd1na2vs0mg"},{"bike_id":"9e3b710b-a10b-400a-91cd-9f073c55efa8","system_id":"levelo_inurba_marseille","lat":43.318906,"lon":5.407283,"is_reserved":false,"is_disabled":false,"rental_uris":{"android":"levelo://app?vid=9e3b710b-a10b-400a-91cd-9f073c55efa8","ios":"levelo://app?vid=9e3b710b-a10b-400a-91cd-9f073c55efa8"},"vehicle_type_id":"4","last_reported":1747747562,"current_range_meters":11600,"station_id":"ce4bhq12rcd13ifvqhig","pricing_plan_id":"cebpf4jnsgd1na2vs0mg"},{"bike_id":"3552fbf2-b43a-446f-93f5-d695fc251b73","system_id":"levelo_inurba_marseille","lat":43.2516,"lon":5.37552,"is_reserved":false,"is_disabled":false,"rental_uris":{"android":"levelo://app?vid=3552fbf2-b43a-446f-93f5-d695fc251b73","ios":"levelo://app?vid=3552fbf2-b43a-446f-93f5-d695fc251b73"},"vehicle_type_id":"4","last_reported":1747747562,"current_range_meters":12000,"station_id":"","pricing_plan_id":"cebpf4jnsgd1na2vs0mg"},{"bike_id":"accac9b4-bd67-49c9-a3d1-a519c6bd4b05","system_id":"levelo_inurba_marseille","lat":43.29791,"lon":5.38101,"is_reserved":false,"is_disabled":false,"rental_uris":{"android":"levelo://app?vid=accac9b4-bd67-49c9-a3d1-a519c6bd4b05","ios":"levelo://app?vid=accac9b4-bd67-49c9-a3d1-a519c6bd4b05"},"vehicle_type_id":"4","last_reported":1747747562,"current_range_meters":12000,"station_id":"ce4bgip2rcd13ifvqbb0","pricing_plan_id":"cebpf4jnsgd1na2vs0mg"},{"bike_id":"f6ca83d9-0bb9-48bd-a8dc-28685d64a67b","system_id":"levelo_inurba_marseille","lat":43.303318,"lon":5.385578,"is_reserved":false,"is_disabled":false,"rental_uris":{"android":"levelo://app?vid=f6ca83d9-0bb9-48bd-a8dc-28685d64a67b","ios":"levelo://app?vid=f6ca83d9-0bb9-48bd-a8dc-28685d64a67b"},"vehicle_type_id":"4","last_reported":1747747562,"current_range_meters":12000,"station_id":"ce4bgjh2rcd13ifvqbg0","pricing_plan_id":"cebpf4jnsgd1na2vs0mg"},{"bike_id":"1e9c3a28-51ae-47ee-a996-a04726616f95","system_id":"levelo_inurba_marseille","lat":43.311177,"lon":5.377616,"is_reserved":false,"is_disabled":false,"rental_uris":{"android":"levelo://app?vid=1e9c3a28-51ae-47ee-a996-a04726616f95","ios":"levelo://app?vid=1e9c3a28-51ae-47ee-a996-a04726616f95"},"vehicle_type_id":"4","last_reported":1747747562,"current_range_meters":12000,"station_id":"ce4bgt92rcd13ifvqcg0","pricing_plan_id":"cebpf4jnsgd1na2vs0mg"},{"bike_id":"5f1ead71-7075-4901-8e08-f4883c6981c0","system_id":"levelo_inurba_marseille","lat":43.30898,"lon":5.39667,"is_reserved":false,"is_disabled":false,"rental_uris":{"android":"levelo://app?vid=5f1ead71-7075-4901-8e08-f4883c6981c0","ios":"levelo://app?vid=5f1ead71-7075-4901-8e08-f4883c6981c0"},"vehicle_type_id":"4","last_reported":1747747562,"current_range_meters":12000,"station_id":"ce4bh012rcd13ifvqcv0","pricing_plan_id":"cebpf4jnsgd1na2vs0mg"},{"bike_id":"f5343ba4-e228-4861-87d1-df1b6fc8be8a","system_id":"levelo_inurba_marseille","lat":43.27951,"lon":5.41045,"is_reserved":false,"is_disabled":false,"rental_uris":{"android":"levelo://app?vid=f5343ba4-e228-4861-87d1-df1b6fc8be8a","ios":"levelo://app?vid=f5343ba4-e228-4861-87d1-df1b6fc8be8a"},"vehicle_type_id":"4","last_reported":1747747562,"current_range_meters":12000,"station_id":"ce4bhnp2rcd13ifvqh0g","pricing_plan_id":"cebpf4jnsgd1na2vs0mg"},{"bike_id":"24134b30-f679-4285-a2f7-10efbcb9499b","system_id":"levelo_inurba_marseille","lat":43.31754,"lon":5.39021,"is_reserved":false,"is_disabled":false,"rental_uris":{"android":"levelo://app?vid=24134b30-f679-4285-a2f7-10efbcb9499b","ios":"levelo://app?vid=24134b30-f679-4285-a2f7-10efbcb9499b"},"vehicle_type_id":"4","last_reported":1747747562,"current_range_meters":12000,"station_id":"ce4bhqp2rcd13ifvqhng","pricing_plan_id":"cebpf4jnsgd1na2vs0mg"},{"bike_id":"a03d5265-da37-4e54-8713-4c8aac46e5e1","system_id":"levelo_inurba_marseille","lat":43.2606,"lon":5.41758,"is_reserved":false,"is_disabled":false,"rental_uris":{"android":"levelo://app?vid=a03d5265-da37-4e54-8713-4c8aac46e5e1","ios":"levelo://app?vid=a03d5265-da37-4e54-8713-4c8aac46e5e1"},"vehicle_type_id":"4","last_reported":1747747562,"current_range_meters":12400,"station_id":"","pricing_plan_id":"cebpf4jnsgd1na2vs0mg"},{"bike_id":"96ca8599-2d72-40fd-a464-401af3631472","system_id":"levelo_inurba_marseille","lat":43.30134,"lon":5.3984,"is_reserved":false,"is_disabled":false,"rental_uris":{"android":"levelo://app?vid=96ca8599-2d72-40fd-a464-401af3631472","ios":"levelo://app?vid=96ca8599-2d72-40fd-a464-401af3631472"},"vehicle_type_id":"4","last_reported":1747747562,"current_range_meters":12400,"station_id":"ce4bh0h2rcd13ifvqd40","pricing_plan_id":"cebpf4jnsgd1na2vs0mg"},{"bike_id":"6d0afb52-84c1-498a-b104-ab9a37bc6ab1","system_id":"levelo_inurba_marseille","lat":43.2721,"lon":5.39182,"is_reserved":false,"is_disabled":false,"rental_uris":{"android":"levelo://app?vid=6d0afb52-84c1-498a-b104-ab9a37bc6ab1","ios":"levelo://app?vid=6d0afb52-84c1-498a-b104-ab9a37bc6ab1"},"vehicle_type_id":"4","last_reported":1747747562,"current_range_meters":12400,"station_id":"ce4bhhp2rcd13ifvqfm0","pricing_plan_id":"cebpf4jnsgd1na2vs0mg"},{"bike_id":"4e278f80-7d68-4b0a-a605-57e2763772eb","system_id":"levelo_inurba_marseille","lat":43.23179,"lon":5.39987,"is_reserved":false,"is_disabled":false,"rental_uris":{"android":"levelo://app?vid=4e278f80-7d68-4b0a-a605-57e2763772eb","ios":"levelo://app?vid=4e278f80-7d68-4b0a-a605-57e2763772eb"},"vehicle_type_id":"4","last_reported":1747747562,"current_range_meters":12400,"station_id":"ce4bhn12rcd13ifvqgqg","pricing_plan_id":"cebpf4jnsgd1na2vs0mg"},{"bike_id":"c3c11b11-8507-45b4-bd48-1e3bdd46fbbe","system_id":"levelo_inurba_marseille","lat":43.23193,"lon":5.39987,"is_reserved":false,"is_disabled":false,"rental_uris":{"android":"levelo://app?vid=c3c11b11-8507-45b4-bd48-1e3bdd46fbbe","ios":"levelo://app?vid=c3c11b11-8507-45b4-bd48-1e3bdd46fbbe"},"vehicle_type_id":"4","last_reported":1747747562,"current_range_meters":12400,"station_id":"ce4bhn12rcd13ifvqgqg","pricing_plan_id":"cebpf4jnsgd1na2vs0mg"},{"bike_id":"1e0be349-75ac-43ce-a2c7-9ea54df984f0","system_id":"levelo_inurba_marseille","lat":43.30373,"lon":5.42505,"is_reserved":false,"is_disabled":false,"rental_uris":{"android":"levelo://app?vid=1e0be349-75ac-43ce-a2c7-9ea54df984f0","ios":"levelo://app?vid=1e0be349-75ac-43ce-a2c7-9ea54df984f0"},"vehicle_type_id":"4","last_reported":1747747562,"current_range_meters":12400,"station_id":"ce4bhoh2rcd13ifvqh6g","pricing_plan_id":"cebpf4jnsgd1na2vs0mg"},{"bike_id":"36eb56f3-18d1-4360-9653-6abafee37fa4","system_id":"levelo_inurba_marseille","lat":43.30149,"lon":5.38093,"is_reserved":false,"is_disabled":false,"rental_uris":{"android":"levelo://app?vid=36eb56f3-18d1-4360-9653-6abafee37fa4","ios":"levelo://app?vid=36eb56f3-18d1-4360-9653-6abafee37fa4"},"vehicle_type_id":"4","last_reported":1747747562,"current_range_meters":12800,"station_id":"ce4bgjp2rcd13ifvqbh0","pricing_plan_id":"cebpf4jnsgd1na2vs0mg"},{"bike_id":"0caa96b3-acbb-4d93-b0f4-5f5f3beb2faa","system_id":"levelo_inurba_marseille","lat":43.306471,"lon":5.401026,"is_reserved":false,"is_disabled":false,"rental_uris":{"android":"levelo://app?vid=0caa96b3-acbb-4d93-b0f4-5f5f3beb2faa","ios":"levelo://app?vid=0caa96b3-acbb-4d93-b0f4-5f5f3beb2faa"},"vehicle_type_id":"4","last_reported":1747747562,"current_range_meters":12800,"station_id":"ce4bh112rcd13ifvqda0","pricing_plan_id":"cebpf4jnsgd1na2vs0mg"},{"bike_id":"11f724d3-ea71-45d6-8fe2-4e46b8c4b632","system_id":"levelo_inurba_marseille","lat":43.28726,"lon":5.36079,"is_reserved":false,"is_disabled":false,"rental_uris":{"android":"levelo://app?vid=11f724d3-ea71-45d6-8fe2-4e46b8c4b632","ios":"levelo://app?vid=11f724d3-ea71-45d6-8fe2-4e46b8c4b632"},"vehicle_type_id":"4","last_reported":1747747562,"current_range_meters":12800,"station_id":"cki0cbj6b192h4jlfktg","pricing_plan_id":"cebpf4jnsgd1na2vs0mg"},{"bike_id":"61aa1869-8b51-427e-8179-1048a7edac41","system_id":"levelo_inurba_marseille","lat":43.30527,"lon":5.3842,"is_reserved":false,"is_disabled":false,"rental_uris":{"android":"levelo://app?vid=61aa1869-8b51-427e-8179-1048a7edac41","ios":"levelo://app?vid=61aa1869-8b51-427e-8179-1048a7edac41"},"vehicle_type_id":"4","last_reported":1747747562,"current_range_meters":13600,"station_id":"ce4bgg92rcd13ifvqb30","pricing_plan_id":"cebpf4jnsgd1na2vs0mg"},{"bike_id":"311b04b8-1518-49e8-811f-36883a7b7fbc","system_id":"levelo_inurba_marseille","lat":43.29795,"lon":5.38097,"is_reserved":false,"is_disabled":false,"rental_uris":{"android":"levelo://app?vid=311b04b8-1518-49e8-811f-36883a7b7fbc","ios":"levelo://app?vid=311b04b8-1518-49e8-811f-36883a7b7fbc"},"vehicle_type_id":"4","last_reported":1747747562,"current_range_meters":13600,"station_id":"ce4bgip2rcd13ifvqbb0","pricing_plan_id":"cebpf4jnsgd1na2vs0mg"},{"bike_id":"2c503769-7f0f-4f13-b72c-cd6599679dbc","system_id":"levelo_inurba_marseille","lat":43.3088,"lon":5.39649,"is_reserved":false,"is_disabled":false,"rental_uris":{"android":"levelo://app?vid=2c503769-7f0f-4f13-b72c-cd6599679dbc","ios":"levelo://app?vid=2c503769-7f0f-4f13-b72c-cd6599679dbc"},"vehicle_type_id":"4","last_reported":1747747562,"current_range_meters":13600,"station_id":"ce4bh012rcd13ifvqcv0","pricing_plan_id":"cebpf4jnsgd1na2vs0mg"},{"bike_id":"581522c8-53e9-4e7a-96d3-4d1efc5a52cc","system_id":"levelo_inurba_marseille","lat":43.30594,"lon":5.39354,"is_reserved":false,"is_disabled":false,"rental_uris":{"android":"levelo://app?vid=581522c8-53e9-4e7a-96d3-4d1efc5a52cc","ios":"levelo://app?vid=581522c8-53e9-4e7a-96d3-4d1efc5a52cc"},"vehicle_type_id":"4","last_reported":1747747562,"current_range_meters":13600,"station_id":"ce4bh0p2rcd13ifvqd80","pricing_plan_id":"cebpf4jnsgd1na2vs0mg"},{"bike_id":"580fbd1d-9ae1-49ed-89d0-e0456a671c8a","system_id":"levelo_inurba_marseille","lat":43.29412,"lon":5.38624,"is_reserved":false,"is_disabled":false,"rental_uris":{"android":"levelo://app?vid=580fbd1d-9ae1-49ed-89d0-e0456a671c8a","ios":"levelo://app?vid=580fbd1d-9ae1-49ed-89d0-e0456a671c8a"},"vehicle_type_id":"4","last_reported":1747747562,"current_range_meters":13600,"station_id":"ce4bh2h2rcd13ifvqdh0","pricing_plan_id":"cebpf4jnsgd1na2vs0mg"},{"bike_id":"0400e9c6-63f3-4d3f-a75f-96da6a0d3c32","system_id":"levelo_inurba_marseille","lat":43.27844,"lon":5.39199,"is_reserved":false,"is_disabled":false,"rental_uris":{"android":"levelo://app?vid=0400e9c6-63f3-4d3f-a75f-96da6a0d3c32","ios":"levelo://app?vid=0400e9c6-63f3-4d3f-a75f-96da6a0d3c32"},"vehicle_type_id":"4","last_reported":1747747562,"current_range_meters":13600,"station_id":"ce4bhjp2rcd13ifvqga0","pricing_plan_id":"cebpf4jnsgd1na2vs0mg"},{"bike_id":"4f13f9f9-16ff-4a15-947b-39be74fa93cd","system_id":"levelo_inurba_marseille","lat":43.25937,"lon":5.4095,"is_reserved":false,"is_disabled":false,"rental_uris":{"android":"levelo://app?vid=4f13f9f9-16ff-4a15-947b-39be74fa93cd","ios":"levelo://app?vid=4f13f9f9-16ff-4a15-947b-39be74fa93cd"},"vehicle_type_id":"4","last_reported":1747747562,"current_range_meters":13600,"station_id":"ce4bhm92rcd13ifvqglg","pricing_plan_id":"cebpf4jnsgd1na2vs0mg"},{"bike_id":"45e20c01-07b8-4147-8c2b-8eb0c77fbd3c","system_id":"levelo_inurba_marseille","lat":43.29806,"lon":5.38097,"is_reserved":false,"is_disabled":false,"rental_uris":{"android":"levelo://app?vid=45e20c01-07b8-4147-8c2b-8eb0c77fbd3c","ios":"levelo://app?vid=45e20c01-07b8-4147-8c2b-8eb0c77fbd3c"},"vehicle_type_id":"4","last_reported":1747747562,"current_range_meters":14000,"station_id":"ce4bgip2rcd13ifvqbb0","pricing_plan_id":"cebpf4jnsgd1na2vs0mg"},{"bike_id":"1935a543-3c18-48b7-a5dd-cd7de6d19cf8","system_id":"levelo_inurba_marseille","lat":43.29783,"lon":5.37103,"is_reserved":false,"is_disabled":false,"rental_uris":{"android":"levelo://app?vid=1935a543-3c18-48b7-a5dd-cd7de6d19cf8","ios":"levelo://app?vid=1935a543-3c18-48b7-a5dd-cd7de6d19cf8"},"vehicle_type_id":"4","last_reported":1747747562,"current_range_meters":14000,"station_id":"ce4bgop2rcd13ifvqc1g","pricing_plan_id":"cebpf4jnsgd1na2vs0mg"},{"bike_id":"08fa1631-b00a-4efb-8b46-b87e075cb930","system_id":"levelo_inurba_marseille","lat":43.30783,"lon":5.37645,"is_reserved":false,"is_disabled":false,"rental_uris":{"android":"levelo://app?vid=08fa1631-b00a-4efb-8b46-b87e075cb930","ios":"levelo://app?vid=08fa1631-b00a-4efb-8b46-b87e075cb930"},"vehicle_type_id":"4","last_reported":1747747562,"current_range_meters":14000,"station_id":"ce4bgv92rcd13ifvqcq0","pricing_plan_id":"cebpf4jnsgd1na2vs0mg"},{"bike_id":"6abf9179-5919-4aea-b8e3-feb1f3d71154","system_id":"levelo_inurba_marseille","lat":43.32355,"lon":5.36762,"is_reserved":false,"is_disabled":false,"rental_uris":{"android":"levelo://app?vid=6abf9179-5919-4aea-b8e3-feb1f3d71154","ios":"levelo://app?vid=6abf9179-5919-4aea-b8e3-feb1f3d71154"},"vehicle_type_id":"4","last_reported":1747747562,"current_range_meters":14000,"station_id":"ce4bhsh2rcd13ifvqi2g","pricing_plan_id":"cebpf4jnsgd1na2vs0mg"},{"bike_id":"2bc0ac61-689e-4842-b330-ccf42e338a4d","system_id":"levelo_inurba_marseille","lat":43.274,"lon":5.43405,"is_reserved":false,"is_disabled":false,"rental_uris":{"android":"levelo://app?vid=2bc0ac61-689e-4842-b330-ccf42e338a4d","ios":"levelo://app?vid=2bc0ac61-689e-4842-b330-ccf42e338a4d"},"vehicle_type_id":"4","last_reported":1747747562,"current_range_meters":14400,"station_id":"","pricing_plan_id":"cebpf4jnsgd1na2vs0mg"},{"bike_id":"675df11d-0326-4b58-a7bb-6254b954e2c1","system_id":"levelo_inurba_marseille","lat":43.27917,"lon":5.39588,"is_reserved":false,"is_disabled":false,"rental_uris":{"android":"levelo://app?vid=675df11d-0326-4b58-a7bb-6254b954e2c1","ios":"levelo://app?vid=675df11d-0326-4b58-a7bb-6254b954e2c1"},"vehicle_type_id":"4","last_reported":1747747562,"current_range_meters":14400,"station_id":"ce4bhf92rcd13ifvqf40","pricing_plan_id":"cebpf4jnsgd1na2vs0mg"},{"bike_id":"dc80936a-51b4-4ef9-b71e-e259b58f2ac3","system_id":"levelo_inurba_marseille","lat":43.23179,"lon":5.39978,"is_reserved":false,"is_disabled":false,"rental_uris":{"android":"levelo://app?vid=dc80936a-51b4-4ef9-b71e-e259b58f2ac3","ios":"levelo://app?vid=dc80936a-51b4-4ef9-b71e-e259b58f2ac3"},"vehicle_type_id":"4","last_reported":1747747562,"current_range_meters":14400,"station_id":"ce4bhn12rcd13ifvqgqg","pricing_plan_id":"cebpf4jnsgd1na2vs0mg"},{"bike_id":"bfadeaec-216b-47d1-99b4-74d81f9ee763","system_id":"levelo_inurba_marseille","lat":43.321288,"lon":5.367691,"is_reserved":false,"is_disabled":false,"rental_uris":{"android":"levelo://app?vid=bfadeaec-216b-47d1-99b4-74d81f9ee763","ios":"levelo://app?vid=bfadeaec-216b-47d1-99b4-74d81f9ee763"},"vehicle_type_id":"4","last_reported":1747747562,"current_range_meters":14400,"station_id":"ce4bhrh2rcd13ifvqhug","pricing_plan_id":"cebpf4jnsgd1na2vs0mg"},{"bike_id":"a19fbb06-7c42-4627-9f4c-1e589e27dd5c","system_id":"levelo_inurba_marseille","lat":43.29792,"lon":5.3809,"is_reserved":false,"is_disabled":false,"rental_uris":{"android":"levelo://app?vid=a19fbb06-7c42-4627-9f4c-1e589e27dd5c","ios":"levelo://app?vid=a19fbb06-7c42-4627-9f4c-1e589e27dd5c"},"vehicle_type_id":"4","last_reported":1747747562,"current_range_meters":14800,"station_id":"ce4bgip2rcd13ifvqbb0","pricing_plan_id":"cebpf4jnsgd1na2vs0mg"},{"bike_id":"3137d4d1-3c0d-4b87-920b-8c52cc30d468","system_id":"levelo_inurba_marseille","lat":43.29595,"lon":5.38102,"is_reserved":false,"is_disabled":false,"rental_uris":{"android":"levelo://app?vid=3137d4d1-3c0d-4b87-920b-8c52cc30d468","ios":"levelo://app?vid=3137d4d1-3c0d-4b87-920b-8c52cc30d468"},"vehicle_type_id":"4","last_reported":1747747562,"current_range_meters":14800,"station_id":"ce4bgl12rcd13ifvqbo0","pricing_plan_id":"cebpf4jnsgd1na2vs0mg"},{"bike_id":"fb417144-e866-41fc-bfd9-0d80a798abcb","system_id":"levelo_inurba_marseille","lat":43.30575,"lon":5.3672,"is_reserved":false,"is_disabled":false,"rental_uris":{"android":"levelo://app?vid=fb417144-e866-41fc-bfd9-0d80a798abcb","ios":"levelo://app?vid=fb417144-e866-41fc-bfd9-0d80a798abcb"},"vehicle_type_id":"4","last_reported":1747747562,"current_range_meters":14800,"station_id":"ce4bgrp2rcd13ifvqc9g","pricing_plan_id":"cebpf4jnsgd1na2vs0mg"},{"bike_id":"14e542d5-fc68-4d0a-bb05-a499eddf55c1","system_id":"levelo_inurba_marseille","lat":43.285553,"lon":5.35192,"is_reserved":false,"is_disabled":false,"rental_uris":{"android":"levelo://app?vid=14e542d5-fc68-4d0a-bb05-a499eddf55c1","ios":"levelo://app?vid=14e542d5-fc68-4d0a-bb05-a499eddf55c1"},"vehicle_type_id":"4","last_reported":1747747562,"current_range_meters":14800,"station_id":"ce4bhb92rcd13ifvqen0","pricing_plan_id":"cebpf4jnsgd1na2vs0mg"},{"bike_id":"cd3cd973-e6a6-4fb2-b36e-c9ee8822356a","system_id":"levelo_inurba_marseille","lat":43.26959,"lon":5.3863,"is_reserved":false,"is_disabled":false,"rental_uris":{"android":"levelo://app?vid=cd3cd973-e6a6-4fb2-b36e-c9ee8822356a","ios":"levelo://app?vid=cd3cd973-e6a6-4fb2-b36e-c9ee8822356a"},"vehicle_type_id":"4","last_reported":1747747562,"current_range_meters":14800,"station_id":"ce4bhh92rcd13ifvqfh0","pricing_plan_id":"cebpf4jnsgd1na2vs0mg"},{"bike_id":"43f4430c-84bb-4f8e-940f-e00207968292","system_id":"levelo_inurba_marseille","lat":43.27062,"lon":5.40252,"is_reserved":false,"is_disabled":false,"rental_uris":{"android":"levelo://app?vid=43f4430c-84bb-4f8e-940f-e00207968292","ios":"levelo://app?vid=43f4430c-84bb-4f8e-940f-e00207968292"},"vehicle_type_id":"4","last_reported":1747747562,"current_range_meters":14800,"station_id":"ce4bhk92rcd13ifvqgc0","pricing_plan_id":"cebpf4jnsgd1na2vs0mg"},{"bike_id":"ecc2c06e-bece-4e5c-a45b-b17ef06547fe","system_id":"levelo_inurba_marseille","lat":43.3091,"lon":5.36847,"is_reserved":false,"is_disabled":false,"rental_uris":{"android":"levelo://app?vid=ecc2c06e-bece-4e5c-a45b-b17ef06547fe","ios":"levelo://app?vid=ecc2c06e-bece-4e5c-a45b-b17ef06547fe"},"vehicle_type_id":"4","last_reported":1747747562,"current_range_meters":15200,"station_id":"ce4bgn92rcd13ifvqbvg","pricing_plan_id":"cebpf4jnsgd1na2vs0mg"},{"bike_id":"7c992c65-8b06-4407-8e9a-c46be4063ba2","system_id":"levelo_inurba_marseille","lat":43.30522,"lon":5.36512,"is_reserved":false,"is_disabled":false,"rental_uris":{"android":"levelo://app?vid=7c992c65-8b06-4407-8e9a-c46be4063ba2","ios":"levelo://app?vid=7c992c65-8b06-4407-8e9a-c46be4063ba2"},"vehicle_type_id":"4","last_reported":1747747562,"current_range_meters":15200,"station_id":"ce4bgs12rcd13ifvqcag","pricing_plan_id":"cebpf4jnsgd1na2vs0mg"},{"bike_id":"c98e0ab6-3634-4673-a20f-894e52e50da8","system_id":"levelo_inurba_marseille","lat":43.29027,"lon":5.39998,"is_reserved":false,"is_disabled":false,"rental_uris":{"android":"levelo://app?vid=c98e0ab6-3634-4673-a20f-894e52e50da8","ios":"levelo://app?vid=c98e0ab6-3634-4673-a20f-894e52e50da8"},"vehicle_type_id":"4","last_reported":1747747562,"current_range_meters":15200,"station_id":"ce4bh392rcd13ifvqdm0","pricing_plan_id":"cebpf4jnsgd1na2vs0mg"},{"bike_id":"2f87defc-f3b4-41a9-9e70-9b19a5a011b8","system_id":"levelo_inurba_marseille","lat":43.2994,"lon":5.36555,"is_reserved":false,"is_disabled":false,"rental_uris":{"android":"levelo://app?vid=2f87defc-f3b4-41a9-9e70-9b19a5a011b8","ios":"levelo://app?vid=2f87defc-f3b4-41a9-9e70-9b19a5a011b8"},"vehicle_type_id":"4","last_reported":1747747562,"current_range_meters":16000,"station_id":"ce4bgm92rcd13ifvqbr0","pricing_plan_id":"cebpf4jnsgd1na2vs0mg"},{"bike_id":"c64832ea-cbd0-47ba-a7f9-dddb8ed879b4","system_id":"levelo_inurba_marseille","lat":43.30541,"lon":5.3654,"is_reserved":false,"is_disabled":false,"rental_uris":{"android":"levelo://app?vid=c64832ea-cbd0-47ba-a7f9-dddb8ed879b4","ios":"levelo://app?vid=c64832ea-cbd0-47ba-a7f9-dddb8ed879b4"},"vehicle_type_id":"4","last_reported":1747747562,"current_range_meters":16000,"station_id":"ce4bgs12rcd13ifvqcag","pricing_plan_id":"cebpf4jnsgd1na2vs0mg"},{"bike_id":"10e5120c-1eab-4a5b-856d-d14805609b22","system_id":"levelo_inurba_marseille","lat":43.259325,"lon":5.408942,"is_reserved":false,"is_disabled":false,"rental_uris":{"android":"levelo://app?vid=10e5120c-1eab-4a5b-856d-d14805609b22","ios":"levelo://app?vid=10e5120c-1eab-4a5b-856d-d14805609b22"},"vehicle_type_id":"4","last_reported":1747747562,"current_range_meters":16000,"station_id":"ce4bhm92rcd13ifvqglg","pricing_plan_id":"cebpf4jnsgd1na2vs0mg"},{"bike_id":"56cf80a0-6e20-4517-b7ab-ff4ac3730a84","system_id":"levelo_inurba_marseille","lat":43.23177,"lon":5.39987,"is_reserved":false,"is_disabled":false,"rental_uris":{"android":"levelo://app?vid=56cf80a0-6e20-4517-b7ab-ff4ac3730a84","ios":"levelo://app?vid=56cf80a0-6e20-4517-b7ab-ff4ac3730a84"},"vehicle_type_id":"4","last_reported":1747747562,"current_range_meters":16000,"station_id":"ce4bhn12rcd13ifvqgqg","pricing_plan_id":"cebpf4jnsgd1na2vs0mg"},{"bike_id":"b4efa738-675a-420d-893f-b7c06e877753","system_id":"levelo_inurba_marseille","lat":43.31899,"lon":5.40719,"is_reserved":false,"is_disabled":false,"rental_uris":{"android":"levelo://app?vid=b4efa738-675a-420d-893f-b7c06e877753","ios":"levelo://app?vid=b4efa738-675a-420d-893f-b7c06e877753"},"vehicle_type_id":"4","last_reported":1747747562,"current_range_meters":16000,"station_id":"ce4bhq12rcd13ifvqhig","pricing_plan_id":"cebpf4jnsgd1na2vs0mg"},{"bike_id":"a84dc702-26cf-4b44-8dcc-81cfc47b1019","system_id":"levelo_inurba_marseille","lat":43.30905,"lon":5.36843,"is_reserved":false,"is_disabled":false,"rental_uris":{"android":"levelo://app?vid=a84dc702-26cf-4b44-8dcc-81cfc47b1019","ios":"levelo://app?vid=a84dc702-26cf-4b44-8dcc-81cfc47b1019"},"vehicle_type_id":"4","last_reported":1747747562,"current_range_meters":16400,"station_id":"ce4bgn92rcd13ifvqbvg","pricing_plan_id":"cebpf4jnsgd1na2vs0mg"},{"bike_id":"41961dba-2a13-4bf9-8818-8551feed5678","system_id":"levelo_inurba_marseille","lat":43.25571,"lon":5.38262,"is_reserved":false,"is_disabled":false,"rental_uris":{"android":"levelo://app?vid=41961dba-2a13-4bf9-8818-8551feed5678","ios":"levelo://app?vid=41961dba-2a13-4bf9-8818-8551feed5678"},"vehicle_type_id":"4","last_reported":1747747562,"current_range_meters":16400,"station_id":"ce4bhih2rcd13ifvqfs0","pricing_plan_id":"cebpf4jnsgd1na2vs0mg"},{"bike_id":"37eaf527-bcc7-4d21-ac6a-52a88855b39e","system_id":"levelo_inurba_marseille","lat":43.30731,"lon":5.42448,"is_reserved":false,"is_disabled":false,"rental_uris":{"android":"levelo://app?vid=37eaf527-bcc7-4d21-ac6a-52a88855b39e","ios":"levelo://app?vid=37eaf527-bcc7-4d21-ac6a-52a88855b39e"},"vehicle_type_id":"4","last_reported":1747747562,"current_range_meters":16400,"station_id":"st_cvj6ca6bvosntc0bfgr0","pricing_plan_id":"cebpf4jnsgd1na2vs0mg"},{"bike_id":"5765434c-77b5-41b5-8b14-b978e4d6dd10","system_id":"levelo_inurba_marseille","lat":43.212147,"lon":5.350897,"is_reserved":false,"is_disabled":false,"rental_uris":{"android":"levelo://app?vid=5765434c-77b5-41b5-8b14-b978e4d6dd10","ios":"levelo://app?vid=5765434c-77b5-41b5-8b14-b978e4d6dd10"},"vehicle_type_id":"4","last_reported":1747747562,"current_range_meters":16400,"station_id":"st_cvj6sg6p6f1abm77japg","pricing_plan_id":"cebpf4jnsgd1na2vs0mg"},{"bike_id":"d22b0fd0-78a6-46fc-aad8-ce2ca2a629e3","system_id":"levelo_inurba_marseille","lat":43.21194,"lon":5.3508,"is_reserved":false,"is_disabled":false,"rental_uris":{"android":"levelo://app?vid=d22b0fd0-78a6-46fc-aad8-ce2ca2a629e3","ios":"levelo://app?vid=d22b0fd0-78a6-46fc-aad8-ce2ca2a629e3"},"vehicle_type_id":"4","last_reported":1747747562,"current_range_meters":16400,"station_id":"st_cvj6sg6p6f1abm77japg","pricing_plan_id":"cebpf4jnsgd1na2vs0mg"},{"bike_id":"4e5ff0aa-86bc-4ec5-9c36-2f94f530574d","system_id":"levelo_inurba_marseille","lat":43.30589,"lon":5.37211,"is_reserved":false,"is_disabled":false,"rental_uris":{"android":"levelo://app?vid=4e5ff0aa-86bc-4ec5-9c36-2f94f530574d","ios":"levelo://app?vid=4e5ff0aa-86bc-4ec5-9c36-2f94f530574d"},"vehicle_type_id":"4","last_reported":1747747562,"current_range_meters":16800,"station_id":"ce4bgqh2rcd13ifvqc4g","pricing_plan_id":"cebpf4jnsgd1na2vs0mg"},{"bike_id":"a253706b-1cb9-4ca4-9560-173eeb92ac1f","system_id":"levelo_inurba_marseille","lat":43.307945,"lon":5.435281,"is_reserved":false,"is_disabled":false,"rental_uris":{"android":"levelo://app?vid=a253706b-1cb9-4ca4-9560-173eeb92ac1f","ios":"levelo://app?vid=a253706b-1cb9-4ca4-9560-173eeb92ac1f"},"vehicle_type_id":"4","last_reported":1747747562,"current_range_meters":16800,"station_id":"ce4bhph2rcd13ifvqheg","pricing_plan_id":"cebpf4jnsgd1na2vs0mg"},{"bike_id":"18d5d67f-653c-408f-9afc-eb0045f269d3","system_id":"levelo_inurba_marseille","lat":43.29799,"lon":5.38097,"is_reserved":false,"is_disabled":false,"rental_uris":{"android":"levelo://app?vid=18d5d67f-653c-408f-9afc-eb0045f269d3","ios":"levelo://app?vid=18d5d67f-653c-408f-9afc-eb0045f269d3"},"vehicle_type_id":"4","last_reported":1747747562,"current_range_meters":17200,"station_id":"ce4bgip2rcd13ifvqbb0","pricing_plan_id":"cebpf4jnsgd1na2vs0mg"},{"bike_id":"00370bd9-c924-4d2f-87be-92bbcc0a74f3","system_id":"levelo_inurba_marseille","lat":43.3133,"lon":5.39712,"is_reserved":false,"is_disabled":false,"rental_uris":{"android":"levelo://app?vid=00370bd9-c924-4d2f-87be-92bbcc0a74f3","ios":"levelo://app?vid=00370bd9-c924-4d2f-87be-92bbcc0a74f3"},"vehicle_type_id":"4","last_reported":1747747562,"current_range_meters":17200,"station_id":"ce4bgvp2rcd13ifvqcu0","pricing_plan_id":"cebpf4jnsgd1na2vs0mg"},{"bike_id":"e955ee75-97fa-4e62-aaf0-fa715e646da0","system_id":"levelo_inurba_marseille","lat":43.29031,"lon":5.35917,"is_reserved":false,"is_disabled":false,"rental_uris":{"android":"levelo://app?vid=e955ee75-97fa-4e62-aaf0-fa715e646da0","ios":"levelo://app?vid=e955ee75-97fa-4e62-aaf0-fa715e646da0"},"vehicle_type_id":"4","last_reported":1747747562,"current_range_meters":17200,"station_id":"ce4bha92rcd13ifvqeg0","pricing_plan_id":"cebpf4jnsgd1na2vs0mg"},{"bike_id":"3c27fe26-7740-4beb-aa25-34485aac3cb1","system_id":"levelo_inurba_marseille","lat":43.29193,"lon":5.35819,"is_reserved":false,"is_disabled":false,"rental_uris":{"android":"levelo://app?vid=3c27fe26-7740-4beb-aa25-34485aac3cb1","ios":"levelo://app?vid=3c27fe26-7740-4beb-aa25-34485aac3cb1"},"vehicle_type_id":"4","last_reported":1747747562,"current_range_meters":17200,"station_id":"ce4bhb12rcd13ifvqel0","pricing_plan_id":"cebpf4jnsgd1na2vs0mg"},{"bike_id":"ad137882-3dda-426b-a055-3792c4184664","system_id":"levelo_inurba_marseille","lat":43.279193,"lon":5.3958,"is_reserved":false,"is_disabled":false,"rental_uris":{"android":"levelo://app?vid=ad137882-3dda-426b-a055-3792c4184664","ios":"levelo://app?vid=ad137882-3dda-426b-a055-3792c4184664"},"vehicle_type_id":"4","last_reported":1747747562,"current_range_meters":17200,"station_id":"ce4bhf92rcd13ifvqf40","pricing_plan_id":"cebpf4jnsgd1na2vs0mg"},{"bike_id":"355cb21d-3024-437f-952b-247ad1441066","system_id":"levelo_inurba_marseille","lat":43.26927,"lon":5.38931,"is_reserved":false,"is_disabled":false,"rental_uris":{"android":"levelo://app?vid=355cb21d-3024-437f-952b-247ad1441066","ios":"levelo://app?vid=355cb21d-3024-437f-952b-247ad1441066"},"vehicle_type_id":"4","last_reported":1747747562,"current_range_meters":17200,"station_id":"ce4bhhh2rcd13ifvqfl0","pricing_plan_id":"cebpf4jnsgd1na2vs0mg"},{"bike_id":"8feb19cf-daa7-43e4-a212-a7242dc82e08","system_id":"levelo_inurba_marseille","lat":43.24069,"lon":5.3777,"is_reserved":false,"is_disabled":false,"rental_uris":{"android":"levelo://app?vid=8feb19cf-daa7-43e4-a212-a7242dc82e08","ios":"levelo://app?vid=8feb19cf-daa7-43e4-a212-a7242dc82e08"},"vehicle_type_id":"4","last_reported":1747747562,"current_range_meters":17200,"station_id":"ce4bhnp2rcd13ifvqgvg","pricing_plan_id":"cebpf4jnsgd1na2vs0mg"},{"bike_id":"b5b373f5-5d7f-4a94-92f7-1a9306feb36e","system_id":"levelo_inurba_marseille","lat":43.230574,"lon":5.354895,"is_reserved":false,"is_disabled":false,"rental_uris":{"android":"levelo://app?vid=b5b373f5-5d7f-4a94-92f7-1a9306feb36e","ios":"levelo://app?vid=b5b373f5-5d7f-4a94-92f7-1a9306feb36e"},"vehicle_type_id":"4","last_reported":1747747562,"current_range_meters":17600,"station_id":"","pricing_plan_id":"cebpf4jnsgd1na2vs0mg"},{"bike_id":"f306b528-ebcb-4ca2-a310-f5037cd000c9","system_id":"levelo_inurba_marseille","lat":43.31484,"lon":5.37307,"is_reserved":false,"is_disabled":false,"rental_uris":{"android":"levelo://app?vid=f306b528-ebcb-4ca2-a310-f5037cd000c9","ios":"levelo://app?vid=f306b528-ebcb-4ca2-a310-f5037cd000c9"},"vehicle_type_id":"4","last_reported":1747747562,"current_range_meters":17600,"station_id":"ce4bgt12rcd13ifvqcd0","pricing_plan_id":"cebpf4jnsgd1na2vs0mg"},{"bike_id":"dcdd1230-b367-4c95-b902-7d72ba080b7b","system_id":"levelo_inurba_marseille","lat":43.304591,"lon":5.379054,"is_reserved":false,"is_disabled":false,"rental_uris":{"android":"levelo://app?vid=dcdd1230-b367-4c95-b902-7d72ba080b7b","ios":"levelo://app?vid=dcdd1230-b367-4c95-b902-7d72ba080b7b"},"vehicle_type_id":"4","last_reported":1747747562,"current_range_meters":17600,"station_id":"ce4bgup2rcd13ifvqcn0","pricing_plan_id":"cebpf4jnsgd1na2vs0mg"},{"bike_id":"7bd49581-75b1-4114-a13e-7692f5bc3128","system_id":"levelo_inurba_marseille","lat":43.3093,"lon":5.40142,"is_reserved":false,"is_disabled":false,"rental_uris":{"android":"levelo://app?vid=7bd49581-75b1-4114-a13e-7692f5bc3128","ios":"levelo://app?vid=7bd49581-75b1-4114-a13e-7692f5bc3128"},"vehicle_type_id":"4","last_reported":1747747562,"current_range_meters":17600,"station_id":"ce4bgvp2rcd13ifvqct0","pricing_plan_id":"cebpf4jnsgd1na2vs0mg"},{"bike_id":"92f91e94-ac98-4d37-9f39-e934690f9111","system_id":"levelo_inurba_marseille","lat":43.29041,"lon":5.39963,"is_reserved":false,"is_disabled":false,"rental_uris":{"android":"levelo://app?vid=92f91e94-ac98-4d37-9f39-e934690f9111","ios":"levelo://app?vid=92f91e94-ac98-4d37-9f39-e934690f9111"},"vehicle_type_id":"4","last_reported":1747747562,"current_range_meters":17600,"station_id":"ce4bh392rcd13ifvqdm0","pricing_plan_id":"cebpf4jnsgd1na2vs0mg"},{"bike_id":"b2812a3f-2332-493f-85e4-6bc85b95ec70","system_id":"levelo_inurba_marseille","lat":43.26223,"lon":5.40438,"is_reserved":false,"is_disabled":false,"rental_uris":{"android":"levelo://app?vid=b2812a3f-2332-493f-85e4-6bc85b95ec70","ios":"levelo://app?vid=b2812a3f-2332-493f-85e4-6bc85b95ec70"},"vehicle_type_id":"4","last_reported":1747747562,"current_range_meters":17600,"station_id":"ce4bhmh2rcd13ifvqgmg","pricing_plan_id":"cebpf4jnsgd1na2vs0mg"},{"bike_id":"24dc12dd-e0a1-4ccc-b473-486d35ddca69","system_id":"levelo_inurba_marseille","lat":43.31708,"lon":5.43694,"is_reserved":false,"is_disabled":false,"rental_uris":{"android":"levelo://app?vid=24dc12dd-e0a1-4ccc-b473-486d35ddca69","ios":"levelo://app?vid=24dc12dd-e0a1-4ccc-b473-486d35ddca69"},"vehicle_type_id":"4","last_reported":1747747562,"current_range_meters":17600,"station_id":"ce4bhp92rcd13ifvqhcg","pricing_plan_id":"cebpf4jnsgd1na2vs0mg"},{"bike_id":"3c7175ec-aeed-4796-89fc-426901811446","system_id":"levelo_inurba_marseille","lat":43.30132,"lon":5.37425,"is_reserved":false,"is_disabled":false,"rental_uris":{"android":"levelo://app?vid=3c7175ec-aeed-4796-89fc-426901811446","ios":"levelo://app?vid=3c7175ec-aeed-4796-89fc-426901811446"},"vehicle_type_id":"4","last_reported":1747747562,"current_range_meters":18000,"station_id":"ce4bgs92rcd13ifvqcc0","pricing_plan_id":"cebpf4jnsgd1na2vs0mg"},{"bike_id":"82e68383-054b-4021-80c9-4276af7130e2","system_id":"levelo_inurba_marseille","lat":43.30938,"lon":5.4015,"is_reserved":false,"is_disabled":false,"rental_uris":{"android":"levelo://app?vid=82e68383-054b-4021-80c9-4276af7130e2","ios":"levelo://app?vid=82e68383-054b-4021-80c9-4276af7130e2"},"vehicle_type_id":"4","last_reported":1747747562,"current_range_meters":18000,"station_id":"ce4bgvp2rcd13ifvqct0","pricing_plan_id":"cebpf4jnsgd1na2vs0mg"},{"bike_id":"d2243da5-46a4-4675-a166-c5959f727fa3","system_id":"levelo_inurba_marseille","lat":43.27961,"lon":5.41031,"is_reserved":false,"is_disabled":false,"rental_uris":{"android":"levelo://app?vid=d2243da5-46a4-4675-a166-c5959f727fa3","ios":"levelo://app?vid=d2243da5-46a4-4675-a166-c5959f727fa3"},"vehicle_type_id":"4","last_reported":1747747562,"current_range_meters":18000,"station_id":"ce4bhnp2rcd13ifvqh0g","pricing_plan_id":"cebpf4jnsgd1na2vs0mg"},{"bike_id":"0e6bb125-ff93-4853-97e0-da4a593482f4","system_id":"levelo_inurba_marseille","lat":43.28076,"lon":5.39682,"is_reserved":false,"is_disabled":false,"rental_uris":{"android":"levelo://app?vid=0e6bb125-ff93-4853-97e0-da4a593482f4","ios":"levelo://app?vid=0e6bb125-ff93-4853-97e0-da4a593482f4"},"vehicle_type_id":"4","last_reported":1747747562,"current_range_meters":18000,"station_id":"ce4bho12rcd13ifvqh2g","pricing_plan_id":"cebpf4jnsgd1na2vs0mg"},{"bike_id":"e31833c9-3629-4b2f-810c-c09df0eb266c","system_id":"levelo_inurba_marseille","lat":43.33751,"lon":5.37509,"is_reserved":false,"is_disabled":false,"rental_uris":{"android":"levelo://app?vid=e31833c9-3629-4b2f-810c-c09df0eb266c","ios":"levelo://app?vid=e31833c9-3629-4b2f-810c-c09df0eb266c"},"vehicle_type_id":"4","last_reported":1747747562,"current_range_meters":18800,"station_id":"","pricing_plan_id":"cebpf4jnsgd1na2vs0mg"},{"bike_id":"690768d4-de57-412b-b90d-eea07416ae23","system_id":"levelo_inurba_marseille","lat":43.299041,"lon":5.381414,"is_reserved":false,"is_disabled":false,"rental_uris":{"android":"levelo://app?vid=690768d4-de57-412b-b90d-eea07416ae23","ios":"levelo://app?vid=690768d4-de57-412b-b90d-eea07416ae23"},"vehicle_type_id":"4","last_reported":1747747562,"current_range_meters":18800,"station_id":"ce4bgj12rcd13ifvqbc0","pricing_plan_id":"cebpf4jnsgd1na2vs0mg"},{"bike_id":"44bd0384-acc7-4168-9ebb-5356adf86059","system_id":"levelo_inurba_marseille","lat":43.29991,"lon":5.38496,"is_reserved":false,"is_disabled":false,"rental_uris":{"android":"levelo://app?vid=44bd0384-acc7-4168-9ebb-5356adf86059","ios":"levelo://app?vid=44bd0384-acc7-4168-9ebb-5356adf86059"},"vehicle_type_id":"4","last_reported":1747747562,"current_range_meters":18800,"station_id":"ce4bgj92rcd13ifvqbd0","pricing_plan_id":"cebpf4jnsgd1na2vs0mg"},{"bike_id":"badf8d69-1440-4473-acef-9764e4d694cd","system_id":"levelo_inurba_marseille","lat":43.28936,"lon":5.38386,"is_reserved":false,"is_disabled":false,"rental_uris":{"android":"levelo://app?vid=badf8d69-1440-4473-acef-9764e4d694cd","ios":"levelo://app?vid=badf8d69-1440-4473-acef-9764e4d694cd"},"vehicle_type_id":"4","last_reported":1747747562,"current_range_meters":18800,"station_id":"ce4bh612rcd13ifvqe6g","pricing_plan_id":"cebpf4jnsgd1na2vs0mg"},{"bike_id":"d8221abe-cdf8-49d2-98f2-9e91e4911b21","system_id":"levelo_inurba_marseille","lat":43.25116,"lon":5.40324,"is_reserved":false,"is_disabled":false,"rental_uris":{"android":"levelo://app?vid=d8221abe-cdf8-49d2-98f2-9e91e4911b21","ios":"levelo://app?vid=d8221abe-cdf8-49d2-98f2-9e91e4911b21"},"vehicle_type_id":"4","last_reported":1747747562,"current_range_meters":18800,"station_id":"ce4bhlh2rcd13ifvqgig","pricing_plan_id":"cebpf4jnsgd1na2vs0mg"},{"bike_id":"c336853d-ef9f-42ed-ad4a-db8114bba559","system_id":"levelo_inurba_marseille","lat":43.28451,"lon":5.39218,"is_reserved":false,"is_disabled":false,"rental_uris":{"android":"levelo://app?vid=c336853d-ef9f-42ed-ad4a-db8114bba559","ios":"levelo://app?vid=c336853d-ef9f-42ed-ad4a-db8114bba559"},"vehicle_type_id":"4","last_reported":1747747562,"current_range_meters":18800,"station_id":"ce4bhoh2rcd13ifvqh5g","pricing_plan_id":"cebpf4jnsgd1na2vs0mg"},{"bike_id":"5c7b6e85-73bd-4032-baf0-907ef90802d7","system_id":"levelo_inurba_marseille","lat":43.299152,"lon":5.381462,"is_reserved":false,"is_disabled":false,"rental_uris":{"android":"levelo://app?vid=5c7b6e85-73bd-4032-baf0-907ef90802d7","ios":"levelo://app?vid=5c7b6e85-73bd-4032-baf0-907ef90802d7"},"vehicle_type_id":"4","last_reported":1747747562,"current_range_meters":19200,"station_id":"ce4bgj12rcd13ifvqbc0","pricing_plan_id":"cebpf4jnsgd1na2vs0mg"},{"bike_id":"6434b579-b119-4c4d-b9a2-6b42be1a2e85","system_id":"levelo_inurba_marseille","lat":43.30215,"lon":5.39468,"is_reserved":false,"is_disabled":false,"rental_uris":{"android":"levelo://app?vid=6434b579-b119-4c4d-b9a2-6b42be1a2e85","ios":"levelo://app?vid=6434b579-b119-4c4d-b9a2-6b42be1a2e85"},"vehicle_type_id":"4","last_reported":1747747562,"current_range_meters":19200,"station_id":"ce4bh0p2rcd13ifvqd70","pricing_plan_id":"cebpf4jnsgd1na2vs0mg"},{"bike_id":"81071c68-5642-454b-92cd-6c05b7d3947c","system_id":"levelo_inurba_marseille","lat":43.25003,"lon":5.38925,"is_reserved":false,"is_disabled":false,"rental_uris":{"android":"levelo://app?vid=81071c68-5642-454b-92cd-6c05b7d3947c","ios":"levelo://app?vid=81071c68-5642-454b-92cd-6c05b7d3947c"},"vehicle_type_id":"4","last_reported":1747747562,"current_range_meters":19200,"station_id":"ce4bhgp2rcd13ifvqfd0","pricing_plan_id":"cebpf4jnsgd1na2vs0mg"},{"bike_id":"068f7a6a-e837-4d9c-8453-d6d6c1acf291","system_id":"levelo_inurba_marseille","lat":43.24095,"lon":5.37778,"is_reserved":false,"is_disabled":false,"rental_uris":{"android":"levelo://app?vid=068f7a6a-e837-4d9c-8453-d6d6c1acf291","ios":"levelo://app?vid=068f7a6a-e837-4d9c-8453-d6d6c1acf291"},"vehicle_type_id":"4","last_reported":1747747562,"current_range_meters":19200,"station_id":"ce4bhnp2rcd13ifvqgvg","pricing_plan_id":"cebpf4jnsgd1na2vs0mg"},{"bike_id":"c4f0ddbf-912f-4dc6-81b8-da7688e7978e","system_id":"levelo_inurba_marseille","lat":43.30798,"lon":5.4354,"is_reserved":false,"is_disabled":false,"rental_uris":{"android":"levelo://app?vid=c4f0ddbf-912f-4dc6-81b8-da7688e7978e","ios":"levelo://app?vid=c4f0ddbf-912f-4dc6-81b8-da7688e7978e"},"vehicle_type_id":"4","last_reported":1747747562,"current_range_meters":19200,"station_id":"ce4bhph2rcd13ifvqheg","pricing_plan_id":"cebpf4jnsgd1na2vs0mg"},{"bike_id":"18d4f046-c73b-4ed1-bd45-69ca2f62023e","system_id":"levelo_inurba_marseille","lat":43.22503,"lon":5.34779,"is_reserved":false,"is_disabled":false,"rental_uris":{"android":"levelo://app?vid=18d4f046-c73b-4ed1-bd45-69ca2f62023e","ios":"levelo://app?vid=18d4f046-c73b-4ed1-bd45-69ca2f62023e"},"vehicle_type_id":"4","last_reported":1747747562,"current_range_meters":19200,"station_id":"st_cvj5dfep6f1abm77gieg","pricing_plan_id":"cebpf4jnsgd1na2vs0mg"},{"bike_id":"509a7bc5-3ed4-44a0-83b3-6bbf477b3a61","system_id":"levelo_inurba_marseille","lat":43.21191,"lon":5.3511,"is_reserved":false,"is_disabled":false,"rental_uris":{"android":"levelo://app?vid=509a7bc5-3ed4-44a0-83b3-6bbf477b3a61","ios":"levelo://app?vid=509a7bc5-3ed4-44a0-83b3-6bbf477b3a61"},"vehicle_type_id":"4","last_reported":1747747562,"current_range_meters":19200,"station_id":"st_cvj6sg6p6f1abm77japg","pricing_plan_id":"cebpf4jnsgd1na2vs0mg"},{"bike_id":"604a7e3b-5635-4260-afe2-1e4cdf40ffbb","system_id":"levelo_inurba_marseille","lat":43.29303,"lon":5.37456,"is_reserved":false,"is_disabled":false,"rental_uris":{"android":"levelo://app?vid=604a7e3b-5635-4260-afe2-1e4cdf40ffbb","ios":"levelo://app?vid=604a7e3b-5635-4260-afe2-1e4cdf40ffbb"},"vehicle_type_id":"4","last_reported":1747747562,"current_range_meters":19600,"station_id":"ce4bgi12rcd13ifvqb70","pricing_plan_id":"cebpf4jnsgd1na2vs0mg"},{"bike_id":"e9b8f93c-0e12-41b3-b49f-d4e8ae170d04","system_id":"levelo_inurba_marseille","lat":43.29602,"lon":5.38098,"is_reserved":false,"is_disabled":false,"rental_uris":{"android":"levelo://app?vid=e9b8f93c-0e12-41b3-b49f-d4e8ae170d04","ios":"levelo://app?vid=e9b8f93c-0e12-41b3-b49f-d4e8ae170d04"},"vehicle_type_id":"4","last_reported":1747747562,"current_range_meters":19600,"station_id":"ce4bgl12rcd13ifvqbo0","pricing_plan_id":"cebpf4jnsgd1na2vs0mg"},{"bike_id":"abddf365-204c-4f8c-83df-344d02d6adef","system_id":"levelo_inurba_marseille","lat":43.30549,"lon":5.36549,"is_reserved":false,"is_disabled":false,"rental_uris":{"android":"levelo://app?vid=abddf365-204c-4f8c-83df-344d02d6adef","ios":"levelo://app?vid=abddf365-204c-4f8c-83df-344d02d6adef"},"vehicle_type_id":"4","last_reported":1747747562,"current_range_meters":19600,"station_id":"ce4bgs12rcd13ifvqcag","pricing_plan_id":"cebpf4jnsgd1na2vs0mg"},{"bike_id":"8bb7d43c-e583-40c0-9a6a-a2f0c4f03243","system_id":"levelo_inurba_marseille","lat":43.29252,"lon":5.40923,"is_reserved":false,"is_disabled":false,"rental_uris":{"android":"levelo://app?vid=8bb7d43c-e583-40c0-9a6a-a2f0c4f03243","ios":"levelo://app?vid=8bb7d43c-e583-40c0-9a6a-a2f0c4f03243"},"vehicle_type_id":"4","last_reported":1747747562,"current_range_meters":19600,"station_id":"ce4bh192rcd13ifvqdc0","pricing_plan_id":"cebpf4jnsgd1na2vs0mg"},{"bike_id":"cfb8bf5a-70d2-4b49-81e0-7dfb45946471","system_id":"levelo_inurba_marseille","lat":43.28475,"lon":5.38409,"is_reserved":false,"is_disabled":false,"rental_uris":{"android":"levelo://app?vid=cfb8bf5a-70d2-4b49-81e0-7dfb45946471","ios":"levelo://app?vid=cfb8bf5a-70d2-4b49-81e0-7dfb45946471"},"vehicle_type_id":"4","last_reported":1747747562,"current_range_meters":19600,"station_id":"ce4bh512rcd13ifvqe3g","pricing_plan_id":"cebpf4jnsgd1na2vs0mg"},{"bike_id":"8ffeb00f-c41b-4efe-88f0-6a10245bc787","system_id":"levelo_inurba_marseille","lat":43.28715,"lon":5.37949,"is_reserved":false,"is_disabled":false,"rental_uris":{"android":"levelo://app?vid=8ffeb00f-c41b-4efe-88f0-6a10245bc787","ios":"levelo://app?vid=8ffeb00f-c41b-4efe-88f0-6a10245bc787"},"vehicle_type_id":"4","last_reported":1747747562,"current_range_meters":19600,"station_id":"ce4bh9p2rcd13ifvqec0","pricing_plan_id":"cebpf4jnsgd1na2vs0mg"},{"bike_id":"81c61eb8-dcbc-4adb-8625-b3c41ca1acc7","system_id":"levelo_inurba_marseille","lat":43.260311,"lon":5.375452,"is_reserved":false,"is_disabled":false,"rental_uris":{"android":"levelo://app?vid=81c61eb8-dcbc-4adb-8625-b3c41ca1acc7","ios":"levelo://app?vid=81c61eb8-dcbc-4adb-8625-b3c41ca1acc7"},"vehicle_type_id":"4","last_reported":1747747562,"current_range_meters":19600,"station_id":"ce4bhgh2rcd13ifvqfa0","pricing_plan_id":"cebpf4jnsgd1na2vs0mg"},{"bike_id":"13d58ab9-f14f-4039-9563-9b3c3fdfb0aa","system_id":"levelo_inurba_marseille","lat":43.262273,"lon":5.404563,"is_reserved":false,"is_disabled":false,"rental_uris":{"android":"levelo://app?vid=13d58ab9-f14f-4039-9563-9b3c3fdfb0aa","ios":"levelo://app?vid=13d58ab9-f14f-4039-9563-9b3c3fdfb0aa"},"vehicle_type_id":"4","last_reported":1747747562,"current_range_meters":19600,"station_id":"ce4bhmh2rcd13ifvqgmg","pricing_plan_id":"cebpf4jnsgd1na2vs0mg"},{"bike_id":"c982456e-9239-418d-bf61-18cb2653c010","system_id":"levelo_inurba_marseille","lat":43.27496,"lon":5.42445,"is_reserved":false,"is_disabled":false,"rental_uris":{"android":"levelo://app?vid=c982456e-9239-418d-bf61-18cb2653c010","ios":"levelo://app?vid=c982456e-9239-418d-bf61-18cb2653c010"},"vehicle_type_id":"4","last_reported":1747747562,"current_range_meters":19600,"station_id":"ce4bhn92rcd13ifvqgrg","pricing_plan_id":"cebpf4jnsgd1na2vs0mg"},{"bike_id":"ac54cb9d-c717-4084-9363-e0498a0029df","system_id":"levelo_inurba_marseille","lat":43.27949,"lon":5.41054,"is_reserved":false,"is_disabled":false,"rental_uris":{"android":"levelo://app?vid=ac54cb9d-c717-4084-9363-e0498a0029df","ios":"levelo://app?vid=ac54cb9d-c717-4084-9363-e0498a0029df"},"vehicle_type_id":"4","last_reported":1747747562,"current_range_meters":19600,"station_id":"ce4bhnp2rcd13ifvqh0g","pricing_plan_id":"cebpf4jnsgd1na2vs0mg"},{"bike_id":"c9a00e74-029a-454e-8e85-1b3d994b9d78","system_id":"levelo_inurba_marseille","lat":43.211928,"lon":5.350763,"is_reserved":false,"is_disabled":false,"rental_uris":{"android":"levelo://app?vid=c9a00e74-029a-454e-8e85-1b3d994b9d78","ios":"levelo://app?vid=c9a00e74-029a-454e-8e85-1b3d994b9d78"},"vehicle_type_id":"4","last_reported":1747747562,"current_range_meters":19600,"station_id":"st_cvj6sg6p6f1abm77japg","pricing_plan_id":"cebpf4jnsgd1na2vs0mg"},{"bike_id":"5a9b6dcf-2ff0-4428-a99a-d0b8a342b27b","system_id":"levelo_inurba_marseille","lat":43.31807,"lon":5.37468,"is_reserved":false,"is_disabled":false,"rental_uris":{"android":"levelo://app?vid=5a9b6dcf-2ff0-4428-a99a-d0b8a342b27b","ios":"levelo://app?vid=5a9b6dcf-2ff0-4428-a99a-d0b8a342b27b"},"vehicle_type_id":"4","last_reported":1747747562,"current_range_meters":20000,"station_id":"","pricing_plan_id":"cebpf4jnsgd1na2vs0mg"},{"bike_id":"d3433e92-bf5d-42b3-8af1-396f34324daa","system_id":"levelo_inurba_marseille","lat":43.27612,"lon":5.36112,"is_reserved":false,"is_disabled":false,"rental_uris":{"android":"levelo://app?vid=d3433e92-bf5d-42b3-8af1-396f34324daa","ios":"levelo://app?vid=d3433e92-bf5d-42b3-8af1-396f34324daa"},"vehicle_type_id":"4","last_reported":1747747562,"current_range_meters":20000,"station_id":"ce4bgj92rcd13ifvqbe0","pricing_plan_id":"cebpf4jnsgd1na2vs0mg"},{"bike_id":"239d3329-c5ea-4e44-a445-5a65f6552521","system_id":"levelo_inurba_marseille","lat":43.26932,"lon":5.38919,"is_reserved":false,"is_disabled":false,"rental_uris":{"android":"levelo://app?vid=239d3329-c5ea-4e44-a445-5a65f6552521","ios":"levelo://app?vid=239d3329-c5ea-4e44-a445-5a65f6552521"},"vehicle_type_id":"4","last_reported":1747747562,"current_range_meters":20000,"station_id":"ce4bhhh2rcd13ifvqfl0","pricing_plan_id":"cebpf4jnsgd1na2vs0mg"},{"bike_id":"6f927d5a-b3e0-4fab-ba25-bd809b6b66d0","system_id":"levelo_inurba_marseille","lat":43.30541,"lon":5.38421,"is_reserved":false,"is_disabled":false,"rental_uris":{"android":"levelo://app?vid=6f927d5a-b3e0-4fab-ba25-bd809b6b66d0","ios":"levelo://app?vid=6f927d5a-b3e0-4fab-ba25-bd809b6b66d0"},"vehicle_type_id":"4","last_reported":1747747562,"current_range_meters":20400,"station_id":"ce4bgg92rcd13ifvqb30","pricing_plan_id":"cebpf4jnsgd1na2vs0mg"},{"bike_id":"1e139b0c-091b-47c0-9190-cb823fdb0060","system_id":"levelo_inurba_marseille","lat":43.29593,"lon":5.3768,"is_reserved":false,"is_disabled":false,"rental_uris":{"android":"levelo://app?vid=1e139b0c-091b-47c0-9190-cb823fdb0060","ios":"levelo://app?vid=1e139b0c-091b-47c0-9190-cb823fdb0060"},"vehicle_type_id":"4","last_reported":1747747562,"current_range_meters":20400,"station_id":"ce4bgi92rcd13ifvqb90","pricing_plan_id":"cebpf4jnsgd1na2vs0mg"},{"bike_id":"85605ec6-0036-497f-ac6c-034226e5adb9","system_id":"levelo_inurba_marseille","lat":43.303238,"lon":5.369038,"is_reserved":false,"is_disabled":false,"rental_uris":{"android":"levelo://app?vid=85605ec6-0036-497f-ac6c-034226e5adb9","ios":"levelo://app?vid=85605ec6-0036-497f-ac6c-034226e5adb9"},"vehicle_type_id":"4","last_reported":1747747562,"current_range_meters":20400,"station_id":"ce4bgqh2rcd13ifvqc5g","pricing_plan_id":"cebpf4jnsgd1na2vs0mg"},{"bike_id":"f84579c5-aeab-4ed3-9d7f-8bb90f919ef4","system_id":"levelo_inurba_marseille","lat":43.31328,"lon":5.39689,"is_reserved":false,"is_disabled":false,"rental_uris":{"android":"levelo://app?vid=f84579c5-aeab-4ed3-9d7f-8bb90f919ef4","ios":"levelo://app?vid=f84579c5-aeab-4ed3-9d7f-8bb90f919ef4"},"vehicle_type_id":"4","last_reported":1747747562,"current_range_meters":20400,"station_id":"ce4bgvp2rcd13ifvqcu0","pricing_plan_id":"cebpf4jnsgd1na2vs0mg"},{"bike_id":"bc4b59fb-f511-4505-8fcf-8e55b28089d2","system_id":"levelo_inurba_marseille","lat":43.29205,"lon":5.39334,"is_reserved":false,"is_disabled":false,"rental_uris":{"android":"levelo://app?vid=bc4b59fb-f511-4505-8fcf-8e55b28089d2","ios":"levelo://app?vid=bc4b59fb-f511-4505-8fcf-8e55b28089d2"},"vehicle_type_id":"4","last_reported":1747747562,"current_range_meters":20400,"station_id":"ce4bh192rcd13ifvqdd0","pricing_plan_id":"cebpf4jnsgd1na2vs0mg"},{"bike_id":"01c3751f-51d5-4239-9176-397ea5f8d2d3","system_id":"levelo_inurba_marseille","lat":43.29885,"lon":5.38895,"is_reserved":false,"is_disabled":false,"rental_uris":{"android":"levelo://app?vid=01c3751f-51d5-4239-9176-397ea5f8d2d3","ios":"levelo://app?vid=01c3751f-51d5-4239-9176-397ea5f8d2d3"},"vehicle_type_id":"4","last_reported":1747747562,"current_range_meters":20400,"station_id":"ce4bh392rcd13ifvqdl0","pricing_plan_id":"cebpf4jnsgd1na2vs0mg"},{"bike_id":"bb4de4d1-2ab0-4c83-90a7-cb93b94ed2fd","system_id":"levelo_inurba_marseille","lat":43.29248,"lon":5.3845,"is_reserved":false,"is_disabled":false,"rental_uris":{"android":"levelo://app?vid=bb4de4d1-2ab0-4c83-90a7-cb93b94ed2fd","ios":"levelo://app?vid=bb4de4d1-2ab0-4c83-90a7-cb93b94ed2fd"},"vehicle_type_id":"4","last_reported":1747747562,"current_range_meters":20400,"station_id":"ce4bh692rcd13ifvqea0","pricing_plan_id":"cebpf4jnsgd1na2vs0mg"},{"bike_id":"76b59a06-e279-4b52-b900-a0c55b459630","system_id":"levelo_inurba_marseille","lat":43.26949,"lon":5.38625,"is_reserved":false,"is_disabled":false,"rental_uris":{"android":"levelo://app?vid=76b59a06-e279-4b52-b900-a0c55b459630","ios":"levelo://app?vid=76b59a06-e279-4b52-b900-a0c55b459630"},"vehicle_type_id":"4","last_reported":1747747562,"current_range_meters":20400,"station_id":"ce4bhh92rcd13ifvqfh0","pricing_plan_id":"cebpf4jnsgd1na2vs0mg"},{"bike_id":"55c91975-afd3-47bc-bac3-668d1148eebe","system_id":"levelo_inurba_marseille","lat":43.28147,"lon":5.42653,"is_reserved":false,"is_disabled":false,"rental_uris":{"android":"levelo://app?vid=55c91975-afd3-47bc-bac3-668d1148eebe","ios":"levelo://app?vid=55c91975-afd3-47bc-bac3-668d1148eebe"},"vehicle_type_id":"4","last_reported":1747747562,"current_range_meters":20400,"station_id":"ce4bhnh2rcd13ifvqgug","pricing_plan_id":"cebpf4jnsgd1na2vs0mg"},{"bike_id":"e83f36b6-11fb-4782-badd-4b20eaae52f5","system_id":"levelo_inurba_marseille","lat":43.28945,"lon":5.36422,"is_reserved":false,"is_disabled":false,"rental_uris":{"android":"levelo://app?vid=e83f36b6-11fb-4782-badd-4b20eaae52f5","ios":"levelo://app?vid=e83f36b6-11fb-4782-badd-4b20eaae52f5"},"vehicle_type_id":"4","last_reported":1747747562,"current_range_meters":20800,"station_id":"ce4bhc92rcd13ifvqetg","pricing_plan_id":"cebpf4jnsgd1na2vs0mg"},{"bike_id":"57c11ae7-b071-4549-ad59-ce0fae2e16fc","system_id":"levelo_inurba_marseille","lat":43.24394,"lon":5.37049,"is_reserved":false,"is_disabled":false,"rental_uris":{"android":"levelo://app?vid=57c11ae7-b071-4549-ad59-ce0fae2e16fc","ios":"levelo://app?vid=57c11ae7-b071-4549-ad59-ce0fae2e16fc"},"vehicle_type_id":"4","last_reported":1747747562,"current_range_meters":20800,"station_id":"ce4bhhh2rcd13ifvqfk0","pricing_plan_id":"cebpf4jnsgd1na2vs0mg"},{"bike_id":"c4ea5a45-10f8-4771-8462-3d11a6370860","system_id":"levelo_inurba_marseille","lat":43.24665,"lon":5.38174,"is_reserved":false,"is_disabled":false,"rental_uris":{"android":"levelo://app?vid=c4ea5a45-10f8-4771-8462-3d11a6370860","ios":"levelo://app?vid=c4ea5a45-10f8-4771-8462-3d11a6370860"},"vehicle_type_id":"4","last_reported":1747747562,"current_range_meters":20800,"station_id":"ce4bhih2rcd13ifvqfr0","pricing_plan_id":"cebpf4jnsgd1na2vs0mg"},{"bike_id":"32c377c5-5335-4199-8968-242ecd5c8a81","system_id":"levelo_inurba_marseille","lat":43.27202,"lon":5.41018,"is_reserved":false,"is_disabled":false,"rental_uris":{"android":"levelo://app?vid=32c377c5-5335-4199-8968-242ecd5c8a81","ios":"levelo://app?vid=32c377c5-5335-4199-8968-242ecd5c8a81"},"vehicle_type_id":"4","last_reported":1747747562,"current_range_meters":20800,"station_id":"ce4bhl12rcd13ifvqgf0","pricing_plan_id":"cebpf4jnsgd1na2vs0mg"},{"bike_id":"92cae85f-aab4-4a45-a554-81f816d37b95","system_id":"levelo_inurba_marseille","lat":43.23192,"lon":5.39978,"is_reserved":false,"is_disabled":false,"rental_uris":{"android":"levelo://app?vid=92cae85f-aab4-4a45-a554-81f816d37b95","ios":"levelo://app?vid=92cae85f-aab4-4a45-a554-81f816d37b95"},"vehicle_type_id":"4","last_reported":1747747562,"current_range_meters":20800,"station_id":"ce4bhn12rcd13ifvqgqg","pricing_plan_id":"cebpf4jnsgd1na2vs0mg"},{"bike_id":"961d52e8-6ee8-4ceb-a690-58c92b378268","system_id":"levelo_inurba_marseille","lat":43.279807,"lon":5.4161,"is_reserved":false,"is_disabled":false,"rental_uris":{"android":"levelo://app?vid=961d52e8-6ee8-4ceb-a690-58c92b378268","ios":"levelo://app?vid=961d52e8-6ee8-4ceb-a690-58c92b378268"},"vehicle_type_id":"4","last_reported":1747747562,"current_range_meters":20800,"station_id":"ce4bho12rcd13ifvqh1g","pricing_plan_id":"cebpf4jnsgd1na2vs0mg"},{"bike_id":"303ed102-784d-4386-8a11-00ab15f333ea","system_id":"levelo_inurba_marseille","lat":43.308933,"lon":5.396529,"is_reserved":false,"is_disabled":false,"rental_uris":{"android":"levelo://app?vid=303ed102-784d-4386-8a11-00ab15f333ea","ios":"levelo://app?vid=303ed102-784d-4386-8a11-00ab15f333ea"},"vehicle_type_id":"4","last_reported":1747747562,"current_range_meters":21600,"station_id":"","pricing_plan_id":"cebpf4jnsgd1na2vs0mg"},{"bike_id":"e6528e0f-3ed5-4d2d-873f-785ebceab04e","system_id":"levelo_inurba_marseille","lat":43.29361,"lon":5.37843,"is_reserved":false,"is_disabled":false,"rental_uris":{"android":"levelo://app?vid=e6528e0f-3ed5-4d2d-873f-785ebceab04e","ios":"levelo://app?vid=e6528e0f-3ed5-4d2d-873f-785ebceab04e"},"vehicle_type_id":"4","last_reported":1747747562,"current_range_meters":21600,"station_id":"ce4bgjh2rcd13ifvqbf0","pricing_plan_id":"cebpf4jnsgd1na2vs0mg"},{"bike_id":"992a7417-87c6-49b2-83b9-3b6a9b17f1f0","system_id":"levelo_inurba_marseille","lat":43.29263,"lon":5.38439,"is_reserved":false,"is_disabled":false,"rental_uris":{"android":"levelo://app?vid=992a7417-87c6-49b2-83b9-3b6a9b17f1f0","ios":"levelo://app?vid=992a7417-87c6-49b2-83b9-3b6a9b17f1f0"},"vehicle_type_id":"4","last_reported":1747747562,"current_range_meters":21600,"station_id":"ce4bh692rcd13ifvqea0","pricing_plan_id":"cebpf4jnsgd1na2vs0mg"},{"bike_id":"a7ff67a8-d1c3-46ca-8c14-5feed0ca71f5","system_id":"levelo_inurba_marseille","lat":43.28462,"lon":5.35893,"is_reserved":false,"is_disabled":false,"rental_uris":{"android":"levelo://app?vid=a7ff67a8-d1c3-46ca-8c14-5feed0ca71f5","ios":"levelo://app?vid=a7ff67a8-d1c3-46ca-8c14-5feed0ca71f5"},"vehicle_type_id":"4","last_reported":1747747562,"current_range_meters":21600,"station_id":"ce4bhah2rcd13ifvqei0","pricing_plan_id":"cebpf4jnsgd1na2vs0mg"},{"bike_id":"53bedfa7-1ce5-4a05-84b9-c89eed1d6e6a","system_id":"levelo_inurba_marseille","lat":43.29263,"lon":5.36852,"is_reserved":false,"is_disabled":false,"rental_uris":{"android":"levelo://app?vid=53bedfa7-1ce5-4a05-84b9-c89eed1d6e6a","ios":"levelo://app?vid=53bedfa7-1ce5-4a05-84b9-c89eed1d6e6a"},"vehicle_type_id":"4","last_reported":1747747562,"current_range_meters":21600,"station_id":"ce4bhbp2rcd13ifvqesg","pricing_plan_id":"cebpf4jnsgd1na2vs0mg"},{"bike_id":"48d60aae-4f96-4307-94f1-ed195fe1c316","system_id":"levelo_inurba_marseille","lat":43.28613,"lon":5.35109,"is_reserved":false,"is_disabled":false,"rental_uris":{"android":"levelo://app?vid=48d60aae-4f96-4307-94f1-ed195fe1c316","ios":"levelo://app?vid=48d60aae-4f96-4307-94f1-ed195fe1c316"},"vehicle_type_id":"4","last_reported":1747747562,"current_range_meters":21600,"station_id":"ce4bhch2rcd13ifvqeug","pricing_plan_id":"cebpf4jnsgd1na2vs0mg"},{"bike_id":"c974dcc0-feb2-41c2-9c33-e1dd2b182bd9","system_id":"levelo_inurba_marseille","lat":43.25718,"lon":5.41115,"is_reserved":false,"is_disabled":false,"rental_uris":{"android":"levelo://app?vid=c974dcc0-feb2-41c2-9c33-e1dd2b182bd9","ios":"levelo://app?vid=c974dcc0-feb2-41c2-9c33-e1dd2b182bd9"},"vehicle_type_id":"4","last_reported":1747747562,"current_range_meters":21600,"station_id":"ce4bhkp2rcd13ifvqgd0","pricing_plan_id":"cebpf4jnsgd1na2vs0mg"},{"bike_id":"dc61c065-6ed1-487e-9ecf-5a93a8f61ca7","system_id":"levelo_inurba_marseille","lat":43.23198,"lon":5.40025,"is_reserved":false,"is_disabled":false,"rental_uris":{"android":"levelo://app?vid=dc61c065-6ed1-487e-9ecf-5a93a8f61ca7","ios":"levelo://app?vid=dc61c065-6ed1-487e-9ecf-5a93a8f61ca7"},"vehicle_type_id":"4","last_reported":1747747562,"current_range_meters":21600,"station_id":"ce4bhn12rcd13ifvqgqg","pricing_plan_id":"cebpf4jnsgd1na2vs0mg"},{"bike_id":"512cad48-a180-4060-b1f1-89c6ef5852f2","system_id":"levelo_inurba_marseille","lat":43.23187,"lon":5.39981,"is_reserved":false,"is_disabled":false,"rental_uris":{"android":"levelo://app?vid=512cad48-a180-4060-b1f1-89c6ef5852f2","ios":"levelo://app?vid=512cad48-a180-4060-b1f1-89c6ef5852f2"},"vehicle_type_id":"4","last_reported":1747747562,"current_range_meters":21600,"station_id":"ce4bhn12rcd13ifvqgqg","pricing_plan_id":"cebpf4jnsgd1na2vs0mg"},{"bike_id":"73e553ab-c25f-45eb-89f6-a65217bed34e","system_id":"levelo_inurba_marseille","lat":43.31526,"lon":5.38028,"is_reserved":false,"is_disabled":false,"rental_uris":{"android":"levelo://app?vid=73e553ab-c25f-45eb-89f6-a65217bed34e","ios":"levelo://app?vid=73e553ab-c25f-45eb-89f6-a65217bed34e"},"vehicle_type_id":"4","last_reported":1747747562,"current_range_meters":21600,"station_id":"ce4bhsp2rcd13ifvqi50","pricing_plan_id":"cebpf4jnsgd1na2vs0mg"},{"bike_id":"c8b47ddd-b8c4-4b34-bde9-7cae59464508","system_id":"levelo_inurba_marseille","lat":43.30533,"lon":5.36516,"is_reserved":false,"is_disabled":false,"rental_uris":{"android":"levelo://app?vid=c8b47ddd-b8c4-4b34-bde9-7cae59464508","ios":"levelo://app?vid=c8b47ddd-b8c4-4b34-bde9-7cae59464508"},"vehicle_type_id":"4","last_reported":1747747562,"current_range_meters":22000,"station_id":"ce4bgs12rcd13ifvqcag","pricing_plan_id":"cebpf4jnsgd1na2vs0mg"},{"bike_id":"484890ed-82b8-4e4c-a699-13498051462c","system_id":"levelo_inurba_marseille","lat":43.31487,"lon":5.37312,"is_reserved":false,"is_disabled":false,"rental_uris":{"android":"levelo://app?vid=484890ed-82b8-4e4c-a699-13498051462c","ios":"levelo://app?vid=484890ed-82b8-4e4c-a699-13498051462c"},"vehicle_type_id":"4","last_reported":1747747562,"current_range_meters":22000,"station_id":"ce4bgt12rcd13ifvqcd0","pricing_plan_id":"cebpf4jnsgd1na2vs0mg"},{"bike_id":"7b9ef295-2180-4a65-9b5f-3dc833bfa8b3","system_id":"levelo_inurba_marseille","lat":43.31077,"lon":5.38357,"is_reserved":false,"is_disabled":false,"rental_uris":{"android":"levelo://app?vid=7b9ef295-2180-4a65-9b5f-3dc833bfa8b3","ios":"levelo://app?vid=7b9ef295-2180-4a65-9b5f-3dc833bfa8b3"},"vehicle_type_id":"4","last_reported":1747747562,"current_range_meters":22000,"station_id":"ce4bgv92rcd13ifvqcr0","pricing_plan_id":"cebpf4jnsgd1na2vs0mg"},{"bike_id":"e7732b4e-c657-419b-a05d-d8ef89fcac35","system_id":"levelo_inurba_marseille","lat":43.28622,"lon":5.35102,"is_reserved":false,"is_disabled":false,"rental_uris":{"android":"levelo://app?vid=e7732b4e-c657-419b-a05d-d8ef89fcac35","ios":"levelo://app?vid=e7732b4e-c657-419b-a05d-d8ef89fcac35"},"vehicle_type_id":"4","last_reported":1747747562,"current_range_meters":22000,"station_id":"ce4bhch2rcd13ifvqeug","pricing_plan_id":"cebpf4jnsgd1na2vs0mg"},{"bike_id":"c38c8394-23d9-4e44-91d7-6fb53aad43be","system_id":"levelo_inurba_marseille","lat":43.26215,"lon":5.37438,"is_reserved":false,"is_disabled":false,"rental_uris":{"android":"levelo://app?vid=c38c8394-23d9-4e44-91d7-6fb53aad43be","ios":"levelo://app?vid=c38c8394-23d9-4e44-91d7-6fb53aad43be"},"vehicle_type_id":"4","last_reported":1747747562,"current_range_meters":22000,"station_id":"ce4bhgp2rcd13ifvqfc0","pricing_plan_id":"cebpf4jnsgd1na2vs0mg"},{"bike_id":"93ab2e77-e5ea-4852-b6a0-a034922a6d30","system_id":"levelo_inurba_marseille","lat":43.26045,"lon":5.39397,"is_reserved":false,"is_disabled":false,"rental_uris":{"android":"levelo://app?vid=93ab2e77-e5ea-4852-b6a0-a034922a6d30","ios":"levelo://app?vid=93ab2e77-e5ea-4852-b6a0-a034922a6d30"},"vehicle_type_id":"4","last_reported":1747747562,"current_range_meters":22000,"station_id":"ce4bhh92rcd13ifvqfj0","pricing_plan_id":"cebpf4jnsgd1na2vs0mg"},{"bike_id":"ac284784-9a8d-4900-915b-a5ac8a57cfad","system_id":"levelo_inurba_marseille","lat":43.28058,"lon":5.39637,"is_reserved":false,"is_disabled":false,"rental_uris":{"android":"levelo://app?vid=ac284784-9a8d-4900-915b-a5ac8a57cfad","ios":"levelo://app?vid=ac284784-9a8d-4900-915b-a5ac8a57cfad"},"vehicle_type_id":"4","last_reported":1747747562,"current_range_meters":22000,"station_id":"ce4bho12rcd13ifvqh2g","pricing_plan_id":"cebpf4jnsgd1na2vs0mg"},{"bike_id":"3a48c182-8aa9-4817-97ec-3a2c2ae3fb96","system_id":"levelo_inurba_marseille","lat":43.29918,"lon":5.43682,"is_reserved":false,"is_disabled":false,"rental_uris":{"android":"levelo://app?vid=3a48c182-8aa9-4817-97ec-3a2c2ae3fb96","ios":"levelo://app?vid=3a48c182-8aa9-4817-97ec-3a2c2ae3fb96"},"vehicle_type_id":"4","last_reported":1747747562,"current_range_meters":22400,"station_id":"","pricing_plan_id":"cebpf4jnsgd1na2vs0mg"},{"bike_id":"2cc6cb49-77af-4ebd-82f4-0e4509d5971a","system_id":"levelo_inurba_marseille","lat":43.30928,"lon":5.36922,"is_reserved":false,"is_disabled":false,"rental_uris":{"android":"levelo://app?vid=2cc6cb49-77af-4ebd-82f4-0e4509d5971a","ios":"levelo://app?vid=2cc6cb49-77af-4ebd-82f4-0e4509d5971a"},"vehicle_type_id":"4","last_reported":1747747562,"current_range_meters":22400,"station_id":"","pricing_plan_id":"cebpf4jnsgd1na2vs0mg"},{"bike_id":"574d3a33-368f-4e19-8690-1eaf33394987","system_id":"levelo_inurba_marseille","lat":43.29614,"lon":5.37742,"is_reserved":false,"is_disabled":false,"rental_uris":{"android":"levelo://app?vid=574d3a33-368f-4e19-8690-1eaf33394987","ios":"levelo://app?vid=574d3a33-368f-4e19-8690-1eaf33394987"},"vehicle_type_id":"4","last_reported":1747747562,"current_range_meters":22400,"station_id":"ce4bgi92rcd13ifvqb90","pricing_plan_id":"cebpf4jnsgd1na2vs0mg"},{"bike_id":"9c276115-7860-4aaa-8351-5269551bcca1","system_id":"levelo_inurba_marseille","lat":43.2621,"lon":5.37455,"is_reserved":false,"is_disabled":false,"rental_uris":{"android":"levelo://app?vid=9c276115-7860-4aaa-8351-5269551bcca1","ios":"levelo://app?vid=9c276115-7860-4aaa-8351-5269551bcca1"},"vehicle_type_id":"4","last_reported":1747747562,"current_range_meters":22400,"station_id":"ce4bhgp2rcd13ifvqfc0","pricing_plan_id":"cebpf4jnsgd1na2vs0mg"},{"bike_id":"2009ad58-b060-4174-ab44-76bcf3c82281","system_id":"levelo_inurba_marseille","lat":43.24076,"lon":5.37759,"is_reserved":false,"is_disabled":false,"rental_uris":{"android":"levelo://app?vid=2009ad58-b060-4174-ab44-76bcf3c82281","ios":"levelo://app?vid=2009ad58-b060-4174-ab44-76bcf3c82281"},"vehicle_type_id":"4","last_reported":1747747562,"current_range_meters":22400,"station_id":"ce4bhnp2rcd13ifvqgvg","pricing_plan_id":"cebpf4jnsgd1na2vs0mg"},{"bike_id":"6c0c550c-ec31-4921-afec-d928643b580e","system_id":"levelo_inurba_marseille","lat":43.321078,"lon":5.367741,"is_reserved":false,"is_disabled":false,"rental_uris":{"android":"levelo://app?vid=6c0c550c-ec31-4921-afec-d928643b580e","ios":"levelo://app?vid=6c0c550c-ec31-4921-afec-d928643b580e"},"vehicle_type_id":"4","last_reported":1747747562,"current_range_meters":22400,"station_id":"ce4bhrh2rcd13ifvqhug","pricing_plan_id":"cebpf4jnsgd1na2vs0mg"},{"bike_id":"3f1a6bc5-efd2-40c8-aa55-0c7fd9de9d61","system_id":"levelo_inurba_marseille","lat":43.30309,"lon":5.36891,"is_reserved":false,"is_disabled":false,"rental_uris":{"android":"levelo://app?vid=3f1a6bc5-efd2-40c8-aa55-0c7fd9de9d61","ios":"levelo://app?vid=3f1a6bc5-efd2-40c8-aa55-0c7fd9de9d61"},"vehicle_type_id":"4","last_reported":1747747562,"current_range_meters":22800,"station_id":"","pricing_plan_id":"cebpf4jnsgd1na2vs0mg"},{"bike_id":"459f1867-c84a-47b3-9e11-fc30f654fa0e","system_id":"levelo_inurba_marseille","lat":43.29369,"lon":5.37845,"is_reserved":false,"is_disabled":false,"rental_uris":{"android":"levelo://app?vid=459f1867-c84a-47b3-9e11-fc30f654fa0e","ios":"levelo://app?vid=459f1867-c84a-47b3-9e11-fc30f654fa0e"},"vehicle_type_id":"4","last_reported":1747747562,"current_range_meters":22800,"station_id":"ce4bgjh2rcd13ifvqbf0","pricing_plan_id":"cebpf4jnsgd1na2vs0mg"},{"bike_id":"19e92105-5de7-44e0-9202-ec7e67c71361","system_id":"levelo_inurba_marseille","lat":43.29914,"lon":5.37464,"is_reserved":false,"is_disabled":false,"rental_uris":{"android":"levelo://app?vid=19e92105-5de7-44e0-9202-ec7e67c71361","ios":"levelo://app?vid=19e92105-5de7-44e0-9202-ec7e67c71361"},"vehicle_type_id":"4","last_reported":1747747562,"current_range_meters":22800,"station_id":"ce4bgjh2rcd13ifvqbg0","pricing_plan_id":"cebpf4jnsgd1na2vs0mg"},{"bike_id":"70e70b25-86aa-4fd0-9d2d-38db75c6503f","system_id":"levelo_inurba_marseille","lat":43.29725,"lon":5.37689,"is_reserved":false,"is_disabled":false,"rental_uris":{"android":"levelo://app?vid=70e70b25-86aa-4fd0-9d2d-38db75c6503f","ios":"levelo://app?vid=70e70b25-86aa-4fd0-9d2d-38db75c6503f"},"vehicle_type_id":"4","last_reported":1747747562,"current_range_meters":22800,"station_id":"ce4bgkh2rcd13ifvqbl0","pricing_plan_id":"cebpf4jnsgd1na2vs0mg"},{"bike_id":"57077f5d-c186-4278-81a8-b54a2cc73bbd","system_id":"levelo_inurba_marseille","lat":43.31704,"lon":5.37727,"is_reserved":false,"is_disabled":false,"rental_uris":{"android":"levelo://app?vid=57077f5d-c186-4278-81a8-b54a2cc73bbd","ios":"levelo://app?vid=57077f5d-c186-4278-81a8-b54a2cc73bbd"},"vehicle_type_id":"4","last_reported":1747747562,"current_range_meters":22800,"station_id":"ce4bgth2rcd13ifvqch0","pricing_plan_id":"cebpf4jnsgd1na2vs0mg"},{"bike_id":"edd89315-230a-4c33-aeef-aa1e7dd0643f","system_id":"levelo_inurba_marseille","lat":43.30449,"lon":5.37898,"is_reserved":false,"is_disabled":false,"rental_uris":{"android":"levelo://app?vid=edd89315-230a-4c33-aeef-aa1e7dd0643f","ios":"levelo://app?vid=edd89315-230a-4c33-aeef-aa1e7dd0643f"},"vehicle_type_id":"4","last_reported":1747747562,"current_range_meters":22800,"station_id":"ce4bgup2rcd13ifvqcn0","pricing_plan_id":"cebpf4jnsgd1na2vs0mg"},{"bike_id":"f2c8e8b9-581c-4a75-98f7-f033a59b91bb","system_id":"levelo_inurba_marseille","lat":43.30893,"lon":5.39639,"is_reserved":false,"is_disabled":false,"rental_uris":{"android":"levelo://app?vid=f2c8e8b9-581c-4a75-98f7-f033a59b91bb","ios":"levelo://app?vid=f2c8e8b9-581c-4a75-98f7-f033a59b91bb"},"vehicle_type_id":"4","last_reported":1747747562,"current_range_meters":22800,"station_id":"ce4bh012rcd13ifvqcv0","pricing_plan_id":"cebpf4jnsgd1na2vs0mg"},