{"last_updated":1742569764,"ttl":60,"version":"2.2","data":{"bikes":[{"bike_id":"a8b8dae1-87ef-4f8a-a2c8-fe9fd9bf0f77","system_id":"levelo_inurba_marseille","lat":43.23593,"lon":5.3777,"is_reserved":false,"is_disabled":false,"rental_uris":{"android":"levelo://app?vid=a8b8dae1-87ef-4f8a-a2c8-fe9fd9bf0f77","ios":"levelo://app?vid=a8b8dae1-87ef-4f8a-a2c8-fe9fd9bf0f77"},"vehicle_type_id":"4","last_reported":1742569764,"current_range_meters":2800,"station_id":"","pricing_plan_id":"cebpf4jnsgd1na2vs0mg"},{"bike_id":"35b53d7a-7eb3-4adb-8b90-080755f89ad7","system_id":"levelo_inurba_marseille","lat":43.29373,"lon":5.37846,"is_reserved":false,"is_disabled":false,"rental_uris":{"android":"levelo://app?vid=35b53d7a-7eb3-4adb-8b90-080755f89ad7","ios":"levelo://app?vid=35b53d7a-7eb3-4adb-8b90-080755f89ad7"},"vehicle_type_id":"4","last_reported":1742569764,"current_range_meters":2800,"station_id":"ce4bgjh2rcd13ifvqbf0","pricing_plan_id":"cebpf4jnsgd1na2vs0mg"},{"bike_id":"b599efb9-e599-4a9e-8634-36c6c4d23491","system_id":"levelo_inurba_marseille","lat":43.27557,"lon":5.3842,"is_reserved":false,"is_disabled":false,"rental_uris":{"android":"levelo://app?vid=b599efb9-e599-4a9e-8634-36c6c4d23491","ios":"levelo://app?vid=b599efb9-e599-4a9e-8634-36c6c4d23491"},"vehicle_type_id":"4","last_reported":1742569764,"current_range_meters":3200,"station_id":"ce4bhh92rcd13ifvqfi0","pricing_plan_id":"cebpf4jnsgd1na2vs0mg"},{"bike_id":"0c75caed-8fc7-4a71-8288-d1febda71732","system_id":"levelo_inurba_marseille","lat":43.25854,"lon":5.39934,"is_reserved":false,"is_disabled":false,"rental_uris":{"android":"levelo://app?vid=0c75caed-8fc7-4a71-8288-d1febda71732","ios":"levelo://app?vid=0c75caed-8fc7-4a71-8288-d1febda71732"},"vehicle_type_id":"4","last_reported":1742569764,"current_range_meters":3200,"station_id":"ce4bhl92rcd13ifvqghg","pricing_plan_id":"cebpf4jnsgd1na2vs0mg"},{"bike_id":"5fa43231-e63c-4e20-9b69-e53f24eed317","system_id":"levelo_inurba_marseille","lat":43.2465,"lon":5.38885,"is_reserved":false,"is_disabled":true,"rental_uris":{"android":"levelo://app?vid=5fa43231-e63c-4e20-9b69-e53f24eed317","ios":"levelo://app?vid=5fa43231-e63c-4e20-9b69-e53f24eed317"},"vehicle_type_id":"4","last_reported":1742569764,"current_range_meters":3600,"station_id":"ce4bhg12rcd13ifvqf60","pricing_plan_id":"cebpf4jnsgd1na2vs0mg"},{"bike_id":"9403297e-4914-4c5d-aad2-a1313568aff4","system_id":"levelo_inurba_marseille","lat":43.29985,"lon":5.38488,"is_reserved":false,"is_disabled":false,"rental_uris":{"android":"levelo://app?vid=9403297e-4914-4c5d-aad2-a1313568aff4","ios":"levelo://app?vid=9403297e-4914-4c5d-aad2-a1313568aff4"},"vehicle_type_id":"4","last_reported":1742569764,"current_range_meters":3600,"station_id":"ce4bgj92rcd13ifvqbd0","pricing_plan_id":"cebpf4jnsgd1na2vs0mg"},{"bike_id":"a60372ce-e4e4-40d9-bc44-bc8c20a16f3f","system_id":"levelo_inurba_marseille","lat":43.279083,"lon":5.380185,"is_reserved":false,"is_disabled":false,"rental_uris":{"android":"levelo://app?vid=a60372ce-e4e4-40d9-bc44-bc8c20a16f3f","ios":"levelo://app?vid=a60372ce-e4e4-40d9-bc44-bc8c20a16f3f"},"vehicle_type_id":"4","last_reported":1742569764,"current_range_meters":3600,"station_id":"ce4bhm12rcd13ifvqgkg","pricing_plan_id":"cebpf4jnsgd1na2vs0mg"},{"bike_id":"9c5c5858-05e8-4563-b899-c854465fbab5","system_id":"levelo_inurba_marseille","lat":43.25118,"lon":5.40318,"is_reserved":false,"is_disabled":false,"rental_uris":{"android":"levelo://app?vid=9c5c5858-05e8-4563-b899-c854465fbab5","ios":"levelo://app?vid=9c5c5858-05e8-4563-b899-c854465fbab5"},"vehicle_type_id":"4","last_reported":1742569764,"current_range_meters":3600,"station_id":"ce4bhlh2rcd13ifvqgig","pricing_plan_id":"cebpf4jnsgd1na2vs0mg"},{"bike_id":"17c43a73-3b77-4cf6-95a7-24e8950c7342","system_id":"levelo_inurba_marseille","lat":43.26931,"lon":5.38928,"is_reserved":false,"is_disabled":false,"rental_uris":{"android":"levelo://app?vid=17c43a73-3b77-4cf6-95a7-24e8950c7342","ios":"levelo://app?vid=17c43a73-3b77-4cf6-95a7-24e8950c7342"},"vehicle_type_id":"4","last_reported":1742569764,"current_range_meters":4000,"station_id":"ce4bhhh2rcd13ifvqfl0","pricing_plan_id":"cebpf4jnsgd1na2vs0mg"},{"bike_id":"5d28bce7-ab1a-4e8b-ae70-12e427a81793","system_id":"levelo_inurba_marseille","lat":43.24166,"lon":5.36399,"is_reserved":false,"is_disabled":true,"rental_uris":{"android":"levelo://app?vid=5d28bce7-ab1a-4e8b-ae70-12e427a81793","ios":"levelo://app?vid=5d28bce7-ab1a-4e8b-ae70-12e427a81793"},"vehicle_type_id":"4","last_reported":1742569764,"current_range_meters":4000,"station_id":"cpo36qri1sfpv3e86is0","pricing_plan_id":"cebpf4jnsgd1na2vs0mg"},{"bike_id":"65ec9e30-c125-4283-9264-3feea30c9af9","system_id":"levelo_inurba_marseille","lat":43.29271,"lon":5.40125,"is_reserved":false,"is_disabled":false,"rental_uris":{"android":"levelo://app?vid=65ec9e30-c125-4283-9264-3feea30c9af9","ios":"levelo://app?vid=65ec9e30-c125-4283-9264-3feea30c9af9"},"vehicle_type_id":"4","last_reported":1742569764,"current_range_meters":4400,"station_id":"ce4bh312rcd13ifvqdk0","pricing_plan_id":"cebpf4jnsgd1na2vs0mg"},{"bike_id":"cc655352-aad8-4cf8-95b2-69e9b5ed0ec5","system_id":"levelo_inurba_marseille","lat":43.27184,"lon":5.41,"is_reserved":false,"is_disabled":false,"rental_uris":{"android":"levelo://app?vid=cc655352-aad8-4cf8-95b2-69e9b5ed0ec5","ios":"levelo://app?vid=cc655352-aad8-4cf8-95b2-69e9b5ed0ec5"},"vehicle_type_id":"4","last_reported":1742569764,"current_range_meters":4400,"station_id":"ce4bhl12rcd13ifvqgf0","pricing_plan_id":"cebpf4jnsgd1na2vs0mg"},{"bike_id":"b3fcd2b5-b744-4107-a745-ea82368c6998","system_id":"levelo_inurba_marseille","lat":43.27847,"lon":5.39217,"is_reserved":false,"is_disabled":false,"rental_uris":{"android":"levelo://app?vid=b3fcd2b5-b744-4107-a745-ea82368c6998","ios":"levelo://app?vid=b3fcd2b5-b744-4107-a745-ea82368c6998"},"vehicle_type_id":"4","last_reported":1742569764,"current_range_meters":4400,"station_id":"ce4bhjp2rcd13ifvqga0","pricing_plan_id":"cebpf4jnsgd1na2vs0mg"},{"bike_id":"11c46087-f554-44c5-bf83-1d77b64f3442","system_id":"levelo_inurba_marseille","lat":43.29792,"lon":5.38112,"is_reserved":false,"is_disabled":false,"rental_uris":{"android":"levelo://app?vid=11c46087-f554-44c5-bf83-1d77b64f3442","ios":"levelo://app?vid=11c46087-f554-44c5-bf83-1d77b64f3442"},"vehicle_type_id":"4","last_reported":1742569764,"current_range_meters":4000,"station_id":"ce4bgip2rcd13ifvqbb0","pricing_plan_id":"cebpf4jnsgd1na2vs0mg"},{"bike_id":"b7cb5254-714f-4321-b117-bbfbc89e7cd9","system_id":"levelo_inurba_marseille","lat":43.28695,"lon":5.39981,"is_reserved":false,"is_disabled":false,"rental_uris":{"android":"levelo://app?vid=b7cb5254-714f-4321-b117-bbfbc89e7cd9","ios":"levelo://app?vid=b7cb5254-714f-4321-b117-bbfbc89e7cd9"},"vehicle_type_id":"4","last_reported":1742569764,"current_range_meters":4400,"station_id":"ce4bho92rcd13ifvqh3g","pricing_plan_id":"cebpf4jnsgd1na2vs0mg"},{"bike_id":"c24f45d8-2fde-473c-8ad3-41c665a5cbad","system_id":"levelo_inurba_marseille","lat":43.30459,"lon":5.37904,"is_reserved":false,"is_disabled":false,"rental_uris":{"android":"levelo://app?vid=c24f45d8-2fde-473c-8ad3-41c665a5cbad","ios":"levelo://app?vid=c24f45d8-2fde-473c-8ad3-41c665a5cbad"},"vehicle_type_id":"4","last_reported":1742569764,"current_range_meters":4400,"station_id":"ce4bgup2rcd13ifvqcn0","pricing_plan_id":"cebpf4jnsgd1na2vs0mg"},{"bike_id":"21b564bd-d8bc-4939-a251-94c00d417e61","system_id":"levelo_inurba_marseille","lat":43.29637,"lon":5.40598,"is_reserved":false,"is_disabled":false,"rental_uris":{"android":"levelo://app?vid=21b564bd-d8bc-4939-a251-94c00d417e61","ios":"levelo://app?vid=21b564bd-d8bc-4939-a251-94c00d417e61"},"vehicle_type_id":"4","last_reported":1742569764,"current_range_meters":4400,"station_id":"ce4bh0h2rcd13ifvqd60","pricing_plan_id":"cebpf4jnsgd1na2vs0mg"},{"bike_id":"0ef68261-fb48-4988-9763-55bdfd666926","system_id":"levelo_inurba_marseille","lat":43.29714,"lon":5.37697,"is_reserved":false,"is_disabled":false,"rental_uris":{"android":"levelo://app?vid=0ef68261-fb48-4988-9763-55bdfd666926","ios":"levelo://app?vid=0ef68261-fb48-4988-9763-55bdfd666926"},"vehicle_type_id":"4","last_reported":1742569764,"current_range_meters":4400,"station_id":"ce4bgkh2rcd13ifvqbl0","pricing_plan_id":"cebpf4jnsgd1na2vs0mg"},{"bike_id":"0d8f66dc-5e30-476f-81a8-1ca73af0ec7a","system_id":"levelo_inurba_marseille","lat":43.28702,"lon":5.39976,"is_reserved":false,"is_disabled":false,"rental_uris":{"android":"levelo://app?vid=0d8f66dc-5e30-476f-81a8-1ca73af0ec7a","ios":"levelo://app?vid=0d8f66dc-5e30-476f-81a8-1ca73af0ec7a"},"vehicle_type_id":"4","last_reported":1742569764,"current_range_meters":4800,"station_id":"ce4bho92rcd13ifvqh3g","pricing_plan_id":"cebpf4jnsgd1na2vs0mg"},{"bike_id":"38fa863a-91a2-44eb-b718-19af02253b65","system_id":"levelo_inurba_marseille","lat":43.26945,"lon":5.40334,"is_reserved":false,"is_disabled":true,"rental_uris":{"android":"levelo://app?vid=38fa863a-91a2-44eb-b718-19af02253b65","ios":"levelo://app?vid=38fa863a-91a2-44eb-b718-19af02253b65"},"vehicle_type_id":"4","last_reported":1742569764,"current_range_meters":4800,"station_id":"cjm6bp8fraef2m0cb0m0","pricing_plan_id":"cebpf4jnsgd1na2vs0mg"},{"bike_id":"e2d44c57-a27d-483b-ad06-7050d944e5ad","system_id":"levelo_inurba_marseille","lat":43.26945,"lon":5.3864,"is_reserved":false,"is_disabled":false,"rental_uris":{"android":"levelo://app?vid=e2d44c57-a27d-483b-ad06-7050d944e5ad","ios":"levelo://app?vid=e2d44c57-a27d-483b-ad06-7050d944e5ad"},"vehicle_type_id":"4","last_reported":1742569764,"current_range_meters":4800,"station_id":"ce4bhh92rcd13ifvqfh0","pricing_plan_id":"cebpf4jnsgd1na2vs0mg"},{"bike_id":"6b72cef8-0fff-457e-8639-d71661c4be26","system_id":"levelo_inurba_marseille","lat":43.31079,"lon":5.42429,"is_reserved":false,"is_disabled":false,"rental_uris":{"android":"levelo://app?vid=6b72cef8-0fff-457e-8639-d71661c4be26","ios":"levelo://app?vid=6b72cef8-0fff-457e-8639-d71661c4be26"},"vehicle_type_id":"4","last_reported":1742569764,"current_range_meters":5600,"station_id":"ce4bhp92rcd13ifvqhag","pricing_plan_id":"cebpf4jnsgd1na2vs0mg"},{"bike_id":"8682048b-22d3-4d81-b8c1-fb4c78459528","system_id":"levelo_inurba_marseille","lat":43.32658,"lon":5.40999,"is_reserved":false,"is_disabled":false,"rental_uris":{"android":"levelo://app?vid=8682048b-22d3-4d81-b8c1-fb4c78459528","ios":"levelo://app?vid=8682048b-22d3-4d81-b8c1-fb4c78459528"},"vehicle_type_id":"4","last_reported":1742569764,"current_range_meters":5600,"station_id":"ce4bhpp2rcd13ifvqhgg","pricing_plan_id":"cebpf4jnsgd1na2vs0mg"},{"bike_id":"0a941cfc-edad-4514-b351-a6474bc0109d","system_id":"levelo_inurba_marseille","lat":43.24549,"lon":5.39531,"is_reserved":false,"is_disabled":false,"rental_uris":{"android":"levelo://app?vid=0a941cfc-edad-4514-b351-a6474bc0109d","ios":"levelo://app?vid=0a941cfc-edad-4514-b351-a6474bc0109d"},"vehicle_type_id":"4","last_reported":1742569764,"current_range_meters":5600,"station_id":"ce4bhlp2rcd13ifvqgjg","pricing_plan_id":"cebpf4jnsgd1na2vs0mg"},{"bike_id":"9b2a4ae1-45d2-42a7-b1d8-970226b193d0","system_id":"levelo_inurba_marseille","lat":43.24181,"lon":5.39719,"is_reserved":false,"is_disabled":false,"rental_uris":{"android":"levelo://app?vid=9b2a4ae1-45d2-42a7-b1d8-970226b193d0","ios":"levelo://app?vid=9b2a4ae1-45d2-42a7-b1d8-970226b193d0"},"vehicle_type_id":"4","last_reported":1742569764,"current_range_meters":5600,"station_id":"ce4bhn12rcd13ifvqgpg","pricing_plan_id":"cebpf4jnsgd1na2vs0mg"},{"bike_id":"baca3440-008e-4c2f-8baf-ca06b1cbe80d","system_id":"levelo_inurba_marseille","lat":43.27055,"lon":5.40264,"is_reserved":false,"is_disabled":false,"rental_uris":{"android":"levelo://app?vid=baca3440-008e-4c2f-8baf-ca06b1cbe80d","ios":"levelo://app?vid=baca3440-008e-4c2f-8baf-ca06b1cbe80d"},"vehicle_type_id":"4","last_reported":1742569764,"current_range_meters":5600,"station_id":"ce4bhk92rcd13ifvqgc0","pricing_plan_id":"cebpf4jnsgd1na2vs0mg"},{"bike_id":"6c061ddb-3204-4ff6-a030-0cb390b5f85f","system_id":"levelo_inurba_marseille","lat":43.26228,"lon":5.40455,"is_reserved":false,"is_disabled":false,"rental_uris":{"android":"levelo://app?vid=6c061ddb-3204-4ff6-a030-0cb390b5f85f","ios":"levelo://app?vid=6c061ddb-3204-4ff6-a030-0cb390b5f85f"},"vehicle_type_id":"4","last_reported":1742569764,"current_range_meters":6000,"station_id":"ce4bhmh2rcd13ifvqgmg","pricing_plan_id":"cebpf4jnsgd1na2vs0mg"},{"bike_id":"8030ce52-500b-45c9-b04c-9a8876d01d38","system_id":"levelo_inurba_marseille","lat":43.28691,"lon":5.374,"is_reserved":false,"is_disabled":false,"rental_uris":{"android":"levelo://app?vid=8030ce52-500b-45c9-b04c-9a8876d01d38","ios":"levelo://app?vid=8030ce52-500b-45c9-b04c-9a8876d01d38"},"vehicle_type_id":"4","last_reported":1742569764,"current_range_meters":6000,"station_id":"ce4bh3p2rcd13ifvqdq0","pricing_plan_id":"cebpf4jnsgd1na2vs0mg"},{"bike_id":"a1d4474e-dc54-4e96-8359-81b099ba1a93","system_id":"levelo_inurba_marseille","lat":43.23183,"lon":5.39985,"is_reserved":false,"is_disabled":false,"rental_uris":{"android":"levelo://app?vid=a1d4474e-dc54-4e96-8359-81b099ba1a93","ios":"levelo://app?vid=a1d4474e-dc54-4e96-8359-81b099ba1a93"},"vehicle_type_id":"4","last_reported":1742569764,"current_range_meters":6400,"station_id":"ce4bhn12rcd13ifvqgqg","pricing_plan_id":"cebpf4jnsgd1na2vs0mg"},{"bike_id":"b266faba-4e26-4c50-b078-a54d17773ddd","system_id":"levelo_inurba_marseille","lat":43.2455,"lon":5.39518,"is_reserved":false,"is_disabled":false,"rental_uris":{"android":"levelo://app?vid=b266faba-4e26-4c50-b078-a54d17773ddd","ios":"levelo://app?vid=b266faba-4e26-4c50-b078-a54d17773ddd"},"vehicle_type_id":"4","last_reported":1742569764,"current_range_meters":6400,"station_id":"ce4bhlp2rcd13ifvqgjg","pricing_plan_id":"cebpf4jnsgd1na2vs0mg"},{"bike_id":"7e416813-d2e7-40ce-a74d-5e231616536f","system_id":"levelo_inurba_marseille","lat":43.26785,"lon":5.39416,"is_reserved":false,"is_disabled":false,"rental_uris":{"android":"levelo://app?vid=7e416813-d2e7-40ce-a74d-5e231616536f","ios":"levelo://app?vid=7e416813-d2e7-40ce-a74d-5e231616536f"},"vehicle_type_id":"4","last_reported":1742569764,"current_range_meters":6400,"station_id":"ce4bhh12rcd13ifvqfg0","pricing_plan_id":"cebpf4jnsgd1na2vs0mg"},{"bike_id":"2ad720cd-e0ba-496b-b4cb-f0c412f34769","system_id":"levelo_inurba_marseille","lat":43.29044,"lon":5.35916,"is_reserved":false,"is_disabled":false,"rental_uris":{"android":"levelo://app?vid=2ad720cd-e0ba-496b-b4cb-f0c412f34769","ios":"levelo://app?vid=2ad720cd-e0ba-496b-b4cb-f0c412f34769"},"vehicle_type_id":"4","last_reported":1742569764,"current_range_meters":6400,"station_id":"ce4bha92rcd13ifvqeg0","pricing_plan_id":"cebpf4jnsgd1na2vs0mg"},{"bike_id":"399b43de-a5c1-4bc6-9061-e12f52a9da37","system_id":"levelo_inurba_marseille","lat":43.26571,"lon":5.37286,"is_reserved":false,"is_disabled":false,"rental_uris":{"android":"levelo://app?vid=399b43de-a5c1-4bc6-9061-e12f52a9da37","ios":"levelo://app?vid=399b43de-a5c1-4bc6-9061-e12f52a9da37"},"vehicle_type_id":"4","last_reported":1742569764,"current_range_meters":6400,"station_id":"ce4bhg12rcd13ifvqf70","pricing_plan_id":"cebpf4jnsgd1na2vs0mg"},{"bike_id":"e97b9ee0-7b84-451d-9a75-bd45df86ec8b","system_id":"levelo_inurba_marseille","lat":43.25583,"lon":5.38232,"is_reserved":false,"is_disabled":false,"rental_uris":{"android":"levelo://app?vid=e97b9ee0-7b84-451d-9a75-bd45df86ec8b","ios":"levelo://app?vid=e97b9ee0-7b84-451d-9a75-bd45df86ec8b"},"vehicle_type_id":"4","last_reported":1742569764,"current_range_meters":6400,"station_id":"ce4bhih2rcd13ifvqfs0","pricing_plan_id":"cebpf4jnsgd1na2vs0mg"},{"bike_id":"1b94afc7-3c8a-43fe-9d90-a269c2f39a9e","system_id":"levelo_inurba_marseille","lat":43.29096,"lon":5.38148,"is_reserved":false,"is_disabled":false,"rental_uris":{"android":"levelo://app?vid=1b94afc7-3c8a-43fe-9d90-a269c2f39a9e","ios":"levelo://app?vid=1b94afc7-3c8a-43fe-9d90-a269c2f39a9e"},"vehicle_type_id":"4","last_reported":1742569764,"current_range_meters":6400,"station_id":"ce4bh512rcd13ifvqe2g","pricing_plan_id":"cebpf4jnsgd1na2vs0mg"},{"bike_id":"ffbee1c9-ab8d-45ee-b606-c546ab78c5f2","system_id":"levelo_inurba_marseille","lat":43.29733,"lon":5.37769,"is_reserved":false,"is_disabled":false,"rental_uris":{"android":"levelo://app?vid=ffbee1c9-ab8d-45ee-b606-c546ab78c5f2","ios":"levelo://app?vid=ffbee1c9-ab8d-45ee-b606-c546ab78c5f2"},"vehicle_type_id":"4","last_reported":1742569764,"current_range_meters":6800,"station_id":"","pricing_plan_id":"cebpf4jnsgd1na2vs0mg"},{"bike_id":"cb8546f6-da08-48d0-b629-47338476a8b3","system_id":"levelo_inurba_marseille","lat":43.287079,"lon":5.373987,"is_reserved":false,"is_disabled":false,"rental_uris":{"android":"levelo://app?vid=cb8546f6-da08-48d0-b629-47338476a8b3","ios":"levelo://app?vid=cb8546f6-da08-48d0-b629-47338476a8b3"},"vehicle_type_id":"4","last_reported":1742569764,"current_range_meters":3600,"station_id":"ce4bgih2rcd13ifvqba0","pricing_plan_id":"cebpf4jnsgd1na2vs0mg"},{"bike_id":"b9e4bdd0-024c-4547-9a94-39d0c7923642","system_id":"levelo_inurba_marseille","lat":43.24168,"lon":5.36407,"is_reserved":false,"is_disabled":false,"rental_uris":{"android":"levelo://app?vid=b9e4bdd0-024c-4547-9a94-39d0c7923642","ios":"levelo://app?vid=b9e4bdd0-024c-4547-9a94-39d0c7923642"},"vehicle_type_id":"4","last_reported":1742569764,"current_range_meters":6800,"station_id":"cpo36qri1sfpv3e86is0","pricing_plan_id":"cebpf4jnsgd1na2vs0mg"},{"bike_id":"c5bb5dca-1dc9-450e-9a3d-9fa737cf345d","system_id":"levelo_inurba_marseille","lat":43.24646,"lon":5.38889,"is_reserved":false,"is_disabled":false,"rental_uris":{"android":"levelo://app?vid=c5bb5dca-1dc9-450e-9a3d-9fa737cf345d","ios":"levelo://app?vid=c5bb5dca-1dc9-450e-9a3d-9fa737cf345d"},"vehicle_type_id":"4","last_reported":1742569764,"current_range_meters":6800,"station_id":"ce4bhg12rcd13ifvqf60","pricing_plan_id":"cebpf4jnsgd1na2vs0mg"},{"bike_id":"01daf23e-8336-44a0-94cf-ff9a9018c2e3","system_id":"levelo_inurba_marseille","lat":43.27572,"lon":5.38432,"is_reserved":false,"is_disabled":false,"rental_uris":{"android":"levelo://app?vid=01daf23e-8336-44a0-94cf-ff9a9018c2e3","ios":"levelo://app?vid=01daf23e-8336-44a0-94cf-ff9a9018c2e3"},"vehicle_type_id":"4","last_reported":1742569764,"current_range_meters":7200,"station_id":"ce4bhh92rcd13ifvqfi0","pricing_plan_id":"cebpf4jnsgd1na2vs0mg"},{"bike_id":"74ca8f8e-770f-4c39-9bcc-04d356dfc1fe","system_id":"levelo_inurba_marseille","lat":43.32499,"lon":5.36588,"is_reserved":false,"is_disabled":false,"rental_uris":{"android":"levelo://app?vid=74ca8f8e-770f-4c39-9bcc-04d356dfc1fe","ios":"levelo://app?vid=74ca8f8e-770f-4c39-9bcc-04d356dfc1fe"},"vehicle_type_id":"4","last_reported":1742569764,"current_range_meters":7200,"station_id":"ce4bhs12rcd13ifvqhvg","pricing_plan_id":"cebpf4jnsgd1na2vs0mg"},{"bike_id":"fa8a4a87-dd79-4abe-bf51-a0e89de28c69","system_id":"levelo_inurba_marseille","lat":43.28727,"lon":5.36082,"is_reserved":false,"is_disabled":false,"rental_uris":{"android":"levelo://app?vid=fa8a4a87-dd79-4abe-bf51-a0e89de28c69","ios":"levelo://app?vid=fa8a4a87-dd79-4abe-bf51-a0e89de28c69"},"vehicle_type_id":"4","last_reported":1742569764,"current_range_meters":6800,"station_id":"cki0cbj6b192h4jlfktg","pricing_plan_id":"cebpf4jnsgd1na2vs0mg"},{"bike_id":"4d783e5e-a716-49a7-9ba5-fc8c2408ba84","system_id":"levelo_inurba_marseille","lat":43.29552,"lon":5.37539,"is_reserved":false,"is_disabled":false,"rental_uris":{"android":"levelo://app?vid=4d783e5e-a716-49a7-9ba5-fc8c2408ba84","ios":"levelo://app?vid=4d783e5e-a716-49a7-9ba5-fc8c2408ba84"},"vehicle_type_id":"4","last_reported":1742569764,"current_range_meters":7200,"station_id":"ce4bgh92rcd13ifvqb50","pricing_plan_id":"cebpf4jnsgd1na2vs0mg"},{"bike_id":"fd87eab3-6dd6-4660-91cd-04d2e7effdd0","system_id":"levelo_inurba_marseille","lat":43.27935,"lon":5.41045,"is_reserved":false,"is_disabled":false,"rental_uris":{"android":"levelo://app?vid=fd87eab3-6dd6-4660-91cd-04d2e7effdd0","ios":"levelo://app?vid=fd87eab3-6dd6-4660-91cd-04d2e7effdd0"},"vehicle_type_id":"4","last_reported":1742569764,"current_range_meters":7200,"station_id":"ce4bhnp2rcd13ifvqh0g","pricing_plan_id":"cebpf4jnsgd1na2vs0mg"},{"bike_id":"ef1401a2-6eaf-4995-86cb-7df1f41449a7","system_id":"levelo_inurba_marseille","lat":43.29303,"lon":5.37171,"is_reserved":false,"is_disabled":false,"rental_uris":{"android":"levelo://app?vid=ef1401a2-6eaf-4995-86cb-7df1f41449a7","ios":"levelo://app?vid=ef1401a2-6eaf-4995-86cb-7df1f41449a7"},"vehicle_type_id":"4","last_reported":1742569764,"current_range_meters":6800,"station_id":"ce4bgh92rcd13ifvqb40","pricing_plan_id":"cebpf4jnsgd1na2vs0mg"},{"bike_id":"1650c152-e083-415c-b118-5516ca869cbf","system_id":"levelo_inurba_marseille","lat":43.26953,"lon":5.38628,"is_reserved":false,"is_disabled":false,"rental_uris":{"android":"levelo://app?vid=1650c152-e083-415c-b118-5516ca869cbf","ios":"levelo://app?vid=1650c152-e083-415c-b118-5516ca869cbf"},"vehicle_type_id":"4","last_reported":1742569764,"current_range_meters":7200,"station_id":"ce4bhh92rcd13ifvqfh0","pricing_plan_id":"cebpf4jnsgd1na2vs0mg"},{"bike_id":"f195ccd9-da6c-4a5c-950f-92710f45e373","system_id":"levelo_inurba_marseille","lat":43.30083,"lon":5.39086,"is_reserved":false,"is_disabled":false,"rental_uris":{"android":"levelo://app?vid=f195ccd9-da6c-4a5c-950f-92710f45e373","ios":"levelo://app?vid=f195ccd9-da6c-4a5c-950f-92710f45e373"},"vehicle_type_id":"4","last_reported":1742569764,"current_range_meters":8000,"station_id":"ce4bh192rcd13ifvqdb0","pricing_plan_id":"cebpf4jnsgd1na2vs0mg"},{"bike_id":"1d8daad7-9bb4-40dd-adfc-e589f483368c","system_id":"levelo_inurba_marseille","lat":43.2582,"lon":5.39435,"is_reserved":false,"is_disabled":false,"rental_uris":{"android":"levelo://app?vid=1d8daad7-9bb4-40dd-adfc-e589f483368c","ios":"levelo://app?vid=1d8daad7-9bb4-40dd-adfc-e589f483368c"},"vehicle_type_id":"4","last_reported":1742569764,"current_range_meters":8000,"station_id":"ce4bhip2rcd13ifvqft0","pricing_plan_id":"cebpf4jnsgd1na2vs0mg"},{"bike_id":"8c9fa4ba-3022-472d-a524-2b34aef0abf8","system_id":"levelo_inurba_marseille","lat":43.29978,"lon":5.37117,"is_reserved":false,"is_disabled":true,"rental_uris":{"android":"levelo://app?vid=8c9fa4ba-3022-472d-a524-2b34aef0abf8","ios":"levelo://app?vid=8c9fa4ba-3022-472d-a524-2b34aef0abf8"},"vehicle_type_id":"4","last_reported":1742569764,"current_range_meters":8000,"station_id":"ce4bgr92rcd13ifvqc7g","pricing_plan_id":"cebpf4jnsgd1na2vs0mg"},{"bike_id":"af0dd9ac-7466-4151-a052-abde29cf9b49","system_id":"levelo_inurba_marseille","lat":43.23194,"lon":5.35556,"is_reserved":false,"is_disabled":false,"rental_uris":{"android":"levelo://app?vid=af0dd9ac-7466-4151-a052-abde29cf9b49","ios":"levelo://app?vid=af0dd9ac-7466-4151-a052-abde29cf9b49"},"vehicle_type_id":"4","last_reported":1742569764,"current_range_meters":8000,"station_id":"ce4bhu92rcd13ifvqi70","pricing_plan_id":"cebpf4jnsgd1na2vs0mg"},{"bike_id":"9445b294-159d-495f-8b0f-8f0300df22f0","system_id":"levelo_inurba_marseille","lat":43.28441,"lon":5.39191,"is_reserved":false,"is_disabled":false,"rental_uris":{"android":"levelo://app?vid=9445b294-159d-495f-8b0f-8f0300df22f0","ios":"levelo://app?vid=9445b294-159d-495f-8b0f-8f0300df22f0"},"vehicle_type_id":"4","last_reported":1742569764,"current_range_meters":8000,"station_id":"ce4bhoh2rcd13ifvqh5g","pricing_plan_id":"cebpf4jnsgd1na2vs0mg"},{"bike_id":"37ead676-6192-4cea-a2c7-7b12b82e588f","system_id":"levelo_inurba_marseille","lat":43.30356,"lon":5.41877,"is_reserved":false,"is_disabled":false,"rental_uris":{"android":"levelo://app?vid=37ead676-6192-4cea-a2c7-7b12b82e588f","ios":"levelo://app?vid=37ead676-6192-4cea-a2c7-7b12b82e588f"},"vehicle_type_id":"4","last_reported":1742569764,"current_range_meters":8000,"station_id":"ce4bhop2rcd13ifvqh7g","pricing_plan_id":"cebpf4jnsgd1na2vs0mg"},{"bike_id":"5d81b61a-60cb-4f8d-b68c-1993a83cc232","system_id":"levelo_inurba_marseille","lat":43.26682,"lon":5.38272,"is_reserved":false,"is_disabled":false,"rental_uris":{"android":"levelo://app?vid=5d81b61a-60cb-4f8d-b68c-1993a83cc232","ios":"levelo://app?vid=5d81b61a-60cb-4f8d-b68c-1993a83cc232"},"vehicle_type_id":"4","last_reported":1742569764,"current_range_meters":8000,"station_id":"ce4bhg92rcd13ifvqf90","pricing_plan_id":"cebpf4jnsgd1na2vs0mg"},{"bike_id":"44105ecf-59b2-44f3-b4b4-5e43a3d939de","system_id":"levelo_inurba_marseille","lat":43.29531,"lon":5.38551,"is_reserved":false,"is_disabled":false,"rental_uris":{"android":"levelo://app?vid=44105ecf-59b2-44f3-b4b4-5e43a3d939de","ios":"levelo://app?vid=44105ecf-59b2-44f3-b4b4-5e43a3d939de"},"vehicle_type_id":"4","last_reported":1742569764,"current_range_meters":7200,"station_id":"ce4bgih2rcd13ifvqba0","pricing_plan_id":"cebpf4jnsgd1na2vs0mg"},{"bike_id":"e7f0104f-8ef9-4e6d-96e4-2ef50ee17dce","system_id":"levelo_inurba_marseille","lat":43.29967,"lon":5.38479,"is_reserved":false,"is_disabled":false,"rental_uris":{"android":"levelo://app?vid=e7f0104f-8ef9-4e6d-96e4-2ef50ee17dce","ios":"levelo://app?vid=e7f0104f-8ef9-4e6d-96e4-2ef50ee17dce"},"vehicle_type_id":"4","last_reported":1742569764,"current_range_meters":8400,"station_id":"ce4bgj92rcd13ifvqbd0","pricing_plan_id":"cebpf4jnsgd1na2vs0mg"},{"bike_id":"62bf2f5c-9819-4816-afad-4a268d7a76b8","system_id":"levelo_inurba_marseille","lat":43.24167,"lon":5.36394,"is_reserved":false,"is_disabled":false,"rental_uris":{"android":"levelo://app?vid=62bf2f5c-9819-4816-afad-4a268d7a76b8","ios":"levelo://app?vid=62bf2f5c-9819-4816-afad-4a268d7a76b8"},"vehicle_type_id":"4","last_reported":1742569764,"current_range_meters":8400,"station_id":"cpo36qri1sfpv3e86is0","pricing_plan_id":"cebpf4jnsgd1na2vs0mg"},{"bike_id":"453af31a-39ac-44de-bc5a-761485f8087b","system_id":"levelo_inurba_marseille","lat":43.25123,"lon":5.4032,"is_reserved":false,"is_disabled":false,"rental_uris":{"android":"levelo://app?vid=453af31a-39ac-44de-bc5a-761485f8087b","ios":"levelo://app?vid=453af31a-39ac-44de-bc5a-761485f8087b"},"vehicle_type_id":"4","last_reported":1742569764,"current_range_meters":8400,"station_id":"ce4bhlh2rcd13ifvqgig","pricing_plan_id":"cebpf4jnsgd1na2vs0mg"},{"bike_id":"2678929a-312d-4089-b116-1e816de7db90","system_id":"levelo_inurba_marseille","lat":43.32128,"lon":5.36782,"is_reserved":false,"is_disabled":false,"rental_uris":{"android":"levelo://app?vid=2678929a-312d-4089-b116-1e816de7db90","ios":"levelo://app?vid=2678929a-312d-4089-b116-1e816de7db90"},"vehicle_type_id":"4","last_reported":1742569764,"current_range_meters":8400,"station_id":"ce4bhrh2rcd13ifvqhug","pricing_plan_id":"cebpf4jnsgd1na2vs0mg"},{"bike_id":"9c5e2e05-44ac-4e32-8ff6-6b268f68ca61","system_id":"levelo_inurba_marseille","lat":43.29705,"lon":5.36768,"is_reserved":false,"is_disabled":false,"rental_uris":{"android":"levelo://app?vid=9c5e2e05-44ac-4e32-8ff6-6b268f68ca61","ios":"levelo://app?vid=9c5e2e05-44ac-4e32-8ff6-6b268f68ca61"},"vehicle_type_id":"4","last_reported":1742569764,"current_range_meters":8000,"station_id":"ce4bgop2rcd13ifvqc1g","pricing_plan_id":"cebpf4jnsgd1na2vs0mg"},{"bike_id":"c0360cb0-afb9-440b-998a-53fc8774cbc7","system_id":"levelo_inurba_marseille","lat":43.29885,"lon":5.38905,"is_reserved":false,"is_disabled":false,"rental_uris":{"android":"levelo://app?vid=c0360cb0-afb9-440b-998a-53fc8774cbc7","ios":"levelo://app?vid=c0360cb0-afb9-440b-998a-53fc8774cbc7"},"vehicle_type_id":"4","last_reported":1742569764,"current_range_meters":8400,"station_id":"ce4bh392rcd13ifvqdl0","pricing_plan_id":"cebpf4jnsgd1na2vs0mg"},{"bike_id":"d6449a8a-8cb9-436e-8467-42213de18c90","system_id":"levelo_inurba_marseille","lat":43.2558,"lon":5.38206,"is_reserved":false,"is_disabled":false,"rental_uris":{"android":"levelo://app?vid=d6449a8a-8cb9-436e-8467-42213de18c90","ios":"levelo://app?vid=d6449a8a-8cb9-436e-8467-42213de18c90"},"vehicle_type_id":"4","last_reported":1742569764,"current_range_meters":8400,"station_id":"ce4bhih2rcd13ifvqfs0","pricing_plan_id":"cebpf4jnsgd1na2vs0mg"},{"bike_id":"037dbfe4-6d41-4ed0-a07d-0521a0c84e5d","system_id":"levelo_inurba_marseille","lat":43.26206,"lon":5.37472,"is_reserved":false,"is_disabled":false,"rental_uris":{"android":"levelo://app?vid=037dbfe4-6d41-4ed0-a07d-0521a0c84e5d","ios":"levelo://app?vid=037dbfe4-6d41-4ed0-a07d-0521a0c84e5d"},"vehicle_type_id":"4","last_reported":1742569764,"current_range_meters":8400,"station_id":"ce4bhgp2rcd13ifvqfc0","pricing_plan_id":"cebpf4jnsgd1na2vs0mg"},{"bike_id":"d34260dd-7af5-45c1-bdc4-52cf20c2f2fd","system_id":"levelo_inurba_marseille","lat":43.31122,"lon":5.37773,"is_reserved":false,"is_disabled":false,"rental_uris":{"android":"levelo://app?vid=d34260dd-7af5-45c1-bdc4-52cf20c2f2fd","ios":"levelo://app?vid=d34260dd-7af5-45c1-bdc4-52cf20c2f2fd"},"vehicle_type_id":"4","last_reported":1742569764,"current_range_meters":8400,"station_id":"ce4bgt92rcd13ifvqcg0","pricing_plan_id":"cebpf4jnsgd1na2vs0mg"},{"bike_id":"2d86cf0c-8220-4a0c-a77e-5b4210ae7f59","system_id":"levelo_inurba_marseille","lat":43.30475,"lon":5.37075,"is_reserved":false,"is_disabled":false,"rental_uris":{"android":"levelo://app?vid=2d86cf0c-8220-4a0c-a77e-5b4210ae7f59","ios":"levelo://app?vid=2d86cf0c-8220-4a0c-a77e-5b4210ae7f59"},"vehicle_type_id":"4","last_reported":1742569764,"current_range_meters":8400,"station_id":"","pricing_plan_id":"cebpf4jnsgd1na2vs0mg"},{"bike_id":"1c3b5361-695c-4ccc-94f9-aca7f37b6d45","system_id":"levelo_inurba_marseille","lat":43.23199,"lon":5.35545,"is_reserved":false,"is_disabled":false,"rental_uris":{"android":"levelo://app?vid=1c3b5361-695c-4ccc-94f9-aca7f37b6d45","ios":"levelo://app?vid=1c3b5361-695c-4ccc-94f9-aca7f37b6d45"},"vehicle_type_id":"4","last_reported":1742569764,"current_range_meters":8800,"station_id":"ce4bhu92rcd13ifvqi70","pricing_plan_id":"cebpf4jnsgd1na2vs0mg"},{"bike_id":"502eb119-ee82-471e-b396-89a832cd315a","system_id":"levelo_inurba_marseille","lat":43.32468,"lon":5.36551,"is_reserved":false,"is_disabled":false,"rental_uris":{"android":"levelo://app?vid=502eb119-ee82-471e-b396-89a832cd315a","ios":"levelo://app?vid=502eb119-ee82-471e-b396-89a832cd315a"},"vehicle_type_id":"4","last_reported":1742569764,"current_range_meters":8800,"station_id":"ce4bhs12rcd13ifvqhvg","pricing_plan_id":"cebpf4jnsgd1na2vs0mg"},{"bike_id":"37c8fdf5-6421-41e6-986c-33ac030fa386","system_id":"levelo_inurba_marseille","lat":43.29867,"lon":5.39734,"is_reserved":false,"is_disabled":false,"rental_uris":{"android":"levelo://app?vid=37c8fdf5-6421-41e6-986c-33ac030fa386","ios":"levelo://app?vid=37c8fdf5-6421-41e6-986c-33ac030fa386"},"vehicle_type_id":"4","last_reported":1742569764,"current_range_meters":8800,"station_id":"ce4bh0h2rcd13ifvqd50","pricing_plan_id":"cebpf4jnsgd1na2vs0mg"},{"bike_id":"07f61176-4af8-4fca-a46c-b562b504dba8","system_id":"levelo_inurba_marseille","lat":43.26556,"lon":5.37293,"is_reserved":false,"is_disabled":false,"rental_uris":{"android":"levelo://app?vid=07f61176-4af8-4fca-a46c-b562b504dba8","ios":"levelo://app?vid=07f61176-4af8-4fca-a46c-b562b504dba8"},"vehicle_type_id":"4","last_reported":1742569764,"current_range_meters":8800,"station_id":"","pricing_plan_id":"cebpf4jnsgd1na2vs0mg"},{"bike_id":"798b0616-faff-4d86-95fb-bae55574f3d5","system_id":"levelo_inurba_marseille","lat":43.28889,"lon":5.4002,"is_reserved":false,"is_disabled":false,"rental_uris":{"android":"levelo://app?vid=798b0616-faff-4d86-95fb-bae55574f3d5","ios":"levelo://app?vid=798b0616-faff-4d86-95fb-bae55574f3d5"},"vehicle_type_id":"4","last_reported":1742569764,"current_range_meters":8800,"station_id":"","pricing_plan_id":"cebpf4jnsgd1na2vs0mg"},{"bike_id":"6861ea49-ddcd-43ab-ad30-c433c82cc347","system_id":"levelo_inurba_marseille","lat":43.2929,"lon":5.40128,"is_reserved":false,"is_disabled":false,"rental_uris":{"android":"levelo://app?vid=6861ea49-ddcd-43ab-ad30-c433c82cc347","ios":"levelo://app?vid=6861ea49-ddcd-43ab-ad30-c433c82cc347"},"vehicle_type_id":"4","last_reported":1742569764,"current_range_meters":8800,"station_id":"ce4bh312rcd13ifvqdk0","pricing_plan_id":"cebpf4jnsgd1na2vs0mg"},{"bike_id":"fb760a2a-eafb-4b87-bc2a-c783575d8e0b","system_id":"levelo_inurba_marseille","lat":43.29241,"lon":5.40187,"is_reserved":false,"is_disabled":false,"rental_uris":{"android":"levelo://app?vid=fb760a2a-eafb-4b87-bc2a-c783575d8e0b","ios":"levelo://app?vid=fb760a2a-eafb-4b87-bc2a-c783575d8e0b"},"vehicle_type_id":"4","last_reported":1742569764,"current_range_meters":8800,"station_id":"ce4bh312rcd13ifvqdk0","pricing_plan_id":"cebpf4jnsgd1na2vs0mg"},{"bike_id":"88d041e2-1cb6-4438-b06f-913b658c8677","system_id":"levelo_inurba_marseille","lat":43.25829,"lon":5.39435,"is_reserved":false,"is_disabled":false,"rental_uris":{"android":"levelo://app?vid=88d041e2-1cb6-4438-b06f-913b658c8677","ios":"levelo://app?vid=88d041e2-1cb6-4438-b06f-913b658c8677"},"vehicle_type_id":"4","last_reported":1742569764,"current_range_meters":8800,"station_id":"ce4bhip2rcd13ifvqft0","pricing_plan_id":"cebpf4jnsgd1na2vs0mg"},{"bike_id":"c4d2375c-3d57-4bb4-ade3-cc0a436630b7","system_id":"levelo_inurba_marseille","lat":43.28722,"lon":5.37935,"is_reserved":false,"is_disabled":false,"rental_uris":{"android":"levelo://app?vid=c4d2375c-3d57-4bb4-ade3-cc0a436630b7","ios":"levelo://app?vid=c4d2375c-3d57-4bb4-ade3-cc0a436630b7"},"vehicle_type_id":"4","last_reported":1742569764,"current_range_meters":8800,"station_id":"ce4bh9p2rcd13ifvqec0","pricing_plan_id":"cebpf4jnsgd1na2vs0mg"},{"bike_id":"9fcb3f14-f368-4f79-aa70-01b27150c36b","system_id":"levelo_inurba_marseille","lat":43.3063,"lon":5.37234,"is_reserved":false,"is_disabled":false,"rental_uris":{"android":"levelo://app?vid=9fcb3f14-f368-4f79-aa70-01b27150c36b","ios":"levelo://app?vid=9fcb3f14-f368-4f79-aa70-01b27150c36b"},"vehicle_type_id":"4","last_reported":1742569764,"current_range_meters":9200,"station_id":"ce4bgqh2rcd13ifvqc4g","pricing_plan_id":"cebpf4jnsgd1na2vs0mg"},{"bike_id":"d0cf742f-b3d8-4f28-9887-331b047a4f10","system_id":"levelo_inurba_marseille","lat":43.30803,"lon":5.38154,"is_reserved":false,"is_disabled":false,"rental_uris":{"android":"levelo://app?vid=d0cf742f-b3d8-4f28-9887-331b047a4f10","ios":"levelo://app?vid=d0cf742f-b3d8-4f28-9887-331b047a4f10"},"vehicle_type_id":"4","last_reported":1742569764,"current_range_meters":9200,"station_id":"ce4bgt12rcd13ifvqce0","pricing_plan_id":"cebpf4jnsgd1na2vs0mg"},{"bike_id":"06a2c001-e589-4bc2-b8d4-e4787c242620","system_id":"levelo_inurba_marseille","lat":43.28856,"lon":5.39304,"is_reserved":false,"is_disabled":false,"rental_uris":{"android":"levelo://app?vid=06a2c001-e589-4bc2-b8d4-e4787c242620","ios":"levelo://app?vid=06a2c001-e589-4bc2-b8d4-e4787c242620"},"vehicle_type_id":"4","last_reported":1742569764,"current_range_meters":9200,"station_id":"ce4bh2p2rcd13ifvqdi0","pricing_plan_id":"cebpf4jnsgd1na2vs0mg"},{"bike_id":"a67c54b6-5ce9-4632-8070-5ca7d5b7fc9e","system_id":"levelo_inurba_marseille","lat":43.23065,"lon":5.35491,"is_reserved":false,"is_disabled":false,"rental_uris":{"android":"levelo://app?vid=a67c54b6-5ce9-4632-8070-5ca7d5b7fc9e","ios":"levelo://app?vid=a67c54b6-5ce9-4632-8070-5ca7d5b7fc9e"},"vehicle_type_id":"4","last_reported":1742569764,"current_range_meters":9200,"station_id":"cpo3342slgdg3j2ifvpg","pricing_plan_id":"cebpf4jnsgd1na2vs0mg"},{"bike_id":"3a260712-d654-4076-bb8e-2d2c938680e2","system_id":"levelo_inurba_marseille","lat":43.33598,"lon":5.41012,"is_reserved":false,"is_disabled":false,"rental_uris":{"android":"levelo://app?vid=3a260712-d654-4076-bb8e-2d2c938680e2","ios":"levelo://app?vid=3a260712-d654-4076-bb8e-2d2c938680e2"},"vehicle_type_id":"4","last_reported":1742569764,"current_range_meters":9200,"station_id":"ce4bhqh2rcd13ifvqhmg","pricing_plan_id":"cebpf4jnsgd1na2vs0mg"},{"bike_id":"f589539d-d63d-45fb-bd41-4fe66d427517","system_id":"levelo_inurba_marseille","lat":43.31083,"lon":5.38345,"is_reserved":false,"is_disabled":false,"rental_uris":{"android":"levelo://app?vid=f589539d-d63d-45fb-bd41-4fe66d427517","ios":"levelo://app?vid=f589539d-d63d-45fb-bd41-4fe66d427517"},"vehicle_type_id":"4","last_reported":1742569764,"current_range_meters":9200,"station_id":"ce4bgv92rcd13ifvqcr0","pricing_plan_id":"cebpf4jnsgd1na2vs0mg"},{"bike_id":"a7b0ca0d-7c48-4607-a9ff-fc4b7575a9ad","system_id":"levelo_inurba_marseille","lat":43.28267,"lon":5.35076,"is_reserved":false,"is_disabled":false,"rental_uris":{"android":"levelo://app?vid=a7b0ca0d-7c48-4607-a9ff-fc4b7575a9ad","ios":"levelo://app?vid=a7b0ca0d-7c48-4607-a9ff-fc4b7575a9ad"},"vehicle_type_id":"4","last_reported":1742569764,"current_range_meters":9200,"station_id":"ce4bhbp2rcd13ifvqerg","pricing_plan_id":"cebpf4jnsgd1na2vs0mg"},{"bike_id":"128d47e3-3e67-4cb1-a2d5-863a59822d8b","system_id":"levelo_inurba_marseille","lat":43.29303,"lon":5.37455,"is_reserved":false,"is_disabled":false,"rental_uris":{"android":"levelo://app?vid=128d47e3-3e67-4cb1-a2d5-863a59822d8b","ios":"levelo://app?vid=128d47e3-3e67-4cb1-a2d5-863a59822d8b"},"vehicle_type_id":"4","last_reported":1742569764,"current_range_meters":9200,"station_id":"ce4bgi12rcd13ifvqb70","pricing_plan_id":"cebpf4jnsgd1na2vs0mg"},{"bike_id":"019f9a07-79ef-4e83-b033-32955beed218","system_id":"levelo_inurba_marseille","lat":43.30817,"lon":5.37957,"is_reserved":false,"is_disabled":false,"rental_uris":{"android":"levelo://app?vid=019f9a07-79ef-4e83-b033-32955beed218","ios":"levelo://app?vid=019f9a07-79ef-4e83-b033-32955beed218"},"vehicle_type_id":"4","last_reported":1742569764,"current_range_meters":9600,"station_id":"","pricing_plan_id":"cebpf4jnsgd1na2vs0mg"},{"bike_id":"f39eebaf-f4e1-4cce-8237-2c3fcbf1a21f","system_id":"levelo_inurba_marseille","lat":43.29037,"lon":5.35916,"is_reserved":false,"is_disabled":false,"rental_uris":{"android":"levelo://app?vid=f39eebaf-f4e1-4cce-8237-2c3fcbf1a21f","ios":"levelo://app?vid=f39eebaf-f4e1-4cce-8237-2c3fcbf1a21f"},"vehicle_type_id":"4","last_reported":1742569764,"current_range_meters":9600,"station_id":"ce4bha92rcd13ifvqeg0","pricing_plan_id":"cebpf4jnsgd1na2vs0mg"},{"bike_id":"fd63a192-a2ae-4c1d-aa3f-4b573664d6e9","system_id":"levelo_inurba_marseille","lat":43.31433,"lon":5.36711,"is_reserved":false,"is_disabled":false,"rental_uris":{"android":"levelo://app?vid=fd63a192-a2ae-4c1d-aa3f-4b573664d6e9","ios":"levelo://app?vid=fd63a192-a2ae-4c1d-aa3f-4b573664d6e9"},"vehicle_type_id":"4","last_reported":1742569764,"current_range_meters":9600,"station_id":"","pricing_plan_id":"cebpf4jnsgd1na2vs0mg"},{"bike_id":"bf5d7bdb-65a8-4310-b955-6a76e2cbd7fe","system_id":"levelo_inurba_marseille","lat":43.33724,"lon":5.39188,"is_reserved":false,"is_disabled":false,"rental_uris":{"android":"levelo://app?vid=bf5d7bdb-65a8-4310-b955-6a76e2cbd7fe","ios":"levelo://app?vid=bf5d7bdb-65a8-4310-b955-6a76e2cbd7fe"},"vehicle_type_id":"4","last_reported":1742569764,"current_range_meters":9600,"station_id":"ce4bhr92rcd13ifvqhsg","pricing_plan_id":"cebpf4jnsgd1na2vs0mg"},{"bike_id":"899ab87e-4ea4-40e5-9304-e09f83aad3d0","system_id":"levelo_inurba_marseille","lat":43.23966,"lon":5.36623,"is_reserved":false,"is_disabled":false,"rental_uris":{"android":"levelo://app?vid=899ab87e-4ea4-40e5-9304-e09f83aad3d0","ios":"levelo://app?vid=899ab87e-4ea4-40e5-9304-e09f83aad3d0"},"vehicle_type_id":"4","last_reported":1742569764,"current_range_meters":10000,"station_id":"ce4bhi12rcd13ifvqfp0","pricing_plan_id":"cebpf4jnsgd1na2vs0mg"},{"bike_id":"96cd0e37-0709-4587-9386-80313b03f584","system_id":"levelo_inurba_marseille","lat":43.2954,"lon":5.38539,"is_reserved":false,"is_disabled":false,"rental_uris":{"android":"levelo://app?vid=96cd0e37-0709-4587-9386-80313b03f584","ios":"levelo://app?vid=96cd0e37-0709-4587-9386-80313b03f584"},"vehicle_type_id":"4","last_reported":1742569764,"current_range_meters":9600,"station_id":"ce4bgih2rcd13ifvqba0","pricing_plan_id":"cebpf4jnsgd1na2vs0mg"},{"bike_id":"c936f87c-268d-40e7-ad16-5dbf8359ac71","system_id":"levelo_inurba_marseille","lat":43.25024,"lon":5.39587,"is_reserved":false,"is_disabled":false,"rental_uris":{"android":"levelo://app?vid=c936f87c-268d-40e7-ad16-5dbf8359ac71","ios":"levelo://app?vid=c936f87c-268d-40e7-ad16-5dbf8359ac71"},"vehicle_type_id":"4","last_reported":1742569764,"current_range_meters":10000,"station_id":"ce4bhm12rcd13ifvqgkg","pricing_plan_id":"cebpf4jnsgd1na2vs0mg"},{"bike_id":"1323d2cd-c4e0-4783-b4f1-4daaeb41faef","system_id":"levelo_inurba_marseille","lat":43.23962,"lon":5.36625,"is_reserved":false,"is_disabled":false,"rental_uris":{"android":"levelo://app?vid=1323d2cd-c4e0-4783-b4f1-4daaeb41faef","ios":"levelo://app?vid=1323d2cd-c4e0-4783-b4f1-4daaeb41faef"},"vehicle_type_id":"4","last_reported":1742569764,"current_range_meters":10000,"station_id":"ce4bhi12rcd13ifvqfp0","pricing_plan_id":"cebpf4jnsgd1na2vs0mg"},{"bike_id":"20e2be53-78ac-4b24-8dad-96b43d72add2","system_id":"levelo_inurba_marseille","lat":43.31069,"lon":5.38342,"is_reserved":false,"is_disabled":false,"rental_uris":{"android":"levelo://app?vid=20e2be53-78ac-4b24-8dad-96b43d72add2","ios":"levelo://app?vid=20e2be53-78ac-4b24-8dad-96b43d72add2"},"vehicle_type_id":"4","last_reported":1742569764,"current_range_meters":10000,"station_id":"ce4bgv92rcd13ifvqcr0","pricing_plan_id":"cebpf4jnsgd1na2vs0mg"},{"bike_id":"cff5c5d7-b2c2-4661-bcba-b7a09aa5def1","system_id":"levelo_inurba_marseille","lat":43.30317,"lon":5.369,"is_reserved":false,"is_disabled":false,"rental_uris":{"android":"levelo://app?vid=cff5c5d7-b2c2-4661-bcba-b7a09aa5def1","ios":"levelo://app?vid=cff5c5d7-b2c2-4661-bcba-b7a09aa5def1"},"vehicle_type_id":"4","last_reported":1742569764,"current_range_meters":10000,"station_id":"ce4bgqh2rcd13ifvqc5g","pricing_plan_id":"cebpf4jnsgd1na2vs0mg"},{"bike_id":"a3266cb3-cc9e-4c4a-a2c2-62d48751a1c6","system_id":"levelo_inurba_marseille","lat":43.296284,"lon":5.377141,"is_reserved":false,"is_disabled":false,"rental_uris":{"android":"levelo://app?vid=a3266cb3-cc9e-4c4a-a2c2-62d48751a1c6","ios":"levelo://app?vid=a3266cb3-cc9e-4c4a-a2c2-62d48751a1c6"},"vehicle_type_id":"4","last_reported":1742569764,"current_range_meters":10000,"station_id":"ce4bgi92rcd13ifvqb90","pricing_plan_id":"cebpf4jnsgd1na2vs0mg"},{"bike_id":"651f2e01-ac5f-4bd5-8826-b1024975b698","system_id":"levelo_inurba_marseille","lat":43.30304,"lon":5.39206,"is_reserved":false,"is_disabled":false,"rental_uris":{"android":"levelo://app?vid=651f2e01-ac5f-4bd5-8826-b1024975b698","ios":"levelo://app?vid=651f2e01-ac5f-4bd5-8826-b1024975b698"},"vehicle_type_id":"4","last_reported":1742569764,"current_range_meters":10000,"station_id":"ce4bgkh2rcd13ifvqbk0","pricing_plan_id":"cebpf4jnsgd1na2vs0mg"},{"bike_id":"b78bef4b-b44f-400c-a0d2-d40629a22753","system_id":"levelo_inurba_marseille","lat":43.28353,"lon":5.38109,"is_reserved":false,"is_disabled":false,"rental_uris":{"android":"levelo://app?vid=b78bef4b-b44f-400c-a0d2-d40629a22753","ios":"levelo://app?vid=b78bef4b-b44f-400c-a0d2-d40629a22753"},"vehicle_type_id":"4","last_reported":1742569764,"current_range_meters":10000,"station_id":"ce4bh412rcd13ifvqdr0","pricing_plan_id":"cebpf4jnsgd1na2vs0mg"},{"bike_id":"1f4b5356-d265-454a-aa48-2f7dec9d4d2a","system_id":"levelo_inurba_marseille","lat":43.33746,"lon":5.39183,"is_reserved":false,"is_disabled":false,"rental_uris":{"android":"levelo://app?vid=1f4b5356-d265-454a-aa48-2f7dec9d4d2a","ios":"levelo://app?vid=1f4b5356-d265-454a-aa48-2f7dec9d4d2a"},"vehicle_type_id":"4","last_reported":1742569764,"current_range_meters":10000,"station_id":"ce4bhr92rcd13ifvqhsg","pricing_plan_id":"cebpf4jnsgd1na2vs0mg"},{"bike_id":"3ee69224-7c6a-448e-b5bc-935bb2df6bdf","system_id":"levelo_inurba_marseille","lat":43.28075,"lon":5.3967,"is_reserved":false,"is_disabled":false,"rental_uris":{"android":"levelo://app?vid=3ee69224-7c6a-448e-b5bc-935bb2df6bdf","ios":"levelo://app?vid=3ee69224-7c6a-448e-b5bc-935bb2df6bdf"},"vehicle_type_id":"4","last_reported":1742569764,"current_range_meters":10000,"station_id":"ce4bho12rcd13ifvqh2g","pricing_plan_id":"cebpf4jnsgd1na2vs0mg"},{"bike_id":"a06df953-ee24-4eee-acd9-cfb685fc1c62","system_id":"levelo_inurba_marseille","lat":43.31415,"lon":5.37445,"is_reserved":false,"is_disabled":false,"rental_uris":{"android":"levelo://app?vid=a06df953-ee24-4eee-acd9-cfb685fc1c62","ios":"levelo://app?vid=a06df953-ee24-4eee-acd9-cfb685fc1c62"},"vehicle_type_id":"4","last_reported":1742569764,"current_range_meters":10800,"station_id":"","pricing_plan_id":"cebpf4jnsgd1na2vs0mg"},{"bike_id":"33063778-d13b-488d-a098-00d76ac265e1","system_id":"levelo_inurba_marseille","lat":43.31063,"lon":5.3835,"is_reserved":false,"is_disabled":false,"rental_uris":{"android":"levelo://app?vid=33063778-d13b-488d-a098-00d76ac265e1","ios":"levelo://app?vid=33063778-d13b-488d-a098-00d76ac265e1"},"vehicle_type_id":"4","last_reported":1742569764,"current_range_meters":10800,"station_id":"ce4bgv92rcd13ifvqcr0","pricing_plan_id":"cebpf4jnsgd1na2vs0mg"},{"bike_id":"4b0555ad-d2b5-4ecc-84f6-cfd625ff2258","system_id":"levelo_inurba_marseille","lat":43.324804,"lon":5.365794,"is_reserved":false,"is_disabled":false,"rental_uris":{"android":"levelo://app?vid=4b0555ad-d2b5-4ecc-84f6-cfd625ff2258","ios":"levelo://app?vid=4b0555ad-d2b5-4ecc-84f6-cfd625ff2258"},"vehicle_type_id":"4","last_reported":1742569764,"current_range_meters":10800,"station_id":"ce4bhs12rcd13ifvqhvg","pricing_plan_id":"cebpf4jnsgd1na2vs0mg"},{"bike_id":"276613ec-3310-44d6-ae3f-44328dd4fd15","system_id":"levelo_inurba_marseille","lat":43.25832,"lon":5.39451,"is_reserved":false,"is_disabled":false,"rental_uris":{"android":"levelo://app?vid=276613ec-3310-44d6-ae3f-44328dd4fd15","ios":"levelo://app?vid=276613ec-3310-44d6-ae3f-44328dd4fd15"},"vehicle_type_id":"4","last_reported":1742569764,"current_range_meters":10800,"station_id":"ce4bhip2rcd13ifvqft0","pricing_plan_id":"cebpf4jnsgd1na2vs0mg"},{"bike_id":"f26047fe-e325-4cda-a7da-2e6f1320cab5","system_id":"levelo_inurba_marseille","lat":43.26489,"lon":5.39552,"is_reserved":false,"is_disabled":false,"rental_uris":{"android":"levelo://app?vid=f26047fe-e325-4cda-a7da-2e6f1320cab5","ios":"levelo://app?vid=f26047fe-e325-4cda-a7da-2e6f1320cab5"},"vehicle_type_id":"4","last_reported":1742569764,"current_range_meters":10800,"station_id":"ce4bhi12rcd13ifvqfq0","pricing_plan_id":"cebpf4jnsgd1na2vs0mg"},{"bike_id":"e62dac40-44c1-4bd0-960d-9e1c5df60e4a","system_id":"levelo_inurba_marseille","lat":43.30306,"lon":5.36903,"is_reserved":false,"is_disabled":false,"rental_uris":{"android":"levelo://app?vid=e62dac40-44c1-4bd0-960d-9e1c5df60e4a","ios":"levelo://app?vid=e62dac40-44c1-4bd0-960d-9e1c5df60e4a"},"vehicle_type_id":"4","last_reported":1742569764,"current_range_meters":10800,"station_id":"ce4bgqh2rcd13ifvqc5g","pricing_plan_id":"cebpf4jnsgd1na2vs0mg"},{"bike_id":"8e1ea91b-3b47-48df-a13b-01bcfef49f30","system_id":"levelo_inurba_marseille","lat":43.29934,"lon":5.36533,"is_reserved":false,"is_disabled":false,"rental_uris":{"android":"levelo://app?vid=8e1ea91b-3b47-48df-a13b-01bcfef49f30","ios":"levelo://app?vid=8e1ea91b-3b47-48df-a13b-01bcfef49f30"},"vehicle_type_id":"4","last_reported":1742569764,"current_range_meters":10800,"station_id":"ce4bgm92rcd13ifvqbr0","pricing_plan_id":"cebpf4jnsgd1na2vs0mg"},{"bike_id":"1c78c8dc-69da-4abe-8de1-c75c570b07ad","system_id":"levelo_inurba_marseille","lat":43.28616,"lon":5.35103,"is_reserved":false,"is_disabled":false,"rental_uris":{"android":"levelo://app?vid=1c78c8dc-69da-4abe-8de1-c75c570b07ad","ios":"levelo://app?vid=1c78c8dc-69da-4abe-8de1-c75c570b07ad"},"vehicle_type_id":"4","last_reported":1742569764,"current_range_meters":10800,"station_id":"ce4bhch2rcd13ifvqeug","pricing_plan_id":"cebpf4jnsgd1na2vs0mg"},{"bike_id":"52c16ac5-3447-4053-956c-78fc8bf0dc7c","system_id":"levelo_inurba_marseille","lat":43.32373,"lon":5.36747,"is_reserved":false,"is_disabled":false,"rental_uris":{"android":"levelo://app?vid=52c16ac5-3447-4053-956c-78fc8bf0dc7c","ios":"levelo://app?vid=52c16ac5-3447-4053-956c-78fc8bf0dc7c"},"vehicle_type_id":"4","last_reported":1742569764,"current_range_meters":11200,"station_id":"ce4bhsh2rcd13ifvqi2g","pricing_plan_id":"cebpf4jnsgd1na2vs0mg"},{"bike_id":"9f1c3e5c-869d-4869-b7c6-0c926f2da6bf","system_id":"levelo_inurba_marseille","lat":43.2836,"lon":5.39801,"is_reserved":false,"is_disabled":false,"rental_uris":{"android":"levelo://app?vid=9f1c3e5c-869d-4869-b7c6-0c926f2da6bf","ios":"levelo://app?vid=9f1c3e5c-869d-4869-b7c6-0c926f2da6bf"},"vehicle_type_id":"4","last_reported":1742569764,"current_range_meters":11200,"station_id":"","pricing_plan_id":"cebpf4jnsgd1na2vs0mg"},{"bike_id":"87b9a141-e1a7-4552-acda-7dead789e4f2","system_id":"levelo_inurba_marseille","lat":43.28679,"lon":5.36359,"is_reserved":false,"is_disabled":false,"rental_uris":{"android":"levelo://app?vid=87b9a141-e1a7-4552-acda-7dead789e4f2","ios":"levelo://app?vid=87b9a141-e1a7-4552-acda-7dead789e4f2"},"vehicle_type_id":"4","last_reported":1742569764,"current_range_meters":11200,"station_id":"ce4bhah2rcd13ifvqej0","pricing_plan_id":"cebpf4jnsgd1na2vs0mg"},{"bike_id":"86ba3482-a270-4470-a749-a3b0c0e4e405","system_id":"levelo_inurba_marseille","lat":43.30123,"lon":5.39885,"is_reserved":false,"is_disabled":false,"rental_uris":{"android":"levelo://app?vid=86ba3482-a270-4470-a749-a3b0c0e4e405","ios":"levelo://app?vid=86ba3482-a270-4470-a749-a3b0c0e4e405"},"vehicle_type_id":"4","last_reported":1742569764,"current_range_meters":11200,"station_id":"ce4bh0h2rcd13ifvqd40","pricing_plan_id":"cebpf4jnsgd1na2vs0mg"},{"bike_id":"d5e63dfd-6385-435a-af3b-6965665f7e80","system_id":"levelo_inurba_marseille","lat":43.28675,"lon":5.38673,"is_reserved":false,"is_disabled":false,"rental_uris":{"android":"levelo://app?vid=d5e63dfd-6385-435a-af3b-6965665f7e80","ios":"levelo://app?vid=d5e63dfd-6385-435a-af3b-6965665f7e80"},"vehicle_type_id":"4","last_reported":1742569764,"current_range_meters":11200,"station_id":"ce4bh492rcd13ifvqdug","pricing_plan_id":"cebpf4jnsgd1na2vs0mg"},{"bike_id":"988b4cee-7e0b-406b-a76a-16c05ad393ee","system_id":"levelo_inurba_marseille","lat":43.31166,"lon":5.38721,"is_reserved":false,"is_disabled":false,"rental_uris":{"android":"levelo://app?vid=988b4cee-7e0b-406b-a76a-16c05ad393ee","ios":"levelo://app?vid=988b4cee-7e0b-406b-a76a-16c05ad393ee"},"vehicle_type_id":"4","last_reported":1742569764,"current_range_meters":11200,"station_id":"ce4bgv12rcd13ifvqcp0","pricing_plan_id":"cebpf4jnsgd1na2vs0mg"},{"bike_id":"4eed87ec-6ba8-4423-bb2a-902257d20a6d","system_id":"levelo_inurba_marseille","lat":43.23147,"lon":5.4371,"is_reserved":false,"is_disabled":false,"rental_uris":{"android":"levelo://app?vid=4eed87ec-6ba8-4423-bb2a-902257d20a6d","ios":"levelo://app?vid=4eed87ec-6ba8-4423-bb2a-902257d20a6d"},"vehicle_type_id":"4","last_reported":1742569764,"current_range_meters":11600,"station_id":"ce4bhmp2rcd13ifvqgog","pricing_plan_id":"cebpf4jnsgd1na2vs0mg"},{"bike_id":"fbbb3028-b15b-4750-98dc-ac90972ecc9b","system_id":"levelo_inurba_marseille","lat":43.3212,"lon":5.36766,"is_reserved":false,"is_disabled":false,"rental_uris":{"android":"levelo://app?vid=fbbb3028-b15b-4750-98dc-ac90972ecc9b","ios":"levelo://app?vid=fbbb3028-b15b-4750-98dc-ac90972ecc9b"},"vehicle_type_id":"4","last_reported":1742569764,"current_range_meters":11600,"station_id":"ce4bhrh2rcd13ifvqhug","pricing_plan_id":"cebpf4jnsgd1na2vs0mg"},{"bike_id":"a7aba8f8-11d9-40c6-b43d-fa49f0314d60","system_id":"levelo_inurba_marseille","lat":43.31116,"lon":5.37756,"is_reserved":false,"is_disabled":false,"rental_uris":{"android":"levelo://app?vid=a7aba8f8-11d9-40c6-b43d-fa49f0314d60","ios":"levelo://app?vid=a7aba8f8-11d9-40c6-b43d-fa49f0314d60"},"vehicle_type_id":"4","last_reported":1742569764,"current_range_meters":11600,"station_id":"ce4bgt92rcd13ifvqcg0","pricing_plan_id":"cebpf4jnsgd1na2vs0mg"},{"bike_id":"f7003bb3-03d7-4582-a7f9-014098a0174d","system_id":"levelo_inurba_marseille","lat":43.32286,"lon":5.38275,"is_reserved":false,"is_disabled":false,"rental_uris":{"android":"levelo://app?vid=f7003bb3-03d7-4582-a7f9-014098a0174d","ios":"levelo://app?vid=f7003bb3-03d7-4582-a7f9-014098a0174d"},"vehicle_type_id":"4","last_reported":1742569764,"current_range_meters":12400,"station_id":"ce4bhr12rcd13ifvqhqg","pricing_plan_id":"cebpf4jnsgd1na2vs0mg"},{"bike_id":"257266cf-683b-4c8a-a350-70a5c3f41572","system_id":"levelo_inurba_marseille","lat":43.31179,"lon":5.38724,"is_reserved":false,"is_disabled":false,"rental_uris":{"android":"levelo://app?vid=257266cf-683b-4c8a-a350-70a5c3f41572","ios":"levelo://app?vid=257266cf-683b-4c8a-a350-70a5c3f41572"},"vehicle_type_id":"4","last_reported":1742569764,"current_range_meters":12000,"station_id":"ce4bgv12rcd13ifvqcp0","pricing_plan_id":"cebpf4jnsgd1na2vs0mg"},{"bike_id":"1f2450bd-5d37-4d98-a50b-ea6795b7b300","system_id":"levelo_inurba_marseille","lat":43.30895,"lon":5.372,"is_reserved":false,"is_disabled":false,"rental_uris":{"android":"levelo://app?vid=1f2450bd-5d37-4d98-a50b-ea6795b7b300","ios":"levelo://app?vid=1f2450bd-5d37-4d98-a50b-ea6795b7b300"},"vehicle_type_id":"4","last_reported":1742569764,"current_range_meters":12000,"station_id":"ce4bguh2rcd13ifvqckg","pricing_plan_id":"cebpf4jnsgd1na2vs0mg"},{"bike_id":"aeb2bb0d-3b8b-4c85-89fe-119fe794fc77","system_id":"levelo_inurba_marseille","lat":43.32656,"lon":5.40987,"is_reserved":false,"is_disabled":false,"rental_uris":{"android":"levelo://app?vid=aeb2bb0d-3b8b-4c85-89fe-119fe794fc77","ios":"levelo://app?vid=aeb2bb0d-3b8b-4c85-89fe-119fe794fc77"},"vehicle_type_id":"4","last_reported":1742569764,"current_range_meters":12000,"station_id":"ce4bhpp2rcd13ifvqhgg","pricing_plan_id":"cebpf4jnsgd1na2vs0mg"},{"bike_id":"dc537980-6042-493d-8080-0667efb1d6ad","system_id":"levelo_inurba_marseille","lat":43.24542,"lon":5.39528,"is_reserved":false,"is_disabled":false,"rental_uris":{"android":"levelo://app?vid=dc537980-6042-493d-8080-0667efb1d6ad","ios":"levelo://app?vid=dc537980-6042-493d-8080-0667efb1d6ad"},"vehicle_type_id":"4","last_reported":1742569764,"current_range_meters":12000,"station_id":"ce4bhlp2rcd13ifvqgjg","pricing_plan_id":"cebpf4jnsgd1na2vs0mg"},{"bike_id":"32c22226-b738-479f-8e45-1761f4a78a15","system_id":"levelo_inurba_marseille","lat":43.31882,"lon":5.40744,"is_reserved":false,"is_disabled":false,"rental_uris":{"android":"levelo://app?vid=32c22226-b738-479f-8e45-1761f4a78a15","ios":"levelo://app?vid=32c22226-b738-479f-8e45-1761f4a78a15"},"vehicle_type_id":"4","last_reported":1742569764,"current_range_meters":12000,"station_id":"ce4bhq12rcd13ifvqhig","pricing_plan_id":"cebpf4jnsgd1na2vs0mg"},{"bike_id":"f7b19721-c68b-4280-b653-43eff6dbb1fd","system_id":"levelo_inurba_marseille","lat":43.32106,"lon":5.36776,"is_reserved":false,"is_disabled":false,"rental_uris":{"android":"levelo://app?vid=f7b19721-c68b-4280-b653-43eff6dbb1fd","ios":"levelo://app?vid=f7b19721-c68b-4280-b653-43eff6dbb1fd"},"vehicle_type_id":"4","last_reported":1742569764,"current_range_meters":12000,"station_id":"ce4bhrh2rcd13ifvqhug","pricing_plan_id":"cebpf4jnsgd1na2vs0mg"},{"bike_id":"aad8559b-e137-4459-b1c9-e668b0a1b60c","system_id":"levelo_inurba_marseille","lat":43.30086,"lon":5.39851,"is_reserved":false,"is_disabled":false,"rental_uris":{"android":"levelo://app?vid=aad8559b-e137-4459-b1c9-e668b0a1b60c","ios":"levelo://app?vid=aad8559b-e137-4459-b1c9-e668b0a1b60c"},"vehicle_type_id":"4","last_reported":1742569764,"current_range_meters":12000,"station_id":"ce4bh0h2rcd13ifvqd40","pricing_plan_id":"cebpf4jnsgd1na2vs0mg"},{"bike_id":"393d5bc5-9a2b-452d-98d7-05cbeef283e3","system_id":"levelo_inurba_marseille","lat":43.28936,"lon":5.36635,"is_reserved":false,"is_disabled":false,"rental_uris":{"android":"levelo://app?vid=393d5bc5-9a2b-452d-98d7-05cbeef283e3","ios":"levelo://app?vid=393d5bc5-9a2b-452d-98d7-05cbeef283e3"},"vehicle_type_id":"4","last_reported":1742569764,"current_range_meters":12000,"station_id":"ce4bhap2rcd13ifvqek0","pricing_plan_id":"cebpf4jnsgd1na2vs0mg"},{"bike_id":"246769e1-7ec4-4af6-826a-dff8ea8fffa3","system_id":"levelo_inurba_marseille","lat":43.30877,"lon":5.39646,"is_reserved":false,"is_disabled":false,"rental_uris":{"android":"levelo://app?vid=246769e1-7ec4-4af6-826a-dff8ea8fffa3","ios":"levelo://app?vid=246769e1-7ec4-4af6-826a-dff8ea8fffa3"},"vehicle_type_id":"4","last_reported":1742569764,"current_range_meters":12000,"station_id":"ce4bh012rcd13ifvqcv0","pricing_plan_id":"cebpf4jnsgd1na2vs0mg"},{"bike_id":"528d96c4-a0eb-45e5-be7b-0c0d727ac068","system_id":"levelo_inurba_marseille","lat":43.308,"lon":5.4353,"is_reserved":false,"is_disabled":false,"rental_uris":{"android":"levelo://app?vid=528d96c4-a0eb-45e5-be7b-0c0d727ac068","ios":"levelo://app?vid=528d96c4-a0eb-45e5-be7b-0c0d727ac068"},"vehicle_type_id":"4","last_reported":1742569764,"current_range_meters":12400,"station_id":"ce4bhph2rcd13ifvqheg","pricing_plan_id":"cebpf4jnsgd1na2vs0mg"},{"bike_id":"29c299a3-8deb-46e4-8cd6-c7a928ea34d7","system_id":"levelo_inurba_marseille","lat":43.26562,"lon":5.37287,"is_reserved":false,"is_disabled":false,"rental_uris":{"android":"levelo://app?vid=29c299a3-8deb-46e4-8cd6-c7a928ea34d7","ios":"levelo://app?vid=29c299a3-8deb-46e4-8cd6-c7a928ea34d7"},"vehicle_type_id":"4","last_reported":1742569764,"current_range_meters":12400,"station_id":"ce4bhg12rcd13ifvqf70","pricing_plan_id":"cebpf4jnsgd1na2vs0mg"},{"bike_id":"975632a0-28ed-4821-be90-bad3f93aba6c","system_id":"levelo_inurba_marseille","lat":43.27161,"lon":5.41002,"is_reserved":false,"is_disabled":false,"rental_uris":{"android":"levelo://app?vid=975632a0-28ed-4821-be90-bad3f93aba6c","ios":"levelo://app?vid=975632a0-28ed-4821-be90-bad3f93aba6c"},"vehicle_type_id":"4","last_reported":1742569764,"current_range_meters":12400,"station_id":"ce4bhl12rcd13ifvqgf0","pricing_plan_id":"cebpf4jnsgd1na2vs0mg"},{"bike_id":"0dfb7246-4940-47d8-abaa-e2bf352d8448","system_id":"levelo_inurba_marseille","lat":43.28714,"lon":5.39951,"is_reserved":false,"is_disabled":false,"rental_uris":{"android":"levelo://app?vid=0dfb7246-4940-47d8-abaa-e2bf352d8448","ios":"levelo://app?vid=0dfb7246-4940-47d8-abaa-e2bf352d8448"},"vehicle_type_id":"4","last_reported":1742569764,"current_range_meters":12400,"station_id":"ce4bho92rcd13ifvqh3g","pricing_plan_id":"cebpf4jnsgd1na2vs0mg"},{"bike_id":"6f21d642-1ff8-4437-97e4-2c2a50e89d88","system_id":"levelo_inurba_marseille","lat":43.32658,"lon":5.40995,"is_reserved":false,"is_disabled":false,"rental_uris":{"android":"levelo://app?vid=6f21d642-1ff8-4437-97e4-2c2a50e89d88","ios":"levelo://app?vid=6f21d642-1ff8-4437-97e4-2c2a50e89d88"},"vehicle_type_id":"4","last_reported":1742569764,"current_range_meters":12800,"station_id":"ce4bhpp2rcd13ifvqhgg","pricing_plan_id":"cebpf4jnsgd1na2vs0mg"},{"bike_id":"c86db2ab-cc81-43f8-b880-9e7ec954580a","system_id":"levelo_inurba_marseille","lat":43.28356,"lon":5.38113,"is_reserved":false,"is_disabled":false,"rental_uris":{"android":"levelo://app?vid=c86db2ab-cc81-43f8-b880-9e7ec954580a","ios":"levelo://app?vid=c86db2ab-cc81-43f8-b880-9e7ec954580a"},"vehicle_type_id":"4","last_reported":1742569764,"current_range_meters":12400,"station_id":"ce4bh412rcd13ifvqdr0","pricing_plan_id":"cebpf4jnsgd1na2vs0mg"},{"bike_id":"cfa103ca-d756-4b81-b845-bf6aeb4e2e1c","system_id":"levelo_inurba_marseille","lat":43.29794,"lon":5.38094,"is_reserved":false,"is_disabled":false,"rental_uris":{"android":"levelo://app?vid=cfa103ca-d756-4b81-b845-bf6aeb4e2e1c","ios":"levelo://app?vid=cfa103ca-d756-4b81-b845-bf6aeb4e2e1c"},"vehicle_type_id":"4","last_reported":1742569764,"current_range_meters":12800,"station_id":"ce4bgip2rcd13ifvqbb0","pricing_plan_id":"cebpf4jnsgd1na2vs0mg"},{"bike_id":"d5008c42-98f6-4ef7-bc26-398f502db47d","system_id":"levelo_inurba_marseille","lat":43.28703,"lon":5.39977,"is_reserved":false,"is_disabled":false,"rental_uris":{"android":"levelo://app?vid=d5008c42-98f6-4ef7-bc26-398f502db47d","ios":"levelo://app?vid=d5008c42-98f6-4ef7-bc26-398f502db47d"},"vehicle_type_id":"4","last_reported":1742569764,"current_range_meters":12800,"station_id":"ce4bho92rcd13ifvqh3g","pricing_plan_id":"cebpf4jnsgd1na2vs0mg"},{"bike_id":"cca9ba49-2af3-4e02-8742-fea686e1327a","system_id":"levelo_inurba_marseille","lat":43.25507,"lon":5.37638,"is_reserved":false,"is_disabled":false,"rental_uris":{"android":"levelo://app?vid=cca9ba49-2af3-4e02-8742-fea686e1327a","ios":"levelo://app?vid=cca9ba49-2af3-4e02-8742-fea686e1327a"},"vehicle_type_id":"4","last_reported":1742569764,"current_range_meters":12800,"station_id":"ce4bhh12rcd13ifvqff0","pricing_plan_id":"cebpf4jnsgd1na2vs0mg"},{"bike_id":"b1f6ea93-7044-495f-a7d4-bf4950cd6269","system_id":"levelo_inurba_marseille","lat":43.28839,"lon":5.39339,"is_reserved":false,"is_disabled":false,"rental_uris":{"android":"levelo://app?vid=b1f6ea93-7044-495f-a7d4-bf4950cd6269","ios":"levelo://app?vid=b1f6ea93-7044-495f-a7d4-bf4950cd6269"},"vehicle_type_id":"4","last_reported":1742569764,"current_range_meters":12800,"station_id":"ce4bh2p2rcd13ifvqdi0","pricing_plan_id":"cebpf4jnsgd1na2vs0mg"},{"bike_id":"961b8a12-f229-4021-afa8-ab050915273b","system_id":"levelo_inurba_marseille","lat":43.29023,"lon":5.38133,"is_reserved":false,"is_disabled":false,"rental_uris":{"android":"levelo://app?vid=961b8a12-f229-4021-afa8-ab050915273b","ios":"levelo://app?vid=961b8a12-f229-4021-afa8-ab050915273b"},"vehicle_type_id":"4","last_reported":1742569764,"current_range_meters":13600,"station_id":"ce4bh4p2rcd13ifvqe1g","pricing_plan_id":"cebpf4jnsgd1na2vs0mg"},{"bike_id":"295b2b96-8a22-4b6f-a45b-df5a7ed58969","system_id":"levelo_inurba_marseille","lat":43.33725,"lon":5.39188,"is_reserved":false,"is_disabled":false,"rental_uris":{"android":"levelo://app?vid=295b2b96-8a22-4b6f-a45b-df5a7ed58969","ios":"levelo://app?vid=295b2b96-8a22-4b6f-a45b-df5a7ed58969"},"vehicle_type_id":"4","last_reported":1742569764,"current_range_meters":14000,"station_id":"ce4bhr92rcd13ifvqhsg","pricing_plan_id":"cebpf4jnsgd1na2vs0mg"},{"bike_id":"d09b0ce1-3b18-44fe-ab1d-252b5aad2033","system_id":"levelo_inurba_marseille","lat":43.29847,"lon":5.36301,"is_reserved":false,"is_disabled":false,"rental_uris":{"android":"levelo://app?vid=d09b0ce1-3b18-44fe-ab1d-252b5aad2033","ios":"levelo://app?vid=d09b0ce1-3b18-44fe-ab1d-252b5aad2033"},"vehicle_type_id":"4","last_reported":1742569764,"current_range_meters":14000,"station_id":"ce4bgpp2rcd13ifvqc3g","pricing_plan_id":"cebpf4jnsgd1na2vs0mg"},{"bike_id":"b5fcb98a-c8d5-4f1a-a9b4-b3362af2a9c7","system_id":"levelo_inurba_marseille","lat":43.23061,"lon":5.35496,"is_reserved":false,"is_disabled":false,"rental_uris":{"android":"levelo://app?vid=b5fcb98a-c8d5-4f1a-a9b4-b3362af2a9c7","ios":"levelo://app?vid=b5fcb98a-c8d5-4f1a-a9b4-b3362af2a9c7"},"vehicle_type_id":"4","last_reported":1742569764,"current_range_meters":14000,"station_id":"cpo3342slgdg3j2ifvpg","pricing_plan_id":"cebpf4jnsgd1na2vs0mg"},{"bike_id":"316a8bde-1ccb-465d-a832-620d0d07649b","system_id":"levelo_inurba_marseille","lat":43.28933,"lon":5.36643,"is_reserved":false,"is_disabled":false,"rental_uris":{"android":"levelo://app?vid=316a8bde-1ccb-465d-a832-620d0d07649b","ios":"levelo://app?vid=316a8bde-1ccb-465d-a832-620d0d07649b"},"vehicle_type_id":"4","last_reported":1742569764,"current_range_meters":14000,"station_id":"ce4bhap2rcd13ifvqek0","pricing_plan_id":"cebpf4jnsgd1na2vs0mg"},{"bike_id":"e3269bcf-82f7-44d3-8b55-146b32f4a95b","system_id":"levelo_inurba_marseille","lat":43.29265,"lon":5.38444,"is_reserved":false,"is_disabled":false,"rental_uris":{"android":"levelo://app?vid=e3269bcf-82f7-44d3-8b55-146b32f4a95b","ios":"levelo://app?vid=e3269bcf-82f7-44d3-8b55-146b32f4a95b"},"vehicle_type_id":"4","last_reported":1742569764,"current_range_meters":14000,"station_id":"ce4bh692rcd13ifvqea0","pricing_plan_id":"cebpf4jnsgd1na2vs0mg"},{"bike_id":"51981fd7-cf2c-4d18-934d-561c6dd1ba7f","system_id":"levelo_inurba_marseille","lat":43.29902,"lon":5.38149,"is_reserved":false,"is_disabled":false,"rental_uris":{"android":"levelo://app?vid=51981fd7-cf2c-4d18-934d-561c6dd1ba7f","ios":"levelo://app?vid=51981fd7-cf2c-4d18-934d-561c6dd1ba7f"},"vehicle_type_id":"4","last_reported":1742569764,"current_range_meters":14400,"station_id":"ce4bgj12rcd13ifvqbc0","pricing_plan_id":"cebpf4jnsgd1na2vs0mg"},{"bike_id":"3a2bacef-0ae8-4cee-9bf7-b31d57be74b3","system_id":"levelo_inurba_marseille","lat":43.31268,"lon":5.40161,"is_reserved":false,"is_disabled":false,"rental_uris":{"android":"levelo://app?vid=3a2bacef-0ae8-4cee-9bf7-b31d57be74b3","ios":"levelo://app?vid=3a2bacef-0ae8-4cee-9bf7-b31d57be74b3"},"vehicle_type_id":"4","last_reported":1742569764,"current_range_meters":14400,"station_id":"ce4bh092rcd13ifvqd30","pricing_plan_id":"cebpf4jnsgd1na2vs0mg"},{"bike_id":"a562b101-f84f-4937-9e8e-9fa87e32ba18","system_id":"levelo_inurba_marseille","lat":43.26939,"lon":5.40247,"is_reserved":false,"is_disabled":false,"rental_uris":{"android":"levelo://app?vid=a562b101-f84f-4937-9e8e-9fa87e32ba18","ios":"levelo://app?vid=a562b101-f84f-4937-9e8e-9fa87e32ba18"},"vehicle_type_id":"4","last_reported":1742569764,"current_range_meters":14400,"station_id":"cjm6bp8fraef2m0cb0m0","pricing_plan_id":"cebpf4jnsgd1na2vs0mg"},{"bike_id":"085d6e90-ff31-4453-a174-79277c92962a","system_id":"levelo_inurba_marseille","lat":43.31371,"lon":5.38497,"is_reserved":false,"is_disabled":false,"rental_uris":{"android":"levelo://app?vid=085d6e90-ff31-4453-a174-79277c92962a","ios":"levelo://app?vid=085d6e90-ff31-4453-a174-79277c92962a"},"vehicle_type_id":"4","last_reported":1742569764,"current_range_meters":14400,"station_id":"ce4bgt92rcd13ifvqcf0","pricing_plan_id":"cebpf4jnsgd1na2vs0mg"},{"bike_id":"16a2499d-9820-4f36-949a-a94bbd5e5647","system_id":"levelo_inurba_marseille","lat":43.3093,"lon":5.40158,"is_reserved":false,"is_disabled":false,"rental_uris":{"android":"levelo://app?vid=16a2499d-9820-4f36-949a-a94bbd5e5647","ios":"levelo://app?vid=16a2499d-9820-4f36-949a-a94bbd5e5647"},"vehicle_type_id":"4","last_reported":1742569764,"current_range_meters":14400,"station_id":"ce4bgvp2rcd13ifvqct0","pricing_plan_id":"cebpf4jnsgd1na2vs0mg"},{"bike_id":"38044645-ece5-4bcd-8d4d-db0d7b3b13cd","system_id":"levelo_inurba_marseille","lat":43.24554,"lon":5.39524,"is_reserved":false,"is_disabled":false,"rental_uris":{"android":"levelo://app?vid=38044645-ece5-4bcd-8d4d-db0d7b3b13cd","ios":"levelo://app?vid=38044645-ece5-4bcd-8d4d-db0d7b3b13cd"},"vehicle_type_id":"4","last_reported":1742569764,"current_range_meters":14400,"station_id":"ce4bhlp2rcd13ifvqgjg","pricing_plan_id":"cebpf4jnsgd1na2vs0mg"},{"bike_id":"42ac4a5e-cf9f-49e1-89ab-0ef89e5636f6","system_id":"levelo_inurba_marseille","lat":43.25508,"lon":5.37662,"is_reserved":false,"is_disabled":false,"rental_uris":{"android":"levelo://app?vid=42ac4a5e-cf9f-49e1-89ab-0ef89e5636f6","ios":"levelo://app?vid=42ac4a5e-cf9f-49e1-89ab-0ef89e5636f6"},"vehicle_type_id":"4","last_reported":1742569764,"current_range_meters":14800,"station_id":"ce4bhh12rcd13ifvqff0","pricing_plan_id":"cebpf4jnsgd1na2vs0mg"},{"bike_id":"bd591cc0-5bd5-4ad7-ac36-49e10d4fe2f9","system_id":"levelo_inurba_marseille","lat":43.31087,"lon":5.4243,"is_reserved":false,"is_disabled":false,"rental_uris":{"android":"levelo://app?vid=bd591cc0-5bd5-4ad7-ac36-49e10d4fe2f9","ios":"levelo://app?vid=bd591cc0-5bd5-4ad7-ac36-49e10d4fe2f9"},"vehicle_type_id":"4","last_reported":1742569764,"current_range_meters":14800,"station_id":"ce4bhp92rcd13ifvqhag","pricing_plan_id":"cebpf4jnsgd1na2vs0mg"},{"bike_id":"9683555e-fe04-4de7-b706-7a9b0019a6a7","system_id":"levelo_inurba_marseille","lat":43.33753,"lon":5.37495,"is_reserved":false,"is_disabled":true,"rental_uris":{"android":"levelo://app?vid=9683555e-fe04-4de7-b706-7a9b0019a6a7","ios":"levelo://app?vid=9683555e-fe04-4de7-b706-7a9b0019a6a7"},"vehicle_type_id":"4","last_reported":1742569764,"current_range_meters":14800,"station_id":"ce4bh2h2rcd13ifvqdh0","pricing_plan_id":"cebpf4jnsgd1na2vs0mg"},{"bike_id":"8554844d-ad1f-4179-94b2-8ae283e549a0","system_id":"levelo_inurba_marseille","lat":43.30537,"lon":5.36543,"is_reserved":false,"is_disabled":false,"rental_uris":{"android":"levelo://app?vid=8554844d-ad1f-4179-94b2-8ae283e549a0","ios":"levelo://app?vid=8554844d-ad1f-4179-94b2-8ae283e549a0"},"vehicle_type_id":"4","last_reported":1742569764,"current_range_meters":14800,"station_id":"ce4bgs12rcd13ifvqcag","pricing_plan_id":"cebpf4jnsgd1na2vs0mg"},{"bike_id":"d9d90e28-0cde-498e-9e49-e2278f18bc23","system_id":"levelo_inurba_marseille","lat":43.32368,"lon":5.38887,"is_reserved":false,"is_disabled":false,"rental_uris":{"android":"levelo://app?vid=d9d90e28-0cde-498e-9e49-e2278f18bc23","ios":"levelo://app?vid=d9d90e28-0cde-498e-9e49-e2278f18bc23"},"vehicle_type_id":"4","last_reported":1742569764,"current_range_meters":14800,"station_id":"ce4bhqp2rcd13ifvqhog","pricing_plan_id":"cebpf4jnsgd1na2vs0mg"},{"bike_id":"1941e1fe-aa74-4007-afde-fda9d78d046e","system_id":"levelo_inurba_marseille","lat":43.29271,"lon":5.37579,"is_reserved":false,"is_disabled":false,"rental_uris":{"android":"levelo://app?vid=1941e1fe-aa74-4007-afde-fda9d78d046e","ios":"levelo://app?vid=1941e1fe-aa74-4007-afde-fda9d78d046e"},"vehicle_type_id":"4","last_reported":1742569764,"current_range_meters":15200,"station_id":"ce4bgi12rcd13ifvqb80","pricing_plan_id":"cebpf4jnsgd1na2vs0mg"},{"bike_id":"fd75b0f4-d590-40ad-8ab6-124339ae9bb3","system_id":"levelo_inurba_marseille","lat":43.32665,"lon":5.40984,"is_reserved":false,"is_disabled":false,"rental_uris":{"android":"levelo://app?vid=fd75b0f4-d590-40ad-8ab6-124339ae9bb3","ios":"levelo://app?vid=fd75b0f4-d590-40ad-8ab6-124339ae9bb3"},"vehicle_type_id":"4","last_reported":1742569764,"current_range_meters":15200,"station_id":"ce4bhpp2rcd13ifvqhgg","pricing_plan_id":"cebpf4jnsgd1na2vs0mg"},{"bike_id":"2dedfbbb-d526-4df4-8216-2fcbdcb7581d","system_id":"levelo_inurba_marseille","lat":43.26937,"lon":5.40252,"is_reserved":false,"is_disabled":false,"rental_uris":{"android":"levelo://app?vid=2dedfbbb-d526-4df4-8216-2fcbdcb7581d","ios":"levelo://app?vid=2dedfbbb-d526-4df4-8216-2fcbdcb7581d"},"vehicle_type_id":"4","last_reported":1742569764,"current_range_meters":15200,"station_id":"cjm6bp8fraef2m0cb0m0","pricing_plan_id":"cebpf4jnsgd1na2vs0mg"},{"bike_id":"1cc4909e-c609-4abe-82e5-094dd8af1115","system_id":"levelo_inurba_marseille","lat":43.31828,"lon":5.37484,"is_reserved":false,"is_disabled":false,"rental_uris":{"android":"levelo://app?vid=1cc4909e-c609-4abe-82e5-094dd8af1115","ios":"levelo://app?vid=1cc4909e-c609-4abe-82e5-094dd8af1115"},"vehicle_type_id":"4","last_reported":1742569764,"current_range_meters":15200,"station_id":"","pricing_plan_id":"cebpf4jnsgd1na2vs0mg"},{"bike_id":"f7d99d5b-5d03-43fe-a8b3-3f8f3b5b929d","system_id":"levelo_inurba_marseille","lat":43.29863,"lon":5.39754,"is_reserved":false,"is_disabled":false,"rental_uris":{"android":"levelo://app?vid=f7d99d5b-5d03-43fe-a8b3-3f8f3b5b929d","ios":"levelo://app?vid=f7d99d5b-5d03-43fe-a8b3-3f8f3b5b929d"},"vehicle_type_id":"4","last_reported":1742569764,"current_range_meters":15200,"station_id":"ce4bh0h2rcd13ifvqd50","pricing_plan_id":"cebpf4jnsgd1na2vs0mg"},{"bike_id":"385a7c8f-1762-44e7-bc1b-afbb69957e81","system_id":"levelo_inurba_marseille","lat":43.31637,"lon":5.37138,"is_reserved":false,"is_disabled":false,"rental_uris":{"android":"levelo://app?vid=385a7c8f-1762-44e7-bc1b-afbb69957e81","ios":"levelo://app?vid=385a7c8f-1762-44e7-bc1b-afbb69957e81"},"vehicle_type_id":"4","last_reported":1742569764,"current_range_meters":15200,"station_id":"","pricing_plan_id":"cebpf4jnsgd1na2vs0mg"},{"bike_id":"7e771b2a-22b9-4bc8-96cd-8e3ba0f36811","system_id":"levelo_inurba_marseille","lat":43.248054,"lon":5.374621,"is_reserved":false,"is_disabled":false,"rental_uris":{"android":"levelo://app?vid=7e771b2a-22b9-4bc8-96cd-8e3ba0f36811","ios":"levelo://app?vid=7e771b2a-22b9-4bc8-96cd-8e3ba0f36811"},"vehicle_type_id":"4","last_reported":1742569764,"current_range_meters":16000,"station_id":"ce4bha12rcd13ifvqee0","pricing_plan_id":"cebpf4jnsgd1na2vs0mg"},{"bike_id":"c195d955-b950-4cdf-a879-62f722dea60a","system_id":"levelo_inurba_marseille","lat":43.28477,"lon":5.38427,"is_reserved":false,"is_disabled":false,"rental_uris":{"android":"levelo://app?vid=c195d955-b950-4cdf-a879-62f722dea60a","ios":"levelo://app?vid=c195d955-b950-4cdf-a879-62f722dea60a"},"vehicle_type_id":"4","last_reported":1742569764,"current_range_meters":16000,"station_id":"ce4bh512rcd13ifvqe3g","pricing_plan_id":"cebpf4jnsgd1na2vs0mg"},{"bike_id":"8b9f614e-92bb-4d27-8984-51ee40acdd3c","system_id":"levelo_inurba_marseille","lat":43.29588,"lon":5.38106,"is_reserved":false,"is_disabled":false,"rental_uris":{"android":"levelo://app?vid=8b9f614e-92bb-4d27-8984-51ee40acdd3c","ios":"levelo://app?vid=8b9f614e-92bb-4d27-8984-51ee40acdd3c"},"vehicle_type_id":"4","last_reported":1742569764,"current_range_meters":16000,"station_id":"ce4bgl12rcd13ifvqbo0","pricing_plan_id":"cebpf4jnsgd1na2vs0mg"},{"bike_id":"91c02a5f-d888-47c6-ab84-ad0cebaa4fd0","system_id":"levelo_inurba_marseille","lat":43.27683,"lon":5.38882,"is_reserved":false,"is_disabled":false,"rental_uris":{"android":"levelo://app?vid=91c02a5f-d888-47c6-ab84-ad0cebaa4fd0","ios":"levelo://app?vid=91c02a5f-d888-47c6-ab84-ad0cebaa4fd0"},"vehicle_type_id":"4","last_reported":1742569764,"current_range_meters":16000,"station_id":"ce4bhi12rcd13ifvqfo0","pricing_plan_id":"cebpf4jnsgd1na2vs0mg"},{"bike_id":"605cf234-f225-408c-83a8-89a9c941a273","system_id":"levelo_inurba_marseille","lat":43.30134,"lon":5.39863,"is_reserved":false,"is_disabled":false,"rental_uris":{"android":"levelo://app?vid=605cf234-f225-408c-83a8-89a9c941a273","ios":"levelo://app?vid=605cf234-f225-408c-83a8-89a9c941a273"},"vehicle_type_id":"4","last_reported":1742569764,"current_range_meters":16000,"station_id":"ce4bh0h2rcd13ifvqd40","pricing_plan_id":"cebpf4jnsgd1na2vs0mg"},{"bike_id":"2a68335c-a931-4a27-9703-9f66ff16f867","system_id":"levelo_inurba_marseille","lat":43.30798,"lon":5.38154,"is_reserved":false,"is_disabled":false,"rental_uris":{"android":"levelo://app?vid=2a68335c-a931-4a27-9703-9f66ff16f867","ios":"levelo://app?vid=2a68335c-a931-4a27-9703-9f66ff16f867"},"vehicle_type_id":"4","last_reported":1742569764,"current_range_meters":15200,"station_id":"ce4bgt12rcd13ifvqce0","pricing_plan_id":"cebpf4jnsgd1na2vs0mg"},{"bike_id":"0b49bdf5-e1e6-4881-ad0b-23dfc5b30bed","system_id":"levelo_inurba_marseille","lat":43.30788,"lon":5.37657,"is_reserved":false,"is_disabled":false,"rental_uris":{"android":"levelo://app?vid=0b49bdf5-e1e6-4881-ad0b-23dfc5b30bed","ios":"levelo://app?vid=0b49bdf5-e1e6-4881-ad0b-23dfc5b30bed"},"vehicle_type_id":"4","last_reported":1742569764,"current_range_meters":16000,"station_id":"ce4bgv92rcd13ifvqcq0","pricing_plan_id":"cebpf4jnsgd1na2vs0mg"},{"bike_id":"9624dd36-ffe1-474e-9ecd-cf2a9a5ea0bc","system_id":"levelo_inurba_marseille","lat":43.2606,"lon":5.394,"is_reserved":false,"is_disabled":false,"rental_uris":{"android":"levelo://app?vid=9624dd36-ffe1-474e-9ecd-cf2a9a5ea0bc","ios":"levelo://app?vid=9624dd36-ffe1-474e-9ecd-cf2a9a5ea0bc"},"vehicle_type_id":"4","last_reported":1742569764,"current_range_meters":16000,"station_id":"ce4bhh92rcd13ifvqfj0","pricing_plan_id":"cebpf4jnsgd1na2vs0mg"},{"bike_id":"f1c1254d-d9d6-4485-8910-4ae2a7c84bc0","system_id":"levelo_inurba_marseille","lat":43.23148,"lon":5.40029,"is_reserved":false,"is_disabled":false,"rental_uris":{"android":"levelo://app?vid=f1c1254d-d9d6-4485-8910-4ae2a7c84bc0","ios":"levelo://app?vid=f1c1254d-d9d6-4485-8910-4ae2a7c84bc0"},"vehicle_type_id":"4","last_reported":1742569764,"current_range_meters":16000,"station_id":"ce4bhn12rcd13ifvqgqg","pricing_plan_id":"cebpf4jnsgd1na2vs0mg"},{"bike_id":"9b71ece1-e4b4-45cd-b183-643571316d3b","system_id":"levelo_inurba_marseille","lat":43.30636,"lon":5.36565,"is_reserved":false,"is_disabled":false,"rental_uris":{"android":"levelo://app?vid=9b71ece1-e4b4-45cd-b183-643571316d3b","ios":"levelo://app?vid=9b71ece1-e4b4-45cd-b183-643571316d3b"},"vehicle_type_id":"4","last_reported":1742569764,"current_range_meters":16800,"station_id":"","pricing_plan_id":"cebpf4jnsgd1na2vs0mg"},{"bike_id":"514035ca-4058-4010-81fa-5f74f554ce83","system_id":"levelo_inurba_marseille","lat":43.29966,"lon":5.38494,"is_reserved":false,"is_disabled":false,"rental_uris":{"android":"levelo://app?vid=514035ca-4058-4010-81fa-5f74f554ce83","ios":"levelo://app?vid=514035ca-4058-4010-81fa-5f74f554ce83"},"vehicle_type_id":"4","last_reported":1742569764,"current_range_meters":16400,"station_id":"ce4bgj92rcd13ifvqbd0","pricing_plan_id":"cebpf4jnsgd1na2vs0mg"},{"bike_id":"72503a27-a949-4a46-b139-c44d4f416a58","system_id":"levelo_inurba_marseille","lat":43.23189,"lon":5.35563,"is_reserved":false,"is_disabled":false,"rental_uris":{"android":"levelo://app?vid=72503a27-a949-4a46-b139-c44d4f416a58","ios":"levelo://app?vid=72503a27-a949-4a46-b139-c44d4f416a58"},"vehicle_type_id":"4","last_reported":1742569764,"current_range_meters":16400,"station_id":"ce4bhu92rcd13ifvqi70","pricing_plan_id":"cebpf4jnsgd1na2vs0mg"},{"bike_id":"41c1f824-39c5-4121-b451-e5db2aab8aa1","system_id":"levelo_inurba_marseille","lat":43.30134,"lon":5.39866,"is_reserved":false,"is_disabled":false,"rental_uris":{"android":"levelo://app?vid=41c1f824-39c5-4121-b451-e5db2aab8aa1","ios":"levelo://app?vid=41c1f824-39c5-4121-b451-e5db2aab8aa1"},"vehicle_type_id":"4","last_reported":1742569764,"current_range_meters":16400,"station_id":"ce4bh0h2rcd13ifvqd40","pricing_plan_id":"cebpf4jnsgd1na2vs0mg"},{"bike_id":"5d3539ed-c5b6-435a-a05d-e66f0f540b12","system_id":"levelo_inurba_marseille","lat":43.29268,"lon":5.36855,"is_reserved":false,"is_disabled":false,"rental_uris":{"android":"levelo://app?vid=5d3539ed-c5b6-435a-a05d-e66f0f540b12","ios":"levelo://app?vid=5d3539ed-c5b6-435a-a05d-e66f0f540b12"},"vehicle_type_id":"4","last_reported":1742569764,"current_range_meters":16400,"station_id":"ce4bhbp2rcd13ifvqesg","pricing_plan_id":"cebpf4jnsgd1na2vs0mg"},{"bike_id":"b9b99f21-9ebd-4f69-b0b4-dbdaac90bb98","system_id":"levelo_inurba_marseille","lat":43.31703,"lon":5.3773,"is_reserved":false,"is_disabled":false,"rental_uris":{"android":"levelo://app?vid=b9b99f21-9ebd-4f69-b0b4-dbdaac90bb98","ios":"levelo://app?vid=b9b99f21-9ebd-4f69-b0b4-dbdaac90bb98"},"vehicle_type_id":"4","last_reported":1742569764,"current_range_meters":16800,"station_id":"ce4bgth2rcd13ifvqch0","pricing_plan_id":"cebpf4jnsgd1na2vs0mg"},{"bike_id":"f359b265-a3a1-4029-9179-14316f98434e","system_id":"levelo_inurba_marseille","lat":43.30534,"lon":5.36717,"is_reserved":false,"is_disabled":false,"rental_uris":{"android":"levelo://app?vid=f359b265-a3a1-4029-9179-14316f98434e","ios":"levelo://app?vid=f359b265-a3a1-4029-9179-14316f98434e"},"vehicle_type_id":"4","last_reported":1742569764,"current_range_meters":16400,"station_id":"ce4bgrp2rcd13ifvqc9g","pricing_plan_id":"cebpf4jnsgd1na2vs0mg"},{"bike_id":"fbb498fe-0420-4fc0-a001-6f20ac1d59dd","system_id":"levelo_inurba_marseille","lat":43.33607,"lon":5.41002,"is_reserved":false,"is_disabled":true,"rental_uris":{"android":"levelo://app?vid=fbb498fe-0420-4fc0-a001-6f20ac1d59dd","ios":"levelo://app?vid=fbb498fe-0420-4fc0-a001-6f20ac1d59dd"},"vehicle_type_id":"4","last_reported":1742569764,"current_range_meters":16800,"station_id":"ce4bhqh2rcd13ifvqhmg","pricing_plan_id":"cebpf4jnsgd1na2vs0mg"},{"bike_id":"8ee54ba7-bb00-416a-8098-e67ac50f69a7","system_id":"levelo_inurba_marseille","lat":43.25939,"lon":5.40876,"is_reserved":false,"is_disabled":false,"rental_uris":{"android":"levelo://app?vid=8ee54ba7-bb00-416a-8098-e67ac50f69a7","ios":"levelo://app?vid=8ee54ba7-bb00-416a-8098-e67ac50f69a7"},"vehicle_type_id":"4","last_reported":1742569764,"current_range_meters":16800,"station_id":"ce4bhgp2rcd13ifvqfd0","pricing_plan_id":"cebpf4jnsgd1na2vs0mg"},{"bike_id":"e65fdea6-45d3-423a-85b4-6347f360306a","system_id":"levelo_inurba_marseille","lat":43.33017,"lon":5.3904,"is_reserved":false,"is_disabled":false,"rental_uris":{"android":"levelo://app?vid=e65fdea6-45d3-423a-85b4-6347f360306a","ios":"levelo://app?vid=e65fdea6-45d3-423a-85b4-6347f360306a"},"vehicle_type_id":"4","last_reported":1742569764,"current_range_meters":16800,"station_id":"ce4bhr92rcd13ifvqhrg","pricing_plan_id":"cebpf4jnsgd1na2vs0mg"},{"bike_id":"1d051785-f31b-4db2-bd9a-b1f97811e834","system_id":"levelo_inurba_marseille","lat":43.26556,"lon":5.37285,"is_reserved":false,"is_disabled":false,"rental_uris":{"android":"levelo://app?vid=1d051785-f31b-4db2-bd9a-b1f97811e834","ios":"levelo://app?vid=1d051785-f31b-4db2-bd9a-b1f97811e834"},"vehicle_type_id":"4","last_reported":1742569764,"current_range_meters":16800,"station_id":"ce4bhg12rcd13ifvqf70","pricing_plan_id":"cebpf4jnsgd1na2vs0mg"},{"bike_id":"7c2b1bca-7c26-4e08-8138-ece0dd820546","system_id":"levelo_inurba_marseille","lat":43.28481,"lon":5.38424,"is_reserved":false,"is_disabled":false,"rental_uris":{"android":"levelo://app?vid=7c2b1bca-7c26-4e08-8138-ece0dd820546","ios":"levelo://app?vid=7c2b1bca-7c26-4e08-8138-ece0dd820546"},"vehicle_type_id":"4","last_reported":1742569764,"current_range_meters":16800,"station_id":"ce4bh512rcd13ifvqe3g","pricing_plan_id":"cebpf4jnsgd1na2vs0mg"},{"bike_id":"5dd46a65-2636-46b8-81d9-f18daf7f6700","system_id":"levelo_inurba_marseille","lat":43.23145,"lon":5.43734,"is_reserved":false,"is_disabled":false,"rental_uris":{"android":"levelo://app?vid=5dd46a65-2636-46b8-81d9-f18daf7f6700","ios":"levelo://app?vid=5dd46a65-2636-46b8-81d9-f18daf7f6700"},"vehicle_type_id":"4","last_reported":1742569764,"current_range_meters":16800,"station_id":"ce4bhmp2rcd13ifvqgog","pricing_plan_id":"cebpf4jnsgd1na2vs0mg"},{"bike_id":"7d9bf2d2-5153-499c-a1fb-dcb365a9e566","system_id":"levelo_inurba_marseille","lat":43.24167,"lon":5.39703,"is_reserved":false,"is_disabled":false,"rental_uris":{"android":"levelo://app?vid=7d9bf2d2-5153-499c-a1fb-dcb365a9e566","ios":"levelo://app?vid=7d9bf2d2-5153-499c-a1fb-dcb365a9e566"},"vehicle_type_id":"4","last_reported":1742569764,"current_range_meters":16800,"station_id":"ce4bhn12rcd13ifvqgpg","pricing_plan_id":"cebpf4jnsgd1na2vs0mg"},{"bike_id":"44ebbaba-e7fb-4293-93ad-659b084e296c","system_id":"levelo_inurba_marseille","lat":43.28706,"lon":5.37422,"is_reserved":false,"is_disabled":false,"rental_uris":{"android":"levelo://app?vid=44ebbaba-e7fb-4293-93ad-659b084e296c","ios":"levelo://app?vid=44ebbaba-e7fb-4293-93ad-659b084e296c"},"vehicle_type_id":"4","last_reported":1742569764,"current_range_meters":16400,"station_id":"ce4bh3p2rcd13ifvqdq0","pricing_plan_id":"cebpf4jnsgd1na2vs0mg"},{"bike_id":"6158b9a4-1e10-44ed-b047-282a559b9d44","system_id":"levelo_inurba_marseille","lat":43.30797,"lon":5.43528,"is_reserved":false,"is_disabled":false,"rental_uris":{"android":"levelo://app?vid=6158b9a4-1e10-44ed-b047-282a559b9d44","ios":"levelo://app?vid=6158b9a4-1e10-44ed-b047-282a559b9d44"},"vehicle_type_id":"4","last_reported":1742569764,"current_range_meters":16800,"station_id":"ce4bhph2rcd13ifvqheg","pricing_plan_id":"cebpf4jnsgd1na2vs0mg"},{"bike_id":"4f12708a-561b-4b19-9334-733021d75071","system_id":"levelo_inurba_marseille","lat":43.30303,"lon":5.392,"is_reserved":false,"is_disabled":false,"rental_uris":{"android":"levelo://app?vid=4f12708a-561b-4b19-9334-733021d75071","ios":"levelo://app?vid=4f12708a-561b-4b19-9334-733021d75071"},"vehicle_type_id":"4","last_reported":1742569764,"current_range_meters":16800,"station_id":"ce4bgkh2rcd13ifvqbk0","pricing_plan_id":"cebpf4jnsgd1na2vs0mg"},{"bike_id":"c6a6dbea-0c03-46cc-bddb-469155a8c9fa","system_id":"levelo_inurba_marseille","lat":43.28161,"lon":5.42647,"is_reserved":false,"is_disabled":false,"rental_uris":{"android":"levelo://app?vid=c6a6dbea-0c03-46cc-bddb-469155a8c9fa","ios":"levelo://app?vid=c6a6dbea-0c03-46cc-bddb-469155a8c9fa"},"vehicle_type_id":"4","last_reported":1742569764,"current_range_meters":16800,"station_id":"ce4bhnh2rcd13ifvqgug","pricing_plan_id":"cebpf4jnsgd1na2vs0mg"},{"bike_id":"a490f70e-3087-422b-974e-2c896f9f495c","system_id":"levelo_inurba_marseille","lat":43.33727,"lon":5.39192,"is_reserved":false,"is_disabled":false,"rental_uris":{"android":"levelo://app?vid=a490f70e-3087-422b-974e-2c896f9f495c","ios":"levelo://app?vid=a490f70e-3087-422b-974e-2c896f9f495c"},"vehicle_type_id":"4","last_reported":1742569764,"current_range_meters":16800,"station_id":"ce4bhr92rcd13ifvqhsg","pricing_plan_id":"cebpf4jnsgd1na2vs0mg"},{"bike_id":"9247ddf9-3718-4f94-97b3-b433c671cbe1","system_id":"levelo_inurba_marseille","lat":43.249298,"lon":5.396581,"is_reserved":false,"is_disabled":false,"rental_uris":{"android":"levelo://app?vid=9247ddf9-3718-4f94-97b3-b433c671cbe1","ios":"levelo://app?vid=9247ddf9-3718-4f94-97b3-b433c671cbe1"},"vehicle_type_id":"4","last_reported":1742569764,"current_range_meters":17600,"station_id":"ce4bhn12rcd13ifvqgqg","pricing_plan_id":"cebpf4jnsgd1na2vs0mg"},{"bike_id":"490f24fb-19fa-45d1-aeb1-cf2283f14534","system_id":"levelo_inurba_marseille","lat":43.2985,"lon":5.36287,"is_reserved":false,"is_disabled":false,"rental_uris":{"android":"levelo://app?vid=490f24fb-19fa-45d1-aeb1-cf2283f14534","ios":"levelo://app?vid=490f24fb-19fa-45d1-aeb1-cf2283f14534"},"vehicle_type_id":"4","last_reported":1742569764,"current_range_meters":17200,"station_id":"","pricing_plan_id":"cebpf4jnsgd1na2vs0mg"},{"bike_id":"f429e929-d248-4fb2-ba01-db9d545d680a","system_id":"levelo_inurba_marseille","lat":43.29408,"lon":5.38624,"is_reserved":false,"is_disabled":false,"rental_uris":{"android":"levelo://app?vid=f429e929-d248-4fb2-ba01-db9d545d680a","ios":"levelo://app?vid=f429e929-d248-4fb2-ba01-db9d545d680a"},"vehicle_type_id":"4","last_reported":1742569764,"current_range_meters":17200,"station_id":"ce4bh2h2rcd13ifvqdh0","pricing_plan_id":"cebpf4jnsgd1na2vs0mg"},{"bike_id":"b4b2a2a4-db9f-4cf3-bbe3-0d0eeb6fd499","system_id":"levelo_inurba_marseille","lat":43.31973,"lon":5.38108,"is_reserved":false,"is_disabled":false,"rental_uris":{"android":"levelo://app?vid=b4b2a2a4-db9f-4cf3-bbe3-0d0eeb6fd499","ios":"levelo://app?vid=b4b2a2a4-db9f-4cf3-bbe3-0d0eeb6fd499"},"vehicle_type_id":"4","last_reported":1742569764,"current_range_meters":17200,"station_id":"","pricing_plan_id":"cebpf4jnsgd1na2vs0mg"},{"bike_id":"d16d5ae2-a108-44f8-a226-14fecf4f3137","system_id":"levelo_inurba_marseille","lat":43.27991,"lon":5.40011,"is_reserved":false,"is_disabled":false,"rental_uris":{"android":"levelo://app?vid=d16d5ae2-a108-44f8-a226-14fecf4f3137","ios":"levelo://app?vid=d16d5ae2-a108-44f8-a226-14fecf4f3137"},"vehicle_type_id":"4","last_reported":1742569764,"current_range_meters":17200,"station_id":"ce4bho92rcd13ifvqh4g","pricing_plan_id":"cebpf4jnsgd1na2vs0mg"},{"bike_id":"2032e81a-8d24-4036-9cc6-bf67698b8322","system_id":"levelo_inurba_marseille","lat":43.24178,"lon":5.39731,"is_reserved":false,"is_disabled":false,"rental_uris":{"android":"levelo://app?vid=2032e81a-8d24-4036-9cc6-bf67698b8322","ios":"levelo://app?vid=2032e81a-8d24-4036-9cc6-bf67698b8322"},"vehicle_type_id":"4","last_reported":1742569764,"current_range_meters":17200,"station_id":"ce4bhn12rcd13ifvqgpg","pricing_plan_id":"cebpf4jnsgd1na2vs0mg"},{"bike_id":"b6069b84-a07b-445d-a58c-8caad1641412","system_id":"levelo_inurba_marseille","lat":43.29318,"lon":5.37182,"is_reserved":false,"is_disabled":false,"rental_uris":{"android":"levelo://app?vid=b6069b84-a07b-445d-a58c-8caad1641412","ios":"levelo://app?vid=b6069b84-a07b-445d-a58c-8caad1641412"},"vehicle_type_id":"4","last_reported":1742569764,"current_range_meters":17200,"station_id":"ce4bgh92rcd13ifvqb40","pricing_plan_id":"cebpf4jnsgd1na2vs0mg"},{"bike_id":"b8947409-508b-461c-b433-a1d5d02b6078","system_id":"levelo_inurba_marseille","lat":43.26578,"lon":5.37276,"is_reserved":false,"is_disabled":false,"rental_uris":{"android":"levelo://app?vid=b8947409-508b-461c-b433-a1d5d02b6078","ios":"levelo://app?vid=b8947409-508b-461c-b433-a1d5d02b6078"},"vehicle_type_id":"4","last_reported":1742569764,"current_range_meters":17200,"station_id":"ce4bhg12rcd13ifvqf70","pricing_plan_id":"cebpf4jnsgd1na2vs0mg"},{"bike_id":"1036e65b-b636-41b1-83e4-98d49e389bc5","system_id":"levelo_inurba_marseille","lat":43.24996,"lon":5.389376,"is_reserved":false,"is_disabled":false,"rental_uris":{"android":"levelo://app?vid=1036e65b-b636-41b1-83e4-98d49e389bc5","ios":"levelo://app?vid=1036e65b-b636-41b1-83e4-98d49e389bc5"},"vehicle_type_id":"4","last_reported":1742569764,"current_range_meters":17200,"station_id":"ce4bhgp2rcd13ifvqfd0","pricing_plan_id":"cebpf4jnsgd1na2vs0mg"},{"bike_id":"535fd767-a05d-464b-bd18-bf8b15080668","system_id":"levelo_inurba_marseille","lat":43.29168,"lon":5.3716,"is_reserved":false,"is_disabled":false,"rental_uris":{"android":"levelo://app?vid=535fd767-a05d-464b-bd18-bf8b15080668","ios":"levelo://app?vid=535fd767-a05d-464b-bd18-bf8b15080668"},"vehicle_type_id":"4","last_reported":1742569764,"current_range_meters":17200,"station_id":"ce4bha92rcd13ifvqeh0","pricing_plan_id":"cebpf4jnsgd1na2vs0mg"},{"bike_id":"724e0ed7-34b8-4780-af0a-10b59a3fe15b","system_id":"levelo_inurba_marseille","lat":43.301494,"lon":5.374086,"is_reserved":false,"is_disabled":false,"rental_uris":{"android":"levelo://app?vid=724e0ed7-34b8-4780-af0a-10b59a3fe15b","ios":"levelo://app?vid=724e0ed7-34b8-4780-af0a-10b59a3fe15b"},"vehicle_type_id":"4","last_reported":1742569764,"current_range_meters":17600,"station_id":"ce4bgs92rcd13ifvqcc0","pricing_plan_id":"cebpf4jnsgd1na2vs0mg"},{"bike_id":"86d55ae7-4af7-4823-a867-3c6badf70719","system_id":"levelo_inurba_marseille","lat":43.29605,"lon":5.38111,"is_reserved":false,"is_disabled":false,"rental_uris":{"android":"levelo://app?vid=86d55ae7-4af7-4823-a867-3c6badf70719","ios":"levelo://app?vid=86d55ae7-4af7-4823-a867-3c6badf70719"},"vehicle_type_id":"4","last_reported":1742569764,"current_range_meters":17600,"station_id":"ce4bgl12rcd13ifvqbo0","pricing_plan_id":"cebpf4jnsgd1na2vs0mg"},{"bike_id":"d3c4d0ab-f059-46b1-ab02-8cf5e0bef16a","system_id":"levelo_inurba_marseille","lat":43.27831,"lon":5.39205,"is_reserved":false,"is_disabled":false,"rental_uris":{"android":"levelo://app?vid=d3c4d0ab-f059-46b1-ab02-8cf5e0bef16a","ios":"levelo://app?vid=d3c4d0ab-f059-46b1-ab02-8cf5e0bef16a"},"vehicle_type_id":"4","last_reported":1742569764,"current_range_meters":17600,"station_id":"ce4bhjp2rcd13ifvqga0","pricing_plan_id":"cebpf4jnsgd1na2vs0mg"},{"bike_id":"ff0b86f7-1349-4aed-8f97-17f96801d957","system_id":"levelo_inurba_marseille","lat":43.28424,"lon":5.39194,"is_reserved":false,"is_disabled":false,"rental_uris":{"android":"levelo://app?vid=ff0b86f7-1349-4aed-8f97-17f96801d957","ios":"levelo://app?vid=ff0b86f7-1349-4aed-8f97-17f96801d957"},"vehicle_type_id":"4","last_reported":1742569764,"current_range_meters":17600,"station_id":"ce4bhoh2rcd13ifvqh5g","pricing_plan_id":"cebpf4jnsgd1na2vs0mg"},{"bike_id":"20319b38-0bb2-4cba-8151-8eb47e1235c3","system_id":"levelo_inurba_marseille","lat":43.26982,"lon":5.3926,"is_reserved":false,"is_disabled":false,"rental_uris":{"android":"levelo://app?vid=20319b38-0bb2-4cba-8151-8eb47e1235c3","ios":"levelo://app?vid=20319b38-0bb2-4cba-8151-8eb47e1235c3"},"vehicle_type_id":"4","last_reported":1742569764,"current_range_meters":17600,"station_id":"","pricing_plan_id":"cebpf4jnsgd1na2vs0mg"},{"bike_id":"b5dfa879-c1d5-4a9c-a077-2c481b7f8cfa","system_id":"levelo_inurba_marseille","lat":43.30861,"lon":5.378,"is_reserved":false,"is_disabled":false,"rental_uris":{"android":"levelo://app?vid=b5dfa879-c1d5-4a9c-a077-2c481b7f8cfa","ios":"levelo://app?vid=b5dfa879-c1d5-4a9c-a077-2c481b7f8cfa"},"vehicle_type_id":"4","last_reported":1742569764,"current_range_meters":17600,"station_id":"","pricing_plan_id":"cebpf4jnsgd1na2vs0mg"},{"bike_id":"542510f2-4172-4045-84a0-15028f098680","system_id":"levelo_inurba_marseille","lat":43.29777,"lon":5.37101,"is_reserved":false,"is_disabled":false,"rental_uris":{"android":"levelo://app?vid=542510f2-4172-4045-84a0-15028f098680","ios":"levelo://app?vid=542510f2-4172-4045-84a0-15028f098680"},"vehicle_type_id":"4","last_reported":1742569764,"current_range_meters":17600,"station_id":"ce4bgop2rcd13ifvqc1g","pricing_plan_id":"cebpf4jnsgd1na2vs0mg"},{"bike_id":"300181e0-daf6-467f-8215-72d9081f550d","system_id":"levelo_inurba_marseille","lat":43.31119,"lon":5.37797,"is_reserved":false,"is_disabled":false,"rental_uris":{"android":"levelo://app?vid=300181e0-daf6-467f-8215-72d9081f550d","ios":"levelo://app?vid=300181e0-daf6-467f-8215-72d9081f550d"},"vehicle_type_id":"4","last_reported":1742569764,"current_range_meters":17600,"station_id":"ce4bgt92rcd13ifvqcg0","pricing_plan_id":"cebpf4jnsgd1na2vs0mg"},{"bike_id":"302da745-dc3e-489e-b2c8-445dcb3c38b1","system_id":"levelo_inurba_marseille","lat":43.23066,"lon":5.3549,"is_reserved":false,"is_disabled":false,"rental_uris":{"android":"levelo://app?vid=302da745-dc3e-489e-b2c8-445dcb3c38b1","ios":"levelo://app?vid=302da745-dc3e-489e-b2c8-445dcb3c38b1"},"vehicle_type_id":"4","last_reported":1742569764,"current_range_meters":17600,"station_id":"cpo3342slgdg3j2ifvpg","pricing_plan_id":"cebpf4jnsgd1na2vs0mg"},{"bike_id":"d30b2bc9-75f3-4dec-a611-7be6ac555934","system_id":"levelo_inurba_marseille","lat":43.26955,"lon":5.38619,"is_reserved":false,"is_disabled":false,"rental_uris":{"android":"levelo://app?vid=d30b2bc9-75f3-4dec-a611-7be6ac555934","ios":"levelo://app?vid=d30b2bc9-75f3-4dec-a611-7be6ac555934"},"vehicle_type_id":"4","last_reported":1742569764,"current_range_meters":17600,"station_id":"ce4bhh92rcd13ifvqfh0","pricing_plan_id":"cebpf4jnsgd1na2vs0mg"},{"bike_id":"63e71ad8-73b4-4460-bfd8-e958ddd3c41a","system_id":"levelo_inurba_marseille","lat":43.30881,"lon":5.39654,"is_reserved":false,"is_disabled":false,"rental_uris":{"android":"levelo://app?vid=63e71ad8-73b4-4460-bfd8-e958ddd3c41a","ios":"levelo://app?vid=63e71ad8-73b4-4460-bfd8-e958ddd3c41a"},"vehicle_type_id":"4","last_reported":1742569764,"current_range_meters":17600,"station_id":"ce4bh012rcd13ifvqcv0","pricing_plan_id":"cebpf4jnsgd1na2vs0mg"},{"bike_id":"3861bda8-dded-4064-8b14-eff211895b68","system_id":"levelo_inurba_marseille","lat":43.28623,"lon":5.35108,"is_reserved":false,"is_disabled":false,"rental_uris":{"android":"levelo://app?vid=3861bda8-dded-4064-8b14-eff211895b68","ios":"levelo://app?vid=3861bda8-dded-4064-8b14-eff211895b68"},"vehicle_type_id":"4","last_reported":1742569764,"current_range_meters":17600,"station_id":"ce4bhch2rcd13ifvqeug","pricing_plan_id":"cebpf4jnsgd1na2vs0mg"},{"bike_id":"eee09134-4fb3-4587-a26b-f43de8a99847","system_id":"levelo_inurba_marseille","lat":43.30137,"lon":5.39881,"is_reserved":false,"is_disabled":false,"rental_uris":{"android":"levelo://app?vid=eee09134-4fb3-4587-a26b-f43de8a99847","ios":"levelo://app?vid=eee09134-4fb3-4587-a26b-f43de8a99847"},"vehicle_type_id":"4","last_reported":1742569764,"current_range_meters":18000,"station_id":"ce4bh0h2rcd13ifvqd40","pricing_plan_id":"cebpf4jnsgd1na2vs0mg"},{"bike_id":"13a57571-583b-491f-9537-90495573210b","system_id":"levelo_inurba_marseille","lat":43.31296,"lon":5.36733,"is_reserved":false,"is_disabled":false,"rental_uris":{"android":"levelo://app?vid=13a57571-583b-491f-9537-90495573210b","ios":"levelo://app?vid=13a57571-583b-491f-9537-90495573210b"},"vehicle_type_id":"4","last_reported":1742569764,"current_range_meters":18000,"station_id":"","pricing_plan_id":"cebpf4jnsgd1na2vs0mg"},{"bike_id":"ccca6e0d-82b8-4b25-8d7a-8ac431b6e455","system_id":"levelo_inurba_marseille","lat":43.31362,"lon":5.38502,"is_reserved":false,"is_disabled":false,"rental_uris":{"android":"levelo://app?vid=ccca6e0d-82b8-4b25-8d7a-8ac431b6e455","ios":"levelo://app?vid=ccca6e0d-82b8-4b25-8d7a-8ac431b6e455"},"vehicle_type_id":"4","last_reported":1742569764,"current_range_meters":17600,"station_id":"ce4bgt92rcd13ifvqcf0","pricing_plan_id":"cebpf4jnsgd1na2vs0mg"},{"bike_id":"041746e8-f612-4f02-ba2c-e784ef31f6c4","system_id":"levelo_inurba_marseille","lat":43.23157,"lon":5.43709,"is_reserved":false,"is_disabled":false,"rental_uris":{"android":"levelo://app?vid=041746e8-f612-4f02-ba2c-e784ef31f6c4","ios":"levelo://app?vid=041746e8-f612-4f02-ba2c-e784ef31f6c4"},"vehicle_type_id":"4","last_reported":1742569764,"current_range_meters":18000,"station_id":"ce4bhmp2rcd13ifvqgog","pricing_plan_id":"cebpf4jnsgd1na2vs0mg"},{"bike_id":"21be8453-080c-40d1-9451-369837f5258a","system_id":"levelo_inurba_marseille","lat":43.33604,"lon":5.41034,"is_reserved":false,"is_disabled":false,"rental_uris":{"android":"levelo://app?vid=21be8453-080c-40d1-9451-369837f5258a","ios":"levelo://app?vid=21be8453-080c-40d1-9451-369837f5258a"},"vehicle_type_id":"4","last_reported":1742569764,"current_range_meters":18000,"station_id":"ce4bhqh2rcd13ifvqhmg","pricing_plan_id":"cebpf4jnsgd1na2vs0mg"},{"bike_id":"b3b7cf75-5216-4bad-879d-24e18d5efcd6","system_id":"levelo_inurba_marseille","lat":43.30882,"lon":5.39649,"is_reserved":false,"is_disabled":false,"rental_uris":{"android":"levelo://app?vid=b3b7cf75-5216-4bad-879d-24e18d5efcd6","ios":"levelo://app?vid=b3b7cf75-5216-4bad-879d-24e18d5efcd6"},"vehicle_type_id":"4","last_reported":1742569764,"current_range_meters":18000,"station_id":"ce4bh012rcd13ifvqcv0","pricing_plan_id":"cebpf4jnsgd1na2vs0mg"},{"bike_id":"a9b35819-e4e9-44ed-a5f6-ff1b88c09ad4","system_id":"levelo_inurba_marseille","lat":43.29714,"lon":5.36598,"is_reserved":false,"is_disabled":false,"rental_uris":{"android":"levelo://app?vid=a9b35819-e4e9-44ed-a5f6-ff1b88c09ad4","ios":"levelo://app?vid=a9b35819-e4e9-44ed-a5f6-ff1b88c09ad4"},"vehicle_type_id":"4","last_reported":1742569764,"current_range_meters":18000,"station_id":"ce4bgn12rcd13ifvqbt0","pricing_plan_id":"cebpf4jnsgd1na2vs0mg"},{"bike_id":"ded6f5ad-6252-4ce9-8aea-b9c3424b3a3b","system_id":"levelo_inurba_marseille","lat":43.30466,"lon":5.37917,"is_reserved":false,"is_disabled":false,"rental_uris":{"android":"levelo://app?vid=ded6f5ad-6252-4ce9-8aea-b9c3424b3a3b","ios":"levelo://app?vid=ded6f5ad-6252-4ce9-8aea-b9c3424b3a3b"},"vehicle_type_id":"4","last_reported":1742569764,"current_range_meters":18000,"station_id":"ce4bgup2rcd13ifvqcn0","pricing_plan_id":"cebpf4jnsgd1na2vs0mg"},{"bike_id":"12ec1500-554d-42d9-aa3b-26627d894310","system_id":"levelo_inurba_marseille","lat":43.29299,"lon":5.3747,"is_reserved":false,"is_disabled":false,"rental_uris":{"android":"levelo://app?vid=12ec1500-554d-42d9-aa3b-26627d894310","ios":"levelo://app?vid=12ec1500-554d-42d9-aa3b-26627d894310"},"vehicle_type_id":"4","last_reported":1742569764,"current_range_meters":18000,"station_id":"ce4bgi12rcd13ifvqb70","pricing_plan_id":"cebpf4jnsgd1na2vs0mg"},{"bike_id":"e92e00e4-6e10-44e9-9ebe-f52c29860674","system_id":"levelo_inurba_marseille","lat":43.28707,"lon":5.39984,"is_reserved":false,"is_disabled":false,"rental_uris":{"android":"levelo://app?vid=e92e00e4-6e10-44e9-9ebe-f52c29860674","ios":"levelo://app?vid=e92e00e4-6e10-44e9-9ebe-f52c29860674"},"vehicle_type_id":"4","last_reported":1742569764,"current_range_meters":18000,"station_id":"ce4bho92rcd13ifvqh3g","pricing_plan_id":"cebpf4jnsgd1na2vs0mg"},{"bike_id":"7b3bc240-601c-478c-937d-6d5599bb66bc","system_id":"levelo_inurba_marseille","lat":43.26218,"lon":5.37438,"is_reserved":false,"is_disabled":false,"rental_uris":{"android":"levelo://app?vid=7b3bc240-601c-478c-937d-6d5599bb66bc","ios":"levelo://app?vid=7b3bc240-601c-478c-937d-6d5599bb66bc"},"vehicle_type_id":"4","last_reported":1742569764,"current_range_meters":18000,"station_id":"ce4bhgp2rcd13ifvqfc0","pricing_plan_id":"cebpf4jnsgd1na2vs0mg"},{"bike_id":"96cc881f-2104-4540-a5cd-44c45b09df99","system_id":"levelo_inurba_marseille","lat":43.30965,"lon":5.39037,"is_reserved":false,"is_disabled":false,"rental_uris":{"android":"levelo://app?vid=96cc881f-2104-4540-a5cd-44c45b09df99","ios":"levelo://app?vid=96cc881f-2104-4540-a5cd-44c45b09df99"},"vehicle_type_id":"4","last_reported":1742569764,"current_range_meters":18000,"station_id":"ce4bgup2rcd13ifvqco0","pricing_plan_id":"cebpf4jnsgd1na2vs0mg"},{"bike_id":"c10163d4-17b2-4595-a9a4-2356ead87ae7","system_id":"levelo_inurba_marseille","lat":43.29844,"lon":5.36279,"is_reserved":false,"is_disabled":false,"rental_uris":{"android":"levelo://app?vid=c10163d4-17b2-4595-a9a4-2356ead87ae7","ios":"levelo://app?vid=c10163d4-17b2-4595-a9a4-2356ead87ae7"},"vehicle_type_id":"4","last_reported":1742569764,"current_range_meters":18000,"station_id":"ce4bgpp2rcd13ifvqc3g","pricing_plan_id":"cebpf4jnsgd1na2vs0mg"},{"bike_id":"e67be5bd-31ec-4388-9eb9-bab87b603972","system_id":"levelo_inurba_marseille","lat":43.28852,"lon":5.39299,"is_reserved":false,"is_disabled":false,"rental_uris":{"android":"levelo://app?vid=e67be5bd-31ec-4388-9eb9-bab87b603972","ios":"levelo://app?vid=e67be5bd-31ec-4388-9eb9-bab87b603972"},