{"last_updated":1738091193,"ttl":60,"version":"2.2","data":{"bikes":[{"bike_id":"5e40434d-067a-4574-9dae-a14844512179","system_id":"levelo_inurba_marseille","lat":43.29785,"lon":5.37103,"is_reserved":false,"is_disabled":false,"rental_uris":{"android":"levelo://app?vid=5e40434d-067a-4574-9dae-a14844512179","ios":"levelo://app?vid=5e40434d-067a-4574-9dae-a14844512179"},"vehicle_type_id":"4","last_reported":1738091193,"current_range_meters":8400,"station_id":"ce4bgop2rcd13ifvqc1g","pricing_plan_id":"cebpf4jnsgd1na2vs0mg"},{"bike_id":"c98c10ad-2c59-465b-9626-e2f31164a824","system_id":"levelo_inurba_marseille","lat":43.23198,"lon":5.35556,"is_reserved":false,"is_disabled":false,"rental_uris":{"android":"levelo://app?vid=c98c10ad-2c59-465b-9626-e2f31164a824","ios":"levelo://app?vid=c98c10ad-2c59-465b-9626-e2f31164a824"},"vehicle_type_id":"4","last_reported":1738091193,"current_range_meters":28400,"station_id":"ce4bhu92rcd13ifvqi70","pricing_plan_id":"cebpf4jnsgd1na2vs0mg"},{"bike_id":"4193079b-f845-400a-a921-2919ce4b57ca","system_id":"levelo_inurba_marseille","lat":43.29004,"lon":5.3561,"is_reserved":false,"is_disabled":false,"rental_uris":{"android":"levelo://app?vid=4193079b-f845-400a-a921-2919ce4b57ca","ios":"levelo://app?vid=4193079b-f845-400a-a921-2919ce4b57ca"},"vehicle_type_id":"4","last_reported":1738091193,"current_range_meters":12000,"station_id":"ce4bhb92rcd13ifvqen0","pricing_plan_id":"cebpf4jnsgd1na2vs0mg"},{"bike_id":"23f8ca48-f2fa-4410-880d-26db1f284e23","system_id":"levelo_inurba_marseille","lat":43.281545,"lon":5.426402,"is_reserved":false,"is_disabled":false,"rental_uris":{"android":"levelo://app?vid=23f8ca48-f2fa-4410-880d-26db1f284e23","ios":"levelo://app?vid=23f8ca48-f2fa-4410-880d-26db1f284e23"},"vehicle_type_id":"4","last_reported":1738091193,"current_range_meters":16800,"station_id":"ce4bhnh2rcd13ifvqgug","pricing_plan_id":"cebpf4jnsgd1na2vs0mg"},{"bike_id":"6e0d659d-5a0e-4e21-92fa-770d4be6c514","system_id":"levelo_inurba_marseille","lat":43.31674,"lon":5.37787,"is_reserved":false,"is_disabled":false,"rental_uris":{"android":"levelo://app?vid=6e0d659d-5a0e-4e21-92fa-770d4be6c514","ios":"levelo://app?vid=6e0d659d-5a0e-4e21-92fa-770d4be6c514"},"vehicle_type_id":"4","last_reported":1738091193,"current_range_meters":11200,"station_id":"","pricing_plan_id":"cebpf4jnsgd1na2vs0mg"},{"bike_id":"8e650e52-700a-42f9-a1a6-468cb3f9711b","system_id":"levelo_inurba_marseille","lat":43.28531,"lon":5.38402,"is_reserved":false,"is_disabled":false,"rental_uris":{"android":"levelo://app?vid=8e650e52-700a-42f9-a1a6-468cb3f9711b","ios":"levelo://app?vid=8e650e52-700a-42f9-a1a6-468cb3f9711b"},"vehicle_type_id":"4","last_reported":1738091193,"current_range_meters":3200,"station_id":"","pricing_plan_id":"cebpf4jnsgd1na2vs0mg"},{"bike_id":"f7f8117f-03ef-415e-85c6-2eeaf165e4f2","system_id":"levelo_inurba_marseille","lat":43.26222,"lon":5.40439,"is_reserved":false,"is_disabled":true,"rental_uris":{"android":"levelo://app?vid=f7f8117f-03ef-415e-85c6-2eeaf165e4f2","ios":"levelo://app?vid=f7f8117f-03ef-415e-85c6-2eeaf165e4f2"},"vehicle_type_id":"4","last_reported":1738091193,"current_range_meters":32000,"station_id":"ce4bhmh2rcd13ifvqgmg","pricing_plan_id":"cebpf4jnsgd1na2vs0mg"},{"bike_id":"45226d1a-6602-4547-9f5f-cb36e591a81b","system_id":"levelo_inurba_marseille","lat":43.26064,"lon":5.3939,"is_reserved":false,"is_disabled":false,"rental_uris":{"android":"levelo://app?vid=45226d1a-6602-4547-9f5f-cb36e591a81b","ios":"levelo://app?vid=45226d1a-6602-4547-9f5f-cb36e591a81b"},"vehicle_type_id":"4","last_reported":1738091193,"current_range_meters":38800,"station_id":"ce4bhh92rcd13ifvqfj0","pricing_plan_id":"cebpf4jnsgd1na2vs0mg"},{"bike_id":"f7eeff0b-3639-4079-b20d-6264b393d68b","system_id":"levelo_inurba_marseille","lat":43.27811,"lon":5.40718,"is_reserved":false,"is_disabled":false,"rental_uris":{"android":"levelo://app?vid=f7eeff0b-3639-4079-b20d-6264b393d68b","ios":"levelo://app?vid=f7eeff0b-3639-4079-b20d-6264b393d68b"},"vehicle_type_id":"4","last_reported":1738091193,"current_range_meters":29600,"station_id":"ce4bhnh2rcd13ifvqgtg","pricing_plan_id":"cebpf4jnsgd1na2vs0mg"},{"bike_id":"60b94ec1-a2e5-42fc-ad7c-d66b2ada9c44","system_id":"levelo_inurba_marseille","lat":43.23964,"lon":5.36625,"is_reserved":false,"is_disabled":false,"rental_uris":{"android":"levelo://app?vid=60b94ec1-a2e5-42fc-ad7c-d66b2ada9c44","ios":"levelo://app?vid=60b94ec1-a2e5-42fc-ad7c-d66b2ada9c44"},"vehicle_type_id":"4","last_reported":1738091193,"current_range_meters":7200,"station_id":"ce4bhi12rcd13ifvqfp0","pricing_plan_id":"cebpf4jnsgd1na2vs0mg"},{"bike_id":"d77faba5-2b0c-430f-ad22-bcf40b90e74c","system_id":"levelo_inurba_marseille","lat":43.27805,"lon":5.40719,"is_reserved":false,"is_disabled":true,"rental_uris":{"android":"levelo://app?vid=d77faba5-2b0c-430f-ad22-bcf40b90e74c","ios":"levelo://app?vid=d77faba5-2b0c-430f-ad22-bcf40b90e74c"},"vehicle_type_id":"4","last_reported":1738091193,"current_range_meters":38000,"station_id":"ce4bhnh2rcd13ifvqgtg","pricing_plan_id":"cebpf4jnsgd1na2vs0mg"},{"bike_id":"8ce145bc-5bc0-43a9-8a5a-165bf5f12e0d","system_id":"levelo_inurba_marseille","lat":43.28701,"lon":5.39978,"is_reserved":false,"is_disabled":false,"rental_uris":{"android":"levelo://app?vid=8ce145bc-5bc0-43a9-8a5a-165bf5f12e0d","ios":"levelo://app?vid=8ce145bc-5bc0-43a9-8a5a-165bf5f12e0d"},"vehicle_type_id":"4","last_reported":1738091193,"current_range_meters":27600,"station_id":"ce4bho92rcd13ifvqh3g","pricing_plan_id":"cebpf4jnsgd1na2vs0mg"},{"bike_id":"3bdafa1a-4e2a-4290-98fb-7e5ff4a35074","system_id":"levelo_inurba_marseille","lat":43.28669,"lon":5.38658,"is_reserved":false,"is_disabled":false,"rental_uris":{"android":"levelo://app?vid=3bdafa1a-4e2a-4290-98fb-7e5ff4a35074","ios":"levelo://app?vid=3bdafa1a-4e2a-4290-98fb-7e5ff4a35074"},"vehicle_type_id":"4","last_reported":1738091193,"current_range_meters":38800,"station_id":"ce4bh492rcd13ifvqdug","pricing_plan_id":"cebpf4jnsgd1na2vs0mg"},{"bike_id":"52f6cc33-6750-4741-a111-67c78d9f14ce","system_id":"levelo_inurba_marseille","lat":43.30885,"lon":5.39658,"is_reserved":false,"is_disabled":false,"rental_uris":{"android":"levelo://app?vid=52f6cc33-6750-4741-a111-67c78d9f14ce","ios":"levelo://app?vid=52f6cc33-6750-4741-a111-67c78d9f14ce"},"vehicle_type_id":"4","last_reported":1738091193,"current_range_meters":27600,"station_id":"ce4bh012rcd13ifvqcv0","pricing_plan_id":"cebpf4jnsgd1na2vs0mg"},{"bike_id":"9c0733f2-2dd5-44e9-a8fb-d7838376bbca","system_id":"levelo_inurba_marseille","lat":43.30526,"lon":5.36698,"is_reserved":false,"is_disabled":false,"rental_uris":{"android":"levelo://app?vid=9c0733f2-2dd5-44e9-a8fb-d7838376bbca","ios":"levelo://app?vid=9c0733f2-2dd5-44e9-a8fb-d7838376bbca"},"vehicle_type_id":"4","last_reported":1738091193,"current_range_meters":6800,"station_id":"ce4bgrp2rcd13ifvqc9g","pricing_plan_id":"cebpf4jnsgd1na2vs0mg"},{"bike_id":"8df2db50-4daa-47a5-9ab9-8a9fa8fdc263","system_id":"levelo_inurba_marseille","lat":43.26484,"lon":5.39563,"is_reserved":false,"is_disabled":false,"rental_uris":{"android":"levelo://app?vid=8df2db50-4daa-47a5-9ab9-8a9fa8fdc263","ios":"levelo://app?vid=8df2db50-4daa-47a5-9ab9-8a9fa8fdc263"},"vehicle_type_id":"4","last_reported":1738091193,"current_range_meters":31200,"station_id":"ce4bhi12rcd13ifvqfq0","pricing_plan_id":"cebpf4jnsgd1na2vs0mg"},{"bike_id":"58e72295-f362-4387-8a27-14a7c991b4f9","system_id":"levelo_inurba_marseille","lat":43.27351,"lon":5.36243,"is_reserved":false,"is_disabled":false,"rental_uris":{"android":"levelo://app?vid=58e72295-f362-4387-8a27-14a7c991b4f9","ios":"levelo://app?vid=58e72295-f362-4387-8a27-14a7c991b4f9"},"vehicle_type_id":"4","last_reported":1738091193,"current_range_meters":38800,"station_id":"ce4bhbh2rcd13ifvqeo0","pricing_plan_id":"cebpf4jnsgd1na2vs0mg"},{"bike_id":"bfe7bbc1-ecb4-402b-afaf-027113b773cc","system_id":"levelo_inurba_marseille","lat":43.31069,"lon":5.38346,"is_reserved":false,"is_disabled":false,"rental_uris":{"android":"levelo://app?vid=bfe7bbc1-ecb4-402b-afaf-027113b773cc","ios":"levelo://app?vid=bfe7bbc1-ecb4-402b-afaf-027113b773cc"},"vehicle_type_id":"4","last_reported":1738091193,"current_range_meters":38800,"station_id":"ce4bgv92rcd13ifvqcr0","pricing_plan_id":"cebpf4jnsgd1na2vs0mg"},{"bike_id":"96c6d005-88bb-4fd6-98f4-0a014c553eb8","system_id":"levelo_inurba_marseille","lat":43.33012,"lon":5.39023,"is_reserved":false,"is_disabled":false,"rental_uris":{"android":"levelo://app?vid=96c6d005-88bb-4fd6-98f4-0a014c553eb8","ios":"levelo://app?vid=96c6d005-88bb-4fd6-98f4-0a014c553eb8"},"vehicle_type_id":"4","last_reported":1738091193,"current_range_meters":38800,"station_id":"ce4bhr92rcd13ifvqhrg","pricing_plan_id":"cebpf4jnsgd1na2vs0mg"},{"bike_id":"5c388708-e3f2-4bbd-88d9-c199a31e81f9","system_id":"levelo_inurba_marseille","lat":43.28724,"lon":5.39995,"is_reserved":false,"is_disabled":true,"rental_uris":{"android":"levelo://app?vid=5c388708-e3f2-4bbd-88d9-c199a31e81f9","ios":"levelo://app?vid=5c388708-e3f2-4bbd-88d9-c199a31e81f9"},"vehicle_type_id":"4","last_reported":1738091193,"current_range_meters":35200,"station_id":"ce4bho92rcd13ifvqh3g","pricing_plan_id":"cebpf4jnsgd1na2vs0mg"},{"bike_id":"99f052ce-e5d4-4959-9f96-077a48f3f1c5","system_id":"levelo_inurba_marseille","lat":43.27155,"lon":5.41016,"is_reserved":false,"is_disabled":false,"rental_uris":{"android":"levelo://app?vid=99f052ce-e5d4-4959-9f96-077a48f3f1c5","ios":"levelo://app?vid=99f052ce-e5d4-4959-9f96-077a48f3f1c5"},"vehicle_type_id":"4","last_reported":1738091193,"current_range_meters":36800,"station_id":"ce4bhl12rcd13ifvqgf0","pricing_plan_id":"cebpf4jnsgd1na2vs0mg"},{"bike_id":"deadb618-50ee-48a7-ae15-6799933aae43","system_id":"levelo_inurba_marseille","lat":43.29553,"lon":5.42277,"is_reserved":false,"is_disabled":false,"rental_uris":{"android":"levelo://app?vid=deadb618-50ee-48a7-ae15-6799933aae43","ios":"levelo://app?vid=deadb618-50ee-48a7-ae15-6799933aae43"},"vehicle_type_id":"4","last_reported":1738091193,"current_range_meters":11600,"station_id":"ce4bhph2rcd13ifvqhdg","pricing_plan_id":"cebpf4jnsgd1na2vs0mg"},{"bike_id":"8f9e70e1-d8e2-403a-9e82-9ddea6dc4933","system_id":"levelo_inurba_marseille","lat":43.29261,"lon":5.38431,"is_reserved":false,"is_disabled":false,"rental_uris":{"android":"levelo://app?vid=8f9e70e1-d8e2-403a-9e82-9ddea6dc4933","ios":"levelo://app?vid=8f9e70e1-d8e2-403a-9e82-9ddea6dc4933"},"vehicle_type_id":"4","last_reported":1738091193,"current_range_meters":2800,"station_id":"ce4bh692rcd13ifvqea0","pricing_plan_id":"cebpf4jnsgd1na2vs0mg"},{"bike_id":"3655115f-3f59-4ab8-be3b-50b14ffc7e99","system_id":"levelo_inurba_marseille","lat":43.27944,"lon":5.41033,"is_reserved":false,"is_disabled":false,"rental_uris":{"android":"levelo://app?vid=3655115f-3f59-4ab8-be3b-50b14ffc7e99","ios":"levelo://app?vid=3655115f-3f59-4ab8-be3b-50b14ffc7e99"},"vehicle_type_id":"4","last_reported":1738091193,"current_range_meters":38800,"station_id":"ce4bhnp2rcd13ifvqh0g","pricing_plan_id":"cebpf4jnsgd1na2vs0mg"},{"bike_id":"3c5bccce-ee28-4556-8b93-6b4a5a0c736d","system_id":"levelo_inurba_marseille","lat":43.30317,"lon":5.36905,"is_reserved":false,"is_disabled":false,"rental_uris":{"android":"levelo://app?vid=3c5bccce-ee28-4556-8b93-6b4a5a0c736d","ios":"levelo://app?vid=3c5bccce-ee28-4556-8b93-6b4a5a0c736d"},"vehicle_type_id":"4","last_reported":1738091193,"current_range_meters":28400,"station_id":"ce4bgqh2rcd13ifvqc5g","pricing_plan_id":"cebpf4jnsgd1na2vs0mg"},{"bike_id":"148daef1-2db8-4b70-9a34-30c98427eb18","system_id":"levelo_inurba_marseille","lat":43.25807,"lon":5.39431,"is_reserved":false,"is_disabled":false,"rental_uris":{"android":"levelo://app?vid=148daef1-2db8-4b70-9a34-30c98427eb18","ios":"levelo://app?vid=148daef1-2db8-4b70-9a34-30c98427eb18"},"vehicle_type_id":"4","last_reported":1738091193,"current_range_meters":24800,"station_id":"ce4bhip2rcd13ifvqft0","pricing_plan_id":"cebpf4jnsgd1na2vs0mg"},{"bike_id":"9bb2c28f-c2d2-4a77-a413-c89696bb1a87","system_id":"levelo_inurba_marseille","lat":43.30925,"lon":5.40145,"is_reserved":false,"is_disabled":false,"rental_uris":{"android":"levelo://app?vid=9bb2c28f-c2d2-4a77-a413-c89696bb1a87","ios":"levelo://app?vid=9bb2c28f-c2d2-4a77-a413-c89696bb1a87"},"vehicle_type_id":"4","last_reported":1738091193,"current_range_meters":10000,"station_id":"ce4bgvp2rcd13ifvqct0","pricing_plan_id":"cebpf4jnsgd1na2vs0mg"},{"bike_id":"66413cac-ca9b-45bd-9ef3-31c3b63b6b89","system_id":"levelo_inurba_marseille","lat":43.30418,"lon":5.38878,"is_reserved":false,"is_disabled":false,"rental_uris":{"android":"levelo://app?vid=66413cac-ca9b-45bd-9ef3-31c3b63b6b89","ios":"levelo://app?vid=66413cac-ca9b-45bd-9ef3-31c3b63b6b89"},"vehicle_type_id":"4","last_reported":1738091193,"current_range_meters":34000,"station_id":"ce4bgk12rcd13ifvqbi0","pricing_plan_id":"cebpf4jnsgd1na2vs0mg"},{"bike_id":"979c333f-0210-45ee-aebb-7ba0a94abf15","system_id":"levelo_inurba_marseille","lat":43.29979,"lon":5.38483,"is_reserved":false,"is_disabled":false,"rental_uris":{"android":"levelo://app?vid=979c333f-0210-45ee-aebb-7ba0a94abf15","ios":"levelo://app?vid=979c333f-0210-45ee-aebb-7ba0a94abf15"},"vehicle_type_id":"4","last_reported":1738091193,"current_range_meters":14400,"station_id":"ce4bgj92rcd13ifvqbd0","pricing_plan_id":"cebpf4jnsgd1na2vs0mg"},{"bike_id":"069b705e-258c-450c-88dc-0d2ac3a8269c","system_id":"levelo_inurba_marseille","lat":43.31373,"lon":5.38491,"is_reserved":false,"is_disabled":false,"rental_uris":{"android":"levelo://app?vid=069b705e-258c-450c-88dc-0d2ac3a8269c","ios":"levelo://app?vid=069b705e-258c-450c-88dc-0d2ac3a8269c"},"vehicle_type_id":"4","last_reported":1738091193,"current_range_meters":38800,"station_id":"ce4bgt92rcd13ifvqcf0","pricing_plan_id":"cebpf4jnsgd1na2vs0mg"},{"bike_id":"5d4915e0-4a9f-4c36-821a-8bde58abc3cd","system_id":"levelo_inurba_marseille","lat":43.25094,"lon":5.40349,"is_reserved":false,"is_disabled":true,"rental_uris":{"android":"levelo://app?vid=5d4915e0-4a9f-4c36-821a-8bde58abc3cd","ios":"levelo://app?vid=5d4915e0-4a9f-4c36-821a-8bde58abc3cd"},"vehicle_type_id":"4","last_reported":1738091193,"current_range_meters":13600,"station_id":"ce4bhlh2rcd13ifvqgig","pricing_plan_id":"cebpf4jnsgd1na2vs0mg"},{"bike_id":"a8669147-ddd8-412a-9283-bd81178782f6","system_id":"levelo_inurba_marseille","lat":43.25087,"lon":5.39524,"is_reserved":false,"is_disabled":false,"rental_uris":{"android":"levelo://app?vid=a8669147-ddd8-412a-9283-bd81178782f6","ios":"levelo://app?vid=a8669147-ddd8-412a-9283-bd81178782f6"},"vehicle_type_id":"4","last_reported":1738091193,"current_range_meters":24400,"station_id":"ce4bhm12rcd13ifvqgkg","pricing_plan_id":"cebpf4jnsgd1na2vs0mg"},{"bike_id":"75f78423-7bb1-46bc-9291-8f61438106b2","system_id":"levelo_inurba_marseille","lat":43.3301,"lon":5.39029,"is_reserved":false,"is_disabled":false,"rental_uris":{"android":"levelo://app?vid=75f78423-7bb1-46bc-9291-8f61438106b2","ios":"levelo://app?vid=75f78423-7bb1-46bc-9291-8f61438106b2"},"vehicle_type_id":"4","last_reported":1738091193,"current_range_meters":28400,"station_id":"ce4bhr92rcd13ifvqhrg","pricing_plan_id":"cebpf4jnsgd1na2vs0mg"},{"bike_id":"7250d302-ebd9-4a4b-acfe-a6570b70f9c8","system_id":"levelo_inurba_marseille","lat":43.27896,"lon":5.38012,"is_reserved":false,"is_disabled":true,"rental_uris":{"android":"levelo://app?vid=7250d302-ebd9-4a4b-acfe-a6570b70f9c8","ios":"levelo://app?vid=7250d302-ebd9-4a4b-acfe-a6570b70f9c8"},"vehicle_type_id":"4","last_reported":1738091193,"current_range_meters":800,"station_id":"ce4bhf92rcd13ifvqf50","pricing_plan_id":"cebpf4jnsgd1na2vs0mg"},{"bike_id":"c7ffb131-eeac-4323-8ce7-bae89259e9d6","system_id":"levelo_inurba_marseille","lat":43.29282,"lon":5.40117,"is_reserved":false,"is_disabled":false,"rental_uris":{"android":"levelo://app?vid=c7ffb131-eeac-4323-8ce7-bae89259e9d6","ios":"levelo://app?vid=c7ffb131-eeac-4323-8ce7-bae89259e9d6"},"vehicle_type_id":"4","last_reported":1738091193,"current_range_meters":30000,"station_id":"ce4bh312rcd13ifvqdk0","pricing_plan_id":"cebpf4jnsgd1na2vs0mg"},{"bike_id":"8906b01c-c546-42d8-8a71-d3e4c23c32f6","system_id":"levelo_inurba_marseille","lat":43.24393,"lon":5.37045,"is_reserved":false,"is_disabled":false,"rental_uris":{"android":"levelo://app?vid=8906b01c-c546-42d8-8a71-d3e4c23c32f6","ios":"levelo://app?vid=8906b01c-c546-42d8-8a71-d3e4c23c32f6"},"vehicle_type_id":"4","last_reported":1738091193,"current_range_meters":38800,"station_id":"ce4bhhh2rcd13ifvqfk0","pricing_plan_id":"cebpf4jnsgd1na2vs0mg"},{"bike_id":"40bd70d6-36e3-448f-aaeb-9aee8a9d0072","system_id":"levelo_inurba_marseille","lat":43.27947,"lon":5.41046,"is_reserved":false,"is_disabled":false,"rental_uris":{"android":"levelo://app?vid=40bd70d6-36e3-448f-aaeb-9aee8a9d0072","ios":"levelo://app?vid=40bd70d6-36e3-448f-aaeb-9aee8a9d0072"},"vehicle_type_id":"4","last_reported":1738091193,"current_range_meters":24800,"station_id":"ce4bhnp2rcd13ifvqh0g","pricing_plan_id":"cebpf4jnsgd1na2vs0mg"},{"bike_id":"da7ba8e5-f778-4ede-91e7-c38d6ca8bff8","system_id":"levelo_inurba_marseille","lat":43.28733,"lon":5.36079,"is_reserved":false,"is_disabled":false,"rental_uris":{"android":"levelo://app?vid=da7ba8e5-f778-4ede-91e7-c38d6ca8bff8","ios":"levelo://app?vid=da7ba8e5-f778-4ede-91e7-c38d6ca8bff8"},"vehicle_type_id":"4","last_reported":1738091193,"current_range_meters":16800,"station_id":"cki0cbj6b192h4jlfktg","pricing_plan_id":"cebpf4jnsgd1na2vs0mg"},{"bike_id":"a5b06f9e-ae27-4b6f-8ff4-3bb0a88d3539","system_id":"levelo_inurba_marseille","lat":43.29567,"lon":5.39972,"is_reserved":false,"is_disabled":false,"rental_uris":{"android":"levelo://app?vid=a5b06f9e-ae27-4b6f-8ff4-3bb0a88d3539","ios":"levelo://app?vid=a5b06f9e-ae27-4b6f-8ff4-3bb0a88d3539"},"vehicle_type_id":"4","last_reported":1738091193,"current_range_meters":38000,"station_id":"ce4bh312rcd13ifvqdj0","pricing_plan_id":"cebpf4jnsgd1na2vs0mg"},{"bike_id":"1d9c2f3c-e7a5-4c5a-a836-c08a3178a384","system_id":"levelo_inurba_marseille","lat":43.27375,"lon":5.36252,"is_reserved":false,"is_disabled":true,"rental_uris":{"android":"levelo://app?vid=1d9c2f3c-e7a5-4c5a-a836-c08a3178a384","ios":"levelo://app?vid=1d9c2f3c-e7a5-4c5a-a836-c08a3178a384"},"vehicle_type_id":"4","last_reported":1738091193,"current_range_meters":0,"station_id":"ce4bhbh2rcd13ifvqeo0","pricing_plan_id":"cebpf4jnsgd1na2vs0mg"},{"bike_id":"81f86b9c-2b19-4345-8db8-7214f740870b","system_id":"levelo_inurba_marseille","lat":43.29273,"lon":5.38438,"is_reserved":false,"is_disabled":false,"rental_uris":{"android":"levelo://app?vid=81f86b9c-2b19-4345-8db8-7214f740870b","ios":"levelo://app?vid=81f86b9c-2b19-4345-8db8-7214f740870b"},"vehicle_type_id":"4","last_reported":1738091193,"current_range_meters":18800,"station_id":"ce4bh692rcd13ifvqea0","pricing_plan_id":"cebpf4jnsgd1na2vs0mg"},{"bike_id":"df226aeb-f508-4c7a-9e65-ac5758ec5c58","system_id":"levelo_inurba_marseille","lat":43.28615,"lon":5.35103,"is_reserved":false,"is_disabled":false,"rental_uris":{"android":"levelo://app?vid=df226aeb-f508-4c7a-9e65-ac5758ec5c58","ios":"levelo://app?vid=df226aeb-f508-4c7a-9e65-ac5758ec5c58"},"vehicle_type_id":"4","last_reported":1738091193,"current_range_meters":16000,"station_id":"ce4bhch2rcd13ifvqeug","pricing_plan_id":"cebpf4jnsgd1na2vs0mg"},{"bike_id":"89092c7f-916b-4bbe-8be9-3d4ae9fa7b64","system_id":"levelo_inurba_marseille","lat":43.28712,"lon":5.39973,"is_reserved":false,"is_disabled":false,"rental_uris":{"android":"levelo://app?vid=89092c7f-916b-4bbe-8be9-3d4ae9fa7b64","ios":"levelo://app?vid=89092c7f-916b-4bbe-8be9-3d4ae9fa7b64"},"vehicle_type_id":"4","last_reported":1738091193,"current_range_meters":38400,"station_id":"ce4bho92rcd13ifvqh3g","pricing_plan_id":"cebpf4jnsgd1na2vs0mg"},{"bike_id":"1d3d6cfb-1973-4ef0-b19e-3b4fa3b6b11c","system_id":"levelo_inurba_marseille","lat":43.23959,"lon":5.36629,"is_reserved":false,"is_disabled":false,"rental_uris":{"android":"levelo://app?vid=1d3d6cfb-1973-4ef0-b19e-3b4fa3b6b11c","ios":"levelo://app?vid=1d3d6cfb-1973-4ef0-b19e-3b4fa3b6b11c"},"vehicle_type_id":"4","last_reported":1738091193,"current_range_meters":9600,"station_id":"ce4bhi12rcd13ifvqfp0","pricing_plan_id":"cebpf4jnsgd1na2vs0mg"},{"bike_id":"aa292867-ec34-4f9e-af74-19c1fdf17e9c","system_id":"levelo_inurba_marseille","lat":43.28708,"lon":5.37395,"is_reserved":false,"is_disabled":false,"rental_uris":{"android":"levelo://app?vid=aa292867-ec34-4f9e-af74-19c1fdf17e9c","ios":"levelo://app?vid=aa292867-ec34-4f9e-af74-19c1fdf17e9c"},"vehicle_type_id":"4","last_reported":1738091193,"current_range_meters":0,"station_id":"ce4bh3p2rcd13ifvqdq0","pricing_plan_id":"cebpf4jnsgd1na2vs0mg"},{"bike_id":"d443175e-c838-4f0e-90a6-eae26a0b1d17","system_id":"levelo_inurba_marseille","lat":43.26946,"lon":5.4025,"is_reserved":false,"is_disabled":false,"rental_uris":{"android":"levelo://app?vid=d443175e-c838-4f0e-90a6-eae26a0b1d17","ios":"levelo://app?vid=d443175e-c838-4f0e-90a6-eae26a0b1d17"},"vehicle_type_id":"4","last_reported":1738091193,"current_range_meters":30400,"station_id":"cjm6bp8fraef2m0cb0m0","pricing_plan_id":"cebpf4jnsgd1na2vs0mg"},{"bike_id":"13a14315-a206-47d9-be28-e2b3d17100b2","system_id":"levelo_inurba_marseille","lat":43.28154,"lon":5.42641,"is_reserved":false,"is_disabled":false,"rental_uris":{"android":"levelo://app?vid=13a14315-a206-47d9-be28-e2b3d17100b2","ios":"levelo://app?vid=13a14315-a206-47d9-be28-e2b3d17100b2"},"vehicle_type_id":"4","last_reported":1738091193,"current_range_meters":8000,"station_id":"ce4bhnh2rcd13ifvqgug","pricing_plan_id":"cebpf4jnsgd1na2vs0mg"},{"bike_id":"064186d2-983b-4fda-a409-176d98eb98ca","system_id":"levelo_inurba_marseille","lat":43.29257,"lon":5.409,"is_reserved":false,"is_disabled":false,"rental_uris":{"android":"levelo://app?vid=064186d2-983b-4fda-a409-176d98eb98ca","ios":"levelo://app?vid=064186d2-983b-4fda-a409-176d98eb98ca"},"vehicle_type_id":"4","last_reported":1738091193,"current_range_meters":38800,"station_id":"ce4bh192rcd13ifvqdc0","pricing_plan_id":"cebpf4jnsgd1na2vs0mg"},{"bike_id":"c8a3a0ed-dff2-4f3c-87dc-2e6b47b1ad28","system_id":"levelo_inurba_marseille","lat":43.337444,"lon":5.374475,"is_reserved":false,"is_disabled":true,"rental_uris":{"android":"levelo://app?vid=c8a3a0ed-dff2-4f3c-87dc-2e6b47b1ad28","ios":"levelo://app?vid=c8a3a0ed-dff2-4f3c-87dc-2e6b47b1ad28"},"vehicle_type_id":"4","last_reported":1738091193,"current_range_meters":4000,"station_id":"","pricing_plan_id":"cebpf4jnsgd1na2vs0mg"},{"bike_id":"d5f898d2-9087-49d6-a2d2-f86bf1c038b8","system_id":"levelo_inurba_marseille","lat":43.31711,"lon":5.37756,"is_reserved":false,"is_disabled":false,"rental_uris":{"android":"levelo://app?vid=d5f898d2-9087-49d6-a2d2-f86bf1c038b8","ios":"levelo://app?vid=d5f898d2-9087-49d6-a2d2-f86bf1c038b8"},"vehicle_type_id":"4","last_reported":1738091193,"current_range_meters":38800,"station_id":"ce4bgth2rcd13ifvqch0","pricing_plan_id":"cebpf4jnsgd1na2vs0mg"},{"bike_id":"061a807c-1db8-46c7-beec-da6308b151ea","system_id":"levelo_inurba_marseille","lat":43.29605,"lon":5.38109,"is_reserved":false,"is_disabled":true,"rental_uris":{"android":"levelo://app?vid=061a807c-1db8-46c7-beec-da6308b151ea","ios":"levelo://app?vid=061a807c-1db8-46c7-beec-da6308b151ea"},"vehicle_type_id":"4","last_reported":1738091193,"current_range_meters":31200,"station_id":"ce4bgl12rcd13ifvqbo0","pricing_plan_id":"cebpf4jnsgd1na2vs0mg"},{"bike_id":"0bf627da-14ad-4c05-ae06-5fa334fae63c","system_id":"levelo_inurba_marseille","lat":43.28922,"lon":5.38406,"is_reserved":false,"is_disabled":false,"rental_uris":{"android":"levelo://app?vid=0bf627da-14ad-4c05-ae06-5fa334fae63c","ios":"levelo://app?vid=0bf627da-14ad-4c05-ae06-5fa334fae63c"},"vehicle_type_id":"4","last_reported":1738091193,"current_range_meters":24800,"station_id":"ce4bh612rcd13ifvqe6g","pricing_plan_id":"cebpf4jnsgd1na2vs0mg"},{"bike_id":"b4412971-87e8-467e-aa66-700ea5a741e7","system_id":"levelo_inurba_marseille","lat":43.28449,"lon":5.35891,"is_reserved":false,"is_disabled":false,"rental_uris":{"android":"levelo://app?vid=b4412971-87e8-467e-aa66-700ea5a741e7","ios":"levelo://app?vid=b4412971-87e8-467e-aa66-700ea5a741e7"},"vehicle_type_id":"4","last_reported":1738091193,"current_range_meters":33200,"station_id":"ce4bhah2rcd13ifvqei0","pricing_plan_id":"cebpf4jnsgd1na2vs0mg"},{"bike_id":"8553c0a6-deb9-456c-9106-193b2eb9bd09","system_id":"levelo_inurba_marseille","lat":43.33019,"lon":5.39038,"is_reserved":false,"is_disabled":false,"rental_uris":{"android":"levelo://app?vid=8553c0a6-deb9-456c-9106-193b2eb9bd09","ios":"levelo://app?vid=8553c0a6-deb9-456c-9106-193b2eb9bd09"},"vehicle_type_id":"4","last_reported":1738091193,"current_range_meters":22400,"station_id":"ce4bhr92rcd13ifvqhrg","pricing_plan_id":"cebpf4jnsgd1na2vs0mg"},{"bike_id":"317641f9-e35e-4cc5-8468-c17053a33f25","system_id":"levelo_inurba_marseille","lat":43.29886,"lon":5.39737,"is_reserved":false,"is_disabled":false,"rental_uris":{"android":"levelo://app?vid=317641f9-e35e-4cc5-8468-c17053a33f25","ios":"levelo://app?vid=317641f9-e35e-4cc5-8468-c17053a33f25"},"vehicle_type_id":"4","last_reported":1738091193,"current_range_meters":27600,"station_id":"ce4bh0h2rcd13ifvqd50","pricing_plan_id":"cebpf4jnsgd1na2vs0mg"},{"bike_id":"e055110e-8e50-4402-9b32-8745c1542d21","system_id":"levelo_inurba_marseille","lat":43.23964,"lon":5.36625,"is_reserved":false,"is_disabled":false,"rental_uris":{"android":"levelo://app?vid=e055110e-8e50-4402-9b32-8745c1542d21","ios":"levelo://app?vid=e055110e-8e50-4402-9b32-8745c1542d21"},"vehicle_type_id":"4","last_reported":1738091193,"current_range_meters":6400,"station_id":"ce4bhi12rcd13ifvqfp0","pricing_plan_id":"cebpf4jnsgd1na2vs0mg"},{"bike_id":"fe85483f-b447-45f9-a6fe-387c2f728415","system_id":"levelo_inurba_marseille","lat":43.29216,"lon":5.35796,"is_reserved":false,"is_disabled":false,"rental_uris":{"android":"levelo://app?vid=fe85483f-b447-45f9-a6fe-387c2f728415","ios":"levelo://app?vid=fe85483f-b447-45f9-a6fe-387c2f728415"},"vehicle_type_id":"4","last_reported":1738091193,"current_range_meters":39200,"station_id":"ce4bhb12rcd13ifvqel0","pricing_plan_id":"cebpf4jnsgd1na2vs0mg"},{"bike_id":"a6c9e3d3-8357-4341-af22-8d2b0bfe2003","system_id":"levelo_inurba_marseille","lat":43.2705,"lon":5.40258,"is_reserved":false,"is_disabled":false,"rental_uris":{"android":"levelo://app?vid=a6c9e3d3-8357-4341-af22-8d2b0bfe2003","ios":"levelo://app?vid=a6c9e3d3-8357-4341-af22-8d2b0bfe2003"},"vehicle_type_id":"4","last_reported":1738091193,"current_range_meters":18800,"station_id":"ce4bhk92rcd13ifvqgc0","pricing_plan_id":"cebpf4jnsgd1na2vs0mg"},{"bike_id":"24776794-e86c-4071-a5bc-621af311ac4d","system_id":"levelo_inurba_marseille","lat":43.27946,"lon":5.41044,"is_reserved":false,"is_disabled":false,"rental_uris":{"android":"levelo://app?vid=24776794-e86c-4071-a5bc-621af311ac4d","ios":"levelo://app?vid=24776794-e86c-4071-a5bc-621af311ac4d"},"vehicle_type_id":"4","last_reported":1738091193,"current_range_meters":38800,"station_id":"ce4bhnp2rcd13ifvqh0g","pricing_plan_id":"cebpf4jnsgd1na2vs0mg"},{"bike_id":"fbf91c70-fae2-42ce-84b1-1dc0e26edd50","system_id":"levelo_inurba_marseille","lat":43.29031,"lon":5.3864,"is_reserved":false,"is_disabled":false,"rental_uris":{"android":"levelo://app?vid=fbf91c70-fae2-42ce-84b1-1dc0e26edd50","ios":"levelo://app?vid=fbf91c70-fae2-42ce-84b1-1dc0e26edd50"},"vehicle_type_id":"4","last_reported":1738091193,"current_range_meters":23200,"station_id":"ce4bh4p2rcd13ifvqe0g","pricing_plan_id":"cebpf4jnsgd1na2vs0mg"},{"bike_id":"8ff0b395-a32f-4198-8e48-86b06eda61d5","system_id":"levelo_inurba_marseille","lat":43.29418,"lon":5.38625,"is_reserved":false,"is_disabled":false,"rental_uris":{"android":"levelo://app?vid=8ff0b395-a32f-4198-8e48-86b06eda61d5","ios":"levelo://app?vid=8ff0b395-a32f-4198-8e48-86b06eda61d5"},"vehicle_type_id":"4","last_reported":1738091193,"current_range_meters":38800,"station_id":"ce4bh2h2rcd13ifvqdh0","pricing_plan_id":"cebpf4jnsgd1na2vs0mg"},{"bike_id":"8786f756-2cce-406a-bce2-a861e6de3f3e","system_id":"levelo_inurba_marseille","lat":43.29788,"lon":5.39326,"is_reserved":false,"is_disabled":false,"rental_uris":{"android":"levelo://app?vid=8786f756-2cce-406a-bce2-a861e6de3f3e","ios":"levelo://app?vid=8786f756-2cce-406a-bce2-a861e6de3f3e"},"vehicle_type_id":"4","last_reported":1738091193,"current_range_meters":10800,"station_id":"chh1huq6cuj3fo74tm60","pricing_plan_id":"cebpf4jnsgd1na2vs0mg"},{"bike_id":"165cefd3-aba0-463c-ba0d-d46d8e704fee","system_id":"levelo_inurba_marseille","lat":43.27998,"lon":5.40003,"is_reserved":false,"is_disabled":false,"rental_uris":{"android":"levelo://app?vid=165cefd3-aba0-463c-ba0d-d46d8e704fee","ios":"levelo://app?vid=165cefd3-aba0-463c-ba0d-d46d8e704fee"},"vehicle_type_id":"4","last_reported":1738091193,"current_range_meters":12000,"station_id":"ce4bho92rcd13ifvqh4g","pricing_plan_id":"cebpf4jnsgd1na2vs0mg"},{"bike_id":"82693803-c559-4358-9c2a-20a3116e5687","system_id":"levelo_inurba_marseille","lat":43.26806,"lon":5.40269,"is_reserved":false,"is_disabled":false,"rental_uris":{"android":"levelo://app?vid=82693803-c559-4358-9c2a-20a3116e5687","ios":"levelo://app?vid=82693803-c559-4358-9c2a-20a3116e5687"},"vehicle_type_id":"4","last_reported":1738091193,"current_range_meters":35200,"station_id":"ce501612rcd8frsf0b60","pricing_plan_id":"cebpf4jnsgd1na2vs0mg"},{"bike_id":"9838cc78-2b53-49d3-ae13-82df62c4fd64","system_id":"levelo_inurba_marseille","lat":43.28412,"lon":5.40934,"is_reserved":false,"is_disabled":true,"rental_uris":{"android":"levelo://app?vid=9838cc78-2b53-49d3-ae13-82df62c4fd64","ios":"levelo://app?vid=9838cc78-2b53-49d3-ae13-82df62c4fd64"},"vehicle_type_id":"4","last_reported":1738091193,"current_range_meters":0,"station_id":"","pricing_plan_id":"cebpf4jnsgd1na2vs0mg"},{"bike_id":"11f70921-b04a-4cdd-83e2-24b869bfe246","system_id":"levelo_inurba_marseille","lat":43.29,"lon":5.37836,"is_reserved":false,"is_disabled":true,"rental_uris":{"android":"levelo://app?vid=11f70921-b04a-4cdd-83e2-24b869bfe246","ios":"levelo://app?vid=11f70921-b04a-4cdd-83e2-24b869bfe246"},"vehicle_type_id":"4","last_reported":1738091193,"current_range_meters":38800,"station_id":"ce4bh9p2rcd13ifvqed0","pricing_plan_id":"cebpf4jnsgd1na2vs0mg"},{"bike_id":"61ac3e69-6b09-41d4-a1b8-84745cc43cb7","system_id":"levelo_inurba_marseille","lat":43.23195,"lon":5.4,"is_reserved":false,"is_disabled":false,"rental_uris":{"android":"levelo://app?vid=61ac3e69-6b09-41d4-a1b8-84745cc43cb7","ios":"levelo://app?vid=61ac3e69-6b09-41d4-a1b8-84745cc43cb7"},"vehicle_type_id":"4","last_reported":1738091193,"current_range_meters":36400,"station_id":"ce4bhn12rcd13ifvqgqg","pricing_plan_id":"cebpf4jnsgd1na2vs0mg"},{"bike_id":"44d70056-f722-4d8f-80f9-afd89c389591","system_id":"levelo_inurba_marseille","lat":43.33011,"lon":5.38999,"is_reserved":false,"is_disabled":false,"rental_uris":{"android":"levelo://app?vid=44d70056-f722-4d8f-80f9-afd89c389591","ios":"levelo://app?vid=44d70056-f722-4d8f-80f9-afd89c389591"},"vehicle_type_id":"4","last_reported":1738091193,"current_range_meters":20400,"station_id":"ce4bhr92rcd13ifvqhrg","pricing_plan_id":"cebpf4jnsgd1na2vs0mg"},{"bike_id":"cb4b9878-96ef-4892-8d93-336dc7a1cc89","system_id":"levelo_inurba_marseille","lat":43.34044,"lon":5.35366,"is_reserved":false,"is_disabled":false,"rental_uris":{"android":"levelo://app?vid=cb4b9878-96ef-4892-8d93-336dc7a1cc89","ios":"levelo://app?vid=cb4b9878-96ef-4892-8d93-336dc7a1cc89"},"vehicle_type_id":"4","last_reported":1738091193,"current_range_meters":35600,"station_id":"","pricing_plan_id":"cebpf4jnsgd1na2vs0mg"},{"bike_id":"58101d95-a4cf-4bac-9526-961f9b76b2f5","system_id":"levelo_inurba_marseille","lat":43.30795,"lon":5.43522,"is_reserved":false,"is_disabled":false,"rental_uris":{"android":"levelo://app?vid=58101d95-a4cf-4bac-9526-961f9b76b2f5","ios":"levelo://app?vid=58101d95-a4cf-4bac-9526-961f9b76b2f5"},"vehicle_type_id":"4","last_reported":1738091193,"current_range_meters":32800,"station_id":"ce4bhph2rcd13ifvqheg","pricing_plan_id":"cebpf4jnsgd1na2vs0mg"},{"bike_id":"248ee11a-a195-45b1-979c-c98069d77678","system_id":"levelo_inurba_marseille","lat":43.27922,"lon":5.39567,"is_reserved":false,"is_disabled":false,"rental_uris":{"android":"levelo://app?vid=248ee11a-a195-45b1-979c-c98069d77678","ios":"levelo://app?vid=248ee11a-a195-45b1-979c-c98069d77678"},"vehicle_type_id":"4","last_reported":1738091193,"current_range_meters":38800,"station_id":"ce4bhf92rcd13ifvqf40","pricing_plan_id":"cebpf4jnsgd1na2vs0mg"},{"bike_id":"768dfcbe-7a42-4b38-ac4c-83caa44b1182","system_id":"levelo_inurba_marseille","lat":43.30133,"lon":5.39847,"is_reserved":false,"is_disabled":false,"rental_uris":{"android":"levelo://app?vid=768dfcbe-7a42-4b38-ac4c-83caa44b1182","ios":"levelo://app?vid=768dfcbe-7a42-4b38-ac4c-83caa44b1182"},"vehicle_type_id":"4","last_reported":1738091193,"current_range_meters":3600,"station_id":"ce4bh0h2rcd13ifvqd40","pricing_plan_id":"cebpf4jnsgd1na2vs0mg"},{"bike_id":"bb57f002-f83b-4e90-9789-92825b17797c","system_id":"levelo_inurba_marseille","lat":43.27812,"lon":5.40715,"is_reserved":false,"is_disabled":false,"rental_uris":{"android":"levelo://app?vid=bb57f002-f83b-4e90-9789-92825b17797c","ios":"levelo://app?vid=bb57f002-f83b-4e90-9789-92825b17797c"},"vehicle_type_id":"4","last_reported":1738091193,"current_range_meters":29600,"station_id":"ce4bhnh2rcd13ifvqgtg","pricing_plan_id":"cebpf4jnsgd1na2vs0mg"},{"bike_id":"8d198b1c-d183-4e75-867d-bee140abe05c","system_id":"levelo_inurba_marseille","lat":43.30807,"lon":5.43526,"is_reserved":false,"is_disabled":false,"rental_uris":{"android":"levelo://app?vid=8d198b1c-d183-4e75-867d-bee140abe05c","ios":"levelo://app?vid=8d198b1c-d183-4e75-867d-bee140abe05c"},"vehicle_type_id":"4","last_reported":1738091193,"current_range_meters":16400,"station_id":"ce4bhph2rcd13ifvqheg","pricing_plan_id":"cebpf4jnsgd1na2vs0mg"},{"bike_id":"1bd43cf7-915c-4655-8ec8-429536dd8909","system_id":"levelo_inurba_marseille","lat":43.31722,"lon":5.4239,"is_reserved":false,"is_disabled":false,"rental_uris":{"android":"levelo://app?vid=1bd43cf7-915c-4655-8ec8-429536dd8909","ios":"levelo://app?vid=1bd43cf7-915c-4655-8ec8-429536dd8909"},"vehicle_type_id":"4","last_reported":1738091193,"current_range_meters":6400,"station_id":"ce4bhp92rcd13ifvqhbg","pricing_plan_id":"cebpf4jnsgd1na2vs0mg"},{"bike_id":"10d867d0-346b-4268-b4c3-60fd5321132c","system_id":"levelo_inurba_marseille","lat":43.29404,"lon":5.38627,"is_reserved":false,"is_disabled":false,"rental_uris":{"android":"levelo://app?vid=10d867d0-346b-4268-b4c3-60fd5321132c","ios":"levelo://app?vid=10d867d0-346b-4268-b4c3-60fd5321132c"},"vehicle_type_id":"4","last_reported":1738091193,"current_range_meters":22000,"station_id":"ce4bh2h2rcd13ifvqdh0","pricing_plan_id":"cebpf4jnsgd1na2vs0mg"},{"bike_id":"269eea7b-f0ec-4ee8-9140-13cdab06674c","system_id":"levelo_inurba_marseille","lat":43.31077,"lon":5.38351,"is_reserved":false,"is_disabled":false,"rental_uris":{"android":"levelo://app?vid=269eea7b-f0ec-4ee8-9140-13cdab06674c","ios":"levelo://app?vid=269eea7b-f0ec-4ee8-9140-13cdab06674c"},"vehicle_type_id":"4","last_reported":1738091193,"current_range_meters":32800,"station_id":"ce4bgv92rcd13ifvqcr0","pricing_plan_id":"cebpf4jnsgd1na2vs0mg"},{"bike_id":"2e0a8b86-b457-48a0-8577-213b01080398","system_id":"levelo_inurba_marseille","lat":43.23188,"lon":5.35538,"is_reserved":false,"is_disabled":false,"rental_uris":{"android":"levelo://app?vid=2e0a8b86-b457-48a0-8577-213b01080398","ios":"levelo://app?vid=2e0a8b86-b457-48a0-8577-213b01080398"},"vehicle_type_id":"4","last_reported":1738091193,"current_range_meters":38800,"station_id":"ce4bhu92rcd13ifvqi70","pricing_plan_id":"cebpf4jnsgd1na2vs0mg"},{"bike_id":"5804285d-81c3-4ebe-a786-d954b5f1b298","system_id":"levelo_inurba_marseille","lat":43.3302,"lon":5.39042,"is_reserved":false,"is_disabled":false,"rental_uris":{"android":"levelo://app?vid=5804285d-81c3-4ebe-a786-d954b5f1b298","ios":"levelo://app?vid=5804285d-81c3-4ebe-a786-d954b5f1b298"},"vehicle_type_id":"4","last_reported":1738091193,"current_range_meters":38800,"station_id":"ce4bhr92rcd13ifvqhrg","pricing_plan_id":"cebpf4jnsgd1na2vs0mg"},{"bike_id":"a277d5ba-79dc-4980-ae8c-8d090716a0b3","system_id":"levelo_inurba_marseille","lat":43.27989,"lon":5.38782,"is_reserved":false,"is_disabled":true,"rental_uris":{"android":"levelo://app?vid=a277d5ba-79dc-4980-ae8c-8d090716a0b3","ios":"levelo://app?vid=a277d5ba-79dc-4980-ae8c-8d090716a0b3"},"vehicle_type_id":"4","last_reported":1738091193,"current_range_meters":0,"station_id":"ce4bhg12rcd13ifvqf80","pricing_plan_id":"cebpf4jnsgd1na2vs0mg"},{"bike_id":"d979d8d2-ec65-47af-9229-e4270aab279a","system_id":"levelo_inurba_marseille","lat":43.23066,"lon":5.35489,"is_reserved":false,"is_disabled":false,"rental_uris":{"android":"levelo://app?vid=d979d8d2-ec65-47af-9229-e4270aab279a","ios":"levelo://app?vid=d979d8d2-ec65-47af-9229-e4270aab279a"},"vehicle_type_id":"4","last_reported":1738091193,"current_range_meters":23200,"station_id":"cpo3342slgdg3j2ifvpg","pricing_plan_id":"cebpf4jnsgd1na2vs0mg"},{"bike_id":"beec82ff-6bac-4064-befa-4bdf4421761b","system_id":"levelo_inurba_marseille","lat":43.31717,"lon":5.42405,"is_reserved":false,"is_disabled":false,"rental_uris":{"android":"levelo://app?vid=beec82ff-6bac-4064-befa-4bdf4421761b","ios":"levelo://app?vid=beec82ff-6bac-4064-befa-4bdf4421761b"},"vehicle_type_id":"4","last_reported":1738091193,"current_range_meters":6800,"station_id":"ce4bhp92rcd13ifvqhbg","pricing_plan_id":"cebpf4jnsgd1na2vs0mg"},{"bike_id":"22d31f87-465c-41a2-9e72-62eb49b5f60f","system_id":"levelo_inurba_marseille","lat":43.30905,"lon":5.36847,"is_reserved":false,"is_disabled":true,"rental_uris":{"android":"levelo://app?vid=22d31f87-465c-41a2-9e72-62eb49b5f60f","ios":"levelo://app?vid=22d31f87-465c-41a2-9e72-62eb49b5f60f"},"vehicle_type_id":"4","last_reported":1738091193,"current_range_meters":23200,"station_id":"ce4bgn92rcd13ifvqbvg","pricing_plan_id":"cebpf4jnsgd1na2vs0mg"},{"bike_id":"b51eee6b-9b36-4f95-b18d-952dcc4c8be9","system_id":"levelo_inurba_marseille","lat":43.26791,"lon":5.394,"is_reserved":false,"is_disabled":false,"rental_uris":{"android":"levelo://app?vid=b51eee6b-9b36-4f95-b18d-952dcc4c8be9","ios":"levelo://app?vid=b51eee6b-9b36-4f95-b18d-952dcc4c8be9"},"vehicle_type_id":"4","last_reported":1738091193,"current_range_meters":30800,"station_id":"ce4bhh12rcd13ifvqfg0","pricing_plan_id":"cebpf4jnsgd1na2vs0mg"},{"bike_id":"d242ee09-5011-44ae-8da1-654d0a87e174","system_id":"levelo_inurba_marseille","lat":43.29276,"lon":5.36849,"is_reserved":false,"is_disabled":false,"rental_uris":{"android":"levelo://app?vid=d242ee09-5011-44ae-8da1-654d0a87e174","ios":"levelo://app?vid=d242ee09-5011-44ae-8da1-654d0a87e174"},"vehicle_type_id":"4","last_reported":1738091193,"current_range_meters":7200,"station_id":"ce4bhbp2rcd13ifvqesg","pricing_plan_id":"cebpf4jnsgd1na2vs0mg"},{"bike_id":"e8b1d3e8-11d6-4fd9-b485-45b556c550fb","system_id":"levelo_inurba_marseille","lat":43.30887,"lon":5.3965,"is_reserved":false,"is_disabled":true,"rental_uris":{"android":"levelo://app?vid=e8b1d3e8-11d6-4fd9-b485-45b556c550fb","ios":"levelo://app?vid=e8b1d3e8-11d6-4fd9-b485-45b556c550fb"},"vehicle_type_id":"4","last_reported":1738091193,"current_range_meters":1600,"station_id":"ce4bh012rcd13ifvqcv0","pricing_plan_id":"cebpf4jnsgd1na2vs0mg"},{"bike_id":"c92f3ed1-1832-45b1-95ae-e066a3c304bb","system_id":"levelo_inurba_marseille","lat":43.33029,"lon":5.39023,"is_reserved":false,"is_disabled":false,"rental_uris":{"android":"levelo://app?vid=c92f3ed1-1832-45b1-95ae-e066a3c304bb","ios":"levelo://app?vid=c92f3ed1-1832-45b1-95ae-e066a3c304bb"},"vehicle_type_id":"4","last_reported":1738091193,"current_range_meters":37600,"station_id":"ce4bhr92rcd13ifvqhrg","pricing_plan_id":"cebpf4jnsgd1na2vs0mg"},{"bike_id":"18fb057a-c0db-45a2-a11a-4d3a33668186","system_id":"levelo_inurba_marseille","lat":43.30933,"lon":5.40141,"is_reserved":false,"is_disabled":false,"rental_uris":{"android":"levelo://app?vid=18fb057a-c0db-45a2-a11a-4d3a33668186","ios":"levelo://app?vid=18fb057a-c0db-45a2-a11a-4d3a33668186"},"vehicle_type_id":"4","last_reported":1738091193,"current_range_meters":12400,"station_id":"ce4bgvp2rcd13ifvqct0","pricing_plan_id":"cebpf4jnsgd1na2vs0mg"},{"bike_id":"87e38ff3-c8f7-4c54-8bf8-14d771da3e66","system_id":"levelo_inurba_marseille","lat":43.31721,"lon":5.42392,"is_reserved":false,"is_disabled":false,"rental_uris":{"android":"levelo://app?vid=87e38ff3-c8f7-4c54-8bf8-14d771da3e66","ios":"levelo://app?vid=87e38ff3-c8f7-4c54-8bf8-14d771da3e66"},"vehicle_type_id":"4","last_reported":1738091193,"current_range_meters":14400,"station_id":"ce4bhp92rcd13ifvqhbg","pricing_plan_id":"cebpf4jnsgd1na2vs0mg"},{"bike_id":"adab1cb5-2453-41b2-9ff0-09d5537466da","system_id":"levelo_inurba_marseille","lat":43.29038,"lon":5.39965,"is_reserved":false,"is_disabled":false,"rental_uris":{"android":"levelo://app?vid=adab1cb5-2453-41b2-9ff0-09d5537466da","ios":"levelo://app?vid=adab1cb5-2453-41b2-9ff0-09d5537466da"},"vehicle_type_id":"4","last_reported":1738091193,"current_range_meters":38800,"station_id":"ce4bh392rcd13ifvqdm0","pricing_plan_id":"cebpf4jnsgd1na2vs0mg"},{"bike_id":"75214a19-3086-4aab-8ba6-a177978da634","system_id":"levelo_inurba_marseille","lat":43.29892,"lon":5.43657,"is_reserved":false,"is_disabled":false,"rental_uris":{"android":"levelo://app?vid=75214a19-3086-4aab-8ba6-a177978da634","ios":"levelo://app?vid=75214a19-3086-4aab-8ba6-a177978da634"},"vehicle_type_id":"4","last_reported":1738091193,"current_range_meters":35600,"station_id":"ce4bhpp2rcd13ifvqhfg","pricing_plan_id":"cebpf4jnsgd1na2vs0mg"},{"bike_id":"d8b1c3f9-ff6e-4179-8423-4ba0d2a2af0e","system_id":"levelo_inurba_marseille","lat":43.33728,"lon":5.39189,"is_reserved":false,"is_disabled":false,"rental_uris":{"android":"levelo://app?vid=d8b1c3f9-ff6e-4179-8423-4ba0d2a2af0e","ios":"levelo://app?vid=d8b1c3f9-ff6e-4179-8423-4ba0d2a2af0e"},"vehicle_type_id":"4","last_reported":1738091193,"current_range_meters":38800,"station_id":"ce4bhr92rcd13ifvqhsg","pricing_plan_id":"cebpf4jnsgd1na2vs0mg"},{"bike_id":"ec4e1b41-004b-4ba0-8815-2155424efc7c","system_id":"levelo_inurba_marseille","lat":43.26054,"lon":5.39381,"is_reserved":false,"is_disabled":false,"rental_uris":{"android":"levelo://app?vid=ec4e1b41-004b-4ba0-8815-2155424efc7c","ios":"levelo://app?vid=ec4e1b41-004b-4ba0-8815-2155424efc7c"},"vehicle_type_id":"4","last_reported":1738091193,"current_range_meters":15200,"station_id":"ce4bhh92rcd13ifvqfj0","pricing_plan_id":"cebpf4jnsgd1na2vs0mg"},{"bike_id":"b5409e27-250f-4525-8058-ef21c8db7076","system_id":"levelo_inurba_marseille","lat":43.27368,"lon":5.36256,"is_reserved":false,"is_disabled":false,"rental_uris":{"android":"levelo://app?vid=b5409e27-250f-4525-8058-ef21c8db7076","ios":"levelo://app?vid=b5409e27-250f-4525-8058-ef21c8db7076"},"vehicle_type_id":"4","last_reported":1738091193,"current_range_meters":24400,"station_id":"ce4bhbh2rcd13ifvqeo0","pricing_plan_id":"cebpf4jnsgd1na2vs0mg"},{"bike_id":"ddeeb021-3aa5-4692-ac65-d696b9db8d28","system_id":"levelo_inurba_marseille","lat":43.33022,"lon":5.39031,"is_reserved":false,"is_disabled":false,"rental_uris":{"android":"levelo://app?vid=ddeeb021-3aa5-4692-ac65-d696b9db8d28","ios":"levelo://app?vid=ddeeb021-3aa5-4692-ac65-d696b9db8d28"},"vehicle_type_id":"4","last_reported":1738091193,"current_range_meters":38400,"station_id":"ce4bhr92rcd13ifvqhrg","pricing_plan_id":"cebpf4jnsgd1na2vs0mg"},{"bike_id":"32d93602-4bca-40ff-89dd-07ab7c4f1afc","system_id":"levelo_inurba_marseille","lat":43.30143,"lon":5.39867,"is_reserved":false,"is_disabled":false,"rental_uris":{"android":"levelo://app?vid=32d93602-4bca-40ff-89dd-07ab7c4f1afc","ios":"levelo://app?vid=32d93602-4bca-40ff-89dd-07ab7c4f1afc"},"vehicle_type_id":"4","last_reported":1738091193,"current_range_meters":24000,"station_id":"ce4bh0h2rcd13ifvqd40","pricing_plan_id":"cebpf4jnsgd1na2vs0mg"},{"bike_id":"c4ded917-ed6a-4614-820c-ba2a757f778f","system_id":"levelo_inurba_marseille","lat":43.28072,"lon":5.39663,"is_reserved":false,"is_disabled":false,"rental_uris":{"android":"levelo://app?vid=c4ded917-ed6a-4614-820c-ba2a757f778f","ios":"levelo://app?vid=c4ded917-ed6a-4614-820c-ba2a757f778f"},"vehicle_type_id":"4","last_reported":1738091193,"current_range_meters":26000,"station_id":"ce4bho12rcd13ifvqh2g","pricing_plan_id":"cebpf4jnsgd1na2vs0mg"},{"bike_id":"df246887-6ea4-401b-b1c5-149bfd21ae45","system_id":"levelo_inurba_marseille","lat":43.31064,"lon":5.40092,"is_reserved":false,"is_disabled":false,"rental_uris":{"android":"levelo://app?vid=df246887-6ea4-401b-b1c5-149bfd21ae45","ios":"levelo://app?vid=df246887-6ea4-401b-b1c5-149bfd21ae45"},"vehicle_type_id":"4","last_reported":1738091193,"current_range_meters":18800,"station_id":"","pricing_plan_id":"cebpf4jnsgd1na2vs0mg"},{"bike_id":"5ceb621e-212a-40b4-8073-5ac0e093811a","system_id":"levelo_inurba_marseille","lat":43.28939,"lon":5.36638,"is_reserved":false,"is_disabled":false,"rental_uris":{"android":"levelo://app?vid=5ceb621e-212a-40b4-8073-5ac0e093811a","ios":"levelo://app?vid=5ceb621e-212a-40b4-8073-5ac0e093811a"},"vehicle_type_id":"4","last_reported":1738091193,"current_range_meters":38400,"station_id":"ce4bhap2rcd13ifvqek0","pricing_plan_id":"cebpf4jnsgd1na2vs0mg"},{"bike_id":"ee1a29b5-bf27-4ed4-80ab-8de86681f638","system_id":"levelo_inurba_marseille","lat":43.28618,"lon":5.35107,"is_reserved":false,"is_disabled":false,"rental_uris":{"android":"levelo://app?vid=ee1a29b5-bf27-4ed4-80ab-8de86681f638","ios":"levelo://app?vid=ee1a29b5-bf27-4ed4-80ab-8de86681f638"},"vehicle_type_id":"4","last_reported":1738091193,"current_range_meters":38000,"station_id":"ce4bhch2rcd13ifvqeug","pricing_plan_id":"cebpf4jnsgd1na2vs0mg"},{"bike_id":"3c9c9088-9c27-4609-bc62-8218c0dc2be8","system_id":"levelo_inurba_marseille","lat":43.23196,"lon":5.35547,"is_reserved":false,"is_disabled":false,"rental_uris":{"android":"levelo://app?vid=3c9c9088-9c27-4609-bc62-8218c0dc2be8","ios":"levelo://app?vid=3c9c9088-9c27-4609-bc62-8218c0dc2be8"},"vehicle_type_id":"4","last_reported":1738091193,"current_range_meters":32000,"station_id":"ce4bhu92rcd13ifvqi70","pricing_plan_id":"cebpf4jnsgd1na2vs0mg"},{"bike_id":"2a7f8667-e6c8-4fe6-889a-5cd2bc14855f","system_id":"levelo_inurba_marseille","lat":43.28701,"lon":5.37387,"is_reserved":false,"is_disabled":true,"rental_uris":{"android":"levelo://app?vid=2a7f8667-e6c8-4fe6-889a-5cd2bc14855f","ios":"levelo://app?vid=2a7f8667-e6c8-4fe6-889a-5cd2bc14855f"},"vehicle_type_id":"4","last_reported":1738091193,"current_range_meters":1600,"station_id":"ce4bh3p2rcd13ifvqdq0","pricing_plan_id":"cebpf4jnsgd1na2vs0mg"},{"bike_id":"1672a0cd-2a68-4581-bf36-fe2b0d644157","system_id":"levelo_inurba_marseille","lat":43.28425,"lon":5.39193,"is_reserved":false,"is_disabled":false,"rental_uris":{"android":"levelo://app?vid=1672a0cd-2a68-4581-bf36-fe2b0d644157","ios":"levelo://app?vid=1672a0cd-2a68-4581-bf36-fe2b0d644157"},"vehicle_type_id":"4","last_reported":1738091193,"current_range_meters":36800,"station_id":"ce4bhoh2rcd13ifvqh5g","pricing_plan_id":"cebpf4jnsgd1na2vs0mg"},{"bike_id":"65d2e0d4-fa4f-4b0f-ad43-f22b8a0c4c38","system_id":"levelo_inurba_marseille","lat":43.30478,"lon":5.37892,"is_reserved":false,"is_disabled":true,"rental_uris":{"android":"levelo://app?vid=65d2e0d4-fa4f-4b0f-ad43-f22b8a0c4c38","ios":"levelo://app?vid=65d2e0d4-fa4f-4b0f-ad43-f22b8a0c4c38"},"vehicle_type_id":"4","last_reported":1738091193,"current_range_meters":0,"station_id":"ce4bgup2rcd13ifvqcn0","pricing_plan_id":"cebpf4jnsgd1na2vs0mg"},{"bike_id":"882d538f-2306-4c8c-b968-4fadd9d99352","system_id":"levelo_inurba_marseille","lat":43.29269,"lon":5.3843,"is_reserved":false,"is_disabled":false,"rental_uris":{"android":"levelo://app?vid=882d538f-2306-4c8c-b968-4fadd9d99352","ios":"levelo://app?vid=882d538f-2306-4c8c-b968-4fadd9d99352"},"vehicle_type_id":"4","last_reported":1738091193,"current_range_meters":24800,"station_id":"ce4bh692rcd13ifvqea0","pricing_plan_id":"cebpf4jnsgd1na2vs0mg"},{"bike_id":"15af56a0-50cc-4287-938a-57061c15f0c6","system_id":"levelo_inurba_marseille","lat":43.33022,"lon":5.39047,"is_reserved":false,"is_disabled":false,"rental_uris":{"android":"levelo://app?vid=15af56a0-50cc-4287-938a-57061c15f0c6","ios":"levelo://app?vid=15af56a0-50cc-4287-938a-57061c15f0c6"},"vehicle_type_id":"4","last_reported":1738091193,"current_range_meters":35200,"station_id":"ce4bhr92rcd13ifvqhrg","pricing_plan_id":"cebpf4jnsgd1na2vs0mg"},{"bike_id":"ca9c9b90-ab08-4721-a324-2cac637ff6d9","system_id":"levelo_inurba_marseille","lat":43.308,"lon":5.38153,"is_reserved":false,"is_disabled":false,"rental_uris":{"android":"levelo://app?vid=ca9c9b90-ab08-4721-a324-2cac637ff6d9","ios":"levelo://app?vid=ca9c9b90-ab08-4721-a324-2cac637ff6d9"},"vehicle_type_id":"4","last_reported":1738091193,"current_range_meters":30800,"station_id":"ce4bgt12rcd13ifvqce0","pricing_plan_id":"cebpf4jnsgd1na2vs0mg"},{"bike_id":"84dd5d71-d29d-4edd-a04d-3dbf702447f0","system_id":"levelo_inurba_marseille","lat":43.29222,"lon":5.36054,"is_reserved":false,"is_disabled":false,"rental_uris":{"android":"levelo://app?vid=84dd5d71-d29d-4edd-a04d-3dbf702447f0","ios":"levelo://app?vid=84dd5d71-d29d-4edd-a04d-3dbf702447f0"},"vehicle_type_id":"4","last_reported":1738091193,"current_range_meters":38800,"station_id":"ce4bhbh2rcd13ifvqeqg","pricing_plan_id":"cebpf4jnsgd1na2vs0mg"},{"bike_id":"7156cab0-668f-4557-a92c-f351fb294cd4","system_id":"levelo_inurba_marseille","lat":43.24387,"lon":5.37053,"is_reserved":false,"is_disabled":false,"rental_uris":{"android":"levelo://app?vid=7156cab0-668f-4557-a92c-f351fb294cd4","ios":"levelo://app?vid=7156cab0-668f-4557-a92c-f351fb294cd4"},"vehicle_type_id":"4","last_reported":1738091193,"current_range_meters":22000,"station_id":"ce4bhhh2rcd13ifvqfk0","pricing_plan_id":"cebpf4jnsgd1na2vs0mg"},{"bike_id":"8045e5a5-32d5-4b9b-9f1d-8444be5eb7af","system_id":"levelo_inurba_marseille","lat":43.33736,"lon":5.39183,"is_reserved":false,"is_disabled":false,"rental_uris":{"android":"levelo://app?vid=8045e5a5-32d5-4b9b-9f1d-8444be5eb7af","ios":"levelo://app?vid=8045e5a5-32d5-4b9b-9f1d-8444be5eb7af"},"vehicle_type_id":"4","last_reported":1738091193,"current_range_meters":18800,"station_id":"ce4bhr92rcd13ifvqhsg","pricing_plan_id":"cebpf4jnsgd1na2vs0mg"},{"bike_id":"062acaa4-8533-423f-9d09-91cd05437850","system_id":"levelo_inurba_marseille","lat":43.33028,"lon":5.39029,"is_reserved":false,"is_disabled":false,"rental_uris":{"android":"levelo://app?vid=062acaa4-8533-423f-9d09-91cd05437850","ios":"levelo://app?vid=062acaa4-8533-423f-9d09-91cd05437850"},"vehicle_type_id":"4","last_reported":1738091193,"current_range_meters":9200,"station_id":"ce4bhr92rcd13ifvqhrg","pricing_plan_id":"cebpf4jnsgd1na2vs0mg"},{"bike_id":"0928d7c6-291b-465e-a26d-59a12315b1a9","system_id":"levelo_inurba_marseille","lat":43.31312,"lon":5.39708,"is_reserved":false,"is_disabled":false,"rental_uris":{"android":"levelo://app?vid=0928d7c6-291b-465e-a26d-59a12315b1a9","ios":"levelo://app?vid=0928d7c6-291b-465e-a26d-59a12315b1a9"},"vehicle_type_id":"4","last_reported":1738091193,"current_range_meters":29600,"station_id":"ce4bgvp2rcd13ifvqcu0","pricing_plan_id":"cebpf4jnsgd1na2vs0mg"},{"bike_id":"ac928eed-dbf9-4385-9a81-80cba59e220e","system_id":"levelo_inurba_marseille","lat":43.29883,"lon":5.38911,"is_reserved":false,"is_disabled":false,"rental_uris":{"android":"levelo://app?vid=ac928eed-dbf9-4385-9a81-80cba59e220e","ios":"levelo://app?vid=ac928eed-dbf9-4385-9a81-80cba59e220e"},"vehicle_type_id":"4","last_reported":1738091193,"current_range_meters":30400,"station_id":"ce4bh392rcd13ifvqdl0","pricing_plan_id":"cebpf4jnsgd1na2vs0mg"},{"bike_id":"c004ae54-2ede-4268-b5e6-549048b57c37","system_id":"levelo_inurba_marseille","lat":43.28457,"lon":5.35895,"is_reserved":false,"is_disabled":false,"rental_uris":{"android":"levelo://app?vid=c004ae54-2ede-4268-b5e6-549048b57c37","ios":"levelo://app?vid=c004ae54-2ede-4268-b5e6-549048b57c37"},"vehicle_type_id":"4","last_reported":1738091193,"current_range_meters":38400,"station_id":"ce4bhah2rcd13ifvqei0","pricing_plan_id":"cebpf4jnsgd1na2vs0mg"},{"bike_id":"4055047e-0c4f-4698-b155-f0ccf6649608","system_id":"levelo_inurba_marseille","lat":43.29522,"lon":5.39388,"is_reserved":false,"is_disabled":true,"rental_uris":{"android":"levelo://app?vid=4055047e-0c4f-4698-b155-f0ccf6649608","ios":"levelo://app?vid=4055047e-0c4f-4698-b155-f0ccf6649608"},"vehicle_type_id":"4","last_reported":1738091193,"current_range_meters":30000,"station_id":"ce4bh292rcd13ifvqdf0","pricing_plan_id":"cebpf4jnsgd1na2vs0mg"},{"bike_id":"2256710f-428a-4b6c-afaf-f485da875c48","system_id":"levelo_inurba_marseille","lat":43.286098,"lon":5.351104,"is_reserved":false,"is_disabled":false,"rental_uris":{"android":"levelo://app?vid=2256710f-428a-4b6c-afaf-f485da875c48","ios":"levelo://app?vid=2256710f-428a-4b6c-afaf-f485da875c48"},"vehicle_type_id":"4","last_reported":1738091193,"current_range_meters":14000,"station_id":"ce4bhch2rcd13ifvqeug","pricing_plan_id":"cebpf4jnsgd1na2vs0mg"},{"bike_id":"ab2c796a-c23b-4a3a-9534-777b873d6a05","system_id":"levelo_inurba_marseille","lat":43.24169,"lon":5.36399,"is_reserved":false,"is_disabled":false,"rental_uris":{"android":"levelo://app?vid=ab2c796a-c23b-4a3a-9534-777b873d6a05","ios":"levelo://app?vid=ab2c796a-c23b-4a3a-9534-777b873d6a05"},"vehicle_type_id":"4","last_reported":1738091193,"current_range_meters":19600,"station_id":"cpo36qri1sfpv3e86is0","pricing_plan_id":"cebpf4jnsgd1na2vs0mg"},{"bike_id":"ef0df46f-7e28-4ea2-a0a6-d54fcb6ef39c","system_id":"levelo_inurba_marseille","lat":43.288518,"lon":5.358583,"is_reserved":false,"is_disabled":false,"rental_uris":{"android":"levelo://app?vid=ef0df46f-7e28-4ea2-a0a6-d54fcb6ef39c","ios":"levelo://app?vid=ef0df46f-7e28-4ea2-a0a6-d54fcb6ef39c"},"vehicle_type_id":"4","last_reported":1738091193,"current_range_meters":12400,"station_id":"ce4bhb12rcd13ifvqem0","pricing_plan_id":"cebpf4jnsgd1na2vs0mg"},{"bike_id":"076b8eb2-6bc9-4585-a4c2-6c9fea1c159c","system_id":"levelo_inurba_marseille","lat":43.27619,"lon":5.36117,"is_reserved":false,"is_disabled":false,"rental_uris":{"android":"levelo://app?vid=076b8eb2-6bc9-4585-a4c2-6c9fea1c159c","ios":"levelo://app?vid=076b8eb2-6bc9-4585-a4c2-6c9fea1c159c"},"vehicle_type_id":"4","last_reported":1738091193,"current_range_meters":17600,"station_id":"ce4bgj92rcd13ifvqbe0","pricing_plan_id":"cebpf4jnsgd1na2vs0mg"},{"bike_id":"787f4146-d570-4c2c-936b-74f37dc80718","system_id":"levelo_inurba_marseille","lat":43.25823,"lon":5.39438,"is_reserved":false,"is_disabled":false,"rental_uris":{"android":"levelo://app?vid=787f4146-d570-4c2c-936b-74f37dc80718","ios":"levelo://app?vid=787f4146-d570-4c2c-936b-74f37dc80718"},"vehicle_type_id":"4","last_reported":1738091193,"current_range_meters":16800,"station_id":"ce4bhip2rcd13ifvqft0","pricing_plan_id":"cebpf4jnsgd1na2vs0mg"},{"bike_id":"529f1ab7-390e-41c3-9180-30692697770e","system_id":"levelo_inurba_marseille","lat":43.28623,"lon":5.35087,"is_reserved":false,"is_disabled":false,"rental_uris":{"android":"levelo://app?vid=529f1ab7-390e-41c3-9180-30692697770e","ios":"levelo://app?vid=529f1ab7-390e-41c3-9180-30692697770e"},"vehicle_type_id":"4","last_reported":1738091193,"current_range_meters":12000,"station_id":"ce4bhch2rcd13ifvqeug","pricing_plan_id":"cebpf4jnsgd1na2vs0mg"},{"bike_id":"e4136b76-0312-4b73-bfd0-9c3b5cfbba14","system_id":"levelo_inurba_marseille","lat":43.295335,"lon":5.390334,"is_reserved":false,"is_disabled":false,"rental_uris":{"android":"levelo://app?vid=e4136b76-0312-4b73-bfd0-9c3b5cfbba14","ios":"levelo://app?vid=e4136b76-0312-4b73-bfd0-9c3b5cfbba14"},"vehicle_type_id":"4","last_reported":1738091193,"current_range_meters":30400,"station_id":"ce4bh3p2rcd13ifvqdp0","pricing_plan_id":"cebpf4jnsgd1na2vs0mg"},{"bike_id":"24d4f5ef-361b-4b35-a071-0fe3b8f26f07","system_id":"levelo_inurba_marseille","lat":43.27494,"lon":5.42448,"is_reserved":false,"is_disabled":false,"rental_uris":{"android":"levelo://app?vid=24d4f5ef-361b-4b35-a071-0fe3b8f26f07","ios":"levelo://app?vid=24d4f5ef-361b-4b35-a071-0fe3b8f26f07"},"vehicle_type_id":"4","last_reported":1738091193,"current_range_meters":38000,"station_id":"ce4bhn92rcd13ifvqgrg","pricing_plan_id":"cebpf4jnsgd1na2vs0mg"},{"bike_id":"29d8bd08-79fe-4dd0-9b92-28ce5f7e8519","system_id":"levelo_inurba_marseille","lat":43.28975,"lon":5.37833,"is_reserved":false,"is_disabled":false,"rental_uris":{"android":"levelo://app?vid=29d8bd08-79fe-4dd0-9b92-28ce5f7e8519","ios":"levelo://app?vid=29d8bd08-79fe-4dd0-9b92-28ce5f7e8519"},"vehicle_type_id":"4","last_reported":1738091193,"current_range_meters":38000,"station_id":"ce4bh9p2rcd13ifvqed0","pricing_plan_id":"cebpf4jnsgd1na2vs0mg"},{"bike_id":"dbf3b29a-a108-43d9-b728-b60ee2f2337d","system_id":"levelo_inurba_marseille","lat":43.28658,"lon":5.36365,"is_reserved":false,"is_disabled":false,"rental_uris":{"android":"levelo://app?vid=dbf3b29a-a108-43d9-b728-b60ee2f2337d","ios":"levelo://app?vid=dbf3b29a-a108-43d9-b728-b60ee2f2337d"},"vehicle_type_id":"4","last_reported":1738091193,"current_range_meters":38800,"station_id":"ce4bhah2rcd13ifvqej0","pricing_plan_id":"cebpf4jnsgd1na2vs0mg"},{"bike_id":"cbacff53-b569-4358-8d11-4b56096865df","system_id":"levelo_inurba_marseille","lat":43.30801,"lon":5.43522,"is_reserved":false,"is_disabled":false,"rental_uris":{"android":"levelo://app?vid=cbacff53-b569-4358-8d11-4b56096865df","ios":"levelo://app?vid=cbacff53-b569-4358-8d11-4b56096865df"},"vehicle_type_id":"4","last_reported":1738091193,"current_range_meters":18800,"station_id":"ce4bhph2rcd13ifvqheg","pricing_plan_id":"cebpf4jnsgd1na2vs0mg"},{"bike_id":"313a75a2-2f24-4aee-a90b-8e2fe4b47e66","system_id":"levelo_inurba_marseille","lat":43.26564,"lon":5.38998,"is_reserved":false,"is_disabled":false,"rental_uris":{"android":"levelo://app?vid=313a75a2-2f24-4aee-a90b-8e2fe4b47e66","ios":"levelo://app?vid=313a75a2-2f24-4aee-a90b-8e2fe4b47e66"},"vehicle_type_id":"4","last_reported":1738091193,"current_range_meters":7200,"station_id":"ce4bhe12rcd13ifvqf30","pricing_plan_id":"cebpf4jnsgd1na2vs0mg"},{"bike_id":"5cdd9657-bb37-4f81-b48b-4a84651ddd68","system_id":"levelo_inurba_marseille","lat":43.2903,"lon":5.37548,"is_reserved":false,"is_disabled":false,"rental_uris":{"android":"levelo://app?vid=5cdd9657-bb37-4f81-b48b-4a84651ddd68","ios":"levelo://app?vid=5cdd9657-bb37-4f81-b48b-4a84651ddd68"},"vehicle_type_id":"4","last_reported":1738091193,"current_range_meters":16400,"station_id":"ce4bh692rcd13ifvqe90","pricing_plan_id":"cebpf4jnsgd1na2vs0mg"},{"bike_id":"636854aa-bdd2-4059-8452-0a9a5a360920","system_id":"levelo_inurba_marseille","lat":43.29274,"lon":5.3845,"is_reserved":false,"is_disabled":false,"rental_uris":{"android":"levelo://app?vid=636854aa-bdd2-4059-8452-0a9a5a360920","ios":"levelo://app?vid=636854aa-bdd2-4059-8452-0a9a5a360920"},"vehicle_type_id":"4","last_reported":1738091193,"current_range_meters":31200,"station_id":"ce4bh692rcd13ifvqea0","pricing_plan_id":"cebpf4jnsgd1na2vs0mg"},{"bike_id":"3afe2907-14fe-40b0-8ce8-247215ed16c8","system_id":"levelo_inurba_marseille","lat":43.2695,"lon":5.38913,"is_reserved":false,"is_disabled":true,"rental_uris":{"android":"levelo://app?vid=3afe2907-14fe-40b0-8ce8-247215ed16c8","ios":"levelo://app?vid=3afe2907-14fe-40b0-8ce8-247215ed16c8"},"vehicle_type_id":"4","last_reported":1738091193,"current_range_meters":8000,"station_id":"ce4bhhh2rcd13ifvqfl0","pricing_plan_id":"cebpf4jnsgd1na2vs0mg"},{"bike_id":"e8e1f7c6-d773-4c38-bfcc-4a6d773355ce","system_id":"levelo_inurba_marseille","lat":43.22931,"lon":5.35369,"is_reserved":false,"is_disabled":false,"rental_uris":{"android":"levelo://app?vid=e8e1f7c6-d773-4c38-bfcc-4a6d773355ce","ios":"levelo://app?vid=e8e1f7c6-d773-4c38-bfcc-4a6d773355ce"},"vehicle_type_id":"4","last_reported":1738091193,"current_range_meters":38800,"station_id":"cpo3532slgdg3j2ikp40","pricing_plan_id":"cebpf4jnsgd1na2vs0mg"},{"bike_id":"ff13b7d1-ae40-4185-860f-2af8f95413de","system_id":"levelo_inurba_marseille","lat":43.25126,"lon":5.40292,"is_reserved":false,"is_disabled":false,"rental_uris":{"android":"levelo://app?vid=ff13b7d1-ae40-4185-860f-2af8f95413de","ios":"levelo://app?vid=ff13b7d1-ae40-4185-860f-2af8f95413de"},"vehicle_type_id":"4","last_reported":1738091193,"current_range_meters":23200,"station_id":"ce4bhlh2rcd13ifvqgig","pricing_plan_id":"cebpf4jnsgd1na2vs0mg"},{"bike_id":"f0d99402-8c14-4500-b2d7-61a9a514a041","system_id":"levelo_inurba_marseille","lat":43.24807,"lon":5.37456,"is_reserved":false,"is_disabled":false,"rental_uris":{"android":"levelo://app?vid=f0d99402-8c14-4500-b2d7-61a9a514a041","ios":"levelo://app?vid=f0d99402-8c14-4500-b2d7-61a9a514a041"},"vehicle_type_id":"4","last_reported":1738091193,"current_range_meters":23200,"station_id":"ce4bhgh2rcd13ifvqfb0","pricing_plan_id":"cebpf4jnsgd1na2vs0mg"},{"bike_id":"cc26c524-9981-41d6-9e25-17cb40d9e550","system_id":"levelo_inurba_marseille","lat":43.24814,"lon":5.37461,"is_reserved":false,"is_disabled":false,"rental_uris":{"android":"levelo://app?vid=cc26c524-9981-41d6-9e25-17cb40d9e550","ios":"levelo://app?vid=cc26c524-9981-41d6-9e25-17cb40d9e550"},"vehicle_type_id":"4","last_reported":1738091193,"current_range_meters":26000,"station_id":"ce4bhgh2rcd13ifvqfb0","pricing_plan_id":"cebpf4jnsgd1na2vs0mg"},{"bike_id":"8b6a2e22-7314-494c-be31-0722e29d3f36","system_id":"levelo_inurba_marseille","lat":43.27995,"lon":5.40001,"is_reserved":false,"is_disabled":true,"rental_uris":{"android":"levelo://app?vid=8b6a2e22-7314-494c-be31-0722e29d3f36","ios":"levelo://app?vid=8b6a2e22-7314-494c-be31-0722e29d3f36"},"vehicle_type_id":"4","last_reported":1738091193,"current_range_meters":6800,"station_id":"ce4bho92rcd13ifvqh4g","pricing_plan_id":"cebpf4jnsgd1na2vs0mg"},{"bike_id":"26c549dd-2ee5-4274-ae6e-bcc12a69942f","system_id":"levelo_inurba_marseille","lat":43.28004,"lon":5.40056,"is_reserved":false,"is_disabled":false,"rental_uris":{"android":"levelo://app?vid=26c549dd-2ee5-4274-ae6e-bcc12a69942f","ios":"levelo://app?vid=26c549dd-2ee5-4274-ae6e-bcc12a69942f"},"vehicle_type_id":"4","last_reported":1738091193,"current_range_meters":7200,"station_id":"ce4bho92rcd13ifvqh4g","pricing_plan_id":"cebpf4jnsgd1na2vs0mg"},{"bike_id":"979afcab-47cc-4ca6-85fa-98c2a022da48","system_id":"levelo_inurba_marseille","lat":43.31075,"lon":5.38346,"is_reserved":false,"is_disabled":false,"rental_uris":{"android":"levelo://app?vid=979afcab-47cc-4ca6-85fa-98c2a022da48","ios":"levelo://app?vid=979afcab-47cc-4ca6-85fa-98c2a022da48"},"vehicle_type_id":"4","last_reported":1738091193,"current_range_meters":19600,"station_id":"ce4bgv92rcd13ifvqcr0","pricing_plan_id":"cebpf4jnsgd1na2vs0mg"},{"bike_id":"dd195832-ff3f-4763-a260-74003ef7ff4c","system_id":"levelo_inurba_marseille","lat":43.2922,"lon":5.36045,"is_reserved":false,"is_disabled":true,"rental_uris":{"android":"levelo://app?vid=dd195832-ff3f-4763-a260-74003ef7ff4c","ios":"levelo://app?vid=dd195832-ff3f-4763-a260-74003ef7ff4c"},"vehicle_type_id":"4","last_reported":1738091193,"current_range_meters":36800,"station_id":"ce4bhbh2rcd13ifvqeqg","pricing_plan_id":"cebpf4jnsgd1na2vs0mg"},{"bike_id":"504dea5b-3c2a-489e-8275-d8db04b04cbd","system_id":"levelo_inurba_marseille","lat":43.287198,"lon":5.383951,"is_reserved":false,"is_disabled":false,"rental_uris":{"android":"levelo://app?vid=504dea5b-3c2a-489e-8275-d8db04b04cbd","ios":"levelo://app?vid=504dea5b-3c2a-489e-8275-d8db04b04cbd"},"vehicle_type_id":"4","last_reported":1738091193,"current_range_meters":36800,"station_id":"","pricing_plan_id":"cebpf4jnsgd1na2vs0mg"},{"bike_id":"4042bcd2-9f75-4a93-acce-6e2ef16a9aca","system_id":"levelo_inurba_marseille","lat":43.29423,"lon":5.38618,"is_reserved":false,"is_disabled":false,"rental_uris":{"android":"levelo://app?vid=4042bcd2-9f75-4a93-acce-6e2ef16a9aca","ios":"levelo://app?vid=4042bcd2-9f75-4a93-acce-6e2ef16a9aca"},"vehicle_type_id":"4","last_reported":1738091193,"current_range_meters":4800,"station_id":"ce4bh2h2rcd13ifvqdh0","pricing_plan_id":"cebpf4jnsgd1na2vs0mg"},{"bike_id":"ce5555f8-99a8-4ec9-b866-154e24c357a7","system_id":"levelo_inurba_marseille","lat":43.27566,"lon":5.38417,"is_reserved":false,"is_disabled":false,"rental_uris":{"android":"levelo://app?vid=ce5555f8-99a8-4ec9-b866-154e24c357a7","ios":"levelo://app?vid=ce5555f8-99a8-4ec9-b866-154e24c357a7"},"vehicle_type_id":"4","last_reported":1738091193,"current_range_meters":10000,"station_id":"ce4bhh92rcd13ifvqfi0","pricing_plan_id":"cebpf4jnsgd1na2vs0mg"},{"bike_id":"6f7b2e61-3ffa-40d5-a44b-75e9d523720d","system_id":"levelo_inurba_marseille","lat":43.2815,"lon":5.42644,"is_reserved":false,"is_disabled":false,"rental_uris":{"android":"levelo://app?vid=6f7b2e61-3ffa-40d5-a44b-75e9d523720d","ios":"levelo://app?vid=6f7b2e61-3ffa-40d5-a44b-75e9d523720d"},"vehicle_type_id":"4","last_reported":1738091193,"current_range_meters":16400,"station_id":"ce4bhnh2rcd13ifvqgug","pricing_plan_id":"cebpf4jnsgd1na2vs0mg"},{"bike_id":"8a75c218-745e-4d5a-8531-47bf77bd2d40","system_id":"levelo_inurba_marseille","lat":43.24648,"lon":5.38925,"is_reserved":false,"is_disabled":false,"rental_uris":{"android":"levelo://app?vid=8a75c218-745e-4d5a-8531-47bf77bd2d40","ios":"levelo://app?vid=8a75c218-745e-4d5a-8531-47bf77bd2d40"},"vehicle_type_id":"4","last_reported":1738091193,"current_range_meters":30800,"station_id":"ce4bhg12rcd13ifvqf60","pricing_plan_id":"cebpf4jnsgd1na2vs0mg"},{"bike_id":"71f34f72-d3b7-46a5-9bd4-1fe057b3152f","system_id":"levelo_inurba_marseille","lat":43.22937,"lon":5.35365,"is_reserved":false,"is_disabled":false,"rental_uris":{"android":"levelo://app?vid=71f34f72-d3b7-46a5-9bd4-1fe057b3152f","ios":"levelo://app?vid=71f34f72-d3b7-46a5-9bd4-1fe057b3152f"},"vehicle_type_id":"4","last_reported":1738091193,"current_range_meters":38800,"station_id":"cpo3532slgdg3j2ikp40","pricing_plan_id":"cebpf4jnsgd1na2vs0mg"},{"bike_id":"360dabff-cce8-4b5a-b384-a825a0fa2c03","system_id":"levelo_inurba_marseille","lat":43.298807,"lon":5.388992,"is_reserved":false,"is_disabled":false,"rental_uris":{"android":"levelo://app?vid=360dabff-cce8-4b5a-b384-a825a0fa2c03","ios":"levelo://app?vid=360dabff-cce8-4b5a-b384-a825a0fa2c03"},"vehicle_type_id":"4","last_reported":1738091193,"current_range_meters":30000,"station_id":"ce4bh392rcd13ifvqdl0","pricing_plan_id":"cebpf4jnsgd1na2vs0mg"},{"bike_id":"20029bdd-9f9c-4ff9-86e4-5ba6ed30f46a","system_id":"levelo_inurba_marseille","lat":43.23071,"lon":5.43685,"is_reserved":false,"is_disabled":true,"rental_uris":{"android":"levelo://app?vid=20029bdd-9f9c-4ff9-86e4-5ba6ed30f46a","ios":"levelo://app?vid=20029bdd-9f9c-4ff9-86e4-5ba6ed30f46a"},"vehicle_type_id":"4","last_reported":1738091193,"current_range_meters":0,"station_id":"","pricing_plan_id":"cebpf4jnsgd1na2vs0mg"},{"bike_id":"a1e9ea9a-e681-4867-9abc-c1bdcd9eed05","system_id":"levelo_inurba_marseille","lat":43.29965,"lon":5.4131,"is_reserved":false,"is_disabled":false,"rental_uris":{"android":"levelo://app?vid=a1e9ea9a-e681-4867-9abc-c1bdcd9eed05","ios":"levelo://app?vid=a1e9ea9a-e681-4867-9abc-c1bdcd9eed05"},"vehicle_type_id":"4","last_reported":1738091193,"current_range_meters":25600,"station_id":"ce4bhp12rcd13ifvqh9g","pricing_plan_id":"cebpf4jnsgd1na2vs0mg"},{"bike_id":"e8157fd5-8e12-4066-938d-0ee11d932ce4","system_id":"levelo_inurba_marseille","lat":43.24549,"lon":5.39532,"is_reserved":false,"is_disabled":false,"rental_uris":{"android":"levelo://app?vid=e8157fd5-8e12-4066-938d-0ee11d932ce4","ios":"levelo://app?vid=e8157fd5-8e12-4066-938d-0ee11d932ce4"},"vehicle_type_id":"4","last_reported":1738091193,"current_range_meters":16800,"station_id":"ce4bhlp2rcd13ifvqgjg","pricing_plan_id":"cebpf4jnsgd1na2vs0mg"},{"bike_id":"2e003583-b2a5-4f99-ba64-ee4456cc2f4c","system_id":"levelo_inurba_marseille","lat":43.26496,"lon":5.39564,"is_reserved":false,"is_disabled":false,"rental_uris":{"android":"levelo://app?vid=2e003583-b2a5-4f99-ba64-ee4456cc2f4c","ios":"levelo://app?vid=2e003583-b2a5-4f99-ba64-ee4456cc2f4c"},"vehicle_type_id":"4","last_reported":1738091193,"current_range_meters":36800,"station_id":"ce4bhi12rcd13ifvqfq0","pricing_plan_id":"cebpf4jnsgd1na2vs0mg"},{"bike_id":"a59f3d0b-557f-4121-a079-085a773d4368","system_id":"levelo_inurba_marseille","lat":43.30882,"lon":5.39631,"is_reserved":false,"is_disabled":false,"rental_uris":{"android":"levelo://app?vid=a59f3d0b-557f-4121-a079-085a773d4368","ios":"levelo://app?vid=a59f3d0b-557f-4121-a079-085a773d4368"},"vehicle_type_id":"4","last_reported":1738091193,"current_range_meters":39200,"station_id":"ce4bh012rcd13ifvqcv0","pricing_plan_id":"cebpf4jnsgd1na2vs0mg"},{"bike_id":"01c346e4-7211-4b0a-9252-8b8a59a9b82f","system_id":"levelo_inurba_marseille","lat":43.2884,"lon":5.35807,"is_reserved":false,"is_disabled":true,"rental_uris":{"android":"levelo://app?vid=01c346e4-7211-4b0a-9252-8b8a59a9b82f","ios":"levelo://app?vid=01c346e4-7211-4b0a-9252-8b8a59a9b82f"},"vehicle_type_id":"4","last_reported":1738091193,"current_range_meters":38000,"station_id":"ce4bhb12rcd13ifvqem0","pricing_plan_id":"cebpf4jnsgd1na2vs0mg"},{"bike_id":"2d76eec1-0b3b-4dbc-b00a-b439704973f7","system_id":"levelo_inurba_marseille","lat":43.29304,"lon":5.37439,"is_reserved":false,"is_disabled":false,"rental_uris":{"android":"levelo://app?vid=2d76eec1-0b3b-4dbc-b00a-b439704973f7","ios":"levelo://app?vid=2d76eec1-0b3b-4dbc-b00a-b439704973f7"},"vehicle_type_id":"4","last_reported":1738091193,"current_range_meters":36800,"station_id":"ce4bgi12rcd13ifvqb70","pricing_plan_id":"cebpf4jnsgd1na2vs0mg"},{"bike_id":"5a6f3b99-1cd1-4dfb-827f-9a2341eb45a7","system_id":"levelo_inurba_marseille","lat":43.31269,"lon":5.40168,"is_reserved":false,"is_disabled":false,"rental_uris":{"android":"levelo://app?vid=5a6f3b99-1cd1-4dfb-827f-9a2341eb45a7","ios":"levelo://app?vid=5a6f3b99-1cd1-4dfb-827f-9a2341eb45a7"},"vehicle_type_id":"4","last_reported":1738091193,"current_range_meters":12400,"station_id":"ce4bh092rcd13ifvqd30","pricing_plan_id":"cebpf4jnsgd1na2vs0mg"},{"bike_id":"3fb74e29-7f1d-4c67-8af5-0bb8332df870","system_id":"levelo_inurba_marseille","lat":43.24391,"lon":5.37049,"is_reserved":false,"is_disabled":false,"rental_uris":{"android":"levelo://app?vid=3fb74e29-7f1d-4c67-8af5-0bb8332df870","ios":"levelo://app?vid=3fb74e29-7f1d-4c67-8af5-0bb8332df870"},"vehicle_type_id":"4","last_reported":1738091193,"current_range_meters":25200,"station_id":"ce4bhhh2rcd13ifvqfk0","pricing_plan_id":"cebpf4jnsgd1na2vs0mg"},{"bike_id":"bad63440-3dff-4f69-b774-e16318d2e743","system_id":"levelo_inurba_marseille","lat":43.28922,"lon":5.38391,"is_reserved":false,"is_disabled":false,"rental_uris":{"android":"levelo://app?vid=bad63440-3dff-4f69-b774-e16318d2e743","ios":"levelo://app?vid=bad63440-3dff-4f69-b774-e16318d2e743"},"vehicle_type_id":"4","last_reported":1738091193,"current_range_meters":38800,"station_id":"ce4bh612rcd13ifvqe6g","pricing_plan_id":"cebpf4jnsgd1na2vs0mg"},{"bike_id":"110680fb-42c1-43b7-a552-a4598d2ae08f","system_id":"levelo_inurba_marseille","lat":43.30602,"lon":5.39353,"is_reserved":false,"is_disabled":false,"rental_uris":{"android":"levelo://app?vid=110680fb-42c1-43b7-a552-a4598d2ae08f","ios":"levelo://app?vid=110680fb-42c1-43b7-a552-a4598d2ae08f"},"vehicle_type_id":"4","last_reported":1738091193,"current_range_meters":30000,"station_id":"ce4bh0p2rcd13ifvqd80","pricing_plan_id":"cebpf4jnsgd1na2vs0mg"},{"bike_id":"a1f25abd-5197-4524-ac53-ad8743bef105","system_id":"levelo_inurba_marseille","lat":43.2985,"lon":5.43643,"is_reserved":false,"is_disabled":true,"rental_uris":{"android":"levelo://app?vid=a1f25abd-5197-4524-ac53-ad8743bef105","ios":"levelo://app?vid=a1f25abd-5197-4524-ac53-ad8743bef105"},"vehicle_type_id":"4","last_reported":1738091193,"current_range_meters":37600,"station_id":"ce4bhpp2rcd13ifvqhfg","pricing_plan_id":"cebpf4jnsgd1na2vs0mg"},{"bike_id":"dcdb3115-44a3-4e7a-bf25-5375e3e168b2","system_id":"levelo_inurba_marseille","lat":43.28151,"lon":5.42643,"is_reserved":false,"is_disabled":false,"rental_uris":{"android":"levelo://app?vid=dcdb3115-44a3-4e7a-bf25-5375e3e168b2","ios":"levelo://app?vid=dcdb3115-44a3-4e7a-bf25-5375e3e168b2"},"vehicle_type_id":"4","last_reported":1738091193,"current_range_meters":12800,"station_id":"ce4bhnh2rcd13ifvqgug","pricing_plan_id":"cebpf4jnsgd1na2vs0mg"},{"bike_id":"d2720e1a-503c-493a-a400-fc47b5a1c2f3","system_id":"levelo_inurba_marseille","lat":43.28075,"lon":5.39667,"is_reserved":false,"is_disabled":false,"rental_uris":{"android":"levelo://app?vid=d2720e1a-503c-493a-a400-fc47b5a1c2f3","ios":"levelo://app?vid=d2720e1a-503c-493a-a400-fc47b5a1c2f3"},"vehicle_type_id":"4","last_reported":1738091193,"current_range_meters":29600,"station_id":"ce4bho12rcd13ifvqh2g","pricing_plan_id":"cebpf4jnsgd1na2vs0mg"},{"bike_id":"ff68af14-5554-4f8d-a3de-4549d987f602","system_id":"levelo_inurba_marseille","lat":43.29903,"lon":5.43654,"is_reserved":false,"is_disabled":false,"rental_uris":{"android":"levelo://app?vid=ff68af14-5554-4f8d-a3de-4549d987f602","ios":"levelo://app?vid=ff68af14-5554-4f8d-a3de-4549d987f602"},"vehicle_type_id":"4","last_reported":1738091193,"current_range_meters":35200,"station_id":"ce4bhpp2rcd13ifvqhfg","pricing_plan_id":"cebpf4jnsgd1na2vs0mg"},{"bike_id":"296acca2-a355-4830-bc97-a6939a85f573","system_id":"levelo_inurba_marseille","lat":43.25573,"lon":5.38234,"is_reserved":false,"is_disabled":false,"rental_uris":{"android":"levelo://app?vid=296acca2-a355-4830-bc97-a6939a85f573","ios":"levelo://app?vid=296acca2-a355-4830-bc97-a6939a85f573"},"vehicle_type_id":"4","last_reported":1738091193,"current_range_meters":27200,"station_id":"ce4bhih2rcd13ifvqfs0","pricing_plan_id":"cebpf4jnsgd1na2vs0mg"},{"bike_id":"e2aa4144-f725-4497-81a8-6271243a9220","system_id":"levelo_inurba_marseille","lat":43.2825,"lon":5.40843,"is_reserved":false,"is_disabled":false,"rental_uris":{"android":"levelo://app?vid=e2aa4144-f725-4497-81a8-6271243a9220","ios":"levelo://app?vid=e2aa4144-f725-4497-81a8-6271243a9220"},"vehicle_type_id":"4","last_reported":1738091193,"current_range_meters":29600,"station_id":"","pricing_plan_id":"cebpf4jnsgd1na2vs0mg"},{"bike_id":"f0a35167-766c-467d-b0f8-92abb69bee7f","system_id":"levelo_inurba_marseille","lat":43.28929,"lon":5.3839,"is_reserved":false,"is_disabled":false,"rental_uris":{"android":"levelo://app?vid=f0a35167-766c-467d-b0f8-92abb69bee7f","ios":"levelo://app?vid=f0a35167-766c-467d-b0f8-92abb69bee7f"},"vehicle_type_id":"4","last_reported":1738091193,"current_range_meters":25200,"station_id":"ce4bh612rcd13ifvqe6g","pricing_plan_id":"cebpf4jnsgd1na2vs0mg"},{"bike_id":"144b340f-6541-4548-aa91-2511551220dd","system_id":"levelo_inurba_marseille","lat":43.28153,"lon":5.4264,"is_reserved":false,"is_disabled":false,"rental_uris":{"android":"levelo://app?vid=144b340f-6541-4548-aa91-2511551220dd","ios":"levelo://app?vid=144b340f-6541-4548-aa91-2511551220dd"},"vehicle_type_id":"4","last_reported":1738091193,"current_range_meters":32000,"station_id":"ce4bhnh2rcd13ifvqgug","pricing_plan_id":"cebpf4jnsgd1na2vs0mg"},{"bike_id":"678c8fdd-4c28-4b55-b0aa-99dc7ed3818a","system_id":"levelo_inurba_marseille","lat":43.3127,"lon":5.4016,"is_reserved":false,"is_disabled":false,"rental_uris":{"android":"levelo://app?vid=678c8fdd-4c28-4b55-b0aa-99dc7ed3818a","ios":"levelo://app?vid=678c8fdd-4c28-4b55-b0aa-99dc7ed3818a"},"vehicle_type_id":"4","last_reported":1738091193,"current_range_meters":15200,"station_id":"ce4bh092rcd13ifvqd30","pricing_plan_id":"cebpf4jnsgd1na2vs0mg"},{"bike_id":"33ffddc8-3f0a-45e6-a033-652c6ca3fe79","system_id":"levelo_inurba_marseille","lat":43.30261,"lon":5.40077,"is_reserved":false,"is_disabled":false,"rental_uris":{"android":"levelo://app?vid=33ffddc8-3f0a-45e6-a033-652c6ca3fe79","ios":"levelo://app?vid=33ffddc8-3f0a-45e6-a033-652c6ca3fe79"},"vehicle_type_id":"4","last_reported":1738091193,"current_range_meters":24000,"station_id":"ce4bgvh2rcd13ifvqcs0","pricing_plan_id":"cebpf4jnsgd1na2vs0mg"},{"bike_id":"3d95239f-7aae-4c5a-bf4d-ca1ab46f24f8","system_id":"levelo_inurba_marseille","lat":43.278113,"lon":5.407137,"is_reserved":false,"is_disabled":false,"rental_uris":{"android":"levelo://app?vid=3d95239f-7aae-4c5a-bf4d-ca1ab46f24f8","ios":"levelo://app?vid=3d95239f-7aae-4c5a-bf4d-ca1ab46f24f8"},"vehicle_type_id":"4","last_reported":1738091193,"current_range_meters":30400,"station_id":"ce4bhnh2rcd13ifvqgtg","pricing_plan_id":"cebpf4jnsgd1na2vs0mg"},{"bike_id":"c51fdcf5-aa05-4fab-b82e-fcd4468f8c52","system_id":"levelo_inurba_marseille","lat":43.28106,"lon":5.3783,"is_reserved":false,"is_disabled":false,"rental_uris":{"android":"levelo://app?vid=c51fdcf5-aa05-4fab-b82e-fcd4468f8c52","ios":"levelo://app?vid=c51fdcf5-aa05-4fab-b82e-fcd4468f8c52"},"vehicle_type_id":"4","last_reported":1738091193,"current_range_meters":8000,"station_id":"ce4bha12rcd13ifvqee0","pricing_plan_id":"cebpf4jnsgd1na2vs0mg"},{"bike_id":"1897c942-7b41-43f9-b9b0-65f46e33bb6e","system_id":"levelo_inurba_marseille","lat":43.29041,"lon":5.39959,"is_reserved":false,"is_disabled":false,"rental_uris":{"android":"levelo://app?vid=1897c942-7b41-43f9-b9b0-65f46e33bb6e","ios":"levelo://app?vid=1897c942-7b41-43f9-b9b0-65f46e33bb6e"},"vehicle_type_id":"4","last_reported":1738091193,"current_range_meters":26000,"station_id":"ce4bh392rcd13ifvqdm0","pricing_plan_id":"cebpf4jnsgd1na2vs0mg"},{"bike_id":"60db3a4b-88f0-4db2-8df4-add40c9cf4e4","system_id":"levelo_inurba_marseille","lat":43.26781,"lon":5.39428,"is_reserved":false,"is_disabled":false,"rental_uris":{"android":"levelo://app?vid=60db3a4b-88f0-4db2-8df4-add40c9cf4e4","ios":"levelo://app?vid=60db3a4b-88f0-4db2-8df4-add40c9cf4e4"},"vehicle_type_id":"4","last_reported":1738091193,"current_range_meters":10000,"station_id":"ce4bhh12rcd13ifvqfg0","pricing_plan_id":"cebpf4jnsgd1na2vs0mg"},{"bike_id":"e3c5a10e-948d-477c-91ce-8c835a7fe362","system_id":"levelo_inurba_marseille","lat":43.28106,"lon":5.39668,"is_reserved":false,"is_disabled":true,"rental_uris":{"android":"levelo://app?vid=e3c5a10e-948d-477c-91ce-8c835a7fe362","ios":"levelo://app?vid=e3c5a10e-948d-477c-91ce-8c835a7fe362"},"vehicle_type_id":"4","last_reported":1738091193,"current_range_meters":0,"station_id":"ce4bho12rcd13ifvqh2g","pricing_plan_id":"cebpf4jnsgd1na2vs0mg"},{"bike_id":"ba6ba496-1dd4-416a-b163-d93386a1f772","system_id":"levelo_inurba_marseille","lat":43.27836,"lon":5.39216,"is_reserved":false,"is_disabled":false,"rental_uris":{"android":"levelo://app?vid=ba6ba496-1dd4-416a-b163-d93386a1f772","ios":"levelo://app?vid=ba6ba496-1dd4-416a-b163-d93386a1f772"},"vehicle_type_id":"4","last_reported":1738091193,"current_range_meters":32400,"station_id":"ce4bhjp2rcd13ifvqga0","pricing_plan_id":"cebpf4jnsgd1na2vs0mg"},{"bike_id":"7fc34398-d3b8-48de-93ad-2c00907a0510","system_id":"levelo_inurba_marseille","lat":43.25115,"lon":5.4032,"is_reserved":false,"is_disabled":false,"rental_uris":{"android":"levelo://app?vid=7fc34398-d3b8-48de-93ad-2c00907a0510","ios":"levelo://app?vid=7fc34398-d3b8-48de-93ad-2c00907a0510"},"vehicle_type_id":"4","last_reported":1738091193,"current_range_meters":11200,"station_id":"ce4bhlh2rcd13ifvqgig","pricing_plan_id":"cebpf4jnsgd1na2vs0mg"},{"bike_id":"f958e592-4cfa-4e53-9b19-b627fd019456","system_id":"levelo_inurba_marseille","lat":43.31364,"lon":5.38505,"is_reserved":false,"is_disabled":false,"rental_uris":{"android":"levelo://app?vid=f958e592-4cfa-4e53-9b19-b627fd019456","ios":"levelo://app?vid=f958e592-4cfa-4e53-9b19-b627fd019456"},"vehicle_type_id":"4","last_reported":1738091193,"current_range_meters":38800,"station_id":"ce4bgt92rcd13ifvqcf0","pricing_plan_id":"cebpf4jnsgd1na2vs0mg"},{"bike_id":"9f018113-1138-458d-9938-2357ae09399b","system_id":"levelo_inurba_marseille","lat":43.28614,"lon":5.35108,"is_reserved":false,"is_disabled":false,"rental_uris":{"android":"levelo://app?vid=9f018113-1138-458d-9938-2357ae09399b","ios":"levelo://app?vid=9f018113-1138-458d-9938-2357ae09399b"},"vehicle_type_id":"4","last_reported":1738091193,"current_range_meters":37600,"station_id":"ce4bhch2rcd13ifvqeug","pricing_plan_id":"cebpf4jnsgd1na2vs0mg"},{"bike_id":"62e006bb-09fe-4b52-a9a4-ad97710ad8e1","system_id":"levelo_inurba_marseille","lat":43.28934,"lon":5.38386,"is_reserved":false,"is_disabled":false,"rental_uris":{"android":"levelo://app?vid=62e006bb-09fe-4b52-a9a4-ad97710ad8e1","ios":"levelo://app?vid=62e006bb-09fe-4b52-a9a4-ad97710ad8e1"},"vehicle_type_id":"4","last_reported":1738091193,"current_range_meters":39200,"station_id":"ce4bh612rcd13ifvqe6g","pricing_plan_id":"cebpf4jnsgd1na2vs0mg"},{"bike_id":"f846d495-effa-4e8f-ae39-f2d7b1fc0ba3","system_id":"levelo_inurba_marseille","lat":43.26806,"lon":5.40254,"is_reserved":false,"is_disabled":false,"rental_uris":{"android":"levelo://app?vid=f846d495-effa-4e8f-ae39-f2d7b1fc0ba3","ios":"levelo://app?vid=f846d495-effa-4e8f-ae39-f2d7b1fc0ba3"},"vehicle_type_id":"4","last_reported":1738091193,"current_range_meters":38800,"station_id":"ce501612rcd8frsf0b60","pricing_plan_id":"cebpf4jnsgd1na2vs0mg"},{"bike_id":"78bc61bf-426e-4c8b-af21-b3b451435e49","system_id":"levelo_inurba_marseille","lat":43.29195,"lon":5.358,"is_reserved":false,"is_disabled":false,"rental_uris":{"android":"levelo://app?vid=78bc61bf-426e-4c8b-af21-b3b451435e49","ios":"levelo://app?vid=78bc61bf-426e-4c8b-af21-b3b451435e49"},"vehicle_type_id":"4","last_reported":1738091193,"current_range_meters":17200,"station_id":"ce4bhb12rcd13ifvqel0","pricing_plan_id":"cebpf4jnsgd1na2vs0mg"},{"bike_id":"dc7c1c67-58fd-4b23-90e5-a1f21ef47cbc","system_id":"levelo_inurba_marseille","lat":43.2958,"lon":5.36737,"is_reserved":false,"is_disabled":false,"rental_uris":{"android":"levelo://app?vid=dc7c1c67-58fd-4b23-90e5-a1f21ef47cbc","ios":"levelo://app?vid=dc7c1c67-58fd-4b23-90e5-a1f21ef47cbc"},"vehicle_type_id":"4","last_reported":1738091193,"current_range_meters":3600,"station_id":"ce4bgph2rcd13ifvqc2g","pricing_plan_id":"cebpf4jnsgd1na2vs0mg"},{"bike_id":"352e3806-5290-416f-bc00-4855a8b65e96","system_id":"levelo_inurba_marseille","lat":43.31528,"lon":5.38041,"is_reserved":false,"is_disabled":false,"rental_uris":{"android":"levelo://app?vid=352e3806-5290-416f-bc00-4855a8b65e96","ios":"levelo://app?vid=352e3806-5290-416f-bc00-4855a8b65e96"},"vehicle_type_id":"4","last_reported":1738091193,"current_range_meters":38800,"station_id":"ce4bhsp2rcd13ifvqi50","pricing_plan_id":"cebpf4jnsgd1na2vs0mg"},{"bike_id":"43365e76-6a0a-432b-afea-fb872341bb02","system_id":"levelo_inurba_marseille","lat":43.27998,"lon":5.40004,"is_reserved":false,"is_disabled":false,"rental_uris":{"android":"levelo://app?vid=43365e76-6a0a-432b-afea-fb872341bb02","ios":"levelo://app?vid=43365e76-6a0a-432b-afea-fb872341bb02"},"vehicle_type_id":"4","last_reported":1738091193,"current_range_meters":22800,"station_id":"ce4bho92rcd13ifvqh4g","pricing_plan_id":"cebpf4jnsgd1na2vs0mg"},{"bike_id":"c4b3316f-c0f6-4f4a-a062-04c1732e4898","system_id":"levelo_inurba_marseille","lat":43.28719,"lon":5.37932,"is_reserved":false,"is_disabled":false,"rental_uris":{"android":"levelo://app?vid=c4b3316f-c0f6-4f4a-a062-04c1732e4898","ios":"levelo://app?vid=c4b3316f-c0f6-4f4a-a062-04c1732e4898"},"vehicle_type_id":"4","last_reported":1738091193,"current_range_meters":28000,"station_id":"ce4bh9p2rcd13ifvqec0","pricing_plan_id":"cebpf4jnsgd1na2vs0mg"},{"bike_id":"f9173de2-2fa5-436f-a76b-3c96bd571284","system_id":"levelo_inurba_marseille","lat":43.29809,"lon":5.40409,"is_reserved":false,"is_disabled":true,"rental_uris":{"android":"levelo://app?vid=f9173de2-2fa5-436f-a76b-3c96bd571284","ios":"levelo://app?vid=f9173de2-2fa5-436f-a76b-3c96bd571284"},"vehicle_type_id":"4","last_reported":1738091193,"current_range_meters":36000,"station_id":"ce4bh112rcd13ifvqd90","pricing_plan_id":"cebpf4jnsgd1na2vs0mg"},{"bike_id":"efd80fd0-328b-4dc4-bd09-ca853fed1175","system_id":"levelo_inurba_marseille","lat":43.31083,"lon":5.42424,"is_reserved":false,"is_disabled":false,"rental_uris":{"android":"levelo://app?vid=efd80fd0-328b-4dc4-bd09-ca853fed1175","ios":"levelo://app?vid=efd80fd0-328b-4dc4-bd09-ca853fed1175"},"vehicle_type_id":"4","last_reported":1738091193,"current_range_meters":38800,"station_id":"ce4bhp92rcd13ifvqhag","pricing_plan_id":"cebpf4jnsgd1na2vs0mg"},{"bike_id":"a4620e64-d300-4223-a54e-423be5243adc","system_id":"levelo_inurba_marseille","lat":43.30604,"lon":5.39332,"is_reserved":false,"is_disabled":false,"rental_uris":{"android":"levelo://app?vid=a4620e64-d300-4223-a54e-423be5243adc","ios":"levelo://app?vid=a4620e64-d300-4223-a54e-423be5243adc"},"vehicle_type_id":"4","last_reported":1738091193,"current_range_meters":32000,"station_id":"ce4bh0p2rcd13ifvqd80","pricing_plan_id":"cebpf4jnsgd1na2vs0mg"},{"bike_id":"1932502a-a386-4bd4-8041-b68d3b661876","system_id":"levelo_inurba_marseille","lat":43.23199,"lon":5.35542,"is_reserved":false,"is_disabled":false,"rental_uris":{"android":"levelo://app?vid=1932502a-a386-4bd4-8041-b68d3b661876","ios":"levelo://app?vid=1932502a-a386-4bd4-8041-b68d3b661876"},"vehicle_type_id":"4","last_reported":1738091193,"current_range_meters":24400,"station_id":"ce4bhu92rcd13ifvqi70","pricing_plan_id":"cebpf4jnsgd1na2vs0mg"},{"bike_id":"d2f08ce9-194e-43c4-a9f1-3260fde37c7e","system_id":"levelo_inurba_marseille","lat":43.27928,"lon":5.41045,"is_reserved":false,"is_disabled":false,"rental_uris":{"android":"levelo://app?vid=d2f08ce9-194e-43c4-a9f1-3260fde37c7e","ios":"levelo://app?vid=d2f08ce9-194e-43c4-a9f1-3260fde37c7e"},"vehicle_type_id":"4","last_reported":1738091193,"current_range_meters":16800,"station_id":"ce4bhnp2rcd13ifvqh0g","pricing_plan_id":"cebpf4jnsgd1na2vs0mg"},{"bike_id":"f0d3497b-9920-4eb4-9d59-547d6a54c98d","system_id":"levelo_inurba_marseille","lat":43.31363,"lon":5.38491,"is_reserved":false,"is_disabled":false,"rental_uris":{"android":"levelo://app?vid=f0d3497b-9920-4eb4-9d59-547d6a54c98d","ios":"levelo://app?vid=f0d3497b-9920-4eb4-9d59-547d6a54c98d"},"vehicle_type_id":"4","last_reported":1738091193,"current_range_meters":18800,"station_id":"ce4bgt92rcd13ifvqcf0","pricing_plan_id":"cebpf4jnsgd1na2vs0mg"},{"bike_id":"c71d9a58-79c2-4121-bc4b-958cbabc75f1","system_id":"levelo_inurba_marseille","lat":43.29236,"lon":5.40214,"is_reserved":false,"is_disabled":true,"rental_uris":{"android":"levelo://app?vid=c71d9a58-79c2-4121-bc4b-958cbabc75f1","ios":"levelo://app?vid=c71d9a58-79c2-4121-bc4b-958cbabc75f1"},"vehicle_type_id":"4","last_reported":1738091193,"current_range_meters":6800,"station_id":"ce4bh312rcd13ifvqdk0","pricing_plan_id":"cebpf4jnsgd1na2vs0mg"},{"bike_id":"cd68e35b-e291-4244-8751-8931f1c888e6","system_id":"levelo_inurba_marseille","lat":43.24396,"lon":5.37046,"is_reserved":false,"is_disabled":false,"rental_uris":{"android":"levelo://app?vid=cd68e35b-e291-4244-8751-8931f1c888e6","ios":"levelo://app?vid=cd68e35b-e291-4244-8751-8931f1c888e6"},"vehicle_type_id":"4","last_reported":1738091193,"current_range_meters":16800,"station_id":"ce4bhhh2rcd13ifvqfk0","pricing_plan_id":"cebpf4jnsgd1na2vs0mg"},{"bike_id":"9f82d94e-8b39-45c9-b4c8-c08c0c178b1e","system_id":"levelo_inurba_marseille","lat":43.31688,"lon":5.40448,"is_reserved":false,"is_disabled":false,"rental_uris":{"android":"levelo://app?vid=9f82d94e-8b39-45c9-b4c8-c08c0c178b1e","ios":"levelo://app?vid=9f82d94e-8b39-45c9-b4c8-c08c0c178b1e"},"vehicle_type_id":"4","last_reported":1738091193,"current_range_meters":25600,"station_id":"ce4bh012rcd13ifvqd00","pricing_plan_id":"cebpf4jnsgd1na2vs0mg"},{"bike_id":"82169d52-9c5d-4395-8a3c-04785908974a","system_id":"levelo_inurba_marseille","lat":43.29422,"lon":5.3863,"is_reserved":false,"is_disabled":false,"rental_uris":{"android":"levelo://app?vid=82169d52-9c5d-4395-8a3c-04785908974a","ios":"levelo://app?vid=82169d52-9c5d-4395-8a3c-04785908974a"},"vehicle_type_id":"4","last_reported":1738091193,"current_range_meters":26000,"station_id":"ce4bh2h2rcd13ifvqdh0","pricing_plan_id":"cebpf4jnsgd1na2vs0mg"},{"bike_id":"38406c4f-f465-463a-8917-08b734d2865e","system_id":"levelo_inurba_marseille","lat":43.2807,"lon":5.39664,"is_reserved":false,"is_disabled":false,"rental_uris":{"android":"levelo://app?vid=38406c4f-f465-463a-8917-08b734d2865e","ios":"levelo://app?vid=38406c4f-f465-463a-8917-08b734d2865e"},"vehicle_type_id":"4","last_reported":1738091193,"current_range_meters":17200,"station_id":"ce4bho12rcd13ifvqh2g","pricing_plan_id":"cebpf4jnsgd1na2vs0mg"},{"bike_id":"5db1114c-8044-4d39-8b54-bc9610487a91","system_id":"levelo_inurba_marseille","lat":43.31328,"lon":5.39692,"is_reserved":false,"is_disabled":false,"rental_uris":{"android":"levelo://app?vid=5db1114c-8044-4d39-8b54-bc9610487a91","ios":"levelo://app?vid=5db1114c-8044-4d39-8b54-bc9610487a91"},"vehicle_type_id":"4","last_reported":1738091193,"current_range_meters":14000,"station_id":"ce4bgvp2rcd13ifvqcu0","pricing_plan_id":"cebpf4jnsgd1na2vs0mg"},{"bike_id":"c9242e06-810e-49f1-b440-56548629c43f","system_id":"levelo_inurba_marseille","lat":43.28408,"lon":5.37504,"is_reserved":false,"is_disabled":false,"rental_uris":{"android":"levelo://app?vid=c9242e06-810e-49f1-b440-56548629c43f","ios":"levelo://app?vid=c9242e06-810e-49f1-b440-56548629c43f"},"vehicle_type_id":"4","last_reported":1738091193,"current_range_meters":7200,"station_id":"ce4bh412rcd13ifvqds0","pricing_plan_id":"cebpf4jnsgd1na2vs0mg"},{"bike_id":"642c128b-5936-43e1-a3d1-7ce190f71190","system_id":"levelo_inurba_marseille","lat":43.25881,"lon":5.39888,"is_reserved":false,"is_disabled":true,"rental_uris":{"android":"levelo://app?vid=642c128b-5936-43e1-a3d1-7ce190f71190","ios":"levelo://app?vid=642c128b-5936-43e1-a3d1-7ce190f71190"},"vehicle_type_id":"4","last_reported":1738091193,"current_range_meters":1200,"station_id":"ce4bhl92rcd13ifvqghg","pricing_plan_id":"cebpf4jnsgd1na2vs0mg"},{"bike_id":"283c25d8-9fc5-495b-9825-5a72a68442bd","system_id":"levelo_inurba_marseille","lat":43.292628,"lon":5.408945,"is_reserved":false,"is_disabled":true,"rental_uris":{"android":"levelo://app?vid=283c25d8-9fc5-495b-9825-5a72a68442bd","ios":"levelo://app?vid=283c25d8-9fc5-495b-9825-5a72a68442bd"},"vehicle_type_id":"4","last_reported":1738091193,"current_range_meters":38800,"station_id":"ce4bh192rcd13ifvqdc0","pricing_plan_id":"cebpf4jnsgd1na2vs0mg"},{"bike_id":"77f3bf21-63b8-49a8-935c-8a5687b8349a","system_id":"levelo_inurba_marseille","lat":43.32907,"lon":5.39056,"is_reserved":false,"is_disabled":false,"rental_uris":{"android":"levelo://app?vid=77f3bf21-63b8-49a8-935c-8a5687b8349a","ios":"levelo://app?vid=77f3bf21-63b8-49a8-935c-8a5687b8349a"},"vehicle_type_id":"4","last_reported":1738091193,"current_range_meters":17600,"station_id":"","pricing_plan_id":"cebpf4jnsgd1na2vs0mg"},{"bike_id":"e3e26aee-15e1-425c-a48f-db58aa520742","system_id":"levelo_inurba_marseille","lat":43.23079,"lon":5.35494,"is_reserved":false,"is_disabled":false,"rental_uris":{"android":"levelo://app?vid=e3e26aee-15e1-425c-a48f-db58aa520742","ios":"levelo://app?vid=e3e26aee-15e1-425c-a48f-db58aa520742"},"vehicle_type_id":"4","last_reported":1738091193,"current_range_meters":36800,"station_id":"cpo3342slgdg3j2ifvpg","pricing_plan_id":"cebpf4jnsgd1na2vs0mg"},{"bike_id":"2f721776-a64e-4635-b65d-4f02e23630ab","system_id":"levelo_inurba_marseille","lat":43.2922,"lon":5.36049,"is_reserved":false,"is_disabled":false,"rental_uris":{"android":"levelo://app?vid=2f721776-a64e-4635-b65d-4f02e23630ab","ios":"levelo://app?vid=2f721776-a64e-4635-b65d-4f02e23630ab"},"vehicle_type_id":"4","last_reported":1738091193,"current_range_meters":33200,"station_id":"ce4bhbh2rcd13ifvqeqg","pricing_plan_id":"cebpf4jnsgd1na2vs0mg"},{"bike_id":"53c813d0-bbfc-4b4a-b056-3cb7d8397d49","system_id":"levelo_inurba_marseille","lat":43.29277,"lon":5.38426,"is_reserved":false,"is_disabled":false,"rental_uris":{"android":"levelo://app?vid=53c813d0-bbfc-4b4a-b056-3cb7d8397d49","ios":"levelo://app?vid=53c813d0-bbfc-4b4a-b056-3cb7d8397d49"},"vehicle_type_id":"4","last_reported":1738091193,"current_range_meters":29600,"station_id":"ce4bh692rcd13ifvqea0","pricing_plan_id":"cebpf4jnsgd1na2vs0mg"},{"bike_id":"df2653fe-4fdf-43fd-a7c1-0f1c8d8556c5","system_id":"levelo_inurba_marseille","lat":43.33034,"lon":5.39023,"is_reserved":false,"is_disabled":false,"rental_uris":{"android":"levelo://app?vid=df2653fe-4fdf-43fd-a7c1-0f1c8d8556c5","ios":"levelo://app?vid=df2653fe-4fdf-43fd-a7c1-0f1c8d8556c5"},"vehicle_type_id":"4","last_reported":1738091193,"current_range_meters":38400,"station_id":"ce4bhr92rcd13ifvqhrg","pricing_plan_id":"cebpf4jnsgd1na2vs0mg"},{"bike_id":"7c78a755-c7f5-4f07-a96b-621451d47948","system_id":"levelo_inurba_marseille","lat":43.29902,"lon":5.43659,"is_reserved":false,"is_disabled":false,"rental_uris":{"android":"levelo://app?vid=7c78a755-c7f5-4f07-a96b-621451d47948","ios":"levelo://app?vid=7c78a755-c7f5-4f07-a96b-621451d47948"},"vehicle_type_id":"4","last_reported":1738091193,"current_range_meters":22400,"station_id":"ce4bhpp2rcd13ifvqhfg","pricing_plan_id":"cebpf4jnsgd1na2vs0mg"},{"bike_id":"4ebc8090-1105-4905-bf9f-56879aa1cf25","system_id":"levelo_inurba_marseille","lat":43.31392,"lon":5.38495,"is_reserved":false,"is_disabled":false,"rental_uris":{"android":"levelo://app?vid=4ebc8090-1105-4905-bf9f-56879aa1cf25","ios":"levelo://app?vid=4ebc8090-1105-4905-bf9f-56879aa1cf25"},"vehicle_type_id":"4","last_reported":1738091193,"current_range_meters":38800,"station_id":"ce4bgt92rcd13ifvqcf0","pricing_plan_id":"cebpf4jnsgd1na2vs0mg"},{"bike_id":"3d1fcd99-fa1f-402d-be1e-7639922ccd47","system_id":"levelo_inurba_marseille","lat":43.22929,"lon":5.35377,"is_reserved":false,"is_disabled":false,"rental_uris":{"android":"levelo://app?vid=3d1fcd99-fa1f-402d-be1e-7639922ccd47","ios":"levelo://app?vid=3d1fcd99-fa1f-402d-be1e-7639922ccd47"},"vehicle_type_id":"4","last_reported":1738091193,"current_range_meters":37600,"station_id":"cpo3532slgdg3j2ikp40","pricing_plan_id":"cebpf4jnsgd1na2vs0mg"},{"bike_id":"43ea3ad8-8184-4bdc-8358-c047afdc2af7","system_id":"levelo_inurba_marseille","lat":43.29531,"lon":5.38537,"is_reserved":false,"is_disabled":false,"rental_uris":{"android":"levelo://app?vid=43ea3ad8-8184-4bdc-8358-c047afdc2af7","ios":"levelo://app?vid=43ea3ad8-8184-4bdc-8358-c047afdc2af7"},"vehicle_type_id":"4","last_reported":1738091193,"current_range_meters":6400,"station_id":"ce4bgih2rcd13ifvqba0","pricing_plan_id":"cebpf4jnsgd1na2vs0mg"},{"bike_id":"be95020b-d803-457f-a75c-c226c1a11fe8","system_id":"levelo_inurba_marseille","lat":43.24662,"lon":5.38168,"is_reserved":false,"is_disabled":false,"rental_uris":{"android":"levelo://app?vid=be95020b-d803-457f-a75c-c226c1a11fe8","ios":"levelo://app?vid=be95020b-d803-457f-a75c-c226c1a11fe8"},"vehicle_type_id":"4","last_reported":1738091193,"current_range_meters":35200,"station_id":"ce4bhih2rcd13ifvqfr0","pricing_plan_id":"cebpf4jnsgd1na2vs0mg"},{"bike_id":"803e03d8-7d2e-4feb-ac46-774902d16dee","system_id":"levelo_inurba_marseille","lat":43.33755,"lon":5.37431,"is_reserved":false,"is_disabled":true,"rental_uris":{"android":"levelo://app?vid=803e03d8-7d2e-4feb-ac46-774902d16dee","ios":"levelo://app?vid=803e03d8-7d2e-4feb-ac46-774902d16dee"},"vehicle_type_id":"4","last_reported":1738091193,"current_range_meters":36800,"station_id":"","pricing_plan_id":"cebpf4jnsgd1na2vs0mg"},{"bike_id":"28aff257-a41f-41b4-b492-84a82ec49355","system_id":"levelo_inurba_marseille","lat":43.32482,"lon":5.36557,"is_reserved":false,"is_disabled":false,"rental_uris":{"android":"levelo://app?vid=28aff257-a41f-41b4-b492-84a82ec49355","ios":"levelo://app?vid=28aff257-a41f-41b4-b492-84a82ec49355"},"vehicle_type_id":"4","last_reported":1738091193,"current_range_meters":6800,"station_id":"ce4bhs12rcd13ifvqhvg","pricing_plan_id":"cebpf4jnsgd1na2vs0mg"},{"bike_id":"ff1e303e-f01b-45b4-953d-3439c6552787","system_id":"levelo_inurba_marseille","lat":43.26947,"lon":5.40242,"is_reserved":false,"is_disabled":false,"rental_uris":{"android":"levelo://app?vid=ff1e303e-f01b-45b4-953d-3439c6552787","ios":"levelo://app?vid=ff1e303e-f01b-45b4-953d-3439c6552787"},"vehicle_type_id":"4","last_reported":1738091193,"current_range_meters":32400,"station_id":"cjm6bp8fraef2m0cb0m0","pricing_plan_id":"cebpf4jnsgd1na2vs0mg"},{"bike_id":"70e60ad6-ef20-4b17-bf61-dc343f8741d5","system_id":"levelo_inurba_marseille","lat":43.27817,"lon":5.40711,"is_reserved":false,"is_disabled":false,"rental_uris":{"android":"levelo://app?vid=70e60ad6-ef20-4b17-bf61-dc343f8741d5","ios":"levelo://app?vid=70e60ad6-ef20-4b17-bf61-dc343f8741d5"},"vehicle_type_id":"4","last_reported":1738091193,"current_range_meters":39200,"station_id":"ce4bhnh2rcd13ifvqgtg","pricing_plan_id":"cebpf4jnsgd1na2vs0mg"},{"bike_id":"7f762cad-14d3-4378-9c59-c304651b7679","system_id":"levelo_inurba_marseille","lat":43.29573,"lon":5.39957,"is_reserved":false,"is_disabled":true,"rental_uris":{"android":"levelo://app?vid=7f762cad-14d3-4378-9c59-c304651b7679","ios":"levelo://app?vid=7f762cad-14d3-4378-9c59-c304651b7679"},"vehicle_type_id":"4","last_reported":1738091193,"current_range_meters":28400,"station_id":"ce4bh312rcd13ifvqdj0","pricing_plan_id":"cebpf4jnsgd1na2vs0mg"},{"bike_id":"9956e593-ce32-4c67-932e-03a6f7d27dd7","system_id":"levelo_inurba_marseille","lat":43.29886,"lon":5.39738,"is_reserved":false,"is_disabled":false,"rental_uris":{"android":"levelo://app?vid=9956e593-ce32-4c67-932e-03a6f7d27dd7","ios":"levelo://app?vid=9956e593-ce32-4c67-932e-03a6f7d27dd7"},"vehicle_type_id":"4","last_reported":1738091193,"current_range_meters":24800,"station_id":"ce4bh0h2rcd13ifvqd50","pricing_plan_id":"cebpf4jnsgd1na2vs0mg"},{"bike_id":"a12b22ac-215d-407e-afe9-25d2d23a5540","system_id":"levelo_inurba_marseille","lat":43.32662,"lon":5.40987,"is_reserved":false,"is_disabled":true,"rental_uris":{"android":"levelo://app?vid=a12b22ac-215d-407e-afe9-25d2d23a5540","ios":"levelo://app?vid=a12b22ac-215d-407e-afe9-25d2d23a5540"},"vehicle_type_id":"4","last_reported":1738091193,"current_range_meters":2800,"station_id":"ce4bhpp2rcd13ifvqhgg","pricing_plan_id":"cebpf4jnsgd1na2vs0mg"},{"bike_id":"5342b0c6-21c4-42f1-b925-a72889fcb289","system_id":"levelo_inurba_marseille","lat":43.29519,"lon":5.394,"is_reserved":false,"is_disabled":false,"rental_uris":{"android":"levelo://app?vid=5342b0c6-21c4-42f1-b925-a72889fcb289","ios":"levelo://app?vid=5342b0c6-21c4-42f1-b925-a72889fcb289"},"vehicle_type_id":"4","last_reported":1738091193,"current_range_meters":34000,"station_id":"ce4bh292rcd13ifvqdf0","pricing_plan_id":"cebpf4jnsgd1na2vs0mg"},{"bike_id":"5c570969-15b5-40e5-8313-bedbe0ca2037","system_id":"levelo_inurba_marseille","lat":43.29564,"lon":5.3997,"is_reserved":false,"is_disabled":false,"rental_uris":{"android":"levelo://app?vid=5c570969-15b5-40e5-8313-bedbe0ca2037","ios":"levelo://app?vid=5c570969-15b5-40e5-8313-bedbe0ca2037"},"vehicle_type_id":"4","last_reported":1738091193,"current_range_meters":37600,"station_id":"ce4bh312rcd13ifvqdj0","pricing_plan_id":"cebpf4jnsgd1na2vs0mg"},{"bike_id":"c42031cf-0c79-4a7d-a129-b6c94778b289","system_id":"levelo_inurba_marseille","lat":43.27999,"lon":5.41659,"is_reserved":false,"is_disabled":false,"rental_uris":{"android":"levelo://app?vid=c42031cf-0c79-4a7d-a129-b6c94778b289","ios":"levelo://app?vid=c42031cf-0c79-4a7d-a129-b6c94778b289"},"vehicle_type_id":"4","last_reported":1738091193,"current_range_meters":22400,"station_id":"ce4bho12rcd13ifvqh1g","pricing_plan_id":"cebpf4jnsgd1na2vs0mg"},{"bike_id":"eb2d8cd1-5a2f-4552-bf1e-efb2baceb1d9","system_id":"levelo_inurba_marseille","lat":43.3025,"lon":5.40082,"is_reserved":false,"is_disabled":false,"rental_uris":{"android":"levelo://app?vid=eb2d8cd1-5a2f-4552-bf1e-efb2baceb1d9","ios":"levelo://app?vid=eb2d8cd1-5a2f-4552-bf1e-efb2baceb1d9"},"vehicle_type_id":"4","last_reported":1738091193,"current_range_meters":37600,"station_id":"ce4bgvh2rcd13ifvqcs0","pricing_plan_id":"cebpf4jnsgd1na2vs0mg"},{"bike_id":"3bc0f135-575a-4737-9b6a-5704190bb622","system_id":"levelo_inurba_marseille","lat":43.29261,"lon":5.38451,"is_reserved":false,"is_disabled":false,"rental_uris":{"android":"levelo://app?vid=3bc0f135-575a-4737-9b6a-5704190bb622","ios":"levelo://app?vid=3bc0f135-575a-4737-9b6a-5704190bb622"},"vehicle_type_id":"4","last_reported":1738091193,"current_range_meters":22400,"station_id":"ce4bh692rcd13ifvqea0","pricing_plan_id":"cebpf4jnsgd1na2vs0mg"},