{"last_updated":1783372802,"ttl":60,"version":"2.2","data":{"bikes":[{"bike_id":"ba0c28b1-8732-48e2-8079-f25b2b3fbc3c","system_id":"levelo_inurba_marseille","lat":43.337444,"lon":5.374475,"is_reserved":false,"is_disabled":false,"rental_uris":{"android":"levelo://app?vid=ba0c28b1-8732-48e2-8079-f25b2b3fbc3c","ios":"levelo://app?vid=ba0c28b1-8732-48e2-8079-f25b2b3fbc3c"},"vehicle_type_id":"4","last_reported":1783372803,"current_range_meters":0,"station_id":"","pricing_plan_id":"cebpf4jnsgd1na2vs0mg"},{"bike_id":"5dce1017-8ca0-4931-928c-d16f6c0fa71f","system_id":"levelo_inurba_marseille","lat":43.26234,"lon":5.38746,"is_reserved":false,"is_disabled":false,"rental_uris":{"android":"levelo://app?vid=5dce1017-8ca0-4931-928c-d16f6c0fa71f","ios":"levelo://app?vid=5dce1017-8ca0-4931-928c-d16f6c0fa71f"},"vehicle_type_id":"4","last_reported":1783372803,"current_range_meters":2800,"station_id":"st_d8gjfg747rts73coq3b0","pricing_plan_id":"cebpf4jnsgd1na2vs0mg"},{"bike_id":"f5862b25-8b9f-4511-934a-30eb2d62b473","system_id":"levelo_inurba_marseille","lat":43.23741,"lon":5.36215,"is_reserved":false,"is_disabled":false,"rental_uris":{"android":"levelo://app?vid=f5862b25-8b9f-4511-934a-30eb2d62b473","ios":"levelo://app?vid=f5862b25-8b9f-4511-934a-30eb2d62b473"},"vehicle_type_id":"4","last_reported":1783372803,"current_range_meters":2800,"station_id":"","pricing_plan_id":"cebpf4jnsgd1na2vs0mg"},{"bike_id":"6b067209-3286-48ad-866a-1b5a70a2c780","system_id":"levelo_inurba_marseille","lat":43.29043,"lon":5.39926,"is_reserved":false,"is_disabled":false,"rental_uris":{"android":"levelo://app?vid=6b067209-3286-48ad-866a-1b5a70a2c780","ios":"levelo://app?vid=6b067209-3286-48ad-866a-1b5a70a2c780"},"vehicle_type_id":"4","last_reported":1783372803,"current_range_meters":2800,"station_id":"ce4bh392rcd13ifvqdm0","pricing_plan_id":"cebpf4jnsgd1na2vs0mg"},{"bike_id":"4a6bc899-4386-403a-85bd-a0b6e4730c86","system_id":"levelo_inurba_marseille","lat":43.27404,"lon":5.393894,"is_reserved":false,"is_disabled":false,"rental_uris":{"android":"levelo://app?vid=4a6bc899-4386-403a-85bd-a0b6e4730c86","ios":"levelo://app?vid=4a6bc899-4386-403a-85bd-a0b6e4730c86"},"vehicle_type_id":"4","last_reported":1783372803,"current_range_meters":2800,"station_id":"ce4bhdp2rcd13ifvqf20","pricing_plan_id":"cebpf4jnsgd1na2vs0mg"},{"bike_id":"57da2852-1da1-495c-a1f0-abbdaa24e088","system_id":"levelo_inurba_marseille","lat":43.23189,"lon":5.3998,"is_reserved":false,"is_disabled":false,"rental_uris":{"android":"levelo://app?vid=57da2852-1da1-495c-a1f0-abbdaa24e088","ios":"levelo://app?vid=57da2852-1da1-495c-a1f0-abbdaa24e088"},"vehicle_type_id":"4","last_reported":1783372803,"current_range_meters":2800,"station_id":"ce4bhn12rcd13ifvqgqg","pricing_plan_id":"cebpf4jnsgd1na2vs0mg"},{"bike_id":"d8ce76d9-23e6-4ca6-b16c-28324a986df9","system_id":"levelo_inurba_marseille","lat":43.24386,"lon":5.37069,"is_reserved":false,"is_disabled":false,"rental_uris":{"android":"levelo://app?vid=d8ce76d9-23e6-4ca6-b16c-28324a986df9","ios":"levelo://app?vid=d8ce76d9-23e6-4ca6-b16c-28324a986df9"},"vehicle_type_id":"4","last_reported":1783372803,"current_range_meters":2800,"station_id":"ce4bhhh2rcd13ifvqfk0","pricing_plan_id":"cebpf4jnsgd1na2vs0mg"},{"bike_id":"86689baf-2a75-4acd-9528-40f049233350","system_id":"levelo_inurba_marseille","lat":43.279997,"lon":5.400141,"is_reserved":false,"is_disabled":false,"rental_uris":{"android":"levelo://app?vid=86689baf-2a75-4acd-9528-40f049233350","ios":"levelo://app?vid=86689baf-2a75-4acd-9528-40f049233350"},"vehicle_type_id":"4","last_reported":1783372803,"current_range_meters":2800,"station_id":"ce4bho92rcd13ifvqh4g","pricing_plan_id":"cebpf4jnsgd1na2vs0mg"},{"bike_id":"e1016c19-fba9-44ef-9d74-26916ff7d026","system_id":"levelo_inurba_marseille","lat":43.303237,"lon":5.404401,"is_reserved":false,"is_disabled":false,"rental_uris":{"android":"levelo://app?vid=e1016c19-fba9-44ef-9d74-26916ff7d026","ios":"levelo://app?vid=e1016c19-fba9-44ef-9d74-26916ff7d026"},"vehicle_type_id":"4","last_reported":1783372803,"current_range_meters":2800,"station_id":"ce4bh012rcd13ifvqd10","pricing_plan_id":"cebpf4jnsgd1na2vs0mg"},{"bike_id":"a12a4f83-c050-4064-a9cd-bf7775a31f2f","system_id":"levelo_inurba_marseille","lat":43.24672,"lon":5.38178,"is_reserved":false,"is_disabled":true,"rental_uris":{"android":"levelo://app?vid=a12a4f83-c050-4064-a9cd-bf7775a31f2f","ios":"levelo://app?vid=a12a4f83-c050-4064-a9cd-bf7775a31f2f"},"vehicle_type_id":"4","last_reported":1783372803,"current_range_meters":2800,"station_id":"ce4bhih2rcd13ifvqfr0","pricing_plan_id":"cebpf4jnsgd1na2vs0mg"},{"bike_id":"030265b2-4dd1-44f4-b998-e3903e3adbf1","system_id":"levelo_inurba_marseille","lat":43.28609,"lon":5.37059,"is_reserved":false,"is_disabled":true,"rental_uris":{"android":"levelo://app?vid=030265b2-4dd1-44f4-b998-e3903e3adbf1","ios":"levelo://app?vid=030265b2-4dd1-44f4-b998-e3903e3adbf1"},"vehicle_type_id":"4","last_reported":1783372803,"current_range_meters":2800,"station_id":"ce4bht12rcd13ifvqi60","pricing_plan_id":"cebpf4jnsgd1na2vs0mg"},{"bike_id":"6615886b-74f9-497e-8ba7-a60ccb6fd329","system_id":"levelo_inurba_marseille","lat":43.26036,"lon":5.39804,"is_reserved":false,"is_disabled":false,"rental_uris":{"android":"levelo://app?vid=6615886b-74f9-497e-8ba7-a60ccb6fd329","ios":"levelo://app?vid=6615886b-74f9-497e-8ba7-a60ccb6fd329"},"vehicle_type_id":"4","last_reported":1783372803,"current_range_meters":2800,"station_id":"","pricing_plan_id":"cebpf4jnsgd1na2vs0mg"},{"bike_id":"9aad7fb2-4b68-4ff1-a63e-5832ca4f6501","system_id":"levelo_inurba_marseille","lat":43.26928,"lon":5.3853,"is_reserved":false,"is_disabled":false,"rental_uris":{"android":"levelo://app?vid=9aad7fb2-4b68-4ff1-a63e-5832ca4f6501","ios":"levelo://app?vid=9aad7fb2-4b68-4ff1-a63e-5832ca4f6501"},"vehicle_type_id":"4","last_reported":1783372803,"current_range_meters":2800,"station_id":"","pricing_plan_id":"cebpf4jnsgd1na2vs0mg"},{"bike_id":"62507713-1708-4778-955e-189921adeb54","system_id":"levelo_inurba_marseille","lat":43.26587,"lon":5.42064,"is_reserved":false,"is_disabled":false,"rental_uris":{"android":"levelo://app?vid=62507713-1708-4778-955e-189921adeb54","ios":"levelo://app?vid=62507713-1708-4778-955e-189921adeb54"},"vehicle_type_id":"4","last_reported":1783372803,"current_range_meters":2800,"station_id":"","pricing_plan_id":"cebpf4jnsgd1na2vs0mg"},{"bike_id":"8a26beec-8245-413d-b4d8-c88544649c63","system_id":"levelo_inurba_marseille","lat":43.29247,"lon":5.38445,"is_reserved":false,"is_disabled":false,"rental_uris":{"android":"levelo://app?vid=8a26beec-8245-413d-b4d8-c88544649c63","ios":"levelo://app?vid=8a26beec-8245-413d-b4d8-c88544649c63"},"vehicle_type_id":"4","last_reported":1783372803,"current_range_meters":2800,"station_id":"ce4bh692rcd13ifvqea0","pricing_plan_id":"cebpf4jnsgd1na2vs0mg"},{"bike_id":"d77cc863-5cb1-45dd-b41f-de07cd7f6770","system_id":"levelo_inurba_marseille","lat":43.2778,"lon":5.35519,"is_reserved":false,"is_disabled":false,"rental_uris":{"android":"levelo://app?vid=d77cc863-5cb1-45dd-b41f-de07cd7f6770","ios":"levelo://app?vid=d77cc863-5cb1-45dd-b41f-de07cd7f6770"},"vehicle_type_id":"4","last_reported":1783372803,"current_range_meters":2800,"station_id":"","pricing_plan_id":"cebpf4jnsgd1na2vs0mg"},{"bike_id":"6bfd3708-ecb7-4dba-86f0-257e1a211ba5","system_id":"levelo_inurba_marseille","lat":43.30708,"lon":5.37372,"is_reserved":false,"is_disabled":false,"rental_uris":{"android":"levelo://app?vid=6bfd3708-ecb7-4dba-86f0-257e1a211ba5","ios":"levelo://app?vid=6bfd3708-ecb7-4dba-86f0-257e1a211ba5"},"vehicle_type_id":"4","last_reported":1783372803,"current_range_meters":2800,"station_id":"","pricing_plan_id":"cebpf4jnsgd1na2vs0mg"},{"bike_id":"5451e00f-4796-484d-aabd-f20a0ce38c64","system_id":"levelo_inurba_marseille","lat":43.31757,"lon":5.3902,"is_reserved":false,"is_disabled":false,"rental_uris":{"android":"levelo://app?vid=5451e00f-4796-484d-aabd-f20a0ce38c64","ios":"levelo://app?vid=5451e00f-4796-484d-aabd-f20a0ce38c64"},"vehicle_type_id":"4","last_reported":1783372803,"current_range_meters":2800,"station_id":"ce4bhqp2rcd13ifvqhng","pricing_plan_id":"cebpf4jnsgd1na2vs0mg"},{"bike_id":"3fcf6205-f23c-4cee-8363-04389955351d","system_id":"levelo_inurba_marseille","lat":43.22586,"lon":5.41593,"is_reserved":false,"is_disabled":true,"rental_uris":{"android":"levelo://app?vid=3fcf6205-f23c-4cee-8363-04389955351d","ios":"levelo://app?vid=3fcf6205-f23c-4cee-8363-04389955351d"},"vehicle_type_id":"4","last_reported":1783372803,"current_range_meters":3200,"station_id":"st_d2o4gvlbi1j2169b742g","pricing_plan_id":"cebpf4jnsgd1na2vs0mg"},{"bike_id":"700c44ce-0321-4baa-a469-9a23fb7d8608","system_id":"levelo_inurba_marseille","lat":43.29177,"lon":5.37162,"is_reserved":false,"is_disabled":false,"rental_uris":{"android":"levelo://app?vid=700c44ce-0321-4baa-a469-9a23fb7d8608","ios":"levelo://app?vid=700c44ce-0321-4baa-a469-9a23fb7d8608"},"vehicle_type_id":"4","last_reported":1783372803,"current_range_meters":3200,"station_id":"","pricing_plan_id":"cebpf4jnsgd1na2vs0mg"},{"bike_id":"0aacd0f5-8549-4a8f-9e00-1b8187b70e22","system_id":"levelo_inurba_marseille","lat":43.2975,"lon":5.38537,"is_reserved":false,"is_disabled":false,"rental_uris":{"android":"levelo://app?vid=0aacd0f5-8549-4a8f-9e00-1b8187b70e22","ios":"levelo://app?vid=0aacd0f5-8549-4a8f-9e00-1b8187b70e22"},"vehicle_type_id":"4","last_reported":1783372803,"current_range_meters":3200,"station_id":"","pricing_plan_id":"cebpf4jnsgd1na2vs0mg"},{"bike_id":"bde8118f-35af-4eec-a975-1078d30bedc7","system_id":"levelo_inurba_marseille","lat":43.31883,"lon":5.40733,"is_reserved":false,"is_disabled":false,"rental_uris":{"android":"levelo://app?vid=bde8118f-35af-4eec-a975-1078d30bedc7","ios":"levelo://app?vid=bde8118f-35af-4eec-a975-1078d30bedc7"},"vehicle_type_id":"4","last_reported":1783372803,"current_range_meters":3200,"station_id":"ce4bhq12rcd13ifvqhig","pricing_plan_id":"cebpf4jnsgd1na2vs0mg"},{"bike_id":"d8ffdd50-a586-4691-8671-a1a286792129","system_id":"levelo_inurba_marseille","lat":43.29258,"lon":5.40916,"is_reserved":false,"is_disabled":false,"rental_uris":{"android":"levelo://app?vid=d8ffdd50-a586-4691-8671-a1a286792129","ios":"levelo://app?vid=d8ffdd50-a586-4691-8671-a1a286792129"},"vehicle_type_id":"4","last_reported":1783372803,"current_range_meters":3200,"station_id":"ce4bh192rcd13ifvqdc0","pricing_plan_id":"cebpf4jnsgd1na2vs0mg"},{"bike_id":"acb6b183-d4d6-4d8e-974e-924b61f91a80","system_id":"levelo_inurba_marseille","lat":43.34403,"lon":5.42044,"is_reserved":false,"is_disabled":false,"rental_uris":{"android":"levelo://app?vid=acb6b183-d4d6-4d8e-974e-924b61f91a80","ios":"levelo://app?vid=acb6b183-d4d6-4d8e-974e-924b61f91a80"},"vehicle_type_id":"4","last_reported":1783372803,"current_range_meters":3200,"station_id":"","pricing_plan_id":"cebpf4jnsgd1na2vs0mg"},{"bike_id":"b58d7813-ef6c-476b-abd4-3ce1491500c2","system_id":"levelo_inurba_marseille","lat":43.33175,"lon":5.41307,"is_reserved":false,"is_disabled":false,"rental_uris":{"android":"levelo://app?vid=b58d7813-ef6c-476b-abd4-3ce1491500c2","ios":"levelo://app?vid=b58d7813-ef6c-476b-abd4-3ce1491500c2"},"vehicle_type_id":"4","last_reported":1783372803,"current_range_meters":3200,"station_id":"","pricing_plan_id":"cebpf4jnsgd1na2vs0mg"},{"bike_id":"f7826c83-beb8-416f-bc97-d9c1cfbddb0b","system_id":"levelo_inurba_marseille","lat":43.25158,"lon":5.4047,"is_reserved":false,"is_disabled":false,"rental_uris":{"android":"levelo://app?vid=f7826c83-beb8-416f-bc97-d9c1cfbddb0b","ios":"levelo://app?vid=f7826c83-beb8-416f-bc97-d9c1cfbddb0b"},"vehicle_type_id":"4","last_reported":1783372803,"current_range_meters":3200,"station_id":"","pricing_plan_id":"cebpf4jnsgd1na2vs0mg"},{"bike_id":"ebfcfeb0-3616-4114-be10-60ea01748775","system_id":"levelo_inurba_marseille","lat":43.31697,"lon":5.40452,"is_reserved":false,"is_disabled":false,"rental_uris":{"android":"levelo://app?vid=ebfcfeb0-3616-4114-be10-60ea01748775","ios":"levelo://app?vid=ebfcfeb0-3616-4114-be10-60ea01748775"},"vehicle_type_id":"4","last_reported":1783372803,"current_range_meters":3200,"station_id":"ce4bh012rcd13ifvqd00","pricing_plan_id":"cebpf4jnsgd1na2vs0mg"},{"bike_id":"8d88f53c-3084-451f-9b9b-c23069340389","system_id":"levelo_inurba_marseille","lat":43.30134,"lon":5.38798,"is_reserved":false,"is_disabled":false,"rental_uris":{"android":"levelo://app?vid=8d88f53c-3084-451f-9b9b-c23069340389","ios":"levelo://app?vid=8d88f53c-3084-451f-9b9b-c23069340389"},"vehicle_type_id":"4","last_reported":1783372803,"current_range_meters":3600,"station_id":"ce4bghh2rcd13ifvqb60","pricing_plan_id":"cebpf4jnsgd1na2vs0mg"},{"bike_id":"138e49e7-8d22-4832-895c-d97d918d2d72","system_id":"levelo_inurba_marseille","lat":43.27812,"lon":5.36447,"is_reserved":false,"is_disabled":false,"rental_uris":{"android":"levelo://app?vid=138e49e7-8d22-4832-895c-d97d918d2d72","ios":"levelo://app?vid=138e49e7-8d22-4832-895c-d97d918d2d72"},"vehicle_type_id":"4","last_reported":1783372803,"current_range_meters":3600,"station_id":"","pricing_plan_id":"cebpf4jnsgd1na2vs0mg"},{"bike_id":"994531ab-5b18-4e1d-bf5d-b26f11f0e08e","system_id":"levelo_inurba_marseille","lat":43.29061,"lon":5.37154,"is_reserved":false,"is_disabled":false,"rental_uris":{"android":"levelo://app?vid=994531ab-5b18-4e1d-bf5d-b26f11f0e08e","ios":"levelo://app?vid=994531ab-5b18-4e1d-bf5d-b26f11f0e08e"},"vehicle_type_id":"4","last_reported":1783372803,"current_range_meters":3600,"station_id":"ce4bh5p2rcd13ifvqe4g","pricing_plan_id":"cebpf4jnsgd1na2vs0mg"},{"bike_id":"1023a908-9665-4c19-b4e7-20631027e8e0","system_id":"levelo_inurba_marseille","lat":43.29606,"lon":5.38647,"is_reserved":false,"is_disabled":false,"rental_uris":{"android":"levelo://app?vid=1023a908-9665-4c19-b4e7-20631027e8e0","ios":"levelo://app?vid=1023a908-9665-4c19-b4e7-20631027e8e0"},"vehicle_type_id":"4","last_reported":1783372803,"current_range_meters":3600,"station_id":"","pricing_plan_id":"cebpf4jnsgd1na2vs0mg"},{"bike_id":"4d52a61b-5c30-41df-a6ac-71b42f016aed","system_id":"levelo_inurba_marseille","lat":43.25868,"lon":5.39918,"is_reserved":false,"is_disabled":true,"rental_uris":{"android":"levelo://app?vid=4d52a61b-5c30-41df-a6ac-71b42f016aed","ios":"levelo://app?vid=4d52a61b-5c30-41df-a6ac-71b42f016aed"},"vehicle_type_id":"4","last_reported":1783372803,"current_range_meters":3600,"station_id":"ce4bhl92rcd13ifvqghg","pricing_plan_id":"cebpf4jnsgd1na2vs0mg"},{"bike_id":"635f15d3-94fb-4b96-bb93-1aa74bc4d00c","system_id":"levelo_inurba_marseille","lat":43.26929,"lon":5.38933,"is_reserved":false,"is_disabled":false,"rental_uris":{"android":"levelo://app?vid=635f15d3-94fb-4b96-bb93-1aa74bc4d00c","ios":"levelo://app?vid=635f15d3-94fb-4b96-bb93-1aa74bc4d00c"},"vehicle_type_id":"4","last_reported":1783372803,"current_range_meters":3600,"station_id":"ce4bhhh2rcd13ifvqfl0","pricing_plan_id":"cebpf4jnsgd1na2vs0mg"},{"bike_id":"cc2fc28f-a297-4836-a638-dcf399b81853","system_id":"levelo_inurba_marseille","lat":43.27906,"lon":5.38006,"is_reserved":false,"is_disabled":false,"rental_uris":{"android":"levelo://app?vid=cc2fc28f-a297-4836-a638-dcf399b81853","ios":"levelo://app?vid=cc2fc28f-a297-4836-a638-dcf399b81853"},"vehicle_type_id":"4","last_reported":1783372803,"current_range_meters":3600,"station_id":"ce4bhf92rcd13ifvqf50","pricing_plan_id":"cebpf4jnsgd1na2vs0mg"},{"bike_id":"ebb69cdb-f57c-486a-9d37-3814132e26e5","system_id":"levelo_inurba_marseille","lat":43.28027,"lon":5.36951,"is_reserved":false,"is_disabled":true,"rental_uris":{"android":"levelo://app?vid=ebb69cdb-f57c-486a-9d37-3814132e26e5","ios":"levelo://app?vid=ebb69cdb-f57c-486a-9d37-3814132e26e5"},"vehicle_type_id":"4","last_reported":1783372803,"current_range_meters":3600,"station_id":"ce4bha12rcd13ifvqef0","pricing_plan_id":"cebpf4jnsgd1na2vs0mg"},{"bike_id":"49ab2764-f571-4f43-8b96-23d3b0325d1b","system_id":"levelo_inurba_marseille","lat":43.25373,"lon":5.38204,"is_reserved":false,"is_disabled":false,"rental_uris":{"android":"levelo://app?vid=49ab2764-f571-4f43-8b96-23d3b0325d1b","ios":"levelo://app?vid=49ab2764-f571-4f43-8b96-23d3b0325d1b"},"vehicle_type_id":"4","last_reported":1783372803,"current_range_meters":3600,"station_id":"","pricing_plan_id":"cebpf4jnsgd1na2vs0mg"},{"bike_id":"dc61f3ca-a8fb-4db0-b908-1581f301f45a","system_id":"levelo_inurba_marseille","lat":43.26564,"lon":5.39006,"is_reserved":false,"is_disabled":false,"rental_uris":{"android":"levelo://app?vid=dc61f3ca-a8fb-4db0-b908-1581f301f45a","ios":"levelo://app?vid=dc61f3ca-a8fb-4db0-b908-1581f301f45a"},"vehicle_type_id":"4","last_reported":1783372803,"current_range_meters":3600,"station_id":"ce4bhe12rcd13ifvqf30","pricing_plan_id":"cebpf4jnsgd1na2vs0mg"},{"bike_id":"294991c2-5f31-4dbc-ae72-10cc60f4207a","system_id":"levelo_inurba_marseille","lat":43.309518,"lon":5.390334,"is_reserved":false,"is_disabled":false,"rental_uris":{"android":"levelo://app?vid=294991c2-5f31-4dbc-ae72-10cc60f4207a","ios":"levelo://app?vid=294991c2-5f31-4dbc-ae72-10cc60f4207a"},"vehicle_type_id":"4","last_reported":1783372803,"current_range_meters":3600,"station_id":"ce4bgup2rcd13ifvqco0","pricing_plan_id":"cebpf4jnsgd1na2vs0mg"},{"bike_id":"785fd501-5018-456c-884e-928b7693af5e","system_id":"levelo_inurba_marseille","lat":43.29299,"lon":5.37166,"is_reserved":false,"is_disabled":false,"rental_uris":{"android":"levelo://app?vid=785fd501-5018-456c-884e-928b7693af5e","ios":"levelo://app?vid=785fd501-5018-456c-884e-928b7693af5e"},"vehicle_type_id":"4","last_reported":1783372803,"current_range_meters":3600,"station_id":"ce4bgh92rcd13ifvqb40","pricing_plan_id":"cebpf4jnsgd1na2vs0mg"},{"bike_id":"c9445652-b236-402b-8ec1-fb5567a22b0f","system_id":"levelo_inurba_marseille","lat":43.24477,"lon":5.40935,"is_reserved":false,"is_disabled":false,"rental_uris":{"android":"levelo://app?vid=c9445652-b236-402b-8ec1-fb5567a22b0f","ios":"levelo://app?vid=c9445652-b236-402b-8ec1-fb5567a22b0f"},"vehicle_type_id":"4","last_reported":1783372803,"current_range_meters":3600,"station_id":"","pricing_plan_id":"cebpf4jnsgd1na2vs0mg"},{"bike_id":"fc5d7b22-bed1-4640-a4b2-9379b1406486","system_id":"levelo_inurba_marseille","lat":43.29429,"lon":5.38424,"is_reserved":false,"is_disabled":true,"rental_uris":{"android":"levelo://app?vid=fc5d7b22-bed1-4640-a4b2-9379b1406486","ios":"levelo://app?vid=fc5d7b22-bed1-4640-a4b2-9379b1406486"},"vehicle_type_id":"4","last_reported":1783372803,"current_range_meters":3600,"station_id":"","pricing_plan_id":"cebpf4jnsgd1na2vs0mg"},{"bike_id":"0286511f-65d4-4258-b109-93ba4eb6c68e","system_id":"levelo_inurba_marseille","lat":43.29641,"lon":5.40608,"is_reserved":false,"is_disabled":false,"rental_uris":{"android":"levelo://app?vid=0286511f-65d4-4258-b109-93ba4eb6c68e","ios":"levelo://app?vid=0286511f-65d4-4258-b109-93ba4eb6c68e"},"vehicle_type_id":"4","last_reported":1783372803,"current_range_meters":3600,"station_id":"ce4bh0h2rcd13ifvqd60","pricing_plan_id":"cebpf4jnsgd1na2vs0mg"},{"bike_id":"c1c88b11-92f5-437b-85af-b745aa920b32","system_id":"levelo_inurba_marseille","lat":43.26688,"lon":5.3872,"is_reserved":false,"is_disabled":false,"rental_uris":{"android":"levelo://app?vid=c1c88b11-92f5-437b-85af-b745aa920b32","ios":"levelo://app?vid=c1c88b11-92f5-437b-85af-b745aa920b32"},"vehicle_type_id":"4","last_reported":1783372803,"current_range_meters":3600,"station_id":"","pricing_plan_id":"cebpf4jnsgd1na2vs0mg"},{"bike_id":"7c427d21-5ba3-47e9-b621-2ca7d29df3d2","system_id":"levelo_inurba_marseille","lat":43.28787,"lon":5.45778,"is_reserved":false,"is_disabled":false,"rental_uris":{"android":"levelo://app?vid=7c427d21-5ba3-47e9-b621-2ca7d29df3d2","ios":"levelo://app?vid=7c427d21-5ba3-47e9-b621-2ca7d29df3d2"},"vehicle_type_id":"4","last_reported":1783372803,"current_range_meters":3600,"station_id":"","pricing_plan_id":"cebpf4jnsgd1na2vs0mg"},{"bike_id":"70dc1bf6-fa64-4eb5-96f9-10a2cbaea3cf","system_id":"levelo_inurba_marseille","lat":43.28718,"lon":5.3607,"is_reserved":false,"is_disabled":false,"rental_uris":{"android":"levelo://app?vid=70dc1bf6-fa64-4eb5-96f9-10a2cbaea3cf","ios":"levelo://app?vid=70dc1bf6-fa64-4eb5-96f9-10a2cbaea3cf"},"vehicle_type_id":"4","last_reported":1783372803,"current_range_meters":3600,"station_id":"cki0cbj6b192h4jlfktg","pricing_plan_id":"cebpf4jnsgd1na2vs0mg"},{"bike_id":"a39c6e1d-94a9-49c6-b551-df3a8d0b3372","system_id":"levelo_inurba_marseille","lat":43.2853,"lon":5.44096,"is_reserved":false,"is_disabled":false,"rental_uris":{"android":"levelo://app?vid=a39c6e1d-94a9-49c6-b551-df3a8d0b3372","ios":"levelo://app?vid=a39c6e1d-94a9-49c6-b551-df3a8d0b3372"},"vehicle_type_id":"4","last_reported":1783372803,"current_range_meters":4000,"station_id":"st_d3j3df2ikq2c7380ej80","pricing_plan_id":"cebpf4jnsgd1na2vs0mg"},{"bike_id":"6561da10-7a09-4fd9-b043-45bdb7ded2ef","system_id":"levelo_inurba_marseille","lat":43.25108,"lon":5.40342,"is_reserved":false,"is_disabled":true,"rental_uris":{"android":"levelo://app?vid=6561da10-7a09-4fd9-b043-45bdb7ded2ef","ios":"levelo://app?vid=6561da10-7a09-4fd9-b043-45bdb7ded2ef"},"vehicle_type_id":"4","last_reported":1783372803,"current_range_meters":4000,"station_id":"ce4bhlh2rcd13ifvqgig","pricing_plan_id":"cebpf4jnsgd1na2vs0mg"},{"bike_id":"4c22d02d-dbf9-48df-a2d1-b3d33cea97d7","system_id":"levelo_inurba_marseille","lat":43.28855,"lon":5.39316,"is_reserved":false,"is_disabled":false,"rental_uris":{"android":"levelo://app?vid=4c22d02d-dbf9-48df-a2d1-b3d33cea97d7","ios":"levelo://app?vid=4c22d02d-dbf9-48df-a2d1-b3d33cea97d7"},"vehicle_type_id":"4","last_reported":1783372803,"current_range_meters":4000,"station_id":"ce4bh2p2rcd13ifvqdi0","pricing_plan_id":"cebpf4jnsgd1na2vs0mg"},{"bike_id":"5ffb4d2c-894a-4f7f-92d5-5c5e5ee77aed","system_id":"levelo_inurba_marseille","lat":43.29028,"lon":5.38648,"is_reserved":false,"is_disabled":false,"rental_uris":{"android":"levelo://app?vid=5ffb4d2c-894a-4f7f-92d5-5c5e5ee77aed","ios":"levelo://app?vid=5ffb4d2c-894a-4f7f-92d5-5c5e5ee77aed"},"vehicle_type_id":"4","last_reported":1783372803,"current_range_meters":4000,"station_id":"ce4bh4p2rcd13ifvqe0g","pricing_plan_id":"cebpf4jnsgd1na2vs0mg"},{"bike_id":"58b183a7-f417-40b3-bd08-c6553dfc83c1","system_id":"levelo_inurba_marseille","lat":43.29632,"lon":5.40607,"is_reserved":false,"is_disabled":false,"rental_uris":{"android":"levelo://app?vid=58b183a7-f417-40b3-bd08-c6553dfc83c1","ios":"levelo://app?vid=58b183a7-f417-40b3-bd08-c6553dfc83c1"},"vehicle_type_id":"4","last_reported":1783372803,"current_range_meters":4000,"station_id":"ce4bh0h2rcd13ifvqd60","pricing_plan_id":"cebpf4jnsgd1na2vs0mg"},{"bike_id":"7a71c416-c3b5-4289-ad0e-531bcb18f06d","system_id":"levelo_inurba_marseille","lat":43.32069,"lon":5.37455,"is_reserved":false,"is_disabled":false,"rental_uris":{"android":"levelo://app?vid=7a71c416-c3b5-4289-ad0e-531bcb18f06d","ios":"levelo://app?vid=7a71c416-c3b5-4289-ad0e-531bcb18f06d"},"vehicle_type_id":"4","last_reported":1783372803,"current_range_meters":4000,"station_id":"","pricing_plan_id":"cebpf4jnsgd1na2vs0mg"},{"bike_id":"85375d55-e0d1-447d-809b-18247820754d","system_id":"levelo_inurba_marseille","lat":43.28909,"lon":5.48148,"is_reserved":false,"is_disabled":false,"rental_uris":{"android":"levelo://app?vid=85375d55-e0d1-447d-809b-18247820754d","ios":"levelo://app?vid=85375d55-e0d1-447d-809b-18247820754d"},"vehicle_type_id":"4","last_reported":1783372803,"current_range_meters":4000,"station_id":"","pricing_plan_id":"cebpf4jnsgd1na2vs0mg"},{"bike_id":"82e066d7-05da-4c4f-b4ec-9a49eaab1a15","system_id":"levelo_inurba_marseille","lat":43.294333,"lon":5.397617,"is_reserved":false,"is_disabled":false,"rental_uris":{"android":"levelo://app?vid=82e066d7-05da-4c4f-b4ec-9a49eaab1a15","ios":"levelo://app?vid=82e066d7-05da-4c4f-b4ec-9a49eaab1a15"},"vehicle_type_id":"4","last_reported":1783372803,"current_range_meters":4000,"station_id":"ce4bh3h2rcd13ifvqdo0","pricing_plan_id":"cebpf4jnsgd1na2vs0mg"},{"bike_id":"fa7fd4a0-3476-4391-83d6-a27453ad28d6","system_id":"levelo_inurba_marseille","lat":43.24659,"lon":5.38159,"is_reserved":false,"is_disabled":false,"rental_uris":{"android":"levelo://app?vid=fa7fd4a0-3476-4391-83d6-a27453ad28d6","ios":"levelo://app?vid=fa7fd4a0-3476-4391-83d6-a27453ad28d6"},"vehicle_type_id":"4","last_reported":1783372803,"current_range_meters":4000,"station_id":"ce4bhih2rcd13ifvqfr0","pricing_plan_id":"cebpf4jnsgd1na2vs0mg"},{"bike_id":"db8a891d-01a8-477c-86bb-61f9ddbc2ad3","system_id":"levelo_inurba_marseille","lat":43.24945,"lon":5.40501,"is_reserved":false,"is_disabled":false,"rental_uris":{"android":"levelo://app?vid=db8a891d-01a8-477c-86bb-61f9ddbc2ad3","ios":"levelo://app?vid=db8a891d-01a8-477c-86bb-61f9ddbc2ad3"},"vehicle_type_id":"4","last_reported":1783372803,"current_range_meters":4000,"station_id":"st_d2ngiaodas8pm72gd1h0","pricing_plan_id":"cebpf4jnsgd1na2vs0mg"},{"bike_id":"d5a4aa2d-cb43-47d6-af76-dda19b880491","system_id":"levelo_inurba_marseille","lat":43.28483,"lon":5.48408,"is_reserved":false,"is_disabled":false,"rental_uris":{"android":"levelo://app?vid=d5a4aa2d-cb43-47d6-af76-dda19b880491","ios":"levelo://app?vid=d5a4aa2d-cb43-47d6-af76-dda19b880491"},"vehicle_type_id":"4","last_reported":1783372803,"current_range_meters":4000,"station_id":"st_d3svhcjqgbts73a3dn0g","pricing_plan_id":"cebpf4jnsgd1na2vs0mg"},{"bike_id":"24101c5c-8eb7-4f51-a037-e1fbe9f469c5","system_id":"levelo_inurba_marseille","lat":43.25013,"lon":5.37957,"is_reserved":false,"is_disabled":false,"rental_uris":{"android":"levelo://app?vid=24101c5c-8eb7-4f51-a037-e1fbe9f469c5","ios":"levelo://app?vid=24101c5c-8eb7-4f51-a037-e1fbe9f469c5"},"vehicle_type_id":"4","last_reported":1783372803,"current_range_meters":4000,"station_id":"","pricing_plan_id":"cebpf4jnsgd1na2vs0mg"},{"bike_id":"68f15f16-03e7-4500-a627-dad23dd9e9de","system_id":"levelo_inurba_marseille","lat":43.26062,"lon":5.37497,"is_reserved":false,"is_disabled":false,"rental_uris":{"android":"levelo://app?vid=68f15f16-03e7-4500-a627-dad23dd9e9de","ios":"levelo://app?vid=68f15f16-03e7-4500-a627-dad23dd9e9de"},"vehicle_type_id":"4","last_reported":1783372803,"current_range_meters":4000,"station_id":"","pricing_plan_id":"cebpf4jnsgd1na2vs0mg"},{"bike_id":"4508f1bf-b054-47ef-b47b-1a62a4f8a3e9","system_id":"levelo_inurba_marseille","lat":43.22824,"lon":5.34976,"is_reserved":false,"is_disabled":false,"rental_uris":{"android":"levelo://app?vid=4508f1bf-b054-47ef-b47b-1a62a4f8a3e9","ios":"levelo://app?vid=4508f1bf-b054-47ef-b47b-1a62a4f8a3e9"},"vehicle_type_id":"4","last_reported":1783372803,"current_range_meters":4000,"station_id":"","pricing_plan_id":"cebpf4jnsgd1na2vs0mg"},{"bike_id":"0c0c7219-2116-40ed-a579-e510aca1b985","system_id":"levelo_inurba_marseille","lat":43.26365,"lon":5.41075,"is_reserved":false,"is_disabled":false,"rental_uris":{"android":"levelo://app?vid=0c0c7219-2116-40ed-a579-e510aca1b985","ios":"levelo://app?vid=0c0c7219-2116-40ed-a579-e510aca1b985"},"vehicle_type_id":"4","last_reported":1783372803,"current_range_meters":4000,"station_id":"st_d4e5ca6na9uc73bfl5fg","pricing_plan_id":"cebpf4jnsgd1na2vs0mg"},{"bike_id":"66296cca-1fb1-4026-b28e-9962b7dd7cfc","system_id":"levelo_inurba_marseille","lat":43.296288,"lon":5.377172,"is_reserved":false,"is_disabled":true,"rental_uris":{"android":"levelo://app?vid=66296cca-1fb1-4026-b28e-9962b7dd7cfc","ios":"levelo://app?vid=66296cca-1fb1-4026-b28e-9962b7dd7cfc"},"vehicle_type_id":"4","last_reported":1783372803,"current_range_meters":4000,"station_id":"ce4bha92rcd13ifvqeh0","pricing_plan_id":"cebpf4jnsgd1na2vs0mg"},{"bike_id":"87da481c-7e44-49ce-9617-64ee4bd27ca4","system_id":"levelo_inurba_marseille","lat":43.26408,"lon":5.39898,"is_reserved":false,"is_disabled":false,"rental_uris":{"android":"levelo://app?vid=87da481c-7e44-49ce-9617-64ee4bd27ca4","ios":"levelo://app?vid=87da481c-7e44-49ce-9617-64ee4bd27ca4"},"vehicle_type_id":"4","last_reported":1783372803,"current_range_meters":4000,"station_id":"","pricing_plan_id":"cebpf4jnsgd1na2vs0mg"},{"bike_id":"aff0189f-3189-492d-9c2b-d00146413cd3","system_id":"levelo_inurba_marseille","lat":43.28101,"lon":5.37843,"is_reserved":false,"is_disabled":false,"rental_uris":{"android":"levelo://app?vid=aff0189f-3189-492d-9c2b-d00146413cd3","ios":"levelo://app?vid=aff0189f-3189-492d-9c2b-d00146413cd3"},"vehicle_type_id":"4","last_reported":1783372803,"current_range_meters":4400,"station_id":"ce4bha12rcd13ifvqee0","pricing_plan_id":"cebpf4jnsgd1na2vs0mg"},{"bike_id":"c3d94bf3-19b7-443d-bc75-2bac8eb17cbe","system_id":"levelo_inurba_marseille","lat":43.33134,"lon":5.39817,"is_reserved":false,"is_disabled":false,"rental_uris":{"android":"levelo://app?vid=c3d94bf3-19b7-443d-bc75-2bac8eb17cbe","ios":"levelo://app?vid=c3d94bf3-19b7-443d-bc75-2bac8eb17cbe"},"vehicle_type_id":"4","last_reported":1783372803,"current_range_meters":4400,"station_id":"","pricing_plan_id":"cebpf4jnsgd1na2vs0mg"},{"bike_id":"fff6250b-43c6-49a4-86df-1a4ad13c407f","system_id":"levelo_inurba_marseille","lat":43.27367,"lon":5.36252,"is_reserved":false,"is_disabled":true,"rental_uris":{"android":"levelo://app?vid=fff6250b-43c6-49a4-86df-1a4ad13c407f","ios":"levelo://app?vid=fff6250b-43c6-49a4-86df-1a4ad13c407f"},"vehicle_type_id":"4","last_reported":1783372803,"current_range_meters":4400,"station_id":"ce4bhbh2rcd13ifvqeo0","pricing_plan_id":"cebpf4jnsgd1na2vs0mg"},{"bike_id":"aa5d8214-0026-487e-9a56-7cf88ff50400","system_id":"levelo_inurba_marseille","lat":43.32287,"lon":5.38266,"is_reserved":false,"is_disabled":false,"rental_uris":{"android":"levelo://app?vid=aa5d8214-0026-487e-9a56-7cf88ff50400","ios":"levelo://app?vid=aa5d8214-0026-487e-9a56-7cf88ff50400"},"vehicle_type_id":"4","last_reported":1783372803,"current_range_meters":4400,"station_id":"ce4bhr12rcd13ifvqhqg","pricing_plan_id":"cebpf4jnsgd1na2vs0mg"},{"bike_id":"871f3ed7-a4b0-4e09-9105-27dce2165e99","system_id":"levelo_inurba_marseille","lat":43.29859,"lon":5.38903,"is_reserved":false,"is_disabled":true,"rental_uris":{"android":"levelo://app?vid=871f3ed7-a4b0-4e09-9105-27dce2165e99","ios":"levelo://app?vid=871f3ed7-a4b0-4e09-9105-27dce2165e99"},"vehicle_type_id":"4","last_reported":1783372803,"current_range_meters":4400,"station_id":"ce4bh392rcd13ifvqdl0","pricing_plan_id":"cebpf4jnsgd1na2vs0mg"},{"bike_id":"c223056a-cee4-44b0-b411-9e874d6d5516","system_id":"levelo_inurba_marseille","lat":43.29486,"lon":5.39918,"is_reserved":false,"is_disabled":false,"rental_uris":{"android":"levelo://app?vid=c223056a-cee4-44b0-b411-9e874d6d5516","ios":"levelo://app?vid=c223056a-cee4-44b0-b411-9e874d6d5516"},"vehicle_type_id":"4","last_reported":1783372803,"current_range_meters":4400,"station_id":"","pricing_plan_id":"cebpf4jnsgd1na2vs0mg"},{"bike_id":"1b3387d5-b042-4c75-9dea-b2f5bf6f53d4","system_id":"levelo_inurba_marseille","lat":43.24184,"lon":5.39697,"is_reserved":false,"is_disabled":true,"rental_uris":{"android":"levelo://app?vid=1b3387d5-b042-4c75-9dea-b2f5bf6f53d4","ios":"levelo://app?vid=1b3387d5-b042-4c75-9dea-b2f5bf6f53d4"},"vehicle_type_id":"4","last_reported":1783372803,"current_range_meters":4400,"station_id":"ce4bhn12rcd13ifvqgpg","pricing_plan_id":"cebpf4jnsgd1na2vs0mg"},{"bike_id":"3fb512db-d0d3-499f-82d9-15e92f8c7d35","system_id":"levelo_inurba_marseille","lat":43.25511,"lon":5.37641,"is_reserved":false,"is_disabled":false,"rental_uris":{"android":"levelo://app?vid=3fb512db-d0d3-499f-82d9-15e92f8c7d35","ios":"levelo://app?vid=3fb512db-d0d3-499f-82d9-15e92f8c7d35"},"vehicle_type_id":"4","last_reported":1783372803,"current_range_meters":4400,"station_id":"ce4bhh12rcd13ifvqff0","pricing_plan_id":"cebpf4jnsgd1na2vs0mg"},{"bike_id":"451d79a4-d61c-4c2b-8153-2e7a854d773a","system_id":"levelo_inurba_marseille","lat":43.26347,"lon":5.41072,"is_reserved":false,"is_disabled":false,"rental_uris":{"android":"levelo://app?vid=451d79a4-d61c-4c2b-8153-2e7a854d773a","ios":"levelo://app?vid=451d79a4-d61c-4c2b-8153-2e7a854d773a"},"vehicle_type_id":"4","last_reported":1783372803,"current_range_meters":4400,"station_id":"st_d4e5ca6na9uc73bfl5fg","pricing_plan_id":"cebpf4jnsgd1na2vs0mg"},{"bike_id":"20caa1fc-06d5-4252-9f45-594b25108b35","system_id":"levelo_inurba_marseille","lat":43.28471,"lon":5.48412,"is_reserved":false,"is_disabled":false,"rental_uris":{"android":"levelo://app?vid=20caa1fc-06d5-4252-9f45-594b25108b35","ios":"levelo://app?vid=20caa1fc-06d5-4252-9f45-594b25108b35"},"vehicle_type_id":"4","last_reported":1783372803,"current_range_meters":4400,"station_id":"st_d3svhcjqgbts73a3dn0g","pricing_plan_id":"cebpf4jnsgd1na2vs0mg"},{"bike_id":"c24b0d68-14d9-44af-8b0c-35f8569c6d0c","system_id":"levelo_inurba_marseille","lat":43.28478,"lon":5.38559,"is_reserved":false,"is_disabled":true,"rental_uris":{"android":"levelo://app?vid=c24b0d68-14d9-44af-8b0c-35f8569c6d0c","ios":"levelo://app?vid=c24b0d68-14d9-44af-8b0c-35f8569c6d0c"},"vehicle_type_id":"4","last_reported":1783372803,"current_range_meters":4400,"station_id":"ce4bh8p2rcd13ifvqeb0","pricing_plan_id":"cebpf4jnsgd1na2vs0mg"},{"bike_id":"5d8ae476-a0f0-4308-9aeb-9084905e683d","system_id":"levelo_inurba_marseille","lat":43.29705,"lon":5.36616,"is_reserved":false,"is_disabled":false,"rental_uris":{"android":"levelo://app?vid=5d8ae476-a0f0-4308-9aeb-9084905e683d","ios":"levelo://app?vid=5d8ae476-a0f0-4308-9aeb-9084905e683d"},"vehicle_type_id":"4","last_reported":1783372803,"current_range_meters":4400,"station_id":"ce4bgn12rcd13ifvqbt0","pricing_plan_id":"cebpf4jnsgd1na2vs0mg"},{"bike_id":"d9fa5dbe-9eca-4210-ba2d-c3f22c1954c9","system_id":"levelo_inurba_marseille","lat":43.28106,"lon":5.37838,"is_reserved":false,"is_disabled":false,"rental_uris":{"android":"levelo://app?vid=d9fa5dbe-9eca-4210-ba2d-c3f22c1954c9","ios":"levelo://app?vid=d9fa5dbe-9eca-4210-ba2d-c3f22c1954c9"},"vehicle_type_id":"4","last_reported":1783372803,"current_range_meters":4400,"station_id":"ce4bha12rcd13ifvqee0","pricing_plan_id":"cebpf4jnsgd1na2vs0mg"},{"bike_id":"72ceab28-108a-4555-b0ac-c2938c047c38","system_id":"levelo_inurba_marseille","lat":43.30586,"lon":5.37211,"is_reserved":false,"is_disabled":false,"rental_uris":{"android":"levelo://app?vid=72ceab28-108a-4555-b0ac-c2938c047c38","ios":"levelo://app?vid=72ceab28-108a-4555-b0ac-c2938c047c38"},"vehicle_type_id":"4","last_reported":1783372803,"current_range_meters":4400,"station_id":"ce4bgqh2rcd13ifvqc4g","pricing_plan_id":"cebpf4jnsgd1na2vs0mg"},{"bike_id":"e13a64ad-fa2f-4c2f-81b0-7fcb824df2f9","system_id":"levelo_inurba_marseille","lat":43.23969,"lon":5.36632,"is_reserved":false,"is_disabled":false,"rental_uris":{"android":"levelo://app?vid=e13a64ad-fa2f-4c2f-81b0-7fcb824df2f9","ios":"levelo://app?vid=e13a64ad-fa2f-4c2f-81b0-7fcb824df2f9"},"vehicle_type_id":"4","last_reported":1783372803,"current_range_meters":4400,"station_id":"ce4bhi12rcd13ifvqfp0","pricing_plan_id":"cebpf4jnsgd1na2vs0mg"},{"bike_id":"f0418703-7a27-4dca-9433-bdd8213135dc","system_id":"levelo_inurba_marseille","lat":43.21183,"lon":5.35086,"is_reserved":false,"is_disabled":false,"rental_uris":{"android":"levelo://app?vid=f0418703-7a27-4dca-9433-bdd8213135dc","ios":"levelo://app?vid=f0418703-7a27-4dca-9433-bdd8213135dc"},"vehicle_type_id":"4","last_reported":1783372803,"current_range_meters":4800,"station_id":"st_cvj6sg6p6f1abm77japg","pricing_plan_id":"cebpf4jnsgd1na2vs0mg"},{"bike_id":"268860b7-a6e7-4b6e-a857-94d1ec5f8071","system_id":"levelo_inurba_marseille","lat":43.29185,"lon":5.35794,"is_reserved":false,"is_disabled":true,"rental_uris":{"android":"levelo://app?vid=268860b7-a6e7-4b6e-a857-94d1ec5f8071","ios":"levelo://app?vid=268860b7-a6e7-4b6e-a857-94d1ec5f8071"},"vehicle_type_id":"4","last_reported":1783372803,"current_range_meters":4800,"station_id":"ce4bhb12rcd13ifvqel0","pricing_plan_id":"cebpf4jnsgd1na2vs0mg"},{"bike_id":"6584fea4-3aeb-4646-91eb-6103f8071261","system_id":"levelo_inurba_marseille","lat":43.31068,"lon":5.40064,"is_reserved":false,"is_disabled":false,"rental_uris":{"android":"levelo://app?vid=6584fea4-3aeb-4646-91eb-6103f8071261","ios":"levelo://app?vid=6584fea4-3aeb-4646-91eb-6103f8071261"},"vehicle_type_id":"4","last_reported":1783372803,"current_range_meters":4800,"station_id":"","pricing_plan_id":"cebpf4jnsgd1na2vs0mg"},{"bike_id":"fb2e8bd1-8803-4d96-b5e9-5618c029fbea","system_id":"levelo_inurba_marseille","lat":43.28703,"lon":5.37914,"is_reserved":false,"is_disabled":true,"rental_uris":{"android":"levelo://app?vid=fb2e8bd1-8803-4d96-b5e9-5618c029fbea","ios":"levelo://app?vid=fb2e8bd1-8803-4d96-b5e9-5618c029fbea"},"vehicle_type_id":"4","last_reported":1783372803,"current_range_meters":4800,"station_id":"ce4bh9p2rcd13ifvqec0","pricing_plan_id":"cebpf4jnsgd1na2vs0mg"},{"bike_id":"5f8491b7-6afe-4763-8c6d-f7eadff0e4de","system_id":"levelo_inurba_marseille","lat":43.26508,"lon":5.36949,"is_reserved":false,"is_disabled":true,"rental_uris":{"android":"levelo://app?vid=5f8491b7-6afe-4763-8c6d-f7eadff0e4de","ios":"levelo://app?vid=5f8491b7-6afe-4763-8c6d-f7eadff0e4de"},"vehicle_type_id":"4","last_reported":1783372803,"current_range_meters":4800,"station_id":"","pricing_plan_id":"cebpf4jnsgd1na2vs0mg"},{"bike_id":"cf203d97-f3a6-45fd-bcad-f818fb94be20","system_id":"levelo_inurba_marseille","lat":43.23196,"lon":5.39977,"is_reserved":false,"is_disabled":false,"rental_uris":{"android":"levelo://app?vid=cf203d97-f3a6-45fd-bcad-f818fb94be20","ios":"levelo://app?vid=cf203d97-f3a6-45fd-bcad-f818fb94be20"},"vehicle_type_id":"4","last_reported":1783372803,"current_range_meters":4800,"station_id":"ce4bhn12rcd13ifvqgqg","pricing_plan_id":"cebpf4jnsgd1na2vs0mg"},{"bike_id":"7a6ed2d9-93d0-4e64-8e5b-cfdec08c8f85","system_id":"levelo_inurba_marseille","lat":43.29519,"lon":5.39411,"is_reserved":false,"is_disabled":false,"rental_uris":{"android":"levelo://app?vid=7a6ed2d9-93d0-4e64-8e5b-cfdec08c8f85","ios":"levelo://app?vid=7a6ed2d9-93d0-4e64-8e5b-cfdec08c8f85"},"vehicle_type_id":"4","last_reported":1783372803,"current_range_meters":4800,"station_id":"ce4bh292rcd13ifvqdf0","pricing_plan_id":"cebpf4jnsgd1na2vs0mg"},{"bike_id":"92a0c0cb-0818-4864-a9ba-8af564118461","system_id":"levelo_inurba_marseille","lat":43.32402,"lon":5.374,"is_reserved":false,"is_disabled":false,"rental_uris":{"android":"levelo://app?vid=92a0c0cb-0818-4864-a9ba-8af564118461","ios":"levelo://app?vid=92a0c0cb-0818-4864-a9ba-8af564118461"},"vehicle_type_id":"4","last_reported":1783372803,"current_range_meters":4800,"station_id":"","pricing_plan_id":"cebpf4jnsgd1na2vs0mg"},{"bike_id":"e9c7bfa8-5874-4f90-ad84-6bece76dfa23","system_id":"levelo_inurba_marseille","lat":43.29428,"lon":5.35947,"is_reserved":false,"is_disabled":false,"rental_uris":{"android":"levelo://app?vid=e9c7bfa8-5874-4f90-ad84-6bece76dfa23","ios":"levelo://app?vid=e9c7bfa8-5874-4f90-ad84-6bece76dfa23"},"vehicle_type_id":"4","last_reported":1783372803,"current_range_meters":4800,"station_id":"","pricing_plan_id":"cebpf4jnsgd1na2vs0mg"},{"bike_id":"d2974c90-490a-4ce0-82b2-9802a308be0c","system_id":"levelo_inurba_marseille","lat":43.28712,"lon":5.40034,"is_reserved":false,"is_disabled":true,"rental_uris":{"android":"levelo://app?vid=d2974c90-490a-4ce0-82b2-9802a308be0c","ios":"levelo://app?vid=d2974c90-490a-4ce0-82b2-9802a308be0c"},"vehicle_type_id":"4","last_reported":1783372803,"current_range_meters":4800,"station_id":"ce4bho92rcd13ifvqh3g","pricing_plan_id":"cebpf4jnsgd1na2vs0mg"},{"bike_id":"d0a0bbf6-38fc-4522-9194-0862de6eee0c","system_id":"levelo_inurba_marseille","lat":43.29386,"lon":5.37871,"is_reserved":false,"is_disabled":false,"rental_uris":{"android":"levelo://app?vid=d0a0bbf6-38fc-4522-9194-0862de6eee0c","ios":"levelo://app?vid=d0a0bbf6-38fc-4522-9194-0862de6eee0c"},"vehicle_type_id":"4","last_reported":1783372803,"current_range_meters":4800,"station_id":"ce4bgjh2rcd13ifvqbf0","pricing_plan_id":"cebpf4jnsgd1na2vs0mg"},{"bike_id":"77ccedaa-757d-484f-a0f6-18cba9a95669","system_id":"levelo_inurba_marseille","lat":43.2851,"lon":5.40544,"is_reserved":false,"is_disabled":false,"rental_uris":{"android":"levelo://app?vid=77ccedaa-757d-484f-a0f6-18cba9a95669","ios":"levelo://app?vid=77ccedaa-757d-484f-a0f6-18cba9a95669"},"vehicle_type_id":"4","last_reported":1783372803,"current_range_meters":4800,"station_id":"","pricing_plan_id":"cebpf4jnsgd1na2vs0mg"},{"bike_id":"19bd13c8-288d-4a5d-b3f9-03c90cb28fed","system_id":"levelo_inurba_marseille","lat":43.26341,"lon":5.38682,"is_reserved":false,"is_disabled":false,"rental_uris":{"android":"levelo://app?vid=19bd13c8-288d-4a5d-b3f9-03c90cb28fed","ios":"levelo://app?vid=19bd13c8-288d-4a5d-b3f9-03c90cb28fed"},"vehicle_type_id":"4","last_reported":1783372803,"current_range_meters":4800,"station_id":"","pricing_plan_id":"cebpf4jnsgd1na2vs0mg"},{"bike_id":"927f034a-0960-4153-81f1-316c469b9213","system_id":"levelo_inurba_marseille","lat":43.25855,"lon":5.39918,"is_reserved":false,"is_disabled":true,"rental_uris":{"android":"levelo://app?vid=927f034a-0960-4153-81f1-316c469b9213","ios":"levelo://app?vid=927f034a-0960-4153-81f1-316c469b9213"},"vehicle_type_id":"4","last_reported":1783372803,"current_range_meters":4800,"station_id":"ce4bhl92rcd13ifvqghg","pricing_plan_id":"cebpf4jnsgd1na2vs0mg"},{"bike_id":"afe9a566-d8c0-4f06-a183-9935532dd6e0","system_id":"levelo_inurba_marseille","lat":43.25267,"lon":5.37506,"is_reserved":false,"is_disabled":false,"rental_uris":{"android":"levelo://app?vid=afe9a566-d8c0-4f06-a183-9935532dd6e0","ios":"levelo://app?vid=afe9a566-d8c0-4f06-a183-9935532dd6e0"},"vehicle_type_id":"4","last_reported":1783372803,"current_range_meters":4800,"station_id":"","pricing_plan_id":"cebpf4jnsgd1na2vs0mg"},{"bike_id":"f094764f-2ddf-4452-be4a-c8029998973a","system_id":"levelo_inurba_marseille","lat":43.26681,"lon":5.39556,"is_reserved":false,"is_disabled":false,"rental_uris":{"android":"levelo://app?vid=f094764f-2ddf-4452-be4a-c8029998973a","ios":"levelo://app?vid=f094764f-2ddf-4452-be4a-c8029998973a"},"vehicle_type_id":"4","last_reported":1783372803,"current_range_meters":4800,"station_id":"","pricing_plan_id":"cebpf4jnsgd1na2vs0mg"},{"bike_id":"a3e9490f-5a0a-4c20-818c-92c869956a89","system_id":"levelo_inurba_marseille","lat":43.25091,"lon":5.395294,"is_reserved":false,"is_disabled":false,"rental_uris":{"android":"levelo://app?vid=a3e9490f-5a0a-4c20-818c-92c869956a89","ios":"levelo://app?vid=a3e9490f-5a0a-4c20-818c-92c869956a89"},"vehicle_type_id":"4","last_reported":1783372803,"current_range_meters":4800,"station_id":"ce4bhm12rcd13ifvqgkg","pricing_plan_id":"cebpf4jnsgd1na2vs0mg"},{"bike_id":"3aa33fdc-7e11-4755-b6ca-91c8941abb34","system_id":"levelo_inurba_marseille","lat":43.2952,"lon":5.38538,"is_reserved":false,"is_disabled":false,"rental_uris":{"android":"levelo://app?vid=3aa33fdc-7e11-4755-b6ca-91c8941abb34","ios":"levelo://app?vid=3aa33fdc-7e11-4755-b6ca-91c8941abb34"},"vehicle_type_id":"4","last_reported":1783372803,"current_range_meters":4800,"station_id":"ce4bgih2rcd13ifvqba0","pricing_plan_id":"cebpf4jnsgd1na2vs0mg"},{"bike_id":"da995ece-b413-4ae7-8af4-b3e727781c7e","system_id":"levelo_inurba_marseille","lat":43.28466,"lon":5.43735,"is_reserved":false,"is_disabled":false,"rental_uris":{"android":"levelo://app?vid=da995ece-b413-4ae7-8af4-b3e727781c7e","ios":"levelo://app?vid=da995ece-b413-4ae7-8af4-b3e727781c7e"},"vehicle_type_id":"4","last_reported":1783372803,"current_range_meters":4800,"station_id":"","pricing_plan_id":"cebpf4jnsgd1na2vs0mg"},{"bike_id":"85706f81-4982-4276-b755-d4181aa895f9","system_id":"levelo_inurba_marseille","lat":43.28402,"lon":5.38459,"is_reserved":false,"is_disabled":false,"rental_uris":{"android":"levelo://app?vid=85706f81-4982-4276-b755-d4181aa895f9","ios":"levelo://app?vid=85706f81-4982-4276-b755-d4181aa895f9"},"vehicle_type_id":"4","last_reported":1783372803,"current_range_meters":5600,"station_id":"","pricing_plan_id":"cebpf4jnsgd1na2vs0mg"},{"bike_id":"ca6c165a-13e1-4bcb-a2a1-934c1c474bc6","system_id":"levelo_inurba_marseille","lat":43.2885,"lon":5.39314,"is_reserved":false,"is_disabled":false,"rental_uris":{"android":"levelo://app?vid=ca6c165a-13e1-4bcb-a2a1-934c1c474bc6","ios":"levelo://app?vid=ca6c165a-13e1-4bcb-a2a1-934c1c474bc6"},"vehicle_type_id":"4","last_reported":1783372803,"current_range_meters":5600,"station_id":"ce4bh2p2rcd13ifvqdi0","pricing_plan_id":"cebpf4jnsgd1na2vs0mg"},{"bike_id":"740e3abb-7a97-4df1-905d-538654b5ac19","system_id":"levelo_inurba_marseille","lat":43.30129,"lon":5.38783,"is_reserved":false,"is_disabled":true,"rental_uris":{"android":"levelo://app?vid=740e3abb-7a97-4df1-905d-538654b5ac19","ios":"levelo://app?vid=740e3abb-7a97-4df1-905d-538654b5ac19"},"vehicle_type_id":"4","last_reported":1783372803,"current_range_meters":5600,"station_id":"ce4bghh2rcd13ifvqb60","pricing_plan_id":"cebpf4jnsgd1na2vs0mg"},{"bike_id":"ec2af0c4-368d-42f1-99ce-3cfbdfae1d56","system_id":"levelo_inurba_marseille","lat":43.29361,"lon":5.40256,"is_reserved":false,"is_disabled":false,"rental_uris":{"android":"levelo://app?vid=ec2af0c4-368d-42f1-99ce-3cfbdfae1d56","ios":"levelo://app?vid=ec2af0c4-368d-42f1-99ce-3cfbdfae1d56"},"vehicle_type_id":"4","last_reported":1783372803,"current_range_meters":5600,"station_id":"","pricing_plan_id":"cebpf4jnsgd1na2vs0mg"},{"bike_id":"fbf4b1e3-ca93-42fa-b2c4-13196fccc28c","system_id":"levelo_inurba_marseille","lat":43.28459,"lon":5.35883,"is_reserved":false,"is_disabled":false,"rental_uris":{"android":"levelo://app?vid=fbf4b1e3-ca93-42fa-b2c4-13196fccc28c","ios":"levelo://app?vid=fbf4b1e3-ca93-42fa-b2c4-13196fccc28c"},"vehicle_type_id":"4","last_reported":1783372803,"current_range_meters":5600,"station_id":"ce4bhah2rcd13ifvqei0","pricing_plan_id":"cebpf4jnsgd1na2vs0mg"},{"bike_id":"c09d7abd-1302-4abc-870c-e8de8b056545","system_id":"levelo_inurba_marseille","lat":43.28415,"lon":5.3751,"is_reserved":false,"is_disabled":false,"rental_uris":{"android":"levelo://app?vid=c09d7abd-1302-4abc-870c-e8de8b056545","ios":"levelo://app?vid=c09d7abd-1302-4abc-870c-e8de8b056545"},"vehicle_type_id":"4","last_reported":1783372803,"current_range_meters":5600,"station_id":"ce4bh412rcd13ifvqds0","pricing_plan_id":"cebpf4jnsgd1na2vs0mg"},{"bike_id":"0be52b3f-5f0c-4bf8-93e5-9a2f2d56c51d","system_id":"levelo_inurba_marseille","lat":43.29027,"lon":5.38643,"is_reserved":false,"is_disabled":false,"rental_uris":{"android":"levelo://app?vid=0be52b3f-5f0c-4bf8-93e5-9a2f2d56c51d","ios":"levelo://app?vid=0be52b3f-5f0c-4bf8-93e5-9a2f2d56c51d"},"vehicle_type_id":"4","last_reported":1783372803,"current_range_meters":5600,"station_id":"ce4bh4p2rcd13ifvqe0g","pricing_plan_id":"cebpf4jnsgd1na2vs0mg"},{"bike_id":"14e98b39-b7a8-4608-8aac-1d8635ff8bf5","system_id":"levelo_inurba_marseille","lat":43.28493,"lon":5.48394,"is_reserved":false,"is_disabled":false,"rental_uris":{"android":"levelo://app?vid=14e98b39-b7a8-4608-8aac-1d8635ff8bf5","ios":"levelo://app?vid=14e98b39-b7a8-4608-8aac-1d8635ff8bf5"},"vehicle_type_id":"4","last_reported":1783372803,"current_range_meters":5600,"station_id":"st_d3svhcjqgbts73a3dn0g","pricing_plan_id":"cebpf4jnsgd1na2vs0mg"},{"bike_id":"897ae0aa-c66e-4980-abff-4936590a9dbf","system_id":"levelo_inurba_marseille","lat":43.32049,"lon":5.41538,"is_reserved":false,"is_disabled":false,"rental_uris":{"android":"levelo://app?vid=897ae0aa-c66e-4980-abff-4936590a9dbf","ios":"levelo://app?vid=897ae0aa-c66e-4980-abff-4936590a9dbf"},"vehicle_type_id":"4","last_reported":1783372803,"current_range_meters":5600,"station_id":"ce4bhq92rcd13ifvqhkg","pricing_plan_id":"cebpf4jnsgd1na2vs0mg"},{"bike_id":"151318e1-1ede-4f1c-8297-71ff21b43437","system_id":"levelo_inurba_marseille","lat":43.28892,"lon":5.37758,"is_reserved":false,"is_disabled":false,"rental_uris":{"android":"levelo://app?vid=151318e1-1ede-4f1c-8297-71ff21b43437","ios":"levelo://app?vid=151318e1-1ede-4f1c-8297-71ff21b43437"},"vehicle_type_id":"4","last_reported":1783372803,"current_range_meters":5600,"station_id":"","pricing_plan_id":"cebpf4jnsgd1na2vs0mg"},{"bike_id":"270c8d54-382f-4c26-a411-a00cd804e229","system_id":"levelo_inurba_marseille","lat":43.29266,"lon":5.40931,"is_reserved":false,"is_disabled":false,"rental_uris":{"android":"levelo://app?vid=270c8d54-382f-4c26-a411-a00cd804e229","ios":"levelo://app?vid=270c8d54-382f-4c26-a411-a00cd804e229"},"vehicle_type_id":"4","last_reported":1783372803,"current_range_meters":6000,"station_id":"ce4bh192rcd13ifvqdc0","pricing_plan_id":"cebpf4jnsgd1na2vs0mg"},{"bike_id":"72db5589-dfd0-442a-904d-e9c5bdcd1d4f","system_id":"levelo_inurba_marseille","lat":43.31587,"lon":5.37913,"is_reserved":false,"is_disabled":false,"rental_uris":{"android":"levelo://app?vid=72db5589-dfd0-442a-904d-e9c5bdcd1d4f","ios":"levelo://app?vid=72db5589-dfd0-442a-904d-e9c5bdcd1d4f"},"vehicle_type_id":"4","last_reported":1783372803,"current_range_meters":6000,"station_id":"","pricing_plan_id":"cebpf4jnsgd1na2vs0mg"},{"bike_id":"4bb72506-4f3b-4ca7-992e-20cc9c7bb1d6","system_id":"levelo_inurba_marseille","lat":43.24703,"lon":5.41763,"is_reserved":false,"is_disabled":false,"rental_uris":{"android":"levelo://app?vid=4bb72506-4f3b-4ca7-992e-20cc9c7bb1d6","ios":"levelo://app?vid=4bb72506-4f3b-4ca7-992e-20cc9c7bb1d6"},"vehicle_type_id":"4","last_reported":1783372803,"current_range_meters":6000,"station_id":"","pricing_plan_id":"cebpf4jnsgd1na2vs0mg"},{"bike_id":"773f950c-1a37-4f11-85a7-7cbf338fd285","system_id":"levelo_inurba_marseille","lat":43.24943,"lon":5.40484,"is_reserved":false,"is_disabled":false,"rental_uris":{"android":"levelo://app?vid=773f950c-1a37-4f11-85a7-7cbf338fd285","ios":"levelo://app?vid=773f950c-1a37-4f11-85a7-7cbf338fd285"},"vehicle_type_id":"4","last_reported":1783372803,"current_range_meters":6000,"station_id":"st_d2ngiaodas8pm72gd1h0","pricing_plan_id":"cebpf4jnsgd1na2vs0mg"},{"bike_id":"8106ca99-f827-40dd-90a5-a5e8ac3a1d30","system_id":"levelo_inurba_marseille","lat":43.28491,"lon":5.48361,"is_reserved":false,"is_disabled":false,"rental_uris":{"android":"levelo://app?vid=8106ca99-f827-40dd-90a5-a5e8ac3a1d30","ios":"levelo://app?vid=8106ca99-f827-40dd-90a5-a5e8ac3a1d30"},"vehicle_type_id":"4","last_reported":1783372803,"current_range_meters":6000,"station_id":"st_d3svhcjqgbts73a3dn0g","pricing_plan_id":"cebpf4jnsgd1na2vs0mg"},{"bike_id":"1c1b5d97-0f21-4844-b514-8a657a8cfd66","system_id":"levelo_inurba_marseille","lat":43.29274,"lon":5.40115,"is_reserved":false,"is_disabled":false,"rental_uris":{"android":"levelo://app?vid=1c1b5d97-0f21-4844-b514-8a657a8cfd66","ios":"levelo://app?vid=1c1b5d97-0f21-4844-b514-8a657a8cfd66"},"vehicle_type_id":"4","last_reported":1783372803,"current_range_meters":6000,"station_id":"ce4bh312rcd13ifvqdk0","pricing_plan_id":"cebpf4jnsgd1na2vs0mg"},{"bike_id":"4659869d-0401-4465-a94c-a989775ed372","system_id":"levelo_inurba_marseille","lat":43.26215,"lon":5.37441,"is_reserved":false,"is_disabled":false,"rental_uris":{"android":"levelo://app?vid=4659869d-0401-4465-a94c-a989775ed372","ios":"levelo://app?vid=4659869d-0401-4465-a94c-a989775ed372"},"vehicle_type_id":"4","last_reported":1783372803,"current_range_meters":6000,"station_id":"ce4bhgp2rcd13ifvqfc0","pricing_plan_id":"cebpf4jnsgd1na2vs0mg"},{"bike_id":"9db47c28-d135-4619-b753-4c4fa126f9fd","system_id":"levelo_inurba_marseille","lat":43.29202,"lon":5.3606,"is_reserved":false,"is_disabled":true,"rental_uris":{"android":"levelo://app?vid=9db47c28-d135-4619-b753-4c4fa126f9fd","ios":"levelo://app?vid=9db47c28-d135-4619-b753-4c4fa126f9fd"},"vehicle_type_id":"4","last_reported":1783372803,"current_range_meters":6000,"station_id":"ce4bhbh2rcd13ifvqeqg","pricing_plan_id":"cebpf4jnsgd1na2vs0mg"},{"bike_id":"465f93df-da51-48fb-85aa-a451cea36b89","system_id":"levelo_inurba_marseille","lat":43.2867,"lon":5.38673,"is_reserved":false,"is_disabled":false,"rental_uris":{"android":"levelo://app?vid=465f93df-da51-48fb-85aa-a451cea36b89","ios":"levelo://app?vid=465f93df-da51-48fb-85aa-a451cea36b89"},"vehicle_type_id":"4","last_reported":1783372803,"current_range_meters":6000,"station_id":"ce4bh492rcd13ifvqdug","pricing_plan_id":"cebpf4jnsgd1na2vs0mg"},{"bike_id":"2361af77-a100-433a-ae8c-fac4e1ee0b95","system_id":"levelo_inurba_marseille","lat":43.23053,"lon":5.35493,"is_reserved":false,"is_disabled":false,"rental_uris":{"android":"levelo://app?vid=2361af77-a100-433a-ae8c-fac4e1ee0b95","ios":"levelo://app?vid=2361af77-a100-433a-ae8c-fac4e1ee0b95"},"vehicle_type_id":"4","last_reported":1783372803,"current_range_meters":6000,"station_id":"cpo3342slgdg3j2ifvpg","pricing_plan_id":"cebpf4jnsgd1na2vs0mg"},{"bike_id":"faae4998-2660-4cc6-a836-6400055fc88a","system_id":"levelo_inurba_marseille","lat":43.29836,"lon":5.36281,"is_reserved":false,"is_disabled":true,"rental_uris":{"android":"levelo://app?vid=faae4998-2660-4cc6-a836-6400055fc88a","ios":"levelo://app?vid=faae4998-2660-4cc6-a836-6400055fc88a"},"vehicle_type_id":"4","last_reported":1783372803,"current_range_meters":6000,"station_id":"ce4bgpp2rcd13ifvqc3g","pricing_plan_id":"cebpf4jnsgd1na2vs0mg"},{"bike_id":"46468b74-5455-42c1-b355-213b9be4a89c","system_id":"levelo_inurba_marseille","lat":43.22535,"lon":5.34826,"is_reserved":false,"is_disabled":false,"rental_uris":{"android":"levelo://app?vid=46468b74-5455-42c1-b355-213b9be4a89c","ios":"levelo://app?vid=46468b74-5455-42c1-b355-213b9be4a89c"},"vehicle_type_id":"4","last_reported":1783372803,"current_range_meters":6000,"station_id":"st_cvj5dfep6f1abm77gieg","pricing_plan_id":"cebpf4jnsgd1na2vs0mg"},{"bike_id":"5a5d3956-d379-45a4-b54f-85cf3b677ea4","system_id":"levelo_inurba_marseille","lat":43.29251,"lon":5.38428,"is_reserved":false,"is_disabled":false,"rental_uris":{"android":"levelo://app?vid=5a5d3956-d379-45a4-b54f-85cf3b677ea4","ios":"levelo://app?vid=5a5d3956-d379-45a4-b54f-85cf3b677ea4"},"vehicle_type_id":"4","last_reported":1783372803,"current_range_meters":6000,"station_id":"ce4bh692rcd13ifvqea0","pricing_plan_id":"cebpf4jnsgd1na2vs0mg"},{"bike_id":"7678e258-73ee-4d26-8d86-8beb357c78a0","system_id":"levelo_inurba_marseille","lat":43.24352,"lon":5.406,"is_reserved":false,"is_disabled":false,"rental_uris":{"android":"levelo://app?vid=7678e258-73ee-4d26-8d86-8beb357c78a0","ios":"levelo://app?vid=7678e258-73ee-4d26-8d86-8beb357c78a0"},"vehicle_type_id":"4","last_reported":1783372803,"current_range_meters":6000,"station_id":"","pricing_plan_id":"cebpf4jnsgd1na2vs0mg"},{"bike_id":"d0626c6f-c1b6-4f88-acc1-06812b059f24","system_id":"levelo_inurba_marseille","lat":43.28435,"lon":5.39199,"is_reserved":false,"is_disabled":false,"rental_uris":{"android":"levelo://app?vid=d0626c6f-c1b6-4f88-acc1-06812b059f24","ios":"levelo://app?vid=d0626c6f-c1b6-4f88-acc1-06812b059f24"},"vehicle_type_id":"4","last_reported":1783372803,"current_range_meters":6000,"station_id":"ce4bhoh2rcd13ifvqh5g","pricing_plan_id":"cebpf4jnsgd1na2vs0mg"},{"bike_id":"d7c33e32-1bf6-466d-abaf-8816e2645afe","system_id":"levelo_inurba_marseille","lat":43.31897,"lon":5.40732,"is_reserved":false,"is_disabled":true,"rental_uris":{"android":"levelo://app?vid=d7c33e32-1bf6-466d-abaf-8816e2645afe","ios":"levelo://app?vid=d7c33e32-1bf6-466d-abaf-8816e2645afe"},"vehicle_type_id":"4","last_reported":1783372803,"current_range_meters":6400,"station_id":"ce4bhq12rcd13ifvqhig","pricing_plan_id":"cebpf4jnsgd1na2vs0mg"},{"bike_id":"4b030e34-8697-41cc-a2b7-60a40f2af919","system_id":"levelo_inurba_marseille","lat":43.28376,"lon":5.37549,"is_reserved":false,"is_disabled":false,"rental_uris":{"android":"levelo://app?vid=4b030e34-8697-41cc-a2b7-60a40f2af919","ios":"levelo://app?vid=4b030e34-8697-41cc-a2b7-60a40f2af919"},"vehicle_type_id":"4","last_reported":1783372803,"current_range_meters":6400,"station_id":"ce4bh412rcd13ifvqds0","pricing_plan_id":"cebpf4jnsgd1na2vs0mg"},{"bike_id":"ce9736ee-3540-472d-ac22-6fcaf2fda589","system_id":"levelo_inurba_marseille","lat":43.29435,"lon":5.39745,"is_reserved":false,"is_disabled":false,"rental_uris":{"android":"levelo://app?vid=ce9736ee-3540-472d-ac22-6fcaf2fda589","ios":"levelo://app?vid=ce9736ee-3540-472d-ac22-6fcaf2fda589"},"vehicle_type_id":"4","last_reported":1783372803,"current_range_meters":6400,"station_id":"ce4bh3h2rcd13ifvqdo0","pricing_plan_id":"cebpf4jnsgd1na2vs0mg"},{"bike_id":"7fb54030-81c0-4653-ab50-a6e69be8636f","system_id":"levelo_inurba_marseille","lat":43.26042,"lon":5.37474,"is_reserved":false,"is_disabled":true,"rental_uris":{"android":"levelo://app?vid=7fb54030-81c0-4653-ab50-a6e69be8636f","ios":"levelo://app?vid=7fb54030-81c0-4653-ab50-a6e69be8636f"},"vehicle_type_id":"4","last_reported":1783372803,"current_range_meters":6400,"station_id":"ce4bhgh2rcd13ifvqfa0","pricing_plan_id":"cebpf4jnsgd1na2vs0mg"},{"bike_id":"93d2e4bc-15f6-4c1e-9976-2b0f547a1402","system_id":"levelo_inurba_marseille","lat":43.2318,"lon":5.40031,"is_reserved":false,"is_disabled":false,"rental_uris":{"android":"levelo://app?vid=93d2e4bc-15f6-4c1e-9976-2b0f547a1402","ios":"levelo://app?vid=93d2e4bc-15f6-4c1e-9976-2b0f547a1402"},"vehicle_type_id":"4","last_reported":1783372803,"current_range_meters":6400,"station_id":"ce4bhn12rcd13ifvqgqg","pricing_plan_id":"cebpf4jnsgd1na2vs0mg"},{"bike_id":"efce0065-4524-417a-a35d-e4c1a8a9f922","system_id":"levelo_inurba_marseille","lat":43.28217,"lon":5.34896,"is_reserved":false,"is_disabled":false,"rental_uris":{"android":"levelo://app?vid=efce0065-4524-417a-a35d-e4c1a8a9f922","ios":"levelo://app?vid=efce0065-4524-417a-a35d-e4c1a8a9f922"},"vehicle_type_id":"4","last_reported":1783372803,"current_range_meters":6400,"station_id":"","pricing_plan_id":"cebpf4jnsgd1na2vs0mg"},{"bike_id":"4b71ea7a-3ffc-4ca2-a5b0-91fcaaf1579c","system_id":"levelo_inurba_marseille","lat":43.30311,"lon":5.38254,"is_reserved":false,"is_disabled":false,"rental_uris":{"android":"levelo://app?vid=4b71ea7a-3ffc-4ca2-a5b0-91fcaaf1579c","ios":"levelo://app?vid=4b71ea7a-3ffc-4ca2-a5b0-91fcaaf1579c"},"vehicle_type_id":"4","last_reported":1783372803,"current_range_meters":6400,"station_id":"","pricing_plan_id":"cebpf4jnsgd1na2vs0mg"},{"bike_id":"f1fa67ea-70e8-494e-90f1-3cd8a54e2aac","system_id":"levelo_inurba_marseille","lat":43.2827,"lon":5.35066,"is_reserved":false,"is_disabled":true,"rental_uris":{"android":"levelo://app?vid=f1fa67ea-70e8-494e-90f1-3cd8a54e2aac","ios":"levelo://app?vid=f1fa67ea-70e8-494e-90f1-3cd8a54e2aac"},"vehicle_type_id":"4","last_reported":1783372803,"current_range_meters":6400,"station_id":"ce4bhbp2rcd13ifvqerg","pricing_plan_id":"cebpf4jnsgd1na2vs0mg"},{"bike_id":"df8ce680-348e-47d0-92ea-a06487739a15","system_id":"levelo_inurba_marseille","lat":43.30034,"lon":5.38334,"is_reserved":false,"is_disabled":false,"rental_uris":{"android":"levelo://app?vid=df8ce680-348e-47d0-92ea-a06487739a15","ios":"levelo://app?vid=df8ce680-348e-47d0-92ea-a06487739a15"},"vehicle_type_id":"4","last_reported":1783372803,"current_range_meters":6400,"station_id":"","pricing_plan_id":"cebpf4jnsgd1na2vs0mg"},{"bike_id":"5c27c21d-e49d-4272-89f4-b58751c04dc1","system_id":"levelo_inurba_marseille","lat":43.23412,"lon":5.38123,"is_reserved":false,"is_disabled":false,"rental_uris":{"android":"levelo://app?vid=5c27c21d-e49d-4272-89f4-b58751c04dc1","ios":"levelo://app?vid=5c27c21d-e49d-4272-89f4-b58751c04dc1"},"vehicle_type_id":"4","last_reported":1783372803,"current_range_meters":6400,"station_id":"","pricing_plan_id":"cebpf4jnsgd1na2vs0mg"},{"bike_id":"10eef851-cd11-4897-8f5c-5346e97e8cbe","system_id":"levelo_inurba_marseille","lat":43.23875,"lon":5.37466,"is_reserved":false,"is_disabled":false,"rental_uris":{"android":"levelo://app?vid=10eef851-cd11-4897-8f5c-5346e97e8cbe","ios":"levelo://app?vid=10eef851-cd11-4897-8f5c-5346e97e8cbe"},"vehicle_type_id":"4","last_reported":1783372803,"current_range_meters":6400,"station_id":"st_d6sm7csbq4hs73f8fpjg","pricing_plan_id":"cebpf4jnsgd1na2vs0mg"},{"bike_id":"700367e5-6c87-4c9d-b09c-2b54e001a8c5","system_id":"levelo_inurba_marseille","lat":43.29222,"lon":5.36056,"is_reserved":false,"is_disabled":true,"rental_uris":{"android":"levelo://app?vid=700367e5-6c87-4c9d-b09c-2b54e001a8c5","ios":"levelo://app?vid=700367e5-6c87-4c9d-b09c-2b54e001a8c5"},"vehicle_type_id":"4","last_reported":1783372803,"current_range_meters":6400,"station_id":"ce4bhbh2rcd13ifvqeqg","pricing_plan_id":"cebpf4jnsgd1na2vs0mg"},{"bike_id":"3112c030-03e7-4ad3-a895-94002cb7d5c7","system_id":"levelo_inurba_marseille","lat":43.23964,"lon":5.36611,"is_reserved":false,"is_disabled":true,"rental_uris":{"android":"levelo://app?vid=3112c030-03e7-4ad3-a895-94002cb7d5c7","ios":"levelo://app?vid=3112c030-03e7-4ad3-a895-94002cb7d5c7"},"vehicle_type_id":"4","last_reported":1783372803,"current_range_meters":6400,"station_id":"ce4bhi12rcd13ifvqfp0","pricing_plan_id":"cebpf4jnsgd1na2vs0mg"},{"bike_id":"1e473a14-a807-4af0-a1cf-fa56f75b861b","system_id":"levelo_inurba_marseille","lat":43.29099,"lon":5.38146,"is_reserved":false,"is_disabled":false,"rental_uris":{"android":"levelo://app?vid=1e473a14-a807-4af0-a1cf-fa56f75b861b","ios":"levelo://app?vid=1e473a14-a807-4af0-a1cf-fa56f75b861b"},"vehicle_type_id":"4","last_reported":1783372803,"current_range_meters":6400,"station_id":"ce4bh512rcd13ifvqe2g","pricing_plan_id":"cebpf4jnsgd1na2vs0mg"},{"bike_id":"ec1452f7-ec75-4fbe-aeea-7274f4d27b24","system_id":"levelo_inurba_marseille","lat":43.25335,"lon":5.42167,"is_reserved":false,"is_disabled":false,"rental_uris":{"android":"levelo://app?vid=ec1452f7-ec75-4fbe-aeea-7274f4d27b24","ios":"levelo://app?vid=ec1452f7-ec75-4fbe-aeea-7274f4d27b24"},"vehicle_type_id":"4","last_reported":1783372803,"current_range_meters":6400,"station_id":"st_d2m65c5bi1j21697t3ng","pricing_plan_id":"cebpf4jnsgd1na2vs0mg"},{"bike_id":"9226fd62-2d5d-42a7-860c-5be56886e8f3","system_id":"levelo_inurba_marseille","lat":43.28981,"lon":5.37839,"is_reserved":false,"is_disabled":false,"rental_uris":{"android":"levelo://app?vid=9226fd62-2d5d-42a7-860c-5be56886e8f3","ios":"levelo://app?vid=9226fd62-2d5d-42a7-860c-5be56886e8f3"},"vehicle_type_id":"4","last_reported":1783372803,"current_range_meters":6400,"station_id":"ce4bh9p2rcd13ifvqed0","pricing_plan_id":"cebpf4jnsgd1na2vs0mg"},{"bike_id":"70bc94da-9147-489d-a76a-bdcdb68423c8","system_id":"levelo_inurba_marseille","lat":43.22502,"lon":5.34838,"is_reserved":false,"is_disabled":false,"rental_uris":{"android":"levelo://app?vid=70bc94da-9147-489d-a76a-bdcdb68423c8","ios":"levelo://app?vid=70bc94da-9147-489d-a76a-bdcdb68423c8"},"vehicle_type_id":"4","last_reported":1783372803,"current_range_meters":6400,"station_id":"st_cvj5dfep6f1abm77gieg","pricing_plan_id":"cebpf4jnsgd1na2vs0mg"},{"bike_id":"f63c6294-8cf0-4f75-9726-65e8022e284e","system_id":"levelo_inurba_marseille","lat":43.24968,"lon":5.40495,"is_reserved":false,"is_disabled":false,"rental_uris":{"android":"levelo://app?vid=f63c6294-8cf0-4f75-9726-65e8022e284e","ios":"levelo://app?vid=f63c6294-8cf0-4f75-9726-65e8022e284e"},"vehicle_type_id":"4","last_reported":1783372803,"current_range_meters":6400,"station_id":"st_d2ngiaodas8pm72gd1h0","pricing_plan_id":"cebpf4jnsgd1na2vs0mg"},{"bike_id":"d90deeaf-f60c-4f33-9739-a680671197f7","system_id":"levelo_inurba_marseille","lat":43.30591,"lon":5.3722,"is_reserved":false,"is_disabled":false,"rental_uris":{"android":"levelo://app?vid=d90deeaf-f60c-4f33-9739-a680671197f7","ios":"levelo://app?vid=d90deeaf-f60c-4f33-9739-a680671197f7"},"vehicle_type_id":"4","last_reported":1783372803,"current_range_meters":6400,"station_id":"ce4bgqh2rcd13ifvqc4g","pricing_plan_id":"cebpf4jnsgd1na2vs0mg"},{"bike_id":"2016481f-9158-496a-8d25-1444518c18ed","system_id":"levelo_inurba_marseille","lat":43.26572,"lon":5.38977,"is_reserved":false,"is_disabled":false,"rental_uris":{"android":"levelo://app?vid=2016481f-9158-496a-8d25-1444518c18ed","ios":"levelo://app?vid=2016481f-9158-496a-8d25-1444518c18ed"},"vehicle_type_id":"4","last_reported":1783372803,"current_range_meters":6400,"station_id":"ce4bhe12rcd13ifvqf30","pricing_plan_id":"cebpf4jnsgd1na2vs0mg"},{"bike_id":"44c61f0a-6dd7-4525-b9d3-9637ab34ee6a","system_id":"levelo_inurba_marseille","lat":43.29345,"lon":5.42038,"is_reserved":false,"is_disabled":false,"rental_uris":{"android":"levelo://app?vid=44c61f0a-6dd7-4525-b9d3-9637ab34ee6a","ios":"levelo://app?vid=44c61f0a-6dd7-4525-b9d3-9637ab34ee6a"},"vehicle_type_id":"4","last_reported":1783372803,"current_range_meters":6400,"station_id":"","pricing_plan_id":"cebpf4jnsgd1na2vs0mg"},{"bike_id":"a40fac1c-fdae-4a33-8735-3f7c9c669ebe","system_id":"levelo_inurba_marseille","lat":43.29731,"lon":5.3823,"is_reserved":false,"is_disabled":false,"rental_uris":{"android":"levelo://app?vid=a40fac1c-fdae-4a33-8735-3f7c9c669ebe","ios":"levelo://app?vid=a40fac1c-fdae-4a33-8735-3f7c9c669ebe"},"vehicle_type_id":"4","last_reported":1783372803,"current_range_meters":6800,"station_id":"","pricing_plan_id":"cebpf4jnsgd1na2vs0mg"},{"bike_id":"4daf5814-7cfb-4b25-9501-2853b4c01dba","system_id":"levelo_inurba_marseille","lat":43.30951,"lon":5.39045,"is_reserved":false,"is_disabled":false,"rental_uris":{"android":"levelo://app?vid=4daf5814-7cfb-4b25-9501-2853b4c01dba","ios":"levelo://app?vid=4daf5814-7cfb-4b25-9501-2853b4c01dba"},"vehicle_type_id":"4","last_reported":1783372803,"current_range_meters":6800,"station_id":"ce4bgup2rcd13ifvqco0","pricing_plan_id":"cebpf4jnsgd1na2vs0mg"},{"bike_id":"572e68b9-d18d-4505-bc29-553721ee1599","system_id":"levelo_inurba_marseille","lat":43.26396,"lon":5.4104,"is_reserved":false,"is_disabled":false,"rental_uris":{"android":"levelo://app?vid=572e68b9-d18d-4505-bc29-553721ee1599","ios":"levelo://app?vid=572e68b9-d18d-4505-bc29-553721ee1599"},"vehicle_type_id":"4","last_reported":1783372803,"current_range_meters":6800,"station_id":"","pricing_plan_id":"cebpf4jnsgd1na2vs0mg"},{"bike_id":"3177f657-0de7-42df-990b-aa125d58299f","system_id":"levelo_inurba_marseille","lat":43.27507,"lon":5.4161,"is_reserved":false,"is_disabled":false,"rental_uris":{"android":"levelo://app?vid=3177f657-0de7-42df-990b-aa125d58299f","ios":"levelo://app?vid=3177f657-0de7-42df-990b-aa125d58299f"},"vehicle_type_id":"4","last_reported":1783372803,"current_range_meters":6800,"station_id":"st_d6im8g6chgec73a5pndg","pricing_plan_id":"cebpf4jnsgd1na2vs0mg"},{"bike_id":"5387401e-6e74-483a-a7d0-20370ad97489","system_id":"levelo_inurba_marseille","lat":43.27563,"lon":5.38396,"is_reserved":false,"is_disabled":false,"rental_uris":{"android":"levelo://app?vid=5387401e-6e74-483a-a7d0-20370ad97489","ios":"levelo://app?vid=5387401e-6e74-483a-a7d0-20370ad97489"},"vehicle_type_id":"4","last_reported":1783372803,"current_range_meters":6800,"station_id":"ce4bhh92rcd13ifvqfi0","pricing_plan_id":"cebpf4jnsgd1na2vs0mg"},{"bike_id":"2bd32b41-4657-43f0-953e-c21eef649703","system_id":"levelo_inurba_marseille","lat":43.27483,"lon":5.42551,"is_reserved":false,"is_disabled":false,"rental_uris":{"android":"levelo://app?vid=2bd32b41-4657-43f0-953e-c21eef649703","ios":"levelo://app?vid=2bd32b41-4657-43f0-953e-c21eef649703"},"vehicle_type_id":"4","last_reported":1783372803,"current_range_meters":6800,"station_id":"st_d8t4bh7nbrqs73arha60","pricing_plan_id":"cebpf4jnsgd1na2vs0mg"},{"bike_id":"814b0a23-4b15-472b-a08d-7d4fdd4dc68d","system_id":"levelo_inurba_marseille","lat":43.29369,"lon":5.37856,"is_reserved":false,"is_disabled":false,"rental_uris":{"android":"levelo://app?vid=814b0a23-4b15-472b-a08d-7d4fdd4dc68d","ios":"levelo://app?vid=814b0a23-4b15-472b-a08d-7d4fdd4dc68d"},"vehicle_type_id":"4","last_reported":1783372803,"current_range_meters":6800,"station_id":"ce4bgjh2rcd13ifvqbf0","pricing_plan_id":"cebpf4jnsgd1na2vs0mg"},{"bike_id":"e3022a6a-a8f2-4537-83b2-c5cd58afaf3e","system_id":"levelo_inurba_marseille","lat":43.25078,"lon":5.39512,"is_reserved":false,"is_disabled":true,"rental_uris":{"android":"levelo://app?vid=e3022a6a-a8f2-4537-83b2-c5cd58afaf3e","ios":"levelo://app?vid=e3022a6a-a8f2-4537-83b2-c5cd58afaf3e"},"vehicle_type_id":"4","last_reported":1783372803,"current_range_meters":6800,"station_id":"ce4bhm12rcd13ifvqgkg","pricing_plan_id":"cebpf4jnsgd1na2vs0mg"},{"bike_id":"e905960f-6dd0-4d4d-bbae-366fea159b16","system_id":"levelo_inurba_marseille","lat":43.29567,"lon":5.39965,"is_reserved":false,"is_disabled":false,"rental_uris":{"android":"levelo://app?vid=e905960f-6dd0-4d4d-bbae-366fea159b16","ios":"levelo://app?vid=e905960f-6dd0-4d4d-bbae-366fea159b16"},"vehicle_type_id":"4","last_reported":1783372803,"current_range_meters":6800,"station_id":"ce4bh312rcd13ifvqdj0","pricing_plan_id":"cebpf4jnsgd1na2vs0mg"},{"bike_id":"6a71753f-ed83-49e8-b2d3-800331bc0970","system_id":"levelo_inurba_marseille","lat":43.29512,"lon":5.38541,"is_reserved":false,"is_disabled":false,"rental_uris":{"android":"levelo://app?vid=6a71753f-ed83-49e8-b2d3-800331bc0970","ios":"levelo://app?vid=6a71753f-ed83-49e8-b2d3-800331bc0970"},"vehicle_type_id":"4","last_reported":1783372803,"current_range_meters":6800,"station_id":"ce4bgih2rcd13ifvqba0","pricing_plan_id":"cebpf4jnsgd1na2vs0mg"},{"bike_id":"d0b958a4-0781-4a1e-83d0-28cb0b198006","system_id":"levelo_inurba_marseille","lat":43.29575,"lon":5.38573,"is_reserved":false,"is_disabled":false,"rental_uris":{"android":"levelo://app?vid=d0b958a4-0781-4a1e-83d0-28cb0b198006","ios":"levelo://app?vid=d0b958a4-0781-4a1e-83d0-28cb0b198006"},"vehicle_type_id":"4","last_reported":1783372803,"current_range_meters":6800,"station_id":"","pricing_plan_id":"cebpf4jnsgd1na2vs0mg"},{"bike_id":"8f9589bc-5102-48ec-bff3-0aa876684c01","system_id":"levelo_inurba_marseille","lat":43.29822,"lon":5.44079,"is_reserved":false,"is_disabled":true,"rental_uris":{"android":"levelo://app?vid=8f9589bc-5102-48ec-bff3-0aa876684c01","ios":"levelo://app?vid=8f9589bc-5102-48ec-bff3-0aa876684c01"},"vehicle_type_id":"4","last_reported":1783372803,"current_range_meters":6800,"station_id":"st_d3jp68qikq2c7381ktn0","pricing_plan_id":"cebpf4jnsgd1na2vs0mg"},{"bike_id":"9e5a2ef5-40b8-4842-abef-5a9e0877c3d7","system_id":"levelo_inurba_marseille","lat":43.28479,"lon":5.48394,"is_reserved":false,"is_disabled":false,"rental_uris":{"android":"levelo://app?vid=9e5a2ef5-40b8-4842-abef-5a9e0877c3d7","ios":"levelo://app?vid=9e5a2ef5-40b8-4842-abef-5a9e0877c3d7"},"vehicle_type_id":"4","last_reported":1783372803,"current_range_meters":6800,"station_id":"st_d3svhcjqgbts73a3dn0g","pricing_plan_id":"cebpf4jnsgd1na2vs0mg"},{"bike_id":"3c8c4f0c-6726-4073-9101-192ee79edeec","system_id":"levelo_inurba_marseille","lat":43.29523,"lon":5.39039,"is_reserved":false,"is_disabled":false,"rental_uris":{"android":"levelo://app?vid=3c8c4f0c-6726-4073-9101-192ee79edeec","ios":"levelo://app?vid=3c8c4f0c-6726-4073-9101-192ee79edeec"},"vehicle_type_id":"4","last_reported":1783372803,"current_range_meters":6800,"station_id":"ce4bh3p2rcd13ifvqdp0","pricing_plan_id":"cebpf4jnsgd1na2vs0mg"},{"bike_id":"1b396dbc-cdbe-441c-a6f9-d18101b3cc4f","system_id":"levelo_inurba_marseille","lat":43.33333,"lon":5.41089,"is_reserved":false,"is_disabled":false,"rental_uris":{"android":"levelo://app?vid=1b396dbc-cdbe-441c-a6f9-d18101b3cc4f","ios":"levelo://app?vid=1b396dbc-cdbe-441c-a6f9-d18101b3cc4f"},"vehicle_type_id":"4","last_reported":1783372803,"current_range_meters":6800,"station_id":"","pricing_plan_id":"cebpf4jnsgd1na2vs0mg"},{"bike_id":"50968b79-7cca-4c3f-bad9-b6b8968b7192","system_id":"levelo_inurba_marseille","lat":43.27901,"lon":5.37985,"is_reserved":false,"is_disabled":false,"rental_uris":{"android":"levelo://app?vid=50968b79-7cca-4c3f-bad9-b6b8968b7192","ios":"levelo://app?vid=50968b79-7cca-4c3f-bad9-b6b8968b7192"},"vehicle_type_id":"4","last_reported":1783372803,"current_range_meters":6800,"station_id":"ce4bhf92rcd13ifvqf50","pricing_plan_id":"cebpf4jnsgd1na2vs0mg"},{"bike_id":"8ff2b961-73d4-4b5f-8e1b-6dfaa024ba89","system_id":"levelo_inurba_marseille","lat":43.29908,"lon":5.38547,"is_reserved":false,"is_disabled":false,"rental_uris":{"android":"levelo://app?vid=8ff2b961-73d4-4b5f-8e1b-6dfaa024ba89","ios":"levelo://app?vid=8ff2b961-73d4-4b5f-8e1b-6dfaa024ba89"},"vehicle_type_id":"4","last_reported":1783372803,"current_range_meters":6800,"station_id":"","pricing_plan_id":"cebpf4jnsgd1na2vs0mg"},{"bike_id":"fbdb8707-6f73-4108-89a5-a06863e2efc8","system_id":"levelo_inurba_marseille","lat":43.28449,"lon":5.35883,"is_reserved":false,"is_disabled":false,"rental_uris":{"android":"levelo://app?vid=fbdb8707-6f73-4108-89a5-a06863e2efc8","ios":"levelo://app?vid=fbdb8707-6f73-4108-89a5-a06863e2efc8"},"vehicle_type_id":"4","last_reported":1783372803,"current_range_meters":6800,"station_id":"ce4bhah2rcd13ifvqei0","pricing_plan_id":"cebpf4jnsgd1na2vs0mg"},{"bike_id":"4461f359-e578-4853-804a-593f2289f613","system_id":"levelo_inurba_marseille","lat":43.29654,"lon":5.4013,"is_reserved":false,"is_disabled":false,"rental_uris":{"android":"levelo://app?vid=4461f359-e578-4853-804a-593f2289f613","ios":"levelo://app?vid=4461f359-e578-4853-804a-593f2289f613"},"vehicle_type_id":"4","last_reported":1783372803,"current_range_meters":7200,"station_id":"","pricing_plan_id":"cebpf4jnsgd1na2vs0mg"},{"bike_id":"ab418650-7aa1-48e1-943c-df3dcb35a850","system_id":"levelo_inurba_marseille","lat":43.27882,"lon":5.37997,"is_reserved":false,"is_disabled":false,"rental_uris":{"android":"levelo://app?vid=ab418650-7aa1-48e1-943c-df3dcb35a850","ios":"levelo://app?vid=ab418650-7aa1-48e1-943c-df3dcb35a850"},"vehicle_type_id":"4","last_reported":1783372803,"current_range_meters":7200,"station_id":"ce4bhf92rcd13ifvqf50","pricing_plan_id":"cebpf4jnsgd1na2vs0mg"},{"bike_id":"771d1938-fd95-4e38-827a-47797b8f684f","system_id":"levelo_inurba_marseille","lat":43.30929,"lon":5.40152,"is_reserved":false,"is_disabled":false,"rental_uris":{"android":"levelo://app?vid=771d1938-fd95-4e38-827a-47797b8f684f","ios":"levelo://app?vid=771d1938-fd95-4e38-827a-47797b8f684f"},"vehicle_type_id":"4","last_reported":1783372803,"current_range_meters":7200,"station_id":"ce4bgvp2rcd13ifvqct0","pricing_plan_id":"cebpf4jnsgd1na2vs0mg"},{"bike_id":"5291857a-d5f7-47a0-b743-13ac73e0440f","system_id":"levelo_inurba_marseille","lat":43.2119,"lon":5.3507,"is_reserved":false,"is_disabled":false,"rental_uris":{"android":"levelo://app?vid=5291857a-d5f7-47a0-b743-13ac73e0440f","ios":"levelo://app?vid=5291857a-d5f7-47a0-b743-13ac73e0440f"},"vehicle_type_id":"4","last_reported":1783372803,"current_range_meters":7200,"station_id":"st_cvj6sg6p6f1abm77japg","pricing_plan_id":"cebpf4jnsgd1na2vs0mg"},{"bike_id":"cc738f32-f811-4e3f-b968-0bc0d7c9be0d","system_id":"levelo_inurba_marseille","lat":43.29251,"lon":5.40918,"is_reserved":false,"is_disabled":true,"rental_uris":{"android":"levelo://app?vid=cc738f32-f811-4e3f-b968-0bc0d7c9be0d","ios":"levelo://app?vid=cc738f32-f811-4e3f-b968-0bc0d7c9be0d"},"vehicle_type_id":"4","last_reported":1783372803,"current_range_meters":7200,"station_id":"ce4bh192rcd13ifvqdc0","pricing_plan_id":"cebpf4jnsgd1na2vs0mg"},{"bike_id":"19f607a3-0a54-4eff-a69a-0f6684840ec5","system_id":"levelo_inurba_marseille","lat":43.2495,"lon":5.40488,"is_reserved":false,"is_disabled":false,"rental_uris":{"android":"levelo://app?vid=19f607a3-0a54-4eff-a69a-0f6684840ec5","ios":"levelo://app?vid=19f607a3-0a54-4eff-a69a-0f6684840ec5"},"vehicle_type_id":"4","last_reported":1783372803,"current_range_meters":7200,"station_id":"st_d2ngiaodas8pm72gd1h0","pricing_plan_id":"cebpf4jnsgd1na2vs0mg"},{"bike_id":"0aa0565e-19c6-4a7f-b6e2-5e6e8c75e1cf","system_id":"levelo_inurba_marseille","lat":43.30947,"lon":5.39032,"is_reserved":false,"is_disabled":false,"rental_uris":{"android":"levelo://app?vid=0aa0565e-19c6-4a7f-b6e2-5e6e8c75e1cf","ios":"levelo://app?vid=0aa0565e-19c6-4a7f-b6e2-5e6e8c75e1cf"},"vehicle_type_id":"4","last_reported":1783372803,"current_range_meters":7200,"station_id":"ce4bgup2rcd13ifvqco0","pricing_plan_id":"cebpf4jnsgd1na2vs0mg"},{"bike_id":"4c59db62-5427-46c6-9d26-5bad55e837ae","system_id":"levelo_inurba_marseille","lat":43.2362,"lon":5.40352,"is_reserved":false,"is_disabled":false,"rental_uris":{"android":"levelo://app?vid=4c59db62-5427-46c6-9d26-5bad55e837ae","ios":"levelo://app?vid=4c59db62-5427-46c6-9d26-5bad55e837ae"},"vehicle_type_id":"4","last_reported":1783372803,"current_range_meters":7200,"station_id":"","pricing_plan_id":"cebpf4jnsgd1na2vs0mg"},{"bike_id":"f12954c2-1b6f-4584-a636-0a2083bce431","system_id":"levelo_inurba_marseille","lat":43.31326,"lon":5.4049,"is_reserved":false,"is_disabled":false,"rental_uris":{"android":"levelo://app?vid=f12954c2-1b6f-4584-a636-0a2083bce431","ios":"levelo://app?vid=f12954c2-1b6f-4584-a636-0a2083bce431"},"vehicle_type_id":"4","last_reported":1783372803,"current_range_meters":7200,"station_id":"","pricing_plan_id":"cebpf4jnsgd1na2vs0mg"},{"bike_id":"7b0c05ba-ad11-415c-b8e3-c739cde2ac50","system_id":"levelo_inurba_marseille","lat":43.29895,"lon":5.38158,"is_reserved":false,"is_disabled":false,"rental_uris":{"android":"levelo://app?vid=7b0c05ba-ad11-415c-b8e3-c739cde2ac50","ios":"levelo://app?vid=7b0c05ba-ad11-415c-b8e3-c739cde2ac50"},"vehicle_type_id":"4","last_reported":1783372803,"current_range_meters":7200,"station_id":"ce4bgj12rcd13ifvqbc0","pricing_plan_id":"cebpf4jnsgd1na2vs0mg"},{"bike_id":"4bc9be62-f455-4c11-a5f1-4b2ca6b9da6c","system_id":"levelo_inurba_marseille","lat":43.31228,"lon":5.36854,"is_reserved":false,"is_disabled":false,"rental_uris":{"android":"levelo://app?vid=4bc9be62-f455-4c11-a5f1-4b2ca6b9da6c","ios":"levelo://app?vid=4bc9be62-f455-4c11-a5f1-4b2ca6b9da6c"},"vehicle_type_id":"4","last_reported":1783372803,"current_range_meters":7200,"station_id":"ce4bgl92rcd13ifvqbq0","pricing_plan_id":"cebpf4jnsgd1na2vs0mg"},{"bike_id":"396c8593-55a2-45a0-9aa3-9e4ab624cca0","system_id":"levelo_inurba_marseille","lat":43.29528,"lon":5.3854,"is_reserved":false,"is_disabled":false,"rental_uris":{"android":"levelo://app?vid=396c8593-55a2-45a0-9aa3-9e4ab624cca0","ios":"levelo://app?vid=396c8593-55a2-45a0-9aa3-9e4ab624cca0"},"vehicle_type_id":"4","last_reported":1783372803,"current_range_meters":7200,"station_id":"ce4bgih2rcd13ifvqba0","pricing_plan_id":"cebpf4jnsgd1na2vs0mg"},{"bike_id":"5b0ada4d-76ff-4576-883f-11875d199ef1","system_id":"levelo_inurba_marseille","lat":43.28085,"lon":5.39658,"is_reserved":false,"is_disabled":false,"rental_uris":{"android":"levelo://app?vid=5b0ada4d-76ff-4576-883f-11875d199ef1","ios":"levelo://app?vid=5b0ada4d-76ff-4576-883f-11875d199ef1"},"vehicle_type_id":"4","last_reported":1783372803,"current_range_meters":7200,"station_id":"","pricing_plan_id":"cebpf4jnsgd1na2vs0mg"},{"bike_id":"6c1578a9-cf4e-4dca-8bb8-d3addb11f80a","system_id":"levelo_inurba_marseille","lat":43.25127,"lon":5.38577,"is_reserved":false,"is_disabled":false,"rental_uris":{"android":"levelo://app?vid=6c1578a9-cf4e-4dca-8bb8-d3addb11f80a","ios":"levelo://app?vid=6c1578a9-cf4e-4dca-8bb8-d3addb11f80a"},"vehicle_type_id":"4","last_reported":1783372803,"current_range_meters":7200,"station_id":"","pricing_plan_id":"cebpf4jnsgd1na2vs0mg"},{"bike_id":"48e9f399-608e-4ef3-aef5-0ea0fdd27ad4","system_id":"levelo_inurba_marseille","lat":43.29232,"lon":5.40974,"is_reserved":false,"is_disabled":true,"rental_uris":{"android":"levelo://app?vid=48e9f399-608e-4ef3-aef5-0ea0fdd27ad4","ios":"levelo://app?vid=48e9f399-608e-4ef3-aef5-0ea0fdd27ad4"},"vehicle_type_id":"4","last_reported":1783372803,"current_range_meters":7200,"station_id":"","pricing_plan_id":"cebpf4jnsgd1na2vs0mg"},{"bike_id":"ce246acd-8c78-4e93-8d68-b477575009da","system_id":"levelo_inurba_marseille","lat":43.25247,"lon":5.37794,"is_reserved":false,"is_disabled":false,"rental_uris":{"android":"levelo://app?vid=ce246acd-8c78-4e93-8d68-b477575009da","ios":"levelo://app?vid=ce246acd-8c78-4e93-8d68-b477575009da"},"vehicle_type_id":"4","last_reported":1783372803,"current_range_meters":7200,"station_id":"","pricing_plan_id":"cebpf4jnsgd1na2vs0mg"},{"bike_id":"9dbc6b5d-d921-4618-b2d6-4ccd5a1ce15a","system_id":"levelo_inurba_marseille","lat":43.3112,"lon":5.38231,"is_reserved":false,"is_disabled":false,"rental_uris":{"android":"levelo://app?vid=9dbc6b5d-d921-4618-b2d6-4ccd5a1ce15a","ios":"levelo://app?vid=9dbc6b5d-d921-4618-b2d6-4ccd5a1ce15a"},"vehicle_type_id":"4","last_reported":1783372803,"current_range_meters":8000,"station_id":"","pricing_plan_id":"cebpf4jnsgd1na2vs0mg"},{"bike_id":"6cec301e-ab04-4900-a636-722b8ba11ec7","system_id":"levelo_inurba_marseille","lat":43.293667,"lon":5.378287,"is_reserved":false,"is_disabled":false,"rental_uris":{"android":"levelo://app?vid=6cec301e-ab04-4900-a636-722b8ba11ec7","ios":"levelo://app?vid=6cec301e-ab04-4900-a636-722b8ba11ec7"},"vehicle_type_id":"4","last_reported":1783372803,"current_range_meters":8000,"station_id":"ce4bgjh2rcd13ifvqbf0","pricing_plan_id":"cebpf4jnsgd1na2vs0mg"},{"bike_id":"48baf9d8-7c54-446d-acef-aec0f74b8a22","system_id":"levelo_inurba_marseille","lat":43.2975,"lon":5.37113,"is_reserved":false,"is_disabled":false,"rental_uris":{"android":"levelo://app?vid=48baf9d8-7c54-446d-acef-aec0f74b8a22","ios":"levelo://app?vid=48baf9d8-7c54-446d-acef-aec0f74b8a22"},"vehicle_type_id":"4","last_reported":1783372803,"current_range_meters":8000,"station_id":"ce4bgop2rcd13ifvqc1g","pricing_plan_id":"cebpf4jnsgd1na2vs0mg"},{"bike_id":"401beb52-7dd5-4e26-b86e-92c4b7a914f4","system_id":"levelo_inurba_marseille","lat":43.28412,"lon":5.3499,"is_reserved":false,"is_disabled":true,"rental_uris":{"android":"levelo://app?vid=401beb52-7dd5-4e26-b86e-92c4b7a914f4","ios":"levelo://app?vid=401beb52-7dd5-4e26-b86e-92c4b7a914f4"},"vehicle_type_id":"4","last_reported":1783372803,"current_range_meters":8000,"station_id":"ce4bhbh2rcd13ifvqepg","pricing_plan_id":"cebpf4jnsgd1na2vs0mg"},{"bike_id":"5951597b-fe82-4381-875d-23c94025e45c","system_id":"levelo_inurba_marseille","lat":43.28479,"lon":5.48394,"is_reserved":false,"is_disabled":false,"rental_uris":{"android":"levelo://app?vid=5951597b-fe82-4381-875d-23c94025e45c","ios":"levelo://app?vid=5951597b-fe82-4381-875d-23c94025e45c"},"vehicle_type_id":"4","last_reported":1783372803,"current_range_meters":8000,"station_id":"st_d3svhcjqgbts73a3dn0g","pricing_plan_id":"cebpf4jnsgd1na2vs0mg"},{"bike_id":"6dba7751-9b32-49d1-8663-50c18acacf6a","system_id":"levelo_inurba_marseille","lat":43.3063,"lon":5.3756,"is_reserved":false,"is_disabled":false,"rental_uris":{"android":"levelo://app?vid=6dba7751-9b32-49d1-8663-50c18acacf6a","ios":"levelo://app?vid=6dba7751-9b32-49d1-8663-50c18acacf6a"},"vehicle_type_id":"4","last_reported":1783372803,"current_range_meters":8000,"station_id":"","pricing_plan_id":"cebpf4jnsgd1na2vs0mg"},{"bike_id":"17f1decd-895c-457d-8a02-5d1fea2b0446","system_id":"levelo_inurba_marseille","lat":43.24635,"lon":5.38185,"is_reserved":false,"is_disabled":false,"rental_uris":{"android":"levelo://app?vid=17f1decd-895c-457d-8a02-5d1fea2b0446","ios":"levelo://app?vid=17f1decd-895c-457d-8a02-5d1fea2b0446"},"vehicle_type_id":"4","last_reported":1783372803,"current_range_meters":8000,"station_id":"ce4bhih2rcd13ifvqfr0","pricing_plan_id":"cebpf4jnsgd1na2vs0mg"},{"bike_id":"69aa2a07-fa8e-4241-9a10-c2a605583547","system_id":"levelo_inurba_marseille","lat":43.23838,"lon":5.37195,"is_reserved":false,"is_disabled":false,"rental_uris":{"android":"levelo://app?vid=69aa2a07-fa8e-4241-9a10-c2a605583547","ios":"levelo://app?vid=69aa2a07-fa8e-4241-9a10-c2a605583547"},"vehicle_type_id":"4","last_reported":1783372803,"current_range_meters":8000,"station_id":"","pricing_plan_id":"cebpf4jnsgd1na2vs0mg"},{"bike_id":"e522c856-52e6-47d0-b70d-e1816d5e13fd","system_id":"levelo_inurba_marseille","lat":43.28549,"lon":5.39504,"is_reserved":false,"is_disabled":false,"rental_uris":{"android":"levelo://app?vid=e522c856-52e6-47d0-b70d-e1816d5e13fd","ios":"levelo://app?vid=e522c856-52e6-47d0-b70d-e1816d5e13fd"},"vehicle_type_id":"4","last_reported":1783372803,"current_range_meters":8000,"station_id":"ce4bh292rcd13ifvqdg0","pricing_plan_id":"cebpf4jnsgd1na2vs0mg"},{"bike_id":"ec9d965f-5787-4615-b161-5de0c0a63693","system_id":"levelo_inurba_marseille","lat":43.30547,"lon":5.38422,"is_reserved":false,"is_disabled":true,"rental_uris":{"android":"levelo://app?vid=ec9d965f-5787-4615-b161-5de0c0a63693","ios":"levelo://app?vid=ec9d965f-5787-4615-b161-5de0c0a63693"},"vehicle_type_id":"4","last_reported":1783372803,"current_range_meters":8000,"station_id":"ce4bgg92rcd13ifvqb30","pricing_plan_id":"cebpf4jnsgd1na2vs0mg"},{"bike_id":"1b38264d-b828-4294-b072-9ccc46169fbe","system_id":"levelo_inurba_marseille","lat":43.31102,"lon":5.43858,"is_reserved":false,"is_disabled":false,"rental_uris":{"android":"levelo://app?vid=1b38264d-b828-4294-b072-9ccc46169fbe","ios":"levelo://app?vid=1b38264d-b828-4294-b072-9ccc46169fbe"},"vehicle_type_id":"4","last_reported":1783372803,"current_range_meters":8000,"station_id":"","pricing_plan_id":"cebpf4jnsgd1na2vs0mg"},{"bike_id":"e3842490-ab86-4035-93b6-1f29e745eb57","system_id":"levelo_inurba_marseille","lat":43.28099,"lon":5.37831,"is_reserved":false,"is_disabled":false,"rental_uris":{"android":"levelo://app?vid=e3842490-ab86-4035-93b6-1f29e745eb57","ios":"levelo://app?vid=e3842490-ab86-4035-93b6-1f29e745eb57"},"vehicle_type_id":"4","last_reported":1783372803,"current_range_meters":8000,"station_id":"ce4bha12rcd13ifvqee0","pricing_plan_id":"cebpf4jnsgd1na2vs0mg"},{"bike_id":"c01c24ac-7761-4b9e-86f9-c1e700386839","system_id":"levelo_inurba_marseille","lat":43.25327,"lon":5.42166,"is_reserved":false,"is_disabled":false,"rental_uris":{"android":"levelo://app?vid=c01c24ac-7761-4b9e-86f9-c1e700386839","ios":"levelo://app?vid=c01c24ac-7761-4b9e-86f9-c1e700386839"},"vehicle_type_id":"4","last_reported":1783372803,"current_range_meters":8000,"station_id":"st_d2m65c5bi1j21697t3ng","pricing_plan_id":"cebpf4jnsgd1na2vs0mg"},{"bike_id":"969b7e93-b6c0-456d-95c3-6af3c557be1f","system_id":"levelo_inurba_marseille","lat":43.30885,"lon":5.39639,"is_reserved":false,"is_disabled":false,"rental_uris":{"android":"levelo://app?vid=969b7e93-b6c0-456d-95c3-6af3c557be1f","ios":"levelo://app?vid=969b7e93-b6c0-456d-95c3-6af3c557be1f"},"vehicle_type_id":"4","last_reported":1783372803,"current_range_meters":8000,"station_id":"ce4bh012rcd13ifvqcv0","pricing_plan_id":"cebpf4jnsgd1na2vs0mg"},{"bike_id":"5ffaa19f-dd0b-4bac-85af-22786ca61a92","system_id":"levelo_inurba_marseille","lat":43.29032,"lon":5.37568,"is_reserved":false,"is_disabled":false,"rental_uris":{"android":"levelo://app?vid=5ffaa19f-dd0b-4bac-85af-22786ca61a92","ios":"levelo://app?vid=5ffaa19f-dd0b-4bac-85af-22786ca61a92"},"vehicle_type_id":"4","last_reported":1783372803,"current_range_meters":8000,"station_id":"ce4bh692rcd13ifvqe90","pricing_plan_id":"cebpf4jnsgd1na2vs0mg"},{"bike_id":"ec21b348-a79c-45e5-a2ca-3a10372453e7","system_id":"levelo_inurba_marseille","lat":43.31916,"lon":5.3987,"is_reserved":false,"is_disabled":false,"rental_uris":{"android":"levelo://app?vid=ec21b348-a79c-45e5-a2ca-3a10372453e7","ios":"levelo://app?vid=ec21b348-a79c-45e5-a2ca-3a10372453e7"},"vehicle_type_id":"4","last_reported":1783372803,"current_range_meters":8000,"station_id":"","pricing_plan_id":"cebpf4jnsgd1na2vs0mg"},{"bike_id":"0cd0c2b1-6a85-4854-8519-e0e81dd22a24","system_id":"levelo_inurba_marseille","lat":43.3079,"lon":5.38153,"is_reserved":false,"is_disabled":false,"rental_uris":{"android":"levelo://app?vid=0cd0c2b1-6a85-4854-8519-e0e81dd22a24","ios":"levelo://app?vid=0cd0c2b1-6a85-4854-8519-e0e81dd22a24"},"vehicle_type_id":"4","last_reported":1783372803,"current_range_meters":8000,"station_id":"ce4bgt12rcd13ifvqce0","pricing_plan_id":"cebpf4jnsgd1na2vs0mg"},{"bike_id":"583ec566-2cf2-48bc-9626-d4706f5210df","system_id":"levelo_inurba_marseille","lat":43.29535,"lon":5.38555,"is_reserved":false,"is_disabled":false,"rental_uris":{"android":"levelo://app?vid=583ec566-2cf2-48bc-9626-d4706f5210df","ios":"levelo://app?vid=583ec566-2cf2-48bc-9626-d4706f5210df"},"vehicle_type_id":"4","last_reported":1783372803,"current_range_meters":8000,"station_id":"ce4bgih2rcd13ifvqba0","pricing_plan_id":"cebpf4jnsgd1na2vs0mg"},{"bike_id":"7cf32376-6200-45ff-ae05-abfa930fbf9e","system_id":"levelo_inurba_marseille","lat":43.26563,"lon":5.40317,"is_reserved":false,"is_disabled":false,"rental_uris":{"android":"levelo://app?vid=7cf32376-6200-45ff-ae05-abfa930fbf9e","ios":"levelo://app?vid=7cf32376-6200-45ff-ae05-abfa930fbf9e"},"vehicle_type_id":"4","last_reported":1783372803,"current_range_meters":8000,"station_id":"ce4bhmp2rcd13ifvqgng","pricing_plan_id":"cebpf4jnsgd1na2vs0mg"},{"bike_id":"7d794989-a551-4767-b546-91a1d3793c7b","system_id":"levelo_inurba_marseille","lat":43.31125,"lon":5.37774,"is_reserved":false,"is_disabled":false,"rental_uris":{"android":"levelo://app?vid=7d794989-a551-4767-b546-91a1d3793c7b","ios":"levelo://app?vid=7d794989-a551-4767-b546-91a1d3793c7b"},"vehicle_type_id":"4","last_reported":1783372803,"current_range_meters":8000,"station_id":"ce4bgt92rcd13ifvqcg0","pricing_plan_id":"cebpf4jnsgd1na2vs0mg"},{"bike_id":"e7c92eb6-ff06-4fe3-9343-e77715e9beef","system_id":"levelo_inurba_marseille","lat":43.29256,"lon":5.38435,"is_reserved":false,"is_disabled":false,"rental_uris":{"android":"levelo://app?vid=e7c92eb6-ff06-4fe3-9343-e77715e9beef","ios":"levelo://app?vid=e7c92eb6-ff06-4fe3-9343-e77715e9beef"},"vehicle_type_id":"4","last_reported":1783372803,"current_range_meters":8000,"station_id":"ce4bh692rcd13ifvqea0","pricing_plan_id":"cebpf4jnsgd1na2vs0mg"},{"bike_id":"b317d7cc-8d5c-436e-be4d-3f39c12001f3","system_id":"levelo_inurba_marseille","lat":43.30088,"lon":5.39074,"is_reserved":false,"is_disabled":false,"rental_uris":{"android":"levelo://app?vid=b317d7cc-8d5c-436e-be4d-3f39c12001f3","ios":"levelo://app?vid=b317d7cc-8d5c-436e-be4d-3f39c12001f3"},"vehicle_type_id":"4","last_reported":1783372803,"current_range_meters":8000,"station_id":"ce4bh192rcd13ifvqdb0","pricing_plan_id":"cebpf4jnsgd1na2vs0mg"},{"bike_id":"1a60d9d9-0873-40e1-8ed4-6dfbb9d7b564","system_id":"levelo_inurba_marseille","lat":43.250896,"lon":5.395273,"is_reserved":false,"is_disabled":false,"rental_uris":{"android":"levelo://app?vid=1a60d9d9-0873-40e1-8ed4-6dfbb9d7b564","ios":"levelo://app?vid=1a60d9d9-0873-40e1-8ed4-6dfbb9d7b564"},"vehicle_type_id":"4","last_reported":1783372803,"current_range_meters":8000,"station_id":"ce4bhm12rcd13ifvqgkg","pricing_plan_id":"cebpf4jnsgd1na2vs0mg"},{"bike_id":"4c46dec7-762d-41cc-86dc-609ed8e06eeb","system_id":"levelo_inurba_marseille","lat":43.26485,"lon":5.39566,"is_reserved":false,"is_disabled":false,"rental_uris":{"android":"levelo://app?vid=4c46dec7-762d-41cc-86dc-609ed8e06eeb","ios":"levelo://app?vid=4c46dec7-762d-41cc-86dc-609ed8e06eeb"},"vehicle_type_id":"4","last_reported":1783372803,"current_range_meters":8000,"station_id":"ce4bhi12rcd13ifvqfq0","pricing_plan_id":"cebpf4jnsgd1na2vs0mg"},{"bike_id":"b0a7bd82-c18a-49d2-84ba-e58826d43eea","system_id":"levelo_inurba_marseille","lat":43.25,"lon":5.38926,"is_reserved":false,"is_disabled":false,"rental_uris":{"android":"levelo://app?vid=b0a7bd82-c18a-49d2-84ba-e58826d43eea","ios":"levelo://app?vid=b0a7bd82-c18a-49d2-84ba-e58826d43eea"},"vehicle_type_id":"4","last_reported":1783372803,"current_range_meters":8000,"station_id":"ce4bhgp2rcd13ifvqfd0","pricing_plan_id":"cebpf4jnsgd1na2vs0mg"},{"bike_id":"7e7db7de-590b-4a1b-a86a-87265c93e888","system_id":"levelo_inurba_marseille","lat":43.31459,"lon":5.39567,"is_reserved":false,"is_disabled":false,"rental_uris":{"android":"levelo://app?vid=7e7db7de-590b-4a1b-a86a-87265c93e888","ios":"levelo://app?vid=7e7db7de-590b-4a1b-a86a-87265c93e888"},"vehicle_type_id":"4","last_reported":1783372803,"current_range_meters":8000,"station_id":"","pricing_plan_id":"cebpf4jnsgd1na2vs0mg"},{"bike_id":"9b2bbc6f-2370-4924-8b1a-4adef52cee36","system_id":"levelo_inurba_marseille","lat":43.30654,"lon":5.38325,"is_reserved":false,"is_disabled":false,"rental_uris":{"android":"levelo://app?vid=9b2bbc6f-2370-4924-8b1a-4adef52cee36","ios":"levelo://app?vid=9b2bbc6f-2370-4924-8b1a-4adef52cee36"},"vehicle_type_id":"4","last_reported":1783372803,"current_range_meters":8000,"station_id":"","pricing_plan_id":"cebpf4jnsgd1na2vs0mg"},{"bike_id":"5d86b446-fd99-4166-8a03-4ca2106a40d6","system_id":"levelo_inurba_marseille","lat":43.25061,"lon":5.4043,"is_reserved":false,"is_disabled":false,"rental_uris":{"android":"levelo://app?vid=5d86b446-fd99-4166-8a03-4ca2106a40d6","ios":"levelo://app?vid=5d86b446-fd99-4166-8a03-4ca2106a40d6"},"vehicle_type_id":"4","last_reported":1783372803,"current_range_meters":8000,"station_id":"","pricing_plan_id":"cebpf4jnsgd1na2vs0mg"},{"bike_id":"ba6b0161-56d2-4e88-a67d-ef9bbbf11663","system_id":"levelo_inurba_marseille","lat":43.29026,"lon":5.38124,"is_reserved":false,"is_disabled":false,"rental_uris":{"android":"levelo://app?vid=ba6b0161-56d2-4e88-a67d-ef9bbbf11663","ios":"levelo://app?vid=ba6b0161-56d2-4e88-a67d-ef9bbbf11663"},"vehicle_type_id":"4","last_reported":1783372803,"current_range_meters":8000,"station_id":"ce4bh4p2rcd13ifvqe1g","pricing_plan_id":"cebpf4jnsgd1na2vs0mg"},{"bike_id":"b62ea962-a506-4079-998d-e8b0a58aa1dc","system_id":"levelo_inurba_marseille","lat":43.23576,"lon":5.37506,"is_reserved":false,"is_disabled":false,"rental_uris":{"android":"levelo://app?vid=b62ea962-a506-4079-998d-e8b0a58aa1dc","ios":"levelo://app?vid=b62ea962-a506-4079-998d-e8b0a58aa1dc"},"vehicle_type_id":"4","last_reported":1783372803,"current_range_meters":8000,"station_id":"","pricing_plan_id":"cebpf4jnsgd1na2vs0mg"},{"bike_id":"f9f58845-3f51-4335-b9d3-e0b4b2630570","system_id":"levelo_inurba_marseille","lat":43.2621,"lon":5.37436,"is_reserved":false,"is_disabled":false,"rental_uris":{"android":"levelo://app?vid=f9f58845-3f51-4335-b9d3-e0b4b2630570","ios":"levelo://app?vid=f9f58845-3f51-4335-b9d3-e0b4b2630570"},"vehicle_type_id":"4","last_reported":1783372803,"current_range_meters":8400,"station_id":"ce4bhgp2rcd13ifvqfc0","pricing_plan_id":"cebpf4jnsgd1na2vs0mg"},{"bike_id":"20cd6934-09a6-4db7-8213-8e0fd256c447","system_id":"levelo_inurba_marseille","lat":43.2935,"lon":5.44516,"is_reserved":false,"is_disabled":false,"rental_uris":{"android":"levelo://app?vid=20cd6934-09a6-4db7-8213-8e0fd256c447","ios":"levelo://app?vid=20cd6934-09a6-4db7-8213-8e0fd256c447"},"vehicle_type_id":"4","last_reported":1783372803,"current_range_meters":8400,"station_id":"","pricing_plan_id":"cebpf4jnsgd1na2vs0mg"},{"bike_id":"40a7e3e2-7186-442f-83e0-abe588ec57c5","system_id":"levelo_inurba_marseille","lat":43.27939,"lon":5.38701,"is_reserved":false,"is_disabled":false,"rental_uris":{"android":"levelo://app?vid=40a7e3e2-7186-442f-83e0-abe588ec57c5","ios":"levelo://app?vid=40a7e3e2-7186-442f-83e0-abe588ec57c5"},"vehicle_type_id":"4","last_reported":1783372803,"current_range_meters":8400,"station_id":"","pricing_plan_id":"cebpf4jnsgd1na2vs0mg"},{"bike_id":"86e4f781-3982-4257-a386-8aedf18fc4a8","system_id":"levelo_inurba_marseille","lat":43.27826,"lon":5.39142,"is_reserved":false,"is_disabled":false,"rental_uris":{"android":"levelo://app?vid=86e4f781-3982-4257-a386-8aedf18fc4a8","ios":"levelo://app?vid=86e4f781-3982-4257-a386-8aedf18fc4a8"},"vehicle_type_id":"4","last_reported":1783372803,"current_range_meters":8400,"station_id":"","pricing_plan_id":"cebpf4jnsgd1na2vs0mg"},{"bike_id":"d1889649-51c1-452a-8149-baefae387508","system_id":"levelo_inurba_marseille","lat":43.27952,"lon":5.39116,"is_reserved":false,"is_disabled":false,"rental_uris":{"android":"levelo://app?vid=d1889649-51c1-452a-8149-baefae387508","ios":"levelo://app?vid=d1889649-51c1-452a-8149-baefae387508"},"vehicle_type_id":"4","last_reported":1783372803,"current_range_meters":8400,"station_id":"","pricing_plan_id":"cebpf4jnsgd1na2vs0mg"},{"bike_id":"902f4700-507c-471e-be4f-f63c740c35b0","system_id":"levelo_inurba_marseille","lat":43.26022,"lon":5.37558,"is_reserved":false,"is_disabled":false,"rental_uris":{"android":"levelo://app?vid=902f4700-507c-471e-be4f-f63c740c35b0","ios":"levelo://app?vid=902f4700-507c-471e-be4f-f63c740c35b0"},"vehicle_type_id":"4","last_reported":1783372803,"current_range_meters":8400,"station_id":"ce4bhgh2rcd13ifvqfa0","pricing_plan_id":"cebpf4jnsgd1na2vs0mg"},{"bike_id":"ac5f4070-4c77-4a68-8b7a-96e52d7df351","system_id":"levelo_inurba_marseille","lat":43.28385,"lon":5.37922,"is_reserved":false,"is_disabled":false,"rental_uris":{"android":"levelo://app?vid=ac5f4070-4c77-4a68-8b7a-96e52d7df351","ios":"levelo://app?vid=ac5f4070-4c77-4a68-8b7a-96e52d7df351"},"vehicle_type_id":"4","last_reported":1783372803,"current_range_meters":8400,"station_id":"","pricing_plan_id":"cebpf4jnsgd1na2vs0mg"},{"bike_id":"dbe966af-f006-490f-842b-e399f5b60d5f","system_id":"levelo_inurba_marseille","lat":43.25277,"lon":5.39472,"is_reserved":false,"is_disabled":false,"rental_uris":{"android":"levelo://app?vid=dbe966af-f006-490f-842b-e399f5b60d5f","ios":"levelo://app?vid=dbe966af-f006-490f-842b-e399f5b60d5f"},"vehicle_type_id":"4","last_reported":1783372803,"current_range_meters":8400,"station_id":"","pricing_plan_id":"cebpf4jnsgd1na2vs0mg"},{"bike_id":"3ee42266-3712-4488-b386-bdbbb5e2d040","system_id":"levelo_inurba_marseille","lat":43.25089,"lon":5.39523,"is_reserved":false,"is_disabled":true,"rental_uris":{"android":"levelo://app?vid=3ee42266-3712-4488-b386-bdbbb5e2d040","ios":"levelo://app?vid=3ee42266-3712-4488-b386-bdbbb5e2d040"},"vehicle_type_id":"4","last_reported":1783372803,"current_range_meters":8400,"station_id":"ce4bhm12rcd13ifvqgkg","pricing_plan_id":"cebpf4jnsgd1na2vs0mg"},{"bike_id":"f7809977-bda7-43e8-bb7e-4bef8b6f0f97","system_id":"levelo_inurba_marseille","lat":43.30005,"lon":5.37357,"is_reserved":false,"is_disabled":false,"rental_uris":{"android":"levelo://app?vid=f7809977-bda7-43e8-bb7e-4bef8b6f0f97","ios":"levelo://app?vid=f7809977-bda7-43e8-bb7e-4bef8b6f0f97"},"vehicle_type_id":"4","last_reported":1783372803,"current_range_meters":8400,"station_id":"","pricing_plan_id":"cebpf4jnsgd1na2vs0mg"},{"bike_id":"b25afc3c-31d7-48bf-9f6e-075059554549","system_id":"levelo_inurba_marseille","lat":43.2902,"lon":5.38644,"is_reserved":false,"is_disabled":false,"rental_uris":{"android":"levelo://app?vid=b25afc3c-31d7-48bf-9f6e-075059554549","ios":"levelo://app?vid=b25afc3c-31d7-48bf-9f6e-075059554549"},"vehicle_type_id":"4","last_reported":1783372803,"current_range_meters":8400,"station_id":"ce4bh4p2rcd13ifvqe0g","pricing_plan_id":"cebpf4jnsgd1na2vs0mg"},{"bike_id":"c687257a-b456-44d8-98f0-53ddaeafb7ee","system_id":"levelo_inurba_marseille","lat":43.26566,"lon":5.40336,"is_reserved":false,"is_disabled":false,"rental_uris":{"android":"levelo://app?vid=c687257a-b456-44d8-98f0-53ddaeafb7ee","ios":"levelo://app?vid=c687257a-b456-44d8-98f0-53ddaeafb7ee"},"vehicle_type_id":"4","last_reported":1783372803,"current_range_meters":8400,"station_id":"ce4bhmp2rcd13ifvqgng","pricing_plan_id":"cebpf4jnsgd1na2vs0mg"},{"bike_id":"cf0e9e2c-74c6-498c-981c-69005bb84ece","system_id":"levelo_inurba_marseille","lat":43.31112,"lon":5.37759,"is_reserved":false,"is_disabled":false,"rental_uris":{"android":"levelo://app?vid=cf0e9e2c-74c6-498c-981c-69005bb84ece","ios":"levelo://app?vid=cf0e9e2c-74c6-498c-981c-69005bb84ece"},"vehicle_type_id":"4","last_reported":1783372803,"current_range_meters":8400,"station_id":"ce4bgt92rcd13ifvqcg0","pricing_plan_id":"cebpf4jnsgd1na2vs0mg"},{"bike_id":"0f582eda-830a-4ae7-98f7-ca864572c926","system_id":"levelo_inurba_marseille","lat":43.28693,"lon":5.46692,"is_reserved":false,"is_disabled":false,"rental_uris":{"android":"levelo://app?vid=0f582eda-830a-4ae7-98f7-ca864572c926","ios":"levelo://app?vid=0f582eda-830a-4ae7-98f7-ca864572c926"},"vehicle_type_id":"4","last_reported":1783372803,"current_range_meters":8400,"station_id":"st_d6tc3vkotcvc738tfjhg","pricing_plan_id":"cebpf4jnsgd1na2vs0mg"},{"bike_id":"b91befbb-6e17-4be1-8cb9-8bec22a584cc","system_id":"levelo_inurba_marseille","lat":43.26544,"lon":5.42215,"is_reserved":false,"is_disabled":false,"rental_uris":{"android":"levelo://app?vid=b91befbb-6e17-4be1-8cb9-8bec22a584cc","ios":"levelo://app?vid=b91befbb-6e17-4be1-8cb9-8bec22a584cc"},"vehicle_type_id":"4","last_reported":1783372803,"current_range_meters":8400,"station_id":"","pricing_plan_id":"cebpf4jnsgd1na2vs0mg"},{"bike_id":"e7667868-2adf-4474-b30c-08edb42dae74","system_id":"levelo_inurba_marseille","lat":43.22934,"lon":5.35376,"is_reserved":false,"is_disabled":false,"rental_uris":{"android":"levelo://app?vid=e7667868-2adf-4474-b30c-08edb42dae74","ios":"levelo://app?vid=e7667868-2adf-4474-b30c-08edb42dae74"},"vehicle_type_id":"4","last_reported":1783372803,"current_range_meters":8400,"station_id":"cpo3532slgdg3j2ikp40","pricing_plan_id":"cebpf4jnsgd1na2vs0mg"},