{"last_updated":1698613507,"ttl":30,"version":"2.2","data":{"bikes":[{"bike_id":"dc6f4139-8b6d-40f6-9e5c-bf54b7e00aec","system_id":"levelo_inurba_marseille","lat":43.312239,"lon":5.368562,"is_reserved":false,"is_disabled":false,"rental_uris":{"android":"levelo://app?vid=dc6f4139-8b6d-40f6-9e5c-bf54b7e00aec","ios":"levelo://app?vid=dc6f4139-8b6d-40f6-9e5c-bf54b7e00aec"},"vehicle_type_id":"4","last_reported":1698613507,"current_range_meters":1600,"station_id":"ce4bgl92rcd13ifvqbq0","pricing_plan_id":"free"},{"bike_id":"5842af47-ff77-4f77-8605-3239ede79882","system_id":"levelo_inurba_marseille","lat":43.312239,"lon":5.368562,"is_reserved":false,"is_disabled":false,"rental_uris":{"android":"levelo://app?vid=5842af47-ff77-4f77-8605-3239ede79882","ios":"levelo://app?vid=5842af47-ff77-4f77-8605-3239ede79882"},"vehicle_type_id":"4","last_reported":1698613507,"current_range_meters":14800,"station_id":"ce4bgl92rcd13ifvqbq0","pricing_plan_id":"free"},{"bike_id":"b1cb48cb-22d4-4cd4-97b0-038c1cf723b7","system_id":"levelo_inurba_marseille","lat":43.315186,"lon":5.371432,"is_reserved":false,"is_disabled":false,"rental_uris":{"android":"levelo://app?vid=b1cb48cb-22d4-4cd4-97b0-038c1cf723b7","ios":"levelo://app?vid=b1cb48cb-22d4-4cd4-97b0-038c1cf723b7"},"vehicle_type_id":"4","last_reported":1698613507,"current_range_meters":14000,"station_id":"","pricing_plan_id":"free"},{"bike_id":"f252b071-dddd-4e5f-ad07-506846af6d1a","system_id":"levelo_inurba_marseille","lat":43.30541,"lon":5.36534,"is_reserved":false,"is_disabled":false,"rental_uris":{"android":"levelo://app?vid=f252b071-dddd-4e5f-ad07-506846af6d1a","ios":"levelo://app?vid=f252b071-dddd-4e5f-ad07-506846af6d1a"},"vehicle_type_id":"4","last_reported":1698613507,"current_range_meters":31200,"station_id":"ce4bgs12rcd13ifvqcag","pricing_plan_id":"free"},{"bike_id":"5ff541fb-c7c8-44ef-9790-80456d390630","system_id":"levelo_inurba_marseille","lat":43.30536,"lon":5.36546,"is_reserved":false,"is_disabled":false,"rental_uris":{"android":"levelo://app?vid=5ff541fb-c7c8-44ef-9790-80456d390630","ios":"levelo://app?vid=5ff541fb-c7c8-44ef-9790-80456d390630"},"vehicle_type_id":"4","last_reported":1698613507,"current_range_meters":0,"station_id":"ce4bgs12rcd13ifvqcag","pricing_plan_id":"free"},{"bike_id":"e0d5e61c-ee0c-4ad8-84d2-13ff1cf8a0b9","system_id":"levelo_inurba_marseille","lat":43.317075,"lon":5.377367,"is_reserved":false,"is_disabled":false,"rental_uris":{"android":"levelo://app?vid=e0d5e61c-ee0c-4ad8-84d2-13ff1cf8a0b9","ios":"levelo://app?vid=e0d5e61c-ee0c-4ad8-84d2-13ff1cf8a0b9"},"vehicle_type_id":"4","last_reported":1698613507,"current_range_meters":16400,"station_id":"ce4bgth2rcd13ifvqch0","pricing_plan_id":"free"},{"bike_id":"347a96c1-5466-4832-94a6-086840389082","system_id":"levelo_inurba_marseille","lat":43.317075,"lon":5.377367,"is_reserved":false,"is_disabled":false,"rental_uris":{"android":"levelo://app?vid=347a96c1-5466-4832-94a6-086840389082","ios":"levelo://app?vid=347a96c1-5466-4832-94a6-086840389082"},"vehicle_type_id":"4","last_reported":1698613507,"current_range_meters":26400,"station_id":"ce4bgth2rcd13ifvqch0","pricing_plan_id":"free"},{"bike_id":"49754a0f-6c4f-41ac-9039-11c63b693080","system_id":"levelo_inurba_marseille","lat":43.32204,"lon":5.36751,"is_reserved":false,"is_disabled":false,"rental_uris":{"android":"levelo://app?vid=49754a0f-6c4f-41ac-9039-11c63b693080","ios":"levelo://app?vid=49754a0f-6c4f-41ac-9039-11c63b693080"},"vehicle_type_id":"4","last_reported":1698613507,"current_range_meters":18400,"station_id":"","pricing_plan_id":"free"},{"bike_id":"2b9931f5-6d99-4091-9d8f-986af16e0ac5","system_id":"levelo_inurba_marseille","lat":43.31529,"lon":5.38031,"is_reserved":false,"is_disabled":false,"rental_uris":{"android":"levelo://app?vid=2b9931f5-6d99-4091-9d8f-986af16e0ac5","ios":"levelo://app?vid=2b9931f5-6d99-4091-9d8f-986af16e0ac5"},"vehicle_type_id":"4","last_reported":1698613507,"current_range_meters":800,"station_id":"ce4bhsp2rcd13ifvqi50","pricing_plan_id":"free"},{"bike_id":"e3f253a1-9788-4492-938f-39b642fbd881","system_id":"levelo_inurba_marseille","lat":43.3245,"lon":5.36788,"is_reserved":false,"is_disabled":false,"rental_uris":{"android":"levelo://app?vid=e3f253a1-9788-4492-938f-39b642fbd881","ios":"levelo://app?vid=e3f253a1-9788-4492-938f-39b642fbd881"},"vehicle_type_id":"4","last_reported":1698613507,"current_range_meters":4800,"station_id":"","pricing_plan_id":"free"},{"bike_id":"d797f1e6-f3ca-4ad7-8b56-5ed6191da53c","system_id":"levelo_inurba_marseille","lat":43.304606,"lon":5.379026,"is_reserved":false,"is_disabled":false,"rental_uris":{"android":"levelo://app?vid=d797f1e6-f3ca-4ad7-8b56-5ed6191da53c","ios":"levelo://app?vid=d797f1e6-f3ca-4ad7-8b56-5ed6191da53c"},"vehicle_type_id":"4","last_reported":1698613507,"current_range_meters":25200,"station_id":"ce4bgup2rcd13ifvqcn0","pricing_plan_id":"free"},{"bike_id":"33799d3a-1a35-4946-b871-92caf48036ec","system_id":"levelo_inurba_marseille","lat":43.32473,"lon":5.36565,"is_reserved":false,"is_disabled":false,"rental_uris":{"android":"levelo://app?vid=33799d3a-1a35-4946-b871-92caf48036ec","ios":"levelo://app?vid=33799d3a-1a35-4946-b871-92caf48036ec"},"vehicle_type_id":"4","last_reported":1698613507,"current_range_meters":23600,"station_id":"","pricing_plan_id":"free"},{"bike_id":"d177f840-926d-43b5-b656-8750c3d13e8a","system_id":"levelo_inurba_marseille","lat":43.32485,"lon":5.36575,"is_reserved":false,"is_disabled":false,"rental_uris":{"android":"levelo://app?vid=d177f840-926d-43b5-b656-8750c3d13e8a","ios":"levelo://app?vid=d177f840-926d-43b5-b656-8750c3d13e8a"},"vehicle_type_id":"4","last_reported":1698613507,"current_range_meters":24400,"station_id":"","pricing_plan_id":"free"},{"bike_id":"31a6c390-abdc-4b53-9e81-f3d196ca3d02","system_id":"levelo_inurba_marseille","lat":43.30143,"lon":5.37413,"is_reserved":false,"is_disabled":false,"rental_uris":{"android":"levelo://app?vid=31a6c390-abdc-4b53-9e81-f3d196ca3d02","ios":"levelo://app?vid=31a6c390-abdc-4b53-9e81-f3d196ca3d02"},"vehicle_type_id":"4","last_reported":1698613507,"current_range_meters":0,"station_id":"ce4bgs92rcd13ifvqcc0","pricing_plan_id":"free"},{"bike_id":"9ac00b33-61ae-44db-994b-08765d7a8162","system_id":"levelo_inurba_marseille","lat":43.30143,"lon":5.37413,"is_reserved":false,"is_disabled":false,"rental_uris":{"android":"levelo://app?vid=9ac00b33-61ae-44db-994b-08765d7a8162","ios":"levelo://app?vid=9ac00b33-61ae-44db-994b-08765d7a8162"},"vehicle_type_id":"4","last_reported":1698613507,"current_range_meters":800,"station_id":"ce4bgs92rcd13ifvqcc0","pricing_plan_id":"free"},{"bike_id":"1908761d-f54d-4e92-9e18-174e086455e1","system_id":"levelo_inurba_marseille","lat":43.30143,"lon":5.37413,"is_reserved":false,"is_disabled":false,"rental_uris":{"android":"levelo://app?vid=1908761d-f54d-4e92-9e18-174e086455e1","ios":"levelo://app?vid=1908761d-f54d-4e92-9e18-174e086455e1"},"vehicle_type_id":"4","last_reported":1698613507,"current_range_meters":15600,"station_id":"ce4bgs92rcd13ifvqcc0","pricing_plan_id":"free"},{"bike_id":"504dadd1-24d1-45d8-bef6-1c3693924251","system_id":"levelo_inurba_marseille","lat":43.319913,"lon":5.381567,"is_reserved":false,"is_disabled":false,"rental_uris":{"android":"levelo://app?vid=504dadd1-24d1-45d8-bef6-1c3693924251","ios":"levelo://app?vid=504dadd1-24d1-45d8-bef6-1c3693924251"},"vehicle_type_id":"4","last_reported":1698613507,"current_range_meters":6400,"station_id":"ce4bhr12rcd13ifvqhpg","pricing_plan_id":"free"},{"bike_id":"cb61aa21-59b5-429a-8468-122a4c5e452c","system_id":"levelo_inurba_marseille","lat":43.31995,"lon":5.38162,"is_reserved":false,"is_disabled":false,"rental_uris":{"android":"levelo://app?vid=cb61aa21-59b5-429a-8468-122a4c5e452c","ios":"levelo://app?vid=cb61aa21-59b5-429a-8468-122a4c5e452c"},"vehicle_type_id":"4","last_reported":1698613507,"current_range_meters":11600,"station_id":"ce4bhr12rcd13ifvqhpg","pricing_plan_id":"free"},{"bike_id":"eb9ce977-db73-49f0-acb3-72bf40e9860d","system_id":"levelo_inurba_marseille","lat":43.313571,"lon":5.384829,"is_reserved":false,"is_disabled":false,"rental_uris":{"android":"levelo://app?vid=eb9ce977-db73-49f0-acb3-72bf40e9860d","ios":"levelo://app?vid=eb9ce977-db73-49f0-acb3-72bf40e9860d"},"vehicle_type_id":"4","last_reported":1698613507,"current_range_meters":28000,"station_id":"ce4bgt92rcd13ifvqcf0","pricing_plan_id":"free"},{"bike_id":"2f1ab682-82fd-4b0c-bc2e-e244b0ffb1c5","system_id":"levelo_inurba_marseille","lat":43.313571,"lon":5.384829,"is_reserved":false,"is_disabled":false,"rental_uris":{"android":"levelo://app?vid=2f1ab682-82fd-4b0c-bc2e-e244b0ffb1c5","ios":"levelo://app?vid=2f1ab682-82fd-4b0c-bc2e-e244b0ffb1c5"},"vehicle_type_id":"4","last_reported":1698613507,"current_range_meters":30400,"station_id":"ce4bgt92rcd13ifvqcf0","pricing_plan_id":"free"},{"bike_id":"12aebd41-6e82-4f3f-aea5-634118f07ec8","system_id":"levelo_inurba_marseille","lat":43.313571,"lon":5.384829,"is_reserved":false,"is_disabled":false,"rental_uris":{"android":"levelo://app?vid=12aebd41-6e82-4f3f-aea5-634118f07ec8","ios":"levelo://app?vid=12aebd41-6e82-4f3f-aea5-634118f07ec8"},"vehicle_type_id":"4","last_reported":1698613507,"current_range_meters":21600,"station_id":"ce4bgt92rcd13ifvqcf0","pricing_plan_id":"free"},{"bike_id":"a1b5bccf-b05a-4c32-b853-aabb8ae676e2","system_id":"levelo_inurba_marseille","lat":43.299222,"lon":5.365554,"is_reserved":false,"is_disabled":false,"rental_uris":{"android":"levelo://app?vid=a1b5bccf-b05a-4c32-b853-aabb8ae676e2","ios":"levelo://app?vid=a1b5bccf-b05a-4c32-b853-aabb8ae676e2"},"vehicle_type_id":"4","last_reported":1698613507,"current_range_meters":0,"station_id":"ce4bgm92rcd13ifvqbr0","pricing_plan_id":"free"},{"bike_id":"5ba66772-20b6-408d-a6c3-0df1cd4bb678","system_id":"levelo_inurba_marseille","lat":43.3264,"lon":5.367334,"is_reserved":false,"is_disabled":false,"rental_uris":{"android":"levelo://app?vid=5ba66772-20b6-408d-a6c3-0df1cd4bb678","ios":"levelo://app?vid=5ba66772-20b6-408d-a6c3-0df1cd4bb678"},"vehicle_type_id":"4","last_reported":1698613507,"current_range_meters":12800,"station_id":"","pricing_plan_id":"free"},{"bike_id":"12502785-0416-48b1-ace3-e097f07644a4","system_id":"levelo_inurba_marseille","lat":43.311722,"lon":5.387247,"is_reserved":false,"is_disabled":false,"rental_uris":{"android":"levelo://app?vid=12502785-0416-48b1-ace3-e097f07644a4","ios":"levelo://app?vid=12502785-0416-48b1-ace3-e097f07644a4"},"vehicle_type_id":"4","last_reported":1698613507,"current_range_meters":29600,"station_id":"ce4bgv12rcd13ifvqcp0","pricing_plan_id":"free"},{"bike_id":"261ee04e-503f-442a-92b8-9a21484fc4c3","system_id":"levelo_inurba_marseille","lat":43.311722,"lon":5.387247,"is_reserved":false,"is_disabled":false,"rental_uris":{"android":"levelo://app?vid=261ee04e-503f-442a-92b8-9a21484fc4c3","ios":"levelo://app?vid=261ee04e-503f-442a-92b8-9a21484fc4c3"},"vehicle_type_id":"4","last_reported":1698613507,"current_range_meters":30800,"station_id":"ce4bgv12rcd13ifvqcp0","pricing_plan_id":"free"},{"bike_id":"dd19d9ac-aa90-45a2-8163-da0aeeea09b9","system_id":"levelo_inurba_marseille","lat":43.311722,"lon":5.387247,"is_reserved":false,"is_disabled":false,"rental_uris":{"android":"levelo://app?vid=dd19d9ac-aa90-45a2-8163-da0aeeea09b9","ios":"levelo://app?vid=dd19d9ac-aa90-45a2-8163-da0aeeea09b9"},"vehicle_type_id":"4","last_reported":1698613507,"current_range_meters":29600,"station_id":"ce4bgv12rcd13ifvqcp0","pricing_plan_id":"free"},{"bike_id":"12a6aa28-f215-4a98-ba68-75d633da484a","system_id":"levelo_inurba_marseille","lat":43.311722,"lon":5.387247,"is_reserved":false,"is_disabled":false,"rental_uris":{"android":"levelo://app?vid=12a6aa28-f215-4a98-ba68-75d633da484a","ios":"levelo://app?vid=12a6aa28-f215-4a98-ba68-75d633da484a"},"vehicle_type_id":"4","last_reported":1698613507,"current_range_meters":22400,"station_id":"ce4bgv12rcd13ifvqcp0","pricing_plan_id":"free"},{"bike_id":"5188b664-334e-478e-a6c2-7c462c912c53","system_id":"levelo_inurba_marseille","lat":43.311722,"lon":5.387247,"is_reserved":false,"is_disabled":false,"rental_uris":{"android":"levelo://app?vid=5188b664-334e-478e-a6c2-7c462c912c53","ios":"levelo://app?vid=5188b664-334e-478e-a6c2-7c462c912c53"},"vehicle_type_id":"4","last_reported":1698613507,"current_range_meters":18400,"station_id":"ce4bgv12rcd13ifvqcp0","pricing_plan_id":"free"},{"bike_id":"d73bdb55-9b1c-4e22-b38b-50c2237083a0","system_id":"levelo_inurba_marseille","lat":43.311722,"lon":5.387247,"is_reserved":false,"is_disabled":false,"rental_uris":{"android":"levelo://app?vid=d73bdb55-9b1c-4e22-b38b-50c2237083a0","ios":"levelo://app?vid=d73bdb55-9b1c-4e22-b38b-50c2237083a0"},"vehicle_type_id":"4","last_reported":1698613507,"current_range_meters":15200,"station_id":"ce4bgv12rcd13ifvqcp0","pricing_plan_id":"free"},{"bike_id":"b268b5a1-f520-4edd-b3be-a567d7dc309c","system_id":"levelo_inurba_marseille","lat":43.328371,"lon":5.366909,"is_reserved":false,"is_disabled":false,"rental_uris":{"android":"levelo://app?vid=b268b5a1-f520-4edd-b3be-a567d7dc309c","ios":"levelo://app?vid=b268b5a1-f520-4edd-b3be-a567d7dc309c"},"vehicle_type_id":"4","last_reported":1698613507,"current_range_meters":23200,"station_id":"ce4bhs92rcd13ifvqi0g","pricing_plan_id":"free"},{"bike_id":"7058fde7-e208-4c67-9c3f-b8160ae07a6d","system_id":"levelo_inurba_marseille","lat":43.3283,"lon":5.3668,"is_reserved":false,"is_disabled":false,"rental_uris":{"android":"levelo://app?vid=7058fde7-e208-4c67-9c3f-b8160ae07a6d","ios":"levelo://app?vid=7058fde7-e208-4c67-9c3f-b8160ae07a6d"},"vehicle_type_id":"4","last_reported":1698613507,"current_range_meters":12400,"station_id":"ce4bhs92rcd13ifvqi0g","pricing_plan_id":"free"},{"bike_id":"1401713a-906e-435e-8b48-1afc57029fa7","system_id":"levelo_inurba_marseille","lat":43.328371,"lon":5.366909,"is_reserved":false,"is_disabled":false,"rental_uris":{"android":"levelo://app?vid=1401713a-906e-435e-8b48-1afc57029fa7","ios":"levelo://app?vid=1401713a-906e-435e-8b48-1afc57029fa7"},"vehicle_type_id":"4","last_reported":1698613507,"current_range_meters":11600,"station_id":"ce4bhs92rcd13ifvqi0g","pricing_plan_id":"free"},{"bike_id":"2bf09692-7151-4aba-9fa7-8ce1d6106004","system_id":"levelo_inurba_marseille","lat":43.328303,"lon":5.366873,"is_reserved":false,"is_disabled":false,"rental_uris":{"android":"levelo://app?vid=2bf09692-7151-4aba-9fa7-8ce1d6106004","ios":"levelo://app?vid=2bf09692-7151-4aba-9fa7-8ce1d6106004"},"vehicle_type_id":"4","last_reported":1698613507,"current_range_meters":8000,"station_id":"","pricing_plan_id":"free"},{"bike_id":"ca43266d-8f64-4304-9316-b8acc0650052","system_id":"levelo_inurba_marseille","lat":43.32831,"lon":5.36679,"is_reserved":false,"is_disabled":false,"rental_uris":{"android":"levelo://app?vid=ca43266d-8f64-4304-9316-b8acc0650052","ios":"levelo://app?vid=ca43266d-8f64-4304-9316-b8acc0650052"},"vehicle_type_id":"4","last_reported":1698613507,"current_range_meters":3600,"station_id":"ce4bhs92rcd13ifvqi0g","pricing_plan_id":"free"},{"bike_id":"86bb0a20-8123-4e0e-84f3-756c4bdb05df","system_id":"levelo_inurba_marseille","lat":43.32833,"lon":5.3669,"is_reserved":false,"is_disabled":false,"rental_uris":{"android":"levelo://app?vid=86bb0a20-8123-4e0e-84f3-756c4bdb05df","ios":"levelo://app?vid=86bb0a20-8123-4e0e-84f3-756c4bdb05df"},"vehicle_type_id":"4","last_reported":1698613507,"current_range_meters":18800,"station_id":"ce4bhs92rcd13ifvqi0g","pricing_plan_id":"free"},{"bike_id":"98cdae56-93ed-4430-a8b5-f41663ddefc0","system_id":"levelo_inurba_marseille","lat":43.328371,"lon":5.366909,"is_reserved":false,"is_disabled":false,"rental_uris":{"android":"levelo://app?vid=98cdae56-93ed-4430-a8b5-f41663ddefc0","ios":"levelo://app?vid=98cdae56-93ed-4430-a8b5-f41663ddefc0"},"vehicle_type_id":"4","last_reported":1698613507,"current_range_meters":31200,"station_id":"ce4bhs92rcd13ifvqi0g","pricing_plan_id":"free"},{"bike_id":"dd1c0b20-019a-4f88-ae15-bb2c3eed70ed","system_id":"levelo_inurba_marseille","lat":43.318987,"lon":5.388063,"is_reserved":false,"is_disabled":false,"rental_uris":{"android":"levelo://app?vid=dd1c0b20-019a-4f88-ae15-bb2c3eed70ed","ios":"levelo://app?vid=dd1c0b20-019a-4f88-ae15-bb2c3eed70ed"},"vehicle_type_id":"4","last_reported":1698613507,"current_range_meters":0,"station_id":"","pricing_plan_id":"free"},{"bike_id":"f3d0381f-7a2d-409e-a12f-bd3d9095653d","system_id":"levelo_inurba_marseille","lat":43.329673,"lon":5.365468,"is_reserved":false,"is_disabled":false,"rental_uris":{"android":"levelo://app?vid=f3d0381f-7a2d-409e-a12f-bd3d9095653d","ios":"levelo://app?vid=f3d0381f-7a2d-409e-a12f-bd3d9095653d"},"vehicle_type_id":"4","last_reported":1698613507,"current_range_meters":0,"station_id":"","pricing_plan_id":"free"},{"bike_id":"722b9e76-26fa-4a9c-8f7f-8427e137ffb1","system_id":"levelo_inurba_marseille","lat":43.29716,"lon":5.37695,"is_reserved":false,"is_disabled":false,"rental_uris":{"android":"levelo://app?vid=722b9e76-26fa-4a9c-8f7f-8427e137ffb1","ios":"levelo://app?vid=722b9e76-26fa-4a9c-8f7f-8427e137ffb1"},"vehicle_type_id":"4","last_reported":1698613507,"current_range_meters":7200,"station_id":"ce4bgkh2rcd13ifvqbl0","pricing_plan_id":"free"},{"bike_id":"1d2c5514-6961-4ee6-952e-694f4d60fad5","system_id":"levelo_inurba_marseille","lat":43.317557,"lon":5.390173,"is_reserved":false,"is_disabled":false,"rental_uris":{"android":"levelo://app?vid=1d2c5514-6961-4ee6-952e-694f4d60fad5","ios":"levelo://app?vid=1d2c5514-6961-4ee6-952e-694f4d60fad5"},"vehicle_type_id":"4","last_reported":1698613507,"current_range_meters":12000,"station_id":"ce4bhqp2rcd13ifvqhng","pricing_plan_id":"free"},{"bike_id":"d2330b69-e424-41d8-a009-0931c9af4488","system_id":"levelo_inurba_marseille","lat":43.317557,"lon":5.390173,"is_reserved":false,"is_disabled":false,"rental_uris":{"android":"levelo://app?vid=d2330b69-e424-41d8-a009-0931c9af4488","ios":"levelo://app?vid=d2330b69-e424-41d8-a009-0931c9af4488"},"vehicle_type_id":"4","last_reported":1698613507,"current_range_meters":12400,"station_id":"ce4bhqp2rcd13ifvqhng","pricing_plan_id":"free"},{"bike_id":"cf61e4a6-a968-40c7-898c-f70b21797abb","system_id":"levelo_inurba_marseille","lat":43.304274,"lon":5.388873,"is_reserved":false,"is_disabled":false,"rental_uris":{"android":"levelo://app?vid=cf61e4a6-a968-40c7-898c-f70b21797abb","ios":"levelo://app?vid=cf61e4a6-a968-40c7-898c-f70b21797abb"},"vehicle_type_id":"4","last_reported":1698613507,"current_range_meters":27600,"station_id":"ce4bgk12rcd13ifvqbi0","pricing_plan_id":"free"},{"bike_id":"be328c6d-4598-44fd-84c7-bc9e91c0afce","system_id":"levelo_inurba_marseille","lat":43.304278,"lon":5.388868,"is_reserved":false,"is_disabled":false,"rental_uris":{"android":"levelo://app?vid=be328c6d-4598-44fd-84c7-bc9e91c0afce","ios":"levelo://app?vid=be328c6d-4598-44fd-84c7-bc9e91c0afce"},"vehicle_type_id":"4","last_reported":1698613507,"current_range_meters":18000,"station_id":"ce4bgk12rcd13ifvqbi0","pricing_plan_id":"free"},{"bike_id":"c0a4862a-d351-4a25-b11b-e0dff01e05fa","system_id":"levelo_inurba_marseille","lat":43.296263,"lon":5.377094,"is_reserved":false,"is_disabled":false,"rental_uris":{"android":"levelo://app?vid=c0a4862a-d351-4a25-b11b-e0dff01e05fa","ios":"levelo://app?vid=c0a4862a-d351-4a25-b11b-e0dff01e05fa"},"vehicle_type_id":"4","last_reported":1698613507,"current_range_meters":8400,"station_id":"ce4bgi92rcd13ifvqb90","pricing_plan_id":"free"},{"bike_id":"c95bac4a-3ca1-44f7-8064-33babbe9add6","system_id":"levelo_inurba_marseille","lat":43.296263,"lon":5.377094,"is_reserved":false,"is_disabled":false,"rental_uris":{"android":"levelo://app?vid=c95bac4a-3ca1-44f7-8064-33babbe9add6","ios":"levelo://app?vid=c95bac4a-3ca1-44f7-8064-33babbe9add6"},"vehicle_type_id":"4","last_reported":1698613507,"current_range_meters":12800,"station_id":"ce4bgi92rcd13ifvqb90","pricing_plan_id":"free"},{"bike_id":"1baf3d5b-3af9-49b1-a1ef-13ee611a1f74","system_id":"levelo_inurba_marseille","lat":43.295279,"lon":5.375048,"is_reserved":false,"is_disabled":false,"rental_uris":{"android":"levelo://app?vid=1baf3d5b-3af9-49b1-a1ef-13ee611a1f74","ios":"levelo://app?vid=1baf3d5b-3af9-49b1-a1ef-13ee611a1f74"},"vehicle_type_id":"4","last_reported":1698613507,"current_range_meters":0,"station_id":"ce4bgkp2rcd13ifvqbmg","pricing_plan_id":"free"},{"bike_id":"542504a4-fbb1-42ba-97df-f157e431fc08","system_id":"levelo_inurba_marseille","lat":43.296263,"lon":5.377094,"is_reserved":false,"is_disabled":false,"rental_uris":{"android":"levelo://app?vid=542504a4-fbb1-42ba-97df-f157e431fc08","ios":"levelo://app?vid=542504a4-fbb1-42ba-97df-f157e431fc08"},"vehicle_type_id":"4","last_reported":1698613507,"current_range_meters":2400,"station_id":"ce4bgi92rcd13ifvqb90","pricing_plan_id":"free"},{"bike_id":"29edbe36-a725-4da3-8db1-8a01427efb17","system_id":"levelo_inurba_marseille","lat":43.299717,"lon":5.384845,"is_reserved":false,"is_disabled":false,"rental_uris":{"android":"levelo://app?vid=29edbe36-a725-4da3-8db1-8a01427efb17","ios":"levelo://app?vid=29edbe36-a725-4da3-8db1-8a01427efb17"},"vehicle_type_id":"4","last_reported":1698613507,"current_range_meters":9600,"station_id":"ce4bgj92rcd13ifvqbd0","pricing_plan_id":"free"},{"bike_id":"95de5542-6169-4cc9-ac6c-3d5eadba97c0","system_id":"levelo_inurba_marseille","lat":43.32366,"lon":5.38882,"is_reserved":false,"is_disabled":false,"rental_uris":{"android":"levelo://app?vid=95de5542-6169-4cc9-ac6c-3d5eadba97c0","ios":"levelo://app?vid=95de5542-6169-4cc9-ac6c-3d5eadba97c0"},"vehicle_type_id":"4","last_reported":1698613507,"current_range_meters":0,"station_id":"ce4bhqp2rcd13ifvqhog","pricing_plan_id":"free"},{"bike_id":"fffdb89f-d0fa-48b2-8a15-e8865b4139a1","system_id":"levelo_inurba_marseille","lat":43.32367,"lon":5.388836,"is_reserved":false,"is_disabled":false,"rental_uris":{"android":"levelo://app?vid=fffdb89f-d0fa-48b2-8a15-e8865b4139a1","ios":"levelo://app?vid=fffdb89f-d0fa-48b2-8a15-e8865b4139a1"},"vehicle_type_id":"4","last_reported":1698613507,"current_range_meters":1600,"station_id":"ce4bhqp2rcd13ifvqhog","pricing_plan_id":"free"},{"bike_id":"abd10a78-59c2-400e-a7fb-7c39367f0939","system_id":"levelo_inurba_marseille","lat":43.323836,"lon":5.389329,"is_reserved":false,"is_disabled":false,"rental_uris":{"android":"levelo://app?vid=abd10a78-59c2-400e-a7fb-7c39367f0939","ios":"levelo://app?vid=abd10a78-59c2-400e-a7fb-7c39367f0939"},"vehicle_type_id":"4","last_reported":1698613507,"current_range_meters":400,"station_id":"ce4bhqp2rcd13ifvqhog","pricing_plan_id":"free"},{"bike_id":"a8b51a2f-bf08-445e-8d47-4cea4b431328","system_id":"levelo_inurba_marseille","lat":43.292749,"lon":5.368402,"is_reserved":false,"is_disabled":false,"rental_uris":{"android":"levelo://app?vid=a8b51a2f-bf08-445e-8d47-4cea4b431328","ios":"levelo://app?vid=a8b51a2f-bf08-445e-8d47-4cea4b431328"},"vehicle_type_id":"4","last_reported":1698613507,"current_range_meters":14000,"station_id":"ce4bhbp2rcd13ifvqesg","pricing_plan_id":"free"},{"bike_id":"060ae642-beb6-4426-899d-a5bf279698ce","system_id":"levelo_inurba_marseille","lat":43.293009,"lon":5.374584,"is_reserved":false,"is_disabled":false,"rental_uris":{"android":"levelo://app?vid=060ae642-beb6-4426-899d-a5bf279698ce","ios":"levelo://app?vid=060ae642-beb6-4426-899d-a5bf279698ce"},"vehicle_type_id":"4","last_reported":1698613507,"current_range_meters":0,"station_id":"ce4bgi12rcd13ifvqb70","pricing_plan_id":"free"},{"bike_id":"30d91314-f6ea-4a9b-90a8-fd04d7f1da2a","system_id":"levelo_inurba_marseille","lat":43.305994,"lon":5.393687,"is_reserved":false,"is_disabled":false,"rental_uris":{"android":"levelo://app?vid=30d91314-f6ea-4a9b-90a8-fd04d7f1da2a","ios":"levelo://app?vid=30d91314-f6ea-4a9b-90a8-fd04d7f1da2a"},"vehicle_type_id":"4","last_reported":1698613507,"current_range_meters":6000,"station_id":"ce4bh0p2rcd13ifvqd80","pricing_plan_id":"free"},{"bike_id":"0e8233d2-0d57-470f-8c07-e9f753046a4f","system_id":"levelo_inurba_marseille","lat":43.332197,"lon":5.379064,"is_reserved":false,"is_disabled":false,"rental_uris":{"android":"levelo://app?vid=0e8233d2-0d57-470f-8c07-e9f753046a4f","ios":"levelo://app?vid=0e8233d2-0d57-470f-8c07-e9f753046a4f"},"vehicle_type_id":"4","last_reported":1698613507,"current_range_meters":27600,"station_id":"","pricing_plan_id":"free"},{"bike_id":"1f580447-7b2c-4630-9a51-33e28281b372","system_id":"levelo_inurba_marseille","lat":43.332219,"lon":5.380002,"is_reserved":false,"is_disabled":false,"rental_uris":{"android":"levelo://app?vid=1f580447-7b2c-4630-9a51-33e28281b372","ios":"levelo://app?vid=1f580447-7b2c-4630-9a51-33e28281b372"},"vehicle_type_id":"4","last_reported":1698613507,"current_range_meters":30800,"station_id":"","pricing_plan_id":"free"},{"bike_id":"46ad826a-4d9e-4479-a4cb-09fc6537a362","system_id":"levelo_inurba_marseille","lat":43.309038,"lon":5.396546,"is_reserved":false,"is_disabled":false,"rental_uris":{"android":"levelo://app?vid=46ad826a-4d9e-4479-a4cb-09fc6537a362","ios":"levelo://app?vid=46ad826a-4d9e-4479-a4cb-09fc6537a362"},"vehicle_type_id":"4","last_reported":1698613507,"current_range_meters":19200,"station_id":"ce4bh012rcd13ifvqcv0","pricing_plan_id":"free"},{"bike_id":"1ccea910-e6fd-4ade-beaa-d1141e72e330","system_id":"levelo_inurba_marseille","lat":43.31331,"lon":5.39697,"is_reserved":false,"is_disabled":false,"rental_uris":{"android":"levelo://app?vid=1ccea910-e6fd-4ade-beaa-d1141e72e330","ios":"levelo://app?vid=1ccea910-e6fd-4ade-beaa-d1141e72e330"},"vehicle_type_id":"4","last_reported":1698613507,"current_range_meters":16800,"station_id":"ce4bgvp2rcd13ifvqcu0","pricing_plan_id":"free"},{"bike_id":"3e585604-efbe-4353-840b-177e55fb1fbd","system_id":"levelo_inurba_marseille","lat":43.309038,"lon":5.396546,"is_reserved":false,"is_disabled":false,"rental_uris":{"android":"levelo://app?vid=3e585604-efbe-4353-840b-177e55fb1fbd","ios":"levelo://app?vid=3e585604-efbe-4353-840b-177e55fb1fbd"},"vehicle_type_id":"4","last_reported":1698613507,"current_range_meters":0,"station_id":"ce4bh012rcd13ifvqcv0","pricing_plan_id":"free"},{"bike_id":"18b45b95-637c-4f0e-b4c7-c0583efea8e4","system_id":"levelo_inurba_marseille","lat":43.313291,"lon":5.396838,"is_reserved":false,"is_disabled":false,"rental_uris":{"android":"levelo://app?vid=18b45b95-637c-4f0e-b4c7-c0583efea8e4","ios":"levelo://app?vid=18b45b95-637c-4f0e-b4c7-c0583efea8e4"},"vehicle_type_id":"4","last_reported":1698613507,"current_range_meters":800,"station_id":"ce4bgvp2rcd13ifvqcu0","pricing_plan_id":"free"},{"bike_id":"9e186f55-d906-4b54-9553-eed70e222375","system_id":"levelo_inurba_marseille","lat":43.331003,"lon":5.385589,"is_reserved":false,"is_disabled":false,"rental_uris":{"android":"levelo://app?vid=9e186f55-d906-4b54-9553-eed70e222375","ios":"levelo://app?vid=9e186f55-d906-4b54-9553-eed70e222375"},"vehicle_type_id":"4","last_reported":1698613507,"current_range_meters":23600,"station_id":"","pricing_plan_id":"free"},{"bike_id":"b7f9e334-ad60-41e1-b74b-e599907c959c","system_id":"levelo_inurba_marseille","lat":43.290624,"lon":5.359245,"is_reserved":false,"is_disabled":false,"rental_uris":{"android":"levelo://app?vid=b7f9e334-ad60-41e1-b74b-e599907c959c","ios":"levelo://app?vid=b7f9e334-ad60-41e1-b74b-e599907c959c"},"vehicle_type_id":"4","last_reported":1698613507,"current_range_meters":2800,"station_id":"ce4bha92rcd13ifvqeg0","pricing_plan_id":"free"},{"bike_id":"2d466583-1d2c-4a28-84eb-9e10e8039f51","system_id":"levelo_inurba_marseille","lat":43.290631,"lon":5.359244,"is_reserved":false,"is_disabled":false,"rental_uris":{"android":"levelo://app?vid=2d466583-1d2c-4a28-84eb-9e10e8039f51","ios":"levelo://app?vid=2d466583-1d2c-4a28-84eb-9e10e8039f51"},"vehicle_type_id":"4","last_reported":1698613507,"current_range_meters":2400,"station_id":"ce4bha92rcd13ifvqeg0","pricing_plan_id":"free"},{"bike_id":"88727dd3-42bb-41aa-8b1e-805680672550","system_id":"levelo_inurba_marseille","lat":43.290631,"lon":5.359244,"is_reserved":false,"is_disabled":false,"rental_uris":{"android":"levelo://app?vid=88727dd3-42bb-41aa-8b1e-805680672550","ios":"levelo://app?vid=88727dd3-42bb-41aa-8b1e-805680672550"},"vehicle_type_id":"4","last_reported":1698613507,"current_range_meters":24400,"station_id":"ce4bha92rcd13ifvqeg0","pricing_plan_id":"free"},{"bike_id":"4381334c-a597-4902-a1de-7c43529b4406","system_id":"levelo_inurba_marseille","lat":43.29418,"lon":5.38614,"is_reserved":false,"is_disabled":false,"rental_uris":{"android":"levelo://app?vid=4381334c-a597-4902-a1de-7c43529b4406","ios":"levelo://app?vid=4381334c-a597-4902-a1de-7c43529b4406"},"vehicle_type_id":"4","last_reported":1698613507,"current_range_meters":0,"station_id":"ce4bh2h2rcd13ifvqdh0","pricing_plan_id":"free"},{"bike_id":"61a814d6-f155-4669-9f0e-871f49389fef","system_id":"levelo_inurba_marseille","lat":43.289184,"lon":5.366408,"is_reserved":false,"is_disabled":false,"rental_uris":{"android":"levelo://app?vid=61a814d6-f155-4669-9f0e-871f49389fef","ios":"levelo://app?vid=61a814d6-f155-4669-9f0e-871f49389fef"},"vehicle_type_id":"4","last_reported":1698613507,"current_range_meters":22800,"station_id":"ce4bhap2rcd13ifvqek0","pricing_plan_id":"free"},{"bike_id":"51a9d447-9f51-4453-ac00-a564b0af2a9f","system_id":"levelo_inurba_marseille","lat":43.290104,"lon":5.356111,"is_reserved":false,"is_disabled":false,"rental_uris":{"android":"levelo://app?vid=51a9d447-9f51-4453-ac00-a564b0af2a9f","ios":"levelo://app?vid=51a9d447-9f51-4453-ac00-a564b0af2a9f"},"vehicle_type_id":"4","last_reported":1698613507,"current_range_meters":26400,"station_id":"ce4bhb92rcd13ifvqen0","pricing_plan_id":"free"},{"bike_id":"46b0c2bd-3630-4db3-a1e6-5b1b785f7b6f","system_id":"levelo_inurba_marseille","lat":43.33043,"lon":5.38917,"is_reserved":false,"is_disabled":false,"rental_uris":{"android":"levelo://app?vid=46b0c2bd-3630-4db3-a1e6-5b1b785f7b6f","ios":"levelo://app?vid=46b0c2bd-3630-4db3-a1e6-5b1b785f7b6f"},"vehicle_type_id":"4","last_reported":1698613507,"current_range_meters":8000,"station_id":"ce4bhr92rcd13ifvqhrg","pricing_plan_id":"free"},{"bike_id":"c10da6c2-beda-4ee6-b96c-ba5d86476fb1","system_id":"levelo_inurba_marseille","lat":43.33042,"lon":5.38919,"is_reserved":false,"is_disabled":false,"rental_uris":{"android":"levelo://app?vid=c10da6c2-beda-4ee6-b96c-ba5d86476fb1","ios":"levelo://app?vid=c10da6c2-beda-4ee6-b96c-ba5d86476fb1"},"vehicle_type_id":"4","last_reported":1698613507,"current_range_meters":18800,"station_id":"ce4bhr92rcd13ifvqhrg","pricing_plan_id":"free"},{"bike_id":"d5d3925f-f867-4392-8d62-29b79e249aaa","system_id":"levelo_inurba_marseille","lat":43.33042,"lon":5.38919,"is_reserved":false,"is_disabled":false,"rental_uris":{"android":"levelo://app?vid=d5d3925f-f867-4392-8d62-29b79e249aaa","ios":"levelo://app?vid=d5d3925f-f867-4392-8d62-29b79e249aaa"},"vehicle_type_id":"4","last_reported":1698613507,"current_range_meters":22400,"station_id":"ce4bhr92rcd13ifvqhrg","pricing_plan_id":"free"},{"bike_id":"8ec8b72c-dd6f-469d-aee0-017da7f125f4","system_id":"levelo_inurba_marseille","lat":43.330442,"lon":5.389148,"is_reserved":false,"is_disabled":false,"rental_uris":{"android":"levelo://app?vid=8ec8b72c-dd6f-469d-aee0-017da7f125f4","ios":"levelo://app?vid=8ec8b72c-dd6f-469d-aee0-017da7f125f4"},"vehicle_type_id":"4","last_reported":1698613507,"current_range_meters":5200,"station_id":"ce4bhr92rcd13ifvqhrg","pricing_plan_id":"free"},{"bike_id":"e56fac8a-9820-411e-a6f7-b51b7301494e","system_id":"levelo_inurba_marseille","lat":43.29003,"lon":5.35613,"is_reserved":false,"is_disabled":false,"rental_uris":{"android":"levelo://app?vid=e56fac8a-9820-411e-a6f7-b51b7301494e","ios":"levelo://app?vid=e56fac8a-9820-411e-a6f7-b51b7301494e"},"vehicle_type_id":"4","last_reported":1698613507,"current_range_meters":5600,"station_id":"ce4bhb92rcd13ifvqen0","pricing_plan_id":"free"},{"bike_id":"dfc692d1-905e-4c58-930b-9b7620817eb4","system_id":"levelo_inurba_marseille","lat":43.290103,"lon":5.356114,"is_reserved":false,"is_disabled":false,"rental_uris":{"android":"levelo://app?vid=dfc692d1-905e-4c58-930b-9b7620817eb4","ios":"levelo://app?vid=dfc692d1-905e-4c58-930b-9b7620817eb4"},"vehicle_type_id":"4","last_reported":1698613507,"current_range_meters":16400,"station_id":"ce4bhb92rcd13ifvqen0","pricing_plan_id":"free"},{"bike_id":"e0d713cd-ec81-44ec-8ba4-571dd76a2b05","system_id":"levelo_inurba_marseille","lat":43.295169,"lon":5.390426,"is_reserved":false,"is_disabled":false,"rental_uris":{"android":"levelo://app?vid=e0d713cd-ec81-44ec-8ba4-571dd76a2b05","ios":"levelo://app?vid=e0d713cd-ec81-44ec-8ba4-571dd76a2b05"},"vehicle_type_id":"4","last_reported":1698613507,"current_range_meters":23200,"station_id":"ce4bh3p2rcd13ifvqdp0","pricing_plan_id":"free"},{"bike_id":"eb1631ad-21eb-4f5c-8f50-ff6bb461367d","system_id":"levelo_inurba_marseille","lat":43.28839,"lon":5.366546,"is_reserved":false,"is_disabled":false,"rental_uris":{"android":"levelo://app?vid=eb1631ad-21eb-4f5c-8f50-ff6bb461367d","ios":"levelo://app?vid=eb1631ad-21eb-4f5c-8f50-ff6bb461367d"},"vehicle_type_id":"4","last_reported":1698613507,"current_range_meters":14400,"station_id":"","pricing_plan_id":"free"},{"bike_id":"162d9f4c-522d-4730-84ee-6144fa4f4405","system_id":"levelo_inurba_marseille","lat":43.297792,"lon":5.39339,"is_reserved":false,"is_disabled":false,"rental_uris":{"android":"levelo://app?vid=162d9f4c-522d-4730-84ee-6144fa4f4405","ios":"levelo://app?vid=162d9f4c-522d-4730-84ee-6144fa4f4405"},"vehicle_type_id":"4","last_reported":1698613507,"current_range_meters":13600,"station_id":"chh1huq6cuj3fo74tm60","pricing_plan_id":"free"},{"bike_id":"e1f21aa6-bf80-4719-8e02-5c8eb8e2be0a","system_id":"levelo_inurba_marseille","lat":43.295169,"lon":5.390426,"is_reserved":false,"is_disabled":false,"rental_uris":{"android":"levelo://app?vid=e1f21aa6-bf80-4719-8e02-5c8eb8e2be0a","ios":"levelo://app?vid=e1f21aa6-bf80-4719-8e02-5c8eb8e2be0a"},"vehicle_type_id":"4","last_reported":1698613507,"current_range_meters":14800,"station_id":"ce4bh3p2rcd13ifvqdp0","pricing_plan_id":"free"},{"bike_id":"42b29eef-2881-4c5c-b020-2a815649c2fb","system_id":"levelo_inurba_marseille","lat":43.289741,"lon":5.378306,"is_reserved":false,"is_disabled":false,"rental_uris":{"android":"levelo://app?vid=42b29eef-2881-4c5c-b020-2a815649c2fb","ios":"levelo://app?vid=42b29eef-2881-4c5c-b020-2a815649c2fb"},"vehicle_type_id":"4","last_reported":1698613507,"current_range_meters":4000,"station_id":"ce4bh9p2rcd13ifvqed0","pricing_plan_id":"free"},{"bike_id":"d28e7e11-76de-4c18-9db1-c0a23b968c58","system_id":"levelo_inurba_marseille","lat":43.309589,"lon":5.390258,"is_reserved":false,"is_disabled":false,"rental_uris":{"android":"levelo://app?vid=d28e7e11-76de-4c18-9db1-c0a23b968c58","ios":"levelo://app?vid=d28e7e11-76de-4c18-9db1-c0a23b968c58"},"vehicle_type_id":"4","last_reported":1698613507,"current_range_meters":6000,"station_id":"ce4bgup2rcd13ifvqco0","pricing_plan_id":"free"},{"bike_id":"5ab8e17e-809e-45e4-9dd3-67440142c155","system_id":"levelo_inurba_marseille","lat":43.309371,"lon":5.401449,"is_reserved":false,"is_disabled":false,"rental_uris":{"android":"levelo://app?vid=5ab8e17e-809e-45e4-9dd3-67440142c155","ios":"levelo://app?vid=5ab8e17e-809e-45e4-9dd3-67440142c155"},"vehicle_type_id":"4","last_reported":1698613507,"current_range_meters":3200,"station_id":"ce4bgvp2rcd13ifvqct0","pricing_plan_id":"free"},{"bike_id":"ffc3fe4d-9429-4086-94ef-8f19136b3b3f","system_id":"levelo_inurba_marseille","lat":43.337583,"lon":5.37442,"is_reserved":false,"is_disabled":false,"rental_uris":{"android":"levelo://app?vid=ffc3fe4d-9429-4086-94ef-8f19136b3b3f","ios":"levelo://app?vid=ffc3fe4d-9429-4086-94ef-8f19136b3b3f"},"vehicle_type_id":"4","last_reported":1698613507,"current_range_meters":29200,"station_id":"","pricing_plan_id":"free"},{"bike_id":"008e2b77-78c4-44d7-9932-2f5baf62ff68","system_id":"levelo_inurba_marseille","lat":43.306412,"lon":5.401035,"is_reserved":false,"is_disabled":false,"rental_uris":{"android":"levelo://app?vid=008e2b77-78c4-44d7-9932-2f5baf62ff68","ios":"levelo://app?vid=008e2b77-78c4-44d7-9932-2f5baf62ff68"},"vehicle_type_id":"4","last_reported":1698613507,"current_range_meters":1600,"station_id":"ce4bh112rcd13ifvqda0","pricing_plan_id":"free"},{"bike_id":"b231822a-119b-4312-911c-e2fb07219e92","system_id":"levelo_inurba_marseille","lat":43.33759,"lon":5.374587,"is_reserved":false,"is_disabled":false,"rental_uris":{"android":"levelo://app?vid=b231822a-119b-4312-911c-e2fb07219e92","ios":"levelo://app?vid=b231822a-119b-4312-911c-e2fb07219e92"},"vehicle_type_id":"4","last_reported":1698613507,"current_range_meters":27200,"station_id":"","pricing_plan_id":"free"},{"bike_id":"ea05b300-2454-44b0-a78e-1f53848a01e1","system_id":"levelo_inurba_marseille","lat":43.306412,"lon":5.401035,"is_reserved":false,"is_disabled":false,"rental_uris":{"android":"levelo://app?vid=ea05b300-2454-44b0-a78e-1f53848a01e1","ios":"levelo://app?vid=ea05b300-2454-44b0-a78e-1f53848a01e1"},"vehicle_type_id":"4","last_reported":1698613507,"current_range_meters":8000,"station_id":"ce4bh112rcd13ifvqda0","pricing_plan_id":"free"},{"bike_id":"3983b609-3361-42d5-aec8-35626e42066b","system_id":"levelo_inurba_marseille","lat":43.301117,"lon":5.398795,"is_reserved":false,"is_disabled":false,"rental_uris":{"android":"levelo://app?vid=3983b609-3361-42d5-aec8-35626e42066b","ios":"levelo://app?vid=3983b609-3361-42d5-aec8-35626e42066b"},"vehicle_type_id":"4","last_reported":1698613507,"current_range_meters":13600,"station_id":"ce4bh0h2rcd13ifvqd40","pricing_plan_id":"free"},{"bike_id":"dbcd3e2b-9d40-43c0-aeb3-996fe6861398","system_id":"levelo_inurba_marseille","lat":43.30118,"lon":5.39853,"is_reserved":false,"is_disabled":false,"rental_uris":{"android":"levelo://app?vid=dbcd3e2b-9d40-43c0-aeb3-996fe6861398","ios":"levelo://app?vid=dbcd3e2b-9d40-43c0-aeb3-996fe6861398"},"vehicle_type_id":"4","last_reported":1698613507,"current_range_meters":22000,"station_id":"ce4bh0h2rcd13ifvqd40","pricing_plan_id":"free"},{"bike_id":"0f6931eb-6f1c-4afb-9de3-a9ff747fac84","system_id":"levelo_inurba_marseille","lat":43.28727,"lon":5.36078,"is_reserved":false,"is_disabled":false,"rental_uris":{"android":"levelo://app?vid=0f6931eb-6f1c-4afb-9de3-a9ff747fac84","ios":"levelo://app?vid=0f6931eb-6f1c-4afb-9de3-a9ff747fac84"},"vehicle_type_id":"4","last_reported":1698613507,"current_range_meters":24000,"station_id":"cki0cbj6b192h4jlfktg","pricing_plan_id":"free"},{"bike_id":"97abed36-146b-4f7a-bf59-cd8799f8738b","system_id":"levelo_inurba_marseille","lat":43.28727,"lon":5.36078,"is_reserved":false,"is_disabled":false,"rental_uris":{"android":"levelo://app?vid=97abed36-146b-4f7a-bf59-cd8799f8738b","ios":"levelo://app?vid=97abed36-146b-4f7a-bf59-cd8799f8738b"},"vehicle_type_id":"4","last_reported":1698613507,"current_range_meters":16400,"station_id":"cki0cbj6b192h4jlfktg","pricing_plan_id":"free"},{"bike_id":"5f011a07-566f-4e09-a801-8ae5288a5e47","system_id":"levelo_inurba_marseille","lat":43.286591,"lon":5.363346,"is_reserved":false,"is_disabled":false,"rental_uris":{"android":"levelo://app?vid=5f011a07-566f-4e09-a801-8ae5288a5e47","ios":"levelo://app?vid=5f011a07-566f-4e09-a801-8ae5288a5e47"},"vehicle_type_id":"4","last_reported":1698613507,"current_range_meters":15200,"station_id":"ce4bhah2rcd13ifvqej0","pricing_plan_id":"free"},{"bike_id":"a354bf3e-e716-452e-9d77-a6d1cc049c36","system_id":"levelo_inurba_marseille","lat":43.286961,"lon":5.373785,"is_reserved":false,"is_disabled":false,"rental_uris":{"android":"levelo://app?vid=a354bf3e-e716-452e-9d77-a6d1cc049c36","ios":"levelo://app?vid=a354bf3e-e716-452e-9d77-a6d1cc049c36"},"vehicle_type_id":"4","last_reported":1698613507,"current_range_meters":27200,"station_id":"ce4bh3p2rcd13ifvqdq0","pricing_plan_id":"free"},{"bike_id":"864cb494-bd50-43c4-96b7-48f139b3c1dc","system_id":"levelo_inurba_marseille","lat":43.286961,"lon":5.373785,"is_reserved":false,"is_disabled":false,"rental_uris":{"android":"levelo://app?vid=864cb494-bd50-43c4-96b7-48f139b3c1dc","ios":"levelo://app?vid=864cb494-bd50-43c4-96b7-48f139b3c1dc"},"vehicle_type_id":"4","last_reported":1698613507,"current_range_meters":21600,"station_id":"ce4bh3p2rcd13ifvqdq0","pricing_plan_id":"free"},{"bike_id":"7fba3f73-519c-41a3-ac1a-ec2e94584ab0","system_id":"levelo_inurba_marseille","lat":43.302759,"lon":5.400793,"is_reserved":false,"is_disabled":false,"rental_uris":{"android":"levelo://app?vid=7fba3f73-519c-41a3-ac1a-ec2e94584ab0","ios":"levelo://app?vid=7fba3f73-519c-41a3-ac1a-ec2e94584ab0"},"vehicle_type_id":"4","last_reported":1698613507,"current_range_meters":4800,"station_id":"ce4bgvh2rcd13ifvqcs0","pricing_plan_id":"free"},{"bike_id":"ba9224d4-82e5-4cbb-82d8-d04d64d8e6c3","system_id":"levelo_inurba_marseille","lat":43.302759,"lon":5.400793,"is_reserved":false,"is_disabled":false,"rental_uris":{"android":"levelo://app?vid=ba9224d4-82e5-4cbb-82d8-d04d64d8e6c3","ios":"levelo://app?vid=ba9224d4-82e5-4cbb-82d8-d04d64d8e6c3"},"vehicle_type_id":"4","last_reported":1698613507,"current_range_meters":2800,"station_id":"ce4bgvh2rcd13ifvqcs0","pricing_plan_id":"free"},{"bike_id":"1e964ad8-6f79-4dc0-bcf1-d38481906f9e","system_id":"levelo_inurba_marseille","lat":43.289307,"lon":5.38406,"is_reserved":false,"is_disabled":false,"rental_uris":{"android":"levelo://app?vid=1e964ad8-6f79-4dc0-bcf1-d38481906f9e","ios":"levelo://app?vid=1e964ad8-6f79-4dc0-bcf1-d38481906f9e"},"vehicle_type_id":"4","last_reported":1698613507,"current_range_meters":5600,"station_id":"ce4bh612rcd13ifvqe6g","pricing_plan_id":"free"},{"bike_id":"dc5e9cef-d584-4090-b5e3-8d6cea9bd404","system_id":"levelo_inurba_marseille","lat":43.290291,"lon":5.386291,"is_reserved":false,"is_disabled":false,"rental_uris":{"android":"levelo://app?vid=dc5e9cef-d584-4090-b5e3-8d6cea9bd404","ios":"levelo://app?vid=dc5e9cef-d584-4090-b5e3-8d6cea9bd404"},"vehicle_type_id":"4","last_reported":1698613507,"current_range_meters":0,"station_id":"","pricing_plan_id":"free"},{"bike_id":"7211a5d9-0412-4b78-9c92-8fe6a4f8549b","system_id":"levelo_inurba_marseille","lat":43.29028,"lon":5.3863,"is_reserved":false,"is_disabled":false,"rental_uris":{"android":"levelo://app?vid=7211a5d9-0412-4b78-9c92-8fe6a4f8549b","ios":"levelo://app?vid=7211a5d9-0412-4b78-9c92-8fe6a4f8549b"},"vehicle_type_id":"4","last_reported":1698613507,"current_range_meters":12000,"station_id":"ce4bh4p2rcd13ifvqe0g","pricing_plan_id":"free"},{"bike_id":"854284a1-c4b1-4dc1-8bc2-300f8bdc61e7","system_id":"levelo_inurba_marseille","lat":43.302759,"lon":5.400793,"is_reserved":false,"is_disabled":false,"rental_uris":{"android":"levelo://app?vid=854284a1-c4b1-4dc1-8bc2-300f8bdc61e7","ios":"levelo://app?vid=854284a1-c4b1-4dc1-8bc2-300f8bdc61e7"},"vehicle_type_id":"4","last_reported":1698613507,"current_range_meters":30400,"station_id":"ce4bgvh2rcd13ifvqcs0","pricing_plan_id":"free"},{"bike_id":"f571edf2-08a5-427b-a91e-6cb86b39267a","system_id":"levelo_inurba_marseille","lat":43.29027,"lon":5.38631,"is_reserved":false,"is_disabled":false,"rental_uris":{"android":"levelo://app?vid=f571edf2-08a5-427b-a91e-6cb86b39267a","ios":"levelo://app?vid=f571edf2-08a5-427b-a91e-6cb86b39267a"},"vehicle_type_id":"4","last_reported":1698613507,"current_range_meters":16000,"station_id":"","pricing_plan_id":"free"},{"bike_id":"2e24f147-472d-4cd1-ba63-293bb0a56e04","system_id":"levelo_inurba_marseille","lat":43.302759,"lon":5.400793,"is_reserved":false,"is_disabled":false,"rental_uris":{"android":"levelo://app?vid=2e24f147-472d-4cd1-ba63-293bb0a56e04","ios":"levelo://app?vid=2e24f147-472d-4cd1-ba63-293bb0a56e04"},"vehicle_type_id":"4","last_reported":1698613507,"current_range_meters":28800,"station_id":"ce4bgvh2rcd13ifvqcs0","pricing_plan_id":"free"},{"bike_id":"7bffa734-a935-4dc1-866b-dd634a57b322","system_id":"levelo_inurba_marseille","lat":43.302759,"lon":5.400793,"is_reserved":false,"is_disabled":false,"rental_uris":{"android":"levelo://app?vid=7bffa734-a935-4dc1-866b-dd634a57b322","ios":"levelo://app?vid=7bffa734-a935-4dc1-866b-dd634a57b322"},"vehicle_type_id":"4","last_reported":1698613507,"current_range_meters":26800,"station_id":"ce4bgvh2rcd13ifvqcs0","pricing_plan_id":"free"},{"bike_id":"56dce50a-5fce-48dc-a9f1-3e39a230c0d6","system_id":"levelo_inurba_marseille","lat":43.286039,"lon":5.370679,"is_reserved":false,"is_disabled":false,"rental_uris":{"android":"levelo://app?vid=56dce50a-5fce-48dc-a9f1-3e39a230c0d6","ios":"levelo://app?vid=56dce50a-5fce-48dc-a9f1-3e39a230c0d6"},"vehicle_type_id":"4","last_reported":1698613507,"current_range_meters":31600,"station_id":"ce4bht12rcd13ifvqi60","pricing_plan_id":"free"},{"bike_id":"41026923-a56c-4952-8719-6bac3fdbc61a","system_id":"levelo_inurba_marseille","lat":43.286039,"lon":5.370679,"is_reserved":false,"is_disabled":false,"rental_uris":{"android":"levelo://app?vid=41026923-a56c-4952-8719-6bac3fdbc61a","ios":"levelo://app?vid=41026923-a56c-4952-8719-6bac3fdbc61a"},"vehicle_type_id":"4","last_reported":1698613507,"current_range_meters":4400,"station_id":"ce4bht12rcd13ifvqi60","pricing_plan_id":"free"},{"bike_id":"68727eb5-db93-42ab-bd8d-947e29f2909d","system_id":"levelo_inurba_marseille","lat":43.286039,"lon":5.370679,"is_reserved":false,"is_disabled":false,"rental_uris":{"android":"levelo://app?vid=68727eb5-db93-42ab-bd8d-947e29f2909d","ios":"levelo://app?vid=68727eb5-db93-42ab-bd8d-947e29f2909d"},"vehicle_type_id":"4","last_reported":1698613507,"current_range_meters":26400,"station_id":"ce4bht12rcd13ifvqi60","pricing_plan_id":"free"},{"bike_id":"dfe8e09e-046d-4d76-9dc3-10ab419a23a5","system_id":"levelo_inurba_marseille","lat":43.28608,"lon":5.37063,"is_reserved":false,"is_disabled":false,"rental_uris":{"android":"levelo://app?vid=dfe8e09e-046d-4d76-9dc3-10ab419a23a5","ios":"levelo://app?vid=dfe8e09e-046d-4d76-9dc3-10ab419a23a5"},"vehicle_type_id":"4","last_reported":1698613507,"current_range_meters":26000,"station_id":"ce4bht12rcd13ifvqi60","pricing_plan_id":"free"},{"bike_id":"2fec8625-4c2f-4532-a0eb-be88bee002e3","system_id":"levelo_inurba_marseille","lat":43.287185,"lon":5.379373,"is_reserved":false,"is_disabled":false,"rental_uris":{"android":"levelo://app?vid=2fec8625-4c2f-4532-a0eb-be88bee002e3","ios":"levelo://app?vid=2fec8625-4c2f-4532-a0eb-be88bee002e3"},"vehicle_type_id":"4","last_reported":1698613507,"current_range_meters":13200,"station_id":"ce4bh9p2rcd13ifvqec0","pricing_plan_id":"free"},{"bike_id":"b0d96e09-deed-4c96-bdcf-6a70582f7944","system_id":"levelo_inurba_marseille","lat":43.291994,"lon":5.392907,"is_reserved":false,"is_disabled":false,"rental_uris":{"android":"levelo://app?vid=b0d96e09-deed-4c96-bdcf-6a70582f7944","ios":"levelo://app?vid=b0d96e09-deed-4c96-bdcf-6a70582f7944"},"vehicle_type_id":"4","last_reported":1698613507,"current_range_meters":3600,"station_id":"ce4bh192rcd13ifvqdd0","pricing_plan_id":"free"},{"bike_id":"1312867e-8786-4875-92a6-31ba4d0452c7","system_id":"levelo_inurba_marseille","lat":43.291994,"lon":5.392907,"is_reserved":false,"is_disabled":false,"rental_uris":{"android":"levelo://app?vid=1312867e-8786-4875-92a6-31ba4d0452c7","ios":"levelo://app?vid=1312867e-8786-4875-92a6-31ba4d0452c7"},"vehicle_type_id":"4","last_reported":1698613507,"current_range_meters":9200,"station_id":"ce4bh192rcd13ifvqdd0","pricing_plan_id":"free"},{"bike_id":"75c55273-c55a-496d-8694-30d8c50277ef","system_id":"levelo_inurba_marseille","lat":43.291994,"lon":5.392907,"is_reserved":false,"is_disabled":false,"rental_uris":{"android":"levelo://app?vid=75c55273-c55a-496d-8694-30d8c50277ef","ios":"levelo://app?vid=75c55273-c55a-496d-8694-30d8c50277ef"},"vehicle_type_id":"4","last_reported":1698613507,"current_range_meters":12400,"station_id":"ce4bh192rcd13ifvqdd0","pricing_plan_id":"free"},{"bike_id":"a86df75d-f45b-4f89-9d84-88e193f220e0","system_id":"levelo_inurba_marseille","lat":43.291994,"lon":5.392907,"is_reserved":false,"is_disabled":false,"rental_uris":{"android":"levelo://app?vid=a86df75d-f45b-4f89-9d84-88e193f220e0","ios":"levelo://app?vid=a86df75d-f45b-4f89-9d84-88e193f220e0"},"vehicle_type_id":"4","last_reported":1698613507,"current_range_meters":0,"station_id":"ce4bh192rcd13ifvqdd0","pricing_plan_id":"free"},{"bike_id":"ce218e52-a7bd-498a-af2c-898b3512203e","system_id":"levelo_inurba_marseille","lat":43.28462,"lon":5.3588,"is_reserved":false,"is_disabled":false,"rental_uris":{"android":"levelo://app?vid=ce218e52-a7bd-498a-af2c-898b3512203e","ios":"levelo://app?vid=ce218e52-a7bd-498a-af2c-898b3512203e"},"vehicle_type_id":"4","last_reported":1698613507,"current_range_meters":9200,"station_id":"ce4bhah2rcd13ifvqei0","pricing_plan_id":"free"},{"bike_id":"bcd00e1f-8c5e-4ea4-a802-ccbca3d288b9","system_id":"levelo_inurba_marseille","lat":43.28457,"lon":5.35893,"is_reserved":false,"is_disabled":false,"rental_uris":{"android":"levelo://app?vid=bcd00e1f-8c5e-4ea4-a802-ccbca3d288b9","ios":"levelo://app?vid=bcd00e1f-8c5e-4ea4-a802-ccbca3d288b9"},"vehicle_type_id":"4","last_reported":1698613507,"current_range_meters":16000,"station_id":"ce4bhah2rcd13ifvqei0","pricing_plan_id":"free"},{"bike_id":"7b88d97e-8b57-4d71-a61c-212fd1b88409","system_id":"levelo_inurba_marseille","lat":43.284526,"lon":5.358868,"is_reserved":false,"is_disabled":false,"rental_uris":{"android":"levelo://app?vid=7b88d97e-8b57-4d71-a61c-212fd1b88409","ios":"levelo://app?vid=7b88d97e-8b57-4d71-a61c-212fd1b88409"},"vehicle_type_id":"4","last_reported":1698613507,"current_range_meters":0,"station_id":"ce4bhah2rcd13ifvqei0","pricing_plan_id":"free"},{"bike_id":"fd0c0b6e-796c-4ad1-a87b-5d1ae0bd8411","system_id":"levelo_inurba_marseille","lat":43.2862,"lon":5.35102,"is_reserved":false,"is_disabled":false,"rental_uris":{"android":"levelo://app?vid=fd0c0b6e-796c-4ad1-a87b-5d1ae0bd8411","ios":"levelo://app?vid=fd0c0b6e-796c-4ad1-a87b-5d1ae0bd8411"},"vehicle_type_id":"4","last_reported":1698613507,"current_range_meters":24000,"station_id":"ce4bhch2rcd13ifvqeug","pricing_plan_id":"free"},{"bike_id":"c25bec2f-f3f7-4b74-aeab-105047b0e59f","system_id":"levelo_inurba_marseille","lat":43.28431,"lon":5.35801,"is_reserved":false,"is_disabled":false,"rental_uris":{"android":"levelo://app?vid=c25bec2f-f3f7-4b74-aeab-105047b0e59f","ios":"levelo://app?vid=c25bec2f-f3f7-4b74-aeab-105047b0e59f"},"vehicle_type_id":"4","last_reported":1698613507,"current_range_meters":4000,"station_id":"","pricing_plan_id":"free"},{"bike_id":"0377452f-25b8-4b46-94cb-dbfbc50b14ca","system_id":"levelo_inurba_marseille","lat":43.28417,"lon":5.37521,"is_reserved":false,"is_disabled":false,"rental_uris":{"android":"levelo://app?vid=0377452f-25b8-4b46-94cb-dbfbc50b14ca","ios":"levelo://app?vid=0377452f-25b8-4b46-94cb-dbfbc50b14ca"},"vehicle_type_id":"4","last_reported":1698613507,"current_range_meters":15600,"station_id":"ce4bh412rcd13ifvqds0","pricing_plan_id":"free"},{"bike_id":"943c7c44-963e-4291-95d0-3f95d4558ec1","system_id":"levelo_inurba_marseille","lat":43.283998,"lon":5.375062,"is_reserved":false,"is_disabled":false,"rental_uris":{"android":"levelo://app?vid=943c7c44-963e-4291-95d0-3f95d4558ec1","ios":"levelo://app?vid=943c7c44-963e-4291-95d0-3f95d4558ec1"},"vehicle_type_id":"4","last_reported":1698613507,"current_range_meters":15200,"station_id":"ce4bh412rcd13ifvqds0","pricing_plan_id":"free"},{"bike_id":"4fdb268d-38cf-4cad-929b-d569b625694f","system_id":"levelo_inurba_marseille","lat":43.283998,"lon":5.375062,"is_reserved":false,"is_disabled":false,"rental_uris":{"android":"levelo://app?vid=4fdb268d-38cf-4cad-929b-d569b625694f","ios":"levelo://app?vid=4fdb268d-38cf-4cad-929b-d569b625694f"},"vehicle_type_id":"4","last_reported":1698613507,"current_range_meters":12400,"station_id":"ce4bh412rcd13ifvqds0","pricing_plan_id":"free"},{"bike_id":"dbfd99a0-6d42-4b58-94da-1a899b9b80e1","system_id":"levelo_inurba_marseille","lat":43.283998,"lon":5.375062,"is_reserved":false,"is_disabled":false,"rental_uris":{"android":"levelo://app?vid=dbfd99a0-6d42-4b58-94da-1a899b9b80e1","ios":"levelo://app?vid=dbfd99a0-6d42-4b58-94da-1a899b9b80e1"},"vehicle_type_id":"4","last_reported":1698613507,"current_range_meters":18800,"station_id":"ce4bh412rcd13ifvqds0","pricing_plan_id":"free"},{"bike_id":"3cc6b68a-4cba-4d3e-ba27-5ec73b9b8910","system_id":"levelo_inurba_marseille","lat":43.29576,"lon":5.39973,"is_reserved":false,"is_disabled":false,"rental_uris":{"android":"levelo://app?vid=3cc6b68a-4cba-4d3e-ba27-5ec73b9b8910","ios":"levelo://app?vid=3cc6b68a-4cba-4d3e-ba27-5ec73b9b8910"},"vehicle_type_id":"4","last_reported":1698613507,"current_range_meters":24000,"station_id":"ce4bh312rcd13ifvqdj0","pricing_plan_id":"free"},{"bike_id":"2976457c-5ee5-4fe1-b14d-646a6f689753","system_id":"levelo_inurba_marseille","lat":43.29575,"lon":5.3998,"is_reserved":false,"is_disabled":false,"rental_uris":{"android":"levelo://app?vid=2976457c-5ee5-4fe1-b14d-646a6f689753","ios":"levelo://app?vid=2976457c-5ee5-4fe1-b14d-646a6f689753"},"vehicle_type_id":"4","last_reported":1698613507,"current_range_meters":5600,"station_id":"ce4bh312rcd13ifvqdj0","pricing_plan_id":"free"},{"bike_id":"b7d4af58-6dda-455a-82ec-d9026e43abcd","system_id":"levelo_inurba_marseille","lat":43.323464,"lon":5.406297,"is_reserved":false,"is_disabled":false,"rental_uris":{"android":"levelo://app?vid=b7d4af58-6dda-455a-82ec-d9026e43abcd","ios":"levelo://app?vid=b7d4af58-6dda-455a-82ec-d9026e43abcd"},"vehicle_type_id":"4","last_reported":1698613507,"current_range_meters":6800,"station_id":"ce4bhq92rcd13ifvqhjg","pricing_plan_id":"free"},{"bike_id":"fceb2f5a-6aa3-462f-83db-0b9253193b47","system_id":"levelo_inurba_marseille","lat":43.323464,"lon":5.406297,"is_reserved":false,"is_disabled":false,"rental_uris":{"android":"levelo://app?vid=fceb2f5a-6aa3-462f-83db-0b9253193b47","ios":"levelo://app?vid=fceb2f5a-6aa3-462f-83db-0b9253193b47"},"vehicle_type_id":"4","last_reported":1698613507,"current_range_meters":14800,"station_id":"ce4bhq92rcd13ifvqhjg","pricing_plan_id":"free"},{"bike_id":"15bdef24-340e-4fcc-8b69-a97001c44759","system_id":"levelo_inurba_marseille","lat":43.340456,"lon":5.384784,"is_reserved":false,"is_disabled":false,"rental_uris":{"android":"levelo://app?vid=15bdef24-340e-4fcc-8b69-a97001c44759","ios":"levelo://app?vid=15bdef24-340e-4fcc-8b69-a97001c44759"},"vehicle_type_id":"4","last_reported":1698613507,"current_range_meters":30800,"station_id":"","pricing_plan_id":"free"},{"bike_id":"53d8b856-7549-4355-bea7-dd15917af3e1","system_id":"levelo_inurba_marseille","lat":43.288497,"lon":5.393089,"is_reserved":false,"is_disabled":false,"rental_uris":{"android":"levelo://app?vid=53d8b856-7549-4355-bea7-dd15917af3e1","ios":"levelo://app?vid=53d8b856-7549-4355-bea7-dd15917af3e1"},"vehicle_type_id":"4","last_reported":1698613507,"current_range_meters":14800,"station_id":"ce4bh2p2rcd13ifvqdi0","pricing_plan_id":"free"},{"bike_id":"2f666bbb-190f-4291-ade2-95e2c0cfd815","system_id":"levelo_inurba_marseille","lat":43.325281,"lon":5.405683,"is_reserved":false,"is_disabled":false,"rental_uris":{"android":"levelo://app?vid=2f666bbb-190f-4291-ade2-95e2c0cfd815","ios":"levelo://app?vid=2f666bbb-190f-4291-ade2-95e2c0cfd815"},"vehicle_type_id":"4","last_reported":1698613507,"current_range_meters":12800,"station_id":"","pricing_plan_id":"free"},{"bike_id":"1b18df19-014f-4cdd-858b-bc2027f6b6e1","system_id":"levelo_inurba_marseille","lat":43.288497,"lon":5.393089,"is_reserved":false,"is_disabled":false,"rental_uris":{"android":"levelo://app?vid=1b18df19-014f-4cdd-858b-bc2027f6b6e1","ios":"levelo://app?vid=1b18df19-014f-4cdd-858b-bc2027f6b6e1"},"vehicle_type_id":"4","last_reported":1698613507,"current_range_meters":1200,"station_id":"ce4bh2p2rcd13ifvqdi0","pricing_plan_id":"free"},{"bike_id":"32bc8975-dfb7-4518-88c7-b1ca1f6db010","system_id":"levelo_inurba_marseille","lat":43.288497,"lon":5.393089,"is_reserved":false,"is_disabled":false,"rental_uris":{"android":"levelo://app?vid=32bc8975-dfb7-4518-88c7-b1ca1f6db010","ios":"levelo://app?vid=32bc8975-dfb7-4518-88c7-b1ca1f6db010"},"vehicle_type_id":"4","last_reported":1698613507,"current_range_meters":6800,"station_id":"ce4bh2p2rcd13ifvqdi0","pricing_plan_id":"free"},{"bike_id":"95420ef1-42ba-4879-ae04-57427e8a3c2d","system_id":"levelo_inurba_marseille","lat":43.289363,"lon":5.396322,"is_reserved":false,"is_disabled":false,"rental_uris":{"android":"levelo://app?vid=95420ef1-42ba-4879-ae04-57427e8a3c2d","ios":"levelo://app?vid=95420ef1-42ba-4879-ae04-57427e8a3c2d"},"vehicle_type_id":"4","last_reported":1698613507,"current_range_meters":26000,"station_id":"ce4bh3h2rcd13ifvqdn0","pricing_plan_id":"free"},{"bike_id":"a4dbd37c-10a5-4899-b4bc-d95ae4fc1504","system_id":"levelo_inurba_marseille","lat":43.289363,"lon":5.396322,"is_reserved":false,"is_disabled":false,"rental_uris":{"android":"levelo://app?vid=a4dbd37c-10a5-4899-b4bc-d95ae4fc1504","ios":"levelo://app?vid=a4dbd37c-10a5-4899-b4bc-d95ae4fc1504"},"vehicle_type_id":"4","last_reported":1698613507,"current_range_meters":18800,"station_id":"ce4bh3h2rcd13ifvqdn0","pricing_plan_id":"free"},{"bike_id":"51ea7acd-88ae-4aeb-905c-c2831aacbea2","system_id":"levelo_inurba_marseille","lat":43.292724,"lon":5.401131,"is_reserved":false,"is_disabled":false,"rental_uris":{"android":"levelo://app?vid=51ea7acd-88ae-4aeb-905c-c2831aacbea2","ios":"levelo://app?vid=51ea7acd-88ae-4aeb-905c-c2831aacbea2"},"vehicle_type_id":"4","last_reported":1698613507,"current_range_meters":24000,"station_id":"ce4bh312rcd13ifvqdk0","pricing_plan_id":"free"},{"bike_id":"cd734fb8-634a-4f13-86b5-143037de2c45","system_id":"levelo_inurba_marseille","lat":43.282744,"lon":5.350533,"is_reserved":false,"is_disabled":false,"rental_uris":{"android":"levelo://app?vid=cd734fb8-634a-4f13-86b5-143037de2c45","ios":"levelo://app?vid=cd734fb8-634a-4f13-86b5-143037de2c45"},"vehicle_type_id":"4","last_reported":1698613507,"current_range_meters":6000,"station_id":"ce4bhbp2rcd13ifvqerg","pricing_plan_id":"free"},{"bike_id":"789aae98-0cdb-4fa5-ade0-b32bc4d903d4","system_id":"levelo_inurba_marseille","lat":43.28275,"lon":5.35057,"is_reserved":false,"is_disabled":false,"rental_uris":{"android":"levelo://app?vid=789aae98-0cdb-4fa5-ade0-b32bc4d903d4","ios":"levelo://app?vid=789aae98-0cdb-4fa5-ade0-b32bc4d903d4"},"vehicle_type_id":"4","last_reported":1698613507,"current_range_meters":23200,"station_id":"ce4bhbp2rcd13ifvqerg","pricing_plan_id":"free"},{"bike_id":"da596148-80ed-49cc-a9a2-d9a10b7f3c67","system_id":"levelo_inurba_marseille","lat":43.283502,"lon":5.386471,"is_reserved":false,"is_disabled":false,"rental_uris":{"android":"levelo://app?vid=da596148-80ed-49cc-a9a2-d9a10b7f3c67","ios":"levelo://app?vid=da596148-80ed-49cc-a9a2-d9a10b7f3c67"},"vehicle_type_id":"4","last_reported":1698613507,"current_range_meters":0,"station_id":"ce4bh492rcd13ifvqdvg","pricing_plan_id":"free"},{"bike_id":"2a0db3e3-11b9-4308-a479-11e1c76c77c2","system_id":"levelo_inurba_marseille","lat":43.28037,"lon":5.36944,"is_reserved":false,"is_disabled":false,"rental_uris":{"android":"levelo://app?vid=2a0db3e3-11b9-4308-a479-11e1c76c77c2","ios":"levelo://app?vid=2a0db3e3-11b9-4308-a479-11e1c76c77c2"},"vehicle_type_id":"4","last_reported":1698613507,"current_range_meters":16400,"station_id":"ce4bha12rcd13ifvqef0","pricing_plan_id":"free"},{"bike_id":"4a3cbfef-4ff7-47a4-a62a-bdba181f0249","system_id":"levelo_inurba_marseille","lat":43.280382,"lon":5.369291,"is_reserved":false,"is_disabled":false,"rental_uris":{"android":"levelo://app?vid=4a3cbfef-4ff7-47a4-a62a-bdba181f0249","ios":"levelo://app?vid=4a3cbfef-4ff7-47a4-a62a-bdba181f0249"},"vehicle_type_id":"4","last_reported":1698613507,"current_range_meters":29200,"station_id":"ce4bha12rcd13ifvqef0","pricing_plan_id":"free"},{"bike_id":"1ca242fe-6084-4f9b-8b54-35d465872844","system_id":"levelo_inurba_marseille","lat":43.29041,"lon":5.399634,"is_reserved":false,"is_disabled":false,"rental_uris":{"android":"levelo://app?vid=1ca242fe-6084-4f9b-8b54-35d465872844","ios":"levelo://app?vid=1ca242fe-6084-4f9b-8b54-35d465872844"},"vehicle_type_id":"4","last_reported":1698613507,"current_range_meters":22000,"station_id":"ce4bh392rcd13ifvqdm0","pricing_plan_id":"free"},{"bike_id":"e92da794-73d6-4e3d-ab70-4ed30ba2f151","system_id":"levelo_inurba_marseille","lat":43.28103,"lon":5.37832,"is_reserved":false,"is_disabled":false,"rental_uris":{"android":"levelo://app?vid=e92da794-73d6-4e3d-ab70-4ed30ba2f151","ios":"levelo://app?vid=e92da794-73d6-4e3d-ab70-4ed30ba2f151"},"vehicle_type_id":"4","last_reported":1698613507,"current_range_meters":19600,"station_id":"ce4bha12rcd13ifvqee0","pricing_plan_id":"free"},{"bike_id":"af3d5c56-48f7-4ec1-a0d9-3519f1ee02ce","system_id":"levelo_inurba_marseille","lat":43.281042,"lon":5.378427,"is_reserved":false,"is_disabled":false,"rental_uris":{"android":"levelo://app?vid=af3d5c56-48f7-4ec1-a0d9-3519f1ee02ce","ios":"levelo://app?vid=af3d5c56-48f7-4ec1-a0d9-3519f1ee02ce"},"vehicle_type_id":"4","last_reported":1698613507,"current_range_meters":27200,"station_id":"ce4bha12rcd13ifvqee0","pricing_plan_id":"free"},{"bike_id":"084930ff-e589-4ce2-b7bd-91d930261db1","system_id":"levelo_inurba_marseille","lat":43.281044,"lon":5.378308,"is_reserved":false,"is_disabled":false,"rental_uris":{"android":"levelo://app?vid=084930ff-e589-4ce2-b7bd-91d930261db1","ios":"levelo://app?vid=084930ff-e589-4ce2-b7bd-91d930261db1"},"vehicle_type_id":"4","last_reported":1698613507,"current_range_meters":3600,"station_id":"ce4bha12rcd13ifvqee0","pricing_plan_id":"free"},{"bike_id":"d445e7dc-8f39-4198-8d15-1838ad42556e","system_id":"levelo_inurba_marseille","lat":43.296263,"lon":5.40601,"is_reserved":false,"is_disabled":false,"rental_uris":{"android":"levelo://app?vid=d445e7dc-8f39-4198-8d15-1838ad42556e","ios":"levelo://app?vid=d445e7dc-8f39-4198-8d15-1838ad42556e"},"vehicle_type_id":"4","last_reported":1698613507,"current_range_meters":20800,"station_id":"ce4bh0h2rcd13ifvqd60","pricing_plan_id":"free"},{"bike_id":"13c81755-39ab-470e-ac17-97d283ad7e14","system_id":"levelo_inurba_marseille","lat":43.28098,"lon":5.37831,"is_reserved":false,"is_disabled":false,"rental_uris":{"android":"levelo://app?vid=13c81755-39ab-470e-ac17-97d283ad7e14","ios":"levelo://app?vid=13c81755-39ab-470e-ac17-97d283ad7e14"},"vehicle_type_id":"4","last_reported":1698613507,"current_range_meters":26000,"station_id":"ce4bha12rcd13ifvqee0","pricing_plan_id":"free"},{"bike_id":"1cd0fdae-eee6-4507-a9b5-daae16a32928","system_id":"levelo_inurba_marseille","lat":43.28098,"lon":5.37834,"is_reserved":false,"is_disabled":false,"rental_uris":{"android":"levelo://app?vid=1cd0fdae-eee6-4507-a9b5-daae16a32928","ios":"levelo://app?vid=1cd0fdae-eee6-4507-a9b5-daae16a32928"},"vehicle_type_id":"4","last_reported":1698613507,"current_range_meters":30000,"station_id":"ce4bha12rcd13ifvqee0","pricing_plan_id":"free"},{"bike_id":"2ff4290a-953b-40dc-9c7e-2436150f81c2","system_id":"levelo_inurba_marseille","lat":43.281484,"lon":5.383442,"is_reserved":false,"is_disabled":false,"rental_uris":{"android":"levelo://app?vid=2ff4290a-953b-40dc-9c7e-2436150f81c2","ios":"levelo://app?vid=2ff4290a-953b-40dc-9c7e-2436150f81c2"},"vehicle_type_id":"4","last_reported":1698613507,"current_range_meters":2800,"station_id":"","pricing_plan_id":"free"},{"bike_id":"5b145b5c-2448-4b06-ad7d-667870f368db","system_id":"levelo_inurba_marseille","lat":43.284405,"lon":5.392003,"is_reserved":false,"is_disabled":false,"rental_uris":{"android":"levelo://app?vid=5b145b5c-2448-4b06-ad7d-667870f368db","ios":"levelo://app?vid=5b145b5c-2448-4b06-ad7d-667870f368db"},"vehicle_type_id":"4","last_reported":1698613507,"current_range_meters":30800,"station_id":"ce4bhoh2rcd13ifvqh5g","pricing_plan_id":"free"},{"bike_id":"ac0879bb-0436-4b54-8702-69f52ec5153b","system_id":"levelo_inurba_marseille","lat":43.28573,"lon":5.394992,"is_reserved":false,"is_disabled":false,"rental_uris":{"android":"levelo://app?vid=ac0879bb-0436-4b54-8702-69f52ec5153b","ios":"levelo://app?vid=ac0879bb-0436-4b54-8702-69f52ec5153b"},"vehicle_type_id":"4","last_reported":1698613507,"current_range_meters":5200,"station_id":"ce4bh292rcd13ifvqdg0","pricing_plan_id":"free"},{"bike_id":"8b999ad7-a79f-4201-9bab-879c6496ad32","system_id":"levelo_inurba_marseille","lat":43.29529,"lon":5.385581,"is_reserved":false,"is_disabled":false,"rental_uris":{"android":"levelo://app?vid=8b999ad7-a79f-4201-9bab-879c6496ad32","ios":"levelo://app?vid=8b999ad7-a79f-4201-9bab-879c6496ad32"},"vehicle_type_id":"4","last_reported":1698613507,"current_range_meters":18800,"station_id":"ce4bgih2rcd13ifvqba0","pricing_plan_id":"free"},{"bike_id":"943a3192-517e-43c2-b8b2-59823953a347","system_id":"levelo_inurba_marseille","lat":43.279087,"lon":5.380114,"is_reserved":false,"is_disabled":false,"rental_uris":{"android":"levelo://app?vid=943a3192-517e-43c2-b8b2-59823953a347","ios":"levelo://app?vid=943a3192-517e-43c2-b8b2-59823953a347"},"vehicle_type_id":"4","last_reported":1698613507,"current_range_meters":8800,"station_id":"ce4bhf92rcd13ifvqf50","pricing_plan_id":"free"},{"bike_id":"0fd11c70-0f56-48fc-af6c-b9bfd71bacc2","system_id":"levelo_inurba_marseille","lat":43.279087,"lon":5.380114,"is_reserved":false,"is_disabled":false,"rental_uris":{"android":"levelo://app?vid=0fd11c70-0f56-48fc-af6c-b9bfd71bacc2","ios":"levelo://app?vid=0fd11c70-0f56-48fc-af6c-b9bfd71bacc2"},"vehicle_type_id":"4","last_reported":1698613507,"current_range_meters":5600,"station_id":"ce4bhf92rcd13ifvqf50","pricing_plan_id":"free"},{"bike_id":"1dd398bf-923a-4669-9b88-630d431d528b","system_id":"levelo_inurba_marseille","lat":43.287154,"lon":5.399979,"is_reserved":false,"is_disabled":false,"rental_uris":{"android":"levelo://app?vid=1dd398bf-923a-4669-9b88-630d431d528b","ios":"levelo://app?vid=1dd398bf-923a-4669-9b88-630d431d528b"},"vehicle_type_id":"4","last_reported":1698613507,"current_range_meters":0,"station_id":"ce4bho92rcd13ifvqh3g","pricing_plan_id":"free"},{"bike_id":"16f6229f-ccb3-48ea-82c8-d28819d9bee9","system_id":"levelo_inurba_marseille","lat":43.27884,"lon":5.38188,"is_reserved":false,"is_disabled":false,"rental_uris":{"android":"levelo://app?vid=16f6229f-ccb3-48ea-82c8-d28819d9bee9","ios":"levelo://app?vid=16f6229f-ccb3-48ea-82c8-d28819d9bee9"},"vehicle_type_id":"4","last_reported":1698613507,"current_range_meters":24800,"station_id":"","pricing_plan_id":"free"},{"bike_id":"ba3361d6-72be-4cac-b81b-535651101d4e","system_id":"levelo_inurba_marseille","lat":43.292569,"lon":5.409107,"is_reserved":false,"is_disabled":false,"rental_uris":{"android":"levelo://app?vid=ba3361d6-72be-4cac-b81b-535651101d4e","ios":"levelo://app?vid=ba3361d6-72be-4cac-b81b-535651101d4e"},"vehicle_type_id":"4","last_reported":1698613507,"current_range_meters":6400,"station_id":"ce4bh192rcd13ifvqdc0","pricing_plan_id":"free"},{"bike_id":"824dabd4-c04b-427c-b708-965b48c96a3c","system_id":"levelo_inurba_marseille","lat":43.325233,"lon":5.414318,"is_reserved":false,"is_disabled":false,"rental_uris":{"android":"levelo://app?vid=824dabd4-c04b-427c-b708-965b48c96a3c","ios":"levelo://app?vid=824dabd4-c04b-427c-b708-965b48c96a3c"},"vehicle_type_id":"4","last_reported":1698613507,"current_range_meters":29600,"station_id":"ce4bhq12rcd13ifvqhhg","pricing_plan_id":"free"},{"bike_id":"e06c6de6-378e-47d0-afbb-06f3a39ee2b0","system_id":"levelo_inurba_marseille","lat":43.325269,"lon":5.414571,"is_reserved":false,"is_disabled":false,"rental_uris":{"android":"levelo://app?vid=e06c6de6-378e-47d0-afbb-06f3a39ee2b0","ios":"levelo://app?vid=e06c6de6-378e-47d0-afbb-06f3a39ee2b0"},"vehicle_type_id":"4","last_reported":1698613507,"current_range_meters":29200,"station_id":"ce4bhq12rcd13ifvqhhg","pricing_plan_id":"free"},{"bike_id":"ab441268-3e03-4104-94cc-7705d60c6788","system_id":"levelo_inurba_marseille","lat":43.347892,"lon":5.348552,"is_reserved":false,"is_disabled":false,"rental_uris":{"android":"levelo://app?vid=ab441268-3e03-4104-94cc-7705d60c6788","ios":"levelo://app?vid=ab441268-3e03-4104-94cc-7705d60c6788"},"vehicle_type_id":"4","last_reported":1698613507,"current_range_meters":14400,"station_id":"","pricing_plan_id":"free"},{"bike_id":"893f646d-2179-4c37-8308-41a76fef1152","system_id":"levelo_inurba_marseille","lat":43.288497,"lon":5.393089,"is_reserved":false,"is_disabled":false,"rental_uris":{"android":"levelo://app?vid=893f646d-2179-4c37-8308-41a76fef1152","ios":"levelo://app?vid=893f646d-2179-4c37-8308-41a76fef1152"},"vehicle_type_id":"4","last_reported":1698613507,"current_range_meters":3600,"station_id":"ce4bh2p2rcd13ifvqdi0","pricing_plan_id":"free"},{"bike_id":"6f388752-a1d1-471a-804d-4e54112a7c61","system_id":"levelo_inurba_marseille","lat":43.280784,"lon":5.396622,"is_reserved":false,"is_disabled":false,"rental_uris":{"android":"levelo://app?vid=6f388752-a1d1-471a-804d-4e54112a7c61","ios":"levelo://app?vid=6f388752-a1d1-471a-804d-4e54112a7c61"},"vehicle_type_id":"4","last_reported":1698613507,"current_range_meters":15600,"station_id":"ce4bho12rcd13ifvqh2g","pricing_plan_id":"free"},{"bike_id":"dcea61a0-0c20-4c12-85a7-58e84744f9ee","system_id":"levelo_inurba_marseille","lat":43.278401,"lon":5.392152,"is_reserved":false,"is_disabled":false,"rental_uris":{"android":"levelo://app?vid=dcea61a0-0c20-4c12-85a7-58e84744f9ee","ios":"levelo://app?vid=dcea61a0-0c20-4c12-85a7-58e84744f9ee"},"vehicle_type_id":"4","last_reported":1698613507,"current_range_meters":1600,"station_id":"ce4bhjp2rcd13ifvqga0","pricing_plan_id":"free"},{"bike_id":"4c14252e-1c1a-482c-9cb9-43c8d4a8cd27","system_id":"levelo_inurba_marseille","lat":43.278401,"lon":5.392152,"is_reserved":false,"is_disabled":false,"rental_uris":{"android":"levelo://app?vid=4c14252e-1c1a-482c-9cb9-43c8d4a8cd27","ios":"levelo://app?vid=4c14252e-1c1a-482c-9cb9-43c8d4a8cd27"},"vehicle_type_id":"4","last_reported":1698613507,"current_range_meters":4800,"station_id":"ce4bhjp2rcd13ifvqga0","pricing_plan_id":"free"},{"bike_id":"ad792d74-0fe0-4f28-8273-babb3dc4f382","system_id":"levelo_inurba_marseille","lat":43.273613,"lon":5.362705,"is_reserved":false,"is_disabled":false,"rental_uris":{"android":"levelo://app?vid=ad792d74-0fe0-4f28-8273-babb3dc4f382","ios":"levelo://app?vid=ad792d74-0fe0-4f28-8273-babb3dc4f382"},"vehicle_type_id":"4","last_reported":1698613507,"current_range_meters":0,"station_id":"ce4bhbh2rcd13ifvqeo0","pricing_plan_id":"free"},{"bike_id":"af8426e9-2b53-433f-8139-73b450165afd","system_id":"levelo_inurba_marseille","lat":43.336134,"lon":5.410341,"is_reserved":false,"is_disabled":false,"rental_uris":{"android":"levelo://app?vid=af8426e9-2b53-433f-8139-73b450165afd","ios":"levelo://app?vid=af8426e9-2b53-433f-8139-73b450165afd"},"vehicle_type_id":"4","last_reported":1698613507,"current_range_meters":10800,"station_id":"ce4bhqh2rcd13ifvqhmg","pricing_plan_id":"free"},{"bike_id":"7af969f5-8d84-406b-9e13-40bd95c7537c","system_id":"levelo_inurba_marseille","lat":43.33614,"lon":5.41029,"is_reserved":false,"is_disabled":false,"rental_uris":{"android":"levelo://app?vid=7af969f5-8d84-406b-9e13-40bd95c7537c","ios":"levelo://app?vid=7af969f5-8d84-406b-9e13-40bd95c7537c"},"vehicle_type_id":"4","last_reported":1698613507,"current_range_meters":22800,"station_id":"ce4bhqh2rcd13ifvqhmg","pricing_plan_id":"free"},{"bike_id":"01b14aaf-b7fc-41e8-b11c-f5f9ba41824f","system_id":"levelo_inurba_marseille","lat":43.275245,"lon":5.385759,"is_reserved":false,"is_disabled":false,"rental_uris":{"android":"levelo://app?vid=01b14aaf-b7fc-41e8-b11c-f5f9ba41824f","ios":"levelo://app?vid=01b14aaf-b7fc-41e8-b11c-f5f9ba41824f"},"vehicle_type_id":"4","last_reported":1698613507,"current_range_meters":4800,"station_id":"","pricing_plan_id":"free"},{"bike_id":"ab4c105f-b95d-4588-b30a-4236f77815dc","system_id":"levelo_inurba_marseille","lat":43.310785,"lon":5.424305,"is_reserved":false,"is_disabled":false,"rental_uris":{"android":"levelo://app?vid=ab4c105f-b95d-4588-b30a-4236f77815dc","ios":"levelo://app?vid=ab4c105f-b95d-4588-b30a-4236f77815dc"},"vehicle_type_id":"4","last_reported":1698613507,"current_range_meters":24800,"station_id":"ce4bhp92rcd13ifvqhag","pricing_plan_id":"free"},{"bike_id":"d58dc1b0-a920-45a9-b8ae-bc43ae7fdaaf","system_id":"levelo_inurba_marseille","lat":43.31078,"lon":5.42433,"is_reserved":false,"is_disabled":false,"rental_uris":{"android":"levelo://app?vid=d58dc1b0-a920-45a9-b8ae-bc43ae7fdaaf","ios":"levelo://app?vid=d58dc1b0-a920-45a9-b8ae-bc43ae7fdaaf"},"vehicle_type_id":"4","last_reported":1698613507,"current_range_meters":12400,"station_id":"ce4bhp92rcd13ifvqhag","pricing_plan_id":"free"},{"bike_id":"7759184d-41d5-433a-9fce-4a881688bcfa","system_id":"levelo_inurba_marseille","lat":43.340804,"lon":5.410219,"is_reserved":false,"is_disabled":false,"rental_uris":{"android":"levelo://app?vid=7759184d-41d5-433a-9fce-4a881688bcfa","ios":"levelo://app?vid=7759184d-41d5-433a-9fce-4a881688bcfa"},"vehicle_type_id":"4","last_reported":1698613507,"current_range_meters":26800,"station_id":"ce4bhqh2rcd13ifvqhlg","pricing_plan_id":"free"},{"bike_id":"5c6740b1-5e78-4e38-9c6a-5024b53863a5","system_id":"levelo_inurba_marseille","lat":43.340804,"lon":5.410219,"is_reserved":false,"is_disabled":false,"rental_uris":{"android":"levelo://app?vid=5c6740b1-5e78-4e38-9c6a-5024b53863a5","ios":"levelo://app?vid=5c6740b1-5e78-4e38-9c6a-5024b53863a5"},"vehicle_type_id":"4","last_reported":1698613507,"current_range_meters":11600,"station_id":"ce4bhqh2rcd13ifvqhlg","pricing_plan_id":"free"},{"bike_id":"cf1669ca-2049-4ae9-9b7e-00a41239a62e","system_id":"levelo_inurba_marseille","lat":43.340804,"lon":5.410219,"is_reserved":false,"is_disabled":false,"rental_uris":{"android":"levelo://app?vid=cf1669ca-2049-4ae9-9b7e-00a41239a62e","ios":"levelo://app?vid=cf1669ca-2049-4ae9-9b7e-00a41239a62e"},"vehicle_type_id":"4","last_reported":1698613507,"current_range_meters":12800,"station_id":"ce4bhqh2rcd13ifvqhlg","pricing_plan_id":"free"},{"bike_id":"4d6639f8-2661-410a-aa73-3e258182799f","system_id":"levelo_inurba_marseille","lat":43.27322,"lon":5.39082,"is_reserved":false,"is_disabled":false,"rental_uris":{"android":"levelo://app?vid=4d6639f8-2661-410a-aa73-3e258182799f","ios":"levelo://app?vid=4d6639f8-2661-410a-aa73-3e258182799f"},"vehicle_type_id":"4","last_reported":1698613507,"current_range_meters":0,"station_id":"","pricing_plan_id":"free"},{"bike_id":"83142e0b-2d4a-41bd-a883-c4d9264eba37","system_id":"levelo_inurba_marseille","lat":43.27318,"lon":5.39071,"is_reserved":false,"is_disabled":false,"rental_uris":{"android":"levelo://app?vid=83142e0b-2d4a-41bd-a883-c4d9264eba37","ios":"levelo://app?vid=83142e0b-2d4a-41bd-a883-c4d9264eba37"},"vehicle_type_id":"4","last_reported":1698613507,"current_range_meters":0,"station_id":"","pricing_plan_id":"free"},{"bike_id":"f62f94e0-20eb-484a-abb7-6bc508c4bf4f","system_id":"levelo_inurba_marseille","lat":43.27421,"lon":5.39404,"is_reserved":false,"is_disabled":false,"rental_uris":{"android":"levelo://app?vid=f62f94e0-20eb-484a-abb7-6bc508c4bf4f","ios":"levelo://app?vid=f62f94e0-20eb-484a-abb7-6bc508c4bf4f"},"vehicle_type_id":"4","last_reported":1698613507,"current_range_meters":0,"station_id":"ce4bhdp2rcd13ifvqf20","pricing_plan_id":"free"},{"bike_id":"99e4126d-f376-4b20-bf36-cbdda64a02cd","system_id":"levelo_inurba_marseille","lat":43.30414,"lon":5.42539,"is_reserved":false,"is_disabled":false,"rental_uris":{"android":"levelo://app?vid=99e4126d-f376-4b20-bf36-cbdda64a02cd","ios":"levelo://app?vid=99e4126d-f376-4b20-bf36-cbdda64a02cd"},"vehicle_type_id":"4","last_reported":1698613507,"current_range_meters":14800,"station_id":"ce4bhoh2rcd13ifvqh6g","pricing_plan_id":"free"},{"bike_id":"00ea1848-2b29-49a8-ae9d-4838ecb8e3a1","system_id":"levelo_inurba_marseille","lat":43.295511,"lon":5.422926,"is_reserved":false,"is_disabled":false,"rental_uris":{"android":"levelo://app?vid=00ea1848-2b29-49a8-ae9d-4838ecb8e3a1","ios":"levelo://app?vid=00ea1848-2b29-49a8-ae9d-4838ecb8e3a1"},"vehicle_type_id":"4","last_reported":1698613507,"current_range_meters":7200,"station_id":"ce4bhph2rcd13ifvqhdg","pricing_plan_id":"free"},{"bike_id":"291a32c9-e8fe-4c60-819c-bf8d640a2016","system_id":"levelo_inurba_marseille","lat":43.2936,"lon":5.37835,"is_reserved":false,"is_disabled":false,"rental_uris":{"android":"levelo://app?vid=291a32c9-e8fe-4c60-819c-bf8d640a2016","ios":"levelo://app?vid=291a32c9-e8fe-4c60-819c-bf8d640a2016"},"vehicle_type_id":"4","last_reported":1698613507,"current_range_meters":18800,"station_id":"ce4bgjh2rcd13ifvqbf0","pricing_plan_id":"free"},{"bike_id":"d3997d8b-b06b-473b-808f-ca3e4bd57995","system_id":"levelo_inurba_marseille","lat":43.295511,"lon":5.422926,"is_reserved":false,"is_disabled":false,"rental_uris":{"android":"levelo://app?vid=d3997d8b-b06b-473b-808f-ca3e4bd57995","ios":"levelo://app?vid=d3997d8b-b06b-473b-808f-ca3e4bd57995"},"vehicle_type_id":"4","last_reported":1698613507,"current_range_meters":24800,"station_id":"ce4bhph2rcd13ifvqhdg","pricing_plan_id":"free"},{"bike_id":"22df197a-fb31-4b1b-84f9-30f5197edc8e","system_id":"levelo_inurba_marseille","lat":43.27208,"lon":5.39182,"is_reserved":false,"is_disabled":false,"rental_uris":{"android":"levelo://app?vid=22df197a-fb31-4b1b-84f9-30f5197edc8e","ios":"levelo://app?vid=22df197a-fb31-4b1b-84f9-30f5197edc8e"},"vehicle_type_id":"4","last_reported":1698613507,"current_range_meters":0,"station_id":"ce4bhhp2rcd13ifvqfm0","pricing_plan_id":"free"},{"bike_id":"e5b43416-fdd4-4920-a227-96d0c4917c6e","system_id":"levelo_inurba_marseille","lat":43.278128,"lon":5.407195,"is_reserved":false,"is_disabled":false,"rental_uris":{"android":"levelo://app?vid=e5b43416-fdd4-4920-a227-96d0c4917c6e","ios":"levelo://app?vid=e5b43416-fdd4-4920-a227-96d0c4917c6e"},"vehicle_type_id":"4","last_reported":1698613507,"current_range_meters":25600,"station_id":"ce4bhnh2rcd13ifvqgtg","pricing_plan_id":"free"},{"bike_id":"1680c852-be23-4927-8fba-a5c1ee4aa350","system_id":"levelo_inurba_marseille","lat":43.278128,"lon":5.407195,"is_reserved":false,"is_disabled":false,"rental_uris":{"android":"levelo://app?vid=1680c852-be23-4927-8fba-a5c1ee4aa350","ios":"levelo://app?vid=1680c852-be23-4927-8fba-a5c1ee4aa350"},"vehicle_type_id":"4","last_reported":1698613507,"current_range_meters":29200,"station_id":"ce4bhnh2rcd13ifvqgtg","pricing_plan_id":"free"},{"bike_id":"dcaa3506-1138-4c68-8941-a350600f2356","system_id":"levelo_inurba_marseille","lat":43.279465,"lon":5.410561,"is_reserved":false,"is_disabled":false,"rental_uris":{"android":"levelo://app?vid=dcaa3506-1138-4c68-8941-a350600f2356","ios":"levelo://app?vid=dcaa3506-1138-4c68-8941-a350600f2356"},"vehicle_type_id":"4","last_reported":1698613507,"current_range_meters":16800,"station_id":"ce4bhnp2rcd13ifvqh0g","pricing_plan_id":"free"},{"bike_id":"f513e07b-660f-45ee-8d95-acf33ccffc3c","system_id":"levelo_inurba_marseille","lat":43.279465,"lon":5.410561,"is_reserved":false,"is_disabled":false,"rental_uris":{"android":"levelo://app?vid=f513e07b-660f-45ee-8d95-acf33ccffc3c","ios":"levelo://app?vid=f513e07b-660f-45ee-8d95-acf33ccffc3c"},"vehicle_type_id":"4","last_reported":1698613507,"current_range_meters":20000,"station_id":"ce4bhnp2rcd13ifvqh0g","pricing_plan_id":"free"},{"bike_id":"891e1734-0f2b-4304-8bd4-989a6a3bbdb4","system_id":"levelo_inurba_marseille","lat":43.279465,"lon":5.410561,"is_reserved":false,"is_disabled":false,"rental_uris":{"android":"levelo://app?vid=891e1734-0f2b-4304-8bd4-989a6a3bbdb4","ios":"levelo://app?vid=891e1734-0f2b-4304-8bd4-989a6a3bbdb4"},"vehicle_type_id":"4","last_reported":1698613507,"current_range_meters":21200,"station_id":"ce4bhnp2rcd13ifvqh0g","pricing_plan_id":"free"},{"bike_id":"66a46cce-2509-423f-8e36-ccbf8c1330ab","system_id":"levelo_inurba_marseille","lat":43.269319,"lon":5.389397,"is_reserved":false,"is_disabled":false,"rental_uris":{"android":"levelo://app?vid=66a46cce-2509-423f-8e36-ccbf8c1330ab","ios":"levelo://app?vid=66a46cce-2509-423f-8e36-ccbf8c1330ab"},"vehicle_type_id":"4","last_reported":1698613507,"current_range_meters":21200,"station_id":"ce4bhhh2rcd13ifvqfl0","pricing_plan_id":"free"},{"bike_id":"768d8fa0-29eb-418b-b227-31692e0e1355","system_id":"levelo_inurba_marseille","lat":43.26555,"lon":5.37283,"is_reserved":false,"is_disabled":false,"rental_uris":{"android":"levelo://app?vid=768d8fa0-29eb-418b-b227-31692e0e1355","ios":"levelo://app?vid=768d8fa0-29eb-418b-b227-31692e0e1355"},"vehicle_type_id":"4","last_reported":1698613507,"current_range_meters":18000,"station_id":"ce4bhg12rcd13ifvqf70","pricing_plan_id":"free"},{"bike_id":"fb210ee2-c31e-4c2e-bdc8-d2646a7c8133","system_id":"levelo_inurba_marseille","lat":43.26548,"lon":5.37285,"is_reserved":false,"is_disabled":false,"rental_uris":{"android":"levelo://app?vid=fb210ee2-c31e-4c2e-bdc8-d2646a7c8133","ios":"levelo://app?vid=fb210ee2-c31e-4c2e-bdc8-d2646a7c8133"},"vehicle_type_id":"4","last_reported":1698613507,"current_range_meters":400,"station_id":"ce4bhg12rcd13ifvqf70","pricing_plan_id":"free"},{"bike_id":"068757c9-230e-4958-b140-aa550d7b8c2c","system_id":"levelo_inurba_marseille","lat":43.27996,"lon":5.416624,"is_reserved":false,"is_disabled":false,"rental_uris":{"android":"levelo://app?vid=068757c9-230e-4958-b140-aa550d7b8c2c","ios":"levelo://app?vid=068757c9-230e-4958-b140-aa550d7b8c2c"},"vehicle_type_id":"4","last_reported":1698613507,"current_range_meters":11200,"station_id":"ce4bho12rcd13ifvqh1g","pricing_plan_id":"free"},{"bike_id":"e610933f-f657-4bb4-a514-3746cfe6b8b3","system_id":"levelo_inurba_marseille","lat":43.279924,"lon":5.416578,"is_reserved":false,"is_disabled":false,"rental_uris":{"android":"levelo://app?vid=e610933f-f657-4bb4-a514-3746cfe6b8b3","ios":"levelo://app?vid=e610933f-f657-4bb4-a514-3746cfe6b8b3"},"vehicle_type_id":"4","last_reported":1698613507,"current_range_meters":24800,"station_id":"ce4bho12rcd13ifvqh1g","pricing_plan_id":"free"},{"bike_id":"2687313b-4537-4b0d-956b-7965a5770ee1","system_id":"levelo_inurba_marseille","lat":43.328212,"lon":5.431596,"is_reserved":false,"is_disabled":false,"rental_uris":{"android":"levelo://app?vid=2687313b-4537-4b0d-956b-7965a5770ee1","ios":"levelo://app?vid=2687313b-4537-4b0d-956b-7965a5770ee1"},"vehicle_type_id":"4","last_reported":1698613507,"current_range_meters":14400,"station_id":"","pricing_plan_id":"free"},{"bike_id":"1cb3f577-fb04-4e28-a15d-87951d1577d9","system_id":"levelo_inurba_marseille","lat":43.308051,"lon":5.43527,"is_reserved":false,"is_disabled":false,"rental_uris":{"android":"levelo://app?vid=1cb3f577-fb04-4e28-a15d-87951d1577d9","ios":"levelo://app?vid=1cb3f577-fb04-4e28-a15d-87951d1577d9"},"vehicle_type_id":"4","last_reported":1698613507,"current_range_meters":31200,"station_id":"ce4bhph2rcd13ifvqheg","pricing_plan_id":"free"},{"bike_id":"ce7f7ccf-e8d8-493f-afeb-54465fedeb58","system_id":"levelo_inurba_marseille","lat":43.265571,"lon":5.390032,"is_reserved":false,"is_disabled":false,"rental_uris":{"android":"levelo://app?vid=ce7f7ccf-e8d8-493f-afeb-54465fedeb58","ios":"levelo://app?vid=ce7f7ccf-e8d8-493f-afeb-54465fedeb58"},"vehicle_type_id":"4","last_reported":1698613507,"current_range_meters":0,"station_id":"ce4bhe12rcd13ifvqf30","pricing_plan_id":"free"},{"bike_id":"9d286734-9b24-4990-8bab-6ef82e48fa34","system_id":"levelo_inurba_marseille","lat":43.26567,"lon":5.390059,"is_reserved":false,"is_disabled":false,"rental_uris":{"android":"levelo://app?vid=9d286734-9b24-4990-8bab-6ef82e48fa34","ios":"levelo://app?vid=9d286734-9b24-4990-8bab-6ef82e48fa34"},"vehicle_type_id":"4","last_reported":1698613507,"current_range_meters":0,"station_id":"ce4bhe12rcd13ifvqf30","pricing_plan_id":"free"},{"bike_id":"ce56f942-f540-46a3-af44-427e7947be87","system_id":"levelo_inurba_marseille","lat":43.308051,"lon":5.43527,"is_reserved":false,"is_disabled":false,"rental_uris":{"android":"levelo://app?vid=ce56f942-f540-46a3-af44-427e7947be87","ios":"levelo://app?vid=ce56f942-f540-46a3-af44-427e7947be87"},"vehicle_type_id":"4","last_reported":1698613507,"current_range_meters":19600,"station_id":"ce4bhph2rcd13ifvqheg","pricing_plan_id":"free"},{"bike_id":"77bd88b0-94d4-432b-ad78-b34f813520ea","system_id":"levelo_inurba_marseille","lat":43.265489,"lon":5.390016,"is_reserved":false,"is_disabled":false,"rental_uris":{"android":"levelo://app?vid=77bd88b0-94d4-432b-ad78-b34f813520ea","ios":"levelo://app?vid=77bd88b0-94d4-432b-ad78-b34f813520ea"},"vehicle_type_id":"4","last_reported":1698613507,"current_range_meters":2000,"station_id":"ce4bhe12rcd13ifvqf30","pricing_plan_id":"free"},{"bike_id":"efbbef42-b150-48eb-8784-926fdd2e78dc","system_id":"levelo_inurba_marseille","lat":43.26544,"lon":5.38998,"is_reserved":false,"is_disabled":false,"rental_uris":{"android":"levelo://app?vid=efbbef42-b150-48eb-8784-926fdd2e78dc","ios":"levelo://app?vid=efbbef42-b150-48eb-8784-926fdd2e78dc"},"vehicle_type_id":"4","last_reported":1698613507,"current_range_meters":28800,"station_id":"ce4bhe12rcd13ifvqf30","pricing_plan_id":"free"},{"bike_id":"2d46cc0c-65c6-4834-956d-7090ad78794e","system_id":"levelo_inurba_marseille","lat":43.265399,"lon":5.389938,"is_reserved":false,"is_disabled":false,"rental_uris":{"android":"levelo://app?vid=2d46cc0c-65c6-4834-956d-7090ad78794e","ios":"levelo://app?vid=2d46cc0c-65c6-4834-956d-7090ad78794e"},"vehicle_type_id":"4","last_reported":1698613507,"current_range_meters":5200,"station_id":"ce4bhe12rcd13ifvqf30","pricing_plan_id":"free"},{"bike_id":"0a7f1124-b58b-4c40-b935-9239885369b2","system_id":"levelo_inurba_marseille","lat":43.26944,"lon":5.40244,"is_reserved":false,"is_disabled":false,"rental_uris":{"android":"levelo://app?vid=0a7f1124-b58b-4c40-b935-9239885369b2","ios":"levelo://app?vid=0a7f1124-b58b-4c40-b935-9239885369b2"},"vehicle_type_id":"4","last_reported":1698613507,"current_range_meters":0,"station_id":"cjm6bp8fraef2m0cb0m0","pricing_plan_id":"free"},{"bike_id":"c51cdcf9-52b8-458e-9230-241d9697b6bf","system_id":"levelo_inurba_marseille","lat":43.26942,"lon":5.40254,"is_reserved":false,"is_disabled":false,"rental_uris":{"android":"levelo://app?vid=c51cdcf9-52b8-458e-9230-241d9697b6bf","ios":"levelo://app?vid=c51cdcf9-52b8-458e-9230-241d9697b6bf"},"vehicle_type_id":"4","last_reported":1698613507,"current_range_meters":0,"station_id":"cjm6bp8fraef2m0cb0m0","pricing_plan_id":"free"},{"bike_id":"b818935e-416e-4c91-bc09-e5a615b36f74","system_id":"levelo_inurba_marseille","lat":43.269273,"lon":5.40236,"is_reserved":false,"is_disabled":false,"rental_uris":{"android":"levelo://app?vid=b818935e-416e-4c91-bc09-e5a615b36f74","ios":"levelo://app?vid=b818935e-416e-4c91-bc09-e5a615b36f74"},"vehicle_type_id":"4","last_reported":1698613507,"current_range_meters":5200,"station_id":"","pricing_plan_id":"free"},{"bike_id":"6972960f-6ecd-4bd9-ace5-3c0d7d26ea39","system_id":"levelo_inurba_marseille","lat":43.331883,"lon":5.431859,"is_reserved":false,"is_disabled":false,"rental_uris":{"android":"levelo://app?vid=6972960f-6ecd-4bd9-ace5-3c0d7d26ea39","ios":"levelo://app?vid=6972960f-6ecd-4bd9-ace5-3c0d7d26ea39"},"vehicle_type_id":"4","last_reported":1698613507,"current_range_meters":0,"station_id":"","pricing_plan_id":"free"},{"bike_id":"a20c9be4-e6b0-43ca-8558-0d0c671ea8f3","system_id":"levelo_inurba_marseille","lat":43.26184,"lon":5.37444,"is_reserved":false,"is_disabled":false,"rental_uris":{"android":"levelo://app?vid=a20c9be4-e6b0-43ca-8558-0d0c671ea8f3","ios":"levelo://app?vid=a20c9be4-e6b0-43ca-8558-0d0c671ea8f3"},"vehicle_type_id":"4","last_reported":1698613507,"current_range_meters":31200,"station_id":"ce4bhgp2rcd13ifvqfc0","pricing_plan_id":"free"},{"bike_id":"55a2577d-9653-4529-8b72-125bcfff7eca","system_id":"levelo_inurba_marseille","lat":43.317104,"lon":5.436818,"is_reserved":false,"is_disabled":false,"rental_uris":{"android":"levelo://app?vid=55a2577d-9653-4529-8b72-125bcfff7eca","ios":"levelo://app?vid=55a2577d-9653-4529-8b72-125bcfff7eca"},"vehicle_type_id":"4","last_reported":1698613507,"current_range_meters":24000,"station_id":"ce4bhp92rcd13ifvqhcg","pricing_plan_id":"free"},{"bike_id":"eba5fcab-3613-46a5-a561-1d39c5b909c7","system_id":"levelo_inurba_marseille","lat":43.317104,"lon":5.436818,"is_reserved":false,"is_disabled":false,"rental_uris":{"android":"levelo://app?vid=eba5fcab-3613-46a5-a561-1d39c5b909c7","ios":"levelo://app?vid=eba5fcab-3613-46a5-a561-1d39c5b909c7"},"vehicle_type_id":"4","last_reported":1698613507,"current_range_meters":15600,"station_id":"ce4bhp92rcd13ifvqhcg","pricing_plan_id":"free"},{"bike_id":"3b15aeb2-4a1c-4b6c-86db-e9b6ed585861","system_id":"levelo_inurba_marseille","lat":43.317104,"lon":5.436818,"is_reserved":false,"is_disabled":false,"rental_uris":{"android":"levelo://app?vid=3b15aeb2-4a1c-4b6c-86db-e9b6ed585861","ios":"levelo://app?vid=3b15aeb2-4a1c-4b6c-86db-e9b6ed585861"},"vehicle_type_id":"4","last_reported":1698613507,"current_range_meters":31600,"station_id":"ce4bhp92rcd13ifvqhcg","pricing_plan_id":"free"},{"bike_id":"379a37f8-5906-4962-b246-dcc5e1990ab5","system_id":"levelo_inurba_marseille","lat":43.261618,"lon":5.373066,"is_reserved":false,"is_disabled":false,"rental_uris":{"android":"levelo://app?vid=379a37f8-5906-4962-b246-dcc5e1990ab5","ios":"levelo://app?vid=379a37f8-5906-4962-b246-dcc5e1990ab5"},"vehicle_type_id":"4","last_reported":1698613507,"current_range_meters":20400,"station_id":"","pricing_plan_id":"free"},{"bike_id":"7c4e02f6-874b-4daa-9d79-8818ab05bc7a","system_id":"levelo_inurba_marseille","lat":43.271368,"lon":5.40928,"is_reserved":false,"is_disabled":false,"rental_uris":{"android":"levelo://app?vid=7c4e02f6-874b-4daa-9d79-8818ab05bc7a","ios":"levelo://app?vid=7c4e02f6-874b-4daa-9d79-8818ab05bc7a"},"vehicle_type_id":"4","last_reported":1698613507,"current_range_meters":31600,"station_id":"ce4bhl12rcd13ifvqgf0","pricing_plan_id":"free"},{"bike_id":"43d303bb-18e4-4c18-aad9-d6838b746ff6","system_id":"levelo_inurba_marseille","lat":43.271388,"lon":5.409269,"is_reserved":false,"is_disabled":false,"rental_uris":{"android":"levelo://app?vid=43d303bb-18e4-4c18-aad9-d6838b746ff6","ios":"levelo://app?vid=43d303bb-18e4-4c18-aad9-d6838b746ff6"},"vehicle_type_id":"4","last_reported":1698613507,"current_range_meters":30800,"station_id":"ce4bhl12rcd13ifvqgf0","pricing_plan_id":"free"},{"bike_id":"4c1676a6-fc6f-4532-9b98-4bc7b363288f","system_id":"levelo_inurba_marseille","lat":43.271368,"lon":5.40928,"is_reserved":false,"is_disabled":false,"rental_uris":{"android":"levelo://app?vid=4c1676a6-fc6f-4532-9b98-4bc7b363288f","ios":"levelo://app?vid=4c1676a6-fc6f-4532-9b98-4bc7b363288f"},"vehicle_type_id":"4","last_reported":1698613507,"current_range_meters":29600,"station_id":"ce4bhl12rcd13ifvqgf0","pricing_plan_id":"free"},{"bike_id":"4ff1c701-9bf8-4618-9963-5dbea7ea7418","system_id":"levelo_inurba_marseille","lat":43.271388,"lon":5.409269,"is_reserved":false,"is_disabled":false,"rental_uris":{"android":"levelo://app?vid=4ff1c701-9bf8-4618-9963-5dbea7ea7418","ios":"levelo://app?vid=4ff1c701-9bf8-4618-9963-5dbea7ea7418"},"vehicle_type_id":"4","last_reported":1698613507,"current_range_meters":22000,"station_id":"ce4bhl12rcd13ifvqgf0","pricing_plan_id":"free"},{"bike_id":"eae44716-463a-4ff0-89ca-846a378d2087","system_id":"levelo_inurba_marseille","lat":43.298768,"lon":5.43643,"is_reserved":false,"is_disabled":false,"rental_uris":{"android":"levelo://app?vid=eae44716-463a-4ff0-89ca-846a378d2087","ios":"levelo://app?vid=eae44716-463a-4ff0-89ca-846a378d2087"},"vehicle_type_id":"4","last_reported":1698613507,"current_range_meters":25200,"station_id":"ce4bhpp2rcd13ifvqhfg","pricing_plan_id":"free"},{"bike_id":"299b2cdb-b55e-43f0-b8e8-943ae89ba5ff","system_id":"levelo_inurba_marseille","lat":43.298768,"lon":5.43643,"is_reserved":false,"is_disabled":false,"rental_uris":{"android":"levelo://app?vid=299b2cdb-b55e-43f0-b8e8-943ae89ba5ff","ios":"levelo://app?vid=299b2cdb-b55e-43f0-b8e8-943ae89ba5ff"},"vehicle_type_id":"4","last_reported":1698613507,"current_range_meters":9600,"station_id":"ce4bhpp2rcd13ifvqhfg","pricing_plan_id":"free"},{"bike_id":"2ca94536-06cf-42f0-9dc3-c5265a21d74f","system_id":"levelo_inurba_marseille","lat":43.281548,"lon":5.42643,"is_reserved":false,"is_disabled":false,"rental_uris":{"android":"levelo://app?vid=2ca94536-06cf-42f0-9dc3-c5265a21d74f","ios":"levelo://app?vid=2ca94536-06cf-42f0-9dc3-c5265a21d74f"},"vehicle_type_id":"4","last_reported":1698613507,"current_range_meters":4800,"station_id":"ce4bhnh2rcd13ifvqgug","pricing_plan_id":"free"},{"bike_id":"80e3e0b3-da77-43f0-843f-58cebdaa0867","system_id":"levelo_inurba_marseille","lat":43.28155,"lon":5.42645,"is_reserved":false,"is_disabled":false,"rental_uris":{"android":"levelo://app?vid=80e3e0b3-da77-43f0-843f-58cebdaa0867","ios":"levelo://app?vid=80e3e0b3-da77-43f0-843f-58cebdaa0867"},"vehicle_type_id":"4","last_reported":1698613507,"current_range_meters":14400,"station_id":"ce4bhnh2rcd13ifvqgug","pricing_plan_id":"free"},{"bike_id":"4e47fb4c-3c11-4677-bd74-292c94a34f01","system_id":"levelo_inurba_marseille","lat":43.281548,"lon":5.42643,"is_reserved":false,"is_disabled":false,"rental_uris":{"android":"levelo://app?vid=4e47fb4c-3c11-4677-bd74-292c94a34f01","ios":"levelo://app?vid=4e47fb4c-3c11-4677-bd74-292c94a34f01"},"vehicle_type_id":"4","last_reported":1698613507,"current_range_meters":17600,"station_id":"ce4bhnh2rcd13ifvqgug","pricing_plan_id":"free"},{"bike_id":"fdc121ff-b9a8-47b5-bd9d-59c95338cfe0","system_id":"levelo_inurba_marseille","lat":43.28148,"lon":5.426431,"is_reserved":false,"is_disabled":false,"rental_uris":{"android":"levelo://app?vid=fdc121ff-b9a8-47b5-bd9d-59c95338cfe0","ios":"levelo://app?vid=fdc121ff-b9a8-47b5-bd9d-59c95338cfe0"},"vehicle_type_id":"4","last_reported":1698613507,"current_range_meters":18000,"station_id":"ce4bhnh2rcd13ifvqgug","pricing_plan_id":"free"},{"bike_id":"c7acbeb6-1122-46c1-85df-783d3222099e","system_id":"levelo_inurba_marseille","lat":43.2607,"lon":5.393983,"is_reserved":false,"is_disabled":false,"rental_uris":{"android":"levelo://app?vid=c7acbeb6-1122-46c1-85df-783d3222099e","ios":"levelo://app?vid=c7acbeb6-1122-46c1-85df-783d3222099e"},"vehicle_type_id":"4","last_reported":1698613507,"current_range_meters":23600,"station_id":"ce4bhh92rcd13ifvqfj0","pricing_plan_id":"free"},{"bike_id":"0a7c2be2-b65d-4d36-b959-538ff359d6d6","system_id":"levelo_inurba_marseille","lat":43.261205,"lon":5.395795,"is_reserved":false,"is_disabled":false,"rental_uris":{"android":"levelo://app?vid=0a7c2be2-b65d-4d36-b959-538ff359d6d6","ios":"levelo://app?vid=0a7c2be2-b65d-4d36-b959-538ff359d6d6"},"vehicle_type_id":"4","last_reported":1698613507,"current_range_meters":16400,"station_id":"","pricing_plan_id":"free"},{"bike_id":"4f270eef-a300-4c15-8901-b791d86b2b5e","system_id":"levelo_inurba_marseille","lat":43.2607,"lon":5.393983,"is_reserved":false,"is_disabled":false,"rental_uris":{"android":"levelo://app?vid=4f270eef-a300-4c15-8901-b791d86b2b5e","ios":"levelo://app?vid=4f270eef-a300-4c15-8901-b791d86b2b5e"},"vehicle_type_id":"4","last_reported":1698613507,"current_range_meters":31200,"station_id":"ce4bhh92rcd13ifvqfj0","pricing_plan_id":"free"},{"bike_id":"fdfb5606-3f3f-4279-ae9b-6be93e57661c","system_id":"levelo_inurba_marseille","lat":43.26088,"lon":5.39765,"is_reserved":false,"is_disabled":false,"rental_uris":{"android":"levelo://app?vid=fdfb5606-3f3f-4279-ae9b-6be93e57661c","ios":"levelo://app?vid=fdfb5606-3f3f-4279-ae9b-6be93e57661c"},"vehicle_type_id":"4","last_reported":1698613507,"current_range_meters":0,"station_id":"","pricing_plan_id":"free"},{"bike_id":"d8026177-43b0-4849-b535-2e7d924a7442","system_id":"levelo_inurba_marseille","lat":43.25505,"lon":5.376489,"is_reserved":false,"is_disabled":false,"rental_uris":{"android":"levelo://app?vid=d8026177-43b0-4849-b535-2e7d924a7442","ios":"levelo://app?vid=d8026177-43b0-4849-b535-2e7d924a7442"},"vehicle_type_id":"4","last_reported":1698613507,"current_range_meters":29600,"station_id":"","pricing_plan_id":"free"},{"bike_id":"479d1e1b-e0ee-49a0-880e-3390a9b4af1b","system_id":"levelo_inurba_marseille","lat":43.254947,"lon":5.376454,"is_reserved":false,"is_disabled":false,"rental_uris":{"android":"levelo://app?vid=479d1e1b-e0ee-49a0-880e-3390a9b4af1b","ios":"levelo://app?vid=479d1e1b-e0ee-49a0-880e-3390a9b4af1b"},"vehicle_type_id":"4","last_reported":1698613507,"current_range_meters":26000,"station_id":"ce4bhh12rcd13ifvqff0","pricing_plan_id":"free"},{"bike_id":"3f54ce62-659c-42fc-9d78-d4ffcca812e1","system_id":"levelo_inurba_marseille","lat":43.25502,"lon":5.3765,"is_reserved":false,"is_disabled":false,"rental_uris":{"android":"levelo://app?vid=3f54ce62-659c-42fc-9d78-d4ffcca812e1","ios":"levelo://app?vid=3f54ce62-659c-42fc-9d78-d4ffcca812e1"},"vehicle_type_id":"4","last_reported":1698613507,"current_range_meters":31200,"station_id":"ce4bhh12rcd13ifvqff0","pricing_plan_id":"free"},{"bike_id":"06a6638c-2375-4589-8787-304a073f4558","system_id":"levelo_inurba_marseille","lat":43.254947,"lon":5.376454,"is_reserved":false,"is_disabled":false,"rental_uris":{"android":"levelo://app?vid=06a6638c-2375-4589-8787-304a073f4558","ios":"levelo://app?vid=06a6638c-2375-4589-8787-304a073f4558"},"vehicle_type_id":"4","last_reported":1698613507,"current_range_meters":31600,"station_id":"ce4bhh12rcd13ifvqff0","pricing_plan_id":"free"},{"bike_id":"298ce753-dd6f-4486-a5da-edd41e5a2f97","system_id":"levelo_inurba_marseille","lat":43.270721,"lon":5.422764,"is_reserved":false,"is_disabled":false,"rental_uris":{"android":"levelo://app?vid=298ce753-dd6f-4486-a5da-edd41e5a2f97","ios":"levelo://app?vid=298ce753-dd6f-4486-a5da-edd41e5a2f97"},"vehicle_type_id":"4","last_reported":1698613507,"current_range_meters":13600,"station_id":"ce4bhk92rcd13ifvqgb0","pricing_plan_id":"free"},{"bike_id":"81b39554-3104-46cf-bb8f-c0569553719a","system_id":"levelo_inurba_marseille","lat":43.270721,"lon":5.422764,"is_reserved":false,"is_disabled":false,"rental_uris":{"android":"levelo://app?vid=81b39554-3104-46cf-bb8f-c0569553719a","ios":"levelo://app?vid=81b39554-3104-46cf-bb8f-c0569553719a"},"vehicle_type_id":"4","last_reported":1698613507,"current_range_meters":15600,"station_id":"ce4bhk92rcd13ifvqgb0","pricing_plan_id":"free"},{"bike_id":"a0d83887-4620-4171-a872-11c8a2bc58bb","system_id":"levelo_inurba_marseille","lat":43.270721,"lon":5.422764,"is_reserved":false,"is_disabled":false,"rental_uris":{"android":"levelo://app?vid=a0d83887-4620-4171-a872-11c8a2bc58bb","ios":"levelo://app?vid=a0d83887-4620-4171-a872-11c8a2bc58bb"},"vehicle_type_id":"4","last_reported":1698613507,"current_range_meters":18800,"station_id":"ce4bhk92rcd13ifvqgb0","pricing_plan_id":"free"},{"bike_id":"4a5b31bd-2935-4032-bc3f-b8a396ddde84","system_id":"levelo_inurba_marseille","lat":43.25542,"lon":5.39733,"is_reserved":false,"is_disabled":false,"rental_uris":{"android":"levelo://app?vid=4a5b31bd-2935-4032-bc3f-b8a396ddde84","ios":"levelo://app?vid=4a5b31bd-2935-4032-bc3f-b8a396ddde84"},"vehicle_type_id":"4","last_reported":1698613507,"current_range_meters":6000,"station_id":"","pricing_plan_id":"free"},{"bike_id":"6e4f4333-8464-4307-a9dc-80c333c7c88d","system_id":"levelo_inurba_marseille","lat":43.25937,"lon":5.40901,"is_reserved":false,"is_disabled":false,"rental_uris":{"android":"levelo://app?vid=6e4f4333-8464-4307-a9dc-80c333c7c88d","ios":"levelo://app?vid=6e4f4333-8464-4307-a9dc-80c333c7c88d"},"vehicle_type_id":"4","last_reported":1698613507,"current_range_meters":15600,"station_id":"ce4bhm92rcd13ifvqglg","pricing_plan_id":"free"},{"bike_id":"7b1e8f1c-3f09-41a8-8f5a-d1ab323eaad8","system_id":"levelo_inurba_marseille","lat":43.25937,"lon":5.40904,"is_reserved":false,"is_disabled":false,"rental_uris":{"android":"levelo://app?vid=7b1e8f1c-3f09-41a8-8f5a-d1ab323eaad8","ios":"levelo://app?vid=7b1e8f1c-3f09-41a8-8f5a-d1ab323eaad8"},"vehicle_type_id":"4","last_reported":1698613507,"current_range_meters":11600,"station_id":"ce4bhm92rcd13ifvqglg","pricing_plan_id":"free"},{"bike_id":"5957d6e5-6493-40e0-83b4-ddd197ea23a1","system_id":"levelo_inurba_marseille","lat":43.25937,"lon":5.4091,"is_reserved":false,"is_disabled":false,"rental_uris":{"android":"levelo://app?vid=5957d6e5-6493-40e0-83b4-ddd197ea23a1","ios":"levelo://app?vid=5957d6e5-6493-40e0-83b4-ddd197ea23a1"},"vehicle_type_id":"4","last_reported":1698613507,"current_range_meters":17600,"station_id":"ce4bhm92rcd13ifvqglg","pricing_plan_id":"free"},{"bike_id":"59358a84-d805-48d1-9cd1-7ccbba6092b5","system_id":"levelo_inurba_marseille","lat":43.259013,"lon":5.409301,"is_reserved":false,"is_disabled":false,"rental_uris":{"android":"levelo://app?vid=59358a84-d805-48d1-9cd1-7ccbba6092b5","ios":"levelo://app?vid=59358a84-d805-48d1-9cd1-7ccbba6092b5"},