{"last_updated":1701090652,"ttl":30,"version":"2.2","data":{"bikes":[{"bike_id":"59689ca5-801d-4c2b-941a-1a9b8b42a75e","system_id":"levelo_inurba_marseille","lat":43.31341,"lon":5.367098,"is_reserved":false,"is_disabled":false,"rental_uris":{"android":"levelo://app?vid=59689ca5-801d-4c2b-941a-1a9b8b42a75e","ios":"levelo://app?vid=59689ca5-801d-4c2b-941a-1a9b8b42a75e"},"vehicle_type_id":"4","last_reported":1701090652,"current_range_meters":26000,"station_id":"ce4bgr92rcd13ifvqc6g","pricing_plan_id":"free"},{"bike_id":"f79e56b7-07fc-4cbb-8c5f-1219abdbaaa0","system_id":"levelo_inurba_marseille","lat":43.313404,"lon":5.367155,"is_reserved":false,"is_disabled":false,"rental_uris":{"android":"levelo://app?vid=f79e56b7-07fc-4cbb-8c5f-1219abdbaaa0","ios":"levelo://app?vid=f79e56b7-07fc-4cbb-8c5f-1219abdbaaa0"},"vehicle_type_id":"4","last_reported":1701090652,"current_range_meters":13600,"station_id":"","pricing_plan_id":"free"},{"bike_id":"1e80ff6f-214d-452e-a1df-88c480549762","system_id":"levelo_inurba_marseille","lat":43.313391,"lon":5.36706,"is_reserved":false,"is_disabled":false,"rental_uris":{"android":"levelo://app?vid=1e80ff6f-214d-452e-a1df-88c480549762","ios":"levelo://app?vid=1e80ff6f-214d-452e-a1df-88c480549762"},"vehicle_type_id":"4","last_reported":1701090652,"current_range_meters":31200,"station_id":"ce4bgr92rcd13ifvqc6g","pricing_plan_id":"free"},{"bike_id":"dbd22c5b-f318-460a-95cd-c007a476a760","system_id":"levelo_inurba_marseille","lat":43.31341,"lon":5.367098,"is_reserved":false,"is_disabled":false,"rental_uris":{"android":"levelo://app?vid=dbd22c5b-f318-460a-95cd-c007a476a760","ios":"levelo://app?vid=dbd22c5b-f318-460a-95cd-c007a476a760"},"vehicle_type_id":"4","last_reported":1701090652,"current_range_meters":28400,"station_id":"ce4bgr92rcd13ifvqc6g","pricing_plan_id":"free"},{"bike_id":"0e07f4dc-f05c-4a47-a7fc-9cf5a2bc7aff","system_id":"levelo_inurba_marseille","lat":43.31341,"lon":5.367098,"is_reserved":false,"is_disabled":false,"rental_uris":{"android":"levelo://app?vid=0e07f4dc-f05c-4a47-a7fc-9cf5a2bc7aff","ios":"levelo://app?vid=0e07f4dc-f05c-4a47-a7fc-9cf5a2bc7aff"},"vehicle_type_id":"4","last_reported":1701090652,"current_range_meters":31200,"station_id":"ce4bgr92rcd13ifvqc6g","pricing_plan_id":"free"},{"bike_id":"8d7fd8e2-e915-4a9b-ac22-a9a9c8c23e6d","system_id":"levelo_inurba_marseille","lat":43.31341,"lon":5.367098,"is_reserved":false,"is_disabled":false,"rental_uris":{"android":"levelo://app?vid=8d7fd8e2-e915-4a9b-ac22-a9a9c8c23e6d","ios":"levelo://app?vid=8d7fd8e2-e915-4a9b-ac22-a9a9c8c23e6d"},"vehicle_type_id":"4","last_reported":1701090652,"current_range_meters":26800,"station_id":"ce4bgr92rcd13ifvqc6g","pricing_plan_id":"free"},{"bike_id":"5d884c0a-f441-4caa-800e-f8eec27a6b22","system_id":"levelo_inurba_marseille","lat":43.31341,"lon":5.367098,"is_reserved":false,"is_disabled":false,"rental_uris":{"android":"levelo://app?vid=5d884c0a-f441-4caa-800e-f8eec27a6b22","ios":"levelo://app?vid=5d884c0a-f441-4caa-800e-f8eec27a6b22"},"vehicle_type_id":"4","last_reported":1701090652,"current_range_meters":19600,"station_id":"ce4bgr92rcd13ifvqc6g","pricing_plan_id":"free"},{"bike_id":"196ffaf2-63f9-4e0e-beee-cd70322d6dc7","system_id":"levelo_inurba_marseille","lat":43.31341,"lon":5.367098,"is_reserved":false,"is_disabled":false,"rental_uris":{"android":"levelo://app?vid=196ffaf2-63f9-4e0e-beee-cd70322d6dc7","ios":"levelo://app?vid=196ffaf2-63f9-4e0e-beee-cd70322d6dc7"},"vehicle_type_id":"4","last_reported":1701090652,"current_range_meters":9200,"station_id":"ce4bgr92rcd13ifvqc6g","pricing_plan_id":"free"},{"bike_id":"d91cb1a5-9e69-484c-aa49-7e1232aa7a8e","system_id":"levelo_inurba_marseille","lat":43.31341,"lon":5.367098,"is_reserved":false,"is_disabled":false,"rental_uris":{"android":"levelo://app?vid=d91cb1a5-9e69-484c-aa49-7e1232aa7a8e","ios":"levelo://app?vid=d91cb1a5-9e69-484c-aa49-7e1232aa7a8e"},"vehicle_type_id":"4","last_reported":1701090652,"current_range_meters":3600,"station_id":"ce4bgr92rcd13ifvqc6g","pricing_plan_id":"free"},{"bike_id":"7b0767c3-29e3-4916-81cd-c553e7750797","system_id":"levelo_inurba_marseille","lat":43.31341,"lon":5.367098,"is_reserved":false,"is_disabled":false,"rental_uris":{"android":"levelo://app?vid=7b0767c3-29e3-4916-81cd-c553e7750797","ios":"levelo://app?vid=7b0767c3-29e3-4916-81cd-c553e7750797"},"vehicle_type_id":"4","last_reported":1701090652,"current_range_meters":22000,"station_id":"ce4bgr92rcd13ifvqc6g","pricing_plan_id":"free"},{"bike_id":"df7f1710-213d-4be5-86a8-93f4a5b41e94","system_id":"levelo_inurba_marseille","lat":43.312239,"lon":5.368562,"is_reserved":false,"is_disabled":false,"rental_uris":{"android":"levelo://app?vid=df7f1710-213d-4be5-86a8-93f4a5b41e94","ios":"levelo://app?vid=df7f1710-213d-4be5-86a8-93f4a5b41e94"},"vehicle_type_id":"4","last_reported":1701090652,"current_range_meters":31200,"station_id":"ce4bgl92rcd13ifvqbq0","pricing_plan_id":"free"},{"bike_id":"a102bb71-878d-4921-b4bc-750920dfe485","system_id":"levelo_inurba_marseille","lat":43.309076,"lon":5.368465,"is_reserved":false,"is_disabled":false,"rental_uris":{"android":"levelo://app?vid=a102bb71-878d-4921-b4bc-750920dfe485","ios":"levelo://app?vid=a102bb71-878d-4921-b4bc-750920dfe485"},"vehicle_type_id":"4","last_reported":1701090652,"current_range_meters":21600,"station_id":"ce4bgn92rcd13ifvqbvg","pricing_plan_id":"free"},{"bike_id":"781fcec3-1e03-425f-9f87-5191900029e9","system_id":"levelo_inurba_marseille","lat":43.314811,"lon":5.373104,"is_reserved":false,"is_disabled":false,"rental_uris":{"android":"levelo://app?vid=781fcec3-1e03-425f-9f87-5191900029e9","ios":"levelo://app?vid=781fcec3-1e03-425f-9f87-5191900029e9"},"vehicle_type_id":"4","last_reported":1701090652,"current_range_meters":10800,"station_id":"ce4bgt12rcd13ifvqcd0","pricing_plan_id":"free"},{"bike_id":"304b2f82-108c-4ed2-b3a3-0a65ce509123","system_id":"levelo_inurba_marseille","lat":43.309039,"lon":5.371797,"is_reserved":false,"is_disabled":false,"rental_uris":{"android":"levelo://app?vid=304b2f82-108c-4ed2-b3a3-0a65ce509123","ios":"levelo://app?vid=304b2f82-108c-4ed2-b3a3-0a65ce509123"},"vehicle_type_id":"4","last_reported":1701090652,"current_range_meters":13200,"station_id":"ce4bguh2rcd13ifvqckg","pricing_plan_id":"free"},{"bike_id":"644444cb-8a7e-4597-b4ad-4d8f4505b13c","system_id":"levelo_inurba_marseille","lat":43.309039,"lon":5.371797,"is_reserved":false,"is_disabled":false,"rental_uris":{"android":"levelo://app?vid=644444cb-8a7e-4597-b4ad-4d8f4505b13c","ios":"levelo://app?vid=644444cb-8a7e-4597-b4ad-4d8f4505b13c"},"vehicle_type_id":"4","last_reported":1701090652,"current_range_meters":9200,"station_id":"ce4bguh2rcd13ifvqckg","pricing_plan_id":"free"},{"bike_id":"fa4c08a8-f79b-4419-8791-02374ece74c7","system_id":"levelo_inurba_marseille","lat":43.316927,"lon":5.372705,"is_reserved":false,"is_disabled":false,"rental_uris":{"android":"levelo://app?vid=fa4c08a8-f79b-4419-8791-02374ece74c7","ios":"levelo://app?vid=fa4c08a8-f79b-4419-8791-02374ece74c7"},"vehicle_type_id":"4","last_reported":1701090652,"current_range_meters":6000,"station_id":"","pricing_plan_id":"free"},{"bike_id":"58fa7a2c-3aca-437c-bc95-2a2d30e62ebf","system_id":"levelo_inurba_marseille","lat":43.305997,"lon":5.365654,"is_reserved":false,"is_disabled":false,"rental_uris":{"android":"levelo://app?vid=58fa7a2c-3aca-437c-bc95-2a2d30e62ebf","ios":"levelo://app?vid=58fa7a2c-3aca-437c-bc95-2a2d30e62ebf"},"vehicle_type_id":"4","last_reported":1701090652,"current_range_meters":0,"station_id":"ce4bgs12rcd13ifvqcag","pricing_plan_id":"free"},{"bike_id":"1c8b667d-3f74-4307-ad41-8e61e63a63f7","system_id":"levelo_inurba_marseille","lat":43.30542,"lon":5.36698,"is_reserved":false,"is_disabled":false,"rental_uris":{"android":"levelo://app?vid=1c8b667d-3f74-4307-ad41-8e61e63a63f7","ios":"levelo://app?vid=1c8b667d-3f74-4307-ad41-8e61e63a63f7"},"vehicle_type_id":"4","last_reported":1701090652,"current_range_meters":21200,"station_id":"ce4bgrp2rcd13ifvqc9g","pricing_plan_id":"free"},{"bike_id":"61a5a590-c082-4fbd-86d3-5c87c51eff97","system_id":"levelo_inurba_marseille","lat":43.305714,"lon":5.365633,"is_reserved":false,"is_disabled":false,"rental_uris":{"android":"levelo://app?vid=61a5a590-c082-4fbd-86d3-5c87c51eff97","ios":"levelo://app?vid=61a5a590-c082-4fbd-86d3-5c87c51eff97"},"vehicle_type_id":"4","last_reported":1701090652,"current_range_meters":5200,"station_id":"ce4bgs12rcd13ifvqcag","pricing_plan_id":"free"},{"bike_id":"a178d0dc-f1a4-44e9-a3a5-7b90431c6dd4","system_id":"levelo_inurba_marseille","lat":43.306066,"lon":5.372186,"is_reserved":false,"is_disabled":false,"rental_uris":{"android":"levelo://app?vid=a178d0dc-f1a4-44e9-a3a5-7b90431c6dd4","ios":"levelo://app?vid=a178d0dc-f1a4-44e9-a3a5-7b90431c6dd4"},"vehicle_type_id":"4","last_reported":1701090652,"current_range_meters":0,"station_id":"ce4bgqh2rcd13ifvqc4g","pricing_plan_id":"free"},{"bike_id":"7dd913d5-247a-47a1-87a8-7d9f43c0b910","system_id":"levelo_inurba_marseille","lat":43.305989,"lon":5.37225,"is_reserved":false,"is_disabled":false,"rental_uris":{"android":"levelo://app?vid=7dd913d5-247a-47a1-87a8-7d9f43c0b910","ios":"levelo://app?vid=7dd913d5-247a-47a1-87a8-7d9f43c0b910"},"vehicle_type_id":"4","last_reported":1701090652,"current_range_meters":26000,"station_id":"ce4bgqh2rcd13ifvqc4g","pricing_plan_id":"free"},{"bike_id":"46ce9868-7283-4625-8e8c-243d89ef0708","system_id":"levelo_inurba_marseille","lat":43.305989,"lon":5.37225,"is_reserved":false,"is_disabled":false,"rental_uris":{"android":"levelo://app?vid=46ce9868-7283-4625-8e8c-243d89ef0708","ios":"levelo://app?vid=46ce9868-7283-4625-8e8c-243d89ef0708"},"vehicle_type_id":"4","last_reported":1701090652,"current_range_meters":17200,"station_id":"ce4bgqh2rcd13ifvqc4g","pricing_plan_id":"free"},{"bike_id":"e3955938-1abb-47be-9a19-49201fcf3734","system_id":"levelo_inurba_marseille","lat":43.31109,"lon":5.37774,"is_reserved":false,"is_disabled":false,"rental_uris":{"android":"levelo://app?vid=e3955938-1abb-47be-9a19-49201fcf3734","ios":"levelo://app?vid=e3955938-1abb-47be-9a19-49201fcf3734"},"vehicle_type_id":"4","last_reported":1701090652,"current_range_meters":12800,"station_id":"ce4bgt92rcd13ifvqcg0","pricing_plan_id":"free"},{"bike_id":"0525c228-cd5d-40c2-ac67-edd6915961b7","system_id":"levelo_inurba_marseille","lat":43.308092,"lon":5.37663,"is_reserved":false,"is_disabled":false,"rental_uris":{"android":"levelo://app?vid=0525c228-cd5d-40c2-ac67-edd6915961b7","ios":"levelo://app?vid=0525c228-cd5d-40c2-ac67-edd6915961b7"},"vehicle_type_id":"4","last_reported":1701090652,"current_range_meters":6000,"station_id":"ce4bgv92rcd13ifvqcq0","pricing_plan_id":"free"},{"bike_id":"f427a2c3-6e4a-446b-ae2f-9be8aa7f4122","system_id":"levelo_inurba_marseille","lat":43.31719,"lon":5.376813,"is_reserved":false,"is_disabled":false,"rental_uris":{"android":"levelo://app?vid=f427a2c3-6e4a-446b-ae2f-9be8aa7f4122","ios":"levelo://app?vid=f427a2c3-6e4a-446b-ae2f-9be8aa7f4122"},"vehicle_type_id":"4","last_reported":1701090652,"current_range_meters":17200,"station_id":"ce4bgth2rcd13ifvqch0","pricing_plan_id":"free"},{"bike_id":"372d5bac-5c82-476a-a54c-a538de8a8a8c","system_id":"levelo_inurba_marseille","lat":43.307945,"lon":5.376487,"is_reserved":false,"is_disabled":false,"rental_uris":{"android":"levelo://app?vid=372d5bac-5c82-476a-a54c-a538de8a8a8c","ios":"levelo://app?vid=372d5bac-5c82-476a-a54c-a538de8a8a8c"},"vehicle_type_id":"4","last_reported":1701090652,"current_range_meters":26800,"station_id":"ce4bgv92rcd13ifvqcq0","pricing_plan_id":"free"},{"bike_id":"e913f328-1e31-4c22-bd87-f809ea246de4","system_id":"levelo_inurba_marseille","lat":43.317168,"lon":5.376883,"is_reserved":false,"is_disabled":false,"rental_uris":{"android":"levelo://app?vid=e913f328-1e31-4c22-bd87-f809ea246de4","ios":"levelo://app?vid=e913f328-1e31-4c22-bd87-f809ea246de4"},"vehicle_type_id":"4","last_reported":1701090652,"current_range_meters":19600,"station_id":"ce4bgth2rcd13ifvqch0","pricing_plan_id":"free"},{"bike_id":"ec6d1dc4-bc55-4e6d-a97d-4ee164877b48","system_id":"levelo_inurba_marseille","lat":43.317075,"lon":5.377367,"is_reserved":false,"is_disabled":false,"rental_uris":{"android":"levelo://app?vid=ec6d1dc4-bc55-4e6d-a97d-4ee164877b48","ios":"levelo://app?vid=ec6d1dc4-bc55-4e6d-a97d-4ee164877b48"},"vehicle_type_id":"4","last_reported":1701090652,"current_range_meters":25600,"station_id":"ce4bgth2rcd13ifvqch0","pricing_plan_id":"free"},{"bike_id":"4960cd84-5f51-4fcb-bf4f-043f77c0faa0","system_id":"levelo_inurba_marseille","lat":43.31271,"lon":5.37914,"is_reserved":false,"is_disabled":false,"rental_uris":{"android":"levelo://app?vid=4960cd84-5f51-4fcb-bf4f-043f77c0faa0","ios":"levelo://app?vid=4960cd84-5f51-4fcb-bf4f-043f77c0faa0"},"vehicle_type_id":"4","last_reported":1701090652,"current_range_meters":13200,"station_id":"","pricing_plan_id":"free"},{"bike_id":"d022feec-b485-413f-b409-268a7e5e2e7f","system_id":"levelo_inurba_marseille","lat":43.303046,"lon":5.368981,"is_reserved":false,"is_disabled":false,"rental_uris":{"android":"levelo://app?vid=d022feec-b485-413f-b409-268a7e5e2e7f","ios":"levelo://app?vid=d022feec-b485-413f-b409-268a7e5e2e7f"},"vehicle_type_id":"4","last_reported":1701090652,"current_range_meters":24400,"station_id":"ce4bgqh2rcd13ifvqc5g","pricing_plan_id":"free"},{"bike_id":"72bf32dc-24e5-49a4-b356-4e95ac923d35","system_id":"levelo_inurba_marseille","lat":43.301939,"lon":5.366286,"is_reserved":false,"is_disabled":false,"rental_uris":{"android":"levelo://app?vid=72bf32dc-24e5-49a4-b356-4e95ac923d35","ios":"levelo://app?vid=72bf32dc-24e5-49a4-b356-4e95ac923d35"},"vehicle_type_id":"4","last_reported":1701090652,"current_range_meters":26400,"station_id":"ce4bgrh2rcd13ifvqc8g","pricing_plan_id":"free"},{"bike_id":"15936695-80f5-4b73-8f7d-3eccf15ad1b5","system_id":"levelo_inurba_marseille","lat":43.309589,"lon":5.390258,"is_reserved":false,"is_disabled":false,"rental_uris":{"android":"levelo://app?vid=15936695-80f5-4b73-8f7d-3eccf15ad1b5","ios":"levelo://app?vid=15936695-80f5-4b73-8f7d-3eccf15ad1b5"},"vehicle_type_id":"4","last_reported":1701090652,"current_range_meters":3200,"station_id":"ce4bgup2rcd13ifvqco0","pricing_plan_id":"free"},{"bike_id":"dd235040-f52a-4f4e-a67e-70cc6d5bb4b7","system_id":"levelo_inurba_marseille","lat":43.30143,"lon":5.37413,"is_reserved":false,"is_disabled":false,"rental_uris":{"android":"levelo://app?vid=dd235040-f52a-4f4e-a67e-70cc6d5bb4b7","ios":"levelo://app?vid=dd235040-f52a-4f4e-a67e-70cc6d5bb4b7"},"vehicle_type_id":"4","last_reported":1701090652,"current_range_meters":21200,"station_id":"ce4bgs92rcd13ifvqcc0","pricing_plan_id":"free"},{"bike_id":"347f9a21-d5ab-4aed-924d-15419b882e05","system_id":"levelo_inurba_marseille","lat":43.30143,"lon":5.37413,"is_reserved":false,"is_disabled":false,"rental_uris":{"android":"levelo://app?vid=347f9a21-d5ab-4aed-924d-15419b882e05","ios":"levelo://app?vid=347f9a21-d5ab-4aed-924d-15419b882e05"},"vehicle_type_id":"4","last_reported":1701090652,"current_range_meters":26400,"station_id":"ce4bgs92rcd13ifvqcc0","pricing_plan_id":"free"},{"bike_id":"83c01ea3-1a20-4a6f-944b-833be987b804","system_id":"levelo_inurba_marseille","lat":43.30546,"lon":5.380783,"is_reserved":false,"is_disabled":false,"rental_uris":{"android":"levelo://app?vid=83c01ea3-1a20-4a6f-944b-833be987b804","ios":"levelo://app?vid=83c01ea3-1a20-4a6f-944b-833be987b804"},"vehicle_type_id":"4","last_reported":1701090652,"current_range_meters":0,"station_id":"","pricing_plan_id":"free"},{"bike_id":"9f73eb49-ab17-4999-8ea6-c3ec45950f02","system_id":"levelo_inurba_marseille","lat":43.30143,"lon":5.37413,"is_reserved":false,"is_disabled":false,"rental_uris":{"android":"levelo://app?vid=9f73eb49-ab17-4999-8ea6-c3ec45950f02","ios":"levelo://app?vid=9f73eb49-ab17-4999-8ea6-c3ec45950f02"},"vehicle_type_id":"4","last_reported":1701090652,"current_range_meters":13200,"station_id":"ce4bgs92rcd13ifvqcc0","pricing_plan_id":"free"},{"bike_id":"0292bf26-e12a-446a-b39e-08c122669757","system_id":"levelo_inurba_marseille","lat":43.30142,"lon":5.37415,"is_reserved":false,"is_disabled":false,"rental_uris":{"android":"levelo://app?vid=0292bf26-e12a-446a-b39e-08c122669757","ios":"levelo://app?vid=0292bf26-e12a-446a-b39e-08c122669757"},"vehicle_type_id":"4","last_reported":1701090652,"current_range_meters":15600,"station_id":"ce4bgs92rcd13ifvqcc0","pricing_plan_id":"free"},{"bike_id":"cc3f79fd-1663-4855-88ab-200d5922e5d3","system_id":"levelo_inurba_marseille","lat":43.302784,"lon":5.377158,"is_reserved":false,"is_disabled":false,"rental_uris":{"android":"levelo://app?vid=cc3f79fd-1663-4855-88ab-200d5922e5d3","ios":"levelo://app?vid=cc3f79fd-1663-4855-88ab-200d5922e5d3"},"vehicle_type_id":"4","last_reported":1701090652,"current_range_meters":21200,"station_id":"ce4bguh2rcd13ifvqcj0","pricing_plan_id":"free"},{"bike_id":"ae82a2d1-9daf-4c1b-9b23-f7901c44d1b6","system_id":"levelo_inurba_marseille","lat":43.302784,"lon":5.377158,"is_reserved":false,"is_disabled":false,"rental_uris":{"android":"levelo://app?vid=ae82a2d1-9daf-4c1b-9b23-f7901c44d1b6","ios":"levelo://app?vid=ae82a2d1-9daf-4c1b-9b23-f7901c44d1b6"},"vehicle_type_id":"4","last_reported":1701090652,"current_range_meters":24400,"station_id":"ce4bguh2rcd13ifvqcj0","pricing_plan_id":"free"},{"bike_id":"eb502bdf-2709-427a-96f9-0ee4c3f2fb9e","system_id":"levelo_inurba_marseille","lat":43.31992,"lon":5.381637,"is_reserved":false,"is_disabled":false,"rental_uris":{"android":"levelo://app?vid=eb502bdf-2709-427a-96f9-0ee4c3f2fb9e","ios":"levelo://app?vid=eb502bdf-2709-427a-96f9-0ee4c3f2fb9e"},"vehicle_type_id":"4","last_reported":1701090652,"current_range_meters":9600,"station_id":"ce4bhr12rcd13ifvqhpg","pricing_plan_id":"free"},{"bike_id":"2816042e-4bb5-4a37-a09b-6c9a8754e7ec","system_id":"levelo_inurba_marseille","lat":43.305364,"lon":5.384119,"is_reserved":false,"is_disabled":false,"rental_uris":{"android":"levelo://app?vid=2816042e-4bb5-4a37-a09b-6c9a8754e7ec","ios":"levelo://app?vid=2816042e-4bb5-4a37-a09b-6c9a8754e7ec"},"vehicle_type_id":"4","last_reported":1701090652,"current_range_meters":30000,"station_id":"ce4bgg92rcd13ifvqb30","pricing_plan_id":"free"},{"bike_id":"f59e168d-50c0-4baa-8402-c42bc81ff248","system_id":"levelo_inurba_marseille","lat":43.298433,"lon":5.362774,"is_reserved":false,"is_disabled":false,"rental_uris":{"android":"levelo://app?vid=f59e168d-50c0-4baa-8402-c42bc81ff248","ios":"levelo://app?vid=f59e168d-50c0-4baa-8402-c42bc81ff248"},"vehicle_type_id":"4","last_reported":1701090652,"current_range_meters":8400,"station_id":"ce4bgpp2rcd13ifvqc3g","pricing_plan_id":"free"},{"bike_id":"203f5ba8-0e89-4784-aa27-b78132f1046a","system_id":"levelo_inurba_marseille","lat":43.298433,"lon":5.362774,"is_reserved":false,"is_disabled":false,"rental_uris":{"android":"levelo://app?vid=203f5ba8-0e89-4784-aa27-b78132f1046a","ios":"levelo://app?vid=203f5ba8-0e89-4784-aa27-b78132f1046a"},"vehicle_type_id":"4","last_reported":1701090652,"current_range_meters":29200,"station_id":"ce4bgpp2rcd13ifvqc3g","pricing_plan_id":"free"},{"bike_id":"f5a04daa-ddbf-40c5-9ac8-c8febd7e3518","system_id":"levelo_inurba_marseille","lat":43.29847,"lon":5.36276,"is_reserved":false,"is_disabled":false,"rental_uris":{"android":"levelo://app?vid=f5a04daa-ddbf-40c5-9ac8-c8febd7e3518","ios":"levelo://app?vid=f5a04daa-ddbf-40c5-9ac8-c8febd7e3518"},"vehicle_type_id":"4","last_reported":1701090652,"current_range_meters":20400,"station_id":"ce4bgpp2rcd13ifvqc3g","pricing_plan_id":"free"},{"bike_id":"590c398e-801c-4bf1-b43a-0987e9147a3f","system_id":"levelo_inurba_marseille","lat":43.298458,"lon":5.362732,"is_reserved":false,"is_disabled":false,"rental_uris":{"android":"levelo://app?vid=590c398e-801c-4bf1-b43a-0987e9147a3f","ios":"levelo://app?vid=590c398e-801c-4bf1-b43a-0987e9147a3f"},"vehicle_type_id":"4","last_reported":1701090652,"current_range_meters":8400,"station_id":"ce4bgpp2rcd13ifvqc3g","pricing_plan_id":"free"},{"bike_id":"984489f8-4f60-44ae-bd10-3b0ce30541c9","system_id":"levelo_inurba_marseille","lat":43.29841,"lon":5.36267,"is_reserved":false,"is_disabled":false,"rental_uris":{"android":"levelo://app?vid=984489f8-4f60-44ae-bd10-3b0ce30541c9","ios":"levelo://app?vid=984489f8-4f60-44ae-bd10-3b0ce30541c9"},"vehicle_type_id":"4","last_reported":1701090652,"current_range_meters":0,"station_id":"ce4bgpp2rcd13ifvqc3g","pricing_plan_id":"free"},{"bike_id":"c4530d0d-4507-442b-b73b-da3f3edf8f57","system_id":"levelo_inurba_marseille","lat":43.311722,"lon":5.387247,"is_reserved":false,"is_disabled":false,"rental_uris":{"android":"levelo://app?vid=c4530d0d-4507-442b-b73b-da3f3edf8f57","ios":"levelo://app?vid=c4530d0d-4507-442b-b73b-da3f3edf8f57"},"vehicle_type_id":"4","last_reported":1701090652,"current_range_meters":20800,"station_id":"ce4bgv12rcd13ifvqcp0","pricing_plan_id":"free"},{"bike_id":"9dfc1be4-40e0-479e-8a23-39504815e756","system_id":"levelo_inurba_marseille","lat":43.322872,"lon":5.382756,"is_reserved":false,"is_disabled":false,"rental_uris":{"android":"levelo://app?vid=9dfc1be4-40e0-479e-8a23-39504815e756","ios":"levelo://app?vid=9dfc1be4-40e0-479e-8a23-39504815e756"},"vehicle_type_id":"4","last_reported":1701090652,"current_range_meters":27600,"station_id":"ce4bhr12rcd13ifvqhqg","pricing_plan_id":"free"},{"bike_id":"b348773b-dc8c-4b31-be78-66f1fbc020ff","system_id":"levelo_inurba_marseille","lat":43.328371,"lon":5.366909,"is_reserved":false,"is_disabled":false,"rental_uris":{"android":"levelo://app?vid=b348773b-dc8c-4b31-be78-66f1fbc020ff","ios":"levelo://app?vid=b348773b-dc8c-4b31-be78-66f1fbc020ff"},"vehicle_type_id":"4","last_reported":1701090652,"current_range_meters":22400,"station_id":"ce4bhs92rcd13ifvqi0g","pricing_plan_id":"free"},{"bike_id":"01b710cc-5bf1-48d9-86c0-0c6e8ecdce75","system_id":"levelo_inurba_marseille","lat":43.29573,"lon":5.367355,"is_reserved":false,"is_disabled":false,"rental_uris":{"android":"levelo://app?vid=01b710cc-5bf1-48d9-86c0-0c6e8ecdce75","ios":"levelo://app?vid=01b710cc-5bf1-48d9-86c0-0c6e8ecdce75"},"vehicle_type_id":"4","last_reported":1701090652,"current_range_meters":29600,"station_id":"ce4bgph2rcd13ifvqc2g","pricing_plan_id":"free"},{"bike_id":"9b7da75e-04fe-429b-9c68-ef3849b3f174","system_id":"levelo_inurba_marseille","lat":43.299028,"lon":5.381509,"is_reserved":false,"is_disabled":false,"rental_uris":{"android":"levelo://app?vid=9b7da75e-04fe-429b-9c68-ef3849b3f174","ios":"levelo://app?vid=9b7da75e-04fe-429b-9c68-ef3849b3f174"},"vehicle_type_id":"4","last_reported":1701090652,"current_range_meters":26000,"station_id":"ce4bgj12rcd13ifvqbc0","pricing_plan_id":"free"},{"bike_id":"d618ff36-8862-4916-907d-fa8e824a0f72","system_id":"levelo_inurba_marseille","lat":43.30951,"lon":5.39027,"is_reserved":false,"is_disabled":false,"rental_uris":{"android":"levelo://app?vid=d618ff36-8862-4916-907d-fa8e824a0f72","ios":"levelo://app?vid=d618ff36-8862-4916-907d-fa8e824a0f72"},"vehicle_type_id":"4","last_reported":1701090652,"current_range_meters":13200,"station_id":"ce4bgup2rcd13ifvqco0","pricing_plan_id":"free"},{"bike_id":"5dc19534-c5a5-41c7-b02a-be74f25867c0","system_id":"levelo_inurba_marseille","lat":43.317557,"lon":5.390173,"is_reserved":false,"is_disabled":false,"rental_uris":{"android":"levelo://app?vid=5dc19534-c5a5-41c7-b02a-be74f25867c0","ios":"levelo://app?vid=5dc19534-c5a5-41c7-b02a-be74f25867c0"},"vehicle_type_id":"4","last_reported":1701090652,"current_range_meters":21600,"station_id":"ce4bhqp2rcd13ifvqhng","pricing_plan_id":"free"},{"bike_id":"819ca095-2511-4d5f-96c3-329bc7bf45cf","system_id":"levelo_inurba_marseille","lat":43.317557,"lon":5.390173,"is_reserved":false,"is_disabled":false,"rental_uris":{"android":"levelo://app?vid=819ca095-2511-4d5f-96c3-329bc7bf45cf","ios":"levelo://app?vid=819ca095-2511-4d5f-96c3-329bc7bf45cf"},"vehicle_type_id":"4","last_reported":1701090652,"current_range_meters":14000,"station_id":"ce4bhqp2rcd13ifvqhng","pricing_plan_id":"free"},{"bike_id":"a1f46522-e250-488b-993f-1e29802aa0cc","system_id":"levelo_inurba_marseille","lat":43.296086,"lon":5.374989,"is_reserved":false,"is_disabled":false,"rental_uris":{"android":"levelo://app?vid=a1f46522-e250-488b-993f-1e29802aa0cc","ios":"levelo://app?vid=a1f46522-e250-488b-993f-1e29802aa0cc"},"vehicle_type_id":"4","last_reported":1701090652,"current_range_meters":16800,"station_id":"","pricing_plan_id":"free"},{"bike_id":"c1d26a3b-6855-4516-8007-a5c33e91a6b5","system_id":"levelo_inurba_marseille","lat":43.298037,"lon":5.381066,"is_reserved":false,"is_disabled":false,"rental_uris":{"android":"levelo://app?vid=c1d26a3b-6855-4516-8007-a5c33e91a6b5","ios":"levelo://app?vid=c1d26a3b-6855-4516-8007-a5c33e91a6b5"},"vehicle_type_id":"4","last_reported":1701090652,"current_range_meters":22400,"station_id":"ce4bgip2rcd13ifvqbb0","pricing_plan_id":"free"},{"bike_id":"e5d63454-465d-4d1d-ab43-f3233943268f","system_id":"levelo_inurba_marseille","lat":43.298037,"lon":5.381066,"is_reserved":false,"is_disabled":false,"rental_uris":{"android":"levelo://app?vid=e5d63454-465d-4d1d-ab43-f3233943268f","ios":"levelo://app?vid=e5d63454-465d-4d1d-ab43-f3233943268f"},"vehicle_type_id":"4","last_reported":1701090652,"current_range_meters":6800,"station_id":"ce4bgip2rcd13ifvqbb0","pricing_plan_id":"free"},{"bike_id":"7978c023-da3d-461d-a593-37a133d3f12a","system_id":"levelo_inurba_marseille","lat":43.298037,"lon":5.381066,"is_reserved":false,"is_disabled":false,"rental_uris":{"android":"levelo://app?vid=7978c023-da3d-461d-a593-37a133d3f12a","ios":"levelo://app?vid=7978c023-da3d-461d-a593-37a133d3f12a"},"vehicle_type_id":"4","last_reported":1701090652,"current_range_meters":8400,"station_id":"ce4bgip2rcd13ifvqbb0","pricing_plan_id":"free"},{"bike_id":"0449ea18-9677-401c-9257-4c1865584447","system_id":"levelo_inurba_marseille","lat":43.2957,"lon":5.37496,"is_reserved":false,"is_disabled":false,"rental_uris":{"android":"levelo://app?vid=0449ea18-9677-401c-9257-4c1865584447","ios":"levelo://app?vid=0449ea18-9677-401c-9257-4c1865584447"},"vehicle_type_id":"4","last_reported":1701090652,"current_range_meters":0,"station_id":"ce4bgh92rcd13ifvqb50","pricing_plan_id":"free"},{"bike_id":"698105ad-2fd2-43a5-b041-459989ab0a40","system_id":"levelo_inurba_marseille","lat":43.298037,"lon":5.381066,"is_reserved":false,"is_disabled":false,"rental_uris":{"android":"levelo://app?vid=698105ad-2fd2-43a5-b041-459989ab0a40","ios":"levelo://app?vid=698105ad-2fd2-43a5-b041-459989ab0a40"},"vehicle_type_id":"4","last_reported":1701090652,"current_range_meters":19600,"station_id":"ce4bgip2rcd13ifvqbb0","pricing_plan_id":"free"},{"bike_id":"caa6f5a4-dd3f-4a71-948e-0f48ba19348d","system_id":"levelo_inurba_marseille","lat":43.298037,"lon":5.381066,"is_reserved":false,"is_disabled":false,"rental_uris":{"android":"levelo://app?vid=caa6f5a4-dd3f-4a71-948e-0f48ba19348d","ios":"levelo://app?vid=caa6f5a4-dd3f-4a71-948e-0f48ba19348d"},"vehicle_type_id":"4","last_reported":1701090652,"current_range_meters":12000,"station_id":"ce4bgip2rcd13ifvqbb0","pricing_plan_id":"free"},{"bike_id":"55a67304-3ff4-41b1-8904-8ed2738c0fa9","system_id":"levelo_inurba_marseille","lat":43.296263,"lon":5.377094,"is_reserved":false,"is_disabled":false,"rental_uris":{"android":"levelo://app?vid=55a67304-3ff4-41b1-8904-8ed2738c0fa9","ios":"levelo://app?vid=55a67304-3ff4-41b1-8904-8ed2738c0fa9"},"vehicle_type_id":"4","last_reported":1701090652,"current_range_meters":4800,"station_id":"ce4bgi92rcd13ifvqb90","pricing_plan_id":"free"},{"bike_id":"f9251b30-5827-49f1-a10b-441f4ddb0a3b","system_id":"levelo_inurba_marseille","lat":43.296263,"lon":5.377094,"is_reserved":false,"is_disabled":false,"rental_uris":{"android":"levelo://app?vid=f9251b30-5827-49f1-a10b-441f4ddb0a3b","ios":"levelo://app?vid=f9251b30-5827-49f1-a10b-441f4ddb0a3b"},"vehicle_type_id":"4","last_reported":1701090652,"current_range_meters":20800,"station_id":"ce4bgi92rcd13ifvqb90","pricing_plan_id":"free"},{"bike_id":"6b621983-5e9e-42f7-990d-ad5a093820d2","system_id":"levelo_inurba_marseille","lat":43.293801,"lon":5.363066,"is_reserved":false,"is_disabled":false,"rental_uris":{"android":"levelo://app?vid=6b621983-5e9e-42f7-990d-ad5a093820d2","ios":"levelo://app?vid=6b621983-5e9e-42f7-990d-ad5a093820d2"},"vehicle_type_id":"4","last_reported":1701090652,"current_range_meters":0,"station_id":"","pricing_plan_id":"free"},{"bike_id":"67e3a3bc-11c6-4dd7-9b77-48847bc24e0d","system_id":"levelo_inurba_marseille","lat":43.29601,"lon":5.381084,"is_reserved":false,"is_disabled":false,"rental_uris":{"android":"levelo://app?vid=67e3a3bc-11c6-4dd7-9b77-48847bc24e0d","ios":"levelo://app?vid=67e3a3bc-11c6-4dd7-9b77-48847bc24e0d"},"vehicle_type_id":"4","last_reported":1701090652,"current_range_meters":12400,"station_id":"ce4bgl12rcd13ifvqbo0","pricing_plan_id":"free"},{"bike_id":"b08f8211-7672-4164-a32b-95587bb447c3","system_id":"levelo_inurba_marseille","lat":43.29602,"lon":5.381084,"is_reserved":false,"is_disabled":false,"rental_uris":{"android":"levelo://app?vid=b08f8211-7672-4164-a32b-95587bb447c3","ios":"levelo://app?vid=b08f8211-7672-4164-a32b-95587bb447c3"},"vehicle_type_id":"4","last_reported":1701090652,"current_range_meters":15600,"station_id":"ce4bgl12rcd13ifvqbo0","pricing_plan_id":"free"},{"bike_id":"9b9f06d7-4168-4697-9e67-a11cf29bb267","system_id":"levelo_inurba_marseille","lat":43.29602,"lon":5.381084,"is_reserved":false,"is_disabled":false,"rental_uris":{"android":"levelo://app?vid=9b9f06d7-4168-4697-9e67-a11cf29bb267","ios":"levelo://app?vid=9b9f06d7-4168-4697-9e67-a11cf29bb267"},"vehicle_type_id":"4","last_reported":1701090652,"current_range_meters":2000,"station_id":"ce4bgl12rcd13ifvqbo0","pricing_plan_id":"free"},{"bike_id":"039f2f3b-ae71-481d-a1c6-f784b341e208","system_id":"levelo_inurba_marseille","lat":43.29282,"lon":5.36854,"is_reserved":false,"is_disabled":false,"rental_uris":{"android":"levelo://app?vid=039f2f3b-ae71-481d-a1c6-f784b341e208","ios":"levelo://app?vid=039f2f3b-ae71-481d-a1c6-f784b341e208"},"vehicle_type_id":"4","last_reported":1701090652,"current_range_meters":2400,"station_id":"ce4bhbp2rcd13ifvqesg","pricing_plan_id":"free"},{"bike_id":"0a1838e0-6fea-48e7-837e-c541b0f8d11e","system_id":"levelo_inurba_marseille","lat":43.29277,"lon":5.36843,"is_reserved":false,"is_disabled":false,"rental_uris":{"android":"levelo://app?vid=0a1838e0-6fea-48e7-837e-c541b0f8d11e","ios":"levelo://app?vid=0a1838e0-6fea-48e7-837e-c541b0f8d11e"},"vehicle_type_id":"4","last_reported":1701090652,"current_range_meters":0,"station_id":"ce4bhbp2rcd13ifvqesg","pricing_plan_id":"free"},{"bike_id":"ddd61bce-03d4-4f1e-8020-8ef45188a057","system_id":"levelo_inurba_marseille","lat":43.299894,"lon":5.387992,"is_reserved":false,"is_disabled":false,"rental_uris":{"android":"levelo://app?vid=ddd61bce-03d4-4f1e-8020-8ef45188a057","ios":"levelo://app?vid=ddd61bce-03d4-4f1e-8020-8ef45188a057"},"vehicle_type_id":"4","last_reported":1701090652,"current_range_meters":15600,"station_id":"","pricing_plan_id":"free"},{"bike_id":"ede85732-b0ce-4a73-a143-2d4b2306a0f3","system_id":"levelo_inurba_marseille","lat":43.305994,"lon":5.393687,"is_reserved":false,"is_disabled":false,"rental_uris":{"android":"levelo://app?vid=ede85732-b0ce-4a73-a143-2d4b2306a0f3","ios":"levelo://app?vid=ede85732-b0ce-4a73-a143-2d4b2306a0f3"},"vehicle_type_id":"4","last_reported":1701090652,"current_range_meters":28800,"station_id":"ce4bh0p2rcd13ifvqd80","pricing_plan_id":"free"},{"bike_id":"8ab56fd9-daf4-426d-9c71-775600ec9d77","system_id":"levelo_inurba_marseille","lat":43.305994,"lon":5.393687,"is_reserved":false,"is_disabled":false,"rental_uris":{"android":"levelo://app?vid=8ab56fd9-daf4-426d-9c71-775600ec9d77","ios":"levelo://app?vid=8ab56fd9-daf4-426d-9c71-775600ec9d77"},"vehicle_type_id":"4","last_reported":1701090652,"current_range_meters":17200,"station_id":"ce4bh0p2rcd13ifvqd80","pricing_plan_id":"free"},{"bike_id":"e5126158-69c8-4c0a-bb4f-3f347c5132e5","system_id":"levelo_inurba_marseille","lat":43.293009,"lon":5.374584,"is_reserved":false,"is_disabled":false,"rental_uris":{"android":"levelo://app?vid=e5126158-69c8-4c0a-bb4f-3f347c5132e5","ios":"levelo://app?vid=e5126158-69c8-4c0a-bb4f-3f347c5132e5"},"vehicle_type_id":"4","last_reported":1701090652,"current_range_meters":24400,"station_id":"ce4bgi12rcd13ifvqb70","pricing_plan_id":"free"},{"bike_id":"c0cd04b2-106b-49f7-86e6-73ef45a90ed1","system_id":"levelo_inurba_marseille","lat":43.305994,"lon":5.393687,"is_reserved":false,"is_disabled":false,"rental_uris":{"android":"levelo://app?vid=c0cd04b2-106b-49f7-86e6-73ef45a90ed1","ios":"levelo://app?vid=c0cd04b2-106b-49f7-86e6-73ef45a90ed1"},"vehicle_type_id":"4","last_reported":1701090652,"current_range_meters":27200,"station_id":"ce4bh0p2rcd13ifvqd80","pricing_plan_id":"free"},{"bike_id":"5e3e68c3-be6f-417b-b9e3-12e3a2d2cadb","system_id":"levelo_inurba_marseille","lat":43.305994,"lon":5.393687,"is_reserved":false,"is_disabled":false,"rental_uris":{"android":"levelo://app?vid=5e3e68c3-be6f-417b-b9e3-12e3a2d2cadb","ios":"levelo://app?vid=5e3e68c3-be6f-417b-b9e3-12e3a2d2cadb"},"vehicle_type_id":"4","last_reported":1701090652,"current_range_meters":12800,"station_id":"ce4bh0p2rcd13ifvqd80","pricing_plan_id":"free"},{"bike_id":"58498dc5-831f-4790-bbcb-a0cbc30ddc07","system_id":"levelo_inurba_marseille","lat":43.305994,"lon":5.393687,"is_reserved":false,"is_disabled":false,"rental_uris":{"android":"levelo://app?vid=58498dc5-831f-4790-bbcb-a0cbc30ddc07","ios":"levelo://app?vid=58498dc5-831f-4790-bbcb-a0cbc30ddc07"},"vehicle_type_id":"4","last_reported":1701090652,"current_range_meters":25200,"station_id":"ce4bh0p2rcd13ifvqd80","pricing_plan_id":"free"},{"bike_id":"55a2f2a6-0e93-49fc-b804-e53bc480ddd0","system_id":"levelo_inurba_marseille","lat":43.305994,"lon":5.393687,"is_reserved":false,"is_disabled":false,"rental_uris":{"android":"levelo://app?vid=55a2f2a6-0e93-49fc-b804-e53bc480ddd0","ios":"levelo://app?vid=55a2f2a6-0e93-49fc-b804-e53bc480ddd0"},"vehicle_type_id":"4","last_reported":1701090652,"current_range_meters":18400,"station_id":"ce4bh0p2rcd13ifvqd80","pricing_plan_id":"free"},{"bike_id":"b7da1a75-89ea-49e4-9358-e44b582c5042","system_id":"levelo_inurba_marseille","lat":43.293009,"lon":5.374584,"is_reserved":false,"is_disabled":false,"rental_uris":{"android":"levelo://app?vid=b7da1a75-89ea-49e4-9358-e44b582c5042","ios":"levelo://app?vid=b7da1a75-89ea-49e4-9358-e44b582c5042"},"vehicle_type_id":"4","last_reported":1701090652,"current_range_meters":1600,"station_id":"ce4bgi12rcd13ifvqb70","pricing_plan_id":"free"},{"bike_id":"255740e4-e433-4350-8895-76eb3227bd00","system_id":"levelo_inurba_marseille","lat":43.2936,"lon":5.37835,"is_reserved":false,"is_disabled":false,"rental_uris":{"android":"levelo://app?vid=255740e4-e433-4350-8895-76eb3227bd00","ios":"levelo://app?vid=255740e4-e433-4350-8895-76eb3227bd00"},"vehicle_type_id":"4","last_reported":1701090652,"current_range_meters":16400,"station_id":"ce4bgjh2rcd13ifvqbf0","pricing_plan_id":"free"},{"bike_id":"8e223af9-9e7c-4171-ac60-fb50ee9728a0","system_id":"levelo_inurba_marseille","lat":43.2936,"lon":5.37835,"is_reserved":false,"is_disabled":false,"rental_uris":{"android":"levelo://app?vid=8e223af9-9e7c-4171-ac60-fb50ee9728a0","ios":"levelo://app?vid=8e223af9-9e7c-4171-ac60-fb50ee9728a0"},"vehicle_type_id":"4","last_reported":1701090652,"current_range_meters":10800,"station_id":"ce4bgjh2rcd13ifvqbf0","pricing_plan_id":"free"},{"bike_id":"bdc1c40f-c5ee-44df-a824-f4f6f8071faa","system_id":"levelo_inurba_marseille","lat":43.2936,"lon":5.37835,"is_reserved":false,"is_disabled":false,"rental_uris":{"android":"levelo://app?vid=bdc1c40f-c5ee-44df-a824-f4f6f8071faa","ios":"levelo://app?vid=bdc1c40f-c5ee-44df-a824-f4f6f8071faa"},"vehicle_type_id":"4","last_reported":1701090652,"current_range_meters":17200,"station_id":"ce4bgjh2rcd13ifvqbf0","pricing_plan_id":"free"},{"bike_id":"eadeb52a-940c-4fd0-8294-58a2e430d793","system_id":"levelo_inurba_marseille","lat":43.292311,"lon":5.360731,"is_reserved":false,"is_disabled":false,"rental_uris":{"android":"levelo://app?vid=eadeb52a-940c-4fd0-8294-58a2e430d793","ios":"levelo://app?vid=eadeb52a-940c-4fd0-8294-58a2e430d793"},"vehicle_type_id":"4","last_reported":1701090652,"current_range_meters":26000,"station_id":"ce4bhbh2rcd13ifvqeqg","pricing_plan_id":"free"},{"bike_id":"8e7eba87-716d-46b1-a76d-b32a746ff517","system_id":"levelo_inurba_marseille","lat":43.29875,"lon":5.389025,"is_reserved":false,"is_disabled":false,"rental_uris":{"android":"levelo://app?vid=8e7eba87-716d-46b1-a76d-b32a746ff517","ios":"levelo://app?vid=8e7eba87-716d-46b1-a76d-b32a746ff517"},"vehicle_type_id":"4","last_reported":1701090652,"current_range_meters":7200,"station_id":"ce4bh392rcd13ifvqdl0","pricing_plan_id":"free"},{"bike_id":"a5f94b71-fb4f-4610-8942-579d3b662cd7","system_id":"levelo_inurba_marseille","lat":43.29872,"lon":5.38904,"is_reserved":false,"is_disabled":false,"rental_uris":{"android":"levelo://app?vid=a5f94b71-fb4f-4610-8942-579d3b662cd7","ios":"levelo://app?vid=a5f94b71-fb4f-4610-8942-579d3b662cd7"},"vehicle_type_id":"4","last_reported":1701090652,"current_range_meters":13200,"station_id":"ce4bh392rcd13ifvqdl0","pricing_plan_id":"free"},{"bike_id":"fcb88794-d241-418a-bcf5-ad83a8f68995","system_id":"levelo_inurba_marseille","lat":43.30885,"lon":5.39623,"is_reserved":false,"is_disabled":false,"rental_uris":{"android":"levelo://app?vid=fcb88794-d241-418a-bcf5-ad83a8f68995","ios":"levelo://app?vid=fcb88794-d241-418a-bcf5-ad83a8f68995"},"vehicle_type_id":"4","last_reported":1701090652,"current_range_meters":14000,"station_id":"ce4bh012rcd13ifvqcv0","pricing_plan_id":"free"},{"bike_id":"dad137e5-33ea-4c65-9c66-ba0a5dd20313","system_id":"levelo_inurba_marseille","lat":43.303002,"lon":5.392142,"is_reserved":false,"is_disabled":false,"rental_uris":{"android":"levelo://app?vid=dad137e5-33ea-4c65-9c66-ba0a5dd20313","ios":"levelo://app?vid=dad137e5-33ea-4c65-9c66-ba0a5dd20313"},"vehicle_type_id":"4","last_reported":1701090652,"current_range_meters":25200,"station_id":"ce4bgkh2rcd13ifvqbk0","pricing_plan_id":"free"},{"bike_id":"af593931-cc6c-43c2-97c7-5b216682e72e","system_id":"levelo_inurba_marseille","lat":43.313291,"lon":5.396838,"is_reserved":false,"is_disabled":false,"rental_uris":{"android":"levelo://app?vid=af593931-cc6c-43c2-97c7-5b216682e72e","ios":"levelo://app?vid=af593931-cc6c-43c2-97c7-5b216682e72e"},"vehicle_type_id":"4","last_reported":1701090652,"current_range_meters":24400,"station_id":"ce4bgvp2rcd13ifvqcu0","pricing_plan_id":"free"},{"bike_id":"98c8991a-5907-4289-9e0b-8f16a2a39294","system_id":"levelo_inurba_marseille","lat":43.309038,"lon":5.396546,"is_reserved":false,"is_disabled":false,"rental_uris":{"android":"levelo://app?vid=98c8991a-5907-4289-9e0b-8f16a2a39294","ios":"levelo://app?vid=98c8991a-5907-4289-9e0b-8f16a2a39294"},"vehicle_type_id":"4","last_reported":1701090652,"current_range_meters":15600,"station_id":"ce4bh012rcd13ifvqcv0","pricing_plan_id":"free"},{"bike_id":"a68902ce-87c2-4c91-a267-128ed5a48d75","system_id":"levelo_inurba_marseille","lat":43.290327,"lon":5.375711,"is_reserved":false,"is_disabled":false,"rental_uris":{"android":"levelo://app?vid=a68902ce-87c2-4c91-a267-128ed5a48d75","ios":"levelo://app?vid=a68902ce-87c2-4c91-a267-128ed5a48d75"},"vehicle_type_id":"4","last_reported":1701090652,"current_range_meters":23200,"station_id":"ce4bh692rcd13ifvqe90","pricing_plan_id":"free"},{"bike_id":"9f83bebf-10d6-42c9-9c37-9de8e3d771f9","system_id":"levelo_inurba_marseille","lat":43.290327,"lon":5.375711,"is_reserved":false,"is_disabled":false,"rental_uris":{"android":"levelo://app?vid=9f83bebf-10d6-42c9-9c37-9de8e3d771f9","ios":"levelo://app?vid=9f83bebf-10d6-42c9-9c37-9de8e3d771f9"},"vehicle_type_id":"4","last_reported":1701090652,"current_range_meters":25600,"station_id":"ce4bh692rcd13ifvqe90","pricing_plan_id":"free"},{"bike_id":"076c8657-63c1-4974-ba96-27365e66c45a","system_id":"levelo_inurba_marseille","lat":43.304296,"lon":5.397513,"is_reserved":false,"is_disabled":false,"rental_uris":{"android":"levelo://app?vid=076c8657-63c1-4974-ba96-27365e66c45a","ios":"levelo://app?vid=076c8657-63c1-4974-ba96-27365e66c45a"},"vehicle_type_id":"4","last_reported":1701090652,"current_range_meters":30000,"station_id":"ce4bh092rcd13ifvqd20","pricing_plan_id":"free"},{"bike_id":"bdcc7cc1-42d6-49e9-87ff-df99a3cc71c6","system_id":"levelo_inurba_marseille","lat":43.330442,"lon":5.389148,"is_reserved":false,"is_disabled":false,"rental_uris":{"android":"levelo://app?vid=bdcc7cc1-42d6-49e9-87ff-df99a3cc71c6","ios":"levelo://app?vid=bdcc7cc1-42d6-49e9-87ff-df99a3cc71c6"},"vehicle_type_id":"4","last_reported":1701090652,"current_range_meters":22400,"station_id":"ce4bhr92rcd13ifvqhrg","pricing_plan_id":"free"},{"bike_id":"7f29f1ce-ffa4-4c61-9135-215ba876d3f4","system_id":"levelo_inurba_marseille","lat":43.3304,"lon":5.38921,"is_reserved":false,"is_disabled":false,"rental_uris":{"android":"levelo://app?vid=7f29f1ce-ffa4-4c61-9135-215ba876d3f4","ios":"levelo://app?vid=7f29f1ce-ffa4-4c61-9135-215ba876d3f4"},"vehicle_type_id":"4","last_reported":1701090652,"current_range_meters":14000,"station_id":"ce4bhr92rcd13ifvqhrg","pricing_plan_id":"free"},{"bike_id":"31f56bd9-5142-4f21-b026-769963e1fef6","system_id":"levelo_inurba_marseille","lat":43.290995,"lon":5.381361,"is_reserved":false,"is_disabled":false,"rental_uris":{"android":"levelo://app?vid=31f56bd9-5142-4f21-b026-769963e1fef6","ios":"levelo://app?vid=31f56bd9-5142-4f21-b026-769963e1fef6"},"vehicle_type_id":"4","last_reported":1701090652,"current_range_meters":14000,"station_id":"ce4bh512rcd13ifvqe2g","pricing_plan_id":"free"},{"bike_id":"b948bf99-bf82-4a1e-8963-aa03270ac323","system_id":"levelo_inurba_marseille","lat":43.29782,"lon":5.393425,"is_reserved":false,"is_disabled":false,"rental_uris":{"android":"levelo://app?vid=b948bf99-bf82-4a1e-8963-aa03270ac323","ios":"levelo://app?vid=b948bf99-bf82-4a1e-8963-aa03270ac323"},"vehicle_type_id":"4","last_reported":1701090652,"current_range_meters":0,"station_id":"chh1huq6cuj3fo74tm60","pricing_plan_id":"free"},{"bike_id":"863b102f-1167-4575-80b6-5fcc8ca472de","system_id":"levelo_inurba_marseille","lat":43.295169,"lon":5.390426,"is_reserved":false,"is_disabled":false,"rental_uris":{"android":"levelo://app?vid=863b102f-1167-4575-80b6-5fcc8ca472de","ios":"levelo://app?vid=863b102f-1167-4575-80b6-5fcc8ca472de"},"vehicle_type_id":"4","last_reported":1701090652,"current_range_meters":24400,"station_id":"ce4bh3p2rcd13ifvqdp0","pricing_plan_id":"free"},{"bike_id":"ae1e65ee-8318-446c-bc86-8816a0ff9e5e","system_id":"levelo_inurba_marseille","lat":43.28856,"lon":5.358371,"is_reserved":false,"is_disabled":false,"rental_uris":{"android":"levelo://app?vid=ae1e65ee-8318-446c-bc86-8816a0ff9e5e","ios":"levelo://app?vid=ae1e65ee-8318-446c-bc86-8816a0ff9e5e"},"vehicle_type_id":"4","last_reported":1701090652,"current_range_meters":25200,"station_id":"ce4bhb12rcd13ifvqem0","pricing_plan_id":"free"},{"bike_id":"bc45b028-d36e-4ecc-8c14-da27b27bcbf1","system_id":"levelo_inurba_marseille","lat":43.30642,"lon":5.401031,"is_reserved":false,"is_disabled":false,"rental_uris":{"android":"levelo://app?vid=bc45b028-d36e-4ecc-8c14-da27b27bcbf1","ios":"levelo://app?vid=bc45b028-d36e-4ecc-8c14-da27b27bcbf1"},"vehicle_type_id":"4","last_reported":1701090652,"current_range_meters":9200,"station_id":"ce4bh112rcd13ifvqda0","pricing_plan_id":"free"},{"bike_id":"825ce97c-aeff-405c-9af3-6097aa3071d2","system_id":"levelo_inurba_marseille","lat":43.306412,"lon":5.401035,"is_reserved":false,"is_disabled":false,"rental_uris":{"android":"levelo://app?vid=825ce97c-aeff-405c-9af3-6097aa3071d2","ios":"levelo://app?vid=825ce97c-aeff-405c-9af3-6097aa3071d2"},"vehicle_type_id":"4","last_reported":1701090652,"current_range_meters":29600,"station_id":"ce4bh112rcd13ifvqda0","pricing_plan_id":"free"},{"bike_id":"1a69de09-17dc-403f-9163-5c7db12b717a","system_id":"levelo_inurba_marseille","lat":43.301117,"lon":5.398795,"is_reserved":false,"is_disabled":false,"rental_uris":{"android":"levelo://app?vid=1a69de09-17dc-403f-9163-5c7db12b717a","ios":"levelo://app?vid=1a69de09-17dc-403f-9163-5c7db12b717a"},"vehicle_type_id":"4","last_reported":1701090652,"current_range_meters":26400,"station_id":"ce4bh0h2rcd13ifvqd40","pricing_plan_id":"free"},{"bike_id":"fc8c1b41-2356-4c58-aaba-126c6fcefbfc","system_id":"levelo_inurba_marseille","lat":43.301117,"lon":5.398795,"is_reserved":false,"is_disabled":false,"rental_uris":{"android":"levelo://app?vid=fc8c1b41-2356-4c58-aaba-126c6fcefbfc","ios":"levelo://app?vid=fc8c1b41-2356-4c58-aaba-126c6fcefbfc"},"vehicle_type_id":"4","last_reported":1701090652,"current_range_meters":27200,"station_id":"ce4bh0h2rcd13ifvqd40","pricing_plan_id":"free"},{"bike_id":"326599e0-7755-4294-b232-18ba45d67bf2","system_id":"levelo_inurba_marseille","lat":43.286961,"lon":5.373785,"is_reserved":false,"is_disabled":false,"rental_uris":{"android":"levelo://app?vid=326599e0-7755-4294-b232-18ba45d67bf2","ios":"levelo://app?vid=326599e0-7755-4294-b232-18ba45d67bf2"},"vehicle_type_id":"4","last_reported":1701090652,"current_range_meters":0,"station_id":"ce4bh3p2rcd13ifvqdq0","pricing_plan_id":"free"},{"bike_id":"797cb3e7-e6f7-4dcf-90a7-f6e3ea2f34b0","system_id":"levelo_inurba_marseille","lat":43.286591,"lon":5.363346,"is_reserved":false,"is_disabled":false,"rental_uris":{"android":"levelo://app?vid=797cb3e7-e6f7-4dcf-90a7-f6e3ea2f34b0","ios":"levelo://app?vid=797cb3e7-e6f7-4dcf-90a7-f6e3ea2f34b0"},"vehicle_type_id":"4","last_reported":1701090652,"current_range_meters":17200,"station_id":"ce4bhah2rcd13ifvqej0","pricing_plan_id":"free"},{"bike_id":"6f783c40-92b4-4ca9-8819-1fd6d7d171f3","system_id":"levelo_inurba_marseille","lat":43.29028,"lon":5.38633,"is_reserved":false,"is_disabled":false,"rental_uris":{"android":"levelo://app?vid=6f783c40-92b4-4ca9-8819-1fd6d7d171f3","ios":"levelo://app?vid=6f783c40-92b4-4ca9-8819-1fd6d7d171f3"},"vehicle_type_id":"4","last_reported":1701090652,"current_range_meters":0,"station_id":"","pricing_plan_id":"free"},{"bike_id":"2e6c616e-1604-4712-92c3-d71f7707e46b","system_id":"levelo_inurba_marseille","lat":43.287184,"lon":5.37937,"is_reserved":false,"is_disabled":false,"rental_uris":{"android":"levelo://app?vid=2e6c616e-1604-4712-92c3-d71f7707e46b","ios":"levelo://app?vid=2e6c616e-1604-4712-92c3-d71f7707e46b"},"vehicle_type_id":"4","last_reported":1701090652,"current_range_meters":20800,"station_id":"ce4bh9p2rcd13ifvqec0","pricing_plan_id":"free"},{"bike_id":"53ca5435-caff-42c2-8b4a-c77f87404c8e","system_id":"levelo_inurba_marseille","lat":43.316517,"lon":5.404375,"is_reserved":false,"is_disabled":false,"rental_uris":{"android":"levelo://app?vid=53ca5435-caff-42c2-8b4a-c77f87404c8e","ios":"levelo://app?vid=53ca5435-caff-42c2-8b4a-c77f87404c8e"},"vehicle_type_id":"4","last_reported":1701090652,"current_range_meters":16800,"station_id":"ce4bh012rcd13ifvqd00","pricing_plan_id":"free"},{"bike_id":"c16bddb4-7bb4-447b-9241-49ab1df3568d","system_id":"levelo_inurba_marseille","lat":43.284534,"lon":5.358662,"is_reserved":false,"is_disabled":false,"rental_uris":{"android":"levelo://app?vid=c16bddb4-7bb4-447b-9241-49ab1df3568d","ios":"levelo://app?vid=c16bddb4-7bb4-447b-9241-49ab1df3568d"},"vehicle_type_id":"4","last_reported":1701090652,"current_range_meters":23600,"station_id":"ce4bhah2rcd13ifvqei0","pricing_plan_id":"free"},{"bike_id":"1f0fd874-d7a0-4f5e-afa5-07f156452b7e","system_id":"levelo_inurba_marseille","lat":43.29427,"lon":5.39759,"is_reserved":false,"is_disabled":false,"rental_uris":{"android":"levelo://app?vid=1f0fd874-d7a0-4f5e-afa5-07f156452b7e","ios":"levelo://app?vid=1f0fd874-d7a0-4f5e-afa5-07f156452b7e"},"vehicle_type_id":"4","last_reported":1701090652,"current_range_meters":20000,"station_id":"ce4bh3h2rcd13ifvqdo0","pricing_plan_id":"free"},{"bike_id":"1485afe0-6203-425e-9af3-433962dfffc6","system_id":"levelo_inurba_marseille","lat":43.283998,"lon":5.375062,"is_reserved":false,"is_disabled":false,"rental_uris":{"android":"levelo://app?vid=1485afe0-6203-425e-9af3-433962dfffc6","ios":"levelo://app?vid=1485afe0-6203-425e-9af3-433962dfffc6"},"vehicle_type_id":"4","last_reported":1701090652,"current_range_meters":21200,"station_id":"ce4bh412rcd13ifvqds0","pricing_plan_id":"free"},{"bike_id":"492d1805-f49e-41e9-9848-878b42b7970d","system_id":"levelo_inurba_marseille","lat":43.295713,"lon":5.399639,"is_reserved":false,"is_disabled":false,"rental_uris":{"android":"levelo://app?vid=492d1805-f49e-41e9-9848-878b42b7970d","ios":"levelo://app?vid=492d1805-f49e-41e9-9848-878b42b7970d"},"vehicle_type_id":"4","last_reported":1701090652,"current_range_meters":0,"station_id":"ce4bh312rcd13ifvqdj0","pricing_plan_id":"free"},{"bike_id":"ee5d2e38-9552-4896-a268-ca7b4685124f","system_id":"levelo_inurba_marseille","lat":43.295713,"lon":5.399639,"is_reserved":false,"is_disabled":false,"rental_uris":{"android":"levelo://app?vid=ee5d2e38-9552-4896-a268-ca7b4685124f","ios":"levelo://app?vid=ee5d2e38-9552-4896-a268-ca7b4685124f"},"vehicle_type_id":"4","last_reported":1701090652,"current_range_meters":14400,"station_id":"ce4bh312rcd13ifvqdj0","pricing_plan_id":"free"},{"bike_id":"2972e24b-3b25-4c20-b1ec-9bdeac802d22","system_id":"levelo_inurba_marseille","lat":43.286595,"lon":5.386795,"is_reserved":false,"is_disabled":false,"rental_uris":{"android":"levelo://app?vid=2972e24b-3b25-4c20-b1ec-9bdeac802d22","ios":"levelo://app?vid=2972e24b-3b25-4c20-b1ec-9bdeac802d22"},"vehicle_type_id":"4","last_reported":1701090652,"current_range_meters":20000,"station_id":"ce4bh492rcd13ifvqdug","pricing_plan_id":"free"},{"bike_id":"6875df2e-2b1c-472c-8cb4-fc7c385a681f","system_id":"levelo_inurba_marseille","lat":43.286595,"lon":5.386795,"is_reserved":false,"is_disabled":false,"rental_uris":{"android":"levelo://app?vid=6875df2e-2b1c-472c-8cb4-fc7c385a681f","ios":"levelo://app?vid=6875df2e-2b1c-472c-8cb4-fc7c385a681f"},"vehicle_type_id":"4","last_reported":1701090652,"current_range_meters":30400,"station_id":"ce4bh492rcd13ifvqdug","pricing_plan_id":"free"},{"bike_id":"d23130b8-77bc-4078-ae6e-2ea88aee4c78","system_id":"levelo_inurba_marseille","lat":43.2866,"lon":5.38668,"is_reserved":false,"is_disabled":false,"rental_uris":{"android":"levelo://app?vid=d23130b8-77bc-4078-ae6e-2ea88aee4c78","ios":"levelo://app?vid=d23130b8-77bc-4078-ae6e-2ea88aee4c78"},"vehicle_type_id":"4","last_reported":1701090652,"current_range_meters":6800,"station_id":"ce4bh492rcd13ifvqdug","pricing_plan_id":"free"},{"bike_id":"8c9e9cd8-5f57-4ab0-b667-722229239e81","system_id":"levelo_inurba_marseille","lat":43.319179,"lon":5.407725,"is_reserved":false,"is_disabled":false,"rental_uris":{"android":"levelo://app?vid=8c9e9cd8-5f57-4ab0-b667-722229239e81","ios":"levelo://app?vid=8c9e9cd8-5f57-4ab0-b667-722229239e81"},"vehicle_type_id":"4","last_reported":1701090652,"current_range_meters":27200,"station_id":"ce4bhq12rcd13ifvqhig","pricing_plan_id":"free"},{"bike_id":"37ec9518-8ad3-4273-a336-b15e1f976997","system_id":"levelo_inurba_marseille","lat":43.319179,"lon":5.407725,"is_reserved":false,"is_disabled":false,"rental_uris":{"android":"levelo://app?vid=37ec9518-8ad3-4273-a336-b15e1f976997","ios":"levelo://app?vid=37ec9518-8ad3-4273-a336-b15e1f976997"},"vehicle_type_id":"4","last_reported":1701090652,"current_range_meters":30000,"station_id":"ce4bhq12rcd13ifvqhig","pricing_plan_id":"free"},{"bike_id":"689409e5-b59b-4de1-9a57-a4665aa7280b","system_id":"levelo_inurba_marseille","lat":43.31893,"lon":5.407705,"is_reserved":false,"is_disabled":false,"rental_uris":{"android":"levelo://app?vid=689409e5-b59b-4de1-9a57-a4665aa7280b","ios":"levelo://app?vid=689409e5-b59b-4de1-9a57-a4665aa7280b"},"vehicle_type_id":"4","last_reported":1701090652,"current_range_meters":18800,"station_id":"ce4bhq12rcd13ifvqhig","pricing_plan_id":"free"},{"bike_id":"046b7a57-d5c8-4513-8038-799f881a3bbd","system_id":"levelo_inurba_marseille","lat":43.337168,"lon":5.391825,"is_reserved":false,"is_disabled":false,"rental_uris":{"android":"levelo://app?vid=046b7a57-d5c8-4513-8038-799f881a3bbd","ios":"levelo://app?vid=046b7a57-d5c8-4513-8038-799f881a3bbd"},"vehicle_type_id":"4","last_reported":1701090652,"current_range_meters":30000,"station_id":"ce4bhr92rcd13ifvqhsg","pricing_plan_id":"free"},{"bike_id":"82b3ca26-6ea3-4d54-942d-546d61f91ee9","system_id":"levelo_inurba_marseille","lat":43.283498,"lon":5.380948,"is_reserved":false,"is_disabled":false,"rental_uris":{"android":"levelo://app?vid=82b3ca26-6ea3-4d54-942d-546d61f91ee9","ios":"levelo://app?vid=82b3ca26-6ea3-4d54-942d-546d61f91ee9"},"vehicle_type_id":"4","last_reported":1701090652,"current_range_meters":800,"station_id":"ce4bh412rcd13ifvqdr0","pricing_plan_id":"free"},{"bike_id":"1641ac15-2a17-439d-9c40-391a89c0040d","system_id":"levelo_inurba_marseille","lat":43.289363,"lon":5.396322,"is_reserved":false,"is_disabled":false,"rental_uris":{"android":"levelo://app?vid=1641ac15-2a17-439d-9c40-391a89c0040d","ios":"levelo://app?vid=1641ac15-2a17-439d-9c40-391a89c0040d"},"vehicle_type_id":"4","last_reported":1701090652,"current_range_meters":24400,"station_id":"ce4bh3h2rcd13ifvqdn0","pricing_plan_id":"free"},{"bike_id":"e2284003-4e46-4e0a-93e7-73d05c3666d9","system_id":"levelo_inurba_marseille","lat":43.33508,"lon":5.397755,"is_reserved":false,"is_disabled":false,"rental_uris":{"android":"levelo://app?vid=e2284003-4e46-4e0a-93e7-73d05c3666d9","ios":"levelo://app?vid=e2284003-4e46-4e0a-93e7-73d05c3666d9"},"vehicle_type_id":"4","last_reported":1701090652,"current_range_meters":14800,"station_id":"","pricing_plan_id":"free"},{"bike_id":"bd482881-c3d9-4bc6-ad03-8c1b20fc21d2","system_id":"levelo_inurba_marseille","lat":43.2928,"lon":5.40115,"is_reserved":false,"is_disabled":false,"rental_uris":{"android":"levelo://app?vid=bd482881-c3d9-4bc6-ad03-8c1b20fc21d2","ios":"levelo://app?vid=bd482881-c3d9-4bc6-ad03-8c1b20fc21d2"},"vehicle_type_id":"4","last_reported":1701090652,"current_range_meters":16800,"station_id":"ce4bh312rcd13ifvqdk0","pricing_plan_id":"free"},{"bike_id":"4b706109-7ed1-42ba-ab35-b60c24e7594b","system_id":"levelo_inurba_marseille","lat":43.292724,"lon":5.401131,"is_reserved":false,"is_disabled":false,"rental_uris":{"android":"levelo://app?vid=4b706109-7ed1-42ba-ab35-b60c24e7594b","ios":"levelo://app?vid=4b706109-7ed1-42ba-ab35-b60c24e7594b"},"vehicle_type_id":"4","last_reported":1701090652,"current_range_meters":20800,"station_id":"ce4bh312rcd13ifvqdk0","pricing_plan_id":"free"},{"bike_id":"8cc059e0-0e69-4c79-ba67-0e136370b2d7","system_id":"levelo_inurba_marseille","lat":43.283502,"lon":5.386471,"is_reserved":false,"is_disabled":false,"rental_uris":{"android":"levelo://app?vid=8cc059e0-0e69-4c79-ba67-0e136370b2d7","ios":"levelo://app?vid=8cc059e0-0e69-4c79-ba67-0e136370b2d7"},"vehicle_type_id":"4","last_reported":1701090652,"current_range_meters":14400,"station_id":"ce4bh492rcd13ifvqdvg","pricing_plan_id":"free"},{"bike_id":"16a97055-dbd6-44c0-9a19-9feee5927bfe","system_id":"levelo_inurba_marseille","lat":43.282693,"lon":5.35065,"is_reserved":false,"is_disabled":false,"rental_uris":{"android":"levelo://app?vid=16a97055-dbd6-44c0-9a19-9feee5927bfe","ios":"levelo://app?vid=16a97055-dbd6-44c0-9a19-9feee5927bfe"},"vehicle_type_id":"4","last_reported":1701090652,"current_range_meters":19600,"station_id":"ce4bhbp2rcd13ifvqerg","pricing_plan_id":"free"},{"bike_id":"1dddd1de-c9d7-48be-bc4b-00a7e0f57fee","system_id":"levelo_inurba_marseille","lat":43.280382,"lon":5.369291,"is_reserved":false,"is_disabled":false,"rental_uris":{"android":"levelo://app?vid=1dddd1de-c9d7-48be-bc4b-00a7e0f57fee","ios":"levelo://app?vid=1dddd1de-c9d7-48be-bc4b-00a7e0f57fee"},"vehicle_type_id":"4","last_reported":1701090652,"current_range_meters":23200,"station_id":"ce4bha12rcd13ifvqef0","pricing_plan_id":"free"},{"bike_id":"22417af5-97bc-4e76-aef7-23fe0052561c","system_id":"levelo_inurba_marseille","lat":43.29047,"lon":5.39954,"is_reserved":false,"is_disabled":false,"rental_uris":{"android":"levelo://app?vid=22417af5-97bc-4e76-aef7-23fe0052561c","ios":"levelo://app?vid=22417af5-97bc-4e76-aef7-23fe0052561c"},"vehicle_type_id":"4","last_reported":1701090652,"current_range_meters":27600,"station_id":"ce4bh392rcd13ifvqdm0","pricing_plan_id":"free"},{"bike_id":"02395a80-79f1-44ed-9f8b-1a51446cec41","system_id":"levelo_inurba_marseille","lat":43.281044,"lon":5.378308,"is_reserved":false,"is_disabled":false,"rental_uris":{"android":"levelo://app?vid=02395a80-79f1-44ed-9f8b-1a51446cec41","ios":"levelo://app?vid=02395a80-79f1-44ed-9f8b-1a51446cec41"},"vehicle_type_id":"4","last_reported":1701090652,"current_range_meters":13200,"station_id":"ce4bha12rcd13ifvqee0","pricing_plan_id":"free"},{"bike_id":"2d5dda96-84ac-4aa1-8e06-25a50f56b582","system_id":"levelo_inurba_marseille","lat":43.2904,"lon":5.39989,"is_reserved":false,"is_disabled":false,"rental_uris":{"android":"levelo://app?vid=2d5dda96-84ac-4aa1-8e06-25a50f56b582","ios":"levelo://app?vid=2d5dda96-84ac-4aa1-8e06-25a50f56b582"},"vehicle_type_id":"4","last_reported":1701090652,"current_range_meters":1200,"station_id":"ce4bh392rcd13ifvqdm0","pricing_plan_id":"free"},{"bike_id":"cf05cea2-68d9-4fa9-975d-58de0f0cdebc","system_id":"levelo_inurba_marseille","lat":43.281044,"lon":5.378308,"is_reserved":false,"is_disabled":false,"rental_uris":{"android":"levelo://app?vid=cf05cea2-68d9-4fa9-975d-58de0f0cdebc","ios":"levelo://app?vid=cf05cea2-68d9-4fa9-975d-58de0f0cdebc"},"vehicle_type_id":"4","last_reported":1701090652,"current_range_meters":24800,"station_id":"ce4bha12rcd13ifvqee0","pricing_plan_id":"free"},{"bike_id":"07b75f45-da51-41ce-a302-aa3efbe045f9","system_id":"levelo_inurba_marseille","lat":43.296263,"lon":5.40601,"is_reserved":false,"is_disabled":false,"rental_uris":{"android":"levelo://app?vid=07b75f45-da51-41ce-a302-aa3efbe045f9","ios":"levelo://app?vid=07b75f45-da51-41ce-a302-aa3efbe045f9"},"vehicle_type_id":"4","last_reported":1701090652,"current_range_meters":27200,"station_id":"ce4bh0h2rcd13ifvqd60","pricing_plan_id":"free"},{"bike_id":"bd82c366-1ee6-45fd-b7ec-43158d42e9b2","system_id":"levelo_inurba_marseille","lat":43.296263,"lon":5.40601,"is_reserved":false,"is_disabled":false,"rental_uris":{"android":"levelo://app?vid=bd82c366-1ee6-45fd-b7ec-43158d42e9b2","ios":"levelo://app?vid=bd82c366-1ee6-45fd-b7ec-43158d42e9b2"},"vehicle_type_id":"4","last_reported":1701090652,"current_range_meters":24800,"station_id":"ce4bh0h2rcd13ifvqd60","pricing_plan_id":"free"},{"bike_id":"2375c30f-311e-417a-961e-4fd1a573283c","system_id":"levelo_inurba_marseille","lat":43.284462,"lon":5.392121,"is_reserved":false,"is_disabled":false,"rental_uris":{"android":"levelo://app?vid=2375c30f-311e-417a-961e-4fd1a573283c","ios":"levelo://app?vid=2375c30f-311e-417a-961e-4fd1a573283c"},"vehicle_type_id":"4","last_reported":1701090652,"current_range_meters":21600,"station_id":"ce4bhoh2rcd13ifvqh5g","pricing_plan_id":"free"},{"bike_id":"6528f8a5-8c28-48e7-a670-5bc52203f2a9","system_id":"levelo_inurba_marseille","lat":43.3266,"lon":5.4099,"is_reserved":false,"is_disabled":false,"rental_uris":{"android":"levelo://app?vid=6528f8a5-8c28-48e7-a670-5bc52203f2a9","ios":"levelo://app?vid=6528f8a5-8c28-48e7-a670-5bc52203f2a9"},"vehicle_type_id":"4","last_reported":1701090652,"current_range_meters":28000,"station_id":"ce4bhpp2rcd13ifvqhgg","pricing_plan_id":"free"},{"bike_id":"36205a5a-a9f1-4185-8076-a344f6f4575b","system_id":"levelo_inurba_marseille","lat":43.287154,"lon":5.399979,"is_reserved":false,"is_disabled":false,"rental_uris":{"android":"levelo://app?vid=36205a5a-a9f1-4185-8076-a344f6f4575b","ios":"levelo://app?vid=36205a5a-a9f1-4185-8076-a344f6f4575b"},"vehicle_type_id":"4","last_reported":1701090652,"current_range_meters":26800,"station_id":"ce4bho92rcd13ifvqh3g","pricing_plan_id":"free"},{"bike_id":"c103b530-9c6d-4ac7-adf6-4ae019cb5aa9","system_id":"levelo_inurba_marseille","lat":43.299579,"lon":5.413255,"is_reserved":false,"is_disabled":false,"rental_uris":{"android":"levelo://app?vid=c103b530-9c6d-4ac7-adf6-4ae019cb5aa9","ios":"levelo://app?vid=c103b530-9c6d-4ac7-adf6-4ae019cb5aa9"},"vehicle_type_id":"4","last_reported":1701090652,"current_range_meters":30000,"station_id":"ce4bhp12rcd13ifvqh9g","pricing_plan_id":"free"},{"bike_id":"aa110e0f-0f25-4aca-b102-bb037d138492","system_id":"levelo_inurba_marseille","lat":43.320045,"lon":5.415048,"is_reserved":false,"is_disabled":false,"rental_uris":{"android":"levelo://app?vid=aa110e0f-0f25-4aca-b102-bb037d138492","ios":"levelo://app?vid=aa110e0f-0f25-4aca-b102-bb037d138492"},"vehicle_type_id":"4","last_reported":1701090652,"current_range_meters":31600,"station_id":"ce4bhq92rcd13ifvqhkg","pricing_plan_id":"free"},{"bike_id":"c94b5170-10b1-40ed-8a33-63b9bf245846","system_id":"levelo_inurba_marseille","lat":43.299579,"lon":5.413255,"is_reserved":false,"is_disabled":false,"rental_uris":{"android":"levelo://app?vid=c94b5170-10b1-40ed-8a33-63b9bf245846","ios":"levelo://app?vid=c94b5170-10b1-40ed-8a33-63b9bf245846"},"vehicle_type_id":"4","last_reported":1701090652,"current_range_meters":28000,"station_id":"ce4bhp12rcd13ifvqh9g","pricing_plan_id":"free"},{"bike_id":"6883c758-4e0f-40ca-ab9c-8f9a17b87b33","system_id":"levelo_inurba_marseille","lat":43.320045,"lon":5.415048,"is_reserved":false,"is_disabled":false,"rental_uris":{"android":"levelo://app?vid=6883c758-4e0f-40ca-ab9c-8f9a17b87b33","ios":"levelo://app?vid=6883c758-4e0f-40ca-ab9c-8f9a17b87b33"},"vehicle_type_id":"4","last_reported":1701090652,"current_range_meters":2400,"station_id":"ce4bhq92rcd13ifvqhkg","pricing_plan_id":"free"},{"bike_id":"657806be-7db9-41e1-822d-a06444caeee2","system_id":"levelo_inurba_marseille","lat":43.320045,"lon":5.415048,"is_reserved":false,"is_disabled":false,"rental_uris":{"android":"levelo://app?vid=657806be-7db9-41e1-822d-a06444caeee2","ios":"levelo://app?vid=657806be-7db9-41e1-822d-a06444caeee2"},"vehicle_type_id":"4","last_reported":1701090652,"current_range_meters":20400,"station_id":"ce4bhq92rcd13ifvqhkg","pricing_plan_id":"free"},{"bike_id":"6526cad1-2f4b-4db1-8d6b-ce04bc407b31","system_id":"levelo_inurba_marseille","lat":43.34883,"lon":5.37501,"is_reserved":false,"is_disabled":false,"rental_uris":{"android":"levelo://app?vid=6526cad1-2f4b-4db1-8d6b-ce04bc407b31","ios":"levelo://app?vid=6526cad1-2f4b-4db1-8d6b-ce04bc407b31"},"vehicle_type_id":"4","last_reported":1701090652,"current_range_meters":0,"station_id":"","pricing_plan_id":"free"},{"bike_id":"09eae8cb-51e8-4677-9c28-bfff4dce6bf5","system_id":"levelo_inurba_marseille","lat":43.27919,"lon":5.38771,"is_reserved":false,"is_disabled":false,"rental_uris":{"android":"levelo://app?vid=09eae8cb-51e8-4677-9c28-bfff4dce6bf5","ios":"levelo://app?vid=09eae8cb-51e8-4677-9c28-bfff4dce6bf5"},"vehicle_type_id":"4","last_reported":1701090652,"current_range_meters":28800,"station_id":"","pricing_plan_id":"free"},{"bike_id":"8ea7012e-3132-4769-b4ce-fdfe8cd10282","system_id":"levelo_inurba_marseille","lat":43.27842,"lon":5.388117,"is_reserved":false,"is_disabled":false,"rental_uris":{"android":"levelo://app?vid=8ea7012e-3132-4769-b4ce-fdfe8cd10282","ios":"levelo://app?vid=8ea7012e-3132-4769-b4ce-fdfe8cd10282"},"vehicle_type_id":"4","last_reported":1701090652,"current_range_meters":4800,"station_id":"","pricing_plan_id":"free"},{"bike_id":"be9690c5-c7a1-4c76-a31f-e0ecc29f7955","system_id":"levelo_inurba_marseille","lat":43.280814,"lon":5.39662,"is_reserved":false,"is_disabled":false,"rental_uris":{"android":"levelo://app?vid=be9690c5-c7a1-4c76-a31f-e0ecc29f7955","ios":"levelo://app?vid=be9690c5-c7a1-4c76-a31f-e0ecc29f7955"},"vehicle_type_id":"4","last_reported":1701090652,"current_range_meters":14000,"station_id":"ce4bho12rcd13ifvqh2g","pricing_plan_id":"free"},{"bike_id":"e5ea0a81-d171-4933-bfe2-19c5f937df7c","system_id":"levelo_inurba_marseille","lat":43.280784,"lon":5.396622,"is_reserved":false,"is_disabled":false,"rental_uris":{"android":"levelo://app?vid=e5ea0a81-d171-4933-bfe2-19c5f937df7c","ios":"levelo://app?vid=e5ea0a81-d171-4933-bfe2-19c5f937df7c"},"vehicle_type_id":"4","last_reported":1701090652,"current_range_meters":11600,"station_id":"ce4bho12rcd13ifvqh2g","pricing_plan_id":"free"},{"bike_id":"e4c9ccea-0b5b-4aae-aebe-e1fbb120f3ee","system_id":"levelo_inurba_marseille","lat":43.303837,"lon":5.418724,"is_reserved":false,"is_disabled":false,"rental_uris":{"android":"levelo://app?vid=e4c9ccea-0b5b-4aae-aebe-e1fbb120f3ee","ios":"levelo://app?vid=e4c9ccea-0b5b-4aae-aebe-e1fbb120f3ee"},"vehicle_type_id":"4","last_reported":1701090652,"current_range_meters":12800,"station_id":"ce4bhop2rcd13ifvqh7g","pricing_plan_id":"free"},{"bike_id":"13efb159-cc65-4ba4-bf13-f46b2bd1323d","system_id":"levelo_inurba_marseille","lat":43.303837,"lon":5.418724,"is_reserved":false,"is_disabled":false,"rental_uris":{"android":"levelo://app?vid=13efb159-cc65-4ba4-bf13-f46b2bd1323d","ios":"levelo://app?vid=13efb159-cc65-4ba4-bf13-f46b2bd1323d"},"vehicle_type_id":"4","last_reported":1701090652,"current_range_meters":26800,"station_id":"ce4bhop2rcd13ifvqh7g","pricing_plan_id":"free"},{"bike_id":"85eff180-cde0-46d9-aa91-00dc20315ecf","system_id":"levelo_inurba_marseille","lat":43.275625,"lon":5.384392,"is_reserved":false,"is_disabled":false,"rental_uris":{"android":"levelo://app?vid=85eff180-cde0-46d9-aa91-00dc20315ecf","ios":"levelo://app?vid=85eff180-cde0-46d9-aa91-00dc20315ecf"},"vehicle_type_id":"4","last_reported":1701090652,"current_range_meters":23200,"station_id":"ce4bhh92rcd13ifvqfi0","pricing_plan_id":"free"},{"bike_id":"d8b231e9-1845-4d36-9659-91d64f7b267a","system_id":"levelo_inurba_marseille","lat":43.27377,"lon":5.36249,"is_reserved":false,"is_disabled":false,"rental_uris":{"android":"levelo://app?vid=d8b231e9-1845-4d36-9659-91d64f7b267a","ios":"levelo://app?vid=d8b231e9-1845-4d36-9659-91d64f7b267a"},"vehicle_type_id":"4","last_reported":1701090652,"current_range_meters":28800,"station_id":"ce4bhbh2rcd13ifvqeo0","pricing_plan_id":"free"},{"bike_id":"529e1873-c67a-49df-a3f5-37d727adbcee","system_id":"levelo_inurba_marseille","lat":43.273613,"lon":5.362705,"is_reserved":false,"is_disabled":false,"rental_uris":{"android":"levelo://app?vid=529e1873-c67a-49df-a3f5-37d727adbcee","ios":"levelo://app?vid=529e1873-c67a-49df-a3f5-37d727adbcee"},"vehicle_type_id":"4","last_reported":1701090652,"current_range_meters":26400,"station_id":"ce4bhbh2rcd13ifvqeo0","pricing_plan_id":"free"},{"bike_id":"3d955af7-b7d1-4f39-8a2f-4096fce89c61","system_id":"levelo_inurba_marseille","lat":43.273609,"lon":5.362708,"is_reserved":false,"is_disabled":false,"rental_uris":{"android":"levelo://app?vid=3d955af7-b7d1-4f39-8a2f-4096fce89c61","ios":"levelo://app?vid=3d955af7-b7d1-4f39-8a2f-4096fce89c61"},"vehicle_type_id":"4","last_reported":1701090652,"current_range_meters":25600,"station_id":"ce4bhbh2rcd13ifvqeo0","pricing_plan_id":"free"},{"bike_id":"43a0b753-fb47-4881-91d9-d29a0815f06e","system_id":"levelo_inurba_marseille","lat":43.273609,"lon":5.362708,"is_reserved":false,"is_disabled":false,"rental_uris":{"android":"levelo://app?vid=43a0b753-fb47-4881-91d9-d29a0815f06e","ios":"levelo://app?vid=43a0b753-fb47-4881-91d9-d29a0815f06e"},"vehicle_type_id":"4","last_reported":1701090652,"current_range_meters":31200,"station_id":"ce4bhbh2rcd13ifvqeo0","pricing_plan_id":"free"},{"bike_id":"98bbc8a6-ad3d-4361-a839-20acc9629a0f","system_id":"levelo_inurba_marseille","lat":43.336134,"lon":5.410341,"is_reserved":false,"is_disabled":false,"rental_uris":{"android":"levelo://app?vid=98bbc8a6-ad3d-4361-a839-20acc9629a0f","ios":"levelo://app?vid=98bbc8a6-ad3d-4361-a839-20acc9629a0f"},"vehicle_type_id":"4","last_reported":1701090652,"current_range_meters":23600,"station_id":"ce4bhqh2rcd13ifvqhmg","pricing_plan_id":"free"},{"bike_id":"22fd4468-6dd3-4c60-9073-a1ad66d34f91","system_id":"levelo_inurba_marseille","lat":43.317121,"lon":5.423936,"is_reserved":false,"is_disabled":false,"rental_uris":{"android":"levelo://app?vid=22fd4468-6dd3-4c60-9073-a1ad66d34f91","ios":"levelo://app?vid=22fd4468-6dd3-4c60-9073-a1ad66d34f91"},"vehicle_type_id":"4","last_reported":1701090652,"current_range_meters":14800,"station_id":"ce4bhp92rcd13ifvqhbg","pricing_plan_id":"free"},{"bike_id":"7328163c-88d4-4a83-b0f2-5441f4e02a38","system_id":"levelo_inurba_marseille","lat":43.279952,"lon":5.400085,"is_reserved":false,"is_disabled":false,"rental_uris":{"android":"levelo://app?vid=7328163c-88d4-4a83-b0f2-5441f4e02a38","ios":"levelo://app?vid=7328163c-88d4-4a83-b0f2-5441f4e02a38"},"vehicle_type_id":"4","last_reported":1701090652,"current_range_meters":28800,"station_id":"ce4bho92rcd13ifvqh4g","pricing_plan_id":"free"},{"bike_id":"b1bad00d-4ba7-4218-829f-4bd2c4df8453","system_id":"levelo_inurba_marseille","lat":43.310785,"lon":5.424305,"is_reserved":false,"is_disabled":false,"rental_uris":{"android":"levelo://app?vid=b1bad00d-4ba7-4218-829f-4bd2c4df8453","ios":"levelo://app?vid=b1bad00d-4ba7-4218-829f-4bd2c4df8453"},"vehicle_type_id":"4","last_reported":1701090652,"current_range_meters":28400,"station_id":"ce4bhp92rcd13ifvqhag","pricing_plan_id":"free"},{"bike_id":"ecd9b44b-6159-47b0-b6a7-0204f7aabbf8","system_id":"levelo_inurba_marseille","lat":43.340804,"lon":5.410219,"is_reserved":false,"is_disabled":false,"rental_uris":{"android":"levelo://app?vid=ecd9b44b-6159-47b0-b6a7-0204f7aabbf8","ios":"levelo://app?vid=ecd9b44b-6159-47b0-b6a7-0204f7aabbf8"},"vehicle_type_id":"4","last_reported":1701090652,"current_range_meters":19200,"station_id":"ce4bhqh2rcd13ifvqhlg","pricing_plan_id":"free"},{"bike_id":"589b66d9-7fda-4d16-8728-be83e97c2328","system_id":"levelo_inurba_marseille","lat":43.340804,"lon":5.410219,"is_reserved":false,"is_disabled":false,"rental_uris":{"android":"levelo://app?vid=589b66d9-7fda-4d16-8728-be83e97c2328","ios":"levelo://app?vid=589b66d9-7fda-4d16-8728-be83e97c2328"},"vehicle_type_id":"4","last_reported":1701090652,"current_range_meters":23600,"station_id":"ce4bhqh2rcd13ifvqhlg","pricing_plan_id":"free"},{"bike_id":"82b5bb96-6569-4927-a4d2-f1faee99f1b8","system_id":"levelo_inurba_marseille","lat":43.340804,"lon":5.410219,"is_reserved":false,"is_disabled":false,"rental_uris":{"android":"levelo://app?vid=82b5bb96-6569-4927-a4d2-f1faee99f1b8","ios":"levelo://app?vid=82b5bb96-6569-4927-a4d2-f1faee99f1b8"},"vehicle_type_id":"4","last_reported":1701090652,"current_range_meters":28000,"station_id":"ce4bhqh2rcd13ifvqhlg","pricing_plan_id":"free"},{"bike_id":"ac9698ef-92bb-4a75-920e-2cf16fe6c883","system_id":"levelo_inurba_marseille","lat":43.340804,"lon":5.410219,"is_reserved":false,"is_disabled":false,"rental_uris":{"android":"levelo://app?vid=ac9698ef-92bb-4a75-920e-2cf16fe6c883","ios":"levelo://app?vid=ac9698ef-92bb-4a75-920e-2cf16fe6c883"},"vehicle_type_id":"4","last_reported":1701090652,"current_range_meters":25200,"station_id":"ce4bhqh2rcd13ifvqhlg","pricing_plan_id":"free"},{"bike_id":"373c1c9a-df30-4f3c-9e30-8990214f11fa","system_id":"levelo_inurba_marseille","lat":43.310785,"lon":5.424305,"is_reserved":false,"is_disabled":false,"rental_uris":{"android":"levelo://app?vid=373c1c9a-df30-4f3c-9e30-8990214f11fa","ios":"levelo://app?vid=373c1c9a-df30-4f3c-9e30-8990214f11fa"},"vehicle_type_id":"4","last_reported":1701090652,"current_range_meters":28800,"station_id":"ce4bhp92rcd13ifvqhag","pricing_plan_id":"free"},{"bike_id":"487e8935-2222-4e65-8507-6d483307a42a","system_id":"levelo_inurba_marseille","lat":43.295511,"lon":5.422926,"is_reserved":false,"is_disabled":false,"rental_uris":{"android":"levelo://app?vid=487e8935-2222-4e65-8507-6d483307a42a","ios":"levelo://app?vid=487e8935-2222-4e65-8507-6d483307a42a"},"vehicle_type_id":"4","last_reported":1701090652,"current_range_meters":31600,"station_id":"ce4bhph2rcd13ifvqhdg","pricing_plan_id":"free"},{"bike_id":"08fe44e4-201e-4497-b2af-1597ca570ac3","system_id":"levelo_inurba_marseille","lat":43.295511,"lon":5.422926,"is_reserved":false,"is_disabled":false,"rental_uris":{"android":"levelo://app?vid=08fe44e4-201e-4497-b2af-1597ca570ac3","ios":"levelo://app?vid=08fe44e4-201e-4497-b2af-1597ca570ac3"},"vehicle_type_id":"4","last_reported":1701090652,"current_range_meters":23600,"station_id":"ce4bhph2rcd13ifvqhdg","pricing_plan_id":"free"},{"bike_id":"46787825-cd50-42ab-99c3-6c3a26ac265a","system_id":"levelo_inurba_marseille","lat":43.29549,"lon":5.4228,"is_reserved":false,"is_disabled":false,"rental_uris":{"android":"levelo://app?vid=46787825-cd50-42ab-99c3-6c3a26ac265a","ios":"levelo://app?vid=46787825-cd50-42ab-99c3-6c3a26ac265a"},"vehicle_type_id":"4","last_reported":1701090652,"current_range_meters":27200,"station_id":"ce4bhph2rcd13ifvqhdg","pricing_plan_id":"free"},{"bike_id":"ef9d4fc2-15fc-4d36-bbad-730b3d424927","system_id":"levelo_inurba_marseille","lat":43.29549,"lon":5.4228,"is_reserved":false,"is_disabled":false,"rental_uris":{"android":"levelo://app?vid=ef9d4fc2-15fc-4d36-bbad-730b3d424927","ios":"levelo://app?vid=ef9d4fc2-15fc-4d36-bbad-730b3d424927"},"vehicle_type_id":"4","last_reported":1701090652,"current_range_meters":16400,"station_id":"ce4bhph2rcd13ifvqhdg","pricing_plan_id":"free"},{"bike_id":"38605ce9-a0d7-4561-a428-2969313090c5","system_id":"levelo_inurba_marseille","lat":43.29555,"lon":5.42285,"is_reserved":false,"is_disabled":false,"rental_uris":{"android":"levelo://app?vid=38605ce9-a0d7-4561-a428-2969313090c5","ios":"levelo://app?vid=38605ce9-a0d7-4561-a428-2969313090c5"},"vehicle_type_id":"4","last_reported":1701090652,"current_range_meters":30800,"station_id":"ce4bhph2rcd13ifvqhdg","pricing_plan_id":"free"},{"bike_id":"2afe8278-72ae-4433-86e3-46ef15a65e53","system_id":"levelo_inurba_marseille","lat":43.295528,"lon":5.42286,"is_reserved":false,"is_disabled":false,"rental_uris":{"android":"levelo://app?vid=2afe8278-72ae-4433-86e3-46ef15a65e53","ios":"levelo://app?vid=2afe8278-72ae-4433-86e3-46ef15a65e53"},"vehicle_type_id":"4","last_reported":1701090652,"current_range_meters":29200,"station_id":"ce4bhph2rcd13ifvqhdg","pricing_plan_id":"free"},{"bike_id":"fe1a0da7-ac78-4623-9b9d-9ec231e567e0","system_id":"levelo_inurba_marseille","lat":43.295485,"lon":5.42286,"is_reserved":false,"is_disabled":false,"rental_uris":{"android":"levelo://app?vid=fe1a0da7-ac78-4623-9b9d-9ec231e567e0","ios":"levelo://app?vid=fe1a0da7-ac78-4623-9b9d-9ec231e567e0"},"vehicle_type_id":"4","last_reported":1701090652,"current_range_meters":25600,"station_id":"ce4bhph2rcd13ifvqhdg","pricing_plan_id":"free"},{"bike_id":"21139d74-1775-45b8-873a-dcd423877488","system_id":"levelo_inurba_marseille","lat":43.295523,"lon":5.422926,"is_reserved":false,"is_disabled":false,"rental_uris":{"android":"levelo://app?vid=21139d74-1775-45b8-873a-dcd423877488","ios":"levelo://app?vid=21139d74-1775-45b8-873a-dcd423877488"},"vehicle_type_id":"4","last_reported":1701090652,"current_range_meters":26000,"station_id":"ce4bhph2rcd13ifvqhdg","pricing_plan_id":"free"},{"bike_id":"b1b78d16-7343-4dce-aa27-1d5ee41950af","system_id":"levelo_inurba_marseille","lat":43.29544,"lon":5.42287,"is_reserved":false,"is_disabled":false,"rental_uris":{"android":"levelo://app?vid=b1b78d16-7343-4dce-aa27-1d5ee41950af","ios":"levelo://app?vid=b1b78d16-7343-4dce-aa27-1d5ee41950af"},"vehicle_type_id":"4","last_reported":1701090652,"current_range_meters":24000,"station_id":"ce4bhph2rcd13ifvqhdg","pricing_plan_id":"free"},{"bike_id":"7811398a-26ea-4c32-808e-28a690bbcd50","system_id":"levelo_inurba_marseille","lat":43.272116,"lon":5.391763,"is_reserved":false,"is_disabled":false,"rental_uris":{"android":"levelo://app?vid=7811398a-26ea-4c32-808e-28a690bbcd50","ios":"levelo://app?vid=7811398a-26ea-4c32-808e-28a690bbcd50"},"vehicle_type_id":"4","last_reported":1701090652,"current_range_meters":0,"station_id":"ce4bhhp2rcd13ifvqfm0","pricing_plan_id":"free"},{"bike_id":"8ba9d0cd-ffc2-424b-93dd-24dcdb39c5a9","system_id":"levelo_inurba_marseille","lat":43.272124,"lon":5.391768,"is_reserved":false,"is_disabled":false,"rental_uris":{"android":"levelo://app?vid=8ba9d0cd-ffc2-424b-93dd-24dcdb39c5a9","ios":"levelo://app?vid=8ba9d0cd-ffc2-424b-93dd-24dcdb39c5a9"},"vehicle_type_id":"4","last_reported":1701090652,"current_range_meters":800,"station_id":"ce4bhhp2rcd13ifvqfm0","pricing_plan_id":"free"},{"bike_id":"9efe761d-4b17-4e3f-a49f-4e76c8ea96ba","system_id":"levelo_inurba_marseille","lat":43.27216,"lon":5.39248,"is_reserved":false,"is_disabled":false,"rental_uris":{"android":"levelo://app?vid=9efe761d-4b17-4e3f-a49f-4e76c8ea96ba","ios":"levelo://app?vid=9efe761d-4b17-4e3f-a49f-4e76c8ea96ba"},"vehicle_type_id":"4","last_reported":1701090652,"current_range_meters":21600,"station_id":"","pricing_plan_id":"free"},{"bike_id":"34675aa9-5c81-4774-b6f5-e2c4e3c56554","system_id":"levelo_inurba_marseille","lat":43.278128,"lon":5.407195,"is_reserved":false,"is_disabled":false,"rental_uris":{"android":"levelo://app?vid=34675aa9-5c81-4774-b6f5-e2c4e3c56554","ios":"levelo://app?vid=34675aa9-5c81-4774-b6f5-e2c4e3c56554"},"vehicle_type_id":"4","last_reported":1701090652,"current_range_meters":17600,"station_id":"ce4bhnh2rcd13ifvqgtg","pricing_plan_id":"free"},{"bike_id":"fbb89f4b-5b79-42b7-9c7a-d68aab687076","system_id":"levelo_inurba_marseille","lat":43.269467,"lon":5.386439,"is_reserved":false,"is_disabled":false,"rental_uris":{"android":"levelo://app?vid=fbb89f4b-5b79-42b7-9c7a-d68aab687076","ios":"levelo://app?vid=fbb89f4b-5b79-42b7-9c7a-d68aab687076"},"vehicle_type_id":"4","last_reported":1701090652,"current_range_meters":30400,"station_id":"ce4bhh92rcd13ifvqfh0","pricing_plan_id":"free"},{"bike_id":"11c530ef-3a1e-4341-9786-f43509d01bc1","system_id":"levelo_inurba_marseille","lat":43.29794,"lon":5.42658,"is_reserved":false,"is_disabled":false,"rental_uris":{"android":"levelo://app?vid=11c530ef-3a1e-4341-9786-f43509d01bc1","ios":"levelo://app?vid=11c530ef-3a1e-4341-9786-f43509d01bc1"},"vehicle_type_id":"4","last_reported":1701090652,"current_range_meters":0,"station_id":"","pricing_plan_id":"free"},{"bike_id":"3ec9377b-2879-4cd2-bd53-cedfbd5c78fd","system_id":"levelo_inurba_marseille","lat":43.269319,"lon":5.389397,"is_reserved":false,"is_disabled":false,"rental_uris":{"android":"levelo://app?vid=3ec9377b-2879-4cd2-bd53-cedfbd5c78fd","ios":"levelo://app?vid=3ec9377b-2879-4cd2-bd53-cedfbd5c78fd"},"vehicle_type_id":"4","last_reported":1701090652,"current_range_meters":30000,"station_id":"ce4bhhh2rcd13ifvqfl0","pricing_plan_id":"free"},{"bike_id":"85e14555-81ae-4c2b-bb64-c7d65db3d5a9","system_id":"levelo_inurba_marseille","lat":43.26681,"lon":5.382694,"is_reserved":false,"is_disabled":false,"rental_uris":{"android":"levelo://app?vid=85e14555-81ae-4c2b-bb64-c7d65db3d5a9","ios":"levelo://app?vid=85e14555-81ae-4c2b-bb64-c7d65db3d5a9"},"vehicle_type_id":"4","last_reported":1701090652,"current_range_meters":30000,"station_id":"ce4bhg92rcd13ifvqf90","pricing_plan_id":"free"},{"bike_id":"3f118269-40dc-4f43-80d2-9f0573bdf414","system_id":"levelo_inurba_marseille","lat":43.26681,"lon":5.382694,"is_reserved":false,"is_disabled":false,"rental_uris":{"android":"levelo://app?vid=3f118269-40dc-4f43-80d2-9f0573bdf414","ios":"levelo://app?vid=3f118269-40dc-4f43-80d2-9f0573bdf414"},"vehicle_type_id":"4","last_reported":1701090652,"current_range_meters":25600,"station_id":"ce4bhg92rcd13ifvqf90","pricing_plan_id":"free"},{"bike_id":"045c779a-0de3-4f1a-9ff9-44572f00cc3e","system_id":"levelo_inurba_marseille","lat":43.26681,"lon":5.382694,"is_reserved":false,"is_disabled":false,"rental_uris":{"android":"levelo://app?vid=045c779a-0de3-4f1a-9ff9-44572f00cc3e","ios":"levelo://app?vid=045c779a-0de3-4f1a-9ff9-44572f00cc3e"},"vehicle_type_id":"4","last_reported":1701090652,"current_range_meters":31600,"station_id":"ce4bhg92rcd13ifvqf90","pricing_plan_id":"free"},{"bike_id":"26bcb564-8383-4423-924e-33e003330ec4","system_id":"levelo_inurba_marseille","lat":43.26681,"lon":5.382694,"is_reserved":false,"is_disabled":false,"rental_uris":{"android":"levelo://app?vid=26bcb564-8383-4423-924e-33e003330ec4","ios":"levelo://app?vid=26bcb564-8383-4423-924e-33e003330ec4"},"vehicle_type_id":"4","last_reported":1701090652,"current_range_meters":26400,"station_id":"ce4bhg92rcd13ifvqf90","pricing_plan_id":"free"},{"bike_id":"e4b68f4a-2ca1-49c2-936e-c6a93135be9a","system_id":"levelo_inurba_marseille","lat":43.26681,"lon":5.382694,"is_reserved":false,"is_disabled":false,"rental_uris":{"android":"levelo://app?vid=e4b68f4a-2ca1-49c2-936e-c6a93135be9a","ios":"levelo://app?vid=e4b68f4a-2ca1-49c2-936e-c6a93135be9a"},"vehicle_type_id":"4","last_reported":1701090652,"current_range_meters":31600,"station_id":"ce4bhg92rcd13ifvqf90","pricing_plan_id":"free"},{"bike_id":"037156c7-a88c-4596-a3d5-0d4f249b58d0","system_id":"levelo_inurba_marseille","lat":43.26553,"lon":5.37284,"is_reserved":false,"is_disabled":false,"rental_uris":{"android":"levelo://app?vid=037156c7-a88c-4596-a3d5-0d4f249b58d0","ios":"levelo://app?vid=037156c7-a88c-4596-a3d5-0d4f249b58d0"},"vehicle_type_id":"4","last_reported":1701090652,"current_range_meters":22800,"station_id":"ce4bhg12rcd13ifvqf70","pricing_plan_id":"free"},{"bike_id":"f23d8119-b478-4639-98c5-6883279f9f84","system_id":"levelo_inurba_marseille","lat":43.32592,"lon":5.43067,"is_reserved":false,"is_disabled":false,"rental_uris":{"android":"levelo://app?vid=f23d8119-b478-4639-98c5-6883279f9f84","ios":"levelo://app?vid=f23d8119-b478-4639-98c5-6883279f9f84"},"vehicle_type_id":"4","last_reported":1701090652,"current_range_meters":19200,"station_id":"","pricing_plan_id":"free"},{"bike_id":"ed30d6a1-b23a-49e5-9c83-5546be72a734","system_id":"levelo_inurba_marseille","lat":43.3259,"lon":5.43075,"is_reserved":false,"is_disabled":false,"rental_uris":{"android":"levelo://app?vid=ed30d6a1-b23a-49e5-9c83-5546be72a734","ios":"levelo://app?vid=ed30d6a1-b23a-49e5-9c83-5546be72a734"},"vehicle_type_id":"4","last_reported":1701090652,"current_range_meters":14000,"station_id":"","pricing_plan_id":"free"},{"bike_id":"d67469ee-5362-4610-a163-fe05ae3cf4f7","system_id":"levelo_inurba_marseille","lat":43.32604,"lon":5.430817,"is_reserved":false,"is_disabled":false,"rental_uris":{"android":"levelo://app?vid=d67469ee-5362-4610-a163-fe05ae3cf4f7","ios":"levelo://app?vid=d67469ee-5362-4610-a163-fe05ae3cf4f7"},"vehicle_type_id":"4","last_reported":1701090652,"current_range_meters":2400,"station_id":"","pricing_plan_id":"free"},{"bike_id":"5986dab0-7b77-4674-8135-17288066df9b","system_id":"levelo_inurba_marseille","lat":43.2753,"lon":5.40954,"is_reserved":false,"is_disabled":false,"rental_uris":{"android":"levelo://app?vid=5986dab0-7b77-4674-8135-17288066df9b","ios":"levelo://app?vid=5986dab0-7b77-4674-8135-17288066df9b"},"vehicle_type_id":"4","last_reported":1701090652,"current_range_meters":18000,"station_id":"","pricing_plan_id":"free"},{"bike_id":"f131c4aa-5f4c-4894-b7bf-cc59f84a52f2","system_id":"levelo_inurba_marseille","lat":43.265714,"lon":5.372891,"is_reserved":false,"is_disabled":false,"rental_uris":{"android":"levelo://app?vid=f131c4aa-5f4c-4894-b7bf-cc59f84a52f2","ios":"levelo://app?vid=f131c4aa-5f4c-4894-b7bf-cc59f84a52f2"},"vehicle_type_id":"4","last_reported":1701090652,"current_range_meters":2000,"station_id":"ce4bhg12rcd13ifvqf70","pricing_plan_id":"free"},{"bike_id":"2a564ed4-ca8f-47b3-b12a-83120b35cfe6","system_id":"levelo_inurba_marseille","lat":43.267966,"lon":5.393976,"is_reserved":false,"is_disabled":false,"rental_uris":{"android":"levelo://app?vid=2a564ed4-ca8f-47b3-b12a-83120b35cfe6","ios":"levelo://app?vid=2a564ed4-ca8f-47b3-b12a-83120b35cfe6"},"vehicle_type_id":"4","last_reported":1701090652,"current_range_meters":26000,"station_id":"ce4bhh12rcd13ifvqfg0","pricing_plan_id":"free"},{"bike_id":"862dcd76-7750-4a2b-b9a3-2523551419d9","system_id":"levelo_inurba_marseille","lat":43.265714,"lon":5.372891,"is_reserved":false,"is_disabled":false,"rental_uris":{"android":"levelo://app?vid=862dcd76-7750-4a2b-b9a3-2523551419d9","ios":"levelo://app?vid=862dcd76-7750-4a2b-b9a3-2523551419d9"},"vehicle_type_id":"4","last_reported":1701090652,"current_range_meters":4000,"station_id":"ce4bhg12rcd13ifvqf70","pricing_plan_id":"free"},{"bike_id":"5b0078f3-0fc9-4da7-a0e7-27b4de50d6b6","system_id":"levelo_inurba_marseille","lat":43.265569,"lon":5.390047,"is_reserved":false,"is_disabled":false,"rental_uris":{"android":"levelo://app?vid=5b0078f3-0fc9-4da7-a0e7-27b4de50d6b6","ios":"levelo://app?vid=5b0078f3-0fc9-4da7-a0e7-27b4de50d6b6"},"vehicle_type_id":"4","last_reported":1701090652,"current_range_meters":14800,"station_id":"ce4bhe12rcd13ifvqf30","pricing_plan_id":"free"},{"bike_id":"0050e9c0-75ae-4acf-8af3-fbd5ff61e36c","system_id":"levelo_inurba_marseille","lat":43.265667,"lon":5.3901,"is_reserved":false,"is_disabled":false,"rental_uris":{"android":"levelo://app?vid=0050e9c0-75ae-4acf-8af3-fbd5ff61e36c","ios":"levelo://app?vid=0050e9c0-75ae-4acf-8af3-fbd5ff61e36c"},"vehicle_type_id":"4","last_reported":1701090652,"current_range_meters":18400,"station_id":"ce4bhe12rcd13ifvqf30","pricing_plan_id":"free"},{"bike_id":"1aedea6d-b001-47bb-aa2c-772859c03586","system_id":"levelo_inurba_marseille","lat":43.26949,"lon":5.40262,"is_reserved":false,"is_disabled":false,"rental_uris":{"android":"levelo://app?vid=1aedea6d-b001-47bb-aa2c-772859c03586","ios":"levelo://app?vid=1aedea6d-b001-47bb-aa2c-772859c03586"},"vehicle_type_id":"4","last_reported":1701090652,"current_range_meters":20400,"station_id":"cjm6bp8fraef2m0cb0m0","pricing_plan_id":"free"},{"bike_id":"c2a7ec8c-6ff0-40a1-a672-8737d777b9f7","system_id":"levelo_inurba_marseille","lat":43.26938,"lon":5.40256,"is_reserved":false,"is_disabled":false,"rental_uris":{"android":"levelo://app?vid=c2a7ec8c-6ff0-40a1-a672-8737d777b9f7","ios":"levelo://app?vid=c2a7ec8c-6ff0-40a1-a672-8737d777b9f7"},"vehicle_type_id":"4","last_reported":1701090652,"current_range_meters":9600,"station_id":"cjm6bp8fraef2m0cb0m0","pricing_plan_id":"free"},{"bike_id":"0a4f731c-3eb7-4528-bc5f-67f098acc892","system_id":"levelo_inurba_marseille","lat":43.26949,"lon":5.40262,"is_reserved":false,"is_disabled":false,"rental_uris":{"android":"levelo://app?vid=0a4f731c-3eb7-4528-bc5f-67f098acc892","ios":"levelo://app?vid=0a4f731c-3eb7-4528-bc5f-67f098acc892"},"vehicle_type_id":"4","last_reported":1701090652,"current_range_meters":13600,"station_id":"cjm6bp8fraef2m0cb0m0","pricing_plan_id":"free"},{"bike_id":"92fb8064-80c6-4de0-afcd-fd1a16336db6","system_id":"levelo_inurba_marseille","lat":43.26926,"lon":5.40266,"is_reserved":false,"is_disabled":false,"rental_uris":{"android":"levelo://app?vid=92fb8064-80c6-4de0-afcd-fd1a16336db6","ios":"levelo://app?vid=92fb8064-80c6-4de0-afcd-fd1a16336db6"},"vehicle_type_id":"4","last_reported":1701090652,"current_range_meters":20000,"station_id":"cjm6bp8fraef2m0cb0m0","pricing_plan_id":"free"},{"bike_id":"d0510501-6244-4a65-90f0-44980fe6afd0","system_id":"levelo_inurba_marseille","lat":43.262012,"lon":5.379307,"is_reserved":false,"is_disabled":false,"rental_uris":{"android":"levelo://app?vid=d0510501-6244-4a65-90f0-44980fe6afd0","ios":"levelo://app?vid=d0510501-6244-4a65-90f0-44980fe6afd0"},"vehicle_type_id":"4","last_reported":1701090652,"current_range_meters":24400,"station_id":"ce4bhjp2rcd13ifvqg90","pricing_plan_id":"free"},{"bike_id":"313ca8aa-c9fa-4147-9703-81a85dc2356d","system_id":"levelo_inurba_marseille","lat":43.271368,"lon":5.40928,"is_reserved":false,"is_disabled":false,"rental_uris":{"android":"levelo://app?vid=313ca8aa-c9fa-4147-9703-81a85dc2356d","ios":"levelo://app?vid=313ca8aa-c9fa-4147-9703-81a85dc2356d"},"vehicle_type_id":"4","last_reported":1701090652,"current_range_meters":10000,"station_id":"ce4bhl12rcd13ifvqgf0","pricing_plan_id":"free"},{"bike_id":"7c5a83ac-336c-4b91-a5ea-82b3c6d6127d","system_id":"levelo_inurba_marseille","lat":43.298768,"lon":5.43643,"is_reserved":false,"is_disabled":false,"rental_uris":{"android":"levelo://app?vid=7c5a83ac-336c-4b91-a5ea-82b3c6d6127d","ios":"levelo://app?vid=7c5a83ac-336c-4b91-a5ea-82b3c6d6127d"},"vehicle_type_id":"4","last_reported":1701090652,"current_range_meters":31600,"station_id":"ce4bhpp2rcd13ifvqhfg","pricing_plan_id":"free"},{"bike_id":"f4f2e1d5-dafa-412d-9b3a-3611814786ce","system_id":"levelo_inurba_marseille","lat":43.298768,"lon":5.43643,"is_reserved":false,"is_disabled":false,"rental_uris":{"android":"levelo://app?vid=f4f2e1d5-dafa-412d-9b3a-3611814786ce","ios":"levelo://app?vid=f4f2e1d5-dafa-412d-9b3a-3611814786ce"},"vehicle_type_id":"4","last_reported":1701090652,"current_range_meters":31600,"station_id":"ce4bhpp2rcd13ifvqhfg","pricing_plan_id":"free"},{"bike_id":"9713bde9-c9a7-4d76-bb95-dac32047e32a","system_id":"levelo_inurba_marseille","lat":43.298768,"lon":5.43643,"is_reserved":false,"is_disabled":false,"rental_uris":{"android":"levelo://app?vid=9713bde9-c9a7-4d76-bb95-dac32047e32a","ios":"levelo://app?vid=9713bde9-c9a7-4d76-bb95-dac32047e32a"},"vehicle_type_id":"4","last_reported":1701090652,"current_range_meters":29200,"station_id":"ce4bhpp2rcd13ifvqhfg","pricing_plan_id":"free"},{"bike_id":"9c01e200-58da-4537-8fa5-2e03c9ec15fb","system_id":"levelo_inurba_marseille","lat":43.298768,"lon":5.43643,"is_reserved":false,"is_disabled":false,"rental_uris":{"android":"levelo://app?vid=9c01e200-58da-4537-8fa5-2e03c9ec15fb","ios":"levelo://app?vid=9c01e200-58da-4537-8fa5-2e03c9ec15fb"},"vehicle_type_id":"4","last_reported":1701090652,"current_range_meters":14800,"station_id":"ce4bhpp2rcd13ifvqhfg","pricing_plan_id":"free"},{"bike_id":"df86183c-2087-436f-9bdd-29ed82a32076","system_id":"levelo_inurba_marseille","lat":43.298768,"lon":5.43643,"is_reserved":false,"is_disabled":false,"rental_uris":{"android":"levelo://app?vid=df86183c-2087-436f-9bdd-29ed82a32076","ios":"levelo://app?vid=df86183c-2087-436f-9bdd-29ed82a32076"},"vehicle_type_id":"4","last_reported":1701090652,"current_range_meters":28800,"station_id":"ce4bhpp2rcd13ifvqhfg","pricing_plan_id":"free"},{"bike_id":"ac468d0d-cd6b-40fe-b3b0-ba36ca82188e","system_id":"levelo_inurba_marseille","lat":43.260225,"lon":5.375455,"is_reserved":false,"is_disabled":false,"rental_uris":{"android":"levelo://app?vid=ac468d0d-cd6b-40fe-b3b0-ba36ca82188e","ios":"levelo://app?vid=ac468d0d-cd6b-40fe-b3b0-ba36ca82188e"},"vehicle_type_id":"4","last_reported":1701090652,"current_range_meters":17200,"station_id":"ce4bhgh2rcd13ifvqfa0","pricing_plan_id":"free"},{"bike_id":"e23b723f-548a-48e5-96f6-5b49167940a2","system_id":"levelo_inurba_marseille","lat":43.281548,"lon":5.42643,"is_reserved":false,"is_disabled":false,"rental_uris":{"android":"levelo://app?vid=e23b723f-548a-48e5-96f6-5b49167940a2","ios":"levelo://app?vid=e23b723f-548a-48e5-96f6-5b49167940a2"},"vehicle_type_id":"4","last_reported":1701090652,"current_range_meters":30400,"station_id":"ce4bhnh2rcd13ifvqgug","pricing_plan_id":"free"},{"bike_id":"f5487371-dbab-4ae8-8b48-a46fcfb6789c","system_id":"levelo_inurba_marseille","lat":43.281548,"lon":5.42643,"is_reserved":false,"is_disabled":false,"rental_uris":{"android":"levelo://app?vid=f5487371-dbab-4ae8-8b48-a46fcfb6789c","ios":"levelo://app?vid=f5487371-dbab-4ae8-8b48-a46fcfb6789c"},"vehicle_type_id":"4","last_reported":1701090652,"current_range_meters":27600,"station_id":"ce4bhnh2rcd13ifvqgug","pricing_plan_id":"free"},{"bike_id":"81dd8d55-76ce-4385-8abb-043e706ef176","system_id":"levelo_inurba_marseille","lat":43.2607,"lon":5.393983,"is_reserved":false,"is_disabled":false,"rental_uris":{"android":"levelo://app?vid=81dd8d55-76ce-4385-8abb-043e706ef176","ios":"levelo://app?vid=81dd8d55-76ce-4385-8abb-043e706ef176"},"vehicle_type_id":"4","last_reported":1701090652,"current_range_meters":20800,"station_id":"ce4bhh92rcd13ifvqfj0","pricing_plan_id":"free"},{"bike_id":"71fb6be1-6a3a-4a1c-91b1-3bdba782f153","system_id":"levelo_inurba_marseille","lat":43.2607,"lon":5.393983,"is_reserved":false,"is_disabled":false,"rental_uris":{"android":"levelo://app?vid=71fb6be1-6a3a-4a1c-91b1-3bdba782f153","ios":"levelo://app?vid=71fb6be1-6a3a-4a1c-91b1-3bdba782f153"},"vehicle_type_id":"4","last_reported":1701090652,"current_range_meters":22800,"station_id":"ce4bhh92rcd13ifvqfj0","pricing_plan_id":"free"},{"bike_id":"a64a4b70-e7e1-4535-a46a-64b992c0b24e","system_id":"levelo_inurba_marseille","lat":43.2607,"lon":5.393983,"is_reserved":false,"is_disabled":false,"rental_uris":{"android":"levelo://app?vid=a64a4b70-e7e1-4535-a46a-64b992c0b24e","ios":"levelo://app?vid=a64a4b70-e7e1-4535-a46a-64b992c0b24e"},"vehicle_type_id":"4","last_reported":1701090652,"current_range_meters":29200,"station_id":"ce4bhh92rcd13ifvqfj0","pricing_plan_id":"free"},{"bike_id":"155eb1f4-e4ff-4151-870f-9f53e6430e9c","system_id":"levelo_inurba_marseille","lat":43.275028,"lon":5.424534,"is_reserved":false,"is_disabled":false,"rental_uris":{"android":"levelo://app?vid=155eb1f4-e4ff-4151-870f-9f53e6430e9c","ios":"levelo://app?vid=155eb1f4-e4ff-4151-870f-9f53e6430e9c"},"vehicle_type_id":"4","last_reported":1701090652,"current_range_meters":31600,"station_id":"ce4bhn92rcd13ifvqgrg","pricing_plan_id":"free"},{"bike_id":"1dad8be2-a25a-4d6a-8d77-523cccd2cf17","system_id":"levelo_inurba_marseille","lat":43.275028,"lon":5.424534,"is_reserved":false,"is_disabled":false,"rental_uris":{"android":"levelo://app?vid=1dad8be2-a25a-4d6a-8d77-523cccd2cf17","ios":"levelo://app?vid=1dad8be2-a25a-4d6a-8d77-523cccd2cf17"},"vehicle_type_id":"4","last_reported":1701090652,"current_range_meters":12400,"station_id":"ce4bhn92rcd13ifvqgrg","pricing_plan_id":"free"},{"bike_id":"a546cec7-c461-4563-8f9d-9c8f6cf81155","system_id":"levelo_inurba_marseille","lat":43.275028,"lon":5.424534,"is_reserved":false,"is_disabled":false,"rental_uris":{"android":"levelo://app?vid=a546cec7-c461-4563-8f9d-9c8f6cf81155","ios":"levelo://app?vid=a546cec7-c461-4563-8f9d-9c8f6cf81155"},"vehicle_type_id":"4","last_reported":1701090652,"current_range_meters":20800,"station_id":"ce4bhn92rcd13ifvqgrg","pricing_plan_id":"free"},{"bike_id":"d3e93fdf-9bbe-4933-8733-8ebbae8bfdea","system_id":"levelo_inurba_marseille","lat":43.275028,"lon":5.424534,"is_reserved":false,"is_disabled":false,"rental_uris":{"android":"levelo://app?vid=d3e93fdf-9bbe-4933-8733-8ebbae8bfdea","ios":"levelo://app?vid=d3e93fdf-9bbe-4933-8733-8ebbae8bfdea"},"vehicle_type_id":"4","last_reported":1701090652,"current_range_meters":8400,"station_id":"ce4bhn92rcd13ifvqgrg","pricing_plan_id":"free"},{"bike_id":"4944c5bc-1d96-4802-a6e5-38a2dc0b0acd","system_id":"levelo_inurba_marseille","lat":43.275028,"lon":5.424534,"is_reserved":false,"is_disabled":false,"rental_uris":{"android":"levelo://app?vid=4944c5bc-1d96-4802-a6e5-38a2dc0b0acd","ios":"levelo://app?vid=4944c5bc-1d96-4802-a6e5-38a2dc0b0acd"},"vehicle_type_id":"4","last_reported":1701090652,"current_range_meters":24800,"station_id":"ce4bhn92rcd13ifvqgrg","pricing_plan_id":"free"},{"bike_id":"af2159a7-533c-44b2-9f91-55ad689fd878","system_id":"levelo_inurba_marseille","lat":43.275028,"lon":5.424534,"is_reserved":false,"is_disabled":false,"rental_uris":{"android":"levelo://app?vid=af2159a7-533c-44b2-9f91-55ad689fd878","ios":"levelo://app?vid=af2159a7-533c-44b2-9f91-55ad689fd878"},"vehicle_type_id":"4","last_reported":1701090652,"current_range_meters":25200,"station_id":"ce4bhn92rcd13ifvqgrg","pricing_plan_id":"free"},{"bike_id":"6b66416e-f6df-45f6-b880-55bfbe8ee70e","system_id":"levelo_inurba_marseille","lat":43.260909,"lon":5.397591,"is_reserved":false,"is_disabled":false,"rental_uris":{"android":"levelo://app?vid=6b66416e-f6df-45f6-b880-55bfbe8ee70e","ios":"levelo://app?vid=6b66416e-f6df-45f6-b880-55bfbe8ee70e"},"vehicle_type_id":"4","last_reported":1701090652,"current_range_meters":20800,"station_id":"ce4bhi12rcd13ifvqfq0","pricing_plan_id":"free"},{"bike_id":"c85f7616-3a9e-47a4-ae16-28a03e51ab4f","system_id":"levelo_inurba_marseille","lat":43.28929,"lon":5.438754,"is_reserved":false,"is_disabled":false,"rental_uris":{"android":"levelo://app?vid=c85f7616-3a9e-47a4-ae16-28a03e51ab4f","ios":"levelo://app?vid=c85f7616-3a9e-47a4-ae16-28a03e51ab4f"},"vehicle_type_id":"4","last_reported":1701090652,"current_range_meters":7600,"station_id":"","pricing_plan_id":"free"},{"bike_id":"d1cf0b76-5c28-4642-99f0-f169aa78efca","system_id":"levelo_inurba_marseille","lat":43.255755,"lon":5.38226,"is_reserved":false,"is_disabled":false,"rental_uris":{"android":"levelo://app?vid=d1cf0b76-5c28-4642-99f0-f169aa78efca","ios":"levelo://app?vid=d1cf0b76-5c28-4642-99f0-f169aa78efca"},"vehicle_type_id":"4","last_reported":1701090652,"current_range_meters":22400,"station_id":"ce4bhih2rcd13ifvqfs0","pricing_plan_id":"free"},{"bike_id":"90b92ef4-41f7-422c-81d7-0e758e35d98c","system_id":"levelo_inurba_marseille","lat":43.258224,"lon":5.394369,"is_reserved":false,"is_disabled":false,"rental_uris":{"android":"levelo://app?vid=90b92ef4-41f7-422c-81d7-0e758e35d98c","ios":"levelo://app?vid=90b92ef4-41f7-422c-81d7-0e758e35d98c"},"vehicle_type_id":"4","last_reported":1701090652,"current_range_meters":24800,"station_id":"ce4bhip2rcd13ifvqft0","pricing_plan_id":"free"},{"bike_id":"370d0558-5b34-4052-b258-b86676cebe50","system_id":"levelo_inurba_marseille","lat":43.258224,"lon":5.394369,"is_reserved":false,"is_disabled":false,"rental_uris":{"android":"levelo://app?vid=370d0558-5b34-4052-b258-b86676cebe50","ios":"levelo://app?vid=370d0558-5b34-4052-b258-b86676cebe50"},"vehicle_type_id":"4","last_reported":1701090652,"current_range_meters":19200,"station_id":"ce4bhip2rcd13ifvqft0","pricing_plan_id":"free"},{"bike_id":"b7ad3471-3db5-40ae-97d3-0ce4984ee4b4","system_id":"levelo_inurba_marseille","lat":43.258224,"lon":5.394369,"is_reserved":false,"is_disabled":false,"rental_uris":{"android":"levelo://app?vid=b7ad3471-3db5-40ae-97d3-0ce4984ee4b4","ios":"levelo://app?vid=b7ad3471-3db5-40ae-97d3-0ce4984ee4b4"},"vehicle_type_id":"4","last_reported":1701090652,"current_range_meters":29600,"station_id":"ce4bhip2rcd13ifvqft0","pricing_plan_id":"free"},{"bike_id":"fa94e1b3-924d-484c-aa3a-070aacbdbbfd","system_id":"levelo_inurba_marseille","lat":43.2707,"lon":5.42277,"is_reserved":false,"is_disabled":false,"rental_uris":{"android":"levelo://app?vid=fa94e1b3-924d-484c-aa3a-070aacbdbbfd","ios":"levelo://app?vid=fa94e1b3-924d-484c-aa3a-070aacbdbbfd"},"vehicle_type_id":"4","last_reported":1701090652,"current_range_meters":24400,"station_id":"ce4bhk92rcd13ifvqgb0","pricing_plan_id":"free"},{"bike_id":"c6403408-c03d-4a33-8066-445b4460a28e","system_id":"levelo_inurba_marseille","lat":43.270721,"lon":5.422764,"is_reserved":false,"is_disabled":false,"rental_uris":{"android":"levelo://app?vid=c6403408-c03d-4a33-8066-445b4460a28e","ios":"levelo://app?vid=c6403408-c03d-4a33-8066-445b4460a28e"},"vehicle_type_id":"4","last_reported":1701090652,"current_range_meters":28400,"station_id":"ce4bhk92rcd13ifvqgb0","pricing_plan_id":"free"},{"bike_id":"8996178d-25f0-40d2-947b-1feb5661f950","system_id":"levelo_inurba_marseille","lat":43.2593,"lon":5.40906,"is_reserved":false,"is_disabled":false,"rental_uris":{"android":"levelo://app?vid=8996178d-25f0-40d2-947b-1feb5661f950","ios":"levelo://app?vid=8996178d-25f0-40d2-947b-1feb5661f950"},"vehicle_type_id":"4","last_reported":1701090652,"current_range_meters":16000,"station_id":"ce4bhm92rcd13ifvqglg","pricing_plan_id":"free"},{"bike_id":"d80cffa5-e43b-41ec-9e44-46353fc74d12","system_id":"levelo_inurba_marseille","lat":43.259013,"lon":5.409301,"is_reserved":false,"is_disabled":false,"rental_uris":{"android":"levelo://app?vid=d80cffa5-e43b-41ec-9e44-46353fc74d12","ios":"levelo://app?vid=d80cffa5-e43b-41ec-9e44-46353fc74d12"},"vehicle_type_id":"4","last_reported":1701090652,"current_range_meters":4400,"station_id":"ce4bhm92rcd13ifvqglg","pricing_plan_id":"free"},{"bike_id":"d887801b-e995-469c-973f-ffa672bad8e6","system_id":"levelo_inurba_marseille","lat":43.25932,"lon":5.40918,"is_reserved":false,"is_disabled":false,"rental_uris":{"android":"levelo://app?vid=d887801b-e995-469c-973f-ffa672bad8e6","ios":"levelo://app?vid=d887801b-e995-469c-973f-ffa672bad8e6"},"vehicle_type_id":"4","last_reported":1701090652,"current_range_meters":14400,"station_id":"ce4bhm92rcd13ifvqglg","pricing_plan_id":"free"},{"bike_id":"ddac90df-55ea-4184-8e68-30a37c2a337f","system_id":"levelo_inurba_marseille","lat":43.2479,"lon":5.374457,"is_reserved":false,"is_disabled":false,"rental_uris":{"android":"levelo://app?vid=ddac90df-55ea-4184-8e68-30a37c2a337f","ios":"levelo://app?vid=ddac90df-55ea-4184-8e68-30a37c2a337f"},"vehicle_type_id":"4","last_reported":1701090652,"current_range_meters":6800,"station_id":"ce4bhgh2rcd13ifvqfb0","pricing_plan_id":"free"},