{"last_updated":1729800588,"ttl":60,"version":"2.2","data":{"bikes":[{"bike_id":"22ff754d-6181-4120-bc43-5033a05cdc3b","system_id":"levelo_inurba_marseille","lat":43.31079,"lon":5.38351,"is_reserved":false,"is_disabled":false,"rental_uris":{"android":"levelo://app?vid=22ff754d-6181-4120-bc43-5033a05cdc3b","ios":"levelo://app?vid=22ff754d-6181-4120-bc43-5033a05cdc3b"},"vehicle_type_id":"4","last_reported":1729800589,"current_range_meters":38800,"station_id":"ce4bgv92rcd13ifvqcr0","pricing_plan_id":"cebpf4jnsgd1na2vs0mg"},{"bike_id":"1568e98d-3e80-4d3a-913a-84af01bba11e","system_id":"levelo_inurba_marseille","lat":43.28155,"lon":5.42639,"is_reserved":false,"is_disabled":false,"rental_uris":{"android":"levelo://app?vid=1568e98d-3e80-4d3a-913a-84af01bba11e","ios":"levelo://app?vid=1568e98d-3e80-4d3a-913a-84af01bba11e"},"vehicle_type_id":"4","last_reported":1729800589,"current_range_meters":36800,"station_id":"ce4bhnh2rcd13ifvqgug","pricing_plan_id":"cebpf4jnsgd1na2vs0mg"},{"bike_id":"4e718520-217c-4986-8e4a-4dbcae9b7210","system_id":"levelo_inurba_marseille","lat":43.27993,"lon":5.41657,"is_reserved":false,"is_disabled":false,"rental_uris":{"android":"levelo://app?vid=4e718520-217c-4986-8e4a-4dbcae9b7210","ios":"levelo://app?vid=4e718520-217c-4986-8e4a-4dbcae9b7210"},"vehicle_type_id":"4","last_reported":1729800589,"current_range_meters":8400,"station_id":"ce4bho12rcd13ifvqh1g","pricing_plan_id":"cebpf4jnsgd1na2vs0mg"},{"bike_id":"25c33f95-7666-4c95-a085-7c0175e3f161","system_id":"levelo_inurba_marseille","lat":43.30152,"lon":5.38779,"is_reserved":false,"is_disabled":false,"rental_uris":{"android":"levelo://app?vid=25c33f95-7666-4c95-a085-7c0175e3f161","ios":"levelo://app?vid=25c33f95-7666-4c95-a085-7c0175e3f161"},"vehicle_type_id":"4","last_reported":1729800589,"current_range_meters":38000,"station_id":"ce4bghh2rcd13ifvqb60","pricing_plan_id":"cebpf4jnsgd1na2vs0mg"},{"bike_id":"02b88303-f07a-410b-8e09-9fbc37dda972","system_id":"levelo_inurba_marseille","lat":43.3107,"lon":5.38347,"is_reserved":false,"is_disabled":false,"rental_uris":{"android":"levelo://app?vid=02b88303-f07a-410b-8e09-9fbc37dda972","ios":"levelo://app?vid=02b88303-f07a-410b-8e09-9fbc37dda972"},"vehicle_type_id":"4","last_reported":1729800589,"current_range_meters":38800,"station_id":"ce4bgv92rcd13ifvqcr0","pricing_plan_id":"cebpf4jnsgd1na2vs0mg"},{"bike_id":"12aee72b-9391-4d13-a5aa-62d9956cd653","system_id":"levelo_inurba_marseille","lat":43.23965,"lon":5.36632,"is_reserved":false,"is_disabled":false,"rental_uris":{"android":"levelo://app?vid=12aee72b-9391-4d13-a5aa-62d9956cd653","ios":"levelo://app?vid=12aee72b-9391-4d13-a5aa-62d9956cd653"},"vehicle_type_id":"4","last_reported":1729800589,"current_range_meters":9200,"station_id":"ce4bhi12rcd13ifvqfp0","pricing_plan_id":"cebpf4jnsgd1na2vs0mg"},{"bike_id":"5134f3b1-3ef2-40bd-bb7b-0664f2444bbd","system_id":"levelo_inurba_marseille","lat":43.32039,"lon":5.41566,"is_reserved":false,"is_disabled":false,"rental_uris":{"android":"levelo://app?vid=5134f3b1-3ef2-40bd-bb7b-0664f2444bbd","ios":"levelo://app?vid=5134f3b1-3ef2-40bd-bb7b-0664f2444bbd"},"vehicle_type_id":"4","last_reported":1729800589,"current_range_meters":39200,"station_id":"ce4bhq92rcd13ifvqhkg","pricing_plan_id":"cebpf4jnsgd1na2vs0mg"},{"bike_id":"b127b2b4-729c-4a0b-820c-f99fb01ed4db","system_id":"levelo_inurba_marseille","lat":43.24185,"lon":5.39717,"is_reserved":false,"is_disabled":false,"rental_uris":{"android":"levelo://app?vid=b127b2b4-729c-4a0b-820c-f99fb01ed4db","ios":"levelo://app?vid=b127b2b4-729c-4a0b-820c-f99fb01ed4db"},"vehicle_type_id":"4","last_reported":1729800589,"current_range_meters":8000,"station_id":"ce4bhn12rcd13ifvqgpg","pricing_plan_id":"cebpf4jnsgd1na2vs0mg"},{"bike_id":"b4df7609-a487-49e4-8356-cf532cf09b63","system_id":"levelo_inurba_marseille","lat":43.30881,"lon":5.3963,"is_reserved":false,"is_disabled":false,"rental_uris":{"android":"levelo://app?vid=b4df7609-a487-49e4-8356-cf532cf09b63","ios":"levelo://app?vid=b4df7609-a487-49e4-8356-cf532cf09b63"},"vehicle_type_id":"4","last_reported":1729800589,"current_range_meters":10000,"station_id":"ce4bh012rcd13ifvqcv0","pricing_plan_id":"cebpf4jnsgd1na2vs0mg"},{"bike_id":"2935a762-c10b-49ed-8ef8-e08fa8b0b521","system_id":"levelo_inurba_marseille","lat":43.24389,"lon":5.37056,"is_reserved":false,"is_disabled":false,"rental_uris":{"android":"levelo://app?vid=2935a762-c10b-49ed-8ef8-e08fa8b0b521","ios":"levelo://app?vid=2935a762-c10b-49ed-8ef8-e08fa8b0b521"},"vehicle_type_id":"4","last_reported":1729800589,"current_range_meters":37600,"station_id":"ce4bhhh2rcd13ifvqfk0","pricing_plan_id":"cebpf4jnsgd1na2vs0mg"},{"bike_id":"1f414585-903e-4b77-bd5b-3128eed1d797","system_id":"levelo_inurba_marseille","lat":43.29278,"lon":5.38423,"is_reserved":false,"is_disabled":false,"rental_uris":{"android":"levelo://app?vid=1f414585-903e-4b77-bd5b-3128eed1d797","ios":"levelo://app?vid=1f414585-903e-4b77-bd5b-3128eed1d797"},"vehicle_type_id":"4","last_reported":1729800589,"current_range_meters":38800,"station_id":"ce4bh692rcd13ifvqea0","pricing_plan_id":"cebpf4jnsgd1na2vs0mg"},{"bike_id":"36b9388d-6567-430c-be09-be6e36d68e42","system_id":"levelo_inurba_marseille","lat":43.29413,"lon":5.38628,"is_reserved":false,"is_disabled":false,"rental_uris":{"android":"levelo://app?vid=36b9388d-6567-430c-be09-be6e36d68e42","ios":"levelo://app?vid=36b9388d-6567-430c-be09-be6e36d68e42"},"vehicle_type_id":"4","last_reported":1729800589,"current_range_meters":38800,"station_id":"ce4bh2h2rcd13ifvqdh0","pricing_plan_id":"cebpf4jnsgd1na2vs0mg"},{"bike_id":"0d780d82-1ae2-4253-9394-4863df867e9f","system_id":"levelo_inurba_marseille","lat":43.29918,"lon":5.37475,"is_reserved":false,"is_disabled":false,"rental_uris":{"android":"levelo://app?vid=0d780d82-1ae2-4253-9394-4863df867e9f","ios":"levelo://app?vid=0d780d82-1ae2-4253-9394-4863df867e9f"},"vehicle_type_id":"4","last_reported":1729800589,"current_range_meters":38800,"station_id":"ce4bgjh2rcd13ifvqbg0","pricing_plan_id":"cebpf4jnsgd1na2vs0mg"},{"bike_id":"c7c47c7a-b2ce-47cf-ab57-cd0aae99dfe3","system_id":"levelo_inurba_marseille","lat":43.29546,"lon":5.38533,"is_reserved":false,"is_disabled":false,"rental_uris":{"android":"levelo://app?vid=c7c47c7a-b2ce-47cf-ab57-cd0aae99dfe3","ios":"levelo://app?vid=c7c47c7a-b2ce-47cf-ab57-cd0aae99dfe3"},"vehicle_type_id":"4","last_reported":1729800589,"current_range_meters":38800,"station_id":"ce4bgih2rcd13ifvqba0","pricing_plan_id":"cebpf4jnsgd1na2vs0mg"},{"bike_id":"501ececc-c2a1-4ee6-bfff-a84889e50561","system_id":"levelo_inurba_marseille","lat":43.26063,"lon":5.39393,"is_reserved":false,"is_disabled":false,"rental_uris":{"android":"levelo://app?vid=501ececc-c2a1-4ee6-bfff-a84889e50561","ios":"levelo://app?vid=501ececc-c2a1-4ee6-bfff-a84889e50561"},"vehicle_type_id":"4","last_reported":1729800589,"current_range_meters":35200,"station_id":"ce4bhh92rcd13ifvqfj0","pricing_plan_id":"cebpf4jnsgd1na2vs0mg"},{"bike_id":"7a39ac62-f73e-405f-baad-436efacf2521","system_id":"levelo_inurba_marseille","lat":43.27078,"lon":5.4228,"is_reserved":false,"is_disabled":false,"rental_uris":{"android":"levelo://app?vid=7a39ac62-f73e-405f-baad-436efacf2521","ios":"levelo://app?vid=7a39ac62-f73e-405f-baad-436efacf2521"},"vehicle_type_id":"4","last_reported":1729800589,"current_range_meters":20000,"station_id":"ce4bhk92rcd13ifvqgb0","pricing_plan_id":"cebpf4jnsgd1na2vs0mg"},{"bike_id":"e130cf78-8420-42ef-935c-589ad91611cf","system_id":"levelo_inurba_marseille","lat":43.3266,"lon":5.40996,"is_reserved":false,"is_disabled":false,"rental_uris":{"android":"levelo://app?vid=e130cf78-8420-42ef-935c-589ad91611cf","ios":"levelo://app?vid=e130cf78-8420-42ef-935c-589ad91611cf"},"vehicle_type_id":"4","last_reported":1729800589,"current_range_meters":22800,"station_id":"ce4bhpp2rcd13ifvqhgg","pricing_plan_id":"cebpf4jnsgd1na2vs0mg"},{"bike_id":"83b93c0d-fd1e-413e-9772-9048be31d163","system_id":"levelo_inurba_marseille","lat":43.31694,"lon":5.37674,"is_reserved":false,"is_disabled":false,"rental_uris":{"android":"levelo://app?vid=83b93c0d-fd1e-413e-9772-9048be31d163","ios":"levelo://app?vid=83b93c0d-fd1e-413e-9772-9048be31d163"},"vehicle_type_id":"4","last_reported":1729800589,"current_range_meters":3600,"station_id":"","pricing_plan_id":"cebpf4jnsgd1na2vs0mg"},{"bike_id":"3e21bbdd-1ec6-439d-ae78-84f09e37582f","system_id":"levelo_inurba_marseille","lat":43.29714,"lon":5.36608,"is_reserved":false,"is_disabled":false,"rental_uris":{"android":"levelo://app?vid=3e21bbdd-1ec6-439d-ae78-84f09e37582f","ios":"levelo://app?vid=3e21bbdd-1ec6-439d-ae78-84f09e37582f"},"vehicle_type_id":"4","last_reported":1729800589,"current_range_meters":38800,"station_id":"ce4bgn12rcd13ifvqbt0","pricing_plan_id":"cebpf4jnsgd1na2vs0mg"},{"bike_id":"abc44f2d-fad2-41c6-a443-13675411175b","system_id":"levelo_inurba_marseille","lat":43.29056,"lon":5.39969,"is_reserved":false,"is_disabled":false,"rental_uris":{"android":"levelo://app?vid=abc44f2d-fad2-41c6-a443-13675411175b","ios":"levelo://app?vid=abc44f2d-fad2-41c6-a443-13675411175b"},"vehicle_type_id":"4","last_reported":1729800589,"current_range_meters":12400,"station_id":"ce4bh392rcd13ifvqdm0","pricing_plan_id":"cebpf4jnsgd1na2vs0mg"},{"bike_id":"7d925cae-34ec-4eef-8854-568a6befbdb6","system_id":"levelo_inurba_marseille","lat":43.29318,"lon":5.37162,"is_reserved":false,"is_disabled":false,"rental_uris":{"android":"levelo://app?vid=7d925cae-34ec-4eef-8854-568a6befbdb6","ios":"levelo://app?vid=7d925cae-34ec-4eef-8854-568a6befbdb6"},"vehicle_type_id":"4","last_reported":1729800589,"current_range_meters":38000,"station_id":"ce4bgh92rcd13ifvqb40","pricing_plan_id":"cebpf4jnsgd1na2vs0mg"},{"bike_id":"f529000e-e9bf-47da-a17d-86241bc726f7","system_id":"levelo_inurba_marseille","lat":43.2408,"lon":5.37757,"is_reserved":false,"is_disabled":false,"rental_uris":{"android":"levelo://app?vid=f529000e-e9bf-47da-a17d-86241bc726f7","ios":"levelo://app?vid=f529000e-e9bf-47da-a17d-86241bc726f7"},"vehicle_type_id":"4","last_reported":1729800589,"current_range_meters":25600,"station_id":"ce4bhnp2rcd13ifvqgvg","pricing_plan_id":"cebpf4jnsgd1na2vs0mg"},{"bike_id":"46e85f9c-1bad-4940-8580-20c0eeba5600","system_id":"levelo_inurba_marseille","lat":43.32347,"lon":5.40621,"is_reserved":false,"is_disabled":false,"rental_uris":{"android":"levelo://app?vid=46e85f9c-1bad-4940-8580-20c0eeba5600","ios":"levelo://app?vid=46e85f9c-1bad-4940-8580-20c0eeba5600"},"vehicle_type_id":"4","last_reported":1729800589,"current_range_meters":38800,"station_id":"ce4bhq92rcd13ifvqhjg","pricing_plan_id":"cebpf4jnsgd1na2vs0mg"},{"bike_id":"ce3eef46-b9e3-41dc-9130-106cb5f09144","system_id":"levelo_inurba_marseille","lat":43.2465,"lon":5.38901,"is_reserved":false,"is_disabled":false,"rental_uris":{"android":"levelo://app?vid=ce3eef46-b9e3-41dc-9130-106cb5f09144","ios":"levelo://app?vid=ce3eef46-b9e3-41dc-9130-106cb5f09144"},"vehicle_type_id":"4","last_reported":1729800589,"current_range_meters":38800,"station_id":"ce4bhg12rcd13ifvqf60","pricing_plan_id":"cebpf4jnsgd1na2vs0mg"},{"bike_id":"5d6eea9d-fa1c-4428-abf9-014d614acdc1","system_id":"levelo_inurba_marseille","lat":43.30135,"lon":5.3742,"is_reserved":false,"is_disabled":false,"rental_uris":{"android":"levelo://app?vid=5d6eea9d-fa1c-4428-abf9-014d614acdc1","ios":"levelo://app?vid=5d6eea9d-fa1c-4428-abf9-014d614acdc1"},"vehicle_type_id":"4","last_reported":1729800589,"current_range_meters":17600,"station_id":"ce4bgs92rcd13ifvqcc0","pricing_plan_id":"cebpf4jnsgd1na2vs0mg"},{"bike_id":"0f47b5e4-3d65-447f-a831-706089cb1ae9","system_id":"levelo_inurba_marseille","lat":43.26569,"lon":5.39016,"is_reserved":false,"is_disabled":false,"rental_uris":{"android":"levelo://app?vid=0f47b5e4-3d65-447f-a831-706089cb1ae9","ios":"levelo://app?vid=0f47b5e4-3d65-447f-a831-706089cb1ae9"},"vehicle_type_id":"4","last_reported":1729800589,"current_range_meters":17600,"station_id":"ce4bhe12rcd13ifvqf30","pricing_plan_id":"cebpf4jnsgd1na2vs0mg"},{"bike_id":"32b9b17f-afdb-463f-bfe8-ab7f0218a291","system_id":"levelo_inurba_marseille","lat":43.30175,"lon":5.37406,"is_reserved":false,"is_disabled":false,"rental_uris":{"android":"levelo://app?vid=32b9b17f-afdb-463f-bfe8-ab7f0218a291","ios":"levelo://app?vid=32b9b17f-afdb-463f-bfe8-ab7f0218a291"},"vehicle_type_id":"4","last_reported":1729800589,"current_range_meters":38800,"station_id":"ce4bgs92rcd13ifvqcc0","pricing_plan_id":"cebpf4jnsgd1na2vs0mg"},{"bike_id":"97ce6431-cdfe-4c86-8575-534875aed7f5","system_id":"levelo_inurba_marseille","lat":43.3053,"lon":5.36659,"is_reserved":false,"is_disabled":false,"rental_uris":{"android":"levelo://app?vid=97ce6431-cdfe-4c86-8575-534875aed7f5","ios":"levelo://app?vid=97ce6431-cdfe-4c86-8575-534875aed7f5"},"vehicle_type_id":"4","last_reported":1729800589,"current_range_meters":6000,"station_id":"","pricing_plan_id":"cebpf4jnsgd1na2vs0mg"},{"bike_id":"4d217311-81f7-41c2-94f3-1a941de93f8e","system_id":"levelo_inurba_marseille","lat":43.28279,"lon":5.35058,"is_reserved":false,"is_disabled":false,"rental_uris":{"android":"levelo://app?vid=4d217311-81f7-41c2-94f3-1a941de93f8e","ios":"levelo://app?vid=4d217311-81f7-41c2-94f3-1a941de93f8e"},"vehicle_type_id":"4","last_reported":1729800589,"current_range_meters":38800,"station_id":"ce4bhbp2rcd13ifvqerg","pricing_plan_id":"cebpf4jnsgd1na2vs0mg"},{"bike_id":"9da478eb-708a-4e86-9768-f54958bee9bd","system_id":"levelo_inurba_marseille","lat":43.30881,"lon":5.37183,"is_reserved":false,"is_disabled":false,"rental_uris":{"android":"levelo://app?vid=9da478eb-708a-4e86-9768-f54958bee9bd","ios":"levelo://app?vid=9da478eb-708a-4e86-9768-f54958bee9bd"},"vehicle_type_id":"4","last_reported":1729800589,"current_range_meters":38000,"station_id":"ce4bguh2rcd13ifvqckg","pricing_plan_id":"cebpf4jnsgd1na2vs0mg"},{"bike_id":"ae543776-75ee-42a8-a677-3e246bf772ec","system_id":"levelo_inurba_marseille","lat":43.31718,"lon":5.43702,"is_reserved":false,"is_disabled":false,"rental_uris":{"android":"levelo://app?vid=ae543776-75ee-42a8-a677-3e246bf772ec","ios":"levelo://app?vid=ae543776-75ee-42a8-a677-3e246bf772ec"},"vehicle_type_id":"4","last_reported":1729800589,"current_range_meters":7200,"station_id":"ce4bhp92rcd13ifvqhcg","pricing_plan_id":"cebpf4jnsgd1na2vs0mg"},{"bike_id":"663f33f5-0151-4735-9227-3ec0d82612cb","system_id":"levelo_inurba_marseille","lat":43.28726,"lon":5.37921,"is_reserved":false,"is_disabled":false,"rental_uris":{"android":"levelo://app?vid=663f33f5-0151-4735-9227-3ec0d82612cb","ios":"levelo://app?vid=663f33f5-0151-4735-9227-3ec0d82612cb"},"vehicle_type_id":"4","last_reported":1729800589,"current_range_meters":28000,"station_id":"ce4bh9p2rcd13ifvqec0","pricing_plan_id":"cebpf4jnsgd1na2vs0mg"},{"bike_id":"334e9050-29c3-43a0-b2bb-4fc7f06bf291","system_id":"levelo_inurba_marseille","lat":43.2465,"lon":5.38894,"is_reserved":false,"is_disabled":false,"rental_uris":{"android":"levelo://app?vid=334e9050-29c3-43a0-b2bb-4fc7f06bf291","ios":"levelo://app?vid=334e9050-29c3-43a0-b2bb-4fc7f06bf291"},"vehicle_type_id":"4","last_reported":1729800589,"current_range_meters":28800,"station_id":"ce4bhg12rcd13ifvqf60","pricing_plan_id":"cebpf4jnsgd1na2vs0mg"},{"bike_id":"3416557b-1536-448a-ac57-bb27af24b942","system_id":"levelo_inurba_marseille","lat":43.33726,"lon":5.39184,"is_reserved":false,"is_disabled":false,"rental_uris":{"android":"levelo://app?vid=3416557b-1536-448a-ac57-bb27af24b942","ios":"levelo://app?vid=3416557b-1536-448a-ac57-bb27af24b942"},"vehicle_type_id":"4","last_reported":1729800589,"current_range_meters":18800,"station_id":"ce4bhr92rcd13ifvqhsg","pricing_plan_id":"cebpf4jnsgd1na2vs0mg"},{"bike_id":"c70dc1e7-d574-49de-90da-08570e8dcf3b","system_id":"levelo_inurba_marseille","lat":43.29547,"lon":5.3854,"is_reserved":false,"is_disabled":false,"rental_uris":{"android":"levelo://app?vid=c70dc1e7-d574-49de-90da-08570e8dcf3b","ios":"levelo://app?vid=c70dc1e7-d574-49de-90da-08570e8dcf3b"},"vehicle_type_id":"4","last_reported":1729800589,"current_range_meters":38800,"station_id":"ce4bgih2rcd13ifvqba0","pricing_plan_id":"cebpf4jnsgd1na2vs0mg"},{"bike_id":"c47ee947-2909-41a5-bbe0-603cbb5c8694","system_id":"levelo_inurba_marseille","lat":43.2796,"lon":5.41043,"is_reserved":false,"is_disabled":false,"rental_uris":{"android":"levelo://app?vid=c47ee947-2909-41a5-bbe0-603cbb5c8694","ios":"levelo://app?vid=c47ee947-2909-41a5-bbe0-603cbb5c8694"},"vehicle_type_id":"4","last_reported":1729800589,"current_range_meters":16400,"station_id":"ce4bhnp2rcd13ifvqh0g","pricing_plan_id":"cebpf4jnsgd1na2vs0mg"},{"bike_id":"8486fe9d-9ef0-4e60-ba73-6eb6a17c52a8","system_id":"levelo_inurba_marseille","lat":43.31558,"lon":5.40569,"is_reserved":false,"is_disabled":false,"rental_uris":{"android":"levelo://app?vid=8486fe9d-9ef0-4e60-ba73-6eb6a17c52a8","ios":"levelo://app?vid=8486fe9d-9ef0-4e60-ba73-6eb6a17c52a8"},"vehicle_type_id":"4","last_reported":1729800589,"current_range_meters":12400,"station_id":"","pricing_plan_id":"cebpf4jnsgd1na2vs0mg"},{"bike_id":"172208e9-70cd-4b52-b8b5-db9312e32f6a","system_id":"levelo_inurba_marseille","lat":43.24541,"lon":5.39521,"is_reserved":false,"is_disabled":false,"rental_uris":{"android":"levelo://app?vid=172208e9-70cd-4b52-b8b5-db9312e32f6a","ios":"levelo://app?vid=172208e9-70cd-4b52-b8b5-db9312e32f6a"},"vehicle_type_id":"4","last_reported":1729800589,"current_range_meters":28400,"station_id":"ce4bhlp2rcd13ifvqgjg","pricing_plan_id":"cebpf4jnsgd1na2vs0mg"},{"bike_id":"dda4a36c-79b5-42cc-bd67-2abe044c6bd4","system_id":"levelo_inurba_marseille","lat":43.28614,"lon":5.35099,"is_reserved":false,"is_disabled":false,"rental_uris":{"android":"levelo://app?vid=dda4a36c-79b5-42cc-bd67-2abe044c6bd4","ios":"levelo://app?vid=dda4a36c-79b5-42cc-bd67-2abe044c6bd4"},"vehicle_type_id":"4","last_reported":1729800589,"current_range_meters":38800,"station_id":"ce4bhch2rcd13ifvqeug","pricing_plan_id":"cebpf4jnsgd1na2vs0mg"},{"bike_id":"ad46e88e-1717-4831-8400-f8635bd8f36f","system_id":"levelo_inurba_marseille","lat":43.269328,"lon":5.389284,"is_reserved":false,"is_disabled":false,"rental_uris":{"android":"levelo://app?vid=ad46e88e-1717-4831-8400-f8635bd8f36f","ios":"levelo://app?vid=ad46e88e-1717-4831-8400-f8635bd8f36f"},"vehicle_type_id":"4","last_reported":1729800589,"current_range_meters":18000,"station_id":"ce4bhih2rcd13ifvqfs0","pricing_plan_id":"cebpf4jnsgd1na2vs0mg"},{"bike_id":"5c9ca1bc-bff1-43d6-a60c-0d21fe59a63d","system_id":"levelo_inurba_marseille","lat":43.31066,"lon":5.38349,"is_reserved":false,"is_disabled":false,"rental_uris":{"android":"levelo://app?vid=5c9ca1bc-bff1-43d6-a60c-0d21fe59a63d","ios":"levelo://app?vid=5c9ca1bc-bff1-43d6-a60c-0d21fe59a63d"},"vehicle_type_id":"4","last_reported":1729800589,"current_range_meters":33600,"station_id":"ce4bgv92rcd13ifvqcr0","pricing_plan_id":"cebpf4jnsgd1na2vs0mg"},{"bike_id":"32991e38-daa5-43b8-8e37-4f99d4181766","system_id":"levelo_inurba_marseille","lat":43.3078,"lon":5.37646,"is_reserved":false,"is_disabled":false,"rental_uris":{"android":"levelo://app?vid=32991e38-daa5-43b8-8e37-4f99d4181766","ios":"levelo://app?vid=32991e38-daa5-43b8-8e37-4f99d4181766"},"vehicle_type_id":"4","last_reported":1729800589,"current_range_meters":29600,"station_id":"ce4bgv92rcd13ifvqcq0","pricing_plan_id":"cebpf4jnsgd1na2vs0mg"},{"bike_id":"19ce95ff-4cb9-489d-88e8-f0dd6c1bac5d","system_id":"levelo_inurba_marseille","lat":43.24184,"lon":5.39733,"is_reserved":false,"is_disabled":false,"rental_uris":{"android":"levelo://app?vid=19ce95ff-4cb9-489d-88e8-f0dd6c1bac5d","ios":"levelo://app?vid=19ce95ff-4cb9-489d-88e8-f0dd6c1bac5d"},"vehicle_type_id":"4","last_reported":1729800589,"current_range_meters":16800,"station_id":"ce4bhn12rcd13ifvqgpg","pricing_plan_id":"cebpf4jnsgd1na2vs0mg"},{"bike_id":"fad363c3-3336-4f35-8faf-c0b08767fecc","system_id":"levelo_inurba_marseille","lat":43.27545,"lon":5.35983,"is_reserved":false,"is_disabled":false,"rental_uris":{"android":"levelo://app?vid=fad363c3-3336-4f35-8faf-c0b08767fecc","ios":"levelo://app?vid=fad363c3-3336-4f35-8faf-c0b08767fecc"},"vehicle_type_id":"4","last_reported":1729800589,"current_range_meters":30000,"station_id":"","pricing_plan_id":"cebpf4jnsgd1na2vs0mg"},{"bike_id":"8dc3d884-ea78-4d85-a7b1-4cc0ca174e23","system_id":"levelo_inurba_marseille","lat":43.29254,"lon":5.38442,"is_reserved":false,"is_disabled":false,"rental_uris":{"android":"levelo://app?vid=8dc3d884-ea78-4d85-a7b1-4cc0ca174e23","ios":"levelo://app?vid=8dc3d884-ea78-4d85-a7b1-4cc0ca174e23"},"vehicle_type_id":"4","last_reported":1729800589,"current_range_meters":11200,"station_id":"ce4bh692rcd13ifvqea0","pricing_plan_id":"cebpf4jnsgd1na2vs0mg"},{"bike_id":"8a81d8aa-b8e8-4d59-8aec-731c562b08c0","system_id":"levelo_inurba_marseille","lat":43.24546,"lon":5.39525,"is_reserved":false,"is_disabled":false,"rental_uris":{"android":"levelo://app?vid=8a81d8aa-b8e8-4d59-8aec-731c562b08c0","ios":"levelo://app?vid=8a81d8aa-b8e8-4d59-8aec-731c562b08c0"},"vehicle_type_id":"4","last_reported":1729800589,"current_range_meters":38400,"station_id":"ce4bhlp2rcd13ifvqgjg","pricing_plan_id":"cebpf4jnsgd1na2vs0mg"},{"bike_id":"29b25be5-2292-4af8-b85e-04f4a7e72e17","system_id":"levelo_inurba_marseille","lat":43.23178,"lon":5.39985,"is_reserved":false,"is_disabled":false,"rental_uris":{"android":"levelo://app?vid=29b25be5-2292-4af8-b85e-04f4a7e72e17","ios":"levelo://app?vid=29b25be5-2292-4af8-b85e-04f4a7e72e17"},"vehicle_type_id":"4","last_reported":1729800589,"current_range_meters":14000,"station_id":"ce4bhn12rcd13ifvqgqg","pricing_plan_id":"cebpf4jnsgd1na2vs0mg"},{"bike_id":"c2d00749-f2dc-4c8e-81ce-e5db159a6f7e","system_id":"levelo_inurba_marseille","lat":43.26562,"lon":5.37284,"is_reserved":false,"is_disabled":false,"rental_uris":{"android":"levelo://app?vid=c2d00749-f2dc-4c8e-81ce-e5db159a6f7e","ios":"levelo://app?vid=c2d00749-f2dc-4c8e-81ce-e5db159a6f7e"},"vehicle_type_id":"4","last_reported":1729800589,"current_range_meters":30400,"station_id":"ce4bhg12rcd13ifvqf70","pricing_plan_id":"cebpf4jnsgd1na2vs0mg"},{"bike_id":"2ea68720-0a79-40ca-b3ed-2886ce8138a5","system_id":"levelo_inurba_marseille","lat":43.3079,"lon":5.37654,"is_reserved":false,"is_disabled":false,"rental_uris":{"android":"levelo://app?vid=2ea68720-0a79-40ca-b3ed-2886ce8138a5","ios":"levelo://app?vid=2ea68720-0a79-40ca-b3ed-2886ce8138a5"},"vehicle_type_id":"4","last_reported":1729800589,"current_range_meters":8800,"station_id":"ce4bgv92rcd13ifvqcq0","pricing_plan_id":"cebpf4jnsgd1na2vs0mg"},{"bike_id":"5aa6dc68-d926-4a64-9e6f-4c2e01499d62","system_id":"levelo_inurba_marseille","lat":43.30914,"lon":5.36838,"is_reserved":false,"is_disabled":false,"rental_uris":{"android":"levelo://app?vid=5aa6dc68-d926-4a64-9e6f-4c2e01499d62","ios":"levelo://app?vid=5aa6dc68-d926-4a64-9e6f-4c2e01499d62"},"vehicle_type_id":"4","last_reported":1729800589,"current_range_meters":29600,"station_id":"ce4bgn92rcd13ifvqbvg","pricing_plan_id":"cebpf4jnsgd1na2vs0mg"},{"bike_id":"933557ef-e951-4c8f-adab-063805190575","system_id":"levelo_inurba_marseille","lat":43.27496,"lon":5.42449,"is_reserved":false,"is_disabled":false,"rental_uris":{"android":"levelo://app?vid=933557ef-e951-4c8f-adab-063805190575","ios":"levelo://app?vid=933557ef-e951-4c8f-adab-063805190575"},"vehicle_type_id":"4","last_reported":1729800589,"current_range_meters":25600,"station_id":"ce4bhn92rcd13ifvqgrg","pricing_plan_id":"cebpf4jnsgd1na2vs0mg"},{"bike_id":"b5092dab-0958-4b93-8d9d-8a9df626b28c","system_id":"levelo_inurba_marseille","lat":43.25726,"lon":5.41111,"is_reserved":false,"is_disabled":false,"rental_uris":{"android":"levelo://app?vid=b5092dab-0958-4b93-8d9d-8a9df626b28c","ios":"levelo://app?vid=b5092dab-0958-4b93-8d9d-8a9df626b28c"},"vehicle_type_id":"4","last_reported":1729800589,"current_range_meters":10000,"station_id":"ce4bhkp2rcd13ifvqgd0","pricing_plan_id":"cebpf4jnsgd1na2vs0mg"},{"bike_id":"588d9fda-2b5f-423c-a040-b5ef24351dea","system_id":"levelo_inurba_marseille","lat":43.260315,"lon":5.375492,"is_reserved":false,"is_disabled":false,"rental_uris":{"android":"levelo://app?vid=588d9fda-2b5f-423c-a040-b5ef24351dea","ios":"levelo://app?vid=588d9fda-2b5f-423c-a040-b5ef24351dea"},"vehicle_type_id":"4","last_reported":1729800589,"current_range_meters":32000,"station_id":"ce4bhgh2rcd13ifvqfa0","pricing_plan_id":"cebpf4jnsgd1na2vs0mg"},{"bike_id":"cc0118df-8b7e-45eb-9744-421db3ae0876","system_id":"levelo_inurba_marseille","lat":43.29001,"lon":5.35608,"is_reserved":false,"is_disabled":false,"rental_uris":{"android":"levelo://app?vid=cc0118df-8b7e-45eb-9744-421db3ae0876","ios":"levelo://app?vid=cc0118df-8b7e-45eb-9744-421db3ae0876"},"vehicle_type_id":"4","last_reported":1729800589,"current_range_meters":8000,"station_id":"ce4bhb92rcd13ifvqen0","pricing_plan_id":"cebpf4jnsgd1na2vs0mg"},{"bike_id":"be8fbca4-3dcd-4e0e-96d2-8c570f59713c","system_id":"levelo_inurba_marseille","lat":43.32496,"lon":5.36568,"is_reserved":false,"is_disabled":false,"rental_uris":{"android":"levelo://app?vid=be8fbca4-3dcd-4e0e-96d2-8c570f59713c","ios":"levelo://app?vid=be8fbca4-3dcd-4e0e-96d2-8c570f59713c"},"vehicle_type_id":"4","last_reported":1729800589,"current_range_meters":23200,"station_id":"ce4bhs12rcd13ifvqhvg","pricing_plan_id":"cebpf4jnsgd1na2vs0mg"},{"bike_id":"2c83906e-34b2-4de1-a842-6d257980343c","system_id":"levelo_inurba_marseille","lat":43.32363,"lon":5.38889,"is_reserved":false,"is_disabled":false,"rental_uris":{"android":"levelo://app?vid=2c83906e-34b2-4de1-a842-6d257980343c","ios":"levelo://app?vid=2c83906e-34b2-4de1-a842-6d257980343c"},"vehicle_type_id":"4","last_reported":1729800589,"current_range_meters":16800,"station_id":"ce4bhqp2rcd13ifvqhog","pricing_plan_id":"cebpf4jnsgd1na2vs0mg"},{"bike_id":"f6a0b76a-a003-4830-9be9-66274ad91ac1","system_id":"levelo_inurba_marseille","lat":43.28048,"lon":5.36941,"is_reserved":false,"is_disabled":false,"rental_uris":{"android":"levelo://app?vid=f6a0b76a-a003-4830-9be9-66274ad91ac1","ios":"levelo://app?vid=f6a0b76a-a003-4830-9be9-66274ad91ac1"},"vehicle_type_id":"4","last_reported":1729800589,"current_range_meters":24800,"station_id":"ce4bha12rcd13ifvqef0","pricing_plan_id":"cebpf4jnsgd1na2vs0mg"},{"bike_id":"7d096349-669d-4d55-a580-e0332f8ba79e","system_id":"levelo_inurba_marseille","lat":43.28619,"lon":5.40122,"is_reserved":false,"is_disabled":false,"rental_uris":{"android":"levelo://app?vid=7d096349-669d-4d55-a580-e0332f8ba79e","ios":"levelo://app?vid=7d096349-669d-4d55-a580-e0332f8ba79e"},"vehicle_type_id":"4","last_reported":1729800589,"current_range_meters":2000,"station_id":"","pricing_plan_id":"cebpf4jnsgd1na2vs0mg"},{"bike_id":"1b95b40c-622e-4262-aedf-502366ac096f","system_id":"levelo_inurba_marseille","lat":43.2842,"lon":5.37511,"is_reserved":false,"is_disabled":false,"rental_uris":{"android":"levelo://app?vid=1b95b40c-622e-4262-aedf-502366ac096f","ios":"levelo://app?vid=1b95b40c-622e-4262-aedf-502366ac096f"},"vehicle_type_id":"4","last_reported":1729800589,"current_range_meters":4400,"station_id":"ce4bh412rcd13ifvqds0","pricing_plan_id":"cebpf4jnsgd1na2vs0mg"},{"bike_id":"87ebe34b-a6a0-4a0e-8406-5523611e8f5f","system_id":"levelo_inurba_marseille","lat":43.28433,"lon":5.392,"is_reserved":false,"is_disabled":false,"rental_uris":{"android":"levelo://app?vid=87ebe34b-a6a0-4a0e-8406-5523611e8f5f","ios":"levelo://app?vid=87ebe34b-a6a0-4a0e-8406-5523611e8f5f"},"vehicle_type_id":"4","last_reported":1729800589,"current_range_meters":28800,"station_id":"ce4bhoh2rcd13ifvqh5g","pricing_plan_id":"cebpf4jnsgd1na2vs0mg"},{"bike_id":"70d78abf-97dd-4b84-9d48-1abe981bdd92","system_id":"levelo_inurba_marseille","lat":43.29872,"lon":5.39724,"is_reserved":false,"is_disabled":false,"rental_uris":{"android":"levelo://app?vid=70d78abf-97dd-4b84-9d48-1abe981bdd92","ios":"levelo://app?vid=70d78abf-97dd-4b84-9d48-1abe981bdd92"},"vehicle_type_id":"4","last_reported":1729800589,"current_range_meters":14000,"station_id":"ce4bh0h2rcd13ifvqd50","pricing_plan_id":"cebpf4jnsgd1na2vs0mg"},{"bike_id":"2562f19b-0d4d-47fd-940f-69f4053ec310","system_id":"levelo_inurba_marseille","lat":43.27084,"lon":5.4228,"is_reserved":false,"is_disabled":false,"rental_uris":{"android":"levelo://app?vid=2562f19b-0d4d-47fd-940f-69f4053ec310","ios":"levelo://app?vid=2562f19b-0d4d-47fd-940f-69f4053ec310"},"vehicle_type_id":"4","last_reported":1729800589,"current_range_meters":27200,"station_id":"ce4bhk92rcd13ifvqgb0","pricing_plan_id":"cebpf4jnsgd1na2vs0mg"},{"bike_id":"a678a84f-0550-4240-b17d-5b7a54ed58a5","system_id":"levelo_inurba_marseille","lat":43.27818,"lon":5.40707,"is_reserved":false,"is_disabled":false,"rental_uris":{"android":"levelo://app?vid=a678a84f-0550-4240-b17d-5b7a54ed58a5","ios":"levelo://app?vid=a678a84f-0550-4240-b17d-5b7a54ed58a5"},"vehicle_type_id":"4","last_reported":1729800589,"current_range_meters":16400,"station_id":"ce4bhnh2rcd13ifvqgtg","pricing_plan_id":"cebpf4jnsgd1na2vs0mg"},{"bike_id":"75335f89-2788-4881-9ca0-e4126ecbdc14","system_id":"levelo_inurba_marseille","lat":43.28033,"lon":5.36946,"is_reserved":false,"is_disabled":false,"rental_uris":{"android":"levelo://app?vid=75335f89-2788-4881-9ca0-e4126ecbdc14","ios":"levelo://app?vid=75335f89-2788-4881-9ca0-e4126ecbdc14"},"vehicle_type_id":"4","last_reported":1729800589,"current_range_meters":31200,"station_id":"ce4bha12rcd13ifvqef0","pricing_plan_id":"cebpf4jnsgd1na2vs0mg"},{"bike_id":"a395113c-6783-4808-b3b4-2de5497eba3c","system_id":"levelo_inurba_marseille","lat":43.29783,"lon":5.38108,"is_reserved":false,"is_disabled":false,"rental_uris":{"android":"levelo://app?vid=a395113c-6783-4808-b3b4-2de5497eba3c","ios":"levelo://app?vid=a395113c-6783-4808-b3b4-2de5497eba3c"},"vehicle_type_id":"4","last_reported":1729800589,"current_range_meters":37600,"station_id":"ce4bgip2rcd13ifvqbb0","pricing_plan_id":"cebpf4jnsgd1na2vs0mg"},{"bike_id":"1e5ebc58-345c-4df7-a882-f10636133dc0","system_id":"levelo_inurba_marseille","lat":43.28766,"lon":5.37842,"is_reserved":false,"is_disabled":false,"rental_uris":{"android":"levelo://app?vid=1e5ebc58-345c-4df7-a882-f10636133dc0","ios":"levelo://app?vid=1e5ebc58-345c-4df7-a882-f10636133dc0"},"vehicle_type_id":"4","last_reported":1729800589,"current_range_meters":30400,"station_id":"ce4bh3p2rcd13ifvqdq0","pricing_plan_id":"cebpf4jnsgd1na2vs0mg"},{"bike_id":"f909445f-30c7-4d65-ac84-061c7acd160f","system_id":"levelo_inurba_marseille","lat":43.28437,"lon":5.39202,"is_reserved":false,"is_disabled":false,"rental_uris":{"android":"levelo://app?vid=f909445f-30c7-4d65-ac84-061c7acd160f","ios":"levelo://app?vid=f909445f-30c7-4d65-ac84-061c7acd160f"},"vehicle_type_id":"4","last_reported":1729800589,"current_range_meters":28000,"station_id":"ce4bhoh2rcd13ifvqh5g","pricing_plan_id":"cebpf4jnsgd1na2vs0mg"},{"bike_id":"69a9385d-3392-496d-a85e-8d5d817bfe52","system_id":"levelo_inurba_marseille","lat":43.31366,"lon":5.38489,"is_reserved":false,"is_disabled":false,"rental_uris":{"android":"levelo://app?vid=69a9385d-3392-496d-a85e-8d5d817bfe52","ios":"levelo://app?vid=69a9385d-3392-496d-a85e-8d5d817bfe52"},"vehicle_type_id":"4","last_reported":1729800589,"current_range_meters":34800,"station_id":"ce4bgt92rcd13ifvqcf0","pricing_plan_id":"cebpf4jnsgd1na2vs0mg"},{"bike_id":"f8c6f1bc-ea44-4ab8-b33c-f75f82cb071b","system_id":"levelo_inurba_marseille","lat":43.23185,"lon":5.39986,"is_reserved":false,"is_disabled":false,"rental_uris":{"android":"levelo://app?vid=f8c6f1bc-ea44-4ab8-b33c-f75f82cb071b","ios":"levelo://app?vid=f8c6f1bc-ea44-4ab8-b33c-f75f82cb071b"},"vehicle_type_id":"4","last_reported":1729800589,"current_range_meters":4400,"station_id":"ce4bhn12rcd13ifvqgqg","pricing_plan_id":"cebpf4jnsgd1na2vs0mg"},{"bike_id":"18ebda10-9cc5-4e55-88ad-663561fb1d9e","system_id":"levelo_inurba_marseille","lat":43.29526,"lon":5.39037,"is_reserved":false,"is_disabled":false,"rental_uris":{"android":"levelo://app?vid=18ebda10-9cc5-4e55-88ad-663561fb1d9e","ios":"levelo://app?vid=18ebda10-9cc5-4e55-88ad-663561fb1d9e"},"vehicle_type_id":"4","last_reported":1729800589,"current_range_meters":29600,"station_id":"ce4bh3p2rcd13ifvqdp0","pricing_plan_id":"cebpf4jnsgd1na2vs0mg"},{"bike_id":"07cbe27f-9a0d-4a4f-aea4-52f4e7cb881d","system_id":"levelo_inurba_marseille","lat":43.30116,"lon":5.37383,"is_reserved":false,"is_disabled":false,"rental_uris":{"android":"levelo://app?vid=07cbe27f-9a0d-4a4f-aea4-52f4e7cb881d","ios":"levelo://app?vid=07cbe27f-9a0d-4a4f-aea4-52f4e7cb881d"},"vehicle_type_id":"4","last_reported":1729800589,"current_range_meters":38800,"station_id":"ce4bgs92rcd13ifvqcc0","pricing_plan_id":"cebpf4jnsgd1na2vs0mg"},{"bike_id":"f805f0b2-f854-4c5d-91e5-3e78c0e397f8","system_id":"levelo_inurba_marseille","lat":43.2957,"lon":5.39963,"is_reserved":false,"is_disabled":false,"rental_uris":{"android":"levelo://app?vid=f805f0b2-f854-4c5d-91e5-3e78c0e397f8","ios":"levelo://app?vid=f805f0b2-f854-4c5d-91e5-3e78c0e397f8"},"vehicle_type_id":"4","last_reported":1729800589,"current_range_meters":19200,"station_id":"ce4bh312rcd13ifvqdj0","pricing_plan_id":"cebpf4jnsgd1na2vs0mg"},{"bike_id":"a7a6785c-6d8e-4aca-b8b5-e24f8e1c285b","system_id":"levelo_inurba_marseille","lat":43.26956,"lon":5.38634,"is_reserved":false,"is_disabled":false,"rental_uris":{"android":"levelo://app?vid=a7a6785c-6d8e-4aca-b8b5-e24f8e1c285b","ios":"levelo://app?vid=a7a6785c-6d8e-4aca-b8b5-e24f8e1c285b"},"vehicle_type_id":"4","last_reported":1729800589,"current_range_meters":38000,"station_id":"ce4bhh92rcd13ifvqfh0","pricing_plan_id":"cebpf4jnsgd1na2vs0mg"},{"bike_id":"8e1f71d6-3914-41b4-b57f-9c27760fbc00","system_id":"levelo_inurba_marseille","lat":43.29192,"lon":5.35799,"is_reserved":false,"is_disabled":false,"rental_uris":{"android":"levelo://app?vid=8e1f71d6-3914-41b4-b57f-9c27760fbc00","ios":"levelo://app?vid=8e1f71d6-3914-41b4-b57f-9c27760fbc00"},"vehicle_type_id":"4","last_reported":1729800589,"current_range_meters":2800,"station_id":"ce4bhb12rcd13ifvqel0","pricing_plan_id":"cebpf4jnsgd1na2vs0mg"},{"bike_id":"75ae0da9-9a8e-448f-aa17-c048e7c085b4","system_id":"levelo_inurba_marseille","lat":43.31075,"lon":5.38353,"is_reserved":false,"is_disabled":false,"rental_uris":{"android":"levelo://app?vid=75ae0da9-9a8e-448f-aa17-c048e7c085b4","ios":"levelo://app?vid=75ae0da9-9a8e-448f-aa17-c048e7c085b4"},"vehicle_type_id":"4","last_reported":1729800589,"current_range_meters":6400,"station_id":"ce4bgv92rcd13ifvqcr0","pricing_plan_id":"cebpf4jnsgd1na2vs0mg"},{"bike_id":"d2b1bdf2-4357-4fe1-9310-b780934b2159","system_id":"levelo_inurba_marseille","lat":43.32035,"lon":5.41569,"is_reserved":false,"is_disabled":false,"rental_uris":{"android":"levelo://app?vid=d2b1bdf2-4357-4fe1-9310-b780934b2159","ios":"levelo://app?vid=d2b1bdf2-4357-4fe1-9310-b780934b2159"},"vehicle_type_id":"4","last_reported":1729800589,"current_range_meters":38800,"station_id":"ce4bhq92rcd13ifvqhkg","pricing_plan_id":"cebpf4jnsgd1na2vs0mg"},{"bike_id":"08cb58f7-5914-4b8e-a368-a37e73be17c6","system_id":"levelo_inurba_marseille","lat":43.28278,"lon":5.3507,"is_reserved":false,"is_disabled":false,"rental_uris":{"android":"levelo://app?vid=08cb58f7-5914-4b8e-a368-a37e73be17c6","ios":"levelo://app?vid=08cb58f7-5914-4b8e-a368-a37e73be17c6"},"vehicle_type_id":"4","last_reported":1729800589,"current_range_meters":36800,"station_id":"ce4bhbp2rcd13ifvqerg","pricing_plan_id":"cebpf4jnsgd1na2vs0mg"},{"bike_id":"86b01cae-e8a8-4061-a15e-f28daeed7cfc","system_id":"levelo_inurba_marseille","lat":43.27951,"lon":5.395343,"is_reserved":false,"is_disabled":false,"rental_uris":{"android":"levelo://app?vid=86b01cae-e8a8-4061-a15e-f28daeed7cfc","ios":"levelo://app?vid=86b01cae-e8a8-4061-a15e-f28daeed7cfc"},"vehicle_type_id":"4","last_reported":1729800589,"current_range_meters":8400,"station_id":"ce4bhf92rcd13ifvqf40","pricing_plan_id":"cebpf4jnsgd1na2vs0mg"},{"bike_id":"e980b18d-e978-4420-8311-0cd0206d9023","system_id":"levelo_inurba_marseille","lat":43.24082,"lon":5.37759,"is_reserved":false,"is_disabled":false,"rental_uris":{"android":"levelo://app?vid=e980b18d-e978-4420-8311-0cd0206d9023","ios":"levelo://app?vid=e980b18d-e978-4420-8311-0cd0206d9023"},"vehicle_type_id":"4","last_reported":1729800589,"current_range_meters":10000,"station_id":"ce4bhnp2rcd13ifvqgvg","pricing_plan_id":"cebpf4jnsgd1na2vs0mg"},{"bike_id":"e8fb18d9-3dc4-481f-aa6a-be41126a152c","system_id":"levelo_inurba_marseille","lat":43.28001,"lon":5.40025,"is_reserved":false,"is_disabled":false,"rental_uris":{"android":"levelo://app?vid=e8fb18d9-3dc4-481f-aa6a-be41126a152c","ios":"levelo://app?vid=e8fb18d9-3dc4-481f-aa6a-be41126a152c"},"vehicle_type_id":"4","last_reported":1729800589,"current_range_meters":30400,"station_id":"ce4bho92rcd13ifvqh4g","pricing_plan_id":"cebpf4jnsgd1na2vs0mg"},{"bike_id":"4468208d-a0a9-4302-976f-4b7d3cc8f418","system_id":"levelo_inurba_marseille","lat":43.26206,"lon":5.37924,"is_reserved":false,"is_disabled":false,"rental_uris":{"android":"levelo://app?vid=4468208d-a0a9-4302-976f-4b7d3cc8f418","ios":"levelo://app?vid=4468208d-a0a9-4302-976f-4b7d3cc8f418"},"vehicle_type_id":"4","last_reported":1729800589,"current_range_meters":20800,"station_id":"ce4bhjp2rcd13ifvqg90","pricing_plan_id":"cebpf4jnsgd1na2vs0mg"},{"bike_id":"449c06dd-8d64-4f55-9d76-f86530484469","system_id":"levelo_inurba_marseille","lat":43.29055,"lon":5.37164,"is_reserved":false,"is_disabled":false,"rental_uris":{"android":"levelo://app?vid=449c06dd-8d64-4f55-9d76-f86530484469","ios":"levelo://app?vid=449c06dd-8d64-4f55-9d76-f86530484469"},"vehicle_type_id":"4","last_reported":1729800589,"current_range_meters":25200,"station_id":"ce4bh5p2rcd13ifvqe4g","pricing_plan_id":"cebpf4jnsgd1na2vs0mg"},{"bike_id":"062af97d-c391-4f60-a36b-ffd19c80733b","system_id":"levelo_inurba_marseille","lat":43.29538,"lon":5.38533,"is_reserved":false,"is_disabled":false,"rental_uris":{"android":"levelo://app?vid=062af97d-c391-4f60-a36b-ffd19c80733b","ios":"levelo://app?vid=062af97d-c391-4f60-a36b-ffd19c80733b"},"vehicle_type_id":"4","last_reported":1729800589,"current_range_meters":38800,"station_id":"ce4bgih2rcd13ifvqba0","pricing_plan_id":"cebpf4jnsgd1na2vs0mg"},{"bike_id":"f54e349c-e320-4a0b-b27d-bbe66ecc1ba5","system_id":"levelo_inurba_marseille","lat":43.29372,"lon":5.37844,"is_reserved":false,"is_disabled":false,"rental_uris":{"android":"levelo://app?vid=f54e349c-e320-4a0b-b27d-bbe66ecc1ba5","ios":"levelo://app?vid=f54e349c-e320-4a0b-b27d-bbe66ecc1ba5"},"vehicle_type_id":"4","last_reported":1729800589,"current_range_meters":3200,"station_id":"ce4bgjh2rcd13ifvqbf0","pricing_plan_id":"cebpf4jnsgd1na2vs0mg"},{"bike_id":"fe0e212b-254a-4b86-a8d9-6b0b6965fd6c","system_id":"levelo_inurba_marseille","lat":43.31486,"lon":5.37307,"is_reserved":false,"is_disabled":false,"rental_uris":{"android":"levelo://app?vid=fe0e212b-254a-4b86-a8d9-6b0b6965fd6c","ios":"levelo://app?vid=fe0e212b-254a-4b86-a8d9-6b0b6965fd6c"},"vehicle_type_id":"4","last_reported":1729800589,"current_range_meters":33200,"station_id":"ce4bgt12rcd13ifvqcd0","pricing_plan_id":"cebpf4jnsgd1na2vs0mg"},{"bike_id":"272e819b-db19-4571-879f-b4d908cbfc64","system_id":"levelo_inurba_marseille","lat":43.28908,"lon":5.36104,"is_reserved":false,"is_disabled":false,"rental_uris":{"android":"levelo://app?vid=272e819b-db19-4571-879f-b4d908cbfc64","ios":"levelo://app?vid=272e819b-db19-4571-879f-b4d908cbfc64"},"vehicle_type_id":"4","last_reported":1729800589,"current_range_meters":22000,"station_id":"","pricing_plan_id":"cebpf4jnsgd1na2vs0mg"},{"bike_id":"856d115a-8f1b-4d78-a4f5-e6563030d0a3","system_id":"levelo_inurba_marseille","lat":43.23961,"lon":5.36632,"is_reserved":false,"is_disabled":false,"rental_uris":{"android":"levelo://app?vid=856d115a-8f1b-4d78-a4f5-e6563030d0a3","ios":"levelo://app?vid=856d115a-8f1b-4d78-a4f5-e6563030d0a3"},"vehicle_type_id":"4","last_reported":1729800589,"current_range_meters":36800,"station_id":"ce4bhi12rcd13ifvqfp0","pricing_plan_id":"cebpf4jnsgd1na2vs0mg"},{"bike_id":"97ec9672-eea4-4d9a-8a25-013f09b65b94","system_id":"levelo_inurba_marseille","lat":43.25592,"lon":5.38232,"is_reserved":false,"is_disabled":false,"rental_uris":{"android":"levelo://app?vid=97ec9672-eea4-4d9a-8a25-013f09b65b94","ios":"levelo://app?vid=97ec9672-eea4-4d9a-8a25-013f09b65b94"},"vehicle_type_id":"4","last_reported":1729800589,"current_range_meters":6000,"station_id":"ce4bhih2rcd13ifvqfs0","pricing_plan_id":"cebpf4jnsgd1na2vs0mg"},{"bike_id":"1c94711f-6e8d-4080-84e2-4aabc2656ca2","system_id":"levelo_inurba_marseille","lat":43.3133,"lon":5.39702,"is_reserved":false,"is_disabled":false,"rental_uris":{"android":"levelo://app?vid=1c94711f-6e8d-4080-84e2-4aabc2656ca2","ios":"levelo://app?vid=1c94711f-6e8d-4080-84e2-4aabc2656ca2"},"vehicle_type_id":"4","last_reported":1729800589,"current_range_meters":38800,"station_id":"ce4bgvp2rcd13ifvqcu0","pricing_plan_id":"cebpf4jnsgd1na2vs0mg"},{"bike_id":"bebd8251-2a0e-424a-a2c9-94c8dedde414","system_id":"levelo_inurba_marseille","lat":43.2844,"lon":5.39176,"is_reserved":false,"is_disabled":false,"rental_uris":{"android":"levelo://app?vid=bebd8251-2a0e-424a-a2c9-94c8dedde414","ios":"levelo://app?vid=bebd8251-2a0e-424a-a2c9-94c8dedde414"},"vehicle_type_id":"4","last_reported":1729800589,"current_range_meters":8000,"station_id":"ce4bhoh2rcd13ifvqh5g","pricing_plan_id":"cebpf4jnsgd1na2vs0mg"},{"bike_id":"9186ad6f-a65f-46c8-892a-f1dc3026d6ea","system_id":"levelo_inurba_marseille","lat":43.28105,"lon":5.3785,"is_reserved":false,"is_disabled":false,"rental_uris":{"android":"levelo://app?vid=9186ad6f-a65f-46c8-892a-f1dc3026d6ea","ios":"levelo://app?vid=9186ad6f-a65f-46c8-892a-f1dc3026d6ea"},"vehicle_type_id":"4","last_reported":1729800589,"current_range_meters":27200,"station_id":"ce4bha12rcd13ifvqee0","pricing_plan_id":"cebpf4jnsgd1na2vs0mg"},{"bike_id":"ab15f957-1cff-41c4-9218-cbf90a4a7a9e","system_id":"levelo_inurba_marseille","lat":43.283612,"lon":5.386383,"is_reserved":false,"is_disabled":false,"rental_uris":{"android":"levelo://app?vid=ab15f957-1cff-41c4-9218-cbf90a4a7a9e","ios":"levelo://app?vid=ab15f957-1cff-41c4-9218-cbf90a4a7a9e"},"vehicle_type_id":"4","last_reported":1729800589,"current_range_meters":31200,"station_id":"ce4bh492rcd13ifvqdvg","pricing_plan_id":"cebpf4jnsgd1na2vs0mg"},{"bike_id":"16bd0a14-6126-4d4d-ab5a-55e7218ae5a5","system_id":"levelo_inurba_marseille","lat":43.29711,"lon":5.36332,"is_reserved":false,"is_disabled":false,"rental_uris":{"android":"levelo://app?vid=16bd0a14-6126-4d4d-ab5a-55e7218ae5a5","ios":"levelo://app?vid=16bd0a14-6126-4d4d-ab5a-55e7218ae5a5"},"vehicle_type_id":"4","last_reported":1729800589,"current_range_meters":36400,"station_id":"","pricing_plan_id":"cebpf4jnsgd1na2vs0mg"},{"bike_id":"aab848b2-16c1-47f2-96ca-991a72d8d00c","system_id":"levelo_inurba_marseille","lat":43.29213,"lon":5.39326,"is_reserved":false,"is_disabled":false,"rental_uris":{"android":"levelo://app?vid=aab848b2-16c1-47f2-96ca-991a72d8d00c","ios":"levelo://app?vid=aab848b2-16c1-47f2-96ca-991a72d8d00c"},"vehicle_type_id":"4","last_reported":1729800589,"current_range_meters":14800,"station_id":"ce4bh192rcd13ifvqdd0","pricing_plan_id":"cebpf4jnsgd1na2vs0mg"},{"bike_id":"9c980766-3696-42be-8e1a-d22fb6edb5c5","system_id":"levelo_inurba_marseille","lat":43.30661,"lon":5.38158,"is_reserved":false,"is_disabled":false,"rental_uris":{"android":"levelo://app?vid=9c980766-3696-42be-8e1a-d22fb6edb5c5","ios":"levelo://app?vid=9c980766-3696-42be-8e1a-d22fb6edb5c5"},"vehicle_type_id":"4","last_reported":1729800589,"current_range_meters":27200,"station_id":"","pricing_plan_id":"cebpf4jnsgd1na2vs0mg"},{"bike_id":"533cee33-1b4a-44e2-adb6-9c6026c882ce","system_id":"levelo_inurba_marseille","lat":43.29023,"lon":5.39967,"is_reserved":false,"is_disabled":false,"rental_uris":{"android":"levelo://app?vid=533cee33-1b4a-44e2-adb6-9c6026c882ce","ios":"levelo://app?vid=533cee33-1b4a-44e2-adb6-9c6026c882ce"},"vehicle_type_id":"4","last_reported":1729800589,"current_range_meters":18800,"station_id":"ce4bh392rcd13ifvqdm0","pricing_plan_id":"cebpf4jnsgd1na2vs0mg"},{"bike_id":"6fd4971a-db3f-4826-9ddf-71b29c3b9231","system_id":"levelo_inurba_marseille","lat":43.27826,"lon":5.40716,"is_reserved":false,"is_disabled":false,"rental_uris":{"android":"levelo://app?vid=6fd4971a-db3f-4826-9ddf-71b29c3b9231","ios":"levelo://app?vid=6fd4971a-db3f-4826-9ddf-71b29c3b9231"},"vehicle_type_id":"4","last_reported":1729800589,"current_range_meters":18800,"station_id":"ce4bhnh2rcd13ifvqgtg","pricing_plan_id":"cebpf4jnsgd1na2vs0mg"},{"bike_id":"52f0e4a5-d535-4f96-b297-18be6815ac33","system_id":"levelo_inurba_marseille","lat":43.33736,"lon":5.3918,"is_reserved":false,"is_disabled":false,"rental_uris":{"android":"levelo://app?vid=52f0e4a5-d535-4f96-b297-18be6815ac33","ios":"levelo://app?vid=52f0e4a5-d535-4f96-b297-18be6815ac33"},"vehicle_type_id":"4","last_reported":1729800589,"current_range_meters":38800,"station_id":"ce4bhr92rcd13ifvqhsg","pricing_plan_id":"cebpf4jnsgd1na2vs0mg"},{"bike_id":"754334dc-7c77-42cd-ae7c-2bd7ea4eeedc","system_id":"levelo_inurba_marseille","lat":43.25088,"lon":5.3952,"is_reserved":false,"is_disabled":false,"rental_uris":{"android":"levelo://app?vid=754334dc-7c77-42cd-ae7c-2bd7ea4eeedc","ios":"levelo://app?vid=754334dc-7c77-42cd-ae7c-2bd7ea4eeedc"},"vehicle_type_id":"4","last_reported":1729800589,"current_range_meters":32000,"station_id":"ce4bhm12rcd13ifvqgkg","pricing_plan_id":"cebpf4jnsgd1na2vs0mg"},{"bike_id":"ddc9d34a-3a18-4656-afac-2c40e00335c6","system_id":"levelo_inurba_marseille","lat":43.26488,"lon":5.39557,"is_reserved":false,"is_disabled":false,"rental_uris":{"android":"levelo://app?vid=ddc9d34a-3a18-4656-afac-2c40e00335c6","ios":"levelo://app?vid=ddc9d34a-3a18-4656-afac-2c40e00335c6"},"vehicle_type_id":"4","last_reported":1729800589,"current_range_meters":16400,"station_id":"ce4bhi12rcd13ifvqfq0","pricing_plan_id":"cebpf4jnsgd1na2vs0mg"},{"bike_id":"9037cf40-4cd2-48a0-924f-d2172f0fabb6","system_id":"levelo_inurba_marseille","lat":43.2942,"lon":5.3861,"is_reserved":false,"is_disabled":false,"rental_uris":{"android":"levelo://app?vid=9037cf40-4cd2-48a0-924f-d2172f0fabb6","ios":"levelo://app?vid=9037cf40-4cd2-48a0-924f-d2172f0fabb6"},"vehicle_type_id":"4","last_reported":1729800589,"current_range_meters":31200,"station_id":"ce4bh2h2rcd13ifvqdh0","pricing_plan_id":"cebpf4jnsgd1na2vs0mg"},{"bike_id":"0de09ea7-d428-4e7c-8971-f54aa3edc19b","system_id":"levelo_inurba_marseille","lat":43.29877,"lon":5.39732,"is_reserved":false,"is_disabled":false,"rental_uris":{"android":"levelo://app?vid=0de09ea7-d428-4e7c-8971-f54aa3edc19b","ios":"levelo://app?vid=0de09ea7-d428-4e7c-8971-f54aa3edc19b"},"vehicle_type_id":"4","last_reported":1729800589,"current_range_meters":32800,"station_id":"ce4bh0h2rcd13ifvqd50","pricing_plan_id":"cebpf4jnsgd1na2vs0mg"},{"bike_id":"feda9bc1-b886-4640-ad92-201ddc16513e","system_id":"levelo_inurba_marseille","lat":43.32299,"lon":5.38263,"is_reserved":false,"is_disabled":false,"rental_uris":{"android":"levelo://app?vid=feda9bc1-b886-4640-ad92-201ddc16513e","ios":"levelo://app?vid=feda9bc1-b886-4640-ad92-201ddc16513e"},"vehicle_type_id":"4","last_reported":1729800589,"current_range_meters":38800,"station_id":"ce4bhr12rcd13ifvqhqg","pricing_plan_id":"cebpf4jnsgd1na2vs0mg"},{"bike_id":"165157b8-3070-4726-b7ff-3989268fee72","system_id":"levelo_inurba_marseille","lat":43.24394,"lon":5.37058,"is_reserved":false,"is_disabled":false,"rental_uris":{"android":"levelo://app?vid=165157b8-3070-4726-b7ff-3989268fee72","ios":"levelo://app?vid=165157b8-3070-4726-b7ff-3989268fee72"},"vehicle_type_id":"4","last_reported":1729800589,"current_range_meters":4800,"station_id":"ce4bhhh2rcd13ifvqfk0","pricing_plan_id":"cebpf4jnsgd1na2vs0mg"},{"bike_id":"175f6642-d715-4382-b94a-8e1d0ccab70d","system_id":"levelo_inurba_marseille","lat":43.30927,"lon":5.36847,"is_reserved":false,"is_disabled":false,"rental_uris":{"android":"levelo://app?vid=175f6642-d715-4382-b94a-8e1d0ccab70d","ios":"levelo://app?vid=175f6642-d715-4382-b94a-8e1d0ccab70d"},"vehicle_type_id":"4","last_reported":1729800589,"current_range_meters":16800,"station_id":"ce4bgn92rcd13ifvqbvg","pricing_plan_id":"cebpf4jnsgd1na2vs0mg"},{"bike_id":"3ef229a2-4456-457c-9d6c-90742d127413","system_id":"levelo_inurba_marseille","lat":43.29041,"lon":5.3756,"is_reserved":false,"is_disabled":false,"rental_uris":{"android":"levelo://app?vid=3ef229a2-4456-457c-9d6c-90742d127413","ios":"levelo://app?vid=3ef229a2-4456-457c-9d6c-90742d127413"},"vehicle_type_id":"4","last_reported":1729800589,"current_range_meters":25600,"station_id":"ce4bh692rcd13ifvqe90","pricing_plan_id":"cebpf4jnsgd1na2vs0mg"},{"bike_id":"1e408a22-de28-4c87-8b54-db3b5960cfda","system_id":"levelo_inurba_marseille","lat":43.29536,"lon":5.37498,"is_reserved":false,"is_disabled":false,"rental_uris":{"android":"levelo://app?vid=1e408a22-de28-4c87-8b54-db3b5960cfda","ios":"levelo://app?vid=1e408a22-de28-4c87-8b54-db3b5960cfda"},"vehicle_type_id":"4","last_reported":1729800589,"current_range_meters":25600,"station_id":"ce4bgkp2rcd13ifvqbmg","pricing_plan_id":"cebpf4jnsgd1na2vs0mg"},{"bike_id":"479c609a-968f-4219-9060-83b448734e72","system_id":"levelo_inurba_marseille","lat":43.29421,"lon":5.38606,"is_reserved":false,"is_disabled":false,"rental_uris":{"android":"levelo://app?vid=479c609a-968f-4219-9060-83b448734e72","ios":"levelo://app?vid=479c609a-968f-4219-9060-83b448734e72"},"vehicle_type_id":"4","last_reported":1729800589,"current_range_meters":38800,"station_id":"ce4bh2h2rcd13ifvqdh0","pricing_plan_id":"cebpf4jnsgd1na2vs0mg"},{"bike_id":"8868fcb3-96df-4263-9338-577d1c0797d2","system_id":"levelo_inurba_marseille","lat":43.29629,"lon":5.40597,"is_reserved":false,"is_disabled":false,"rental_uris":{"android":"levelo://app?vid=8868fcb3-96df-4263-9338-577d1c0797d2","ios":"levelo://app?vid=8868fcb3-96df-4263-9338-577d1c0797d2"},"vehicle_type_id":"4","last_reported":1729800589,"current_range_meters":36800,"station_id":"ce4bh0h2rcd13ifvqd60","pricing_plan_id":"cebpf4jnsgd1na2vs0mg"},{"bike_id":"ed7871e6-6d36-4ef6-add3-59511b26fb6a","system_id":"levelo_inurba_marseille","lat":43.27954,"lon":5.41046,"is_reserved":false,"is_disabled":false,"rental_uris":{"android":"levelo://app?vid=ed7871e6-6d36-4ef6-add3-59511b26fb6a","ios":"levelo://app?vid=ed7871e6-6d36-4ef6-add3-59511b26fb6a"},"vehicle_type_id":"4","last_reported":1729800589,"current_range_meters":38800,"station_id":"ce4bhnp2rcd13ifvqh0g","pricing_plan_id":"cebpf4jnsgd1na2vs0mg"},{"bike_id":"2bdc5320-c069-4252-8fc7-f029d0aba34d","system_id":"levelo_inurba_marseille","lat":43.2559,"lon":5.38244,"is_reserved":false,"is_disabled":false,"rental_uris":{"android":"levelo://app?vid=2bdc5320-c069-4252-8fc7-f029d0aba34d","ios":"levelo://app?vid=2bdc5320-c069-4252-8fc7-f029d0aba34d"},"vehicle_type_id":"4","last_reported":1729800589,"current_range_meters":28000,"station_id":"ce4bhih2rcd13ifvqfs0","pricing_plan_id":"cebpf4jnsgd1na2vs0mg"},{"bike_id":"7691659f-eea1-4b4d-8db5-2728fcde3a23","system_id":"levelo_inurba_marseille","lat":43.30598,"lon":5.37461,"is_reserved":false,"is_disabled":false,"rental_uris":{"android":"levelo://app?vid=7691659f-eea1-4b4d-8db5-2728fcde3a23","ios":"levelo://app?vid=7691659f-eea1-4b4d-8db5-2728fcde3a23"},"vehicle_type_id":"4","last_reported":1729800589,"current_range_meters":27600,"station_id":"ce4bhr12rcd13ifvqhqg","pricing_plan_id":"cebpf4jnsgd1na2vs0mg"},{"bike_id":"6e1dd315-207f-4544-9fcd-402528e8d2ee","system_id":"levelo_inurba_marseille","lat":43.28159,"lon":5.42639,"is_reserved":false,"is_disabled":false,"rental_uris":{"android":"levelo://app?vid=6e1dd315-207f-4544-9fcd-402528e8d2ee","ios":"levelo://app?vid=6e1dd315-207f-4544-9fcd-402528e8d2ee"},"vehicle_type_id":"4","last_reported":1729800589,"current_range_meters":15200,"station_id":"ce4bho92rcd13ifvqh4g","pricing_plan_id":"cebpf4jnsgd1na2vs0mg"},{"bike_id":"b3c5c80d-fb10-447a-a7ae-9e83cf2e8853","system_id":"levelo_inurba_marseille","lat":43.27949,"lon":5.41042,"is_reserved":false,"is_disabled":false,"rental_uris":{"android":"levelo://app?vid=b3c5c80d-fb10-447a-a7ae-9e83cf2e8853","ios":"levelo://app?vid=b3c5c80d-fb10-447a-a7ae-9e83cf2e8853"},"vehicle_type_id":"4","last_reported":1729800589,"current_range_meters":36400,"station_id":"ce4bhnp2rcd13ifvqh0g","pricing_plan_id":"cebpf4jnsgd1na2vs0mg"},{"bike_id":"02578664-e44d-44a9-8726-802680ea0dbf","system_id":"levelo_inurba_marseille","lat":43.25088,"lon":5.395204,"is_reserved":false,"is_disabled":false,"rental_uris":{"android":"levelo://app?vid=02578664-e44d-44a9-8726-802680ea0dbf","ios":"levelo://app?vid=02578664-e44d-44a9-8726-802680ea0dbf"},"vehicle_type_id":"4","last_reported":1729800589,"current_range_meters":38800,"station_id":"ce4bhm12rcd13ifvqgkg","pricing_plan_id":"cebpf4jnsgd1na2vs0mg"},{"bike_id":"d9bd67b1-0c85-4cf7-bec8-f00414e9e126","system_id":"levelo_inurba_marseille","lat":43.25871,"lon":5.39895,"is_reserved":false,"is_disabled":false,"rental_uris":{"android":"levelo://app?vid=d9bd67b1-0c85-4cf7-bec8-f00414e9e126","ios":"levelo://app?vid=d9bd67b1-0c85-4cf7-bec8-f00414e9e126"},"vehicle_type_id":"4","last_reported":1729800589,"current_range_meters":28800,"station_id":"ce4bhl92rcd13ifvqghg","pricing_plan_id":"cebpf4jnsgd1na2vs0mg"},{"bike_id":"228c2a65-a88a-474e-baae-39029ce20359","system_id":"levelo_inurba_marseille","lat":43.24089,"lon":5.37745,"is_reserved":false,"is_disabled":false,"rental_uris":{"android":"levelo://app?vid=228c2a65-a88a-474e-baae-39029ce20359","ios":"levelo://app?vid=228c2a65-a88a-474e-baae-39029ce20359"},"vehicle_type_id":"4","last_reported":1729800589,"current_range_meters":18000,"station_id":"ce4bhnp2rcd13ifvqgvg","pricing_plan_id":"cebpf4jnsgd1na2vs0mg"},{"bike_id":"6355c8f5-ce50-4d1b-a1a4-6f1f09d2f506","system_id":"levelo_inurba_marseille","lat":43.28458,"lon":5.39192,"is_reserved":false,"is_disabled":false,"rental_uris":{"android":"levelo://app?vid=6355c8f5-ce50-4d1b-a1a4-6f1f09d2f506","ios":"levelo://app?vid=6355c8f5-ce50-4d1b-a1a4-6f1f09d2f506"},"vehicle_type_id":"4","last_reported":1729800589,"current_range_meters":25600,"station_id":"ce4bhoh2rcd13ifvqh5g","pricing_plan_id":"cebpf4jnsgd1na2vs0mg"},{"bike_id":"59519303-478b-4b2d-a90c-6f27e032214e","system_id":"levelo_inurba_marseille","lat":43.31283,"lon":5.4017,"is_reserved":false,"is_disabled":false,"rental_uris":{"android":"levelo://app?vid=59519303-478b-4b2d-a90c-6f27e032214e","ios":"levelo://app?vid=59519303-478b-4b2d-a90c-6f27e032214e"},"vehicle_type_id":"4","last_reported":1729800589,"current_range_meters":38800,"station_id":"ce4bh092rcd13ifvqd30","pricing_plan_id":"cebpf4jnsgd1na2vs0mg"},{"bike_id":"f6725a65-3f44-453e-9350-d809f9d15454","system_id":"levelo_inurba_marseille","lat":43.29416,"lon":5.38608,"is_reserved":false,"is_disabled":false,"rental_uris":{"android":"levelo://app?vid=f6725a65-3f44-453e-9350-d809f9d15454","ios":"levelo://app?vid=f6725a65-3f44-453e-9350-d809f9d15454"},"vehicle_type_id":"4","last_reported":1729800589,"current_range_meters":16800,"station_id":"ce4bh2h2rcd13ifvqdh0","pricing_plan_id":"cebpf4jnsgd1na2vs0mg"},{"bike_id":"4dd31ff6-720e-493b-9ff7-66567e10b02b","system_id":"levelo_inurba_marseille","lat":43.28385,"lon":5.38644,"is_reserved":false,"is_disabled":false,"rental_uris":{"android":"levelo://app?vid=4dd31ff6-720e-493b-9ff7-66567e10b02b","ios":"levelo://app?vid=4dd31ff6-720e-493b-9ff7-66567e10b02b"},"vehicle_type_id":"4","last_reported":1729800589,"current_range_meters":38000,"station_id":"ce4bh492rcd13ifvqdvg","pricing_plan_id":"cebpf4jnsgd1na2vs0mg"},{"bike_id":"0ac2b4b1-8b19-423d-8023-dbb94d38427f","system_id":"levelo_inurba_marseille","lat":43.24071,"lon":5.37765,"is_reserved":false,"is_disabled":false,"rental_uris":{"android":"levelo://app?vid=0ac2b4b1-8b19-423d-8023-dbb94d38427f","ios":"levelo://app?vid=0ac2b4b1-8b19-423d-8023-dbb94d38427f"},"vehicle_type_id":"4","last_reported":1729800589,"current_range_meters":33200,"station_id":"ce4bhnp2rcd13ifvqgvg","pricing_plan_id":"cebpf4jnsgd1na2vs0mg"},{"bike_id":"9c650075-c14b-4353-b2fb-1e31d2402e37","system_id":"levelo_inurba_marseille","lat":43.2481,"lon":5.37461,"is_reserved":false,"is_disabled":false,"rental_uris":{"android":"levelo://app?vid=9c650075-c14b-4353-b2fb-1e31d2402e37","ios":"levelo://app?vid=9c650075-c14b-4353-b2fb-1e31d2402e37"},"vehicle_type_id":"4","last_reported":1729800589,"current_range_meters":9600,"station_id":"ce4bhgh2rcd13ifvqfb0","pricing_plan_id":"cebpf4jnsgd1na2vs0mg"},{"bike_id":"66f020ae-5526-4ad0-8af9-6a968240ac52","system_id":"levelo_inurba_marseille","lat":43.32499,"lon":5.36586,"is_reserved":false,"is_disabled":false,"rental_uris":{"android":"levelo://app?vid=66f020ae-5526-4ad0-8af9-6a968240ac52","ios":"levelo://app?vid=66f020ae-5526-4ad0-8af9-6a968240ac52"},"vehicle_type_id":"4","last_reported":1729800589,"current_range_meters":38800,"station_id":"ce4bhs12rcd13ifvqhvg","pricing_plan_id":"cebpf4jnsgd1na2vs0mg"},{"bike_id":"16e3e0e5-bd85-4fd2-b857-f3c660d4ae0d","system_id":"levelo_inurba_marseille","lat":43.24076,"lon":5.37758,"is_reserved":false,"is_disabled":false,"rental_uris":{"android":"levelo://app?vid=16e3e0e5-bd85-4fd2-b857-f3c660d4ae0d","ios":"levelo://app?vid=16e3e0e5-bd85-4fd2-b857-f3c660d4ae0d"},"vehicle_type_id":"4","last_reported":1729800589,"current_range_meters":36800,"station_id":"ce4bhnp2rcd13ifvqgvg","pricing_plan_id":"cebpf4jnsgd1na2vs0mg"},{"bike_id":"115d5fc3-137b-4fe0-8308-b1a056809a27","system_id":"levelo_inurba_marseille","lat":43.29687,"lon":5.36594,"is_reserved":false,"is_disabled":false,"rental_uris":{"android":"levelo://app?vid=115d5fc3-137b-4fe0-8308-b1a056809a27","ios":"levelo://app?vid=115d5fc3-137b-4fe0-8308-b1a056809a27"},"vehicle_type_id":"4","last_reported":1729800589,"current_range_meters":24400,"station_id":"ce4bgn12rcd13ifvqbt0","pricing_plan_id":"cebpf4jnsgd1na2vs0mg"},{"bike_id":"97ec344c-b798-43c2-b569-284527c7dc58","system_id":"levelo_inurba_marseille","lat":43.32488,"lon":5.36499,"is_reserved":false,"is_disabled":false,"rental_uris":{"android":"levelo://app?vid=97ec344c-b798-43c2-b569-284527c7dc58","ios":"levelo://app?vid=97ec344c-b798-43c2-b569-284527c7dc58"},"vehicle_type_id":"4","last_reported":1729800589,"current_range_meters":6400,"station_id":"ce4bhs12rcd13ifvqhvg","pricing_plan_id":"cebpf4jnsgd1na2vs0mg"},{"bike_id":"d897818e-a5c8-4458-9452-797090737b17","system_id":"levelo_inurba_marseille","lat":43.28164,"lon":5.42639,"is_reserved":false,"is_disabled":false,"rental_uris":{"android":"levelo://app?vid=d897818e-a5c8-4458-9452-797090737b17","ios":"levelo://app?vid=d897818e-a5c8-4458-9452-797090737b17"},"vehicle_type_id":"4","last_reported":1729800589,"current_range_meters":38800,"station_id":"ce4bhnh2rcd13ifvqgug","pricing_plan_id":"cebpf4jnsgd1na2vs0mg"},{"bike_id":"1d15ac73-6e76-4395-89a2-64db7c2bf2ea","system_id":"levelo_inurba_marseille","lat":43.30603,"lon":5.39343,"is_reserved":false,"is_disabled":false,"rental_uris":{"android":"levelo://app?vid=1d15ac73-6e76-4395-89a2-64db7c2bf2ea","ios":"levelo://app?vid=1d15ac73-6e76-4395-89a2-64db7c2bf2ea"},"vehicle_type_id":"4","last_reported":1729800589,"current_range_meters":38000,"station_id":"ce4bh0p2rcd13ifvqd80","pricing_plan_id":"cebpf4jnsgd1na2vs0mg"},{"bike_id":"25440bb3-4542-49e6-b032-eeb91e289425","system_id":"levelo_inurba_marseille","lat":43.30188,"lon":5.36621,"is_reserved":false,"is_disabled":false,"rental_uris":{"android":"levelo://app?vid=25440bb3-4542-49e6-b032-eeb91e289425","ios":"levelo://app?vid=25440bb3-4542-49e6-b032-eeb91e289425"},"vehicle_type_id":"4","last_reported":1729800589,"current_range_meters":12400,"station_id":"ce4bgrh2rcd13ifvqc8g","pricing_plan_id":"cebpf4jnsgd1na2vs0mg"},{"bike_id":"f5d2ca1e-0ed9-4331-bede-16b76d88db90","system_id":"levelo_inurba_marseille","lat":43.32101,"lon":5.41067,"is_reserved":false,"is_disabled":false,"rental_uris":{"android":"levelo://app?vid=f5d2ca1e-0ed9-4331-bede-16b76d88db90","ios":"levelo://app?vid=f5d2ca1e-0ed9-4331-bede-16b76d88db90"},"vehicle_type_id":"4","last_reported":1729800589,"current_range_meters":5600,"station_id":"ce4bhqh2rcd13ifvqhmg","pricing_plan_id":"cebpf4jnsgd1na2vs0mg"},{"bike_id":"43c66963-fc63-44d3-b353-fd9451fe9754","system_id":"levelo_inurba_marseille","lat":43.29271,"lon":5.38437,"is_reserved":false,"is_disabled":false,"rental_uris":{"android":"levelo://app?vid=43c66963-fc63-44d3-b353-fd9451fe9754","ios":"levelo://app?vid=43c66963-fc63-44d3-b353-fd9451fe9754"},"vehicle_type_id":"4","last_reported":1729800589,"current_range_meters":26800,"station_id":"ce4bh692rcd13ifvqea0","pricing_plan_id":"cebpf4jnsgd1na2vs0mg"},{"bike_id":"b7a5234c-b456-499e-9e39-8364a5fe813e","system_id":"levelo_inurba_marseille","lat":43.3014,"lon":5.37415,"is_reserved":false,"is_disabled":false,"rental_uris":{"android":"levelo://app?vid=b7a5234c-b456-499e-9e39-8364a5fe813e","ios":"levelo://app?vid=b7a5234c-b456-499e-9e39-8364a5fe813e"},"vehicle_type_id":"4","last_reported":1729800589,"current_range_meters":39200,"station_id":"ce4bgs92rcd13ifvqcc0","pricing_plan_id":"cebpf4jnsgd1na2vs0mg"},{"bike_id":"0bc90dc2-cf8c-457e-a6aa-9b91de95f992","system_id":"levelo_inurba_marseille","lat":43.22757,"lon":5.41577,"is_reserved":false,"is_disabled":false,"rental_uris":{"android":"levelo://app?vid=0bc90dc2-cf8c-457e-a6aa-9b91de95f992","ios":"levelo://app?vid=0bc90dc2-cf8c-457e-a6aa-9b91de95f992"},"vehicle_type_id":"4","last_reported":1729800589,"current_range_meters":30800,"station_id":"","pricing_plan_id":"cebpf4jnsgd1na2vs0mg"},{"bike_id":"f461867a-23d9-4f36-9d1d-836c1f11d590","system_id":"levelo_inurba_marseille","lat":43.30147,"lon":5.37415,"is_reserved":false,"is_disabled":false,"rental_uris":{"android":"levelo://app?vid=f461867a-23d9-4f36-9d1d-836c1f11d590","ios":"levelo://app?vid=f461867a-23d9-4f36-9d1d-836c1f11d590"},"vehicle_type_id":"4","last_reported":1729800589,"current_range_meters":31200,"station_id":"ce4bgs92rcd13ifvqcc0","pricing_plan_id":"cebpf4jnsgd1na2vs0mg"},{"bike_id":"49fb16d2-6117-4fe1-9256-68ae1d341abd","system_id":"levelo_inurba_marseille","lat":43.28154,"lon":5.42649,"is_reserved":false,"is_disabled":false,"rental_uris":{"android":"levelo://app?vid=49fb16d2-6117-4fe1-9256-68ae1d341abd","ios":"levelo://app?vid=49fb16d2-6117-4fe1-9256-68ae1d341abd"},"vehicle_type_id":"4","last_reported":1729800589,"current_range_meters":23200,"station_id":"ce4bhnh2rcd13ifvqgug","pricing_plan_id":"cebpf4jnsgd1na2vs0mg"},{"bike_id":"a2473142-94f8-49f6-a40b-21cfc06b5795","system_id":"levelo_inurba_marseille","lat":43.26206,"lon":5.37916,"is_reserved":false,"is_disabled":false,"rental_uris":{"android":"levelo://app?vid=a2473142-94f8-49f6-a40b-21cfc06b5795","ios":"levelo://app?vid=a2473142-94f8-49f6-a40b-21cfc06b5795"},"vehicle_type_id":"4","last_reported":1729800589,"current_range_meters":28800,"station_id":"ce4bhjp2rcd13ifvqg90","pricing_plan_id":"cebpf4jnsgd1na2vs0mg"},{"bike_id":"97016870-edf0-4ee6-8329-29a4610e4f6d","system_id":"levelo_inurba_marseille","lat":43.29416,"lon":5.38624,"is_reserved":false,"is_disabled":false,"rental_uris":{"android":"levelo://app?vid=97016870-edf0-4ee6-8329-29a4610e4f6d","ios":"levelo://app?vid=97016870-edf0-4ee6-8329-29a4610e4f6d"},"vehicle_type_id":"4","last_reported":1729800589,"current_range_meters":14400,"station_id":"ce4bh2h2rcd13ifvqdh0","pricing_plan_id":"cebpf4jnsgd1na2vs0mg"},{"bike_id":"3d814bc8-7cde-42dc-be31-b3ae59f20bd8","system_id":"levelo_inurba_marseille","lat":43.30818,"lon":5.39604,"is_reserved":false,"is_disabled":false,"rental_uris":{"android":"levelo://app?vid=3d814bc8-7cde-42dc-be31-b3ae59f20bd8","ios":"levelo://app?vid=3d814bc8-7cde-42dc-be31-b3ae59f20bd8"},"vehicle_type_id":"4","last_reported":1729800589,"current_range_meters":34000,"station_id":"","pricing_plan_id":"cebpf4jnsgd1na2vs0mg"},{"bike_id":"b6e5dac2-9b52-485f-b66b-c2ea8fb78c37","system_id":"levelo_inurba_marseille","lat":43.29416,"lon":5.38627,"is_reserved":false,"is_disabled":false,"rental_uris":{"android":"levelo://app?vid=b6e5dac2-9b52-485f-b66b-c2ea8fb78c37","ios":"levelo://app?vid=b6e5dac2-9b52-485f-b66b-c2ea8fb78c37"},"vehicle_type_id":"4","last_reported":1729800589,"current_range_meters":38800,"station_id":"ce4bh2h2rcd13ifvqdh0","pricing_plan_id":"cebpf4jnsgd1na2vs0mg"},{"bike_id":"a27f9984-6858-4f00-9492-1bb69d41b14a","system_id":"levelo_inurba_marseille","lat":43.26222,"lon":5.37455,"is_reserved":false,"is_disabled":false,"rental_uris":{"android":"levelo://app?vid=a27f9984-6858-4f00-9492-1bb69d41b14a","ios":"levelo://app?vid=a27f9984-6858-4f00-9492-1bb69d41b14a"},"vehicle_type_id":"4","last_reported":1729800589,"current_range_meters":6400,"station_id":"ce4bhgp2rcd13ifvqfc0","pricing_plan_id":"cebpf4jnsgd1na2vs0mg"},{"bike_id":"a7723888-99c9-4ba3-916e-ca30da4945d8","system_id":"levelo_inurba_marseille","lat":43.24081,"lon":5.37755,"is_reserved":false,"is_disabled":false,"rental_uris":{"android":"levelo://app?vid=a7723888-99c9-4ba3-916e-ca30da4945d8","ios":"levelo://app?vid=a7723888-99c9-4ba3-916e-ca30da4945d8"},"vehicle_type_id":"4","last_reported":1729800589,"current_range_meters":12800,"station_id":"ce4bhnp2rcd13ifvqgvg","pricing_plan_id":"cebpf4jnsgd1na2vs0mg"},{"bike_id":"356044bf-0c96-4402-90d6-c5c73e94d11c","system_id":"levelo_inurba_marseille","lat":43.29256,"lon":5.38439,"is_reserved":false,"is_disabled":false,"rental_uris":{"android":"levelo://app?vid=356044bf-0c96-4402-90d6-c5c73e94d11c","ios":"levelo://app?vid=356044bf-0c96-4402-90d6-c5c73e94d11c"},"vehicle_type_id":"4","last_reported":1729800589,"current_range_meters":26000,"station_id":"ce4bh692rcd13ifvqea0","pricing_plan_id":"cebpf4jnsgd1na2vs0mg"},{"bike_id":"b3208fcd-6191-47bf-b053-236a883f284e","system_id":"levelo_inurba_marseille","lat":43.30466,"lon":5.37901,"is_reserved":false,"is_disabled":false,"rental_uris":{"android":"levelo://app?vid=b3208fcd-6191-47bf-b053-236a883f284e","ios":"levelo://app?vid=b3208fcd-6191-47bf-b053-236a883f284e"},"vehicle_type_id":"4","last_reported":1729800589,"current_range_meters":39200,"station_id":"ce4bgup2rcd13ifvqcn0","pricing_plan_id":"cebpf4jnsgd1na2vs0mg"},{"bike_id":"10baa727-1d41-4df3-ab25-23dbd3f4e123","system_id":"levelo_inurba_marseille","lat":43.27155,"lon":5.4094,"is_reserved":false,"is_disabled":false,"rental_uris":{"android":"levelo://app?vid=10baa727-1d41-4df3-ab25-23dbd3f4e123","ios":"levelo://app?vid=10baa727-1d41-4df3-ab25-23dbd3f4e123"},"vehicle_type_id":"4","last_reported":1729800589,"current_range_meters":28400,"station_id":"ce4bhl12rcd13ifvqgf0","pricing_plan_id":"cebpf4jnsgd1na2vs0mg"},{"bike_id":"bfc9c85d-34bf-4429-900f-759b9b780caf","system_id":"levelo_inurba_marseille","lat":43.28002,"lon":5.40007,"is_reserved":false,"is_disabled":false,"rental_uris":{"android":"levelo://app?vid=bfc9c85d-34bf-4429-900f-759b9b780caf","ios":"levelo://app?vid=bfc9c85d-34bf-4429-900f-759b9b780caf"},"vehicle_type_id":"4","last_reported":1729800589,"current_range_meters":38800,"station_id":"ce4bho92rcd13ifvqh4g","pricing_plan_id":"cebpf4jnsgd1na2vs0mg"},{"bike_id":"36856ec2-b80b-4ae8-abff-10088c18f7e8","system_id":"levelo_inurba_marseille","lat":43.24167,"lon":5.36398,"is_reserved":false,"is_disabled":false,"rental_uris":{"android":"levelo://app?vid=36856ec2-b80b-4ae8-abff-10088c18f7e8","ios":"levelo://app?vid=36856ec2-b80b-4ae8-abff-10088c18f7e8"},"vehicle_type_id":"4","last_reported":1729800589,"current_range_meters":38800,"station_id":"cpo36qri1sfpv3e86is0","pricing_plan_id":"cebpf4jnsgd1na2vs0mg"},{"bike_id":"140094ad-b5a5-4b23-b9ba-81724f379567","system_id":"levelo_inurba_marseille","lat":43.30588,"lon":5.39345,"is_reserved":false,"is_disabled":false,"rental_uris":{"android":"levelo://app?vid=140094ad-b5a5-4b23-b9ba-81724f379567","ios":"levelo://app?vid=140094ad-b5a5-4b23-b9ba-81724f379567"},"vehicle_type_id":"4","last_reported":1729800589,"current_range_meters":29600,"station_id":"ce4bh0p2rcd13ifvqd80","pricing_plan_id":"cebpf4jnsgd1na2vs0mg"},{"bike_id":"ab51a3b8-c20f-4045-a2d6-a52f1c751e56","system_id":"levelo_inurba_marseille","lat":43.2942,"lon":5.38625,"is_reserved":false,"is_disabled":false,"rental_uris":{"android":"levelo://app?vid=ab51a3b8-c20f-4045-a2d6-a52f1c751e56","ios":"levelo://app?vid=ab51a3b8-c20f-4045-a2d6-a52f1c751e56"},"vehicle_type_id":"4","last_reported":1729800589,"current_range_meters":16000,"station_id":"ce4bh2h2rcd13ifvqdh0","pricing_plan_id":"cebpf4jnsgd1na2vs0mg"},{"bike_id":"cd06f312-07e5-413f-8459-df3920b5b442","system_id":"levelo_inurba_marseille","lat":43.30549,"lon":5.38437,"is_reserved":false,"is_disabled":false,"rental_uris":{"android":"levelo://app?vid=cd06f312-07e5-413f-8459-df3920b5b442","ios":"levelo://app?vid=cd06f312-07e5-413f-8459-df3920b5b442"},"vehicle_type_id":"4","last_reported":1729800589,"current_range_meters":28400,"station_id":"ce4bgg92rcd13ifvqb30","pricing_plan_id":"cebpf4jnsgd1na2vs0mg"},{"bike_id":"79aa6d1e-cc6a-4105-91b5-13648ff11554","system_id":"levelo_inurba_marseille","lat":43.2926,"lon":5.38432,"is_reserved":false,"is_disabled":false,"rental_uris":{"android":"levelo://app?vid=79aa6d1e-cc6a-4105-91b5-13648ff11554","ios":"levelo://app?vid=79aa6d1e-cc6a-4105-91b5-13648ff11554"},"vehicle_type_id":"4","last_reported":1729800589,"current_range_meters":14400,"station_id":"ce4bh692rcd13ifvqea0","pricing_plan_id":"cebpf4jnsgd1na2vs0mg"},{"bike_id":"16600ba4-a680-41f1-a896-3e2d45dfb1ab","system_id":"levelo_inurba_marseille","lat":43.2511,"lon":5.403203,"is_reserved":false,"is_disabled":false,"rental_uris":{"android":"levelo://app?vid=16600ba4-a680-41f1-a896-3e2d45dfb1ab","ios":"levelo://app?vid=16600ba4-a680-41f1-a896-3e2d45dfb1ab"},"vehicle_type_id":"4","last_reported":1729800589,"current_range_meters":38800,"station_id":"ce4bhlh2rcd13ifvqgig","pricing_plan_id":"cebpf4jnsgd1na2vs0mg"},{"bike_id":"2f45fe4c-6796-422a-83f5-0d4ba3608f71","system_id":"levelo_inurba_marseille","lat":43.30799,"lon":5.38146,"is_reserved":false,"is_disabled":false,"rental_uris":{"android":"levelo://app?vid=2f45fe4c-6796-422a-83f5-0d4ba3608f71","ios":"levelo://app?vid=2f45fe4c-6796-422a-83f5-0d4ba3608f71"},"vehicle_type_id":"4","last_reported":1729800589,"current_range_meters":26800,"station_id":"ce4bgt12rcd13ifvqce0","pricing_plan_id":"cebpf4jnsgd1na2vs0mg"},{"bike_id":"66270dfe-641c-42e9-b79a-37269edb6e60","system_id":"levelo_inurba_marseille","lat":43.29269,"lon":5.38444,"is_reserved":false,"is_disabled":false,"rental_uris":{"android":"levelo://app?vid=66270dfe-641c-42e9-b79a-37269edb6e60","ios":"levelo://app?vid=66270dfe-641c-42e9-b79a-37269edb6e60"},"vehicle_type_id":"4","last_reported":1729800589,"current_range_meters":38800,"station_id":"ce4bh692rcd13ifvqea0","pricing_plan_id":"cebpf4jnsgd1na2vs0mg"},{"bike_id":"c12f11bb-9231-4130-961f-fdef0ab68e12","system_id":"levelo_inurba_marseille","lat":43.30969,"lon":5.3903,"is_reserved":false,"is_disabled":false,"rental_uris":{"android":"levelo://app?vid=c12f11bb-9231-4130-961f-fdef0ab68e12","ios":"levelo://app?vid=c12f11bb-9231-4130-961f-fdef0ab68e12"},"vehicle_type_id":"4","last_reported":1729800589,"current_range_meters":18800,"station_id":"ce4bgup2rcd13ifvqco0","pricing_plan_id":"cebpf4jnsgd1na2vs0mg"},{"bike_id":"365a5e76-e012-4983-b8a9-1a07480bde83","system_id":"levelo_inurba_marseille","lat":43.23191,"lon":5.35545,"is_reserved":false,"is_disabled":false,"rental_uris":{"android":"levelo://app?vid=365a5e76-e012-4983-b8a9-1a07480bde83","ios":"levelo://app?vid=365a5e76-e012-4983-b8a9-1a07480bde83"},"vehicle_type_id":"4","last_reported":1729800589,"current_range_meters":39200,"station_id":"ce4bhu92rcd13ifvqi70","pricing_plan_id":"cebpf4jnsgd1na2vs0mg"},{"bike_id":"4216815b-d4a8-42dc-a4fa-bcf593c8876e","system_id":"levelo_inurba_marseille","lat":43.25119,"lon":5.40317,"is_reserved":false,"is_disabled":false,"rental_uris":{"android":"levelo://app?vid=4216815b-d4a8-42dc-a4fa-bcf593c8876e","ios":"levelo://app?vid=4216815b-d4a8-42dc-a4fa-bcf593c8876e"},"vehicle_type_id":"4","last_reported":1729800589,"current_range_meters":38800,"station_id":"ce4bhlh2rcd13ifvqgig","pricing_plan_id":"cebpf4jnsgd1na2vs0mg"},{"bike_id":"66b0e393-0cc2-45b1-afab-63a42ec24e44","system_id":"levelo_inurba_marseille","lat":43.29261,"lon":5.38441,"is_reserved":false,"is_disabled":false,"rental_uris":{"android":"levelo://app?vid=66b0e393-0cc2-45b1-afab-63a42ec24e44","ios":"levelo://app?vid=66b0e393-0cc2-45b1-afab-63a42ec24e44"},"vehicle_type_id":"4","last_reported":1729800589,"current_range_meters":19200,"station_id":"ce4bh692rcd13ifvqea0","pricing_plan_id":"cebpf4jnsgd1na2vs0mg"},{"bike_id":"b1ca2c79-1b1a-4257-b222-4b0a50bca341","system_id":"levelo_inurba_marseille","lat":43.2721,"lon":5.39183,"is_reserved":false,"is_disabled":false,"rental_uris":{"android":"levelo://app?vid=b1ca2c79-1b1a-4257-b222-4b0a50bca341","ios":"levelo://app?vid=b1ca2c79-1b1a-4257-b222-4b0a50bca341"},"vehicle_type_id":"4","last_reported":1729800589,"current_range_meters":16800,"station_id":"ce4bhhp2rcd13ifvqfm0","pricing_plan_id":"cebpf4jnsgd1na2vs0mg"},{"bike_id":"96b7fa33-9265-49c9-ad4c-7158c70bf481","system_id":"levelo_inurba_marseille","lat":43.31071,"lon":5.383513,"is_reserved":false,"is_disabled":false,"rental_uris":{"android":"levelo://app?vid=96b7fa33-9265-49c9-ad4c-7158c70bf481","ios":"levelo://app?vid=96b7fa33-9265-49c9-ad4c-7158c70bf481"},"vehicle_type_id":"4","last_reported":1729800589,"current_range_meters":3600,"station_id":"ce4bgv92rcd13ifvqcr0","pricing_plan_id":"cebpf4jnsgd1na2vs0mg"},{"bike_id":"d4c3f55d-fd45-4f78-9f7c-d19fe141e9b6","system_id":"levelo_inurba_marseille","lat":43.31071,"lon":5.40088,"is_reserved":false,"is_disabled":false,"rental_uris":{"android":"levelo://app?vid=d4c3f55d-fd45-4f78-9f7c-d19fe141e9b6","ios":"levelo://app?vid=d4c3f55d-fd45-4f78-9f7c-d19fe141e9b6"},"vehicle_type_id":"4","last_reported":1729800589,"current_range_meters":34000,"station_id":"ce4bhpp2rcd13ifvqhfg","pricing_plan_id":"cebpf4jnsgd1na2vs0mg"},{"bike_id":"90e1c0ba-2ee3-46ca-9b8e-58ae98391469","system_id":"levelo_inurba_marseille","lat":43.26958,"lon":5.38632,"is_reserved":false,"is_disabled":false,"rental_uris":{"android":"levelo://app?vid=90e1c0ba-2ee3-46ca-9b8e-58ae98391469","ios":"levelo://app?vid=90e1c0ba-2ee3-46ca-9b8e-58ae98391469"},"vehicle_type_id":"4","last_reported":1729800589,"current_range_meters":18000,"station_id":"ce4bhh92rcd13ifvqfh0","pricing_plan_id":"cebpf4jnsgd1na2vs0mg"},{"bike_id":"e329f342-bebb-46cf-802e-487eede4ef5e","system_id":"levelo_inurba_marseille","lat":43.273163,"lon":5.390596,"is_reserved":false,"is_disabled":false,"rental_uris":{"android":"levelo://app?vid=e329f342-bebb-46cf-802e-487eede4ef5e","ios":"levelo://app?vid=e329f342-bebb-46cf-802e-487eede4ef5e"},"vehicle_type_id":"4","last_reported":1729800589,"current_range_meters":30400,"station_id":"ce4bhh92rcd13ifvqfi0","pricing_plan_id":"cebpf4jnsgd1na2vs0mg"},{"bike_id":"3ec8f797-b457-4b3e-8189-7d11d80a06b2","system_id":"levelo_inurba_marseille","lat":43.27611,"lon":5.36116,"is_reserved":false,"is_disabled":false,"rental_uris":{"android":"levelo://app?vid=3ec8f797-b457-4b3e-8189-7d11d80a06b2","ios":"levelo://app?vid=3ec8f797-b457-4b3e-8189-7d11d80a06b2"},"vehicle_type_id":"4","last_reported":1729800589,"current_range_meters":18000,"station_id":"ce4bgj92rcd13ifvqbe0","pricing_plan_id":"cebpf4jnsgd1na2vs0mg"},{"bike_id":"eee3ca20-795c-4ef1-b7ac-0069be234bb0","system_id":"levelo_inurba_marseille","lat":43.29048,"lon":5.37571,"is_reserved":false,"is_disabled":false,"rental_uris":{"android":"levelo://app?vid=eee3ca20-795c-4ef1-b7ac-0069be234bb0","ios":"levelo://app?vid=eee3ca20-795c-4ef1-b7ac-0069be234bb0"},"vehicle_type_id":"4","last_reported":1729800589,"current_range_meters":2000,"station_id":"ce4bh692rcd13ifvqe90","pricing_plan_id":"cebpf4jnsgd1na2vs0mg"},{"bike_id":"bd0fb11c-81e7-45db-a3bb-7471afbb37a6","system_id":"levelo_inurba_marseille","lat":43.30547,"lon":5.38425,"is_reserved":false,"is_disabled":false,"rental_uris":{"android":"levelo://app?vid=bd0fb11c-81e7-45db-a3bb-7471afbb37a6","ios":"levelo://app?vid=bd0fb11c-81e7-45db-a3bb-7471afbb37a6"},"vehicle_type_id":"4","last_reported":1729800589,"current_range_meters":37600,"station_id":"ce4bgg92rcd13ifvqb30","pricing_plan_id":"cebpf4jnsgd1na2vs0mg"},{"bike_id":"70893557-cc44-4001-9b68-e4f04b3694ad","system_id":"levelo_inurba_marseille","lat":43.28659,"lon":5.36348,"is_reserved":false,"is_disabled":false,"rental_uris":{"android":"levelo://app?vid=70893557-cc44-4001-9b68-e4f04b3694ad","ios":"levelo://app?vid=70893557-cc44-4001-9b68-e4f04b3694ad"},"vehicle_type_id":"4","last_reported":1729800589,"current_range_meters":35600,"station_id":"ce4bhah2rcd13ifvqej0","pricing_plan_id":"cebpf4jnsgd1na2vs0mg"},{"bike_id":"faf4e11f-512f-4d45-b01c-5ba2d2ab7097","system_id":"levelo_inurba_marseille","lat":43.26213,"lon":5.37441,"is_reserved":false,"is_disabled":false,"rental_uris":{"android":"levelo://app?vid=faf4e11f-512f-4d45-b01c-5ba2d2ab7097","ios":"levelo://app?vid=faf4e11f-512f-4d45-b01c-5ba2d2ab7097"},"vehicle_type_id":"4","last_reported":1729800589,"current_range_meters":6000,"station_id":"ce4bhgp2rcd13ifvqfc0","pricing_plan_id":"cebpf4jnsgd1na2vs0mg"},{"bike_id":"9aa99984-3aab-4a38-a014-145c49eab468","system_id":"levelo_inurba_marseille","lat":43.24649,"lon":5.38891,"is_reserved":false,"is_disabled":false,"rental_uris":{"android":"levelo://app?vid=9aa99984-3aab-4a38-a014-145c49eab468","ios":"levelo://app?vid=9aa99984-3aab-4a38-a014-145c49eab468"},"vehicle_type_id":"4","last_reported":1729800589,"current_range_meters":12400,"station_id":"ce4bhg12rcd13ifvqf60","pricing_plan_id":"cebpf4jnsgd1na2vs0mg"},{"bike_id":"9c78078a-7e8b-4511-8541-a6915ed7654b","system_id":"levelo_inurba_marseille","lat":43.29532,"lon":5.38537,"is_reserved":false,"is_disabled":false,"rental_uris":{"android":"levelo://app?vid=9c78078a-7e8b-4511-8541-a6915ed7654b","ios":"levelo://app?vid=9c78078a-7e8b-4511-8541-a6915ed7654b"},"vehicle_type_id":"4","last_reported":1729800589,"current_range_meters":20400,"station_id":"ce4bgih2rcd13ifvqba0","pricing_plan_id":"cebpf4jnsgd1na2vs0mg"},{"bike_id":"76246192-9ac4-4edd-9f7b-00153fa9dfd1","system_id":"levelo_inurba_marseille","lat":43.29986,"lon":5.37175,"is_reserved":false,"is_disabled":false,"rental_uris":{"android":"levelo://app?vid=76246192-9ac4-4edd-9f7b-00153fa9dfd1","ios":"levelo://app?vid=76246192-9ac4-4edd-9f7b-00153fa9dfd1"},"vehicle_type_id":"4","last_reported":1729800589,"current_range_meters":37600,"station_id":"ce4bgr92rcd13ifvqc7g","pricing_plan_id":"cebpf4jnsgd1na2vs0mg"},{"bike_id":"7c1e729b-7c6a-4f7f-87cd-db2dd498acc3","system_id":"levelo_inurba_marseille","lat":43.25933,"lon":5.40899,"is_reserved":false,"is_disabled":false,"rental_uris":{"android":"levelo://app?vid=7c1e729b-7c6a-4f7f-87cd-db2dd498acc3","ios":"levelo://app?vid=7c1e729b-7c6a-4f7f-87cd-db2dd498acc3"},"vehicle_type_id":"4","last_reported":1729800589,"current_range_meters":25200,"station_id":"ce4bhm92rcd13ifvqglg","pricing_plan_id":"cebpf4jnsgd1na2vs0mg"},{"bike_id":"bb99c686-b07c-4af0-8837-e709a8664290","system_id":"levelo_inurba_marseille","lat":43.31064,"lon":5.38355,"is_reserved":false,"is_disabled":false,"rental_uris":{"android":"levelo://app?vid=bb99c686-b07c-4af0-8837-e709a8664290","ios":"levelo://app?vid=bb99c686-b07c-4af0-8837-e709a8664290"},"vehicle_type_id":"4","last_reported":1729800589,"current_range_meters":34000,"station_id":"ce4bgv92rcd13ifvqcr0","pricing_plan_id":"cebpf4jnsgd1na2vs0mg"},{"bike_id":"534c4532-53f4-4e3a-b75c-ff40e4b469a9","system_id":"levelo_inurba_marseille","lat":43.25834,"lon":5.39424,"is_reserved":false,"is_disabled":false,"rental_uris":{"android":"levelo://app?vid=534c4532-53f4-4e3a-b75c-ff40e4b469a9","ios":"levelo://app?vid=534c4532-53f4-4e3a-b75c-ff40e4b469a9"},"vehicle_type_id":"4","last_reported":1729800589,"current_range_meters":11200,"station_id":"ce4bhip2rcd13ifvqft0","pricing_plan_id":"cebpf4jnsgd1na2vs0mg"},{"bike_id":"906eeca1-2b61-43bd-94b9-463c51b44767","system_id":"levelo_inurba_marseille","lat":43.23968,"lon":5.36629,"is_reserved":false,"is_disabled":false,"rental_uris":{"android":"levelo://app?vid=906eeca1-2b61-43bd-94b9-463c51b44767","ios":"levelo://app?vid=906eeca1-2b61-43bd-94b9-463c51b44767"},"vehicle_type_id":"4","last_reported":1729800589,"current_range_meters":19600,"station_id":"ce4bhi12rcd13ifvqfp0","pricing_plan_id":"cebpf4jnsgd1na2vs0mg"},{"bike_id":"59cc898d-8e24-463b-917a-1dc2d22f325e","system_id":"levelo_inurba_marseille","lat":43.291013,"lon":5.381404,"is_reserved":false,"is_disabled":false,"rental_uris":{"android":"levelo://app?vid=59cc898d-8e24-463b-917a-1dc2d22f325e","ios":"levelo://app?vid=59cc898d-8e24-463b-917a-1dc2d22f325e"},"vehicle_type_id":"4","last_reported":1729800589,"current_range_meters":8400,"station_id":"ce4bh512rcd13ifvqe2g","pricing_plan_id":"cebpf4jnsgd1na2vs0mg"},{"bike_id":"6787cd29-a3eb-4712-94aa-19427ce6ab9f","system_id":"levelo_inurba_marseille","lat":43.28098,"lon":5.37844,"is_reserved":false,"is_disabled":false,"rental_uris":{"android":"levelo://app?vid=6787cd29-a3eb-4712-94aa-19427ce6ab9f","ios":"levelo://app?vid=6787cd29-a3eb-4712-94aa-19427ce6ab9f"},"vehicle_type_id":"4","last_reported":1729800589,"current_range_meters":28000,"station_id":"ce4bha12rcd13ifvqee0","pricing_plan_id":"cebpf4jnsgd1na2vs0mg"},{"bike_id":"afa726c6-a169-4419-9ec1-a001fba68021","system_id":"levelo_inurba_marseille","lat":43.3018,"lon":5.36627,"is_reserved":false,"is_disabled":false,"rental_uris":{"android":"levelo://app?vid=afa726c6-a169-4419-9ec1-a001fba68021","ios":"levelo://app?vid=afa726c6-a169-4419-9ec1-a001fba68021"},"vehicle_type_id":"4","last_reported":1729800589,"current_range_meters":9600,"station_id":"ce4bgrh2rcd13ifvqc8g","pricing_plan_id":"cebpf4jnsgd1na2vs0mg"},{"bike_id":"64b170f8-2500-48ef-96a3-25f7c0707542","system_id":"levelo_inurba_marseille","lat":43.337444,"lon":5.374475,"is_reserved":false,"is_disabled":false,"rental_uris":{"android":"levelo://app?vid=64b170f8-2500-48ef-96a3-25f7c0707542","ios":"levelo://app?vid=64b170f8-2500-48ef-96a3-25f7c0707542"},"vehicle_type_id":"4","last_reported":1729800589,"current_range_meters":5600,"station_id":"","pricing_plan_id":"cebpf4jnsgd1na2vs0mg"},{"bike_id":"4f409860-e0f7-4877-99ee-a24fed7f0e97","system_id":"levelo_inurba_marseille","lat":43.2781,"lon":5.40718,"is_reserved":false,"is_disabled":false,"rental_uris":{"android":"levelo://app?vid=4f409860-e0f7-4877-99ee-a24fed7f0e97","ios":"levelo://app?vid=4f409860-e0f7-4877-99ee-a24fed7f0e97"},"vehicle_type_id":"4","last_reported":1729800589,"current_range_meters":35600,"station_id":"ce4bhnh2rcd13ifvqgtg","pricing_plan_id":"cebpf4jnsgd1na2vs0mg"},{"bike_id":"8629bbd2-c025-4a07-8726-3ba170e6f41e","system_id":"levelo_inurba_marseille","lat":43.29257,"lon":5.40906,"is_reserved":false,"is_disabled":false,"rental_uris":{"android":"levelo://app?vid=8629bbd2-c025-4a07-8726-3ba170e6f41e","ios":"levelo://app?vid=8629bbd2-c025-4a07-8726-3ba170e6f41e"},"vehicle_type_id":"4","last_reported":1729800589,"current_range_meters":35200,"station_id":"ce4bh192rcd13ifvqdc0","pricing_plan_id":"cebpf4jnsgd1na2vs0mg"},{"bike_id":"1287b539-f1e9-401d-8c14-602f30e7566f","system_id":"levelo_inurba_marseille","lat":43.30327,"lon":5.40344,"is_reserved":false,"is_disabled":false,"rental_uris":{"android":"levelo://app?vid=1287b539-f1e9-401d-8c14-602f30e7566f","ios":"levelo://app?vid=1287b539-f1e9-401d-8c14-602f30e7566f"},"vehicle_type_id":"4","last_reported":1729800589,"current_range_meters":32800,"station_id":"","pricing_plan_id":"cebpf4jnsgd1na2vs0mg"},{"bike_id":"d5c80f85-fa64-4374-b895-ba01d64aba63","system_id":"levelo_inurba_marseille","lat":43.29264,"lon":5.38433,"is_reserved":false,"is_disabled":false,"rental_uris":{"android":"levelo://app?vid=d5c80f85-fa64-4374-b895-ba01d64aba63","ios":"levelo://app?vid=d5c80f85-fa64-4374-b895-ba01d64aba63"},"vehicle_type_id":"4","last_reported":1729800589,"current_range_meters":36400,"station_id":"ce4bh692rcd13ifvqea0","pricing_plan_id":"cebpf4jnsgd1na2vs0mg"},{"bike_id":"6495eafb-d28d-4be1-b6a0-e608338d71c0","system_id":"levelo_inurba_marseille","lat":43.24998,"lon":5.38927,"is_reserved":false,"is_disabled":false,"rental_uris":{"android":"levelo://app?vid=6495eafb-d28d-4be1-b6a0-e608338d71c0","ios":"levelo://app?vid=6495eafb-d28d-4be1-b6a0-e608338d71c0"},"vehicle_type_id":"4","last_reported":1729800589,"current_range_meters":27200,"station_id":"ce4bhgp2rcd13ifvqfd0","pricing_plan_id":"cebpf4jnsgd1na2vs0mg"},{"bike_id":"b37a0ae1-907f-412d-8e1a-06a9de441401","system_id":"levelo_inurba_marseille","lat":43.25085,"lon":5.39526,"is_reserved":false,"is_disabled":false,"rental_uris":{"android":"levelo://app?vid=b37a0ae1-907f-412d-8e1a-06a9de441401","ios":"levelo://app?vid=b37a0ae1-907f-412d-8e1a-06a9de441401"},"vehicle_type_id":"4","last_reported":1729800589,"current_range_meters":26000,"station_id":"ce4bhm12rcd13ifvqgkg","pricing_plan_id":"cebpf4jnsgd1na2vs0mg"},{"bike_id":"a02926f9-055c-4338-882a-15ee7c86f000","system_id":"levelo_inurba_marseille","lat":43.29547,"lon":5.3855,"is_reserved":false,"is_disabled":false,"rental_uris":{"android":"levelo://app?vid=a02926f9-055c-4338-882a-15ee7c86f000","ios":"levelo://app?vid=a02926f9-055c-4338-882a-15ee7c86f000"},"vehicle_type_id":"4","last_reported":1729800589,"current_range_meters":30000,"station_id":"ce4bgih2rcd13ifvqba0","pricing_plan_id":"cebpf4jnsgd1na2vs0mg"},{"bike_id":"afcebe5d-45a3-43a4-95c9-1c63bd19e250","system_id":"levelo_inurba_marseille","lat":43.32042,"lon":5.41544,"is_reserved":false,"is_disabled":false,"rental_uris":{"android":"levelo://app?vid=afcebe5d-45a3-43a4-95c9-1c63bd19e250","ios":"levelo://app?vid=afcebe5d-45a3-43a4-95c9-1c63bd19e250"},"vehicle_type_id":"4","last_reported":1729800589,"current_range_meters":18000,"station_id":"ce4bhq92rcd13ifvqhkg","pricing_plan_id":"cebpf4jnsgd1na2vs0mg"},{"bike_id":"592f1058-b02e-41be-b2ee-b9f182ddb250","system_id":"levelo_inurba_marseille","lat":43.29045,"lon":5.37569,"is_reserved":false,"is_disabled":false,"rental_uris":{"android":"levelo://app?vid=592f1058-b02e-41be-b2ee-b9f182ddb250","ios":"levelo://app?vid=592f1058-b02e-41be-b2ee-b9f182ddb250"},"vehicle_type_id":"4","last_reported":1729800589,"current_range_meters":28400,"station_id":"ce4bh692rcd13ifvqe90","pricing_plan_id":"cebpf4jnsgd1na2vs0mg"},{"bike_id":"2e2c084b-c98b-474e-b098-f5034cf9fb09","system_id":"levelo_inurba_marseille","lat":43.299194,"lon":5.374774,"is_reserved":false,"is_disabled":false,"rental_uris":{"android":"levelo://app?vid=2e2c084b-c98b-474e-b098-f5034cf9fb09","ios":"levelo://app?vid=2e2c084b-c98b-474e-b098-f5034cf9fb09"},"vehicle_type_id":"4","last_reported":1729800589,"current_range_meters":10000,"station_id":"ce4bgjh2rcd13ifvqbg0","pricing_plan_id":"cebpf4jnsgd1na2vs0mg"},{"bike_id":"d6bf3953-c4f6-4246-8c45-05a22bf0f56f","system_id":"levelo_inurba_marseille","lat":43.29541,"lon":5.38538,"is_reserved":false,"is_disabled":false,"rental_uris":{"android":"levelo://app?vid=d6bf3953-c4f6-4246-8c45-05a22bf0f56f","ios":"levelo://app?vid=d6bf3953-c4f6-4246-8c45-05a22bf0f56f"},"vehicle_type_id":"4","last_reported":1729800589,"current_range_meters":38800,"station_id":"ce4bgih2rcd13ifvqba0","pricing_plan_id":"cebpf4jnsgd1na2vs0mg"},{"bike_id":"442bc617-0461-460a-af58-22bd9f0e4ded","system_id":"levelo_inurba_marseille","lat":43.29216,"lon":5.39319,"is_reserved":false,"is_disabled":false,"rental_uris":{"android":"levelo://app?vid=442bc617-0461-460a-af58-22bd9f0e4ded","ios":"levelo://app?vid=442bc617-0461-460a-af58-22bd9f0e4ded"},"vehicle_type_id":"4","last_reported":1729800589,"current_range_meters":11200,"station_id":"ce4bh192rcd13ifvqdd0","pricing_plan_id":"cebpf4jnsgd1na2vs0mg"},{"bike_id":"c24ada35-0a32-4f6b-938e-16c735e4ea3e","system_id":"levelo_inurba_marseille","lat":43.31717,"lon":5.43706,"is_reserved":false,"is_disabled":false,"rental_uris":{"android":"levelo://app?vid=c24ada35-0a32-4f6b-938e-16c735e4ea3e","ios":"levelo://app?vid=c24ada35-0a32-4f6b-938e-16c735e4ea3e"},"vehicle_type_id":"4","last_reported":1729800589,"current_range_meters":10000,"station_id":"ce4bhp92rcd13ifvqhcg","pricing_plan_id":"cebpf4jnsgd1na2vs0mg"},{"bike_id":"baa25e79-e061-4e84-9da8-6e26680a7931","system_id":"levelo_inurba_marseille","lat":43.30201,"lon":5.3662,"is_reserved":false,"is_disabled":false,"rental_uris":{"android":"levelo://app?vid=baa25e79-e061-4e84-9da8-6e26680a7931","ios":"levelo://app?vid=baa25e79-e061-4e84-9da8-6e26680a7931"},"vehicle_type_id":"4","last_reported":1729800589,"current_range_meters":38800,"station_id":"ce4bgrh2rcd13ifvqc8g","pricing_plan_id":"cebpf4jnsgd1na2vs0mg"},{"bike_id":"c013d0dc-fb80-477a-a207-766744138875","system_id":"levelo_inurba_marseille","lat":43.279995,"lon":5.400107,"is_reserved":false,"is_disabled":false,"rental_uris":{"android":"levelo://app?vid=c013d0dc-fb80-477a-a207-766744138875","ios":"levelo://app?vid=c013d0dc-fb80-477a-a207-766744138875"},"vehicle_type_id":"4","last_reported":1729800589,"current_range_meters":38800,"station_id":"ce4bho92rcd13ifvqh4g","pricing_plan_id":"cebpf4jnsgd1na2vs0mg"},{"bike_id":"cde173b4-e8e7-48ff-ae7e-4a54d00d4a2a","system_id":"levelo_inurba_marseille","lat":43.29413,"lon":5.38627,"is_reserved":false,"is_disabled":false,"rental_uris":{"android":"levelo://app?vid=cde173b4-e8e7-48ff-ae7e-4a54d00d4a2a","ios":"levelo://app?vid=cde173b4-e8e7-48ff-ae7e-4a54d00d4a2a"},"vehicle_type_id":"4","last_reported":1729800589,"current_range_meters":38800,"station_id":"ce4bh2h2rcd13ifvqdh0","pricing_plan_id":"cebpf4jnsgd1na2vs0mg"},{"bike_id":"22f55c1a-1dfb-48a8-8e1a-b1164f4003e8","system_id":"levelo_inurba_marseille","lat":43.28716,"lon":5.37921,"is_reserved":false,"is_disabled":false,"rental_uris":{"android":"levelo://app?vid=22f55c1a-1dfb-48a8-8e1a-b1164f4003e8","ios":"levelo://app?vid=22f55c1a-1dfb-48a8-8e1a-b1164f4003e8"},"vehicle_type_id":"4","last_reported":1729800589,"current_range_meters":40000,"station_id":"ce4bh9p2rcd13ifvqec0","pricing_plan_id":"cebpf4jnsgd1na2vs0mg"},{"bike_id":"8eded880-7ddf-4cf8-a86d-b585d404513a","system_id":"levelo_inurba_marseille","lat":43.25863,"lon":5.39898,"is_reserved":false,"is_disabled":false,"rental_uris":{"android":"levelo://app?vid=8eded880-7ddf-4cf8-a86d-b585d404513a","ios":"levelo://app?vid=8eded880-7ddf-4cf8-a86d-b585d404513a"},"vehicle_type_id":"4","last_reported":1729800589,"current_range_meters":20800,"station_id":"ce4bhl92rcd13ifvqghg","pricing_plan_id":"cebpf4jnsgd1na2vs0mg"},{"bike_id":"0a7f66fc-95ae-454e-a206-449decf4cce4","system_id":"levelo_inurba_marseille","lat":43.29268,"lon":5.38432,"is_reserved":false,"is_disabled":false,"rental_uris":{"android":"levelo://app?vid=0a7f66fc-95ae-454e-a206-449decf4cce4","ios":"levelo://app?vid=0a7f66fc-95ae-454e-a206-449decf4cce4"},"vehicle_type_id":"4","last_reported":1729800589,"current_range_meters":38800,"station_id":"ce4bh692rcd13ifvqea0","pricing_plan_id":"cebpf4jnsgd1na2vs0mg"},{"bike_id":"08f90f0c-e565-4b28-9c5f-1d64f94793d5","system_id":"levelo_inurba_marseille","lat":43.32,"lon":5.38146,"is_reserved":false,"is_disabled":false,"rental_uris":{"android":"levelo://app?vid=08f90f0c-e565-4b28-9c5f-1d64f94793d5","ios":"levelo://app?vid=08f90f0c-e565-4b28-9c5f-1d64f94793d5"},"vehicle_type_id":"4","last_reported":1729800589,"current_range_meters":22000,"station_id":"ce4bhr12rcd13ifvqhpg","pricing_plan_id":"cebpf4jnsgd1na2vs0mg"},{"bike_id":"8f7856b2-c668-4f5d-940a-4d5f309812ca","system_id":"levelo_inurba_marseille","lat":43.24074,"lon":5.3776,"is_reserved":false,"is_disabled":false,"rental_uris":{"android":"levelo://app?vid=8f7856b2-c668-4f5d-940a-4d5f309812ca","ios":"levelo://app?vid=8f7856b2-c668-4f5d-940a-4d5f309812ca"},"vehicle_type_id":"4","last_reported":1729800589,"current_range_meters":32000,"station_id":"ce4bhnp2rcd13ifvqgvg","pricing_plan_id":"cebpf4jnsgd1na2vs0mg"},{"bike_id":"e7e2cf05-1e90-4b3f-8859-99e810846230","system_id":"levelo_inurba_marseille","lat":43.28458,"lon":5.39195,"is_reserved":false,"is_disabled":false,"rental_uris":{"android":"levelo://app?vid=e7e2cf05-1e90-4b3f-8859-99e810846230","ios":"levelo://app?vid=e7e2cf05-1e90-4b3f-8859-99e810846230"},"vehicle_type_id":"4","last_reported":1729800589,"current_range_meters":17200,"station_id":"ce4bhoh2rcd13ifvqh5g","pricing_plan_id":"cebpf4jnsgd1na2vs0mg"},{"bike_id":"68d710c3-1cc3-4541-be39-b60897c01c0f","system_id":"levelo_inurba_marseille","lat":43.29533,"lon":5.38544,"is_reserved":false,"is_disabled":false,"rental_uris":{"android":"levelo://app?vid=68d710c3-1cc3-4541-be39-b60897c01c0f","ios":"levelo://app?vid=68d710c3-1cc3-4541-be39-b60897c01c0f"},"vehicle_type_id":"4","last_reported":1729800589,"current_range_meters":5600,"station_id":"ce4bgih2rcd13ifvqba0","pricing_plan_id":"cebpf4jnsgd1na2vs0mg"},{"bike_id":"8610afab-e66b-46a5-976c-7a987e726e10","system_id":"levelo_inurba_marseille","lat":43.29268,"lon":5.38426,"is_reserved":false,"is_disabled":false,"rental_uris":{"android":"levelo://app?vid=8610afab-e66b-46a5-976c-7a987e726e10","ios":"levelo://app?vid=8610afab-e66b-46a5-976c-7a987e726e10"},"vehicle_type_id":"4","last_reported":1729800589,"current_range_meters":39200,"station_id":"ce4bh692rcd13ifvqea0","pricing_plan_id":"cebpf4jnsgd1na2vs0mg"},{"bike_id":"789376d9-c9df-4eca-aca8-73071ef305b9","system_id":"levelo_inurba_marseille","lat":43.24073,"lon":5.37758,"is_reserved":false,"is_disabled":false,"rental_uris":{"android":"levelo://app?vid=789376d9-c9df-4eca-aca8-73071ef305b9","ios":"levelo://app?vid=789376d9-c9df-4eca-aca8-73071ef305b9"},"vehicle_type_id":"4","last_reported":1729800589,"current_range_meters":37600,"station_id":"ce4bhnp2rcd13ifvqgvg","pricing_plan_id":"cebpf4jnsgd1na2vs0mg"},{"bike_id":"c74aa290-7c05-4e7b-a600-a38ad026f1c1","system_id":"levelo_inurba_marseille","lat":43.28159,"lon":5.42635,"is_reserved":false,"is_disabled":false,"rental_uris":{"android":"levelo://app?vid=c74aa290-7c05-4e7b-a600-a38ad026f1c1","ios":"levelo://app?vid=c74aa290-7c05-4e7b-a600-a38ad026f1c1"},"vehicle_type_id":"4","last_reported":1729800589,"current_range_meters":38400,"station_id":"ce4bhnh2rcd13ifvqgug","pricing_plan_id":"cebpf4jnsgd1na2vs0mg"},{"bike_id":"9131424d-5f38-4003-a915-c4f2698059fa","system_id":"levelo_inurba_marseille","lat":43.24084,"lon":5.37742,"is_reserved":false,"is_disabled":false,"rental_uris":{"android":"levelo://app?vid=9131424d-5f38-4003-a915-c4f2698059fa","ios":"levelo://app?vid=9131424d-5f38-4003-a915-c4f2698059fa"},"vehicle_type_id":"4","last_reported":1729800589,"current_range_meters":37600,"station_id":"ce4bhnp2rcd13ifvqgvg","pricing_plan_id":"cebpf4jnsgd1na2vs0mg"},{"bike_id":"cb5ad979-f901-447c-8184-1ace4945bd9d","system_id":"levelo_inurba_marseille","lat":43.29627,"lon":5.37168,"is_reserved":false,"is_disabled":false,"rental_uris":{"android":"levelo://app?vid=cb5ad979-f901-447c-8184-1ace4945bd9d","ios":"levelo://app?vid=cb5ad979-f901-447c-8184-1ace4945bd9d"},"vehicle_type_id":"4","last_reported":1729800589,"current_range_meters":23200,"station_id":"ce4bgnh2rcd13ifvqc0g","pricing_plan_id":"cebpf4jnsgd1na2vs0mg"},{"bike_id":"2ae542ef-dd9e-4dc5-b2ec-8d8246ea76bb","system_id":"levelo_inurba_marseille","lat":43.32108,"lon":5.3677,"is_reserved":false,"is_disabled":false,"rental_uris":{"android":"levelo://app?vid=2ae542ef-dd9e-4dc5-b2ec-8d8246ea76bb","ios":"levelo://app?vid=2ae542ef-dd9e-4dc5-b2ec-8d8246ea76bb"},"vehicle_type_id":"4","last_reported":1729800589,"current_range_meters":16400,"station_id":"ce4bhrh2rcd13ifvqhug","pricing_plan_id":"cebpf4jnsgd1na2vs0mg"},{"bike_id":"4ffbb36d-f6a7-43ba-b2c9-79f233eb2756","system_id":"levelo_inurba_marseille","lat":43.29519,"lon":5.39042,"is_reserved":false,"is_disabled":false,"rental_uris":{"android":"levelo://app?vid=4ffbb36d-f6a7-43ba-b2c9-79f233eb2756","ios":"levelo://app?vid=4ffbb36d-f6a7-43ba-b2c9-79f233eb2756"},"vehicle_type_id":"4","last_reported":1729800589,"current_range_meters":40000,"station_id":"ce4bh3p2rcd13ifvqdp0","pricing_plan_id":"cebpf4jnsgd1na2vs0mg"},{"bike_id":"f630798a-3b93-40e1-8d7b-72b6d9e894d8","system_id":"levelo_inurba_marseille","lat":43.24078,"lon":5.37751,"is_reserved":false,"is_disabled":false,"rental_uris":{"android":"levelo://app?vid=f630798a-3b93-40e1-8d7b-72b6d9e894d8","ios":"levelo://app?vid=f630798a-3b93-40e1-8d7b-72b6d9e894d8"},"vehicle_type_id":"4","last_reported":1729800589,"current_range_meters":35600,"station_id":"ce4bhnp2rcd13ifvqgvg","pricing_plan_id":"cebpf4jnsgd1na2vs0mg"},{"bike_id":"08ffc768-2dde-42ff-9370-05a9a7aeb35b","system_id":"levelo_inurba_marseille","lat":43.29982,"lon":5.38488,"is_reserved":false,"is_disabled":false,"rental_uris":{"android":"levelo://app?vid=08ffc768-2dde-42ff-9370-05a9a7aeb35b","ios":"levelo://app?vid=08ffc768-2dde-42ff-9370-05a9a7aeb35b"},"vehicle_type_id":"4","last_reported":1729800589,"current_range_meters":34800,"station_id":"ce4bgj92rcd13ifvqbd0","pricing_plan_id":"cebpf4jnsgd1na2vs0mg"},{"bike_id":"fab2b75f-8e65-4e8e-be6c-475b12f309d5","system_id":"levelo_inurba_marseille","lat":43.27615,"lon":5.36104,"is_reserved":false,"is_disabled":false,"rental_uris":{"android":"levelo://app?vid=fab2b75f-8e65-4e8e-be6c-475b12f309d5","ios":"levelo://app?vid=fab2b75f-8e65-4e8e-be6c-475b12f309d5"},"vehicle_type_id":"4","last_reported":1729800589,"current_range_meters":21600,"station_id":"ce4bgj92rcd13ifvqbe0","pricing_plan_id":"cebpf4jnsgd1na2vs0mg"},{"bike_id":"5dac752b-5f3e-449b-8933-09241deb391d","system_id":"levelo_inurba_marseille","lat":43.26828,"lon":5.41115,"is_reserved":false,"is_disabled":false,"rental_uris":{"android":"levelo://app?vid=5dac752b-5f3e-449b-8933-09241deb391d","ios":"levelo://app?vid=5dac752b-5f3e-449b-8933-09241deb391d"},"vehicle_type_id":"4","last_reported":1729800589,"current_range_meters":12800,"station_id":"","pricing_plan_id":"cebpf4jnsgd1na2vs0mg"},{"bike_id":"07b79a4b-82b9-4068-82bb-b2e31f516bc9","system_id":"levelo_inurba_marseille","lat":43.29419,"lon":5.38609,"is_reserved":false,"is_disabled":false,"rental_uris":{"android":"levelo://app?vid=07b79a4b-82b9-4068-82bb-b2e31f516bc9","ios":"levelo://app?vid=07b79a4b-82b9-4068-82bb-b2e31f516bc9"},"vehicle_type_id":"4","last_reported":1729800589,"current_range_meters":38800,"station_id":"ce4bh2h2rcd13ifvqdh0","pricing_plan_id":"cebpf4jnsgd1na2vs0mg"},{"bike_id":"273858ab-5707-4353-a556-6d485ad8fd5d","system_id":"levelo_inurba_marseille","lat":43.29936,"lon":5.36532,"is_reserved":false,"is_disabled":false,"rental_uris":{"android":"levelo://app?vid=273858ab-5707-4353-a556-6d485ad8fd5d","ios":"levelo://app?vid=273858ab-5707-4353-a556-6d485ad8fd5d"},"vehicle_type_id":"4","last_reported":1729800589,"current_range_meters":38800,"station_id":"ce4bgup2rcd13ifvqco0","pricing_plan_id":"cebpf4jnsgd1na2vs0mg"},{"bike_id":"69436c81-3c6d-4c01-bd2d-a3852ac2078d","system_id":"levelo_inurba_marseille","lat":43.24175,"lon":5.36397,"is_reserved":false,"is_disabled":false,"rental_uris":{"android":"levelo://app?vid=69436c81-3c6d-4c01-bd2d-a3852ac2078d","ios":"levelo://app?vid=69436c81-3c6d-4c01-bd2d-a3852ac2078d"},"vehicle_type_id":"4","last_reported":1729800589,"current_range_meters":3600,"station_id":"cpo36qri1sfpv3e86is0","pricing_plan_id":"cebpf4jnsgd1na2vs0mg"},{"bike_id":"fa08e7a9-0dda-480b-a9d7-5de93059247a","system_id":"levelo_inurba_marseille","lat":43.32032,"lon":5.41549,"is_reserved":false,"is_disabled":false,"rental_uris":{"android":"levelo://app?vid=fa08e7a9-0dda-480b-a9d7-5de93059247a","ios":"levelo://app?vid=fa08e7a9-0dda-480b-a9d7-5de93059247a"},"vehicle_type_id":"4","last_reported":1729800589,"current_range_meters":38800,"station_id":"ce4bhq92rcd13ifvqhkg","pricing_plan_id":"cebpf4jnsgd1na2vs0mg"},{"bike_id":"789bdc9f-283e-494a-b512-547f521154fd","system_id":"levelo_inurba_marseille","lat":43.29419,"lon":5.38626,"is_reserved":false,"is_disabled":false,"rental_uris":{"android":"levelo://app?vid=789bdc9f-283e-494a-b512-547f521154fd","ios":"levelo://app?vid=789bdc9f-283e-494a-b512-547f521154fd"},"vehicle_type_id":"4","last_reported":1729800589,"current_range_meters":38800,"station_id":"ce4bh2h2rcd13ifvqdh0","pricing_plan_id":"cebpf4jnsgd1na2vs0mg"},{"bike_id":"040dd73b-6f0f-491f-8796-81104ecab0f3","system_id":"levelo_inurba_marseille","lat":43.28077,"lon":5.39664,"is_reserved":false,"is_disabled":false,"rental_uris":{"android":"levelo://app?vid=040dd73b-6f0f-491f-8796-81104ecab0f3","ios":"levelo://app?vid=040dd73b-6f0f-491f-8796-81104ecab0f3"},"vehicle_type_id":"4","last_reported":1729800589,"current_range_meters":17200,"station_id":"ce4bho12rcd13ifvqh2g","pricing_plan_id":"cebpf4jnsgd1na2vs0mg"},