{"last_updated":1751303401,"ttl":60,"version":"2.2","data":{"bikes":[{"bike_id":"3da29fb8-fc97-44c6-b9ac-31dd456b2fd4","system_id":"levelo_inurba_marseille","lat":43.33771,"lon":5.37424,"is_reserved":false,"is_disabled":true,"rental_uris":{"android":"levelo://app?vid=3da29fb8-fc97-44c6-b9ac-31dd456b2fd4","ios":"levelo://app?vid=3da29fb8-fc97-44c6-b9ac-31dd456b2fd4"},"vehicle_type_id":"4","last_reported":1751303401,"current_range_meters":0,"station_id":"","pricing_plan_id":"cebpf4jnsgd1na2vs0mg"},{"bike_id":"01861ad8-a8d7-4be6-816e-651927c87584","system_id":"levelo_inurba_marseille","lat":43.33751,"lon":5.37456,"is_reserved":false,"is_disabled":true,"rental_uris":{"android":"levelo://app?vid=01861ad8-a8d7-4be6-816e-651927c87584","ios":"levelo://app?vid=01861ad8-a8d7-4be6-816e-651927c87584"},"vehicle_type_id":"4","last_reported":1751303401,"current_range_meters":0,"station_id":"","pricing_plan_id":"cebpf4jnsgd1na2vs0mg"},{"bike_id":"29e697ca-26a6-4412-8107-f2c74b259edc","system_id":"levelo_inurba_marseille","lat":43.241766,"lon":5.383943,"is_reserved":false,"is_disabled":true,"rental_uris":{"android":"levelo://app?vid=29e697ca-26a6-4412-8107-f2c74b259edc","ios":"levelo://app?vid=29e697ca-26a6-4412-8107-f2c74b259edc"},"vehicle_type_id":"4","last_reported":1751303401,"current_range_meters":0,"station_id":"","pricing_plan_id":"cebpf4jnsgd1na2vs0mg"},{"bike_id":"f1483ff6-ae8a-4286-a635-7d40887e3e92","system_id":"levelo_inurba_marseille","lat":43.26967,"lon":5.36632,"is_reserved":false,"is_disabled":true,"rental_uris":{"android":"levelo://app?vid=f1483ff6-ae8a-4286-a635-7d40887e3e92","ios":"levelo://app?vid=f1483ff6-ae8a-4286-a635-7d40887e3e92"},"vehicle_type_id":"4","last_reported":1751303401,"current_range_meters":0,"station_id":"","pricing_plan_id":"cebpf4jnsgd1na2vs0mg"},{"bike_id":"69f3e486-7ece-4da3-bef1-7e43be44cf97","system_id":"levelo_inurba_marseille","lat":43.25631,"lon":5.4196,"is_reserved":false,"is_disabled":true,"rental_uris":{"android":"levelo://app?vid=69f3e486-7ece-4da3-bef1-7e43be44cf97","ios":"levelo://app?vid=69f3e486-7ece-4da3-bef1-7e43be44cf97"},"vehicle_type_id":"4","last_reported":1751303401,"current_range_meters":0,"station_id":"","pricing_plan_id":"cebpf4jnsgd1na2vs0mg"},{"bike_id":"a24f34b0-39ea-4314-9c87-5ae05f74564e","system_id":"levelo_inurba_marseille","lat":43.28878,"lon":5.36073,"is_reserved":false,"is_disabled":true,"rental_uris":{"android":"levelo://app?vid=a24f34b0-39ea-4314-9c87-5ae05f74564e","ios":"levelo://app?vid=a24f34b0-39ea-4314-9c87-5ae05f74564e"},"vehicle_type_id":"4","last_reported":1751303401,"current_range_meters":0,"station_id":"","pricing_plan_id":"cebpf4jnsgd1na2vs0mg"},{"bike_id":"aa6c1647-1ec8-42c9-91a4-38cc1052cdf1","system_id":"levelo_inurba_marseille","lat":43.255506,"lon":5.376772,"is_reserved":false,"is_disabled":true,"rental_uris":{"android":"levelo://app?vid=aa6c1647-1ec8-42c9-91a4-38cc1052cdf1","ios":"levelo://app?vid=aa6c1647-1ec8-42c9-91a4-38cc1052cdf1"},"vehicle_type_id":"4","last_reported":1751303401,"current_range_meters":0,"station_id":"","pricing_plan_id":"cebpf4jnsgd1na2vs0mg"},{"bike_id":"2770c143-b000-416d-b8af-c5c838a1b9a3","system_id":"levelo_inurba_marseille","lat":43.31074,"lon":5.38356,"is_reserved":false,"is_disabled":true,"rental_uris":{"android":"levelo://app?vid=2770c143-b000-416d-b8af-c5c838a1b9a3","ios":"levelo://app?vid=2770c143-b000-416d-b8af-c5c838a1b9a3"},"vehicle_type_id":"4","last_reported":1751303401,"current_range_meters":0,"station_id":"ce4bgv92rcd13ifvqcr0","pricing_plan_id":"cebpf4jnsgd1na2vs0mg"},{"bike_id":"d1181168-ca4e-4224-b374-a966653e4e1e","system_id":"levelo_inurba_marseille","lat":43.25716,"lon":5.37663,"is_reserved":false,"is_disabled":true,"rental_uris":{"android":"levelo://app?vid=d1181168-ca4e-4224-b374-a966653e4e1e","ios":"levelo://app?vid=d1181168-ca4e-4224-b374-a966653e4e1e"},"vehicle_type_id":"4","last_reported":1751303401,"current_range_meters":0,"station_id":"ce4bhgh2rcd13ifvqfa0","pricing_plan_id":"cebpf4jnsgd1na2vs0mg"},{"bike_id":"646e7857-0822-4d00-8e12-2e85693a640d","system_id":"levelo_inurba_marseille","lat":43.23968,"lon":5.36629,"is_reserved":false,"is_disabled":true,"rental_uris":{"android":"levelo://app?vid=646e7857-0822-4d00-8e12-2e85693a640d","ios":"levelo://app?vid=646e7857-0822-4d00-8e12-2e85693a640d"},"vehicle_type_id":"4","last_reported":1751303401,"current_range_meters":0,"station_id":"ce4bhi12rcd13ifvqfp0","pricing_plan_id":"cebpf4jnsgd1na2vs0mg"},{"bike_id":"39b42da8-35ee-430b-9ddb-99acb583650a","system_id":"levelo_inurba_marseille","lat":43.27052,"lon":5.40261,"is_reserved":false,"is_disabled":true,"rental_uris":{"android":"levelo://app?vid=39b42da8-35ee-430b-9ddb-99acb583650a","ios":"levelo://app?vid=39b42da8-35ee-430b-9ddb-99acb583650a"},"vehicle_type_id":"4","last_reported":1751303401,"current_range_meters":0,"station_id":"ce4bhk92rcd13ifvqgc0","pricing_plan_id":"cebpf4jnsgd1na2vs0mg"},{"bike_id":"44c75f08-eba8-4f6c-a0b1-000e8342a4ff","system_id":"levelo_inurba_marseille","lat":43.25869,"lon":5.39893,"is_reserved":false,"is_disabled":true,"rental_uris":{"android":"levelo://app?vid=44c75f08-eba8-4f6c-a0b1-000e8342a4ff","ios":"levelo://app?vid=44c75f08-eba8-4f6c-a0b1-000e8342a4ff"},"vehicle_type_id":"4","last_reported":1751303401,"current_range_meters":0,"station_id":"ce4bhl92rcd13ifvqghg","pricing_plan_id":"cebpf4jnsgd1na2vs0mg"},{"bike_id":"8233db61-1d36-41a5-a985-c98b6a5f0fb4","system_id":"levelo_inurba_marseille","lat":43.217504,"lon":5.345964,"is_reserved":false,"is_disabled":true,"rental_uris":{"android":"levelo://app?vid=8233db61-1d36-41a5-a985-c98b6a5f0fb4","ios":"levelo://app?vid=8233db61-1d36-41a5-a985-c98b6a5f0fb4"},"vehicle_type_id":"4","last_reported":1751303401,"current_range_meters":0,"station_id":"st_cvj6r9ubvosntc0bgbag","pricing_plan_id":"cebpf4jnsgd1na2vs0mg"},{"bike_id":"b8358384-5010-48ab-82ed-9476d2467db2","system_id":"levelo_inurba_marseille","lat":43.21735,"lon":5.34608,"is_reserved":false,"is_disabled":true,"rental_uris":{"android":"levelo://app?vid=b8358384-5010-48ab-82ed-9476d2467db2","ios":"levelo://app?vid=b8358384-5010-48ab-82ed-9476d2467db2"},"vehicle_type_id":"4","last_reported":1751303401,"current_range_meters":0,"station_id":"st_cvj6r9ubvosntc0bgbag","pricing_plan_id":"cebpf4jnsgd1na2vs0mg"},{"bike_id":"85eb80f1-fdf8-4910-9983-416402de22ff","system_id":"levelo_inurba_marseille","lat":43.27726,"lon":5.41515,"is_reserved":false,"is_disabled":true,"rental_uris":{"android":"levelo://app?vid=85eb80f1-fdf8-4910-9983-416402de22ff","ios":"levelo://app?vid=85eb80f1-fdf8-4910-9983-416402de22ff"},"vehicle_type_id":"4","last_reported":1751303401,"current_range_meters":400,"station_id":"","pricing_plan_id":"cebpf4jnsgd1na2vs0mg"},{"bike_id":"4bb4a733-a9bd-4772-9320-a8c7885ff73b","system_id":"levelo_inurba_marseille","lat":43.277722,"lon":5.355687,"is_reserved":false,"is_disabled":true,"rental_uris":{"android":"levelo://app?vid=4bb4a733-a9bd-4772-9320-a8c7885ff73b","ios":"levelo://app?vid=4bb4a733-a9bd-4772-9320-a8c7885ff73b"},"vehicle_type_id":"4","last_reported":1751303401,"current_range_meters":400,"station_id":"","pricing_plan_id":"cebpf4jnsgd1na2vs0mg"},{"bike_id":"2897a310-e708-47cf-a0e4-797ccf27597f","system_id":"levelo_inurba_marseille","lat":43.279717,"lon":5.387369,"is_reserved":false,"is_disabled":true,"rental_uris":{"android":"levelo://app?vid=2897a310-e708-47cf-a0e4-797ccf27597f","ios":"levelo://app?vid=2897a310-e708-47cf-a0e4-797ccf27597f"},"vehicle_type_id":"4","last_reported":1751303401,"current_range_meters":400,"station_id":"ce4bh612rcd13ifvqe6g","pricing_plan_id":"cebpf4jnsgd1na2vs0mg"},{"bike_id":"d04ebb7b-386e-4d00-8fd9-c4126b7c64e3","system_id":"levelo_inurba_marseille","lat":43.309544,"lon":5.400593,"is_reserved":false,"is_disabled":true,"rental_uris":{"android":"levelo://app?vid=d04ebb7b-386e-4d00-8fd9-c4126b7c64e3","ios":"levelo://app?vid=d04ebb7b-386e-4d00-8fd9-c4126b7c64e3"},"vehicle_type_id":"4","last_reported":1751303401,"current_range_meters":400,"station_id":"ce4bhq12rcd13ifvqhig","pricing_plan_id":"cebpf4jnsgd1na2vs0mg"},{"bike_id":"0448b017-e066-4ce4-b568-34d649b72bb2","system_id":"levelo_inurba_marseille","lat":43.30138,"lon":5.38773,"is_reserved":false,"is_disabled":true,"rental_uris":{"android":"levelo://app?vid=0448b017-e066-4ce4-b568-34d649b72bb2","ios":"levelo://app?vid=0448b017-e066-4ce4-b568-34d649b72bb2"},"vehicle_type_id":"4","last_reported":1751303401,"current_range_meters":800,"station_id":"ce4bghh2rcd13ifvqb60","pricing_plan_id":"cebpf4jnsgd1na2vs0mg"},{"bike_id":"72bb50d4-b1a4-445b-8c7e-d5a410d4aa0e","system_id":"levelo_inurba_marseille","lat":43.29271,"lon":5.37433,"is_reserved":false,"is_disabled":true,"rental_uris":{"android":"levelo://app?vid=72bb50d4-b1a4-445b-8c7e-d5a410d4aa0e","ios":"levelo://app?vid=72bb50d4-b1a4-445b-8c7e-d5a410d4aa0e"},"vehicle_type_id":"4","last_reported":1751303401,"current_range_meters":800,"station_id":"ce4bgi12rcd13ifvqb70","pricing_plan_id":"cebpf4jnsgd1na2vs0mg"},{"bike_id":"c55515b1-744c-4ec8-9311-d98c9787a060","system_id":"levelo_inurba_marseille","lat":43.29303,"lon":5.37464,"is_reserved":false,"is_disabled":true,"rental_uris":{"android":"levelo://app?vid=c55515b1-744c-4ec8-9311-d98c9787a060","ios":"levelo://app?vid=c55515b1-744c-4ec8-9311-d98c9787a060"},"vehicle_type_id":"4","last_reported":1751303401,"current_range_meters":800,"station_id":"ce4bgi12rcd13ifvqb70","pricing_plan_id":"cebpf4jnsgd1na2vs0mg"},{"bike_id":"194c66f6-5e64-4523-a9c8-ee59d660de6d","system_id":"levelo_inurba_marseille","lat":43.28714,"lon":5.37921,"is_reserved":false,"is_disabled":true,"rental_uris":{"android":"levelo://app?vid=194c66f6-5e64-4523-a9c8-ee59d660de6d","ios":"levelo://app?vid=194c66f6-5e64-4523-a9c8-ee59d660de6d"},"vehicle_type_id":"4","last_reported":1751303401,"current_range_meters":1200,"station_id":"ce4bh9p2rcd13ifvqec0","pricing_plan_id":"cebpf4jnsgd1na2vs0mg"},{"bike_id":"a37e8def-144c-4d8d-aabf-950aca51f939","system_id":"levelo_inurba_marseille","lat":43.297702,"lon":5.38121,"is_reserved":false,"is_disabled":true,"rental_uris":{"android":"levelo://app?vid=a37e8def-144c-4d8d-aabf-950aca51f939","ios":"levelo://app?vid=a37e8def-144c-4d8d-aabf-950aca51f939"},"vehicle_type_id":"4","last_reported":1751303401,"current_range_meters":1600,"station_id":"","pricing_plan_id":"cebpf4jnsgd1na2vs0mg"},{"bike_id":"a548d60d-e893-4478-8624-42a2023908ba","system_id":"levelo_inurba_marseille","lat":43.296326,"lon":5.377122,"is_reserved":false,"is_disabled":true,"rental_uris":{"android":"levelo://app?vid=a548d60d-e893-4478-8624-42a2023908ba","ios":"levelo://app?vid=a548d60d-e893-4478-8624-42a2023908ba"},"vehicle_type_id":"4","last_reported":1751303401,"current_range_meters":1600,"station_id":"ce4bgi92rcd13ifvqb90","pricing_plan_id":"cebpf4jnsgd1na2vs0mg"},{"bike_id":"1e6bef0d-2704-4d6f-9e48-ec8823422715","system_id":"levelo_inurba_marseille","lat":43.26029,"lon":5.37547,"is_reserved":false,"is_disabled":true,"rental_uris":{"android":"levelo://app?vid=1e6bef0d-2704-4d6f-9e48-ec8823422715","ios":"levelo://app?vid=1e6bef0d-2704-4d6f-9e48-ec8823422715"},"vehicle_type_id":"4","last_reported":1751303401,"current_range_meters":1600,"station_id":"ce4bhgh2rcd13ifvqfa0","pricing_plan_id":"cebpf4jnsgd1na2vs0mg"},{"bike_id":"30916535-07e7-44fe-a97f-1a3502ca50fd","system_id":"levelo_inurba_marseille","lat":43.26168,"lon":5.37911,"is_reserved":false,"is_disabled":true,"rental_uris":{"android":"levelo://app?vid=30916535-07e7-44fe-a97f-1a3502ca50fd","ios":"levelo://app?vid=30916535-07e7-44fe-a97f-1a3502ca50fd"},"vehicle_type_id":"4","last_reported":1751303401,"current_range_meters":1600,"station_id":"ce4bhjp2rcd13ifvqg90","pricing_plan_id":"cebpf4jnsgd1na2vs0mg"},{"bike_id":"9e163c86-36ef-4269-bcd8-6c9e6f4075a0","system_id":"levelo_inurba_marseille","lat":43.302937,"lon":5.371617,"is_reserved":false,"is_disabled":true,"rental_uris":{"android":"levelo://app?vid=9e163c86-36ef-4269-bcd8-6c9e6f4075a0","ios":"levelo://app?vid=9e163c86-36ef-4269-bcd8-6c9e6f4075a0"},"vehicle_type_id":"4","last_reported":1751303401,"current_range_meters":2000,"station_id":"","pricing_plan_id":"cebpf4jnsgd1na2vs0mg"},{"bike_id":"1672525f-3f23-4d0e-a7f8-3c56f8f14b61","system_id":"levelo_inurba_marseille","lat":43.31708,"lon":5.37728,"is_reserved":false,"is_disabled":true,"rental_uris":{"android":"levelo://app?vid=1672525f-3f23-4d0e-a7f8-3c56f8f14b61","ios":"levelo://app?vid=1672525f-3f23-4d0e-a7f8-3c56f8f14b61"},"vehicle_type_id":"4","last_reported":1751303401,"current_range_meters":2000,"station_id":"ce4bgth2rcd13ifvqch0","pricing_plan_id":"cebpf4jnsgd1na2vs0mg"},{"bike_id":"3350f01b-e5bc-49a4-9fb3-c7ba661cbc1a","system_id":"levelo_inurba_marseille","lat":43.292755,"lon":5.401146,"is_reserved":false,"is_disabled":false,"rental_uris":{"android":"levelo://app?vid=3350f01b-e5bc-49a4-9fb3-c7ba661cbc1a","ios":"levelo://app?vid=3350f01b-e5bc-49a4-9fb3-c7ba661cbc1a"},"vehicle_type_id":"4","last_reported":1751303401,"current_range_meters":2000,"station_id":"ce4bh312rcd13ifvqdk0","pricing_plan_id":"cebpf4jnsgd1na2vs0mg"},{"bike_id":"e8a2f3a4-5d22-41f9-abfb-5ac1d45649f5","system_id":"levelo_inurba_marseille","lat":43.29265,"lon":5.38443,"is_reserved":false,"is_disabled":true,"rental_uris":{"android":"levelo://app?vid=e8a2f3a4-5d22-41f9-abfb-5ac1d45649f5","ios":"levelo://app?vid=e8a2f3a4-5d22-41f9-abfb-5ac1d45649f5"},"vehicle_type_id":"4","last_reported":1751303401,"current_range_meters":2000,"station_id":"ce4bh692rcd13ifvqea0","pricing_plan_id":"cebpf4jnsgd1na2vs0mg"},{"bike_id":"0367251a-ae36-4cf4-9a9c-fbd60dd16c1d","system_id":"levelo_inurba_marseille","lat":43.27684,"lon":5.3892,"is_reserved":false,"is_disabled":true,"rental_uris":{"android":"levelo://app?vid=0367251a-ae36-4cf4-9a9c-fbd60dd16c1d","ios":"levelo://app?vid=0367251a-ae36-4cf4-9a9c-fbd60dd16c1d"},"vehicle_type_id":"4","last_reported":1751303401,"current_range_meters":2000,"station_id":"ce4bhi12rcd13ifvqfo0","pricing_plan_id":"cebpf4jnsgd1na2vs0mg"},{"bike_id":"d5b5bc74-aaeb-40c0-b979-fb1a262527de","system_id":"levelo_inurba_marseille","lat":43.33232,"lon":5.35857,"is_reserved":false,"is_disabled":false,"rental_uris":{"android":"levelo://app?vid=d5b5bc74-aaeb-40c0-b979-fb1a262527de","ios":"levelo://app?vid=d5b5bc74-aaeb-40c0-b979-fb1a262527de"},"vehicle_type_id":"4","last_reported":1751303401,"current_range_meters":2800,"station_id":"","pricing_plan_id":"cebpf4jnsgd1na2vs0mg"},{"bike_id":"77e12d30-d5cd-4e0f-a247-10b3b84cc3c8","system_id":"levelo_inurba_marseille","lat":43.31851,"lon":5.42453,"is_reserved":false,"is_disabled":false,"rental_uris":{"android":"levelo://app?vid=77e12d30-d5cd-4e0f-a247-10b3b84cc3c8","ios":"levelo://app?vid=77e12d30-d5cd-4e0f-a247-10b3b84cc3c8"},"vehicle_type_id":"4","last_reported":1751303401,"current_range_meters":2800,"station_id":"","pricing_plan_id":"cebpf4jnsgd1na2vs0mg"},{"bike_id":"08847caa-cbd8-4ca1-b1cb-4e99bea2d7e5","system_id":"levelo_inurba_marseille","lat":43.29005,"lon":5.3561,"is_reserved":false,"is_disabled":false,"rental_uris":{"android":"levelo://app?vid=08847caa-cbd8-4ca1-b1cb-4e99bea2d7e5","ios":"levelo://app?vid=08847caa-cbd8-4ca1-b1cb-4e99bea2d7e5"},"vehicle_type_id":"4","last_reported":1751303401,"current_range_meters":2800,"station_id":"ce4bhb92rcd13ifvqen0","pricing_plan_id":"cebpf4jnsgd1na2vs0mg"},{"bike_id":"98775f4e-7bf0-4480-9890-9dac8ccb8d90","system_id":"levelo_inurba_marseille","lat":43.250114,"lon":5.389324,"is_reserved":false,"is_disabled":false,"rental_uris":{"android":"levelo://app?vid=98775f4e-7bf0-4480-9890-9dac8ccb8d90","ios":"levelo://app?vid=98775f4e-7bf0-4480-9890-9dac8ccb8d90"},"vehicle_type_id":"4","last_reported":1751303401,"current_range_meters":2800,"station_id":"ce4bhgp2rcd13ifvqfd0","pricing_plan_id":"cebpf4jnsgd1na2vs0mg"},{"bike_id":"14d9fd99-9b30-4153-ba8e-87760ef8d31a","system_id":"levelo_inurba_marseille","lat":43.270078,"lon":5.387475,"is_reserved":false,"is_disabled":false,"rental_uris":{"android":"levelo://app?vid=14d9fd99-9b30-4153-ba8e-87760ef8d31a","ios":"levelo://app?vid=14d9fd99-9b30-4153-ba8e-87760ef8d31a"},"vehicle_type_id":"4","last_reported":1751303401,"current_range_meters":3200,"station_id":"","pricing_plan_id":"cebpf4jnsgd1na2vs0mg"},{"bike_id":"8b5d50fe-efeb-451f-ba0c-c42b17a0b5fb","system_id":"levelo_inurba_marseille","lat":43.293,"lon":5.37463,"is_reserved":false,"is_disabled":false,"rental_uris":{"android":"levelo://app?vid=8b5d50fe-efeb-451f-ba0c-c42b17a0b5fb","ios":"levelo://app?vid=8b5d50fe-efeb-451f-ba0c-c42b17a0b5fb"},"vehicle_type_id":"4","last_reported":1751303401,"current_range_meters":3200,"station_id":"ce4bgi12rcd13ifvqb70","pricing_plan_id":"cebpf4jnsgd1na2vs0mg"},{"bike_id":"721165c1-ef6f-40cc-8d33-af3a7999864b","system_id":"levelo_inurba_marseille","lat":43.3261,"lon":5.37889,"is_reserved":false,"is_disabled":false,"rental_uris":{"android":"levelo://app?vid=721165c1-ef6f-40cc-8d33-af3a7999864b","ios":"levelo://app?vid=721165c1-ef6f-40cc-8d33-af3a7999864b"},"vehicle_type_id":"4","last_reported":1751303401,"current_range_meters":3600,"station_id":"","pricing_plan_id":"cebpf4jnsgd1na2vs0mg"},{"bike_id":"8be03bc6-6da3-45df-b873-1a462301510b","system_id":"levelo_inurba_marseille","lat":43.31709,"lon":5.43713,"is_reserved":false,"is_disabled":false,"rental_uris":{"android":"levelo://app?vid=8be03bc6-6da3-45df-b873-1a462301510b","ios":"levelo://app?vid=8be03bc6-6da3-45df-b873-1a462301510b"},"vehicle_type_id":"4","last_reported":1751303401,"current_range_meters":3600,"station_id":"ce4bhp92rcd13ifvqhcg","pricing_plan_id":"cebpf4jnsgd1na2vs0mg"},{"bike_id":"641c0973-fe9f-4f2c-a682-42d258a4ab69","system_id":"levelo_inurba_marseille","lat":43.297104,"lon":5.365784,"is_reserved":false,"is_disabled":true,"rental_uris":{"android":"levelo://app?vid=641c0973-fe9f-4f2c-a682-42d258a4ab69","ios":"levelo://app?vid=641c0973-fe9f-4f2c-a682-42d258a4ab69"},"vehicle_type_id":"4","last_reported":1751303401,"current_range_meters":4000,"station_id":"ce4bgn12rcd13ifvqbt0","pricing_plan_id":"cebpf4jnsgd1na2vs0mg"},{"bike_id":"9ac3c418-ff69-4b87-8ba2-f2d94e7f69db","system_id":"levelo_inurba_marseille","lat":43.26557,"lon":5.3728,"is_reserved":false,"is_disabled":false,"rental_uris":{"android":"levelo://app?vid=9ac3c418-ff69-4b87-8ba2-f2d94e7f69db","ios":"levelo://app?vid=9ac3c418-ff69-4b87-8ba2-f2d94e7f69db"},"vehicle_type_id":"4","last_reported":1751303401,"current_range_meters":4000,"station_id":"ce4bhg12rcd13ifvqf70","pricing_plan_id":"cebpf4jnsgd1na2vs0mg"},{"bike_id":"87985e62-2823-4157-8a35-599ee9a377ab","system_id":"levelo_inurba_marseille","lat":43.2119,"lon":5.35073,"is_reserved":false,"is_disabled":false,"rental_uris":{"android":"levelo://app?vid=87985e62-2823-4157-8a35-599ee9a377ab","ios":"levelo://app?vid=87985e62-2823-4157-8a35-599ee9a377ab"},"vehicle_type_id":"4","last_reported":1751303401,"current_range_meters":4000,"station_id":"st_cvj6sg6p6f1abm77japg","pricing_plan_id":"cebpf4jnsgd1na2vs0mg"},{"bike_id":"dc903f08-e0db-48f6-b37d-ddd92c0e4541","system_id":"levelo_inurba_marseille","lat":43.30787,"lon":5.37649,"is_reserved":false,"is_disabled":false,"rental_uris":{"android":"levelo://app?vid=dc903f08-e0db-48f6-b37d-ddd92c0e4541","ios":"levelo://app?vid=dc903f08-e0db-48f6-b37d-ddd92c0e4541"},"vehicle_type_id":"4","last_reported":1751303401,"current_range_meters":4400,"station_id":"ce4bgv92rcd13ifvqcq0","pricing_plan_id":"cebpf4jnsgd1na2vs0mg"},{"bike_id":"5ffb03d7-e1ff-4062-ad33-de6e7b8c6881","system_id":"levelo_inurba_marseille","lat":43.28265,"lon":5.35057,"is_reserved":false,"is_disabled":false,"rental_uris":{"android":"levelo://app?vid=5ffb03d7-e1ff-4062-ad33-de6e7b8c6881","ios":"levelo://app?vid=5ffb03d7-e1ff-4062-ad33-de6e7b8c6881"},"vehicle_type_id":"4","last_reported":1751303401,"current_range_meters":4400,"station_id":"ce4bhbp2rcd13ifvqerg","pricing_plan_id":"cebpf4jnsgd1na2vs0mg"},{"bike_id":"ffe86ecf-8218-42c2-9666-7ded5d5d409a","system_id":"levelo_inurba_marseille","lat":43.28618,"lon":5.35108,"is_reserved":false,"is_disabled":false,"rental_uris":{"android":"levelo://app?vid=ffe86ecf-8218-42c2-9666-7ded5d5d409a","ios":"levelo://app?vid=ffe86ecf-8218-42c2-9666-7ded5d5d409a"},"vehicle_type_id":"4","last_reported":1751303401,"current_range_meters":4400,"station_id":"ce4bhch2rcd13ifvqeug","pricing_plan_id":"cebpf4jnsgd1na2vs0mg"},{"bike_id":"53a51543-ed9b-4f1e-b237-09bb3f87dcb0","system_id":"levelo_inurba_marseille","lat":43.25498,"lon":5.37651,"is_reserved":false,"is_disabled":false,"rental_uris":{"android":"levelo://app?vid=53a51543-ed9b-4f1e-b237-09bb3f87dcb0","ios":"levelo://app?vid=53a51543-ed9b-4f1e-b237-09bb3f87dcb0"},"vehicle_type_id":"4","last_reported":1751303401,"current_range_meters":4400,"station_id":"ce4bhh12rcd13ifvqff0","pricing_plan_id":"cebpf4jnsgd1na2vs0mg"},{"bike_id":"2dc56f5a-0918-42fe-986b-4389cd4b8b51","system_id":"levelo_inurba_marseille","lat":43.24074,"lon":5.37751,"is_reserved":false,"is_disabled":false,"rental_uris":{"android":"levelo://app?vid=2dc56f5a-0918-42fe-986b-4389cd4b8b51","ios":"levelo://app?vid=2dc56f5a-0918-42fe-986b-4389cd4b8b51"},"vehicle_type_id":"4","last_reported":1751303401,"current_range_meters":4800,"station_id":"ce4bhnp2rcd13ifvqgvg","pricing_plan_id":"cebpf4jnsgd1na2vs0mg"},{"bike_id":"a10fb021-1df6-4b2c-8e84-6ae5593f7fc2","system_id":"levelo_inurba_marseille","lat":43.30321,"lon":5.40432,"is_reserved":false,"is_disabled":false,"rental_uris":{"android":"levelo://app?vid=a10fb021-1df6-4b2c-8e84-6ae5593f7fc2","ios":"levelo://app?vid=a10fb021-1df6-4b2c-8e84-6ae5593f7fc2"},"vehicle_type_id":"4","last_reported":1751303401,"current_range_meters":5600,"station_id":"ce4bh012rcd13ifvqd10","pricing_plan_id":"cebpf4jnsgd1na2vs0mg"},{"bike_id":"f28c121a-87ad-4e72-bd76-9c9ae64912d7","system_id":"levelo_inurba_marseille","lat":43.2763,"lon":5.42237,"is_reserved":false,"is_disabled":false,"rental_uris":{"android":"levelo://app?vid=f28c121a-87ad-4e72-bd76-9c9ae64912d7","ios":"levelo://app?vid=f28c121a-87ad-4e72-bd76-9c9ae64912d7"},"vehicle_type_id":"4","last_reported":1751303401,"current_range_meters":6000,"station_id":"","pricing_plan_id":"cebpf4jnsgd1na2vs0mg"},{"bike_id":"a80948af-afd9-421e-b196-30cfcc14c03c","system_id":"levelo_inurba_marseille","lat":43.29006,"lon":5.35625,"is_reserved":false,"is_disabled":false,"rental_uris":{"android":"levelo://app?vid=a80948af-afd9-421e-b196-30cfcc14c03c","ios":"levelo://app?vid=a80948af-afd9-421e-b196-30cfcc14c03c"},"vehicle_type_id":"4","last_reported":1751303401,"current_range_meters":6000,"station_id":"ce4bhb92rcd13ifvqen0","pricing_plan_id":"cebpf4jnsgd1na2vs0mg"},{"bike_id":"8c658d55-d7ea-42cc-bb33-c35c09988b25","system_id":"levelo_inurba_marseille","lat":43.29051,"lon":5.35919,"is_reserved":false,"is_disabled":false,"rental_uris":{"android":"levelo://app?vid=8c658d55-d7ea-42cc-bb33-c35c09988b25","ios":"levelo://app?vid=8c658d55-d7ea-42cc-bb33-c35c09988b25"},"vehicle_type_id":"4","last_reported":1751303401,"current_range_meters":6400,"station_id":"ce4bha92rcd13ifvqeg0","pricing_plan_id":"cebpf4jnsgd1na2vs0mg"},{"bike_id":"e51f8863-feb4-46b5-9014-efb2971f3ef5","system_id":"levelo_inurba_marseille","lat":43.23195,"lon":5.35537,"is_reserved":false,"is_disabled":false,"rental_uris":{"android":"levelo://app?vid=e51f8863-feb4-46b5-9014-efb2971f3ef5","ios":"levelo://app?vid=e51f8863-feb4-46b5-9014-efb2971f3ef5"},"vehicle_type_id":"4","last_reported":1751303401,"current_range_meters":6400,"station_id":"ce4bhu92rcd13ifvqi70","pricing_plan_id":"cebpf4jnsgd1na2vs0mg"},{"bike_id":"7b28ebac-3c6a-43aa-aca9-7bd954b07205","system_id":"levelo_inurba_marseille","lat":43.296667,"lon":5.3793,"is_reserved":false,"is_disabled":false,"rental_uris":{"android":"levelo://app?vid=7b28ebac-3c6a-43aa-aca9-7bd954b07205","ios":"levelo://app?vid=7b28ebac-3c6a-43aa-aca9-7bd954b07205"},"vehicle_type_id":"4","last_reported":1751303401,"current_range_meters":6800,"station_id":"","pricing_plan_id":"cebpf4jnsgd1na2vs0mg"},{"bike_id":"cbe8cf16-ee4d-44dc-af26-2dea0d93d494","system_id":"levelo_inurba_marseille","lat":43.337444,"lon":5.374475,"is_reserved":false,"is_disabled":false,"rental_uris":{"android":"levelo://app?vid=cbe8cf16-ee4d-44dc-af26-2dea0d93d494","ios":"levelo://app?vid=cbe8cf16-ee4d-44dc-af26-2dea0d93d494"},"vehicle_type_id":"4","last_reported":1751303401,"current_range_meters":6800,"station_id":"","pricing_plan_id":"cebpf4jnsgd1na2vs0mg"},{"bike_id":"cdeb0880-b4bc-4765-bb4c-bbf4c7a223c4","system_id":"levelo_inurba_marseille","lat":43.29574,"lon":5.37528,"is_reserved":false,"is_disabled":false,"rental_uris":{"android":"levelo://app?vid=cdeb0880-b4bc-4765-bb4c-bbf4c7a223c4","ios":"levelo://app?vid=cdeb0880-b4bc-4765-bb4c-bbf4c7a223c4"},"vehicle_type_id":"4","last_reported":1751303401,"current_range_meters":6800,"station_id":"ce4bgh92rcd13ifvqb50","pricing_plan_id":"cebpf4jnsgd1na2vs0mg"},{"bike_id":"b1a15ea5-5e88-4875-8a84-db50ff595b48","system_id":"levelo_inurba_marseille","lat":43.28671,"lon":5.38666,"is_reserved":false,"is_disabled":false,"rental_uris":{"android":"levelo://app?vid=b1a15ea5-5e88-4875-8a84-db50ff595b48","ios":"levelo://app?vid=b1a15ea5-5e88-4875-8a84-db50ff595b48"},"vehicle_type_id":"4","last_reported":1751303401,"current_range_meters":6800,"station_id":"ce4bh492rcd13ifvqdug","pricing_plan_id":"cebpf4jnsgd1na2vs0mg"},{"bike_id":"bd5616b9-18a4-4e77-9521-e1fd2fea70a1","system_id":"levelo_inurba_marseille","lat":43.2792,"lon":5.39574,"is_reserved":false,"is_disabled":false,"rental_uris":{"android":"levelo://app?vid=bd5616b9-18a4-4e77-9521-e1fd2fea70a1","ios":"levelo://app?vid=bd5616b9-18a4-4e77-9521-e1fd2fea70a1"},"vehicle_type_id":"4","last_reported":1751303401,"current_range_meters":6800,"station_id":"ce4bhf92rcd13ifvqf40","pricing_plan_id":"cebpf4jnsgd1na2vs0mg"},{"bike_id":"db096858-e9b4-4661-a1f1-fe0b5c8ed2d1","system_id":"levelo_inurba_marseille","lat":43.26213,"lon":5.37438,"is_reserved":false,"is_disabled":false,"rental_uris":{"android":"levelo://app?vid=db096858-e9b4-4661-a1f1-fe0b5c8ed2d1","ios":"levelo://app?vid=db096858-e9b4-4661-a1f1-fe0b5c8ed2d1"},"vehicle_type_id":"4","last_reported":1751303401,"current_range_meters":6800,"station_id":"ce4bhgp2rcd13ifvqfc0","pricing_plan_id":"cebpf4jnsgd1na2vs0mg"},{"bike_id":"d8405033-a2fe-4015-ab40-06e7111c2e46","system_id":"levelo_inurba_marseille","lat":43.26199,"lon":5.37436,"is_reserved":false,"is_disabled":false,"rental_uris":{"android":"levelo://app?vid=d8405033-a2fe-4015-ab40-06e7111c2e46","ios":"levelo://app?vid=d8405033-a2fe-4015-ab40-06e7111c2e46"},"vehicle_type_id":"4","last_reported":1751303401,"current_range_meters":6800,"station_id":"ce4bhgp2rcd13ifvqfc0","pricing_plan_id":"cebpf4jnsgd1na2vs0mg"},{"bike_id":"51a2ba34-d3de-4d07-a241-b159de091f2d","system_id":"levelo_inurba_marseille","lat":43.289327,"lon":5.366499,"is_reserved":false,"is_disabled":false,"rental_uris":{"android":"levelo://app?vid=51a2ba34-d3de-4d07-a241-b159de091f2d","ios":"levelo://app?vid=51a2ba34-d3de-4d07-a241-b159de091f2d"},"vehicle_type_id":"4","last_reported":1751303401,"current_range_meters":7200,"station_id":"ce4bhap2rcd13ifvqek0","pricing_plan_id":"cebpf4jnsgd1na2vs0mg"},{"bike_id":"2272408f-5376-4c4e-a7ec-44ff9968fac9","system_id":"levelo_inurba_marseille","lat":43.284193,"lon":5.349871,"is_reserved":false,"is_disabled":false,"rental_uris":{"android":"levelo://app?vid=2272408f-5376-4c4e-a7ec-44ff9968fac9","ios":"levelo://app?vid=2272408f-5376-4c4e-a7ec-44ff9968fac9"},"vehicle_type_id":"4","last_reported":1751303401,"current_range_meters":7200,"station_id":"ce4bhbh2rcd13ifvqepg","pricing_plan_id":"cebpf4jnsgd1na2vs0mg"},{"bike_id":"9fc6b39a-5532-40ac-8f58-975bced56a19","system_id":"levelo_inurba_marseille","lat":43.32592,"lon":5.40473,"is_reserved":false,"is_disabled":false,"rental_uris":{"android":"levelo://app?vid=9fc6b39a-5532-40ac-8f58-975bced56a19","ios":"levelo://app?vid=9fc6b39a-5532-40ac-8f58-975bced56a19"},"vehicle_type_id":"4","last_reported":1751303401,"current_range_meters":8000,"station_id":"","pricing_plan_id":"cebpf4jnsgd1na2vs0mg"},{"bike_id":"d308c658-b19c-49c0-8014-5506ff26f69a","system_id":"levelo_inurba_marseille","lat":43.23192,"lon":5.4049,"is_reserved":false,"is_disabled":false,"rental_uris":{"android":"levelo://app?vid=d308c658-b19c-49c0-8014-5506ff26f69a","ios":"levelo://app?vid=d308c658-b19c-49c0-8014-5506ff26f69a"},"vehicle_type_id":"4","last_reported":1751303401,"current_range_meters":8000,"station_id":"","pricing_plan_id":"cebpf4jnsgd1na2vs0mg"},{"bike_id":"f0ab2953-00a8-4486-9d66-9fb536ae1c7f","system_id":"levelo_inurba_marseille","lat":43.26195,"lon":5.37449,"is_reserved":false,"is_disabled":false,"rental_uris":{"android":"levelo://app?vid=f0ab2953-00a8-4486-9d66-9fb536ae1c7f","ios":"levelo://app?vid=f0ab2953-00a8-4486-9d66-9fb536ae1c7f"},"vehicle_type_id":"4","last_reported":1751303401,"current_range_meters":8000,"station_id":"ce4bhgp2rcd13ifvqfc0","pricing_plan_id":"cebpf4jnsgd1na2vs0mg"},{"bike_id":"b8da322e-6364-4129-9703-2cc0ad23c751","system_id":"levelo_inurba_marseille","lat":43.30307,"lon":5.39215,"is_reserved":false,"is_disabled":false,"rental_uris":{"android":"levelo://app?vid=b8da322e-6364-4129-9703-2cc0ad23c751","ios":"levelo://app?vid=b8da322e-6364-4129-9703-2cc0ad23c751"},"vehicle_type_id":"4","last_reported":1751303401,"current_range_meters":8400,"station_id":"ce4bgkh2rcd13ifvqbk0","pricing_plan_id":"cebpf4jnsgd1na2vs0mg"},{"bike_id":"c595d0e1-c778-4abe-9c79-a9dd74f54e27","system_id":"levelo_inurba_marseille","lat":43.2447,"lon":5.37208,"is_reserved":false,"is_disabled":false,"rental_uris":{"android":"levelo://app?vid=c595d0e1-c778-4abe-9c79-a9dd74f54e27","ios":"levelo://app?vid=c595d0e1-c778-4abe-9c79-a9dd74f54e27"},"vehicle_type_id":"4","last_reported":1751303401,"current_range_meters":8800,"station_id":"","pricing_plan_id":"cebpf4jnsgd1na2vs0mg"},{"bike_id":"3035be0e-7c3d-4f7d-a1cb-7a1af59e497b","system_id":"levelo_inurba_marseille","lat":43.29659,"lon":5.35992,"is_reserved":false,"is_disabled":false,"rental_uris":{"android":"levelo://app?vid=3035be0e-7c3d-4f7d-a1cb-7a1af59e497b","ios":"levelo://app?vid=3035be0e-7c3d-4f7d-a1cb-7a1af59e497b"},"vehicle_type_id":"4","last_reported":1751303401,"current_range_meters":8800,"station_id":"","pricing_plan_id":"cebpf4jnsgd1na2vs0mg"},{"bike_id":"778fcc78-2ab6-4a91-9230-d57454d9b4de","system_id":"levelo_inurba_marseille","lat":43.3112,"lon":5.37765,"is_reserved":false,"is_disabled":false,"rental_uris":{"android":"levelo://app?vid=778fcc78-2ab6-4a91-9230-d57454d9b4de","ios":"levelo://app?vid=778fcc78-2ab6-4a91-9230-d57454d9b4de"},"vehicle_type_id":"4","last_reported":1751303401,"current_range_meters":8800,"station_id":"ce4bgt92rcd13ifvqcg0","pricing_plan_id":"cebpf4jnsgd1na2vs0mg"},{"bike_id":"120036e1-945c-4ddf-ba61-047361af53a6","system_id":"levelo_inurba_marseille","lat":43.21208,"lon":5.35081,"is_reserved":false,"is_disabled":false,"rental_uris":{"android":"levelo://app?vid=120036e1-945c-4ddf-ba61-047361af53a6","ios":"levelo://app?vid=120036e1-945c-4ddf-ba61-047361af53a6"},"vehicle_type_id":"4","last_reported":1751303401,"current_range_meters":8800,"station_id":"st_cvj6sg6p6f1abm77japg","pricing_plan_id":"cebpf4jnsgd1na2vs0mg"},{"bike_id":"59a074fc-769e-4d5d-a6d4-002d8e573dd6","system_id":"levelo_inurba_marseille","lat":43.211817,"lon":5.350686,"is_reserved":false,"is_disabled":false,"rental_uris":{"android":"levelo://app?vid=59a074fc-769e-4d5d-a6d4-002d8e573dd6","ios":"levelo://app?vid=59a074fc-769e-4d5d-a6d4-002d8e573dd6"},"vehicle_type_id":"4","last_reported":1751303401,"current_range_meters":8800,"station_id":"st_cvj6sg6p6f1abm77japg","pricing_plan_id":"cebpf4jnsgd1na2vs0mg"},{"bike_id":"05d3d448-235e-4ac7-88df-050f15d5a616","system_id":"levelo_inurba_marseille","lat":43.27905,"lon":5.42231,"is_reserved":false,"is_disabled":false,"rental_uris":{"android":"levelo://app?vid=05d3d448-235e-4ac7-88df-050f15d5a616","ios":"levelo://app?vid=05d3d448-235e-4ac7-88df-050f15d5a616"},"vehicle_type_id":"4","last_reported":1751303401,"current_range_meters":9200,"station_id":"","pricing_plan_id":"cebpf4jnsgd1na2vs0mg"},{"bike_id":"87dc0652-9072-4a09-a513-786b6f525547","system_id":"levelo_inurba_marseille","lat":43.30306,"lon":5.39217,"is_reserved":false,"is_disabled":false,"rental_uris":{"android":"levelo://app?vid=87dc0652-9072-4a09-a513-786b6f525547","ios":"levelo://app?vid=87dc0652-9072-4a09-a513-786b6f525547"},"vehicle_type_id":"4","last_reported":1751303401,"current_range_meters":9200,"station_id":"ce4bgkh2rcd13ifvqbk0","pricing_plan_id":"cebpf4jnsgd1na2vs0mg"},{"bike_id":"ca460854-ca8c-48cc-b4d1-79d84974b0e4","system_id":"levelo_inurba_marseille","lat":43.28572,"lon":5.39497,"is_reserved":false,"is_disabled":false,"rental_uris":{"android":"levelo://app?vid=ca460854-ca8c-48cc-b4d1-79d84974b0e4","ios":"levelo://app?vid=ca460854-ca8c-48cc-b4d1-79d84974b0e4"},"vehicle_type_id":"4","last_reported":1751303401,"current_range_meters":9200,"station_id":"ce4bh292rcd13ifvqdg0","pricing_plan_id":"cebpf4jnsgd1na2vs0mg"},{"bike_id":"0c8585e3-579a-4669-8a86-99043e37dc6b","system_id":"levelo_inurba_marseille","lat":43.29524,"lon":5.39031,"is_reserved":false,"is_disabled":false,"rental_uris":{"android":"levelo://app?vid=0c8585e3-579a-4669-8a86-99043e37dc6b","ios":"levelo://app?vid=0c8585e3-579a-4669-8a86-99043e37dc6b"},"vehicle_type_id":"4","last_reported":1751303401,"current_range_meters":9200,"station_id":"ce4bh3p2rcd13ifvqdp0","pricing_plan_id":"cebpf4jnsgd1na2vs0mg"},{"bike_id":"500d68ee-2578-4e42-8dd8-1ef241a7fae1","system_id":"levelo_inurba_marseille","lat":43.28857,"lon":5.3585,"is_reserved":false,"is_disabled":false,"rental_uris":{"android":"levelo://app?vid=500d68ee-2578-4e42-8dd8-1ef241a7fae1","ios":"levelo://app?vid=500d68ee-2578-4e42-8dd8-1ef241a7fae1"},"vehicle_type_id":"4","last_reported":1751303401,"current_range_meters":9200,"station_id":"ce4bhb12rcd13ifvqem0","pricing_plan_id":"cebpf4jnsgd1na2vs0mg"},{"bike_id":"b73a0178-8f7f-4454-9115-ddfc34fb5d26","system_id":"levelo_inurba_marseille","lat":43.26031,"lon":5.37549,"is_reserved":false,"is_disabled":false,"rental_uris":{"android":"levelo://app?vid=b73a0178-8f7f-4454-9115-ddfc34fb5d26","ios":"levelo://app?vid=b73a0178-8f7f-4454-9115-ddfc34fb5d26"},"vehicle_type_id":"4","last_reported":1751303401,"current_range_meters":9200,"station_id":"ce4bhgh2rcd13ifvqfa0","pricing_plan_id":"cebpf4jnsgd1na2vs0mg"},{"bike_id":"8c17d133-39c7-4917-9f1e-5dea3f8e59e6","system_id":"levelo_inurba_marseille","lat":43.21214,"lon":5.35064,"is_reserved":false,"is_disabled":false,"rental_uris":{"android":"levelo://app?vid=8c17d133-39c7-4917-9f1e-5dea3f8e59e6","ios":"levelo://app?vid=8c17d133-39c7-4917-9f1e-5dea3f8e59e6"},"vehicle_type_id":"4","last_reported":1751303401,"current_range_meters":9200,"station_id":"st_cvj6sg6p6f1abm77japg","pricing_plan_id":"cebpf4jnsgd1na2vs0mg"},{"bike_id":"07bc512e-7b65-40da-8c8d-93438a4c42b3","system_id":"levelo_inurba_marseille","lat":43.29519,"lon":5.37499,"is_reserved":false,"is_disabled":false,"rental_uris":{"android":"levelo://app?vid=07bc512e-7b65-40da-8c8d-93438a4c42b3","ios":"levelo://app?vid=07bc512e-7b65-40da-8c8d-93438a4c42b3"},"vehicle_type_id":"4","last_reported":1751303401,"current_range_meters":9600,"station_id":"ce4bgkp2rcd13ifvqbmg","pricing_plan_id":"cebpf4jnsgd1na2vs0mg"},{"bike_id":"8e89e8de-72a8-4d31-b448-31629e29649d","system_id":"levelo_inurba_marseille","lat":43.29515,"lon":5.39389,"is_reserved":false,"is_disabled":false,"rental_uris":{"android":"levelo://app?vid=8e89e8de-72a8-4d31-b448-31629e29649d","ios":"levelo://app?vid=8e89e8de-72a8-4d31-b448-31629e29649d"},"vehicle_type_id":"4","last_reported":1751303401,"current_range_meters":9600,"station_id":"ce4bh292rcd13ifvqdf0","pricing_plan_id":"cebpf4jnsgd1na2vs0mg"},{"bike_id":"1af08e4d-dedc-478e-b829-39b3bcb06991","system_id":"levelo_inurba_marseille","lat":43.23194,"lon":5.35543,"is_reserved":false,"is_disabled":false,"rental_uris":{"android":"levelo://app?vid=1af08e4d-dedc-478e-b829-39b3bcb06991","ios":"levelo://app?vid=1af08e4d-dedc-478e-b829-39b3bcb06991"},"vehicle_type_id":"4","last_reported":1751303401,"current_range_meters":9600,"station_id":"ce4bhu92rcd13ifvqi70","pricing_plan_id":"cebpf4jnsgd1na2vs0mg"},{"bike_id":"7d2ebbac-d26c-416a-b58e-5e3abed80858","system_id":"levelo_inurba_marseille","lat":43.21196,"lon":5.35062,"is_reserved":false,"is_disabled":false,"rental_uris":{"android":"levelo://app?vid=7d2ebbac-d26c-416a-b58e-5e3abed80858","ios":"levelo://app?vid=7d2ebbac-d26c-416a-b58e-5e3abed80858"},"vehicle_type_id":"4","last_reported":1751303401,"current_range_meters":9600,"station_id":"st_cvj6sg6p6f1abm77japg","pricing_plan_id":"cebpf4jnsgd1na2vs0mg"},{"bike_id":"b05ac08d-847b-4f20-ac36-038a0d69d167","system_id":"levelo_inurba_marseille","lat":43.28124,"lon":5.35846,"is_reserved":false,"is_disabled":false,"rental_uris":{"android":"levelo://app?vid=b05ac08d-847b-4f20-ac36-038a0d69d167","ios":"levelo://app?vid=b05ac08d-847b-4f20-ac36-038a0d69d167"},"vehicle_type_id":"4","last_reported":1751303401,"current_range_meters":10000,"station_id":"","pricing_plan_id":"cebpf4jnsgd1na2vs0mg"},{"bike_id":"2597cfb9-a140-43b4-974a-b1fa187811ef","system_id":"levelo_inurba_marseille","lat":43.29531,"lon":5.38539,"is_reserved":false,"is_disabled":false,"rental_uris":{"android":"levelo://app?vid=2597cfb9-a140-43b4-974a-b1fa187811ef","ios":"levelo://app?vid=2597cfb9-a140-43b4-974a-b1fa187811ef"},"vehicle_type_id":"4","last_reported":1751303401,"current_range_meters":10000,"station_id":"ce4bgih2rcd13ifvqba0","pricing_plan_id":"cebpf4jnsgd1na2vs0mg"},{"bike_id":"949511e5-5cd5-4b37-92e2-198690018337","system_id":"levelo_inurba_marseille","lat":43.28458,"lon":5.35881,"is_reserved":false,"is_disabled":false,"rental_uris":{"android":"levelo://app?vid=949511e5-5cd5-4b37-92e2-198690018337","ios":"levelo://app?vid=949511e5-5cd5-4b37-92e2-198690018337"},"vehicle_type_id":"4","last_reported":1751303401,"current_range_meters":10000,"station_id":"ce4bhah2rcd13ifvqei0","pricing_plan_id":"cebpf4jnsgd1na2vs0mg"},{"bike_id":"2c8d9a15-40e4-443b-8826-9d8d7e3bd7d6","system_id":"levelo_inurba_marseille","lat":43.28616,"lon":5.35107,"is_reserved":false,"is_disabled":false,"rental_uris":{"android":"levelo://app?vid=2c8d9a15-40e4-443b-8826-9d8d7e3bd7d6","ios":"levelo://app?vid=2c8d9a15-40e4-443b-8826-9d8d7e3bd7d6"},"vehicle_type_id":"4","last_reported":1751303401,"current_range_meters":10000,"station_id":"ce4bhch2rcd13ifvqeug","pricing_plan_id":"cebpf4jnsgd1na2vs0mg"},{"bike_id":"b05733ac-e333-4bae-a385-6c30ebf06450","system_id":"levelo_inurba_marseille","lat":43.27506,"lon":5.42465,"is_reserved":false,"is_disabled":false,"rental_uris":{"android":"levelo://app?vid=b05733ac-e333-4bae-a385-6c30ebf06450","ios":"levelo://app?vid=b05733ac-e333-4bae-a385-6c30ebf06450"},"vehicle_type_id":"4","last_reported":1751303401,"current_range_meters":10000,"station_id":"ce4bhn92rcd13ifvqgrg","pricing_plan_id":"cebpf4jnsgd1na2vs0mg"},{"bike_id":"f0c25410-8aea-42a0-a8d7-f6f1a1f3f741","system_id":"levelo_inurba_marseille","lat":43.29527,"lon":5.38537,"is_reserved":false,"is_disabled":false,"rental_uris":{"android":"levelo://app?vid=f0c25410-8aea-42a0-a8d7-f6f1a1f3f741","ios":"levelo://app?vid=f0c25410-8aea-42a0-a8d7-f6f1a1f3f741"},"vehicle_type_id":"4","last_reported":1751303401,"current_range_meters":10800,"station_id":"","pricing_plan_id":"cebpf4jnsgd1na2vs0mg"},{"bike_id":"7cd73daf-6410-4b72-a872-e5224e9d29ff","system_id":"levelo_inurba_marseille","lat":43.274053,"lon":5.411662,"is_reserved":false,"is_disabled":false,"rental_uris":{"android":"levelo://app?vid=7cd73daf-6410-4b72-a872-e5224e9d29ff","ios":"levelo://app?vid=7cd73daf-6410-4b72-a872-e5224e9d29ff"},"vehicle_type_id":"4","last_reported":1751303401,"current_range_meters":10800,"station_id":"","pricing_plan_id":"cebpf4jnsgd1na2vs0mg"},{"bike_id":"0bd7052c-bca1-4dac-bc7d-20a3b3b1a623","system_id":"levelo_inurba_marseille","lat":43.231945,"lon":5.355483,"is_reserved":false,"is_disabled":false,"rental_uris":{"android":"levelo://app?vid=0bd7052c-bca1-4dac-bc7d-20a3b3b1a623","ios":"levelo://app?vid=0bd7052c-bca1-4dac-bc7d-20a3b3b1a623"},"vehicle_type_id":"4","last_reported":1751303401,"current_range_meters":10800,"station_id":"ce4bhu92rcd13ifvqi70","pricing_plan_id":"cebpf4jnsgd1na2vs0mg"},{"bike_id":"6b6a646f-e1ae-4138-9055-a2e578c870cb","system_id":"levelo_inurba_marseille","lat":43.217569,"lon":5.34598,"is_reserved":false,"is_disabled":false,"rental_uris":{"android":"levelo://app?vid=6b6a646f-e1ae-4138-9055-a2e578c870cb","ios":"levelo://app?vid=6b6a646f-e1ae-4138-9055-a2e578c870cb"},"vehicle_type_id":"4","last_reported":1751303401,"current_range_meters":10800,"station_id":"st_cvj6r9ubvosntc0bgbag","pricing_plan_id":"cebpf4jnsgd1na2vs0mg"},{"bike_id":"786f230b-598f-4e58-bbc2-1e0a419e9de2","system_id":"levelo_inurba_marseille","lat":43.264715,"lon":5.392045,"is_reserved":false,"is_disabled":false,"rental_uris":{"android":"levelo://app?vid=786f230b-598f-4e58-bbc2-1e0a419e9de2","ios":"levelo://app?vid=786f230b-598f-4e58-bbc2-1e0a419e9de2"},"vehicle_type_id":"4","last_reported":1751303401,"current_range_meters":11200,"station_id":"","pricing_plan_id":"cebpf4jnsgd1na2vs0mg"},{"bike_id":"7dc148e5-fd7e-4677-bce3-55c94c6ee080","system_id":"levelo_inurba_marseille","lat":43.3068,"lon":5.40916,"is_reserved":false,"is_disabled":false,"rental_uris":{"android":"levelo://app?vid=7dc148e5-fd7e-4677-bce3-55c94c6ee080","ios":"levelo://app?vid=7dc148e5-fd7e-4677-bce3-55c94c6ee080"},"vehicle_type_id":"4","last_reported":1751303401,"current_range_meters":11200,"station_id":"","pricing_plan_id":"cebpf4jnsgd1na2vs0mg"},{"bike_id":"f5c16f07-bc6f-4121-91a7-5ad90eec4f34","system_id":"levelo_inurba_marseille","lat":43.312359,"lon":5.373241,"is_reserved":false,"is_disabled":false,"rental_uris":{"android":"levelo://app?vid=f5c16f07-bc6f-4121-91a7-5ad90eec4f34","ios":"levelo://app?vid=f5c16f07-bc6f-4121-91a7-5ad90eec4f34"},"vehicle_type_id":"4","last_reported":1751303401,"current_range_meters":11200,"station_id":"","pricing_plan_id":"cebpf4jnsgd1na2vs0mg"},{"bike_id":"b0f87d94-b06c-4790-a50d-2c0da56d1f25","system_id":"levelo_inurba_marseille","lat":43.27381,"lon":5.36247,"is_reserved":false,"is_disabled":false,"rental_uris":{"android":"levelo://app?vid=b0f87d94-b06c-4790-a50d-2c0da56d1f25","ios":"levelo://app?vid=b0f87d94-b06c-4790-a50d-2c0da56d1f25"},"vehicle_type_id":"4","last_reported":1751303401,"current_range_meters":11200,"station_id":"ce4bhbh2rcd13ifvqeo0","pricing_plan_id":"cebpf4jnsgd1na2vs0mg"},{"bike_id":"12ca1b36-41e1-4bce-8609-f05b0e1ad494","system_id":"levelo_inurba_marseille","lat":43.26213,"lon":5.37437,"is_reserved":false,"is_disabled":false,"rental_uris":{"android":"levelo://app?vid=12ca1b36-41e1-4bce-8609-f05b0e1ad494","ios":"levelo://app?vid=12ca1b36-41e1-4bce-8609-f05b0e1ad494"},"vehicle_type_id":"4","last_reported":1751303401,"current_range_meters":11200,"station_id":"ce4bhgp2rcd13ifvqfc0","pricing_plan_id":"cebpf4jnsgd1na2vs0mg"},{"bike_id":"e245ea00-c68a-475b-a902-5a5d4d3b2940","system_id":"levelo_inurba_marseille","lat":43.21196,"lon":5.35072,"is_reserved":false,"is_disabled":false,"rental_uris":{"android":"levelo://app?vid=e245ea00-c68a-475b-a902-5a5d4d3b2940","ios":"levelo://app?vid=e245ea00-c68a-475b-a902-5a5d4d3b2940"},"vehicle_type_id":"4","last_reported":1751303401,"current_range_meters":11200,"station_id":"st_cvj6sg6p6f1abm77japg","pricing_plan_id":"cebpf4jnsgd1na2vs0mg"},{"bike_id":"e9e3b64b-c7d4-40b4-a415-809ea89a8af6","system_id":"levelo_inurba_marseille","lat":43.337444,"lon":5.374475,"is_reserved":false,"is_disabled":false,"rental_uris":{"android":"levelo://app?vid=e9e3b64b-c7d4-40b4-a415-809ea89a8af6","ios":"levelo://app?vid=e9e3b64b-c7d4-40b4-a415-809ea89a8af6"},"vehicle_type_id":"4","last_reported":1751303401,"current_range_meters":11600,"station_id":"","pricing_plan_id":"cebpf4jnsgd1na2vs0mg"},{"bike_id":"8dead71b-d890-46c0-8902-7455cdb22d9e","system_id":"levelo_inurba_marseille","lat":43.28461,"lon":5.35887,"is_reserved":false,"is_disabled":false,"rental_uris":{"android":"levelo://app?vid=8dead71b-d890-46c0-8902-7455cdb22d9e","ios":"levelo://app?vid=8dead71b-d890-46c0-8902-7455cdb22d9e"},"vehicle_type_id":"4","last_reported":1751303401,"current_range_meters":12000,"station_id":"ce4bhah2rcd13ifvqei0","pricing_plan_id":"cebpf4jnsgd1na2vs0mg"},{"bike_id":"2d082bd7-170a-45ce-a58d-5ef3a54406f6","system_id":"levelo_inurba_marseille","lat":43.24998,"lon":5.38932,"is_reserved":false,"is_disabled":false,"rental_uris":{"android":"levelo://app?vid=2d082bd7-170a-45ce-a58d-5ef3a54406f6","ios":"levelo://app?vid=2d082bd7-170a-45ce-a58d-5ef3a54406f6"},"vehicle_type_id":"4","last_reported":1751303401,"current_range_meters":12000,"station_id":"ce4bhgp2rcd13ifvqfd0","pricing_plan_id":"cebpf4jnsgd1na2vs0mg"},{"bike_id":"fd00ec43-6475-4246-93dd-0f6426d75251","system_id":"levelo_inurba_marseille","lat":43.28721,"lon":5.360888,"is_reserved":false,"is_disabled":false,"rental_uris":{"android":"levelo://app?vid=fd00ec43-6475-4246-93dd-0f6426d75251","ios":"levelo://app?vid=fd00ec43-6475-4246-93dd-0f6426d75251"},"vehicle_type_id":"4","last_reported":1751303401,"current_range_meters":12000,"station_id":"cki0cbj6b192h4jlfktg","pricing_plan_id":"cebpf4jnsgd1na2vs0mg"},{"bike_id":"d97fb146-df52-454f-9826-e3f143dab8fc","system_id":"levelo_inurba_marseille","lat":43.212,"lon":5.35084,"is_reserved":false,"is_disabled":false,"rental_uris":{"android":"levelo://app?vid=d97fb146-df52-454f-9826-e3f143dab8fc","ios":"levelo://app?vid=d97fb146-df52-454f-9826-e3f143dab8fc"},"vehicle_type_id":"4","last_reported":1751303401,"current_range_meters":12000,"station_id":"st_cvj6sg6p6f1abm77japg","pricing_plan_id":"cebpf4jnsgd1na2vs0mg"},{"bike_id":"ceb818d5-6a0e-45de-8d40-c9c1b19d5e60","system_id":"levelo_inurba_marseille","lat":43.32389,"lon":5.36773,"is_reserved":false,"is_disabled":false,"rental_uris":{"android":"levelo://app?vid=ceb818d5-6a0e-45de-8d40-c9c1b19d5e60","ios":"levelo://app?vid=ceb818d5-6a0e-45de-8d40-c9c1b19d5e60"},"vehicle_type_id":"4","last_reported":1751303401,"current_range_meters":12400,"station_id":"","pricing_plan_id":"cebpf4jnsgd1na2vs0mg"},{"bike_id":"d6184b72-cdf2-462b-9c77-95c039de9e51","system_id":"levelo_inurba_marseille","lat":43.29266,"lon":5.38442,"is_reserved":false,"is_disabled":false,"rental_uris":{"android":"levelo://app?vid=d6184b72-cdf2-462b-9c77-95c039de9e51","ios":"levelo://app?vid=d6184b72-cdf2-462b-9c77-95c039de9e51"},"vehicle_type_id":"4","last_reported":1751303401,"current_range_meters":12400,"station_id":"ce4bh692rcd13ifvqea0","pricing_plan_id":"cebpf4jnsgd1na2vs0mg"},{"bike_id":"18fc651b-384b-413b-b24b-b0e3177f227a","system_id":"levelo_inurba_marseille","lat":43.28437,"lon":5.34997,"is_reserved":false,"is_disabled":false,"rental_uris":{"android":"levelo://app?vid=18fc651b-384b-413b-b24b-b0e3177f227a","ios":"levelo://app?vid=18fc651b-384b-413b-b24b-b0e3177f227a"},"vehicle_type_id":"4","last_reported":1751303401,"current_range_meters":12400,"station_id":"ce4bhbh2rcd13ifvqepg","pricing_plan_id":"cebpf4jnsgd1na2vs0mg"},{"bike_id":"4698e310-5c81-4048-97ad-a3d9e7b6f1b2","system_id":"levelo_inurba_marseille","lat":43.28255,"lon":5.35065,"is_reserved":false,"is_disabled":false,"rental_uris":{"android":"levelo://app?vid=4698e310-5c81-4048-97ad-a3d9e7b6f1b2","ios":"levelo://app?vid=4698e310-5c81-4048-97ad-a3d9e7b6f1b2"},"vehicle_type_id":"4","last_reported":1751303401,"current_range_meters":12400,"station_id":"ce4bhbp2rcd13ifvqerg","pricing_plan_id":"cebpf4jnsgd1na2vs0mg"},{"bike_id":"848231e6-a73a-4fc7-939f-f9aaca187ce2","system_id":"levelo_inurba_marseille","lat":43.26216,"lon":5.37447,"is_reserved":false,"is_disabled":false,"rental_uris":{"android":"levelo://app?vid=848231e6-a73a-4fc7-939f-f9aaca187ce2","ios":"levelo://app?vid=848231e6-a73a-4fc7-939f-f9aaca187ce2"},"vehicle_type_id":"4","last_reported":1751303401,"current_range_meters":12400,"station_id":"ce4bhgp2rcd13ifvqfc0","pricing_plan_id":"cebpf4jnsgd1na2vs0mg"},{"bike_id":"94fe9897-3808-40a0-b257-7476009586d3","system_id":"levelo_inurba_marseille","lat":43.26234,"lon":5.40448,"is_reserved":false,"is_disabled":false,"rental_uris":{"android":"levelo://app?vid=94fe9897-3808-40a0-b257-7476009586d3","ios":"levelo://app?vid=94fe9897-3808-40a0-b257-7476009586d3"},"vehicle_type_id":"4","last_reported":1751303401,"current_range_meters":12400,"station_id":"ce4bhmh2rcd13ifvqgmg","pricing_plan_id":"cebpf4jnsgd1na2vs0mg"},{"bike_id":"554ab2ca-9274-4684-af16-e27493c998ae","system_id":"levelo_inurba_marseille","lat":43.29894,"lon":5.4367,"is_reserved":false,"is_disabled":false,"rental_uris":{"android":"levelo://app?vid=554ab2ca-9274-4684-af16-e27493c998ae","ios":"levelo://app?vid=554ab2ca-9274-4684-af16-e27493c998ae"},"vehicle_type_id":"4","last_reported":1751303401,"current_range_meters":12400,"station_id":"ce4bhpp2rcd13ifvqhfg","pricing_plan_id":"cebpf4jnsgd1na2vs0mg"},{"bike_id":"fe43e0cb-fa47-43a2-915f-4841b4201f24","system_id":"levelo_inurba_marseille","lat":43.29794,"lon":5.39337,"is_reserved":false,"is_disabled":false,"rental_uris":{"android":"levelo://app?vid=fe43e0cb-fa47-43a2-915f-4841b4201f24","ios":"levelo://app?vid=fe43e0cb-fa47-43a2-915f-4841b4201f24"},"vehicle_type_id":"4","last_reported":1751303401,"current_range_meters":12400,"station_id":"chh1huq6cuj3fo74tm60","pricing_plan_id":"cebpf4jnsgd1na2vs0mg"},{"bike_id":"553abc29-be4e-421b-807f-74690129a30c","system_id":"levelo_inurba_marseille","lat":43.2838,"lon":5.34985,"is_reserved":false,"is_disabled":false,"rental_uris":{"android":"levelo://app?vid=553abc29-be4e-421b-807f-74690129a30c","ios":"levelo://app?vid=553abc29-be4e-421b-807f-74690129a30c"},"vehicle_type_id":"4","last_reported":1751303401,"current_range_meters":12800,"station_id":"ce4bhbh2rcd13ifvqepg","pricing_plan_id":"cebpf4jnsgd1na2vs0mg"},{"bike_id":"c13c93ac-6b62-443c-9e36-caf61b27325a","system_id":"levelo_inurba_marseille","lat":43.21165,"lon":5.3511,"is_reserved":false,"is_disabled":false,"rental_uris":{"android":"levelo://app?vid=c13c93ac-6b62-443c-9e36-caf61b27325a","ios":"levelo://app?vid=c13c93ac-6b62-443c-9e36-caf61b27325a"},"vehicle_type_id":"4","last_reported":1751303401,"current_range_meters":12800,"station_id":"st_cvj6sg6p6f1abm77japg","pricing_plan_id":"cebpf4jnsgd1na2vs0mg"},{"bike_id":"07ddf3f2-7e29-480c-9052-31ba82bd9b41","system_id":"levelo_inurba_marseille","lat":43.26208,"lon":5.37438,"is_reserved":false,"is_disabled":false,"rental_uris":{"android":"levelo://app?vid=07ddf3f2-7e29-480c-9052-31ba82bd9b41","ios":"levelo://app?vid=07ddf3f2-7e29-480c-9052-31ba82bd9b41"},"vehicle_type_id":"4","last_reported":1751303401,"current_range_meters":13600,"station_id":"ce4bhgp2rcd13ifvqfc0","pricing_plan_id":"cebpf4jnsgd1na2vs0mg"},{"bike_id":"1b3128b9-ac7f-477b-98a5-c0ec05aca513","system_id":"levelo_inurba_marseille","lat":43.27383,"lon":5.36266,"is_reserved":false,"is_disabled":false,"rental_uris":{"android":"levelo://app?vid=1b3128b9-ac7f-477b-98a5-c0ec05aca513","ios":"levelo://app?vid=1b3128b9-ac7f-477b-98a5-c0ec05aca513"},"vehicle_type_id":"4","last_reported":1751303401,"current_range_meters":14000,"station_id":"ce4bhbh2rcd13ifvqeo0","pricing_plan_id":"cebpf4jnsgd1na2vs0mg"},{"bike_id":"b1c00bad-47a5-4274-b6f4-3455e2141ec0","system_id":"levelo_inurba_marseille","lat":43.28621,"lon":5.35095,"is_reserved":false,"is_disabled":false,"rental_uris":{"android":"levelo://app?vid=b1c00bad-47a5-4274-b6f4-3455e2141ec0","ios":"levelo://app?vid=b1c00bad-47a5-4274-b6f4-3455e2141ec0"},"vehicle_type_id":"4","last_reported":1751303401,"current_range_meters":14000,"station_id":"ce4bhch2rcd13ifvqeug","pricing_plan_id":"cebpf4jnsgd1na2vs0mg"},{"bike_id":"96e785d3-0c2a-4bec-b011-c91b6e4e90c3","system_id":"levelo_inurba_marseille","lat":43.26219,"lon":5.3744,"is_reserved":false,"is_disabled":false,"rental_uris":{"android":"levelo://app?vid=96e785d3-0c2a-4bec-b011-c91b6e4e90c3","ios":"levelo://app?vid=96e785d3-0c2a-4bec-b011-c91b6e4e90c3"},"vehicle_type_id":"4","last_reported":1751303401,"current_range_meters":14000,"station_id":"ce4bhgp2rcd13ifvqfc0","pricing_plan_id":"cebpf4jnsgd1na2vs0mg"},{"bike_id":"58bd3f83-8d43-432e-a389-948938190aea","system_id":"levelo_inurba_marseille","lat":43.27495,"lon":5.42449,"is_reserved":false,"is_disabled":false,"rental_uris":{"android":"levelo://app?vid=58bd3f83-8d43-432e-a389-948938190aea","ios":"levelo://app?vid=58bd3f83-8d43-432e-a389-948938190aea"},"vehicle_type_id":"4","last_reported":1751303401,"current_range_meters":14000,"station_id":"ce4bhn92rcd13ifvqgrg","pricing_plan_id":"cebpf4jnsgd1na2vs0mg"},{"bike_id":"6b04a8db-f012-4ea9-88f5-d59ff3f24fd9","system_id":"levelo_inurba_marseille","lat":43.29912,"lon":5.43664,"is_reserved":false,"is_disabled":false,"rental_uris":{"android":"levelo://app?vid=6b04a8db-f012-4ea9-88f5-d59ff3f24fd9","ios":"levelo://app?vid=6b04a8db-f012-4ea9-88f5-d59ff3f24fd9"},"vehicle_type_id":"4","last_reported":1751303401,"current_range_meters":14000,"station_id":"ce4bhpp2rcd13ifvqhfg","pricing_plan_id":"cebpf4jnsgd1na2vs0mg"},{"bike_id":"4e47abe4-6598-4756-807d-26ba558e3c39","system_id":"levelo_inurba_marseille","lat":43.29903,"lon":5.43646,"is_reserved":false,"is_disabled":false,"rental_uris":{"android":"levelo://app?vid=4e47abe4-6598-4756-807d-26ba558e3c39","ios":"levelo://app?vid=4e47abe4-6598-4756-807d-26ba558e3c39"},"vehicle_type_id":"4","last_reported":1751303401,"current_range_meters":14000,"station_id":"ce4bhpp2rcd13ifvqhfg","pricing_plan_id":"cebpf4jnsgd1na2vs0mg"},{"bike_id":"a94f685a-d578-4dae-8465-c5a04ad7bd52","system_id":"levelo_inurba_marseille","lat":43.24167,"lon":5.36401,"is_reserved":false,"is_disabled":false,"rental_uris":{"android":"levelo://app?vid=a94f685a-d578-4dae-8465-c5a04ad7bd52","ios":"levelo://app?vid=a94f685a-d578-4dae-8465-c5a04ad7bd52"},"vehicle_type_id":"4","last_reported":1751303401,"current_range_meters":14000,"station_id":"cpo36qri1sfpv3e86is0","pricing_plan_id":"cebpf4jnsgd1na2vs0mg"},{"bike_id":"da5e5169-9ac7-474e-b36a-2048d9e396db","system_id":"levelo_inurba_marseille","lat":43.29552,"lon":5.37492,"is_reserved":false,"is_disabled":false,"rental_uris":{"android":"levelo://app?vid=da5e5169-9ac7-474e-b36a-2048d9e396db","ios":"levelo://app?vid=da5e5169-9ac7-474e-b36a-2048d9e396db"},"vehicle_type_id":"4","last_reported":1751303401,"current_range_meters":14400,"station_id":"ce4bgkp2rcd13ifvqbmg","pricing_plan_id":"cebpf4jnsgd1na2vs0mg"},{"bike_id":"6f4ac2bf-8133-4d3c-8998-0b43a44c3a77","system_id":"levelo_inurba_marseille","lat":43.30886,"lon":5.39648,"is_reserved":false,"is_disabled":false,"rental_uris":{"android":"levelo://app?vid=6f4ac2bf-8133-4d3c-8998-0b43a44c3a77","ios":"levelo://app?vid=6f4ac2bf-8133-4d3c-8998-0b43a44c3a77"},"vehicle_type_id":"4","last_reported":1751303401,"current_range_meters":14400,"station_id":"ce4bh012rcd13ifvqcv0","pricing_plan_id":"cebpf4jnsgd1na2vs0mg"},{"bike_id":"e2a898c0-6b12-4656-8fa0-b5b27bdb05c9","system_id":"levelo_inurba_marseille","lat":43.26031,"lon":5.3755,"is_reserved":false,"is_disabled":false,"rental_uris":{"android":"levelo://app?vid=e2a898c0-6b12-4656-8fa0-b5b27bdb05c9","ios":"levelo://app?vid=e2a898c0-6b12-4656-8fa0-b5b27bdb05c9"},"vehicle_type_id":"4","last_reported":1751303401,"current_range_meters":14400,"station_id":"ce4bhgh2rcd13ifvqfa0","pricing_plan_id":"cebpf4jnsgd1na2vs0mg"},{"bike_id":"d4704f76-2792-47f6-a62d-a2bffd82e6c4","system_id":"levelo_inurba_marseille","lat":43.24809,"lon":5.37458,"is_reserved":false,"is_disabled":false,"rental_uris":{"android":"levelo://app?vid=d4704f76-2792-47f6-a62d-a2bffd82e6c4","ios":"levelo://app?vid=d4704f76-2792-47f6-a62d-a2bffd82e6c4"},"vehicle_type_id":"4","last_reported":1751303401,"current_range_meters":14400,"station_id":"ce4bhgh2rcd13ifvqfb0","pricing_plan_id":"cebpf4jnsgd1na2vs0mg"},{"bike_id":"aad466d4-9058-4038-a189-895fae6f1c28","system_id":"levelo_inurba_marseille","lat":43.21187,"lon":5.35073,"is_reserved":false,"is_disabled":false,"rental_uris":{"android":"levelo://app?vid=aad466d4-9058-4038-a189-895fae6f1c28","ios":"levelo://app?vid=aad466d4-9058-4038-a189-895fae6f1c28"},"vehicle_type_id":"4","last_reported":1751303401,"current_range_meters":14400,"station_id":"st_cvj6sg6p6f1abm77japg","pricing_plan_id":"cebpf4jnsgd1na2vs0mg"},{"bike_id":"6d05287e-4655-410b-81f2-ec69f81b8b61","system_id":"levelo_inurba_marseille","lat":43.27376,"lon":5.36257,"is_reserved":false,"is_disabled":false,"rental_uris":{"android":"levelo://app?vid=6d05287e-4655-410b-81f2-ec69f81b8b61","ios":"levelo://app?vid=6d05287e-4655-410b-81f2-ec69f81b8b61"},"vehicle_type_id":"4","last_reported":1751303401,"current_range_meters":14800,"station_id":"ce4bhbh2rcd13ifvqeo0","pricing_plan_id":"cebpf4jnsgd1na2vs0mg"},{"bike_id":"5d96a96c-871e-41b5-b662-f1cf5c07696a","system_id":"levelo_inurba_marseille","lat":43.2826,"lon":5.3506,"is_reserved":false,"is_disabled":false,"rental_uris":{"android":"levelo://app?vid=5d96a96c-871e-41b5-b662-f1cf5c07696a","ios":"levelo://app?vid=5d96a96c-871e-41b5-b662-f1cf5c07696a"},"vehicle_type_id":"4","last_reported":1751303401,"current_range_meters":14800,"station_id":"ce4bhbp2rcd13ifvqerg","pricing_plan_id":"cebpf4jnsgd1na2vs0mg"},{"bike_id":"4f97e136-2006-43b5-84b8-8ce28f4647e9","system_id":"levelo_inurba_marseille","lat":43.211909,"lon":5.350701,"is_reserved":false,"is_disabled":false,"rental_uris":{"android":"levelo://app?vid=4f97e136-2006-43b5-84b8-8ce28f4647e9","ios":"levelo://app?vid=4f97e136-2006-43b5-84b8-8ce28f4647e9"},"vehicle_type_id":"4","last_reported":1751303401,"current_range_meters":14800,"station_id":"st_cvj6sg6p6f1abm77japg","pricing_plan_id":"cebpf4jnsgd1na2vs0mg"},{"bike_id":"8ceb2860-ca09-420a-8aab-fcf0c529a0d3","system_id":"levelo_inurba_marseille","lat":43.211792,"lon":5.350745,"is_reserved":false,"is_disabled":false,"rental_uris":{"android":"levelo://app?vid=8ceb2860-ca09-420a-8aab-fcf0c529a0d3","ios":"levelo://app?vid=8ceb2860-ca09-420a-8aab-fcf0c529a0d3"},"vehicle_type_id":"4","last_reported":1751303401,"current_range_meters":14800,"station_id":"st_cvj6sg6p6f1abm77japg","pricing_plan_id":"cebpf4jnsgd1na2vs0mg"},{"bike_id":"a038fb56-4c0e-4b94-ba69-5870a8870465","system_id":"levelo_inurba_marseille","lat":43.28622,"lon":5.35091,"is_reserved":false,"is_disabled":false,"rental_uris":{"android":"levelo://app?vid=a038fb56-4c0e-4b94-ba69-5870a8870465","ios":"levelo://app?vid=a038fb56-4c0e-4b94-ba69-5870a8870465"},"vehicle_type_id":"4","last_reported":1751303401,"current_range_meters":15200,"station_id":"ce4bhch2rcd13ifvqeug","pricing_plan_id":"cebpf4jnsgd1na2vs0mg"},{"bike_id":"d8facb10-b967-4a32-9b5c-8cfed4bbd05b","system_id":"levelo_inurba_marseille","lat":43.32108,"lon":5.3678,"is_reserved":false,"is_disabled":false,"rental_uris":{"android":"levelo://app?vid=d8facb10-b967-4a32-9b5c-8cfed4bbd05b","ios":"levelo://app?vid=d8facb10-b967-4a32-9b5c-8cfed4bbd05b"},"vehicle_type_id":"4","last_reported":1751303401,"current_range_meters":15200,"station_id":"ce4bhrh2rcd13ifvqhug","pricing_plan_id":"cebpf4jnsgd1na2vs0mg"},{"bike_id":"695cebbe-dec4-4ce0-b4c7-905b7f23b8ee","system_id":"levelo_inurba_marseille","lat":43.284176,"lon":5.349906,"is_reserved":false,"is_disabled":false,"rental_uris":{"android":"levelo://app?vid=695cebbe-dec4-4ce0-b4c7-905b7f23b8ee","ios":"levelo://app?vid=695cebbe-dec4-4ce0-b4c7-905b7f23b8ee"},"vehicle_type_id":"4","last_reported":1751303401,"current_range_meters":16000,"station_id":"ce4bguh2rcd13ifvqckg","pricing_plan_id":"cebpf4jnsgd1na2vs0mg"},{"bike_id":"1ec60c1a-d8de-4440-8ba3-2d4ffbb3e939","system_id":"levelo_inurba_marseille","lat":43.30425,"lon":5.39744,"is_reserved":false,"is_disabled":false,"rental_uris":{"android":"levelo://app?vid=1ec60c1a-d8de-4440-8ba3-2d4ffbb3e939","ios":"levelo://app?vid=1ec60c1a-d8de-4440-8ba3-2d4ffbb3e939"},"vehicle_type_id":"4","last_reported":1751303401,"current_range_meters":16000,"station_id":"ce4bh092rcd13ifvqd20","pricing_plan_id":"cebpf4jnsgd1na2vs0mg"},{"bike_id":"8f788eae-6ea7-4c5d-8b90-a5602bf561d8","system_id":"levelo_inurba_marseille","lat":43.2841,"lon":5.37512,"is_reserved":false,"is_disabled":false,"rental_uris":{"android":"levelo://app?vid=8f788eae-6ea7-4c5d-8b90-a5602bf561d8","ios":"levelo://app?vid=8f788eae-6ea7-4c5d-8b90-a5602bf561d8"},"vehicle_type_id":"4","last_reported":1751303401,"current_range_meters":16000,"station_id":"ce4bh412rcd13ifvqds0","pricing_plan_id":"cebpf4jnsgd1na2vs0mg"},{"bike_id":"b8526d51-20e3-443a-a3a6-055971e3a5b8","system_id":"levelo_inurba_marseille","lat":43.289323,"lon":5.36625,"is_reserved":false,"is_disabled":false,"rental_uris":{"android":"levelo://app?vid=b8526d51-20e3-443a-a3a6-055971e3a5b8","ios":"levelo://app?vid=b8526d51-20e3-443a-a3a6-055971e3a5b8"},"vehicle_type_id":"4","last_reported":1751303401,"current_range_meters":16000,"station_id":"ce4bhap2rcd13ifvqek0","pricing_plan_id":"cebpf4jnsgd1na2vs0mg"},{"bike_id":"ef56af2f-739b-4071-a865-2862ea606449","system_id":"levelo_inurba_marseille","lat":43.27383,"lon":5.36265,"is_reserved":false,"is_disabled":false,"rental_uris":{"android":"levelo://app?vid=ef56af2f-739b-4071-a865-2862ea606449","ios":"levelo://app?vid=ef56af2f-739b-4071-a865-2862ea606449"},"vehicle_type_id":"4","last_reported":1751303401,"current_range_meters":16000,"station_id":"ce4bhbh2rcd13ifvqeo0","pricing_plan_id":"cebpf4jnsgd1na2vs0mg"},{"bike_id":"8237ec45-a1ed-4542-96b3-f54acd385f13","system_id":"levelo_inurba_marseille","lat":43.28409,"lon":5.34975,"is_reserved":false,"is_disabled":false,"rental_uris":{"android":"levelo://app?vid=8237ec45-a1ed-4542-96b3-f54acd385f13","ios":"levelo://app?vid=8237ec45-a1ed-4542-96b3-f54acd385f13"},"vehicle_type_id":"4","last_reported":1751303401,"current_range_meters":16000,"station_id":"ce4bhbh2rcd13ifvqepg","pricing_plan_id":"cebpf4jnsgd1na2vs0mg"},{"bike_id":"469f0205-2674-4692-9623-a48ceefd5990","system_id":"levelo_inurba_marseille","lat":43.2842,"lon":5.34978,"is_reserved":false,"is_disabled":false,"rental_uris":{"android":"levelo://app?vid=469f0205-2674-4692-9623-a48ceefd5990","ios":"levelo://app?vid=469f0205-2674-4692-9623-a48ceefd5990"},"vehicle_type_id":"4","last_reported":1751303401,"current_range_meters":16000,"station_id":"ce4bhbh2rcd13ifvqepg","pricing_plan_id":"cebpf4jnsgd1na2vs0mg"},{"bike_id":"0019be01-9199-40c8-80e8-ef5e082a6be8","system_id":"levelo_inurba_marseille","lat":43.28265,"lon":5.35071,"is_reserved":false,"is_disabled":false,"rental_uris":{"android":"levelo://app?vid=0019be01-9199-40c8-80e8-ef5e082a6be8","ios":"levelo://app?vid=0019be01-9199-40c8-80e8-ef5e082a6be8"},"vehicle_type_id":"4","last_reported":1751303401,"current_range_meters":16000,"station_id":"ce4bhbp2rcd13ifvqerg","pricing_plan_id":"cebpf4jnsgd1na2vs0mg"},{"bike_id":"d06f2ca6-26f6-47bc-a8ca-bf948c40a123","system_id":"levelo_inurba_marseille","lat":43.2987,"lon":5.39727,"is_reserved":false,"is_disabled":false,"rental_uris":{"android":"levelo://app?vid=d06f2ca6-26f6-47bc-a8ca-bf948c40a123","ios":"levelo://app?vid=d06f2ca6-26f6-47bc-a8ca-bf948c40a123"},"vehicle_type_id":"4","last_reported":1751303401,"current_range_meters":16400,"station_id":"ce4bh0h2rcd13ifvqd50","pricing_plan_id":"cebpf4jnsgd1na2vs0mg"},{"bike_id":"4e1fa09d-9255-427a-9657-3966f75a5a37","system_id":"levelo_inurba_marseille","lat":43.28478,"lon":5.38437,"is_reserved":false,"is_disabled":false,"rental_uris":{"android":"levelo://app?vid=4e1fa09d-9255-427a-9657-3966f75a5a37","ios":"levelo://app?vid=4e1fa09d-9255-427a-9657-3966f75a5a37"},"vehicle_type_id":"4","last_reported":1751303401,"current_range_meters":16400,"station_id":"ce4bh512rcd13ifvqe3g","pricing_plan_id":"cebpf4jnsgd1na2vs0mg"},{"bike_id":"24eb68a9-a7ee-4ff1-8e7e-9c5cfa44ce2e","system_id":"levelo_inurba_marseille","lat":43.28937,"lon":5.36636,"is_reserved":false,"is_disabled":false,"rental_uris":{"android":"levelo://app?vid=24eb68a9-a7ee-4ff1-8e7e-9c5cfa44ce2e","ios":"levelo://app?vid=24eb68a9-a7ee-4ff1-8e7e-9c5cfa44ce2e"},"vehicle_type_id":"4","last_reported":1751303401,"current_range_meters":16400,"station_id":"ce4bhap2rcd13ifvqek0","pricing_plan_id":"cebpf4jnsgd1na2vs0mg"},{"bike_id":"c28e39dc-72cd-4fd8-89b7-00c27c125c16","system_id":"levelo_inurba_marseille","lat":43.28407,"lon":5.35004,"is_reserved":false,"is_disabled":false,"rental_uris":{"android":"levelo://app?vid=c28e39dc-72cd-4fd8-89b7-00c27c125c16","ios":"levelo://app?vid=c28e39dc-72cd-4fd8-89b7-00c27c125c16"},"vehicle_type_id":"4","last_reported":1751303401,"current_range_meters":16400,"station_id":"ce4bhbh2rcd13ifvqepg","pricing_plan_id":"cebpf4jnsgd1na2vs0mg"},{"bike_id":"67515a81-cb2a-4d42-af42-c96388cd6b9d","system_id":"levelo_inurba_marseille","lat":43.28272,"lon":5.3506,"is_reserved":false,"is_disabled":false,"rental_uris":{"android":"levelo://app?vid=67515a81-cb2a-4d42-af42-c96388cd6b9d","ios":"levelo://app?vid=67515a81-cb2a-4d42-af42-c96388cd6b9d"},"vehicle_type_id":"4","last_reported":1751303401,"current_range_meters":16400,"station_id":"ce4bhbp2rcd13ifvqerg","pricing_plan_id":"cebpf4jnsgd1na2vs0mg"},{"bike_id":"0e1fd179-f6dc-4047-8ba7-96fc9adce901","system_id":"levelo_inurba_marseille","lat":43.28617,"lon":5.35089,"is_reserved":false,"is_disabled":false,"rental_uris":{"android":"levelo://app?vid=0e1fd179-f6dc-4047-8ba7-96fc9adce901","ios":"levelo://app?vid=0e1fd179-f6dc-4047-8ba7-96fc9adce901"},"vehicle_type_id":"4","last_reported":1751303401,"current_range_meters":16400,"station_id":"ce4bhch2rcd13ifvqeug","pricing_plan_id":"cebpf4jnsgd1na2vs0mg"},{"bike_id":"5e02199d-89b4-4d86-81ab-ae93f2fef879","system_id":"levelo_inurba_marseille","lat":43.24804,"lon":5.37456,"is_reserved":false,"is_disabled":false,"rental_uris":{"android":"levelo://app?vid=5e02199d-89b4-4d86-81ab-ae93f2fef879","ios":"levelo://app?vid=5e02199d-89b4-4d86-81ab-ae93f2fef879"},"vehicle_type_id":"4","last_reported":1751303401,"current_range_meters":16400,"station_id":"ce4bhgh2rcd13ifvqfb0","pricing_plan_id":"cebpf4jnsgd1na2vs0mg"},{"bike_id":"737a2d59-03f1-461d-9876-2d1d9e4fbcd3","system_id":"levelo_inurba_marseille","lat":43.241598,"lon":5.364115,"is_reserved":false,"is_disabled":false,"rental_uris":{"android":"levelo://app?vid=737a2d59-03f1-461d-9876-2d1d9e4fbcd3","ios":"levelo://app?vid=737a2d59-03f1-461d-9876-2d1d9e4fbcd3"},"vehicle_type_id":"4","last_reported":1751303401,"current_range_meters":16400,"station_id":"ce4bhi12rcd13ifvqfp0","pricing_plan_id":"cebpf4jnsgd1na2vs0mg"},{"bike_id":"2b2624c9-68e0-423a-b87d-198de408c4a3","system_id":"levelo_inurba_marseille","lat":43.25872,"lon":5.39894,"is_reserved":false,"is_disabled":false,"rental_uris":{"android":"levelo://app?vid=2b2624c9-68e0-423a-b87d-198de408c4a3","ios":"levelo://app?vid=2b2624c9-68e0-423a-b87d-198de408c4a3"},"vehicle_type_id":"4","last_reported":1751303401,"current_range_meters":16400,"station_id":"ce4bhl92rcd13ifvqghg","pricing_plan_id":"cebpf4jnsgd1na2vs0mg"},{"bike_id":"048ec6e9-5fd9-4256-ae6a-a72856ab2acf","system_id":"levelo_inurba_marseille","lat":43.21192,"lon":5.35068,"is_reserved":false,"is_disabled":false,"rental_uris":{"android":"levelo://app?vid=048ec6e9-5fd9-4256-ae6a-a72856ab2acf","ios":"levelo://app?vid=048ec6e9-5fd9-4256-ae6a-a72856ab2acf"},"vehicle_type_id":"4","last_reported":1751303401,"current_range_meters":16400,"station_id":"st_cvj6sg6p6f1abm77japg","pricing_plan_id":"cebpf4jnsgd1na2vs0mg"},{"bike_id":"d5da5bd9-7c2a-48e5-92aa-fa21076cad13","system_id":"levelo_inurba_marseille","lat":43.21204,"lon":5.35094,"is_reserved":false,"is_disabled":false,"rental_uris":{"android":"levelo://app?vid=d5da5bd9-7c2a-48e5-92aa-fa21076cad13","ios":"levelo://app?vid=d5da5bd9-7c2a-48e5-92aa-fa21076cad13"},"vehicle_type_id":"4","last_reported":1751303401,"current_range_meters":16400,"station_id":"st_cvj6sg6p6f1abm77japg","pricing_plan_id":"cebpf4jnsgd1na2vs0mg"},{"bike_id":"0ef2aedc-8b55-4069-91e0-12490b195ae8","system_id":"levelo_inurba_marseille","lat":43.29,"lon":5.35619,"is_reserved":false,"is_disabled":false,"rental_uris":{"android":"levelo://app?vid=0ef2aedc-8b55-4069-91e0-12490b195ae8","ios":"levelo://app?vid=0ef2aedc-8b55-4069-91e0-12490b195ae8"},"vehicle_type_id":"4","last_reported":1751303401,"current_range_meters":16800,"station_id":"ce4bhb92rcd13ifvqen0","pricing_plan_id":"cebpf4jnsgd1na2vs0mg"},{"bike_id":"ff176b0b-a35b-421b-8c34-dd3618d6affe","system_id":"levelo_inurba_marseille","lat":43.28251,"lon":5.3506,"is_reserved":false,"is_disabled":false,"rental_uris":{"android":"levelo://app?vid=ff176b0b-a35b-421b-8c34-dd3618d6affe","ios":"levelo://app?vid=ff176b0b-a35b-421b-8c34-dd3618d6affe"},"vehicle_type_id":"4","last_reported":1751303401,"current_range_meters":16800,"station_id":"ce4bhbp2rcd13ifvqerg","pricing_plan_id":"cebpf4jnsgd1na2vs0mg"},{"bike_id":"e3be0bae-c457-417e-b637-2edfbaf52fd0","system_id":"levelo_inurba_marseille","lat":43.28265,"lon":5.35054,"is_reserved":false,"is_disabled":false,"rental_uris":{"android":"levelo://app?vid=e3be0bae-c457-417e-b637-2edfbaf52fd0","ios":"levelo://app?vid=e3be0bae-c457-417e-b637-2edfbaf52fd0"},"vehicle_type_id":"4","last_reported":1751303401,"current_range_meters":16800,"station_id":"ce4bhbp2rcd13ifvqerg","pricing_plan_id":"cebpf4jnsgd1na2vs0mg"},{"bike_id":"d0e2bb62-6ab4-4726-9538-f7c03deba15e","system_id":"levelo_inurba_marseille","lat":43.28265,"lon":5.35055,"is_reserved":false,"is_disabled":false,"rental_uris":{"android":"levelo://app?vid=d0e2bb62-6ab4-4726-9538-f7c03deba15e","ios":"levelo://app?vid=d0e2bb62-6ab4-4726-9538-f7c03deba15e"},"vehicle_type_id":"4","last_reported":1751303401,"current_range_meters":16800,"station_id":"ce4bhbp2rcd13ifvqerg","pricing_plan_id":"cebpf4jnsgd1na2vs0mg"},{"bike_id":"d8f73793-e3e9-4b33-b4e9-88de07786df1","system_id":"levelo_inurba_marseille","lat":43.28618,"lon":5.35097,"is_reserved":false,"is_disabled":false,"rental_uris":{"android":"levelo://app?vid=d8f73793-e3e9-4b33-b4e9-88de07786df1","ios":"levelo://app?vid=d8f73793-e3e9-4b33-b4e9-88de07786df1"},"vehicle_type_id":"4","last_reported":1751303401,"current_range_meters":16800,"station_id":"ce4bhch2rcd13ifvqeug","pricing_plan_id":"cebpf4jnsgd1na2vs0mg"},{"bike_id":"d90daeb2-baa5-4f84-8ba2-ffc1dcd4b96b","system_id":"levelo_inurba_marseille","lat":43.24173,"lon":5.36398,"is_reserved":false,"is_disabled":false,"rental_uris":{"android":"levelo://app?vid=d90daeb2-baa5-4f84-8ba2-ffc1dcd4b96b","ios":"levelo://app?vid=d90daeb2-baa5-4f84-8ba2-ffc1dcd4b96b"},"vehicle_type_id":"4","last_reported":1751303401,"current_range_meters":16800,"station_id":"cpo36qri1sfpv3e86is0","pricing_plan_id":"cebpf4jnsgd1na2vs0mg"},{"bike_id":"e552832c-7ca2-4106-b0f9-92bbabda27d1","system_id":"levelo_inurba_marseille","lat":43.212072,"lon":5.350949,"is_reserved":false,"is_disabled":false,"rental_uris":{"android":"levelo://app?vid=e552832c-7ca2-4106-b0f9-92bbabda27d1","ios":"levelo://app?vid=e552832c-7ca2-4106-b0f9-92bbabda27d1"},"vehicle_type_id":"4","last_reported":1751303401,"current_range_meters":16800,"station_id":"st_cvj6sg6p6f1abm77japg","pricing_plan_id":"cebpf4jnsgd1na2vs0mg"},{"bike_id":"b13877a6-4825-4d82-b46b-67fa8ad66c5d","system_id":"levelo_inurba_marseille","lat":43.21193,"lon":5.35068,"is_reserved":false,"is_disabled":false,"rental_uris":{"android":"levelo://app?vid=b13877a6-4825-4d82-b46b-67fa8ad66c5d","ios":"levelo://app?vid=b13877a6-4825-4d82-b46b-67fa8ad66c5d"},"vehicle_type_id":"4","last_reported":1751303401,"current_range_meters":16800,"station_id":"st_cvj6sg6p6f1abm77japg","pricing_plan_id":"cebpf4jnsgd1na2vs0mg"},{"bike_id":"e891d413-f511-44d4-9ddd-90f57509289b","system_id":"levelo_inurba_marseille","lat":43.31719,"lon":5.36807,"is_reserved":false,"is_disabled":false,"rental_uris":{"android":"levelo://app?vid=e891d413-f511-44d4-9ddd-90f57509289b","ios":"levelo://app?vid=e891d413-f511-44d4-9ddd-90f57509289b"},"vehicle_type_id":"4","last_reported":1751303401,"current_range_meters":17200,"station_id":"","pricing_plan_id":"cebpf4jnsgd1na2vs0mg"},{"bike_id":"1c1e0436-c990-4c38-b11e-d6968f287975","system_id":"levelo_inurba_marseille","lat":43.29603,"lon":5.36745,"is_reserved":false,"is_disabled":false,"rental_uris":{"android":"levelo://app?vid=1c1e0436-c990-4c38-b11e-d6968f287975","ios":"levelo://app?vid=1c1e0436-c990-4c38-b11e-d6968f287975"},"vehicle_type_id":"4","last_reported":1751303401,"current_range_meters":17200,"station_id":"ce4bgph2rcd13ifvqc2g","pricing_plan_id":"cebpf4jnsgd1na2vs0mg"},{"bike_id":"c2b72fe0-bae6-4c7b-ad48-9e771b203dc8","system_id":"levelo_inurba_marseille","lat":43.31349,"lon":5.38453,"is_reserved":false,"is_disabled":false,"rental_uris":{"android":"levelo://app?vid=c2b72fe0-bae6-4c7b-ad48-9e771b203dc8","ios":"levelo://app?vid=c2b72fe0-bae6-4c7b-ad48-9e771b203dc8"},"vehicle_type_id":"4","last_reported":1751303401,"current_range_meters":17200,"station_id":"ce4bgt92rcd13ifvqcf0","pricing_plan_id":"cebpf4jnsgd1na2vs0mg"},{"bike_id":"112507bf-74c6-4c4f-9da2-1e216d38a168","system_id":"levelo_inurba_marseille","lat":43.2901,"lon":5.35607,"is_reserved":false,"is_disabled":false,"rental_uris":{"android":"levelo://app?vid=112507bf-74c6-4c4f-9da2-1e216d38a168","ios":"levelo://app?vid=112507bf-74c6-4c4f-9da2-1e216d38a168"},"vehicle_type_id":"4","last_reported":1751303401,"current_range_meters":17200,"station_id":"ce4bhb92rcd13ifvqen0","pricing_plan_id":"cebpf4jnsgd1na2vs0mg"},{"bike_id":"e25ba395-2bc9-44d2-8b95-073fe9e7fe66","system_id":"levelo_inurba_marseille","lat":43.286187,"lon":5.351029,"is_reserved":false,"is_disabled":false,"rental_uris":{"android":"levelo://app?vid=e25ba395-2bc9-44d2-8b95-073fe9e7fe66","ios":"levelo://app?vid=e25ba395-2bc9-44d2-8b95-073fe9e7fe66"},"vehicle_type_id":"4","last_reported":1751303401,"current_range_meters":17200,"station_id":"ce4bhch2rcd13ifvqeug","pricing_plan_id":"cebpf4jnsgd1na2vs0mg"},{"bike_id":"714e81cc-0a88-4f76-a904-b1c3a28974fe","system_id":"levelo_inurba_marseille","lat":43.28628,"lon":5.35105,"is_reserved":false,"is_disabled":false,"rental_uris":{"android":"levelo://app?vid=714e81cc-0a88-4f76-a904-b1c3a28974fe","ios":"levelo://app?vid=714e81cc-0a88-4f76-a904-b1c3a28974fe"},"vehicle_type_id":"4","last_reported":1751303401,"current_range_meters":17200,"station_id":"ce4bhch2rcd13ifvqeug","pricing_plan_id":"cebpf4jnsgd1na2vs0mg"},{"bike_id":"4a18a7e3-dba9-4479-8653-f7f934ab7959","system_id":"levelo_inurba_marseille","lat":43.24645,"lon":5.38889,"is_reserved":false,"is_disabled":false,"rental_uris":{"android":"levelo://app?vid=4a18a7e3-dba9-4479-8653-f7f934ab7959","ios":"levelo://app?vid=4a18a7e3-dba9-4479-8653-f7f934ab7959"},"vehicle_type_id":"4","last_reported":1751303401,"current_range_meters":17200,"station_id":"ce4bhg12rcd13ifvqf60","pricing_plan_id":"cebpf4jnsgd1na2vs0mg"},{"bike_id":"10b77cb2-81d8-446d-b4be-61206e32b31f","system_id":"levelo_inurba_marseille","lat":43.2707,"lon":5.42281,"is_reserved":false,"is_disabled":false,"rental_uris":{"android":"levelo://app?vid=10b77cb2-81d8-446d-b4be-61206e32b31f","ios":"levelo://app?vid=10b77cb2-81d8-446d-b4be-61206e32b31f"},"vehicle_type_id":"4","last_reported":1751303401,"current_range_meters":17200,"station_id":"ce4bhk92rcd13ifvqgb0","pricing_plan_id":"cebpf4jnsgd1na2vs0mg"},{"bike_id":"23ef4e58-5d60-4338-a3bc-902f54afc5f8","system_id":"levelo_inurba_marseille","lat":43.30353,"lon":5.41873,"is_reserved":false,"is_disabled":false,"rental_uris":{"android":"levelo://app?vid=23ef4e58-5d60-4338-a3bc-902f54afc5f8","ios":"levelo://app?vid=23ef4e58-5d60-4338-a3bc-902f54afc5f8"},"vehicle_type_id":"4","last_reported":1751303401,"current_range_meters":17200,"station_id":"ce4bhop2rcd13ifvqh7g","pricing_plan_id":"cebpf4jnsgd1na2vs0mg"},{"bike_id":"239773a6-b5da-4137-b48b-245fc6c0b817","system_id":"levelo_inurba_marseille","lat":43.23193,"lon":5.35556,"is_reserved":false,"is_disabled":false,"rental_uris":{"android":"levelo://app?vid=239773a6-b5da-4137-b48b-245fc6c0b817","ios":"levelo://app?vid=239773a6-b5da-4137-b48b-245fc6c0b817"},"vehicle_type_id":"4","last_reported":1751303401,"current_range_meters":17200,"station_id":"ce4bhu92rcd13ifvqi70","pricing_plan_id":"cebpf4jnsgd1na2vs0mg"},{"bike_id":"94dae28f-7d81-4605-9f87-da0c6467034f","system_id":"levelo_inurba_marseille","lat":43.24166,"lon":5.36389,"is_reserved":false,"is_disabled":false,"rental_uris":{"android":"levelo://app?vid=94dae28f-7d81-4605-9f87-da0c6467034f","ios":"levelo://app?vid=94dae28f-7d81-4605-9f87-da0c6467034f"},"vehicle_type_id":"4","last_reported":1751303401,"current_range_meters":17200,"station_id":"cpo36qri1sfpv3e86is0","pricing_plan_id":"cebpf4jnsgd1na2vs0mg"},{"bike_id":"0d839b5e-baaf-4b32-8658-bb0d20744629","system_id":"levelo_inurba_marseille","lat":43.211971,"lon":5.350689,"is_reserved":false,"is_disabled":false,"rental_uris":{"android":"levelo://app?vid=0d839b5e-baaf-4b32-8658-bb0d20744629","ios":"levelo://app?vid=0d839b5e-baaf-4b32-8658-bb0d20744629"},"vehicle_type_id":"4","last_reported":1751303401,"current_range_meters":17200,"station_id":"st_cvj6sg6p6f1abm77japg","pricing_plan_id":"cebpf4jnsgd1na2vs0mg"},{"bike_id":"fbb455f7-4134-4788-8dc1-1fd065fde5e0","system_id":"levelo_inurba_marseille","lat":43.299759,"lon":5.37178,"is_reserved":false,"is_disabled":false,"rental_uris":{"android":"levelo://app?vid=fbb455f7-4134-4788-8dc1-1fd065fde5e0","ios":"levelo://app?vid=fbb455f7-4134-4788-8dc1-1fd065fde5e0"},"vehicle_type_id":"4","last_reported":1751303401,"current_range_meters":17600,"station_id":"ce4bgr92rcd13ifvqc7g","pricing_plan_id":"cebpf4jnsgd1na2vs0mg"},{"bike_id":"9f1f17ec-e8f6-4b3e-b893-46903141e9e8","system_id":"levelo_inurba_marseille","lat":43.2846,"lon":5.35882,"is_reserved":false,"is_disabled":false,"rental_uris":{"android":"levelo://app?vid=9f1f17ec-e8f6-4b3e-b893-46903141e9e8","ios":"levelo://app?vid=9f1f17ec-e8f6-4b3e-b893-46903141e9e8"},"vehicle_type_id":"4","last_reported":1751303401,"current_range_meters":17600,"station_id":"ce4bhah2rcd13ifvqei0","pricing_plan_id":"cebpf4jnsgd1na2vs0mg"},{"bike_id":"3dd281be-cdaa-48b3-a4c3-9f2f7c547cfc","system_id":"levelo_inurba_marseille","lat":43.28468,"lon":5.35875,"is_reserved":false,"is_disabled":false,"rental_uris":{"android":"levelo://app?vid=3dd281be-cdaa-48b3-a4c3-9f2f7c547cfc","ios":"levelo://app?vid=3dd281be-cdaa-48b3-a4c3-9f2f7c547cfc"},"vehicle_type_id":"4","last_reported":1751303401,"current_range_meters":17600,"station_id":"ce4bhah2rcd13ifvqei0","pricing_plan_id":"cebpf4jnsgd1na2vs0mg"},{"bike_id":"65890312-b4a6-463f-9b81-132ee12a3ed0","system_id":"levelo_inurba_marseille","lat":43.273758,"lon":5.362594,"is_reserved":false,"is_disabled":false,"rental_uris":{"android":"levelo://app?vid=65890312-b4a6-463f-9b81-132ee12a3ed0","ios":"levelo://app?vid=65890312-b4a6-463f-9b81-132ee12a3ed0"},"vehicle_type_id":"4","last_reported":1751303401,"current_range_meters":17600,"station_id":"ce4bhbh2rcd13ifvqeo0","pricing_plan_id":"cebpf4jnsgd1na2vs0mg"},{"bike_id":"ecd422ac-9e70-41eb-9655-91fc424429f0","system_id":"levelo_inurba_marseille","lat":43.28408,"lon":5.34966,"is_reserved":false,"is_disabled":false,"rental_uris":{"android":"levelo://app?vid=ecd422ac-9e70-41eb-9655-91fc424429f0","ios":"levelo://app?vid=ecd422ac-9e70-41eb-9655-91fc424429f0"},"vehicle_type_id":"4","last_reported":1751303401,"current_range_meters":17600,"station_id":"ce4bhbh2rcd13ifvqepg","pricing_plan_id":"cebpf4jnsgd1na2vs0mg"},{"bike_id":"f4bfa86c-cbfe-4edf-8ae6-de726347bc3f","system_id":"levelo_inurba_marseille","lat":43.28417,"lon":5.34978,"is_reserved":false,"is_disabled":false,"rental_uris":{"android":"levelo://app?vid=f4bfa86c-cbfe-4edf-8ae6-de726347bc3f","ios":"levelo://app?vid=f4bfa86c-cbfe-4edf-8ae6-de726347bc3f"},"vehicle_type_id":"4","last_reported":1751303401,"current_range_meters":17600,"station_id":"ce4bhbh2rcd13ifvqepg","pricing_plan_id":"cebpf4jnsgd1na2vs0mg"},{"bike_id":"b4d9f4d5-2ebc-41d2-9ff4-6ed876c29a94","system_id":"levelo_inurba_marseille","lat":43.28264,"lon":5.3505,"is_reserved":false,"is_disabled":false,"rental_uris":{"android":"levelo://app?vid=b4d9f4d5-2ebc-41d2-9ff4-6ed876c29a94","ios":"levelo://app?vid=b4d9f4d5-2ebc-41d2-9ff4-6ed876c29a94"},"vehicle_type_id":"4","last_reported":1751303401,"current_range_meters":17600,"station_id":"ce4bhbp2rcd13ifvqerg","pricing_plan_id":"cebpf4jnsgd1na2vs0mg"},{"bike_id":"769f629b-ef32-48ea-94fe-126d46b5bc05","system_id":"levelo_inurba_marseille","lat":43.28622,"lon":5.35107,"is_reserved":false,"is_disabled":false,"rental_uris":{"android":"levelo://app?vid=769f629b-ef32-48ea-94fe-126d46b5bc05","ios":"levelo://app?vid=769f629b-ef32-48ea-94fe-126d46b5bc05"},"vehicle_type_id":"4","last_reported":1751303401,"current_range_meters":17600,"station_id":"ce4bhch2rcd13ifvqeug","pricing_plan_id":"cebpf4jnsgd1na2vs0mg"},{"bike_id":"ec59dc73-efec-49fb-a623-8c210bcd8f9c","system_id":"levelo_inurba_marseille","lat":43.21755,"lon":5.34603,"is_reserved":false,"is_disabled":false,"rental_uris":{"android":"levelo://app?vid=ec59dc73-efec-49fb-a623-8c210bcd8f9c","ios":"levelo://app?vid=ec59dc73-efec-49fb-a623-8c210bcd8f9c"},"vehicle_type_id":"4","last_reported":1751303401,"current_range_meters":17600,"station_id":"st_cvj6r9ubvosntc0bgbag","pricing_plan_id":"cebpf4jnsgd1na2vs0mg"},{"bike_id":"cc00e40a-c5cc-4f6a-acb6-8fdcb4bdc87a","system_id":"levelo_inurba_marseille","lat":43.21192,"lon":5.350715,"is_reserved":false,"is_disabled":false,"rental_uris":{"android":"levelo://app?vid=cc00e40a-c5cc-4f6a-acb6-8fdcb4bdc87a","ios":"levelo://app?vid=cc00e40a-c5cc-4f6a-acb6-8fdcb4bdc87a"},"vehicle_type_id":"4","last_reported":1751303401,"current_range_meters":17600,"station_id":"st_cvj6sg6p6f1abm77japg","pricing_plan_id":"cebpf4jnsgd1na2vs0mg"},{"bike_id":"f603f3aa-5bf7-4a19-a8a1-b47909f854c7","system_id":"levelo_inurba_marseille","lat":43.21195,"lon":5.35065,"is_reserved":false,"is_disabled":false,"rental_uris":{"android":"levelo://app?vid=f603f3aa-5bf7-4a19-a8a1-b47909f854c7","ios":"levelo://app?vid=f603f3aa-5bf7-4a19-a8a1-b47909f854c7"},"vehicle_type_id":"4","last_reported":1751303401,"current_range_meters":17600,"station_id":"st_cvj6sg6p6f1abm77japg","pricing_plan_id":"cebpf4jnsgd1na2vs0mg"},{"bike_id":"b40c1085-37e3-4b9e-a1e1-e654ec470923","system_id":"levelo_inurba_marseille","lat":43.273682,"lon":5.36257,"is_reserved":false,"is_disabled":false,"rental_uris":{"android":"levelo://app?vid=b40c1085-37e3-4b9e-a1e1-e654ec470923","ios":"levelo://app?vid=b40c1085-37e3-4b9e-a1e1-e654ec470923"},"vehicle_type_id":"4","last_reported":1751303401,"current_range_meters":18000,"station_id":"ce4bhbh2rcd13ifvqeo0","pricing_plan_id":"cebpf4jnsgd1na2vs0mg"},{"bike_id":"42314cad-1ad3-434b-b165-f5946241fbb4","system_id":"levelo_inurba_marseille","lat":43.27377,"lon":5.36253,"is_reserved":false,"is_disabled":false,"rental_uris":{"android":"levelo://app?vid=42314cad-1ad3-434b-b165-f5946241fbb4","ios":"levelo://app?vid=42314cad-1ad3-434b-b165-f5946241fbb4"},"vehicle_type_id":"4","last_reported":1751303401,"current_range_meters":18000,"station_id":"ce4bhbh2rcd13ifvqeo0","pricing_plan_id":"cebpf4jnsgd1na2vs0mg"},{"bike_id":"0a24663d-7c62-458e-8d52-c21c6564ba2b","system_id":"levelo_inurba_marseille","lat":43.292106,"lon":5.360594,"is_reserved":false,"is_disabled":false,"rental_uris":{"android":"levelo://app?vid=0a24663d-7c62-458e-8d52-c21c6564ba2b","ios":"levelo://app?vid=0a24663d-7c62-458e-8d52-c21c6564ba2b"},"vehicle_type_id":"4","last_reported":1751303401,"current_range_meters":18000,"station_id":"ce4bhbh2rcd13ifvqeqg","pricing_plan_id":"cebpf4jnsgd1na2vs0mg"},{"bike_id":"cbd65d27-088b-445e-aa09-31ae3ca5d1a7","system_id":"levelo_inurba_marseille","lat":43.28613,"lon":5.35108,"is_reserved":false,"is_disabled":false,"rental_uris":{"android":"levelo://app?vid=cbd65d27-088b-445e-aa09-31ae3ca5d1a7","ios":"levelo://app?vid=cbd65d27-088b-445e-aa09-31ae3ca5d1a7"},"vehicle_type_id":"4","last_reported":1751303401,"current_range_meters":18000,"station_id":"ce4bhch2rcd13ifvqeug","pricing_plan_id":"cebpf4jnsgd1na2vs0mg"},{"bike_id":"a0cef316-ad95-4855-8f78-a31341a2b90e","system_id":"levelo_inurba_marseille","lat":43.33039,"lon":5.39055,"is_reserved":false,"is_disabled":false,"rental_uris":{"android":"levelo://app?vid=a0cef316-ad95-4855-8f78-a31341a2b90e","ios":"levelo://app?vid=a0cef316-ad95-4855-8f78-a31341a2b90e"},"vehicle_type_id":"4","last_reported":1751303401,"current_range_meters":18000,"station_id":"ce4bhr92rcd13ifvqhrg","pricing_plan_id":"cebpf4jnsgd1na2vs0mg"},{"bike_id":"518354b5-8405-430c-bbfc-0e30bc76b92d","system_id":"levelo_inurba_marseille","lat":43.21753,"lon":5.34597,"is_reserved":false,"is_disabled":false,"rental_uris":{"android":"levelo://app?vid=518354b5-8405-430c-bbfc-0e30bc76b92d","ios":"levelo://app?vid=518354b5-8405-430c-bbfc-0e30bc76b92d"},"vehicle_type_id":"4","last_reported":1751303401,"current_range_meters":18800,"station_id":"","pricing_plan_id":"cebpf4jnsgd1na2vs0mg"},{"bike_id":"c0228700-5312-4a39-89af-ec53a5d729c5","system_id":"levelo_inurba_marseille","lat":43.28325,"lon":5.43246,"is_reserved":false,"is_disabled":false,"rental_uris":{"android":"levelo://app?vid=c0228700-5312-4a39-89af-ec53a5d729c5","ios":"levelo://app?vid=c0228700-5312-4a39-89af-ec53a5d729c5"},"vehicle_type_id":"4","last_reported":1751303401,"current_range_meters":18800,"station_id":"","pricing_plan_id":"cebpf4jnsgd1na2vs0mg"},{"bike_id":"c606c154-0b5f-433a-9933-4ce3c511b54d","system_id":"levelo_inurba_marseille","lat":43.2827,"lon":5.35065,"is_reserved":false,"is_disabled":false,"rental_uris":{"android":"levelo://app?vid=c606c154-0b5f-433a-9933-4ce3c511b54d","ios":"levelo://app?vid=c606c154-0b5f-433a-9933-4ce3c511b54d"},"vehicle_type_id":"4","last_reported":1751303401,"current_range_meters":18800,"station_id":"ce4bhbp2rcd13ifvqerg","pricing_plan_id":"cebpf4jnsgd1na2vs0mg"},{"bike_id":"96f0e0de-6b79-4c93-8dc3-23c2f9b2c100","system_id":"levelo_inurba_marseille","lat":43.25495,"lon":5.37648,"is_reserved":false,"is_disabled":false,"rental_uris":{"android":"levelo://app?vid=96f0e0de-6b79-4c93-8dc3-23c2f9b2c100","ios":"levelo://app?vid=96f0e0de-6b79-4c93-8dc3-23c2f9b2c100"},"vehicle_type_id":"4","last_reported":1751303401,"current_range_meters":18800,"station_id":"ce4bhh12rcd13ifvqff0","pricing_plan_id":"cebpf4jnsgd1na2vs0mg"},{"bike_id":"d0b2f4a7-e242-4703-926d-40f0be1abcaa","system_id":"levelo_inurba_marseille","lat":43.24661,"lon":5.38157,"is_reserved":false,"is_disabled":false,"rental_uris":{"android":"levelo://app?vid=d0b2f4a7-e242-4703-926d-40f0be1abcaa","ios":"levelo://app?vid=d0b2f4a7-e242-4703-926d-40f0be1abcaa"},"vehicle_type_id":"4","last_reported":1751303401,"current_range_meters":18800,"station_id":"ce4bhih2rcd13ifvqfr0","pricing_plan_id":"cebpf4jnsgd1na2vs0mg"},{"bike_id":"1caca1fc-4911-4e37-9aeb-383803780faf","system_id":"levelo_inurba_marseille","lat":43.32129,"lon":5.36747,"is_reserved":false,"is_disabled":false,"rental_uris":{"android":"levelo://app?vid=1caca1fc-4911-4e37-9aeb-383803780faf","ios":"levelo://app?vid=1caca1fc-4911-4e37-9aeb-383803780faf"},"vehicle_type_id":"4","last_reported":1751303401,"current_range_meters":18800,"station_id":"ce4bhrh2rcd13ifvqhug","pricing_plan_id":"cebpf4jnsgd1na2vs0mg"},{"bike_id":"49875ce1-f4a0-45c0-b030-6af975ade5db","system_id":"levelo_inurba_marseille","lat":43.27606,"lon":5.36114,"is_reserved":false,"is_disabled":false,"rental_uris":{"android":"levelo://app?vid=49875ce1-f4a0-45c0-b030-6af975ade5db","ios":"levelo://app?vid=49875ce1-f4a0-45c0-b030-6af975ade5db"},"vehicle_type_id":"4","last_reported":1751303401,"current_range_meters":19200,"station_id":"ce4bgj92rcd13ifvqbe0","pricing_plan_id":"cebpf4jnsgd1na2vs0mg"},{"bike_id":"6f5d2221-9b3c-4480-b1a5-0e1a4cf0a187","system_id":"levelo_inurba_marseille","lat":43.28619,"lon":5.35095,"is_reserved":false,"is_disabled":false,"rental_uris":{"android":"levelo://app?vid=6f5d2221-9b3c-4480-b1a5-0e1a4cf0a187","ios":"levelo://app?vid=6f5d2221-9b3c-4480-b1a5-0e1a4cf0a187"},"vehicle_type_id":"4","last_reported":1751303401,"current_range_meters":19200,"station_id":"ce4bhch2rcd13ifvqeug","pricing_plan_id":"cebpf4jnsgd1na2vs0mg"},{"bike_id":"f81a23b2-3cc2-46b6-9cee-7d0157cb24e2","system_id":"levelo_inurba_marseille","lat":43.243881,"lon":5.370574,"is_reserved":false,"is_disabled":false,"rental_uris":{"android":"levelo://app?vid=f81a23b2-3cc2-46b6-9cee-7d0157cb24e2","ios":"levelo://app?vid=f81a23b2-3cc2-46b6-9cee-7d0157cb24e2"},"vehicle_type_id":"4","last_reported":1751303401,"current_range_meters":19200,"station_id":"ce4bhhh2rcd13ifvqfk0","pricing_plan_id":"cebpf4jnsgd1na2vs0mg"},{"bike_id":"2dd65579-bdb1-43a8-b6d0-a5674b265923","system_id":"levelo_inurba_marseille","lat":43.261938,"lon":5.379291,"is_reserved":false,"is_disabled":false,"rental_uris":{"android":"levelo://app?vid=2dd65579-bdb1-43a8-b6d0-a5674b265923","ios":"levelo://app?vid=2dd65579-bdb1-43a8-b6d0-a5674b265923"},"vehicle_type_id":"4","last_reported":1751303401,"current_range_meters":19200,"station_id":"ce4bhjp2rcd13ifvqg90","pricing_plan_id":"cebpf4jnsgd1na2vs0mg"},{"bike_id":"86fa6ce7-8cbe-47ff-b5d3-c2b4938fd05c","system_id":"levelo_inurba_marseille","lat":43.21207,"lon":5.35089,"is_reserved":false,"is_disabled":false,"rental_uris":{"android":"levelo://app?vid=86fa6ce7-8cbe-47ff-b5d3-c2b4938fd05c","ios":"levelo://app?vid=86fa6ce7-8cbe-47ff-b5d3-c2b4938fd05c"},"vehicle_type_id":"4","last_reported":1751303401,"current_range_meters":19200,"station_id":"st_cvj6sg6p6f1abm77japg","pricing_plan_id":"cebpf4jnsgd1na2vs0mg"},{"bike_id":"5767b9e4-81ec-40bf-bccc-db289ba35b4e","system_id":"levelo_inurba_marseille","lat":43.27432,"lon":5.41221,"is_reserved":false,"is_disabled":false,"rental_uris":{"android":"levelo://app?vid=5767b9e4-81ec-40bf-bccc-db289ba35b4e","ios":"levelo://app?vid=5767b9e4-81ec-40bf-bccc-db289ba35b4e"},"vehicle_type_id":"4","last_reported":1751303401,"current_range_meters":19600,"station_id":"","pricing_plan_id":"cebpf4jnsgd1na2vs0mg"},{"bike_id":"72366b11-824b-4e57-b042-fa30975ce2c7","system_id":"levelo_inurba_marseille","lat":43.232635,"lon":5.356506,"is_reserved":false,"is_disabled":false,"rental_uris":{"android":"levelo://app?vid=72366b11-824b-4e57-b042-fa30975ce2c7","ios":"levelo://app?vid=72366b11-824b-4e57-b042-fa30975ce2c7"},"vehicle_type_id":"4","last_reported":1751303401,"current_range_meters":19600,"station_id":"","pricing_plan_id":"cebpf4jnsgd1na2vs0mg"},{"bike_id":"d2019eb4-f450-4e51-abec-b5191e2306d5","system_id":"levelo_inurba_marseille","lat":43.29919,"lon":5.43675,"is_reserved":false,"is_disabled":false,"rental_uris":{"android":"levelo://app?vid=d2019eb4-f450-4e51-abec-b5191e2306d5","ios":"levelo://app?vid=d2019eb4-f450-4e51-abec-b5191e2306d5"},"vehicle_type_id":"4","last_reported":1751303401,"current_range_meters":19600,"station_id":"","pricing_plan_id":"cebpf4jnsgd1na2vs0mg"},{"bike_id":"46e316ec-d236-4ff8-9620-a09df4aa9552","system_id":"levelo_inurba_marseille","lat":43.27623,"lon":5.36096,"is_reserved":false,"is_disabled":false,"rental_uris":{"android":"levelo://app?vid=46e316ec-d236-4ff8-9620-a09df4aa9552","ios":"levelo://app?vid=46e316ec-d236-4ff8-9620-a09df4aa9552"},"vehicle_type_id":"4","last_reported":1751303401,"current_range_meters":19600,"station_id":"ce4bgj92rcd13ifvqbe0","pricing_plan_id":"cebpf4jnsgd1na2vs0mg"},{"bike_id":"87600a7a-07f0-497d-887c-d357399ff666","system_id":"levelo_inurba_marseille","lat":43.2762,"lon":5.36111,"is_reserved":false,"is_disabled":false,"rental_uris":{"android":"levelo://app?vid=87600a7a-07f0-497d-887c-d357399ff666","ios":"levelo://app?vid=87600a7a-07f0-497d-887c-d357399ff666"},"vehicle_type_id":"4","last_reported":1751303401,"current_range_meters":19600,"station_id":"ce4bgj92rcd13ifvqbe0","pricing_plan_id":"cebpf4jnsgd1na2vs0mg"},{"bike_id":"b06e61ac-becb-45f1-97b2-0b1d0b20ea91","system_id":"levelo_inurba_marseille","lat":43.28414,"lon":5.34972,"is_reserved":false,"is_disabled":false,"rental_uris":{"android":"levelo://app?vid=b06e61ac-becb-45f1-97b2-0b1d0b20ea91","ios":"levelo://app?vid=b06e61ac-becb-45f1-97b2-0b1d0b20ea91"},"vehicle_type_id":"4","last_reported":1751303401,"current_range_meters":19600,"station_id":"ce4bhbh2rcd13ifvqepg","pricing_plan_id":"cebpf4jnsgd1na2vs0mg"},{"bike_id":"b217ee59-87c6-463c-9ed4-a14eeca28628","system_id":"levelo_inurba_marseille","lat":43.2582,"lon":5.39433,"is_reserved":false,"is_disabled":false,"rental_uris":{"android":"levelo://app?vid=b217ee59-87c6-463c-9ed4-a14eeca28628","ios":"levelo://app?vid=b217ee59-87c6-463c-9ed4-a14eeca28628"},"vehicle_type_id":"4","last_reported":1751303401,"current_range_meters":19600,"station_id":"ce4bhip2rcd13ifvqft0","pricing_plan_id":"cebpf4jnsgd1na2vs0mg"},{"bike_id":"d2f72e45-6b0c-4b36-9924-deef3cd98510","system_id":"levelo_inurba_marseille","lat":43.274918,"lon":5.424553,"is_reserved":false,"is_disabled":false,"rental_uris":{"android":"levelo://app?vid=d2f72e45-6b0c-4b36-9924-deef3cd98510","ios":"levelo://app?vid=d2f72e45-6b0c-4b36-9924-deef3cd98510"},"vehicle_type_id":"4","last_reported":1751303401,"current_range_meters":19600,"station_id":"ce4bhn92rcd13ifvqgrg","pricing_plan_id":"cebpf4jnsgd1na2vs0mg"},{"bike_id":"fc409ae5-8aeb-4d8a-9bea-e260cc3f6f8b","system_id":"levelo_inurba_marseille","lat":43.24057,"lon":5.37754,"is_reserved":false,"is_disabled":false,"rental_uris":{"android":"levelo://app?vid=fc409ae5-8aeb-4d8a-9bea-e260cc3f6f8b","ios":"levelo://app?vid=fc409ae5-8aeb-4d8a-9bea-e260cc3f6f8b"},"vehicle_type_id":"4","last_reported":1751303401,"current_range_meters":19600,"station_id":"ce4bhnp2rcd13ifvqgvg","pricing_plan_id":"cebpf4jnsgd1na2vs0mg"},{"bike_id":"e0c4211a-662e-4f11-90b6-981ca029649d","system_id":"levelo_inurba_marseille","lat":43.22506,"lon":5.3478,"is_reserved":false,"is_disabled":false,"rental_uris":{"android":"levelo://app?vid=e0c4211a-662e-4f11-90b6-981ca029649d","ios":"levelo://app?vid=e0c4211a-662e-4f11-90b6-981ca029649d"},"vehicle_type_id":"4","last_reported":1751303401,"current_range_meters":19600,"station_id":"st_cvj5dfep6f1abm77gieg","pricing_plan_id":"cebpf4jnsgd1na2vs0mg"},{"bike_id":"1bd9363f-186c-4f4c-a067-da97d14ec25e","system_id":"levelo_inurba_marseille","lat":43.290022,"lon":5.356035,"is_reserved":false,"is_disabled":false,"rental_uris":{"android":"levelo://app?vid=1bd9363f-186c-4f4c-a067-da97d14ec25e","ios":"levelo://app?vid=1bd9363f-186c-4f4c-a067-da97d14ec25e"},"vehicle_type_id":"4","last_reported":1751303401,"current_range_meters":20000,"station_id":"ce4bhb92rcd13ifvqen0","pricing_plan_id":"cebpf4jnsgd1na2vs0mg"},{"bike_id":"9fa747cf-7c7e-4401-b119-29552b418a37","system_id":"levelo_inurba_marseille","lat":43.27384,"lon":5.36251,"is_reserved":false,"is_disabled":false,"rental_uris":{"android":"levelo://app?vid=9fa747cf-7c7e-4401-b119-29552b418a37","ios":"levelo://app?vid=9fa747cf-7c7e-4401-b119-29552b418a37"},"vehicle_type_id":"4","last_reported":1751303401,"current_range_meters":20000,"station_id":"ce4bhbh2rcd13ifvqeo0","pricing_plan_id":"cebpf4jnsgd1na2vs0mg"},{"bike_id":"d18eb9d7-9592-46fc-b5a0-f6dfaa4f31f1","system_id":"levelo_inurba_marseille","lat":43.28418,"lon":5.34988,"is_reserved":false,"is_disabled":false,"rental_uris":{"android":"levelo://app?vid=d18eb9d7-9592-46fc-b5a0-f6dfaa4f31f1","ios":"levelo://app?vid=d18eb9d7-9592-46fc-b5a0-f6dfaa4f31f1"},"vehicle_type_id":"4","last_reported":1751303401,"current_range_meters":20000,"station_id":"ce4bhbh2rcd13ifvqepg","pricing_plan_id":"cebpf4jnsgd1na2vs0mg"},{"bike_id":"871fb840-1712-4ded-bd4e-46d7276213c8","system_id":"levelo_inurba_marseille","lat":43.24394,"lon":5.37059,"is_reserved":false,"is_disabled":false,"rental_uris":{"android":"levelo://app?vid=871fb840-1712-4ded-bd4e-46d7276213c8","ios":"levelo://app?vid=871fb840-1712-4ded-bd4e-46d7276213c8"},"vehicle_type_id":"4","last_reported":1751303401,"current_range_meters":20000,"station_id":"ce4bhhh2rcd13ifvqfk0","pricing_plan_id":"cebpf4jnsgd1na2vs0mg"},{"bike_id":"c6601ee0-9b2e-4d12-8e9e-8239891d1826","system_id":"levelo_inurba_marseille","lat":43.24663,"lon":5.3816,"is_reserved":false,"is_disabled":false,"rental_uris":{"android":"levelo://app?vid=c6601ee0-9b2e-4d12-8e9e-8239891d1826","ios":"levelo://app?vid=c6601ee0-9b2e-4d12-8e9e-8239891d1826"},"vehicle_type_id":"4","last_reported":1751303401,"current_range_meters":20000,"station_id":"ce4bhih2rcd13ifvqfr0","pricing_plan_id":"cebpf4jnsgd1na2vs0mg"},{"bike_id":"3a33ebd2-49a2-4e39-92d7-f09d7dd08672","system_id":"levelo_inurba_marseille","lat":43.211901,"lon":5.350741,"is_reserved":false,"is_disabled":false,"rental_uris":{"android":"levelo://app?vid=3a33ebd2-49a2-4e39-92d7-f09d7dd08672","ios":"levelo://app?vid=3a33ebd2-49a2-4e39-92d7-f09d7dd08672"},"vehicle_type_id":"4","last_reported":1751303401,"current_range_meters":20000,"station_id":"st_cvj6sg6p6f1abm77japg","pricing_plan_id":"cebpf4jnsgd1na2vs0mg"},{"bike_id":"569afbd4-da57-4911-aecb-840950c33922","system_id":"levelo_inurba_marseille","lat":43.211906,"lon":5.350669,"is_reserved":false,"is_disabled":false,"rental_uris":{"android":"levelo://app?vid=569afbd4-da57-4911-aecb-840950c33922","ios":"levelo://app?vid=569afbd4-da57-4911-aecb-840950c33922"},"vehicle_type_id":"4","last_reported":1751303401,"current_range_meters":20000,"station_id":"st_cvj6sg6p6f1abm77japg","pricing_plan_id":"cebpf4jnsgd1na2vs0mg"},{"bike_id":"539ed013-9e80-448a-999f-a7819f54786a","system_id":"levelo_inurba_marseille","lat":43.290309,"lon":5.375668,"is_reserved":false,"is_disabled":false,"rental_uris":{"android":"levelo://app?vid=539ed013-9e80-448a-999f-a7819f54786a","ios":"levelo://app?vid=539ed013-9e80-448a-999f-a7819f54786a"},"vehicle_type_id":"4","last_reported":1751303401,"current_range_meters":20400,"station_id":"","pricing_plan_id":"cebpf4jnsgd1na2vs0mg"},{"bike_id":"fb1fe13f-4e3c-4321-b58f-56345264a0fc","system_id":"levelo_inurba_marseille","lat":43.27378,"lon":5.36254,"is_reserved":false,"is_disabled":false,"rental_uris":{"android":"levelo://app?vid=fb1fe13f-4e3c-4321-b58f-56345264a0fc","ios":"levelo://app?vid=fb1fe13f-4e3c-4321-b58f-56345264a0fc"},"vehicle_type_id":"4","last_reported":1751303401,"current_range_meters":20400,"station_id":"ce4bhbh2rcd13ifvqeo0","pricing_plan_id":"cebpf4jnsgd1na2vs0mg"},{"bike_id":"01bd36de-fcad-491e-a758-ffd27de4fcfc","system_id":"levelo_inurba_marseille","lat":43.28264,"lon":5.35087,"is_reserved":false,"is_disabled":false,"rental_uris":{"android":"levelo://app?vid=01bd36de-fcad-491e-a758-ffd27de4fcfc","ios":"levelo://app?vid=01bd36de-fcad-491e-a758-ffd27de4fcfc"},"vehicle_type_id":"4","last_reported":1751303401,"current_range_meters":20400,"station_id":"ce4bhbp2rcd13ifvqerg","pricing_plan_id":"cebpf4jnsgd1na2vs0mg"},{"bike_id":"09f4eeca-0b73-4a4d-b7ec-9e1647808114","system_id":"levelo_inurba_marseille","lat":43.28613,"lon":5.35103,"is_reserved":false,"is_disabled":false,"rental_uris":{"android":"levelo://app?vid=09f4eeca-0b73-4a4d-b7ec-9e1647808114","ios":"levelo://app?vid=09f4eeca-0b73-4a4d-b7ec-9e1647808114"},"vehicle_type_id":"4","last_reported":1751303401,"current_range_meters":20400,"station_id":"ce4bhch2rcd13ifvqeug","pricing_plan_id":"cebpf4jnsgd1na2vs0mg"},{"bike_id":"dda8b503-29c5-44b8-a106-b42fae2c066a","system_id":"levelo_inurba_marseille","lat":43.28618,"lon":5.35101,"is_reserved":false,"is_disabled":false,"rental_uris":{"android":"levelo://app?vid=dda8b503-29c5-44b8-a106-b42fae2c066a","ios":"levelo://app?vid=dda8b503-29c5-44b8-a106-b42fae2c066a"},"vehicle_type_id":"4","last_reported":1751303401,"current_range_meters":20400,"station_id":"ce4bhch2rcd13ifvqeug","pricing_plan_id":"cebpf4jnsgd1na2vs0mg"},{"bike_id":"fceb16de-6a79-427a-b828-bfdb30836d2e","system_id":"levelo_inurba_marseille","lat":43.23194,"lon":5.39974,"is_reserved":false,"is_disabled":false,"rental_uris":{"android":"levelo://app?vid=fceb16de-6a79-427a-b828-bfdb30836d2e","ios":"levelo://app?vid=fceb16de-6a79-427a-b828-bfdb30836d2e"},"vehicle_type_id":"4","last_reported":1751303401,"current_range_meters":20400,"station_id":"ce4bhn12rcd13ifvqgqg","pricing_plan_id":"cebpf4jnsgd1na2vs0mg"},{"bike_id":"067dc4af-ce5f-4fe4-9eaa-45414d4d8185","system_id":"levelo_inurba_marseille","lat":43.3234,"lon":5.40619,"is_reserved":false,"is_disabled":false,"rental_uris":{"android":"levelo://app?vid=067dc4af-ce5f-4fe4-9eaa-45414d4d8185","ios":"levelo://app?vid=067dc4af-ce5f-4fe4-9eaa-45414d4d8185"},"vehicle_type_id":"4","last_reported":1751303401,"current_range_meters":20400,"station_id":"ce4bhq92rcd13ifvqhjg","pricing_plan_id":"cebpf4jnsgd1na2vs0mg"},