{"last_updated":1733833193,"ttl":60,"version":"2.2","data":{"bikes":[{"bike_id":"cc832c36-3383-49a4-b52c-5913dffcd510","system_id":"levelo_inurba_marseille","lat":43.30532,"lon":5.36719,"is_reserved":false,"is_disabled":false,"rental_uris":{"android":"levelo://app?vid=cc832c36-3383-49a4-b52c-5913dffcd510","ios":"levelo://app?vid=cc832c36-3383-49a4-b52c-5913dffcd510"},"vehicle_type_id":"4","last_reported":1733833194,"current_range_meters":9600,"station_id":"ce4bgrp2rcd13ifvqc9g","pricing_plan_id":"cebpf4jnsgd1na2vs0mg"},{"bike_id":"3bae985c-4ec3-4449-8ab5-671c37ae0791","system_id":"levelo_inurba_marseille","lat":43.23154,"lon":5.43706,"is_reserved":false,"is_disabled":false,"rental_uris":{"android":"levelo://app?vid=3bae985c-4ec3-4449-8ab5-671c37ae0791","ios":"levelo://app?vid=3bae985c-4ec3-4449-8ab5-671c37ae0791"},"vehicle_type_id":"4","last_reported":1733833194,"current_range_meters":39200,"station_id":"ce4bhmp2rcd13ifvqgog","pricing_plan_id":"cebpf4jnsgd1na2vs0mg"},{"bike_id":"9e840671-2878-4845-b8fb-114afd1f4bc9","system_id":"levelo_inurba_marseille","lat":43.26686,"lon":5.38274,"is_reserved":false,"is_disabled":true,"rental_uris":{"android":"levelo://app?vid=9e840671-2878-4845-b8fb-114afd1f4bc9","ios":"levelo://app?vid=9e840671-2878-4845-b8fb-114afd1f4bc9"},"vehicle_type_id":"4","last_reported":1733833194,"current_range_meters":2000,"station_id":"ce4bhg92rcd13ifvqf90","pricing_plan_id":"cebpf4jnsgd1na2vs0mg"},{"bike_id":"d498c7c1-92ca-4dc9-b167-84903719a1b4","system_id":"levelo_inurba_marseille","lat":43.26192,"lon":5.37453,"is_reserved":false,"is_disabled":false,"rental_uris":{"android":"levelo://app?vid=d498c7c1-92ca-4dc9-b167-84903719a1b4","ios":"levelo://app?vid=d498c7c1-92ca-4dc9-b167-84903719a1b4"},"vehicle_type_id":"4","last_reported":1733833194,"current_range_meters":28800,"station_id":"ce4bhgp2rcd13ifvqfc0","pricing_plan_id":"cebpf4jnsgd1na2vs0mg"},{"bike_id":"8e029eaf-e104-4c5d-858d-6cd39de73d09","system_id":"levelo_inurba_marseille","lat":43.2417,"lon":5.36398,"is_reserved":false,"is_disabled":false,"rental_uris":{"android":"levelo://app?vid=8e029eaf-e104-4c5d-858d-6cd39de73d09","ios":"levelo://app?vid=8e029eaf-e104-4c5d-858d-6cd39de73d09"},"vehicle_type_id":"4","last_reported":1733833194,"current_range_meters":16800,"station_id":"cpo36qri1sfpv3e86is0","pricing_plan_id":"cebpf4jnsgd1na2vs0mg"},{"bike_id":"5ee88fa2-ea43-4fcc-81b6-7c648141d8f2","system_id":"levelo_inurba_marseille","lat":43.27567,"lon":5.38425,"is_reserved":false,"is_disabled":false,"rental_uris":{"android":"levelo://app?vid=5ee88fa2-ea43-4fcc-81b6-7c648141d8f2","ios":"levelo://app?vid=5ee88fa2-ea43-4fcc-81b6-7c648141d8f2"},"vehicle_type_id":"4","last_reported":1733833194,"current_range_meters":38800,"station_id":"ce4bhh92rcd13ifvqfi0","pricing_plan_id":"cebpf4jnsgd1na2vs0mg"},{"bike_id":"9fd0ac7c-0144-46a0-b1b2-f558ffbf21a2","system_id":"levelo_inurba_marseille","lat":43.24978,"lon":5.38946,"is_reserved":false,"is_disabled":false,"rental_uris":{"android":"levelo://app?vid=9fd0ac7c-0144-46a0-b1b2-f558ffbf21a2","ios":"levelo://app?vid=9fd0ac7c-0144-46a0-b1b2-f558ffbf21a2"},"vehicle_type_id":"4","last_reported":1733833194,"current_range_meters":34000,"station_id":"ce4bhgp2rcd13ifvqfd0","pricing_plan_id":"cebpf4jnsgd1na2vs0mg"},{"bike_id":"fe0a1608-e570-4cce-875f-045a1312413d","system_id":"levelo_inurba_marseille","lat":43.26971,"lon":5.38606,"is_reserved":false,"is_disabled":false,"rental_uris":{"android":"levelo://app?vid=fe0a1608-e570-4cce-875f-045a1312413d","ios":"levelo://app?vid=fe0a1608-e570-4cce-875f-045a1312413d"},"vehicle_type_id":"4","last_reported":1733833194,"current_range_meters":16400,"station_id":"ce4bhh92rcd13ifvqfh0","pricing_plan_id":"cebpf4jnsgd1na2vs0mg"},{"bike_id":"014914cf-eb98-4b5d-8cd3-12a67a219c23","system_id":"levelo_inurba_marseille","lat":43.33611,"lon":5.41026,"is_reserved":false,"is_disabled":true,"rental_uris":{"android":"levelo://app?vid=014914cf-eb98-4b5d-8cd3-12a67a219c23","ios":"levelo://app?vid=014914cf-eb98-4b5d-8cd3-12a67a219c23"},"vehicle_type_id":"4","last_reported":1733833194,"current_range_meters":38400,"station_id":"ce4bhqh2rcd13ifvqhmg","pricing_plan_id":"cebpf4jnsgd1na2vs0mg"},{"bike_id":"bbfe7042-3668-421a-b9b3-1a1c7c7a355e","system_id":"levelo_inurba_marseille","lat":43.2872,"lon":5.37942,"is_reserved":false,"is_disabled":false,"rental_uris":{"android":"levelo://app?vid=bbfe7042-3668-421a-b9b3-1a1c7c7a355e","ios":"levelo://app?vid=bbfe7042-3668-421a-b9b3-1a1c7c7a355e"},"vehicle_type_id":"4","last_reported":1733833194,"current_range_meters":8400,"station_id":"ce4bh9p2rcd13ifvqec0","pricing_plan_id":"cebpf4jnsgd1na2vs0mg"},{"bike_id":"7fff9771-3f81-43d3-8af7-e2131837efb8","system_id":"levelo_inurba_marseille","lat":43.29618,"lon":5.37719,"is_reserved":false,"is_disabled":true,"rental_uris":{"android":"levelo://app?vid=7fff9771-3f81-43d3-8af7-e2131837efb8","ios":"levelo://app?vid=7fff9771-3f81-43d3-8af7-e2131837efb8"},"vehicle_type_id":"4","last_reported":1733833194,"current_range_meters":0,"station_id":"ce4bgi92rcd13ifvqb90","pricing_plan_id":"cebpf4jnsgd1na2vs0mg"},{"bike_id":"8bd642b2-0279-44c7-9ee2-fc3b57332c83","system_id":"levelo_inurba_marseille","lat":43.27455,"lon":5.40073,"is_reserved":false,"is_disabled":true,"rental_uris":{"android":"levelo://app?vid=8bd642b2-0279-44c7-9ee2-fc3b57332c83","ios":"levelo://app?vid=8bd642b2-0279-44c7-9ee2-fc3b57332c83"},"vehicle_type_id":"4","last_reported":1733833194,"current_range_meters":0,"station_id":"","pricing_plan_id":"cebpf4jnsgd1na2vs0mg"},{"bike_id":"59b0b34c-6f92-4349-9ebf-bf641fd76061","system_id":"levelo_inurba_marseille","lat":43.27069,"lon":5.42278,"is_reserved":false,"is_disabled":true,"rental_uris":{"android":"levelo://app?vid=59b0b34c-6f92-4349-9ebf-bf641fd76061","ios":"levelo://app?vid=59b0b34c-6f92-4349-9ebf-bf641fd76061"},"vehicle_type_id":"4","last_reported":1733833194,"current_range_meters":32000,"station_id":"ce4bhk92rcd13ifvqgb0","pricing_plan_id":"cebpf4jnsgd1na2vs0mg"},{"bike_id":"1e1e42f7-d64b-4c90-838d-624280674011","system_id":"levelo_inurba_marseille","lat":43.33764,"lon":5.37429,"is_reserved":false,"is_disabled":false,"rental_uris":{"android":"levelo://app?vid=1e1e42f7-d64b-4c90-838d-624280674011","ios":"levelo://app?vid=1e1e42f7-d64b-4c90-838d-624280674011"},"vehicle_type_id":"4","last_reported":1733833194,"current_range_meters":35200,"station_id":"","pricing_plan_id":"cebpf4jnsgd1na2vs0mg"},{"bike_id":"86edbd43-60d0-49ad-ad78-e2fc0268fb40","system_id":"levelo_inurba_marseille","lat":43.2794,"lon":5.41048,"is_reserved":false,"is_disabled":false,"rental_uris":{"android":"levelo://app?vid=86edbd43-60d0-49ad-ad78-e2fc0268fb40","ios":"levelo://app?vid=86edbd43-60d0-49ad-ad78-e2fc0268fb40"},"vehicle_type_id":"4","last_reported":1733833194,"current_range_meters":23200,"station_id":"ce4bhnp2rcd13ifvqh0g","pricing_plan_id":"cebpf4jnsgd1na2vs0mg"},{"bike_id":"691e9545-c2d5-45ef-b844-730bb89fadb6","system_id":"levelo_inurba_marseille","lat":43.32659,"lon":5.40986,"is_reserved":false,"is_disabled":false,"rental_uris":{"android":"levelo://app?vid=691e9545-c2d5-45ef-b844-730bb89fadb6","ios":"levelo://app?vid=691e9545-c2d5-45ef-b844-730bb89fadb6"},"vehicle_type_id":"4","last_reported":1733833194,"current_range_meters":23200,"station_id":"ce4bhpp2rcd13ifvqhgg","pricing_plan_id":"cebpf4jnsgd1na2vs0mg"},{"bike_id":"f09914a1-032a-4233-965f-c73f49a269ba","system_id":"levelo_inurba_marseille","lat":43.337444,"lon":5.374475,"is_reserved":false,"is_disabled":true,"rental_uris":{"android":"levelo://app?vid=f09914a1-032a-4233-965f-c73f49a269ba","ios":"levelo://app?vid=f09914a1-032a-4233-965f-c73f49a269ba"},"vehicle_type_id":"4","last_reported":1733833194,"current_range_meters":0,"station_id":"","pricing_plan_id":"cebpf4jnsgd1na2vs0mg"},{"bike_id":"76525433-6ea2-4692-9f86-be767bddfa70","system_id":"levelo_inurba_marseille","lat":43.29363,"lon":5.37848,"is_reserved":false,"is_disabled":false,"rental_uris":{"android":"levelo://app?vid=76525433-6ea2-4692-9f86-be767bddfa70","ios":"levelo://app?vid=76525433-6ea2-4692-9f86-be767bddfa70"},"vehicle_type_id":"4","last_reported":1733833194,"current_range_meters":38800,"station_id":"ce4bgjh2rcd13ifvqbf0","pricing_plan_id":"cebpf4jnsgd1na2vs0mg"},{"bike_id":"1c7f3745-3640-4246-8c6e-6909d31b63ca","system_id":"levelo_inurba_marseille","lat":43.29685,"lon":5.36629,"is_reserved":false,"is_disabled":true,"rental_uris":{"android":"levelo://app?vid=1c7f3745-3640-4246-8c6e-6909d31b63ca","ios":"levelo://app?vid=1c7f3745-3640-4246-8c6e-6909d31b63ca"},"vehicle_type_id":"4","last_reported":1733833194,"current_range_meters":30000,"station_id":"ce4bgn12rcd13ifvqbt0","pricing_plan_id":"cebpf4jnsgd1na2vs0mg"},{"bike_id":"f6ceca24-19af-4ed8-b20b-dad7699688ae","system_id":"levelo_inurba_marseille","lat":43.324792,"lon":5.36574,"is_reserved":false,"is_disabled":true,"rental_uris":{"android":"levelo://app?vid=f6ceca24-19af-4ed8-b20b-dad7699688ae","ios":"levelo://app?vid=f6ceca24-19af-4ed8-b20b-dad7699688ae"},"vehicle_type_id":"4","last_reported":1733833194,"current_range_meters":24000,"station_id":"ce4bhs12rcd13ifvqhvg","pricing_plan_id":"cebpf4jnsgd1na2vs0mg"},{"bike_id":"db94f93e-1a6d-4830-8de3-e394317acd3b","system_id":"levelo_inurba_marseille","lat":43.32472,"lon":5.365616,"is_reserved":false,"is_disabled":false,"rental_uris":{"android":"levelo://app?vid=db94f93e-1a6d-4830-8de3-e394317acd3b","ios":"levelo://app?vid=db94f93e-1a6d-4830-8de3-e394317acd3b"},"vehicle_type_id":"4","last_reported":1733833194,"current_range_meters":8800,"station_id":"ce4bhs12rcd13ifvqhvg","pricing_plan_id":"cebpf4jnsgd1na2vs0mg"},{"bike_id":"8f33ac08-9bd5-4a3b-a2f7-5399b32095c5","system_id":"levelo_inurba_marseille","lat":43.29052,"lon":5.35916,"is_reserved":false,"is_disabled":false,"rental_uris":{"android":"levelo://app?vid=8f33ac08-9bd5-4a3b-a2f7-5399b32095c5","ios":"levelo://app?vid=8f33ac08-9bd5-4a3b-a2f7-5399b32095c5"},"vehicle_type_id":"4","last_reported":1733833194,"current_range_meters":2800,"station_id":"ce4bha92rcd13ifvqeg0","pricing_plan_id":"cebpf4jnsgd1na2vs0mg"},{"bike_id":"6584b159-ed83-4fbb-9c85-16048b75254f","system_id":"levelo_inurba_marseille","lat":43.29628,"lon":5.37724,"is_reserved":false,"is_disabled":false,"rental_uris":{"android":"levelo://app?vid=6584b159-ed83-4fbb-9c85-16048b75254f","ios":"levelo://app?vid=6584b159-ed83-4fbb-9c85-16048b75254f"},"vehicle_type_id":"4","last_reported":1733833194,"current_range_meters":16000,"station_id":"ce4bgi92rcd13ifvqb90","pricing_plan_id":"cebpf4jnsgd1na2vs0mg"},{"bike_id":"4a1b999f-e11b-4f12-840e-776047c1579e","system_id":"levelo_inurba_marseille","lat":43.2836,"lon":5.38642,"is_reserved":false,"is_disabled":false,"rental_uris":{"android":"levelo://app?vid=4a1b999f-e11b-4f12-840e-776047c1579e","ios":"levelo://app?vid=4a1b999f-e11b-4f12-840e-776047c1579e"},"vehicle_type_id":"4","last_reported":1733833194,"current_range_meters":6800,"station_id":"ce4bh492rcd13ifvqdvg","pricing_plan_id":"cebpf4jnsgd1na2vs0mg"},{"bike_id":"75701b26-361c-41a5-86cc-cb78b6f05388","system_id":"levelo_inurba_marseille","lat":43.2593,"lon":5.40911,"is_reserved":false,"is_disabled":true,"rental_uris":{"android":"levelo://app?vid=75701b26-361c-41a5-86cc-cb78b6f05388","ios":"levelo://app?vid=75701b26-361c-41a5-86cc-cb78b6f05388"},"vehicle_type_id":"4","last_reported":1733833194,"current_range_meters":32800,"station_id":"ce4bhm92rcd13ifvqglg","pricing_plan_id":"cebpf4jnsgd1na2vs0mg"},{"bike_id":"724c48f1-2175-4730-9579-aceff44261ff","system_id":"levelo_inurba_marseille","lat":43.24194,"lon":5.39732,"is_reserved":false,"is_disabled":false,"rental_uris":{"android":"levelo://app?vid=724c48f1-2175-4730-9579-aceff44261ff","ios":"levelo://app?vid=724c48f1-2175-4730-9579-aceff44261ff"},"vehicle_type_id":"4","last_reported":1733833194,"current_range_meters":39200,"station_id":"ce4bhn12rcd13ifvqgpg","pricing_plan_id":"cebpf4jnsgd1na2vs0mg"},{"bike_id":"98307136-80a4-466f-817c-d269e3457acc","system_id":"levelo_inurba_marseille","lat":43.32227,"lon":5.37631,"is_reserved":false,"is_disabled":false,"rental_uris":{"android":"levelo://app?vid=98307136-80a4-466f-817c-d269e3457acc","ios":"levelo://app?vid=98307136-80a4-466f-817c-d269e3457acc"},"vehicle_type_id":"4","last_reported":1733833194,"current_range_meters":33600,"station_id":"","pricing_plan_id":"cebpf4jnsgd1na2vs0mg"},{"bike_id":"4988be4a-3d9e-4802-b79b-fc9ef468c795","system_id":"levelo_inurba_marseille","lat":43.27211,"lon":5.39176,"is_reserved":false,"is_disabled":false,"rental_uris":{"android":"levelo://app?vid=4988be4a-3d9e-4802-b79b-fc9ef468c795","ios":"levelo://app?vid=4988be4a-3d9e-4802-b79b-fc9ef468c795"},"vehicle_type_id":"4","last_reported":1733833194,"current_range_meters":39200,"station_id":"ce4bhhp2rcd13ifvqfm0","pricing_plan_id":"cebpf4jnsgd1na2vs0mg"},{"bike_id":"d1bdcee4-3d65-4af4-a341-e1d2febdfb0e","system_id":"levelo_inurba_marseille","lat":43.32363,"lon":5.38885,"is_reserved":false,"is_disabled":false,"rental_uris":{"android":"levelo://app?vid=d1bdcee4-3d65-4af4-a341-e1d2febdfb0e","ios":"levelo://app?vid=d1bdcee4-3d65-4af4-a341-e1d2febdfb0e"},"vehicle_type_id":"4","last_reported":1733833194,"current_range_meters":24400,"station_id":"ce4bhqp2rcd13ifvqhog","pricing_plan_id":"cebpf4jnsgd1na2vs0mg"},{"bike_id":"8ada0125-1496-4215-8fbe-03fe918889bf","system_id":"levelo_inurba_marseille","lat":43.23149,"lon":5.43718,"is_reserved":false,"is_disabled":false,"rental_uris":{"android":"levelo://app?vid=8ada0125-1496-4215-8fbe-03fe918889bf","ios":"levelo://app?vid=8ada0125-1496-4215-8fbe-03fe918889bf"},"vehicle_type_id":"4","last_reported":1733833194,"current_range_meters":9200,"station_id":"ce4bhmp2rcd13ifvqgog","pricing_plan_id":"cebpf4jnsgd1na2vs0mg"},{"bike_id":"48a59ca1-7bd9-4a2e-8452-da8893672a4e","system_id":"levelo_inurba_marseille","lat":43.29451,"lon":5.39751,"is_reserved":false,"is_disabled":false,"rental_uris":{"android":"levelo://app?vid=48a59ca1-7bd9-4a2e-8452-da8893672a4e","ios":"levelo://app?vid=48a59ca1-7bd9-4a2e-8452-da8893672a4e"},"vehicle_type_id":"4","last_reported":1733833194,"current_range_meters":38800,"station_id":"ce4bh3h2rcd13ifvqdo0","pricing_plan_id":"cebpf4jnsgd1na2vs0mg"},{"bike_id":"62307f1f-293b-489b-b062-bb705f21ae77","system_id":"levelo_inurba_marseille","lat":43.24187,"lon":5.39727,"is_reserved":false,"is_disabled":false,"rental_uris":{"android":"levelo://app?vid=62307f1f-293b-489b-b062-bb705f21ae77","ios":"levelo://app?vid=62307f1f-293b-489b-b062-bb705f21ae77"},"vehicle_type_id":"4","last_reported":1733833194,"current_range_meters":26800,"station_id":"ce4bhn12rcd13ifvqgpg","pricing_plan_id":"cebpf4jnsgd1na2vs0mg"},{"bike_id":"2f3968e7-9336-4ee4-ba78-8e92c0a818cc","system_id":"levelo_inurba_marseille","lat":43.31322,"lon":5.36647,"is_reserved":false,"is_disabled":true,"rental_uris":{"android":"levelo://app?vid=2f3968e7-9336-4ee4-ba78-8e92c0a818cc","ios":"levelo://app?vid=2f3968e7-9336-4ee4-ba78-8e92c0a818cc"},"vehicle_type_id":"4","last_reported":1733833194,"current_range_meters":0,"station_id":"","pricing_plan_id":"cebpf4jnsgd1na2vs0mg"},{"bike_id":"015f7117-ff17-4bba-9ac7-c8723e505850","system_id":"levelo_inurba_marseille","lat":43.29098,"lon":5.3813,"is_reserved":false,"is_disabled":false,"rental_uris":{"android":"levelo://app?vid=015f7117-ff17-4bba-9ac7-c8723e505850","ios":"levelo://app?vid=015f7117-ff17-4bba-9ac7-c8723e505850"},"vehicle_type_id":"4","last_reported":1733833194,"current_range_meters":9200,"station_id":"ce4bh512rcd13ifvqe2g","pricing_plan_id":"cebpf4jnsgd1na2vs0mg"},{"bike_id":"e5aac24b-8acb-4dfb-985c-85170e7397ed","system_id":"levelo_inurba_marseille","lat":43.33604,"lon":5.41036,"is_reserved":false,"is_disabled":true,"rental_uris":{"android":"levelo://app?vid=e5aac24b-8acb-4dfb-985c-85170e7397ed","ios":"levelo://app?vid=e5aac24b-8acb-4dfb-985c-85170e7397ed"},"vehicle_type_id":"4","last_reported":1733833194,"current_range_meters":38800,"station_id":"ce4bhqh2rcd13ifvqhmg","pricing_plan_id":"cebpf4jnsgd1na2vs0mg"},{"bike_id":"d5e92ee2-2732-42ca-a5b7-d0dd62001fdf","system_id":"levelo_inurba_marseille","lat":43.29298,"lon":5.3746,"is_reserved":false,"is_disabled":true,"rental_uris":{"android":"levelo://app?vid=d5e92ee2-2732-42ca-a5b7-d0dd62001fdf","ios":"levelo://app?vid=d5e92ee2-2732-42ca-a5b7-d0dd62001fdf"},"vehicle_type_id":"4","last_reported":1733833194,"current_range_meters":0,"station_id":"ce4bgi12rcd13ifvqb70","pricing_plan_id":"cebpf4jnsgd1na2vs0mg"},{"bike_id":"969347c8-28da-4b28-93cd-bf476c7a22b5","system_id":"levelo_inurba_marseille","lat":43.29522,"lon":5.39031,"is_reserved":false,"is_disabled":true,"rental_uris":{"android":"levelo://app?vid=969347c8-28da-4b28-93cd-bf476c7a22b5","ios":"levelo://app?vid=969347c8-28da-4b28-93cd-bf476c7a22b5"},"vehicle_type_id":"4","last_reported":1733833194,"current_range_meters":25200,"station_id":"ce4bh3p2rcd13ifvqdp0","pricing_plan_id":"cebpf4jnsgd1na2vs0mg"},{"bike_id":"53db1711-80e7-480d-9df9-7c3fdac992c0","system_id":"levelo_inurba_marseille","lat":43.29021,"lon":5.38143,"is_reserved":false,"is_disabled":false,"rental_uris":{"android":"levelo://app?vid=53db1711-80e7-480d-9df9-7c3fdac992c0","ios":"levelo://app?vid=53db1711-80e7-480d-9df9-7c3fdac992c0"},"vehicle_type_id":"4","last_reported":1733833194,"current_range_meters":23200,"station_id":"ce4bh4p2rcd13ifvqe1g","pricing_plan_id":"cebpf4jnsgd1na2vs0mg"},{"bike_id":"7f0b121b-7748-43bd-b861-318cbdf6fb69","system_id":"levelo_inurba_marseille","lat":43.284583,"lon":5.358847,"is_reserved":false,"is_disabled":true,"rental_uris":{"android":"levelo://app?vid=7f0b121b-7748-43bd-b861-318cbdf6fb69","ios":"levelo://app?vid=7f0b121b-7748-43bd-b861-318cbdf6fb69"},"vehicle_type_id":"4","last_reported":1733833194,"current_range_meters":38800,"station_id":"ce4bhah2rcd13ifvqei0","pricing_plan_id":"cebpf4jnsgd1na2vs0mg"},{"bike_id":"6583aefc-6815-4bd5-8f5c-a9c5d794f47e","system_id":"levelo_inurba_marseille","lat":43.36385,"lon":5.34187,"is_reserved":false,"is_disabled":false,"rental_uris":{"android":"levelo://app?vid=6583aefc-6815-4bd5-8f5c-a9c5d794f47e","ios":"levelo://app?vid=6583aefc-6815-4bd5-8f5c-a9c5d794f47e"},"vehicle_type_id":"4","last_reported":1733833194,"current_range_meters":8400,"station_id":"","pricing_plan_id":"cebpf4jnsgd1na2vs0mg"},{"bike_id":"78711c2a-505e-42d7-917e-cbcebded6deb","system_id":"levelo_inurba_marseille","lat":43.24156,"lon":5.39711,"is_reserved":false,"is_disabled":false,"rental_uris":{"android":"levelo://app?vid=78711c2a-505e-42d7-917e-cbcebded6deb","ios":"levelo://app?vid=78711c2a-505e-42d7-917e-cbcebded6deb"},"vehicle_type_id":"4","last_reported":1733833194,"current_range_meters":26800,"station_id":"ce4bhn12rcd13ifvqgpg","pricing_plan_id":"cebpf4jnsgd1na2vs0mg"},{"bike_id":"a822604e-5a8f-4665-b875-586d39d61022","system_id":"levelo_inurba_marseille","lat":43.3248,"lon":5.36559,"is_reserved":false,"is_disabled":false,"rental_uris":{"android":"levelo://app?vid=a822604e-5a8f-4665-b875-586d39d61022","ios":"levelo://app?vid=a822604e-5a8f-4665-b875-586d39d61022"},"vehicle_type_id":"4","last_reported":1733833194,"current_range_meters":32800,"station_id":"ce4bhs12rcd13ifvqhvg","pricing_plan_id":"cebpf4jnsgd1na2vs0mg"},{"bike_id":"72bf70d1-09a6-4223-8d5c-e05944e01564","system_id":"levelo_inurba_marseille","lat":43.33605,"lon":5.4103,"is_reserved":false,"is_disabled":false,"rental_uris":{"android":"levelo://app?vid=72bf70d1-09a6-4223-8d5c-e05944e01564","ios":"levelo://app?vid=72bf70d1-09a6-4223-8d5c-e05944e01564"},"vehicle_type_id":"4","last_reported":1733833194,"current_range_meters":38800,"station_id":"ce4bhqh2rcd13ifvqhmg","pricing_plan_id":"cebpf4jnsgd1na2vs0mg"},{"bike_id":"dd2a8744-9859-4010-af73-c02fbc4de488","system_id":"levelo_inurba_marseille","lat":43.28002,"lon":5.40008,"is_reserved":false,"is_disabled":false,"rental_uris":{"android":"levelo://app?vid=dd2a8744-9859-4010-af73-c02fbc4de488","ios":"levelo://app?vid=dd2a8744-9859-4010-af73-c02fbc4de488"},"vehicle_type_id":"4","last_reported":1733833194,"current_range_meters":20400,"station_id":"ce4bho92rcd13ifvqh4g","pricing_plan_id":"cebpf4jnsgd1na2vs0mg"},{"bike_id":"9fe561d4-aed0-4af9-acd6-6de149a2afa8","system_id":"levelo_inurba_marseille","lat":43.30536,"lon":5.3657,"is_reserved":false,"is_disabled":false,"rental_uris":{"android":"levelo://app?vid=9fe561d4-aed0-4af9-acd6-6de149a2afa8","ios":"levelo://app?vid=9fe561d4-aed0-4af9-acd6-6de149a2afa8"},"vehicle_type_id":"4","last_reported":1733833194,"current_range_meters":38800,"station_id":"ce4bgs12rcd13ifvqcag","pricing_plan_id":"cebpf4jnsgd1na2vs0mg"},{"bike_id":"ab1765a6-6c00-420c-b72e-88228cba39da","system_id":"levelo_inurba_marseille","lat":43.27185,"lon":5.41008,"is_reserved":false,"is_disabled":false,"rental_uris":{"android":"levelo://app?vid=ab1765a6-6c00-420c-b72e-88228cba39da","ios":"levelo://app?vid=ab1765a6-6c00-420c-b72e-88228cba39da"},"vehicle_type_id":"4","last_reported":1733833194,"current_range_meters":37600,"station_id":"ce4bhl12rcd13ifvqgf0","pricing_plan_id":"cebpf4jnsgd1na2vs0mg"},{"bike_id":"c901a794-496e-44e0-9d84-45e9988be1b0","system_id":"levelo_inurba_marseille","lat":43.27181,"lon":5.40993,"is_reserved":false,"is_disabled":false,"rental_uris":{"android":"levelo://app?vid=c901a794-496e-44e0-9d84-45e9988be1b0","ios":"levelo://app?vid=c901a794-496e-44e0-9d84-45e9988be1b0"},"vehicle_type_id":"4","last_reported":1733833194,"current_range_meters":38800,"station_id":"ce4bhl12rcd13ifvqgf0","pricing_plan_id":"cebpf4jnsgd1na2vs0mg"},{"bike_id":"2df08bfe-1f56-4603-a695-02a2ab9e8ee4","system_id":"levelo_inurba_marseille","lat":43.28465,"lon":5.38422,"is_reserved":false,"is_disabled":false,"rental_uris":{"android":"levelo://app?vid=2df08bfe-1f56-4603-a695-02a2ab9e8ee4","ios":"levelo://app?vid=2df08bfe-1f56-4603-a695-02a2ab9e8ee4"},"vehicle_type_id":"4","last_reported":1733833194,"current_range_meters":18000,"station_id":"ce4bh512rcd13ifvqe3g","pricing_plan_id":"cebpf4jnsgd1na2vs0mg"},{"bike_id":"35a9e972-3d70-4c02-b4d2-95bd849e6ce8","system_id":"levelo_inurba_marseille","lat":43.27054,"lon":5.40258,"is_reserved":false,"is_disabled":false,"rental_uris":{"android":"levelo://app?vid=35a9e972-3d70-4c02-b4d2-95bd849e6ce8","ios":"levelo://app?vid=35a9e972-3d70-4c02-b4d2-95bd849e6ce8"},"vehicle_type_id":"4","last_reported":1733833194,"current_range_meters":24800,"station_id":"ce4bhk92rcd13ifvqgc0","pricing_plan_id":"cebpf4jnsgd1na2vs0mg"},{"bike_id":"ce93eba4-a260-4242-bfd1-eb4a1083d4a6","system_id":"levelo_inurba_marseille","lat":43.27369,"lon":5.3626,"is_reserved":false,"is_disabled":false,"rental_uris":{"android":"levelo://app?vid=ce93eba4-a260-4242-bfd1-eb4a1083d4a6","ios":"levelo://app?vid=ce93eba4-a260-4242-bfd1-eb4a1083d4a6"},"vehicle_type_id":"4","last_reported":1733833194,"current_range_meters":38800,"station_id":"ce4bhbh2rcd13ifvqeo0","pricing_plan_id":"cebpf4jnsgd1na2vs0mg"},{"bike_id":"eaccd69f-be42-448e-a949-5e7c29ed5e26","system_id":"levelo_inurba_marseille","lat":43.29046,"lon":5.35911,"is_reserved":false,"is_disabled":false,"rental_uris":{"android":"levelo://app?vid=eaccd69f-be42-448e-a949-5e7c29ed5e26","ios":"levelo://app?vid=eaccd69f-be42-448e-a949-5e7c29ed5e26"},"vehicle_type_id":"4","last_reported":1733833194,"current_range_meters":28800,"station_id":"ce4bha92rcd13ifvqeg0","pricing_plan_id":"cebpf4jnsgd1na2vs0mg"},{"bike_id":"dd93c396-3e53-4e62-b4e2-c81714e6c408","system_id":"levelo_inurba_marseille","lat":43.2938,"lon":5.37854,"is_reserved":false,"is_disabled":false,"rental_uris":{"android":"levelo://app?vid=dd93c396-3e53-4e62-b4e2-c81714e6c408","ios":"levelo://app?vid=dd93c396-3e53-4e62-b4e2-c81714e6c408"},"vehicle_type_id":"4","last_reported":1733833194,"current_range_meters":38800,"station_id":"ce4bgjh2rcd13ifvqbf0","pricing_plan_id":"cebpf4jnsgd1na2vs0mg"},{"bike_id":"c1af07c0-ed11-49c8-aa2e-1104638a28b7","system_id":"levelo_inurba_marseille","lat":43.23073,"lon":5.35499,"is_reserved":false,"is_disabled":false,"rental_uris":{"android":"levelo://app?vid=c1af07c0-ed11-49c8-aa2e-1104638a28b7","ios":"levelo://app?vid=c1af07c0-ed11-49c8-aa2e-1104638a28b7"},"vehicle_type_id":"4","last_reported":1733833194,"current_range_meters":19600,"station_id":"cpo3342slgdg3j2ifvpg","pricing_plan_id":"cebpf4jnsgd1na2vs0mg"},{"bike_id":"bf3fc0ad-4573-4b8c-af5a-e68511cca2c7","system_id":"levelo_inurba_marseille","lat":43.27997,"lon":5.40006,"is_reserved":false,"is_disabled":false,"rental_uris":{"android":"levelo://app?vid=bf3fc0ad-4573-4b8c-af5a-e68511cca2c7","ios":"levelo://app?vid=bf3fc0ad-4573-4b8c-af5a-e68511cca2c7"},"vehicle_type_id":"4","last_reported":1733833194,"current_range_meters":26000,"station_id":"ce4bho92rcd13ifvqh4g","pricing_plan_id":"cebpf4jnsgd1na2vs0mg"},{"bike_id":"b18c6004-4219-4e73-8448-d98e733191e1","system_id":"levelo_inurba_marseille","lat":43.26567,"lon":5.39001,"is_reserved":false,"is_disabled":false,"rental_uris":{"android":"levelo://app?vid=b18c6004-4219-4e73-8448-d98e733191e1","ios":"levelo://app?vid=b18c6004-4219-4e73-8448-d98e733191e1"},"vehicle_type_id":"4","last_reported":1733833194,"current_range_meters":6400,"station_id":"ce4bhe12rcd13ifvqf30","pricing_plan_id":"cebpf4jnsgd1na2vs0mg"},{"bike_id":"1770e0f3-9ae9-4bf9-a84d-08bd0866f736","system_id":"levelo_inurba_marseille","lat":43.31343,"lon":5.36738,"is_reserved":false,"is_disabled":false,"rental_uris":{"android":"levelo://app?vid=1770e0f3-9ae9-4bf9-a84d-08bd0866f736","ios":"levelo://app?vid=1770e0f3-9ae9-4bf9-a84d-08bd0866f736"},"vehicle_type_id":"4","last_reported":1733833194,"current_range_meters":35200,"station_id":"ce4bgr92rcd13ifvqc6g","pricing_plan_id":"cebpf4jnsgd1na2vs0mg"},{"bike_id":"6f5aafc4-06b9-4dba-b612-5d926167490b","system_id":"levelo_inurba_marseille","lat":43.32477,"lon":5.36582,"is_reserved":false,"is_disabled":true,"rental_uris":{"android":"levelo://app?vid=6f5aafc4-06b9-4dba-b612-5d926167490b","ios":"levelo://app?vid=6f5aafc4-06b9-4dba-b612-5d926167490b"},"vehicle_type_id":"4","last_reported":1733833194,"current_range_meters":0,"station_id":"ce4bhs12rcd13ifvqhvg","pricing_plan_id":"cebpf4jnsgd1na2vs0mg"},{"bike_id":"cbc7068b-5c25-41e2-96c9-01451e348e9f","system_id":"levelo_inurba_marseille","lat":43.32543,"lon":5.40052,"is_reserved":false,"is_disabled":false,"rental_uris":{"android":"levelo://app?vid=cbc7068b-5c25-41e2-96c9-01451e348e9f","ios":"levelo://app?vid=cbc7068b-5c25-41e2-96c9-01451e348e9f"},"vehicle_type_id":"4","last_reported":1733833194,"current_range_meters":16000,"station_id":"ce4bhr92rcd13ifvqhrg","pricing_plan_id":"cebpf4jnsgd1na2vs0mg"},{"bike_id":"a219fafe-7330-4217-b6f5-a3960af98422","system_id":"levelo_inurba_marseille","lat":43.29199,"lon":5.3581,"is_reserved":false,"is_disabled":false,"rental_uris":{"android":"levelo://app?vid=a219fafe-7330-4217-b6f5-a3960af98422","ios":"levelo://app?vid=a219fafe-7330-4217-b6f5-a3960af98422"},"vehicle_type_id":"4","last_reported":1733833194,"current_range_meters":38800,"station_id":"ce4bhb12rcd13ifvqel0","pricing_plan_id":"cebpf4jnsgd1na2vs0mg"},{"bike_id":"74ddbdc3-b082-4f44-a075-38dfc2e6b2cd","system_id":"levelo_inurba_marseille","lat":43.24167,"lon":5.36387,"is_reserved":false,"is_disabled":false,"rental_uris":{"android":"levelo://app?vid=74ddbdc3-b082-4f44-a075-38dfc2e6b2cd","ios":"levelo://app?vid=74ddbdc3-b082-4f44-a075-38dfc2e6b2cd"},"vehicle_type_id":"4","last_reported":1733833194,"current_range_meters":22800,"station_id":"cpo36qri1sfpv3e86is0","pricing_plan_id":"cebpf4jnsgd1na2vs0mg"},{"bike_id":"8cdf3b94-daa7-41f1-a546-c8290899fb14","system_id":"levelo_inurba_marseille","lat":43.25584,"lon":5.38241,"is_reserved":false,"is_disabled":false,"rental_uris":{"android":"levelo://app?vid=8cdf3b94-daa7-41f1-a546-c8290899fb14","ios":"levelo://app?vid=8cdf3b94-daa7-41f1-a546-c8290899fb14"},"vehicle_type_id":"4","last_reported":1733833194,"current_range_meters":27600,"station_id":"ce4bhih2rcd13ifvqfs0","pricing_plan_id":"cebpf4jnsgd1na2vs0mg"},{"bike_id":"27e6f065-f705-448c-a93f-955186320b4a","system_id":"levelo_inurba_marseille","lat":43.30354,"lon":5.41878,"is_reserved":false,"is_disabled":true,"rental_uris":{"android":"levelo://app?vid=27e6f065-f705-448c-a93f-955186320b4a","ios":"levelo://app?vid=27e6f065-f705-448c-a93f-955186320b4a"},"vehicle_type_id":"4","last_reported":1733833194,"current_range_meters":38800,"station_id":"ce4bhop2rcd13ifvqh7g","pricing_plan_id":"cebpf4jnsgd1na2vs0mg"},{"bike_id":"9cd79aab-6f4c-4919-b570-803a9e8b35c5","system_id":"levelo_inurba_marseille","lat":43.30467,"lon":5.3672,"is_reserved":false,"is_disabled":true,"rental_uris":{"android":"levelo://app?vid=9cd79aab-6f4c-4919-b570-803a9e8b35c5","ios":"levelo://app?vid=9cd79aab-6f4c-4919-b570-803a9e8b35c5"},"vehicle_type_id":"4","last_reported":1733833194,"current_range_meters":24000,"station_id":"","pricing_plan_id":"cebpf4jnsgd1na2vs0mg"},{"bike_id":"af4b543e-2220-493b-90f2-eed217728c31","system_id":"levelo_inurba_marseille","lat":43.31324,"lon":5.36738,"is_reserved":false,"is_disabled":false,"rental_uris":{"android":"levelo://app?vid=af4b543e-2220-493b-90f2-eed217728c31","ios":"levelo://app?vid=af4b543e-2220-493b-90f2-eed217728c31"},"vehicle_type_id":"4","last_reported":1733833194,"current_range_meters":36400,"station_id":"ce4bgr92rcd13ifvqc6g","pricing_plan_id":"cebpf4jnsgd1na2vs0mg"},{"bike_id":"95381e5f-d6b7-4d89-ada8-652b4e8fa3ed","system_id":"levelo_inurba_marseille","lat":43.250865,"lon":5.395319,"is_reserved":false,"is_disabled":true,"rental_uris":{"android":"levelo://app?vid=95381e5f-d6b7-4d89-ada8-652b4e8fa3ed","ios":"levelo://app?vid=95381e5f-d6b7-4d89-ada8-652b4e8fa3ed"},"vehicle_type_id":"4","last_reported":1733833194,"current_range_meters":14400,"station_id":"ce4bhm12rcd13ifvqgkg","pricing_plan_id":"cebpf4jnsgd1na2vs0mg"},{"bike_id":"ff2e539c-3484-42d7-8e29-5f2af8a9e036","system_id":"levelo_inurba_marseille","lat":43.297355,"lon":5.376843,"is_reserved":false,"is_disabled":false,"rental_uris":{"android":"levelo://app?vid=ff2e539c-3484-42d7-8e29-5f2af8a9e036","ios":"levelo://app?vid=ff2e539c-3484-42d7-8e29-5f2af8a9e036"},"vehicle_type_id":"4","last_reported":1733833194,"current_range_meters":38800,"station_id":"ce4bgkh2rcd13ifvqbl0","pricing_plan_id":"cebpf4jnsgd1na2vs0mg"},{"bike_id":"2efed607-8d64-4c08-b775-d52002165d3b","system_id":"levelo_inurba_marseille","lat":43.27206,"lon":5.39189,"is_reserved":false,"is_disabled":false,"rental_uris":{"android":"levelo://app?vid=2efed607-8d64-4c08-b775-d52002165d3b","ios":"levelo://app?vid=2efed607-8d64-4c08-b775-d52002165d3b"},"vehicle_type_id":"4","last_reported":1733833194,"current_range_meters":38800,"station_id":"ce4bhhp2rcd13ifvqfm0","pricing_plan_id":"cebpf4jnsgd1na2vs0mg"},{"bike_id":"f97ddc52-5758-4192-8ca1-71254ad1a77e","system_id":"levelo_inurba_marseille","lat":43.26196,"lon":5.37452,"is_reserved":false,"is_disabled":false,"rental_uris":{"android":"levelo://app?vid=f97ddc52-5758-4192-8ca1-71254ad1a77e","ios":"levelo://app?vid=f97ddc52-5758-4192-8ca1-71254ad1a77e"},"vehicle_type_id":"4","last_reported":1733833194,"current_range_meters":39200,"station_id":"ce4bhgp2rcd13ifvqfc0","pricing_plan_id":"cebpf4jnsgd1na2vs0mg"},{"bike_id":"11e86528-eb6b-4391-86a5-9b1822d069a4","system_id":"levelo_inurba_marseille","lat":43.278805,"lon":5.388003,"is_reserved":false,"is_disabled":true,"rental_uris":{"android":"levelo://app?vid=11e86528-eb6b-4391-86a5-9b1822d069a4","ios":"levelo://app?vid=11e86528-eb6b-4391-86a5-9b1822d069a4"},"vehicle_type_id":"4","last_reported":1733833194,"current_range_meters":0,"station_id":"","pricing_plan_id":"cebpf4jnsgd1na2vs0mg"},{"bike_id":"6cc6805f-c0ca-4585-bdf1-b5a0339762b0","system_id":"levelo_inurba_marseille","lat":43.29027,"lon":5.42744,"is_reserved":false,"is_disabled":true,"rental_uris":{"android":"levelo://app?vid=6cc6805f-c0ca-4585-bdf1-b5a0339762b0","ios":"levelo://app?vid=6cc6805f-c0ca-4585-bdf1-b5a0339762b0"},"vehicle_type_id":"4","last_reported":1733833194,"current_range_meters":0,"station_id":"","pricing_plan_id":"cebpf4jnsgd1na2vs0mg"},{"bike_id":"047e3612-9eb3-4909-b405-04ae83b6f4b7","system_id":"levelo_inurba_marseille","lat":43.24067,"lon":5.37765,"is_reserved":false,"is_disabled":false,"rental_uris":{"android":"levelo://app?vid=047e3612-9eb3-4909-b405-04ae83b6f4b7","ios":"levelo://app?vid=047e3612-9eb3-4909-b405-04ae83b6f4b7"},"vehicle_type_id":"4","last_reported":1733833194,"current_range_meters":18000,"station_id":"ce4bhnp2rcd13ifvqgvg","pricing_plan_id":"cebpf4jnsgd1na2vs0mg"},{"bike_id":"a478bcff-2af8-4db5-8351-cdbe6b849a6d","system_id":"levelo_inurba_marseille","lat":43.33425,"lon":5.36211,"is_reserved":false,"is_disabled":true,"rental_uris":{"android":"levelo://app?vid=a478bcff-2af8-4db5-8351-cdbe6b849a6d","ios":"levelo://app?vid=a478bcff-2af8-4db5-8351-cdbe6b849a6d"},"vehicle_type_id":"4","last_reported":1733833194,"current_range_meters":0,"station_id":"","pricing_plan_id":"cebpf4jnsgd1na2vs0mg"},{"bike_id":"ba49e68c-6062-4c0f-9a57-98cf34dedcad","system_id":"levelo_inurba_marseille","lat":43.30546,"lon":5.36695,"is_reserved":false,"is_disabled":false,"rental_uris":{"android":"levelo://app?vid=ba49e68c-6062-4c0f-9a57-98cf34dedcad","ios":"levelo://app?vid=ba49e68c-6062-4c0f-9a57-98cf34dedcad"},"vehicle_type_id":"4","last_reported":1733833194,"current_range_meters":10000,"station_id":"ce4bgrp2rcd13ifvqc9g","pricing_plan_id":"cebpf4jnsgd1na2vs0mg"},{"bike_id":"e069ac01-6fd1-4791-b354-d75427625257","system_id":"levelo_inurba_marseille","lat":43.25002,"lon":5.38941,"is_reserved":false,"is_disabled":false,"rental_uris":{"android":"levelo://app?vid=e069ac01-6fd1-4791-b354-d75427625257","ios":"levelo://app?vid=e069ac01-6fd1-4791-b354-d75427625257"},"vehicle_type_id":"4","last_reported":1733833194,"current_range_meters":18000,"station_id":"ce4bhgp2rcd13ifvqfd0","pricing_plan_id":"cebpf4jnsgd1na2vs0mg"},{"bike_id":"9f03dca4-237a-49dc-8f4b-3b6a07909c99","system_id":"levelo_inurba_marseille","lat":43.23194,"lon":5.35555,"is_reserved":false,"is_disabled":false,"rental_uris":{"android":"levelo://app?vid=9f03dca4-237a-49dc-8f4b-3b6a07909c99","ios":"levelo://app?vid=9f03dca4-237a-49dc-8f4b-3b6a07909c99"},"vehicle_type_id":"4","last_reported":1733833194,"current_range_meters":37600,"station_id":"ce4bhu92rcd13ifvqi70","pricing_plan_id":"cebpf4jnsgd1na2vs0mg"},{"bike_id":"1433ba99-efaa-4315-921e-d4e03971585c","system_id":"levelo_inurba_marseille","lat":43.29414,"lon":5.38625,"is_reserved":false,"is_disabled":false,"rental_uris":{"android":"levelo://app?vid=1433ba99-efaa-4315-921e-d4e03971585c","ios":"levelo://app?vid=1433ba99-efaa-4315-921e-d4e03971585c"},"vehicle_type_id":"4","last_reported":1733833194,"current_range_meters":10800,"station_id":"ce4bh2h2rcd13ifvqdh0","pricing_plan_id":"cebpf4jnsgd1na2vs0mg"},{"bike_id":"5419ad88-f623-44a9-ab30-b9e6667f8ffd","system_id":"levelo_inurba_marseille","lat":43.33726,"lon":5.39191,"is_reserved":false,"is_disabled":false,"rental_uris":{"android":"levelo://app?vid=5419ad88-f623-44a9-ab30-b9e6667f8ffd","ios":"levelo://app?vid=5419ad88-f623-44a9-ab30-b9e6667f8ffd"},"vehicle_type_id":"4","last_reported":1733833194,"current_range_meters":18000,"station_id":"ce4bhr92rcd13ifvqhsg","pricing_plan_id":"cebpf4jnsgd1na2vs0mg"},{"bike_id":"52e7b863-5c80-4d7e-94da-49b1d77a8ea5","system_id":"levelo_inurba_marseille","lat":43.29598,"lon":5.37714,"is_reserved":false,"is_disabled":false,"rental_uris":{"android":"levelo://app?vid=52e7b863-5c80-4d7e-94da-49b1d77a8ea5","ios":"levelo://app?vid=52e7b863-5c80-4d7e-94da-49b1d77a8ea5"},"vehicle_type_id":"4","last_reported":1733833194,"current_range_meters":24400,"station_id":"ce4bgi92rcd13ifvqb90","pricing_plan_id":"cebpf4jnsgd1na2vs0mg"},{"bike_id":"714bea3f-3955-4017-be44-d1cf69fd3f38","system_id":"levelo_inurba_marseille","lat":43.34145,"lon":5.40912,"is_reserved":false,"is_disabled":false,"rental_uris":{"android":"levelo://app?vid=714bea3f-3955-4017-be44-d1cf69fd3f38","ios":"levelo://app?vid=714bea3f-3955-4017-be44-d1cf69fd3f38"},"vehicle_type_id":"4","last_reported":1733833194,"current_range_meters":38400,"station_id":"ce4bhqh2rcd13ifvqhlg","pricing_plan_id":"cebpf4jnsgd1na2vs0mg"},{"bike_id":"1f79d3c5-4a16-4992-bfa2-d0413e34b4f6","system_id":"levelo_inurba_marseille","lat":43.26031,"lon":5.37552,"is_reserved":false,"is_disabled":false,"rental_uris":{"android":"levelo://app?vid=1f79d3c5-4a16-4992-bfa2-d0413e34b4f6","ios":"levelo://app?vid=1f79d3c5-4a16-4992-bfa2-d0413e34b4f6"},"vehicle_type_id":"4","last_reported":1733833194,"current_range_meters":39200,"station_id":"ce4bhgh2rcd13ifvqfa0","pricing_plan_id":"cebpf4jnsgd1na2vs0mg"},{"bike_id":"5aca8ae2-7aa8-4a83-981e-2b4fb753102f","system_id":"levelo_inurba_marseille","lat":43.30142,"lon":5.37419,"is_reserved":false,"is_disabled":false,"rental_uris":{"android":"levelo://app?vid=5aca8ae2-7aa8-4a83-981e-2b4fb753102f","ios":"levelo://app?vid=5aca8ae2-7aa8-4a83-981e-2b4fb753102f"},"vehicle_type_id":"4","last_reported":1733833194,"current_range_meters":38800,"station_id":"ce4bgs92rcd13ifvqcc0","pricing_plan_id":"cebpf4jnsgd1na2vs0mg"},{"bike_id":"208695c4-7d65-46d3-b7c0-17a53d5ac53f","system_id":"levelo_inurba_marseille","lat":43.26681,"lon":5.38269,"is_reserved":false,"is_disabled":false,"rental_uris":{"android":"levelo://app?vid=208695c4-7d65-46d3-b7c0-17a53d5ac53f","ios":"levelo://app?vid=208695c4-7d65-46d3-b7c0-17a53d5ac53f"},"vehicle_type_id":"4","last_reported":1733833194,"current_range_meters":16800,"station_id":"ce4bhg92rcd13ifvqf90","pricing_plan_id":"cebpf4jnsgd1na2vs0mg"},{"bike_id":"a7ea9ae5-4db2-4fd6-a405-d887f48ee93a","system_id":"levelo_inurba_marseille","lat":43.31232,"lon":5.36866,"is_reserved":false,"is_disabled":false,"rental_uris":{"android":"levelo://app?vid=a7ea9ae5-4db2-4fd6-a405-d887f48ee93a","ios":"levelo://app?vid=a7ea9ae5-4db2-4fd6-a405-d887f48ee93a"},"vehicle_type_id":"4","last_reported":1733833194,"current_range_meters":20400,"station_id":"ce4bgl92rcd13ifvqbq0","pricing_plan_id":"cebpf4jnsgd1na2vs0mg"},{"bike_id":"8f2d4831-473e-4f03-b498-cec205ebc6fb","system_id":"levelo_inurba_marseille","lat":43.27998,"lon":5.4001,"is_reserved":false,"is_disabled":false,"rental_uris":{"android":"levelo://app?vid=8f2d4831-473e-4f03-b498-cec205ebc6fb","ios":"levelo://app?vid=8f2d4831-473e-4f03-b498-cec205ebc6fb"},"vehicle_type_id":"4","last_reported":1733833194,"current_range_meters":38800,"station_id":"ce4bho92rcd13ifvqh4g","pricing_plan_id":"cebpf4jnsgd1na2vs0mg"},{"bike_id":"35182e8d-da34-4d0c-83dd-2ad2344aa1c5","system_id":"levelo_inurba_marseille","lat":43.29309,"lon":5.37164,"is_reserved":false,"is_disabled":false,"rental_uris":{"android":"levelo://app?vid=35182e8d-da34-4d0c-83dd-2ad2344aa1c5","ios":"levelo://app?vid=35182e8d-da34-4d0c-83dd-2ad2344aa1c5"},"vehicle_type_id":"4","last_reported":1733833194,"current_range_meters":23200,"station_id":"ce4bgh92rcd13ifvqb40","pricing_plan_id":"cebpf4jnsgd1na2vs0mg"},{"bike_id":"747ad0fc-33cc-47a8-8038-f2c315f98bd9","system_id":"levelo_inurba_marseille","lat":43.30561,"lon":5.36529,"is_reserved":false,"is_disabled":false,"rental_uris":{"android":"levelo://app?vid=747ad0fc-33cc-47a8-8038-f2c315f98bd9","ios":"levelo://app?vid=747ad0fc-33cc-47a8-8038-f2c315f98bd9"},"vehicle_type_id":"4","last_reported":1733833194,"current_range_meters":17600,"station_id":"ce4bgs12rcd13ifvqcag","pricing_plan_id":"cebpf4jnsgd1na2vs0mg"},{"bike_id":"e38c6138-603b-445f-93bb-2663315bf85c","system_id":"levelo_inurba_marseille","lat":43.29374,"lon":5.37845,"is_reserved":false,"is_disabled":false,"rental_uris":{"android":"levelo://app?vid=e38c6138-603b-445f-93bb-2663315bf85c","ios":"levelo://app?vid=e38c6138-603b-445f-93bb-2663315bf85c"},"vehicle_type_id":"4","last_reported":1733833194,"current_range_meters":37600,"station_id":"ce4bgjh2rcd13ifvqbf0","pricing_plan_id":"cebpf4jnsgd1na2vs0mg"},{"bike_id":"b0a46ba0-c8bc-4621-808f-2274c3b3257e","system_id":"levelo_inurba_marseille","lat":43.32292,"lon":5.38277,"is_reserved":false,"is_disabled":false,"rental_uris":{"android":"levelo://app?vid=b0a46ba0-c8bc-4621-808f-2274c3b3257e","ios":"levelo://app?vid=b0a46ba0-c8bc-4621-808f-2274c3b3257e"},"vehicle_type_id":"4","last_reported":1733833194,"current_range_meters":26000,"station_id":"ce4bhr12rcd13ifvqhqg","pricing_plan_id":"cebpf4jnsgd1na2vs0mg"},{"bike_id":"72369e3c-7a31-4199-a732-76fa73093ac4","system_id":"levelo_inurba_marseille","lat":43.31358,"lon":5.36713,"is_reserved":false,"is_disabled":true,"rental_uris":{"android":"levelo://app?vid=72369e3c-7a31-4199-a732-76fa73093ac4","ios":"levelo://app?vid=72369e3c-7a31-4199-a732-76fa73093ac4"},"vehicle_type_id":"4","last_reported":1733833194,"current_range_meters":24400,"station_id":"ce4bgr92rcd13ifvqc6g","pricing_plan_id":"cebpf4jnsgd1na2vs0mg"},{"bike_id":"067d4f8e-eded-4040-9b89-eb14aebc4852","system_id":"levelo_inurba_marseille","lat":43.29899,"lon":5.43669,"is_reserved":false,"is_disabled":false,"rental_uris":{"android":"levelo://app?vid=067d4f8e-eded-4040-9b89-eb14aebc4852","ios":"levelo://app?vid=067d4f8e-eded-4040-9b89-eb14aebc4852"},"vehicle_type_id":"4","last_reported":1733833194,"current_range_meters":33600,"station_id":"ce4bhpp2rcd13ifvqhfg","pricing_plan_id":"cebpf4jnsgd1na2vs0mg"},{"bike_id":"9aa29049-c4ce-4b18-9cce-560bb4baad6a","system_id":"levelo_inurba_marseille","lat":43.28703,"lon":5.37392,"is_reserved":false,"is_disabled":false,"rental_uris":{"android":"levelo://app?vid=9aa29049-c4ce-4b18-9cce-560bb4baad6a","ios":"levelo://app?vid=9aa29049-c4ce-4b18-9cce-560bb4baad6a"},"vehicle_type_id":"4","last_reported":1733833194,"current_range_meters":16800,"station_id":"ce4bh3p2rcd13ifvqdq0","pricing_plan_id":"cebpf4jnsgd1na2vs0mg"},{"bike_id":"da1aefdb-caf1-4155-81fa-858ff49c920b","system_id":"levelo_inurba_marseille","lat":43.26212,"lon":5.37441,"is_reserved":false,"is_disabled":false,"rental_uris":{"android":"levelo://app?vid=da1aefdb-caf1-4155-81fa-858ff49c920b","ios":"levelo://app?vid=da1aefdb-caf1-4155-81fa-858ff49c920b"},"vehicle_type_id":"4","last_reported":1733833194,"current_range_meters":39200,"station_id":"ce4bhgp2rcd13ifvqfc0","pricing_plan_id":"cebpf4jnsgd1na2vs0mg"},{"bike_id":"a28ce13e-52a6-491b-82bb-b9a6373aad68","system_id":"levelo_inurba_marseille","lat":43.26679,"lon":5.38266,"is_reserved":false,"is_disabled":false,"rental_uris":{"android":"levelo://app?vid=a28ce13e-52a6-491b-82bb-b9a6373aad68","ios":"levelo://app?vid=a28ce13e-52a6-491b-82bb-b9a6373aad68"},"vehicle_type_id":"4","last_reported":1733833194,"current_range_meters":38000,"station_id":"ce4bhg92rcd13ifvqf90","pricing_plan_id":"cebpf4jnsgd1na2vs0mg"},{"bike_id":"896d4ccf-3d83-4122-b2f2-1a77a517b0e7","system_id":"levelo_inurba_marseille","lat":43.23967,"lon":5.36637,"is_reserved":false,"is_disabled":false,"rental_uris":{"android":"levelo://app?vid=896d4ccf-3d83-4122-b2f2-1a77a517b0e7","ios":"levelo://app?vid=896d4ccf-3d83-4122-b2f2-1a77a517b0e7"},"vehicle_type_id":"4","last_reported":1733833194,"current_range_meters":39200,"station_id":"ce4bhi12rcd13ifvqfp0","pricing_plan_id":"cebpf4jnsgd1na2vs0mg"},{"bike_id":"6d4b6987-5dec-4ca6-a3de-b1c6de96f3cc","system_id":"levelo_inurba_marseille","lat":43.29378,"lon":5.37854,"is_reserved":false,"is_disabled":false,"rental_uris":{"android":"levelo://app?vid=6d4b6987-5dec-4ca6-a3de-b1c6de96f3cc","ios":"levelo://app?vid=6d4b6987-5dec-4ca6-a3de-b1c6de96f3cc"},"vehicle_type_id":"4","last_reported":1733833194,"current_range_meters":30800,"station_id":"ce4bgjh2rcd13ifvqbf0","pricing_plan_id":"cebpf4jnsgd1na2vs0mg"},{"bike_id":"2732ad1c-1402-439a-9e5f-326fb896ed3c","system_id":"levelo_inurba_marseille","lat":43.29894,"lon":5.43672,"is_reserved":false,"is_disabled":false,"rental_uris":{"android":"levelo://app?vid=2732ad1c-1402-439a-9e5f-326fb896ed3c","ios":"levelo://app?vid=2732ad1c-1402-439a-9e5f-326fb896ed3c"},"vehicle_type_id":"4","last_reported":1733833194,"current_range_meters":6800,"station_id":"ce4bhpp2rcd13ifvqhfg","pricing_plan_id":"cebpf4jnsgd1na2vs0mg"},{"bike_id":"667d051e-e6c5-4876-8ffe-911a7574be59","system_id":"levelo_inurba_marseille","lat":43.30788,"lon":5.3701,"is_reserved":false,"is_disabled":false,"rental_uris":{"android":"levelo://app?vid=667d051e-e6c5-4876-8ffe-911a7574be59","ios":"levelo://app?vid=667d051e-e6c5-4876-8ffe-911a7574be59"},"vehicle_type_id":"4","last_reported":1733833194,"current_range_meters":9200,"station_id":"","pricing_plan_id":"cebpf4jnsgd1na2vs0mg"},{"bike_id":"95112cff-21a3-4e12-8049-6d9219ba896f","system_id":"levelo_inurba_marseille","lat":43.25939,"lon":5.40906,"is_reserved":false,"is_disabled":false,"rental_uris":{"android":"levelo://app?vid=95112cff-21a3-4e12-8049-6d9219ba896f","ios":"levelo://app?vid=95112cff-21a3-4e12-8049-6d9219ba896f"},"vehicle_type_id":"4","last_reported":1733833194,"current_range_meters":33600,"station_id":"ce4bhm92rcd13ifvqglg","pricing_plan_id":"cebpf4jnsgd1na2vs0mg"},{"bike_id":"0bc1a7fb-7f9c-4e77-8b6e-dded50a369c5","system_id":"levelo_inurba_marseille","lat":43.24387,"lon":5.37051,"is_reserved":false,"is_disabled":false,"rental_uris":{"android":"levelo://app?vid=0bc1a7fb-7f9c-4e77-8b6e-dded50a369c5","ios":"levelo://app?vid=0bc1a7fb-7f9c-4e77-8b6e-dded50a369c5"},"vehicle_type_id":"4","last_reported":1733833194,"current_range_meters":38800,"station_id":"ce4bhhh2rcd13ifvqfk0","pricing_plan_id":"cebpf4jnsgd1na2vs0mg"},{"bike_id":"71ede6cb-3773-4924-948e-77ec53727c8f","system_id":"levelo_inurba_marseille","lat":43.31758,"lon":5.3755,"is_reserved":false,"is_disabled":false,"rental_uris":{"android":"levelo://app?vid=71ede6cb-3773-4924-948e-77ec53727c8f","ios":"levelo://app?vid=71ede6cb-3773-4924-948e-77ec53727c8f"},"vehicle_type_id":"4","last_reported":1733833194,"current_range_meters":38000,"station_id":"","pricing_plan_id":"cebpf4jnsgd1na2vs0mg"},{"bike_id":"75d14105-b447-41e3-91a7-9d5a60992f32","system_id":"levelo_inurba_marseille","lat":43.27208,"lon":5.39189,"is_reserved":false,"is_disabled":false,"rental_uris":{"android":"levelo://app?vid=75d14105-b447-41e3-91a7-9d5a60992f32","ios":"levelo://app?vid=75d14105-b447-41e3-91a7-9d5a60992f32"},"vehicle_type_id":"4","last_reported":1733833194,"current_range_meters":38800,"station_id":"ce4bhhp2rcd13ifvqfm0","pricing_plan_id":"cebpf4jnsgd1na2vs0mg"},{"bike_id":"b3fb7a2f-1987-496a-9aa4-6c5ae3bc5ecc","system_id":"levelo_inurba_marseille","lat":43.2952,"lon":5.394,"is_reserved":false,"is_disabled":true,"rental_uris":{"android":"levelo://app?vid=b3fb7a2f-1987-496a-9aa4-6c5ae3bc5ecc","ios":"levelo://app?vid=b3fb7a2f-1987-496a-9aa4-6c5ae3bc5ecc"},"vehicle_type_id":"4","last_reported":1733833194,"current_range_meters":1200,"station_id":"ce4bh292rcd13ifvqdf0","pricing_plan_id":"cebpf4jnsgd1na2vs0mg"},{"bike_id":"312c514f-922b-4724-9c0c-9b5d4cd94c68","system_id":"levelo_inurba_marseille","lat":43.29974,"lon":5.38486,"is_reserved":false,"is_disabled":false,"rental_uris":{"android":"levelo://app?vid=312c514f-922b-4724-9c0c-9b5d4cd94c68","ios":"levelo://app?vid=312c514f-922b-4724-9c0c-9b5d4cd94c68"},"vehicle_type_id":"4","last_reported":1733833194,"current_range_meters":36800,"station_id":"ce4bgj92rcd13ifvqbd0","pricing_plan_id":"cebpf4jnsgd1na2vs0mg"},{"bike_id":"1a3c0bbd-7736-49b6-a0d0-cf32e3bf1fbe","system_id":"levelo_inurba_marseille","lat":43.27374,"lon":5.36259,"is_reserved":false,"is_disabled":false,"rental_uris":{"android":"levelo://app?vid=1a3c0bbd-7736-49b6-a0d0-cf32e3bf1fbe","ios":"levelo://app?vid=1a3c0bbd-7736-49b6-a0d0-cf32e3bf1fbe"},"vehicle_type_id":"4","last_reported":1733833194,"current_range_meters":38800,"station_id":"ce4bhbh2rcd13ifvqeo0","pricing_plan_id":"cebpf4jnsgd1na2vs0mg"},{"bike_id":"845a1e5f-8df3-4e13-a702-8b68ebdb22c7","system_id":"levelo_inurba_marseille","lat":43.31345,"lon":5.36728,"is_reserved":false,"is_disabled":false,"rental_uris":{"android":"levelo://app?vid=845a1e5f-8df3-4e13-a702-8b68ebdb22c7","ios":"levelo://app?vid=845a1e5f-8df3-4e13-a702-8b68ebdb22c7"},"vehicle_type_id":"4","last_reported":1733833194,"current_range_meters":33600,"station_id":"ce4bgr92rcd13ifvqc6g","pricing_plan_id":"cebpf4jnsgd1na2vs0mg"},{"bike_id":"1903a284-2b8a-4199-8757-bf6a6b072613","system_id":"levelo_inurba_marseille","lat":43.26192,"lon":5.37453,"is_reserved":false,"is_disabled":false,"rental_uris":{"android":"levelo://app?vid=1903a284-2b8a-4199-8757-bf6a6b072613","ios":"levelo://app?vid=1903a284-2b8a-4199-8757-bf6a6b072613"},"vehicle_type_id":"4","last_reported":1733833194,"current_range_meters":16800,"station_id":"ce4bhgp2rcd13ifvqfc0","pricing_plan_id":"cebpf4jnsgd1na2vs0mg"},{"bike_id":"8b90ed47-6e40-43a2-9844-c6f3229da296","system_id":"levelo_inurba_marseille","lat":43.26197,"lon":5.37932,"is_reserved":false,"is_disabled":false,"rental_uris":{"android":"levelo://app?vid=8b90ed47-6e40-43a2-9844-c6f3229da296","ios":"levelo://app?vid=8b90ed47-6e40-43a2-9844-c6f3229da296"},"vehicle_type_id":"4","last_reported":1733833194,"current_range_meters":38800,"station_id":"ce4bhjp2rcd13ifvqg90","pricing_plan_id":"cebpf4jnsgd1na2vs0mg"},{"bike_id":"f1e1b83c-6b4c-4d52-9b3f-becfd8274a79","system_id":"levelo_inurba_marseille","lat":43.24998,"lon":5.38938,"is_reserved":false,"is_disabled":false,"rental_uris":{"android":"levelo://app?vid=f1e1b83c-6b4c-4d52-9b3f-becfd8274a79","ios":"levelo://app?vid=f1e1b83c-6b4c-4d52-9b3f-becfd8274a79"},"vehicle_type_id":"4","last_reported":1733833194,"current_range_meters":38800,"station_id":"ce4bhgp2rcd13ifvqfd0","pricing_plan_id":"cebpf4jnsgd1na2vs0mg"},{"bike_id":"be2932e9-b9ec-4de9-b906-f26df2926dfe","system_id":"levelo_inurba_marseille","lat":43.29001,"lon":5.35613,"is_reserved":false,"is_disabled":false,"rental_uris":{"android":"levelo://app?vid=be2932e9-b9ec-4de9-b906-f26df2926dfe","ios":"levelo://app?vid=be2932e9-b9ec-4de9-b906-f26df2926dfe"},"vehicle_type_id":"4","last_reported":1733833194,"current_range_meters":18800,"station_id":"ce4bhb92rcd13ifvqen0","pricing_plan_id":"cebpf4jnsgd1na2vs0mg"},{"bike_id":"79eec760-3148-415c-9486-9ff642f00208","system_id":"levelo_inurba_marseille","lat":43.34664,"lon":5.34561,"is_reserved":false,"is_disabled":true,"rental_uris":{"android":"levelo://app?vid=79eec760-3148-415c-9486-9ff642f00208","ios":"levelo://app?vid=79eec760-3148-415c-9486-9ff642f00208"},"vehicle_type_id":"4","last_reported":1733833194,"current_range_meters":0,"station_id":"","pricing_plan_id":"cebpf4jnsgd1na2vs0mg"},{"bike_id":"1557c875-5266-4855-9c3c-573b1ec229ea","system_id":"levelo_inurba_marseille","lat":43.28854,"lon":5.39322,"is_reserved":false,"is_disabled":false,"rental_uris":{"android":"levelo://app?vid=1557c875-5266-4855-9c3c-573b1ec229ea","ios":"levelo://app?vid=1557c875-5266-4855-9c3c-573b1ec229ea"},"vehicle_type_id":"4","last_reported":1733833194,"current_range_meters":9600,"station_id":"ce4bh2p2rcd13ifvqdi0","pricing_plan_id":"cebpf4jnsgd1na2vs0mg"},{"bike_id":"097d539c-2fb0-4695-9c7a-c109fd16c513","system_id":"levelo_inurba_marseille","lat":43.27063,"lon":5.42272,"is_reserved":false,"is_disabled":false,"rental_uris":{"android":"levelo://app?vid=097d539c-2fb0-4695-9c7a-c109fd16c513","ios":"levelo://app?vid=097d539c-2fb0-4695-9c7a-c109fd16c513"},"vehicle_type_id":"4","last_reported":1733833194,"current_range_meters":38800,"station_id":"ce4bhk92rcd13ifvqgb0","pricing_plan_id":"cebpf4jnsgd1na2vs0mg"},{"bike_id":"e5b872b2-8690-4957-a309-130481a97cb3","system_id":"levelo_inurba_marseille","lat":43.25119,"lon":5.40321,"is_reserved":false,"is_disabled":false,"rental_uris":{"android":"levelo://app?vid=e5b872b2-8690-4957-a309-130481a97cb3","ios":"levelo://app?vid=e5b872b2-8690-4957-a309-130481a97cb3"},"vehicle_type_id":"4","last_reported":1733833194,"current_range_meters":38000,"station_id":"ce4bhlh2rcd13ifvqgig","pricing_plan_id":"cebpf4jnsgd1na2vs0mg"},{"bike_id":"b135bff0-8e87-4e47-af7a-2fa72d222280","system_id":"levelo_inurba_marseille","lat":43.25725,"lon":5.41112,"is_reserved":false,"is_disabled":true,"rental_uris":{"android":"levelo://app?vid=b135bff0-8e87-4e47-af7a-2fa72d222280","ios":"levelo://app?vid=b135bff0-8e87-4e47-af7a-2fa72d222280"},"vehicle_type_id":"4","last_reported":1733833194,"current_range_meters":34000,"station_id":"ce4bhkp2rcd13ifvqgd0","pricing_plan_id":"cebpf4jnsgd1na2vs0mg"},{"bike_id":"b35c88b2-bafb-43d9-8fb7-621ae341e277","system_id":"levelo_inurba_marseille","lat":43.29106,"lon":5.38916,"is_reserved":false,"is_disabled":false,"rental_uris":{"android":"levelo://app?vid=b35c88b2-bafb-43d9-8fb7-621ae341e277","ios":"levelo://app?vid=b35c88b2-bafb-43d9-8fb7-621ae341e277"},"vehicle_type_id":"4","last_reported":1733833194,"current_range_meters":3200,"station_id":"ce4bh192rcd13ifvqdd0","pricing_plan_id":"cebpf4jnsgd1na2vs0mg"},{"bike_id":"09e8f3a7-5e09-4c1d-acc9-e200de530ef1","system_id":"levelo_inurba_marseille","lat":43.23154,"lon":5.43716,"is_reserved":false,"is_disabled":false,"rental_uris":{"android":"levelo://app?vid=09e8f3a7-5e09-4c1d-acc9-e200de530ef1","ios":"levelo://app?vid=09e8f3a7-5e09-4c1d-acc9-e200de530ef1"},"vehicle_type_id":"4","last_reported":1733833194,"current_range_meters":39200,"station_id":"ce4bhmp2rcd13ifvqgog","pricing_plan_id":"cebpf4jnsgd1na2vs0mg"},{"bike_id":"0c53f6b6-79db-44f6-861b-7b67e669176c","system_id":"levelo_inurba_marseille","lat":43.28842,"lon":5.35839,"is_reserved":false,"is_disabled":true,"rental_uris":{"android":"levelo://app?vid=0c53f6b6-79db-44f6-861b-7b67e669176c","ios":"levelo://app?vid=0c53f6b6-79db-44f6-861b-7b67e669176c"},"vehicle_type_id":"4","last_reported":1733833194,"current_range_meters":28000,"station_id":"ce4bhb12rcd13ifvqem0","pricing_plan_id":"cebpf4jnsgd1na2vs0mg"},{"bike_id":"584c80ce-c5a2-411c-9dfa-e29ad71a5677","system_id":"levelo_inurba_marseille","lat":43.2408,"lon":5.37752,"is_reserved":false,"is_disabled":false,"rental_uris":{"android":"levelo://app?vid=584c80ce-c5a2-411c-9dfa-e29ad71a5677","ios":"levelo://app?vid=584c80ce-c5a2-411c-9dfa-e29ad71a5677"},"vehicle_type_id":"4","last_reported":1733833194,"current_range_meters":38800,"station_id":"ce4bhnp2rcd13ifvqgvg","pricing_plan_id":"cebpf4jnsgd1na2vs0mg"},{"bike_id":"ff7a9473-4fa7-4f01-8dba-e94efe0d3a3a","system_id":"levelo_inurba_marseille","lat":43.26202,"lon":5.37937,"is_reserved":false,"is_disabled":false,"rental_uris":{"android":"levelo://app?vid=ff7a9473-4fa7-4f01-8dba-e94efe0d3a3a","ios":"levelo://app?vid=ff7a9473-4fa7-4f01-8dba-e94efe0d3a3a"},"vehicle_type_id":"4","last_reported":1733833194,"current_range_meters":28000,"station_id":"ce4bhjp2rcd13ifvqg90","pricing_plan_id":"cebpf4jnsgd1na2vs0mg"},{"bike_id":"50f52497-54ca-47ea-a19e-1fc86f8c6045","system_id":"levelo_inurba_marseille","lat":43.28228,"lon":5.42408,"is_reserved":false,"is_disabled":true,"rental_uris":{"android":"levelo://app?vid=50f52497-54ca-47ea-a19e-1fc86f8c6045","ios":"levelo://app?vid=50f52497-54ca-47ea-a19e-1fc86f8c6045"},"vehicle_type_id":"4","last_reported":1733833194,"current_range_meters":3200,"station_id":"","pricing_plan_id":"cebpf4jnsgd1na2vs0mg"},{"bike_id":"1b2d4db1-cec0-4376-9abf-f3b964e5dcb7","system_id":"levelo_inurba_marseille","lat":43.23195,"lon":5.35551,"is_reserved":false,"is_disabled":false,"rental_uris":{"android":"levelo://app?vid=1b2d4db1-cec0-4376-9abf-f3b964e5dcb7","ios":"levelo://app?vid=1b2d4db1-cec0-4376-9abf-f3b964e5dcb7"},"vehicle_type_id":"4","last_reported":1733833194,"current_range_meters":37600,"station_id":"ce4bhu92rcd13ifvqi70","pricing_plan_id":"cebpf4jnsgd1na2vs0mg"},{"bike_id":"50baa9bd-9ed6-4761-8eda-5a46445fe570","system_id":"levelo_inurba_marseille","lat":43.24546,"lon":5.39532,"is_reserved":false,"is_disabled":false,"rental_uris":{"android":"levelo://app?vid=50baa9bd-9ed6-4761-8eda-5a46445fe570","ios":"levelo://app?vid=50baa9bd-9ed6-4761-8eda-5a46445fe570"},"vehicle_type_id":"4","last_reported":1733833194,"current_range_meters":38800,"station_id":"ce4bhlp2rcd13ifvqgjg","pricing_plan_id":"cebpf4jnsgd1na2vs0mg"},{"bike_id":"50b96d84-714a-4478-b262-7b0e6d9632bb","system_id":"levelo_inurba_marseille","lat":43.28416,"lon":5.34983,"is_reserved":false,"is_disabled":false,"rental_uris":{"android":"levelo://app?vid=50b96d84-714a-4478-b262-7b0e6d9632bb","ios":"levelo://app?vid=50b96d84-714a-4478-b262-7b0e6d9632bb"},"vehicle_type_id":"4","last_reported":1733833194,"current_range_meters":7200,"station_id":"ce4bhbh2rcd13ifvqepg","pricing_plan_id":"cebpf4jnsgd1na2vs0mg"},{"bike_id":"3e25e802-f2c5-435d-81b9-897455606c6f","system_id":"levelo_inurba_marseille","lat":43.27174,"lon":5.40995,"is_reserved":false,"is_disabled":false,"rental_uris":{"android":"levelo://app?vid=3e25e802-f2c5-435d-81b9-897455606c6f","ios":"levelo://app?vid=3e25e802-f2c5-435d-81b9-897455606c6f"},"vehicle_type_id":"4","last_reported":1733833194,"current_range_meters":16800,"station_id":"ce4bhl12rcd13ifvqgf0","pricing_plan_id":"cebpf4jnsgd1na2vs0mg"},{"bike_id":"e867e4df-bdaf-4905-9f4f-695c75d7fdb0","system_id":"levelo_inurba_marseille","lat":43.26211,"lon":5.37443,"is_reserved":false,"is_disabled":false,"rental_uris":{"android":"levelo://app?vid=e867e4df-bdaf-4905-9f4f-695c75d7fdb0","ios":"levelo://app?vid=e867e4df-bdaf-4905-9f4f-695c75d7fdb0"},"vehicle_type_id":"4","last_reported":1733833194,"current_range_meters":31200,"station_id":"ce4bhgp2rcd13ifvqfc0","pricing_plan_id":"cebpf4jnsgd1na2vs0mg"},{"bike_id":"c0770542-5d36-49a9-a1f0-d2e098a6222a","system_id":"levelo_inurba_marseille","lat":43.2884,"lon":5.35849,"is_reserved":false,"is_disabled":false,"rental_uris":{"android":"levelo://app?vid=c0770542-5d36-49a9-a1f0-d2e098a6222a","ios":"levelo://app?vid=c0770542-5d36-49a9-a1f0-d2e098a6222a"},"vehicle_type_id":"4","last_reported":1733833194,"current_range_meters":27200,"station_id":"ce4bhb12rcd13ifvqem0","pricing_plan_id":"cebpf4jnsgd1na2vs0mg"},{"bike_id":"76a93929-4667-4f21-85b2-d2021e09cc4f","system_id":"levelo_inurba_marseille","lat":43.28617,"lon":5.35098,"is_reserved":false,"is_disabled":false,"rental_uris":{"android":"levelo://app?vid=76a93929-4667-4f21-85b2-d2021e09cc4f","ios":"levelo://app?vid=76a93929-4667-4f21-85b2-d2021e09cc4f"},"vehicle_type_id":"4","last_reported":1733833194,"current_range_meters":24800,"station_id":"ce4bhch2rcd13ifvqeug","pricing_plan_id":"cebpf4jnsgd1na2vs0mg"},{"bike_id":"5d9d33ed-3cf9-4f40-bcf4-4fd075009d99","system_id":"levelo_inurba_marseille","lat":43.26934,"lon":5.40264,"is_reserved":false,"is_disabled":false,"rental_uris":{"android":"levelo://app?vid=5d9d33ed-3cf9-4f40-bcf4-4fd075009d99","ios":"levelo://app?vid=5d9d33ed-3cf9-4f40-bcf4-4fd075009d99"},"vehicle_type_id":"4","last_reported":1733833194,"current_range_meters":38800,"station_id":"cjm6bp8fraef2m0cb0m0","pricing_plan_id":"cebpf4jnsgd1na2vs0mg"},{"bike_id":"e2e5fff8-dab3-4021-a87d-3c7c833d47d1","system_id":"levelo_inurba_marseille","lat":43.2621,"lon":5.37439,"is_reserved":false,"is_disabled":true,"rental_uris":{"android":"levelo://app?vid=e2e5fff8-dab3-4021-a87d-3c7c833d47d1","ios":"levelo://app?vid=e2e5fff8-dab3-4021-a87d-3c7c833d47d1"},"vehicle_type_id":"4","last_reported":1733833194,"current_range_meters":9200,"station_id":"ce4bhgp2rcd13ifvqfc0","pricing_plan_id":"cebpf4jnsgd1na2vs0mg"},{"bike_id":"38af7c52-a2d7-4a86-b713-356ac06a533a","system_id":"levelo_inurba_marseille","lat":43.27056,"lon":5.40265,"is_reserved":false,"is_disabled":false,"rental_uris":{"android":"levelo://app?vid=38af7c52-a2d7-4a86-b713-356ac06a533a","ios":"levelo://app?vid=38af7c52-a2d7-4a86-b713-356ac06a533a"},"vehicle_type_id":"4","last_reported":1733833194,"current_range_meters":20800,"station_id":"ce4bhk92rcd13ifvqgc0","pricing_plan_id":"cebpf4jnsgd1na2vs0mg"},{"bike_id":"2cee94d4-c6c4-4b4a-ab5f-0ba8c0b9ea97","system_id":"levelo_inurba_marseille","lat":43.28848,"lon":5.39307,"is_reserved":false,"is_disabled":false,"rental_uris":{"android":"levelo://app?vid=2cee94d4-c6c4-4b4a-ab5f-0ba8c0b9ea97","ios":"levelo://app?vid=2cee94d4-c6c4-4b4a-ab5f-0ba8c0b9ea97"},"vehicle_type_id":"4","last_reported":1733833194,"current_range_meters":12400,"station_id":"ce4bh2p2rcd13ifvqdi0","pricing_plan_id":"cebpf4jnsgd1na2vs0mg"},{"bike_id":"2cdc68bc-783f-42f1-8a2a-30a830fd99d3","system_id":"levelo_inurba_marseille","lat":43.30149,"lon":5.37406,"is_reserved":false,"is_disabled":false,"rental_uris":{"android":"levelo://app?vid=2cdc68bc-783f-42f1-8a2a-30a830fd99d3","ios":"levelo://app?vid=2cdc68bc-783f-42f1-8a2a-30a830fd99d3"},"vehicle_type_id":"4","last_reported":1733833194,"current_range_meters":38800,"station_id":"ce4bgs92rcd13ifvqcc0","pricing_plan_id":"cebpf4jnsgd1na2vs0mg"},{"bike_id":"4dbc0102-fa7f-4abb-a08e-385424c87296","system_id":"levelo_inurba_marseille","lat":43.33728,"lon":5.39187,"is_reserved":false,"is_disabled":false,"rental_uris":{"android":"levelo://app?vid=4dbc0102-fa7f-4abb-a08e-385424c87296","ios":"levelo://app?vid=4dbc0102-fa7f-4abb-a08e-385424c87296"},"vehicle_type_id":"4","last_reported":1733833194,"current_range_meters":24800,"station_id":"ce4bhr92rcd13ifvqhsg","pricing_plan_id":"cebpf4jnsgd1na2vs0mg"},{"bike_id":"b55722c1-fe2d-436f-b254-16b91c1520a9","system_id":"levelo_inurba_marseille","lat":43.29094,"lon":5.38142,"is_reserved":false,"is_disabled":false,"rental_uris":{"android":"levelo://app?vid=b55722c1-fe2d-436f-b254-16b91c1520a9","ios":"levelo://app?vid=b55722c1-fe2d-436f-b254-16b91c1520a9"},"vehicle_type_id":"4","last_reported":1733833194,"current_range_meters":24000,"station_id":"ce4bh512rcd13ifvqe2g","pricing_plan_id":"cebpf4jnsgd1na2vs0mg"},{"bike_id":"18899e0f-6f51-4b8f-b5a9-e296af4f9403","system_id":"levelo_inurba_marseille","lat":43.34141,"lon":5.40899,"is_reserved":false,"is_disabled":false,"rental_uris":{"android":"levelo://app?vid=18899e0f-6f51-4b8f-b5a9-e296af4f9403","ios":"levelo://app?vid=18899e0f-6f51-4b8f-b5a9-e296af4f9403"},"vehicle_type_id":"4","last_reported":1733833194,"current_range_meters":20400,"station_id":"ce4bhqh2rcd13ifvqhlg","pricing_plan_id":"cebpf4jnsgd1na2vs0mg"},{"bike_id":"d43e5ea8-13b0-4ee3-b5ea-caee40935a00","system_id":"levelo_inurba_marseille","lat":43.2717,"lon":5.40998,"is_reserved":false,"is_disabled":true,"rental_uris":{"android":"levelo://app?vid=d43e5ea8-13b0-4ee3-b5ea-caee40935a00","ios":"levelo://app?vid=d43e5ea8-13b0-4ee3-b5ea-caee40935a00"},"vehicle_type_id":"4","last_reported":1733833194,"current_range_meters":2000,"station_id":"ce4bhl12rcd13ifvqgf0","pricing_plan_id":"cebpf4jnsgd1na2vs0mg"},{"bike_id":"4025a655-a623-4ee8-9022-b1ecfbc41158","system_id":"levelo_inurba_marseille","lat":43.29031,"lon":5.37569,"is_reserved":false,"is_disabled":false,"rental_uris":{"android":"levelo://app?vid=4025a655-a623-4ee8-9022-b1ecfbc41158","ios":"levelo://app?vid=4025a655-a623-4ee8-9022-b1ecfbc41158"},"vehicle_type_id":"4","last_reported":1733833194,"current_range_meters":16000,"station_id":"ce4bh692rcd13ifvqe90","pricing_plan_id":"cebpf4jnsgd1na2vs0mg"},{"bike_id":"4b635adf-c7bf-4b6a-86e8-b0474b95c4d9","system_id":"levelo_inurba_marseille","lat":43.27914,"lon":5.39578,"is_reserved":false,"is_disabled":false,"rental_uris":{"android":"levelo://app?vid=4b635adf-c7bf-4b6a-86e8-b0474b95c4d9","ios":"levelo://app?vid=4b635adf-c7bf-4b6a-86e8-b0474b95c4d9"},"vehicle_type_id":"4","last_reported":1733833194,"current_range_meters":32400,"station_id":"ce4bhf92rcd13ifvqf40","pricing_plan_id":"cebpf4jnsgd1na2vs0mg"},{"bike_id":"27edc2d0-2e54-4778-b8c3-c01c0e7bb6d3","system_id":"levelo_inurba_marseille","lat":43.30138,"lon":5.38785,"is_reserved":false,"is_disabled":false,"rental_uris":{"android":"levelo://app?vid=27edc2d0-2e54-4778-b8c3-c01c0e7bb6d3","ios":"levelo://app?vid=27edc2d0-2e54-4778-b8c3-c01c0e7bb6d3"},"vehicle_type_id":"4","last_reported":1733833194,"current_range_meters":22400,"station_id":"ce4bghh2rcd13ifvqb60","pricing_plan_id":"cebpf4jnsgd1na2vs0mg"},{"bike_id":"eb4e32cd-a02d-4e92-a013-1fdc0dd71ccb","system_id":"levelo_inurba_marseille","lat":43.324799,"lon":5.365716,"is_reserved":false,"is_disabled":true,"rental_uris":{"android":"levelo://app?vid=eb4e32cd-a02d-4e92-a013-1fdc0dd71ccb","ios":"levelo://app?vid=eb4e32cd-a02d-4e92-a013-1fdc0dd71ccb"},"vehicle_type_id":"4","last_reported":1733833194,"current_range_meters":0,"station_id":"","pricing_plan_id":"cebpf4jnsgd1na2vs0mg"},{"bike_id":"ad24f16e-2206-4a3c-9b57-73b59ffe17ba","system_id":"levelo_inurba_marseille","lat":43.24164,"lon":5.36383,"is_reserved":false,"is_disabled":false,"rental_uris":{"android":"levelo://app?vid=ad24f16e-2206-4a3c-9b57-73b59ffe17ba","ios":"levelo://app?vid=ad24f16e-2206-4a3c-9b57-73b59ffe17ba"},"vehicle_type_id":"4","last_reported":1733833194,"current_range_meters":35600,"station_id":"cpo36qri1sfpv3e86is0","pricing_plan_id":"cebpf4jnsgd1na2vs0mg"},{"bike_id":"587d3624-0230-4792-967d-f8a4c012d5bf","system_id":"levelo_inurba_marseille","lat":43.29292,"lon":5.37458,"is_reserved":false,"is_disabled":false,"rental_uris":{"android":"levelo://app?vid=587d3624-0230-4792-967d-f8a4c012d5bf","ios":"levelo://app?vid=587d3624-0230-4792-967d-f8a4c012d5bf"},"vehicle_type_id":"4","last_reported":1733833194,"current_range_meters":14000,"station_id":"","pricing_plan_id":"cebpf4jnsgd1na2vs0mg"},{"bike_id":"2e9bb92c-ad97-4a19-898b-037006ff3892","system_id":"levelo_inurba_marseille","lat":43.25002,"lon":5.38935,"is_reserved":false,"is_disabled":false,"rental_uris":{"android":"levelo://app?vid=2e9bb92c-ad97-4a19-898b-037006ff3892","ios":"levelo://app?vid=2e9bb92c-ad97-4a19-898b-037006ff3892"},"vehicle_type_id":"4","last_reported":1733833194,"current_range_meters":38400,"station_id":"ce4bhgp2rcd13ifvqfd0","pricing_plan_id":"cebpf4jnsgd1na2vs0mg"},{"bike_id":"fdccdfdc-9e02-42d3-bb31-3127ff0c6309","system_id":"levelo_inurba_marseille","lat":43.2594,"lon":5.40904,"is_reserved":false,"is_disabled":true,"rental_uris":{"android":"levelo://app?vid=fdccdfdc-9e02-42d3-bb31-3127ff0c6309","ios":"levelo://app?vid=fdccdfdc-9e02-42d3-bb31-3127ff0c6309"},"vehicle_type_id":"4","last_reported":1733833194,"current_range_meters":31200,"station_id":"ce4bhm92rcd13ifvqglg","pricing_plan_id":"cebpf4jnsgd1na2vs0mg"},{"bike_id":"26924fb9-4179-4abe-8b03-e0d47c141d92","system_id":"levelo_inurba_marseille","lat":43.2718,"lon":5.40991,"is_reserved":false,"is_disabled":false,"rental_uris":{"android":"levelo://app?vid=26924fb9-4179-4abe-8b03-e0d47c141d92","ios":"levelo://app?vid=26924fb9-4179-4abe-8b03-e0d47c141d92"},"vehicle_type_id":"4","last_reported":1733833194,"current_range_meters":27200,"station_id":"ce4bhl12rcd13ifvqgf0","pricing_plan_id":"cebpf4jnsgd1na2vs0mg"},{"bike_id":"0b7f2c07-73bd-4229-9bb0-e1d393ad46f2","system_id":"levelo_inurba_marseille","lat":43.24082,"lon":5.37752,"is_reserved":false,"is_disabled":false,"rental_uris":{"android":"levelo://app?vid=0b7f2c07-73bd-4229-9bb0-e1d393ad46f2","ios":"levelo://app?vid=0b7f2c07-73bd-4229-9bb0-e1d393ad46f2"},"vehicle_type_id":"4","last_reported":1733833194,"current_range_meters":24400,"station_id":"ce4bhnp2rcd13ifvqgvg","pricing_plan_id":"cebpf4jnsgd1na2vs0mg"},{"bike_id":"d91b9945-5a7e-467b-bc4a-0571899c9b13","system_id":"levelo_inurba_marseille","lat":43.31172,"lon":5.38721,"is_reserved":false,"is_disabled":false,"rental_uris":{"android":"levelo://app?vid=d91b9945-5a7e-467b-bc4a-0571899c9b13","ios":"levelo://app?vid=d91b9945-5a7e-467b-bc4a-0571899c9b13"},"vehicle_type_id":"4","last_reported":1733833194,"current_range_meters":6400,"station_id":"ce4bgv12rcd13ifvqcp0","pricing_plan_id":"cebpf4jnsgd1na2vs0mg"},{"bike_id":"7bdec345-eeec-47c0-a1aa-d0b0f44ab6d1","system_id":"levelo_inurba_marseille","lat":43.32662,"lon":5.40985,"is_reserved":false,"is_disabled":true,"rental_uris":{"android":"levelo://app?vid=7bdec345-eeec-47c0-a1aa-d0b0f44ab6d1","ios":"levelo://app?vid=7bdec345-eeec-47c0-a1aa-d0b0f44ab6d1"},"vehicle_type_id":"4","last_reported":1733833194,"current_range_meters":38800,"station_id":"ce4bhpp2rcd13ifvqhgg","pricing_plan_id":"cebpf4jnsgd1na2vs0mg"},{"bike_id":"a802ac54-c436-4285-9977-b3bd374ee43d","system_id":"levelo_inurba_marseille","lat":43.30538,"lon":5.3664,"is_reserved":false,"is_disabled":false,"rental_uris":{"android":"levelo://app?vid=a802ac54-c436-4285-9977-b3bd374ee43d","ios":"levelo://app?vid=a802ac54-c436-4285-9977-b3bd374ee43d"},"vehicle_type_id":"4","last_reported":1733833194,"current_range_meters":38400,"station_id":"","pricing_plan_id":"cebpf4jnsgd1na2vs0mg"},{"bike_id":"c758d2e6-4cef-4394-80e2-cb12ac93859a","system_id":"levelo_inurba_marseille","lat":43.25,"lon":5.38929,"is_reserved":false,"is_disabled":false,"rental_uris":{"android":"levelo://app?vid=c758d2e6-4cef-4394-80e2-cb12ac93859a","ios":"levelo://app?vid=c758d2e6-4cef-4394-80e2-cb12ac93859a"},"vehicle_type_id":"4","last_reported":1733833194,"current_range_meters":36800,"station_id":"ce4bhgp2rcd13ifvqfd0","pricing_plan_id":"cebpf4jnsgd1na2vs0mg"},{"bike_id":"0ccd581d-9c76-4795-b702-2d923b116e9d","system_id":"levelo_inurba_marseille","lat":43.27176,"lon":5.40987,"is_reserved":false,"is_disabled":false,"rental_uris":{"android":"levelo://app?vid=0ccd581d-9c76-4795-b702-2d923b116e9d","ios":"levelo://app?vid=0ccd581d-9c76-4795-b702-2d923b116e9d"},"vehicle_type_id":"4","last_reported":1733833194,"current_range_meters":31200,"station_id":"ce4bhl12rcd13ifvqgf0","pricing_plan_id":"cebpf4jnsgd1na2vs0mg"},{"bike_id":"09505b1c-10cd-469a-a85d-499f8c186860","system_id":"levelo_inurba_marseille","lat":43.30597,"lon":5.39359,"is_reserved":false,"is_disabled":false,"rental_uris":{"android":"levelo://app?vid=09505b1c-10cd-469a-a85d-499f8c186860","ios":"levelo://app?vid=09505b1c-10cd-469a-a85d-499f8c186860"},"vehicle_type_id":"4","last_reported":1733833194,"current_range_meters":21600,"station_id":"ce4bh0p2rcd13ifvqd80","pricing_plan_id":"cebpf4jnsgd1na2vs0mg"},{"bike_id":"95d8628d-10b1-47e7-9a42-9b126ec315c6","system_id":"levelo_inurba_marseille","lat":43.23199,"lon":5.35569,"is_reserved":false,"is_disabled":false,"rental_uris":{"android":"levelo://app?vid=95d8628d-10b1-47e7-9a42-9b126ec315c6","ios":"levelo://app?vid=95d8628d-10b1-47e7-9a42-9b126ec315c6"},"vehicle_type_id":"4","last_reported":1733833194,"current_range_meters":24800,"station_id":"ce4bhu92rcd13ifvqi70","pricing_plan_id":"cebpf4jnsgd1na2vs0mg"},{"bike_id":"7241496b-c0e0-4e83-925f-f515cbbcb333","system_id":"levelo_inurba_marseille","lat":43.27054,"lon":5.40262,"is_reserved":false,"is_disabled":false,"rental_uris":{"android":"levelo://app?vid=7241496b-c0e0-4e83-925f-f515cbbcb333","ios":"levelo://app?vid=7241496b-c0e0-4e83-925f-f515cbbcb333"},"vehicle_type_id":"4","last_reported":1733833194,"current_range_meters":8400,"station_id":"ce4bhk92rcd13ifvqgc0","pricing_plan_id":"cebpf4jnsgd1na2vs0mg"},{"bike_id":"ff157558-4762-4775-8ebe-d59ef36bd776","system_id":"levelo_inurba_marseille","lat":43.26561,"lon":5.37292,"is_reserved":false,"is_disabled":false,"rental_uris":{"android":"levelo://app?vid=ff157558-4762-4775-8ebe-d59ef36bd776","ios":"levelo://app?vid=ff157558-4762-4775-8ebe-d59ef36bd776"},"vehicle_type_id":"4","last_reported":1733833194,"current_range_meters":14400,"station_id":"ce4bhg12rcd13ifvqf70","pricing_plan_id":"cebpf4jnsgd1na2vs0mg"},{"bike_id":"55fb5cce-a387-4942-8b44-0194802fccc0","system_id":"levelo_inurba_marseille","lat":43.32066,"lon":5.41567,"is_reserved":false,"is_disabled":false,"rental_uris":{"android":"levelo://app?vid=55fb5cce-a387-4942-8b44-0194802fccc0","ios":"levelo://app?vid=55fb5cce-a387-4942-8b44-0194802fccc0"},"vehicle_type_id":"4","last_reported":1733833194,"current_range_meters":9600,"station_id":"ce4bhq92rcd13ifvqhkg","pricing_plan_id":"cebpf4jnsgd1na2vs0mg"},{"bike_id":"570bad79-da0a-4f0e-bd71-fcfb4fde31b3","system_id":"levelo_inurba_marseille","lat":43.23968,"lon":5.36633,"is_reserved":false,"is_disabled":true,"rental_uris":{"android":"levelo://app?vid=570bad79-da0a-4f0e-bd71-fcfb4fde31b3","ios":"levelo://app?vid=570bad79-da0a-4f0e-bd71-fcfb4fde31b3"},"vehicle_type_id":"4","last_reported":1733833194,"current_range_meters":33200,"station_id":"ce4bhi12rcd13ifvqfp0","pricing_plan_id":"cebpf4jnsgd1na2vs0mg"},{"bike_id":"0f20b602-7b45-4989-92b6-4d1c64ab5468","system_id":"levelo_inurba_marseille","lat":43.26554,"lon":5.3729,"is_reserved":false,"is_disabled":false,"rental_uris":{"android":"levelo://app?vid=0f20b602-7b45-4989-92b6-4d1c64ab5468","ios":"levelo://app?vid=0f20b602-7b45-4989-92b6-4d1c64ab5468"},"vehicle_type_id":"4","last_reported":1733833194,"current_range_meters":33600,"station_id":"ce4bhg12rcd13ifvqf70","pricing_plan_id":"cebpf4jnsgd1na2vs0mg"},{"bike_id":"07315b1b-6a65-4714-97ad-f44e965e0217","system_id":"levelo_inurba_marseille","lat":43.24082,"lon":5.37754,"is_reserved":false,"is_disabled":false,"rental_uris":{"android":"levelo://app?vid=07315b1b-6a65-4714-97ad-f44e965e0217","ios":"levelo://app?vid=07315b1b-6a65-4714-97ad-f44e965e0217"},"vehicle_type_id":"4","last_reported":1733833194,"current_range_meters":9600,"station_id":"ce4bhnp2rcd13ifvqgvg","pricing_plan_id":"cebpf4jnsgd1na2vs0mg"},{"bike_id":"a137d7c7-faef-4058-8263-868184c3ace6","system_id":"levelo_inurba_marseille","lat":43.30549,"lon":5.36706,"is_reserved":false,"is_disabled":false,"rental_uris":{"android":"levelo://app?vid=a137d7c7-faef-4058-8263-868184c3ace6","ios":"levelo://app?vid=a137d7c7-faef-4058-8263-868184c3ace6"},"vehicle_type_id":"4","last_reported":1733833194,"current_range_meters":18800,"station_id":"ce4bgrp2rcd13ifvqc9g","pricing_plan_id":"cebpf4jnsgd1na2vs0mg"},{"bike_id":"8f223178-6a38-4832-a975-4b3ff773e01b","system_id":"levelo_inurba_marseille","lat":43.2737,"lon":5.3626,"is_reserved":false,"is_disabled":false,"rental_uris":{"android":"levelo://app?vid=8f223178-6a38-4832-a975-4b3ff773e01b","ios":"levelo://app?vid=8f223178-6a38-4832-a975-4b3ff773e01b"},"vehicle_type_id":"4","last_reported":1733833194,"current_range_meters":37600,"station_id":"ce4bhbh2rcd13ifvqeo0","pricing_plan_id":"cebpf4jnsgd1na2vs0mg"},{"bike_id":"e19bbcd4-547c-4c48-9d1e-941b58bfe99b","system_id":"levelo_inurba_marseille","lat":43.31342,"lon":5.36707,"is_reserved":false,"is_disabled":false,"rental_uris":{"android":"levelo://app?vid=e19bbcd4-547c-4c48-9d1e-941b58bfe99b","ios":"levelo://app?vid=e19bbcd4-547c-4c48-9d1e-941b58bfe99b"},"vehicle_type_id":"4","last_reported":1733833194,"current_range_meters":37600,"station_id":"ce4bgr92rcd13ifvqc6g","pricing_plan_id":"cebpf4jnsgd1na2vs0mg"},{"bike_id":"b8e7f883-5b9b-422d-81e9-d00c2442da3b","system_id":"levelo_inurba_marseille","lat":43.23064,"lon":5.35494,"is_reserved":false,"is_disabled":false,"rental_uris":{"android":"levelo://app?vid=b8e7f883-5b9b-422d-81e9-d00c2442da3b","ios":"levelo://app?vid=b8e7f883-5b9b-422d-81e9-d00c2442da3b"},"vehicle_type_id":"4","last_reported":1733833194,"current_range_meters":36400,"station_id":"cpo3342slgdg3j2ifvpg","pricing_plan_id":"cebpf4jnsgd1na2vs0mg"},{"bike_id":"c1598c12-4bef-4141-a99f-8dd71c41b81d","system_id":"levelo_inurba_marseille","lat":43.24183,"lon":5.39729,"is_reserved":false,"is_disabled":false,"rental_uris":{"android":"levelo://app?vid=c1598c12-4bef-4141-a99f-8dd71c41b81d","ios":"levelo://app?vid=c1598c12-4bef-4141-a99f-8dd71c41b81d"},"vehicle_type_id":"4","last_reported":1733833194,"current_range_meters":38800,"station_id":"ce4bhn12rcd13ifvqgpg","pricing_plan_id":"cebpf4jnsgd1na2vs0mg"},{"bike_id":"e6218eaa-37bf-4998-acca-c2ec589e34de","system_id":"levelo_inurba_marseille","lat":43.29561,"lon":5.37545,"is_reserved":false,"is_disabled":false,"rental_uris":{"android":"levelo://app?vid=e6218eaa-37bf-4998-acca-c2ec589e34de","ios":"levelo://app?vid=e6218eaa-37bf-4998-acca-c2ec589e34de"},"vehicle_type_id":"4","last_reported":1733833194,"current_range_meters":36000,"station_id":"ce4bgh92rcd13ifvqb50","pricing_plan_id":"cebpf4jnsgd1na2vs0mg"},{"bike_id":"c816b575-848a-4dc5-ae84-dfe1922cc228","system_id":"levelo_inurba_marseille","lat":43.27993,"lon":5.41667,"is_reserved":false,"is_disabled":false,"rental_uris":{"android":"levelo://app?vid=c816b575-848a-4dc5-ae84-dfe1922cc228","ios":"levelo://app?vid=c816b575-848a-4dc5-ae84-dfe1922cc228"},"vehicle_type_id":"4","last_reported":1733833194,"current_range_meters":28000,"station_id":"ce4bho12rcd13ifvqh1g","pricing_plan_id":"cebpf4jnsgd1na2vs0mg"},{"bike_id":"a0b44e86-9121-4df3-b62a-0fc9a0d1110c","system_id":"levelo_inurba_marseille","lat":43.2306,"lon":5.35495,"is_reserved":false,"is_disabled":false,"rental_uris":{"android":"levelo://app?vid=a0b44e86-9121-4df3-b62a-0fc9a0d1110c","ios":"levelo://app?vid=a0b44e86-9121-4df3-b62a-0fc9a0d1110c"},"vehicle_type_id":"4","last_reported":1733833194,"current_range_meters":36400,"station_id":"cpo3342slgdg3j2ifvpg","pricing_plan_id":"cebpf4jnsgd1na2vs0mg"},{"bike_id":"2e01685f-56b8-43fb-8326-4885035c7450","system_id":"levelo_inurba_marseille","lat":43.30125,"lon":5.38789,"is_reserved":false,"is_disabled":true,"rental_uris":{"android":"levelo://app?vid=2e01685f-56b8-43fb-8326-4885035c7450","ios":"levelo://app?vid=2e01685f-56b8-43fb-8326-4885035c7450"},"vehicle_type_id":"4","last_reported":1733833194,"current_range_meters":0,"station_id":"ce4bghh2rcd13ifvqb60","pricing_plan_id":"cebpf4jnsgd1na2vs0mg"},{"bike_id":"f87cf9e6-dfc9-4626-bb94-2221a897c82e","system_id":"levelo_inurba_marseille","lat":43.25503,"lon":5.37652,"is_reserved":false,"is_disabled":false,"rental_uris":{"android":"levelo://app?vid=f87cf9e6-dfc9-4626-bb94-2221a897c82e","ios":"levelo://app?vid=f87cf9e6-dfc9-4626-bb94-2221a897c82e"},"vehicle_type_id":"4","last_reported":1733833194,"current_range_meters":39200,"station_id":"ce4bhh12rcd13ifvqff0","pricing_plan_id":"cebpf4jnsgd1na2vs0mg"},{"bike_id":"7bf913d9-a3c4-4599-8d55-d226644c68a3","system_id":"levelo_inurba_marseille","lat":43.26941,"lon":5.40254,"is_reserved":false,"is_disabled":false,"rental_uris":{"android":"levelo://app?vid=7bf913d9-a3c4-4599-8d55-d226644c68a3","ios":"levelo://app?vid=7bf913d9-a3c4-4599-8d55-d226644c68a3"},"vehicle_type_id":"4","last_reported":1733833194,"current_range_meters":17200,"station_id":"cjm6bp8fraef2m0cb0m0","pricing_plan_id":"cebpf4jnsgd1na2vs0mg"},{"bike_id":"127262d1-6a7c-4722-a817-f0ae38c2b2d7","system_id":"levelo_inurba_marseille","lat":43.25492,"lon":5.37648,"is_reserved":false,"is_disabled":false,"rental_uris":{"android":"levelo://app?vid=127262d1-6a7c-4722-a817-f0ae38c2b2d7","ios":"levelo://app?vid=127262d1-6a7c-4722-a817-f0ae38c2b2d7"},"vehicle_type_id":"4","last_reported":1733833194,"current_range_meters":38800,"station_id":"ce4bhh12rcd13ifvqff0","pricing_plan_id":"cebpf4jnsgd1na2vs0mg"},{"bike_id":"7df94b62-9c6d-4c9a-bf7e-ce8c5ebf0d6f","system_id":"levelo_inurba_marseille","lat":43.272,"lon":5.3919,"is_reserved":false,"is_disabled":false,"rental_uris":{"android":"levelo://app?vid=7df94b62-9c6d-4c9a-bf7e-ce8c5ebf0d6f","ios":"levelo://app?vid=7df94b62-9c6d-4c9a-bf7e-ce8c5ebf0d6f"},"vehicle_type_id":"4","last_reported":1733833194,"current_range_meters":37600,"station_id":"ce4bhhp2rcd13ifvqfm0","pricing_plan_id":"cebpf4jnsgd1na2vs0mg"},{"bike_id":"035c3dcd-08a0-489e-a3b5-3b7f087c1484","system_id":"levelo_inurba_marseille","lat":43.25818,"lon":5.39438,"is_reserved":false,"is_disabled":false,"rental_uris":{"android":"levelo://app?vid=035c3dcd-08a0-489e-a3b5-3b7f087c1484","ios":"levelo://app?vid=035c3dcd-08a0-489e-a3b5-3b7f087c1484"},"vehicle_type_id":"4","last_reported":1733833194,"current_range_meters":8400,"station_id":"ce4bhip2rcd13ifvqft0","pricing_plan_id":"cebpf4jnsgd1na2vs0mg"},{"bike_id":"eab7c24e-3533-4637-b397-5e46bc48ccfd","system_id":"levelo_inurba_marseille","lat":43.23155,"lon":5.43721,"is_reserved":false,"is_disabled":true,"rental_uris":{"android":"levelo://app?vid=eab7c24e-3533-4637-b397-5e46bc48ccfd","ios":"levelo://app?vid=eab7c24e-3533-4637-b397-5e46bc48ccfd"},"vehicle_type_id":"4","last_reported":1733833194,"current_range_meters":5600,"station_id":"ce4bhmp2rcd13ifvqgog","pricing_plan_id":"cebpf4jnsgd1na2vs0mg"},{"bike_id":"a1c8d3f6-dd77-4475-afec-0c157cc18293","system_id":"levelo_inurba_marseille","lat":43.28844,"lon":5.39296,"is_reserved":false,"is_disabled":false,"rental_uris":{"android":"levelo://app?vid=a1c8d3f6-dd77-4475-afec-0c157cc18293","ios":"levelo://app?vid=a1c8d3f6-dd77-4475-afec-0c157cc18293"},"vehicle_type_id":"4","last_reported":1733833194,"current_range_meters":8400,"station_id":"ce4bh2p2rcd13ifvqdi0","pricing_plan_id":"cebpf4jnsgd1na2vs0mg"},{"bike_id":"84cb717c-3ecc-4880-972c-6ca5c688368a","system_id":"levelo_inurba_marseille","lat":43.32481,"lon":5.36565,"is_reserved":false,"is_disabled":true,"rental_uris":{"android":"levelo://app?vid=84cb717c-3ecc-4880-972c-6ca5c688368a","ios":"levelo://app?vid=84cb717c-3ecc-4880-972c-6ca5c688368a"},"vehicle_type_id":"4","last_reported":1733833194,"current_range_meters":0,"station_id":"ce4bhs12rcd13ifvqhvg","pricing_plan_id":"cebpf4jnsgd1na2vs0mg"},{"bike_id":"9de0c71d-b792-4243-8201-95a1a775fae2","system_id":"levelo_inurba_marseille","lat":43.308,"lon":5.37645,"is_reserved":false,"is_disabled":false,"rental_uris":{"android":"levelo://app?vid=9de0c71d-b792-4243-8201-95a1a775fae2","ios":"levelo://app?vid=9de0c71d-b792-4243-8201-95a1a775fae2"},"vehicle_type_id":"4","last_reported":1733833194,"current_range_meters":6000,"station_id":"ce4bgv92rcd13ifvqcq0","pricing_plan_id":"cebpf4jnsgd1na2vs0mg"},{"bike_id":"52faddf1-0ff3-4206-8aa8-aff9638128da","system_id":"levelo_inurba_marseille","lat":43.29304,"lon":5.37457,"is_reserved":false,"is_disabled":true,"rental_uris":{"android":"levelo://app?vid=52faddf1-0ff3-4206-8aa8-aff9638128da","ios":"levelo://app?vid=52faddf1-0ff3-4206-8aa8-aff9638128da"},"vehicle_type_id":"4","last_reported":1733833194,"current_range_meters":39200,"station_id":"ce4bgi12rcd13ifvqb70","pricing_plan_id":"cebpf4jnsgd1na2vs0mg"},{"bike_id":"8aae5af6-ba42-4409-86dd-ffa22585a2c5","system_id":"levelo_inurba_marseille","lat":43.28935,"lon":5.36386,"is_reserved":false,"is_disabled":false,"rental_uris":{"android":"levelo://app?vid=8aae5af6-ba42-4409-86dd-ffa22585a2c5","ios":"levelo://app?vid=8aae5af6-ba42-4409-86dd-ffa22585a2c5"},"vehicle_type_id":"4","last_reported":1733833194,"current_range_meters":4800,"station_id":"ce4bhc92rcd13ifvqetg","pricing_plan_id":"cebpf4jnsgd1na2vs0mg"},{"bike_id":"abee3c3b-2acb-4534-a7c1-173946c27e5f","system_id":"levelo_inurba_marseille","lat":43.29414,"lon":5.38626,"is_reserved":false,"is_disabled":false,"rental_uris":{"android":"levelo://app?vid=abee3c3b-2acb-4534-a7c1-173946c27e5f","ios":"levelo://app?vid=abee3c3b-2acb-4534-a7c1-173946c27e5f"},"vehicle_type_id":"4","last_reported":1733833194,"current_range_meters":25600,"station_id":"ce4bh2h2rcd13ifvqdh0","pricing_plan_id":"cebpf4jnsgd1na2vs0mg"},{"bike_id":"962a96b4-3298-40d0-92e0-1b449f02c0fe","system_id":"levelo_inurba_marseille","lat":43.25494,"lon":5.37647,"is_reserved":false,"is_disabled":true,"rental_uris":{"android":"levelo://app?vid=962a96b4-3298-40d0-92e0-1b449f02c0fe","ios":"levelo://app?vid=962a96b4-3298-40d0-92e0-1b449f02c0fe"},"vehicle_type_id":"4","last_reported":1733833194,"current_range_meters":36800,"station_id":"ce4bhh12rcd13ifvqff0","pricing_plan_id":"cebpf4jnsgd1na2vs0mg"},{"bike_id":"8fdc9d46-e387-4f1b-bf20-f751779fef35","system_id":"levelo_inurba_marseille","lat":43.3123,"lon":5.36874,"is_reserved":false,"is_disabled":false,"rental_uris":{"android":"levelo://app?vid=8fdc9d46-e387-4f1b-bf20-f751779fef35","ios":"levelo://app?vid=8fdc9d46-e387-4f1b-bf20-f751779fef35"},"vehicle_type_id":"4","last_reported":1733833194,"current_range_meters":38800,"station_id":"ce4bgl92rcd13ifvqbq0","pricing_plan_id":"cebpf4jnsgd1na2vs0mg"},{"bike_id":"ba5e4c54-9e0f-419d-acd3-894b4507a88b","system_id":"levelo_inurba_marseille","lat":43.23055,"lon":5.35487,"is_reserved":false,"is_disabled":false,"rental_uris":{"android":"levelo://app?vid=ba5e4c54-9e0f-419d-acd3-894b4507a88b","ios":"levelo://app?vid=ba5e4c54-9e0f-419d-acd3-894b4507a88b"},"vehicle_type_id":"4","last_reported":1733833194,"current_range_meters":26000,"station_id":"cpo3342slgdg3j2ifvpg","pricing_plan_id":"cebpf4jnsgd1na2vs0mg"},{"bike_id":"e11e5398-2b26-4eb7-9ef7-831791928bde","system_id":"levelo_inurba_marseille","lat":43.31342,"lon":5.36713,"is_reserved":false,"is_disabled":false,"rental_uris":{"android":"levelo://app?vid=e11e5398-2b26-4eb7-9ef7-831791928bde","ios":"levelo://app?vid=e11e5398-2b26-4eb7-9ef7-831791928bde"},"vehicle_type_id":"4","last_reported":1733833194,"current_range_meters":38800,"station_id":"ce4bgr92rcd13ifvqc6g","pricing_plan_id":"cebpf4jnsgd1na2vs0mg"},{"bike_id":"5389e09a-ac96-44bd-95f5-5967a533b133","system_id":"levelo_inurba_marseille","lat":43.27214,"lon":5.39196,"is_reserved":false,"is_disabled":false,"rental_uris":{"android":"levelo://app?vid=5389e09a-ac96-44bd-95f5-5967a533b133","ios":"levelo://app?vid=5389e09a-ac96-44bd-95f5-5967a533b133"},"vehicle_type_id":"4","last_reported":1733833194,"current_range_meters":37600,"station_id":"ce4bhhp2rcd13ifvqfm0","pricing_plan_id":"cebpf4jnsgd1na2vs0mg"},{"bike_id":"fffa14be-58a4-4d6c-9582-c535b5f77ae9","system_id":"levelo_inurba_marseille","lat":43.2737,"lon":5.36269,"is_reserved":false,"is_disabled":false,"rental_uris":{"android":"levelo://app?vid=fffa14be-58a4-4d6c-9582-c535b5f77ae9","ios":"levelo://app?vid=fffa14be-58a4-4d6c-9582-c535b5f77ae9"},"vehicle_type_id":"4","last_reported":1733833194,"current_range_meters":38800,"station_id":"ce4bhbh2rcd13ifvqeo0","pricing_plan_id":"cebpf4jnsgd1na2vs0mg"},{"bike_id":"155e4552-adf3-45a5-aa6c-6e25fcaf05e5","system_id":"levelo_inurba_marseille","lat":43.27177,"lon":5.40992,"is_reserved":false,"is_disabled":false,"rental_uris":{"android":"levelo://app?vid=155e4552-adf3-45a5-aa6c-6e25fcaf05e5","ios":"levelo://app?vid=155e4552-adf3-45a5-aa6c-6e25fcaf05e5"},"vehicle_type_id":"4","last_reported":1733833194,"current_range_meters":38800,"station_id":"ce4bhl12rcd13ifvqgf0","pricing_plan_id":"cebpf4jnsgd1na2vs0mg"},{"bike_id":"3933b701-ca82-4b18-a882-72a61c67a1e4","system_id":"levelo_inurba_marseille","lat":43.24392,"lon":5.3706,"is_reserved":false,"is_disabled":true,"rental_uris":{"android":"levelo://app?vid=3933b701-ca82-4b18-a882-72a61c67a1e4","ios":"levelo://app?vid=3933b701-ca82-4b18-a882-72a61c67a1e4"},"vehicle_type_id":"4","last_reported":1733833194,"current_range_meters":37600,"station_id":"ce4bhhh2rcd13ifvqfk0","pricing_plan_id":"cebpf4jnsgd1na2vs0mg"},{"bike_id":"5607461a-1c3a-4753-81b6-4b18ff1a2491","system_id":"levelo_inurba_marseille","lat":43.31705,"lon":5.37778,"is_reserved":false,"is_disabled":false,"rental_uris":{"android":"levelo://app?vid=5607461a-1c3a-4753-81b6-4b18ff1a2491","ios":"levelo://app?vid=5607461a-1c3a-4753-81b6-4b18ff1a2491"},"vehicle_type_id":"4","last_reported":1733833194,"current_range_meters":34000,"station_id":"ce4bgth2rcd13ifvqch0","pricing_plan_id":"cebpf4jnsgd1na2vs0mg"},{"bike_id":"80de6221-e67c-47c2-8249-e13422581f94","system_id":"levelo_inurba_marseille","lat":43.31327,"lon":5.39698,"is_reserved":false,"is_disabled":false,"rental_uris":{"android":"levelo://app?vid=80de6221-e67c-47c2-8249-e13422581f94","ios":"levelo://app?vid=80de6221-e67c-47c2-8249-e13422581f94"},"vehicle_type_id":"4","last_reported":1733833194,"current_range_meters":19600,"station_id":"ce4bgvp2rcd13ifvqcu0","pricing_plan_id":"cebpf4jnsgd1na2vs0mg"},{"bike_id":"e3bdaa4f-7455-4b04-bbf7-00979055ddf8","system_id":"levelo_inurba_marseille","lat":43.28942,"lon":5.36643,"is_reserved":false,"is_disabled":false,"rental_uris":{"android":"levelo://app?vid=e3bdaa4f-7455-4b04-bbf7-00979055ddf8","ios":"levelo://app?vid=e3bdaa4f-7455-4b04-bbf7-00979055ddf8"},"vehicle_type_id":"4","last_reported":1733833194,"current_range_meters":30400,"station_id":"ce4bhap2rcd13ifvqek0","pricing_plan_id":"cebpf4jnsgd1na2vs0mg"},{"bike_id":"ef8d9f0d-44de-4471-aeb4-f7626daaf754","system_id":"levelo_inurba_marseille","lat":43.28933,"lon":5.36637,"is_reserved":false,"is_disabled":false,"rental_uris":{"android":"levelo://app?vid=ef8d9f0d-44de-4471-aeb4-f7626daaf754","ios":"levelo://app?vid=ef8d9f0d-44de-4471-aeb4-f7626daaf754"},"vehicle_type_id":"4","last_reported":1733833194,"current_range_meters":23200,"station_id":"ce4bhap2rcd13ifvqek0","pricing_plan_id":"cebpf4jnsgd1na2vs0mg"},{"bike_id":"5391ef8e-f8fd-409e-a752-4eea0091a1f8","system_id":"levelo_inurba_marseille","lat":43.32277,"lon":5.37572,"is_reserved":false,"is_disabled":false,"rental_uris":{"android":"levelo://app?vid=5391ef8e-f8fd-409e-a752-4eea0091a1f8","ios":"levelo://app?vid=5391ef8e-f8fd-409e-a752-4eea0091a1f8"},"vehicle_type_id":"4","last_reported":1733833194,"current_range_meters":6800,"station_id":"","pricing_plan_id":"cebpf4jnsgd1na2vs0mg"},{"bike_id":"e2f53572-0b48-4281-832d-10b6aad4a00e","system_id":"levelo_inurba_marseille","lat":43.309509,"lon":5.390281,"is_reserved":false,"is_disabled":false,"rental_uris":{"android":"levelo://app?vid=e2f53572-0b48-4281-832d-10b6aad4a00e","ios":"levelo://app?vid=e2f53572-0b48-4281-832d-10b6aad4a00e"},"vehicle_type_id":"4","last_reported":1733833194,"current_range_meters":4000,"station_id":"ce4bgup2rcd13ifvqco0","pricing_plan_id":"cebpf4jnsgd1na2vs0mg"},{"bike_id":"e1fda08d-d206-439e-bb5b-f0e13b88697c","system_id":"levelo_inurba_marseille","lat":43.305305,"lon":5.365364,"is_reserved":false,"is_disabled":false,"rental_uris":{"android":"levelo://app?vid=e1fda08d-d206-439e-bb5b-f0e13b88697c","ios":"levelo://app?vid=e1fda08d-d206-439e-bb5b-f0e13b88697c"},"vehicle_type_id":"4","last_reported":1733833194,"current_range_meters":27200,"station_id":"ce4bgs12rcd13ifvqcag","pricing_plan_id":"cebpf4jnsgd1na2vs0mg"},{"bike_id":"8ea2c49d-76f2-4d30-b97d-000c28822813","system_id":"levelo_inurba_marseille","lat":43.26193,"lon":5.37448,"is_reserved":false,"is_disabled":false,"rental_uris":{"android":"levelo://app?vid=8ea2c49d-76f2-4d30-b97d-000c28822813","ios":"levelo://app?vid=8ea2c49d-76f2-4d30-b97d-000c28822813"},"vehicle_type_id":"4","last_reported":1733833194,"current_range_meters":34000,"station_id":"ce4bhgp2rcd13ifvqfc0","pricing_plan_id":"cebpf4jnsgd1na2vs0mg"},{"bike_id":"4f58338b-a85b-4c1c-b7ea-249b0420c32f","system_id":"levelo_inurba_marseille","lat":43.292685,"lon":5.401215,"is_reserved":false,"is_disabled":true,"rental_uris":{"android":"levelo://app?vid=4f58338b-a85b-4c1c-b7ea-249b0420c32f","ios":"levelo://app?vid=4f58338b-a85b-4c1c-b7ea-249b0420c32f"},"vehicle_type_id":"4","last_reported":1733833194,"current_range_meters":10000,"station_id":"ce4bh312rcd13ifvqdk0","pricing_plan_id":"cebpf4jnsgd1na2vs0mg"},{"bike_id":"6149d10a-ee53-4413-9592-38357ced78cb","system_id":"levelo_inurba_marseille","lat":43.26195,"lon":5.37455,"is_reserved":false,"is_disabled":true,"rental_uris":{"android":"levelo://app?vid=6149d10a-ee53-4413-9592-38357ced78cb","ios":"levelo://app?vid=6149d10a-ee53-4413-9592-38357ced78cb"},"vehicle_type_id":"4","last_reported":1733833194,"current_range_meters":36400,"station_id":"ce4bhgp2rcd13ifvqfc0","pricing_plan_id":"cebpf4jnsgd1na2vs0mg"},{"bike_id":"6e5f19a4-228d-46f2-adfa-65d14fb76789","system_id":"levelo_inurba_marseille","lat":43.23154,"lon":5.43722,"is_reserved":false,"is_disabled":false,"rental_uris":{"android":"levelo://app?vid=6e5f19a4-228d-46f2-adfa-65d14fb76789","ios":"levelo://app?vid=6e5f19a4-228d-46f2-adfa-65d14fb76789"},"vehicle_type_id":"4","last_reported":1733833194,"current_range_meters":37600,"station_id":"ce4bhmp2rcd13ifvqgog","pricing_plan_id":"cebpf4jnsgd1na2vs0mg"},{"bike_id":"f03a0fd2-8b78-4caf-823d-2d72f29eb1fc","system_id":"levelo_inurba_marseille","lat":43.27176,"lon":5.40995,"is_reserved":false,"is_disabled":false,"rental_uris":{"android":"levelo://app?vid=f03a0fd2-8b78-4caf-823d-2d72f29eb1fc","ios":"levelo://app?vid=f03a0fd2-8b78-4caf-823d-2d72f29eb1fc"},"vehicle_type_id":"4","last_reported":1733833194,"current_range_meters":38800,"station_id":"ce4bhl12rcd13ifvqgf0","pricing_plan_id":"cebpf4jnsgd1na2vs0mg"},{"bike_id":"20e9db8d-d68b-4418-94af-d9d63f8c2b96","system_id":"levelo_inurba_marseille","lat":43.337444,"lon":5.374475,"is_reserved":false,"is_disabled":true,"rental_uris":{"android":"levelo://app?vid=20e9db8d-d68b-4418-94af-d9d63f8c2b96","ios":"levelo://app?vid=20e9db8d-d68b-4418-94af-d9d63f8c2b96"},"vehicle_type_id":"4","last_reported":1733833194,"current_range_meters":0,"station_id":"","pricing_plan_id":"cebpf4jnsgd1na2vs0mg"},{"bike_id":"19f949c6-fe66-42a6-a186-5c3b8b6a7eb2","system_id":"levelo_inurba_marseille","lat":43.31347,"lon":5.36732,"is_reserved":false,"is_disabled":false,"rental_uris":{"android":"levelo://app?vid=19f949c6-fe66-42a6-a186-5c3b8b6a7eb2","ios":"levelo://app?vid=19f949c6-fe66-42a6-a186-5c3b8b6a7eb2"},"vehicle_type_id":"4","last_reported":1733833194,"current_range_meters":32000,"station_id":"ce4bgr92rcd13ifvqc6g","pricing_plan_id":"cebpf4jnsgd1na2vs0mg"},{"bike_id":"d1759abf-a816-44e9-9410-5d5b34634ccb","system_id":"levelo_inurba_marseille","lat":43.28277,"lon":5.35077,"is_reserved":false,"is_disabled":false,"rental_uris":{"android":"levelo://app?vid=d1759abf-a816-44e9-9410-5d5b34634ccb","ios":"levelo://app?vid=d1759abf-a816-44e9-9410-5d5b34634ccb"},"vehicle_type_id":"4","last_reported":1733833194,"current_range_meters":24800,"station_id":"ce4bhbp2rcd13ifvqerg","pricing_plan_id":"cebpf4jnsgd1na2vs0mg"},{"bike_id":"6976d014-58a6-4a57-bd4a-733a6f8a9379","system_id":"levelo_inurba_marseille","lat":43.29933,"lon":5.37191,"is_reserved":false,"is_disabled":false,"rental_uris":{"android":"levelo://app?vid=6976d014-58a6-4a57-bd4a-733a6f8a9379","ios":"levelo://app?vid=6976d014-58a6-4a57-bd4a-733a6f8a9379"},"vehicle_type_id":"4","last_reported":1733833194,"current_range_meters":3600,"station_id":"ce4bgr92rcd13ifvqc7g","pricing_plan_id":"cebpf4jnsgd1na2vs0mg"},{"bike_id":"445ceb1b-e0a6-42cd-bb44-eb8e9b1da8ee","system_id":"levelo_inurba_marseille","lat":43.32365,"lon":5.38884,"is_reserved":false,"is_disabled":false,"rental_uris":{"android":"levelo://app?vid=445ceb1b-e0a6-42cd-bb44-eb8e9b1da8ee","ios":"levelo://app?vid=445ceb1b-e0a6-42cd-bb44-eb8e9b1da8ee"},"vehicle_type_id":"4","last_reported":1733833194,"current_range_meters":23200,"station_id":"ce4bhqp2rcd13ifvqhog","pricing_plan_id":"cebpf4jnsgd1na2vs0mg"},{"bike_id":"f6f6210d-5e07-46dd-93e4-3e102dd7cb0e","system_id":"levelo_inurba_marseille","lat":43.29395,"lon":5.38885,"is_reserved":false,"is_disabled":true,"rental_uris":{"android":"levelo://app?vid=f6f6210d-5e07-46dd-93e4-3e102dd7cb0e","ios":"levelo://app?vid=f6f6210d-5e07-46dd-93e4-3e102dd7cb0e"},"vehicle_type_id":"4","last_reported":1733833194,"current_range_meters":0,"station_id":"","pricing_plan_id":"cebpf4jnsgd1na2vs0mg"},{"bike_id":"8497a5a5-5f3a-47cc-87a2-a31924308ded","system_id":"levelo_inurba_marseille","lat":43.27212,"lon":5.39181,"is_reserved":false,"is_disabled":false,"rental_uris":{"android":"levelo://app?vid=8497a5a5-5f3a-47cc-87a2-a31924308ded","ios":"levelo://app?vid=8497a5a5-5f3a-47cc-87a2-a31924308ded"},"vehicle_type_id":"4","last_reported":1733833194,"current_range_meters":20000,"station_id":"ce4bhhp2rcd13ifvqfm0","pricing_plan_id":"cebpf4jnsgd1na2vs0mg"},{"bike_id":"05f1dc09-b88f-46f5-84b4-fd0c55b5707b","system_id":"levelo_inurba_marseille","lat":43.29366,"lon":5.37855,"is_reserved":false,"is_disabled":false,"rental_uris":{"android":"levelo://app?vid=05f1dc09-b88f-46f5-84b4-fd0c55b5707b","ios":"levelo://app?vid=05f1dc09-b88f-46f5-84b4-fd0c55b5707b"},"vehicle_type_id":"4","last_reported":1733833194,"current_range_meters":17600,"station_id":"ce4bgjh2rcd13ifvqbf0","pricing_plan_id":"cebpf4jnsgd1na2vs0mg"},{"bike_id":"3886c0c6-cbc9-44ce-83f8-9843a74a1f8a","system_id":"levelo_inurba_marseille","lat":43.26685,"lon":5.38276,"is_reserved":false,"is_disabled":false,"rental_uris":{"android":"levelo://app?vid=3886c0c6-cbc9-44ce-83f8-9843a74a1f8a","ios":"levelo://app?vid=3886c0c6-cbc9-44ce-83f8-9843a74a1f8a"},"vehicle_type_id":"4","last_reported":1733833194,"current_range_meters":35200,"station_id":"ce4bhg92rcd13ifvqf90","pricing_plan_id":"cebpf4jnsgd1na2vs0mg"},{"bike_id":"6c532ec2-971d-49fd-9e34-94f4ab4f0ca6","system_id":"levelo_inurba_marseille","lat":43.30533,"lon":5.36545,"is_reserved":false,"is_disabled":false,"rental_uris":{"android":"levelo://app?vid=6c532ec2-971d-49fd-9e34-94f4ab4f0ca6","ios":"levelo://app?vid=6c532ec2-971d-49fd-9e34-94f4ab4f0ca6"},"vehicle_type_id":"4","last_reported":1733833194,"current_range_meters":26800,"station_id":"ce4bgs12rcd13ifvqcag","pricing_plan_id":"cebpf4jnsgd1na2vs0mg"},{"bike_id":"bf379ba3-33b1-4698-aae0-781274489e1c","system_id":"levelo_inurba_marseille","lat":43.28858,"lon":5.393191,"is_reserved":false,"is_disabled":false,"rental_uris":{"android":"levelo://app?vid=bf379ba3-33b1-4698-aae0-781274489e1c","ios":"levelo://app?vid=bf379ba3-33b1-4698-aae0-781274489e1c"},"vehicle_type_id":"4","last_reported":1733833194,"current_range_meters":10000,"station_id":"ce4bh2p2rcd13ifvqdi0","pricing_plan_id":"cebpf4jnsgd1na2vs0mg"},{"bike_id":"aeee9eb0-e288-4a80-bd5f-32984aaf7175","system_id":"levelo_inurba_marseille","lat":43.28721,"lon":5.37942,"is_reserved":false,"is_disabled":false,"rental_uris":{"android":"levelo://app?vid=aeee9eb0-e288-4a80-bd5f-32984aaf7175","ios":"levelo://app?vid=aeee9eb0-e288-4a80-bd5f-32984aaf7175"},"vehicle_type_id":"4","last_reported":1733833194,"current_range_meters":27200,"station_id":"ce4bh9p2rcd13ifvqec0","pricing_plan_id":"cebpf4jnsgd1na2vs0mg"},{"bike_id":"39107fa6-507e-4729-8ccb-0f36c72d8345","system_id":"levelo_inurba_marseille","lat":43.23149,"lon":5.43712,"is_reserved":false,"is_disabled":false,"rental_uris":{"android":"levelo://app?vid=39107fa6-507e-4729-8ccb-0f36c72d8345","ios":"levelo://app?vid=39107fa6-507e-4729-8ccb-0f36c72d8345"},"vehicle_type_id":"4","last_reported":1733833194,"current_range_meters":5600,"station_id":"ce4bhmp2rcd13ifvqgog","pricing_plan_id":"cebpf4jnsgd1na2vs0mg"},{"bike_id":"6c5ce0f2-c82b-4410-a0ea-fb564fc782e4","system_id":"levelo_inurba_marseille","lat":43.337444,"lon":5.374475,"is_reserved":false,"is_disabled":false,"rental_uris":{"android":"levelo://app?vid=6c5ce0f2-c82b-4410-a0ea-fb564fc782e4","ios":"levelo://app?vid=6c5ce0f2-c82b-4410-a0ea-fb564fc782e4"},"vehicle_type_id":"4","last_reported":1733833194,"current_range_meters":37600,"station_id":"","pricing_plan_id":"cebpf4jnsgd1na2vs0mg"},{"bike_id":"fd0805f5-a398-4cff-8d50-0b96555f8650","system_id":"levelo_inurba_marseille","lat":43.2947,"lon":5.37699,"is_reserved":false,"is_disabled":true,"rental_uris":{"android":"levelo://app?vid=fd0805f5-a398-4cff-8d50-0b96555f8650","ios":"levelo://app?vid=fd0805f5-a398-4cff-8d50-0b96555f8650"},"vehicle_type_id":"4","last_reported":1733833194,"current_range_meters":0,"station_id":"","pricing_plan_id":"cebpf4jnsgd1na2vs0mg"},{"bike_id":"88d700a1-f9a9-4c1f-9198-584b0729210d","system_id":"levelo_inurba_marseille","lat":43.23188,"lon":5.35559,"is_reserved":false,"is_disabled":false,"rental_uris":{"android":"levelo://app?vid=88d700a1-f9a9-4c1f-9198-584b0729210d","ios":"levelo://app?vid=88d700a1-f9a9-4c1f-9198-584b0729210d"},"vehicle_type_id":"4","last_reported":1733833194,"current_range_meters":4400,"station_id":"ce4bhu92rcd13ifvqi70","pricing_plan_id":"cebpf4jnsgd1na2vs0mg"},{"bike_id":"31d23f69-87ae-4146-9674-d4f1c96e583e","system_id":"levelo_inurba_marseille","lat":43.31348,"lon":5.3672,"is_reserved":false,"is_disabled":false,"rental_uris":{"android":"levelo://app?vid=31d23f69-87ae-4146-9674-d4f1c96e583e","ios":"levelo://app?vid=31d23f69-87ae-4146-9674-d4f1c96e583e"},"vehicle_type_id":"4","last_reported":1733833194,"current_range_meters":25600,"station_id":"ce4bgr92rcd13ifvqc6g","pricing_plan_id":"cebpf4jnsgd1na2vs0mg"},{"bike_id":"442a248b-1f19-4cf0-9b5b-709bc547848a","system_id":"levelo_inurba_marseille","lat":43.27206,"lon":5.39182,"is_reserved":false,"is_disabled":false,"rental_uris":{"android":"levelo://app?vid=442a248b-1f19-4cf0-9b5b-709bc547848a","ios":"levelo://app?vid=442a248b-1f19-4cf0-9b5b-709bc547848a"},"vehicle_type_id":"4","last_reported":1733833194,"current_range_meters":27600,"station_id":"ce4bhhp2rcd13ifvqfm0","pricing_plan_id":"cebpf4jnsgd1na2vs0mg"},{"bike_id":"c8b30e91-361c-49d6-8949-5e8cfa8a8ce2","system_id":"levelo_inurba_marseille","lat":43.260287,"lon":5.375493,"is_reserved":false,"is_disabled":false,"rental_uris":{"android":"levelo://app?vid=c8b30e91-361c-49d6-8949-5e8cfa8a8ce2","ios":"levelo://app?vid=c8b30e91-361c-49d6-8949-5e8cfa8a8ce2"},"vehicle_type_id":"4","last_reported":1733833194,"current_range_meters":33600,"station_id":"ce4bhgh2rcd13ifvqfa0","pricing_plan_id":"cebpf4jnsgd1na2vs0mg"},{"bike_id":"633466e3-c57e-4424-bb70-58dea6ff4970","system_id":"levelo_inurba_marseille","lat":43.22933,"lon":5.35375,"is_reserved":false,"is_disabled":true,"rental_uris":{"android":"levelo://app?vid=633466e3-c57e-4424-bb70-58dea6ff4970","ios":"levelo://app?vid=633466e3-c57e-4424-bb70-58dea6ff4970"},