{"last_updated":1687097148,"ttl":30,"version":"2.2","data":{"bikes":[{"bike_id":"bc5dfdcd-9f3f-442f-8ff0-f90c18be3eef","system_id":"levelo_inurba_marseille","lat":43.30809,"lon":5.37044,"is_reserved":false,"is_disabled":false,"rental_uris":{"android":"levelo://app?vid=bc5dfdcd-9f3f-442f-8ff0-f90c18be3eef","ios":"levelo://app?vid=bc5dfdcd-9f3f-442f-8ff0-f90c18be3eef"},"vehicle_type_id":"4","last_reported":1687097149,"current_range_meters":0,"station_id":"","pricing_plan_id":"free"},{"bike_id":"716f8a77-cb54-4fe3-8072-0131e70e3986","system_id":"levelo_inurba_marseille","lat":43.3054,"lon":5.3654,"is_reserved":false,"is_disabled":false,"rental_uris":{"android":"levelo://app?vid=716f8a77-cb54-4fe3-8072-0131e70e3986","ios":"levelo://app?vid=716f8a77-cb54-4fe3-8072-0131e70e3986"},"vehicle_type_id":"4","last_reported":1687097149,"current_range_meters":13600,"station_id":"ce4bgs12rcd13ifvqcag","pricing_plan_id":"free"},{"bike_id":"b1967a27-7c4b-4e1f-9c97-f32b15af890f","system_id":"levelo_inurba_marseille","lat":43.305706,"lon":5.365654,"is_reserved":false,"is_disabled":false,"rental_uris":{"android":"levelo://app?vid=b1967a27-7c4b-4e1f-9c97-f32b15af890f","ios":"levelo://app?vid=b1967a27-7c4b-4e1f-9c97-f32b15af890f"},"vehicle_type_id":"4","last_reported":1687097149,"current_range_meters":26400,"station_id":"ce4bgs12rcd13ifvqcag","pricing_plan_id":"free"},{"bike_id":"9c746439-937e-436d-8c66-cb90c42aae7f","system_id":"levelo_inurba_marseille","lat":43.3127,"lon":5.37747,"is_reserved":false,"is_disabled":false,"rental_uris":{"android":"levelo://app?vid=9c746439-937e-436d-8c66-cb90c42aae7f","ios":"levelo://app?vid=9c746439-937e-436d-8c66-cb90c42aae7f"},"vehicle_type_id":"4","last_reported":1687097149,"current_range_meters":24400,"station_id":"","pricing_plan_id":"free"},{"bike_id":"2424216c-0462-4ad0-b127-d0366c91b61c","system_id":"levelo_inurba_marseille","lat":43.31699,"lon":5.37674,"is_reserved":false,"is_disabled":false,"rental_uris":{"android":"levelo://app?vid=2424216c-0462-4ad0-b127-d0366c91b61c","ios":"levelo://app?vid=2424216c-0462-4ad0-b127-d0366c91b61c"},"vehicle_type_id":"4","last_reported":1687097149,"current_range_meters":28400,"station_id":"","pricing_plan_id":"free"},{"bike_id":"03c63a22-5af4-4731-b58c-68faf2f7a292","system_id":"levelo_inurba_marseille","lat":43.31856,"lon":5.37568,"is_reserved":false,"is_disabled":false,"rental_uris":{"android":"levelo://app?vid=03c63a22-5af4-4731-b58c-68faf2f7a292","ios":"levelo://app?vid=03c63a22-5af4-4731-b58c-68faf2f7a292"},"vehicle_type_id":"4","last_reported":1687097149,"current_range_meters":28800,"station_id":"","pricing_plan_id":"free"},{"bike_id":"c6445359-0fa3-4fa8-ba32-e31716602d3d","system_id":"levelo_inurba_marseille","lat":43.317075,"lon":5.377367,"is_reserved":false,"is_disabled":false,"rental_uris":{"android":"levelo://app?vid=c6445359-0fa3-4fa8-ba32-e31716602d3d","ios":"levelo://app?vid=c6445359-0fa3-4fa8-ba32-e31716602d3d"},"vehicle_type_id":"4","last_reported":1687097149,"current_range_meters":21600,"station_id":"ce4bgth2rcd13ifvqch0","pricing_plan_id":"free"},{"bike_id":"142ea6ff-5a56-4e78-a0fb-fc43c2431b5c","system_id":"levelo_inurba_marseille","lat":43.317075,"lon":5.377367,"is_reserved":false,"is_disabled":false,"rental_uris":{"android":"levelo://app?vid=142ea6ff-5a56-4e78-a0fb-fc43c2431b5c","ios":"levelo://app?vid=142ea6ff-5a56-4e78-a0fb-fc43c2431b5c"},"vehicle_type_id":"4","last_reported":1687097149,"current_range_meters":30000,"station_id":"ce4bgth2rcd13ifvqch0","pricing_plan_id":"free"},{"bike_id":"a8886741-a3cc-4eab-8624-62bc1677349c","system_id":"levelo_inurba_marseille","lat":43.30309,"lon":5.36872,"is_reserved":false,"is_disabled":false,"rental_uris":{"android":"levelo://app?vid=a8886741-a3cc-4eab-8624-62bc1677349c","ios":"levelo://app?vid=a8886741-a3cc-4eab-8624-62bc1677349c"},"vehicle_type_id":"4","last_reported":1687097149,"current_range_meters":7600,"station_id":"ce4bgqh2rcd13ifvqc5g","pricing_plan_id":"free"},{"bike_id":"cada2054-cd0b-4ffd-b35d-70e3683fc5a7","system_id":"levelo_inurba_marseille","lat":43.315293,"lon":5.380349,"is_reserved":false,"is_disabled":false,"rental_uris":{"android":"levelo://app?vid=cada2054-cd0b-4ffd-b35d-70e3683fc5a7","ios":"levelo://app?vid=cada2054-cd0b-4ffd-b35d-70e3683fc5a7"},"vehicle_type_id":"4","last_reported":1687097149,"current_range_meters":29200,"station_id":"ce4bhsp2rcd13ifvqi50","pricing_plan_id":"free"},{"bike_id":"8d51db3c-ddf0-4868-a42f-0868b9c8ed86","system_id":"levelo_inurba_marseille","lat":43.31538,"lon":5.38029,"is_reserved":false,"is_disabled":false,"rental_uris":{"android":"levelo://app?vid=8d51db3c-ddf0-4868-a42f-0868b9c8ed86","ios":"levelo://app?vid=8d51db3c-ddf0-4868-a42f-0868b9c8ed86"},"vehicle_type_id":"4","last_reported":1687097149,"current_range_meters":29600,"station_id":"ce4bhsp2rcd13ifvqi50","pricing_plan_id":"free"},{"bike_id":"ae33307b-fcd5-479b-9ae1-9002ed226c6e","system_id":"levelo_inurba_marseille","lat":43.308012,"lon":5.381511,"is_reserved":false,"is_disabled":false,"rental_uris":{"android":"levelo://app?vid=ae33307b-fcd5-479b-9ae1-9002ed226c6e","ios":"levelo://app?vid=ae33307b-fcd5-479b-9ae1-9002ed226c6e"},"vehicle_type_id":"4","last_reported":1687097149,"current_range_meters":29600,"station_id":"ce4bgt12rcd13ifvqce0","pricing_plan_id":"free"},{"bike_id":"5c7b49ba-5148-45e0-83eb-9222624a1e0b","system_id":"levelo_inurba_marseille","lat":43.304606,"lon":5.379026,"is_reserved":false,"is_disabled":false,"rental_uris":{"android":"levelo://app?vid=5c7b49ba-5148-45e0-83eb-9222624a1e0b","ios":"levelo://app?vid=5c7b49ba-5148-45e0-83eb-9222624a1e0b"},"vehicle_type_id":"4","last_reported":1687097149,"current_range_meters":11600,"station_id":"ce4bgup2rcd13ifvqcn0","pricing_plan_id":"free"},{"bike_id":"43fc693e-f2a9-4aec-8fd9-d094bb02cb70","system_id":"levelo_inurba_marseille","lat":43.304606,"lon":5.379026,"is_reserved":false,"is_disabled":false,"rental_uris":{"android":"levelo://app?vid=43fc693e-f2a9-4aec-8fd9-d094bb02cb70","ios":"levelo://app?vid=43fc693e-f2a9-4aec-8fd9-d094bb02cb70"},"vehicle_type_id":"4","last_reported":1687097149,"current_range_meters":17200,"station_id":"ce4bgup2rcd13ifvqcn0","pricing_plan_id":"free"},{"bike_id":"56fcb246-9171-49f7-9a52-3b997b5b6ad0","system_id":"levelo_inurba_marseille","lat":43.304606,"lon":5.379026,"is_reserved":false,"is_disabled":false,"rental_uris":{"android":"levelo://app?vid=56fcb246-9171-49f7-9a52-3b997b5b6ad0","ios":"levelo://app?vid=56fcb246-9171-49f7-9a52-3b997b5b6ad0"},"vehicle_type_id":"4","last_reported":1687097149,"current_range_meters":1200,"station_id":"ce4bgup2rcd13ifvqcn0","pricing_plan_id":"free"},{"bike_id":"c0f8a177-f08b-402a-bdad-c3cc246708ee","system_id":"levelo_inurba_marseille","lat":43.30143,"lon":5.37413,"is_reserved":false,"is_disabled":false,"rental_uris":{"android":"levelo://app?vid=c0f8a177-f08b-402a-bdad-c3cc246708ee","ios":"levelo://app?vid=c0f8a177-f08b-402a-bdad-c3cc246708ee"},"vehicle_type_id":"4","last_reported":1687097149,"current_range_meters":3600,"station_id":"ce4bgs92rcd13ifvqcc0","pricing_plan_id":"free"},{"bike_id":"9d997f51-8b4f-4066-8e74-38cb555e670c","system_id":"levelo_inurba_marseille","lat":43.31997,"lon":5.38151,"is_reserved":false,"is_disabled":false,"rental_uris":{"android":"levelo://app?vid=9d997f51-8b4f-4066-8e74-38cb555e670c","ios":"levelo://app?vid=9d997f51-8b4f-4066-8e74-38cb555e670c"},"vehicle_type_id":"4","last_reported":1687097149,"current_range_meters":11600,"station_id":"ce4bhr12rcd13ifvqhpg","pricing_plan_id":"free"},{"bike_id":"b3706de1-9323-48f9-bb33-478f7fa9a040","system_id":"levelo_inurba_marseille","lat":43.29957,"lon":5.36755,"is_reserved":false,"is_disabled":false,"rental_uris":{"android":"levelo://app?vid=b3706de1-9323-48f9-bb33-478f7fa9a040","ios":"levelo://app?vid=b3706de1-9323-48f9-bb33-478f7fa9a040"},"vehicle_type_id":"4","last_reported":1687097149,"current_range_meters":25600,"station_id":"","pricing_plan_id":"free"},{"bike_id":"1d47b2e2-b6b2-467e-89b2-30c2b3dd988b","system_id":"levelo_inurba_marseille","lat":43.31353,"lon":5.38513,"is_reserved":false,"is_disabled":false,"rental_uris":{"android":"levelo://app?vid=1d47b2e2-b6b2-467e-89b2-30c2b3dd988b","ios":"levelo://app?vid=1d47b2e2-b6b2-467e-89b2-30c2b3dd988b"},"vehicle_type_id":"4","last_reported":1687097149,"current_range_meters":11600,"station_id":"ce4bgt92rcd13ifvqcf0","pricing_plan_id":"free"},{"bike_id":"330412da-b9eb-49fa-9ba0-9288ee9ddd31","system_id":"levelo_inurba_marseille","lat":43.3004,"lon":5.37521,"is_reserved":false,"is_disabled":false,"rental_uris":{"android":"levelo://app?vid=330412da-b9eb-49fa-9ba0-9288ee9ddd31","ios":"levelo://app?vid=330412da-b9eb-49fa-9ba0-9288ee9ddd31"},"vehicle_type_id":"4","last_reported":1687097149,"current_range_meters":14400,"station_id":"","pricing_plan_id":"free"},{"bike_id":"26de6171-9838-47bd-824f-0ba55469082e","system_id":"levelo_inurba_marseille","lat":43.328371,"lon":5.366909,"is_reserved":false,"is_disabled":false,"rental_uris":{"android":"levelo://app?vid=26de6171-9838-47bd-824f-0ba55469082e","ios":"levelo://app?vid=26de6171-9838-47bd-824f-0ba55469082e"},"vehicle_type_id":"4","last_reported":1687097149,"current_range_meters":22400,"station_id":"ce4bhs92rcd13ifvqi0g","pricing_plan_id":"free"},{"bike_id":"6d5ccf33-759a-4c7a-af82-9f67388b4177","system_id":"levelo_inurba_marseille","lat":43.328371,"lon":5.366909,"is_reserved":false,"is_disabled":false,"rental_uris":{"android":"levelo://app?vid=6d5ccf33-759a-4c7a-af82-9f67388b4177","ios":"levelo://app?vid=6d5ccf33-759a-4c7a-af82-9f67388b4177"},"vehicle_type_id":"4","last_reported":1687097149,"current_range_meters":30400,"station_id":"ce4bhs92rcd13ifvqi0g","pricing_plan_id":"free"},{"bike_id":"dba9e30e-a749-43fa-a75b-51b691339771","system_id":"levelo_inurba_marseille","lat":43.328371,"lon":5.366909,"is_reserved":false,"is_disabled":false,"rental_uris":{"android":"levelo://app?vid=dba9e30e-a749-43fa-a75b-51b691339771","ios":"levelo://app?vid=dba9e30e-a749-43fa-a75b-51b691339771"},"vehicle_type_id":"4","last_reported":1687097149,"current_range_meters":30400,"station_id":"ce4bhs92rcd13ifvqi0g","pricing_plan_id":"free"},{"bike_id":"27e857a0-6074-435d-85c0-7fc3761f1cbb","system_id":"levelo_inurba_marseille","lat":43.328371,"lon":5.366909,"is_reserved":false,"is_disabled":false,"rental_uris":{"android":"levelo://app?vid=27e857a0-6074-435d-85c0-7fc3761f1cbb","ios":"levelo://app?vid=27e857a0-6074-435d-85c0-7fc3761f1cbb"},"vehicle_type_id":"4","last_reported":1687097149,"current_range_meters":29600,"station_id":"ce4bhs92rcd13ifvqi0g","pricing_plan_id":"free"},{"bike_id":"3b343a5c-8423-476a-a7c8-83278a85a66d","system_id":"levelo_inurba_marseille","lat":43.328371,"lon":5.366909,"is_reserved":false,"is_disabled":false,"rental_uris":{"android":"levelo://app?vid=3b343a5c-8423-476a-a7c8-83278a85a66d","ios":"levelo://app?vid=3b343a5c-8423-476a-a7c8-83278a85a66d"},"vehicle_type_id":"4","last_reported":1687097149,"current_range_meters":30000,"station_id":"ce4bhs92rcd13ifvqi0g","pricing_plan_id":"free"},{"bike_id":"78911849-321a-41c5-b67b-eefecdab885b","system_id":"levelo_inurba_marseille","lat":43.328371,"lon":5.366909,"is_reserved":false,"is_disabled":false,"rental_uris":{"android":"levelo://app?vid=78911849-321a-41c5-b67b-eefecdab885b","ios":"levelo://app?vid=78911849-321a-41c5-b67b-eefecdab885b"},"vehicle_type_id":"4","last_reported":1687097149,"current_range_meters":14000,"station_id":"ce4bhs92rcd13ifvqi0g","pricing_plan_id":"free"},{"bike_id":"c4c82479-60a6-4390-8970-3229e3eebb9c","system_id":"levelo_inurba_marseille","lat":43.328371,"lon":5.366909,"is_reserved":false,"is_disabled":false,"rental_uris":{"android":"levelo://app?vid=c4c82479-60a6-4390-8970-3229e3eebb9c","ios":"levelo://app?vid=c4c82479-60a6-4390-8970-3229e3eebb9c"},"vehicle_type_id":"4","last_reported":1687097149,"current_range_meters":19200,"station_id":"ce4bhs92rcd13ifvqi0g","pricing_plan_id":"free"},{"bike_id":"69bf5c29-7e5d-45c7-b1b2-514d42707ee7","system_id":"levelo_inurba_marseille","lat":43.328371,"lon":5.366909,"is_reserved":false,"is_disabled":false,"rental_uris":{"android":"levelo://app?vid=69bf5c29-7e5d-45c7-b1b2-514d42707ee7","ios":"levelo://app?vid=69bf5c29-7e5d-45c7-b1b2-514d42707ee7"},"vehicle_type_id":"4","last_reported":1687097149,"current_range_meters":30400,"station_id":"ce4bhs92rcd13ifvqi0g","pricing_plan_id":"free"},{"bike_id":"eb463cab-b54c-4ed2-a710-d6d777606789","system_id":"levelo_inurba_marseille","lat":43.32832,"lon":5.36685,"is_reserved":false,"is_disabled":false,"rental_uris":{"android":"levelo://app?vid=eb463cab-b54c-4ed2-a710-d6d777606789","ios":"levelo://app?vid=eb463cab-b54c-4ed2-a710-d6d777606789"},"vehicle_type_id":"4","last_reported":1687097149,"current_range_meters":17600,"station_id":"ce4bhs92rcd13ifvqi0g","pricing_plan_id":"free"},{"bike_id":"9e60ff88-fe04-4b70-9af4-05a83fe316c7","system_id":"levelo_inurba_marseille","lat":43.32833,"lon":5.36685,"is_reserved":false,"is_disabled":false,"rental_uris":{"android":"levelo://app?vid=9e60ff88-fe04-4b70-9af4-05a83fe316c7","ios":"levelo://app?vid=9e60ff88-fe04-4b70-9af4-05a83fe316c7"},"vehicle_type_id":"4","last_reported":1687097149,"current_range_meters":29200,"station_id":"ce4bhs92rcd13ifvqi0g","pricing_plan_id":"free"},{"bike_id":"7305d8d9-7d56-41c2-ae77-869303774f4d","system_id":"levelo_inurba_marseille","lat":43.328371,"lon":5.366909,"is_reserved":false,"is_disabled":false,"rental_uris":{"android":"levelo://app?vid=7305d8d9-7d56-41c2-ae77-869303774f4d","ios":"levelo://app?vid=7305d8d9-7d56-41c2-ae77-869303774f4d"},"vehicle_type_id":"4","last_reported":1687097149,"current_range_meters":15200,"station_id":"ce4bhs92rcd13ifvqi0g","pricing_plan_id":"free"},{"bike_id":"731cce5d-c725-402d-b941-54910a08f036","system_id":"levelo_inurba_marseille","lat":43.32834,"lon":5.36688,"is_reserved":false,"is_disabled":false,"rental_uris":{"android":"levelo://app?vid=731cce5d-c725-402d-b941-54910a08f036","ios":"levelo://app?vid=731cce5d-c725-402d-b941-54910a08f036"},"vehicle_type_id":"4","last_reported":1687097149,"current_range_meters":30000,"station_id":"ce4bhs92rcd13ifvqi0g","pricing_plan_id":"free"},{"bike_id":"01003604-ca83-4a0f-a050-81143b6da389","system_id":"levelo_inurba_marseille","lat":43.32835,"lon":5.36684,"is_reserved":false,"is_disabled":false,"rental_uris":{"android":"levelo://app?vid=01003604-ca83-4a0f-a050-81143b6da389","ios":"levelo://app?vid=01003604-ca83-4a0f-a050-81143b6da389"},"vehicle_type_id":"4","last_reported":1687097149,"current_range_meters":31200,"station_id":"ce4bhs92rcd13ifvqi0g","pricing_plan_id":"free"},{"bike_id":"176f4894-d7fc-460e-aa5d-7c8c1e206dc3","system_id":"levelo_inurba_marseille","lat":43.2971,"lon":5.366,"is_reserved":false,"is_disabled":false,"rental_uris":{"android":"levelo://app?vid=176f4894-d7fc-460e-aa5d-7c8c1e206dc3","ios":"levelo://app?vid=176f4894-d7fc-460e-aa5d-7c8c1e206dc3"},"vehicle_type_id":"4","last_reported":1687097149,"current_range_meters":11200,"station_id":"ce4bgn12rcd13ifvqbt0","pricing_plan_id":"free"},{"bike_id":"88d0330c-5bb0-4a19-9b65-d4683b42e015","system_id":"levelo_inurba_marseille","lat":43.29683,"lon":5.36046,"is_reserved":false,"is_disabled":false,"rental_uris":{"android":"levelo://app?vid=88d0330c-5bb0-4a19-9b65-d4683b42e015","ios":"levelo://app?vid=88d0330c-5bb0-4a19-9b65-d4683b42e015"},"vehicle_type_id":"4","last_reported":1687097149,"current_range_meters":2400,"station_id":"","pricing_plan_id":"free"},{"bike_id":"24f41ca5-b432-4feb-a0c8-a15026b97306","system_id":"levelo_inurba_marseille","lat":43.296131,"lon":5.370773,"is_reserved":false,"is_disabled":false,"rental_uris":{"android":"levelo://app?vid=24f41ca5-b432-4feb-a0c8-a15026b97306","ios":"levelo://app?vid=24f41ca5-b432-4feb-a0c8-a15026b97306"},"vehicle_type_id":"4","last_reported":1687097149,"current_range_meters":12000,"station_id":"ce4bgnh2rcd13ifvqc0g","pricing_plan_id":"free"},{"bike_id":"c8a7a2fc-8ac0-4e4d-8565-e3c05a896d42","system_id":"levelo_inurba_marseille","lat":43.299028,"lon":5.381509,"is_reserved":false,"is_disabled":false,"rental_uris":{"android":"levelo://app?vid=c8a7a2fc-8ac0-4e4d-8565-e3c05a896d42","ios":"levelo://app?vid=c8a7a2fc-8ac0-4e4d-8565-e3c05a896d42"},"vehicle_type_id":"4","last_reported":1687097149,"current_range_meters":9200,"station_id":"ce4bgj12rcd13ifvqbc0","pricing_plan_id":"free"},{"bike_id":"13f1b063-b997-411f-824b-ff374918fc77","system_id":"levelo_inurba_marseille","lat":43.296921,"lon":5.376579,"is_reserved":false,"is_disabled":false,"rental_uris":{"android":"levelo://app?vid=13f1b063-b997-411f-824b-ff374918fc77","ios":"levelo://app?vid=13f1b063-b997-411f-824b-ff374918fc77"},"vehicle_type_id":"4","last_reported":1687097149,"current_range_meters":23200,"station_id":"ce4bgkh2rcd13ifvqbl0","pricing_plan_id":"free"},{"bike_id":"24267563-a788-4a33-988f-d798af86af11","system_id":"levelo_inurba_marseille","lat":43.296935,"lon":5.376544,"is_reserved":false,"is_disabled":false,"rental_uris":{"android":"levelo://app?vid=24267563-a788-4a33-988f-d798af86af11","ios":"levelo://app?vid=24267563-a788-4a33-988f-d798af86af11"},"vehicle_type_id":"4","last_reported":1687097149,"current_range_meters":6800,"station_id":"ce4bgkh2rcd13ifvqbl0","pricing_plan_id":"free"},{"bike_id":"0c96cb82-4ca2-4221-ae40-9ddedf886024","system_id":"levelo_inurba_marseille","lat":43.296935,"lon":5.376544,"is_reserved":false,"is_disabled":false,"rental_uris":{"android":"levelo://app?vid=0c96cb82-4ca2-4221-ae40-9ddedf886024","ios":"levelo://app?vid=0c96cb82-4ca2-4221-ae40-9ddedf886024"},"vehicle_type_id":"4","last_reported":1687097149,"current_range_meters":22000,"station_id":"ce4bgkh2rcd13ifvqbl0","pricing_plan_id":"free"},{"bike_id":"5f28e6a9-7438-405b-a215-862e85115dd7","system_id":"levelo_inurba_marseille","lat":43.296935,"lon":5.376544,"is_reserved":false,"is_disabled":false,"rental_uris":{"android":"levelo://app?vid=5f28e6a9-7438-405b-a215-862e85115dd7","ios":"levelo://app?vid=5f28e6a9-7438-405b-a215-862e85115dd7"},"vehicle_type_id":"4","last_reported":1687097149,"current_range_meters":0,"station_id":"ce4bgkh2rcd13ifvqbl0","pricing_plan_id":"free"},{"bike_id":"7a9532c9-38c8-4ea4-957e-dd0f596b5f92","system_id":"levelo_inurba_marseille","lat":43.29702,"lon":5.37704,"is_reserved":false,"is_disabled":false,"rental_uris":{"android":"levelo://app?vid=7a9532c9-38c8-4ea4-957e-dd0f596b5f92","ios":"levelo://app?vid=7a9532c9-38c8-4ea4-957e-dd0f596b5f92"},"vehicle_type_id":"4","last_reported":1687097149,"current_range_meters":2000,"station_id":"","pricing_plan_id":"free"},{"bike_id":"dab115bf-1cab-4b8d-ad6a-67fda1d71234","system_id":"levelo_inurba_marseille","lat":43.31764,"lon":5.39013,"is_reserved":false,"is_disabled":false,"rental_uris":{"android":"levelo://app?vid=dab115bf-1cab-4b8d-ad6a-67fda1d71234","ios":"levelo://app?vid=dab115bf-1cab-4b8d-ad6a-67fda1d71234"},"vehicle_type_id":"4","last_reported":1687097149,"current_range_meters":24000,"station_id":"ce4bhqp2rcd13ifvqhng","pricing_plan_id":"free"},{"bike_id":"83f6075d-3e24-4cf1-a7cb-da5638440d94","system_id":"levelo_inurba_marseille","lat":43.31757,"lon":5.39019,"is_reserved":false,"is_disabled":false,"rental_uris":{"android":"levelo://app?vid=83f6075d-3e24-4cf1-a7cb-da5638440d94","ios":"levelo://app?vid=83f6075d-3e24-4cf1-a7cb-da5638440d94"},"vehicle_type_id":"4","last_reported":1687097149,"current_range_meters":19600,"station_id":"ce4bhqp2rcd13ifvqhng","pricing_plan_id":"free"},{"bike_id":"d89a6111-594c-4044-bab7-fa8ad5f81068","system_id":"levelo_inurba_marseille","lat":43.317557,"lon":5.390173,"is_reserved":false,"is_disabled":false,"rental_uris":{"android":"levelo://app?vid=d89a6111-594c-4044-bab7-fa8ad5f81068","ios":"levelo://app?vid=d89a6111-594c-4044-bab7-fa8ad5f81068"},"vehicle_type_id":"4","last_reported":1687097149,"current_range_meters":30400,"station_id":"ce4bhqp2rcd13ifvqhng","pricing_plan_id":"free"},{"bike_id":"4a10882c-7152-4233-bc08-3e7673adbd38","system_id":"levelo_inurba_marseille","lat":43.317557,"lon":5.390173,"is_reserved":false,"is_disabled":false,"rental_uris":{"android":"levelo://app?vid=4a10882c-7152-4233-bc08-3e7673adbd38","ios":"levelo://app?vid=4a10882c-7152-4233-bc08-3e7673adbd38"},"vehicle_type_id":"4","last_reported":1687097149,"current_range_meters":24400,"station_id":"ce4bhqp2rcd13ifvqhng","pricing_plan_id":"free"},{"bike_id":"e0970182-5fbd-4cab-9dde-f217992bea9f","system_id":"levelo_inurba_marseille","lat":43.295761,"lon":5.375029,"is_reserved":false,"is_disabled":false,"rental_uris":{"android":"levelo://app?vid=e0970182-5fbd-4cab-9dde-f217992bea9f","ios":"levelo://app?vid=e0970182-5fbd-4cab-9dde-f217992bea9f"},"vehicle_type_id":"4","last_reported":1687097149,"current_range_meters":16800,"station_id":"","pricing_plan_id":"free"},{"bike_id":"3c92efb3-868f-40bd-b7b3-e59d10346f80","system_id":"levelo_inurba_marseille","lat":43.304278,"lon":5.388868,"is_reserved":false,"is_disabled":false,"rental_uris":{"android":"levelo://app?vid=3c92efb3-868f-40bd-b7b3-e59d10346f80","ios":"levelo://app?vid=3c92efb3-868f-40bd-b7b3-e59d10346f80"},"vehicle_type_id":"4","last_reported":1687097149,"current_range_meters":10800,"station_id":"ce4bgk12rcd13ifvqbi0","pricing_plan_id":"free"},{"bike_id":"fd27287f-4fbe-4a7d-82a4-9d5155d222fe","system_id":"levelo_inurba_marseille","lat":43.295748,"lon":5.37522,"is_reserved":false,"is_disabled":false,"rental_uris":{"android":"levelo://app?vid=fd27287f-4fbe-4a7d-82a4-9d5155d222fe","ios":"levelo://app?vid=fd27287f-4fbe-4a7d-82a4-9d5155d222fe"},"vehicle_type_id":"4","last_reported":1687097149,"current_range_meters":20400,"station_id":"ce4bgh92rcd13ifvqb50","pricing_plan_id":"free"},{"bike_id":"250c8a96-8498-4211-b8f3-1b00a8d1fbaf","system_id":"levelo_inurba_marseille","lat":43.296477,"lon":5.37768,"is_reserved":false,"is_disabled":false,"rental_uris":{"android":"levelo://app?vid=250c8a96-8498-4211-b8f3-1b00a8d1fbaf","ios":"levelo://app?vid=250c8a96-8498-4211-b8f3-1b00a8d1fbaf"},"vehicle_type_id":"4","last_reported":1687097149,"current_range_meters":12400,"station_id":"","pricing_plan_id":"free"},{"bike_id":"7c83f1e7-2059-4b1e-a433-866c33e3e7d2","system_id":"levelo_inurba_marseille","lat":43.304278,"lon":5.388868,"is_reserved":false,"is_disabled":false,"rental_uris":{"android":"levelo://app?vid=7c83f1e7-2059-4b1e-a433-866c33e3e7d2","ios":"levelo://app?vid=7c83f1e7-2059-4b1e-a433-866c33e3e7d2"},"vehicle_type_id":"4","last_reported":1687097149,"current_range_meters":20800,"station_id":"ce4bgk12rcd13ifvqbi0","pricing_plan_id":"free"},{"bike_id":"eb56f040-d7e3-440c-9d05-82afe187dd21","system_id":"levelo_inurba_marseille","lat":43.299707,"lon":5.384859,"is_reserved":false,"is_disabled":false,"rental_uris":{"android":"levelo://app?vid=eb56f040-d7e3-440c-9d05-82afe187dd21","ios":"levelo://app?vid=eb56f040-d7e3-440c-9d05-82afe187dd21"},"vehicle_type_id":"4","last_reported":1687097149,"current_range_meters":28400,"station_id":"ce4bgj92rcd13ifvqbd0","pricing_plan_id":"free"},{"bike_id":"bb335696-9086-470f-9c5f-1244bc2e0b8f","system_id":"levelo_inurba_marseille","lat":43.299724,"lon":5.384848,"is_reserved":false,"is_disabled":false,"rental_uris":{"android":"levelo://app?vid=bb335696-9086-470f-9c5f-1244bc2e0b8f","ios":"levelo://app?vid=bb335696-9086-470f-9c5f-1244bc2e0b8f"},"vehicle_type_id":"4","last_reported":1687097149,"current_range_meters":27200,"station_id":"ce4bgj92rcd13ifvqbd0","pricing_plan_id":"free"},{"bike_id":"35fdc695-1367-45a2-b7df-0f681bb4b094","system_id":"levelo_inurba_marseille","lat":43.32365,"lon":5.38877,"is_reserved":false,"is_disabled":false,"rental_uris":{"android":"levelo://app?vid=35fdc695-1367-45a2-b7df-0f681bb4b094","ios":"levelo://app?vid=35fdc695-1367-45a2-b7df-0f681bb4b094"},"vehicle_type_id":"4","last_reported":1687097149,"current_range_meters":11200,"station_id":"ce4bhqp2rcd13ifvqhog","pricing_plan_id":"free"},{"bike_id":"ec20d355-e7bb-4dd1-9847-3fb64795c68e","system_id":"levelo_inurba_marseille","lat":43.32369,"lon":5.38882,"is_reserved":false,"is_disabled":false,"rental_uris":{"android":"levelo://app?vid=ec20d355-e7bb-4dd1-9847-3fb64795c68e","ios":"levelo://app?vid=ec20d355-e7bb-4dd1-9847-3fb64795c68e"},"vehicle_type_id":"4","last_reported":1687097149,"current_range_meters":25600,"station_id":"ce4bhqp2rcd13ifvqhog","pricing_plan_id":"free"},{"bike_id":"c25bbca6-334a-48c9-b2aa-c69eb97c9d81","system_id":"levelo_inurba_marseille","lat":43.32367,"lon":5.388836,"is_reserved":false,"is_disabled":false,"rental_uris":{"android":"levelo://app?vid=c25bbca6-334a-48c9-b2aa-c69eb97c9d81","ios":"levelo://app?vid=c25bbca6-334a-48c9-b2aa-c69eb97c9d81"},"vehicle_type_id":"4","last_reported":1687097149,"current_range_meters":29600,"station_id":"ce4bhqp2rcd13ifvqhog","pricing_plan_id":"free"},{"bike_id":"b15029e1-d36b-4d2d-b60a-0d94a52f5b53","system_id":"levelo_inurba_marseille","lat":43.300852,"lon":5.390859,"is_reserved":false,"is_disabled":false,"rental_uris":{"android":"levelo://app?vid=b15029e1-d36b-4d2d-b60a-0d94a52f5b53","ios":"levelo://app?vid=b15029e1-d36b-4d2d-b60a-0d94a52f5b53"},"vehicle_type_id":"4","last_reported":1687097149,"current_range_meters":30800,"station_id":"ce4bh192rcd13ifvqdb0","pricing_plan_id":"free"},{"bike_id":"eb935466-3f1b-420d-91b5-81632b4c689f","system_id":"levelo_inurba_marseille","lat":43.292311,"lon":5.360731,"is_reserved":false,"is_disabled":false,"rental_uris":{"android":"levelo://app?vid=eb935466-3f1b-420d-91b5-81632b4c689f","ios":"levelo://app?vid=eb935466-3f1b-420d-91b5-81632b4c689f"},"vehicle_type_id":"4","last_reported":1687097149,"current_range_meters":29600,"station_id":"ce4bhbh2rcd13ifvqeqg","pricing_plan_id":"free"},{"bike_id":"0c937c49-db6b-4d65-9909-660d67c5d613","system_id":"levelo_inurba_marseille","lat":43.298764,"lon":5.388973,"is_reserved":false,"is_disabled":false,"rental_uris":{"android":"levelo://app?vid=0c937c49-db6b-4d65-9909-660d67c5d613","ios":"levelo://app?vid=0c937c49-db6b-4d65-9909-660d67c5d613"},"vehicle_type_id":"4","last_reported":1687097149,"current_range_meters":6800,"station_id":"ce4bh392rcd13ifvqdl0","pricing_plan_id":"free"},{"bike_id":"2f075962-cfe7-4342-aac9-f3a4aa23cb14","system_id":"levelo_inurba_marseille","lat":43.309038,"lon":5.396546,"is_reserved":false,"is_disabled":false,"rental_uris":{"android":"levelo://app?vid=2f075962-cfe7-4342-aac9-f3a4aa23cb14","ios":"levelo://app?vid=2f075962-cfe7-4342-aac9-f3a4aa23cb14"},"vehicle_type_id":"4","last_reported":1687097149,"current_range_meters":28800,"station_id":"ce4bh012rcd13ifvqcv0","pricing_plan_id":"free"},{"bike_id":"3220ed84-5fc0-47a0-b882-1bd819b12bbc","system_id":"levelo_inurba_marseille","lat":43.29193,"lon":5.35803,"is_reserved":false,"is_disabled":false,"rental_uris":{"android":"levelo://app?vid=3220ed84-5fc0-47a0-b882-1bd819b12bbc","ios":"levelo://app?vid=3220ed84-5fc0-47a0-b882-1bd819b12bbc"},"vehicle_type_id":"4","last_reported":1687097149,"current_range_meters":16800,"station_id":"ce4bhb12rcd13ifvqel0","pricing_plan_id":"free"},{"bike_id":"2c9839ce-ae00-40e2-9764-c514d1717f87","system_id":"levelo_inurba_marseille","lat":43.29193,"lon":5.35795,"is_reserved":false,"is_disabled":false,"rental_uris":{"android":"levelo://app?vid=2c9839ce-ae00-40e2-9764-c514d1717f87","ios":"levelo://app?vid=2c9839ce-ae00-40e2-9764-c514d1717f87"},"vehicle_type_id":"4","last_reported":1687097149,"current_range_meters":29600,"station_id":"ce4bhb12rcd13ifvqel0","pricing_plan_id":"free"},{"bike_id":"8fc84afd-e5d4-43dc-a344-da20690d0945","system_id":"levelo_inurba_marseille","lat":43.2919,"lon":5.35795,"is_reserved":false,"is_disabled":false,"rental_uris":{"android":"levelo://app?vid=8fc84afd-e5d4-43dc-a344-da20690d0945","ios":"levelo://app?vid=8fc84afd-e5d4-43dc-a344-da20690d0945"},"vehicle_type_id":"4","last_reported":1687097149,"current_range_meters":14400,"station_id":"ce4bhb12rcd13ifvqel0","pricing_plan_id":"free"},{"bike_id":"8836ebcc-3005-4cfd-9fa8-862bf0a3413d","system_id":"levelo_inurba_marseille","lat":43.313291,"lon":5.396838,"is_reserved":false,"is_disabled":false,"rental_uris":{"android":"levelo://app?vid=8836ebcc-3005-4cfd-9fa8-862bf0a3413d","ios":"levelo://app?vid=8836ebcc-3005-4cfd-9fa8-862bf0a3413d"},"vehicle_type_id":"4","last_reported":1687097149,"current_range_meters":26800,"station_id":"ce4bgvp2rcd13ifvqcu0","pricing_plan_id":"free"},{"bike_id":"24925c22-5b2f-4d0f-a7b5-fa831fc8a340","system_id":"levelo_inurba_marseille","lat":43.29186,"lon":5.35794,"is_reserved":false,"is_disabled":false,"rental_uris":{"android":"levelo://app?vid=24925c22-5b2f-4d0f-a7b5-fa831fc8a340","ios":"levelo://app?vid=24925c22-5b2f-4d0f-a7b5-fa831fc8a340"},"vehicle_type_id":"4","last_reported":1687097149,"current_range_meters":17200,"station_id":"ce4bhb12rcd13ifvqel0","pricing_plan_id":"free"},{"bike_id":"49b47b48-bfcf-4039-9116-c0e8fea8220e","system_id":"levelo_inurba_marseille","lat":43.290511,"lon":5.359101,"is_reserved":false,"is_disabled":false,"rental_uris":{"android":"levelo://app?vid=49b47b48-bfcf-4039-9116-c0e8fea8220e","ios":"levelo://app?vid=49b47b48-bfcf-4039-9116-c0e8fea8220e"},"vehicle_type_id":"4","last_reported":1687097149,"current_range_meters":22800,"station_id":"ce4bhbh2rcd13ifvqeqg","pricing_plan_id":"free"},{"bike_id":"7aed5256-47b0-4b67-9580-ea98477d7ebc","system_id":"levelo_inurba_marseille","lat":43.290631,"lon":5.359244,"is_reserved":false,"is_disabled":false,"rental_uris":{"android":"levelo://app?vid=7aed5256-47b0-4b67-9580-ea98477d7ebc","ios":"levelo://app?vid=7aed5256-47b0-4b67-9580-ea98477d7ebc"},"vehicle_type_id":"4","last_reported":1687097149,"current_range_meters":3600,"station_id":"ce4bha92rcd13ifvqeg0","pricing_plan_id":"free"},{"bike_id":"6a8b856a-2769-4865-86dc-9a97782975f0","system_id":"levelo_inurba_marseille","lat":43.29039,"lon":5.35918,"is_reserved":false,"is_disabled":false,"rental_uris":{"android":"levelo://app?vid=6a8b856a-2769-4865-86dc-9a97782975f0","ios":"levelo://app?vid=6a8b856a-2769-4865-86dc-9a97782975f0"},"vehicle_type_id":"4","last_reported":1687097149,"current_range_meters":0,"station_id":"ce4bha92rcd13ifvqeg0","pricing_plan_id":"free"},{"bike_id":"cb224e0d-cd6b-467d-af98-93c09f527e0f","system_id":"levelo_inurba_marseille","lat":43.296921,"lon":5.376579,"is_reserved":false,"is_disabled":false,"rental_uris":{"android":"levelo://app?vid=cb224e0d-cd6b-467d-af98-93c09f527e0f","ios":"levelo://app?vid=cb224e0d-cd6b-467d-af98-93c09f527e0f"},"vehicle_type_id":"4","last_reported":1687097149,"current_range_meters":0,"station_id":"ce4bgkh2rcd13ifvqbl0","pricing_plan_id":"free"},{"bike_id":"f4fbb4cc-638c-4be3-b587-8b90b2ce0a2b","system_id":"levelo_inurba_marseille","lat":43.294153,"lon":5.386305,"is_reserved":false,"is_disabled":false,"rental_uris":{"android":"levelo://app?vid=f4fbb4cc-638c-4be3-b587-8b90b2ce0a2b","ios":"levelo://app?vid=f4fbb4cc-638c-4be3-b587-8b90b2ce0a2b"},"vehicle_type_id":"4","last_reported":1687097149,"current_range_meters":27200,"station_id":"ce4bh2h2rcd13ifvqdh0","pricing_plan_id":"free"},{"bike_id":"38eb09af-7166-42b9-865e-84246929498f","system_id":"levelo_inurba_marseille","lat":43.292642,"lon":5.384254,"is_reserved":false,"is_disabled":false,"rental_uris":{"android":"levelo://app?vid=38eb09af-7166-42b9-865e-84246929498f","ios":"levelo://app?vid=38eb09af-7166-42b9-865e-84246929498f"},"vehicle_type_id":"4","last_reported":1687097149,"current_range_meters":31200,"station_id":"ce4bh692rcd13ifvqea0","pricing_plan_id":"free"},{"bike_id":"b1cd4b74-7406-4e6b-9bcc-67680894267b","system_id":"levelo_inurba_marseille","lat":43.290104,"lon":5.356111,"is_reserved":false,"is_disabled":false,"rental_uris":{"android":"levelo://app?vid=b1cd4b74-7406-4e6b-9bcc-67680894267b","ios":"levelo://app?vid=b1cd4b74-7406-4e6b-9bcc-67680894267b"},"vehicle_type_id":"4","last_reported":1687097149,"current_range_meters":10000,"station_id":"ce4bhb92rcd13ifvqen0","pricing_plan_id":"free"},{"bike_id":"2c800126-8fca-446e-923d-c819d3830e75","system_id":"levelo_inurba_marseille","lat":43.295169,"lon":5.390426,"is_reserved":false,"is_disabled":false,"rental_uris":{"android":"levelo://app?vid=2c800126-8fca-446e-923d-c819d3830e75","ios":"levelo://app?vid=2c800126-8fca-446e-923d-c819d3830e75"},"vehicle_type_id":"4","last_reported":1687097149,"current_range_meters":28400,"station_id":"ce4bh3p2rcd13ifvqdp0","pricing_plan_id":"free"},{"bike_id":"b9b44b37-7edf-4ab6-8685-17eb58a26dbc","system_id":"levelo_inurba_marseille","lat":43.295169,"lon":5.390426,"is_reserved":false,"is_disabled":false,"rental_uris":{"android":"levelo://app?vid=b9b44b37-7edf-4ab6-8685-17eb58a26dbc","ios":"levelo://app?vid=b9b44b37-7edf-4ab6-8685-17eb58a26dbc"},"vehicle_type_id":"4","last_reported":1687097149,"current_range_meters":29200,"station_id":"ce4bh3p2rcd13ifvqdp0","pricing_plan_id":"free"},{"bike_id":"43ec5eb4-61ac-4dec-888b-2adf276f3a81","system_id":"levelo_inurba_marseille","lat":43.309371,"lon":5.401449,"is_reserved":false,"is_disabled":false,"rental_uris":{"android":"levelo://app?vid=43ec5eb4-61ac-4dec-888b-2adf276f3a81","ios":"levelo://app?vid=43ec5eb4-61ac-4dec-888b-2adf276f3a81"},"vehicle_type_id":"4","last_reported":1687097149,"current_range_meters":8400,"station_id":"ce4bgvp2rcd13ifvqct0","pricing_plan_id":"free"},{"bike_id":"c0fb8083-e02d-4dec-b1b9-fa095e6c5b75","system_id":"levelo_inurba_marseille","lat":43.337396,"lon":5.374526,"is_reserved":false,"is_disabled":false,"rental_uris":{"android":"levelo://app?vid=c0fb8083-e02d-4dec-b1b9-fa095e6c5b75","ios":"levelo://app?vid=c0fb8083-e02d-4dec-b1b9-fa095e6c5b75"},"vehicle_type_id":"4","last_reported":1687097149,"current_range_meters":0,"station_id":"ce4bhp92rcd13ifvqhag","pricing_plan_id":"free"},{"bike_id":"5185e25c-da39-4070-9511-45e9c4c27cfe","system_id":"levelo_inurba_marseille","lat":43.309371,"lon":5.401449,"is_reserved":false,"is_disabled":false,"rental_uris":{"android":"levelo://app?vid=5185e25c-da39-4070-9511-45e9c4c27cfe","ios":"levelo://app?vid=5185e25c-da39-4070-9511-45e9c4c27cfe"},"vehicle_type_id":"4","last_reported":1687097149,"current_range_meters":5600,"station_id":"ce4bgvp2rcd13ifvqct0","pricing_plan_id":"free"},{"bike_id":"b938e8bf-6c36-4584-bfda-f04edcd1f8e8","system_id":"levelo_inurba_marseille","lat":43.309371,"lon":5.401449,"is_reserved":false,"is_disabled":false,"rental_uris":{"android":"levelo://app?vid=b938e8bf-6c36-4584-bfda-f04edcd1f8e8","ios":"levelo://app?vid=b938e8bf-6c36-4584-bfda-f04edcd1f8e8"},"vehicle_type_id":"4","last_reported":1687097149,"current_range_meters":2800,"station_id":"ce4bgvp2rcd13ifvqct0","pricing_plan_id":"free"},{"bike_id":"26362f9b-fe06-4b77-ba5c-552c4693243a","system_id":"levelo_inurba_marseille","lat":43.309371,"lon":5.401449,"is_reserved":false,"is_disabled":false,"rental_uris":{"android":"levelo://app?vid=26362f9b-fe06-4b77-ba5c-552c4693243a","ios":"levelo://app?vid=26362f9b-fe06-4b77-ba5c-552c4693243a"},"vehicle_type_id":"4","last_reported":1687097149,"current_range_meters":15600,"station_id":"ce4bgvp2rcd13ifvqct0","pricing_plan_id":"free"},{"bike_id":"092d6150-8c6d-463b-9af7-96ce3d1ac226","system_id":"levelo_inurba_marseille","lat":43.309371,"lon":5.401449,"is_reserved":false,"is_disabled":false,"rental_uris":{"android":"levelo://app?vid=092d6150-8c6d-463b-9af7-96ce3d1ac226","ios":"levelo://app?vid=092d6150-8c6d-463b-9af7-96ce3d1ac226"},"vehicle_type_id":"4","last_reported":1687097149,"current_range_meters":21200,"station_id":"ce4bgvp2rcd13ifvqct0","pricing_plan_id":"free"},{"bike_id":"41a8749b-6d93-4d1b-8e52-c5f60f65ae7c","system_id":"levelo_inurba_marseille","lat":43.33752,"lon":5.37443,"is_reserved":false,"is_disabled":false,"rental_uris":{"android":"levelo://app?vid=41a8749b-6d93-4d1b-8e52-c5f60f65ae7c","ios":"levelo://app?vid=41a8749b-6d93-4d1b-8e52-c5f60f65ae7c"},"vehicle_type_id":"4","last_reported":1687097149,"current_range_meters":26800,"station_id":"","pricing_plan_id":"free"},{"bike_id":"5b3d7167-c206-47c8-a2da-08ae2ca8048e","system_id":"levelo_inurba_marseille","lat":43.30639,"lon":5.40091,"is_reserved":false,"is_disabled":false,"rental_uris":{"android":"levelo://app?vid=5b3d7167-c206-47c8-a2da-08ae2ca8048e","ios":"levelo://app?vid=5b3d7167-c206-47c8-a2da-08ae2ca8048e"},"vehicle_type_id":"4","last_reported":1687097149,"current_range_meters":5200,"station_id":"ce4bh112rcd13ifvqda0","pricing_plan_id":"free"},{"bike_id":"afee3908-76ba-475b-8506-a6a32036bfe3","system_id":"levelo_inurba_marseille","lat":43.286961,"lon":5.373785,"is_reserved":false,"is_disabled":false,"rental_uris":{"android":"levelo://app?vid=afee3908-76ba-475b-8506-a6a32036bfe3","ios":"levelo://app?vid=afee3908-76ba-475b-8506-a6a32036bfe3"},"vehicle_type_id":"4","last_reported":1687097149,"current_range_meters":21200,"station_id":"ce4bh3p2rcd13ifvqdq0","pricing_plan_id":"free"},{"bike_id":"646f7c3d-0c2c-482d-a4e5-2f554cdd8a1c","system_id":"levelo_inurba_marseille","lat":43.2987,"lon":5.39735,"is_reserved":false,"is_disabled":false,"rental_uris":{"android":"levelo://app?vid=646f7c3d-0c2c-482d-a4e5-2f554cdd8a1c","ios":"levelo://app?vid=646f7c3d-0c2c-482d-a4e5-2f554cdd8a1c"},"vehicle_type_id":"4","last_reported":1687097149,"current_range_meters":0,"station_id":"ce4bh0h2rcd13ifvqd50","pricing_plan_id":"free"},{"bike_id":"182bf2e2-e684-4b63-8758-2f5ab3e78ad2","system_id":"levelo_inurba_marseille","lat":43.286591,"lon":5.363346,"is_reserved":false,"is_disabled":false,"rental_uris":{"android":"levelo://app?vid=182bf2e2-e684-4b63-8758-2f5ab3e78ad2","ios":"levelo://app?vid=182bf2e2-e684-4b63-8758-2f5ab3e78ad2"},"vehicle_type_id":"4","last_reported":1687097149,"current_range_meters":22000,"station_id":"ce4bhah2rcd13ifvqej0","pricing_plan_id":"free"},{"bike_id":"e7d4cffe-c17e-42c2-9a23-9fd3a86554cc","system_id":"levelo_inurba_marseille","lat":43.286961,"lon":5.373785,"is_reserved":false,"is_disabled":false,"rental_uris":{"android":"levelo://app?vid=e7d4cffe-c17e-42c2-9a23-9fd3a86554cc","ios":"levelo://app?vid=e7d4cffe-c17e-42c2-9a23-9fd3a86554cc"},"vehicle_type_id":"4","last_reported":1687097149,"current_range_meters":6000,"station_id":"ce4bh3p2rcd13ifvqdq0","pricing_plan_id":"free"},{"bike_id":"cc563f55-0707-4beb-ba02-588ef0da71a2","system_id":"levelo_inurba_marseille","lat":43.28599,"lon":5.37064,"is_reserved":false,"is_disabled":false,"rental_uris":{"android":"levelo://app?vid=cc563f55-0707-4beb-ba02-588ef0da71a2","ios":"levelo://app?vid=cc563f55-0707-4beb-ba02-588ef0da71a2"},"vehicle_type_id":"4","last_reported":1687097149,"current_range_meters":30000,"station_id":"","pricing_plan_id":"free"},{"bike_id":"16ee64b8-ad9e-44e2-8699-a7f88cbaa75e","system_id":"levelo_inurba_marseille","lat":43.316517,"lon":5.404375,"is_reserved":false,"is_disabled":false,"rental_uris":{"android":"levelo://app?vid=16ee64b8-ad9e-44e2-8699-a7f88cbaa75e","ios":"levelo://app?vid=16ee64b8-ad9e-44e2-8699-a7f88cbaa75e"},"vehicle_type_id":"4","last_reported":1687097149,"current_range_meters":28400,"station_id":"ce4bh012rcd13ifvqd00","pricing_plan_id":"free"},{"bike_id":"70c1473b-715d-4ec6-b70e-9713b86ca1fe","system_id":"levelo_inurba_marseille","lat":43.284534,"lon":5.358662,"is_reserved":false,"is_disabled":false,"rental_uris":{"android":"levelo://app?vid=70c1473b-715d-4ec6-b70e-9713b86ca1fe","ios":"levelo://app?vid=70c1473b-715d-4ec6-b70e-9713b86ca1fe"},"vehicle_type_id":"4","last_reported":1687097149,"current_range_meters":16400,"station_id":"ce4bhah2rcd13ifvqei0","pricing_plan_id":"free"},{"bike_id":"cb82f7b4-a043-4e39-be66-b4b7697c997b","system_id":"levelo_inurba_marseille","lat":43.28621,"lon":5.35117,"is_reserved":false,"is_disabled":false,"rental_uris":{"android":"levelo://app?vid=cb82f7b4-a043-4e39-be66-b4b7697c997b","ios":"levelo://app?vid=cb82f7b4-a043-4e39-be66-b4b7697c997b"},"vehicle_type_id":"4","last_reported":1687097149,"current_range_meters":28400,"station_id":"ce4bhch2rcd13ifvqeug","pricing_plan_id":"free"},{"bike_id":"af8a55e4-5fd6-495c-9fab-05b01d873d72","system_id":"levelo_inurba_marseille","lat":43.285856,"lon":5.350771,"is_reserved":false,"is_disabled":false,"rental_uris":{"android":"levelo://app?vid=af8a55e4-5fd6-495c-9fab-05b01d873d72","ios":"levelo://app?vid=af8a55e4-5fd6-495c-9fab-05b01d873d72"},"vehicle_type_id":"4","last_reported":1687097149,"current_range_meters":31200,"station_id":"ce4bhch2rcd13ifvqeug","pricing_plan_id":"free"},{"bike_id":"5aa0ea34-43dd-4046-b5ef-67f2ff4c7f09","system_id":"levelo_inurba_marseille","lat":43.285856,"lon":5.350771,"is_reserved":false,"is_disabled":false,"rental_uris":{"android":"levelo://app?vid=5aa0ea34-43dd-4046-b5ef-67f2ff4c7f09","ios":"levelo://app?vid=5aa0ea34-43dd-4046-b5ef-67f2ff4c7f09"},"vehicle_type_id":"4","last_reported":1687097149,"current_range_meters":31200,"station_id":"ce4bhch2rcd13ifvqeug","pricing_plan_id":"free"},{"bike_id":"d07a3152-308e-4ec8-a03a-cb95ea8f7ad9","system_id":"levelo_inurba_marseille","lat":43.28617,"lon":5.35104,"is_reserved":false,"is_disabled":false,"rental_uris":{"android":"levelo://app?vid=d07a3152-308e-4ec8-a03a-cb95ea8f7ad9","ios":"levelo://app?vid=d07a3152-308e-4ec8-a03a-cb95ea8f7ad9"},"vehicle_type_id":"4","last_reported":1687097149,"current_range_meters":12400,"station_id":"ce4bhch2rcd13ifvqeug","pricing_plan_id":"free"},{"bike_id":"af4dd12b-1912-4e6d-b53a-039796841ae0","system_id":"levelo_inurba_marseille","lat":43.285856,"lon":5.350771,"is_reserved":false,"is_disabled":false,"rental_uris":{"android":"levelo://app?vid=af4dd12b-1912-4e6d-b53a-039796841ae0","ios":"levelo://app?vid=af4dd12b-1912-4e6d-b53a-039796841ae0"},"vehicle_type_id":"4","last_reported":1687097149,"current_range_meters":16400,"station_id":"ce4bhch2rcd13ifvqeug","pricing_plan_id":"free"},{"bike_id":"b2cd86dc-1d21-40a5-8635-2d11a45624ec","system_id":"levelo_inurba_marseille","lat":43.28616,"lon":5.35101,"is_reserved":false,"is_disabled":false,"rental_uris":{"android":"levelo://app?vid=b2cd86dc-1d21-40a5-8635-2d11a45624ec","ios":"levelo://app?vid=b2cd86dc-1d21-40a5-8635-2d11a45624ec"},"vehicle_type_id":"4","last_reported":1687097149,"current_range_meters":0,"station_id":"ce4bhch2rcd13ifvqeug","pricing_plan_id":"free"},{"bike_id":"39e623b4-d1e3-4704-a87c-afae73dfad65","system_id":"levelo_inurba_marseille","lat":43.28609,"lon":5.351,"is_reserved":false,"is_disabled":false,"rental_uris":{"android":"levelo://app?vid=39e623b4-d1e3-4704-a87c-afae73dfad65","ios":"levelo://app?vid=39e623b4-d1e3-4704-a87c-afae73dfad65"},"vehicle_type_id":"4","last_reported":1687097149,"current_range_meters":6800,"station_id":"ce4bhch2rcd13ifvqeug","pricing_plan_id":"free"},{"bike_id":"43275ef6-770c-4f0e-926c-1c3aecd7abec","system_id":"levelo_inurba_marseille","lat":43.287909,"lon":5.390554,"is_reserved":false,"is_disabled":false,"rental_uris":{"android":"levelo://app?vid=43275ef6-770c-4f0e-926c-1c3aecd7abec","ios":"levelo://app?vid=43275ef6-770c-4f0e-926c-1c3aecd7abec"},"vehicle_type_id":"4","last_reported":1687097149,"current_range_meters":12400,"station_id":"","pricing_plan_id":"free"},{"bike_id":"536b47a7-25f9-49cb-9608-1b3c49b68cf4","system_id":"levelo_inurba_marseille","lat":43.33713,"lon":5.39205,"is_reserved":false,"is_disabled":false,"rental_uris":{"android":"levelo://app?vid=536b47a7-25f9-49cb-9608-1b3c49b68cf4","ios":"levelo://app?vid=536b47a7-25f9-49cb-9608-1b3c49b68cf4"},"vehicle_type_id":"4","last_reported":1687097149,"current_range_meters":10000,"station_id":"","pricing_plan_id":"free"},{"bike_id":"4c7bb745-bc5b-4e15-ab18-6954b71e42f4","system_id":"levelo_inurba_marseille","lat":43.3227,"lon":5.40672,"is_reserved":false,"is_disabled":false,"rental_uris":{"android":"levelo://app?vid=4c7bb745-bc5b-4e15-ab18-6954b71e42f4","ios":"levelo://app?vid=4c7bb745-bc5b-4e15-ab18-6954b71e42f4"},"vehicle_type_id":"4","last_reported":1687097149,"current_range_meters":22800,"station_id":"","pricing_plan_id":"free"},{"bike_id":"00b4d942-d645-4a17-a320-9c02b5ecca68","system_id":"levelo_inurba_marseille","lat":43.288501,"lon":5.393087,"is_reserved":false,"is_disabled":false,"rental_uris":{"android":"levelo://app?vid=00b4d942-d645-4a17-a320-9c02b5ecca68","ios":"levelo://app?vid=00b4d942-d645-4a17-a320-9c02b5ecca68"},"vehicle_type_id":"4","last_reported":1687097149,"current_range_meters":21600,"station_id":"ce4bh2p2rcd13ifvqdi0","pricing_plan_id":"free"},{"bike_id":"16e5fedd-6e86-436a-a0a2-72c7cd60a6ea","system_id":"levelo_inurba_marseille","lat":43.32189,"lon":5.40761,"is_reserved":false,"is_disabled":false,"rental_uris":{"android":"levelo://app?vid=16e5fedd-6e86-436a-a0a2-72c7cd60a6ea","ios":"levelo://app?vid=16e5fedd-6e86-436a-a0a2-72c7cd60a6ea"},"vehicle_type_id":"4","last_reported":1687097149,"current_range_meters":31200,"station_id":"","pricing_plan_id":"free"},{"bike_id":"a2faeb74-c96c-4a11-b169-e5acc36ad081","system_id":"levelo_inurba_marseille","lat":43.28426,"lon":5.34986,"is_reserved":false,"is_disabled":false,"rental_uris":{"android":"levelo://app?vid=a2faeb74-c96c-4a11-b169-e5acc36ad081","ios":"levelo://app?vid=a2faeb74-c96c-4a11-b169-e5acc36ad081"},"vehicle_type_id":"4","last_reported":1687097149,"current_range_meters":27600,"station_id":"ce4bhbh2rcd13ifvqepg","pricing_plan_id":"free"},{"bike_id":"6c5b4e1b-0910-4a59-addf-87b009f879c1","system_id":"levelo_inurba_marseille","lat":43.28423,"lon":5.34986,"is_reserved":false,"is_disabled":false,"rental_uris":{"android":"levelo://app?vid=6c5b4e1b-0910-4a59-addf-87b009f879c1","ios":"levelo://app?vid=6c5b4e1b-0910-4a59-addf-87b009f879c1"},"vehicle_type_id":"4","last_reported":1687097149,"current_range_meters":5200,"station_id":"ce4bhbh2rcd13ifvqepg","pricing_plan_id":"free"},{"bike_id":"ae280e74-f758-40b4-824d-6dca93447e32","system_id":"levelo_inurba_marseille","lat":43.28423,"lon":5.34984,"is_reserved":false,"is_disabled":false,"rental_uris":{"android":"levelo://app?vid=ae280e74-f758-40b4-824d-6dca93447e32","ios":"levelo://app?vid=ae280e74-f758-40b4-824d-6dca93447e32"},"vehicle_type_id":"4","last_reported":1687097149,"current_range_meters":4000,"station_id":"ce4bhbh2rcd13ifvqepg","pricing_plan_id":"free"},{"bike_id":"ec5ff4d5-533d-41b0-b26d-ba38e72588a0","system_id":"levelo_inurba_marseille","lat":43.28421,"lon":5.34988,"is_reserved":false,"is_disabled":false,"rental_uris":{"android":"levelo://app?vid=ec5ff4d5-533d-41b0-b26d-ba38e72588a0","ios":"levelo://app?vid=ec5ff4d5-533d-41b0-b26d-ba38e72588a0"},"vehicle_type_id":"4","last_reported":1687097149,"current_range_meters":25600,"station_id":"ce4bhbh2rcd13ifvqepg","pricing_plan_id":"free"},{"bike_id":"82a21864-6176-49ca-946f-b8fa7aead590","system_id":"levelo_inurba_marseille","lat":43.28423,"lon":5.34981,"is_reserved":false,"is_disabled":false,"rental_uris":{"android":"levelo://app?vid=82a21864-6176-49ca-946f-b8fa7aead590","ios":"levelo://app?vid=82a21864-6176-49ca-946f-b8fa7aead590"},"vehicle_type_id":"4","last_reported":1687097149,"current_range_meters":13200,"station_id":"ce4bhbh2rcd13ifvqepg","pricing_plan_id":"free"},{"bike_id":"14a8657f-3935-4419-9435-21da568c9506","system_id":"levelo_inurba_marseille","lat":43.28423,"lon":5.34978,"is_reserved":false,"is_disabled":false,"rental_uris":{"android":"levelo://app?vid=14a8657f-3935-4419-9435-21da568c9506","ios":"levelo://app?vid=14a8657f-3935-4419-9435-21da568c9506"},"vehicle_type_id":"4","last_reported":1687097149,"current_range_meters":21600,"station_id":"ce4bhbh2rcd13ifvqepg","pricing_plan_id":"free"},{"bike_id":"c9ed2bbb-2cf9-4290-9db1-79f6a6a6bba3","system_id":"levelo_inurba_marseille","lat":43.28419,"lon":5.34988,"is_reserved":false,"is_disabled":false,"rental_uris":{"android":"levelo://app?vid=c9ed2bbb-2cf9-4290-9db1-79f6a6a6bba3","ios":"levelo://app?vid=c9ed2bbb-2cf9-4290-9db1-79f6a6a6bba3"},"vehicle_type_id":"4","last_reported":1687097149,"current_range_meters":26400,"station_id":"ce4bhbh2rcd13ifvqepg","pricing_plan_id":"free"},{"bike_id":"c1bb70da-fc31-4c38-bf00-c2baa8175000","system_id":"levelo_inurba_marseille","lat":43.28419,"lon":5.34986,"is_reserved":false,"is_disabled":false,"rental_uris":{"android":"levelo://app?vid=c1bb70da-fc31-4c38-bf00-c2baa8175000","ios":"levelo://app?vid=c1bb70da-fc31-4c38-bf00-c2baa8175000"},"vehicle_type_id":"4","last_reported":1687097149,"current_range_meters":23600,"station_id":"ce4bhbh2rcd13ifvqepg","pricing_plan_id":"free"},{"bike_id":"cfbe5c99-3ef1-467f-a9f4-775e0efe1777","system_id":"levelo_inurba_marseille","lat":43.2842,"lon":5.34982,"is_reserved":false,"is_disabled":false,"rental_uris":{"android":"levelo://app?vid=cfbe5c99-3ef1-467f-a9f4-775e0efe1777","ios":"levelo://app?vid=cfbe5c99-3ef1-467f-a9f4-775e0efe1777"},"vehicle_type_id":"4","last_reported":1687097149,"current_range_meters":25200,"station_id":"ce4bhbh2rcd13ifvqepg","pricing_plan_id":"free"},{"bike_id":"020520f0-0e75-4b63-8623-186056a13f54","system_id":"levelo_inurba_marseille","lat":43.28418,"lon":5.34984,"is_reserved":false,"is_disabled":false,"rental_uris":{"android":"levelo://app?vid=020520f0-0e75-4b63-8623-186056a13f54","ios":"levelo://app?vid=020520f0-0e75-4b63-8623-186056a13f54"},"vehicle_type_id":"4","last_reported":1687097149,"current_range_meters":29600,"station_id":"ce4bhbh2rcd13ifvqepg","pricing_plan_id":"free"},{"bike_id":"1a55a783-27b2-4926-906d-f42f27707d72","system_id":"levelo_inurba_marseille","lat":43.28418,"lon":5.34982,"is_reserved":false,"is_disabled":false,"rental_uris":{"android":"levelo://app?vid=1a55a783-27b2-4926-906d-f42f27707d72","ios":"levelo://app?vid=1a55a783-27b2-4926-906d-f42f27707d72"},"vehicle_type_id":"4","last_reported":1687097149,"current_range_meters":11600,"station_id":"ce4bhbh2rcd13ifvqepg","pricing_plan_id":"free"},{"bike_id":"635ae931-9a3f-4d23-b04c-b8b1393e54b5","system_id":"levelo_inurba_marseille","lat":43.28415,"lon":5.34989,"is_reserved":false,"is_disabled":false,"rental_uris":{"android":"levelo://app?vid=635ae931-9a3f-4d23-b04c-b8b1393e54b5","ios":"levelo://app?vid=635ae931-9a3f-4d23-b04c-b8b1393e54b5"},"vehicle_type_id":"4","last_reported":1687097149,"current_range_meters":18000,"station_id":"ce4bhbh2rcd13ifvqepg","pricing_plan_id":"free"},{"bike_id":"dade2c92-10e7-4f6c-8bba-b0f7edb7845d","system_id":"levelo_inurba_marseille","lat":43.28416,"lon":5.34985,"is_reserved":false,"is_disabled":false,"rental_uris":{"android":"levelo://app?vid=dade2c92-10e7-4f6c-8bba-b0f7edb7845d","ios":"levelo://app?vid=dade2c92-10e7-4f6c-8bba-b0f7edb7845d"},"vehicle_type_id":"4","last_reported":1687097149,"current_range_meters":15200,"station_id":"ce4bhbh2rcd13ifvqepg","pricing_plan_id":"free"},{"bike_id":"8c092103-b929-4007-a0ec-9988db866eb2","system_id":"levelo_inurba_marseille","lat":43.28414,"lon":5.34989,"is_reserved":false,"is_disabled":false,"rental_uris":{"android":"levelo://app?vid=8c092103-b929-4007-a0ec-9988db866eb2","ios":"levelo://app?vid=8c092103-b929-4007-a0ec-9988db866eb2"},"vehicle_type_id":"4","last_reported":1687097149,"current_range_meters":25200,"station_id":"ce4bhbh2rcd13ifvqepg","pricing_plan_id":"free"},{"bike_id":"cd2caf10-38cd-4f71-b4e5-a7165d8ef10c","system_id":"levelo_inurba_marseille","lat":43.28416,"lon":5.34982,"is_reserved":false,"is_disabled":false,"rental_uris":{"android":"levelo://app?vid=cd2caf10-38cd-4f71-b4e5-a7165d8ef10c","ios":"levelo://app?vid=cd2caf10-38cd-4f71-b4e5-a7165d8ef10c"},"vehicle_type_id":"4","last_reported":1687097149,"current_range_meters":8000,"station_id":"ce4bhbh2rcd13ifvqepg","pricing_plan_id":"free"},{"bike_id":"83883b4d-eef0-4b73-b6b8-8231a270118b","system_id":"levelo_inurba_marseille","lat":43.28413,"lon":5.34991,"is_reserved":false,"is_disabled":false,"rental_uris":{"android":"levelo://app?vid=83883b4d-eef0-4b73-b6b8-8231a270118b","ios":"levelo://app?vid=83883b4d-eef0-4b73-b6b8-8231a270118b"},"vehicle_type_id":"4","last_reported":1687097149,"current_range_meters":4400,"station_id":"ce4bhbh2rcd13ifvqepg","pricing_plan_id":"free"},{"bike_id":"1cfcbe6f-4d11-4b7c-86f6-997ae291f414","system_id":"levelo_inurba_marseille","lat":43.28418,"lon":5.34974,"is_reserved":false,"is_disabled":false,"rental_uris":{"android":"levelo://app?vid=1cfcbe6f-4d11-4b7c-86f6-997ae291f414","ios":"levelo://app?vid=1cfcbe6f-4d11-4b7c-86f6-997ae291f414"},"vehicle_type_id":"4","last_reported":1687097149,"current_range_meters":25600,"station_id":"ce4bhbh2rcd13ifvqepg","pricing_plan_id":"free"},{"bike_id":"292db270-d322-41f1-8752-c3c358872b40","system_id":"levelo_inurba_marseille","lat":43.28416,"lon":5.3498,"is_reserved":false,"is_disabled":false,"rental_uris":{"android":"levelo://app?vid=292db270-d322-41f1-8752-c3c358872b40","ios":"levelo://app?vid=292db270-d322-41f1-8752-c3c358872b40"},"vehicle_type_id":"4","last_reported":1687097149,"current_range_meters":10000,"station_id":"ce4bhbh2rcd13ifvqepg","pricing_plan_id":"free"},{"bike_id":"8ae84b9d-7089-4489-b59c-9d6c7550da2f","system_id":"levelo_inurba_marseille","lat":43.28415,"lon":5.34983,"is_reserved":false,"is_disabled":false,"rental_uris":{"android":"levelo://app?vid=8ae84b9d-7089-4489-b59c-9d6c7550da2f","ios":"levelo://app?vid=8ae84b9d-7089-4489-b59c-9d6c7550da2f"},"vehicle_type_id":"4","last_reported":1687097149,"current_range_meters":10000,"station_id":"ce4bhbh2rcd13ifvqepg","pricing_plan_id":"free"},{"bike_id":"993d371b-6c26-4745-906a-24b67da885b9","system_id":"levelo_inurba_marseille","lat":43.28413,"lon":5.34984,"is_reserved":false,"is_disabled":false,"rental_uris":{"android":"levelo://app?vid=993d371b-6c26-4745-906a-24b67da885b9","ios":"levelo://app?vid=993d371b-6c26-4745-906a-24b67da885b9"},"vehicle_type_id":"4","last_reported":1687097149,"current_range_meters":0,"station_id":"ce4bhbh2rcd13ifvqepg","pricing_plan_id":"free"},{"bike_id":"0b31536c-f71a-4a25-a5ad-1803f890fac0","system_id":"levelo_inurba_marseille","lat":43.284217,"lon":5.349697,"is_reserved":false,"is_disabled":false,"rental_uris":{"android":"levelo://app?vid=0b31536c-f71a-4a25-a5ad-1803f890fac0","ios":"levelo://app?vid=0b31536c-f71a-4a25-a5ad-1803f890fac0"},"vehicle_type_id":"4","last_reported":1687097149,"current_range_meters":31200,"station_id":"ce4bhbh2rcd13ifvqepg","pricing_plan_id":"free"},{"bike_id":"d693c1c7-2ae9-4444-9d13-cdfe5137ebd3","system_id":"levelo_inurba_marseille","lat":43.284217,"lon":5.349697,"is_reserved":false,"is_disabled":false,"rental_uris":{"android":"levelo://app?vid=d693c1c7-2ae9-4444-9d13-cdfe5137ebd3","ios":"levelo://app?vid=d693c1c7-2ae9-4444-9d13-cdfe5137ebd3"},"vehicle_type_id":"4","last_reported":1687097149,"current_range_meters":23200,"station_id":"ce4bhbh2rcd13ifvqepg","pricing_plan_id":"free"},{"bike_id":"a6e53a1a-a539-4421-824c-86f33a43535f","system_id":"levelo_inurba_marseille","lat":43.28412,"lon":5.34979,"is_reserved":false,"is_disabled":false,"rental_uris":{"android":"levelo://app?vid=a6e53a1a-a539-4421-824c-86f33a43535f","ios":"levelo://app?vid=a6e53a1a-a539-4421-824c-86f33a43535f"},"vehicle_type_id":"4","last_reported":1687097149,"current_range_meters":23200,"station_id":"ce4bhbh2rcd13ifvqepg","pricing_plan_id":"free"},{"bike_id":"eeac6fa4-7dd3-4b57-8aaf-a8de951b43fa","system_id":"levelo_inurba_marseille","lat":43.2841,"lon":5.34981,"is_reserved":false,"is_disabled":false,"rental_uris":{"android":"levelo://app?vid=eeac6fa4-7dd3-4b57-8aaf-a8de951b43fa","ios":"levelo://app?vid=eeac6fa4-7dd3-4b57-8aaf-a8de951b43fa"},"vehicle_type_id":"4","last_reported":1687097149,"current_range_meters":14000,"station_id":"ce4bhbh2rcd13ifvqepg","pricing_plan_id":"free"},{"bike_id":"b6309981-ffb2-480a-a0c6-98099542d55a","system_id":"levelo_inurba_marseille","lat":43.28407,"lon":5.34988,"is_reserved":false,"is_disabled":false,"rental_uris":{"android":"levelo://app?vid=b6309981-ffb2-480a-a0c6-98099542d55a","ios":"levelo://app?vid=b6309981-ffb2-480a-a0c6-98099542d55a"},"vehicle_type_id":"4","last_reported":1687097149,"current_range_meters":26000,"station_id":"ce4bhbh2rcd13ifvqepg","pricing_plan_id":"free"},{"bike_id":"c3a62e98-7da5-4621-a4a9-b5b43ef1b7e3","system_id":"levelo_inurba_marseille","lat":43.2841,"lon":5.34977,"is_reserved":false,"is_disabled":false,"rental_uris":{"android":"levelo://app?vid=c3a62e98-7da5-4621-a4a9-b5b43ef1b7e3","ios":"levelo://app?vid=c3a62e98-7da5-4621-a4a9-b5b43ef1b7e3"},"vehicle_type_id":"4","last_reported":1687097149,"current_range_meters":23600,"station_id":"ce4bhbh2rcd13ifvqepg","pricing_plan_id":"free"},{"bike_id":"aba29aaf-bbd0-4941-922b-176a349ae6a6","system_id":"levelo_inurba_marseille","lat":43.28407,"lon":5.34984,"is_reserved":false,"is_disabled":false,"rental_uris":{"android":"levelo://app?vid=aba29aaf-bbd0-4941-922b-176a349ae6a6","ios":"levelo://app?vid=aba29aaf-bbd0-4941-922b-176a349ae6a6"},"vehicle_type_id":"4","last_reported":1687097149,"current_range_meters":31200,"station_id":"ce4bhbh2rcd13ifvqepg","pricing_plan_id":"free"},{"bike_id":"f67c73a5-f935-45cf-af94-14603ae3ecae","system_id":"levelo_inurba_marseille","lat":43.28407,"lon":5.34979,"is_reserved":false,"is_disabled":false,"rental_uris":{"android":"levelo://app?vid=f67c73a5-f935-45cf-af94-14603ae3ecae","ios":"levelo://app?vid=f67c73a5-f935-45cf-af94-14603ae3ecae"},"vehicle_type_id":"4","last_reported":1687097149,"current_range_meters":24400,"station_id":"ce4bhbh2rcd13ifvqepg","pricing_plan_id":"free"},{"bike_id":"a7d33374-b144-41aa-a2a2-e2f6c4a37c6e","system_id":"levelo_inurba_marseille","lat":43.28405,"lon":5.3498,"is_reserved":false,"is_disabled":false,"rental_uris":{"android":"levelo://app?vid=a7d33374-b144-41aa-a2a2-e2f6c4a37c6e","ios":"levelo://app?vid=a7d33374-b144-41aa-a2a2-e2f6c4a37c6e"},"vehicle_type_id":"4","last_reported":1687097149,"current_range_meters":6400,"station_id":"ce4bhbh2rcd13ifvqepg","pricing_plan_id":"free"},{"bike_id":"9a5d6119-45b7-478d-b951-31d9b00cba7a","system_id":"levelo_inurba_marseille","lat":43.282754,"lon":5.350519,"is_reserved":false,"is_disabled":false,"rental_uris":{"android":"levelo://app?vid=9a5d6119-45b7-478d-b951-31d9b00cba7a","ios":"levelo://app?vid=9a5d6119-45b7-478d-b951-31d9b00cba7a"},"vehicle_type_id":"4","last_reported":1687097149,"current_range_meters":24800,"station_id":"ce4bhbp2rcd13ifvqerg","pricing_plan_id":"free"},{"bike_id":"ce702260-8414-4be4-89a4-c56478109d6e","system_id":"levelo_inurba_marseille","lat":43.282754,"lon":5.350519,"is_reserved":false,"is_disabled":false,"rental_uris":{"android":"levelo://app?vid=ce702260-8414-4be4-89a4-c56478109d6e","ios":"levelo://app?vid=ce702260-8414-4be4-89a4-c56478109d6e"},"vehicle_type_id":"4","last_reported":1687097149,"current_range_meters":4000,"station_id":"ce4bhbp2rcd13ifvqerg","pricing_plan_id":"free"},{"bike_id":"1d92279f-9a27-4aa2-998a-564289b7884e","system_id":"levelo_inurba_marseille","lat":43.28272,"lon":5.35062,"is_reserved":false,"is_disabled":false,"rental_uris":{"android":"levelo://app?vid=1d92279f-9a27-4aa2-998a-564289b7884e","ios":"levelo://app?vid=1d92279f-9a27-4aa2-998a-564289b7884e"},"vehicle_type_id":"4","last_reported":1687097149,"current_range_meters":12000,"station_id":"ce4bhbp2rcd13ifvqerg","pricing_plan_id":"free"},{"bike_id":"72fb000d-738c-43cb-9874-5a92fc6f4bc1","system_id":"levelo_inurba_marseille","lat":43.2827,"lon":5.35067,"is_reserved":false,"is_disabled":false,"rental_uris":{"android":"levelo://app?vid=72fb000d-738c-43cb-9874-5a92fc6f4bc1","ios":"levelo://app?vid=72fb000d-738c-43cb-9874-5a92fc6f4bc1"},"vehicle_type_id":"4","last_reported":1687097149,"current_range_meters":3600,"station_id":"ce4bhbp2rcd13ifvqerg","pricing_plan_id":"free"},{"bike_id":"1b1e3efe-35e2-47e5-895e-6d22b9ad2415","system_id":"levelo_inurba_marseille","lat":43.28272,"lon":5.3506,"is_reserved":false,"is_disabled":false,"rental_uris":{"android":"levelo://app?vid=1b1e3efe-35e2-47e5-895e-6d22b9ad2415","ios":"levelo://app?vid=1b1e3efe-35e2-47e5-895e-6d22b9ad2415"},"vehicle_type_id":"4","last_reported":1687097149,"current_range_meters":16400,"station_id":"ce4bhbp2rcd13ifvqerg","pricing_plan_id":"free"},{"bike_id":"b32321d1-a987-44d2-90ad-26a237dcc2ee","system_id":"levelo_inurba_marseille","lat":43.282754,"lon":5.350519,"is_reserved":false,"is_disabled":false,"rental_uris":{"android":"levelo://app?vid=b32321d1-a987-44d2-90ad-26a237dcc2ee","ios":"levelo://app?vid=b32321d1-a987-44d2-90ad-26a237dcc2ee"},"vehicle_type_id":"4","last_reported":1687097149,"current_range_meters":31600,"station_id":"ce4bhbp2rcd13ifvqerg","pricing_plan_id":"free"},{"bike_id":"8b7cb732-2b4b-47df-81d6-0d9c118a430b","system_id":"levelo_inurba_marseille","lat":43.28267,"lon":5.35068,"is_reserved":false,"is_disabled":false,"rental_uris":{"android":"levelo://app?vid=8b7cb732-2b4b-47df-81d6-0d9c118a430b","ios":"levelo://app?vid=8b7cb732-2b4b-47df-81d6-0d9c118a430b"},"vehicle_type_id":"4","last_reported":1687097149,"current_range_meters":2400,"station_id":"ce4bhbp2rcd13ifvqerg","pricing_plan_id":"free"},{"bike_id":"7d5448c6-10c5-4b30-aa86-7af2672dadb3","system_id":"levelo_inurba_marseille","lat":43.28269,"lon":5.35059,"is_reserved":false,"is_disabled":false,"rental_uris":{"android":"levelo://app?vid=7d5448c6-10c5-4b30-aa86-7af2672dadb3","ios":"levelo://app?vid=7d5448c6-10c5-4b30-aa86-7af2672dadb3"},"vehicle_type_id":"4","last_reported":1687097149,"current_range_meters":0,"station_id":"ce4bhbp2rcd13ifvqerg","pricing_plan_id":"free"},{"bike_id":"a30eeb3d-9830-4097-a3ac-69e307fede43","system_id":"levelo_inurba_marseille","lat":43.28263,"lon":5.35073,"is_reserved":false,"is_disabled":false,"rental_uris":{"android":"levelo://app?vid=a30eeb3d-9830-4097-a3ac-69e307fede43","ios":"levelo://app?vid=a30eeb3d-9830-4097-a3ac-69e307fede43"},"vehicle_type_id":"4","last_reported":1687097149,"current_range_meters":22000,"station_id":"ce4bhbp2rcd13ifvqerg","pricing_plan_id":"free"},{"bike_id":"85f9cfde-e033-4454-906a-2dc1c3e8f79d","system_id":"levelo_inurba_marseille","lat":43.28264,"lon":5.35069,"is_reserved":false,"is_disabled":false,"rental_uris":{"android":"levelo://app?vid=85f9cfde-e033-4454-906a-2dc1c3e8f79d","ios":"levelo://app?vid=85f9cfde-e033-4454-906a-2dc1c3e8f79d"},"vehicle_type_id":"4","last_reported":1687097149,"current_range_meters":2800,"station_id":"ce4bhbp2rcd13ifvqerg","pricing_plan_id":"free"},{"bike_id":"0748849c-9e9e-4411-a6f5-fccc6d3dd540","system_id":"levelo_inurba_marseille","lat":43.28263,"lon":5.3507,"is_reserved":false,"is_disabled":false,"rental_uris":{"android":"levelo://app?vid=0748849c-9e9e-4411-a6f5-fccc6d3dd540","ios":"levelo://app?vid=0748849c-9e9e-4411-a6f5-fccc6d3dd540"},"vehicle_type_id":"4","last_reported":1687097149,"current_range_meters":9600,"station_id":"ce4bhbp2rcd13ifvqerg","pricing_plan_id":"free"},{"bike_id":"86c0737c-259e-4a44-88b2-4bc8a92ca8ce","system_id":"levelo_inurba_marseille","lat":43.282754,"lon":5.350519,"is_reserved":false,"is_disabled":false,"rental_uris":{"android":"levelo://app?vid=86c0737c-259e-4a44-88b2-4bc8a92ca8ce","ios":"levelo://app?vid=86c0737c-259e-4a44-88b2-4bc8a92ca8ce"},"vehicle_type_id":"4","last_reported":1687097149,"current_range_meters":30800,"station_id":"ce4bhbp2rcd13ifvqerg","pricing_plan_id":"free"},{"bike_id":"18e5caf0-5139-47a4-8a52-cf3fa80adf23","system_id":"levelo_inurba_marseille","lat":43.28261,"lon":5.35068,"is_reserved":false,"is_disabled":false,"rental_uris":{"android":"levelo://app?vid=18e5caf0-5139-47a4-8a52-cf3fa80adf23","ios":"levelo://app?vid=18e5caf0-5139-47a4-8a52-cf3fa80adf23"},"vehicle_type_id":"4","last_reported":1687097149,"current_range_meters":4800,"station_id":"ce4bhbp2rcd13ifvqerg","pricing_plan_id":"free"},{"bike_id":"8aefcc0e-44df-4193-8c76-ff799b4ffbd2","system_id":"levelo_inurba_marseille","lat":43.281044,"lon":5.378308,"is_reserved":false,"is_disabled":false,"rental_uris":{"android":"levelo://app?vid=8aefcc0e-44df-4193-8c76-ff799b4ffbd2","ios":"levelo://app?vid=8aefcc0e-44df-4193-8c76-ff799b4ffbd2"},"vehicle_type_id":"4","last_reported":1687097149,"current_range_meters":19200,"station_id":"ce4bha12rcd13ifvqee0","pricing_plan_id":"free"},{"bike_id":"e7271946-a009-46f3-8602-5b23aab5c9c1","system_id":"levelo_inurba_marseille","lat":43.281044,"lon":5.378308,"is_reserved":false,"is_disabled":false,"rental_uris":{"android":"levelo://app?vid=e7271946-a009-46f3-8602-5b23aab5c9c1","ios":"levelo://app?vid=e7271946-a009-46f3-8602-5b23aab5c9c1"},"vehicle_type_id":"4","last_reported":1687097149,"current_range_meters":13200,"station_id":"ce4bha12rcd13ifvqee0","pricing_plan_id":"free"},{"bike_id":"91d6d1b3-a8e9-4bbd-8ce5-29a45a173381","system_id":"levelo_inurba_marseille","lat":43.281044,"lon":5.378308,"is_reserved":false,"is_disabled":false,"rental_uris":{"android":"levelo://app?vid=91d6d1b3-a8e9-4bbd-8ce5-29a45a173381","ios":"levelo://app?vid=91d6d1b3-a8e9-4bbd-8ce5-29a45a173381"},"vehicle_type_id":"4","last_reported":1687097149,"current_range_meters":13600,"station_id":"ce4bha12rcd13ifvqee0","pricing_plan_id":"free"},{"bike_id":"66a902dc-f8d6-4a1c-a8f9-95327fb8d5c1","system_id":"levelo_inurba_marseille","lat":43.285742,"lon":5.395004,"is_reserved":false,"is_disabled":false,"rental_uris":{"android":"levelo://app?vid=66a902dc-f8d6-4a1c-a8f9-95327fb8d5c1","ios":"levelo://app?vid=66a902dc-f8d6-4a1c-a8f9-95327fb8d5c1"},"vehicle_type_id":"4","last_reported":1687097149,"current_range_meters":24800,"station_id":"ce4bh292rcd13ifvqdg0","pricing_plan_id":"free"},{"bike_id":"9766cb4a-9fcc-4d8d-9a29-1ae01d5a26ea","system_id":"levelo_inurba_marseille","lat":43.326605,"lon":5.409903,"is_reserved":false,"is_disabled":false,"rental_uris":{"android":"levelo://app?vid=9766cb4a-9fcc-4d8d-9a29-1ae01d5a26ea","ios":"levelo://app?vid=9766cb4a-9fcc-4d8d-9a29-1ae01d5a26ea"},"vehicle_type_id":"4","last_reported":1687097149,"current_range_meters":31200,"station_id":"ce4bhpp2rcd13ifvqhgg","pricing_plan_id":"free"},{"bike_id":"6868f38c-a653-49bb-a520-908ebc1c81f6","system_id":"levelo_inurba_marseille","lat":43.326605,"lon":5.409903,"is_reserved":false,"is_disabled":false,"rental_uris":{"android":"levelo://app?vid=6868f38c-a653-49bb-a520-908ebc1c81f6","ios":"levelo://app?vid=6868f38c-a653-49bb-a520-908ebc1c81f6"},"vehicle_type_id":"4","last_reported":1687097149,"current_range_meters":30400,"station_id":"ce4bhpp2rcd13ifvqhgg","pricing_plan_id":"free"},{"bike_id":"672ca5d9-8b55-4ab1-836e-86961f106880","system_id":"levelo_inurba_marseille","lat":43.32658,"lon":5.4099,"is_reserved":false,"is_disabled":false,"rental_uris":{"android":"levelo://app?vid=672ca5d9-8b55-4ab1-836e-86961f106880","ios":"levelo://app?vid=672ca5d9-8b55-4ab1-836e-86961f106880"},"vehicle_type_id":"4","last_reported":1687097149,"current_range_meters":29600,"station_id":"ce4bhpp2rcd13ifvqhgg","pricing_plan_id":"free"},{"bike_id":"a3da8216-1249-455b-b949-9e5893b42718","system_id":"levelo_inurba_marseille","lat":43.326605,"lon":5.409903,"is_reserved":false,"is_disabled":false,"rental_uris":{"android":"levelo://app?vid=a3da8216-1249-455b-b949-9e5893b42718","ios":"levelo://app?vid=a3da8216-1249-455b-b949-9e5893b42718"},"vehicle_type_id":"4","last_reported":1687097149,"current_range_meters":25600,"station_id":"ce4bhpp2rcd13ifvqhgg","pricing_plan_id":"free"},{"bike_id":"b2b65354-3e36-403e-8293-88ee78f9f4b8","system_id":"levelo_inurba_marseille","lat":43.304188,"lon":5.412904,"is_reserved":false,"is_disabled":false,"rental_uris":{"android":"levelo://app?vid=b2b65354-3e36-403e-8293-88ee78f9f4b8","ios":"levelo://app?vid=b2b65354-3e36-403e-8293-88ee78f9f4b8"},"vehicle_type_id":"4","last_reported":1687097149,"current_range_meters":21200,"station_id":"ce4bhop2rcd13ifvqh8g","pricing_plan_id":"free"},{"bike_id":"ef97bda6-d355-48ae-912e-22439489a3c1","system_id":"levelo_inurba_marseille","lat":43.27904,"lon":5.38007,"is_reserved":false,"is_disabled":false,"rental_uris":{"android":"levelo://app?vid=ef97bda6-d355-48ae-912e-22439489a3c1","ios":"levelo://app?vid=ef97bda6-d355-48ae-912e-22439489a3c1"},"vehicle_type_id":"4","last_reported":1687097149,"current_range_meters":4000,"station_id":"","pricing_plan_id":"free"},{"bike_id":"caf7edf8-d236-4365-979c-05240ed8b706","system_id":"levelo_inurba_marseille","lat":43.287154,"lon":5.399979,"is_reserved":false,"is_disabled":false,"rental_uris":{"android":"levelo://app?vid=caf7edf8-d236-4365-979c-05240ed8b706","ios":"levelo://app?vid=caf7edf8-d236-4365-979c-05240ed8b706"},"vehicle_type_id":"4","last_reported":1687097149,"current_range_meters":8000,"station_id":"ce4bho92rcd13ifvqh3g","pricing_plan_id":"free"},{"bike_id":"018d5ec3-5548-45a8-8e78-baf7b4868277","system_id":"levelo_inurba_marseille","lat":43.287154,"lon":5.399979,"is_reserved":false,"is_disabled":false,"rental_uris":{"android":"levelo://app?vid=018d5ec3-5548-45a8-8e78-baf7b4868277","ios":"levelo://app?vid=018d5ec3-5548-45a8-8e78-baf7b4868277"},"vehicle_type_id":"4","last_reported":1687097149,"current_range_meters":31200,"station_id":"ce4bho92rcd13ifvqh3g","pricing_plan_id":"free"},{"bike_id":"34b57171-85d3-4e48-943a-a35e23d42cf9","system_id":"levelo_inurba_marseille","lat":43.32054,"lon":5.41532,"is_reserved":false,"is_disabled":false,"rental_uris":{"android":"levelo://app?vid=34b57171-85d3-4e48-943a-a35e23d42cf9","ios":"levelo://app?vid=34b57171-85d3-4e48-943a-a35e23d42cf9"},"vehicle_type_id":"4","last_reported":1687097149,"current_range_meters":27600,"station_id":"ce4bhq92rcd13ifvqhkg","pricing_plan_id":"free"},{"bike_id":"70b89e08-0cf2-4364-bde6-cad337de2cb7","system_id":"levelo_inurba_marseille","lat":43.299577,"lon":5.413277,"is_reserved":false,"is_disabled":false,"rental_uris":{"android":"levelo://app?vid=70b89e08-0cf2-4364-bde6-cad337de2cb7","ios":"levelo://app?vid=70b89e08-0cf2-4364-bde6-cad337de2cb7"},"vehicle_type_id":"4","last_reported":1687097149,"current_range_meters":27200,"station_id":"ce4bhp12rcd13ifvqh9g","pricing_plan_id":"free"},{"bike_id":"493bc7f7-8247-4d14-81cf-12c6de799e07","system_id":"levelo_inurba_marseille","lat":43.32052,"lon":5.41545,"is_reserved":false,"is_disabled":false,"rental_uris":{"android":"levelo://app?vid=493bc7f7-8247-4d14-81cf-12c6de799e07","ios":"levelo://app?vid=493bc7f7-8247-4d14-81cf-12c6de799e07"},"vehicle_type_id":"4","last_reported":1687097149,"current_range_meters":31200,"station_id":"ce4bhq92rcd13ifvqhkg","pricing_plan_id":"free"},{"bike_id":"b9340faf-573b-4c94-bdda-41ff6cea8c76","system_id":"levelo_inurba_marseille","lat":43.320045,"lon":5.415046,"is_reserved":false,"is_disabled":false,"rental_uris":{"android":"levelo://app?vid=b9340faf-573b-4c94-bdda-41ff6cea8c76","ios":"levelo://app?vid=b9340faf-573b-4c94-bdda-41ff6cea8c76"},"vehicle_type_id":"4","last_reported":1687097149,"current_range_meters":30400,"station_id":"ce4bhq92rcd13ifvqhkg","pricing_plan_id":"free"},{"bike_id":"7e502e4d-7043-49fb-9a97-dea01c21b68b","system_id":"levelo_inurba_marseille","lat":43.325233,"lon":5.414318,"is_reserved":false,"is_disabled":false,"rental_uris":{"android":"levelo://app?vid=7e502e4d-7043-49fb-9a97-dea01c21b68b","ios":"levelo://app?vid=7e502e4d-7043-49fb-9a97-dea01c21b68b"},"vehicle_type_id":"4","last_reported":1687097149,"current_range_meters":24800,"station_id":"ce4bhq12rcd13ifvqhhg","pricing_plan_id":"free"},{"bike_id":"f309a3a7-5f99-4fbb-8874-7c02dd637910","system_id":"levelo_inurba_marseille","lat":43.27618,"lon":5.361009,"is_reserved":false,"is_disabled":false,"rental_uris":{"android":"levelo://app?vid=f309a3a7-5f99-4fbb-8874-7c02dd637910","ios":"levelo://app?vid=f309a3a7-5f99-4fbb-8874-7c02dd637910"},"vehicle_type_id":"4","last_reported":1687097149,"current_range_meters":0,"station_id":"ce4bgj92rcd13ifvqbe0","pricing_plan_id":"free"},{"bike_id":"95da1e40-e3de-4a67-836b-37fe8b803887","system_id":"levelo_inurba_marseille","lat":43.3254,"lon":5.41437,"is_reserved":false,"is_disabled":false,"rental_uris":{"android":"levelo://app?vid=95da1e40-e3de-4a67-836b-37fe8b803887","ios":"levelo://app?vid=95da1e40-e3de-4a67-836b-37fe8b803887"},"vehicle_type_id":"4","last_reported":1687097149,"current_range_meters":11200,"station_id":"ce4bhq12rcd13ifvqhhg","pricing_plan_id":"free"},{"bike_id":"d37cee95-a29b-41cd-a7d9-c1521a3d058a","system_id":"levelo_inurba_marseille","lat":43.32536,"lon":5.41445,"is_reserved":false,"is_disabled":false,"rental_uris":{"android":"levelo://app?vid=d37cee95-a29b-41cd-a7d9-c1521a3d058a","ios":"levelo://app?vid=d37cee95-a29b-41cd-a7d9-c1521a3d058a"},"vehicle_type_id":"4","last_reported":1687097149,"current_range_meters":30800,"station_id":"ce4bhq12rcd13ifvqhhg","pricing_plan_id":"free"},{"bike_id":"0ba53651-50ff-49f4-a409-fc8bb2625444","system_id":"levelo_inurba_marseille","lat":43.27616,"lon":5.361,"is_reserved":false,"is_disabled":false,"rental_uris":{"android":"levelo://app?vid=0ba53651-50ff-49f4-a409-fc8bb2625444","ios":"levelo://app?vid=0ba53651-50ff-49f4-a409-fc8bb2625444"},"vehicle_type_id":"4","last_reported":1687097149,"current_range_meters":24000,"station_id":"ce4bgj92rcd13ifvqbe0","pricing_plan_id":"free"},{"bike_id":"5ec956d3-766b-4f38-9b7f-6187849f30f2","system_id":"levelo_inurba_marseille","lat":43.325233,"lon":5.414318,"is_reserved":false,"is_disabled":false,"rental_uris":{"android":"levelo://app?vid=5ec956d3-766b-4f38-9b7f-6187849f30f2","ios":"levelo://app?vid=5ec956d3-766b-4f38-9b7f-6187849f30f2"},"vehicle_type_id":"4","last_reported":1687097149,"current_range_meters":30800,"station_id":"ce4bhq12rcd13ifvqhhg","pricing_plan_id":"free"},{"bike_id":"f1823d82-43dc-4984-9359-7a508e9d8409","system_id":"levelo_inurba_marseille","lat":43.325233,"lon":5.414318,"is_reserved":false,"is_disabled":false,"rental_uris":{"android":"levelo://app?vid=f1823d82-43dc-4984-9359-7a508e9d8409","ios":"levelo://app?vid=f1823d82-43dc-4984-9359-7a508e9d8409"},"vehicle_type_id":"4","last_reported":1687097149,"current_range_meters":31200,"station_id":"ce4bhq12rcd13ifvqhhg","pricing_plan_id":"free"},{"bike_id":"1c254128-9e8c-425d-afe5-8bb38d5fb28d","system_id":"levelo_inurba_marseille","lat":43.32537,"lon":5.41458,"is_reserved":false,"is_disabled":false,"rental_uris":{"android":"levelo://app?vid=1c254128-9e8c-425d-afe5-8bb38d5fb28d","ios":"levelo://app?vid=1c254128-9e8c-425d-afe5-8bb38d5fb28d"},"vehicle_type_id":"4","last_reported":1687097149,"current_range_meters":28000,"station_id":"ce4bhq12rcd13ifvqhhg","pricing_plan_id":"free"},{"bike_id":"b4b42723-8fdf-4d0c-b696-b3794cbfbaea","system_id":"levelo_inurba_marseille","lat":43.30334,"lon":5.4187,"is_reserved":false,"is_disabled":false,"rental_uris":{"android":"levelo://app?vid=b4b42723-8fdf-4d0c-b696-b3794cbfbaea","ios":"levelo://app?vid=b4b42723-8fdf-4d0c-b696-b3794cbfbaea"},"vehicle_type_id":"4","last_reported":1687097149,"current_range_meters":22400,"station_id":"","pricing_plan_id":"free"},{"bike_id":"e8422f5b-8db2-4433-ac59-fd11ca57dd40","system_id":"levelo_inurba_marseille","lat":43.273613,"lon":5.362705,"is_reserved":false,"is_disabled":false,"rental_uris":{"android":"levelo://app?vid=e8422f5b-8db2-4433-ac59-fd11ca57dd40","ios":"levelo://app?vid=e8422f5b-8db2-4433-ac59-fd11ca57dd40"},"vehicle_type_id":"4","last_reported":1687097149,"current_range_meters":18800,"station_id":"ce4bhbh2rcd13ifvqeo0","pricing_plan_id":"free"},{"bike_id":"6275aaca-a354-407f-be44-df40f2969d44","system_id":"levelo_inurba_marseille","lat":43.273613,"lon":5.362705,"is_reserved":false,"is_disabled":false,"rental_uris":{"android":"levelo://app?vid=6275aaca-a354-407f-be44-df40f2969d44","ios":"levelo://app?vid=6275aaca-a354-407f-be44-df40f2969d44"},"vehicle_type_id":"4","last_reported":1687097149,"current_range_meters":32000,"station_id":"ce4bhbh2rcd13ifvqeo0","pricing_plan_id":"free"},{"bike_id":"7bd19fd7-388c-49e1-ba61-4b955462da08","system_id":"levelo_inurba_marseille","lat":43.273613,"lon":5.362705,"is_reserved":false,"is_disabled":false,"rental_uris":{"android":"levelo://app?vid=7bd19fd7-388c-49e1-ba61-4b955462da08","ios":"levelo://app?vid=7bd19fd7-388c-49e1-ba61-4b955462da08"},"vehicle_type_id":"4","last_reported":1687097149,"current_range_meters":23600,"station_id":"ce4bhbh2rcd13ifvqeo0","pricing_plan_id":"free"},{"bike_id":"27c45d2f-f325-4c03-878a-e8b950e8a9b3","system_id":"levelo_inurba_marseille","lat":43.273613,"lon":5.362705,"is_reserved":false,"is_disabled":false,"rental_uris":{"android":"levelo://app?vid=27c45d2f-f325-4c03-878a-e8b950e8a9b3","ios":"levelo://app?vid=27c45d2f-f325-4c03-878a-e8b950e8a9b3"},"vehicle_type_id":"4","last_reported":1687097149,"current_range_meters":24000,"station_id":"ce4bhbh2rcd13ifvqeo0","pricing_plan_id":"free"},{"bike_id":"ebd70f89-3ef5-4e8e-b601-09249ec90355","system_id":"levelo_inurba_marseille","lat":43.273609,"lon":5.362708,"is_reserved":false,"is_disabled":false,"rental_uris":{"android":"levelo://app?vid=ebd70f89-3ef5-4e8e-b601-09249ec90355","ios":"levelo://app?vid=ebd70f89-3ef5-4e8e-b601-09249ec90355"},"vehicle_type_id":"4","last_reported":1687097149,"current_range_meters":31600,"station_id":"ce4bhbh2rcd13ifvqeo0","pricing_plan_id":"free"},{"bike_id":"fe434001-08a8-443d-ab48-b327aeb8e8bd","system_id":"levelo_inurba_marseille","lat":43.273609,"lon":5.362708,"is_reserved":false,"is_disabled":false,"rental_uris":{"android":"levelo://app?vid=fe434001-08a8-443d-ab48-b327aeb8e8bd","ios":"levelo://app?vid=fe434001-08a8-443d-ab48-b327aeb8e8bd"},"vehicle_type_id":"4","last_reported":1687097149,"current_range_meters":16400,"station_id":"ce4bhbh2rcd13ifvqeo0","pricing_plan_id":"free"},{"bike_id":"36757135-cc76-4716-ae29-2971ff26d1be","system_id":"levelo_inurba_marseille","lat":43.273613,"lon":5.362705,"is_reserved":false,"is_disabled":false,"rental_uris":{"android":"levelo://app?vid=36757135-cc76-4716-ae29-2971ff26d1be","ios":"levelo://app?vid=36757135-cc76-4716-ae29-2971ff26d1be"},"vehicle_type_id":"4","last_reported":1687097149,"current_range_meters":32000,"station_id":"ce4bhbh2rcd13ifvqeo0","pricing_plan_id":"free"},{"bike_id":"69264ae6-54f4-4df6-a3e2-f40eea6bb2a7","system_id":"levelo_inurba_marseille","lat":43.273609,"lon":5.362708,"is_reserved":false,"is_disabled":false,"rental_uris":{"android":"levelo://app?vid=69264ae6-54f4-4df6-a3e2-f40eea6bb2a7","ios":"levelo://app?vid=69264ae6-54f4-4df6-a3e2-f40eea6bb2a7"},"vehicle_type_id":"4","last_reported":1687097149,"current_range_meters":20000,"station_id":"ce4bhbh2rcd13ifvqeo0","pricing_plan_id":"free"},{"bike_id":"e41f3b46-10b1-4931-9fbb-5344d14d4f6a","system_id":"levelo_inurba_marseille","lat":43.273609,"lon":5.362708,"is_reserved":false,"is_disabled":false,"rental_uris":{"android":"levelo://app?vid=e41f3b46-10b1-4931-9fbb-5344d14d4f6a","ios":"levelo://app?vid=e41f3b46-10b1-4931-9fbb-5344d14d4f6a"},"vehicle_type_id":"4","last_reported":1687097149,"current_range_meters":31200,"station_id":"ce4bhbh2rcd13ifvqeo0","pricing_plan_id":"free"},{"bike_id":"749574ca-1854-4c8b-9f41-c1953e87399e","system_id":"levelo_inurba_marseille","lat":43.273609,"lon":5.362708,"is_reserved":false,"is_disabled":false,"rental_uris":{"android":"levelo://app?vid=749574ca-1854-4c8b-9f41-c1953e87399e","ios":"levelo://app?vid=749574ca-1854-4c8b-9f41-c1953e87399e"},"vehicle_type_id":"4","last_reported":1687097149,"current_range_meters":20800,"station_id":"ce4bhbh2rcd13ifvqeo0","pricing_plan_id":"free"},{"bike_id":"65d4e611-7d16-4b66-a755-938afa5136c2","system_id":"levelo_inurba_marseille","lat":43.273613,"lon":5.362705,"is_reserved":false,"is_disabled":false,"rental_uris":{"android":"levelo://app?vid=65d4e611-7d16-4b66-a755-938afa5136c2","ios":"levelo://app?vid=65d4e611-7d16-4b66-a755-938afa5136c2"},"vehicle_type_id":"4","last_reported":1687097149,"current_range_meters":18000,"station_id":"ce4bhbh2rcd13ifvqeo0","pricing_plan_id":"free"},{"bike_id":"9e09d1cf-ede0-4433-b436-010646e4c0a5","system_id":"levelo_inurba_marseille","lat":43.273609,"lon":5.362708,"is_reserved":false,"is_disabled":false,"rental_uris":{"android":"levelo://app?vid=9e09d1cf-ede0-4433-b436-010646e4c0a5","ios":"levelo://app?vid=9e09d1cf-ede0-4433-b436-010646e4c0a5"},"vehicle_type_id":"4","last_reported":1687097149,"current_range_meters":20800,"station_id":"ce4bhbh2rcd13ifvqeo0","pricing_plan_id":"free"},{"bike_id":"251e31fe-6b48-4300-9c84-9df93eebf2c5","system_id":"levelo_inurba_marseille","lat":43.273609,"lon":5.362708,"is_reserved":false,"is_disabled":false,"rental_uris":{"android":"levelo://app?vid=251e31fe-6b48-4300-9c84-9df93eebf2c5","ios":"levelo://app?vid=251e31fe-6b48-4300-9c84-9df93eebf2c5"},"vehicle_type_id":"4","last_reported":1687097149,"current_range_meters":29200,"station_id":"ce4bhbh2rcd13ifvqeo0","pricing_plan_id":"free"},{"bike_id":"f35e0f95-9e78-47c5-8fc7-75059089de94","system_id":"levelo_inurba_marseille","lat":43.273613,"lon":5.362705,"is_reserved":false,"is_disabled":false,"rental_uris":{"android":"levelo://app?vid=f35e0f95-9e78-47c5-8fc7-75059089de94","ios":"levelo://app?vid=f35e0f95-9e78-47c5-8fc7-75059089de94"},"vehicle_type_id":"4","last_reported":1687097149,"current_range_meters":22000,"station_id":"ce4bhbh2rcd13ifvqeo0","pricing_plan_id":"free"},{"bike_id":"d3ad11ec-0dc7-4e73-8496-4204aa74e3e9","system_id":"levelo_inurba_marseille","lat":43.273609,"lon":5.362708,"is_reserved":false,"is_disabled":false,"rental_uris":{"android":"levelo://app?vid=d3ad11ec-0dc7-4e73-8496-4204aa74e3e9","ios":"levelo://app?vid=d3ad11ec-0dc7-4e73-8496-4204aa74e3e9"},"vehicle_type_id":"4","last_reported":1687097149,"current_range_meters":21600,"station_id":"ce4bhbh2rcd13ifvqeo0","pricing_plan_id":"free"},{"bike_id":"556fb3f4-627c-4057-a758-d79e8d9d1316","system_id":"levelo_inurba_marseille","lat":43.273609,"lon":5.362708,"is_reserved":false,"is_disabled":false,"rental_uris":{"android":"levelo://app?vid=556fb3f4-627c-4057-a758-d79e8d9d1316","ios":"levelo://app?vid=556fb3f4-627c-4057-a758-d79e8d9d1316"},"vehicle_type_id":"4","last_reported":1687097149,"current_range_meters":21600,"station_id":"ce4bhbh2rcd13ifvqeo0","pricing_plan_id":"free"},{"bike_id":"02ed4927-bcd3-40b4-9e71-aa2738cababc","system_id":"levelo_inurba_marseille","lat":43.33612,"lon":5.410321,"is_reserved":false,"is_disabled":false,"rental_uris":{"android":"levelo://app?vid=02ed4927-bcd3-40b4-9e71-aa2738cababc","ios":"levelo://app?vid=02ed4927-bcd3-40b4-9e71-aa2738cababc"},"vehicle_type_id":"4","last_reported":1687097149,"current_range_meters":30000,"station_id":"ce4bhqh2rcd13ifvqhmg","pricing_plan_id":"free"},{"bike_id":"eec4fae8-c01a-447c-80c7-ed75ae0bdd82","system_id":"levelo_inurba_marseille","lat":43.273609,"lon":5.362708,"is_reserved":false,"is_disabled":false,"rental_uris":{"android":"levelo://app?vid=eec4fae8-c01a-447c-80c7-ed75ae0bdd82","ios":"levelo://app?vid=eec4fae8-c01a-447c-80c7-ed75ae0bdd82"},"vehicle_type_id":"4","last_reported":1687097149,"current_range_meters":31600,"station_id":"ce4bhbh2rcd13ifvqeo0","pricing_plan_id":"free"},{"bike_id":"f409e937-97c9-4cc1-92c8-f23e490203be","system_id":"levelo_inurba_marseille","lat":43.33605,"lon":5.41032,"is_reserved":false,"is_disabled":false,"rental_uris":{"android":"levelo://app?vid=f409e937-97c9-4cc1-92c8-f23e490203be","ios":"levelo://app?vid=f409e937-97c9-4cc1-92c8-f23e490203be"},"vehicle_type_id":"4","last_reported":1687097149,"current_range_meters":30400,"station_id":"ce4bhqh2rcd13ifvqhmg","pricing_plan_id":"free"},{"bike_id":"f12892c1-d4f1-4521-8e67-bc8dbcc17b44","system_id":"levelo_inurba_marseille","lat":43.33606,"lon":5.41034,"is_reserved":false,"is_disabled":false,"rental_uris":{"android":"levelo://app?vid=f12892c1-d4f1-4521-8e67-bc8dbcc17b44","ios":"levelo://app?vid=f12892c1-d4f1-4521-8e67-bc8dbcc17b44"},"vehicle_type_id":"4","last_reported":1687097149,"current_range_meters":31200,"station_id":"ce4bhqh2rcd13ifvqhmg","pricing_plan_id":"free"},{"bike_id":"605e99ef-31e2-473a-b14b-90bfb9d35464","system_id":"levelo_inurba_marseille","lat":43.317121,"lon":5.423936,"is_reserved":false,"is_disabled":false,"rental_uris":{"android":"levelo://app?vid=605e99ef-31e2-473a-b14b-90bfb9d35464","ios":"levelo://app?vid=605e99ef-31e2-473a-b14b-90bfb9d35464"},"vehicle_type_id":"4","last_reported":1687097149,"current_range_meters":31200,"station_id":"ce4bhp92rcd13ifvqhbg","pricing_plan_id":"free"},{"bike_id":"c9118ee2-e487-41b2-adb4-b8e2b83b57d2","system_id":"levelo_inurba_marseille","lat":43.310785,"lon":5.424305,"is_reserved":false,"is_disabled":false,"rental_uris":{"android":"levelo://app?vid=c9118ee2-e487-41b2-adb4-b8e2b83b57d2","ios":"levelo://app?vid=c9118ee2-e487-41b2-adb4-b8e2b83b57d2"},"vehicle_type_id":"4","last_reported":1687097149,"current_range_meters":30400,"station_id":"ce4bhp92rcd13ifvqhag","pricing_plan_id":"free"},{"bike_id":"eec113f6-af82-4074-b82f-ee441f0cab19","system_id":"levelo_inurba_marseille","lat":43.317121,"lon":5.423936,"is_reserved":false,"is_disabled":false,"rental_uris":{"android":"levelo://app?vid=eec113f6-af82-4074-b82f-ee441f0cab19","ios":"levelo://app?vid=eec113f6-af82-4074-b82f-ee441f0cab19"},"vehicle_type_id":"4","last_reported":1687097149,"current_range_meters":22000,"station_id":"ce4bhp92rcd13ifvqhbg","pricing_plan_id":"free"},{"bike_id":"608ccc75-a8ed-44a2-bb6d-d74240ea0613","system_id":"levelo_inurba_marseille","lat":43.27314,"lon":5.39087,"is_reserved":false,"is_disabled":false,"rental_uris":{"android":"levelo://app?vid=608ccc75-a8ed-44a2-bb6d-d74240ea0613","ios":"levelo://app?vid=608ccc75-a8ed-44a2-bb6d-d74240ea0613"},"vehicle_type_id":"4","last_reported":1687097149,"current_range_meters":12000,"station_id":"ce4bhgp2rcd13ifvqfe0","pricing_plan_id":"free"},{"bike_id":"f82c4e0b-ce86-4de4-962b-f266d6ba506e","system_id":"levelo_inurba_marseille","lat":43.273129,"lon":5.390725,"is_reserved":false,"is_disabled":false,"rental_uris":{"android":"levelo://app?vid=f82c4e0b-ce86-4de4-962b-f266d6ba506e","ios":"levelo://app?vid=f82c4e0b-ce86-4de4-962b-f266d6ba506e"},"vehicle_type_id":"4","last_reported":1687097149,"current_range_meters":29200,"station_id":"ce4bhgp2rcd13ifvqfe0","pricing_plan_id":"free"},{"bike_id":"17271715-d876-43ed-8b35-6f5751467793","system_id":"levelo_inurba_marseille","lat":43.278128,"lon":5.407195,"is_reserved":false,"is_disabled":false,"rental_uris":{"android":"levelo://app?vid=17271715-d876-43ed-8b35-6f5751467793","ios":"levelo://app?vid=17271715-d876-43ed-8b35-6f5751467793"},"vehicle_type_id":"4","last_reported":1687097149,"current_range_meters":2400,"station_id":"ce4bhnh2rcd13ifvqgtg","pricing_plan_id":"free"},{"bike_id":"a151ae4c-b197-45b8-8922-20dcae33362b","system_id":"levelo_inurba_marseille","lat":43.26681,"lon":5.382694,"is_reserved":false,"is_disabled":false,"rental_uris":{"android":"levelo://app?vid=a151ae4c-b197-45b8-8922-20dcae33362b","ios":"levelo://app?vid=a151ae4c-b197-45b8-8922-20dcae33362b"},"vehicle_type_id":"4","last_reported":1687097149,"current_range_meters":24400,"station_id":"ce4bhg92rcd13ifvqf90","pricing_plan_id":"free"},{"bike_id":"23446cfc-34bf-4161-bcae-99fbea34cb62","system_id":"levelo_inurba_marseille","lat":43.26681,"lon":5.382694,"is_reserved":false,"is_disabled":false,"rental_uris":{"android":"levelo://app?vid=23446cfc-34bf-4161-bcae-99fbea34cb62","ios":"levelo://app?vid=23446cfc-34bf-4161-bcae-99fbea34cb62"},"vehicle_type_id":"4","last_reported":1687097149,"current_range_meters":28000,"station_id":"ce4bhg92rcd13ifvqf90","pricing_plan_id":"free"},{"bike_id":"cfba2fbe-9ed5-423f-b411-8d6c38451715","system_id":"levelo_inurba_marseille","lat":43.27996,"lon":5.416624,"is_reserved":false,"is_disabled":false,"rental_uris":{"android":"levelo://app?vid=cfba2fbe-9ed5-423f-b411-8d6c38451715","ios":"levelo://app?vid=cfba2fbe-9ed5-423f-b411-8d6c38451715"},"vehicle_type_id":"4","last_reported":1687097149,"current_range_meters":21600,"station_id":"ce4bho12rcd13ifvqh1g","pricing_plan_id":"free"},{"bike_id":"3987290e-fd4b-4f2b-81c0-57fca98f9cde","system_id":"levelo_inurba_marseille","lat":43.267966,"lon":5.393976,"is_reserved":false,"is_disabled":false,"rental_uris":{"android":"levelo://app?vid=3987290e-fd4b-4f2b-81c0-57fca98f9cde","ios":"levelo://app?vid=3987290e-fd4b-4f2b-81c0-57fca98f9cde"},"vehicle_type_id":"4","last_reported":1687097149,"current_range_meters":31200,"station_id":"ce4bhh12rcd13ifvqfg0","pricing_plan_id":"free"},{"bike_id":"2a28f497-6438-4887-ae66-c6f02da68b5a","system_id":"levelo_inurba_marseille","lat":43.267966,"lon":5.393976,"is_reserved":false,"is_disabled":false,"rental_uris":{"android":"levelo://app?vid=2a28f497-6438-4887-ae66-c6f02da68b5a","ios":"levelo://app?vid=2a28f497-6438-4887-ae66-c6f02da68b5a"},"vehicle_type_id":"4","last_reported":1687097149,"current_range_meters":14400,"station_id":"ce4bhh12rcd13ifvqfg0","pricing_plan_id":"free"},{"bike_id":"7bca91a1-8be6-4027-acab-82b3171fc8ad","system_id":"levelo_inurba_marseille","lat":43.267966,"lon":5.393976,"is_reserved":false,"is_disabled":false,"rental_uris":{"android":"levelo://app?vid=7bca91a1-8be6-4027-acab-82b3171fc8ad","ios":"levelo://app?vid=7bca91a1-8be6-4027-acab-82b3171fc8ad"},"vehicle_type_id":"4","last_reported":1687097149,"current_range_meters":0,"station_id":"ce4bhh12rcd13ifvqfg0","pricing_plan_id":"free"},{"bike_id":"3ad97955-0570-4a34-8411-128b555e6b4d","system_id":"levelo_inurba_marseille","lat":43.267966,"lon":5.393976,"is_reserved":false,"is_disabled":false,"rental_uris":{"android":"levelo://app?vid=3ad97955-0570-4a34-8411-128b555e6b4d","ios":"levelo://app?vid=3ad97955-0570-4a34-8411-128b555e6b4d"},"vehicle_type_id":"4","last_reported":1687097149,"current_range_meters":400,"station_id":"ce4bhh12rcd13ifvqfg0","pricing_plan_id":"free"},{"bike_id":"b64e7a28-c0f8-4226-aee4-1ccaae215191","system_id":"levelo_inurba_marseille","lat":43.308051,"lon":5.43527,"is_reserved":false,"is_disabled":false,"rental_uris":{"android":"levelo://app?vid=b64e7a28-c0f8-4226-aee4-1ccaae215191","ios":"levelo://app?vid=b64e7a28-c0f8-4226-aee4-1ccaae215191"},"vehicle_type_id":"4","last_reported":1687097149,"current_range_meters":4800,"station_id":"ce4bhph2rcd13ifvqheg","pricing_plan_id":"free"},{"bike_id":"45f28fe4-2ac5-41e7-9602-6fa8f8a62330","system_id":"levelo_inurba_marseille","lat":43.308051,"lon":5.43527,"is_reserved":false,"is_disabled":false,"rental_uris":{"android":"levelo://app?vid=45f28fe4-2ac5-41e7-9602-6fa8f8a62330","ios":"levelo://app?vid=45f28fe4-2ac5-41e7-9602-6fa8f8a62330"},"vehicle_type_id":"4","last_reported":1687097149,"current_range_meters":10000,"station_id":"ce4bhph2rcd13ifvqheg","pricing_plan_id":"free"},{"bike_id":"935a4aec-1547-4073-a330-9bf4a8e0fb00","system_id":"levelo_inurba_marseille","lat":43.308051,"lon":5.43527,"is_reserved":false,"is_disabled":false,"rental_uris":{"android":"levelo://app?vid=935a4aec-1547-4073-a330-9bf4a8e0fb00","ios":"levelo://app?vid=935a4aec-1547-4073-a330-9bf4a8e0fb00"},"vehicle_type_id":"4","last_reported":1687097149,"current_range_meters":23600,"station_id":"ce4bhph2rcd13ifvqheg","pricing_plan_id":"free"},{"bike_id":"cda28a23-f977-444e-be81-0c35c0e3524a","system_id":"levelo_inurba_marseille","lat":43.30823,"lon":5.43556,"is_reserved":false,"is_disabled":false,"rental_uris":{"android":"levelo://app?vid=cda28a23-f977-444e-be81-0c35c0e3524a","ios":"levelo://app?vid=cda28a23-f977-444e-be81-0c35c0e3524a"},"vehicle_type_id":"4","last_reported":1687097149,"current_range_meters":0,"station_id":"","pricing_plan_id":"free"},{"bike_id":"ee1a170a-e68a-44cb-839f-308ad5f46f46","system_id":"levelo_inurba_marseille","lat":43.261782,"lon":5.374515,"is_reserved":false,"is_disabled":false,"rental_uris":{"android":"levelo://app?vid=ee1a170a-e68a-44cb-839f-308ad5f46f46","ios":"levelo://app?vid=ee1a170a-e68a-44cb-839f-308ad5f46f46"},"vehicle_type_id":"4","last_reported":1687097149,"current_range_meters":23200,"station_id":"ce4bhgp2rcd13ifvqfc0","pricing_plan_id":"free"},{"bike_id":"e6312f5a-acef-4530-8e13-bd59210d0027","system_id":"levelo_inurba_marseille","lat":43.26195,"lon":5.37441,"is_reserved":false,"is_disabled":false,"rental_uris":{"android":"levelo://app?vid=e6312f5a-acef-4530-8e13-bd59210d0027","ios":"levelo://app?vid=e6312f5a-acef-4530-8e13-bd59210d0027"},"vehicle_type_id":"4","last_reported":1687097149,"current_range_meters":17600,"station_id":"ce4bhgp2rcd13ifvqfc0","pricing_plan_id":"free"},{"bike_id":"0d334476-a423-4fa6-8a76-c47718f834a5","system_id":"levelo_inurba_marseille","lat":43.261782,"lon":5.374515,"is_reserved":false,"is_disabled":false,"rental_uris":{"android":"levelo://app?vid=0d334476-a423-4fa6-8a76-c47718f834a5","ios":"levelo://app?vid=0d334476-a423-4fa6-8a76-c47718f834a5"},"vehicle_type_id":"4","last_reported":1687097149,"current_range_meters":22000,"station_id":"ce4bhgp2rcd13ifvqfc0","pricing_plan_id":"free"},{"bike_id":"afd8a327-7ead-4fa6-bca9-daf7f0832a72","system_id":"levelo_inurba_marseille","lat":43.26192,"lon":5.37438,"is_reserved":false,"is_disabled":false,"rental_uris":{"android":"levelo://app?vid=afd8a327-7ead-4fa6-bca9-daf7f0832a72","ios":"levelo://app?vid=afd8a327-7ead-4fa6-bca9-daf7f0832a72"},"vehicle_type_id":"4","last_reported":1687097149,"current_range_meters":21600,"station_id":"ce4bhgp2rcd13ifvqfc0","pricing_plan_id":"free"},{"bike_id":"ab7b9ce0-04e5-43f9-91f2-6fa95db5f4ed","system_id":"levelo_inurba_marseille","lat":43.261782,"lon":5.374515,"is_reserved":false,"is_disabled":false,"rental_uris":{"android":"levelo://app?vid=ab7b9ce0-04e5-43f9-91f2-6fa95db5f4ed","ios":"levelo://app?vid=ab7b9ce0-04e5-43f9-91f2-6fa95db5f4ed"},"vehicle_type_id":"4","last_reported":1687097149,"current_range_meters":29600,"station_id":"ce4bhgp2rcd13ifvqfc0","pricing_plan_id":"free"},{"bike_id":"9a1518b6-c886-42dc-afc5-db724beb9685","system_id":"levelo_inurba_marseille","lat":43.261782,"lon":5.374515,"is_reserved":false,"is_disabled":false,"rental_uris":{"android":"levelo://app?vid=9a1518b6-c886-42dc-afc5-db724beb9685","ios":"levelo://app?vid=9a1518b6-c886-42dc-afc5-db724beb9685"},"vehicle_type_id":"4","last_reported":1687097149,"current_range_meters":26000,"station_id":"ce4bhgp2rcd13ifvqfc0","pricing_plan_id":"free"},{"bike_id":"402ff10f-8d7a-4bf0-bd87-e1264feae03b","system_id":"levelo_inurba_marseille","lat":43.261782,"lon":5.374515,"is_reserved":false,"is_disabled":false,"rental_uris":{"android":"levelo://app?vid=402ff10f-8d7a-4bf0-bd87-e1264feae03b","ios":"levelo://app?vid=402ff10f-8d7a-4bf0-bd87-e1264feae03b"},"vehicle_type_id":"4","last_reported":1687097149,"current_range_meters":0,"station_id":"ce4bhgp2rcd13ifvqfc0","pricing_plan_id":"free"},{"bike_id":"7ec843ab-2a98-4328-bec5-39e93b9caaf7","system_id":"levelo_inurba_marseille","lat":43.261782,"lon":5.374515,"is_reserved":false,"is_disabled":false,"rental_uris":{"android":"levelo://app?vid=7ec843ab-2a98-4328-bec5-39e93b9caaf7","ios":"levelo://app?vid=7ec843ab-2a98-4328-bec5-39e93b9caaf7"},"vehicle_type_id":"4","last_reported":1687097149,"current_range_meters":28000,"station_id":"ce4bhgp2rcd13ifvqfc0","pricing_plan_id":"free"},{"bike_id":"cf86f91b-863c-42b2-a36d-2c77ded6494c","system_id":"levelo_inurba_marseille","lat":43.26189,"lon":5.37436,"is_reserved":false,"is_disabled":false,"rental_uris":{"android":"levelo://app?vid=cf86f91b-863c-42b2-a36d-2c77ded6494c","ios":"levelo://app?vid=cf86f91b-863c-42b2-a36d-2c77ded6494c"},"vehicle_type_id":"4","last_reported":1687097149,"current_range_meters":25600,"station_id":"ce4bhgp2rcd13ifvqfc0","pricing_plan_id":"free"},{"bike_id":"1885c3de-ffae-4727-96ee-8fa91c6820a3","system_id":"levelo_inurba_marseille","lat":43.261782,"lon":5.374515,"is_reserved":false,"is_disabled":false,"rental_uris":{"android":"levelo://app?vid=1885c3de-ffae-4727-96ee-8fa91c6820a3","ios":"levelo://app?vid=1885c3de-ffae-4727-96ee-8fa91c6820a3"},"vehicle_type_id":"4","last_reported":1687097149,"current_range_meters":2800,"station_id":"ce4bhgp2rcd13ifvqfc0","pricing_plan_id":"free"},{"bike_id":"0f54be5e-880f-4449-a1a2-c28d3561cb49","system_id":"levelo_inurba_marseille","lat":43.261782,"lon":5.374515,"is_reserved":false,"is_disabled":false,"rental_uris":{"android":"levelo://app?vid=0f54be5e-880f-4449-a1a2-c28d3561cb49","ios":"levelo://app?vid=0f54be5e-880f-4449-a1a2-c28d3561cb49"},"vehicle_type_id":"4","last_reported":1687097149,"current_range_meters":31200,"station_id":"ce4bhgp2rcd13ifvqfc0","pricing_plan_id":"free"},{"bike_id":"d4f993f7-727a-4f07-8d4d-c8dc360d1ed6","system_id":"levelo_inurba_marseille","lat":43.26189,"lon":5.37441,"is_reserved":false,"is_disabled":false,"rental_uris":{"android":"levelo://app?vid=d4f993f7-727a-4f07-8d4d-c8dc360d1ed6","ios":"levelo://app?vid=d4f993f7-727a-4f07-8d4d-c8dc360d1ed6"},"vehicle_type_id":"4","last_reported":1687097149,"current_range_meters":23600,"station_id":"ce4bhgp2rcd13ifvqfc0","pricing_plan_id":"free"},{"bike_id":"9699071f-4f72-4060-978a-b803b87ac406","system_id":"levelo_inurba_marseille","lat":43.26188,"lon":5.37444,"is_reserved":false,"is_disabled":false,"rental_uris":{"android":"levelo://app?vid=9699071f-4f72-4060-978a-b803b87ac406","ios":"levelo://app?vid=9699071f-4f72-4060-978a-b803b87ac406"},"vehicle_type_id":"4","last_reported":1687097149,"current_range_meters":5200,"station_id":"ce4bhgp2rcd13ifvqfc0","pricing_plan_id":"free"},{"bike_id":"3a5d6353-861e-41bc-98e0-4ede6cf3bb66","system_id":"levelo_inurba_marseille","lat":43.26187,"lon":5.37441,"is_reserved":false,"is_disabled":false,"rental_uris":{"android":"levelo://app?vid=3a5d6353-861e-41bc-98e0-4ede6cf3bb66","ios":"levelo://app?vid=3a5d6353-861e-41bc-98e0-4ede6cf3bb66"},"vehicle_type_id":"4","last_reported":1687097149,"current_range_meters":31200,"station_id":"ce4bhgp2rcd13ifvqfc0","pricing_plan_id":"free"},{"bike_id":"36be4d77-2580-45ca-a165-90ad71b5f778","system_id":"levelo_inurba_marseille","lat":43.261782,"lon":5.374515,"is_reserved":false,"is_disabled":false,"rental_uris":{"android":"levelo://app?vid=36be4d77-2580-45ca-a165-90ad71b5f778","ios":"levelo://app?vid=36be4d77-2580-45ca-a165-90ad71b5f778"},"vehicle_type_id":"4","last_reported":1687097149,"current_range_meters":11200,"station_id":"ce4bhgp2rcd13ifvqfc0","pricing_plan_id":"free"},{"bike_id":"d9da67e0-ba16-477d-bade-f3bff9ac19ec","system_id":"levelo_inurba_marseille","lat":43.26186,"lon":5.37442,"is_reserved":false,"is_disabled":false,"rental_uris":{"android":"levelo://app?vid=d9da67e0-ba16-477d-bade-f3bff9ac19ec","ios":"levelo://app?vid=d9da67e0-ba16-477d-bade-f3bff9ac19ec"},"vehicle_type_id":"4","last_reported":1687097149,"current_range_meters":30000,"station_id":"ce4bhgp2rcd13ifvqfc0","pricing_plan_id":"free"},{"bike_id":"04023a42-3e0c-4343-b923-794e148ec4b8","system_id":"levelo_inurba_marseille","lat":43.26186,"lon":5.37445,"is_reserved":false,"is_disabled":false,"rental_uris":{"android":"levelo://app?vid=04023a42-3e0c-4343-b923-794e148ec4b8","ios":"levelo://app?vid=04023a42-3e0c-4343-b923-794e148ec4b8"},"vehicle_type_id":"4","last_reported":1687097149,"current_range_meters":14400,"station_id":"ce4bhgp2rcd13ifvqfc0","pricing_plan_id":"free"},{"bike_id":"aba4c9de-1bc6-4a9d-94d2-ef2a555e6aa9","system_id":"levelo_inurba_marseille","lat":43.26184,"lon":5.37443,"is_reserved":false,"is_disabled":false,"rental_uris":{"android":"levelo://app?vid=aba4c9de-1bc6-4a9d-94d2-ef2a555e6aa9","ios":"levelo://app?vid=aba4c9de-1bc6-4a9d-94d2-ef2a555e6aa9"},"vehicle_type_id":"4","last_reported":1687097149,"current_range_meters":25200,"station_id":"ce4bhgp2rcd13ifvqfc0","pricing_plan_id":"free"},{"bike_id":"6daaad4d-965e-4f3b-ab31-e0b77c303d8b","system_id":"levelo_inurba_marseille","lat":43.261782,"lon":5.374515,"is_reserved":false,"is_disabled":false,"rental_uris":{"android":"levelo://app?vid=6daaad4d-965e-4f3b-ab31-e0b77c303d8b","ios":"levelo://app?vid=6daaad4d-965e-4f3b-ab31-e0b77c303d8b"},"vehicle_type_id":"4","last_reported":1687097149,"current_range_meters":31200,"station_id":"ce4bhgp2rcd13ifvqfc0","pricing_plan_id":"free"},{"bike_id":"9bf905c2-7b41-48ec-bfc6-155ec656c7ee","system_id":"levelo_inurba_marseille","lat":43.317104,"lon":5.436818,"is_reserved":false,"is_disabled":false,"rental_uris":{"android":"levelo://app?vid=9bf905c2-7b41-48ec-bfc6-155ec656c7ee","ios":"levelo://app?vid=9bf905c2-7b41-48ec-bfc6-155ec656c7ee"},"vehicle_type_id":"4","last_reported":1687097149,"current_range_meters":30800,"station_id":"ce4bhp92rcd13ifvqhcg","pricing_plan_id":"free"},{"bike_id":"31fe3b3e-77ac-4e30-b398-145d6e2bee43","system_id":"levelo_inurba_marseille","lat":43.262012,"lon":5.379307,"is_reserved":false,"is_disabled":false,"rental_uris":{"android":"levelo://app?vid=31fe3b3e-77ac-4e30-b398-145d6e2bee43","ios":"levelo://app?vid=31fe3b3e-77ac-4e30-b398-145d6e2bee43"},"vehicle_type_id":"4","last_reported":1687097149,"current_range_meters":30400,"station_id":"ce4bhjp2rcd13ifvqg90","pricing_plan_id":"free"},{"bike_id":"c8050ce7-c8ae-4fe3-aae0-033c75e0994e","system_id":"levelo_inurba_marseille","lat":43.26213,"lon":5.37924,"is_reserved":false,"is_disabled":false,"rental_uris":{"android":"levelo://app?vid=c8050ce7-c8ae-4fe3-aae0-033c75e0994e","ios":"levelo://app?vid=c8050ce7-c8ae-4fe3-aae0-033c75e0994e"},"vehicle_type_id":"4","last_reported":1687097149,"current_range_meters":6400,"station_id":"ce4bhjp2rcd13ifvqg90","pricing_plan_id":"free"},