{"last_updated":1717250822,"ttl":30,"version":"2.2","data":{"bikes":[{"bike_id":"dc4ba024-627a-4090-ba09-c6cc59589601","system_id":"levelo_inurba_marseille","lat":43.31341,"lon":5.367098,"is_reserved":false,"is_disabled":false,"rental_uris":{"android":"levelo://app?vid=dc4ba024-627a-4090-ba09-c6cc59589601","ios":"levelo://app?vid=dc4ba024-627a-4090-ba09-c6cc59589601"},"vehicle_type_id":"4","last_reported":1717250822,"current_range_meters":19600,"station_id":"ce4bgr92rcd13ifvqc6g","pricing_plan_id":"cebpf4jnsgd1na2vs0mg"},{"bike_id":"578d900a-f88b-4da2-ad35-ff2bbd11eb8f","system_id":"levelo_inurba_marseille","lat":43.31341,"lon":5.367098,"is_reserved":false,"is_disabled":false,"rental_uris":{"android":"levelo://app?vid=578d900a-f88b-4da2-ad35-ff2bbd11eb8f","ios":"levelo://app?vid=578d900a-f88b-4da2-ad35-ff2bbd11eb8f"},"vehicle_type_id":"4","last_reported":1717250822,"current_range_meters":28400,"station_id":"ce4bgr92rcd13ifvqc6g","pricing_plan_id":"cebpf4jnsgd1na2vs0mg"},{"bike_id":"74f49e7d-df27-4222-ad53-531666b3a6a6","system_id":"levelo_inurba_marseille","lat":43.313391,"lon":5.36706,"is_reserved":false,"is_disabled":false,"rental_uris":{"android":"levelo://app?vid=74f49e7d-df27-4222-ad53-531666b3a6a6","ios":"levelo://app?vid=74f49e7d-df27-4222-ad53-531666b3a6a6"},"vehicle_type_id":"4","last_reported":1717250822,"current_range_meters":30800,"station_id":"ce4bgr92rcd13ifvqc6g","pricing_plan_id":"cebpf4jnsgd1na2vs0mg"},{"bike_id":"cdcaeaee-e8f1-4c0e-b83f-4628f788a9e9","system_id":"levelo_inurba_marseille","lat":43.31341,"lon":5.367098,"is_reserved":false,"is_disabled":false,"rental_uris":{"android":"levelo://app?vid=cdcaeaee-e8f1-4c0e-b83f-4628f788a9e9","ios":"levelo://app?vid=cdcaeaee-e8f1-4c0e-b83f-4628f788a9e9"},"vehicle_type_id":"4","last_reported":1717250822,"current_range_meters":13200,"station_id":"ce4bgr92rcd13ifvqc6g","pricing_plan_id":"cebpf4jnsgd1na2vs0mg"},{"bike_id":"4c8feb69-d09a-4b26-b00d-849f4cccd218","system_id":"levelo_inurba_marseille","lat":43.31341,"lon":5.367098,"is_reserved":false,"is_disabled":false,"rental_uris":{"android":"levelo://app?vid=4c8feb69-d09a-4b26-b00d-849f4cccd218","ios":"levelo://app?vid=4c8feb69-d09a-4b26-b00d-849f4cccd218"},"vehicle_type_id":"4","last_reported":1717250822,"current_range_meters":17600,"station_id":"ce4bgr92rcd13ifvqc6g","pricing_plan_id":"cebpf4jnsgd1na2vs0mg"},{"bike_id":"207960f0-816b-4d2b-adf8-b9adce403efc","system_id":"levelo_inurba_marseille","lat":43.312239,"lon":5.368562,"is_reserved":false,"is_disabled":false,"rental_uris":{"android":"levelo://app?vid=207960f0-816b-4d2b-adf8-b9adce403efc","ios":"levelo://app?vid=207960f0-816b-4d2b-adf8-b9adce403efc"},"vehicle_type_id":"4","last_reported":1717250822,"current_range_meters":28000,"station_id":"ce4bgl92rcd13ifvqbq0","pricing_plan_id":"cebpf4jnsgd1na2vs0mg"},{"bike_id":"66d34d8d-a5cc-4226-86b4-0c7b8acecc1e","system_id":"levelo_inurba_marseille","lat":43.312239,"lon":5.368562,"is_reserved":false,"is_disabled":false,"rental_uris":{"android":"levelo://app?vid=66d34d8d-a5cc-4226-86b4-0c7b8acecc1e","ios":"levelo://app?vid=66d34d8d-a5cc-4226-86b4-0c7b8acecc1e"},"vehicle_type_id":"4","last_reported":1717250822,"current_range_meters":22400,"station_id":"ce4bgl92rcd13ifvqbq0","pricing_plan_id":"cebpf4jnsgd1na2vs0mg"},{"bike_id":"9a28e142-1384-4f7b-9ea8-2ea3baa848df","system_id":"levelo_inurba_marseille","lat":43.312239,"lon":5.368562,"is_reserved":false,"is_disabled":false,"rental_uris":{"android":"levelo://app?vid=9a28e142-1384-4f7b-9ea8-2ea3baa848df","ios":"levelo://app?vid=9a28e142-1384-4f7b-9ea8-2ea3baa848df"},"vehicle_type_id":"4","last_reported":1717250822,"current_range_meters":22000,"station_id":"ce4bgl92rcd13ifvqbq0","pricing_plan_id":"cebpf4jnsgd1na2vs0mg"},{"bike_id":"1946689c-75f0-40ec-b598-90b8c0ec71f8","system_id":"levelo_inurba_marseille","lat":43.312239,"lon":5.368562,"is_reserved":false,"is_disabled":false,"rental_uris":{"android":"levelo://app?vid=1946689c-75f0-40ec-b598-90b8c0ec71f8","ios":"levelo://app?vid=1946689c-75f0-40ec-b598-90b8c0ec71f8"},"vehicle_type_id":"4","last_reported":1717250822,"current_range_meters":22000,"station_id":"ce4bgl92rcd13ifvqbq0","pricing_plan_id":"cebpf4jnsgd1na2vs0mg"},{"bike_id":"7457e873-89f7-4844-b191-90a17cf295b6","system_id":"levelo_inurba_marseille","lat":43.312239,"lon":5.368562,"is_reserved":false,"is_disabled":false,"rental_uris":{"android":"levelo://app?vid=7457e873-89f7-4844-b191-90a17cf295b6","ios":"levelo://app?vid=7457e873-89f7-4844-b191-90a17cf295b6"},"vehicle_type_id":"4","last_reported":1717250822,"current_range_meters":26400,"station_id":"ce4bgl92rcd13ifvqbq0","pricing_plan_id":"cebpf4jnsgd1na2vs0mg"},{"bike_id":"f472ffd6-6e89-4b3f-a7dc-3f6c7ec1f7ea","system_id":"levelo_inurba_marseille","lat":43.312239,"lon":5.368562,"is_reserved":false,"is_disabled":false,"rental_uris":{"android":"levelo://app?vid=f472ffd6-6e89-4b3f-a7dc-3f6c7ec1f7ea","ios":"levelo://app?vid=f472ffd6-6e89-4b3f-a7dc-3f6c7ec1f7ea"},"vehicle_type_id":"4","last_reported":1717250822,"current_range_meters":30400,"station_id":"ce4bgl92rcd13ifvqbq0","pricing_plan_id":"cebpf4jnsgd1na2vs0mg"},{"bike_id":"ae7726c8-a077-402b-9a12-45b84a7573be","system_id":"levelo_inurba_marseille","lat":43.31221,"lon":5.36859,"is_reserved":false,"is_disabled":false,"rental_uris":{"android":"levelo://app?vid=ae7726c8-a077-402b-9a12-45b84a7573be","ios":"levelo://app?vid=ae7726c8-a077-402b-9a12-45b84a7573be"},"vehicle_type_id":"4","last_reported":1717250822,"current_range_meters":4000,"station_id":"ce4bgl92rcd13ifvqbq0","pricing_plan_id":"cebpf4jnsgd1na2vs0mg"},{"bike_id":"0353bda5-5314-4cf2-879d-20651a7b0a80","system_id":"levelo_inurba_marseille","lat":43.312273,"lon":5.368657,"is_reserved":false,"is_disabled":false,"rental_uris":{"android":"levelo://app?vid=0353bda5-5314-4cf2-879d-20651a7b0a80","ios":"levelo://app?vid=0353bda5-5314-4cf2-879d-20651a7b0a80"},"vehicle_type_id":"4","last_reported":1717250822,"current_range_meters":26400,"station_id":"ce4bgl92rcd13ifvqbq0","pricing_plan_id":"cebpf4jnsgd1na2vs0mg"},{"bike_id":"b6078636-92d0-4dc4-a7bc-2a116f8c76ef","system_id":"levelo_inurba_marseille","lat":43.309076,"lon":5.368465,"is_reserved":false,"is_disabled":false,"rental_uris":{"android":"levelo://app?vid=b6078636-92d0-4dc4-a7bc-2a116f8c76ef","ios":"levelo://app?vid=b6078636-92d0-4dc4-a7bc-2a116f8c76ef"},"vehicle_type_id":"4","last_reported":1717250822,"current_range_meters":2400,"station_id":"ce4bgn92rcd13ifvqbvg","pricing_plan_id":"cebpf4jnsgd1na2vs0mg"},{"bike_id":"3035ebb4-5960-4afb-b828-4e5aed16430d","system_id":"levelo_inurba_marseille","lat":43.309076,"lon":5.368465,"is_reserved":false,"is_disabled":false,"rental_uris":{"android":"levelo://app?vid=3035ebb4-5960-4afb-b828-4e5aed16430d","ios":"levelo://app?vid=3035ebb4-5960-4afb-b828-4e5aed16430d"},"vehicle_type_id":"4","last_reported":1717250822,"current_range_meters":26000,"station_id":"ce4bgn92rcd13ifvqbvg","pricing_plan_id":"cebpf4jnsgd1na2vs0mg"},{"bike_id":"64a08756-7055-4288-81d0-5f5cc930066d","system_id":"levelo_inurba_marseille","lat":43.309076,"lon":5.368465,"is_reserved":false,"is_disabled":false,"rental_uris":{"android":"levelo://app?vid=64a08756-7055-4288-81d0-5f5cc930066d","ios":"levelo://app?vid=64a08756-7055-4288-81d0-5f5cc930066d"},"vehicle_type_id":"4","last_reported":1717250822,"current_range_meters":13200,"station_id":"ce4bgn92rcd13ifvqbvg","pricing_plan_id":"cebpf4jnsgd1na2vs0mg"},{"bike_id":"b2397af0-1c35-4d30-9214-60591d4f32fa","system_id":"levelo_inurba_marseille","lat":43.31494,"lon":5.37304,"is_reserved":false,"is_disabled":false,"rental_uris":{"android":"levelo://app?vid=b2397af0-1c35-4d30-9214-60591d4f32fa","ios":"levelo://app?vid=b2397af0-1c35-4d30-9214-60591d4f32fa"},"vehicle_type_id":"4","last_reported":1717250822,"current_range_meters":0,"station_id":"ce4bgt12rcd13ifvqcd0","pricing_plan_id":"cebpf4jnsgd1na2vs0mg"},{"bike_id":"bc4b8ef4-c4c3-41bf-928f-f5f1302d4480","system_id":"levelo_inurba_marseille","lat":43.314811,"lon":5.373103,"is_reserved":false,"is_disabled":false,"rental_uris":{"android":"levelo://app?vid=bc4b8ef4-c4c3-41bf-928f-f5f1302d4480","ios":"levelo://app?vid=bc4b8ef4-c4c3-41bf-928f-f5f1302d4480"},"vehicle_type_id":"4","last_reported":1717250822,"current_range_meters":27600,"station_id":"ce4bgt12rcd13ifvqcd0","pricing_plan_id":"cebpf4jnsgd1na2vs0mg"},{"bike_id":"cd935285-da0e-4b23-a1bc-9b1e402d1ba7","system_id":"levelo_inurba_marseille","lat":43.309039,"lon":5.371797,"is_reserved":false,"is_disabled":false,"rental_uris":{"android":"levelo://app?vid=cd935285-da0e-4b23-a1bc-9b1e402d1ba7","ios":"levelo://app?vid=cd935285-da0e-4b23-a1bc-9b1e402d1ba7"},"vehicle_type_id":"4","last_reported":1717250822,"current_range_meters":13200,"station_id":"ce4bguh2rcd13ifvqckg","pricing_plan_id":"cebpf4jnsgd1na2vs0mg"},{"bike_id":"18e91ad7-91b5-4810-9fad-e18f3ac89a58","system_id":"levelo_inurba_marseille","lat":43.309039,"lon":5.371797,"is_reserved":false,"is_disabled":false,"rental_uris":{"android":"levelo://app?vid=18e91ad7-91b5-4810-9fad-e18f3ac89a58","ios":"levelo://app?vid=18e91ad7-91b5-4810-9fad-e18f3ac89a58"},"vehicle_type_id":"4","last_reported":1717250822,"current_range_meters":26400,"station_id":"ce4bguh2rcd13ifvqckg","pricing_plan_id":"cebpf4jnsgd1na2vs0mg"},{"bike_id":"75c9e50d-93f6-4a28-99b7-70957fda040f","system_id":"levelo_inurba_marseille","lat":43.305712,"lon":5.365641,"is_reserved":false,"is_disabled":false,"rental_uris":{"android":"levelo://app?vid=75c9e50d-93f6-4a28-99b7-70957fda040f","ios":"levelo://app?vid=75c9e50d-93f6-4a28-99b7-70957fda040f"},"vehicle_type_id":"4","last_reported":1717250822,"current_range_meters":3600,"station_id":"ce4bgs12rcd13ifvqcag","pricing_plan_id":"cebpf4jnsgd1na2vs0mg"},{"bike_id":"da9e8305-53ff-4757-8e95-3c68af9b07f9","system_id":"levelo_inurba_marseille","lat":43.305714,"lon":5.365633,"is_reserved":false,"is_disabled":false,"rental_uris":{"android":"levelo://app?vid=da9e8305-53ff-4757-8e95-3c68af9b07f9","ios":"levelo://app?vid=da9e8305-53ff-4757-8e95-3c68af9b07f9"},"vehicle_type_id":"4","last_reported":1717250822,"current_range_meters":26800,"station_id":"ce4bgs12rcd13ifvqcag","pricing_plan_id":"cebpf4jnsgd1na2vs0mg"},{"bike_id":"0bc4cec0-eac0-468a-be9c-b909f35a81a1","system_id":"levelo_inurba_marseille","lat":43.305706,"lon":5.365654,"is_reserved":false,"is_disabled":false,"rental_uris":{"android":"levelo://app?vid=0bc4cec0-eac0-468a-be9c-b909f35a81a1","ios":"levelo://app?vid=0bc4cec0-eac0-468a-be9c-b909f35a81a1"},"vehicle_type_id":"4","last_reported":1717250822,"current_range_meters":7600,"station_id":"ce4bgs12rcd13ifvqcag","pricing_plan_id":"cebpf4jnsgd1na2vs0mg"},{"bike_id":"d0ab863e-e38b-469d-965b-3dbc93acd280","system_id":"levelo_inurba_marseille","lat":43.30599,"lon":5.37224,"is_reserved":false,"is_disabled":false,"rental_uris":{"android":"levelo://app?vid=d0ab863e-e38b-469d-965b-3dbc93acd280","ios":"levelo://app?vid=d0ab863e-e38b-469d-965b-3dbc93acd280"},"vehicle_type_id":"4","last_reported":1717250822,"current_range_meters":1200,"station_id":"ce4bhbh2rcd13ifvqepg","pricing_plan_id":"cebpf4jnsgd1na2vs0mg"},{"bike_id":"abac92f1-d230-4bf4-a896-b76a9e586220","system_id":"levelo_inurba_marseille","lat":43.307945,"lon":5.376487,"is_reserved":false,"is_disabled":false,"rental_uris":{"android":"levelo://app?vid=abac92f1-d230-4bf4-a896-b76a9e586220","ios":"levelo://app?vid=abac92f1-d230-4bf4-a896-b76a9e586220"},"vehicle_type_id":"4","last_reported":1717250822,"current_range_meters":23200,"station_id":"ce4bgv92rcd13ifvqcq0","pricing_plan_id":"cebpf4jnsgd1na2vs0mg"},{"bike_id":"e1a460bd-8da3-47a0-9ee7-a0b3cd109dbb","system_id":"levelo_inurba_marseille","lat":43.317075,"lon":5.377367,"is_reserved":false,"is_disabled":false,"rental_uris":{"android":"levelo://app?vid=e1a460bd-8da3-47a0-9ee7-a0b3cd109dbb","ios":"levelo://app?vid=e1a460bd-8da3-47a0-9ee7-a0b3cd109dbb"},"vehicle_type_id":"4","last_reported":1717250822,"current_range_meters":28800,"station_id":"ce4bgth2rcd13ifvqch0","pricing_plan_id":"cebpf4jnsgd1na2vs0mg"},{"bike_id":"ed79acb2-3b5d-4ed9-852c-2c2dfb5e6034","system_id":"levelo_inurba_marseille","lat":43.317075,"lon":5.377367,"is_reserved":false,"is_disabled":false,"rental_uris":{"android":"levelo://app?vid=ed79acb2-3b5d-4ed9-852c-2c2dfb5e6034","ios":"levelo://app?vid=ed79acb2-3b5d-4ed9-852c-2c2dfb5e6034"},"vehicle_type_id":"4","last_reported":1717250822,"current_range_meters":27200,"station_id":"ce4bgth2rcd13ifvqch0","pricing_plan_id":"cebpf4jnsgd1na2vs0mg"},{"bike_id":"048b712a-c903-4c25-b3e0-60bf345e6f63","system_id":"levelo_inurba_marseille","lat":43.317075,"lon":5.377367,"is_reserved":false,"is_disabled":false,"rental_uris":{"android":"levelo://app?vid=048b712a-c903-4c25-b3e0-60bf345e6f63","ios":"levelo://app?vid=048b712a-c903-4c25-b3e0-60bf345e6f63"},"vehicle_type_id":"4","last_reported":1717250822,"current_range_meters":19200,"station_id":"ce4bgth2rcd13ifvqch0","pricing_plan_id":"cebpf4jnsgd1na2vs0mg"},{"bike_id":"c63e7b58-a72e-4076-9d8f-c78437b61b58","system_id":"levelo_inurba_marseille","lat":43.303046,"lon":5.368981,"is_reserved":false,"is_disabled":false,"rental_uris":{"android":"levelo://app?vid=c63e7b58-a72e-4076-9d8f-c78437b61b58","ios":"levelo://app?vid=c63e7b58-a72e-4076-9d8f-c78437b61b58"},"vehicle_type_id":"4","last_reported":1717250822,"current_range_meters":31200,"station_id":"ce4bgqh2rcd13ifvqc5g","pricing_plan_id":"cebpf4jnsgd1na2vs0mg"},{"bike_id":"129d64c9-9732-4603-a8eb-cb1c9a42c5c7","system_id":"levelo_inurba_marseille","lat":43.303046,"lon":5.368981,"is_reserved":false,"is_disabled":false,"rental_uris":{"android":"levelo://app?vid=129d64c9-9732-4603-a8eb-cb1c9a42c5c7","ios":"levelo://app?vid=129d64c9-9732-4603-a8eb-cb1c9a42c5c7"},"vehicle_type_id":"4","last_reported":1717250822,"current_range_meters":31200,"station_id":"ce4bgqh2rcd13ifvqc5g","pricing_plan_id":"cebpf4jnsgd1na2vs0mg"},{"bike_id":"ab7a5d67-9a1d-45c0-8d82-68c376f83c1b","system_id":"levelo_inurba_marseille","lat":43.303046,"lon":5.368981,"is_reserved":false,"is_disabled":false,"rental_uris":{"android":"levelo://app?vid=ab7a5d67-9a1d-45c0-8d82-68c376f83c1b","ios":"levelo://app?vid=ab7a5d67-9a1d-45c0-8d82-68c376f83c1b"},"vehicle_type_id":"4","last_reported":1717250822,"current_range_meters":22400,"station_id":"ce4bgqh2rcd13ifvqc5g","pricing_plan_id":"cebpf4jnsgd1na2vs0mg"},{"bike_id":"2658a9fb-8de1-43b9-be94-16d7d778e4ab","system_id":"levelo_inurba_marseille","lat":43.303047,"lon":5.368847,"is_reserved":false,"is_disabled":false,"rental_uris":{"android":"levelo://app?vid=2658a9fb-8de1-43b9-be94-16d7d778e4ab","ios":"levelo://app?vid=2658a9fb-8de1-43b9-be94-16d7d778e4ab"},"vehicle_type_id":"4","last_reported":1717250822,"current_range_meters":27600,"station_id":"","pricing_plan_id":"cebpf4jnsgd1na2vs0mg"},{"bike_id":"81911717-c9c3-4b05-99d7-8b571578ee46","system_id":"levelo_inurba_marseille","lat":43.304606,"lon":5.379026,"is_reserved":false,"is_disabled":false,"rental_uris":{"android":"levelo://app?vid=81911717-c9c3-4b05-99d7-8b571578ee46","ios":"levelo://app?vid=81911717-c9c3-4b05-99d7-8b571578ee46"},"vehicle_type_id":"4","last_reported":1717250822,"current_range_meters":5200,"station_id":"ce4bgup2rcd13ifvqcn0","pricing_plan_id":"cebpf4jnsgd1na2vs0mg"},{"bike_id":"e1411aa6-482e-4b59-a8a4-cd77e4d40113","system_id":"levelo_inurba_marseille","lat":43.304606,"lon":5.379026,"is_reserved":false,"is_disabled":false,"rental_uris":{"android":"levelo://app?vid=e1411aa6-482e-4b59-a8a4-cd77e4d40113","ios":"levelo://app?vid=e1411aa6-482e-4b59-a8a4-cd77e4d40113"},"vehicle_type_id":"4","last_reported":1717250822,"current_range_meters":3600,"station_id":"ce4bgup2rcd13ifvqcn0","pricing_plan_id":"cebpf4jnsgd1na2vs0mg"},{"bike_id":"111f8e7c-3b49-4293-84a1-72f822a86ce6","system_id":"levelo_inurba_marseille","lat":43.32483,"lon":5.36572,"is_reserved":false,"is_disabled":false,"rental_uris":{"android":"levelo://app?vid=111f8e7c-3b49-4293-84a1-72f822a86ce6","ios":"levelo://app?vid=111f8e7c-3b49-4293-84a1-72f822a86ce6"},"vehicle_type_id":"4","last_reported":1717250822,"current_range_meters":6800,"station_id":"ce4bhs12rcd13ifvqhvg","pricing_plan_id":"cebpf4jnsgd1na2vs0mg"},{"bike_id":"e7b5d43e-79e3-471c-8dbb-1d88bd546cd5","system_id":"levelo_inurba_marseille","lat":43.32485,"lon":5.36571,"is_reserved":false,"is_disabled":false,"rental_uris":{"android":"levelo://app?vid=e7b5d43e-79e3-471c-8dbb-1d88bd546cd5","ios":"levelo://app?vid=e7b5d43e-79e3-471c-8dbb-1d88bd546cd5"},"vehicle_type_id":"4","last_reported":1717250822,"current_range_meters":16000,"station_id":"ce4bhs12rcd13ifvqhvg","pricing_plan_id":"cebpf4jnsgd1na2vs0mg"},{"bike_id":"d04fd5fb-b406-4e2e-8104-985e27b5e327","system_id":"levelo_inurba_marseille","lat":43.30058,"lon":5.36567,"is_reserved":false,"is_disabled":false,"rental_uris":{"android":"levelo://app?vid=d04fd5fb-b406-4e2e-8104-985e27b5e327","ios":"levelo://app?vid=d04fd5fb-b406-4e2e-8104-985e27b5e327"},"vehicle_type_id":"4","last_reported":1717250822,"current_range_meters":14800,"station_id":"","pricing_plan_id":"cebpf4jnsgd1na2vs0mg"},{"bike_id":"0f424c36-2abc-4a43-bed2-69a8b26575a2","system_id":"levelo_inurba_marseille","lat":43.324771,"lon":5.36557,"is_reserved":false,"is_disabled":false,"rental_uris":{"android":"levelo://app?vid=0f424c36-2abc-4a43-bed2-69a8b26575a2","ios":"levelo://app?vid=0f424c36-2abc-4a43-bed2-69a8b26575a2"},"vehicle_type_id":"4","last_reported":1717250822,"current_range_meters":18800,"station_id":"ce4bhs12rcd13ifvqhvg","pricing_plan_id":"cebpf4jnsgd1na2vs0mg"},{"bike_id":"baf119c8-71e9-43af-aaef-d7f8a1c924b2","system_id":"levelo_inurba_marseille","lat":43.310804,"lon":5.38359,"is_reserved":false,"is_disabled":false,"rental_uris":{"android":"levelo://app?vid=baf119c8-71e9-43af-aaef-d7f8a1c924b2","ios":"levelo://app?vid=baf119c8-71e9-43af-aaef-d7f8a1c924b2"},"vehicle_type_id":"4","last_reported":1717250822,"current_range_meters":0,"station_id":"ce4bgv92rcd13ifvqcr0","pricing_plan_id":"cebpf4jnsgd1na2vs0mg"},{"bike_id":"1e215c97-8f76-40b7-b526-9684ba86b828","system_id":"levelo_inurba_marseille","lat":43.310804,"lon":5.38359,"is_reserved":false,"is_disabled":false,"rental_uris":{"android":"levelo://app?vid=1e215c97-8f76-40b7-b526-9684ba86b828","ios":"levelo://app?vid=1e215c97-8f76-40b7-b526-9684ba86b828"},"vehicle_type_id":"4","last_reported":1717250822,"current_range_meters":5600,"station_id":"ce4bgv92rcd13ifvqcr0","pricing_plan_id":"cebpf4jnsgd1na2vs0mg"},{"bike_id":"1df55bc5-0a66-458c-9977-c13c5fbd83d7","system_id":"levelo_inurba_marseille","lat":43.302866,"lon":5.376973,"is_reserved":false,"is_disabled":false,"rental_uris":{"android":"levelo://app?vid=1df55bc5-0a66-458c-9977-c13c5fbd83d7","ios":"levelo://app?vid=1df55bc5-0a66-458c-9977-c13c5fbd83d7"},"vehicle_type_id":"4","last_reported":1717250822,"current_range_meters":0,"station_id":"ce4bguh2rcd13ifvqcj0","pricing_plan_id":"cebpf4jnsgd1na2vs0mg"},{"bike_id":"a2eef096-7fb1-45c3-8f7c-baa79797b679","system_id":"levelo_inurba_marseille","lat":43.302784,"lon":5.377158,"is_reserved":false,"is_disabled":false,"rental_uris":{"android":"levelo://app?vid=a2eef096-7fb1-45c3-8f7c-baa79797b679","ios":"levelo://app?vid=a2eef096-7fb1-45c3-8f7c-baa79797b679"},"vehicle_type_id":"4","last_reported":1717250822,"current_range_meters":7200,"station_id":"ce4bguh2rcd13ifvqcj0","pricing_plan_id":"cebpf4jnsgd1na2vs0mg"},{"bike_id":"abee21e9-a322-4642-af20-91eba16cea13","system_id":"levelo_inurba_marseille","lat":43.302784,"lon":5.377158,"is_reserved":false,"is_disabled":false,"rental_uris":{"android":"levelo://app?vid=abee21e9-a322-4642-af20-91eba16cea13","ios":"levelo://app?vid=abee21e9-a322-4642-af20-91eba16cea13"},"vehicle_type_id":"4","last_reported":1717250822,"current_range_meters":0,"station_id":"ce4bguh2rcd13ifvqcj0","pricing_plan_id":"cebpf4jnsgd1na2vs0mg"},{"bike_id":"57ce70b9-5844-4697-94b2-061170f7df28","system_id":"levelo_inurba_marseille","lat":43.301429,"lon":5.37413,"is_reserved":false,"is_disabled":false,"rental_uris":{"android":"levelo://app?vid=57ce70b9-5844-4697-94b2-061170f7df28","ios":"levelo://app?vid=57ce70b9-5844-4697-94b2-061170f7df28"},"vehicle_type_id":"4","last_reported":1717250822,"current_range_meters":17600,"station_id":"ce4bgs92rcd13ifvqcc0","pricing_plan_id":"cebpf4jnsgd1na2vs0mg"},{"bike_id":"a99a02fa-967b-4fce-ad4f-57e56033e918","system_id":"levelo_inurba_marseille","lat":43.30143,"lon":5.37413,"is_reserved":false,"is_disabled":false,"rental_uris":{"android":"levelo://app?vid=a99a02fa-967b-4fce-ad4f-57e56033e918","ios":"levelo://app?vid=a99a02fa-967b-4fce-ad4f-57e56033e918"},"vehicle_type_id":"4","last_reported":1717250822,"current_range_meters":800,"station_id":"ce4bgs92rcd13ifvqcc0","pricing_plan_id":"cebpf4jnsgd1na2vs0mg"},{"bike_id":"f01596e4-058b-4ca0-8c59-ff3bac77fea4","system_id":"levelo_inurba_marseille","lat":43.30143,"lon":5.37413,"is_reserved":false,"is_disabled":false,"rental_uris":{"android":"levelo://app?vid=f01596e4-058b-4ca0-8c59-ff3bac77fea4","ios":"levelo://app?vid=f01596e4-058b-4ca0-8c59-ff3bac77fea4"},"vehicle_type_id":"4","last_reported":1717250822,"current_range_meters":10400,"station_id":"ce4bgs92rcd13ifvqcc0","pricing_plan_id":"cebpf4jnsgd1na2vs0mg"},{"bike_id":"fba36964-7b11-4e6a-8721-ae3a9e7bed5f","system_id":"levelo_inurba_marseille","lat":43.319935,"lon":5.381699,"is_reserved":false,"is_disabled":false,"rental_uris":{"android":"levelo://app?vid=fba36964-7b11-4e6a-8721-ae3a9e7bed5f","ios":"levelo://app?vid=fba36964-7b11-4e6a-8721-ae3a9e7bed5f"},"vehicle_type_id":"4","last_reported":1717250822,"current_range_meters":18400,"station_id":"ce4bhr12rcd13ifvqhpg","pricing_plan_id":"cebpf4jnsgd1na2vs0mg"},{"bike_id":"a1b324c3-4672-4178-8f46-8f15d360dea8","system_id":"levelo_inurba_marseille","lat":43.303251,"lon":5.379247,"is_reserved":false,"is_disabled":false,"rental_uris":{"android":"levelo://app?vid=a1b324c3-4672-4178-8f46-8f15d360dea8","ios":"levelo://app?vid=a1b324c3-4672-4178-8f46-8f15d360dea8"},"vehicle_type_id":"4","last_reported":1717250822,"current_range_meters":22000,"station_id":"","pricing_plan_id":"cebpf4jnsgd1na2vs0mg"},{"bike_id":"4fc8293c-d141-4ed8-9b58-e1dff4f56d40","system_id":"levelo_inurba_marseille","lat":43.31354,"lon":5.38496,"is_reserved":false,"is_disabled":false,"rental_uris":{"android":"levelo://app?vid=4fc8293c-d141-4ed8-9b58-e1dff4f56d40","ios":"levelo://app?vid=4fc8293c-d141-4ed8-9b58-e1dff4f56d40"},"vehicle_type_id":"4","last_reported":1717250822,"current_range_meters":0,"station_id":"ce4bgt92rcd13ifvqcf0","pricing_plan_id":"cebpf4jnsgd1na2vs0mg"},{"bike_id":"b5abc2fa-0c38-4679-8c9c-b399d514df36","system_id":"levelo_inurba_marseille","lat":43.299925,"lon":5.371823,"is_reserved":false,"is_disabled":false,"rental_uris":{"android":"levelo://app?vid=b5abc2fa-0c38-4679-8c9c-b399d514df36","ios":"levelo://app?vid=b5abc2fa-0c38-4679-8c9c-b399d514df36"},"vehicle_type_id":"4","last_reported":1717250822,"current_range_meters":6800,"station_id":"ce4bgr92rcd13ifvqc7g","pricing_plan_id":"cebpf4jnsgd1na2vs0mg"},{"bike_id":"6ada48f6-accf-46b4-9560-55929bbc559e","system_id":"levelo_inurba_marseille","lat":43.299222,"lon":5.365554,"is_reserved":false,"is_disabled":false,"rental_uris":{"android":"levelo://app?vid=6ada48f6-accf-46b4-9560-55929bbc559e","ios":"levelo://app?vid=6ada48f6-accf-46b4-9560-55929bbc559e"},"vehicle_type_id":"4","last_reported":1717250822,"current_range_meters":20000,"station_id":"ce4bgm92rcd13ifvqbr0","pricing_plan_id":"cebpf4jnsgd1na2vs0mg"},{"bike_id":"13677fed-8d60-471f-a1fa-48820be06d41","system_id":"levelo_inurba_marseille","lat":43.315839,"lon":5.384727,"is_reserved":false,"is_disabled":false,"rental_uris":{"android":"levelo://app?vid=13677fed-8d60-471f-a1fa-48820be06d41","ios":"levelo://app?vid=13677fed-8d60-471f-a1fa-48820be06d41"},"vehicle_type_id":"4","last_reported":1717250822,"current_range_meters":0,"station_id":"","pricing_plan_id":"cebpf4jnsgd1na2vs0mg"},{"bike_id":"cbd0d848-29b8-4058-aa67-2adaea09434a","system_id":"levelo_inurba_marseille","lat":43.299222,"lon":5.365554,"is_reserved":false,"is_disabled":false,"rental_uris":{"android":"levelo://app?vid=cbd0d848-29b8-4058-aa67-2adaea09434a","ios":"levelo://app?vid=cbd0d848-29b8-4058-aa67-2adaea09434a"},"vehicle_type_id":"4","last_reported":1717250822,"current_range_meters":16000,"station_id":"ce4bgm92rcd13ifvqbr0","pricing_plan_id":"cebpf4jnsgd1na2vs0mg"},{"bike_id":"06777ca1-eeb1-4814-8a63-92403a119a8a","system_id":"levelo_inurba_marseille","lat":43.299222,"lon":5.365554,"is_reserved":false,"is_disabled":false,"rental_uris":{"android":"levelo://app?vid=06777ca1-eeb1-4814-8a63-92403a119a8a","ios":"levelo://app?vid=06777ca1-eeb1-4814-8a63-92403a119a8a"},"vehicle_type_id":"4","last_reported":1717250822,"current_range_meters":11200,"station_id":"ce4bgm92rcd13ifvqbr0","pricing_plan_id":"cebpf4jnsgd1na2vs0mg"},{"bike_id":"3016f594-ed08-4894-b683-3e45a982dd86","system_id":"levelo_inurba_marseille","lat":43.299222,"lon":5.365554,"is_reserved":false,"is_disabled":false,"rental_uris":{"android":"levelo://app?vid=3016f594-ed08-4894-b683-3e45a982dd86","ios":"levelo://app?vid=3016f594-ed08-4894-b683-3e45a982dd86"},"vehicle_type_id":"4","last_reported":1717250822,"current_range_meters":12400,"station_id":"ce4bgm92rcd13ifvqbr0","pricing_plan_id":"cebpf4jnsgd1na2vs0mg"},{"bike_id":"a6220985-dbb5-4b1f-b6d0-bf29ea1fe193","system_id":"levelo_inurba_marseille","lat":43.299222,"lon":5.365554,"is_reserved":false,"is_disabled":false,"rental_uris":{"android":"levelo://app?vid=a6220985-dbb5-4b1f-b6d0-bf29ea1fe193","ios":"levelo://app?vid=a6220985-dbb5-4b1f-b6d0-bf29ea1fe193"},"vehicle_type_id":"4","last_reported":1717250822,"current_range_meters":25200,"station_id":"ce4bgm92rcd13ifvqbr0","pricing_plan_id":"cebpf4jnsgd1na2vs0mg"},{"bike_id":"9b079e16-f7fe-40f0-9f07-947d199b3c23","system_id":"levelo_inurba_marseille","lat":43.299243,"lon":5.374807,"is_reserved":false,"is_disabled":false,"rental_uris":{"android":"levelo://app?vid=9b079e16-f7fe-40f0-9f07-947d199b3c23","ios":"levelo://app?vid=9b079e16-f7fe-40f0-9f07-947d199b3c23"},"vehicle_type_id":"4","last_reported":1717250822,"current_range_meters":5600,"station_id":"ce4bgjh2rcd13ifvqbg0","pricing_plan_id":"cebpf4jnsgd1na2vs0mg"},{"bike_id":"1c9364ee-a431-47d4-b3f2-87e55795a12e","system_id":"levelo_inurba_marseille","lat":43.298433,"lon":5.362774,"is_reserved":false,"is_disabled":false,"rental_uris":{"android":"levelo://app?vid=1c9364ee-a431-47d4-b3f2-87e55795a12e","ios":"levelo://app?vid=1c9364ee-a431-47d4-b3f2-87e55795a12e"},"vehicle_type_id":"4","last_reported":1717250822,"current_range_meters":30800,"station_id":"ce4bgpp2rcd13ifvqc3g","pricing_plan_id":"cebpf4jnsgd1na2vs0mg"},{"bike_id":"f84d3df7-fb22-4209-908f-3dea0bb2eff9","system_id":"levelo_inurba_marseille","lat":43.298433,"lon":5.362774,"is_reserved":false,"is_disabled":false,"rental_uris":{"android":"levelo://app?vid=f84d3df7-fb22-4209-908f-3dea0bb2eff9","ios":"levelo://app?vid=f84d3df7-fb22-4209-908f-3dea0bb2eff9"},"vehicle_type_id":"4","last_reported":1717250822,"current_range_meters":24800,"station_id":"ce4bgpp2rcd13ifvqc3g","pricing_plan_id":"cebpf4jnsgd1na2vs0mg"},{"bike_id":"7c0279c4-785e-41cc-9875-11b1aa5697b0","system_id":"levelo_inurba_marseille","lat":43.298433,"lon":5.362774,"is_reserved":false,"is_disabled":false,"rental_uris":{"android":"levelo://app?vid=7c0279c4-785e-41cc-9875-11b1aa5697b0","ios":"levelo://app?vid=7c0279c4-785e-41cc-9875-11b1aa5697b0"},"vehicle_type_id":"4","last_reported":1717250822,"current_range_meters":30400,"station_id":"ce4bgpp2rcd13ifvqc3g","pricing_plan_id":"cebpf4jnsgd1na2vs0mg"},{"bike_id":"35d1f0d9-c12a-4ffd-b70b-faff209c1c16","system_id":"levelo_inurba_marseille","lat":43.298433,"lon":5.362774,"is_reserved":false,"is_disabled":false,"rental_uris":{"android":"levelo://app?vid=35d1f0d9-c12a-4ffd-b70b-faff209c1c16","ios":"levelo://app?vid=35d1f0d9-c12a-4ffd-b70b-faff209c1c16"},"vehicle_type_id":"4","last_reported":1717250822,"current_range_meters":31200,"station_id":"ce4bgpp2rcd13ifvqc3g","pricing_plan_id":"cebpf4jnsgd1na2vs0mg"},{"bike_id":"a7da5014-504a-49e7-8a36-5d208bbdb996","system_id":"levelo_inurba_marseille","lat":43.305364,"lon":5.384119,"is_reserved":false,"is_disabled":false,"rental_uris":{"android":"levelo://app?vid=a7da5014-504a-49e7-8a36-5d208bbdb996","ios":"levelo://app?vid=a7da5014-504a-49e7-8a36-5d208bbdb996"},"vehicle_type_id":"4","last_reported":1717250822,"current_range_meters":28400,"station_id":"ce4bgg92rcd13ifvqb30","pricing_plan_id":"cebpf4jnsgd1na2vs0mg"},{"bike_id":"dc6102c1-8748-49ac-8b78-3c247e76394d","system_id":"levelo_inurba_marseille","lat":43.298433,"lon":5.362774,"is_reserved":false,"is_disabled":false,"rental_uris":{"android":"levelo://app?vid=dc6102c1-8748-49ac-8b78-3c247e76394d","ios":"levelo://app?vid=dc6102c1-8748-49ac-8b78-3c247e76394d"},"vehicle_type_id":"4","last_reported":1717250822,"current_range_meters":26800,"station_id":"ce4bgpp2rcd13ifvqc3g","pricing_plan_id":"cebpf4jnsgd1na2vs0mg"},{"bike_id":"9bddb49e-0e63-482a-8c39-1a21f8e77f87","system_id":"levelo_inurba_marseille","lat":43.299243,"lon":5.37481,"is_reserved":false,"is_disabled":false,"rental_uris":{"android":"levelo://app?vid=9bddb49e-0e63-482a-8c39-1a21f8e77f87","ios":"levelo://app?vid=9bddb49e-0e63-482a-8c39-1a21f8e77f87"},"vehicle_type_id":"4","last_reported":1717250822,"current_range_meters":27200,"station_id":"ce4bgjh2rcd13ifvqbg0","pricing_plan_id":"cebpf4jnsgd1na2vs0mg"},{"bike_id":"b213d609-a0f5-41b9-a2ca-f4a7b3f9c213","system_id":"levelo_inurba_marseille","lat":43.299243,"lon":5.37481,"is_reserved":false,"is_disabled":false,"rental_uris":{"android":"levelo://app?vid=b213d609-a0f5-41b9-a2ca-f4a7b3f9c213","ios":"levelo://app?vid=b213d609-a0f5-41b9-a2ca-f4a7b3f9c213"},"vehicle_type_id":"4","last_reported":1717250822,"current_range_meters":10400,"station_id":"ce4bgjh2rcd13ifvqbg0","pricing_plan_id":"cebpf4jnsgd1na2vs0mg"},{"bike_id":"d47fb796-b284-40a9-99f6-8886df67041c","system_id":"levelo_inurba_marseille","lat":43.311722,"lon":5.387247,"is_reserved":false,"is_disabled":false,"rental_uris":{"android":"levelo://app?vid=d47fb796-b284-40a9-99f6-8886df67041c","ios":"levelo://app?vid=d47fb796-b284-40a9-99f6-8886df67041c"},"vehicle_type_id":"4","last_reported":1717250822,"current_range_meters":5200,"station_id":"ce4bgv12rcd13ifvqcp0","pricing_plan_id":"cebpf4jnsgd1na2vs0mg"},{"bike_id":"bd135b90-813a-4591-82b0-d87aaae86b7c","system_id":"levelo_inurba_marseille","lat":43.297794,"lon":5.370888,"is_reserved":false,"is_disabled":false,"rental_uris":{"android":"levelo://app?vid=bd135b90-813a-4591-82b0-d87aaae86b7c","ios":"levelo://app?vid=bd135b90-813a-4591-82b0-d87aaae86b7c"},"vehicle_type_id":"4","last_reported":1717250822,"current_range_meters":26400,"station_id":"ce4bgop2rcd13ifvqc1g","pricing_plan_id":"cebpf4jnsgd1na2vs0mg"},{"bike_id":"fb5f773c-3b64-4abb-9291-8bdd0ceb4b7d","system_id":"levelo_inurba_marseille","lat":43.29791,"lon":5.371147,"is_reserved":false,"is_disabled":false,"rental_uris":{"android":"levelo://app?vid=fb5f773c-3b64-4abb-9291-8bdd0ceb4b7d","ios":"levelo://app?vid=fb5f773c-3b64-4abb-9291-8bdd0ceb4b7d"},"vehicle_type_id":"4","last_reported":1717250822,"current_range_meters":0,"station_id":"ce4bgop2rcd13ifvqc1g","pricing_plan_id":"cebpf4jnsgd1na2vs0mg"},{"bike_id":"10fb4334-c940-4455-979b-d3f1ca32e262","system_id":"levelo_inurba_marseille","lat":43.297774,"lon":5.370875,"is_reserved":false,"is_disabled":false,"rental_uris":{"android":"levelo://app?vid=10fb4334-c940-4455-979b-d3f1ca32e262","ios":"levelo://app?vid=10fb4334-c940-4455-979b-d3f1ca32e262"},"vehicle_type_id":"4","last_reported":1717250822,"current_range_meters":29200,"station_id":"ce4bgop2rcd13ifvqc1g","pricing_plan_id":"cebpf4jnsgd1na2vs0mg"},{"bike_id":"c8674664-0329-42f4-a28d-5fe68827d1fa","system_id":"levelo_inurba_marseille","lat":43.322917,"lon":5.382667,"is_reserved":false,"is_disabled":false,"rental_uris":{"android":"levelo://app?vid=c8674664-0329-42f4-a28d-5fe68827d1fa","ios":"levelo://app?vid=c8674664-0329-42f4-a28d-5fe68827d1fa"},"vehicle_type_id":"4","last_reported":1717250822,"current_range_meters":30400,"station_id":"ce4bhr12rcd13ifvqhqg","pricing_plan_id":"cebpf4jnsgd1na2vs0mg"},{"bike_id":"f27e3382-c395-4c0a-a760-e9e307454899","system_id":"levelo_inurba_marseille","lat":43.322872,"lon":5.382756,"is_reserved":false,"is_disabled":false,"rental_uris":{"android":"levelo://app?vid=f27e3382-c395-4c0a-a760-e9e307454899","ios":"levelo://app?vid=f27e3382-c395-4c0a-a760-e9e307454899"},"vehicle_type_id":"4","last_reported":1717250822,"current_range_meters":10400,"station_id":"ce4bhr12rcd13ifvqhqg","pricing_plan_id":"cebpf4jnsgd1na2vs0mg"},{"bike_id":"a6850727-00b1-4dd8-bb80-3e158c4e1090","system_id":"levelo_inurba_marseille","lat":43.322872,"lon":5.382756,"is_reserved":false,"is_disabled":false,"rental_uris":{"android":"levelo://app?vid=a6850727-00b1-4dd8-bb80-3e158c4e1090","ios":"levelo://app?vid=a6850727-00b1-4dd8-bb80-3e158c4e1090"},"vehicle_type_id":"4","last_reported":1717250822,"current_range_meters":31600,"station_id":"ce4bhr12rcd13ifvqhqg","pricing_plan_id":"cebpf4jnsgd1na2vs0mg"},{"bike_id":"e5d782f4-4702-47c8-9eee-86e56a037e15","system_id":"levelo_inurba_marseille","lat":43.296129,"lon":5.370777,"is_reserved":false,"is_disabled":false,"rental_uris":{"android":"levelo://app?vid=e5d782f4-4702-47c8-9eee-86e56a037e15","ios":"levelo://app?vid=e5d782f4-4702-47c8-9eee-86e56a037e15"},"vehicle_type_id":"4","last_reported":1717250822,"current_range_meters":16800,"station_id":"ce4bgnh2rcd13ifvqc0g","pricing_plan_id":"cebpf4jnsgd1na2vs0mg"},{"bike_id":"ae8c022d-fe0e-4723-bbfe-0c025d631397","system_id":"levelo_inurba_marseille","lat":43.296129,"lon":5.370777,"is_reserved":false,"is_disabled":false,"rental_uris":{"android":"levelo://app?vid=ae8c022d-fe0e-4723-bbfe-0c025d631397","ios":"levelo://app?vid=ae8c022d-fe0e-4723-bbfe-0c025d631397"},"vehicle_type_id":"4","last_reported":1717250822,"current_range_meters":25600,"station_id":"ce4bgnh2rcd13ifvqc0g","pricing_plan_id":"cebpf4jnsgd1na2vs0mg"},{"bike_id":"dbe34217-9163-4829-b9af-1281978e1af7","system_id":"levelo_inurba_marseille","lat":43.29573,"lon":5.367355,"is_reserved":false,"is_disabled":false,"rental_uris":{"android":"levelo://app?vid=dbe34217-9163-4829-b9af-1281978e1af7","ios":"levelo://app?vid=dbe34217-9163-4829-b9af-1281978e1af7"},"vehicle_type_id":"4","last_reported":1717250822,"current_range_meters":22800,"station_id":"ce4bgph2rcd13ifvqc2g","pricing_plan_id":"cebpf4jnsgd1na2vs0mg"},{"bike_id":"d045cb7f-7b99-4c63-aa23-9002fb822372","system_id":"levelo_inurba_marseille","lat":43.296129,"lon":5.370777,"is_reserved":false,"is_disabled":false,"rental_uris":{"android":"levelo://app?vid=d045cb7f-7b99-4c63-aa23-9002fb822372","ios":"levelo://app?vid=d045cb7f-7b99-4c63-aa23-9002fb822372"},"vehicle_type_id":"4","last_reported":1717250822,"current_range_meters":0,"station_id":"ce4bgnh2rcd13ifvqc0g","pricing_plan_id":"cebpf4jnsgd1na2vs0mg"},{"bike_id":"7bfc494f-a339-456b-8bc6-4a4834b74b98","system_id":"levelo_inurba_marseille","lat":43.29573,"lon":5.367355,"is_reserved":false,"is_disabled":false,"rental_uris":{"android":"levelo://app?vid=7bfc494f-a339-456b-8bc6-4a4834b74b98","ios":"levelo://app?vid=7bfc494f-a339-456b-8bc6-4a4834b74b98"},"vehicle_type_id":"4","last_reported":1717250822,"current_range_meters":4400,"station_id":"ce4bgph2rcd13ifvqc2g","pricing_plan_id":"cebpf4jnsgd1na2vs0mg"},{"bike_id":"71ab782a-0478-4a67-8682-ec4feaa3f098","system_id":"levelo_inurba_marseille","lat":43.29573,"lon":5.367355,"is_reserved":false,"is_disabled":false,"rental_uris":{"android":"levelo://app?vid=71ab782a-0478-4a67-8682-ec4feaa3f098","ios":"levelo://app?vid=71ab782a-0478-4a67-8682-ec4feaa3f098"},"vehicle_type_id":"4","last_reported":1717250822,"current_range_meters":24000,"station_id":"ce4bgph2rcd13ifvqc2g","pricing_plan_id":"cebpf4jnsgd1na2vs0mg"},{"bike_id":"c2cf1d8e-4590-423e-abe8-9b225b2e0c28","system_id":"levelo_inurba_marseille","lat":43.295938,"lon":5.362496,"is_reserved":false,"is_disabled":false,"rental_uris":{"android":"levelo://app?vid=c2cf1d8e-4590-423e-abe8-9b225b2e0c28","ios":"levelo://app?vid=c2cf1d8e-4590-423e-abe8-9b225b2e0c28"},"vehicle_type_id":"4","last_reported":1717250822,"current_range_meters":2000,"station_id":"ce4bgt12rcd13ifvqcd0","pricing_plan_id":"cebpf4jnsgd1na2vs0mg"},{"bike_id":"4db81d80-15df-45b1-89d9-8ae26fef694b","system_id":"levelo_inurba_marseille","lat":43.299028,"lon":5.381509,"is_reserved":false,"is_disabled":false,"rental_uris":{"android":"levelo://app?vid=4db81d80-15df-45b1-89d9-8ae26fef694b","ios":"levelo://app?vid=4db81d80-15df-45b1-89d9-8ae26fef694b"},"vehicle_type_id":"4","last_reported":1717250822,"current_range_meters":31600,"station_id":"ce4bgj12rcd13ifvqbc0","pricing_plan_id":"cebpf4jnsgd1na2vs0mg"},{"bike_id":"68413dfa-759e-4829-af53-6019abba9d3a","system_id":"levelo_inurba_marseille","lat":43.299028,"lon":5.381509,"is_reserved":false,"is_disabled":false,"rental_uris":{"android":"levelo://app?vid=68413dfa-759e-4829-af53-6019abba9d3a","ios":"levelo://app?vid=68413dfa-759e-4829-af53-6019abba9d3a"},"vehicle_type_id":"4","last_reported":1717250822,"current_range_meters":12400,"station_id":"ce4bgj12rcd13ifvqbc0","pricing_plan_id":"cebpf4jnsgd1na2vs0mg"},{"bike_id":"b209f217-7584-495f-872d-7959f890da22","system_id":"levelo_inurba_marseille","lat":43.299028,"lon":5.381509,"is_reserved":false,"is_disabled":false,"rental_uris":{"android":"levelo://app?vid=b209f217-7584-495f-872d-7959f890da22","ios":"levelo://app?vid=b209f217-7584-495f-872d-7959f890da22"},"vehicle_type_id":"4","last_reported":1717250822,"current_range_meters":30400,"station_id":"ce4bgj12rcd13ifvqbc0","pricing_plan_id":"cebpf4jnsgd1na2vs0mg"},{"bike_id":"ce9dab4d-ac96-4bc0-be24-8908db7c65a4","system_id":"levelo_inurba_marseille","lat":43.299109,"lon":5.381456,"is_reserved":false,"is_disabled":false,"rental_uris":{"android":"levelo://app?vid=ce9dab4d-ac96-4bc0-be24-8908db7c65a4","ios":"levelo://app?vid=ce9dab4d-ac96-4bc0-be24-8908db7c65a4"},"vehicle_type_id":"4","last_reported":1717250822,"current_range_meters":0,"station_id":"ce4bgj12rcd13ifvqbc0","pricing_plan_id":"cebpf4jnsgd1na2vs0mg"},{"bike_id":"cf398335-98db-4940-9184-fd281101984e","system_id":"levelo_inurba_marseille","lat":43.309593,"lon":5.390317,"is_reserved":false,"is_disabled":false,"rental_uris":{"android":"levelo://app?vid=cf398335-98db-4940-9184-fd281101984e","ios":"levelo://app?vid=cf398335-98db-4940-9184-fd281101984e"},"vehicle_type_id":"4","last_reported":1717250822,"current_range_meters":0,"station_id":"ce4bgup2rcd13ifvqco0","pricing_plan_id":"cebpf4jnsgd1na2vs0mg"},{"bike_id":"90d0a419-a787-4bd1-a48e-876f72f9ef7f","system_id":"levelo_inurba_marseille","lat":43.309589,"lon":5.390258,"is_reserved":false,"is_disabled":false,"rental_uris":{"android":"levelo://app?vid=90d0a419-a787-4bd1-a48e-876f72f9ef7f","ios":"levelo://app?vid=90d0a419-a787-4bd1-a48e-876f72f9ef7f"},"vehicle_type_id":"4","last_reported":1717250822,"current_range_meters":20000,"station_id":"ce4bgup2rcd13ifvqco0","pricing_plan_id":"cebpf4jnsgd1na2vs0mg"},{"bike_id":"1f7cdb1d-d6a8-4700-8e4a-c618902b8d45","system_id":"levelo_inurba_marseille","lat":43.309589,"lon":5.390258,"is_reserved":false,"is_disabled":false,"rental_uris":{"android":"levelo://app?vid=1f7cdb1d-d6a8-4700-8e4a-c618902b8d45","ios":"levelo://app?vid=1f7cdb1d-d6a8-4700-8e4a-c618902b8d45"},"vehicle_type_id":"4","last_reported":1717250822,"current_range_meters":7600,"station_id":"ce4bgup2rcd13ifvqco0","pricing_plan_id":"cebpf4jnsgd1na2vs0mg"},{"bike_id":"54f11463-f035-4de8-8071-c538e8162a76","system_id":"levelo_inurba_marseille","lat":43.309589,"lon":5.390258,"is_reserved":false,"is_disabled":false,"rental_uris":{"android":"levelo://app?vid=54f11463-f035-4de8-8071-c538e8162a76","ios":"levelo://app?vid=54f11463-f035-4de8-8071-c538e8162a76"},"vehicle_type_id":"4","last_reported":1717250822,"current_range_meters":12000,"station_id":"ce4bgup2rcd13ifvqco0","pricing_plan_id":"cebpf4jnsgd1na2vs0mg"},{"bike_id":"24bb4ee7-686f-49ff-8dbb-99ef3533604f","system_id":"levelo_inurba_marseille","lat":43.295748,"lon":5.37522,"is_reserved":false,"is_disabled":false,"rental_uris":{"android":"levelo://app?vid=24bb4ee7-686f-49ff-8dbb-99ef3533604f","ios":"levelo://app?vid=24bb4ee7-686f-49ff-8dbb-99ef3533604f"},"vehicle_type_id":"4","last_reported":1717250822,"current_range_meters":11200,"station_id":"ce4bgh92rcd13ifvqb50","pricing_plan_id":"cebpf4jnsgd1na2vs0mg"},{"bike_id":"a80429cc-0d0e-47a3-b7df-89dad51a53bd","system_id":"levelo_inurba_marseille","lat":43.297895,"lon":5.380943,"is_reserved":false,"is_disabled":false,"rental_uris":{"android":"levelo://app?vid=a80429cc-0d0e-47a3-b7df-89dad51a53bd","ios":"levelo://app?vid=a80429cc-0d0e-47a3-b7df-89dad51a53bd"},"vehicle_type_id":"4","last_reported":1717250822,"current_range_meters":0,"station_id":"ce4bgip2rcd13ifvqbb0","pricing_plan_id":"cebpf4jnsgd1na2vs0mg"},{"bike_id":"910fd36c-ce00-4348-8f6e-e091323e51c9","system_id":"levelo_inurba_marseille","lat":43.295748,"lon":5.37522,"is_reserved":false,"is_disabled":false,"rental_uris":{"android":"levelo://app?vid=910fd36c-ce00-4348-8f6e-e091323e51c9","ios":"levelo://app?vid=910fd36c-ce00-4348-8f6e-e091323e51c9"},"vehicle_type_id":"4","last_reported":1717250822,"current_range_meters":2800,"station_id":"ce4bgh92rcd13ifvqb50","pricing_plan_id":"cebpf4jnsgd1na2vs0mg"},{"bike_id":"5ac2c9a1-bbf1-450f-9bd1-08470e9f9f75","system_id":"levelo_inurba_marseille","lat":43.29629,"lon":5.37731,"is_reserved":false,"is_disabled":false,"rental_uris":{"android":"levelo://app?vid=5ac2c9a1-bbf1-450f-9bd1-08470e9f9f75","ios":"levelo://app?vid=5ac2c9a1-bbf1-450f-9bd1-08470e9f9f75"},"vehicle_type_id":"4","last_reported":1717250822,"current_range_meters":29200,"station_id":"","pricing_plan_id":"cebpf4jnsgd1na2vs0mg"},{"bike_id":"d3fb7ca2-655f-4c61-9000-ec33bf98ac49","system_id":"levelo_inurba_marseille","lat":43.296263,"lon":5.377094,"is_reserved":false,"is_disabled":false,"rental_uris":{"android":"levelo://app?vid=d3fb7ca2-655f-4c61-9000-ec33bf98ac49","ios":"levelo://app?vid=d3fb7ca2-655f-4c61-9000-ec33bf98ac49"},"vehicle_type_id":"4","last_reported":1717250822,"current_range_meters":24000,"station_id":"ce4bgi92rcd13ifvqb90","pricing_plan_id":"cebpf4jnsgd1na2vs0mg"},{"bike_id":"ff6427b5-6582-4963-97ce-762748e25855","system_id":"levelo_inurba_marseille","lat":43.296277,"lon":5.377108,"is_reserved":false,"is_disabled":false,"rental_uris":{"android":"levelo://app?vid=ff6427b5-6582-4963-97ce-762748e25855","ios":"levelo://app?vid=ff6427b5-6582-4963-97ce-762748e25855"},"vehicle_type_id":"4","last_reported":1717250822,"current_range_meters":800,"station_id":"ce4bgi92rcd13ifvqb90","pricing_plan_id":"cebpf4jnsgd1na2vs0mg"},{"bike_id":"aeeb76b6-cd8a-4e17-8ea3-d68b655c815b","system_id":"levelo_inurba_marseille","lat":43.297848,"lon":5.381113,"is_reserved":false,"is_disabled":false,"rental_uris":{"android":"levelo://app?vid=aeeb76b6-cd8a-4e17-8ea3-d68b655c815b","ios":"levelo://app?vid=aeeb76b6-cd8a-4e17-8ea3-d68b655c815b"},"vehicle_type_id":"4","last_reported":1717250822,"current_range_meters":18000,"station_id":"ce4bgip2rcd13ifvqbb0","pricing_plan_id":"cebpf4jnsgd1na2vs0mg"},{"bike_id":"21761461-05e9-4f57-8899-dbf68e4d68ea","system_id":"levelo_inurba_marseille","lat":43.296263,"lon":5.377094,"is_reserved":false,"is_disabled":false,"rental_uris":{"android":"levelo://app?vid=21761461-05e9-4f57-8899-dbf68e4d68ea","ios":"levelo://app?vid=21761461-05e9-4f57-8899-dbf68e4d68ea"},"vehicle_type_id":"4","last_reported":1717250822,"current_range_meters":17200,"station_id":"ce4bgi92rcd13ifvqb90","pricing_plan_id":"cebpf4jnsgd1na2vs0mg"},{"bike_id":"fa7f0ba9-ee3b-4031-89f4-0dc084034406","system_id":"levelo_inurba_marseille","lat":43.296277,"lon":5.377108,"is_reserved":false,"is_disabled":false,"rental_uris":{"android":"levelo://app?vid=fa7f0ba9-ee3b-4031-89f4-0dc084034406","ios":"levelo://app?vid=fa7f0ba9-ee3b-4031-89f4-0dc084034406"},"vehicle_type_id":"4","last_reported":1717250822,"current_range_meters":23600,"station_id":"ce4bgi92rcd13ifvqb90","pricing_plan_id":"cebpf4jnsgd1na2vs0mg"},{"bike_id":"8135069d-86d4-454b-a249-e61e7a487b6d","system_id":"levelo_inurba_marseille","lat":43.295748,"lon":5.37522,"is_reserved":false,"is_disabled":false,"rental_uris":{"android":"levelo://app?vid=8135069d-86d4-454b-a249-e61e7a487b6d","ios":"levelo://app?vid=8135069d-86d4-454b-a249-e61e7a487b6d"},"vehicle_type_id":"4","last_reported":1717250822,"current_range_meters":26800,"station_id":"ce4bgh92rcd13ifvqb50","pricing_plan_id":"cebpf4jnsgd1na2vs0mg"},{"bike_id":"86d30445-97cb-44e8-9f08-80d15a3110ab","system_id":"levelo_inurba_marseille","lat":43.295279,"lon":5.375048,"is_reserved":false,"is_disabled":false,"rental_uris":{"android":"levelo://app?vid=86d30445-97cb-44e8-9f08-80d15a3110ab","ios":"levelo://app?vid=86d30445-97cb-44e8-9f08-80d15a3110ab"},"vehicle_type_id":"4","last_reported":1717250822,"current_range_meters":7600,"station_id":"ce4bgkp2rcd13ifvqbmg","pricing_plan_id":"cebpf4jnsgd1na2vs0mg"},{"bike_id":"7ae4b705-367e-4128-af59-d0134812cad7","system_id":"levelo_inurba_marseille","lat":43.295279,"lon":5.375048,"is_reserved":false,"is_disabled":false,"rental_uris":{"android":"levelo://app?vid=7ae4b705-367e-4128-af59-d0134812cad7","ios":"levelo://app?vid=7ae4b705-367e-4128-af59-d0134812cad7"},"vehicle_type_id":"4","last_reported":1717250822,"current_range_meters":26400,"station_id":"ce4bgkp2rcd13ifvqbmg","pricing_plan_id":"cebpf4jnsgd1na2vs0mg"},{"bike_id":"a73e494b-27a0-42bd-be3e-ee0890cddbdf","system_id":"levelo_inurba_marseille","lat":43.29602,"lon":5.381084,"is_reserved":false,"is_disabled":false,"rental_uris":{"android":"levelo://app?vid=a73e494b-27a0-42bd-be3e-ee0890cddbdf","ios":"levelo://app?vid=a73e494b-27a0-42bd-be3e-ee0890cddbdf"},"vehicle_type_id":"4","last_reported":1717250822,"current_range_meters":9200,"station_id":"ce4bgl12rcd13ifvqbo0","pricing_plan_id":"cebpf4jnsgd1na2vs0mg"},{"bike_id":"bb1baebe-d4cd-4f33-b5af-15fbdff6fa62","system_id":"levelo_inurba_marseille","lat":43.29602,"lon":5.381084,"is_reserved":false,"is_disabled":false,"rental_uris":{"android":"levelo://app?vid=bb1baebe-d4cd-4f33-b5af-15fbdff6fa62","ios":"levelo://app?vid=bb1baebe-d4cd-4f33-b5af-15fbdff6fa62"},"vehicle_type_id":"4","last_reported":1717250822,"current_range_meters":5600,"station_id":"ce4bgl12rcd13ifvqbo0","pricing_plan_id":"cebpf4jnsgd1na2vs0mg"},{"bike_id":"604e2e79-3926-4f44-9ba6-0b83aceed279","system_id":"levelo_inurba_marseille","lat":43.29277,"lon":5.36836,"is_reserved":false,"is_disabled":false,"rental_uris":{"android":"levelo://app?vid=604e2e79-3926-4f44-9ba6-0b83aceed279","ios":"levelo://app?vid=604e2e79-3926-4f44-9ba6-0b83aceed279"},"vehicle_type_id":"4","last_reported":1717250822,"current_range_meters":16000,"station_id":"ce4bhbp2rcd13ifvqesg","pricing_plan_id":"cebpf4jnsgd1na2vs0mg"},{"bike_id":"e1bdd281-40db-45a5-b135-466c7bdfd9be","system_id":"levelo_inurba_marseille","lat":43.292749,"lon":5.368398,"is_reserved":false,"is_disabled":false,"rental_uris":{"android":"levelo://app?vid=e1bdd281-40db-45a5-b135-466c7bdfd9be","ios":"levelo://app?vid=e1bdd281-40db-45a5-b135-466c7bdfd9be"},"vehicle_type_id":"4","last_reported":1717250822,"current_range_meters":0,"station_id":"ce4bhbp2rcd13ifvqesg","pricing_plan_id":"cebpf4jnsgd1na2vs0mg"},{"bike_id":"d09de315-bb99-47f8-bbe4-f772311c1d07","system_id":"levelo_inurba_marseille","lat":43.293,"lon":5.374589,"is_reserved":false,"is_disabled":false,"rental_uris":{"android":"levelo://app?vid=d09de315-bb99-47f8-bbe4-f772311c1d07","ios":"levelo://app?vid=d09de315-bb99-47f8-bbe4-f772311c1d07"},"vehicle_type_id":"4","last_reported":1717250822,"current_range_meters":27200,"station_id":"ce4bgi12rcd13ifvqb70","pricing_plan_id":"cebpf4jnsgd1na2vs0mg"},{"bike_id":"8f2c6467-a612-4107-8e84-de91ce4ab50a","system_id":"levelo_inurba_marseille","lat":43.305994,"lon":5.393687,"is_reserved":false,"is_disabled":false,"rental_uris":{"android":"levelo://app?vid=8f2c6467-a612-4107-8e84-de91ce4ab50a","ios":"levelo://app?vid=8f2c6467-a612-4107-8e84-de91ce4ab50a"},"vehicle_type_id":"4","last_reported":1717250822,"current_range_meters":0,"station_id":"ce4bh0p2rcd13ifvqd80","pricing_plan_id":"cebpf4jnsgd1na2vs0mg"},{"bike_id":"f22bb5e8-2c99-4588-bec1-85493295c112","system_id":"levelo_inurba_marseille","lat":43.2936,"lon":5.37835,"is_reserved":false,"is_disabled":false,"rental_uris":{"android":"levelo://app?vid=f22bb5e8-2c99-4588-bec1-85493295c112","ios":"levelo://app?vid=f22bb5e8-2c99-4588-bec1-85493295c112"},"vehicle_type_id":"4","last_reported":1717250822,"current_range_meters":16400,"station_id":"ce4bgjh2rcd13ifvqbf0","pricing_plan_id":"cebpf4jnsgd1na2vs0mg"},{"bike_id":"20cb9274-a76a-46c5-aa59-883e1d4e3c3c","system_id":"levelo_inurba_marseille","lat":43.303052,"lon":5.392082,"is_reserved":false,"is_disabled":false,"rental_uris":{"android":"levelo://app?vid=20cb9274-a76a-46c5-aa59-883e1d4e3c3c","ios":"levelo://app?vid=20cb9274-a76a-46c5-aa59-883e1d4e3c3c"},"vehicle_type_id":"4","last_reported":1717250822,"current_range_meters":15600,"station_id":"ce4bgkh2rcd13ifvqbk0","pricing_plan_id":"cebpf4jnsgd1na2vs0mg"},{"bike_id":"1b07e514-63c7-4570-8c73-abd1317b9bec","system_id":"levelo_inurba_marseille","lat":43.303046,"lon":5.392081,"is_reserved":false,"is_disabled":false,"rental_uris":{"android":"levelo://app?vid=1b07e514-63c7-4570-8c73-abd1317b9bec","ios":"levelo://app?vid=1b07e514-63c7-4570-8c73-abd1317b9bec"},"vehicle_type_id":"4","last_reported":1717250822,"current_range_meters":0,"station_id":"ce4bgkh2rcd13ifvqbk0","pricing_plan_id":"cebpf4jnsgd1na2vs0mg"},{"bike_id":"74e2722d-b710-4e0a-a428-0305f1faf43c","system_id":"levelo_inurba_marseille","lat":43.30303,"lon":5.39212,"is_reserved":false,"is_disabled":false,"rental_uris":{"android":"levelo://app?vid=74e2722d-b710-4e0a-a428-0305f1faf43c","ios":"levelo://app?vid=74e2722d-b710-4e0a-a428-0305f1faf43c"},"vehicle_type_id":"4","last_reported":1717250822,"current_range_meters":22400,"station_id":"ce4bgkh2rcd13ifvqbk0","pricing_plan_id":"cebpf4jnsgd1na2vs0mg"},{"bike_id":"a3aa8929-a316-4f90-8a68-6bc7f118c037","system_id":"levelo_inurba_marseille","lat":43.2936,"lon":5.37835,"is_reserved":false,"is_disabled":false,"rental_uris":{"android":"levelo://app?vid=a3aa8929-a316-4f90-8a68-6bc7f118c037","ios":"levelo://app?vid=a3aa8929-a316-4f90-8a68-6bc7f118c037"},"vehicle_type_id":"4","last_reported":1717250822,"current_range_meters":14000,"station_id":"ce4bgjh2rcd13ifvqbf0","pricing_plan_id":"cebpf4jnsgd1na2vs0mg"},{"bike_id":"398726b9-8f03-4b38-9164-3268bc2697e1","system_id":"levelo_inurba_marseille","lat":43.2936,"lon":5.37835,"is_reserved":false,"is_disabled":false,"rental_uris":{"android":"levelo://app?vid=398726b9-8f03-4b38-9164-3268bc2697e1","ios":"levelo://app?vid=398726b9-8f03-4b38-9164-3268bc2697e1"},"vehicle_type_id":"4","last_reported":1717250822,"current_range_meters":26800,"station_id":"ce4bgjh2rcd13ifvqbf0","pricing_plan_id":"cebpf4jnsgd1na2vs0mg"},{"bike_id":"0b99d8c8-7c12-4c4e-bc23-ff4df1662ff8","system_id":"levelo_inurba_marseille","lat":43.2936,"lon":5.37835,"is_reserved":false,"is_disabled":false,"rental_uris":{"android":"levelo://app?vid=0b99d8c8-7c12-4c4e-bc23-ff4df1662ff8","ios":"levelo://app?vid=0b99d8c8-7c12-4c4e-bc23-ff4df1662ff8"},"vehicle_type_id":"4","last_reported":1717250822,"current_range_meters":5200,"station_id":"ce4bgjh2rcd13ifvqbf0","pricing_plan_id":"cebpf4jnsgd1na2vs0mg"},{"bike_id":"6bbf3791-6426-4d03-af7e-14ed1b009d8d","system_id":"levelo_inurba_marseille","lat":43.30098,"lon":5.390673,"is_reserved":false,"is_disabled":false,"rental_uris":{"android":"levelo://app?vid=6bbf3791-6426-4d03-af7e-14ed1b009d8d","ios":"levelo://app?vid=6bbf3791-6426-4d03-af7e-14ed1b009d8d"},"vehicle_type_id":"4","last_reported":1717250822,"current_range_meters":0,"station_id":"ce4bh192rcd13ifvqdb0","pricing_plan_id":"cebpf4jnsgd1na2vs0mg"},{"bike_id":"63f56ece-77db-4606-ac3c-e668e07024f4","system_id":"levelo_inurba_marseille","lat":43.2923,"lon":5.36061,"is_reserved":false,"is_disabled":false,"rental_uris":{"android":"levelo://app?vid=63f56ece-77db-4606-ac3c-e668e07024f4","ios":"levelo://app?vid=63f56ece-77db-4606-ac3c-e668e07024f4"},"vehicle_type_id":"4","last_reported":1717250822,"current_range_meters":0,"station_id":"ce4bhbh2rcd13ifvqeqg","pricing_plan_id":"cebpf4jnsgd1na2vs0mg"},{"bike_id":"4773b8d4-eed1-4f47-8373-6482927230b4","system_id":"levelo_inurba_marseille","lat":43.298764,"lon":5.388973,"is_reserved":false,"is_disabled":false,"rental_uris":{"android":"levelo://app?vid=4773b8d4-eed1-4f47-8373-6482927230b4","ios":"levelo://app?vid=4773b8d4-eed1-4f47-8373-6482927230b4"},"vehicle_type_id":"4","last_reported":1717250822,"current_range_meters":10000,"station_id":"ce4bh392rcd13ifvqdl0","pricing_plan_id":"cebpf4jnsgd1na2vs0mg"},{"bike_id":"49a0b67c-798a-4539-9942-5b62e261620f","system_id":"levelo_inurba_marseille","lat":43.29883,"lon":5.38901,"is_reserved":false,"is_disabled":false,"rental_uris":{"android":"levelo://app?vid=49a0b67c-798a-4539-9942-5b62e261620f","ios":"levelo://app?vid=49a0b67c-798a-4539-9942-5b62e261620f"},"vehicle_type_id":"4","last_reported":1717250822,"current_range_meters":21600,"station_id":"ce4bh392rcd13ifvqdl0","pricing_plan_id":"cebpf4jnsgd1na2vs0mg"},{"bike_id":"20ccc43d-bb1c-464e-b61f-a51580ef5dea","system_id":"levelo_inurba_marseille","lat":43.291675,"lon":5.371583,"is_reserved":false,"is_disabled":false,"rental_uris":{"android":"levelo://app?vid=20ccc43d-bb1c-464e-b61f-a51580ef5dea","ios":"levelo://app?vid=20ccc43d-bb1c-464e-b61f-a51580ef5dea"},"vehicle_type_id":"4","last_reported":1717250822,"current_range_meters":16800,"station_id":"ce4bha92rcd13ifvqeh0","pricing_plan_id":"cebpf4jnsgd1na2vs0mg"},{"bike_id":"8fddb8d5-d4c9-4ef8-8141-82f9ffcb9e3d","system_id":"levelo_inurba_marseille","lat":43.291994,"lon":5.357886,"is_reserved":false,"is_disabled":false,"rental_uris":{"android":"levelo://app?vid=8fddb8d5-d4c9-4ef8-8141-82f9ffcb9e3d","ios":"levelo://app?vid=8fddb8d5-d4c9-4ef8-8141-82f9ffcb9e3d"},"vehicle_type_id":"4","last_reported":1717250822,"current_range_meters":9600,"station_id":"ce4bhb12rcd13ifvqel0","pricing_plan_id":"cebpf4jnsgd1na2vs0mg"},{"bike_id":"9febb503-bceb-4d53-a873-77a1bcafcc26","system_id":"levelo_inurba_marseille","lat":43.291994,"lon":5.357886,"is_reserved":false,"is_disabled":false,"rental_uris":{"android":"levelo://app?vid=9febb503-bceb-4d53-a873-77a1bcafcc26","ios":"levelo://app?vid=9febb503-bceb-4d53-a873-77a1bcafcc26"},"vehicle_type_id":"4","last_reported":1717250822,"current_range_meters":4400,"station_id":"ce4bhb12rcd13ifvqel0","pricing_plan_id":"cebpf4jnsgd1na2vs0mg"},{"bike_id":"e3c7d815-f0cb-4921-a389-92825086d322","system_id":"levelo_inurba_marseille","lat":43.291994,"lon":5.357886,"is_reserved":false,"is_disabled":false,"rental_uris":{"android":"levelo://app?vid=e3c7d815-f0cb-4921-a389-92825086d322","ios":"levelo://app?vid=e3c7d815-f0cb-4921-a389-92825086d322"},"vehicle_type_id":"4","last_reported":1717250822,"current_range_meters":12800,"station_id":"ce4bhb12rcd13ifvqel0","pricing_plan_id":"cebpf4jnsgd1na2vs0mg"},{"bike_id":"1d6862ae-e8d6-46ae-81d1-252b2822b01e","system_id":"levelo_inurba_marseille","lat":43.29194,"lon":5.35796,"is_reserved":false,"is_disabled":false,"rental_uris":{"android":"levelo://app?vid=1d6862ae-e8d6-46ae-81d1-252b2822b01e","ios":"levelo://app?vid=1d6862ae-e8d6-46ae-81d1-252b2822b01e"},"vehicle_type_id":"4","last_reported":1717250822,"current_range_meters":14000,"station_id":"ce4bhb12rcd13ifvqel0","pricing_plan_id":"cebpf4jnsgd1na2vs0mg"},{"bike_id":"1f7dfc41-145c-4ac1-9097-8c5c727a87ca","system_id":"levelo_inurba_marseille","lat":43.291923,"lon":5.358031,"is_reserved":false,"is_disabled":false,"rental_uris":{"android":"levelo://app?vid=1f7dfc41-145c-4ac1-9097-8c5c727a87ca","ios":"levelo://app?vid=1f7dfc41-145c-4ac1-9097-8c5c727a87ca"},"vehicle_type_id":"4","last_reported":1717250822,"current_range_meters":0,"station_id":"ce4bhb12rcd13ifvqel0","pricing_plan_id":"cebpf4jnsgd1na2vs0mg"},{"bike_id":"f0e92e58-dbe4-4d4f-931f-582e2e7ec542","system_id":"levelo_inurba_marseille","lat":43.313291,"lon":5.396838,"is_reserved":false,"is_disabled":false,"rental_uris":{"android":"levelo://app?vid=f0e92e58-dbe4-4d4f-931f-582e2e7ec542","ios":"levelo://app?vid=f0e92e58-dbe4-4d4f-931f-582e2e7ec542"},"vehicle_type_id":"4","last_reported":1717250822,"current_range_meters":0,"station_id":"ce4bgvp2rcd13ifvqcu0","pricing_plan_id":"cebpf4jnsgd1na2vs0mg"},{"bike_id":"4d3c82a3-c6c6-4d5c-a61a-301f82f9bcdc","system_id":"levelo_inurba_marseille","lat":43.313291,"lon":5.396838,"is_reserved":false,"is_disabled":false,"rental_uris":{"android":"levelo://app?vid=4d3c82a3-c6c6-4d5c-a61a-301f82f9bcdc","ios":"levelo://app?vid=4d3c82a3-c6c6-4d5c-a61a-301f82f9bcdc"},"vehicle_type_id":"4","last_reported":1717250822,"current_range_meters":28000,"station_id":"ce4bgvp2rcd13ifvqcu0","pricing_plan_id":"cebpf4jnsgd1na2vs0mg"},{"bike_id":"608a4b63-b0d8-4073-afa5-4714a84d61e7","system_id":"levelo_inurba_marseille","lat":43.29529,"lon":5.385581,"is_reserved":false,"is_disabled":false,"rental_uris":{"android":"levelo://app?vid=608a4b63-b0d8-4073-afa5-4714a84d61e7","ios":"levelo://app?vid=608a4b63-b0d8-4073-afa5-4714a84d61e7"},"vehicle_type_id":"4","last_reported":1717250822,"current_range_meters":28800,"station_id":"ce4bgih2rcd13ifvqba0","pricing_plan_id":"cebpf4jnsgd1na2vs0mg"},{"bike_id":"9ac4c665-1712-4ec0-beac-5862a857733f","system_id":"levelo_inurba_marseille","lat":43.337168,"lon":5.391825,"is_reserved":false,"is_disabled":false,"rental_uris":{"android":"levelo://app?vid=9ac4c665-1712-4ec0-beac-5862a857733f","ios":"levelo://app?vid=9ac4c665-1712-4ec0-beac-5862a857733f"},"vehicle_type_id":"4","last_reported":1717250822,"current_range_meters":20800,"station_id":"ce4bhr92rcd13ifvqhsg","pricing_plan_id":"cebpf4jnsgd1na2vs0mg"},{"bike_id":"733ce059-1cf8-453f-b120-538dad9e9664","system_id":"levelo_inurba_marseille","lat":43.290779,"lon":5.371482,"is_reserved":false,"is_disabled":false,"rental_uris":{"android":"levelo://app?vid=733ce059-1cf8-453f-b120-538dad9e9664","ios":"levelo://app?vid=733ce059-1cf8-453f-b120-538dad9e9664"},"vehicle_type_id":"4","last_reported":1717250822,"current_range_meters":0,"station_id":"ce4bh5p2rcd13ifvqe4g","pricing_plan_id":"cebpf4jnsgd1na2vs0mg"},{"bike_id":"e46a4236-dddb-44b2-87fd-576d336f0874","system_id":"levelo_inurba_marseille","lat":43.33407,"lon":5.37747,"is_reserved":false,"is_disabled":false,"rental_uris":{"android":"levelo://app?vid=e46a4236-dddb-44b2-87fd-576d336f0874","ios":"levelo://app?vid=e46a4236-dddb-44b2-87fd-576d336f0874"},"vehicle_type_id":"4","last_reported":1717250822,"current_range_meters":16000,"station_id":"","pricing_plan_id":"cebpf4jnsgd1na2vs0mg"},{"bike_id":"7f4a3956-c2e8-41af-bf95-2c54e6b43090","system_id":"levelo_inurba_marseille","lat":43.330442,"lon":5.389148,"is_reserved":false,"is_disabled":false,"rental_uris":{"android":"levelo://app?vid=7f4a3956-c2e8-41af-bf95-2c54e6b43090","ios":"levelo://app?vid=7f4a3956-c2e8-41af-bf95-2c54e6b43090"},"vehicle_type_id":"4","last_reported":1717250822,"current_range_meters":8800,"station_id":"ce4bhr92rcd13ifvqhrg","pricing_plan_id":"cebpf4jnsgd1na2vs0mg"},{"bike_id":"e10728d8-9ce9-4a42-a1d4-586659551d89","system_id":"levelo_inurba_marseille","lat":43.294162,"lon":5.386292,"is_reserved":false,"is_disabled":false,"rental_uris":{"android":"levelo://app?vid=e10728d8-9ce9-4a42-a1d4-586659551d89","ios":"levelo://app?vid=e10728d8-9ce9-4a42-a1d4-586659551d89"},"vehicle_type_id":"4","last_reported":1717250822,"current_range_meters":9200,"station_id":"ce4bh2h2rcd13ifvqdh0","pricing_plan_id":"cebpf4jnsgd1na2vs0mg"},{"bike_id":"d5fb15e6-7146-44d4-a314-cac9fcfee36a","system_id":"levelo_inurba_marseille","lat":43.294162,"lon":5.386292,"is_reserved":false,"is_disabled":false,"rental_uris":{"android":"levelo://app?vid=d5fb15e6-7146-44d4-a314-cac9fcfee36a","ios":"levelo://app?vid=d5fb15e6-7146-44d4-a314-cac9fcfee36a"},"vehicle_type_id":"4","last_reported":1717250822,"current_range_meters":400,"station_id":"ce4bh2h2rcd13ifvqdh0","pricing_plan_id":"cebpf4jnsgd1na2vs0mg"},{"bike_id":"a4a1b879-d387-44bc-ba5f-a6929cd381c4","system_id":"levelo_inurba_marseille","lat":43.289468,"lon":5.363719,"is_reserved":false,"is_disabled":false,"rental_uris":{"android":"levelo://app?vid=a4a1b879-d387-44bc-ba5f-a6929cd381c4","ios":"levelo://app?vid=a4a1b879-d387-44bc-ba5f-a6929cd381c4"},"vehicle_type_id":"4","last_reported":1717250822,"current_range_meters":15200,"station_id":"ce4bhc92rcd13ifvqetg","pricing_plan_id":"cebpf4jnsgd1na2vs0mg"},{"bike_id":"7d8bbac0-374a-4720-acca-d879f89ef376","system_id":"levelo_inurba_marseille","lat":43.289468,"lon":5.363719,"is_reserved":false,"is_disabled":false,"rental_uris":{"android":"levelo://app?vid=7d8bbac0-374a-4720-acca-d879f89ef376","ios":"levelo://app?vid=7d8bbac0-374a-4720-acca-d879f89ef376"},"vehicle_type_id":"4","last_reported":1717250822,"current_range_meters":10400,"station_id":"ce4bhc92rcd13ifvqetg","pricing_plan_id":"cebpf4jnsgd1na2vs0mg"},{"bike_id":"84520934-05e8-47c4-8662-0311fd3b444c","system_id":"levelo_inurba_marseille","lat":43.289468,"lon":5.363719,"is_reserved":false,"is_disabled":false,"rental_uris":{"android":"levelo://app?vid=84520934-05e8-47c4-8662-0311fd3b444c","ios":"levelo://app?vid=84520934-05e8-47c4-8662-0311fd3b444c"},"vehicle_type_id":"4","last_reported":1717250822,"current_range_meters":5600,"station_id":"ce4bhc92rcd13ifvqetg","pricing_plan_id":"cebpf4jnsgd1na2vs0mg"},{"bike_id":"889e01ba-9226-4bd9-9f55-3bdcfb7c2541","system_id":"levelo_inurba_marseille","lat":43.289468,"lon":5.363719,"is_reserved":false,"is_disabled":false,"rental_uris":{"android":"levelo://app?vid=889e01ba-9226-4bd9-9f55-3bdcfb7c2541","ios":"levelo://app?vid=889e01ba-9226-4bd9-9f55-3bdcfb7c2541"},"vehicle_type_id":"4","last_reported":1717250822,"current_range_meters":9600,"station_id":"ce4bhc92rcd13ifvqetg","pricing_plan_id":"cebpf4jnsgd1na2vs0mg"},{"bike_id":"b0f5e5e8-99e6-4f22-b194-3d2f8b9b4180","system_id":"levelo_inurba_marseille","lat":43.304296,"lon":5.397513,"is_reserved":false,"is_disabled":false,"rental_uris":{"android":"levelo://app?vid=b0f5e5e8-99e6-4f22-b194-3d2f8b9b4180","ios":"levelo://app?vid=b0f5e5e8-99e6-4f22-b194-3d2f8b9b4180"},"vehicle_type_id":"4","last_reported":1717250822,"current_range_meters":30400,"station_id":"ce4bh092rcd13ifvqd20","pricing_plan_id":"cebpf4jnsgd1na2vs0mg"},{"bike_id":"e8757437-4b19-461d-9c62-7bc68204d9ad","system_id":"levelo_inurba_marseille","lat":43.304274,"lon":5.397513,"is_reserved":false,"is_disabled":false,"rental_uris":{"android":"levelo://app?vid=e8757437-4b19-461d-9c62-7bc68204d9ad","ios":"levelo://app?vid=e8757437-4b19-461d-9c62-7bc68204d9ad"},"vehicle_type_id":"4","last_reported":1717250822,"current_range_meters":26000,"station_id":"ce4bh092rcd13ifvqd20","pricing_plan_id":"cebpf4jnsgd1na2vs0mg"},{"bike_id":"13053c5c-fd1b-45f0-a08d-2d155f8ffeb4","system_id":"levelo_inurba_marseille","lat":43.2927,"lon":5.38441,"is_reserved":false,"is_disabled":false,"rental_uris":{"android":"levelo://app?vid=13053c5c-fd1b-45f0-a08d-2d155f8ffeb4","ios":"levelo://app?vid=13053c5c-fd1b-45f0-a08d-2d155f8ffeb4"},"vehicle_type_id":"4","last_reported":1717250822,"current_range_meters":0,"station_id":"ce4bh692rcd13ifvqea0","pricing_plan_id":"cebpf4jnsgd1na2vs0mg"},{"bike_id":"b45e4098-8f2d-4ddf-9a93-51fbade4ae7e","system_id":"levelo_inurba_marseille","lat":43.304274,"lon":5.397513,"is_reserved":false,"is_disabled":false,"rental_uris":{"android":"levelo://app?vid=b45e4098-8f2d-4ddf-9a93-51fbade4ae7e","ios":"levelo://app?vid=b45e4098-8f2d-4ddf-9a93-51fbade4ae7e"},"vehicle_type_id":"4","last_reported":1717250822,"current_range_meters":31200,"station_id":"ce4bh092rcd13ifvqd20","pricing_plan_id":"cebpf4jnsgd1na2vs0mg"},{"bike_id":"8c45b681-f477-46a9-9c7b-dcb6f7d744a5","system_id":"levelo_inurba_marseille","lat":43.29267,"lon":5.38437,"is_reserved":false,"is_disabled":false,"rental_uris":{"android":"levelo://app?vid=8c45b681-f477-46a9-9c7b-dcb6f7d744a5","ios":"levelo://app?vid=8c45b681-f477-46a9-9c7b-dcb6f7d744a5"},"vehicle_type_id":"4","last_reported":1717250822,"current_range_meters":12400,"station_id":"ce4bh692rcd13ifvqea0","pricing_plan_id":"cebpf4jnsgd1na2vs0mg"},{"bike_id":"03a2da17-1f5b-49f4-be7c-4a5ce90b2cfc","system_id":"levelo_inurba_marseille","lat":43.304296,"lon":5.397513,"is_reserved":false,"is_disabled":false,"rental_uris":{"android":"levelo://app?vid=03a2da17-1f5b-49f4-be7c-4a5ce90b2cfc","ios":"levelo://app?vid=03a2da17-1f5b-49f4-be7c-4a5ce90b2cfc"},"vehicle_type_id":"4","last_reported":1717250822,"current_range_meters":28800,"station_id":"ce4bh092rcd13ifvqd20","pricing_plan_id":"cebpf4jnsgd1na2vs0mg"},{"bike_id":"e69c54d5-9a62-4367-a087-a93d6380b9b3","system_id":"levelo_inurba_marseille","lat":43.304296,"lon":5.397513,"is_reserved":false,"is_disabled":false,"rental_uris":{"android":"levelo://app?vid=e69c54d5-9a62-4367-a087-a93d6380b9b3","ios":"levelo://app?vid=e69c54d5-9a62-4367-a087-a93d6380b9b3"},"vehicle_type_id":"4","last_reported":1717250822,"current_range_meters":31200,"station_id":"ce4bh092rcd13ifvqd20","pricing_plan_id":"cebpf4jnsgd1na2vs0mg"},{"bike_id":"1cd7c20e-1174-44a9-a19e-c23fc7844d66","system_id":"levelo_inurba_marseille","lat":43.292764,"lon":5.384593,"is_reserved":false,"is_disabled":false,"rental_uris":{"android":"levelo://app?vid=1cd7c20e-1174-44a9-a19e-c23fc7844d66","ios":"levelo://app?vid=1cd7c20e-1174-44a9-a19e-c23fc7844d66"},"vehicle_type_id":"4","last_reported":1717250822,"current_range_meters":2000,"station_id":"ce4bh692rcd13ifvqea0","pricing_plan_id":"cebpf4jnsgd1na2vs0mg"},{"bike_id":"b01bf7a4-b194-4a55-977e-9007952164bb","system_id":"levelo_inurba_marseille","lat":43.304274,"lon":5.397513,"is_reserved":false,"is_disabled":false,"rental_uris":{"android":"levelo://app?vid=b01bf7a4-b194-4a55-977e-9007952164bb","ios":"levelo://app?vid=b01bf7a4-b194-4a55-977e-9007952164bb"},"vehicle_type_id":"4","last_reported":1717250822,"current_range_meters":4400,"station_id":"ce4bh092rcd13ifvqd20","pricing_plan_id":"cebpf4jnsgd1na2vs0mg"},{"bike_id":"0abade52-573a-4cbd-ab36-2909cae2c8d1","system_id":"levelo_inurba_marseille","lat":43.304274,"lon":5.397513,"is_reserved":false,"is_disabled":false,"rental_uris":{"android":"levelo://app?vid=0abade52-573a-4cbd-ab36-2909cae2c8d1","ios":"levelo://app?vid=0abade52-573a-4cbd-ab36-2909cae2c8d1"},"vehicle_type_id":"4","last_reported":1717250822,"current_range_meters":30000,"station_id":"ce4bh092rcd13ifvqd20","pricing_plan_id":"cebpf4jnsgd1na2vs0mg"},{"bike_id":"df305457-b4b3-4c27-82d4-854885b24737","system_id":"levelo_inurba_marseille","lat":43.292671,"lon":5.384481,"is_reserved":false,"is_disabled":false,"rental_uris":{"android":"levelo://app?vid=df305457-b4b3-4c27-82d4-854885b24737","ios":"levelo://app?vid=df305457-b4b3-4c27-82d4-854885b24737"},"vehicle_type_id":"4","last_reported":1717250822,"current_range_meters":27200,"station_id":"ce4bh692rcd13ifvqea0","pricing_plan_id":"cebpf4jnsgd1na2vs0mg"},{"bike_id":"2f3cb6dc-65e0-41cd-9d0d-d77e95b8e075","system_id":"levelo_inurba_marseille","lat":43.290344,"lon":5.355855,"is_reserved":false,"is_disabled":false,"rental_uris":{"android":"levelo://app?vid=2f3cb6dc-65e0-41cd-9d0d-d77e95b8e075","ios":"levelo://app?vid=2f3cb6dc-65e0-41cd-9d0d-d77e95b8e075"},"vehicle_type_id":"4","last_reported":1717250822,"current_range_meters":30400,"station_id":"ce4bhb92rcd13ifvqen0","pricing_plan_id":"cebpf4jnsgd1na2vs0mg"},{"bike_id":"4298c30b-b6f6-449f-91d3-2f27b87e7711","system_id":"levelo_inurba_marseille","lat":43.292623,"lon":5.38458,"is_reserved":false,"is_disabled":false,"rental_uris":{"android":"levelo://app?vid=4298c30b-b6f6-449f-91d3-2f27b87e7711","ios":"levelo://app?vid=4298c30b-b6f6-449f-91d3-2f27b87e7711"},"vehicle_type_id":"4","last_reported":1717250822,"current_range_meters":8400,"station_id":"","pricing_plan_id":"cebpf4jnsgd1na2vs0mg"},{"bike_id":"1c2e9b4b-3b5c-4aa5-b805-6edd14f38b4a","system_id":"levelo_inurba_marseille","lat":43.290104,"lon":5.356111,"is_reserved":false,"is_disabled":false,"rental_uris":{"android":"levelo://app?vid=1c2e9b4b-3b5c-4aa5-b805-6edd14f38b4a","ios":"levelo://app?vid=1c2e9b4b-3b5c-4aa5-b805-6edd14f38b4a"},"vehicle_type_id":"4","last_reported":1717250822,"current_range_meters":0,"station_id":"ce4bhb92rcd13ifvqen0","pricing_plan_id":"cebpf4jnsgd1na2vs0mg"},{"bike_id":"c968daa7-84d6-43a3-a189-c43830554292","system_id":"levelo_inurba_marseille","lat":43.290103,"lon":5.356114,"is_reserved":false,"is_disabled":false,"rental_uris":{"android":"levelo://app?vid=c968daa7-84d6-43a3-a189-c43830554292","ios":"levelo://app?vid=c968daa7-84d6-43a3-a189-c43830554292"},"vehicle_type_id":"4","last_reported":1717250822,"current_range_meters":2000,"station_id":"ce4bhb92rcd13ifvqen0","pricing_plan_id":"cebpf4jnsgd1na2vs0mg"},{"bike_id":"ba7f80bf-cce7-456a-bf4d-d9b3c19cd1e0","system_id":"levelo_inurba_marseille","lat":43.290104,"lon":5.356111,"is_reserved":false,"is_disabled":false,"rental_uris":{"android":"levelo://app?vid=ba7f80bf-cce7-456a-bf4d-d9b3c19cd1e0","ios":"levelo://app?vid=ba7f80bf-cce7-456a-bf4d-d9b3c19cd1e0"},"vehicle_type_id":"4","last_reported":1717250822,"current_range_meters":6800,"station_id":"ce4bhb92rcd13ifvqen0","pricing_plan_id":"cebpf4jnsgd1na2vs0mg"},{"bike_id":"a4f16e3f-f723-4a59-9163-b8d8add0a8cc","system_id":"levelo_inurba_marseille","lat":43.290104,"lon":5.356111,"is_reserved":false,"is_disabled":false,"rental_uris":{"android":"levelo://app?vid=a4f16e3f-f723-4a59-9163-b8d8add0a8cc","ios":"levelo://app?vid=a4f16e3f-f723-4a59-9163-b8d8add0a8cc"},"vehicle_type_id":"4","last_reported":1717250822,"current_range_meters":14400,"station_id":"ce4bhb92rcd13ifvqen0","pricing_plan_id":"cebpf4jnsgd1na2vs0mg"},{"bike_id":"90fba358-174b-4e05-8c83-6054e017a206","system_id":"levelo_inurba_marseille","lat":43.290103,"lon":5.356114,"is_reserved":false,"is_disabled":false,"rental_uris":{"android":"levelo://app?vid=90fba358-174b-4e05-8c83-6054e017a206","ios":"levelo://app?vid=90fba358-174b-4e05-8c83-6054e017a206"},"vehicle_type_id":"4","last_reported":1717250822,"current_range_meters":27600,"station_id":"ce4bhb92rcd13ifvqen0","pricing_plan_id":"cebpf4jnsgd1na2vs0mg"},{"bike_id":"5bfbba38-3450-4d02-bf5d-4def3c691d1f","system_id":"levelo_inurba_marseille","lat":43.29795,"lon":5.3934,"is_reserved":false,"is_disabled":false,"rental_uris":{"android":"levelo://app?vid=5bfbba38-3450-4d02-bf5d-4def3c691d1f","ios":"levelo://app?vid=5bfbba38-3450-4d02-bf5d-4def3c691d1f"},"vehicle_type_id":"4","last_reported":1717250822,"current_range_meters":0,"station_id":"chh1huq6cuj3fo74tm60","pricing_plan_id":"cebpf4jnsgd1na2vs0mg"},{"bike_id":"f16a6b8b-8820-48e7-a905-d6482c474981","system_id":"levelo_inurba_marseille","lat":43.295169,"lon":5.390426,"is_reserved":false,"is_disabled":false,"rental_uris":{"android":"levelo://app?vid=f16a6b8b-8820-48e7-a905-d6482c474981","ios":"levelo://app?vid=f16a6b8b-8820-48e7-a905-d6482c474981"},"vehicle_type_id":"4","last_reported":1717250822,"current_range_meters":10400,"station_id":"ce4bh3p2rcd13ifvqdp0","pricing_plan_id":"cebpf4jnsgd1na2vs0mg"},{"bike_id":"bcbc3d88-4368-4873-830d-82af75094385","system_id":"levelo_inurba_marseille","lat":43.330442,"lon":5.389148,"is_reserved":false,"is_disabled":false,"rental_uris":{"android":"levelo://app?vid=bcbc3d88-4368-4873-830d-82af75094385","ios":"levelo://app?vid=bcbc3d88-4368-4873-830d-82af75094385"},"vehicle_type_id":"4","last_reported":1717250822,"current_range_meters":400,"station_id":"ce4bhr92rcd13ifvqhrg","pricing_plan_id":"cebpf4jnsgd1na2vs0mg"},{"bike_id":"0bfcfe00-ad1b-428e-a279-2c8872554391","system_id":"levelo_inurba_marseille","lat":43.330442,"lon":5.389148,"is_reserved":false,"is_disabled":false,"rental_uris":{"android":"levelo://app?vid=0bfcfe00-ad1b-428e-a279-2c8872554391","ios":"levelo://app?vid=0bfcfe00-ad1b-428e-a279-2c8872554391"},"vehicle_type_id":"4","last_reported":1717250822,"current_range_meters":18800,"station_id":"ce4bhr92rcd13ifvqhrg","pricing_plan_id":"cebpf4jnsgd1na2vs0mg"},{"bike_id":"22dc8003-0595-4a2e-aa45-5cabdc39f105","system_id":"levelo_inurba_marseille","lat":43.289741,"lon":5.378306,"is_reserved":false,"is_disabled":false,"rental_uris":{"android":"levelo://app?vid=22dc8003-0595-4a2e-aa45-5cabdc39f105","ios":"levelo://app?vid=22dc8003-0595-4a2e-aa45-5cabdc39f105"},"vehicle_type_id":"4","last_reported":1717250822,"current_range_meters":0,"station_id":"ce4bh9p2rcd13ifvqed0","pricing_plan_id":"cebpf4jnsgd1na2vs0mg"},{"bike_id":"166e7c6a-a0ae-4683-876e-b8ffbaa9f0d4","system_id":"levelo_inurba_marseille","lat":43.2901,"lon":5.381269,"is_reserved":false,"is_disabled":false,"rental_uris":{"android":"levelo://app?vid=166e7c6a-a0ae-4683-876e-b8ffbaa9f0d4","ios":"levelo://app?vid=166e7c6a-a0ae-4683-876e-b8ffbaa9f0d4"},"vehicle_type_id":"4","last_reported":1717250822,"current_range_meters":20000,"station_id":"ce4bh4p2rcd13ifvqe1g","pricing_plan_id":"cebpf4jnsgd1na2vs0mg"},{"bike_id":"53c0893b-0cac-47dd-b3fc-69769c4cd089","system_id":"levelo_inurba_marseille","lat":43.2901,"lon":5.381269,"is_reserved":false,"is_disabled":false,"rental_uris":{"android":"levelo://app?vid=53c0893b-0cac-47dd-b3fc-69769c4cd089","ios":"levelo://app?vid=53c0893b-0cac-47dd-b3fc-69769c4cd089"},"vehicle_type_id":"4","last_reported":1717250822,"current_range_meters":26000,"station_id":"ce4bh4p2rcd13ifvqe1g","pricing_plan_id":"cebpf4jnsgd1na2vs0mg"},{"bike_id":"5950c904-a88a-43f2-8066-4dd8c086c731","system_id":"levelo_inurba_marseille","lat":43.2901,"lon":5.381269,"is_reserved":false,"is_disabled":false,"rental_uris":{"android":"levelo://app?vid=5950c904-a88a-43f2-8066-4dd8c086c731","ios":"levelo://app?vid=5950c904-a88a-43f2-8066-4dd8c086c731"},"vehicle_type_id":"4","last_reported":1717250822,"current_range_meters":6400,"station_id":"ce4bh4p2rcd13ifvqe1g","pricing_plan_id":"cebpf4jnsgd1na2vs0mg"},{"bike_id":"86c7d612-89a7-45ac-a469-93121d4a191c","system_id":"levelo_inurba_marseille","lat":43.2886,"lon":5.3585,"is_reserved":false,"is_disabled":false,"rental_uris":{"android":"levelo://app?vid=86c7d612-89a7-45ac-a469-93121d4a191c","ios":"levelo://app?vid=86c7d612-89a7-45ac-a469-93121d4a191c"},"vehicle_type_id":"4","last_reported":1717250822,"current_range_meters":19200,"station_id":"ce4bhb12rcd13ifvqem0","pricing_plan_id":"cebpf4jnsgd1na2vs0mg"},{"bike_id":"9905363e-942c-4ffc-8296-187840ff7486","system_id":"levelo_inurba_marseille","lat":43.28856,"lon":5.358371,"is_reserved":false,"is_disabled":false,"rental_uris":{"android":"levelo://app?vid=9905363e-942c-4ffc-8296-187840ff7486","ios":"levelo://app?vid=9905363e-942c-4ffc-8296-187840ff7486"},"vehicle_type_id":"4","last_reported":1717250822,"current_range_meters":8800,"station_id":"ce4bhb12rcd13ifvqem0","pricing_plan_id":"cebpf4jnsgd1na2vs0mg"},{"bike_id":"11798597-f1f0-4c1c-a1ba-05dc781c2928","system_id":"levelo_inurba_marseille","lat":43.28856,"lon":5.358371,"is_reserved":false,"is_disabled":false,"rental_uris":{"android":"levelo://app?vid=11798597-f1f0-4c1c-a1ba-05dc781c2928","ios":"levelo://app?vid=11798597-f1f0-4c1c-a1ba-05dc781c2928"},"vehicle_type_id":"4","last_reported":1717250822,"current_range_meters":27200,"station_id":"ce4bhb12rcd13ifvqem0","pricing_plan_id":"cebpf4jnsgd1na2vs0mg"},{"bike_id":"067faffc-64c0-4556-9d3a-1719ce8bd076","system_id":"levelo_inurba_marseille","lat":43.309371,"lon":5.401449,"is_reserved":false,"is_disabled":false,"rental_uris":{"android":"levelo://app?vid=067faffc-64c0-4556-9d3a-1719ce8bd076","ios":"levelo://app?vid=067faffc-64c0-4556-9d3a-1719ce8bd076"},"vehicle_type_id":"4","last_reported":1717250822,"current_range_meters":24800,"station_id":"ce4bgvp2rcd13ifvqct0","pricing_plan_id":"cebpf4jnsgd1na2vs0mg"},{"bike_id":"5709d140-eceb-4c97-ab9f-2037d7b57b03","system_id":"levelo_inurba_marseille","lat":43.309371,"lon":5.401449,"is_reserved":false,"is_disabled":false,"rental_uris":{"android":"levelo://app?vid=5709d140-eceb-4c97-ab9f-2037d7b57b03","ios":"levelo://app?vid=5709d140-eceb-4c97-ab9f-2037d7b57b03"},"vehicle_type_id":"4","last_reported":1717250822,"current_range_meters":10400,"station_id":"ce4bgvp2rcd13ifvqct0","pricing_plan_id":"cebpf4jnsgd1na2vs0mg"},{"bike_id":"5fde10b2-827d-44a0-8738-cc4ab7827ac6","system_id":"levelo_inurba_marseille","lat":43.3375,"lon":5.37427,"is_reserved":false,"is_disabled":false,"rental_uris":{"android":"levelo://app?vid=5fde10b2-827d-44a0-8738-cc4ab7827ac6","ios":"levelo://app?vid=5fde10b2-827d-44a0-8738-cc4ab7827ac6"},"vehicle_type_id":"4","last_reported":1717250822,"current_range_meters":28800,"station_id":"ce4bgth2rcd13ifvqch0","pricing_plan_id":"cebpf4jnsgd1na2vs0mg"},{"bike_id":"6b0846e3-fae6-4710-adb8-9156e0c23d18","system_id":"levelo_inurba_marseille","lat":43.30938,"lon":5.40147,"is_reserved":false,"is_disabled":false,"rental_uris":{"android":"levelo://app?vid=6b0846e3-fae6-4710-adb8-9156e0c23d18","ios":"levelo://app?vid=6b0846e3-fae6-4710-adb8-9156e0c23d18"},"vehicle_type_id":"4","last_reported":1717250822,"current_range_meters":0,"station_id":"ce4bgvp2rcd13ifvqct0","pricing_plan_id":"cebpf4jnsgd1na2vs0mg"},{"bike_id":"26e88c15-1ebf-4978-814d-f8bc280f73dc","system_id":"levelo_inurba_marseille","lat":43.33746,"lon":5.37479,"is_reserved":false,"is_disabled":false,"rental_uris":{"android":"levelo://app?vid=26e88c15-1ebf-4978-814d-f8bc280f73dc","ios":"levelo://app?vid=26e88c15-1ebf-4978-814d-f8bc280f73dc"},"vehicle_type_id":"4","last_reported":1717250822,"current_range_meters":26800,"station_id":"","pricing_plan_id":"cebpf4jnsgd1na2vs0mg"},{"bike_id":"87ec6329-c1fd-4107-8475-68cfcb85edc4","system_id":"levelo_inurba_marseille","lat":43.309371,"lon":5.401449,"is_reserved":false,"is_disabled":false,"rental_uris":{"android":"levelo://app?vid=87ec6329-c1fd-4107-8475-68cfcb85edc4","ios":"levelo://app?vid=87ec6329-c1fd-4107-8475-68cfcb85edc4"},"vehicle_type_id":"4","last_reported":1717250822,"current_range_meters":27200,"station_id":"ce4bgvp2rcd13ifvqct0","pricing_plan_id":"cebpf4jnsgd1na2vs0mg"},{"bike_id":"def3dd8b-ac90-44f7-89c4-d7c4f1f70c14","system_id":"levelo_inurba_marseille","lat":43.337707,"lon":5.374255,"is_reserved":false,"is_disabled":false,"rental_uris":{"android":"levelo://app?vid=def3dd8b-ac90-44f7-89c4-d7c4f1f70c14","ios":"levelo://app?vid=def3dd8b-ac90-44f7-89c4-d7c4f1f70c14"},"vehicle_type_id":"4","last_reported":1717250822,"current_range_meters":21600,"station_id":"","pricing_plan_id":"cebpf4jnsgd1na2vs0mg"},{"bike_id":"c0fee200-1a9a-49ba-a769-99c8b0213d9f","system_id":"levelo_inurba_marseille","lat":43.289733,"lon":5.382251,"is_reserved":false,"is_disabled":false,"rental_uris":{"android":"levelo://app?vid=c0fee200-1a9a-49ba-a769-99c8b0213d9f","ios":"levelo://app?vid=c0fee200-1a9a-49ba-a769-99c8b0213d9f"},"vehicle_type_id":"4","last_reported":1717250822,"current_range_meters":0,"station_id":"","pricing_plan_id":"cebpf4jnsgd1na2vs0mg"},{"bike_id":"dbacbeeb-adc2-40b3-883b-993fb4d4c92b","system_id":"levelo_inurba_marseille","lat":43.302784,"lon":5.377158,"is_reserved":false,"is_disabled":false,"rental_uris":{"android":"levelo://app?vid=dbacbeeb-adc2-40b3-883b-993fb4d4c92b","ios":"levelo://app?vid=dbacbeeb-adc2-40b3-883b-993fb4d4c92b"},"vehicle_type_id":"4","last_reported":1717250822,"current_range_meters":3200,"station_id":"ce4bguh2rcd13ifvqcj0","pricing_plan_id":"cebpf4jnsgd1na2vs0mg"},{"bike_id":"3db82e43-d65f-47d6-8374-ec44193c5520","system_id":"levelo_inurba_marseille","lat":43.304278,"lon":5.388868,"is_reserved":false,"is_disabled":false,"rental_uris":{"android":"levelo://app?vid=3db82e43-d65f-47d6-8374-ec44193c5520","ios":"levelo://app?vid=3db82e43-d65f-47d6-8374-ec44193c5520"},"vehicle_type_id":"4","last_reported":1717250822,"current_range_meters":14400,"station_id":"ce4bgk12rcd13ifvqbi0","pricing_plan_id":"cebpf4jnsgd1na2vs0mg"},{"bike_id":"841ba318-be58-4069-a967-697011df9af7","system_id":"levelo_inurba_marseille","lat":43.30295,"lon":5.39954,"is_reserved":false,"is_disabled":false,"rental_uris":{"android":"levelo://app?vid=841ba318-be58-4069-a967-697011df9af7","ios":"levelo://app?vid=841ba318-be58-4069-a967-697011df9af7"},"vehicle_type_id":"4","last_reported":1717250822,"current_range_meters":28800,"station_id":"","pricing_plan_id":"cebpf4jnsgd1na2vs0mg"},{"bike_id":"27928ac3-bfe1-4441-91e7-1e3168a607bf","system_id":"levelo_inurba_marseille","lat":43.28736,"lon":5.36082,"is_reserved":false,"is_disabled":false,"rental_uris":{"android":"levelo://app?vid=27928ac3-bfe1-4441-91e7-1e3168a607bf","ios":"levelo://app?vid=27928ac3-bfe1-4441-91e7-1e3168a607bf"},"vehicle_type_id":"4","last_reported":1717250822,"current_range_meters":15600,"station_id":"cki0cbj6b192h4jlfktg","pricing_plan_id":"cebpf4jnsgd1na2vs0mg"},{"bike_id":"fd400e67-ebba-4fed-b1ad-42788e3334bb","system_id":"levelo_inurba_marseille","lat":43.287283,"lon":5.360906,"is_reserved":false,"is_disabled":false,"rental_uris":{"android":"levelo://app?vid=fd400e67-ebba-4fed-b1ad-42788e3334bb","ios":"levelo://app?vid=fd400e67-ebba-4fed-b1ad-42788e3334bb"},"vehicle_type_id":"4","last_reported":1717250822,"current_range_meters":18000,"station_id":"cki0cbj6b192h4jlfktg","pricing_plan_id":"cebpf4jnsgd1na2vs0mg"},{"bike_id":"7580ce41-b28d-4f6e-936c-8a743baf959d","system_id":"levelo_inurba_marseille","lat":43.287268,"lon":5.360899,"is_reserved":false,"is_disabled":false,"rental_uris":{"android":"levelo://app?vid=7580ce41-b28d-4f6e-936c-8a743baf959d","ios":"levelo://app?vid=7580ce41-b28d-4f6e-936c-8a743baf959d"},"vehicle_type_id":"4","last_reported":1717250822,"current_range_meters":31200,"station_id":"cki0cbj6b192h4jlfktg","pricing_plan_id":"cebpf4jnsgd1na2vs0mg"},{"bike_id":"70370460-dfcb-4993-aeb9-63ea673fcdcb","system_id":"levelo_inurba_marseille","lat":43.28727,"lon":5.36078,"is_reserved":false,"is_disabled":false,"rental_uris":{"android":"levelo://app?vid=70370460-dfcb-4993-aeb9-63ea673fcdcb","ios":"levelo://app?vid=70370460-dfcb-4993-aeb9-63ea673fcdcb"},"vehicle_type_id":"4","last_reported":1717250822,"current_range_meters":19200,"station_id":"cki0cbj6b192h4jlfktg","pricing_plan_id":"cebpf4jnsgd1na2vs0mg"},{"bike_id":"2fded188-d5c5-4d7e-b698-050cf83be747","system_id":"levelo_inurba_marseille","lat":43.28727,"lon":5.36078,"is_reserved":false,"is_disabled":false,"rental_uris":{"android":"levelo://app?vid=2fded188-d5c5-4d7e-b698-050cf83be747","ios":"levelo://app?vid=2fded188-d5c5-4d7e-b698-050cf83be747"},"vehicle_type_id":"4","last_reported":1717250822,"current_range_meters":24400,"station_id":"cki0cbj6b192h4jlfktg","pricing_plan_id":"cebpf4jnsgd1na2vs0mg"},{"bike_id":"dbe36bb9-f286-4fd8-ae63-3761d2f615db","system_id":"levelo_inurba_marseille","lat":43.286961,"lon":5.373785,"is_reserved":false,"is_disabled":false,"rental_uris":{"android":"levelo://app?vid=dbe36bb9-f286-4fd8-ae63-3761d2f615db","ios":"levelo://app?vid=dbe36bb9-f286-4fd8-ae63-3761d2f615db"},"vehicle_type_id":"4","last_reported":1717250822,"current_range_meters":400,"station_id":"ce4bh3p2rcd13ifvqdq0","pricing_plan_id":"cebpf4jnsgd1na2vs0mg"},{"bike_id":"0c0eec42-7008-416a-aff0-7a917166d5e0","system_id":"levelo_inurba_marseille","lat":43.31341,"lon":5.367098,"is_reserved":false,"is_disabled":false,"rental_uris":{"android":"levelo://app?vid=0c0eec42-7008-416a-aff0-7a917166d5e0","ios":"levelo://app?vid=0c0eec42-7008-416a-aff0-7a917166d5e0"},"vehicle_type_id":"4","last_reported":1717250822,"current_range_meters":22400,"station_id":"ce4bgr92rcd13ifvqc6g","pricing_plan_id":"cebpf4jnsgd1na2vs0mg"},{"bike_id":"5b14fbc3-dafe-4632-9081-7fb315efcdda","system_id":"levelo_inurba_marseille","lat":43.290336,"lon":5.386425,"is_reserved":false,"is_disabled":false,"rental_uris":{"android":"levelo://app?vid=5b14fbc3-dafe-4632-9081-7fb315efcdda","ios":"levelo://app?vid=5b14fbc3-dafe-4632-9081-7fb315efcdda"},"vehicle_type_id":"4","last_reported":1717250822,"current_range_meters":8400,"station_id":"ce4bh4p2rcd13ifvqe0g","pricing_plan_id":"cebpf4jnsgd1na2vs0mg"},{"bike_id":"9c01e3b1-a045-4a08-a829-314f538f8458","system_id":"levelo_inurba_marseille","lat":43.28719,"lon":5.37938,"is_reserved":false,"is_disabled":false,"rental_uris":{"android":"levelo://app?vid=9c01e3b1-a045-4a08-a829-314f538f8458","ios":"levelo://app?vid=9c01e3b1-a045-4a08-a829-314f538f8458"},"vehicle_type_id":"4","last_reported":1717250822,"current_range_meters":11200,"station_id":"ce4bh9p2rcd13ifvqec0","pricing_plan_id":"cebpf4jnsgd1na2vs0mg"},{"bike_id":"6e2667a6-9aa1-4500-a2a1-da04eb26b9d2","system_id":"levelo_inurba_marseille","lat":43.31694,"lon":5.40469,"is_reserved":false,"is_disabled":false,"rental_uris":{"android":"levelo://app?vid=6e2667a6-9aa1-4500-a2a1-da04eb26b9d2","ios":"levelo://app?vid=6e2667a6-9aa1-4500-a2a1-da04eb26b9d2"},"vehicle_type_id":"4","last_reported":1717250822,"current_range_meters":12800,"station_id":"","pricing_plan_id":"cebpf4jnsgd1na2vs0mg"},{"bike_id":"60a1a515-4daa-4c32-a272-c2ffb8b1b431","system_id":"levelo_inurba_marseille","lat":43.316915,"lon":5.404795,"is_reserved":false,"is_disabled":false,"rental_uris":{"android":"levelo://app?vid=60a1a515-4daa-4c32-a272-c2ffb8b1b431","ios":"levelo://app?vid=60a1a515-4daa-4c32-a272-c2ffb8b1b431"},"vehicle_type_id":"4","last_reported":1717250822,"current_range_meters":10400,"station_id":"ce4bh012rcd13ifvqd00","pricing_plan_id":"cebpf4jnsgd1na2vs0mg"},{"bike_id":"e7905297-15d4-4d47-98b7-6acd79ec0053","system_id":"levelo_inurba_marseille","lat":43.317104,"lon":5.436818,"is_reserved":false,"is_disabled":false,"rental_uris":{"android":"levelo://app?vid=e7905297-15d4-4d47-98b7-6acd79ec0053","ios":"levelo://app?vid=e7905297-15d4-4d47-98b7-6acd79ec0053"},"vehicle_type_id":"4","last_reported":1717250822,"current_range_meters":9600,"station_id":"ce4bhp92rcd13ifvqhcg","pricing_plan_id":"cebpf4jnsgd1na2vs0mg"},{"bike_id":"ace79c0c-8852-40b6-8fa0-80685439fc57","system_id":"levelo_inurba_marseille","lat":43.291994,"lon":5.392907,"is_reserved":false,"is_disabled":false,"rental_uris":{"android":"levelo://app?vid=ace79c0c-8852-40b6-8fa0-80685439fc57","ios":"levelo://app?vid=ace79c0c-8852-40b6-8fa0-80685439fc57"},"vehicle_type_id":"4","last_reported":1717250822,"current_range_meters":20800,"station_id":"ce4bh192rcd13ifvqdd0","pricing_plan_id":"cebpf4jnsgd1na2vs0mg"},{"bike_id":"b9d54194-bab9-4b8c-ac90-b8668784c9cb","system_id":"levelo_inurba_marseille","lat":43.291994,"lon":5.392907,"is_reserved":false,"is_disabled":false,"rental_uris":{"android":"levelo://app?vid=b9d54194-bab9-4b8c-ac90-b8668784c9cb","ios":"levelo://app?vid=b9d54194-bab9-4b8c-ac90-b8668784c9cb"},"vehicle_type_id":"4","last_reported":1717250822,"current_range_meters":0,"station_id":"ce4bh192rcd13ifvqdd0","pricing_plan_id":"cebpf4jnsgd1na2vs0mg"},{"bike_id":"d142a439-efad-4511-91ce-da8c66316bed","system_id":"levelo_inurba_marseille","lat":43.291994,"lon":5.392907,"is_reserved":false,"is_disabled":false,"rental_uris":{"android":"levelo://app?vid=d142a439-efad-4511-91ce-da8c66316bed","ios":"levelo://app?vid=d142a439-efad-4511-91ce-da8c66316bed"},"vehicle_type_id":"4","last_reported":1717250822,"current_range_meters":10800,"station_id":"ce4bh192rcd13ifvqdd0","pricing_plan_id":"cebpf4jnsgd1na2vs0mg"},{"bike_id":"971b2e0e-b936-48b3-b6f8-44fcd9475421","system_id":"levelo_inurba_marseille","lat":43.28655,"lon":5.35144,"is_reserved":false,"is_disabled":false,"rental_uris":{"android":"levelo://app?vid=971b2e0e-b936-48b3-b6f8-44fcd9475421","ios":"levelo://app?vid=971b2e0e-b936-48b3-b6f8-44fcd9475421"},"vehicle_type_id":"4","last_reported":1717250822,"current_range_meters":0,"station_id":"ce4bhg12rcd13ifvqf70","pricing_plan_id":"cebpf4jnsgd1na2vs0mg"},{"bike_id":"e3dcc251-6ebf-4d2e-b249-f02d23c4164c","system_id":"levelo_inurba_marseille","lat":43.284538,"lon":5.358657,"is_reserved":false,"is_disabled":false,"rental_uris":{"android":"levelo://app?vid=e3dcc251-6ebf-4d2e-b249-f02d23c4164c","ios":"levelo://app?vid=e3dcc251-6ebf-4d2e-b249-f02d23c4164c"},"vehicle_type_id":"4","last_reported":1717250822,"current_range_meters":0,"station_id":"ce4bhah2rcd13ifvqei0","pricing_plan_id":"cebpf4jnsgd1na2vs0mg"},{"bike_id":"a625bba6-5f40-4373-9b50-3a62be5ac89d","system_id":"levelo_inurba_marseille","lat":43.284538,"lon":5.358657,"is_reserved":false,"is_disabled":false,"rental_uris":{"android":"levelo://app?vid=a625bba6-5f40-4373-9b50-3a62be5ac89d","ios":"levelo://app?vid=a625bba6-5f40-4373-9b50-3a62be5ac89d"},"vehicle_type_id":"4","last_reported":1717250822,"current_range_meters":5200,"station_id":"ce4bhah2rcd13ifvqei0","pricing_plan_id":"cebpf4jnsgd1na2vs0mg"},{"bike_id":"dd1585f2-4c5a-4074-b655-9f55cbe7f318","system_id":"levelo_inurba_marseille","lat":43.284534,"lon":5.358662,"is_reserved":false,"is_disabled":false,"rental_uris":{"android":"levelo://app?vid=dd1585f2-4c5a-4074-b655-9f55cbe7f318","ios":"levelo://app?vid=dd1585f2-4c5a-4074-b655-9f55cbe7f318"},"vehicle_type_id":"4","last_reported":1717250822,"current_range_meters":26000,"station_id":"ce4bhah2rcd13ifvqei0","pricing_plan_id":"cebpf4jnsgd1na2vs0mg"},{"bike_id":"8c8ff687-c208-4dce-9d2e-0cee2f46b994","system_id":"levelo_inurba_marseille","lat":43.284538,"lon":5.358657,"is_reserved":false,"is_disabled":false,"rental_uris":{"android":"levelo://app?vid=8c8ff687-c208-4dce-9d2e-0cee2f46b994","ios":"levelo://app?vid=8c8ff687-c208-4dce-9d2e-0cee2f46b994"},"vehicle_type_id":"4","last_reported":1717250822,"current_range_meters":8000,"station_id":"ce4bhah2rcd13ifvqei0","pricing_plan_id":"cebpf4jnsgd1na2vs0mg"},{"bike_id":"67889025-9ead-4405-9c89-193f675a7174","system_id":"levelo_inurba_marseille","lat":43.284538,"lon":5.358657,"is_reserved":false,"is_disabled":false,"rental_uris":{"android":"levelo://app?vid=67889025-9ead-4405-9c89-193f675a7174","ios":"levelo://app?vid=67889025-9ead-4405-9c89-193f675a7174"},"vehicle_type_id":"4","last_reported":1717250822,"current_range_meters":0,"station_id":"ce4bhah2rcd13ifvqei0","pricing_plan_id":"cebpf4jnsgd1na2vs0mg"},{"bike_id":"3ac44179-a933-450f-b5ed-e8499971fafc","system_id":"levelo_inurba_marseille","lat":43.284538,"lon":5.358657,"is_reserved":false,"is_disabled":false,"rental_uris":{"android":"levelo://app?vid=3ac44179-a933-450f-b5ed-e8499971fafc","ios":"levelo://app?vid=3ac44179-a933-450f-b5ed-e8499971fafc"},"vehicle_type_id":"4","last_reported":1717250822,"current_range_meters":0,"station_id":"ce4bhah2rcd13ifvqei0","pricing_plan_id":"cebpf4jnsgd1na2vs0mg"},{"bike_id":"64c74992-6efd-47f2-89b6-0492f36b9b31","system_id":"levelo_inurba_marseille","lat":43.2862,"lon":5.3511,"is_reserved":false,"is_disabled":false,"rental_uris":{"android":"levelo://app?vid=64c74992-6efd-47f2-89b6-0492f36b9b31","ios":"levelo://app?vid=64c74992-6efd-47f2-89b6-0492f36b9b31"},"vehicle_type_id":"4","last_reported":1717250822,"current_range_meters":6000,"station_id":"ce4bhch2rcd13ifvqeug","pricing_plan_id":"cebpf4jnsgd1na2vs0mg"},{"bike_id":"d480645e-fd7c-4790-bd14-e1f23b793bd4","system_id":"levelo_inurba_marseille","lat":43.28621,"lon":5.35106,"is_reserved":false,"is_disabled":false,"rental_uris":{"android":"levelo://app?vid=d480645e-fd7c-4790-bd14-e1f23b793bd4","ios":"levelo://app?vid=d480645e-fd7c-4790-bd14-e1f23b793bd4"},"vehicle_type_id":"4","last_reported":1717250822,"current_range_meters":4800,"station_id":"ce4bhch2rcd13ifvqeug","pricing_plan_id":"cebpf4jnsgd1na2vs0mg"},{"bike_id":"2a86e474-39c0-49b1-bb19-a3caabd4378f","system_id":"levelo_inurba_marseille","lat":43.28621,"lon":5.35102,"is_reserved":false,"is_disabled":false,"rental_uris":{"android":"levelo://app?vid=2a86e474-39c0-49b1-bb19-a3caabd4378f","ios":"levelo://app?vid=2a86e474-39c0-49b1-bb19-a3caabd4378f"},"vehicle_type_id":"4","last_reported":1717250822,"current_range_meters":19200,"station_id":"ce4bhch2rcd13ifvqeug","pricing_plan_id":"cebpf4jnsgd1na2vs0mg"},{"bike_id":"78e03307-dce5-4403-a235-3513a09049d0","system_id":"levelo_inurba_marseille","lat":43.2862,"lon":5.35104,"is_reserved":false,"is_disabled":false,"rental_uris":{"android":"levelo://app?vid=78e03307-dce5-4403-a235-3513a09049d0","ios":"levelo://app?vid=78e03307-dce5-4403-a235-3513a09049d0"},"vehicle_type_id":"4","last_reported":1717250822,"current_range_meters":22000,"station_id":"ce4bhch2rcd13ifvqeug","pricing_plan_id":"cebpf4jnsgd1na2vs0mg"},{"bike_id":"d2536c5d-4b5d-4bac-80bb-74aaeff67a24","system_id":"levelo_inurba_marseille","lat":43.28618,"lon":5.35107,"is_reserved":false,"is_disabled":false,"rental_uris":{"android":"levelo://app?vid=d2536c5d-4b5d-4bac-80bb-74aaeff67a24","ios":"levelo://app?vid=d2536c5d-4b5d-4bac-80bb-74aaeff67a24"},"vehicle_type_id":"4","last_reported":1717250822,"current_range_meters":0,"station_id":"ce4bhch2rcd13ifvqeug","pricing_plan_id":"cebpf4jnsgd1na2vs0mg"},{"bike_id":"dbe23c51-a2e8-4db2-97f6-4919afa8fabc","system_id":"levelo_inurba_marseille","lat":43.28617,"lon":5.35108,"is_reserved":false,"is_disabled":false,"rental_uris":{"android":"levelo://app?vid=dbe23c51-a2e8-4db2-97f6-4919afa8fabc","ios":"levelo://app?vid=dbe23c51-a2e8-4db2-97f6-4919afa8fabc"},"vehicle_type_id":"4","last_reported":1717250822,"current_range_meters":23200,"station_id":"ce4bhch2rcd13ifvqeug","pricing_plan_id":"cebpf4jnsgd1na2vs0mg"},{"bike_id":"075775c8-1bd2-4c79-bb35-6ee250188dd7","system_id":"levelo_inurba_marseille","lat":43.28618,"lon":5.35103,"is_reserved":false,"is_disabled":false,"rental_uris":{"android":"levelo://app?vid=075775c8-1bd2-4c79-bb35-6ee250188dd7","ios":"levelo://app?vid=075775c8-1bd2-4c79-bb35-6ee250188dd7"},"vehicle_type_id":"4","last_reported":1717250822,"current_range_meters":4400,"station_id":"ce4bhch2rcd13ifvqeug","pricing_plan_id":"cebpf4jnsgd1na2vs0mg"},{"bike_id":"f3f3dfed-17fa-4ee0-a257-0273773dc19a","system_id":"levelo_inurba_marseille","lat":43.28618,"lon":5.351,"is_reserved":false,"is_disabled":false,"rental_uris":{"android":"levelo://app?vid=f3f3dfed-17fa-4ee0-a257-0273773dc19a","ios":"levelo://app?vid=f3f3dfed-17fa-4ee0-a257-0273773dc19a"},"vehicle_type_id":"4","last_reported":1717250822,"current_range_meters":0,"station_id":"ce4bhch2rcd13ifvqeug","pricing_plan_id":"cebpf4jnsgd1na2vs0mg"},{"bike_id":"9527be2e-418b-4587-ab44-a89dea543da7","system_id":"levelo_inurba_marseille","lat":43.285856,"lon":5.350771,"is_reserved":false,"is_disabled":false,"rental_uris":{"android":"levelo://app?vid=9527be2e-418b-4587-ab44-a89dea543da7","ios":"levelo://app?vid=9527be2e-418b-4587-ab44-a89dea543da7"},"vehicle_type_id":"4","last_reported":1717250822,"current_range_meters":19600,"station_id":"ce4bhch2rcd13ifvqeug","pricing_plan_id":"cebpf4jnsgd1na2vs0mg"},{"bike_id":"351b4dc8-0fb6-4916-b218-4c90ca734cf2","system_id":"levelo_inurba_marseille","lat":43.28616,"lon":5.35102,"is_reserved":false,"is_disabled":false,"rental_uris":{"android":"levelo://app?vid=351b4dc8-0fb6-4916-b218-4c90ca734cf2","ios":"levelo://app?vid=351b4dc8-0fb6-4916-b218-4c90ca734cf2"},"vehicle_type_id":"4","last_reported":1717250822,"current_range_meters":13200,"station_id":"ce4bhch2rcd13ifvqeug","pricing_plan_id":"cebpf4jnsgd1na2vs0mg"},{"bike_id":"32b3a3f9-96ba-4d7a-986d-1d6d490ffeb7","system_id":"levelo_inurba_marseille","lat":43.28614,"lon":5.35107,"is_reserved":false,"is_disabled":false,"rental_uris":{"android":"levelo://app?vid=32b3a3f9-96ba-4d7a-986d-1d6d490ffeb7","ios":"levelo://app?vid=32b3a3f9-96ba-4d7a-986d-1d6d490ffeb7"},"vehicle_type_id":"4","last_reported":1717250822,"current_range_meters":12000,"station_id":"ce4bhch2rcd13ifvqeug","pricing_plan_id":"cebpf4jnsgd1na2vs0mg"},{"bike_id":"eb482c4f-2e6e-4414-8cf1-bfaf232fb70a","system_id":"levelo_inurba_marseille","lat":43.284217,"lon":5.349697,"is_reserved":false,"is_disabled":false,"rental_uris":{"android":"levelo://app?vid=eb482c4f-2e6e-4414-8cf1-bfaf232fb70a","ios":"levelo://app?vid=eb482c4f-2e6e-4414-8cf1-bfaf232fb70a"},"vehicle_type_id":"4","last_reported":1717250822,"current_range_meters":19600,"station_id":"ce4bhbh2rcd13ifvqepg","pricing_plan_id":"cebpf4jnsgd1na2vs0mg"},{"bike_id":"436fa35d-1c22-4101-9361-1931bbd462a1","system_id":"levelo_inurba_marseille","lat":43.28615,"lon":5.35101,"is_reserved":false,"is_disabled":false,"rental_uris":{"android":"levelo://app?vid=436fa35d-1c22-4101-9361-1931bbd462a1","ios":"levelo://app?vid=436fa35d-1c22-4101-9361-1931bbd462a1"},"vehicle_type_id":"4","last_reported":1717250822,"current_range_meters":15200,"station_id":"ce4bhch2rcd13ifvqeug","pricing_plan_id":"cebpf4jnsgd1na2vs0mg"},{"bike_id":"b67cf65e-0051-475a-862e-f1a73816f227","system_id":"levelo_inurba_marseille","lat":43.28616,"lon":5.35096,"is_reserved":false,"is_disabled":false,"rental_uris":{"android":"levelo://app?vid=b67cf65e-0051-475a-862e-f1a73816f227","ios":"levelo://app?vid=b67cf65e-0051-475a-862e-f1a73816f227"},"vehicle_type_id":"4","last_reported":1717250822,"current_range_meters":10400,"station_id":"ce4bhch2rcd13ifvqeug","pricing_plan_id":"cebpf4jnsgd1na2vs0mg"},{"bike_id":"8d0872ab-4700-40a0-924e-7e99247e3f6c","system_id":"levelo_inurba_marseille","lat":43.28612,"lon":5.35103,"is_reserved":false,"is_disabled":false,"rental_uris":{"android":"levelo://app?vid=8d0872ab-4700-40a0-924e-7e99247e3f6c","ios":"levelo://app?vid=8d0872ab-4700-40a0-924e-7e99247e3f6c"},"vehicle_type_id":"4","last_reported":1717250822,"current_range_meters":5200,"station_id":"ce4bhch2rcd13ifvqeug","pricing_plan_id":"cebpf4jnsgd1na2vs0mg"},{"bike_id":"a1461fe6-87d1-4fd0-ae17-f91d29b2719b","system_id":"levelo_inurba_marseille","lat":43.285848,"lon":5.350787,"is_reserved":false,"is_disabled":false,"rental_uris":{"android":"levelo://app?vid=a1461fe6-87d1-4fd0-ae17-f91d29b2719b","ios":"levelo://app?vid=a1461fe6-87d1-4fd0-ae17-f91d29b2719b"},"vehicle_type_id":"4","last_reported":1717250822,"current_range_meters":24000,"station_id":"ce4bhch2rcd13ifvqeug","pricing_plan_id":"cebpf4jnsgd1na2vs0mg"},{"bike_id":"62dee61d-14a6-462f-ad14-56c687662b03","system_id":"levelo_inurba_marseille","lat":43.28613,"lon":5.35099,"is_reserved":false,"is_disabled":false,"rental_uris":{"android":"levelo://app?vid=62dee61d-14a6-462f-ad14-56c687662b03","ios":"levelo://app?vid=62dee61d-14a6-462f-ad14-56c687662b03"},"vehicle_type_id":"4","last_reported":1717250822,"current_range_meters":0,"station_id":"ce4bhch2rcd13ifvqeug","pricing_plan_id":"cebpf4jnsgd1na2vs0mg"},{"bike_id":"66195646-5aaa-45f3-850b-377608983bdd","system_id":"levelo_inurba_marseille","lat":43.28611,"lon":5.35099,"is_reserved":false,"is_disabled":false,"rental_uris":{"android":"levelo://app?vid=66195646-5aaa-45f3-850b-377608983bdd","ios":"levelo://app?vid=66195646-5aaa-45f3-850b-377608983bdd"},"vehicle_type_id":"4","last_reported":1717250822,"current_range_meters":18800,"station_id":"ce4bhch2rcd13ifvqeug","pricing_plan_id":"cebpf4jnsgd1na2vs0mg"},{"bike_id":"65e67309-b717-4284-a8dd-ad0e1203c467","system_id":"levelo_inurba_marseille","lat":43.295713,"lon":5.399639,"is_reserved":false,"is_disabled":false,"rental_uris":{"android":"levelo://app?vid=65e67309-b717-4284-a8dd-ad0e1203c467","ios":"levelo://app?vid=65e67309-b717-4284-a8dd-ad0e1203c467"},"vehicle_type_id":"4","last_reported":1717250822,"current_range_meters":14800,"station_id":"ce4bh312rcd13ifvqdj0","pricing_plan_id":"cebpf4jnsgd1na2vs0mg"},{"bike_id":"9ee5c0a8-9473-4933-bdff-86b1905905c7","system_id":"levelo_inurba_marseille","lat":43.29956,"lon":5.40341,"is_reserved":false,"is_disabled":false,"rental_uris":{"android":"levelo://app?vid=9ee5c0a8-9473-4933-bdff-86b1905905c7","ios":"levelo://app?vid=9ee5c0a8-9473-4933-bdff-86b1905905c7"},"vehicle_type_id":"4","last_reported":1717250822,"current_range_meters":0,"station_id":"","pricing_plan_id":"cebpf4jnsgd1na2vs0mg"},{"bike_id":"2708c7ba-9b7d-4641-9cac-1d9b7026fcc5","system_id":"levelo_inurba_marseille","lat":43.286595,"lon":5.386795,"is_reserved":false,"is_disabled":false,"rental_uris":{"android":"levelo://app?vid=2708c7ba-9b7d-4641-9cac-1d9b7026fcc5","ios":"levelo://app?vid=2708c7ba-9b7d-4641-9cac-1d9b7026fcc5"},"vehicle_type_id":"4","last_reported":1717250822,"current_range_meters":28400,"station_id":"ce4bh492rcd13ifvqdug","pricing_plan_id":"cebpf4jnsgd1na2vs0mg"},{"bike_id":"f455e10f-b044-4e6f-a8fc-afebfd4dcebb","system_id":"levelo_inurba_marseille","lat":43.286595,"lon":5.386795,"is_reserved":false,"is_disabled":false,"rental_uris":{"android":"levelo://app?vid=f455e10f-b044-4e6f-a8fc-afebfd4dcebb","ios":"levelo://app?vid=f455e10f-b044-4e6f-a8fc-afebfd4dcebb"},"vehicle_type_id":"4","last_reported":1717250822,"current_range_meters":800,"station_id":"ce4bh492rcd13ifvqdug","pricing_plan_id":"cebpf4jnsgd1na2vs0mg"},