{"last_updated":1761602923,"ttl":60,"version":"2.2","data":{"bikes":[{"bike_id":"047d4078-e34e-478c-941d-3d3059846df9","system_id":"levelo_inurba_marseille","lat":43.2943,"lon":5.38665,"is_reserved":false,"is_disabled":false,"rental_uris":{"android":"levelo://app?vid=047d4078-e34e-478c-941d-3d3059846df9","ios":"levelo://app?vid=047d4078-e34e-478c-941d-3d3059846df9"},"vehicle_type_id":"4","last_reported":1761602924,"current_range_meters":2800,"station_id":"","pricing_plan_id":"cebpf4jnsgd1na2vs0mg"},{"bike_id":"c6886b56-a088-4400-9c6e-291d90f15b50","system_id":"levelo_inurba_marseille","lat":43.290354,"lon":5.378114,"is_reserved":false,"is_disabled":false,"rental_uris":{"android":"levelo://app?vid=c6886b56-a088-4400-9c6e-291d90f15b50","ios":"levelo://app?vid=c6886b56-a088-4400-9c6e-291d90f15b50"},"vehicle_type_id":"4","last_reported":1761602924,"current_range_meters":3200,"station_id":"ce4bhh92rcd13ifvqfj0","pricing_plan_id":"cebpf4jnsgd1na2vs0mg"},{"bike_id":"b5b62287-d3ee-447e-9fe2-9f2b8112a684","system_id":"levelo_inurba_marseille","lat":43.21198,"lon":5.35076,"is_reserved":false,"is_disabled":true,"rental_uris":{"android":"levelo://app?vid=b5b62287-d3ee-447e-9fe2-9f2b8112a684","ios":"levelo://app?vid=b5b62287-d3ee-447e-9fe2-9f2b8112a684"},"vehicle_type_id":"4","last_reported":1761602924,"current_range_meters":4000,"station_id":"","pricing_plan_id":"cebpf4jnsgd1na2vs0mg"},{"bike_id":"931f4d11-041b-4021-832a-7a71dae3424a","system_id":"levelo_inurba_marseille","lat":43.30437,"lon":5.38883,"is_reserved":false,"is_disabled":false,"rental_uris":{"android":"levelo://app?vid=931f4d11-041b-4021-832a-7a71dae3424a","ios":"levelo://app?vid=931f4d11-041b-4021-832a-7a71dae3424a"},"vehicle_type_id":"4","last_reported":1761602924,"current_range_meters":4000,"station_id":"ce4bgk12rcd13ifvqbi0","pricing_plan_id":"cebpf4jnsgd1na2vs0mg"},{"bike_id":"5797d78e-30ca-42d8-b6f0-1280f44358f9","system_id":"levelo_inurba_marseille","lat":43.28573,"lon":5.39492,"is_reserved":false,"is_disabled":false,"rental_uris":{"android":"levelo://app?vid=5797d78e-30ca-42d8-b6f0-1280f44358f9","ios":"levelo://app?vid=5797d78e-30ca-42d8-b6f0-1280f44358f9"},"vehicle_type_id":"4","last_reported":1761602924,"current_range_meters":4400,"station_id":"ce4bh292rcd13ifvqdg0","pricing_plan_id":"cebpf4jnsgd1na2vs0mg"},{"bike_id":"6685b72d-bc6c-4473-970f-cfe39ccfd2f4","system_id":"levelo_inurba_marseille","lat":43.28354,"lon":5.38096,"is_reserved":false,"is_disabled":false,"rental_uris":{"android":"levelo://app?vid=6685b72d-bc6c-4473-970f-cfe39ccfd2f4","ios":"levelo://app?vid=6685b72d-bc6c-4473-970f-cfe39ccfd2f4"},"vehicle_type_id":"4","last_reported":1761602924,"current_range_meters":4800,"station_id":"ce4bh412rcd13ifvqdr0","pricing_plan_id":"cebpf4jnsgd1na2vs0mg"},{"bike_id":"f42dc066-e493-46e5-b8b2-b22c9bf4175d","system_id":"levelo_inurba_marseille","lat":43.28941,"lon":5.36401,"is_reserved":false,"is_disabled":false,"rental_uris":{"android":"levelo://app?vid=f42dc066-e493-46e5-b8b2-b22c9bf4175d","ios":"levelo://app?vid=f42dc066-e493-46e5-b8b2-b22c9bf4175d"},"vehicle_type_id":"4","last_reported":1761602924,"current_range_meters":4800,"station_id":"ce4bhc92rcd13ifvqetg","pricing_plan_id":"cebpf4jnsgd1na2vs0mg"},{"bike_id":"e1aa20f8-799a-4567-bfd0-31e71eee617f","system_id":"levelo_inurba_marseille","lat":43.31437,"lon":5.38885,"is_reserved":false,"is_disabled":true,"rental_uris":{"android":"levelo://app?vid=e1aa20f8-799a-4567-bfd0-31e71eee617f","ios":"levelo://app?vid=e1aa20f8-799a-4567-bfd0-31e71eee617f"},"vehicle_type_id":"4","last_reported":1761602924,"current_range_meters":5600,"station_id":"","pricing_plan_id":"cebpf4jnsgd1na2vs0mg"},{"bike_id":"4ade9d83-f2d5-4d19-a54e-74fbd9ec2b53","system_id":"levelo_inurba_marseille","lat":43.320995,"lon":5.38689,"is_reserved":false,"is_disabled":false,"rental_uris":{"android":"levelo://app?vid=4ade9d83-f2d5-4d19-a54e-74fbd9ec2b53","ios":"levelo://app?vid=4ade9d83-f2d5-4d19-a54e-74fbd9ec2b53"},"vehicle_type_id":"4","last_reported":1761602924,"current_range_meters":6000,"station_id":"","pricing_plan_id":"cebpf4jnsgd1na2vs0mg"},{"bike_id":"ad522416-033a-49c0-b623-41a32925942a","system_id":"levelo_inurba_marseille","lat":43.28859,"lon":5.35344,"is_reserved":false,"is_disabled":false,"rental_uris":{"android":"levelo://app?vid=ad522416-033a-49c0-b623-41a32925942a","ios":"levelo://app?vid=ad522416-033a-49c0-b623-41a32925942a"},"vehicle_type_id":"4","last_reported":1761602924,"current_range_meters":6400,"station_id":"","pricing_plan_id":"cebpf4jnsgd1na2vs0mg"},{"bike_id":"dd539c3d-8244-460c-97df-764a86a3f675","system_id":"levelo_inurba_marseille","lat":43.286285,"lon":5.359264,"is_reserved":false,"is_disabled":false,"rental_uris":{"android":"levelo://app?vid=dd539c3d-8244-460c-97df-764a86a3f675","ios":"levelo://app?vid=dd539c3d-8244-460c-97df-764a86a3f675"},"vehicle_type_id":"4","last_reported":1761602924,"current_range_meters":6400,"station_id":"","pricing_plan_id":"cebpf4jnsgd1na2vs0mg"},{"bike_id":"4c0cc699-7645-4e7e-90a0-b85a345c9829","system_id":"levelo_inurba_marseille","lat":43.28452,"lon":5.39171,"is_reserved":false,"is_disabled":false,"rental_uris":{"android":"levelo://app?vid=4c0cc699-7645-4e7e-90a0-b85a345c9829","ios":"levelo://app?vid=4c0cc699-7645-4e7e-90a0-b85a345c9829"},"vehicle_type_id":"4","last_reported":1761602924,"current_range_meters":6400,"station_id":"ce4bhoh2rcd13ifvqh5g","pricing_plan_id":"cebpf4jnsgd1na2vs0mg"},{"bike_id":"c0b81f28-bbba-4247-a74b-c55a34b31846","system_id":"levelo_inurba_marseille","lat":43.33258,"lon":5.41086,"is_reserved":false,"is_disabled":true,"rental_uris":{"android":"levelo://app?vid=c0b81f28-bbba-4247-a74b-c55a34b31846","ios":"levelo://app?vid=c0b81f28-bbba-4247-a74b-c55a34b31846"},"vehicle_type_id":"4","last_reported":1761602924,"current_range_meters":7200,"station_id":"","pricing_plan_id":"cebpf4jnsgd1na2vs0mg"},{"bike_id":"c3b2fd4c-e71f-4392-a289-50fb3ee1cfd9","system_id":"levelo_inurba_marseille","lat":43.29595,"lon":5.38123,"is_reserved":false,"is_disabled":false,"rental_uris":{"android":"levelo://app?vid=c3b2fd4c-e71f-4392-a289-50fb3ee1cfd9","ios":"levelo://app?vid=c3b2fd4c-e71f-4392-a289-50fb3ee1cfd9"},"vehicle_type_id":"4","last_reported":1761602924,"current_range_meters":7200,"station_id":"ce4bgl12rcd13ifvqbo0","pricing_plan_id":"cebpf4jnsgd1na2vs0mg"},{"bike_id":"a6370588-9e2c-43fe-9a1f-e28b0d9f0c20","system_id":"levelo_inurba_marseille","lat":43.29314,"lon":5.37175,"is_reserved":false,"is_disabled":false,"rental_uris":{"android":"levelo://app?vid=a6370588-9e2c-43fe-9a1f-e28b0d9f0c20","ios":"levelo://app?vid=a6370588-9e2c-43fe-9a1f-e28b0d9f0c20"},"vehicle_type_id":"4","last_reported":1761602924,"current_range_meters":7200,"station_id":"ce4bgh92rcd13ifvqb40","pricing_plan_id":"cebpf4jnsgd1na2vs0mg"},{"bike_id":"41d45b45-3a52-4b5a-b2b3-1e62d5490ada","system_id":"levelo_inurba_marseille","lat":43.28524,"lon":5.44095,"is_reserved":false,"is_disabled":false,"rental_uris":{"android":"levelo://app?vid=41d45b45-3a52-4b5a-b2b3-1e62d5490ada","ios":"levelo://app?vid=41d45b45-3a52-4b5a-b2b3-1e62d5490ada"},"vehicle_type_id":"4","last_reported":1761602924,"current_range_meters":7200,"station_id":"st_d3j3df2ikq2c7380ej80","pricing_plan_id":"cebpf4jnsgd1na2vs0mg"},{"bike_id":"c500b805-273b-40a5-87fe-d7feb3ca4025","system_id":"levelo_inurba_marseille","lat":43.28855,"lon":5.35859,"is_reserved":false,"is_disabled":false,"rental_uris":{"android":"levelo://app?vid=c500b805-273b-40a5-87fe-d7feb3ca4025","ios":"levelo://app?vid=c500b805-273b-40a5-87fe-d7feb3ca4025"},"vehicle_type_id":"4","last_reported":1761602924,"current_range_meters":7200,"station_id":"ce4bhb12rcd13ifvqem0","pricing_plan_id":"cebpf4jnsgd1na2vs0mg"},{"bike_id":"46187f54-7865-40a5-8653-434f8b219ff5","system_id":"levelo_inurba_marseille","lat":43.24149,"lon":5.3971,"is_reserved":false,"is_disabled":false,"rental_uris":{"android":"levelo://app?vid=46187f54-7865-40a5-8653-434f8b219ff5","ios":"levelo://app?vid=46187f54-7865-40a5-8653-434f8b219ff5"},"vehicle_type_id":"4","last_reported":1761602924,"current_range_meters":7200,"station_id":"ce4bhn12rcd13ifvqgpg","pricing_plan_id":"cebpf4jnsgd1na2vs0mg"},{"bike_id":"675a1540-309f-44d3-a8e7-09545af04f4f","system_id":"levelo_inurba_marseille","lat":43.290274,"lon":5.399783,"is_reserved":false,"is_disabled":false,"rental_uris":{"android":"levelo://app?vid=675a1540-309f-44d3-a8e7-09545af04f4f","ios":"levelo://app?vid=675a1540-309f-44d3-a8e7-09545af04f4f"},"vehicle_type_id":"4","last_reported":1761602924,"current_range_meters":8000,"station_id":"ce4bh392rcd13ifvqdm0","pricing_plan_id":"cebpf4jnsgd1na2vs0mg"},{"bike_id":"16efc8ea-356b-4ce0-b21c-1b01ecabc233","system_id":"levelo_inurba_marseille","lat":43.29021,"lon":5.38647,"is_reserved":false,"is_disabled":false,"rental_uris":{"android":"levelo://app?vid=16efc8ea-356b-4ce0-b21c-1b01ecabc233","ios":"levelo://app?vid=16efc8ea-356b-4ce0-b21c-1b01ecabc233"},"vehicle_type_id":"4","last_reported":1761602924,"current_range_meters":8000,"station_id":"ce4bh4p2rcd13ifvqe0g","pricing_plan_id":"cebpf4jnsgd1na2vs0mg"},{"bike_id":"64b75b4a-3497-4861-8cc2-90dd62cd9f5e","system_id":"levelo_inurba_marseille","lat":43.29311,"lon":5.43446,"is_reserved":false,"is_disabled":false,"rental_uris":{"android":"levelo://app?vid=64b75b4a-3497-4861-8cc2-90dd62cd9f5e","ios":"levelo://app?vid=64b75b4a-3497-4861-8cc2-90dd62cd9f5e"},"vehicle_type_id":"4","last_reported":1761602924,"current_range_meters":8000,"station_id":"","pricing_plan_id":"cebpf4jnsgd1na2vs0mg"},{"bike_id":"e4ccce50-4824-4895-aa8c-033835526f23","system_id":"levelo_inurba_marseille","lat":43.31871,"lon":5.39992,"is_reserved":false,"is_disabled":false,"rental_uris":{"android":"levelo://app?vid=e4ccce50-4824-4895-aa8c-033835526f23","ios":"levelo://app?vid=e4ccce50-4824-4895-aa8c-033835526f23"},"vehicle_type_id":"4","last_reported":1761602924,"current_range_meters":8000,"station_id":"","pricing_plan_id":"cebpf4jnsgd1na2vs0mg"},{"bike_id":"de5cece4-6186-4ccb-b70e-a25e8bd3fc86","system_id":"levelo_inurba_marseille","lat":43.337444,"lon":5.374475,"is_reserved":false,"is_disabled":false,"rental_uris":{"android":"levelo://app?vid=de5cece4-6186-4ccb-b70e-a25e8bd3fc86","ios":"levelo://app?vid=de5cece4-6186-4ccb-b70e-a25e8bd3fc86"},"vehicle_type_id":"4","last_reported":1761602924,"current_range_meters":8000,"station_id":"","pricing_plan_id":"cebpf4jnsgd1na2vs0mg"},{"bike_id":"8847af5d-c1ad-4d8d-a5c1-273c3b41c105","system_id":"levelo_inurba_marseille","lat":43.322429,"lon":5.419635,"is_reserved":false,"is_disabled":false,"rental_uris":{"android":"levelo://app?vid=8847af5d-c1ad-4d8d-a5c1-273c3b41c105","ios":"levelo://app?vid=8847af5d-c1ad-4d8d-a5c1-273c3b41c105"},"vehicle_type_id":"4","last_reported":1761602924,"current_range_meters":8400,"station_id":"","pricing_plan_id":"cebpf4jnsgd1na2vs0mg"},{"bike_id":"43f8314d-420a-4429-be4f-edcff9f0b1cb","system_id":"levelo_inurba_marseille","lat":43.26059,"lon":5.39398,"is_reserved":false,"is_disabled":false,"rental_uris":{"android":"levelo://app?vid=43f8314d-420a-4429-be4f-edcff9f0b1cb","ios":"levelo://app?vid=43f8314d-420a-4429-be4f-edcff9f0b1cb"},"vehicle_type_id":"4","last_reported":1761602924,"current_range_meters":8800,"station_id":"ce4bhh92rcd13ifvqfj0","pricing_plan_id":"cebpf4jnsgd1na2vs0mg"},{"bike_id":"934c9f09-3f5e-42f2-a81e-1d96833db145","system_id":"levelo_inurba_marseille","lat":43.29203,"lon":5.40272,"is_reserved":false,"is_disabled":false,"rental_uris":{"android":"levelo://app?vid=934c9f09-3f5e-42f2-a81e-1d96833db145","ios":"levelo://app?vid=934c9f09-3f5e-42f2-a81e-1d96833db145"},"vehicle_type_id":"4","last_reported":1761602924,"current_range_meters":8800,"station_id":"","pricing_plan_id":"cebpf4jnsgd1na2vs0mg"},{"bike_id":"4f08e88b-0cde-493b-bef9-f5e86e069fae","system_id":"levelo_inurba_marseille","lat":43.28573,"lon":5.39488,"is_reserved":false,"is_disabled":false,"rental_uris":{"android":"levelo://app?vid=4f08e88b-0cde-493b-bef9-f5e86e069fae","ios":"levelo://app?vid=4f08e88b-0cde-493b-bef9-f5e86e069fae"},"vehicle_type_id":"4","last_reported":1761602924,"current_range_meters":8800,"station_id":"ce4bh292rcd13ifvqdg0","pricing_plan_id":"cebpf4jnsgd1na2vs0mg"},{"bike_id":"7348219f-62a2-4f61-9dc3-4c6ae6e126f0","system_id":"levelo_inurba_marseille","lat":43.33745,"lon":5.37439,"is_reserved":false,"is_disabled":false,"rental_uris":{"android":"levelo://app?vid=7348219f-62a2-4f61-9dc3-4c6ae6e126f0","ios":"levelo://app?vid=7348219f-62a2-4f61-9dc3-4c6ae6e126f0"},"vehicle_type_id":"4","last_reported":1761602924,"current_range_meters":9200,"station_id":"","pricing_plan_id":"cebpf4jnsgd1na2vs0mg"},{"bike_id":"1c14c75e-ac01-4bd4-a136-f18ead4fa87e","system_id":"levelo_inurba_marseille","lat":43.28696,"lon":5.37937,"is_reserved":false,"is_disabled":false,"rental_uris":{"android":"levelo://app?vid=1c14c75e-ac01-4bd4-a136-f18ead4fa87e","ios":"levelo://app?vid=1c14c75e-ac01-4bd4-a136-f18ead4fa87e"},"vehicle_type_id":"4","last_reported":1761602924,"current_range_meters":9200,"station_id":"","pricing_plan_id":"cebpf4jnsgd1na2vs0mg"},{"bike_id":"74ad1e51-e842-41b7-aab9-70c940e25f55","system_id":"levelo_inurba_marseille","lat":43.21769,"lon":5.34591,"is_reserved":false,"is_disabled":true,"rental_uris":{"android":"levelo://app?vid=74ad1e51-e842-41b7-aab9-70c940e25f55","ios":"levelo://app?vid=74ad1e51-e842-41b7-aab9-70c940e25f55"},"vehicle_type_id":"4","last_reported":1761602924,"current_range_meters":9200,"station_id":"st_cvj6r9ubvosntc0bgbag","pricing_plan_id":"cebpf4jnsgd1na2vs0mg"},{"bike_id":"fe6cae03-5184-4d3f-9fff-2bd3dfa83fd4","system_id":"levelo_inurba_marseille","lat":43.27671,"lon":5.38895,"is_reserved":false,"is_disabled":false,"rental_uris":{"android":"levelo://app?vid=fe6cae03-5184-4d3f-9fff-2bd3dfa83fd4","ios":"levelo://app?vid=fe6cae03-5184-4d3f-9fff-2bd3dfa83fd4"},"vehicle_type_id":"4","last_reported":1761602924,"current_range_meters":9200,"station_id":"ce4bhi12rcd13ifvqfo0","pricing_plan_id":"cebpf4jnsgd1na2vs0mg"},{"bike_id":"520a923d-8393-46c2-9fe4-754780c4305a","system_id":"levelo_inurba_marseille","lat":43.29491,"lon":5.433,"is_reserved":false,"is_disabled":false,"rental_uris":{"android":"levelo://app?vid=520a923d-8393-46c2-9fe4-754780c4305a","ios":"levelo://app?vid=520a923d-8393-46c2-9fe4-754780c4305a"},"vehicle_type_id":"4","last_reported":1761602924,"current_range_meters":9600,"station_id":"st_d3j5ugp08ojc73fj9d10","pricing_plan_id":"cebpf4jnsgd1na2vs0mg"},{"bike_id":"b0642245-21dd-4d49-a21b-ade8e729560b","system_id":"levelo_inurba_marseille","lat":43.30642,"lon":5.40092,"is_reserved":false,"is_disabled":false,"rental_uris":{"android":"levelo://app?vid=b0642245-21dd-4d49-a21b-ade8e729560b","ios":"levelo://app?vid=b0642245-21dd-4d49-a21b-ade8e729560b"},"vehicle_type_id":"4","last_reported":1761602924,"current_range_meters":10000,"station_id":"ce4bh112rcd13ifvqda0","pricing_plan_id":"cebpf4jnsgd1na2vs0mg"},{"bike_id":"9e766c0e-118a-4b7d-8f04-112f1f817cd3","system_id":"levelo_inurba_marseille","lat":43.28985,"lon":5.37844,"is_reserved":false,"is_disabled":true,"rental_uris":{"android":"levelo://app?vid=9e766c0e-118a-4b7d-8f04-112f1f817cd3","ios":"levelo://app?vid=9e766c0e-118a-4b7d-8f04-112f1f817cd3"},"vehicle_type_id":"4","last_reported":1761602924,"current_range_meters":10000,"station_id":"ce4bh9p2rcd13ifvqed0","pricing_plan_id":"cebpf4jnsgd1na2vs0mg"},{"bike_id":"48a67b6e-42df-4dc4-a195-c1d4bf60803c","system_id":"levelo_inurba_marseille","lat":43.29683,"lon":5.37308,"is_reserved":false,"is_disabled":false,"rental_uris":{"android":"levelo://app?vid=48a67b6e-42df-4dc4-a195-c1d4bf60803c","ios":"levelo://app?vid=48a67b6e-42df-4dc4-a195-c1d4bf60803c"},"vehicle_type_id":"4","last_reported":1761602924,"current_range_meters":10000,"station_id":"ce4bgk12rcd13ifvqbj0","pricing_plan_id":"cebpf4jnsgd1na2vs0mg"},{"bike_id":"c896b697-d7c3-47ea-81cb-50811f76c96f","system_id":"levelo_inurba_marseille","lat":43.25083,"lon":5.39524,"is_reserved":false,"is_disabled":false,"rental_uris":{"android":"levelo://app?vid=c896b697-d7c3-47ea-81cb-50811f76c96f","ios":"levelo://app?vid=c896b697-d7c3-47ea-81cb-50811f76c96f"},"vehicle_type_id":"4","last_reported":1761602924,"current_range_meters":10800,"station_id":"ce4bhm12rcd13ifvqgkg","pricing_plan_id":"cebpf4jnsgd1na2vs0mg"},{"bike_id":"a5e97cf5-21a8-40b7-8e91-21aa332d6351","system_id":"levelo_inurba_marseille","lat":43.30126,"lon":5.43104,"is_reserved":false,"is_disabled":false,"rental_uris":{"android":"levelo://app?vid=a5e97cf5-21a8-40b7-8e91-21aa332d6351","ios":"levelo://app?vid=a5e97cf5-21a8-40b7-8e91-21aa332d6351"},"vehicle_type_id":"4","last_reported":1761602924,"current_range_meters":10800,"station_id":"st_d3js3co5814s73ftftug","pricing_plan_id":"cebpf4jnsgd1na2vs0mg"},{"bike_id":"8a4ab39d-93e0-412c-bb90-9a783af9b3e2","system_id":"levelo_inurba_marseille","lat":43.286663,"lon":5.363441,"is_reserved":false,"is_disabled":false,"rental_uris":{"android":"levelo://app?vid=8a4ab39d-93e0-412c-bb90-9a783af9b3e2","ios":"levelo://app?vid=8a4ab39d-93e0-412c-bb90-9a783af9b3e2"},"vehicle_type_id":"4","last_reported":1761602924,"current_range_meters":10800,"station_id":"ce4bhah2rcd13ifvqej0","pricing_plan_id":"cebpf4jnsgd1na2vs0mg"},{"bike_id":"b83891d3-7971-45ae-9af3-651a6e6209e2","system_id":"levelo_inurba_marseille","lat":43.2319,"lon":5.35564,"is_reserved":false,"is_disabled":true,"rental_uris":{"android":"levelo://app?vid=b83891d3-7971-45ae-9af3-651a6e6209e2","ios":"levelo://app?vid=b83891d3-7971-45ae-9af3-651a6e6209e2"},"vehicle_type_id":"4","last_reported":1761602924,"current_range_meters":11200,"station_id":"ce4bhu92rcd13ifvqi70","pricing_plan_id":"cebpf4jnsgd1na2vs0mg"},{"bike_id":"3eec1dc0-8652-41f6-b33e-6cdb07f1c2c8","system_id":"levelo_inurba_marseille","lat":43.23199,"lon":5.3996,"is_reserved":false,"is_disabled":false,"rental_uris":{"android":"levelo://app?vid=3eec1dc0-8652-41f6-b33e-6cdb07f1c2c8","ios":"levelo://app?vid=3eec1dc0-8652-41f6-b33e-6cdb07f1c2c8"},"vehicle_type_id":"4","last_reported":1761602924,"current_range_meters":11200,"station_id":"ce4bhn12rcd13ifvqgqg","pricing_plan_id":"cebpf4jnsgd1na2vs0mg"},{"bike_id":"57060bea-0865-4fc6-a43c-99f0e3c5c11a","system_id":"levelo_inurba_marseille","lat":43.286102,"lon":5.35107,"is_reserved":false,"is_disabled":false,"rental_uris":{"android":"levelo://app?vid=57060bea-0865-4fc6-a43c-99f0e3c5c11a","ios":"levelo://app?vid=57060bea-0865-4fc6-a43c-99f0e3c5c11a"},"vehicle_type_id":"4","last_reported":1761602924,"current_range_meters":11200,"station_id":"","pricing_plan_id":"cebpf4jnsgd1na2vs0mg"},{"bike_id":"3abfb477-e317-490a-a407-164ef4d69634","system_id":"levelo_inurba_marseille","lat":43.28418,"lon":5.37486,"is_reserved":false,"is_disabled":false,"rental_uris":{"android":"levelo://app?vid=3abfb477-e317-490a-a407-164ef4d69634","ios":"levelo://app?vid=3abfb477-e317-490a-a407-164ef4d69634"},"vehicle_type_id":"4","last_reported":1761602924,"current_range_meters":11200,"station_id":"ce4bh412rcd13ifvqds0","pricing_plan_id":"cebpf4jnsgd1na2vs0mg"},{"bike_id":"f5adc0f6-8f78-420c-a3cc-2381696afa4a","system_id":"levelo_inurba_marseille","lat":43.28871,"lon":5.42513,"is_reserved":false,"is_disabled":false,"rental_uris":{"android":"levelo://app?vid=f5adc0f6-8f78-420c-a3cc-2381696afa4a","ios":"levelo://app?vid=f5adc0f6-8f78-420c-a3cc-2381696afa4a"},"vehicle_type_id":"4","last_reported":1761602924,"current_range_meters":11200,"station_id":"st_d3b462108ojc7389ooeg","pricing_plan_id":"cebpf4jnsgd1na2vs0mg"},{"bike_id":"edebc45a-f37a-4f41-9bcf-22cdf49bebd5","system_id":"levelo_inurba_marseille","lat":43.24805,"lon":5.37469,"is_reserved":false,"is_disabled":false,"rental_uris":{"android":"levelo://app?vid=edebc45a-f37a-4f41-9bcf-22cdf49bebd5","ios":"levelo://app?vid=edebc45a-f37a-4f41-9bcf-22cdf49bebd5"},"vehicle_type_id":"4","last_reported":1761602924,"current_range_meters":11200,"station_id":"ce4bhgh2rcd13ifvqfb0","pricing_plan_id":"cebpf4jnsgd1na2vs0mg"},{"bike_id":"d27eecaf-5e06-4d97-91c0-1e45a44bf2cb","system_id":"levelo_inurba_marseille","lat":43.28336,"lon":5.43364,"is_reserved":false,"is_disabled":false,"rental_uris":{"android":"levelo://app?vid=d27eecaf-5e06-4d97-91c0-1e45a44bf2cb","ios":"levelo://app?vid=d27eecaf-5e06-4d97-91c0-1e45a44bf2cb"},"vehicle_type_id":"4","last_reported":1761602924,"current_range_meters":11200,"station_id":"","pricing_plan_id":"cebpf4jnsgd1na2vs0mg"},{"bike_id":"33536d63-32c5-4dda-b600-be1d3fbb9bcc","system_id":"levelo_inurba_marseille","lat":43.21188,"lon":5.35071,"is_reserved":false,"is_disabled":true,"rental_uris":{"android":"levelo://app?vid=33536d63-32c5-4dda-b600-be1d3fbb9bcc","ios":"levelo://app?vid=33536d63-32c5-4dda-b600-be1d3fbb9bcc"},"vehicle_type_id":"4","last_reported":1761602924,"current_range_meters":11600,"station_id":"","pricing_plan_id":"cebpf4jnsgd1na2vs0mg"},{"bike_id":"bbbf3dbb-fbe2-4b7e-bfad-c027ca4e1c25","system_id":"levelo_inurba_marseille","lat":43.28477,"lon":5.48393,"is_reserved":false,"is_disabled":false,"rental_uris":{"android":"levelo://app?vid=bbbf3dbb-fbe2-4b7e-bfad-c027ca4e1c25","ios":"levelo://app?vid=bbbf3dbb-fbe2-4b7e-bfad-c027ca4e1c25"},"vehicle_type_id":"4","last_reported":1761602924,"current_range_meters":11600,"station_id":"st_d3svhcjqgbts73a3dn0g","pricing_plan_id":"cebpf4jnsgd1na2vs0mg"},{"bike_id":"d0c081ad-3486-48c9-8966-70405df77a5b","system_id":"levelo_inurba_marseille","lat":43.22936,"lon":5.35361,"is_reserved":false,"is_disabled":false,"rental_uris":{"android":"levelo://app?vid=d0c081ad-3486-48c9-8966-70405df77a5b","ios":"levelo://app?vid=d0c081ad-3486-48c9-8966-70405df77a5b"},"vehicle_type_id":"4","last_reported":1761602924,"current_range_meters":12000,"station_id":"cpo3532slgdg3j2ikp40","pricing_plan_id":"cebpf4jnsgd1na2vs0mg"},{"bike_id":"2319520a-fc10-4ea5-a5ca-d3a4702f6c7b","system_id":"levelo_inurba_marseille","lat":43.29857,"lon":5.43631,"is_reserved":false,"is_disabled":true,"rental_uris":{"android":"levelo://app?vid=2319520a-fc10-4ea5-a5ca-d3a4702f6c7b","ios":"levelo://app?vid=2319520a-fc10-4ea5-a5ca-d3a4702f6c7b"},"vehicle_type_id":"4","last_reported":1761602924,"current_range_meters":12000,"station_id":"ce4bhpp2rcd13ifvqhfg","pricing_plan_id":"cebpf4jnsgd1na2vs0mg"},{"bike_id":"916e251f-d7d9-496c-9d68-80938fa8cd24","system_id":"levelo_inurba_marseille","lat":43.28689,"lon":5.38656,"is_reserved":false,"is_disabled":false,"rental_uris":{"android":"levelo://app?vid=916e251f-d7d9-496c-9d68-80938fa8cd24","ios":"levelo://app?vid=916e251f-d7d9-496c-9d68-80938fa8cd24"},"vehicle_type_id":"4","last_reported":1761602924,"current_range_meters":12000,"station_id":"ce4bh492rcd13ifvqdug","pricing_plan_id":"cebpf4jnsgd1na2vs0mg"},{"bike_id":"20f45349-3f98-403d-8636-0b1f40024741","system_id":"levelo_inurba_marseille","lat":43.27501,"lon":5.42453,"is_reserved":false,"is_disabled":false,"rental_uris":{"android":"levelo://app?vid=20f45349-3f98-403d-8636-0b1f40024741","ios":"levelo://app?vid=20f45349-3f98-403d-8636-0b1f40024741"},"vehicle_type_id":"4","last_reported":1761602924,"current_range_meters":12000,"station_id":"ce4bhn92rcd13ifvqgrg","pricing_plan_id":"cebpf4jnsgd1na2vs0mg"},{"bike_id":"2ffaf36b-78a2-4412-9181-612a14fd4464","system_id":"levelo_inurba_marseille","lat":43.26225,"lon":5.37444,"is_reserved":false,"is_disabled":false,"rental_uris":{"android":"levelo://app?vid=2ffaf36b-78a2-4412-9181-612a14fd4464","ios":"levelo://app?vid=2ffaf36b-78a2-4412-9181-612a14fd4464"},"vehicle_type_id":"4","last_reported":1761602924,"current_range_meters":12000,"station_id":"ce4bhgp2rcd13ifvqfc0","pricing_plan_id":"cebpf4jnsgd1na2vs0mg"},{"bike_id":"6b27b53b-ade4-4e59-9555-b40b30fb2fb2","system_id":"levelo_inurba_marseille","lat":43.25332,"lon":5.42165,"is_reserved":false,"is_disabled":false,"rental_uris":{"android":"levelo://app?vid=6b27b53b-ade4-4e59-9555-b40b30fb2fb2","ios":"levelo://app?vid=6b27b53b-ade4-4e59-9555-b40b30fb2fb2"},"vehicle_type_id":"4","last_reported":1761602924,"current_range_meters":12000,"station_id":"st_d2m65c5bi1j21697t3ng","pricing_plan_id":"cebpf4jnsgd1na2vs0mg"},{"bike_id":"cb7f068c-39ce-4be0-b9b9-05a5ac0d4c21","system_id":"levelo_inurba_marseille","lat":43.2462,"lon":5.43147,"is_reserved":false,"is_disabled":false,"rental_uris":{"android":"levelo://app?vid=cb7f068c-39ce-4be0-b9b9-05a5ac0d4c21","ios":"levelo://app?vid=cb7f068c-39ce-4be0-b9b9-05a5ac0d4c21"},"vehicle_type_id":"4","last_reported":1761602924,"current_range_meters":12000,"station_id":"st_d2m6c4gdas8pm72e190g","pricing_plan_id":"cebpf4jnsgd1na2vs0mg"},{"bike_id":"9676870c-82b8-448a-acb6-868f0fb26c65","system_id":"levelo_inurba_marseille","lat":43.229741,"lon":5.354016,"is_reserved":false,"is_disabled":false,"rental_uris":{"android":"levelo://app?vid=9676870c-82b8-448a-acb6-868f0fb26c65","ios":"levelo://app?vid=9676870c-82b8-448a-acb6-868f0fb26c65"},"vehicle_type_id":"4","last_reported":1761602924,"current_range_meters":12400,"station_id":"cpo3532slgdg3j2ikp40","pricing_plan_id":"cebpf4jnsgd1na2vs0mg"},{"bike_id":"72692e77-b537-477c-ba7d-fdff69794bfb","system_id":"levelo_inurba_marseille","lat":43.25336,"lon":5.42161,"is_reserved":false,"is_disabled":false,"rental_uris":{"android":"levelo://app?vid=72692e77-b537-477c-ba7d-fdff69794bfb","ios":"levelo://app?vid=72692e77-b537-477c-ba7d-fdff69794bfb"},"vehicle_type_id":"4","last_reported":1761602924,"current_range_meters":12400,"station_id":"st_d2m65c5bi1j21697t3ng","pricing_plan_id":"cebpf4jnsgd1na2vs0mg"},{"bike_id":"8c71c05b-dd29-470b-8b05-4159f459865a","system_id":"levelo_inurba_marseille","lat":43.276648,"lon":5.388778,"is_reserved":false,"is_disabled":false,"rental_uris":{"android":"levelo://app?vid=8c71c05b-dd29-470b-8b05-4159f459865a","ios":"levelo://app?vid=8c71c05b-dd29-470b-8b05-4159f459865a"},"vehicle_type_id":"4","last_reported":1761602924,"current_range_meters":12400,"station_id":"ce4bhi12rcd13ifvqfo0","pricing_plan_id":"cebpf4jnsgd1na2vs0mg"},{"bike_id":"f3673a60-efd2-465f-aa18-cb0baaf105f7","system_id":"levelo_inurba_marseille","lat":43.30784,"lon":5.37961,"is_reserved":false,"is_disabled":false,"rental_uris":{"android":"levelo://app?vid=f3673a60-efd2-465f-aa18-cb0baaf105f7","ios":"levelo://app?vid=f3673a60-efd2-465f-aa18-cb0baaf105f7"},"vehicle_type_id":"4","last_reported":1761602924,"current_range_meters":12400,"station_id":"","pricing_plan_id":"cebpf4jnsgd1na2vs0mg"},{"bike_id":"64457180-0458-4262-8d27-1d5e4cba4c96","system_id":"levelo_inurba_marseille","lat":43.23183,"lon":5.39996,"is_reserved":false,"is_disabled":false,"rental_uris":{"android":"levelo://app?vid=64457180-0458-4262-8d27-1d5e4cba4c96","ios":"levelo://app?vid=64457180-0458-4262-8d27-1d5e4cba4c96"},"vehicle_type_id":"4","last_reported":1761602924,"current_range_meters":12400,"station_id":"ce4bhn12rcd13ifvqgqg","pricing_plan_id":"cebpf4jnsgd1na2vs0mg"},{"bike_id":"0d30d321-a5c1-4df9-bb01-58285c66b73b","system_id":"levelo_inurba_marseille","lat":43.29193,"lon":5.35804,"is_reserved":false,"is_disabled":true,"rental_uris":{"android":"levelo://app?vid=0d30d321-a5c1-4df9-bb01-58285c66b73b","ios":"levelo://app?vid=0d30d321-a5c1-4df9-bb01-58285c66b73b"},"vehicle_type_id":"4","last_reported":1761602924,"current_range_meters":12400,"station_id":"ce4bhb12rcd13ifvqel0","pricing_plan_id":"cebpf4jnsgd1na2vs0mg"},{"bike_id":"763dedad-f3f7-4198-bc42-a8f8d4bc1d9e","system_id":"levelo_inurba_marseille","lat":43.22931,"lon":5.35378,"is_reserved":false,"is_disabled":false,"rental_uris":{"android":"levelo://app?vid=763dedad-f3f7-4198-bc42-a8f8d4bc1d9e","ios":"levelo://app?vid=763dedad-f3f7-4198-bc42-a8f8d4bc1d9e"},"vehicle_type_id":"4","last_reported":1761602924,"current_range_meters":12400,"station_id":"cpo3532slgdg3j2ikp40","pricing_plan_id":"cebpf4jnsgd1na2vs0mg"},{"bike_id":"eea3c3c3-734f-4fd3-8061-ed84cfe47b38","system_id":"levelo_inurba_marseille","lat":43.3257,"lon":5.39127,"is_reserved":false,"is_disabled":false,"rental_uris":{"android":"levelo://app?vid=eea3c3c3-734f-4fd3-8061-ed84cfe47b38","ios":"levelo://app?vid=eea3c3c3-734f-4fd3-8061-ed84cfe47b38"},"vehicle_type_id":"4","last_reported":1761602924,"current_range_meters":12800,"station_id":"","pricing_plan_id":"cebpf4jnsgd1na2vs0mg"},{"bike_id":"26764af5-8b4a-4def-9430-e49986f6aa42","system_id":"levelo_inurba_marseille","lat":43.28233,"lon":5.39072,"is_reserved":false,"is_disabled":false,"rental_uris":{"android":"levelo://app?vid=26764af5-8b4a-4def-9430-e49986f6aa42","ios":"levelo://app?vid=26764af5-8b4a-4def-9430-e49986f6aa42"},"vehicle_type_id":"4","last_reported":1761602924,"current_range_meters":12800,"station_id":"ce4bhn92rcd13ifvqgsg","pricing_plan_id":"cebpf4jnsgd1na2vs0mg"},{"bike_id":"a3100ff0-76ab-498b-bebf-b9c52f3d2538","system_id":"levelo_inurba_marseille","lat":43.28578,"lon":5.48372,"is_reserved":false,"is_disabled":false,"rental_uris":{"android":"levelo://app?vid=a3100ff0-76ab-498b-bebf-b9c52f3d2538","ios":"levelo://app?vid=a3100ff0-76ab-498b-bebf-b9c52f3d2538"},"vehicle_type_id":"4","last_reported":1761602924,"current_range_meters":12800,"station_id":"","pricing_plan_id":"cebpf4jnsgd1na2vs0mg"},{"bike_id":"4c888f7a-a3cd-4aff-ab0b-fe318b78464b","system_id":"levelo_inurba_marseille","lat":43.21741,"lon":5.34611,"is_reserved":false,"is_disabled":false,"rental_uris":{"android":"levelo://app?vid=4c888f7a-a3cd-4aff-ab0b-fe318b78464b","ios":"levelo://app?vid=4c888f7a-a3cd-4aff-ab0b-fe318b78464b"},"vehicle_type_id":"4","last_reported":1761602924,"current_range_meters":12800,"station_id":"st_cvj6r9ubvosntc0bgbag","pricing_plan_id":"cebpf4jnsgd1na2vs0mg"},{"bike_id":"1880ebb9-7edb-463e-976b-226e958b9ebe","system_id":"levelo_inurba_marseille","lat":43.31097,"lon":5.37487,"is_reserved":false,"is_disabled":false,"rental_uris":{"android":"levelo://app?vid=1880ebb9-7edb-463e-976b-226e958b9ebe","ios":"levelo://app?vid=1880ebb9-7edb-463e-976b-226e958b9ebe"},"vehicle_type_id":"4","last_reported":1761602924,"current_range_meters":13600,"station_id":"ce4bgt12rcd13ifvqce0","pricing_plan_id":"cebpf4jnsgd1na2vs0mg"},{"bike_id":"a507e789-f440-40a8-85cf-09841d81676c","system_id":"levelo_inurba_marseille","lat":43.22518,"lon":5.34831,"is_reserved":false,"is_disabled":false,"rental_uris":{"android":"levelo://app?vid=a507e789-f440-40a8-85cf-09841d81676c","ios":"levelo://app?vid=a507e789-f440-40a8-85cf-09841d81676c"},"vehicle_type_id":"4","last_reported":1761602924,"current_range_meters":13600,"station_id":"st_cvj5dfep6f1abm77gieg","pricing_plan_id":"cebpf4jnsgd1na2vs0mg"},{"bike_id":"6702790c-1f90-41b6-a1bb-95e4a81982bb","system_id":"levelo_inurba_marseille","lat":43.29272,"lon":5.38444,"is_reserved":false,"is_disabled":false,"rental_uris":{"android":"levelo://app?vid=6702790c-1f90-41b6-a1bb-95e4a81982bb","ios":"levelo://app?vid=6702790c-1f90-41b6-a1bb-95e4a81982bb"},"vehicle_type_id":"4","last_reported":1761602924,"current_range_meters":13600,"station_id":"ce4bh692rcd13ifvqea0","pricing_plan_id":"cebpf4jnsgd1na2vs0mg"},{"bike_id":"d5abe95c-fd45-42a3-9908-abd96eb97080","system_id":"levelo_inurba_marseille","lat":43.29265,"lon":5.38441,"is_reserved":false,"is_disabled":false,"rental_uris":{"android":"levelo://app?vid=d5abe95c-fd45-42a3-9908-abd96eb97080","ios":"levelo://app?vid=d5abe95c-fd45-42a3-9908-abd96eb97080"},"vehicle_type_id":"4","last_reported":1761602924,"current_range_meters":13600,"station_id":"ce4bh692rcd13ifvqea0","pricing_plan_id":"cebpf4jnsgd1na2vs0mg"},{"bike_id":"efa00b60-23f6-4eab-b06a-d96e7ca9e8b5","system_id":"levelo_inurba_marseille","lat":43.24384,"lon":5.37048,"is_reserved":false,"is_disabled":false,"rental_uris":{"android":"levelo://app?vid=efa00b60-23f6-4eab-b06a-d96e7ca9e8b5","ios":"levelo://app?vid=efa00b60-23f6-4eab-b06a-d96e7ca9e8b5"},"vehicle_type_id":"4","last_reported":1761602924,"current_range_meters":13600,"station_id":"ce4bhhh2rcd13ifvqfk0","pricing_plan_id":"cebpf4jnsgd1na2vs0mg"},{"bike_id":"e1888075-56b0-40a9-887e-323cc387b5ab","system_id":"levelo_inurba_marseille","lat":43.28718,"lon":5.37932,"is_reserved":false,"is_disabled":false,"rental_uris":{"android":"levelo://app?vid=e1888075-56b0-40a9-887e-323cc387b5ab","ios":"levelo://app?vid=e1888075-56b0-40a9-887e-323cc387b5ab"},"vehicle_type_id":"4","last_reported":1761602924,"current_range_meters":13600,"station_id":"ce4bh9p2rcd13ifvqec0","pricing_plan_id":"cebpf4jnsgd1na2vs0mg"},{"bike_id":"cc916561-c946-4cd2-b6d4-518583371f64","system_id":"levelo_inurba_marseille","lat":43.28231,"lon":5.39068,"is_reserved":false,"is_disabled":false,"rental_uris":{"android":"levelo://app?vid=cc916561-c946-4cd2-b6d4-518583371f64","ios":"levelo://app?vid=cc916561-c946-4cd2-b6d4-518583371f64"},"vehicle_type_id":"4","last_reported":1761602924,"current_range_meters":14000,"station_id":"ce4bhn92rcd13ifvqgsg","pricing_plan_id":"cebpf4jnsgd1na2vs0mg"},{"bike_id":"ff806bd2-c7e9-493a-9703-ad992684e451","system_id":"levelo_inurba_marseille","lat":43.296263,"lon":5.377142,"is_reserved":false,"is_disabled":false,"rental_uris":{"android":"levelo://app?vid=ff806bd2-c7e9-493a-9703-ad992684e451","ios":"levelo://app?vid=ff806bd2-c7e9-493a-9703-ad992684e451"},"vehicle_type_id":"4","last_reported":1761602924,"current_range_meters":14000,"station_id":"","pricing_plan_id":"cebpf4jnsgd1na2vs0mg"},{"bike_id":"b01345a9-3177-4e79-9c99-6d05d38922cb","system_id":"levelo_inurba_marseille","lat":43.25087,"lon":5.39501,"is_reserved":false,"is_disabled":false,"rental_uris":{"android":"levelo://app?vid=b01345a9-3177-4e79-9c99-6d05d38922cb","ios":"levelo://app?vid=b01345a9-3177-4e79-9c99-6d05d38922cb"},"vehicle_type_id":"4","last_reported":1761602924,"current_range_meters":14000,"station_id":"ce4bhm12rcd13ifvqgkg","pricing_plan_id":"cebpf4jnsgd1na2vs0mg"},{"bike_id":"cfbc3b77-1837-4d4f-9287-e9604e0b37ab","system_id":"levelo_inurba_marseille","lat":43.2867,"lon":5.36348,"is_reserved":false,"is_disabled":false,"rental_uris":{"android":"levelo://app?vid=cfbc3b77-1837-4d4f-9287-e9604e0b37ab","ios":"levelo://app?vid=cfbc3b77-1837-4d4f-9287-e9604e0b37ab"},"vehicle_type_id":"4","last_reported":1761602924,"current_range_meters":14400,"station_id":"ce4bhah2rcd13ifvqej0","pricing_plan_id":"cebpf4jnsgd1na2vs0mg"},{"bike_id":"37a959fb-0a01-4caa-a022-0eba517172d9","system_id":"levelo_inurba_marseille","lat":43.326617,"lon":5.409986,"is_reserved":false,"is_disabled":false,"rental_uris":{"android":"levelo://app?vid=37a959fb-0a01-4caa-a022-0eba517172d9","ios":"levelo://app?vid=37a959fb-0a01-4caa-a022-0eba517172d9"},"vehicle_type_id":"4","last_reported":1761602924,"current_range_meters":14400,"station_id":"ce4bhpp2rcd13ifvqhgg","pricing_plan_id":"cebpf4jnsgd1na2vs0mg"},{"bike_id":"3795f589-df7b-4e8f-91ef-9b890819194b","system_id":"levelo_inurba_marseille","lat":43.29559,"lon":5.42283,"is_reserved":false,"is_disabled":false,"rental_uris":{"android":"levelo://app?vid=3795f589-df7b-4e8f-91ef-9b890819194b","ios":"levelo://app?vid=3795f589-df7b-4e8f-91ef-9b890819194b"},"vehicle_type_id":"4","last_reported":1761602924,"current_range_meters":14400,"station_id":"ce4bhph2rcd13ifvqhdg","pricing_plan_id":"cebpf4jnsgd1na2vs0mg"},{"bike_id":"0045d293-fc25-4f9a-9434-47036bd87e67","system_id":"levelo_inurba_marseille","lat":43.22915,"lon":5.35383,"is_reserved":false,"is_disabled":false,"rental_uris":{"android":"levelo://app?vid=0045d293-fc25-4f9a-9434-47036bd87e67","ios":"levelo://app?vid=0045d293-fc25-4f9a-9434-47036bd87e67"},"vehicle_type_id":"4","last_reported":1761602924,"current_range_meters":14400,"station_id":"cpo3532slgdg3j2ikp40","pricing_plan_id":"cebpf4jnsgd1na2vs0mg"},{"bike_id":"21dbf7f2-eb19-4663-b1c0-879822879492","system_id":"levelo_inurba_marseille","lat":43.337631,"lon":5.374577,"is_reserved":false,"is_disabled":false,"rental_uris":{"android":"levelo://app?vid=21dbf7f2-eb19-4663-b1c0-879822879492","ios":"levelo://app?vid=21dbf7f2-eb19-4663-b1c0-879822879492"},"vehicle_type_id":"4","last_reported":1761602924,"current_range_meters":14400,"station_id":"","pricing_plan_id":"cebpf4jnsgd1na2vs0mg"},{"bike_id":"dbcbcef0-4b5f-446e-9d2e-80d991993c2b","system_id":"levelo_inurba_marseille","lat":43.29526,"lon":5.40254,"is_reserved":false,"is_disabled":false,"rental_uris":{"android":"levelo://app?vid=dbcbcef0-4b5f-446e-9d2e-80d991993c2b","ios":"levelo://app?vid=dbcbcef0-4b5f-446e-9d2e-80d991993c2b"},"vehicle_type_id":"4","last_reported":1761602924,"current_range_meters":14800,"station_id":"","pricing_plan_id":"cebpf4jnsgd1na2vs0mg"},{"bike_id":"4bf9d265-8b82-4e6d-af96-57b56fdfaed3","system_id":"levelo_inurba_marseille","lat":43.29737,"lon":5.42779,"is_reserved":false,"is_disabled":false,"rental_uris":{"android":"levelo://app?vid=4bf9d265-8b82-4e6d-af96-57b56fdfaed3","ios":"levelo://app?vid=4bf9d265-8b82-4e6d-af96-57b56fdfaed3"},"vehicle_type_id":"4","last_reported":1761602924,"current_range_meters":15200,"station_id":"st_d3md5207bmas73dh9klg","pricing_plan_id":"cebpf4jnsgd1na2vs0mg"},{"bike_id":"181a8267-f2ec-4a14-93ec-90aee60a9a01","system_id":"levelo_inurba_marseille","lat":43.29498,"lon":5.43288,"is_reserved":false,"is_disabled":false,"rental_uris":{"android":"levelo://app?vid=181a8267-f2ec-4a14-93ec-90aee60a9a01","ios":"levelo://app?vid=181a8267-f2ec-4a14-93ec-90aee60a9a01"},"vehicle_type_id":"4","last_reported":1761602924,"current_range_meters":15200,"station_id":"st_d3j5ugp08ojc73fj9d10","pricing_plan_id":"cebpf4jnsgd1na2vs0mg"},{"bike_id":"18088c08-6235-47bd-9f7a-926c56c478c9","system_id":"levelo_inurba_marseille","lat":43.299106,"lon":5.381437,"is_reserved":false,"is_disabled":false,"rental_uris":{"android":"levelo://app?vid=18088c08-6235-47bd-9f7a-926c56c478c9","ios":"levelo://app?vid=18088c08-6235-47bd-9f7a-926c56c478c9"},"vehicle_type_id":"4","last_reported":1761602924,"current_range_meters":15200,"station_id":"ce4bgj12rcd13ifvqbc0","pricing_plan_id":"cebpf4jnsgd1na2vs0mg"},{"bike_id":"61582872-d791-4b1e-b140-850838a7e879","system_id":"levelo_inurba_marseille","lat":43.24189,"lon":5.3641,"is_reserved":false,"is_disabled":false,"rental_uris":{"android":"levelo://app?vid=61582872-d791-4b1e-b140-850838a7e879","ios":"levelo://app?vid=61582872-d791-4b1e-b140-850838a7e879"},"vehicle_type_id":"4","last_reported":1761602924,"current_range_meters":15200,"station_id":"cpo36qri1sfpv3e86is0","pricing_plan_id":"cebpf4jnsgd1na2vs0mg"},{"bike_id":"9fbd96ee-563a-43f7-87fd-6fffaeedac55","system_id":"levelo_inurba_marseille","lat":43.2586,"lon":5.39915,"is_reserved":false,"is_disabled":true,"rental_uris":{"android":"levelo://app?vid=9fbd96ee-563a-43f7-87fd-6fffaeedac55","ios":"levelo://app?vid=9fbd96ee-563a-43f7-87fd-6fffaeedac55"},"vehicle_type_id":"4","last_reported":1761602924,"current_range_meters":15200,"station_id":"ce4bhl92rcd13ifvqghg","pricing_plan_id":"cebpf4jnsgd1na2vs0mg"},{"bike_id":"507a6194-3500-47da-bba0-ad801aa7b875","system_id":"levelo_inurba_marseille","lat":43.24383,"lon":5.37042,"is_reserved":false,"is_disabled":false,"rental_uris":{"android":"levelo://app?vid=507a6194-3500-47da-bba0-ad801aa7b875","ios":"levelo://app?vid=507a6194-3500-47da-bba0-ad801aa7b875"},"vehicle_type_id":"4","last_reported":1761602924,"current_range_meters":15200,"station_id":"ce4bhhh2rcd13ifvqfk0","pricing_plan_id":"cebpf4jnsgd1na2vs0mg"},{"bike_id":"7b1b6fda-acbf-4bcc-9c4e-eb02a7bb672a","system_id":"levelo_inurba_marseille","lat":43.24173,"lon":5.36392,"is_reserved":false,"is_disabled":false,"rental_uris":{"android":"levelo://app?vid=7b1b6fda-acbf-4bcc-9c4e-eb02a7bb672a","ios":"levelo://app?vid=7b1b6fda-acbf-4bcc-9c4e-eb02a7bb672a"},"vehicle_type_id":"4","last_reported":1761602924,"current_range_meters":16000,"station_id":"cpo36qri1sfpv3e86is0","pricing_plan_id":"cebpf4jnsgd1na2vs0mg"},{"bike_id":"4a3facc0-0b3a-4a7d-86b8-3d2afde74843","system_id":"levelo_inurba_marseille","lat":43.29304,"lon":5.37472,"is_reserved":false,"is_disabled":false,"rental_uris":{"android":"levelo://app?vid=4a3facc0-0b3a-4a7d-86b8-3d2afde74843","ios":"levelo://app?vid=4a3facc0-0b3a-4a7d-86b8-3d2afde74843"},"vehicle_type_id":"4","last_reported":1761602924,"current_range_meters":16000,"station_id":"ce4bgi12rcd13ifvqb70","pricing_plan_id":"cebpf4jnsgd1na2vs0mg"},{"bike_id":"21781a70-201c-4092-a5e0-70fe14e2283d","system_id":"levelo_inurba_marseille","lat":43.28578,"lon":5.39493,"is_reserved":false,"is_disabled":false,"rental_uris":{"android":"levelo://app?vid=21781a70-201c-4092-a5e0-70fe14e2283d","ios":"levelo://app?vid=21781a70-201c-4092-a5e0-70fe14e2283d"},"vehicle_type_id":"4","last_reported":1761602924,"current_range_meters":16000,"station_id":"ce4bh292rcd13ifvqdg0","pricing_plan_id":"cebpf4jnsgd1na2vs0mg"},{"bike_id":"a7cb79b6-f063-412f-a2f8-8ac4c19f5c06","system_id":"levelo_inurba_marseille","lat":43.27075,"lon":5.42274,"is_reserved":false,"is_disabled":false,"rental_uris":{"android":"levelo://app?vid=a7cb79b6-f063-412f-a2f8-8ac4c19f5c06","ios":"levelo://app?vid=a7cb79b6-f063-412f-a2f8-8ac4c19f5c06"},"vehicle_type_id":"4","last_reported":1761602924,"current_range_meters":16000,"station_id":"ce4bhk92rcd13ifvqgb0","pricing_plan_id":"cebpf4jnsgd1na2vs0mg"},{"bike_id":"266488d3-4677-4b2c-b163-8d1ad61d8414","system_id":"levelo_inurba_marseille","lat":43.28479,"lon":5.38459,"is_reserved":false,"is_disabled":true,"rental_uris":{"android":"levelo://app?vid=266488d3-4677-4b2c-b163-8d1ad61d8414","ios":"levelo://app?vid=266488d3-4677-4b2c-b163-8d1ad61d8414"},"vehicle_type_id":"4","last_reported":1761602924,"current_range_meters":16000,"station_id":"ce4bh512rcd13ifvqe3g","pricing_plan_id":"cebpf4jnsgd1na2vs0mg"},{"bike_id":"d5ca831f-8041-403e-ada8-7b4196c3d5be","system_id":"levelo_inurba_marseille","lat":43.293714,"lon":5.379385,"is_reserved":false,"is_disabled":false,"rental_uris":{"android":"levelo://app?vid=d5ca831f-8041-403e-ada8-7b4196c3d5be","ios":"levelo://app?vid=d5ca831f-8041-403e-ada8-7b4196c3d5be"},"vehicle_type_id":"4","last_reported":1761602924,"current_range_meters":16000,"station_id":"","pricing_plan_id":"cebpf4jnsgd1na2vs0mg"},{"bike_id":"883bc9b4-cfb9-4127-8706-5d33bb052860","system_id":"levelo_inurba_marseille","lat":43.2479,"lon":5.37427,"is_reserved":false,"is_disabled":false,"rental_uris":{"android":"levelo://app?vid=883bc9b4-cfb9-4127-8706-5d33bb052860","ios":"levelo://app?vid=883bc9b4-cfb9-4127-8706-5d33bb052860"},"vehicle_type_id":"4","last_reported":1761602924,"current_range_meters":16400,"station_id":"ce4bhgh2rcd13ifvqfb0","pricing_plan_id":"cebpf4jnsgd1na2vs0mg"},{"bike_id":"d7b556e6-ac3d-4fe4-b136-c7cd05c756e3","system_id":"levelo_inurba_marseille","lat":43.23069,"lon":5.35489,"is_reserved":false,"is_disabled":false,"rental_uris":{"android":"levelo://app?vid=d7b556e6-ac3d-4fe4-b136-c7cd05c756e3","ios":"levelo://app?vid=d7b556e6-ac3d-4fe4-b136-c7cd05c756e3"},"vehicle_type_id":"4","last_reported":1761602924,"current_range_meters":16400,"station_id":"cpo3342slgdg3j2ifvpg","pricing_plan_id":"cebpf4jnsgd1na2vs0mg"},{"bike_id":"91da3e64-181c-4dc8-9432-5be84c9bed00","system_id":"levelo_inurba_marseille","lat":43.29904,"lon":5.38139,"is_reserved":false,"is_disabled":false,"rental_uris":{"android":"levelo://app?vid=91da3e64-181c-4dc8-9432-5be84c9bed00","ios":"levelo://app?vid=91da3e64-181c-4dc8-9432-5be84c9bed00"},"vehicle_type_id":"4","last_reported":1761602924,"current_range_meters":16400,"station_id":"ce4bgj12rcd13ifvqbc0","pricing_plan_id":"cebpf4jnsgd1na2vs0mg"},{"bike_id":"beed7228-71af-4a12-8caf-df545ecd7273","system_id":"levelo_inurba_marseille","lat":43.2909,"lon":5.40205,"is_reserved":false,"is_disabled":false,"rental_uris":{"android":"levelo://app?vid=beed7228-71af-4a12-8caf-df545ecd7273","ios":"levelo://app?vid=beed7228-71af-4a12-8caf-df545ecd7273"},"vehicle_type_id":"4","last_reported":1761602924,"current_range_meters":16400,"station_id":"","pricing_plan_id":"cebpf4jnsgd1na2vs0mg"},{"bike_id":"a630ed88-3f05-4926-bbab-8387ab6b6a28","system_id":"levelo_inurba_marseille","lat":43.23156,"lon":5.43692,"is_reserved":false,"is_disabled":true,"rental_uris":{"android":"levelo://app?vid=a630ed88-3f05-4926-bbab-8387ab6b6a28","ios":"levelo://app?vid=a630ed88-3f05-4926-bbab-8387ab6b6a28"},"vehicle_type_id":"4","last_reported":1761602924,"current_range_meters":16400,"station_id":"ce4bhmp2rcd13ifvqgog","pricing_plan_id":"cebpf4jnsgd1na2vs0mg"},{"bike_id":"9530c4ee-9396-49ae-be20-cf5fe62e6269","system_id":"levelo_inurba_marseille","lat":43.29309,"lon":5.37175,"is_reserved":false,"is_disabled":false,"rental_uris":{"android":"levelo://app?vid=9530c4ee-9396-49ae-be20-cf5fe62e6269","ios":"levelo://app?vid=9530c4ee-9396-49ae-be20-cf5fe62e6269"},"vehicle_type_id":"4","last_reported":1761602924,"current_range_meters":16400,"station_id":"ce4bgh92rcd13ifvqb40","pricing_plan_id":"cebpf4jnsgd1na2vs0mg"},{"bike_id":"8c1f3a6f-7344-45af-82d9-6a06cac2acee","system_id":"levelo_inurba_marseille","lat":43.283924,"lon":5.375139,"is_reserved":false,"is_disabled":false,"rental_uris":{"android":"levelo://app?vid=8c1f3a6f-7344-45af-82d9-6a06cac2acee","ios":"levelo://app?vid=8c1f3a6f-7344-45af-82d9-6a06cac2acee"},"vehicle_type_id":"4","last_reported":1761602924,"current_range_meters":16400,"station_id":"ce4bh412rcd13ifvqds0","pricing_plan_id":"cebpf4jnsgd1na2vs0mg"},{"bike_id":"74cd8338-a4b2-42fe-9981-9f2d2909db46","system_id":"levelo_inurba_marseille","lat":43.29531,"lon":5.39053,"is_reserved":false,"is_disabled":false,"rental_uris":{"android":"levelo://app?vid=74cd8338-a4b2-42fe-9981-9f2d2909db46","ios":"levelo://app?vid=74cd8338-a4b2-42fe-9981-9f2d2909db46"},"vehicle_type_id":"4","last_reported":1761602924,"current_range_meters":16800,"station_id":"ce4bh3p2rcd13ifvqdp0","pricing_plan_id":"cebpf4jnsgd1na2vs0mg"},{"bike_id":"4d166009-4ea7-4ae0-b0d1-9b30d6cb8a98","system_id":"levelo_inurba_marseille","lat":43.31532,"lon":5.38033,"is_reserved":false,"is_disabled":false,"rental_uris":{"android":"levelo://app?vid=4d166009-4ea7-4ae0-b0d1-9b30d6cb8a98","ios":"levelo://app?vid=4d166009-4ea7-4ae0-b0d1-9b30d6cb8a98"},"vehicle_type_id":"4","last_reported":1761602924,"current_range_meters":16800,"station_id":"ce4bhsp2rcd13ifvqi50","pricing_plan_id":"cebpf4jnsgd1na2vs0mg"},{"bike_id":"db88a8a5-5637-4384-a6d7-41d8f099747a","system_id":"levelo_inurba_marseille","lat":43.312379,"lon":5.368484,"is_reserved":false,"is_disabled":false,"rental_uris":{"android":"levelo://app?vid=db88a8a5-5637-4384-a6d7-41d8f099747a","ios":"levelo://app?vid=db88a8a5-5637-4384-a6d7-41d8f099747a"},"vehicle_type_id":"4","last_reported":1761602924,"current_range_meters":16800,"station_id":"ce4bgr92rcd13ifvqc6g","pricing_plan_id":"cebpf4jnsgd1na2vs0mg"},{"bike_id":"58012e02-1dfc-4c26-8333-19cf7b33c295","system_id":"levelo_inurba_marseille","lat":43.27805,"lon":5.39582,"is_reserved":false,"is_disabled":false,"rental_uris":{"android":"levelo://app?vid=58012e02-1dfc-4c26-8333-19cf7b33c295","ios":"levelo://app?vid=58012e02-1dfc-4c26-8333-19cf7b33c295"},"vehicle_type_id":"4","last_reported":1761602924,"current_range_meters":16800,"station_id":"","pricing_plan_id":"cebpf4jnsgd1na2vs0mg"},{"bike_id":"f568391f-b71f-4807-9099-53eb6b0dc22d","system_id":"levelo_inurba_marseille","lat":43.29756,"lon":5.38145,"is_reserved":false,"is_disabled":false,"rental_uris":{"android":"levelo://app?vid=f568391f-b71f-4807-9099-53eb6b0dc22d","ios":"levelo://app?vid=f568391f-b71f-4807-9099-53eb6b0dc22d"},"vehicle_type_id":"4","last_reported":1761602924,"current_range_meters":16800,"station_id":"","pricing_plan_id":"cebpf4jnsgd1na2vs0mg"},{"bike_id":"e1ca1064-3ac1-495e-b8d2-df8047d11b2e","system_id":"levelo_inurba_marseille","lat":43.28488,"lon":5.48369,"is_reserved":false,"is_disabled":false,"rental_uris":{"android":"levelo://app?vid=e1ca1064-3ac1-495e-b8d2-df8047d11b2e","ios":"levelo://app?vid=e1ca1064-3ac1-495e-b8d2-df8047d11b2e"},"vehicle_type_id":"4","last_reported":1761602924,"current_range_meters":16800,"station_id":"st_d3svhcjqgbts73a3dn0g","pricing_plan_id":"cebpf4jnsgd1na2vs0mg"},{"bike_id":"310e927d-d5b8-4a6f-82be-2d623690659d","system_id":"levelo_inurba_marseille","lat":43.31283,"lon":5.37788,"is_reserved":false,"is_disabled":false,"rental_uris":{"android":"levelo://app?vid=310e927d-d5b8-4a6f-82be-2d623690659d","ios":"levelo://app?vid=310e927d-d5b8-4a6f-82be-2d623690659d"},"vehicle_type_id":"4","last_reported":1761602924,"current_range_meters":17200,"station_id":"","pricing_plan_id":"cebpf4jnsgd1na2vs0mg"},{"bike_id":"76eb9950-3392-4a50-b5f8-5b14490764a0","system_id":"levelo_inurba_marseille","lat":43.26945,"lon":5.38636,"is_reserved":false,"is_disabled":false,"rental_uris":{"android":"levelo://app?vid=76eb9950-3392-4a50-b5f8-5b14490764a0","ios":"levelo://app?vid=76eb9950-3392-4a50-b5f8-5b14490764a0"},"vehicle_type_id":"4","last_reported":1761602924,"current_range_meters":17200,"station_id":"ce4bhh92rcd13ifvqfh0","pricing_plan_id":"cebpf4jnsgd1na2vs0mg"},{"bike_id":"2494bb61-c5b2-4e8c-8a6f-16c2d1512e23","system_id":"levelo_inurba_marseille","lat":43.23179,"lon":5.39993,"is_reserved":false,"is_disabled":false,"rental_uris":{"android":"levelo://app?vid=2494bb61-c5b2-4e8c-8a6f-16c2d1512e23","ios":"levelo://app?vid=2494bb61-c5b2-4e8c-8a6f-16c2d1512e23"},"vehicle_type_id":"4","last_reported":1761602924,"current_range_meters":17200,"station_id":"ce4bhn12rcd13ifvqgqg","pricing_plan_id":"cebpf4jnsgd1na2vs0mg"},{"bike_id":"e00a5637-7ff1-4c27-b189-efba53dc7fa3","system_id":"levelo_inurba_marseille","lat":43.2509,"lon":5.39489,"is_reserved":false,"is_disabled":false,"rental_uris":{"android":"levelo://app?vid=e00a5637-7ff1-4c27-b189-efba53dc7fa3","ios":"levelo://app?vid=e00a5637-7ff1-4c27-b189-efba53dc7fa3"},"vehicle_type_id":"4","last_reported":1761602924,"current_range_meters":17200,"station_id":"ce4bhm12rcd13ifvqgkg","pricing_plan_id":"cebpf4jnsgd1na2vs0mg"},{"bike_id":"c37ff396-a3f3-48da-8562-48f95e54f6c2","system_id":"levelo_inurba_marseille","lat":43.28695,"lon":5.37406,"is_reserved":false,"is_disabled":true,"rental_uris":{"android":"levelo://app?vid=c37ff396-a3f3-48da-8562-48f95e54f6c2","ios":"levelo://app?vid=c37ff396-a3f3-48da-8562-48f95e54f6c2"},"vehicle_type_id":"4","last_reported":1761602924,"current_range_meters":17200,"station_id":"ce4bh3p2rcd13ifvqdq0","pricing_plan_id":"cebpf4jnsgd1na2vs0mg"},{"bike_id":"e8b00d39-8726-45ab-902a-db5ebf514149","system_id":"levelo_inurba_marseille","lat":43.24069,"lon":5.37756,"is_reserved":false,"is_disabled":false,"rental_uris":{"android":"levelo://app?vid=e8b00d39-8726-45ab-902a-db5ebf514149","ios":"levelo://app?vid=e8b00d39-8726-45ab-902a-db5ebf514149"},"vehicle_type_id":"4","last_reported":1761602924,"current_range_meters":17600,"station_id":"ce4bhnp2rcd13ifvqgvg","pricing_plan_id":"cebpf4jnsgd1na2vs0mg"},{"bike_id":"9199c4e4-9055-4bcd-ab08-08feb765f3b6","system_id":"levelo_inurba_marseille","lat":43.282416,"lon":5.379112,"is_reserved":false,"is_disabled":false,"rental_uris":{"android":"levelo://app?vid=9199c4e4-9055-4bcd-ab08-08feb765f3b6","ios":"levelo://app?vid=9199c4e4-9055-4bcd-ab08-08feb765f3b6"},"vehicle_type_id":"4","last_reported":1761602924,"current_range_meters":17600,"station_id":"ce4bha12rcd13ifvqee0","pricing_plan_id":"cebpf4jnsgd1na2vs0mg"},{"bike_id":"d5a49dbd-284f-44d1-bf21-988be425a5e5","system_id":"levelo_inurba_marseille","lat":43.25579,"lon":5.38234,"is_reserved":false,"is_disabled":true,"rental_uris":{"android":"levelo://app?vid=d5a49dbd-284f-44d1-bf21-988be425a5e5","ios":"levelo://app?vid=d5a49dbd-284f-44d1-bf21-988be425a5e5"},"vehicle_type_id":"4","last_reported":1761602924,"current_range_meters":17600,"station_id":"ce4bhih2rcd13ifvqfs0","pricing_plan_id":"cebpf4jnsgd1na2vs0mg"},{"bike_id":"dccef0b1-edb3-49b5-866c-43e10e5763cc","system_id":"levelo_inurba_marseille","lat":43.28815,"lon":5.43832,"is_reserved":false,"is_disabled":false,"rental_uris":{"android":"levelo://app?vid=dccef0b1-edb3-49b5-866c-43e10e5763cc","ios":"levelo://app?vid=dccef0b1-edb3-49b5-866c-43e10e5763cc"},"vehicle_type_id":"4","last_reported":1761602924,"current_range_meters":17600,"station_id":"","pricing_plan_id":"cebpf4jnsgd1na2vs0mg"},{"bike_id":"20d88311-8275-4763-9f67-36aa9e325545","system_id":"levelo_inurba_marseille","lat":43.29966,"lon":5.37112,"is_reserved":false,"is_disabled":false,"rental_uris":{"android":"levelo://app?vid=20d88311-8275-4763-9f67-36aa9e325545","ios":"levelo://app?vid=20d88311-8275-4763-9f67-36aa9e325545"},"vehicle_type_id":"4","last_reported":1761602924,"current_range_meters":17600,"station_id":"ce4bgr92rcd13ifvqc7g","pricing_plan_id":"cebpf4jnsgd1na2vs0mg"},{"bike_id":"8957da31-2549-4ab6-abc0-615293ac1acd","system_id":"levelo_inurba_marseille","lat":43.26563,"lon":5.39,"is_reserved":false,"is_disabled":true,"rental_uris":{"android":"levelo://app?vid=8957da31-2549-4ab6-abc0-615293ac1acd","ios":"levelo://app?vid=8957da31-2549-4ab6-abc0-615293ac1acd"},"vehicle_type_id":"4","last_reported":1761602924,"current_range_meters":17600,"station_id":"ce4bhe12rcd13ifvqf30","pricing_plan_id":"cebpf4jnsgd1na2vs0mg"},{"bike_id":"dced2bcc-e95f-44ce-b7d8-7bb47def612a","system_id":"levelo_inurba_marseille","lat":43.23062,"lon":5.35487,"is_reserved":false,"is_disabled":false,"rental_uris":{"android":"levelo://app?vid=dced2bcc-e95f-44ce-b7d8-7bb47def612a","ios":"levelo://app?vid=dced2bcc-e95f-44ce-b7d8-7bb47def612a"},"vehicle_type_id":"4","last_reported":1761602924,"current_range_meters":17600,"station_id":"cpo3342slgdg3j2ifvpg","pricing_plan_id":"cebpf4jnsgd1na2vs0mg"},{"bike_id":"0e92e58a-a68d-4440-a2a1-0e87cddba988","system_id":"levelo_inurba_marseille","lat":43.24669,"lon":5.38152,"is_reserved":false,"is_disabled":false,"rental_uris":{"android":"levelo://app?vid=0e92e58a-a68d-4440-a2a1-0e87cddba988","ios":"levelo://app?vid=0e92e58a-a68d-4440-a2a1-0e87cddba988"},"vehicle_type_id":"4","last_reported":1761602924,"current_range_meters":17600,"station_id":"ce4bhih2rcd13ifvqfr0","pricing_plan_id":"cebpf4jnsgd1na2vs0mg"},{"bike_id":"2f1672b1-3a1a-46c0-9536-6ee5f8fac4c8","system_id":"levelo_inurba_marseille","lat":43.311737,"lon":5.38721,"is_reserved":false,"is_disabled":false,"rental_uris":{"android":"levelo://app?vid=2f1672b1-3a1a-46c0-9536-6ee5f8fac4c8","ios":"levelo://app?vid=2f1672b1-3a1a-46c0-9536-6ee5f8fac4c8"},"vehicle_type_id":"4","last_reported":1761602924,"current_range_meters":17600,"station_id":"ce4bgv12rcd13ifvqcp0","pricing_plan_id":"cebpf4jnsgd1na2vs0mg"},{"bike_id":"03ea6d81-2e2c-4160-a0d2-a85cd36eeb7a","system_id":"levelo_inurba_marseille","lat":43.28863,"lon":5.42513,"is_reserved":false,"is_disabled":false,"rental_uris":{"android":"levelo://app?vid=03ea6d81-2e2c-4160-a0d2-a85cd36eeb7a","ios":"levelo://app?vid=03ea6d81-2e2c-4160-a0d2-a85cd36eeb7a"},"vehicle_type_id":"4","last_reported":1761602924,"current_range_meters":17600,"station_id":"st_d3b462108ojc7389ooeg","pricing_plan_id":"cebpf4jnsgd1na2vs0mg"},{"bike_id":"0cb31705-eb96-4557-ab4a-e877714da55c","system_id":"levelo_inurba_marseille","lat":43.31164,"lon":5.38705,"is_reserved":false,"is_disabled":false,"rental_uris":{"android":"levelo://app?vid=0cb31705-eb96-4557-ab4a-e877714da55c","ios":"levelo://app?vid=0cb31705-eb96-4557-ab4a-e877714da55c"},"vehicle_type_id":"4","last_reported":1761602924,"current_range_meters":17600,"station_id":"ce4bgv12rcd13ifvqcp0","pricing_plan_id":"cebpf4jnsgd1na2vs0mg"},{"bike_id":"2283896b-c941-41b3-a4e2-ac2bcf8551df","system_id":"levelo_inurba_marseille","lat":43.30625,"lon":5.40058,"is_reserved":false,"is_disabled":false,"rental_uris":{"android":"levelo://app?vid=2283896b-c941-41b3-a4e2-ac2bcf8551df","ios":"levelo://app?vid=2283896b-c941-41b3-a4e2-ac2bcf8551df"},"vehicle_type_id":"4","last_reported":1761602924,"current_range_meters":18000,"station_id":"ce4bh112rcd13ifvqda0","pricing_plan_id":"cebpf4jnsgd1na2vs0mg"},{"bike_id":"681d38b5-a75b-4764-af13-b68c82b21e57","system_id":"levelo_inurba_marseille","lat":43.27918,"lon":5.3957,"is_reserved":false,"is_disabled":false,"rental_uris":{"android":"levelo://app?vid=681d38b5-a75b-4764-af13-b68c82b21e57","ios":"levelo://app?vid=681d38b5-a75b-4764-af13-b68c82b21e57"},"vehicle_type_id":"4","last_reported":1761602924,"current_range_meters":18000,"station_id":"ce4bhf92rcd13ifvqf40","pricing_plan_id":"cebpf4jnsgd1na2vs0mg"},{"bike_id":"316ded5d-28c9-4663-be5c-04dc90d5b34c","system_id":"levelo_inurba_marseille","lat":43.28419,"lon":5.38817,"is_reserved":false,"is_disabled":false,"rental_uris":{"android":"levelo://app?vid=316ded5d-28c9-4663-be5c-04dc90d5b34c","ios":"levelo://app?vid=316ded5d-28c9-4663-be5c-04dc90d5b34c"},"vehicle_type_id":"4","last_reported":1761602924,"current_range_meters":18000,"station_id":"","pricing_plan_id":"cebpf4jnsgd1na2vs0mg"},{"bike_id":"f4ae8a8d-d71a-4e48-9339-66550bde7b84","system_id":"levelo_inurba_marseille","lat":43.296782,"lon":5.378637,"is_reserved":false,"is_disabled":false,"rental_uris":{"android":"levelo://app?vid=f4ae8a8d-d71a-4e48-9339-66550bde7b84","ios":"levelo://app?vid=f4ae8a8d-d71a-4e48-9339-66550bde7b84"},"vehicle_type_id":"4","last_reported":1761602924,"current_range_meters":18000,"station_id":"","pricing_plan_id":"cebpf4jnsgd1na2vs0mg"},{"bike_id":"2be3bf9b-39f4-4c37-8c01-9e9bcabe1c53","system_id":"levelo_inurba_marseille","lat":43.33741,"lon":5.37444,"is_reserved":false,"is_disabled":false,"rental_uris":{"android":"levelo://app?vid=2be3bf9b-39f4-4c37-8c01-9e9bcabe1c53","ios":"levelo://app?vid=2be3bf9b-39f4-4c37-8c01-9e9bcabe1c53"},"vehicle_type_id":"4","last_reported":1761602924,"current_range_meters":18000,"station_id":"","pricing_plan_id":"cebpf4jnsgd1na2vs0mg"},{"bike_id":"2eb71a92-bc1d-465c-b19a-1d2d11b65026","system_id":"levelo_inurba_marseille","lat":43.31226,"lon":5.36856,"is_reserved":false,"is_disabled":false,"rental_uris":{"android":"levelo://app?vid=2eb71a92-bc1d-465c-b19a-1d2d11b65026","ios":"levelo://app?vid=2eb71a92-bc1d-465c-b19a-1d2d11b65026"},"vehicle_type_id":"4","last_reported":1761602924,"current_range_meters":18000,"station_id":"ce4bgl92rcd13ifvqbq0","pricing_plan_id":"cebpf4jnsgd1na2vs0mg"},{"bike_id":"49ed0d39-51fe-4cd4-8527-50556baa8749","system_id":"levelo_inurba_marseille","lat":43.22529,"lon":5.34831,"is_reserved":false,"is_disabled":false,"rental_uris":{"android":"levelo://app?vid=49ed0d39-51fe-4cd4-8527-50556baa8749","ios":"levelo://app?vid=49ed0d39-51fe-4cd4-8527-50556baa8749"},"vehicle_type_id":"4","last_reported":1761602924,"current_range_meters":18000,"station_id":"","pricing_plan_id":"cebpf4jnsgd1na2vs0mg"},{"bike_id":"0f9c37b7-53c0-4d99-961c-bcf34d79a7ca","system_id":"levelo_inurba_marseille","lat":43.30885,"lon":5.39651,"is_reserved":false,"is_disabled":false,"rental_uris":{"android":"levelo://app?vid=0f9c37b7-53c0-4d99-961c-bcf34d79a7ca","ios":"levelo://app?vid=0f9c37b7-53c0-4d99-961c-bcf34d79a7ca"},"vehicle_type_id":"4","last_reported":1761602924,"current_range_meters":18000,"station_id":"ce4bh012rcd13ifvqcv0","pricing_plan_id":"cebpf4jnsgd1na2vs0mg"},{"bike_id":"3547a514-e027-417e-ba5a-4f0a24021838","system_id":"levelo_inurba_marseille","lat":43.28865,"lon":5.42516,"is_reserved":false,"is_disabled":false,"rental_uris":{"android":"levelo://app?vid=3547a514-e027-417e-ba5a-4f0a24021838","ios":"levelo://app?vid=3547a514-e027-417e-ba5a-4f0a24021838"},"vehicle_type_id":"4","last_reported":1761602924,"current_range_meters":18000,"station_id":"st_d3b462108ojc7389ooeg","pricing_plan_id":"cebpf4jnsgd1na2vs0mg"},{"bike_id":"87a515db-426d-4f18-b2c3-ba5fadd6c431","system_id":"levelo_inurba_marseille","lat":43.30918,"lon":5.40141,"is_reserved":false,"is_disabled":false,"rental_uris":{"android":"levelo://app?vid=87a515db-426d-4f18-b2c3-ba5fadd6c431","ios":"levelo://app?vid=87a515db-426d-4f18-b2c3-ba5fadd6c431"},"vehicle_type_id":"4","last_reported":1761602924,"current_range_meters":18000,"station_id":"ce4bgvp2rcd13ifvqct0","pricing_plan_id":"cebpf4jnsgd1na2vs0mg"},{"bike_id":"ae8ebe94-fc0f-4409-8f77-39eb5c613a67","system_id":"levelo_inurba_marseille","lat":43.337444,"lon":5.374475,"is_reserved":false,"is_disabled":false,"rental_uris":{"android":"levelo://app?vid=ae8ebe94-fc0f-4409-8f77-39eb5c613a67","ios":"levelo://app?vid=ae8ebe94-fc0f-4409-8f77-39eb5c613a67"},"vehicle_type_id":"4","last_reported":1761602924,"current_range_meters":18800,"station_id":"","pricing_plan_id":"cebpf4jnsgd1na2vs0mg"},{"bike_id":"2b8d2fc2-98f4-494a-9dd7-23d53ea58801","system_id":"levelo_inurba_marseille","lat":43.30887,"lon":5.37196,"is_reserved":false,"is_disabled":false,"rental_uris":{"android":"levelo://app?vid=2b8d2fc2-98f4-494a-9dd7-23d53ea58801","ios":"levelo://app?vid=2b8d2fc2-98f4-494a-9dd7-23d53ea58801"},"vehicle_type_id":"4","last_reported":1761602924,"current_range_meters":18800,"station_id":"ce4bguh2rcd13ifvqckg","pricing_plan_id":"cebpf4jnsgd1na2vs0mg"},{"bike_id":"5ce9bf87-766f-4e87-8278-f1edb00a1ed1","system_id":"levelo_inurba_marseille","lat":43.28075,"lon":5.39648,"is_reserved":false,"is_disabled":false,"rental_uris":{"android":"levelo://app?vid=5ce9bf87-766f-4e87-8278-f1edb00a1ed1","ios":"levelo://app?vid=5ce9bf87-766f-4e87-8278-f1edb00a1ed1"},"vehicle_type_id":"4","last_reported":1761602924,"current_range_meters":18800,"station_id":"ce4bho12rcd13ifvqh2g","pricing_plan_id":"cebpf4jnsgd1na2vs0mg"},{"bike_id":"a72ba818-7371-4726-9234-a81be08b4f21","system_id":"levelo_inurba_marseille","lat":43.29122,"lon":5.38124,"is_reserved":false,"is_disabled":true,"rental_uris":{"android":"levelo://app?vid=a72ba818-7371-4726-9234-a81be08b4f21","ios":"levelo://app?vid=a72ba818-7371-4726-9234-a81be08b4f21"},"vehicle_type_id":"4","last_reported":1761602924,"current_range_meters":18800,"station_id":"ce4bh512rcd13ifvqe2g","pricing_plan_id":"cebpf4jnsgd1na2vs0mg"},{"bike_id":"3b0678cb-7fae-44f4-a635-05630a40fbea","system_id":"levelo_inurba_marseille","lat":43.29255,"lon":5.38441,"is_reserved":false,"is_disabled":false,"rental_uris":{"android":"levelo://app?vid=3b0678cb-7fae-44f4-a635-05630a40fbea","ios":"levelo://app?vid=3b0678cb-7fae-44f4-a635-05630a40fbea"},"vehicle_type_id":"4","last_reported":1761602924,"current_range_meters":18800,"station_id":"ce4bh692rcd13ifvqea0","pricing_plan_id":"cebpf4jnsgd1na2vs0mg"},{"bike_id":"87878ea2-b2bc-4e11-a8d9-1e17965dfb23","system_id":"levelo_inurba_marseille","lat":43.30949,"lon":5.4012,"is_reserved":false,"is_disabled":false,"rental_uris":{"android":"levelo://app?vid=87878ea2-b2bc-4e11-a8d9-1e17965dfb23","ios":"levelo://app?vid=87878ea2-b2bc-4e11-a8d9-1e17965dfb23"},"vehicle_type_id":"4","last_reported":1761602924,"current_range_meters":18800,"station_id":"ce4bgvp2rcd13ifvqct0","pricing_plan_id":"cebpf4jnsgd1na2vs0mg"},{"bike_id":"32d7653e-b033-4183-b4c0-f44169bb9067","system_id":"levelo_inurba_marseille","lat":43.32706,"lon":5.39205,"is_reserved":false,"is_disabled":false,"rental_uris":{"android":"levelo://app?vid=32d7653e-b033-4183-b4c0-f44169bb9067","ios":"levelo://app?vid=32d7653e-b033-4183-b4c0-f44169bb9067"},"vehicle_type_id":"4","last_reported":1761602924,"current_range_meters":18800,"station_id":"","pricing_plan_id":"cebpf4jnsgd1na2vs0mg"},{"bike_id":"b258983d-aa34-400e-8634-2ec933e040a3","system_id":"levelo_inurba_marseille","lat":43.29884,"lon":5.389,"is_reserved":false,"is_disabled":false,"rental_uris":{"android":"levelo://app?vid=b258983d-aa34-400e-8634-2ec933e040a3","ios":"levelo://app?vid=b258983d-aa34-400e-8634-2ec933e040a3"},"vehicle_type_id":"4","last_reported":1761602924,"current_range_meters":18800,"station_id":"ce4bh392rcd13ifvqdl0","pricing_plan_id":"cebpf4jnsgd1na2vs0mg"},{"bike_id":"7b0deda0-50a7-4549-b2d7-08023f45e3cd","system_id":"levelo_inurba_marseille","lat":43.27949,"lon":5.410387,"is_reserved":false,"is_disabled":false,"rental_uris":{"android":"levelo://app?vid=7b0deda0-50a7-4549-b2d7-08023f45e3cd","ios":"levelo://app?vid=7b0deda0-50a7-4549-b2d7-08023f45e3cd"},"vehicle_type_id":"4","last_reported":1761602924,"current_range_meters":18800,"station_id":"ce4bhnp2rcd13ifvqh0g","pricing_plan_id":"cebpf4jnsgd1na2vs0mg"},{"bike_id":"9651d6cb-66cd-409c-87d6-53416558e6e2","system_id":"levelo_inurba_marseille","lat":43.30331,"lon":5.40437,"is_reserved":false,"is_disabled":false,"rental_uris":{"android":"levelo://app?vid=9651d6cb-66cd-409c-87d6-53416558e6e2","ios":"levelo://app?vid=9651d6cb-66cd-409c-87d6-53416558e6e2"},"vehicle_type_id":"4","last_reported":1761602924,"current_range_meters":19200,"station_id":"ce4bh012rcd13ifvqd10","pricing_plan_id":"cebpf4jnsgd1na2vs0mg"},{"bike_id":"85377363-cbd4-45ea-ab32-d8f5e1c2d1e3","system_id":"levelo_inurba_marseille","lat":43.24805,"lon":5.37448,"is_reserved":false,"is_disabled":true,"rental_uris":{"android":"levelo://app?vid=85377363-cbd4-45ea-ab32-d8f5e1c2d1e3","ios":"levelo://app?vid=85377363-cbd4-45ea-ab32-d8f5e1c2d1e3"},"vehicle_type_id":"4","last_reported":1761602924,"current_range_meters":19200,"station_id":"ce4bhgh2rcd13ifvqfb0","pricing_plan_id":"cebpf4jnsgd1na2vs0mg"},{"bike_id":"7ef1c635-05bd-452a-889d-91b6aef98c6f","system_id":"levelo_inurba_marseille","lat":43.28939,"lon":5.3636,"is_reserved":false,"is_disabled":false,"rental_uris":{"android":"levelo://app?vid=7ef1c635-05bd-452a-889d-91b6aef98c6f","ios":"levelo://app?vid=7ef1c635-05bd-452a-889d-91b6aef98c6f"},"vehicle_type_id":"4","last_reported":1761602924,"current_range_meters":19200,"station_id":"ce4bhc92rcd13ifvqetg","pricing_plan_id":"cebpf4jnsgd1na2vs0mg"},{"bike_id":"ff00e98e-e9b9-42ca-a366-fd24d4175875","system_id":"levelo_inurba_marseille","lat":43.29525,"lon":5.39415,"is_reserved":false,"is_disabled":false,"rental_uris":{"android":"levelo://app?vid=ff00e98e-e9b9-42ca-a366-fd24d4175875","ios":"levelo://app?vid=ff00e98e-e9b9-42ca-a366-fd24d4175875"},"vehicle_type_id":"4","last_reported":1761602924,"current_range_meters":19200,"station_id":"ce4bh292rcd13ifvqdf0","pricing_plan_id":"cebpf4jnsgd1na2vs0mg"},{"bike_id":"04b8742e-e5b4-4023-a760-023c75e1f38d","system_id":"levelo_inurba_marseille","lat":43.31709,"lon":5.43709,"is_reserved":false,"is_disabled":false,"rental_uris":{"android":"levelo://app?vid=04b8742e-e5b4-4023-a760-023c75e1f38d","ios":"levelo://app?vid=04b8742e-e5b4-4023-a760-023c75e1f38d"},"vehicle_type_id":"4","last_reported":1761602924,"current_range_meters":19200,"station_id":"ce4bhp92rcd13ifvqhcg","pricing_plan_id":"cebpf4jnsgd1na2vs0mg"},{"bike_id":"02dd205b-e97c-4104-9683-066d2523fd3f","system_id":"levelo_inurba_marseille","lat":43.23062,"lon":5.3549,"is_reserved":false,"is_disabled":false,"rental_uris":{"android":"levelo://app?vid=02dd205b-e97c-4104-9683-066d2523fd3f","ios":"levelo://app?vid=02dd205b-e97c-4104-9683-066d2523fd3f"},"vehicle_type_id":"4","last_reported":1761602924,"current_range_meters":19200,"station_id":"cpo3342slgdg3j2ifvpg","pricing_plan_id":"cebpf4jnsgd1na2vs0mg"},{"bike_id":"0120ce96-ab9e-4fa7-8a66-5a46650c664a","system_id":"levelo_inurba_marseille","lat":43.29906,"lon":5.38144,"is_reserved":false,"is_disabled":false,"rental_uris":{"android":"levelo://app?vid=0120ce96-ab9e-4fa7-8a66-5a46650c664a","ios":"levelo://app?vid=0120ce96-ab9e-4fa7-8a66-5a46650c664a"},"vehicle_type_id":"4","last_reported":1761602924,"current_range_meters":19200,"station_id":"ce4bgj12rcd13ifvqbc0","pricing_plan_id":"cebpf4jnsgd1na2vs0mg"},{"bike_id":"4abf8525-6d54-46af-b310-c9c3a2c8c704","system_id":"levelo_inurba_marseille","lat":43.25077,"lon":5.39495,"is_reserved":false,"is_disabled":false,"rental_uris":{"android":"levelo://app?vid=4abf8525-6d54-46af-b310-c9c3a2c8c704","ios":"levelo://app?vid=4abf8525-6d54-46af-b310-c9c3a2c8c704"},"vehicle_type_id":"4","last_reported":1761602924,"current_range_meters":19200,"station_id":"ce4bhm12rcd13ifvqgkg","pricing_plan_id":"cebpf4jnsgd1na2vs0mg"},{"bike_id":"89dc8d2c-2ca5-41a0-bdca-cb4530a7a44d","system_id":"levelo_inurba_marseille","lat":43.30652,"lon":5.4005,"is_reserved":false,"is_disabled":false,"rental_uris":{"android":"levelo://app?vid=89dc8d2c-2ca5-41a0-bdca-cb4530a7a44d","ios":"levelo://app?vid=89dc8d2c-2ca5-41a0-bdca-cb4530a7a44d"},"vehicle_type_id":"4","last_reported":1761602924,"current_range_meters":19600,"station_id":"ce4bh112rcd13ifvqda0","pricing_plan_id":"cebpf4jnsgd1na2vs0mg"},{"bike_id":"24dff1b6-2009-47dc-b14c-5cea613f5a6b","system_id":"levelo_inurba_marseille","lat":43.28954,"lon":5.39624,"is_reserved":false,"is_disabled":false,"rental_uris":{"android":"levelo://app?vid=24dff1b6-2009-47dc-b14c-5cea613f5a6b","ios":"levelo://app?vid=24dff1b6-2009-47dc-b14c-5cea613f5a6b"},"vehicle_type_id":"4","last_reported":1761602924,"current_range_meters":19600,"station_id":"ce4bh3h2rcd13ifvqdn0","pricing_plan_id":"cebpf4jnsgd1na2vs0mg"},{"bike_id":"c5357aaa-f358-42dd-a7b4-114e2fddc718","system_id":"levelo_inurba_marseille","lat":43.24804,"lon":5.37447,"is_reserved":false,"is_disabled":false,"rental_uris":{"android":"levelo://app?vid=c5357aaa-f358-42dd-a7b4-114e2fddc718","ios":"levelo://app?vid=c5357aaa-f358-42dd-a7b4-114e2fddc718"},"vehicle_type_id":"4","last_reported":1761602924,"current_range_meters":19600,"station_id":"ce4bhgh2rcd13ifvqfb0","pricing_plan_id":"cebpf4jnsgd1na2vs0mg"},{"bike_id":"021e2773-71f7-4902-84c6-5e91af9a8aba","system_id":"levelo_inurba_marseille","lat":43.29596,"lon":5.39599,"is_reserved":false,"is_disabled":false,"rental_uris":{"android":"levelo://app?vid=021e2773-71f7-4902-84c6-5e91af9a8aba","ios":"levelo://app?vid=021e2773-71f7-4902-84c6-5e91af9a8aba"},"vehicle_type_id":"4","last_reported":1761602924,"current_range_meters":19600,"station_id":"","pricing_plan_id":"cebpf4jnsgd1na2vs0mg"},{"bike_id":"eaed6499-9973-47d4-9735-9e2c2bd97da4","system_id":"levelo_inurba_marseille","lat":43.28537,"lon":5.44085,"is_reserved":false,"is_disabled":false,"rental_uris":{"android":"levelo://app?vid=eaed6499-9973-47d4-9735-9e2c2bd97da4","ios":"levelo://app?vid=eaed6499-9973-47d4-9735-9e2c2bd97da4"},"vehicle_type_id":"4","last_reported":1761602924,"current_range_meters":19600,"station_id":"st_d3j3df2ikq2c7380ej80","pricing_plan_id":"cebpf4jnsgd1na2vs0mg"},{"bike_id":"d413d8bf-4c9f-4587-9711-663fc6c13bcc","system_id":"levelo_inurba_marseille","lat":43.27949,"lon":5.41045,"is_reserved":false,"is_disabled":false,"rental_uris":{"android":"levelo://app?vid=d413d8bf-4c9f-4587-9711-663fc6c13bcc","ios":"levelo://app?vid=d413d8bf-4c9f-4587-9711-663fc6c13bcc"},"vehicle_type_id":"4","last_reported":1761602924,"current_range_meters":19600,"station_id":"ce4bhnp2rcd13ifvqh0g","pricing_plan_id":"cebpf4jnsgd1na2vs0mg"},{"bike_id":"92678f44-63f4-489b-8cbc-ad436dcf9224","system_id":"levelo_inurba_marseille","lat":43.29795,"lon":5.381,"is_reserved":false,"is_disabled":false,"rental_uris":{"android":"levelo://app?vid=92678f44-63f4-489b-8cbc-ad436dcf9224","ios":"levelo://app?vid=92678f44-63f4-489b-8cbc-ad436dcf9224"},"vehicle_type_id":"4","last_reported":1761602924,"current_range_meters":20000,"station_id":"ce4bgip2rcd13ifvqbb0","pricing_plan_id":"cebpf4jnsgd1na2vs0mg"},{"bike_id":"30be3bd8-ecb4-4749-acf1-2b8d8d14222d","system_id":"levelo_inurba_marseille","lat":43.27913,"lon":5.39577,"is_reserved":false,"is_disabled":false,"rental_uris":{"android":"levelo://app?vid=30be3bd8-ecb4-4749-acf1-2b8d8d14222d","ios":"levelo://app?vid=30be3bd8-ecb4-4749-acf1-2b8d8d14222d"},"vehicle_type_id":"4","last_reported":1761602924,"current_range_meters":20000,"station_id":"ce4bhf92rcd13ifvqf40","pricing_plan_id":"cebpf4jnsgd1na2vs0mg"},{"bike_id":"dd157792-e4ec-4bca-a84e-96133c4c1d37","system_id":"levelo_inurba_marseille","lat":43.2954,"lon":5.39409,"is_reserved":false,"is_disabled":false,"rental_uris":{"android":"levelo://app?vid=dd157792-e4ec-4bca-a84e-96133c4c1d37","ios":"levelo://app?vid=dd157792-e4ec-4bca-a84e-96133c4c1d37"},"vehicle_type_id":"4","last_reported":1761602924,"current_range_meters":20000,"station_id":"ce4bh292rcd13ifvqdf0","pricing_plan_id":"cebpf4jnsgd1na2vs0mg"},{"bike_id":"6a8873db-5239-483b-be78-07721112b559","system_id":"levelo_inurba_marseille","lat":43.28464,"lon":5.35876,"is_reserved":false,"is_disabled":false,"rental_uris":{"android":"levelo://app?vid=6a8873db-5239-483b-be78-07721112b559","ios":"levelo://app?vid=6a8873db-5239-483b-be78-07721112b559"},"vehicle_type_id":"4","last_reported":1761602924,"current_range_meters":20000,"station_id":"ce4bhah2rcd13ifvqei0","pricing_plan_id":"cebpf4jnsgd1na2vs0mg"},{"bike_id":"11ef3bae-f74c-4d6c-9e1c-74445fbc74b3","system_id":"levelo_inurba_marseille","lat":43.25501,"lon":5.37658,"is_reserved":false,"is_disabled":false,"rental_uris":{"android":"levelo://app?vid=11ef3bae-f74c-4d6c-9e1c-74445fbc74b3","ios":"levelo://app?vid=11ef3bae-f74c-4d6c-9e1c-74445fbc74b3"},"vehicle_type_id":"4","last_reported":1761602924,"current_range_meters":20000,"station_id":"ce4bhh12rcd13ifvqff0","pricing_plan_id":"cebpf4jnsgd1na2vs0mg"},{"bike_id":"208cdda3-2b43-400e-951e-2693b6f7bbf2","system_id":"levelo_inurba_marseille","lat":43.31725,"lon":5.40376,"is_reserved":false,"is_disabled":false,"rental_uris":{"android":"levelo://app?vid=208cdda3-2b43-400e-951e-2693b6f7bbf2","ios":"levelo://app?vid=208cdda3-2b43-400e-951e-2693b6f7bbf2"},"vehicle_type_id":"4","last_reported":1761602924,"current_range_meters":20000,"station_id":"ce4bh012rcd13ifvqd00","pricing_plan_id":"cebpf4jnsgd1na2vs0mg"},{"bike_id":"d3710e70-5472-4c7b-b377-63232feee95f","system_id":"levelo_inurba_marseille","lat":43.29031,"lon":5.39978,"is_reserved":false,"is_disabled":false,"rental_uris":{"android":"levelo://app?vid=d3710e70-5472-4c7b-b377-63232feee95f","ios":"levelo://app?vid=d3710e70-5472-4c7b-b377-63232feee95f"},"vehicle_type_id":"4","last_reported":1761602924,"current_range_meters":20000,"station_id":"ce4bh392rcd13ifvqdm0","pricing_plan_id":"cebpf4jnsgd1na2vs0mg"},{"bike_id":"51a7e268-9562-4b96-8e84-f568b0acc7b7","system_id":"levelo_inurba_marseille","lat":43.247969,"lon":5.37456,"is_reserved":false,"is_disabled":false,"rental_uris":{"android":"levelo://app?vid=51a7e268-9562-4b96-8e84-f568b0acc7b7","ios":"levelo://app?vid=51a7e268-9562-4b96-8e84-f568b0acc7b7"},"vehicle_type_id":"4","last_reported":1761602924,"current_range_meters":20400,"station_id":"","pricing_plan_id":"cebpf4jnsgd1na2vs0mg"},{"bike_id":"6daca031-efb5-4517-911c-f1bf58b277b7","system_id":"levelo_inurba_marseille","lat":43.21188,"lon":5.35078,"is_reserved":false,"is_disabled":false,"rental_uris":{"android":"levelo://app?vid=6daca031-efb5-4517-911c-f1bf58b277b7","ios":"levelo://app?vid=6daca031-efb5-4517-911c-f1bf58b277b7"},"vehicle_type_id":"4","last_reported":1761602924,"current_range_meters":20400,"station_id":"st_cvj6sg6p6f1abm77japg","pricing_plan_id":"cebpf4jnsgd1na2vs0mg"},{"bike_id":"0de51fa2-2e95-4bde-9cc0-e1b85b632646","system_id":"levelo_inurba_marseille","lat":43.28391,"lon":5.38652,"is_reserved":false,"is_disabled":false,"rental_uris":{"android":"levelo://app?vid=0de51fa2-2e95-4bde-9cc0-e1b85b632646","ios":"levelo://app?vid=0de51fa2-2e95-4bde-9cc0-e1b85b632646"},"vehicle_type_id":"4","last_reported":1761602924,"current_range_meters":20400,"station_id":"ce4bh492rcd13ifvqdvg","pricing_plan_id":"cebpf4jnsgd1na2vs0mg"},{"bike_id":"8743deb1-3e1b-4fe6-ab63-b75dc0a57f17","system_id":"levelo_inurba_marseille","lat":43.23067,"lon":5.3549,"is_reserved":false,"is_disabled":false,"rental_uris":{"android":"levelo://app?vid=8743deb1-3e1b-4fe6-ab63-b75dc0a57f17","ios":"levelo://app?vid=8743deb1-3e1b-4fe6-ab63-b75dc0a57f17"},"vehicle_type_id":"4","last_reported":1761602924,"current_range_meters":20400,"station_id":"cpo3342slgdg3j2ifvpg","pricing_plan_id":"cebpf4jnsgd1na2vs0mg"},{"bike_id":"6d123415-a968-4887-8a37-a386e719b72d","system_id":"levelo_inurba_marseille","lat":43.29866,"lon":5.3973,"is_reserved":false,"is_disabled":false,"rental_uris":{"android":"levelo://app?vid=6d123415-a968-4887-8a37-a386e719b72d","ios":"levelo://app?vid=6d123415-a968-4887-8a37-a386e719b72d"},"vehicle_type_id":"4","last_reported":1761602924,"current_range_meters":20400,"station_id":"ce4bh0h2rcd13ifvqd50","pricing_plan_id":"cebpf4jnsgd1na2vs0mg"},{"bike_id":"44cf2e75-a0ee-4df0-99cb-62444dabb87a","system_id":"levelo_inurba_marseille","lat":43.280007,"lon":5.416646,"is_reserved":false,"is_disabled":false,"rental_uris":{"android":"levelo://app?vid=44cf2e75-a0ee-4df0-99cb-62444dabb87a","ios":"levelo://app?vid=44cf2e75-a0ee-4df0-99cb-62444dabb87a"},"vehicle_type_id":"4","last_reported":1761602924,"current_range_meters":20400,"station_id":"ce4bho12rcd13ifvqh1g","pricing_plan_id":"cebpf4jnsgd1na2vs0mg"},{"bike_id":"54317329-1b14-4957-8f07-2baa7436d39c","system_id":"levelo_inurba_marseille","lat":43.28648,"lon":5.35055,"is_reserved":false,"is_disabled":false,"rental_uris":{"android":"levelo://app?vid=54317329-1b14-4957-8f07-2baa7436d39c","ios":"levelo://app?vid=54317329-1b14-4957-8f07-2baa7436d39c"},"vehicle_type_id":"4","last_reported":1761602924,"current_range_meters":20800,"station_id":"ce4bhch2rcd13ifvqeug","pricing_plan_id":"cebpf4jnsgd1na2vs0mg"},{"bike_id":"b1e81361-2b17-4ef1-8a58-6def5753471b","system_id":"levelo_inurba_marseille","lat":43.337474,"lon":5.374712,"is_reserved":false,"is_disabled":false,"rental_uris":{"android":"levelo://app?vid=b1e81361-2b17-4ef1-8a58-6def5753471b","ios":"levelo://app?vid=b1e81361-2b17-4ef1-8a58-6def5753471b"},"vehicle_type_id":"4","last_reported":1761602924,"current_range_meters":20800,"station_id":"","pricing_plan_id":"cebpf4jnsgd1na2vs0mg"},{"bike_id":"f5dc89e2-f42b-4da6-82e6-d21ce7949692","system_id":"levelo_inurba_marseille","lat":43.314883,"lon":5.373115,"is_reserved":false,"is_disabled":false,"rental_uris":{"android":"levelo://app?vid=f5dc89e2-f42b-4da6-82e6-d21ce7949692","ios":"levelo://app?vid=f5dc89e2-f42b-4da6-82e6-d21ce7949692"},"vehicle_type_id":"4","last_reported":1761602924,"current_range_meters":20800,"station_id":"ce4bgt12rcd13ifvqcd0","pricing_plan_id":"cebpf4jnsgd1na2vs0mg"},{"bike_id":"66f5a034-d677-4d59-9eae-df3aa5f172cf","system_id":"levelo_inurba_marseille","lat":43.29024,"lon":5.3864,"is_reserved":false,"is_disabled":false,"rental_uris":{"android":"levelo://app?vid=66f5a034-d677-4d59-9eae-df3aa5f172cf","ios":"levelo://app?vid=66f5a034-d677-4d59-9eae-df3aa5f172cf"},"vehicle_type_id":"4","last_reported":1761602924,"current_range_meters":20800,"station_id":"ce4bh4p2rcd13ifvqe0g","pricing_plan_id":"cebpf4jnsgd1na2vs0mg"},{"bike_id":"3c172d5e-4be3-4447-81d6-5d4b4efa8bc0","system_id":"levelo_inurba_marseille","lat":43.26551,"lon":5.38538,"is_reserved":false,"is_disabled":false,"rental_uris":{"android":"levelo://app?vid=3c172d5e-4be3-4447-81d6-5d4b4efa8bc0","ios":"levelo://app?vid=3c172d5e-4be3-4447-81d6-5d4b4efa8bc0"},"vehicle_type_id":"4","last_reported":1761602924,"current_range_meters":20800,"station_id":"","pricing_plan_id":"cebpf4jnsgd1na2vs0mg"},{"bike_id":"120a8546-b550-4908-ae90-0fcc0e4af2d8","system_id":"levelo_inurba_marseille","lat":43.27829,"lon":5.40683,"is_reserved":false,"is_disabled":false,"rental_uris":{"android":"levelo://app?vid=120a8546-b550-4908-ae90-0fcc0e4af2d8","ios":"levelo://app?vid=120a8546-b550-4908-ae90-0fcc0e4af2d8"},"vehicle_type_id":"4","last_reported":1761602924,"current_range_meters":21600,"station_id":"ce4bhnh2rcd13ifvqgtg","pricing_plan_id":"cebpf4jnsgd1na2vs0mg"},{"bike_id":"20a7c7d3-68f8-4364-ac5f-46a050397980","system_id":"levelo_inurba_marseille","lat":43.2417,"lon":5.36401,"is_reserved":false,"is_disabled":false,"rental_uris":{"android":"levelo://app?vid=20a7c7d3-68f8-4364-ac5f-46a050397980","ios":"levelo://app?vid=20a7c7d3-68f8-4364-ac5f-46a050397980"},"vehicle_type_id":"4","last_reported":1761602924,"current_range_meters":21600,"station_id":"cpo36qri1sfpv3e86is0","pricing_plan_id":"cebpf4jnsgd1na2vs0mg"},{"bike_id":"add92bc1-d9ce-4138-ad8f-c22b09c39ce5","system_id":"levelo_inurba_marseille","lat":43.284353,"lon":5.391973,"is_reserved":false,"is_disabled":false,"rental_uris":{"android":"levelo://app?vid=add92bc1-d9ce-4138-ad8f-c22b09c39ce5","ios":"levelo://app?vid=add92bc1-d9ce-4138-ad8f-c22b09c39ce5"},"vehicle_type_id":"4","last_reported":1761602924,"current_range_meters":21600,"station_id":"ce4bhoh2rcd13ifvqh5g","pricing_plan_id":"cebpf4jnsgd1na2vs0mg"},{"bike_id":"53d23df3-0441-45e2-bfbf-abbc16391f8f","system_id":"levelo_inurba_marseille","lat":43.27625,"lon":5.36103,"is_reserved":false,"is_disabled":false,"rental_uris":{"android":"levelo://app?vid=53d23df3-0441-45e2-bfbf-abbc16391f8f","ios":"levelo://app?vid=53d23df3-0441-45e2-bfbf-abbc16391f8f"},"vehicle_type_id":"4","last_reported":1761602924,"current_range_meters":21600,"station_id":"ce4bgj92rcd13ifvqbe0","pricing_plan_id":"cebpf4jnsgd1na2vs0mg"},{"bike_id":"05018340-9011-4729-80d4-dd0958d0a987","system_id":"levelo_inurba_marseille","lat":43.28616,"lon":5.35095,"is_reserved":false,"is_disabled":false,"rental_uris":{"android":"levelo://app?vid=05018340-9011-4729-80d4-dd0958d0a987","ios":"levelo://app?vid=05018340-9011-4729-80d4-dd0958d0a987"},"vehicle_type_id":"4","last_reported":1761602924,"current_range_meters":21600,"station_id":"ce4bhch2rcd13ifvqeug","pricing_plan_id":"cebpf4jnsgd1na2vs0mg"},{"bike_id":"8e2dcd31-6a9c-4b7f-a366-5e2640173d3c","system_id":"levelo_inurba_marseille","lat":43.22945,"lon":5.35372,"is_reserved":false,"is_disabled":false,"rental_uris":{"android":"levelo://app?vid=8e2dcd31-6a9c-4b7f-a366-5e2640173d3c","ios":"levelo://app?vid=8e2dcd31-6a9c-4b7f-a366-5e2640173d3c"},"vehicle_type_id":"4","last_reported":1761602924,"current_range_meters":21600,"station_id":"cpo3532slgdg3j2ikp40","pricing_plan_id":"cebpf4jnsgd1na2vs0mg"},{"bike_id":"3e0a27a8-38ca-4fe6-bf82-347552f127fa","system_id":"levelo_inurba_marseille","lat":43.2931,"lon":5.37173,"is_reserved":false,"is_disabled":false,"rental_uris":{"android":"levelo://app?vid=3e0a27a8-38ca-4fe6-bf82-347552f127fa","ios":"levelo://app?vid=3e0a27a8-38ca-4fe6-bf82-347552f127fa"},"vehicle_type_id":"4","last_reported":1761602924,"current_range_meters":21600,"station_id":"ce4bgh92rcd13ifvqb40","pricing_plan_id":"cebpf4jnsgd1na2vs0mg"},{"bike_id":"fc34959e-80db-4ac1-aec3-087612cb59c1","system_id":"levelo_inurba_marseille","lat":43.29308,"lon":5.37178,"is_reserved":false,"is_disabled":false,"rental_uris":{"android":"levelo://app?vid=fc34959e-80db-4ac1-aec3-087612cb59c1","ios":"levelo://app?vid=fc34959e-80db-4ac1-aec3-087612cb59c1"},"vehicle_type_id":"4","last_reported":1761602924,"current_range_meters":21600,"station_id":"ce4bgh92rcd13ifvqb40","pricing_plan_id":"cebpf4jnsgd1na2vs0mg"},{"bike_id":"14fed8bf-0e52-4b67-9780-8d00ed00b796","system_id":"levelo_inurba_marseille","lat":43.25124,"lon":5.39477,"is_reserved":false,"is_disabled":false,"rental_uris":{"android":"levelo://app?vid=14fed8bf-0e52-4b67-9780-8d00ed00b796","ios":"levelo://app?vid=14fed8bf-0e52-4b67-9780-8d00ed00b796"},"vehicle_type_id":"4","last_reported":1761602924,"current_range_meters":21600,"station_id":"ce4bhm12rcd13ifvqgkg","pricing_plan_id":"cebpf4jnsgd1na2vs0mg"},{"bike_id":"375de74a-a6d2-44a3-b043-8387ee6c02b5","system_id":"levelo_inurba_marseille","lat":43.27499,"lon":5.4245,"is_reserved":false,"is_disabled":false,"rental_uris":{"android":"levelo://app?vid=375de74a-a6d2-44a3-b043-8387ee6c02b5","ios":"levelo://app?vid=375de74a-a6d2-44a3-b043-8387ee6c02b5"},"vehicle_type_id":"4","last_reported":1761602924,"current_range_meters":21600,"station_id":"ce4bhn92rcd13ifvqgrg","pricing_plan_id":"cebpf4jnsgd1na2vs0mg"},{"bike_id":"f337a517-089b-428f-bb6a-a51b9093d1b3","system_id":"levelo_inurba_marseille","lat":43.29316,"lon":5.37186,"is_reserved":false,"is_disabled":false,"rental_uris":{"android":"levelo://app?vid=f337a517-089b-428f-bb6a-a51b9093d1b3","ios":"levelo://app?vid=f337a517-089b-428f-bb6a-a51b9093d1b3"},"vehicle_type_id":"4","last_reported":1761602924,"current_range_meters":21600,"station_id":"ce4bgh92rcd13ifvqb40","pricing_plan_id":"cebpf4jnsgd1na2vs0mg"},{"bike_id":"0b874bc5-80d6-4565-b9e7-c796afbac60b","system_id":"levelo_inurba_marseille","lat":43.27503,"lon":5.42448,"is_reserved":false,"is_disabled":false,"rental_uris":{"android":"levelo://app?vid=0b874bc5-80d6-4565-b9e7-c796afbac60b","ios":"levelo://app?vid=0b874bc5-80d6-4565-b9e7-c796afbac60b"},"vehicle_type_id":"4","last_reported":1761602924,"current_range_meters":21600,"station_id":"ce4bhn92rcd13ifvqgrg","pricing_plan_id":"cebpf4jnsgd1na2vs0mg"},{"bike_id":"b3591f96-ba6e-4338-ad17-363b3d528fad","system_id":"levelo_inurba_marseille","lat":43.30886,"lon":5.37192,"is_reserved":false,"is_disabled":true,"rental_uris":{"android":"levelo://app?vid=b3591f96-ba6e-4338-ad17-363b3d528fad","ios":"levelo://app?vid=b3591f96-ba6e-4338-ad17-363b3d528fad"},"vehicle_type_id":"4","last_reported":1761602924,"current_range_meters":22000,"station_id":"ce4bguh2rcd13ifvqckg","pricing_plan_id":"cebpf4jnsgd1na2vs0mg"},{"bike_id":"9cb0835f-d8bd-4b0d-af2f-9fec4e9f2305","system_id":"levelo_inurba_marseille","lat":43.24815,"lon":5.37448,"is_reserved":false,"is_disabled":false,"rental_uris":{"android":"levelo://app?vid=9cb0835f-d8bd-4b0d-af2f-9fec4e9f2305","ios":"levelo://app?vid=9cb0835f-d8bd-4b0d-af2f-9fec4e9f2305"},"vehicle_type_id":"4","last_reported":1761602924,"current_range_meters":22000,"station_id":"ce4bhgh2rcd13ifvqfb0","pricing_plan_id":"cebpf4jnsgd1na2vs0mg"},{"bike_id":"48be3ead-b5cc-45e5-9960-51963430e3b3","system_id":"levelo_inurba_marseille","lat":43.293081,"lon":5.385094,"is_reserved":false,"is_disabled":false,"rental_uris":{"android":"levelo://app?vid=48be3ead-b5cc-45e5-9960-51963430e3b3","ios":"levelo://app?vid=48be3ead-b5cc-45e5-9960-51963430e3b3"},"vehicle_type_id":"4","last_reported":1761602924,"current_range_meters":22000,"station_id":"","pricing_plan_id":"cebpf4jnsgd1na2vs0mg"},{"bike_id":"941eca81-61b6-4376-acbb-773a2fc9f625","system_id":"levelo_inurba_marseille","lat":43.320936,"lon":5.367755,"is_reserved":false,"is_disabled":false,"rental_uris":{"android":"levelo://app?vid=941eca81-61b6-4376-acbb-773a2fc9f625","ios":"levelo://app?vid=941eca81-61b6-4376-acbb-773a2fc9f625"},"vehicle_type_id":"4","last_reported":1761602924,"current_range_meters":22000,"station_id":"ce4bhrh2rcd13ifvqhug","pricing_plan_id":"cebpf4jnsgd1na2vs0mg"},{"bike_id":"4ac7887c-1364-4417-9eed-22a7eb5f3d99","system_id":"levelo_inurba_marseille","lat":43.24669,"lon":5.38152,"is_reserved":false,"is_disabled":false,"rental_uris":{"android":"levelo://app?vid=4ac7887c-1364-4417-9eed-22a7eb5f3d99","ios":"levelo://app?vid=4ac7887c-1364-4417-9eed-22a7eb5f3d99"},"vehicle_type_id":"4","last_reported":1761602924,"current_range_meters":22000,"station_id":"ce4bhih2rcd13ifvqfr0","pricing_plan_id":"cebpf4jnsgd1na2vs0mg"},{"bike_id":"04459ab2-22e4-4de6-b288-50087f0d8551","system_id":"levelo_inurba_marseille","lat":43.2987,"lon":5.37933,"is_reserved":false,"is_disabled":false,"rental_uris":{"android":"levelo://app?vid=04459ab2-22e4-4de6-b288-50087f0d8551","ios":"levelo://app?vid=04459ab2-22e4-4de6-b288-50087f0d8551"},"vehicle_type_id":"4","last_reported":1761602924,"current_range_meters":22000,"station_id":"","pricing_plan_id":"cebpf4jnsgd1na2vs0mg"},{"bike_id":"02df3fa0-03e5-4eb7-b5c9-f6fa5a9f2fd9","system_id":"levelo_inurba_marseille","lat":43.29266,"lon":5.37627,"is_reserved":false,"is_disabled":false,"rental_uris":{"android":"levelo://app?vid=02df3fa0-03e5-4eb7-b5c9-f6fa5a9f2fd9","ios":"levelo://app?vid=02df3fa0-03e5-4eb7-b5c9-f6fa5a9f2fd9"},"vehicle_type_id":"4","last_reported":1761602924,"current_range_meters":22000,"station_id":"ce4bgi12rcd13ifvqb80","pricing_plan_id":"cebpf4jnsgd1na2vs0mg"},{"bike_id":"cc274d03-65db-46ed-aecf-0bc2e4c68e43","system_id":"levelo_inurba_marseille","lat":43.28458,"lon":5.35885,"is_reserved":false,"is_disabled":false,"rental_uris":{"android":"levelo://app?vid=cc274d03-65db-46ed-aecf-0bc2e4c68e43","ios":"levelo://app?vid=cc274d03-65db-46ed-aecf-0bc2e4c68e43"},"vehicle_type_id":"4","last_reported":1761602924,"current_range_meters":22000,"station_id":"ce4bhah2rcd13ifvqei0","pricing_plan_id":"cebpf4jnsgd1na2vs0mg"},{"bike_id":"f6adb9c1-4a78-4322-baec-aa5f6f5d93b6","system_id":"levelo_inurba_marseille","lat":43.225338,"lon":5.348301,"is_reserved":false,"is_disabled":false,"rental_uris":{"android":"levelo://app?vid=f6adb9c1-4a78-4322-baec-aa5f6f5d93b6","ios":"levelo://app?vid=f6adb9c1-4a78-4322-baec-aa5f6f5d93b6"},"vehicle_type_id":"4","last_reported":1761602924,"current_range_meters":22000,"station_id":"","pricing_plan_id":"cebpf4jnsgd1na2vs0mg"},{"bike_id":"226913b6-b7b9-4183-8d38-b7cb83db3cc9","system_id":"levelo_inurba_marseille","lat":43.31179,"lon":5.3872,"is_reserved":false,"is_disabled":false,"rental_uris":{"android":"levelo://app?vid=226913b6-b7b9-4183-8d38-b7cb83db3cc9","ios":"levelo://app?vid=226913b6-b7b9-4183-8d38-b7cb83db3cc9"},"vehicle_type_id":"4","last_reported":1761602924,"current_range_meters":22400,"station_id":"ce4bgv12rcd13ifvqcp0","pricing_plan_id":"cebpf4jnsgd1na2vs0mg"},{"bike_id":"01d566b3-b9e8-4c6a-8295-fa1b2dab6da5","system_id":"levelo_inurba_marseille","lat":43.31367,"lon":5.38492,"is_reserved":false,"is_disabled":false,"rental_uris":{"android":"levelo://app?vid=01d566b3-b9e8-4c6a-8295-fa1b2dab6da5","ios":"levelo://app?vid=01d566b3-b9e8-4c6a-8295-fa1b2dab6da5"},"vehicle_type_id":"4","last_reported":1761602924,"current_range_meters":22400,"station_id":"ce4bgt92rcd13ifvqcf0","pricing_plan_id":"cebpf4jnsgd1na2vs0mg"},{"bike_id":"3771686b-230a-47c5-8fd0-c9436373ca9f","system_id":"levelo_inurba_marseille","lat":43.298,"lon":5.3713,"is_reserved":false,"is_disabled":true,"rental_uris":{"android":"levelo://app?vid=3771686b-230a-47c5-8fd0-c9436373ca9f","ios":"levelo://app?vid=3771686b-230a-47c5-8fd0-c9436373ca9f"},"vehicle_type_id":"4","last_reported":1761602924,"current_range_meters":22400,"station_id":"ce4bgop2rcd13ifvqc1g","pricing_plan_id":"cebpf4jnsgd1na2vs0mg"},{"bike_id":"f810a554-2efc-4ac7-b25f-2a33c0bed870","system_id":"levelo_inurba_marseille","lat":43.25594,"lon":5.38215,"is_reserved":false,"is_disabled":false,"rental_uris":{"android":"levelo://app?vid=f810a554-2efc-4ac7-b25f-2a33c0bed870","ios":"levelo://app?vid=f810a554-2efc-4ac7-b25f-2a33c0bed870"},"vehicle_type_id":"4","last_reported":1761602924,"current_range_meters":22400,"station_id":"ce4bhih2rcd13ifvqfs0","pricing_plan_id":"cebpf4jnsgd1na2vs0mg"},{"bike_id":"96b93a83-82f2-4d31-acb8-139fbce4500d","system_id":"levelo_inurba_marseille","lat":43.22943,"lon":5.35382,"is_reserved":false,"is_disabled":false,"rental_uris":{"android":"levelo://app?vid=96b93a83-82f2-4d31-acb8-139fbce4500d","ios":"levelo://app?vid=96b93a83-82f2-4d31-acb8-139fbce4500d"},"vehicle_type_id":"4","last_reported":1761602924,"current_range_meters":22400,"station_id":"cpo3532slgdg3j2ikp40","pricing_plan_id":"cebpf4jnsgd1na2vs0mg"},{"bike_id":"cdcc0522-e9c0-4a4b-9952-84841693714f","system_id":"levelo_inurba_marseille","lat":43.30329,"lon":5.40436,"is_reserved":false,"is_disabled":false,"rental_uris":{"android":"levelo://app?vid=cdcc0522-e9c0-4a4b-9952-84841693714f","ios":"levelo://app?vid=cdcc0522-e9c0-4a4b-9952-84841693714f"},"vehicle_type_id":"4","last_reported":1761602924,"current_range_meters":22400,"station_id":"ce4bh012rcd13ifvqd10","pricing_plan_id":"cebpf4jnsgd1na2vs0mg"},{"bike_id":"8062c369-ff3b-4a48-b2ef-d270e82c4cf4","system_id":"levelo_inurba_marseille","lat":43.23068,"lon":5.35485,"is_reserved":false,"is_disabled":false,"rental_uris":{"android":"levelo://app?vid=8062c369-ff3b-4a48-b2ef-d270e82c4cf4","ios":"levelo://app?vid=8062c369-ff3b-4a48-b2ef-d270e82c4cf4"},"vehicle_type_id":"4","last_reported":1761602924,"current_range_meters":22800,"station_id":"cpo3342slgdg3j2ifvpg","pricing_plan_id":"cebpf4jnsgd1na2vs0mg"},{"bike_id":"6d8da19b-0143-43ba-a2b6-b774a32597d4","system_id":"levelo_inurba_marseille","lat":43.28163,"lon":5.34774,"is_reserved":false,"is_disabled":false,"rental_uris":{"android":"levelo://app?vid=6d8da19b-0143-43ba-a2b6-b774a32597d4","ios":"levelo://app?vid=6d8da19b-0143-43ba-a2b6-b774a32597d4"},"vehicle_type_id":"4","last_reported":1761602924,"current_range_meters":22800,"station_id":"","pricing_plan_id":"cebpf4jnsgd1na2vs0mg"},{"bike_id":"e74f7dfa-d56a-4ef8-90d4-19d344c91b03","system_id":"levelo_inurba_marseille","lat":43.2954,"lon":5.38561,"is_reserved":false,"is_disabled":false,"rental_uris":{"android":"levelo://app?vid=e74f7dfa-d56a-4ef8-90d4-19d344c91b03","ios":"levelo://app?vid=e74f7dfa-d56a-4ef8-90d4-19d344c91b03"},"vehicle_type_id":"4","last_reported":1761602924,"current_range_meters":22800,"station_id":"ce4bgih2rcd13ifvqba0","pricing_plan_id":"cebpf4jnsgd1na2vs0mg"},{"bike_id":"4b4c93ce-e607-4d30-9697-99e01ff8a203","system_id":"levelo_inurba_marseille","lat":43.29045,"lon":5.35913,"is_reserved":false,"is_disabled":false,"rental_uris":{"android":"levelo://app?vid=4b4c93ce-e607-4d30-9697-99e01ff8a203","ios":"levelo://app?vid=4b4c93ce-e607-4d30-9697-99e01ff8a203"},"vehicle_type_id":"4","last_reported":1761602924,"current_range_meters":22800,"station_id":"ce4bha92rcd13ifvqeg0","pricing_plan_id":"cebpf4jnsgd1na2vs0mg"},{"bike_id":"361abab7-56f6-44ae-a4db-9079797e8f62","system_id":"levelo_inurba_marseille","lat":43.23958,"lon":5.36634,"is_reserved":false,"is_disabled":false,"rental_uris":{"android":"levelo://app?vid=361abab7-56f6-44ae-a4db-9079797e8f62","ios":"levelo://app?vid=361abab7-56f6-44ae-a4db-9079797e8f62"},"vehicle_type_id":"4","last_reported":1761602924,"current_range_meters":22800,"station_id":"ce4bhi12rcd13ifvqfp0","pricing_plan_id":"cebpf4jnsgd1na2vs0mg"},{"bike_id":"780f18f0-b7b3-4b8b-86c0-24ab04a1b619","system_id":"levelo_inurba_marseille","lat":43.30935,"lon":5.40131,"is_reserved":false,"is_disabled":false,"rental_uris":{"android":"levelo://app?vid=780f18f0-b7b3-4b8b-86c0-24ab04a1b619","ios":"levelo://app?vid=780f18f0-b7b3-4b8b-86c0-24ab04a1b619"},"vehicle_type_id":"4","last_reported":1761602924,"current_range_meters":22800,"station_id":"ce4bgvp2rcd13ifvqct0","pricing_plan_id":"cebpf4jnsgd1na2vs0mg"},{"bike_id":"7b3b2981-73a7-49e1-a599-23d59e63bf0c","system_id":"levelo_inurba_marseille","lat":43.25084,"lon":5.39519,"is_reserved":false,"is_disabled":false,"rental_uris":{"android":"levelo://app?vid=7b3b2981-73a7-49e1-a599-23d59e63bf0c","ios":"levelo://app?vid=7b3b2981-73a7-49e1-a599-23d59e63bf0c"},"vehicle_type_id":"4","last_reported":1761602924,"current_range_meters":22800,"station_id":"ce4bhm12rcd13ifvqgkg","pricing_plan_id":"cebpf4jnsgd1na2vs0mg"},{"bike_id":"2519a0d3-b2eb-4a5a-8f72-8da7633280c9","system_id":"levelo_inurba_marseille","lat":43.29319,"lon":5.37172,"is_reserved":false,"is_disabled":false,"rental_uris":{"android":"levelo://app?vid=2519a0d3-b2eb-4a5a-8f72-8da7633280c9","ios":"levelo://app?vid=2519a0d3-b2eb-4a5a-8f72-8da7633280c9"},"vehicle_type_id":"4","last_reported":1761602924,"current_range_meters":22800,"station_id":"ce4bgh92rcd13ifvqb40","pricing_plan_id":"cebpf4jnsgd1na2vs0mg"},{"bike_id":"3d00cf23-a66b-47a1-8eb3-f05af16b09a1","system_id":"levelo_inurba_marseille","lat":43.24397,"lon":5.37075,"is_reserved":false,"is_disabled":false,"rental_uris":{"android":"levelo://app?vid=3d00cf23-a66b-47a1-8eb3-f05af16b09a1","ios":"levelo://app?vid=3d00cf23-a66b-47a1-8eb3-f05af16b09a1"},"vehicle_type_id":"4","last_reported":1761602924,"current_range_meters":23200,"station_id":"ce4bhhh2rcd13ifvqfk0","pricing_plan_id":"cebpf4jnsgd1na2vs0mg"},{"bike_id":"39d094ac-6017-4390-8e80-c3e2498dcfcf","system_id":"levelo_inurba_marseille","lat":43.24634,"lon":5.43142,"is_reserved":false,"is_disabled":false,"rental_uris":{"android":"levelo://app?vid=39d094ac-6017-4390-8e80-c3e2498dcfcf","ios":"levelo://app?vid=39d094ac-6017-4390-8e80-c3e2498dcfcf"},"vehicle_type_id":"4","last_reported":1761602924,"current_range_meters":23200,"station_id":"st_d2m6c4gdas8pm72e190g","pricing_plan_id":"cebpf4jnsgd1na2vs0mg"},{"bike_id":"197c1c52-49c1-43c1-9e87-63751091f6ec","system_id":"levelo_inurba_marseille","lat":43.26563,"lon":5.37298,"is_reserved":false,"is_disabled":false,"rental_uris":{"android":"levelo://app?vid=197c1c52-49c1-43c1-9e87-63751091f6ec","ios":"levelo://app?vid=197c1c52-49c1-43c1-9e87-63751091f6ec"},"vehicle_type_id":"4","last_reported":1761602924,"current_range_meters":23200,"station_id":"ce4bhg12rcd13ifvqf70","pricing_plan_id":"cebpf4jnsgd1na2vs0mg"},{"bike_id":"f40aed78-b495-4d3a-bb9b-a4ce264d87f7","system_id":"levelo_inurba_marseille","lat":43.28566,"lon":5.39493,"is_reserved":false,"is_disabled":false,"rental_uris":{"android":"levelo://app?vid=f40aed78-b495-4d3a-bb9b-a4ce264d87f7","ios":"levelo://app?vid=f40aed78-b495-4d3a-bb9b-a4ce264d87f7"},"vehicle_type_id":"4","last_reported":1761602924,"current_range_meters":23200,"station_id":"ce4bh292rcd13ifvqdg0","pricing_plan_id":"cebpf4jnsgd1na2vs0mg"},{"bike_id":"1ff14011-1bb3-49a1-9941-97d38a0c81be","system_id":"levelo_inurba_marseille","lat":43.25082,"lon":5.39499,"is_reserved":false,"is_disabled":false,"rental_uris":{"android":"levelo://app?vid=1ff14011-1bb3-49a1-9941-97d38a0c81be","ios":"levelo://app?vid=1ff14011-1bb3-49a1-9941-97d38a0c81be"},"vehicle_type_id":"4","last_reported":1761602924,"current_range_meters":23200,"station_id":"ce4bhm12rcd13ifvqgkg","pricing_plan_id":"cebpf4jnsgd1na2vs0mg"},{"bike_id":"f3d99986-afd2-4c6b-9d42-25affd2acc92","system_id":"levelo_inurba_marseille","lat":43.3081,"lon":5.38162,"is_reserved":false,"is_disabled":false,"rental_uris":{"android":"levelo://app?vid=f3d99986-afd2-4c6b-9d42-25affd2acc92","ios":"levelo://app?vid=f3d99986-afd2-4c6b-9d42-25affd2acc92"},"vehicle_type_id":"4","last_reported":1761602924,"current_range_meters":23200,"station_id":"ce4bgt12rcd13ifvqce0","pricing_plan_id":"cebpf4jnsgd1na2vs0mg"},{"bike_id":"3fb7ea86-f296-46d1-be21-5c7e23f5a2c3","system_id":"levelo_inurba_marseille","lat":43.30927,"lon":5.40134,"is_reserved":false,"is_disabled":false,"rental_uris":{"android":"levelo://app?vid=3fb7ea86-f296-46d1-be21-5c7e23f5a2c3","ios":"levelo://app?vid=3fb7ea86-f296-46d1-be21-5c7e23f5a2c3"},"vehicle_type_id":"4","last_reported":1761602924,"current_range_meters":23200,"station_id":"ce4bgvp2rcd13ifvqct0","pricing_plan_id":"cebpf4jnsgd1na2vs0mg"},{"bike_id":"59de9532-cf0d-4948-8575-95bcb8cf957b","system_id":"levelo_inurba_marseille","lat":43.29614,"lon":5.38116,"is_reserved":false,"is_disabled":false,"rental_uris":{"android":"levelo://app?vid=59de9532-cf0d-4948-8575-95bcb8cf957b","ios":"levelo://app?vid=59de9532-cf0d-4948-8575-95bcb8cf957b"},"vehicle_type_id":"4","last_reported":1761602924,"current_range_meters":23200,"station_id":"ce4bgl12rcd13ifvqbo0","pricing_plan_id":"cebpf4jnsgd1na2vs0mg"},{"bike_id":"bb22a0a1-724c-473b-9c0a-fd40cc440f98","system_id":"levelo_inurba_marseille","lat":43.30149,"lon":5.38004,"is_reserved":false,"is_disabled":false,"rental_uris":{"android":"levelo://app?vid=bb22a0a1-724c-473b-9c0a-fd40cc440f98","ios":"levelo://app?vid=bb22a0a1-724c-473b-9c0a-fd40cc440f98"},"vehicle_type_id":"4","last_reported":1761602924,"current_range_meters":24000,"station_id":"","pricing_plan_id":"cebpf4jnsgd1na2vs0mg"},{"bike_id":"082fc939-cd32-4d4a-a92d-34b9edf1ebe2","system_id":"levelo_inurba_marseille","lat":43.30214,"lon":5.39466,"is_reserved":false,"is_disabled":false,"rental_uris":{"android":"levelo://app?vid=082fc939-cd32-4d4a-a92d-34b9edf1ebe2","ios":"levelo://app?vid=082fc939-cd32-4d4a-a92d-34b9edf1ebe2"},"vehicle_type_id":"4","last_reported":1761602924,"current_range_meters":24000,"station_id":"ce4bh0p2rcd13ifvqd70","pricing_plan_id":"cebpf4jnsgd1na2vs0mg"},{"bike_id":"29fedfcf-711f-4172-b067-9501d1ef7f5b","system_id":"levelo_inurba_marseille","lat":43.25508,"lon":5.37656,"is_reserved":false,"is_disabled":false,"rental_uris":{"android":"levelo://app?vid=29fedfcf-711f-4172-b067-9501d1ef7f5b","ios":"levelo://app?vid=29fedfcf-711f-4172-b067-9501d1ef7f5b"},"vehicle_type_id":"4","last_reported":1761602924,"current_range_meters":24000,"station_id":"ce4bhh12rcd13ifvqff0","pricing_plan_id":"cebpf4jnsgd1na2vs0mg"},{"bike_id":"12e79476-8963-4e95-a010-0ea2014f1c70","system_id":"levelo_inurba_marseille","lat":43.27816,"lon":5.40689,"is_reserved":false,"is_disabled":false,"rental_uris":{"android":"levelo://app?vid=12e79476-8963-4e95-a010-0ea2014f1c70","ios":"levelo://app?vid=12e79476-8963-4e95-a010-0ea2014f1c70"},"vehicle_type_id":"4","last_reported":1761602924,"current_range_meters":24000,"station_id":"ce4bhnh2rcd13ifvqgtg","pricing_plan_id":"cebpf4jnsgd1na2vs0mg"},{"bike_id":"faee4aed-34d1-4e59-9f3e-bc2337688920","system_id":"levelo_inurba_marseille","lat":43.317112,"lon":5.437102,"is_reserved":false,"is_disabled":true,"rental_uris":{"android":"levelo://app?vid=faee4aed-34d1-4e59-9f3e-bc2337688920","ios":"levelo://app?vid=faee4aed-34d1-4e59-9f3e-bc2337688920"},"vehicle_type_id":"4","last_reported":1761602924,"current_range_meters":24000,"station_id":"ce4bhp92rcd13ifvqhcg","pricing_plan_id":"cebpf4jnsgd1na2vs0mg"},