{"last_updated":1777035528,"ttl":60,"version":"2.2","data":{"bikes":[{"bike_id":"97aa55f3-b395-4ffc-9a9e-35d6914463e4","system_id":"levelo_inurba_marseille","lat":43.311567,"lon":5.396131,"is_reserved":false,"is_disabled":false,"rental_uris":{"android":"levelo://app?vid=97aa55f3-b395-4ffc-9a9e-35d6914463e4","ios":"levelo://app?vid=97aa55f3-b395-4ffc-9a9e-35d6914463e4"},"vehicle_type_id":"4","last_reported":1777035529,"current_range_meters":0,"station_id":"","pricing_plan_id":"cebpf4jnsgd1na2vs0mg"},{"bike_id":"77be6ae8-49bc-4b85-bdb3-48ed4a12e2c6","system_id":"levelo_inurba_marseille","lat":43.337444,"lon":5.374475,"is_reserved":false,"is_disabled":false,"rental_uris":{"android":"levelo://app?vid=77be6ae8-49bc-4b85-bdb3-48ed4a12e2c6","ios":"levelo://app?vid=77be6ae8-49bc-4b85-bdb3-48ed4a12e2c6"},"vehicle_type_id":"4","last_reported":1777035529,"current_range_meters":0,"station_id":"","pricing_plan_id":"cebpf4jnsgd1na2vs0mg"},{"bike_id":"e61bb3d8-a969-4bde-a825-7e18d668b4f7","system_id":"levelo_inurba_marseille","lat":43.337444,"lon":5.374475,"is_reserved":false,"is_disabled":false,"rental_uris":{"android":"levelo://app?vid=e61bb3d8-a969-4bde-a825-7e18d668b4f7","ios":"levelo://app?vid=e61bb3d8-a969-4bde-a825-7e18d668b4f7"},"vehicle_type_id":"4","last_reported":1777035529,"current_range_meters":0,"station_id":"","pricing_plan_id":"cebpf4jnsgd1na2vs0mg"},{"bike_id":"e4b23367-0af4-480e-af5f-cdf9fac0b0bc","system_id":"levelo_inurba_marseille","lat":43.3117,"lon":5.38716,"is_reserved":false,"is_disabled":false,"rental_uris":{"android":"levelo://app?vid=e4b23367-0af4-480e-af5f-cdf9fac0b0bc","ios":"levelo://app?vid=e4b23367-0af4-480e-af5f-cdf9fac0b0bc"},"vehicle_type_id":"4","last_reported":1777035529,"current_range_meters":2800,"station_id":"ce4bgv12rcd13ifvqcp0","pricing_plan_id":"cebpf4jnsgd1na2vs0mg"},{"bike_id":"eaa56526-29a5-4cc4-abc0-c621dd30f9a4","system_id":"levelo_inurba_marseille","lat":43.29262,"lon":5.4268,"is_reserved":false,"is_disabled":false,"rental_uris":{"android":"levelo://app?vid=eaa56526-29a5-4cc4-abc0-c621dd30f9a4","ios":"levelo://app?vid=eaa56526-29a5-4cc4-abc0-c621dd30f9a4"},"vehicle_type_id":"4","last_reported":1777035529,"current_range_meters":2800,"station_id":"","pricing_plan_id":"cebpf4jnsgd1na2vs0mg"},{"bike_id":"152c7728-e379-4705-bb8e-7aa7fb2d7345","system_id":"levelo_inurba_marseille","lat":43.23833,"lon":5.43566,"is_reserved":false,"is_disabled":false,"rental_uris":{"android":"levelo://app?vid=152c7728-e379-4705-bb8e-7aa7fb2d7345","ios":"levelo://app?vid=152c7728-e379-4705-bb8e-7aa7fb2d7345"},"vehicle_type_id":"4","last_reported":1777035529,"current_range_meters":2800,"station_id":"","pricing_plan_id":"cebpf4jnsgd1na2vs0mg"},{"bike_id":"b867ae37-2fc5-4c43-92c2-d9ee24c8ff41","system_id":"levelo_inurba_marseille","lat":43.24958,"lon":5.41748,"is_reserved":false,"is_disabled":false,"rental_uris":{"android":"levelo://app?vid=b867ae37-2fc5-4c43-92c2-d9ee24c8ff41","ios":"levelo://app?vid=b867ae37-2fc5-4c43-92c2-d9ee24c8ff41"},"vehicle_type_id":"4","last_reported":1777035529,"current_range_meters":3200,"station_id":"","pricing_plan_id":"cebpf4jnsgd1na2vs0mg"},{"bike_id":"70a66622-14a9-44a9-9ca6-673da52de339","system_id":"levelo_inurba_marseille","lat":43.30554,"lon":5.36678,"is_reserved":false,"is_disabled":false,"rental_uris":{"android":"levelo://app?vid=70a66622-14a9-44a9-9ca6-673da52de339","ios":"levelo://app?vid=70a66622-14a9-44a9-9ca6-673da52de339"},"vehicle_type_id":"4","last_reported":1777035529,"current_range_meters":3200,"station_id":"ce4bgrp2rcd13ifvqc9g","pricing_plan_id":"cebpf4jnsgd1na2vs0mg"},{"bike_id":"0923929c-d272-4fa1-a3d9-8f4c7a6f830d","system_id":"levelo_inurba_marseille","lat":43.30805,"lon":5.38179,"is_reserved":false,"is_disabled":false,"rental_uris":{"android":"levelo://app?vid=0923929c-d272-4fa1-a3d9-8f4c7a6f830d","ios":"levelo://app?vid=0923929c-d272-4fa1-a3d9-8f4c7a6f830d"},"vehicle_type_id":"4","last_reported":1777035529,"current_range_meters":3200,"station_id":"ce4bgt12rcd13ifvqce0","pricing_plan_id":"cebpf4jnsgd1na2vs0mg"},{"bike_id":"11cb33b3-ba92-4cc3-b2db-47ea308eb40c","system_id":"levelo_inurba_marseille","lat":43.29059,"lon":5.40034,"is_reserved":false,"is_disabled":true,"rental_uris":{"android":"levelo://app?vid=11cb33b3-ba92-4cc3-b2db-47ea308eb40c","ios":"levelo://app?vid=11cb33b3-ba92-4cc3-b2db-47ea308eb40c"},"vehicle_type_id":"4","last_reported":1777035529,"current_range_meters":3200,"station_id":"","pricing_plan_id":"cebpf4jnsgd1na2vs0mg"},{"bike_id":"00487807-0f98-4cc4-a2a4-409b24a440e7","system_id":"levelo_inurba_marseille","lat":43.3117,"lon":5.39328,"is_reserved":false,"is_disabled":false,"rental_uris":{"android":"levelo://app?vid=00487807-0f98-4cc4-a2a4-409b24a440e7","ios":"levelo://app?vid=00487807-0f98-4cc4-a2a4-409b24a440e7"},"vehicle_type_id":"4","last_reported":1777035529,"current_range_meters":3200,"station_id":"","pricing_plan_id":"cebpf4jnsgd1na2vs0mg"},{"bike_id":"c366be47-591a-4881-84b3-6ecaca0c6af3","system_id":"levelo_inurba_marseille","lat":43.330238,"lon":5.390502,"is_reserved":false,"is_disabled":false,"rental_uris":{"android":"levelo://app?vid=c366be47-591a-4881-84b3-6ecaca0c6af3","ios":"levelo://app?vid=c366be47-591a-4881-84b3-6ecaca0c6af3"},"vehicle_type_id":"4","last_reported":1777035529,"current_range_meters":3200,"station_id":"","pricing_plan_id":"cebpf4jnsgd1na2vs0mg"},{"bike_id":"7db8e5f3-3982-4808-8fb4-746a2f23f4b1","system_id":"levelo_inurba_marseille","lat":43.29342,"lon":5.4389,"is_reserved":false,"is_disabled":false,"rental_uris":{"android":"levelo://app?vid=7db8e5f3-3982-4808-8fb4-746a2f23f4b1","ios":"levelo://app?vid=7db8e5f3-3982-4808-8fb4-746a2f23f4b1"},"vehicle_type_id":"4","last_reported":1777035529,"current_range_meters":3600,"station_id":"","pricing_plan_id":"cebpf4jnsgd1na2vs0mg"},{"bike_id":"c3960c8c-4ae8-4b81-97c0-2b57e37bdf7e","system_id":"levelo_inurba_marseille","lat":43.28272,"lon":5.35071,"is_reserved":false,"is_disabled":false,"rental_uris":{"android":"levelo://app?vid=c3960c8c-4ae8-4b81-97c0-2b57e37bdf7e","ios":"levelo://app?vid=c3960c8c-4ae8-4b81-97c0-2b57e37bdf7e"},"vehicle_type_id":"4","last_reported":1777035529,"current_range_meters":3600,"station_id":"ce4bhbp2rcd13ifvqerg","pricing_plan_id":"cebpf4jnsgd1na2vs0mg"},{"bike_id":"8806bd2b-907c-4bbe-9321-5fb362f2c561","system_id":"levelo_inurba_marseille","lat":43.286124,"lon":5.351061,"is_reserved":false,"is_disabled":true,"rental_uris":{"android":"levelo://app?vid=8806bd2b-907c-4bbe-9321-5fb362f2c561","ios":"levelo://app?vid=8806bd2b-907c-4bbe-9321-5fb362f2c561"},"vehicle_type_id":"4","last_reported":1777035529,"current_range_meters":3600,"station_id":"ce4bhch2rcd13ifvqeug","pricing_plan_id":"cebpf4jnsgd1na2vs0mg"},{"bike_id":"d20b1795-5165-421a-99a4-9a0a2a61fe38","system_id":"levelo_inurba_marseille","lat":43.27909,"lon":5.38026,"is_reserved":false,"is_disabled":false,"rental_uris":{"android":"levelo://app?vid=d20b1795-5165-421a-99a4-9a0a2a61fe38","ios":"levelo://app?vid=d20b1795-5165-421a-99a4-9a0a2a61fe38"},"vehicle_type_id":"4","last_reported":1777035529,"current_range_meters":3600,"station_id":"ce4bhf92rcd13ifvqf50","pricing_plan_id":"cebpf4jnsgd1na2vs0mg"},{"bike_id":"878af95c-3670-4493-ac2f-72f707827912","system_id":"levelo_inurba_marseille","lat":43.2586,"lon":5.38877,"is_reserved":false,"is_disabled":false,"rental_uris":{"android":"levelo://app?vid=878af95c-3670-4493-ac2f-72f707827912","ios":"levelo://app?vid=878af95c-3670-4493-ac2f-72f707827912"},"vehicle_type_id":"4","last_reported":1777035529,"current_range_meters":3600,"station_id":"","pricing_plan_id":"cebpf4jnsgd1na2vs0mg"},{"bike_id":"179aa731-cb13-4bb4-af2c-4705d1a16c74","system_id":"levelo_inurba_marseille","lat":43.29886,"lon":5.38902,"is_reserved":false,"is_disabled":false,"rental_uris":{"android":"levelo://app?vid=179aa731-cb13-4bb4-af2c-4705d1a16c74","ios":"levelo://app?vid=179aa731-cb13-4bb4-af2c-4705d1a16c74"},"vehicle_type_id":"4","last_reported":1777035529,"current_range_meters":3600,"station_id":"ce4bh392rcd13ifvqdl0","pricing_plan_id":"cebpf4jnsgd1na2vs0mg"},{"bike_id":"e6cb6647-3e72-422a-86c7-56e5bf4979b7","system_id":"levelo_inurba_marseille","lat":43.28698,"lon":5.46677,"is_reserved":false,"is_disabled":false,"rental_uris":{"android":"levelo://app?vid=e6cb6647-3e72-422a-86c7-56e5bf4979b7","ios":"levelo://app?vid=e6cb6647-3e72-422a-86c7-56e5bf4979b7"},"vehicle_type_id":"4","last_reported":1777035529,"current_range_meters":3600,"station_id":"st_d6tc3vkotcvc738tfjhg","pricing_plan_id":"cebpf4jnsgd1na2vs0mg"},{"bike_id":"9c3677d0-627f-49f8-bd9c-64ba96ef4fce","system_id":"levelo_inurba_marseille","lat":43.28479,"lon":5.48388,"is_reserved":false,"is_disabled":false,"rental_uris":{"android":"levelo://app?vid=9c3677d0-627f-49f8-bd9c-64ba96ef4fce","ios":"levelo://app?vid=9c3677d0-627f-49f8-bd9c-64ba96ef4fce"},"vehicle_type_id":"4","last_reported":1777035529,"current_range_meters":3600,"station_id":"","pricing_plan_id":"cebpf4jnsgd1na2vs0mg"},{"bike_id":"37597b30-a2ac-4f44-b4f8-397d04af9e05","system_id":"levelo_inurba_marseille","lat":43.23956,"lon":5.36655,"is_reserved":false,"is_disabled":false,"rental_uris":{"android":"levelo://app?vid=37597b30-a2ac-4f44-b4f8-397d04af9e05","ios":"levelo://app?vid=37597b30-a2ac-4f44-b4f8-397d04af9e05"},"vehicle_type_id":"4","last_reported":1777035529,"current_range_meters":4000,"station_id":"ce4bhi12rcd13ifvqfp0","pricing_plan_id":"cebpf4jnsgd1na2vs0mg"},{"bike_id":"3a23e6c2-65c3-40ad-858d-44edcbe5d946","system_id":"levelo_inurba_marseille","lat":43.27073,"lon":5.42279,"is_reserved":false,"is_disabled":false,"rental_uris":{"android":"levelo://app?vid=3a23e6c2-65c3-40ad-858d-44edcbe5d946","ios":"levelo://app?vid=3a23e6c2-65c3-40ad-858d-44edcbe5d946"},"vehicle_type_id":"4","last_reported":1777035529,"current_range_meters":4000,"station_id":"ce4bhk92rcd13ifvqgb0","pricing_plan_id":"cebpf4jnsgd1na2vs0mg"},{"bike_id":"8f975cf4-69f4-4fd4-8c34-d7df8df21514","system_id":"levelo_inurba_marseille","lat":43.33771,"lon":5.37456,"is_reserved":false,"is_disabled":false,"rental_uris":{"android":"levelo://app?vid=8f975cf4-69f4-4fd4-8c34-d7df8df21514","ios":"levelo://app?vid=8f975cf4-69f4-4fd4-8c34-d7df8df21514"},"vehicle_type_id":"4","last_reported":1777035529,"current_range_meters":4000,"station_id":"st_d46cu089ee8s73dldbu0","pricing_plan_id":"cebpf4jnsgd1na2vs0mg"},{"bike_id":"dc3d93ea-ae84-4a55-9dbf-fa49417dc298","system_id":"levelo_inurba_marseille","lat":43.25744,"lon":5.38631,"is_reserved":false,"is_disabled":false,"rental_uris":{"android":"levelo://app?vid=dc3d93ea-ae84-4a55-9dbf-fa49417dc298","ios":"levelo://app?vid=dc3d93ea-ae84-4a55-9dbf-fa49417dc298"},"vehicle_type_id":"4","last_reported":1777035529,"current_range_meters":4000,"station_id":"","pricing_plan_id":"cebpf4jnsgd1na2vs0mg"},{"bike_id":"5e05e31c-d810-492f-887b-00641fbf626a","system_id":"levelo_inurba_marseille","lat":43.30387,"lon":5.4248,"is_reserved":false,"is_disabled":false,"rental_uris":{"android":"levelo://app?vid=5e05e31c-d810-492f-887b-00641fbf626a","ios":"levelo://app?vid=5e05e31c-d810-492f-887b-00641fbf626a"},"vehicle_type_id":"4","last_reported":1777035529,"current_range_meters":4000,"station_id":"ce4bhoh2rcd13ifvqh6g","pricing_plan_id":"cebpf4jnsgd1na2vs0mg"},{"bike_id":"fd5fb73b-979e-4a83-9b15-bbec95cb2a0a","system_id":"levelo_inurba_marseille","lat":43.26561,"lon":5.38981,"is_reserved":false,"is_disabled":false,"rental_uris":{"android":"levelo://app?vid=fd5fb73b-979e-4a83-9b15-bbec95cb2a0a","ios":"levelo://app?vid=fd5fb73b-979e-4a83-9b15-bbec95cb2a0a"},"vehicle_type_id":"4","last_reported":1777035529,"current_range_meters":4000,"station_id":"ce4bhe12rcd13ifvqf30","pricing_plan_id":"cebpf4jnsgd1na2vs0mg"},{"bike_id":"a9122612-d863-41f6-bd93-569ee6671569","system_id":"levelo_inurba_marseille","lat":43.2119,"lon":5.35064,"is_reserved":false,"is_disabled":false,"rental_uris":{"android":"levelo://app?vid=a9122612-d863-41f6-bd93-569ee6671569","ios":"levelo://app?vid=a9122612-d863-41f6-bd93-569ee6671569"},"vehicle_type_id":"4","last_reported":1777035529,"current_range_meters":4000,"station_id":"st_cvj6sg6p6f1abm77japg","pricing_plan_id":"cebpf4jnsgd1na2vs0mg"},{"bike_id":"32d5cbbf-15e1-489c-90ed-7fb63df55975","system_id":"levelo_inurba_marseille","lat":43.29542,"lon":5.38541,"is_reserved":false,"is_disabled":false,"rental_uris":{"android":"levelo://app?vid=32d5cbbf-15e1-489c-90ed-7fb63df55975","ios":"levelo://app?vid=32d5cbbf-15e1-489c-90ed-7fb63df55975"},"vehicle_type_id":"4","last_reported":1777035529,"current_range_meters":4400,"station_id":"ce4bgih2rcd13ifvqba0","pricing_plan_id":"cebpf4jnsgd1na2vs0mg"},{"bike_id":"449765e0-9409-42bf-b443-443ac72d6b30","system_id":"levelo_inurba_marseille","lat":43.29557,"lon":5.37499,"is_reserved":false,"is_disabled":true,"rental_uris":{"android":"levelo://app?vid=449765e0-9409-42bf-b443-443ac72d6b30","ios":"levelo://app?vid=449765e0-9409-42bf-b443-443ac72d6b30"},"vehicle_type_id":"4","last_reported":1777035529,"current_range_meters":4400,"station_id":"ce4bgh92rcd13ifvqb50","pricing_plan_id":"cebpf4jnsgd1na2vs0mg"},{"bike_id":"0295f708-b2e2-482f-8cb5-7e5caadd3ef3","system_id":"levelo_inurba_marseille","lat":43.3056,"lon":5.36692,"is_reserved":false,"is_disabled":false,"rental_uris":{"android":"levelo://app?vid=0295f708-b2e2-482f-8cb5-7e5caadd3ef3","ios":"levelo://app?vid=0295f708-b2e2-482f-8cb5-7e5caadd3ef3"},"vehicle_type_id":"4","last_reported":1777035529,"current_range_meters":4400,"station_id":"ce4bgrp2rcd13ifvqc9g","pricing_plan_id":"cebpf4jnsgd1na2vs0mg"},{"bike_id":"a767dc6e-2f51-4d71-9e29-f318a1beff69","system_id":"levelo_inurba_marseille","lat":43.30017,"lon":5.36534,"is_reserved":false,"is_disabled":false,"rental_uris":{"android":"levelo://app?vid=a767dc6e-2f51-4d71-9e29-f318a1beff69","ios":"levelo://app?vid=a767dc6e-2f51-4d71-9e29-f318a1beff69"},"vehicle_type_id":"4","last_reported":1777035529,"current_range_meters":4400,"station_id":"","pricing_plan_id":"cebpf4jnsgd1na2vs0mg"},{"bike_id":"4bdba7f8-5bc3-4053-ac17-038e734767dd","system_id":"levelo_inurba_marseille","lat":43.323583,"lon":5.36734,"is_reserved":false,"is_disabled":false,"rental_uris":{"android":"levelo://app?vid=4bdba7f8-5bc3-4053-ac17-038e734767dd","ios":"levelo://app?vid=4bdba7f8-5bc3-4053-ac17-038e734767dd"},"vehicle_type_id":"4","last_reported":1777035529,"current_range_meters":4400,"station_id":"ce4bhsh2rcd13ifvqi2g","pricing_plan_id":"cebpf4jnsgd1na2vs0mg"},{"bike_id":"36f8212c-34c3-4ad4-9d69-b2628b26e73b","system_id":"levelo_inurba_marseille","lat":43.30875,"lon":5.38896,"is_reserved":false,"is_disabled":false,"rental_uris":{"android":"levelo://app?vid=36f8212c-34c3-4ad4-9d69-b2628b26e73b","ios":"levelo://app?vid=36f8212c-34c3-4ad4-9d69-b2628b26e73b"},"vehicle_type_id":"4","last_reported":1777035529,"current_range_meters":4400,"station_id":"ce4bgup2rcd13ifvqco0","pricing_plan_id":"cebpf4jnsgd1na2vs0mg"},{"bike_id":"fe71d88c-72d6-4700-b7d2-f22ec68908c5","system_id":"levelo_inurba_marseille","lat":43.29015,"lon":5.3812,"is_reserved":false,"is_disabled":false,"rental_uris":{"android":"levelo://app?vid=fe71d88c-72d6-4700-b7d2-f22ec68908c5","ios":"levelo://app?vid=fe71d88c-72d6-4700-b7d2-f22ec68908c5"},"vehicle_type_id":"4","last_reported":1777035529,"current_range_meters":4400,"station_id":"ce4bh4p2rcd13ifvqe1g","pricing_plan_id":"cebpf4jnsgd1na2vs0mg"},{"bike_id":"77bae04d-b155-4a06-9049-fda6a4b9e974","system_id":"levelo_inurba_marseille","lat":43.29147,"lon":5.42616,"is_reserved":false,"is_disabled":false,"rental_uris":{"android":"levelo://app?vid=77bae04d-b155-4a06-9049-fda6a4b9e974","ios":"levelo://app?vid=77bae04d-b155-4a06-9049-fda6a4b9e974"},"vehicle_type_id":"4","last_reported":1777035529,"current_range_meters":4800,"station_id":"","pricing_plan_id":"cebpf4jnsgd1na2vs0mg"},{"bike_id":"95bceca6-f8b7-448a-b3c1-8137cab0b629","system_id":"levelo_inurba_marseille","lat":43.28027,"lon":5.35374,"is_reserved":false,"is_disabled":false,"rental_uris":{"android":"levelo://app?vid=95bceca6-f8b7-448a-b3c1-8137cab0b629","ios":"levelo://app?vid=95bceca6-f8b7-448a-b3c1-8137cab0b629"},"vehicle_type_id":"4","last_reported":1777035529,"current_range_meters":4800,"station_id":"","pricing_plan_id":"cebpf4jnsgd1na2vs0mg"},{"bike_id":"72b57949-4e4d-4682-9b48-92f3b300104b","system_id":"levelo_inurba_marseille","lat":43.28694,"lon":5.39978,"is_reserved":false,"is_disabled":false,"rental_uris":{"android":"levelo://app?vid=72b57949-4e4d-4682-9b48-92f3b300104b","ios":"levelo://app?vid=72b57949-4e4d-4682-9b48-92f3b300104b"},"vehicle_type_id":"4","last_reported":1777035529,"current_range_meters":4800,"station_id":"ce4bho92rcd13ifvqh3g","pricing_plan_id":"cebpf4jnsgd1na2vs0mg"},{"bike_id":"81def9a7-5314-4f5d-a2f6-f79f71c63ca0","system_id":"levelo_inurba_marseille","lat":43.2737,"lon":5.36243,"is_reserved":false,"is_disabled":false,"rental_uris":{"android":"levelo://app?vid=81def9a7-5314-4f5d-a2f6-f79f71c63ca0","ios":"levelo://app?vid=81def9a7-5314-4f5d-a2f6-f79f71c63ca0"},"vehicle_type_id":"4","last_reported":1777035529,"current_range_meters":4800,"station_id":"ce4bhbh2rcd13ifvqeo0","pricing_plan_id":"cebpf4jnsgd1na2vs0mg"},{"bike_id":"fc7363fe-b04d-489a-9727-90ca30e7bca6","system_id":"levelo_inurba_marseille","lat":43.31807,"lon":5.39023,"is_reserved":false,"is_disabled":false,"rental_uris":{"android":"levelo://app?vid=fc7363fe-b04d-489a-9727-90ca30e7bca6","ios":"levelo://app?vid=fc7363fe-b04d-489a-9727-90ca30e7bca6"},"vehicle_type_id":"4","last_reported":1777035529,"current_range_meters":5600,"station_id":"","pricing_plan_id":"cebpf4jnsgd1na2vs0mg"},{"bike_id":"ff90e205-8304-4577-8de7-0666007c4a9e","system_id":"levelo_inurba_marseille","lat":43.25338,"lon":5.42168,"is_reserved":false,"is_disabled":false,"rental_uris":{"android":"levelo://app?vid=ff90e205-8304-4577-8de7-0666007c4a9e","ios":"levelo://app?vid=ff90e205-8304-4577-8de7-0666007c4a9e"},"vehicle_type_id":"4","last_reported":1777035529,"current_range_meters":5600,"station_id":"st_d2m65c5bi1j21697t3ng","pricing_plan_id":"cebpf4jnsgd1na2vs0mg"},{"bike_id":"4fb8ad9c-f577-4ab1-bacf-dc2e627f0e7d","system_id":"levelo_inurba_marseille","lat":43.27485,"lon":5.41582,"is_reserved":false,"is_disabled":false,"rental_uris":{"android":"levelo://app?vid=4fb8ad9c-f577-4ab1-bacf-dc2e627f0e7d","ios":"levelo://app?vid=4fb8ad9c-f577-4ab1-bacf-dc2e627f0e7d"},"vehicle_type_id":"4","last_reported":1777035529,"current_range_meters":5600,"station_id":"st_d6im8g6chgec73a5pndg","pricing_plan_id":"cebpf4jnsgd1na2vs0mg"},{"bike_id":"f5b3d3ce-7b01-409d-a94f-dcb15f6ebd07","system_id":"levelo_inurba_marseille","lat":43.31364,"lon":5.38482,"is_reserved":false,"is_disabled":false,"rental_uris":{"android":"levelo://app?vid=f5b3d3ce-7b01-409d-a94f-dcb15f6ebd07","ios":"levelo://app?vid=f5b3d3ce-7b01-409d-a94f-dcb15f6ebd07"},"vehicle_type_id":"4","last_reported":1777035529,"current_range_meters":5600,"station_id":"ce4bgt92rcd13ifvqcf0","pricing_plan_id":"cebpf4jnsgd1na2vs0mg"},{"bike_id":"317213aa-694d-4877-9dcc-586bcc282c8c","system_id":"levelo_inurba_marseille","lat":43.28673,"lon":5.46658,"is_reserved":false,"is_disabled":false,"rental_uris":{"android":"levelo://app?vid=317213aa-694d-4877-9dcc-586bcc282c8c","ios":"levelo://app?vid=317213aa-694d-4877-9dcc-586bcc282c8c"},"vehicle_type_id":"4","last_reported":1777035529,"current_range_meters":5600,"station_id":"st_d6tc3vkotcvc738tfjhg","pricing_plan_id":"cebpf4jnsgd1na2vs0mg"},{"bike_id":"ecdd1e60-1fc1-490d-889b-d83c1e7933b8","system_id":"levelo_inurba_marseille","lat":43.23962,"lon":5.36627,"is_reserved":false,"is_disabled":false,"rental_uris":{"android":"levelo://app?vid=ecdd1e60-1fc1-490d-889b-d83c1e7933b8","ios":"levelo://app?vid=ecdd1e60-1fc1-490d-889b-d83c1e7933b8"},"vehicle_type_id":"4","last_reported":1777035529,"current_range_meters":6000,"station_id":"ce4bhi12rcd13ifvqfp0","pricing_plan_id":"cebpf4jnsgd1na2vs0mg"},{"bike_id":"ea3c1786-161a-49ba-9999-4db433e959c3","system_id":"levelo_inurba_marseille","lat":43.24455,"lon":5.40901,"is_reserved":false,"is_disabled":false,"rental_uris":{"android":"levelo://app?vid=ea3c1786-161a-49ba-9999-4db433e959c3","ios":"levelo://app?vid=ea3c1786-161a-49ba-9999-4db433e959c3"},"vehicle_type_id":"4","last_reported":1777035529,"current_range_meters":6000,"station_id":"","pricing_plan_id":"cebpf4jnsgd1na2vs0mg"},{"bike_id":"21487210-13dc-48c0-a7ab-e9a4cab8fb19","system_id":"levelo_inurba_marseille","lat":43.28119,"lon":5.37858,"is_reserved":false,"is_disabled":false,"rental_uris":{"android":"levelo://app?vid=21487210-13dc-48c0-a7ab-e9a4cab8fb19","ios":"levelo://app?vid=21487210-13dc-48c0-a7ab-e9a4cab8fb19"},"vehicle_type_id":"4","last_reported":1777035529,"current_range_meters":6000,"station_id":"ce4bha12rcd13ifvqee0","pricing_plan_id":"cebpf4jnsgd1na2vs0mg"},{"bike_id":"93198ba0-23a7-4eec-af57-776af5f10108","system_id":"levelo_inurba_marseille","lat":43.33939,"lon":5.41518,"is_reserved":false,"is_disabled":false,"rental_uris":{"android":"levelo://app?vid=93198ba0-23a7-4eec-af57-776af5f10108","ios":"levelo://app?vid=93198ba0-23a7-4eec-af57-776af5f10108"},"vehicle_type_id":"4","last_reported":1777035529,"current_range_meters":6000,"station_id":"","pricing_plan_id":"cebpf4jnsgd1na2vs0mg"},{"bike_id":"584cdce0-810e-4b55-bd3b-08e2bfb93074","system_id":"levelo_inurba_marseille","lat":43.22565,"lon":5.41609,"is_reserved":false,"is_disabled":false,"rental_uris":{"android":"levelo://app?vid=584cdce0-810e-4b55-bd3b-08e2bfb93074","ios":"levelo://app?vid=584cdce0-810e-4b55-bd3b-08e2bfb93074"},"vehicle_type_id":"4","last_reported":1777035529,"current_range_meters":6000,"station_id":"st_d2o4gvlbi1j2169b742g","pricing_plan_id":"cebpf4jnsgd1na2vs0mg"},{"bike_id":"5db6f83f-fddb-47f0-ac22-d3e80e4a0795","system_id":"levelo_inurba_marseille","lat":43.26184,"lon":5.37405,"is_reserved":false,"is_disabled":false,"rental_uris":{"android":"levelo://app?vid=5db6f83f-fddb-47f0-ac22-d3e80e4a0795","ios":"levelo://app?vid=5db6f83f-fddb-47f0-ac22-d3e80e4a0795"},"vehicle_type_id":"4","last_reported":1777035529,"current_range_meters":6000,"station_id":"ce4bhgp2rcd13ifvqfc0","pricing_plan_id":"cebpf4jnsgd1na2vs0mg"},{"bike_id":"52872e85-ba09-4235-b5eb-7a3e66f64ba9","system_id":"levelo_inurba_marseille","lat":43.28268,"lon":5.35076,"is_reserved":false,"is_disabled":false,"rental_uris":{"android":"levelo://app?vid=52872e85-ba09-4235-b5eb-7a3e66f64ba9","ios":"levelo://app?vid=52872e85-ba09-4235-b5eb-7a3e66f64ba9"},"vehicle_type_id":"4","last_reported":1777035529,"current_range_meters":6000,"station_id":"ce4bhbp2rcd13ifvqerg","pricing_plan_id":"cebpf4jnsgd1na2vs0mg"},{"bike_id":"6811ea4a-4bf3-423f-98e0-609b97b2497c","system_id":"levelo_inurba_marseille","lat":43.24171,"lon":5.36396,"is_reserved":false,"is_disabled":false,"rental_uris":{"android":"levelo://app?vid=6811ea4a-4bf3-423f-98e0-609b97b2497c","ios":"levelo://app?vid=6811ea4a-4bf3-423f-98e0-609b97b2497c"},"vehicle_type_id":"4","last_reported":1777035529,"current_range_meters":6000,"station_id":"cpo36qri1sfpv3e86is0","pricing_plan_id":"cebpf4jnsgd1na2vs0mg"},{"bike_id":"5ca2ce6b-5648-459e-bd33-fceb53f85b84","system_id":"levelo_inurba_marseille","lat":43.24467,"lon":5.42532,"is_reserved":false,"is_disabled":false,"rental_uris":{"android":"levelo://app?vid=5ca2ce6b-5648-459e-bd33-fceb53f85b84","ios":"levelo://app?vid=5ca2ce6b-5648-459e-bd33-fceb53f85b84"},"vehicle_type_id":"4","last_reported":1777035529,"current_range_meters":6000,"station_id":"st_d4a3vfp97mjs738cd8kg","pricing_plan_id":"cebpf4jnsgd1na2vs0mg"},{"bike_id":"5d0aa437-a19b-48fd-a342-b372d2beff72","system_id":"levelo_inurba_marseille","lat":43.29711,"lon":5.37678,"is_reserved":false,"is_disabled":false,"rental_uris":{"android":"levelo://app?vid=5d0aa437-a19b-48fd-a342-b372d2beff72","ios":"levelo://app?vid=5d0aa437-a19b-48fd-a342-b372d2beff72"},"vehicle_type_id":"4","last_reported":1777035529,"current_range_meters":6400,"station_id":"ce4bgkh2rcd13ifvqbl0","pricing_plan_id":"cebpf4jnsgd1na2vs0mg"},{"bike_id":"0ca37b37-5fcc-4d25-950e-6a9748109b48","system_id":"levelo_inurba_marseille","lat":43.24394,"lon":5.3705,"is_reserved":false,"is_disabled":false,"rental_uris":{"android":"levelo://app?vid=0ca37b37-5fcc-4d25-950e-6a9748109b48","ios":"levelo://app?vid=0ca37b37-5fcc-4d25-950e-6a9748109b48"},"vehicle_type_id":"4","last_reported":1777035529,"current_range_meters":6400,"station_id":"ce4bhhh2rcd13ifvqfk0","pricing_plan_id":"cebpf4jnsgd1na2vs0mg"},{"bike_id":"53d0b464-9d84-4ebb-a788-233487c8451c","system_id":"levelo_inurba_marseille","lat":43.33261,"lon":5.37783,"is_reserved":false,"is_disabled":false,"rental_uris":{"android":"levelo://app?vid=53d0b464-9d84-4ebb-a788-233487c8451c","ios":"levelo://app?vid=53d0b464-9d84-4ebb-a788-233487c8451c"},"vehicle_type_id":"4","last_reported":1777035529,"current_range_meters":6400,"station_id":"","pricing_plan_id":"cebpf4jnsgd1na2vs0mg"},{"bike_id":"201ac2d6-c8bf-45d1-8a4b-a987b77471a8","system_id":"levelo_inurba_marseille","lat":43.24756,"lon":5.3744,"is_reserved":false,"is_disabled":false,"rental_uris":{"android":"levelo://app?vid=201ac2d6-c8bf-45d1-8a4b-a987b77471a8","ios":"levelo://app?vid=201ac2d6-c8bf-45d1-8a4b-a987b77471a8"},"vehicle_type_id":"4","last_reported":1777035529,"current_range_meters":6400,"station_id":"ce4bhgh2rcd13ifvqfb0","pricing_plan_id":"cebpf4jnsgd1na2vs0mg"},{"bike_id":"89cb976b-df3a-46fc-a9ef-0025de561630","system_id":"levelo_inurba_marseille","lat":43.29424,"lon":5.43385,"is_reserved":false,"is_disabled":false,"rental_uris":{"android":"levelo://app?vid=89cb976b-df3a-46fc-a9ef-0025de561630","ios":"levelo://app?vid=89cb976b-df3a-46fc-a9ef-0025de561630"},"vehicle_type_id":"4","last_reported":1777035529,"current_range_meters":6400,"station_id":"","pricing_plan_id":"cebpf4jnsgd1na2vs0mg"},{"bike_id":"95759743-a668-48aa-9514-817b71895c10","system_id":"levelo_inurba_marseille","lat":43.28691,"lon":5.46672,"is_reserved":false,"is_disabled":false,"rental_uris":{"android":"levelo://app?vid=95759743-a668-48aa-9514-817b71895c10","ios":"levelo://app?vid=95759743-a668-48aa-9514-817b71895c10"},"vehicle_type_id":"4","last_reported":1777035529,"current_range_meters":6400,"station_id":"st_d6tc3vkotcvc738tfjhg","pricing_plan_id":"cebpf4jnsgd1na2vs0mg"},{"bike_id":"94cba150-625c-4414-8335-3b2ac06d59b4","system_id":"levelo_inurba_marseille","lat":43.33774,"lon":5.37424,"is_reserved":false,"is_disabled":false,"rental_uris":{"android":"levelo://app?vid=94cba150-625c-4414-8335-3b2ac06d59b4","ios":"levelo://app?vid=94cba150-625c-4414-8335-3b2ac06d59b4"},"vehicle_type_id":"4","last_reported":1777035529,"current_range_meters":6400,"station_id":"","pricing_plan_id":"cebpf4jnsgd1na2vs0mg"},{"bike_id":"92d3361c-fd19-4bc8-b338-c371abd195ae","system_id":"levelo_inurba_marseille","lat":43.30931,"lon":5.36852,"is_reserved":false,"is_disabled":false,"rental_uris":{"android":"levelo://app?vid=92d3361c-fd19-4bc8-b338-c371abd195ae","ios":"levelo://app?vid=92d3361c-fd19-4bc8-b338-c371abd195ae"},"vehicle_type_id":"4","last_reported":1777035529,"current_range_meters":6400,"station_id":"ce4bgn92rcd13ifvqbvg","pricing_plan_id":"cebpf4jnsgd1na2vs0mg"},{"bike_id":"c74e7ee5-170a-4af2-a8e4-76bfacac00e4","system_id":"levelo_inurba_marseille","lat":43.24187,"lon":5.39713,"is_reserved":false,"is_disabled":false,"rental_uris":{"android":"levelo://app?vid=c74e7ee5-170a-4af2-a8e4-76bfacac00e4","ios":"levelo://app?vid=c74e7ee5-170a-4af2-a8e4-76bfacac00e4"},"vehicle_type_id":"4","last_reported":1777035529,"current_range_meters":6400,"station_id":"ce4bhn12rcd13ifvqgpg","pricing_plan_id":"cebpf4jnsgd1na2vs0mg"},{"bike_id":"c9d5923c-76ae-4b88-b1c9-f8bf58d80af2","system_id":"levelo_inurba_marseille","lat":43.27361,"lon":5.36228,"is_reserved":false,"is_disabled":false,"rental_uris":{"android":"levelo://app?vid=c9d5923c-76ae-4b88-b1c9-f8bf58d80af2","ios":"levelo://app?vid=c9d5923c-76ae-4b88-b1c9-f8bf58d80af2"},"vehicle_type_id":"4","last_reported":1777035529,"current_range_meters":6400,"station_id":"ce4bhbh2rcd13ifvqeo0","pricing_plan_id":"cebpf4jnsgd1na2vs0mg"},{"bike_id":"f19c86c4-6371-4660-8b41-d869c6b672ed","system_id":"levelo_inurba_marseille","lat":43.26208,"lon":5.37925,"is_reserved":false,"is_disabled":false,"rental_uris":{"android":"levelo://app?vid=f19c86c4-6371-4660-8b41-d869c6b672ed","ios":"levelo://app?vid=f19c86c4-6371-4660-8b41-d869c6b672ed"},"vehicle_type_id":"4","last_reported":1777035529,"current_range_meters":6400,"station_id":"ce4bhjp2rcd13ifvqg90","pricing_plan_id":"cebpf4jnsgd1na2vs0mg"},{"bike_id":"27c42ac1-b3ae-44d2-a7ac-ec95314cb289","system_id":"levelo_inurba_marseille","lat":43.2841,"lon":5.34976,"is_reserved":false,"is_disabled":false,"rental_uris":{"android":"levelo://app?vid=27c42ac1-b3ae-44d2-a7ac-ec95314cb289","ios":"levelo://app?vid=27c42ac1-b3ae-44d2-a7ac-ec95314cb289"},"vehicle_type_id":"4","last_reported":1777035529,"current_range_meters":6800,"station_id":"ce4bhbh2rcd13ifvqepg","pricing_plan_id":"cebpf4jnsgd1na2vs0mg"},{"bike_id":"626bbf9e-9d32-46a2-94bd-2fd24c11cedd","system_id":"levelo_inurba_marseille","lat":43.30136,"lon":5.38103,"is_reserved":false,"is_disabled":false,"rental_uris":{"android":"levelo://app?vid=626bbf9e-9d32-46a2-94bd-2fd24c11cedd","ios":"levelo://app?vid=626bbf9e-9d32-46a2-94bd-2fd24c11cedd"},"vehicle_type_id":"4","last_reported":1777035529,"current_range_meters":6800,"station_id":"ce4bgjp2rcd13ifvqbh0","pricing_plan_id":"cebpf4jnsgd1na2vs0mg"},{"bike_id":"146def8f-c25a-4a36-bb78-c0e04f65294e","system_id":"levelo_inurba_marseille","lat":43.28878,"lon":5.43038,"is_reserved":false,"is_disabled":false,"rental_uris":{"android":"levelo://app?vid=146def8f-c25a-4a36-bb78-c0e04f65294e","ios":"levelo://app?vid=146def8f-c25a-4a36-bb78-c0e04f65294e"},"vehicle_type_id":"4","last_reported":1777035529,"current_range_meters":6800,"station_id":"","pricing_plan_id":"cebpf4jnsgd1na2vs0mg"},{"bike_id":"1271dd10-76a9-492a-8c22-c3d053d6c607","system_id":"levelo_inurba_marseille","lat":43.29752,"lon":5.37639,"is_reserved":false,"is_disabled":false,"rental_uris":{"android":"levelo://app?vid=1271dd10-76a9-492a-8c22-c3d053d6c607","ios":"levelo://app?vid=1271dd10-76a9-492a-8c22-c3d053d6c607"},"vehicle_type_id":"4","last_reported":1777035529,"current_range_meters":6800,"station_id":"ce4bgkh2rcd13ifvqbl0","pricing_plan_id":"cebpf4jnsgd1na2vs0mg"},{"bike_id":"64a4b08b-a104-498b-b710-8a456a1d974f","system_id":"levelo_inurba_marseille","lat":43.28418,"lon":5.34981,"is_reserved":false,"is_disabled":false,"rental_uris":{"android":"levelo://app?vid=64a4b08b-a104-498b-b710-8a456a1d974f","ios":"levelo://app?vid=64a4b08b-a104-498b-b710-8a456a1d974f"},"vehicle_type_id":"4","last_reported":1777035529,"current_range_meters":6800,"station_id":"ce4bhbh2rcd13ifvqepg","pricing_plan_id":"cebpf4jnsgd1na2vs0mg"},{"bike_id":"c9f5fe46-4569-43d9-9fe8-efe3d4475c5b","system_id":"levelo_inurba_marseille","lat":43.26072,"lon":5.39391,"is_reserved":false,"is_disabled":false,"rental_uris":{"android":"levelo://app?vid=c9f5fe46-4569-43d9-9fe8-efe3d4475c5b","ios":"levelo://app?vid=c9f5fe46-4569-43d9-9fe8-efe3d4475c5b"},"vehicle_type_id":"4","last_reported":1777035529,"current_range_meters":6800,"station_id":"ce4bhh92rcd13ifvqfj0","pricing_plan_id":"cebpf4jnsgd1na2vs0mg"},{"bike_id":"00540f6c-b5bb-496b-bb52-f1ff4808075d","system_id":"levelo_inurba_marseille","lat":43.2823,"lon":5.40566,"is_reserved":false,"is_disabled":false,"rental_uris":{"android":"levelo://app?vid=00540f6c-b5bb-496b-bb52-f1ff4808075d","ios":"levelo://app?vid=00540f6c-b5bb-496b-bb52-f1ff4808075d"},"vehicle_type_id":"4","last_reported":1777035529,"current_range_meters":6800,"station_id":"","pricing_plan_id":"cebpf4jnsgd1na2vs0mg"},{"bike_id":"6efae23b-4853-4978-a046-e2118aa389db","system_id":"levelo_inurba_marseille","lat":43.294624,"lon":5.382144,"is_reserved":false,"is_disabled":false,"rental_uris":{"android":"levelo://app?vid=6efae23b-4853-4978-a046-e2118aa389db","ios":"levelo://app?vid=6efae23b-4853-4978-a046-e2118aa389db"},"vehicle_type_id":"4","last_reported":1777035529,"current_range_meters":6800,"station_id":"","pricing_plan_id":"cebpf4jnsgd1na2vs0mg"},{"bike_id":"f3aa76b9-62b2-486d-9cd0-97cdf6253951","system_id":"levelo_inurba_marseille","lat":43.30478,"lon":5.37901,"is_reserved":false,"is_disabled":false,"rental_uris":{"android":"levelo://app?vid=f3aa76b9-62b2-486d-9cd0-97cdf6253951","ios":"levelo://app?vid=f3aa76b9-62b2-486d-9cd0-97cdf6253951"},"vehicle_type_id":"4","last_reported":1777035529,"current_range_meters":6800,"station_id":"ce4bgup2rcd13ifvqcn0","pricing_plan_id":"cebpf4jnsgd1na2vs0mg"},{"bike_id":"f1cffc7b-9140-4f3f-acd5-1357e8e47054","system_id":"levelo_inurba_marseille","lat":43.225228,"lon":5.348328,"is_reserved":false,"is_disabled":false,"rental_uris":{"android":"levelo://app?vid=f1cffc7b-9140-4f3f-acd5-1357e8e47054","ios":"levelo://app?vid=f1cffc7b-9140-4f3f-acd5-1357e8e47054"},"vehicle_type_id":"4","last_reported":1777035529,"current_range_meters":6800,"station_id":"st_cvj5dfep6f1abm77gieg","pricing_plan_id":"cebpf4jnsgd1na2vs0mg"},{"bike_id":"e72bc944-866d-473d-b992-97bc39ac17be","system_id":"levelo_inurba_marseille","lat":43.25853,"lon":5.39876,"is_reserved":false,"is_disabled":false,"rental_uris":{"android":"levelo://app?vid=e72bc944-866d-473d-b992-97bc39ac17be","ios":"levelo://app?vid=e72bc944-866d-473d-b992-97bc39ac17be"},"vehicle_type_id":"4","last_reported":1777035529,"current_range_meters":6800,"station_id":"ce4bhl92rcd13ifvqghg","pricing_plan_id":"cebpf4jnsgd1na2vs0mg"},{"bike_id":"244855bb-22fd-44d2-b082-386e78830fea","system_id":"levelo_inurba_marseille","lat":43.2508,"lon":5.40353,"is_reserved":false,"is_disabled":false,"rental_uris":{"android":"levelo://app?vid=244855bb-22fd-44d2-b082-386e78830fea","ios":"levelo://app?vid=244855bb-22fd-44d2-b082-386e78830fea"},"vehicle_type_id":"4","last_reported":1777035529,"current_range_meters":6800,"station_id":"ce4bhlh2rcd13ifvqgig","pricing_plan_id":"cebpf4jnsgd1na2vs0mg"},{"bike_id":"45f77afe-bd1c-42b5-b91c-57d8ff1fd515","system_id":"levelo_inurba_marseille","lat":43.29001,"lon":5.37149,"is_reserved":false,"is_disabled":false,"rental_uris":{"android":"levelo://app?vid=45f77afe-bd1c-42b5-b91c-57d8ff1fd515","ios":"levelo://app?vid=45f77afe-bd1c-42b5-b91c-57d8ff1fd515"},"vehicle_type_id":"4","last_reported":1777035529,"current_range_meters":7200,"station_id":"","pricing_plan_id":"cebpf4jnsgd1na2vs0mg"},{"bike_id":"9214ca16-7831-4211-97af-5d55de5d4a5e","system_id":"levelo_inurba_marseille","lat":43.33164,"lon":5.3768,"is_reserved":false,"is_disabled":false,"rental_uris":{"android":"levelo://app?vid=9214ca16-7831-4211-97af-5d55de5d4a5e","ios":"levelo://app?vid=9214ca16-7831-4211-97af-5d55de5d4a5e"},"vehicle_type_id":"4","last_reported":1777035529,"current_range_meters":7200,"station_id":"st_d46cu089ee8s73dldbu0","pricing_plan_id":"cebpf4jnsgd1na2vs0mg"},{"bike_id":"27cd71a7-0940-4415-a67f-21597fbf1cd9","system_id":"levelo_inurba_marseille","lat":43.33016,"lon":5.39042,"is_reserved":false,"is_disabled":false,"rental_uris":{"android":"levelo://app?vid=27cd71a7-0940-4415-a67f-21597fbf1cd9","ios":"levelo://app?vid=27cd71a7-0940-4415-a67f-21597fbf1cd9"},"vehicle_type_id":"4","last_reported":1777035529,"current_range_meters":7200,"station_id":"ce4bhr92rcd13ifvqhrg","pricing_plan_id":"cebpf4jnsgd1na2vs0mg"},{"bike_id":"dcbb0301-f04f-4a5d-98e4-cee440799b69","system_id":"levelo_inurba_marseille","lat":43.29234,"lon":5.36089,"is_reserved":false,"is_disabled":false,"rental_uris":{"android":"levelo://app?vid=dcbb0301-f04f-4a5d-98e4-cee440799b69","ios":"levelo://app?vid=dcbb0301-f04f-4a5d-98e4-cee440799b69"},"vehicle_type_id":"4","last_reported":1777035529,"current_range_meters":7200,"station_id":"ce4bhbh2rcd13ifvqeqg","pricing_plan_id":"cebpf4jnsgd1na2vs0mg"},{"bike_id":"55f585b9-cb27-49d4-ab67-b14346195d8c","system_id":"levelo_inurba_marseille","lat":43.2876,"lon":5.46673,"is_reserved":false,"is_disabled":false,"rental_uris":{"android":"levelo://app?vid=55f585b9-cb27-49d4-ab67-b14346195d8c","ios":"levelo://app?vid=55f585b9-cb27-49d4-ab67-b14346195d8c"},"vehicle_type_id":"4","last_reported":1777035529,"current_range_meters":7200,"station_id":"","pricing_plan_id":"cebpf4jnsgd1na2vs0mg"},{"bike_id":"cec254d1-30f5-4acf-9895-5c216996a429","system_id":"levelo_inurba_marseille","lat":43.27365,"lon":5.36243,"is_reserved":false,"is_disabled":false,"rental_uris":{"android":"levelo://app?vid=cec254d1-30f5-4acf-9895-5c216996a429","ios":"levelo://app?vid=cec254d1-30f5-4acf-9895-5c216996a429"},"vehicle_type_id":"4","last_reported":1777035529,"current_range_meters":7200,"station_id":"ce4bhbh2rcd13ifvqeo0","pricing_plan_id":"cebpf4jnsgd1na2vs0mg"},{"bike_id":"e1a4c3a2-5246-41a5-ad98-88ddb8bc24c4","system_id":"levelo_inurba_marseille","lat":43.31808,"lon":5.39023,"is_reserved":false,"is_disabled":false,"rental_uris":{"android":"levelo://app?vid=e1a4c3a2-5246-41a5-ad98-88ddb8bc24c4","ios":"levelo://app?vid=e1a4c3a2-5246-41a5-ad98-88ddb8bc24c4"},"vehicle_type_id":"4","last_reported":1777035529,"current_range_meters":7200,"station_id":"","pricing_plan_id":"cebpf4jnsgd1na2vs0mg"},{"bike_id":"50b3537d-0369-460e-8281-426df86e0856","system_id":"levelo_inurba_marseille","lat":43.30071,"lon":5.36431,"is_reserved":false,"is_disabled":false,"rental_uris":{"android":"levelo://app?vid=50b3537d-0369-460e-8281-426df86e0856","ios":"levelo://app?vid=50b3537d-0369-460e-8281-426df86e0856"},"vehicle_type_id":"4","last_reported":1777035529,"current_range_meters":7200,"station_id":"","pricing_plan_id":"cebpf4jnsgd1na2vs0mg"},{"bike_id":"c025fe4d-f167-4f80-bde7-0dfb9be7b37b","system_id":"levelo_inurba_marseille","lat":43.28472,"lon":5.48396,"is_reserved":false,"is_disabled":false,"rental_uris":{"android":"levelo://app?vid=c025fe4d-f167-4f80-bde7-0dfb9be7b37b","ios":"levelo://app?vid=c025fe4d-f167-4f80-bde7-0dfb9be7b37b"},"vehicle_type_id":"4","last_reported":1777035529,"current_range_meters":7200,"station_id":"","pricing_plan_id":"cebpf4jnsgd1na2vs0mg"},{"bike_id":"c11db587-5682-45b5-9181-45eeba934d2f","system_id":"levelo_inurba_marseille","lat":43.25002,"lon":5.38929,"is_reserved":false,"is_disabled":false,"rental_uris":{"android":"levelo://app?vid=c11db587-5682-45b5-9181-45eeba934d2f","ios":"levelo://app?vid=c11db587-5682-45b5-9181-45eeba934d2f"},"vehicle_type_id":"4","last_reported":1777035529,"current_range_meters":7200,"station_id":"ce4bhgp2rcd13ifvqfd0","pricing_plan_id":"cebpf4jnsgd1na2vs0mg"},{"bike_id":"205e35fb-50f3-48f1-ab25-9635e74cefee","system_id":"levelo_inurba_marseille","lat":43.24397,"lon":5.37047,"is_reserved":false,"is_disabled":false,"rental_uris":{"android":"levelo://app?vid=205e35fb-50f3-48f1-ab25-9635e74cefee","ios":"levelo://app?vid=205e35fb-50f3-48f1-ab25-9635e74cefee"},"vehicle_type_id":"4","last_reported":1777035529,"current_range_meters":7200,"station_id":"ce4bhhh2rcd13ifvqfk0","pricing_plan_id":"cebpf4jnsgd1na2vs0mg"},{"bike_id":"b10e388b-a119-4b7b-87b2-c9ca007b4026","system_id":"levelo_inurba_marseille","lat":43.3314,"lon":5.37751,"is_reserved":false,"is_disabled":false,"rental_uris":{"android":"levelo://app?vid=b10e388b-a119-4b7b-87b2-c9ca007b4026","ios":"levelo://app?vid=b10e388b-a119-4b7b-87b2-c9ca007b4026"},"vehicle_type_id":"4","last_reported":1777035529,"current_range_meters":7200,"station_id":"","pricing_plan_id":"cebpf4jnsgd1na2vs0mg"},{"bike_id":"38a26b0b-48ca-44e2-a5be-bf5014d1d45c","system_id":"levelo_inurba_marseille","lat":43.28266,"lon":5.35047,"is_reserved":false,"is_disabled":false,"rental_uris":{"android":"levelo://app?vid=38a26b0b-48ca-44e2-a5be-bf5014d1d45c","ios":"levelo://app?vid=38a26b0b-48ca-44e2-a5be-bf5014d1d45c"},"vehicle_type_id":"4","last_reported":1777035529,"current_range_meters":7200,"station_id":"ce4bhbp2rcd13ifvqerg","pricing_plan_id":"cebpf4jnsgd1na2vs0mg"},{"bike_id":"5ee85bce-2e07-4aea-a116-45b8992e50d9","system_id":"levelo_inurba_marseille","lat":43.30132,"lon":5.39848,"is_reserved":false,"is_disabled":false,"rental_uris":{"android":"levelo://app?vid=5ee85bce-2e07-4aea-a116-45b8992e50d9","ios":"levelo://app?vid=5ee85bce-2e07-4aea-a116-45b8992e50d9"},"vehicle_type_id":"4","last_reported":1777035529,"current_range_meters":7200,"station_id":"ce4bh0h2rcd13ifvqd40","pricing_plan_id":"cebpf4jnsgd1na2vs0mg"},{"bike_id":"aceca698-157b-4df0-b522-ebbe68fb2014","system_id":"levelo_inurba_marseille","lat":43.28606,"lon":5.35096,"is_reserved":false,"is_disabled":false,"rental_uris":{"android":"levelo://app?vid=aceca698-157b-4df0-b522-ebbe68fb2014","ios":"levelo://app?vid=aceca698-157b-4df0-b522-ebbe68fb2014"},"vehicle_type_id":"4","last_reported":1777035529,"current_range_meters":7200,"station_id":"ce4bhch2rcd13ifvqeug","pricing_plan_id":"cebpf4jnsgd1na2vs0mg"},{"bike_id":"bafd6f53-7017-4153-83b6-5997a170c78b","system_id":"levelo_inurba_marseille","lat":43.2522,"lon":5.41027,"is_reserved":false,"is_disabled":false,"rental_uris":{"android":"levelo://app?vid=bafd6f53-7017-4153-83b6-5997a170c78b","ios":"levelo://app?vid=bafd6f53-7017-4153-83b6-5997a170c78b"},"vehicle_type_id":"4","last_reported":1777035529,"current_range_meters":7200,"station_id":"","pricing_plan_id":"cebpf4jnsgd1na2vs0mg"},{"bike_id":"8e4b5489-43e1-46ac-ae2f-d861d574eff6","system_id":"levelo_inurba_marseille","lat":43.33606,"lon":5.41031,"is_reserved":false,"is_disabled":false,"rental_uris":{"android":"levelo://app?vid=8e4b5489-43e1-46ac-ae2f-d861d574eff6","ios":"levelo://app?vid=8e4b5489-43e1-46ac-ae2f-d861d574eff6"},"vehicle_type_id":"4","last_reported":1777035529,"current_range_meters":7200,"station_id":"ce4bhqh2rcd13ifvqhmg","pricing_plan_id":"cebpf4jnsgd1na2vs0mg"},{"bike_id":"e76b3974-d803-4d2d-9b4c-e2da67aaea77","system_id":"levelo_inurba_marseille","lat":43.30601,"lon":5.37208,"is_reserved":false,"is_disabled":false,"rental_uris":{"android":"levelo://app?vid=e76b3974-d803-4d2d-9b4c-e2da67aaea77","ios":"levelo://app?vid=e76b3974-d803-4d2d-9b4c-e2da67aaea77"},"vehicle_type_id":"4","last_reported":1777035529,"current_range_meters":8000,"station_id":"ce4bgqh2rcd13ifvqc4g","pricing_plan_id":"cebpf4jnsgd1na2vs0mg"},{"bike_id":"2a950965-8435-4475-9b9d-c040be2fba0a","system_id":"levelo_inurba_marseille","lat":43.29242,"lon":5.3598,"is_reserved":false,"is_disabled":false,"rental_uris":{"android":"levelo://app?vid=2a950965-8435-4475-9b9d-c040be2fba0a","ios":"levelo://app?vid=2a950965-8435-4475-9b9d-c040be2fba0a"},"vehicle_type_id":"4","last_reported":1777035529,"current_range_meters":8000,"station_id":"ce4bhbh2rcd13ifvqeqg","pricing_plan_id":"cebpf4jnsgd1na2vs0mg"},{"bike_id":"c4a6cf3f-a5b9-43d7-91d0-4da564433a66","system_id":"levelo_inurba_marseille","lat":43.30137,"lon":5.37408,"is_reserved":false,"is_disabled":false,"rental_uris":{"android":"levelo://app?vid=c4a6cf3f-a5b9-43d7-91d0-4da564433a66","ios":"levelo://app?vid=c4a6cf3f-a5b9-43d7-91d0-4da564433a66"},"vehicle_type_id":"4","last_reported":1777035529,"current_range_meters":8000,"station_id":"ce4bgs92rcd13ifvqcc0","pricing_plan_id":"cebpf4jnsgd1na2vs0mg"},{"bike_id":"3762a15a-49a2-4fc6-b2e6-a79b5f91a12f","system_id":"levelo_inurba_marseille","lat":43.28478,"lon":5.48365,"is_reserved":false,"is_disabled":false,"rental_uris":{"android":"levelo://app?vid=3762a15a-49a2-4fc6-b2e6-a79b5f91a12f","ios":"levelo://app?vid=3762a15a-49a2-4fc6-b2e6-a79b5f91a12f"},"vehicle_type_id":"4","last_reported":1777035529,"current_range_meters":8000,"station_id":"","pricing_plan_id":"cebpf4jnsgd1na2vs0mg"},{"bike_id":"8a4d316b-7dfb-42df-8aea-4c7d58210d7a","system_id":"levelo_inurba_marseille","lat":43.31264,"lon":5.43063,"is_reserved":false,"is_disabled":false,"rental_uris":{"android":"levelo://app?vid=8a4d316b-7dfb-42df-8aea-4c7d58210d7a","ios":"levelo://app?vid=8a4d316b-7dfb-42df-8aea-4c7d58210d7a"},"vehicle_type_id":"4","last_reported":1777035529,"current_range_meters":8000,"station_id":"","pricing_plan_id":"cebpf4jnsgd1na2vs0mg"},{"bike_id":"b38d89b8-c3c9-4fae-b6f2-09980d89f2e9","system_id":"levelo_inurba_marseille","lat":43.28477,"lon":5.48403,"is_reserved":false,"is_disabled":false,"rental_uris":{"android":"levelo://app?vid=b38d89b8-c3c9-4fae-b6f2-09980d89f2e9","ios":"levelo://app?vid=b38d89b8-c3c9-4fae-b6f2-09980d89f2e9"},"vehicle_type_id":"4","last_reported":1777035529,"current_range_meters":8000,"station_id":"","pricing_plan_id":"cebpf4jnsgd1na2vs0mg"},{"bike_id":"b0b8b22b-f70d-45fa-b87d-1bb45368281a","system_id":"levelo_inurba_marseille","lat":43.28371,"lon":5.38631,"is_reserved":false,"is_disabled":false,"rental_uris":{"android":"levelo://app?vid=b0b8b22b-f70d-45fa-b87d-1bb45368281a","ios":"levelo://app?vid=b0b8b22b-f70d-45fa-b87d-1bb45368281a"},"vehicle_type_id":"4","last_reported":1777035529,"current_range_meters":8000,"station_id":"ce4bh492rcd13ifvqdvg","pricing_plan_id":"cebpf4jnsgd1na2vs0mg"},{"bike_id":"e8d6ce3d-1aa9-47ef-9b48-93862ee5f7fd","system_id":"levelo_inurba_marseille","lat":43.21283,"lon":5.35412,"is_reserved":false,"is_disabled":false,"rental_uris":{"android":"levelo://app?vid=e8d6ce3d-1aa9-47ef-9b48-93862ee5f7fd","ios":"levelo://app?vid=e8d6ce3d-1aa9-47ef-9b48-93862ee5f7fd"},"vehicle_type_id":"4","last_reported":1777035529,"current_range_meters":8000,"station_id":"","pricing_plan_id":"cebpf4jnsgd1na2vs0mg"},{"bike_id":"881cf4ae-1f06-4243-b7ee-74ca1bd0f43e","system_id":"levelo_inurba_marseille","lat":43.27278,"lon":5.39104,"is_reserved":false,"is_disabled":false,"rental_uris":{"android":"levelo://app?vid=881cf4ae-1f06-4243-b7ee-74ca1bd0f43e","ios":"levelo://app?vid=881cf4ae-1f06-4243-b7ee-74ca1bd0f43e"},"vehicle_type_id":"4","last_reported":1777035529,"current_range_meters":8000,"station_id":"ce4bhgp2rcd13ifvqfe0","pricing_plan_id":"cebpf4jnsgd1na2vs0mg"},{"bike_id":"3b188e86-ecbf-473c-aaed-78dfd4db9d32","system_id":"levelo_inurba_marseille","lat":43.29773,"lon":5.37104,"is_reserved":false,"is_disabled":false,"rental_uris":{"android":"levelo://app?vid=3b188e86-ecbf-473c-aaed-78dfd4db9d32","ios":"levelo://app?vid=3b188e86-ecbf-473c-aaed-78dfd4db9d32"},"vehicle_type_id":"4","last_reported":1777035529,"current_range_meters":8000,"station_id":"ce4bgop2rcd13ifvqc1g","pricing_plan_id":"cebpf4jnsgd1na2vs0mg"},{"bike_id":"b7bbea99-88df-486e-a9e6-f791a6746485","system_id":"levelo_inurba_marseille","lat":43.29395,"lon":5.38783,"is_reserved":false,"is_disabled":false,"rental_uris":{"android":"levelo://app?vid=b7bbea99-88df-486e-a9e6-f791a6746485","ios":"levelo://app?vid=b7bbea99-88df-486e-a9e6-f791a6746485"},"vehicle_type_id":"4","last_reported":1777035529,"current_range_meters":8000,"station_id":"","pricing_plan_id":"cebpf4jnsgd1na2vs0mg"},{"bike_id":"1f5758d4-94e5-455a-8da2-181cfb491d14","system_id":"levelo_inurba_marseille","lat":43.29976,"lon":5.384814,"is_reserved":false,"is_disabled":false,"rental_uris":{"android":"levelo://app?vid=1f5758d4-94e5-455a-8da2-181cfb491d14","ios":"levelo://app?vid=1f5758d4-94e5-455a-8da2-181cfb491d14"},"vehicle_type_id":"4","last_reported":1777035529,"current_range_meters":8000,"station_id":"ce4bgph2rcd13ifvqc2g","pricing_plan_id":"cebpf4jnsgd1na2vs0mg"},{"bike_id":"ec19aaad-2410-439f-9123-e83fa1c535f8","system_id":"levelo_inurba_marseille","lat":43.2829,"lon":5.37895,"is_reserved":false,"is_disabled":false,"rental_uris":{"android":"levelo://app?vid=ec19aaad-2410-439f-9123-e83fa1c535f8","ios":"levelo://app?vid=ec19aaad-2410-439f-9123-e83fa1c535f8"},"vehicle_type_id":"4","last_reported":1777035529,"current_range_meters":8000,"station_id":"","pricing_plan_id":"cebpf4jnsgd1na2vs0mg"},{"bike_id":"141f059f-6d5f-4301-9c09-4ad988e4bde5","system_id":"levelo_inurba_marseille","lat":43.23793,"lon":5.36602,"is_reserved":false,"is_disabled":false,"rental_uris":{"android":"levelo://app?vid=141f059f-6d5f-4301-9c09-4ad988e4bde5","ios":"levelo://app?vid=141f059f-6d5f-4301-9c09-4ad988e4bde5"},"vehicle_type_id":"4","last_reported":1777035529,"current_range_meters":8000,"station_id":"st_d3nk18o9ro0c73en2l3g","pricing_plan_id":"cebpf4jnsgd1na2vs0mg"},{"bike_id":"1f3906dd-948e-4d18-9bb2-b2fc350fa481","system_id":"levelo_inurba_marseille","lat":43.27426,"lon":5.39392,"is_reserved":false,"is_disabled":true,"rental_uris":{"android":"levelo://app?vid=1f3906dd-948e-4d18-9bb2-b2fc350fa481","ios":"levelo://app?vid=1f3906dd-948e-4d18-9bb2-b2fc350fa481"},"vehicle_type_id":"4","last_reported":1777035529,"current_range_meters":8000,"station_id":"ce4bhdp2rcd13ifvqf20","pricing_plan_id":"cebpf4jnsgd1na2vs0mg"},{"bike_id":"a761cf7e-dba0-4426-a8df-1c6d3496c36c","system_id":"levelo_inurba_marseille","lat":43.25502,"lon":5.37646,"is_reserved":false,"is_disabled":false,"rental_uris":{"android":"levelo://app?vid=a761cf7e-dba0-4426-a8df-1c6d3496c36c","ios":"levelo://app?vid=a761cf7e-dba0-4426-a8df-1c6d3496c36c"},"vehicle_type_id":"4","last_reported":1777035529,"current_range_meters":8000,"station_id":"ce4bhh12rcd13ifvqff0","pricing_plan_id":"cebpf4jnsgd1na2vs0mg"},{"bike_id":"768abb91-8be4-4d81-b498-ec9507b98665","system_id":"levelo_inurba_marseille","lat":43.26409,"lon":5.42281,"is_reserved":false,"is_disabled":false,"rental_uris":{"android":"levelo://app?vid=768abb91-8be4-4d81-b498-ec9507b98665","ios":"levelo://app?vid=768abb91-8be4-4d81-b498-ec9507b98665"},"vehicle_type_id":"4","last_reported":1777035529,"current_range_meters":8000,"station_id":"","pricing_plan_id":"cebpf4jnsgd1na2vs0mg"},{"bike_id":"df2050e7-01bf-4f9d-a31f-6eee0772071d","system_id":"levelo_inurba_marseille","lat":43.29619,"lon":5.37169,"is_reserved":false,"is_disabled":false,"rental_uris":{"android":"levelo://app?vid=df2050e7-01bf-4f9d-a31f-6eee0772071d","ios":"levelo://app?vid=df2050e7-01bf-4f9d-a31f-6eee0772071d"},"vehicle_type_id":"4","last_reported":1777035529,"current_range_meters":8000,"station_id":"ce4bgnh2rcd13ifvqc0g","pricing_plan_id":"cebpf4jnsgd1na2vs0mg"},{"bike_id":"fefb58cb-a447-4beb-bc01-c814e089e0ee","system_id":"levelo_inurba_marseille","lat":43.28415,"lon":5.34987,"is_reserved":false,"is_disabled":false,"rental_uris":{"android":"levelo://app?vid=fefb58cb-a447-4beb-bc01-c814e089e0ee","ios":"levelo://app?vid=fefb58cb-a447-4beb-bc01-c814e089e0ee"},"vehicle_type_id":"4","last_reported":1777035529,"current_range_meters":8000,"station_id":"ce4bhbh2rcd13ifvqepg","pricing_plan_id":"cebpf4jnsgd1na2vs0mg"},{"bike_id":"1a7cc90b-14b1-4e29-812d-d8aa757ac60e","system_id":"levelo_inurba_marseille","lat":43.27621,"lon":5.36107,"is_reserved":false,"is_disabled":false,"rental_uris":{"android":"levelo://app?vid=1a7cc90b-14b1-4e29-812d-d8aa757ac60e","ios":"levelo://app?vid=1a7cc90b-14b1-4e29-812d-d8aa757ac60e"},"vehicle_type_id":"4","last_reported":1777035529,"current_range_meters":8400,"station_id":"ce4bgj92rcd13ifvqbe0","pricing_plan_id":"cebpf4jnsgd1na2vs0mg"},{"bike_id":"e857004b-2bd0-424f-a388-5718a5c55f54","system_id":"levelo_inurba_marseille","lat":43.30529,"lon":5.3668,"is_reserved":false,"is_disabled":false,"rental_uris":{"android":"levelo://app?vid=e857004b-2bd0-424f-a388-5718a5c55f54","ios":"levelo://app?vid=e857004b-2bd0-424f-a388-5718a5c55f54"},"vehicle_type_id":"4","last_reported":1777035529,"current_range_meters":8400,"station_id":"ce4bgrp2rcd13ifvqc9g","pricing_plan_id":"cebpf4jnsgd1na2vs0mg"},{"bike_id":"bae829bb-cf17-4213-99d2-3d2c30c8d24a","system_id":"levelo_inurba_marseille","lat":43.30537,"lon":5.36673,"is_reserved":false,"is_disabled":false,"rental_uris":{"android":"levelo://app?vid=bae829bb-cf17-4213-99d2-3d2c30c8d24a","ios":"levelo://app?vid=bae829bb-cf17-4213-99d2-3d2c30c8d24a"},"vehicle_type_id":"4","last_reported":1777035529,"current_range_meters":8400,"station_id":"ce4bgrp2rcd13ifvqc9g","pricing_plan_id":"cebpf4jnsgd1na2vs0mg"},{"bike_id":"cd21f6c1-a1f8-4978-8025-1d254a6bf514","system_id":"levelo_inurba_marseille","lat":43.28479,"lon":5.48384,"is_reserved":false,"is_disabled":false,"rental_uris":{"android":"levelo://app?vid=cd21f6c1-a1f8-4978-8025-1d254a6bf514","ios":"levelo://app?vid=cd21f6c1-a1f8-4978-8025-1d254a6bf514"},"vehicle_type_id":"4","last_reported":1777035529,"current_range_meters":8400,"station_id":"st_d3svhcjqgbts73a3dn0g","pricing_plan_id":"cebpf4jnsgd1na2vs0mg"},{"bike_id":"b51ac87f-04a3-4bf1-9075-041179aa6f28","system_id":"levelo_inurba_marseille","lat":43.22544,"lon":5.41635,"is_reserved":false,"is_disabled":false,"rental_uris":{"android":"levelo://app?vid=b51ac87f-04a3-4bf1-9075-041179aa6f28","ios":"levelo://app?vid=b51ac87f-04a3-4bf1-9075-041179aa6f28"},"vehicle_type_id":"4","last_reported":1777035529,"current_range_meters":8400,"station_id":"st_d2o4gvlbi1j2169b742g","pricing_plan_id":"cebpf4jnsgd1na2vs0mg"},{"bike_id":"9509c727-8d1f-4457-b65d-a353d452395f","system_id":"levelo_inurba_marseille","lat":43.25584,"lon":5.38232,"is_reserved":false,"is_disabled":false,"rental_uris":{"android":"levelo://app?vid=9509c727-8d1f-4457-b65d-a353d452395f","ios":"levelo://app?vid=9509c727-8d1f-4457-b65d-a353d452395f"},"vehicle_type_id":"4","last_reported":1777035529,"current_range_meters":8400,"station_id":"ce4bhih2rcd13ifvqfs0","pricing_plan_id":"cebpf4jnsgd1na2vs0mg"},{"bike_id":"f33d06d3-9aa6-45e2-9d5c-88e74774c324","system_id":"levelo_inurba_marseille","lat":43.30947,"lon":5.39015,"is_reserved":false,"is_disabled":false,"rental_uris":{"android":"levelo://app?vid=f33d06d3-9aa6-45e2-9d5c-88e74774c324","ios":"levelo://app?vid=f33d06d3-9aa6-45e2-9d5c-88e74774c324"},"vehicle_type_id":"4","last_reported":1777035529,"current_range_meters":8400,"station_id":"ce4bgup2rcd13ifvqco0","pricing_plan_id":"cebpf4jnsgd1na2vs0mg"},{"bike_id":"832ecf8f-f338-496f-80fc-9b186383eb8f","system_id":"levelo_inurba_marseille","lat":43.24177,"lon":5.39722,"is_reserved":false,"is_disabled":false,"rental_uris":{"android":"levelo://app?vid=832ecf8f-f338-496f-80fc-9b186383eb8f","ios":"levelo://app?vid=832ecf8f-f338-496f-80fc-9b186383eb8f"},"vehicle_type_id":"4","last_reported":1777035529,"current_range_meters":8400,"station_id":"ce4bhn12rcd13ifvqgpg","pricing_plan_id":"cebpf4jnsgd1na2vs0mg"},{"bike_id":"71076519-55ac-4dc8-b9b2-e71950727d6e","system_id":"levelo_inurba_marseille","lat":43.26402,"lon":5.4107,"is_reserved":false,"is_disabled":false,"rental_uris":{"android":"levelo://app?vid=71076519-55ac-4dc8-b9b2-e71950727d6e","ios":"levelo://app?vid=71076519-55ac-4dc8-b9b2-e71950727d6e"},"vehicle_type_id":"4","last_reported":1777035529,"current_range_meters":8400,"station_id":"st_d4e5ca6na9uc73bfl5fg","pricing_plan_id":"cebpf4jnsgd1na2vs0mg"},{"bike_id":"e8d002b1-199e-4516-8ed6-821a0c98040c","system_id":"levelo_inurba_marseille","lat":43.33757,"lon":5.37475,"is_reserved":false,"is_disabled":false,"rental_uris":{"android":"levelo://app?vid=e8d002b1-199e-4516-8ed6-821a0c98040c","ios":"levelo://app?vid=e8d002b1-199e-4516-8ed6-821a0c98040c"},"vehicle_type_id":"4","last_reported":1777035529,"current_range_meters":8400,"station_id":"st_d46cu089ee8s73dldbu0","pricing_plan_id":"cebpf4jnsgd1na2vs0mg"},{"bike_id":"f6c58add-52aa-4d72-96ff-5574c1faccc6","system_id":"levelo_inurba_marseille","lat":43.28617,"lon":5.35109,"is_reserved":false,"is_disabled":false,"rental_uris":{"android":"levelo://app?vid=f6c58add-52aa-4d72-96ff-5574c1faccc6","ios":"levelo://app?vid=f6c58add-52aa-4d72-96ff-5574c1faccc6"},"vehicle_type_id":"4","last_reported":1777035529,"current_range_meters":8400,"station_id":"ce4bhch2rcd13ifvqeug","pricing_plan_id":"cebpf4jnsgd1na2vs0mg"},{"bike_id":"e6be81da-81b8-4383-a276-cd00117d75af","system_id":"levelo_inurba_marseille","lat":43.24394,"lon":5.37054,"is_reserved":false,"is_disabled":false,"rental_uris":{"android":"levelo://app?vid=e6be81da-81b8-4383-a276-cd00117d75af","ios":"levelo://app?vid=e6be81da-81b8-4383-a276-cd00117d75af"},"vehicle_type_id":"4","last_reported":1777035529,"current_range_meters":8400,"station_id":"ce4bhhh2rcd13ifvqfk0","pricing_plan_id":"cebpf4jnsgd1na2vs0mg"},{"bike_id":"e9034cc9-cbfd-4cb3-9c2e-0d27e7d3c472","system_id":"levelo_inurba_marseille","lat":43.28428,"lon":5.35001,"is_reserved":false,"is_disabled":false,"rental_uris":{"android":"levelo://app?vid=e9034cc9-cbfd-4cb3-9c2e-0d27e7d3c472","ios":"levelo://app?vid=e9034cc9-cbfd-4cb3-9c2e-0d27e7d3c472"},"vehicle_type_id":"4","last_reported":1777035529,"current_range_meters":8400,"station_id":"ce4bhbh2rcd13ifvqepg","pricing_plan_id":"cebpf4jnsgd1na2vs0mg"},{"bike_id":"fdeabaa4-fdd5-4f26-b50a-a06f5415de80","system_id":"levelo_inurba_marseille","lat":43.33593,"lon":5.41018,"is_reserved":false,"is_disabled":false,"rental_uris":{"android":"levelo://app?vid=fdeabaa4-fdd5-4f26-b50a-a06f5415de80","ios":"levelo://app?vid=fdeabaa4-fdd5-4f26-b50a-a06f5415de80"},"vehicle_type_id":"4","last_reported":1777035529,"current_range_meters":8400,"station_id":"ce4bhqh2rcd13ifvqhmg","pricing_plan_id":"cebpf4jnsgd1na2vs0mg"},{"bike_id":"cd75916f-cdc3-4e63-b12f-12069e0638a4","system_id":"levelo_inurba_marseille","lat":43.26205,"lon":5.37457,"is_reserved":false,"is_disabled":false,"rental_uris":{"android":"levelo://app?vid=cd75916f-cdc3-4e63-b12f-12069e0638a4","ios":"levelo://app?vid=cd75916f-cdc3-4e63-b12f-12069e0638a4"},"vehicle_type_id":"4","last_reported":1777035529,"current_range_meters":8400,"station_id":"ce4bhgp2rcd13ifvqfc0","pricing_plan_id":"cebpf4jnsgd1na2vs0mg"},{"bike_id":"6683f1c1-5438-4145-9f5d-8b7a78196c6b","system_id":"levelo_inurba_marseille","lat":43.28223,"lon":5.35069,"is_reserved":false,"is_disabled":false,"rental_uris":{"android":"levelo://app?vid=6683f1c1-5438-4145-9f5d-8b7a78196c6b","ios":"levelo://app?vid=6683f1c1-5438-4145-9f5d-8b7a78196c6b"},"vehicle_type_id":"4","last_reported":1777035529,"current_range_meters":8400,"station_id":"","pricing_plan_id":"cebpf4jnsgd1na2vs0mg"},{"bike_id":"04c3c696-c4f1-49ce-b3d3-0080889af344","system_id":"levelo_inurba_marseille","lat":43.30808,"lon":5.38795,"is_reserved":false,"is_disabled":false,"rental_uris":{"android":"levelo://app?vid=04c3c696-c4f1-49ce-b3d3-0080889af344","ios":"levelo://app?vid=04c3c696-c4f1-49ce-b3d3-0080889af344"},"vehicle_type_id":"4","last_reported":1777035529,"current_range_meters":8400,"station_id":"","pricing_plan_id":"cebpf4jnsgd1na2vs0mg"},{"bike_id":"654a632f-02cb-4f3f-94f1-684dda1a0d1d","system_id":"levelo_inurba_marseille","lat":43.30571,"lon":5.36713,"is_reserved":false,"is_disabled":false,"rental_uris":{"android":"levelo://app?vid=654a632f-02cb-4f3f-94f1-684dda1a0d1d","ios":"levelo://app?vid=654a632f-02cb-4f3f-94f1-684dda1a0d1d"},"vehicle_type_id":"4","last_reported":1777035529,"current_range_meters":8800,"station_id":"ce4bgrp2rcd13ifvqc9g","pricing_plan_id":"cebpf4jnsgd1na2vs0mg"},{"bike_id":"626cc12a-ccba-47b0-a97d-511176fadc4b","system_id":"levelo_inurba_marseille","lat":43.292853,"lon":5.401111,"is_reserved":false,"is_disabled":false,"rental_uris":{"android":"levelo://app?vid=626cc12a-ccba-47b0-a97d-511176fadc4b","ios":"levelo://app?vid=626cc12a-ccba-47b0-a97d-511176fadc4b"},"vehicle_type_id":"4","last_reported":1777035529,"current_range_meters":8800,"station_id":"ce4bho92rcd13ifvqh3g","pricing_plan_id":"cebpf4jnsgd1na2vs0mg"},{"bike_id":"90a3c3dc-aacc-412b-a826-6ab48cb1e888","system_id":"levelo_inurba_marseille","lat":43.26756,"lon":5.39399,"is_reserved":false,"is_disabled":false,"rental_uris":{"android":"levelo://app?vid=90a3c3dc-aacc-412b-a826-6ab48cb1e888","ios":"levelo://app?vid=90a3c3dc-aacc-412b-a826-6ab48cb1e888"},"vehicle_type_id":"4","last_reported":1777035529,"current_range_meters":8800,"station_id":"ce4bhh12rcd13ifvqfg0","pricing_plan_id":"cebpf4jnsgd1na2vs0mg"},{"bike_id":"0012c1c2-6fd1-4030-a1a3-d4207afae468","system_id":"levelo_inurba_marseille","lat":43.29706,"lon":5.36607,"is_reserved":false,"is_disabled":false,"rental_uris":{"android":"levelo://app?vid=0012c1c2-6fd1-4030-a1a3-d4207afae468","ios":"levelo://app?vid=0012c1c2-6fd1-4030-a1a3-d4207afae468"},"vehicle_type_id":"4","last_reported":1777035529,"current_range_meters":8800,"station_id":"ce4bgn12rcd13ifvqbt0","pricing_plan_id":"cebpf4jnsgd1na2vs0mg"},{"bike_id":"87580d95-c4d0-4a88-8e5e-2e5b90966737","system_id":"levelo_inurba_marseille","lat":43.2971,"lon":5.36594,"is_reserved":false,"is_disabled":false,"rental_uris":{"android":"levelo://app?vid=87580d95-c4d0-4a88-8e5e-2e5b90966737","ios":"levelo://app?vid=87580d95-c4d0-4a88-8e5e-2e5b90966737"},"vehicle_type_id":"4","last_reported":1777035529,"current_range_meters":8800,"station_id":"ce4bgn12rcd13ifvqbt0","pricing_plan_id":"cebpf4jnsgd1na2vs0mg"},{"bike_id":"73436167-d5de-459d-b364-d44bc949184b","system_id":"levelo_inurba_marseille","lat":43.30964,"lon":5.39055,"is_reserved":false,"is_disabled":false,"rental_uris":{"android":"levelo://app?vid=73436167-d5de-459d-b364-d44bc949184b","ios":"levelo://app?vid=73436167-d5de-459d-b364-d44bc949184b"},"vehicle_type_id":"4","last_reported":1777035529,"current_range_meters":8800,"station_id":"ce4bgup2rcd13ifvqco0","pricing_plan_id":"cebpf4jnsgd1na2vs0mg"},{"bike_id":"c0c80dc0-84a1-41cf-93fc-ea4813a2137e","system_id":"levelo_inurba_marseille","lat":43.2993,"lon":5.3653,"is_reserved":false,"is_disabled":false,"rental_uris":{"android":"levelo://app?vid=c0c80dc0-84a1-41cf-93fc-ea4813a2137e","ios":"levelo://app?vid=c0c80dc0-84a1-41cf-93fc-ea4813a2137e"},"vehicle_type_id":"4","last_reported":1777035529,"current_range_meters":8800,"station_id":"ce4bgm92rcd13ifvqbr0","pricing_plan_id":"cebpf4jnsgd1na2vs0mg"},{"bike_id":"4ef3171d-d30e-4bd1-b0d0-6cd116f9d4b6","system_id":"levelo_inurba_marseille","lat":43.28958,"lon":5.36384,"is_reserved":false,"is_disabled":false,"rental_uris":{"android":"levelo://app?vid=4ef3171d-d30e-4bd1-b0d0-6cd116f9d4b6","ios":"levelo://app?vid=4ef3171d-d30e-4bd1-b0d0-6cd116f9d4b6"},"vehicle_type_id":"4","last_reported":1777035529,"current_range_meters":8800,"station_id":"ce4bhc92rcd13ifvqetg","pricing_plan_id":"cebpf4jnsgd1na2vs0mg"},{"bike_id":"7a2f3cdf-8047-459f-a910-224a3bbb2f42","system_id":"levelo_inurba_marseille","lat":43.25823,"lon":5.3943,"is_reserved":false,"is_disabled":false,"rental_uris":{"android":"levelo://app?vid=7a2f3cdf-8047-459f-a910-224a3bbb2f42","ios":"levelo://app?vid=7a2f3cdf-8047-459f-a910-224a3bbb2f42"},"vehicle_type_id":"4","last_reported":1777035529,"current_range_meters":8800,"station_id":"ce4bhip2rcd13ifvqft0","pricing_plan_id":"cebpf4jnsgd1na2vs0mg"},{"bike_id":"f35dc47f-a35e-4baf-ad02-15728d22c5b7","system_id":"levelo_inurba_marseille","lat":43.23194,"lon":5.35549,"is_reserved":false,"is_disabled":false,"rental_uris":{"android":"levelo://app?vid=f35dc47f-a35e-4baf-ad02-15728d22c5b7","ios":"levelo://app?vid=f35dc47f-a35e-4baf-ad02-15728d22c5b7"},"vehicle_type_id":"4","last_reported":1777035529,"current_range_meters":8800,"station_id":"ce4bhu92rcd13ifvqi70","pricing_plan_id":"cebpf4jnsgd1na2vs0mg"},{"bike_id":"8b8b5db3-e95a-497f-b84a-b89a12682ca4","system_id":"levelo_inurba_marseille","lat":43.29822,"lon":5.44056,"is_reserved":false,"is_disabled":false,"rental_uris":{"android":"levelo://app?vid=8b8b5db3-e95a-497f-b84a-b89a12682ca4","ios":"levelo://app?vid=8b8b5db3-e95a-497f-b84a-b89a12682ca4"},"vehicle_type_id":"4","last_reported":1777035529,"current_range_meters":8800,"station_id":"st_d3jp68qikq2c7381ktn0","pricing_plan_id":"cebpf4jnsgd1na2vs0mg"},{"bike_id":"c7ac0306-6afc-4781-8692-f962ddfe1a23","system_id":"levelo_inurba_marseille","lat":43.3227,"lon":5.36775,"is_reserved":false,"is_disabled":false,"rental_uris":{"android":"levelo://app?vid=c7ac0306-6afc-4781-8692-f962ddfe1a23","ios":"levelo://app?vid=c7ac0306-6afc-4781-8692-f962ddfe1a23"},"vehicle_type_id":"4","last_reported":1777035529,"current_range_meters":8800,"station_id":"","pricing_plan_id":"cebpf4jnsgd1na2vs0mg"},{"bike_id":"ef1780af-1aea-4e08-82c2-da4d0be385bf","system_id":"levelo_inurba_marseille","lat":43.29022,"lon":5.36015,"is_reserved":false,"is_disabled":false,"rental_uris":{"android":"levelo://app?vid=ef1780af-1aea-4e08-82c2-da4d0be385bf","ios":"levelo://app?vid=ef1780af-1aea-4e08-82c2-da4d0be385bf"},"vehicle_type_id":"4","last_reported":1777035529,"current_range_meters":9200,"station_id":"","pricing_plan_id":"cebpf4jnsgd1na2vs0mg"},{"bike_id":"eedc0479-f82c-429f-8f4d-688fb01f2932","system_id":"levelo_inurba_marseille","lat":43.28616,"lon":5.37043,"is_reserved":false,"is_disabled":false,"rental_uris":{"android":"levelo://app?vid=eedc0479-f82c-429f-8f4d-688fb01f2932","ios":"levelo://app?vid=eedc0479-f82c-429f-8f4d-688fb01f2932"},"vehicle_type_id":"4","last_reported":1777035529,"current_range_meters":9200,"station_id":"ce4bht12rcd13ifvqi60","pricing_plan_id":"cebpf4jnsgd1na2vs0mg"},{"bike_id":"3570377e-0c1a-4dc2-8a4e-65de6edf1afd","system_id":"levelo_inurba_marseille","lat":43.21188,"lon":5.35079,"is_reserved":false,"is_disabled":false,"rental_uris":{"android":"levelo://app?vid=3570377e-0c1a-4dc2-8a4e-65de6edf1afd","ios":"levelo://app?vid=3570377e-0c1a-4dc2-8a4e-65de6edf1afd"},"vehicle_type_id":"4","last_reported":1777035529,"current_range_meters":9200,"station_id":"st_cvj6sg6p6f1abm77japg","pricing_plan_id":"cebpf4jnsgd1na2vs0mg"},{"bike_id":"4af5f932-71ad-4954-ac3b-fecb2a352994","system_id":"levelo_inurba_marseille","lat":43.3238,"lon":5.36741,"is_reserved":false,"is_disabled":false,"rental_uris":{"android":"levelo://app?vid=4af5f932-71ad-4954-ac3b-fecb2a352994","ios":"levelo://app?vid=4af5f932-71ad-4954-ac3b-fecb2a352994"},"vehicle_type_id":"4","last_reported":1777035529,"current_range_meters":9200,"station_id":"ce4bhsh2rcd13ifvqi2g","pricing_plan_id":"cebpf4jnsgd1na2vs0mg"},{"bike_id":"c716bfd6-c7d3-4aa5-9291-eb236a83d2bf","system_id":"levelo_inurba_marseille","lat":43.2917,"lon":5.35777,"is_reserved":false,"is_disabled":false,"rental_uris":{"android":"levelo://app?vid=c716bfd6-c7d3-4aa5-9291-eb236a83d2bf","ios":"levelo://app?vid=c716bfd6-c7d3-4aa5-9291-eb236a83d2bf"},"vehicle_type_id":"4","last_reported":1777035529,"current_range_meters":9200,"station_id":"ce4bhb12rcd13ifvqel0","pricing_plan_id":"cebpf4jnsgd1na2vs0mg"},{"bike_id":"cba6a9ff-17f7-422d-8b42-c65b1837bcbe","system_id":"levelo_inurba_marseille","lat":43.23784,"lon":5.3663,"is_reserved":false,"is_disabled":false,"rental_uris":{"android":"levelo://app?vid=cba6a9ff-17f7-422d-8b42-c65b1837bcbe","ios":"levelo://app?vid=cba6a9ff-17f7-422d-8b42-c65b1837bcbe"},"vehicle_type_id":"4","last_reported":1777035529,"current_range_meters":9200,"station_id":"st_d3nk18o9ro0c73en2l3g","pricing_plan_id":"cebpf4jnsgd1na2vs0mg"},{"bike_id":"404acf5f-080c-4d17-b7c8-9b3430d34e98","system_id":"levelo_inurba_marseille","lat":43.28271,"lon":5.3505,"is_reserved":false,"is_disabled":false,"rental_uris":{"android":"levelo://app?vid=404acf5f-080c-4d17-b7c8-9b3430d34e98","ios":"levelo://app?vid=404acf5f-080c-4d17-b7c8-9b3430d34e98"},"vehicle_type_id":"4","last_reported":1777035529,"current_range_meters":9200,"station_id":"ce4bhbp2rcd13ifvqerg","pricing_plan_id":"cebpf4jnsgd1na2vs0mg"},{"bike_id":"ad1189e4-d5b6-4f94-9b4d-62bbcbac5f29","system_id":"levelo_inurba_marseille","lat":43.28151,"lon":5.42626,"is_reserved":false,"is_disabled":false,"rental_uris":{"android":"levelo://app?vid=ad1189e4-d5b6-4f94-9b4d-62bbcbac5f29","ios":"levelo://app?vid=ad1189e4-d5b6-4f94-9b4d-62bbcbac5f29"},"vehicle_type_id":"4","last_reported":1777035529,"current_range_meters":9200,"station_id":"ce4bhnh2rcd13ifvqgug","pricing_plan_id":"cebpf4jnsgd1na2vs0mg"},{"bike_id":"5943059b-232d-4deb-8b3a-c65352f04f61","system_id":"levelo_inurba_marseille","lat":43.27382,"lon":5.3625,"is_reserved":false,"is_disabled":false,"rental_uris":{"android":"levelo://app?vid=5943059b-232d-4deb-8b3a-c65352f04f61","ios":"levelo://app?vid=5943059b-232d-4deb-8b3a-c65352f04f61"},"vehicle_type_id":"4","last_reported":1777035529,"current_range_meters":9200,"station_id":"ce4bhbh2rcd13ifvqeo0","pricing_plan_id":"cebpf4jnsgd1na2vs0mg"},{"bike_id":"5211919d-4d6c-4617-8a0b-cba22d1a5d05","system_id":"levelo_inurba_marseille","lat":43.31903,"lon":5.36796,"is_reserved":false,"is_disabled":false,"rental_uris":{"android":"levelo://app?vid=5211919d-4d6c-4617-8a0b-cba22d1a5d05","ios":"levelo://app?vid=5211919d-4d6c-4617-8a0b-cba22d1a5d05"},"vehicle_type_id":"4","last_reported":1777035529,"current_range_meters":9200,"station_id":"st_d6o2h0d0559c73evc1b0","pricing_plan_id":"cebpf4jnsgd1na2vs0mg"},{"bike_id":"261b4d20-3fce-4a9a-b1df-f7d9447249df","system_id":"levelo_inurba_marseille","lat":43.28478,"lon":5.484,"is_reserved":false,"is_disabled":false,"rental_uris":{"android":"levelo://app?vid=261b4d20-3fce-4a9a-b1df-f7d9447249df","ios":"levelo://app?vid=261b4d20-3fce-4a9a-b1df-f7d9447249df"},"vehicle_type_id":"4","last_reported":1777035529,"current_range_meters":9200,"station_id":"st_d3svhcjqgbts73a3dn0g","pricing_plan_id":"cebpf4jnsgd1na2vs0mg"},{"bike_id":"0a5cad46-2089-4042-92e8-c426a51993f7","system_id":"levelo_inurba_marseille","lat":43.25931,"lon":5.40899,"is_reserved":false,"is_disabled":false,"rental_uris":{"android":"levelo://app?vid=0a5cad46-2089-4042-92e8-c426a51993f7","ios":"levelo://app?vid=0a5cad46-2089-4042-92e8-c426a51993f7"},"vehicle_type_id":"4","last_reported":1777035529,"current_range_meters":9200,"station_id":"ce4bhm92rcd13ifvqglg","pricing_plan_id":"cebpf4jnsgd1na2vs0mg"},{"bike_id":"2f1bc776-0b2c-425b-82f9-745299925eeb","system_id":"levelo_inurba_marseille","lat":43.29798,"lon":5.40398,"is_reserved":false,"is_disabled":false,"rental_uris":{"android":"levelo://app?vid=2f1bc776-0b2c-425b-82f9-745299925eeb","ios":"levelo://app?vid=2f1bc776-0b2c-425b-82f9-745299925eeb"},"vehicle_type_id":"4","last_reported":1777035529,"current_range_meters":9200,"station_id":"ce4bh112rcd13ifvqd90","pricing_plan_id":"cebpf4jnsgd1na2vs0mg"},{"bike_id":"312ceb2b-f28e-46fb-b88a-f5b53355107d","system_id":"levelo_inurba_marseille","lat":43.26555,"lon":5.37296,"is_reserved":false,"is_disabled":false,"rental_uris":{"android":"levelo://app?vid=312ceb2b-f28e-46fb-b88a-f5b53355107d","ios":"levelo://app?vid=312ceb2b-f28e-46fb-b88a-f5b53355107d"},"vehicle_type_id":"4","last_reported":1777035529,"current_range_meters":9200,"station_id":"ce4bhg12rcd13ifvqf70","pricing_plan_id":"cebpf4jnsgd1na2vs0mg"},{"bike_id":"ebf4bd81-18d0-4300-ba98-4ecb924642b0","system_id":"levelo_inurba_marseille","lat":43.26851,"lon":5.38408,"is_reserved":false,"is_disabled":false,"rental_uris":{"android":"levelo://app?vid=ebf4bd81-18d0-4300-ba98-4ecb924642b0","ios":"levelo://app?vid=ebf4bd81-18d0-4300-ba98-4ecb924642b0"},"vehicle_type_id":"4","last_reported":1777035529,"current_range_meters":9200,"station_id":"","pricing_plan_id":"cebpf4jnsgd1na2vs0mg"},{"bike_id":"2273e8b6-9592-4bbe-8072-82c8f93de92b","system_id":"levelo_inurba_marseille","lat":43.29934,"lon":5.36554,"is_reserved":false,"is_disabled":false,"rental_uris":{"android":"levelo://app?vid=2273e8b6-9592-4bbe-8072-82c8f93de92b","ios":"levelo://app?vid=2273e8b6-9592-4bbe-8072-82c8f93de92b"},"vehicle_type_id":"4","last_reported":1777035529,"current_range_meters":9200,"station_id":"ce4bgm92rcd13ifvqbr0","pricing_plan_id":"cebpf4jnsgd1na2vs0mg"},{"bike_id":"6a382a26-93df-4b4f-99b6-0161544321ed","system_id":"levelo_inurba_marseille","lat":43.28279,"lon":5.35063,"is_reserved":false,"is_disabled":true,"rental_uris":{"android":"levelo://app?vid=6a382a26-93df-4b4f-99b6-0161544321ed","ios":"levelo://app?vid=6a382a26-93df-4b4f-99b6-0161544321ed"},"vehicle_type_id":"4","last_reported":1777035529,"current_range_meters":9600,"station_id":"ce4bhbp2rcd13ifvqerg","pricing_plan_id":"cebpf4jnsgd1na2vs0mg"},{"bike_id":"0ce641a1-ca62-4f05-b894-4a72f77b98f2","system_id":"levelo_inurba_marseille","lat":43.32361,"lon":5.36749,"is_reserved":false,"is_disabled":false,"rental_uris":{"android":"levelo://app?vid=0ce641a1-ca62-4f05-b894-4a72f77b98f2","ios":"levelo://app?vid=0ce641a1-ca62-4f05-b894-4a72f77b98f2"},"vehicle_type_id":"4","last_reported":1777035529,"current_range_meters":9600,"station_id":"ce4bhsh2rcd13ifvqi2g","pricing_plan_id":"cebpf4jnsgd1na2vs0mg"},{"bike_id":"3b203e3c-624f-4b21-bfc8-3f77dd96612d","system_id":"levelo_inurba_marseille","lat":43.28427,"lon":5.34944,"is_reserved":false,"is_disabled":true,"rental_uris":{"android":"levelo://app?vid=3b203e3c-624f-4b21-bfc8-3f77dd96612d","ios":"levelo://app?vid=3b203e3c-624f-4b21-bfc8-3f77dd96612d"},"vehicle_type_id":"4","last_reported":1777035529,"current_range_meters":9600,"station_id":"ce4bhbh2rcd13ifvqepg","pricing_plan_id":"cebpf4jnsgd1na2vs0mg"},{"bike_id":"319fc46a-a2a7-4194-a561-ed577a763aeb","system_id":"levelo_inurba_marseille","lat":43.3136,"lon":5.36717,"is_reserved":false,"is_disabled":false,"rental_uris":{"android":"levelo://app?vid=319fc46a-a2a7-4194-a561-ed577a763aeb","ios":"levelo://app?vid=319fc46a-a2a7-4194-a561-ed577a763aeb"},"vehicle_type_id":"4","last_reported":1777035529,"current_range_meters":9600,"station_id":"ce4bgr92rcd13ifvqc6g","pricing_plan_id":"cebpf4jnsgd1na2vs0mg"},{"bike_id":"1d6aaf32-d1e2-48b7-a3d7-63490af8753a","system_id":"levelo_inurba_marseille","lat":43.30546,"lon":5.36684,"is_reserved":false,"is_disabled":false,"rental_uris":{"android":"levelo://app?vid=1d6aaf32-d1e2-48b7-a3d7-63490af8753a","ios":"levelo://app?vid=1d6aaf32-d1e2-48b7-a3d7-63490af8753a"},"vehicle_type_id":"4","last_reported":1777035529,"current_range_meters":9600,"station_id":"ce4bgrp2rcd13ifvqc9g","pricing_plan_id":"cebpf4jnsgd1na2vs0mg"},{"bike_id":"86cf98f1-79b2-455f-be1a-53ecde8650e6","system_id":"levelo_inurba_marseille","lat":43.25086,"lon":5.39491,"is_reserved":false,"is_disabled":false,"rental_uris":{"android":"levelo://app?vid=86cf98f1-79b2-455f-be1a-53ecde8650e6","ios":"levelo://app?vid=86cf98f1-79b2-455f-be1a-53ecde8650e6"},"vehicle_type_id":"4","last_reported":1777035529,"current_range_meters":9600,"station_id":"ce4bhm12rcd13ifvqgkg","pricing_plan_id":"cebpf4jnsgd1na2vs0mg"},{"bike_id":"44d1fb4d-087a-47d8-9d97-bb5149c08cc7","system_id":"levelo_inurba_marseille","lat":43.27376,"lon":5.36245,"is_reserved":false,"is_disabled":false,"rental_uris":{"android":"levelo://app?vid=44d1fb4d-087a-47d8-9d97-bb5149c08cc7","ios":"levelo://app?vid=44d1fb4d-087a-47d8-9d97-bb5149c08cc7"},"vehicle_type_id":"4","last_reported":1777035529,"current_range_meters":9600,"station_id":"ce4bhbh2rcd13ifvqeo0","pricing_plan_id":"cebpf4jnsgd1na2vs0mg"},{"bike_id":"4e7f60dc-2079-4f51-9d09-01d31cdd2f9b","system_id":"levelo_inurba_marseille","lat":43.24641,"lon":5.43128,"is_reserved":false,"is_disabled":false,"rental_uris":{"android":"levelo://app?vid=4e7f60dc-2079-4f51-9d09-01d31cdd2f9b","ios":"levelo://app?vid=4e7f60dc-2079-4f51-9d09-01d31cdd2f9b"},"vehicle_type_id":"4","last_reported":1777035529,"current_range_meters":9600,"station_id":"st_d2m6c4gdas8pm72e190g","pricing_plan_id":"cebpf4jnsgd1na2vs0mg"},{"bike_id":"f85e6d5d-6d6a-45bb-9d98-704ee0dcf2a8","system_id":"levelo_inurba_marseille","lat":43.28412,"lon":5.34974,"is_reserved":false,"is_disabled":false,"rental_uris":{"android":"levelo://app?vid=f85e6d5d-6d6a-45bb-9d98-704ee0dcf2a8","ios":"levelo://app?vid=f85e6d5d-6d6a-45bb-9d98-704ee0dcf2a8"},"vehicle_type_id":"4","last_reported":1777035529,"current_range_meters":9600,"station_id":"ce4bhbh2rcd13ifvqepg","pricing_plan_id":"cebpf4jnsgd1na2vs0mg"},{"bike_id":"da7e4629-4059-4617-bcd1-f00f08c55fc0","system_id":"levelo_inurba_marseille","lat":43.24398,"lon":5.37042,"is_reserved":false,"is_disabled":false,"rental_uris":{"android":"levelo://app?vid=da7e4629-4059-4617-bcd1-f00f08c55fc0","ios":"levelo://app?vid=da7e4629-4059-4617-bcd1-f00f08c55fc0"},"vehicle_type_id":"4","last_reported":1777035529,"current_range_meters":9600,"station_id":"ce4bhhh2rcd13ifvqfk0","pricing_plan_id":"cebpf4jnsgd1na2vs0mg"},{"bike_id":"88433a5c-5cc8-44f0-9481-9d54607dfdba","system_id":"levelo_inurba_marseille","lat":43.27384,"lon":5.36254,"is_reserved":false,"is_disabled":false,"rental_uris":{"android":"levelo://app?vid=88433a5c-5cc8-44f0-9481-9d54607dfdba","ios":"levelo://app?vid=88433a5c-5cc8-44f0-9481-9d54607dfdba"},"vehicle_type_id":"4","last_reported":1777035529,"current_range_meters":9600,"station_id":"ce4bhbh2rcd13ifvqeo0","pricing_plan_id":"cebpf4jnsgd1na2vs0mg"},{"bike_id":"1047d24e-b738-4eec-94e0-8badc98c2d00","system_id":"levelo_inurba_marseille","lat":43.28573,"lon":5.39484,"is_reserved":false,"is_disabled":false,"rental_uris":{"android":"levelo://app?vid=1047d24e-b738-4eec-94e0-8badc98c2d00","ios":"levelo://app?vid=1047d24e-b738-4eec-94e0-8badc98c2d00"},"vehicle_type_id":"4","last_reported":1777035529,"current_range_meters":9600,"station_id":"ce4bh292rcd13ifvqdg0","pricing_plan_id":"cebpf4jnsgd1na2vs0mg"},{"bike_id":"4d5b4915-5fc0-4782-a3a4-e445cc2cf470","system_id":"levelo_inurba_marseille","lat":43.29871,"lon":5.42101,"is_reserved":false,"is_disabled":false,"rental_uris":{"android":"levelo://app?vid=4d5b4915-5fc0-4782-a3a4-e445cc2cf470","ios":"levelo://app?vid=4d5b4915-5fc0-4782-a3a4-e445cc2cf470"},"vehicle_type_id":"4","last_reported":1777035529,"current_range_meters":9600,"station_id":"st_d6tc004otcvc738tfe70","pricing_plan_id":"cebpf4jnsgd1na2vs0mg"},{"bike_id":"49b7c574-cc22-4468-b233-d66d360fda6f","system_id":"levelo_inurba_marseille","lat":43.25875,"lon":5.39888,"is_reserved":false,"is_disabled":false,"rental_uris":{"android":"levelo://app?vid=49b7c574-cc22-4468-b233-d66d360fda6f","ios":"levelo://app?vid=49b7c574-cc22-4468-b233-d66d360fda6f"},"vehicle_type_id":"4","last_reported":1777035529,"current_range_meters":9600,"station_id":"ce4bhl92rcd13ifvqghg","pricing_plan_id":"cebpf4jnsgd1na2vs0mg"},{"bike_id":"541dbded-315f-4ca8-ac49-47fcb4294bb7","system_id":"levelo_inurba_marseille","lat":43.33543,"lon":5.37452,"is_reserved":false,"is_disabled":false,"rental_uris":{"android":"levelo://app?vid=541dbded-315f-4ca8-ac49-47fcb4294bb7","ios":"levelo://app?vid=541dbded-315f-4ca8-ac49-47fcb4294bb7"},"vehicle_type_id":"4","last_reported":1777035529,"current_range_meters":9600,"station_id":"st_d46tts09ee8s73dlu43g","pricing_plan_id":"cebpf4jnsgd1na2vs0mg"},{"bike_id":"2ceb0c0a-e885-473f-b053-1c655e7b76ff","system_id":"levelo_inurba_marseille","lat":43.24391,"lon":5.37044,"is_reserved":false,"is_disabled":false,"rental_uris":{"android":"levelo://app?vid=2ceb0c0a-e885-473f-b053-1c655e7b76ff","ios":"levelo://app?vid=2ceb0c0a-e885-473f-b053-1c655e7b76ff"},"vehicle_type_id":"4","last_reported":1777035529,"current_range_meters":9600,"station_id":"ce4bhhh2rcd13ifvqfk0","pricing_plan_id":"cebpf4jnsgd1na2vs0mg"},{"bike_id":"1fca75f8-441b-4688-b894-ff3c362d408b","system_id":"levelo_inurba_marseille","lat":43.25872,"lon":5.39893,"is_reserved":false,"is_disabled":false,"rental_uris":{"android":"levelo://app?vid=1fca75f8-441b-4688-b894-ff3c362d408b","ios":"levelo://app?vid=1fca75f8-441b-4688-b894-ff3c362d408b"},"vehicle_type_id":"4","last_reported":1777035529,"current_range_meters":9600,"station_id":"ce4bhl92rcd13ifvqghg","pricing_plan_id":"cebpf4jnsgd1na2vs0mg"},{"bike_id":"d0639146-ebfb-455a-9e48-184bd4e83fb2","system_id":"levelo_inurba_marseille","lat":43.27205,"lon":5.3918,"is_reserved":false,"is_disabled":false,"rental_uris":{"android":"levelo://app?vid=d0639146-ebfb-455a-9e48-184bd4e83fb2","ios":"levelo://app?vid=d0639146-ebfb-455a-9e48-184bd4e83fb2"},"vehicle_type_id":"4","last_reported":1777035529,"current_range_meters":10000,"station_id":"ce4bhhp2rcd13ifvqfm0","pricing_plan_id":"cebpf4jnsgd1na2vs0mg"},{"bike_id":"438ef943-6365-44b4-889f-44915622d8c6","system_id":"levelo_inurba_marseille","lat":43.31123,"lon":5.37776,"is_reserved":false,"is_disabled":false,"rental_uris":{"android":"levelo://app?vid=438ef943-6365-44b4-889f-44915622d8c6","ios":"levelo://app?vid=438ef943-6365-44b4-889f-44915622d8c6"},"vehicle_type_id":"4","last_reported":1777035529,"current_range_meters":10000,"station_id":"ce4bgt92rcd13ifvqcg0","pricing_plan_id":"cebpf4jnsgd1na2vs0mg"},{"bike_id":"f06f2950-091f-489e-b5a8-1e1d8692479c","system_id":"levelo_inurba_marseille","lat":43.24695,"lon":5.38098,"is_reserved":false,"is_disabled":false,"rental_uris":{"android":"levelo://app?vid=f06f2950-091f-489e-b5a8-1e1d8692479c","ios":"levelo://app?vid=f06f2950-091f-489e-b5a8-1e1d8692479c"},"vehicle_type_id":"4","last_reported":1777035529,"current_range_meters":10000,"station_id":"","pricing_plan_id":"cebpf4jnsgd1na2vs0mg"},{"bike_id":"38316cf9-b07a-4b83-ba48-efffb4fa8e8f","system_id":"levelo_inurba_marseille","lat":43.26685,"lon":5.38257,"is_reserved":false,"is_disabled":false,"rental_uris":{"android":"levelo://app?vid=38316cf9-b07a-4b83-ba48-efffb4fa8e8f","ios":"levelo://app?vid=38316cf9-b07a-4b83-ba48-efffb4fa8e8f"},"vehicle_type_id":"4","last_reported":1777035529,"current_range_meters":10000,"station_id":"ce4bhg92rcd13ifvqf90","pricing_plan_id":"cebpf4jnsgd1na2vs0mg"},{"bike_id":"517b465b-1cbe-47c0-8062-1f1f68f9139f","system_id":"levelo_inurba_marseille","lat":43.23189,"lon":5.35546,"is_reserved":false,"is_disabled":false,"rental_uris":{"android":"levelo://app?vid=517b465b-1cbe-47c0-8062-1f1f68f9139f","ios":"levelo://app?vid=517b465b-1cbe-47c0-8062-1f1f68f9139f"},"vehicle_type_id":"4","last_reported":1777035529,"current_range_meters":10000,"station_id":"ce4bhu92rcd13ifvqi70","pricing_plan_id":"cebpf4jnsgd1na2vs0mg"},{"bike_id":"f01b33b4-d615-44f3-8c41-5a4c243a6920","system_id":"levelo_inurba_marseille","lat":43.35196,"lon":5.43952,"is_reserved":false,"is_disabled":false,"rental_uris":{"android":"levelo://app?vid=f01b33b4-d615-44f3-8c41-5a4c243a6920","ios":"levelo://app?vid=f01b33b4-d615-44f3-8c41-5a4c243a6920"},"vehicle_type_id":"4","last_reported":1777035529,"current_range_meters":10000,"station_id":"","pricing_plan_id":"cebpf4jnsgd1na2vs0mg"},{"bike_id":"1d368fe1-0c8f-4a40-864c-b54082c58fa1","system_id":"levelo_inurba_marseille","lat":43.3356,"lon":5.37465,"is_reserved":false,"is_disabled":false,"rental_uris":{"android":"levelo://app?vid=1d368fe1-0c8f-4a40-864c-b54082c58fa1","ios":"levelo://app?vid=1d368fe1-0c8f-4a40-864c-b54082c58fa1"},"vehicle_type_id":"4","last_reported":1777035529,"current_range_meters":10000,"station_id":"st_d46tts09ee8s73dlu43g","pricing_plan_id":"cebpf4jnsgd1na2vs0mg"},{"bike_id":"4d240a71-478a-4f2a-bbe7-151abc0e2f0d","system_id":"levelo_inurba_marseille","lat":43.28287,"lon":5.35076,"is_reserved":false,"is_disabled":false,"rental_uris":{"android":"levelo://app?vid=4d240a71-478a-4f2a-bbe7-151abc0e2f0d","ios":"levelo://app?vid=4d240a71-478a-4f2a-bbe7-151abc0e2f0d"},"vehicle_type_id":"4","last_reported":1777035529,"current_range_meters":10000,"station_id":"ce4bhbp2rcd13ifvqerg","pricing_plan_id":"cebpf4jnsgd1na2vs0mg"},{"bike_id":"5e567c6f-c3bb-42a2-a98c-8bccbcf3a22d","system_id":"levelo_inurba_marseille","lat":43.292992,"lon":5.371791,"is_reserved":false,"is_disabled":false,"rental_uris":{"android":"levelo://app?vid=5e567c6f-c3bb-42a2-a98c-8bccbcf3a22d","ios":"levelo://app?vid=5e567c6f-c3bb-42a2-a98c-8bccbcf3a22d"},"vehicle_type_id":"4","last_reported":1777035529,"current_range_meters":10000,"station_id":"ce4bgh92rcd13ifvqb40","pricing_plan_id":"cebpf4jnsgd1na2vs0mg"},{"bike_id":"2150e900-bc36-4714-8063-0320eae925a9","system_id":"levelo_inurba_marseille","lat":43.23965,"lon":5.36612,"is_reserved":false,"is_disabled":false,"rental_uris":{"android":"levelo://app?vid=2150e900-bc36-4714-8063-0320eae925a9","ios":"levelo://app?vid=2150e900-bc36-4714-8063-0320eae925a9"},"vehicle_type_id":"4","last_reported":1777035529,"current_range_meters":10000,"station_id":"ce4bhi12rcd13ifvqfp0","pricing_plan_id":"cebpf4jnsgd1na2vs0mg"},{"bike_id":"df3e7159-d54c-4394-99e7-4709ba4823e3","system_id":"levelo_inurba_marseille","lat":43.28616,"lon":5.35103,"is_reserved":false,"is_disabled":false,"rental_uris":{"android":"levelo://app?vid=df3e7159-d54c-4394-99e7-4709ba4823e3","ios":"levelo://app?vid=df3e7159-d54c-4394-99e7-4709ba4823e3"},"vehicle_type_id":"4","last_reported":1777035529,"current_range_meters":10000,"station_id":"ce4bhch2rcd13ifvqeug","pricing_plan_id":"cebpf4jnsgd1na2vs0mg"},{"bike_id":"bbc27b4e-53cb-43fb-aca8-08a0cfdef647","system_id":"levelo_inurba_marseille","lat":43.2739,"lon":5.36253,"is_reserved":false,"is_disabled":false,"rental_uris":{"android":"levelo://app?vid=bbc27b4e-53cb-43fb-aca8-08a0cfdef647","ios":"levelo://app?vid=bbc27b4e-53cb-43fb-aca8-08a0cfdef647"},"vehicle_type_id":"4","last_reported":1777035529,"current_range_meters":10000,"station_id":"ce4bhbh2rcd13ifvqeo0","pricing_plan_id":"cebpf4jnsgd1na2vs0mg"},{"bike_id":"f8882205-13cd-4a5e-8260-e7b103be5195","system_id":"levelo_inurba_marseille","lat":43.26944,"lon":5.40248,"is_reserved":false,"is_disabled":false,"rental_uris":{"android":"levelo://app?vid=f8882205-13cd-4a5e-8260-e7b103be5195","ios":"levelo://app?vid=f8882205-13cd-4a5e-8260-e7b103be5195"},"vehicle_type_id":"4","last_reported":1777035529,"current_range_meters":10000,"station_id":"cjm6bp8fraef2m0cb0m0","pricing_plan_id":"cebpf4jnsgd1na2vs0mg"},{"bike_id":"f9fc9bbb-9a0c-4ccd-999f-88ac996e3654","system_id":"levelo_inurba_marseille","lat":43.27981,"lon":5.38979,"is_reserved":false,"is_disabled":false,"rental_uris":{"android":"levelo://app?vid=f9fc9bbb-9a0c-4ccd-999f-88ac996e3654","ios":"levelo://app?vid=f9fc9bbb-9a0c-4ccd-999f-88ac996e3654"},"vehicle_type_id":"4","last_reported":1777035529,"current_range_meters":10000,"station_id":"","pricing_plan_id":"cebpf4jnsgd1na2vs0mg"},{"bike_id":"bc58b7a6-5aec-41c9-a659-16ee0a1a7b53","system_id":"levelo_inurba_marseille","lat":43.27309,"lon":5.39087,"is_reserved":false,"is_disabled":false,"rental_uris":{"android":"levelo://app?vid=bc58b7a6-5aec-41c9-a659-16ee0a1a7b53","ios":"levelo://app?vid=bc58b7a6-5aec-41c9-a659-16ee0a1a7b53"},"vehicle_type_id":"4","last_reported":1777035529,"current_range_meters":10000,"station_id":"ce4bhgp2rcd13ifvqfe0","pricing_plan_id":"cebpf4jnsgd1na2vs0mg"},{"bike_id":"717a90cf-144a-408c-bd99-c8be6fdfc4bc","system_id":"levelo_inurba_marseille","lat":43.29007,"lon":5.35607,"is_reserved":false,"is_disabled":false,"rental_uris":{"android":"levelo://app?vid=717a90cf-144a-408c-bd99-c8be6fdfc4bc","ios":"levelo://app?vid=717a90cf-144a-408c-bd99-c8be6fdfc4bc"},"vehicle_type_id":"4","last_reported":1777035529,"current_range_meters":10000,"station_id":"ce4bhb92rcd13ifvqen0","pricing_plan_id":"cebpf4jnsgd1na2vs0mg"},{"bike_id":"cdd01abc-cd5e-4e23-818f-3f9a6ff13eb5","system_id":"levelo_inurba_marseille","lat":43.24938,"lon":5.40468,"is_reserved":false,"is_disabled":false,"rental_uris":{"android":"levelo://app?vid=cdd01abc-cd5e-4e23-818f-3f9a6ff13eb5","ios":"levelo://app?vid=cdd01abc-cd5e-4e23-818f-3f9a6ff13eb5"},"vehicle_type_id":"4","last_reported":1777035529,"current_range_meters":10000,"station_id":"st_d2ngiaodas8pm72gd1h0","pricing_plan_id":"cebpf4jnsgd1na2vs0mg"},{"bike_id":"f9c20f80-af9b-4a43-9704-f9047f6b00ea","system_id":"levelo_inurba_marseille","lat":43.27372,"lon":5.36252,"is_reserved":false,"is_disabled":false,"rental_uris":{"android":"levelo://app?vid=f9c20f80-af9b-4a43-9704-f9047f6b00ea","ios":"levelo://app?vid=f9c20f80-af9b-4a43-9704-f9047f6b00ea"},"vehicle_type_id":"4","last_reported":1777035529,"current_range_meters":10800,"station_id":"ce4bhbh2rcd13ifvqeo0","pricing_plan_id":"cebpf4jnsgd1na2vs0mg"},{"bike_id":"2598f570-d1f3-4eff-bf34-6a0188603e48","system_id":"levelo_inurba_marseille","lat":43.31385,"lon":5.38484,"is_reserved":false,"is_disabled":false,"rental_uris":{"android":"levelo://app?vid=2598f570-d1f3-4eff-bf34-6a0188603e48","ios":"levelo://app?vid=2598f570-d1f3-4eff-bf34-6a0188603e48"},"vehicle_type_id":"4","last_reported":1777035529,"current_range_meters":10800,"station_id":"ce4bgt92rcd13ifvqcf0","pricing_plan_id":"cebpf4jnsgd1na2vs0mg"},{"bike_id":"75159661-f6cc-42d8-9cfc-ea6d60ca6ffb","system_id":"levelo_inurba_marseille","lat":43.31355,"lon":5.38474,"is_reserved":false,"is_disabled":false,"rental_uris":{"android":"levelo://app?vid=75159661-f6cc-42d8-9cfc-ea6d60ca6ffb","ios":"levelo://app?vid=75159661-f6cc-42d8-9cfc-ea6d60ca6ffb"},"vehicle_type_id":"4","last_reported":1777035529,"current_range_meters":10800,"station_id":"ce4bgt92rcd13ifvqcf0","pricing_plan_id":"cebpf4jnsgd1na2vs0mg"},{"bike_id":"f645e30b-5616-45b3-a17d-faf4a49d971d","system_id":"levelo_inurba_marseille","lat":43.31,"lon":5.37533,"is_reserved":false,"is_disabled":false,"rental_uris":{"android":"levelo://app?vid=f645e30b-5616-45b3-a17d-faf4a49d971d","ios":"levelo://app?vid=f645e30b-5616-45b3-a17d-faf4a49d971d"},"vehicle_type_id":"4","last_reported":1777035529,"current_range_meters":10800,"station_id":"","pricing_plan_id":"cebpf4jnsgd1na2vs0mg"},{"bike_id":"886828e3-ae32-47a4-a9ad-d146960797b6","system_id":"levelo_inurba_marseille","lat":43.27601,"lon":5.36111,"is_reserved":false,"is_disabled":false,"rental_uris":{"android":"levelo://app?vid=886828e3-ae32-47a4-a9ad-d146960797b6","ios":"levelo://app?vid=886828e3-ae32-47a4-a9ad-d146960797b6"},"vehicle_type_id":"4","last_reported":1777035529,"current_range_meters":10800,"station_id":"ce4bgj92rcd13ifvqbe0","pricing_plan_id":"cebpf4jnsgd1na2vs0mg"},{"bike_id":"4cb9a5c8-1cc0-464a-ba23-88b2c3ae8eac","system_id":"levelo_inurba_marseille","lat":43.2977,"lon":5.371,"is_reserved":false,"is_disabled":false,"rental_uris":{"android":"levelo://app?vid=4cb9a5c8-1cc0-464a-ba23-88b2c3ae8eac","ios":"levelo://app?vid=4cb9a5c8-1cc0-464a-ba23-88b2c3ae8eac"},"vehicle_type_id":"4","last_reported":1777035529,"current_range_meters":10800,"station_id":"ce4bgop2rcd13ifvqc1g","pricing_plan_id":"cebpf4jnsgd1na2vs0mg"},{"bike_id":"f9b98806-d74c-46ef-8642-07dd46c19f4b","system_id":"levelo_inurba_marseille","lat":43.28708,"lon":5.46697,"is_reserved":false,"is_disabled":false,"rental_uris":{"android":"levelo://app?vid=f9b98806-d74c-46ef-8642-07dd46c19f4b","ios":"levelo://app?vid=f9b98806-d74c-46ef-8642-07dd46c19f4b"},"vehicle_type_id":"4","last_reported":1777035529,"current_range_meters":10800,"station_id":"st_d6tc3vkotcvc738tfjhg","pricing_plan_id":"cebpf4jnsgd1na2vs0mg"},{"bike_id":"6459e809-2e02-4800-9111-dfce96864440","system_id":"levelo_inurba_marseille","lat":43.23147,"lon":5.43719,"is_reserved":false,"is_disabled":false,"rental_uris":{"android":"levelo://app?vid=6459e809-2e02-4800-9111-dfce96864440","ios":"levelo://app?vid=6459e809-2e02-4800-9111-dfce96864440"},"vehicle_type_id":"4","last_reported":1777035529,"current_range_meters":10800,"station_id":"ce4bhmp2rcd13ifvqgog","pricing_plan_id":"cebpf4jnsgd1na2vs0mg"},{"bike_id":"f03e9eff-d2f2-4766-b741-c4ed891f70b6","system_id":"levelo_inurba_marseille","lat":43.29973,"lon":5.37164,"is_reserved":false,"is_disabled":false,"rental_uris":{"android":"levelo://app?vid=f03e9eff-d2f2-4766-b741-c4ed891f70b6","ios":"levelo://app?vid=f03e9eff-d2f2-4766-b741-c4ed891f70b6"},"vehicle_type_id":"4","last_reported":1777035529,"current_range_meters":10800,"station_id":"ce4bgr92rcd13ifvqc7g","pricing_plan_id":"cebpf4jnsgd1na2vs0mg"},{"bike_id":"09c87f96-5efe-4c2a-8149-cd0b9bc13af6","system_id":"levelo_inurba_marseille","lat":43.28111,"lon":5.37707,"is_reserved":false,"is_disabled":false,"rental_uris":{"android":"levelo://app?vid=09c87f96-5efe-4c2a-8149-cd0b9bc13af6","ios":"levelo://app?vid=09c87f96-5efe-4c2a-8149-cd0b9bc13af6"},"vehicle_type_id":"4","last_reported":1777035529,"current_range_meters":10800,"station_id":"","pricing_plan_id":"cebpf4jnsgd1na2vs0mg"},{"bike_id":"ed1e8cfd-c03e-49a5-9f4d-4cbaa07d650b","system_id":"levelo_inurba_marseille","lat":43.25117,"lon":5.4031,"is_reserved":false,"is_disabled":false,"rental_uris":{"android":"levelo://app?vid=ed1e8cfd-c03e-49a5-9f4d-4cbaa07d650b","ios":"levelo://app?vid=ed1e8cfd-c03e-49a5-9f4d-4cbaa07d650b"},"vehicle_type_id":"4","last_reported":1777035529,"current_range_meters":10800,"station_id":"ce4bhlh2rcd13ifvqgig","pricing_plan_id":"cebpf4jnsgd1na2vs0mg"},{"bike_id":"456a6472-dd6a-4c16-9d3d-e8ba8776b9d6","system_id":"levelo_inurba_marseille","lat":43.250794,"lon":5.395143,"is_reserved":false,"is_disabled":false,"rental_uris":{"android":"levelo://app?vid=456a6472-dd6a-4c16-9d3d-e8ba8776b9d6","ios":"levelo://app?vid=456a6472-dd6a-4c16-9d3d-e8ba8776b9d6"},"vehicle_type_id":"4","last_reported":1777035529,"current_range_meters":10800,"station_id":"ce4bhm12rcd13ifvqgkg","pricing_plan_id":"cebpf4jnsgd1na2vs0mg"},{"bike_id":"78ea3a3b-2717-4da7-aeb7-4d5b109168ac","system_id":"levelo_inurba_marseille","lat":43.3123,"lon":5.36831,"is_reserved":false,"is_disabled":false,"rental_uris":{"android":"levelo://app?vid=78ea3a3b-2717-4da7-aeb7-4d5b109168ac","ios":"levelo://app?vid=78ea3a3b-2717-4da7-aeb7-4d5b109168ac"},"vehicle_type_id":"4","last_reported":1777035529,"current_range_meters":10800,"station_id":"ce4bgl92rcd13ifvqbq0","pricing_plan_id":"cebpf4jnsgd1na2vs0mg"},{"bike_id":"63348370-2a28-4d1e-a264-928a1aaf4eae","system_id":"levelo_inurba_marseille","lat":43.24201,"lon":5.39731,"is_reserved":false,"is_disabled":false,"rental_uris":{"android":"levelo://app?vid=63348370-2a28-4d1e-a264-928a1aaf4eae","ios":"levelo://app?vid=63348370-2a28-4d1e-a264-928a1aaf4eae"},"vehicle_type_id":"4","last_reported":1777035529,"current_range_meters":10800,"station_id":"ce4bhn12rcd13ifvqgpg","pricing_plan_id":"cebpf4jnsgd1na2vs0mg"},{"bike_id":"dd7d9d18-5bf0-463b-b69d-61bb9db8b081","system_id":"levelo_inurba_marseille","lat":43.2316,"lon":5.43689,"is_reserved":false,"is_disabled":false,"rental_uris":{"android":"levelo://app?vid=dd7d9d18-5bf0-463b-b69d-61bb9db8b081","ios":"levelo://app?vid=dd7d9d18-5bf0-463b-b69d-61bb9db8b081"},"vehicle_type_id":"4","last_reported":1777035529,"current_range_meters":10800,"station_id":"ce4bhmp2rcd13ifvqgog","pricing_plan_id":"cebpf4jnsgd1na2vs0mg"},{"bike_id":"482ba7d1-97cb-4f18-a0b1-1e539132a364","system_id":"levelo_inurba_marseille","lat":43.30597,"lon":5.37205,"is_reserved":false,"is_disabled":false,"rental_uris":{"android":"levelo://app?vid=482ba7d1-97cb-4f18-a0b1-1e539132a364","ios":"levelo://app?vid=482ba7d1-97cb-4f18-a0b1-1e539132a364"},"vehicle_type_id":"4","last_reported":1777035529,"current_range_meters":10800,"station_id":"ce4bgqh2rcd13ifvqc4g","pricing_plan_id":"cebpf4jnsgd1na2vs0mg"},{"bike_id":"927c7da1-5c91-43a6-a3d4-1d99f6daaf05","system_id":"levelo_inurba_marseille","lat":43.25871,"lon":5.39889,"is_reserved":false,"is_disabled":false,"rental_uris":{"android":"levelo://app?vid=927c7da1-5c91-43a6-a3d4-1d99f6daaf05","ios":"levelo://app?vid=927c7da1-5c91-43a6-a3d4-1d99f6daaf05"},"vehicle_type_id":"4","last_reported":1777035529,"current_range_meters":11200,"station_id":"ce4bhl92rcd13ifvqghg","pricing_plan_id":"cebpf4jnsgd1na2vs0mg"},{"bike_id":"5687bcf3-d7dc-457c-91e4-c37491638fcd","system_id":"levelo_inurba_marseille","lat":43.24168,"lon":5.36389,"is_reserved":false,"is_disabled":false,"rental_uris":{"android":"levelo://app?vid=5687bcf3-d7dc-457c-91e4-c37491638fcd","ios":"levelo://app?vid=5687bcf3-d7dc-457c-91e4-c37491638fcd"},"vehicle_type_id":"4","last_reported":1777035529,"current_range_meters":11200,"station_id":"cpo36qri1sfpv3e86is0","pricing_plan_id":"cebpf4jnsgd1na2vs0mg"},{"bike_id":"46ab8f2c-d7fa-43da-bc1d-70704a6de6f0","system_id":"levelo_inurba_marseille","lat":43.21749,"lon":5.34591,"is_reserved":false,"is_disabled":false,"rental_uris":{"android":"levelo://app?vid=46ab8f2c-d7fa-43da-bc1d-70704a6de6f0","ios":"levelo://app?vid=46ab8f2c-d7fa-43da-bc1d-70704a6de6f0"},"vehicle_type_id":"4","last_reported":1777035529,"current_range_meters":11200,"station_id":"st_cvj6r9ubvosntc0bgbag","pricing_plan_id":"cebpf4jnsgd1na2vs0mg"},{"bike_id":"41ea7f32-400c-4867-8f7f-432da959f070","system_id":"levelo_inurba_marseille","lat":43.22931,"lon":5.35358,"is_reserved":false,"is_disabled":false,"rental_uris":{"android":"levelo://app?vid=41ea7f32-400c-4867-8f7f-432da959f070","ios":"levelo://app?vid=41ea7f32-400c-4867-8f7f-432da959f070"},"vehicle_type_id":"4","last_reported":1777035529,"current_range_meters":11200,"station_id":"cpo3532slgdg3j2ikp40","pricing_plan_id":"cebpf4jnsgd1na2vs0mg"},{"bike_id":"f3a6c126-c89b-4db4-b2dd-30b231c4273c","system_id":"levelo_inurba_marseille","lat":43.29842,"lon":5.36269,"is_reserved":false,"is_disabled":false,"rental_uris":{"android":"levelo://app?vid=f3a6c126-c89b-4db4-b2dd-30b231c4273c","ios":"levelo://app?vid=f3a6c126-c89b-4db4-b2dd-30b231c4273c"},"vehicle_type_id":"4","last_reported":1777035529,"current_range_meters":11200,"station_id":"ce4bgpp2rcd13ifvqc3g","pricing_plan_id":"cebpf4jnsgd1na2vs0mg"},{"bike_id":"1386bfa7-6bcf-4399-9c5e-3321a779863e","system_id":"levelo_inurba_marseille","lat":43.29714,"lon":5.37685,"is_reserved":false,"is_disabled":false,"rental_uris":{"android":"levelo://app?vid=1386bfa7-6bcf-4399-9c5e-3321a779863e","ios":"levelo://app?vid=1386bfa7-6bcf-4399-9c5e-3321a779863e"},"vehicle_type_id":"4","last_reported":1777035529,"current_range_meters":11200,"station_id":"ce4bgkh2rcd13ifvqbl0","pricing_plan_id":"cebpf4jnsgd1na2vs0mg"},{"bike_id":"f5a9ca18-c4dc-45c2-aa08-3507e43e57ed","system_id":"levelo_inurba_marseille","lat":43.29272,"lon":5.36837,"is_reserved":false,"is_disabled":false,"rental_uris":{"android":"levelo://app?vid=f5a9ca18-c4dc-45c2-aa08-3507e43e57ed","ios":"levelo://app?vid=f5a9ca18-c4dc-45c2-aa08-3507e43e57ed"},"vehicle_type_id":"4","last_reported":1777035529,"current_range_meters":11200,"station_id":"ce4bhbp2rcd13ifvqesg","pricing_plan_id":"cebpf4jnsgd1na2vs0mg"},{"bike_id":"f1e7e8c4-60cc-4186-bb7f-7504f21e6a06","system_id":"levelo_inurba_marseille","lat":43.24391,"lon":5.37067,"is_reserved":false,"is_disabled":false,"rental_uris":{"android":"levelo://app?vid=f1e7e8c4-60cc-4186-bb7f-7504f21e6a06","ios":"levelo://app?vid=f1e7e8c4-60cc-4186-bb7f-7504f21e6a06"},"vehicle_type_id":"4","last_reported":1777035529,"current_range_meters":11200,"station_id":"ce4bhhh2rcd13ifvqfk0","pricing_plan_id":"cebpf4jnsgd1na2vs0mg"},{"bike_id":"fea5a28c-0167-4a62-9062-e629ed9b3e8f","system_id":"levelo_inurba_marseille","lat":43.28479,"lon":5.48408,"is_reserved":false,"is_disabled":false,"rental_uris":{"android":"levelo://app?vid=fea5a28c-0167-4a62-9062-e629ed9b3e8f","ios":"levelo://app?vid=fea5a28c-0167-4a62-9062-e629ed9b3e8f"},"vehicle_type_id":"4","last_reported":1777035529,"current_range_meters":11200,"station_id":"st_d3svhcjqgbts73a3dn0g","pricing_plan_id":"cebpf4jnsgd1na2vs0mg"},{"bike_id":"95e8edf7-efcf-4288-8a51-58b355c80bf7","system_id":"levelo_inurba_marseille","lat":43.28017,"lon":5.3693,"is_reserved":false,"is_disabled":false,"rental_uris":{"android":"levelo://app?vid=95e8edf7-efcf-4288-8a51-58b355c80bf7","ios":"levelo://app?vid=95e8edf7-efcf-4288-8a51-58b355c80bf7"},"vehicle_type_id":"4","last_reported":1777035529,"current_range_meters":11200,"station_id":"ce4bha12rcd13ifvqef0","pricing_plan_id":"cebpf4jnsgd1na2vs0mg"},{"bike_id":"338eb1bb-ada5-49f4-89dd-59576354bc94","system_id":"levelo_inurba_marseille","lat":43.32903,"lon":5.36558,"is_reserved":false,"is_disabled":false,"rental_uris":{"android":"levelo://app?vid=338eb1bb-ada5-49f4-89dd-59576354bc94","ios":"levelo://app?vid=338eb1bb-ada5-49f4-89dd-59576354bc94"},"vehicle_type_id":"4","last_reported":1777035529,"current_range_meters":11200,"station_id":"","pricing_plan_id":"cebpf4jnsgd1na2vs0mg"},{"bike_id":"e607d3ad-5161-4bae-9698-70a5f0663017","system_id":"levelo_inurba_marseille","lat":43.31993,"lon":5.38137,"is_reserved":false,"is_disabled":false,"rental_uris":{"android":"levelo://app?vid=e607d3ad-5161-4bae-9698-70a5f0663017","ios":"levelo://app?vid=e607d3ad-5161-4bae-9698-70a5f0663017"},"vehicle_type_id":"4","last_reported":1777035529,"current_range_meters":11200,"station_id":"ce4bhr12rcd13ifvqhpg","pricing_plan_id":"cebpf4jnsgd1na2vs0mg"},{"bike_id":"5fd405f4-2861-4066-b7c4-84104fd40893","system_id":"levelo_inurba_marseille","lat":43.2843,"lon":5.34966,"is_reserved":false,"is_disabled":false,"rental_uris":{"android":"levelo://app?vid=5fd405f4-2861-4066-b7c4-84104fd40893","ios":"levelo://app?vid=5fd405f4-2861-4066-b7c4-84104fd40893"},"vehicle_type_id":"4","last_reported":1777035529,"current_range_meters":11200,"station_id":"ce4bhbh2rcd13ifvqepg","pricing_plan_id":"cebpf4jnsgd1na2vs0mg"},{"bike_id":"ee8c63f2-9eb0-48ea-bbc1-616b17a18a18","system_id":"levelo_inurba_marseille","lat":43.32517,"lon":5.36556,"is_reserved":false,"is_disabled":false,"rental_uris":{"android":"levelo://app?vid=ee8c63f2-9eb0-48ea-bbc1-616b17a18a18","ios":"levelo://app?vid=ee8c63f2-9eb0-48ea-bbc1-616b17a18a18"},"vehicle_type_id":"4","last_reported":1777035529,"current_range_meters":11200,"station_id":"ce4bhs12rcd13ifvqhvg","pricing_plan_id":"cebpf4jnsgd1na2vs0mg"},{"bike_id":"d304c6af-fbd5-4817-97e4-cfde03e6ba51","system_id":"levelo_inurba_marseille","lat":43.25872,"lon":5.39917,"is_reserved":false,"is_disabled":false,"rental_uris":{"android":"levelo://app?vid=d304c6af-fbd5-4817-97e4-cfde03e6ba51","ios":"levelo://app?vid=d304c6af-fbd5-4817-97e4-cfde03e6ba51"},"vehicle_type_id":"4","last_reported":1777035529,"current_range_meters":11200,"station_id":"ce4bhl92rcd13ifvqghg","pricing_plan_id":"cebpf4jnsgd1na2vs0mg"},