{"last_updated":1712336777,"ttl":30,"version":"2.2","data":{"bikes":[{"bike_id":"218fbbad-0b4f-4de2-bafb-57d8f42033e2","system_id":"levelo_inurba_marseille","lat":43.309076,"lon":5.368465,"is_reserved":false,"is_disabled":false,"rental_uris":{"android":"levelo://app?vid=218fbbad-0b4f-4de2-bafb-57d8f42033e2","ios":"levelo://app?vid=218fbbad-0b4f-4de2-bafb-57d8f42033e2"},"vehicle_type_id":"4","last_reported":1712336777,"current_range_meters":2800,"station_id":"ce4bgn92rcd13ifvqbvg","pricing_plan_id":"cebpf4jnsgd1na2vs0mg"},{"bike_id":"a63854fc-79cd-4deb-93ed-5608c47fb6bc","system_id":"levelo_inurba_marseille","lat":43.31499,"lon":5.37261,"is_reserved":false,"is_disabled":false,"rental_uris":{"android":"levelo://app?vid=a63854fc-79cd-4deb-93ed-5608c47fb6bc","ios":"levelo://app?vid=a63854fc-79cd-4deb-93ed-5608c47fb6bc"},"vehicle_type_id":"4","last_reported":1712336777,"current_range_meters":0,"station_id":"ce4bgt12rcd13ifvqcd0","pricing_plan_id":"cebpf4jnsgd1na2vs0mg"},{"bike_id":"058ec234-e25b-4551-a790-b742c325a18b","system_id":"levelo_inurba_marseille","lat":43.314952,"lon":5.373083,"is_reserved":false,"is_disabled":false,"rental_uris":{"android":"levelo://app?vid=058ec234-e25b-4551-a790-b742c325a18b","ios":"levelo://app?vid=058ec234-e25b-4551-a790-b742c325a18b"},"vehicle_type_id":"4","last_reported":1712336777,"current_range_meters":0,"station_id":"ce4bgt12rcd13ifvqcd0","pricing_plan_id":"cebpf4jnsgd1na2vs0mg"},{"bike_id":"ba1760ca-54bb-43c8-b988-6568a4a17db0","system_id":"levelo_inurba_marseille","lat":43.314811,"lon":5.373103,"is_reserved":false,"is_disabled":false,"rental_uris":{"android":"levelo://app?vid=ba1760ca-54bb-43c8-b988-6568a4a17db0","ios":"levelo://app?vid=ba1760ca-54bb-43c8-b988-6568a4a17db0"},"vehicle_type_id":"4","last_reported":1712336777,"current_range_meters":7600,"station_id":"ce4bgt12rcd13ifvqcd0","pricing_plan_id":"cebpf4jnsgd1na2vs0mg"},{"bike_id":"4a496ff7-26ba-4480-b5c3-c9bfacf251da","system_id":"levelo_inurba_marseille","lat":43.317075,"lon":5.377367,"is_reserved":false,"is_disabled":false,"rental_uris":{"android":"levelo://app?vid=4a496ff7-26ba-4480-b5c3-c9bfacf251da","ios":"levelo://app?vid=4a496ff7-26ba-4480-b5c3-c9bfacf251da"},"vehicle_type_id":"4","last_reported":1712336777,"current_range_meters":9200,"station_id":"ce4bgth2rcd13ifvqch0","pricing_plan_id":"cebpf4jnsgd1na2vs0mg"},{"bike_id":"1df7f190-dcd1-43b7-845e-bf6c2f420f5f","system_id":"levelo_inurba_marseille","lat":43.30552,"lon":5.36706,"is_reserved":false,"is_disabled":false,"rental_uris":{"android":"levelo://app?vid=1df7f190-dcd1-43b7-845e-bf6c2f420f5f","ios":"levelo://app?vid=1df7f190-dcd1-43b7-845e-bf6c2f420f5f"},"vehicle_type_id":"4","last_reported":1712336777,"current_range_meters":0,"station_id":"ce4bgrp2rcd13ifvqc9g","pricing_plan_id":"cebpf4jnsgd1na2vs0mg"},{"bike_id":"944f6d12-2931-488b-a95f-7cc1110e5266","system_id":"levelo_inurba_marseille","lat":43.30531,"lon":5.36695,"is_reserved":false,"is_disabled":false,"rental_uris":{"android":"levelo://app?vid=944f6d12-2931-488b-a95f-7cc1110e5266","ios":"levelo://app?vid=944f6d12-2931-488b-a95f-7cc1110e5266"},"vehicle_type_id":"4","last_reported":1712336777,"current_range_meters":0,"station_id":"ce4bgrp2rcd13ifvqc9g","pricing_plan_id":"cebpf4jnsgd1na2vs0mg"},{"bike_id":"7feb2f06-15ff-4b5c-bece-4a1b677f95f9","system_id":"levelo_inurba_marseille","lat":43.312239,"lon":5.368562,"is_reserved":false,"is_disabled":false,"rental_uris":{"android":"levelo://app?vid=7feb2f06-15ff-4b5c-bece-4a1b677f95f9","ios":"levelo://app?vid=7feb2f06-15ff-4b5c-bece-4a1b677f95f9"},"vehicle_type_id":"4","last_reported":1712336777,"current_range_meters":15600,"station_id":"ce4bgl92rcd13ifvqbq0","pricing_plan_id":"cebpf4jnsgd1na2vs0mg"},{"bike_id":"f4754372-b611-4b4e-a67f-8e3eb01efafa","system_id":"levelo_inurba_marseille","lat":43.305368,"lon":5.367343,"is_reserved":false,"is_disabled":false,"rental_uris":{"android":"levelo://app?vid=f4754372-b611-4b4e-a67f-8e3eb01efafa","ios":"levelo://app?vid=f4754372-b611-4b4e-a67f-8e3eb01efafa"},"vehicle_type_id":"4","last_reported":1712336777,"current_range_meters":14400,"station_id":"ce4bgrp2rcd13ifvqc9g","pricing_plan_id":"cebpf4jnsgd1na2vs0mg"},{"bike_id":"4f9f0313-ef2e-4188-8caa-c7fbbba1e686","system_id":"levelo_inurba_marseille","lat":43.305989,"lon":5.37225,"is_reserved":false,"is_disabled":false,"rental_uris":{"android":"levelo://app?vid=4f9f0313-ef2e-4188-8caa-c7fbbba1e686","ios":"levelo://app?vid=4f9f0313-ef2e-4188-8caa-c7fbbba1e686"},"vehicle_type_id":"4","last_reported":1712336777,"current_range_meters":9200,"station_id":"ce4bgqh2rcd13ifvqc4g","pricing_plan_id":"cebpf4jnsgd1na2vs0mg"},{"bike_id":"d4ad2cec-2105-49be-8ffe-5d18da508586","system_id":"levelo_inurba_marseille","lat":43.283998,"lon":5.375062,"is_reserved":false,"is_disabled":false,"rental_uris":{"android":"levelo://app?vid=d4ad2cec-2105-49be-8ffe-5d18da508586","ios":"levelo://app?vid=d4ad2cec-2105-49be-8ffe-5d18da508586"},"vehicle_type_id":"4","last_reported":1712336777,"current_range_meters":0,"station_id":"ce4bh412rcd13ifvqds0","pricing_plan_id":"cebpf4jnsgd1na2vs0mg"},{"bike_id":"0c9a903e-0fcc-430f-b932-424fe943c046","system_id":"levelo_inurba_marseille","lat":43.311131,"lon":5.377651,"is_reserved":false,"is_disabled":false,"rental_uris":{"android":"levelo://app?vid=0c9a903e-0fcc-430f-b932-424fe943c046","ios":"levelo://app?vid=0c9a903e-0fcc-430f-b932-424fe943c046"},"vehicle_type_id":"4","last_reported":1712336777,"current_range_meters":0,"station_id":"ce4bgt92rcd13ifvqcg0","pricing_plan_id":"cebpf4jnsgd1na2vs0mg"},{"bike_id":"85e9c829-11b6-4eec-bc04-fe1891c4bdd5","system_id":"levelo_inurba_marseille","lat":43.311131,"lon":5.377651,"is_reserved":false,"is_disabled":false,"rental_uris":{"android":"levelo://app?vid=85e9c829-11b6-4eec-bc04-fe1891c4bdd5","ios":"levelo://app?vid=85e9c829-11b6-4eec-bc04-fe1891c4bdd5"},"vehicle_type_id":"4","last_reported":1712336777,"current_range_meters":8800,"station_id":"ce4bgt92rcd13ifvqcg0","pricing_plan_id":"cebpf4jnsgd1na2vs0mg"},{"bike_id":"2a0e1734-9893-4751-96e6-ee5c9a95810e","system_id":"levelo_inurba_marseille","lat":43.311131,"lon":5.377651,"is_reserved":false,"is_disabled":false,"rental_uris":{"android":"levelo://app?vid=2a0e1734-9893-4751-96e6-ee5c9a95810e","ios":"levelo://app?vid=2a0e1734-9893-4751-96e6-ee5c9a95810e"},"vehicle_type_id":"4","last_reported":1712336777,"current_range_meters":0,"station_id":"ce4bgt92rcd13ifvqcg0","pricing_plan_id":"cebpf4jnsgd1na2vs0mg"},{"bike_id":"bbfed310-f5ca-41c8-bf3a-f83cd6959697","system_id":"levelo_inurba_marseille","lat":43.313254,"lon":5.37881,"is_reserved":false,"is_disabled":false,"rental_uris":{"android":"levelo://app?vid=bbfed310-f5ca-41c8-bf3a-f83cd6959697","ios":"levelo://app?vid=bbfed310-f5ca-41c8-bf3a-f83cd6959697"},"vehicle_type_id":"4","last_reported":1712336777,"current_range_meters":4400,"station_id":"","pricing_plan_id":"cebpf4jnsgd1na2vs0mg"},{"bike_id":"538c02de-05b0-424e-8d40-87f24b26eb0e","system_id":"levelo_inurba_marseille","lat":43.317075,"lon":5.377367,"is_reserved":false,"is_disabled":false,"rental_uris":{"android":"levelo://app?vid=538c02de-05b0-424e-8d40-87f24b26eb0e","ios":"levelo://app?vid=538c02de-05b0-424e-8d40-87f24b26eb0e"},"vehicle_type_id":"4","last_reported":1712336777,"current_range_meters":9200,"station_id":"ce4bgth2rcd13ifvqch0","pricing_plan_id":"cebpf4jnsgd1na2vs0mg"},{"bike_id":"0738c54f-e47c-4ab6-8144-a38189daef21","system_id":"levelo_inurba_marseille","lat":43.317075,"lon":5.377367,"is_reserved":false,"is_disabled":false,"rental_uris":{"android":"levelo://app?vid=0738c54f-e47c-4ab6-8144-a38189daef21","ios":"levelo://app?vid=0738c54f-e47c-4ab6-8144-a38189daef21"},"vehicle_type_id":"4","last_reported":1712336777,"current_range_meters":4400,"station_id":"ce4bgth2rcd13ifvqch0","pricing_plan_id":"cebpf4jnsgd1na2vs0mg"},{"bike_id":"444cc6e2-6738-4453-877c-dd75392c97e9","system_id":"levelo_inurba_marseille","lat":43.317075,"lon":5.377367,"is_reserved":false,"is_disabled":false,"rental_uris":{"android":"levelo://app?vid=444cc6e2-6738-4453-877c-dd75392c97e9","ios":"levelo://app?vid=444cc6e2-6738-4453-877c-dd75392c97e9"},"vehicle_type_id":"4","last_reported":1712336777,"current_range_meters":25200,"station_id":"ce4bgth2rcd13ifvqch0","pricing_plan_id":"cebpf4jnsgd1na2vs0mg"},{"bike_id":"0f404a0c-3309-4270-9161-a994ffa215b8","system_id":"levelo_inurba_marseille","lat":43.30304,"lon":5.368987,"is_reserved":false,"is_disabled":false,"rental_uris":{"android":"levelo://app?vid=0f404a0c-3309-4270-9161-a994ffa215b8","ios":"levelo://app?vid=0f404a0c-3309-4270-9161-a994ffa215b8"},"vehicle_type_id":"4","last_reported":1712336777,"current_range_meters":2400,"station_id":"ce4bgqh2rcd13ifvqc5g","pricing_plan_id":"cebpf4jnsgd1na2vs0mg"},{"bike_id":"4bba5c31-0948-4a60-8881-1e5a3c4aa397","system_id":"levelo_inurba_marseille","lat":43.310035,"lon":5.38011,"is_reserved":false,"is_disabled":false,"rental_uris":{"android":"levelo://app?vid=4bba5c31-0948-4a60-8881-1e5a3c4aa397","ios":"levelo://app?vid=4bba5c31-0948-4a60-8881-1e5a3c4aa397"},"vehicle_type_id":"4","last_reported":1712336777,"current_range_meters":17200,"station_id":"","pricing_plan_id":"cebpf4jnsgd1na2vs0mg"},{"bike_id":"220a209e-43d4-47fe-9df2-112820e45d2c","system_id":"levelo_inurba_marseille","lat":43.315289,"lon":5.380349,"is_reserved":false,"is_disabled":false,"rental_uris":{"android":"levelo://app?vid=220a209e-43d4-47fe-9df2-112820e45d2c","ios":"levelo://app?vid=220a209e-43d4-47fe-9df2-112820e45d2c"},"vehicle_type_id":"4","last_reported":1712336777,"current_range_meters":18400,"station_id":"ce4bhsp2rcd13ifvqi50","pricing_plan_id":"cebpf4jnsgd1na2vs0mg"},{"bike_id":"d3f416d6-3350-435f-8d23-778e3cb00d52","system_id":"levelo_inurba_marseille","lat":43.315293,"lon":5.380349,"is_reserved":false,"is_disabled":false,"rental_uris":{"android":"levelo://app?vid=d3f416d6-3350-435f-8d23-778e3cb00d52","ios":"levelo://app?vid=d3f416d6-3350-435f-8d23-778e3cb00d52"},"vehicle_type_id":"4","last_reported":1712336777,"current_range_meters":18400,"station_id":"ce4bhsp2rcd13ifvqi50","pricing_plan_id":"cebpf4jnsgd1na2vs0mg"},{"bike_id":"1179b424-e642-4cc9-8eef-6573e93ba9dd","system_id":"levelo_inurba_marseille","lat":43.302957,"lon":5.372327,"is_reserved":false,"is_disabled":false,"rental_uris":{"android":"levelo://app?vid=1179b424-e642-4cc9-8eef-6573e93ba9dd","ios":"levelo://app?vid=1179b424-e642-4cc9-8eef-6573e93ba9dd"},"vehicle_type_id":"4","last_reported":1712336777,"current_range_meters":0,"station_id":"","pricing_plan_id":"cebpf4jnsgd1na2vs0mg"},{"bike_id":"045c0685-6d6d-4881-a85f-9ca264f98caa","system_id":"levelo_inurba_marseille","lat":43.301939,"lon":5.366286,"is_reserved":false,"is_disabled":false,"rental_uris":{"android":"levelo://app?vid=045c0685-6d6d-4881-a85f-9ca264f98caa","ios":"levelo://app?vid=045c0685-6d6d-4881-a85f-9ca264f98caa"},"vehicle_type_id":"4","last_reported":1712336777,"current_range_meters":3600,"station_id":"ce4bgrh2rcd13ifvqc8g","pricing_plan_id":"cebpf4jnsgd1na2vs0mg"},{"bike_id":"7994965a-8f1d-4b10-9b5b-de85eb9f6eab","system_id":"levelo_inurba_marseille","lat":43.317075,"lon":5.377367,"is_reserved":false,"is_disabled":false,"rental_uris":{"android":"levelo://app?vid=7994965a-8f1d-4b10-9b5b-de85eb9f6eab","ios":"levelo://app?vid=7994965a-8f1d-4b10-9b5b-de85eb9f6eab"},"vehicle_type_id":"4","last_reported":1712336777,"current_range_meters":10800,"station_id":"ce4bgth2rcd13ifvqch0","pricing_plan_id":"cebpf4jnsgd1na2vs0mg"},{"bike_id":"b6eb67bd-a76c-40ae-9a39-553203283c36","system_id":"levelo_inurba_marseille","lat":43.308012,"lon":5.381511,"is_reserved":false,"is_disabled":false,"rental_uris":{"android":"levelo://app?vid=b6eb67bd-a76c-40ae-9a39-553203283c36","ios":"levelo://app?vid=b6eb67bd-a76c-40ae-9a39-553203283c36"},"vehicle_type_id":"4","last_reported":1712336777,"current_range_meters":0,"station_id":"ce4bgt12rcd13ifvqce0","pricing_plan_id":"cebpf4jnsgd1na2vs0mg"},{"bike_id":"0ef1f4b9-0edc-4439-b4f5-3ced1b444030","system_id":"levelo_inurba_marseille","lat":43.308012,"lon":5.381511,"is_reserved":false,"is_disabled":false,"rental_uris":{"android":"levelo://app?vid=0ef1f4b9-0edc-4439-b4f5-3ced1b444030","ios":"levelo://app?vid=0ef1f4b9-0edc-4439-b4f5-3ced1b444030"},"vehicle_type_id":"4","last_reported":1712336777,"current_range_meters":0,"station_id":"ce4bgt12rcd13ifvqce0","pricing_plan_id":"cebpf4jnsgd1na2vs0mg"},{"bike_id":"7bf5d164-4c07-45cf-8245-2474d8a99266","system_id":"levelo_inurba_marseille","lat":43.32323,"lon":5.37425,"is_reserved":false,"is_disabled":false,"rental_uris":{"android":"levelo://app?vid=7bf5d164-4c07-45cf-8245-2474d8a99266","ios":"levelo://app?vid=7bf5d164-4c07-45cf-8245-2474d8a99266"},"vehicle_type_id":"4","last_reported":1712336777,"current_range_meters":16800,"station_id":"","pricing_plan_id":"cebpf4jnsgd1na2vs0mg"},{"bike_id":"3db5eb68-5901-4ec2-a28a-a4af9eff71a2","system_id":"levelo_inurba_marseille","lat":43.30461,"lon":5.37899,"is_reserved":false,"is_disabled":false,"rental_uris":{"android":"levelo://app?vid=3db5eb68-5901-4ec2-a28a-a4af9eff71a2","ios":"levelo://app?vid=3db5eb68-5901-4ec2-a28a-a4af9eff71a2"},"vehicle_type_id":"4","last_reported":1712336777,"current_range_meters":0,"station_id":"ce4bgup2rcd13ifvqcn0","pricing_plan_id":"cebpf4jnsgd1na2vs0mg"},{"bike_id":"51a330d9-9bf7-4242-9466-79269f8b70af","system_id":"levelo_inurba_marseille","lat":43.278128,"lon":5.407195,"is_reserved":false,"is_disabled":false,"rental_uris":{"android":"levelo://app?vid=51a330d9-9bf7-4242-9466-79269f8b70af","ios":"levelo://app?vid=51a330d9-9bf7-4242-9466-79269f8b70af"},"vehicle_type_id":"4","last_reported":1712336777,"current_range_meters":800,"station_id":"ce4bhnh2rcd13ifvqgtg","pricing_plan_id":"cebpf4jnsgd1na2vs0mg"},{"bike_id":"3dd31bb6-5e91-47d3-8ee0-f215e2285d6d","system_id":"levelo_inurba_marseille","lat":43.324771,"lon":5.36557,"is_reserved":false,"is_disabled":false,"rental_uris":{"android":"levelo://app?vid=3dd31bb6-5e91-47d3-8ee0-f215e2285d6d","ios":"levelo://app?vid=3dd31bb6-5e91-47d3-8ee0-f215e2285d6d"},"vehicle_type_id":"4","last_reported":1712336777,"current_range_meters":24000,"station_id":"ce4bhs12rcd13ifvqhvg","pricing_plan_id":"cebpf4jnsgd1na2vs0mg"},{"bike_id":"2197cf82-5cad-482d-b14f-d129fb7bb127","system_id":"levelo_inurba_marseille","lat":43.324771,"lon":5.36557,"is_reserved":false,"is_disabled":false,"rental_uris":{"android":"levelo://app?vid=2197cf82-5cad-482d-b14f-d129fb7bb127","ios":"levelo://app?vid=2197cf82-5cad-482d-b14f-d129fb7bb127"},"vehicle_type_id":"4","last_reported":1712336777,"current_range_meters":5200,"station_id":"ce4bhs12rcd13ifvqhvg","pricing_plan_id":"cebpf4jnsgd1na2vs0mg"},{"bike_id":"11d14d8e-7240-4d73-aa02-7a74537f32cf","system_id":"levelo_inurba_marseille","lat":43.324771,"lon":5.36557,"is_reserved":false,"is_disabled":false,"rental_uris":{"android":"levelo://app?vid=11d14d8e-7240-4d73-aa02-7a74537f32cf","ios":"levelo://app?vid=11d14d8e-7240-4d73-aa02-7a74537f32cf"},"vehicle_type_id":"4","last_reported":1712336777,"current_range_meters":16000,"station_id":"ce4bhs12rcd13ifvqhvg","pricing_plan_id":"cebpf4jnsgd1na2vs0mg"},{"bike_id":"f068cb47-965e-4bbb-ba72-9c43db08334a","system_id":"levelo_inurba_marseille","lat":43.324771,"lon":5.36557,"is_reserved":false,"is_disabled":false,"rental_uris":{"android":"levelo://app?vid=f068cb47-965e-4bbb-ba72-9c43db08334a","ios":"levelo://app?vid=f068cb47-965e-4bbb-ba72-9c43db08334a"},"vehicle_type_id":"4","last_reported":1712336777,"current_range_meters":12400,"station_id":"ce4bhs12rcd13ifvqhvg","pricing_plan_id":"cebpf4jnsgd1na2vs0mg"},{"bike_id":"bf994b08-9e12-459b-87d9-40eb153fee5e","system_id":"levelo_inurba_marseille","lat":43.31067,"lon":5.38341,"is_reserved":false,"is_disabled":false,"rental_uris":{"android":"levelo://app?vid=bf994b08-9e12-459b-87d9-40eb153fee5e","ios":"levelo://app?vid=bf994b08-9e12-459b-87d9-40eb153fee5e"},"vehicle_type_id":"4","last_reported":1712336777,"current_range_meters":0,"station_id":"ce4bgv92rcd13ifvqcr0","pricing_plan_id":"cebpf4jnsgd1na2vs0mg"},{"bike_id":"38252ee3-9a1e-45f5-a509-72528437c324","system_id":"levelo_inurba_marseille","lat":43.32488,"lon":5.36572,"is_reserved":false,"is_disabled":false,"rental_uris":{"android":"levelo://app?vid=38252ee3-9a1e-45f5-a509-72528437c324","ios":"levelo://app?vid=38252ee3-9a1e-45f5-a509-72528437c324"},"vehicle_type_id":"4","last_reported":1712336777,"current_range_meters":0,"station_id":"ce4bhs12rcd13ifvqhvg","pricing_plan_id":"cebpf4jnsgd1na2vs0mg"},{"bike_id":"447af330-a27b-4ccd-8dba-6a86017a86cd","system_id":"levelo_inurba_marseille","lat":43.310804,"lon":5.38359,"is_reserved":false,"is_disabled":false,"rental_uris":{"android":"levelo://app?vid=447af330-a27b-4ccd-8dba-6a86017a86cd","ios":"levelo://app?vid=447af330-a27b-4ccd-8dba-6a86017a86cd"},"vehicle_type_id":"4","last_reported":1712336777,"current_range_meters":10000,"station_id":"ce4bgv92rcd13ifvqcr0","pricing_plan_id":"cebpf4jnsgd1na2vs0mg"},{"bike_id":"48412429-161d-414e-8ad9-a34a3002915f","system_id":"levelo_inurba_marseille","lat":43.310804,"lon":5.38359,"is_reserved":false,"is_disabled":false,"rental_uris":{"android":"levelo://app?vid=48412429-161d-414e-8ad9-a34a3002915f","ios":"levelo://app?vid=48412429-161d-414e-8ad9-a34a3002915f"},"vehicle_type_id":"4","last_reported":1712336777,"current_range_meters":0,"station_id":"ce4bgv92rcd13ifvqcr0","pricing_plan_id":"cebpf4jnsgd1na2vs0mg"},{"bike_id":"f6c92934-8666-40dd-a110-b530dd1f9470","system_id":"levelo_inurba_marseille","lat":43.319935,"lon":5.381699,"is_reserved":false,"is_disabled":false,"rental_uris":{"android":"levelo://app?vid=f6c92934-8666-40dd-a110-b530dd1f9470","ios":"levelo://app?vid=f6c92934-8666-40dd-a110-b530dd1f9470"},"vehicle_type_id":"4","last_reported":1712336777,"current_range_meters":2400,"station_id":"ce4bhr12rcd13ifvqhpg","pricing_plan_id":"cebpf4jnsgd1na2vs0mg"},{"bike_id":"da4af5c6-73c2-4738-9a2d-cc0c250b8563","system_id":"levelo_inurba_marseille","lat":43.31993,"lon":5.3815,"is_reserved":false,"is_disabled":false,"rental_uris":{"android":"levelo://app?vid=da4af5c6-73c2-4738-9a2d-cc0c250b8563","ios":"levelo://app?vid=da4af5c6-73c2-4738-9a2d-cc0c250b8563"},"vehicle_type_id":"4","last_reported":1712336777,"current_range_meters":3600,"station_id":"ce4bhr12rcd13ifvqhpg","pricing_plan_id":"cebpf4jnsgd1na2vs0mg"},{"bike_id":"6482488a-baa7-4b18-babc-ebcf4ca26a36","system_id":"levelo_inurba_marseille","lat":43.319935,"lon":5.381699,"is_reserved":false,"is_disabled":false,"rental_uris":{"android":"levelo://app?vid=6482488a-baa7-4b18-babc-ebcf4ca26a36","ios":"levelo://app?vid=6482488a-baa7-4b18-babc-ebcf4ca26a36"},"vehicle_type_id":"4","last_reported":1712336777,"current_range_meters":2800,"station_id":"ce4bhr12rcd13ifvqhpg","pricing_plan_id":"cebpf4jnsgd1na2vs0mg"},{"bike_id":"525890c6-bd26-49a1-a43c-5f71853f2c46","system_id":"levelo_inurba_marseille","lat":43.313571,"lon":5.384829,"is_reserved":false,"is_disabled":false,"rental_uris":{"android":"levelo://app?vid=525890c6-bd26-49a1-a43c-5f71853f2c46","ios":"levelo://app?vid=525890c6-bd26-49a1-a43c-5f71853f2c46"},"vehicle_type_id":"4","last_reported":1712336777,"current_range_meters":16000,"station_id":"ce4bgt92rcd13ifvqcf0","pricing_plan_id":"cebpf4jnsgd1na2vs0mg"},{"bike_id":"d2d03f1d-564d-43fb-a48d-fec0e34f1cde","system_id":"levelo_inurba_marseille","lat":43.32006,"lon":5.38164,"is_reserved":false,"is_disabled":false,"rental_uris":{"android":"levelo://app?vid=d2d03f1d-564d-43fb-a48d-fec0e34f1cde","ios":"levelo://app?vid=d2d03f1d-564d-43fb-a48d-fec0e34f1cde"},"vehicle_type_id":"4","last_reported":1712336777,"current_range_meters":16000,"station_id":"ce4bhr12rcd13ifvqhpg","pricing_plan_id":"cebpf4jnsgd1na2vs0mg"},{"bike_id":"90f2f604-9e4e-47ac-a2be-7c39424a5eb5","system_id":"levelo_inurba_marseille","lat":43.313571,"lon":5.384829,"is_reserved":false,"is_disabled":false,"rental_uris":{"android":"levelo://app?vid=90f2f604-9e4e-47ac-a2be-7c39424a5eb5","ios":"levelo://app?vid=90f2f604-9e4e-47ac-a2be-7c39424a5eb5"},"vehicle_type_id":"4","last_reported":1712336777,"current_range_meters":14000,"station_id":"ce4bgt92rcd13ifvqcf0","pricing_plan_id":"cebpf4jnsgd1na2vs0mg"},{"bike_id":"bffe47a0-408c-434f-a209-26876d273309","system_id":"levelo_inurba_marseille","lat":43.313571,"lon":5.384829,"is_reserved":false,"is_disabled":false,"rental_uris":{"android":"levelo://app?vid=bffe47a0-408c-434f-a209-26876d273309","ios":"levelo://app?vid=bffe47a0-408c-434f-a209-26876d273309"},"vehicle_type_id":"4","last_reported":1712336777,"current_range_meters":0,"station_id":"ce4bgt92rcd13ifvqcf0","pricing_plan_id":"cebpf4jnsgd1na2vs0mg"},{"bike_id":"4b883f49-4713-436b-ac41-2233cfe3c99e","system_id":"levelo_inurba_marseille","lat":43.313571,"lon":5.384829,"is_reserved":false,"is_disabled":false,"rental_uris":{"android":"levelo://app?vid=4b883f49-4713-436b-ac41-2233cfe3c99e","ios":"levelo://app?vid=4b883f49-4713-436b-ac41-2233cfe3c99e"},"vehicle_type_id":"4","last_reported":1712336777,"current_range_meters":20400,"station_id":"ce4bgt92rcd13ifvqcf0","pricing_plan_id":"cebpf4jnsgd1na2vs0mg"},{"bike_id":"5c495131-5dd9-46c0-9751-bd8930eda307","system_id":"levelo_inurba_marseille","lat":43.313571,"lon":5.384829,"is_reserved":false,"is_disabled":false,"rental_uris":{"android":"levelo://app?vid=5c495131-5dd9-46c0-9751-bd8930eda307","ios":"levelo://app?vid=5c495131-5dd9-46c0-9751-bd8930eda307"},"vehicle_type_id":"4","last_reported":1712336777,"current_range_meters":8000,"station_id":"ce4bgt92rcd13ifvqcf0","pricing_plan_id":"cebpf4jnsgd1na2vs0mg"},{"bike_id":"d14203fd-c2fb-43d8-8b72-f4fb016c195f","system_id":"levelo_inurba_marseille","lat":43.313609,"lon":5.38494,"is_reserved":false,"is_disabled":false,"rental_uris":{"android":"levelo://app?vid=d14203fd-c2fb-43d8-8b72-f4fb016c195f","ios":"levelo://app?vid=d14203fd-c2fb-43d8-8b72-f4fb016c195f"},"vehicle_type_id":"4","last_reported":1712336777,"current_range_meters":9600,"station_id":"ce4bgt92rcd13ifvqcf0","pricing_plan_id":"cebpf4jnsgd1na2vs0mg"},{"bike_id":"b02a6807-2df0-4f01-848e-02966ce6b67b","system_id":"levelo_inurba_marseille","lat":43.313571,"lon":5.384829,"is_reserved":false,"is_disabled":false,"rental_uris":{"android":"levelo://app?vid=b02a6807-2df0-4f01-848e-02966ce6b67b","ios":"levelo://app?vid=b02a6807-2df0-4f01-848e-02966ce6b67b"},"vehicle_type_id":"4","last_reported":1712336777,"current_range_meters":3600,"station_id":"ce4bgt92rcd13ifvqcf0","pricing_plan_id":"cebpf4jnsgd1na2vs0mg"},{"bike_id":"14c4ed10-e88c-48b2-8863-1a7437c51313","system_id":"levelo_inurba_marseille","lat":43.299724,"lon":5.371829,"is_reserved":false,"is_disabled":false,"rental_uris":{"android":"levelo://app?vid=14c4ed10-e88c-48b2-8863-1a7437c51313","ios":"levelo://app?vid=14c4ed10-e88c-48b2-8863-1a7437c51313"},"vehicle_type_id":"4","last_reported":1712336777,"current_range_meters":8800,"station_id":"ce4bgr92rcd13ifvqc7g","pricing_plan_id":"cebpf4jnsgd1na2vs0mg"},{"bike_id":"ddd24cea-9205-4fe0-8222-e0840f1b0939","system_id":"levelo_inurba_marseille","lat":43.298433,"lon":5.362774,"is_reserved":false,"is_disabled":false,"rental_uris":{"android":"levelo://app?vid=ddd24cea-9205-4fe0-8222-e0840f1b0939","ios":"levelo://app?vid=ddd24cea-9205-4fe0-8222-e0840f1b0939"},"vehicle_type_id":"4","last_reported":1712336777,"current_range_meters":6800,"station_id":"ce4bgpp2rcd13ifvqc3g","pricing_plan_id":"cebpf4jnsgd1na2vs0mg"},{"bike_id":"2463bf88-d3ec-4ec6-9a31-5c9d27d65031","system_id":"levelo_inurba_marseille","lat":43.298433,"lon":5.362774,"is_reserved":false,"is_disabled":false,"rental_uris":{"android":"levelo://app?vid=2463bf88-d3ec-4ec6-9a31-5c9d27d65031","ios":"levelo://app?vid=2463bf88-d3ec-4ec6-9a31-5c9d27d65031"},"vehicle_type_id":"4","last_reported":1712336777,"current_range_meters":29200,"station_id":"ce4bgpp2rcd13ifvqc3g","pricing_plan_id":"cebpf4jnsgd1na2vs0mg"},{"bike_id":"2fba54a5-289c-4f5c-8633-9d31ecfcc7a7","system_id":"levelo_inurba_marseille","lat":43.29841,"lon":5.36262,"is_reserved":false,"is_disabled":false,"rental_uris":{"android":"levelo://app?vid=2fba54a5-289c-4f5c-8633-9d31ecfcc7a7","ios":"levelo://app?vid=2fba54a5-289c-4f5c-8633-9d31ecfcc7a7"},"vehicle_type_id":"4","last_reported":1712336777,"current_range_meters":6000,"station_id":"ce4bgpp2rcd13ifvqc3g","pricing_plan_id":"cebpf4jnsgd1na2vs0mg"},{"bike_id":"61c7ad58-4521-4ebc-92d7-b8d44ffa6261","system_id":"levelo_inurba_marseille","lat":43.299243,"lon":5.374807,"is_reserved":false,"is_disabled":false,"rental_uris":{"android":"levelo://app?vid=61c7ad58-4521-4ebc-92d7-b8d44ffa6261","ios":"levelo://app?vid=61c7ad58-4521-4ebc-92d7-b8d44ffa6261"},"vehicle_type_id":"4","last_reported":1712336777,"current_range_meters":0,"station_id":"ce4bgjh2rcd13ifvqbg0","pricing_plan_id":"cebpf4jnsgd1na2vs0mg"},{"bike_id":"dafa825b-349b-4aea-ab8d-faa427aa452e","system_id":"levelo_inurba_marseille","lat":43.311722,"lon":5.387247,"is_reserved":false,"is_disabled":false,"rental_uris":{"android":"levelo://app?vid=dafa825b-349b-4aea-ab8d-faa427aa452e","ios":"levelo://app?vid=dafa825b-349b-4aea-ab8d-faa427aa452e"},"vehicle_type_id":"4","last_reported":1712336777,"current_range_meters":4000,"station_id":"ce4bgv12rcd13ifvqcp0","pricing_plan_id":"cebpf4jnsgd1na2vs0mg"},{"bike_id":"2e87e970-5482-4d60-b8e3-5a3d851f442b","system_id":"levelo_inurba_marseille","lat":43.311722,"lon":5.387247,"is_reserved":false,"is_disabled":false,"rental_uris":{"android":"levelo://app?vid=2e87e970-5482-4d60-b8e3-5a3d851f442b","ios":"levelo://app?vid=2e87e970-5482-4d60-b8e3-5a3d851f442b"},"vehicle_type_id":"4","last_reported":1712336777,"current_range_meters":7600,"station_id":"ce4bgv12rcd13ifvqcp0","pricing_plan_id":"cebpf4jnsgd1na2vs0mg"},{"bike_id":"a53d3985-9e33-437a-9979-77b9c3f817ac","system_id":"levelo_inurba_marseille","lat":43.322872,"lon":5.382756,"is_reserved":false,"is_disabled":false,"rental_uris":{"android":"levelo://app?vid=a53d3985-9e33-437a-9979-77b9c3f817ac","ios":"levelo://app?vid=a53d3985-9e33-437a-9979-77b9c3f817ac"},"vehicle_type_id":"4","last_reported":1712336777,"current_range_meters":1600,"station_id":"ce4bhr12rcd13ifvqhqg","pricing_plan_id":"cebpf4jnsgd1na2vs0mg"},{"bike_id":"d0090b0b-b7ce-4231-a436-3236929d8028","system_id":"levelo_inurba_marseille","lat":43.32289,"lon":5.38262,"is_reserved":false,"is_disabled":false,"rental_uris":{"android":"levelo://app?vid=d0090b0b-b7ce-4231-a436-3236929d8028","ios":"levelo://app?vid=d0090b0b-b7ce-4231-a436-3236929d8028"},"vehicle_type_id":"4","last_reported":1712336777,"current_range_meters":8400,"station_id":"ce4bhr12rcd13ifvqhqg","pricing_plan_id":"cebpf4jnsgd1na2vs0mg"},{"bike_id":"12868420-cd43-4d41-9cd6-9b5eadd40bbb","system_id":"levelo_inurba_marseille","lat":43.322872,"lon":5.382756,"is_reserved":false,"is_disabled":false,"rental_uris":{"android":"levelo://app?vid=12868420-cd43-4d41-9cd6-9b5eadd40bbb","ios":"levelo://app?vid=12868420-cd43-4d41-9cd6-9b5eadd40bbb"},"vehicle_type_id":"4","last_reported":1712336777,"current_range_meters":31600,"station_id":"ce4bhr12rcd13ifvqhqg","pricing_plan_id":"cebpf4jnsgd1na2vs0mg"},{"bike_id":"760cbcdc-c3dd-40c6-8fa4-2b83a3911ea4","system_id":"levelo_inurba_marseille","lat":43.322872,"lon":5.382756,"is_reserved":false,"is_disabled":false,"rental_uris":{"android":"levelo://app?vid=760cbcdc-c3dd-40c6-8fa4-2b83a3911ea4","ios":"levelo://app?vid=760cbcdc-c3dd-40c6-8fa4-2b83a3911ea4"},"vehicle_type_id":"4","last_reported":1712336777,"current_range_meters":12800,"station_id":"ce4bhr12rcd13ifvqhqg","pricing_plan_id":"cebpf4jnsgd1na2vs0mg"},{"bike_id":"26eae4d6-5491-4bc4-841a-cffddf05f388","system_id":"levelo_inurba_marseille","lat":43.297719,"lon":5.370981,"is_reserved":false,"is_disabled":false,"rental_uris":{"android":"levelo://app?vid=26eae4d6-5491-4bc4-841a-cffddf05f388","ios":"levelo://app?vid=26eae4d6-5491-4bc4-841a-cffddf05f388"},"vehicle_type_id":"4","last_reported":1712336777,"current_range_meters":0,"station_id":"ce4bh412rcd13ifvqds0","pricing_plan_id":"cebpf4jnsgd1na2vs0mg"},{"bike_id":"13f314f6-ce2c-4f4c-8e69-676e19c8f775","system_id":"levelo_inurba_marseille","lat":43.322872,"lon":5.382756,"is_reserved":false,"is_disabled":false,"rental_uris":{"android":"levelo://app?vid=13f314f6-ce2c-4f4c-8e69-676e19c8f775","ios":"levelo://app?vid=13f314f6-ce2c-4f4c-8e69-676e19c8f775"},"vehicle_type_id":"4","last_reported":1712336777,"current_range_meters":6000,"station_id":"ce4bhr12rcd13ifvqhqg","pricing_plan_id":"cebpf4jnsgd1na2vs0mg"},{"bike_id":"c78e3508-ec59-44b9-b552-66f435a0864b","system_id":"levelo_inurba_marseille","lat":43.322872,"lon":5.382756,"is_reserved":false,"is_disabled":false,"rental_uris":{"android":"levelo://app?vid=c78e3508-ec59-44b9-b552-66f435a0864b","ios":"levelo://app?vid=c78e3508-ec59-44b9-b552-66f435a0864b"},"vehicle_type_id":"4","last_reported":1712336777,"current_range_meters":31600,"station_id":"ce4bhr12rcd13ifvqhqg","pricing_plan_id":"cebpf4jnsgd1na2vs0mg"},{"bike_id":"6cebabf8-ed8b-474d-8907-7a1db1188035","system_id":"levelo_inurba_marseille","lat":43.302784,"lon":5.377158,"is_reserved":false,"is_disabled":false,"rental_uris":{"android":"levelo://app?vid=6cebabf8-ed8b-474d-8907-7a1db1188035","ios":"levelo://app?vid=6cebabf8-ed8b-474d-8907-7a1db1188035"},"vehicle_type_id":"4","last_reported":1712336777,"current_range_meters":17200,"station_id":"ce4bguh2rcd13ifvqcj0","pricing_plan_id":"cebpf4jnsgd1na2vs0mg"},{"bike_id":"15134f03-d803-4f9a-a52d-24fe5b591b7a","system_id":"levelo_inurba_marseille","lat":43.297163,"lon":5.365866,"is_reserved":false,"is_disabled":false,"rental_uris":{"android":"levelo://app?vid=15134f03-d803-4f9a-a52d-24fe5b591b7a","ios":"levelo://app?vid=15134f03-d803-4f9a-a52d-24fe5b591b7a"},"vehicle_type_id":"4","last_reported":1712336777,"current_range_meters":5600,"station_id":"ce4bgn12rcd13ifvqbt0","pricing_plan_id":"cebpf4jnsgd1na2vs0mg"},{"bike_id":"3b394e98-1dc8-4056-9c12-0430cd217ca1","system_id":"levelo_inurba_marseille","lat":43.29573,"lon":5.367355,"is_reserved":false,"is_disabled":false,"rental_uris":{"android":"levelo://app?vid=3b394e98-1dc8-4056-9c12-0430cd217ca1","ios":"levelo://app?vid=3b394e98-1dc8-4056-9c12-0430cd217ca1"},"vehicle_type_id":"4","last_reported":1712336777,"current_range_meters":20800,"station_id":"ce4bgph2rcd13ifvqc2g","pricing_plan_id":"cebpf4jnsgd1na2vs0mg"},{"bike_id":"fd6ee533-501c-4ed2-9c8d-2631b8b61af3","system_id":"levelo_inurba_marseille","lat":43.296131,"lon":5.370773,"is_reserved":false,"is_disabled":false,"rental_uris":{"android":"levelo://app?vid=fd6ee533-501c-4ed2-9c8d-2631b8b61af3","ios":"levelo://app?vid=fd6ee533-501c-4ed2-9c8d-2631b8b61af3"},"vehicle_type_id":"4","last_reported":1712336777,"current_range_meters":4400,"station_id":"ce4bgnh2rcd13ifvqc0g","pricing_plan_id":"cebpf4jnsgd1na2vs0mg"},{"bike_id":"b30a186f-5558-47b3-bc82-c4f9559dafa4","system_id":"levelo_inurba_marseille","lat":43.296131,"lon":5.370791,"is_reserved":false,"is_disabled":false,"rental_uris":{"android":"levelo://app?vid=b30a186f-5558-47b3-bc82-c4f9559dafa4","ios":"levelo://app?vid=b30a186f-5558-47b3-bc82-c4f9559dafa4"},"vehicle_type_id":"4","last_reported":1712336777,"current_range_meters":10000,"station_id":"ce4bgnh2rcd13ifvqc0g","pricing_plan_id":"cebpf4jnsgd1na2vs0mg"},{"bike_id":"8db1c79b-cf97-4b71-9891-9c9d8fe69711","system_id":"levelo_inurba_marseille","lat":43.296131,"lon":5.370773,"is_reserved":false,"is_disabled":false,"rental_uris":{"android":"levelo://app?vid=8db1c79b-cf97-4b71-9891-9c9d8fe69711","ios":"levelo://app?vid=8db1c79b-cf97-4b71-9891-9c9d8fe69711"},"vehicle_type_id":"4","last_reported":1712336777,"current_range_meters":6800,"station_id":"ce4bgnh2rcd13ifvqc0g","pricing_plan_id":"cebpf4jnsgd1na2vs0mg"},{"bike_id":"c9d4dbd7-0e75-4439-8228-930f3f78629b","system_id":"levelo_inurba_marseille","lat":43.296131,"lon":5.370773,"is_reserved":false,"is_disabled":false,"rental_uris":{"android":"levelo://app?vid=c9d4dbd7-0e75-4439-8228-930f3f78629b","ios":"levelo://app?vid=c9d4dbd7-0e75-4439-8228-930f3f78629b"},"vehicle_type_id":"4","last_reported":1712336777,"current_range_meters":13600,"station_id":"ce4bgnh2rcd13ifvqc0g","pricing_plan_id":"cebpf4jnsgd1na2vs0mg"},{"bike_id":"8b68d24c-b6d1-44c8-9a69-0cf54f68d588","system_id":"levelo_inurba_marseille","lat":43.29573,"lon":5.367355,"is_reserved":false,"is_disabled":false,"rental_uris":{"android":"levelo://app?vid=8b68d24c-b6d1-44c8-9a69-0cf54f68d588","ios":"levelo://app?vid=8b68d24c-b6d1-44c8-9a69-0cf54f68d588"},"vehicle_type_id":"4","last_reported":1712336777,"current_range_meters":14400,"station_id":"ce4bgph2rcd13ifvqc2g","pricing_plan_id":"cebpf4jnsgd1na2vs0mg"},{"bike_id":"f295ac6d-c39c-4e07-bd0b-94b2dcf43d45","system_id":"levelo_inurba_marseille","lat":43.296131,"lon":5.370791,"is_reserved":false,"is_disabled":false,"rental_uris":{"android":"levelo://app?vid=f295ac6d-c39c-4e07-bd0b-94b2dcf43d45","ios":"levelo://app?vid=f295ac6d-c39c-4e07-bd0b-94b2dcf43d45"},"vehicle_type_id":"4","last_reported":1712336777,"current_range_meters":2400,"station_id":"ce4bgnh2rcd13ifvqc0g","pricing_plan_id":"cebpf4jnsgd1na2vs0mg"},{"bike_id":"f1e97bd2-c674-4328-9ef4-fc5e7941fdff","system_id":"levelo_inurba_marseille","lat":43.29573,"lon":5.367355,"is_reserved":false,"is_disabled":false,"rental_uris":{"android":"levelo://app?vid=f1e97bd2-c674-4328-9ef4-fc5e7941fdff","ios":"levelo://app?vid=f1e97bd2-c674-4328-9ef4-fc5e7941fdff"},"vehicle_type_id":"4","last_reported":1712336777,"current_range_meters":7200,"station_id":"ce4bgph2rcd13ifvqc2g","pricing_plan_id":"cebpf4jnsgd1na2vs0mg"},{"bike_id":"65056e88-5972-4947-bfdf-48343688b55a","system_id":"levelo_inurba_marseille","lat":43.29573,"lon":5.367355,"is_reserved":false,"is_disabled":false,"rental_uris":{"android":"levelo://app?vid=65056e88-5972-4947-bfdf-48343688b55a","ios":"levelo://app?vid=65056e88-5972-4947-bfdf-48343688b55a"},"vehicle_type_id":"4","last_reported":1712336777,"current_range_meters":29600,"station_id":"ce4bgph2rcd13ifvqc2g","pricing_plan_id":"cebpf4jnsgd1na2vs0mg"},{"bike_id":"454f2c76-b965-4dc8-9458-604ace86853f","system_id":"levelo_inurba_marseille","lat":43.29573,"lon":5.367355,"is_reserved":false,"is_disabled":false,"rental_uris":{"android":"levelo://app?vid=454f2c76-b965-4dc8-9458-604ace86853f","ios":"levelo://app?vid=454f2c76-b965-4dc8-9458-604ace86853f"},"vehicle_type_id":"4","last_reported":1712336777,"current_range_meters":14400,"station_id":"ce4bgph2rcd13ifvqc2g","pricing_plan_id":"cebpf4jnsgd1na2vs0mg"},{"bike_id":"a6232ad7-dab8-4b2d-b650-dce2e1f326b7","system_id":"levelo_inurba_marseille","lat":43.29573,"lon":5.367355,"is_reserved":false,"is_disabled":false,"rental_uris":{"android":"levelo://app?vid=a6232ad7-dab8-4b2d-b650-dce2e1f326b7","ios":"levelo://app?vid=a6232ad7-dab8-4b2d-b650-dce2e1f326b7"},"vehicle_type_id":"4","last_reported":1712336777,"current_range_meters":19200,"station_id":"ce4bgph2rcd13ifvqc2g","pricing_plan_id":"cebpf4jnsgd1na2vs0mg"},{"bike_id":"79c7029c-e196-43c2-b823-73d006a8d338","system_id":"levelo_inurba_marseille","lat":43.29573,"lon":5.367355,"is_reserved":false,"is_disabled":false,"rental_uris":{"android":"levelo://app?vid=79c7029c-e196-43c2-b823-73d006a8d338","ios":"levelo://app?vid=79c7029c-e196-43c2-b823-73d006a8d338"},"vehicle_type_id":"4","last_reported":1712336777,"current_range_meters":13600,"station_id":"ce4bgph2rcd13ifvqc2g","pricing_plan_id":"cebpf4jnsgd1na2vs0mg"},{"bike_id":"ddda7ab3-6f22-480f-99c9-1867438d1239","system_id":"levelo_inurba_marseille","lat":43.299028,"lon":5.381509,"is_reserved":false,"is_disabled":false,"rental_uris":{"android":"levelo://app?vid=ddda7ab3-6f22-480f-99c9-1867438d1239","ios":"levelo://app?vid=ddda7ab3-6f22-480f-99c9-1867438d1239"},"vehicle_type_id":"4","last_reported":1712336777,"current_range_meters":0,"station_id":"ce4bgj12rcd13ifvqbc0","pricing_plan_id":"cebpf4jnsgd1na2vs0mg"},{"bike_id":"2e521e56-6c91-4283-854d-de1ac842c8c8","system_id":"levelo_inurba_marseille","lat":43.299028,"lon":5.381509,"is_reserved":false,"is_disabled":false,"rental_uris":{"android":"levelo://app?vid=2e521e56-6c91-4283-854d-de1ac842c8c8","ios":"levelo://app?vid=2e521e56-6c91-4283-854d-de1ac842c8c8"},"vehicle_type_id":"4","last_reported":1712336777,"current_range_meters":18400,"station_id":"ce4bgj12rcd13ifvqbc0","pricing_plan_id":"cebpf4jnsgd1na2vs0mg"},{"bike_id":"d1c9449f-d993-47d1-90fc-d6385b1bce12","system_id":"levelo_inurba_marseille","lat":43.299028,"lon":5.381509,"is_reserved":false,"is_disabled":false,"rental_uris":{"android":"levelo://app?vid=d1c9449f-d993-47d1-90fc-d6385b1bce12","ios":"levelo://app?vid=d1c9449f-d993-47d1-90fc-d6385b1bce12"},"vehicle_type_id":"4","last_reported":1712336777,"current_range_meters":0,"station_id":"ce4bgj12rcd13ifvqbc0","pricing_plan_id":"cebpf4jnsgd1na2vs0mg"},{"bike_id":"9fef4695-53a7-4416-87cd-4e604ab087c6","system_id":"levelo_inurba_marseille","lat":43.31759,"lon":5.39006,"is_reserved":false,"is_disabled":false,"rental_uris":{"android":"levelo://app?vid=9fef4695-53a7-4416-87cd-4e604ab087c6","ios":"levelo://app?vid=9fef4695-53a7-4416-87cd-4e604ab087c6"},"vehicle_type_id":"4","last_reported":1712336777,"current_range_meters":7600,"station_id":"ce4bhqp2rcd13ifvqhng","pricing_plan_id":"cebpf4jnsgd1na2vs0mg"},{"bike_id":"71c78635-7107-46a8-bcd2-3f4d1ed0d02a","system_id":"levelo_inurba_marseille","lat":43.31739,"lon":5.39015,"is_reserved":false,"is_disabled":false,"rental_uris":{"android":"levelo://app?vid=71c78635-7107-46a8-bcd2-3f4d1ed0d02a","ios":"levelo://app?vid=71c78635-7107-46a8-bcd2-3f4d1ed0d02a"},"vehicle_type_id":"4","last_reported":1712336777,"current_range_meters":10400,"station_id":"ce4bhqp2rcd13ifvqhng","pricing_plan_id":"cebpf4jnsgd1na2vs0mg"},{"bike_id":"e057be5c-6d1c-46a0-aefe-17017f332958","system_id":"levelo_inurba_marseille","lat":43.31758,"lon":5.3901,"is_reserved":false,"is_disabled":false,"rental_uris":{"android":"levelo://app?vid=e057be5c-6d1c-46a0-aefe-17017f332958","ios":"levelo://app?vid=e057be5c-6d1c-46a0-aefe-17017f332958"},"vehicle_type_id":"4","last_reported":1712336777,"current_range_meters":12400,"station_id":"ce4bhqp2rcd13ifvqhng","pricing_plan_id":"cebpf4jnsgd1na2vs0mg"},{"bike_id":"80fcc4f9-3fc8-4010-879a-fa129fbcced2","system_id":"levelo_inurba_marseille","lat":43.317557,"lon":5.390173,"is_reserved":false,"is_disabled":false,"rental_uris":{"android":"levelo://app?vid=80fcc4f9-3fc8-4010-879a-fa129fbcced2","ios":"levelo://app?vid=80fcc4f9-3fc8-4010-879a-fa129fbcced2"},"vehicle_type_id":"4","last_reported":1712336777,"current_range_meters":23200,"station_id":"ce4bhqp2rcd13ifvqhng","pricing_plan_id":"cebpf4jnsgd1na2vs0mg"},{"bike_id":"3b95d255-179c-41cd-a1ab-d677628cc67e","system_id":"levelo_inurba_marseille","lat":43.3176,"lon":5.39013,"is_reserved":false,"is_disabled":false,"rental_uris":{"android":"levelo://app?vid=3b95d255-179c-41cd-a1ab-d677628cc67e","ios":"levelo://app?vid=3b95d255-179c-41cd-a1ab-d677628cc67e"},"vehicle_type_id":"4","last_reported":1712336777,"current_range_meters":24400,"station_id":"ce4bhqp2rcd13ifvqhng","pricing_plan_id":"cebpf4jnsgd1na2vs0mg"},{"bike_id":"f8b18ce6-bc2b-4adb-8943-b35fb7bb0280","system_id":"levelo_inurba_marseille","lat":43.31759,"lon":5.39018,"is_reserved":false,"is_disabled":false,"rental_uris":{"android":"levelo://app?vid=f8b18ce6-bc2b-4adb-8943-b35fb7bb0280","ios":"levelo://app?vid=f8b18ce6-bc2b-4adb-8943-b35fb7bb0280"},"vehicle_type_id":"4","last_reported":1712336777,"current_range_meters":13600,"station_id":"ce4bhqp2rcd13ifvqhng","pricing_plan_id":"cebpf4jnsgd1na2vs0mg"},{"bike_id":"ec5623be-ef69-448a-b5f5-c0b093b66f68","system_id":"levelo_inurba_marseille","lat":43.317557,"lon":5.390173,"is_reserved":false,"is_disabled":false,"rental_uris":{"android":"levelo://app?vid=ec5623be-ef69-448a-b5f5-c0b093b66f68","ios":"levelo://app?vid=ec5623be-ef69-448a-b5f5-c0b093b66f68"},"vehicle_type_id":"4","last_reported":1712336777,"current_range_meters":4000,"station_id":"ce4bhqp2rcd13ifvqhng","pricing_plan_id":"cebpf4jnsgd1na2vs0mg"},{"bike_id":"bdbaef89-3950-4ce9-9d4d-6a0207f41f29","system_id":"levelo_inurba_marseille","lat":43.298037,"lon":5.381066,"is_reserved":false,"is_disabled":false,"rental_uris":{"android":"levelo://app?vid=bdbaef89-3950-4ce9-9d4d-6a0207f41f29","ios":"levelo://app?vid=bdbaef89-3950-4ce9-9d4d-6a0207f41f29"},"vehicle_type_id":"4","last_reported":1712336777,"current_range_meters":0,"station_id":"ce4bgip2rcd13ifvqbb0","pricing_plan_id":"cebpf4jnsgd1na2vs0mg"},{"bike_id":"2211e886-81cc-4c76-a658-3c30c27f5fc8","system_id":"levelo_inurba_marseille","lat":43.297913,"lon":5.380937,"is_reserved":false,"is_disabled":false,"rental_uris":{"android":"levelo://app?vid=2211e886-81cc-4c76-a658-3c30c27f5fc8","ios":"levelo://app?vid=2211e886-81cc-4c76-a658-3c30c27f5fc8"},"vehicle_type_id":"4","last_reported":1712336777,"current_range_meters":0,"station_id":"ce4bgip2rcd13ifvqbb0","pricing_plan_id":"cebpf4jnsgd1na2vs0mg"},{"bike_id":"86741d38-0646-424f-b8a6-1becd88ba27d","system_id":"levelo_inurba_marseille","lat":43.298037,"lon":5.381066,"is_reserved":false,"is_disabled":false,"rental_uris":{"android":"levelo://app?vid=86741d38-0646-424f-b8a6-1becd88ba27d","ios":"levelo://app?vid=86741d38-0646-424f-b8a6-1becd88ba27d"},"vehicle_type_id":"4","last_reported":1712336777,"current_range_meters":10400,"station_id":"ce4bgip2rcd13ifvqbb0","pricing_plan_id":"cebpf4jnsgd1na2vs0mg"},{"bike_id":"6dacd4db-84c2-46ee-ba0c-7b9a4fa4d1e4","system_id":"levelo_inurba_marseille","lat":43.29602,"lon":5.381084,"is_reserved":false,"is_disabled":false,"rental_uris":{"android":"levelo://app?vid=6dacd4db-84c2-46ee-ba0c-7b9a4fa4d1e4","ios":"levelo://app?vid=6dacd4db-84c2-46ee-ba0c-7b9a4fa4d1e4"},"vehicle_type_id":"4","last_reported":1712336777,"current_range_meters":0,"station_id":"ce4bgl12rcd13ifvqbo0","pricing_plan_id":"cebpf4jnsgd1na2vs0mg"},{"bike_id":"e50e62de-6eab-440e-8e26-9c2b871999ff","system_id":"levelo_inurba_marseille","lat":43.30433,"lon":5.38885,"is_reserved":false,"is_disabled":false,"rental_uris":{"android":"levelo://app?vid=e50e62de-6eab-440e-8e26-9c2b871999ff","ios":"levelo://app?vid=e50e62de-6eab-440e-8e26-9c2b871999ff"},"vehicle_type_id":"4","last_reported":1712336777,"current_range_meters":0,"station_id":"ce4bgk12rcd13ifvqbi0","pricing_plan_id":"cebpf4jnsgd1na2vs0mg"},{"bike_id":"357cfddb-6e1a-461a-b9f6-e7f16752e392","system_id":"levelo_inurba_marseille","lat":43.304278,"lon":5.388868,"is_reserved":false,"is_disabled":false,"rental_uris":{"android":"levelo://app?vid=357cfddb-6e1a-461a-b9f6-e7f16752e392","ios":"levelo://app?vid=357cfddb-6e1a-461a-b9f6-e7f16752e392"},"vehicle_type_id":"4","last_reported":1712336777,"current_range_meters":2400,"station_id":"ce4bgk12rcd13ifvqbi0","pricing_plan_id":"cebpf4jnsgd1na2vs0mg"},{"bike_id":"d52d3bad-5d50-4fec-9766-510fd1dd7741","system_id":"levelo_inurba_marseille","lat":43.297794,"lon":5.370888,"is_reserved":false,"is_disabled":false,"rental_uris":{"android":"levelo://app?vid=d52d3bad-5d50-4fec-9766-510fd1dd7741","ios":"levelo://app?vid=d52d3bad-5d50-4fec-9766-510fd1dd7741"},"vehicle_type_id":"4","last_reported":1712336777,"current_range_meters":28400,"station_id":"ce4bgop2rcd13ifvqc1g","pricing_plan_id":"cebpf4jnsgd1na2vs0mg"},{"bike_id":"9e4e5e10-57cd-4c7e-b04a-848156b24aee","system_id":"levelo_inurba_marseille","lat":43.298037,"lon":5.381066,"is_reserved":false,"is_disabled":false,"rental_uris":{"android":"levelo://app?vid=9e4e5e10-57cd-4c7e-b04a-848156b24aee","ios":"levelo://app?vid=9e4e5e10-57cd-4c7e-b04a-848156b24aee"},"vehicle_type_id":"4","last_reported":1712336777,"current_range_meters":30800,"station_id":"ce4bgip2rcd13ifvqbb0","pricing_plan_id":"cebpf4jnsgd1na2vs0mg"},{"bike_id":"fb0c3d57-4bc5-43d3-9596-7c2389fda4d4","system_id":"levelo_inurba_marseille","lat":43.295748,"lon":5.37522,"is_reserved":false,"is_disabled":false,"rental_uris":{"android":"levelo://app?vid=fb0c3d57-4bc5-43d3-9596-7c2389fda4d4","ios":"levelo://app?vid=fb0c3d57-4bc5-43d3-9596-7c2389fda4d4"},"vehicle_type_id":"4","last_reported":1712336777,"current_range_meters":5200,"station_id":"ce4bgh92rcd13ifvqb50","pricing_plan_id":"cebpf4jnsgd1na2vs0mg"},{"bike_id":"d9332a0d-16a8-4a0d-a7b8-2cf43fd06ae2","system_id":"levelo_inurba_marseille","lat":43.29613,"lon":5.377293,"is_reserved":false,"is_disabled":false,"rental_uris":{"android":"levelo://app?vid=d9332a0d-16a8-4a0d-a7b8-2cf43fd06ae2","ios":"levelo://app?vid=d9332a0d-16a8-4a0d-a7b8-2cf43fd06ae2"},"vehicle_type_id":"4","last_reported":1712336777,"current_range_meters":0,"station_id":"ce4bgi92rcd13ifvqb90","pricing_plan_id":"cebpf4jnsgd1na2vs0mg"},{"bike_id":"1bd64d6d-c755-440c-a929-0f4c7ca38c9a","system_id":"levelo_inurba_marseille","lat":43.299707,"lon":5.384859,"is_reserved":false,"is_disabled":false,"rental_uris":{"android":"levelo://app?vid=1bd64d6d-c755-440c-a929-0f4c7ca38c9a","ios":"levelo://app?vid=1bd64d6d-c755-440c-a929-0f4c7ca38c9a"},"vehicle_type_id":"4","last_reported":1712336777,"current_range_meters":0,"station_id":"ce4bgj92rcd13ifvqbd0","pricing_plan_id":"cebpf4jnsgd1na2vs0mg"},{"bike_id":"9d1091b9-e9d2-46aa-9bf2-669a542494d5","system_id":"levelo_inurba_marseille","lat":43.295279,"lon":5.375048,"is_reserved":false,"is_disabled":false,"rental_uris":{"android":"levelo://app?vid=9d1091b9-e9d2-46aa-9bf2-669a542494d5","ios":"levelo://app?vid=9d1091b9-e9d2-46aa-9bf2-669a542494d5"},"vehicle_type_id":"4","last_reported":1712336777,"current_range_meters":27200,"station_id":"ce4bgkp2rcd13ifvqbmg","pricing_plan_id":"cebpf4jnsgd1na2vs0mg"},{"bike_id":"741c33cc-7534-449f-a8b5-74eee9daeb17","system_id":"levelo_inurba_marseille","lat":43.299707,"lon":5.384859,"is_reserved":false,"is_disabled":false,"rental_uris":{"android":"levelo://app?vid=741c33cc-7534-449f-a8b5-74eee9daeb17","ios":"levelo://app?vid=741c33cc-7534-449f-a8b5-74eee9daeb17"},"vehicle_type_id":"4","last_reported":1712336777,"current_range_meters":0,"station_id":"ce4bgj92rcd13ifvqbd0","pricing_plan_id":"cebpf4jnsgd1na2vs0mg"},{"bike_id":"c7ca83e3-d4c7-4630-9b37-619e78b84ae6","system_id":"levelo_inurba_marseille","lat":43.299898,"lon":5.385245,"is_reserved":false,"is_disabled":false,"rental_uris":{"android":"levelo://app?vid=c7ca83e3-d4c7-4630-9b37-619e78b84ae6","ios":"levelo://app?vid=c7ca83e3-d4c7-4630-9b37-619e78b84ae6"},"vehicle_type_id":"4","last_reported":1712336777,"current_range_meters":18800,"station_id":"","pricing_plan_id":"cebpf4jnsgd1na2vs0mg"},{"bike_id":"c7b6fe99-f09d-4251-aa5c-f7f20ff91bf7","system_id":"levelo_inurba_marseille","lat":43.299724,"lon":5.384848,"is_reserved":false,"is_disabled":false,"rental_uris":{"android":"levelo://app?vid=c7b6fe99-f09d-4251-aa5c-f7f20ff91bf7","ios":"levelo://app?vid=c7b6fe99-f09d-4251-aa5c-f7f20ff91bf7"},"vehicle_type_id":"4","last_reported":1712336777,"current_range_meters":4000,"station_id":"ce4bgj92rcd13ifvqbd0","pricing_plan_id":"cebpf4jnsgd1na2vs0mg"},{"bike_id":"f42305f2-811d-40d2-bf30-0e269cca69f2","system_id":"levelo_inurba_marseille","lat":43.29969,"lon":5.38501,"is_reserved":false,"is_disabled":false,"rental_uris":{"android":"levelo://app?vid=f42305f2-811d-40d2-bf30-0e269cca69f2","ios":"levelo://app?vid=f42305f2-811d-40d2-bf30-0e269cca69f2"},"vehicle_type_id":"4","last_reported":1712336777,"current_range_meters":0,"station_id":"ce4bgj92rcd13ifvqbd0","pricing_plan_id":"cebpf4jnsgd1na2vs0mg"},{"bike_id":"f4b88f1d-024a-43f1-92d0-b2fd6ab549db","system_id":"levelo_inurba_marseille","lat":43.299724,"lon":5.384848,"is_reserved":false,"is_disabled":false,"rental_uris":{"android":"levelo://app?vid=f4b88f1d-024a-43f1-92d0-b2fd6ab549db","ios":"levelo://app?vid=f4b88f1d-024a-43f1-92d0-b2fd6ab549db"},"vehicle_type_id":"4","last_reported":1712336777,"current_range_meters":800,"station_id":"ce4bgj92rcd13ifvqbd0","pricing_plan_id":"cebpf4jnsgd1na2vs0mg"},{"bike_id":"827c4d2b-46ee-4598-a69f-acef3cf57b12","system_id":"levelo_inurba_marseille","lat":43.299724,"lon":5.384848,"is_reserved":false,"is_disabled":false,"rental_uris":{"android":"levelo://app?vid=827c4d2b-46ee-4598-a69f-acef3cf57b12","ios":"levelo://app?vid=827c4d2b-46ee-4598-a69f-acef3cf57b12"},"vehicle_type_id":"4","last_reported":1712336777,"current_range_meters":24000,"station_id":"ce4bgj92rcd13ifvqbd0","pricing_plan_id":"cebpf4jnsgd1na2vs0mg"},{"bike_id":"6764966f-cefe-4fca-bf3c-8aca491660ab","system_id":"levelo_inurba_marseille","lat":43.32357,"lon":5.38881,"is_reserved":false,"is_disabled":false,"rental_uris":{"android":"levelo://app?vid=6764966f-cefe-4fca-bf3c-8aca491660ab","ios":"levelo://app?vid=6764966f-cefe-4fca-bf3c-8aca491660ab"},"vehicle_type_id":"4","last_reported":1712336777,"current_range_meters":2400,"station_id":"ce4bhqp2rcd13ifvqhog","pricing_plan_id":"cebpf4jnsgd1na2vs0mg"},{"bike_id":"198f4686-ced4-4020-b287-fed995b54800","system_id":"levelo_inurba_marseille","lat":43.3237,"lon":5.38877,"is_reserved":false,"is_disabled":false,"rental_uris":{"android":"levelo://app?vid=198f4686-ced4-4020-b287-fed995b54800","ios":"levelo://app?vid=198f4686-ced4-4020-b287-fed995b54800"},"vehicle_type_id":"4","last_reported":1712336777,"current_range_meters":8800,"station_id":"ce4bhqp2rcd13ifvqhog","pricing_plan_id":"cebpf4jnsgd1na2vs0mg"},{"bike_id":"c5ed90dd-85d0-4191-b4fa-f5b81de4b1cc","system_id":"levelo_inurba_marseille","lat":43.32372,"lon":5.38878,"is_reserved":false,"is_disabled":false,"rental_uris":{"android":"levelo://app?vid=c5ed90dd-85d0-4191-b4fa-f5b81de4b1cc","ios":"levelo://app?vid=c5ed90dd-85d0-4191-b4fa-f5b81de4b1cc"},"vehicle_type_id":"4","last_reported":1712336777,"current_range_meters":6000,"station_id":"ce4bhqp2rcd13ifvqhog","pricing_plan_id":"cebpf4jnsgd1na2vs0mg"},{"bike_id":"bee4723c-8c5f-4aec-809e-2c4c31351fd7","system_id":"levelo_inurba_marseille","lat":43.32369,"lon":5.38883,"is_reserved":false,"is_disabled":false,"rental_uris":{"android":"levelo://app?vid=bee4723c-8c5f-4aec-809e-2c4c31351fd7","ios":"levelo://app?vid=bee4723c-8c5f-4aec-809e-2c4c31351fd7"},"vehicle_type_id":"4","last_reported":1712336777,"current_range_meters":4000,"station_id":"ce4bhqp2rcd13ifvqhog","pricing_plan_id":"cebpf4jnsgd1na2vs0mg"},{"bike_id":"b9f145ce-647f-4be7-9520-872e8c16a474","system_id":"levelo_inurba_marseille","lat":43.32368,"lon":5.388844,"is_reserved":false,"is_disabled":false,"rental_uris":{"android":"levelo://app?vid=b9f145ce-647f-4be7-9520-872e8c16a474","ios":"levelo://app?vid=b9f145ce-647f-4be7-9520-872e8c16a474"},"vehicle_type_id":"4","last_reported":1712336777,"current_range_meters":0,"station_id":"ce4bhqp2rcd13ifvqhog","pricing_plan_id":"cebpf4jnsgd1na2vs0mg"},{"bike_id":"efbc3f29-5f0d-4fdd-a699-a12f1a6ff0fa","system_id":"levelo_inurba_marseille","lat":43.32369,"lon":5.38884,"is_reserved":false,"is_disabled":false,"rental_uris":{"android":"levelo://app?vid=efbc3f29-5f0d-4fdd-a699-a12f1a6ff0fa","ios":"levelo://app?vid=efbc3f29-5f0d-4fdd-a699-a12f1a6ff0fa"},"vehicle_type_id":"4","last_reported":1712336777,"current_range_meters":400,"station_id":"ce4bhqp2rcd13ifvqhog","pricing_plan_id":"cebpf4jnsgd1na2vs0mg"},{"bike_id":"6259d75e-6099-45da-8977-ddf2ce54da6d","system_id":"levelo_inurba_marseille","lat":43.29601,"lon":5.381084,"is_reserved":false,"is_disabled":false,"rental_uris":{"android":"levelo://app?vid=6259d75e-6099-45da-8977-ddf2ce54da6d","ios":"levelo://app?vid=6259d75e-6099-45da-8977-ddf2ce54da6d"},"vehicle_type_id":"4","last_reported":1712336777,"current_range_meters":3600,"station_id":"ce4bgl12rcd13ifvqbo0","pricing_plan_id":"cebpf4jnsgd1na2vs0mg"},{"bike_id":"675622dc-c8f9-4bc0-8124-eaf43fe773ff","system_id":"levelo_inurba_marseille","lat":43.29602,"lon":5.381084,"is_reserved":false,"is_disabled":false,"rental_uris":{"android":"levelo://app?vid=675622dc-c8f9-4bc0-8124-eaf43fe773ff","ios":"levelo://app?vid=675622dc-c8f9-4bc0-8124-eaf43fe773ff"},"vehicle_type_id":"4","last_reported":1712336777,"current_range_meters":400,"station_id":"ce4bgl12rcd13ifvqbo0","pricing_plan_id":"cebpf4jnsgd1na2vs0mg"},{"bike_id":"f484bd00-a579-4e0f-aa34-868ce79c826b","system_id":"levelo_inurba_marseille","lat":43.29601,"lon":5.381084,"is_reserved":false,"is_disabled":false,"rental_uris":{"android":"levelo://app?vid=f484bd00-a579-4e0f-aa34-868ce79c826b","ios":"levelo://app?vid=f484bd00-a579-4e0f-aa34-868ce79c826b"},"vehicle_type_id":"4","last_reported":1712336777,"current_range_meters":0,"station_id":"ce4bgl12rcd13ifvqbo0","pricing_plan_id":"cebpf4jnsgd1na2vs0mg"},{"bike_id":"41405296-cc57-4517-995e-a1d8f1fd6e67","system_id":"levelo_inurba_marseille","lat":43.32367,"lon":5.388836,"is_reserved":false,"is_disabled":false,"rental_uris":{"android":"levelo://app?vid=41405296-cc57-4517-995e-a1d8f1fd6e67","ios":"levelo://app?vid=41405296-cc57-4517-995e-a1d8f1fd6e67"},"vehicle_type_id":"4","last_reported":1712336777,"current_range_meters":0,"station_id":"ce4bhqp2rcd13ifvqhog","pricing_plan_id":"cebpf4jnsgd1na2vs0mg"},{"bike_id":"014df9ef-a8e1-48cb-aeb4-271ed66a1b33","system_id":"levelo_inurba_marseille","lat":43.292749,"lon":5.368402,"is_reserved":false,"is_disabled":false,"rental_uris":{"android":"levelo://app?vid=014df9ef-a8e1-48cb-aeb4-271ed66a1b33","ios":"levelo://app?vid=014df9ef-a8e1-48cb-aeb4-271ed66a1b33"},"vehicle_type_id":"4","last_reported":1712336777,"current_range_meters":0,"station_id":"ce4bhbp2rcd13ifvqesg","pricing_plan_id":"cebpf4jnsgd1na2vs0mg"},{"bike_id":"c1405c0e-e4b4-49f5-b3e2-311611939116","system_id":"levelo_inurba_marseille","lat":43.293259,"lon":5.371586,"is_reserved":false,"is_disabled":false,"rental_uris":{"android":"levelo://app?vid=c1405c0e-e4b4-49f5-b3e2-311611939116","ios":"levelo://app?vid=c1405c0e-e4b4-49f5-b3e2-311611939116"},"vehicle_type_id":"4","last_reported":1712336777,"current_range_meters":14400,"station_id":"ce4bgh92rcd13ifvqb40","pricing_plan_id":"cebpf4jnsgd1na2vs0mg"},{"bike_id":"6308b418-6817-4018-ba35-47be8fe1cd72","system_id":"levelo_inurba_marseille","lat":43.290103,"lon":5.356114,"is_reserved":false,"is_disabled":false,"rental_uris":{"android":"levelo://app?vid=6308b418-6817-4018-ba35-47be8fe1cd72","ios":"levelo://app?vid=6308b418-6817-4018-ba35-47be8fe1cd72"},"vehicle_type_id":"4","last_reported":1712336777,"current_range_meters":1600,"station_id":"ce4bhb92rcd13ifvqen0","pricing_plan_id":"cebpf4jnsgd1na2vs0mg"},{"bike_id":"bffa8b81-9a4b-45a8-a5f0-0200fdbc9f4d","system_id":"levelo_inurba_marseille","lat":43.292749,"lon":5.368402,"is_reserved":false,"is_disabled":false,"rental_uris":{"android":"levelo://app?vid=bffa8b81-9a4b-45a8-a5f0-0200fdbc9f4d","ios":"levelo://app?vid=bffa8b81-9a4b-45a8-a5f0-0200fdbc9f4d"},"vehicle_type_id":"4","last_reported":1712336777,"current_range_meters":10000,"station_id":"ce4bhbp2rcd13ifvqesg","pricing_plan_id":"cebpf4jnsgd1na2vs0mg"},{"bike_id":"033fd87b-9951-49e2-91aa-bd0c29890ed4","system_id":"levelo_inurba_marseille","lat":43.292749,"lon":5.368402,"is_reserved":false,"is_disabled":false,"rental_uris":{"android":"levelo://app?vid=033fd87b-9951-49e2-91aa-bd0c29890ed4","ios":"levelo://app?vid=033fd87b-9951-49e2-91aa-bd0c29890ed4"},"vehicle_type_id":"4","last_reported":1712336777,"current_range_meters":4000,"station_id":"ce4bhbp2rcd13ifvqesg","pricing_plan_id":"cebpf4jnsgd1na2vs0mg"},{"bike_id":"1e9f3acf-b2a9-481c-ae38-ecc8bee2aab6","system_id":"levelo_inurba_marseille","lat":43.29298,"lon":5.37447,"is_reserved":false,"is_disabled":false,"rental_uris":{"android":"levelo://app?vid=1e9f3acf-b2a9-481c-ae38-ecc8bee2aab6","ios":"levelo://app?vid=1e9f3acf-b2a9-481c-ae38-ecc8bee2aab6"},"vehicle_type_id":"4","last_reported":1712336777,"current_range_meters":0,"station_id":"ce4bgi12rcd13ifvqb70","pricing_plan_id":"cebpf4jnsgd1na2vs0mg"},{"bike_id":"2e4cf6a5-3247-40db-a0a6-fc8b1b1d2587","system_id":"levelo_inurba_marseille","lat":43.309038,"lon":5.396546,"is_reserved":false,"is_disabled":false,"rental_uris":{"android":"levelo://app?vid=2e4cf6a5-3247-40db-a0a6-fc8b1b1d2587","ios":"levelo://app?vid=2e4cf6a5-3247-40db-a0a6-fc8b1b1d2587"},"vehicle_type_id":"4","last_reported":1712336777,"current_range_meters":1200,"station_id":"ce4bh012rcd13ifvqcv0","pricing_plan_id":"cebpf4jnsgd1na2vs0mg"},{"bike_id":"28fd18ec-f239-45b0-9994-69f2ad9af5b7","system_id":"levelo_inurba_marseille","lat":43.303002,"lon":5.392142,"is_reserved":false,"is_disabled":false,"rental_uris":{"android":"levelo://app?vid=28fd18ec-f239-45b0-9994-69f2ad9af5b7","ios":"levelo://app?vid=28fd18ec-f239-45b0-9994-69f2ad9af5b7"},"vehicle_type_id":"4","last_reported":1712336777,"current_range_meters":8800,"station_id":"ce4bgkh2rcd13ifvqbk0","pricing_plan_id":"cebpf4jnsgd1na2vs0mg"},{"bike_id":"e4921910-5316-4b44-ba73-b238269fcd9c","system_id":"levelo_inurba_marseille","lat":43.303002,"lon":5.392142,"is_reserved":false,"is_disabled":false,"rental_uris":{"android":"levelo://app?vid=e4921910-5316-4b44-ba73-b238269fcd9c","ios":"levelo://app?vid=e4921910-5316-4b44-ba73-b238269fcd9c"},"vehicle_type_id":"4","last_reported":1712336777,"current_range_meters":11200,"station_id":"ce4bgkh2rcd13ifvqbk0","pricing_plan_id":"cebpf4jnsgd1na2vs0mg"},{"bike_id":"798e828b-a01d-447b-b4df-56b3938b2779","system_id":"levelo_inurba_marseille","lat":43.298037,"lon":5.381066,"is_reserved":false,"is_disabled":false,"rental_uris":{"android":"levelo://app?vid=798e828b-a01d-447b-b4df-56b3938b2779","ios":"levelo://app?vid=798e828b-a01d-447b-b4df-56b3938b2779"},"vehicle_type_id":"4","last_reported":1712336777,"current_range_meters":1200,"station_id":"ce4bgip2rcd13ifvqbb0","pricing_plan_id":"cebpf4jnsgd1na2vs0mg"},{"bike_id":"355e60a6-c74f-492b-a6dc-366551afc6ae","system_id":"levelo_inurba_marseille","lat":43.29222,"lon":5.36054,"is_reserved":false,"is_disabled":false,"rental_uris":{"android":"levelo://app?vid=355e60a6-c74f-492b-a6dc-366551afc6ae","ios":"levelo://app?vid=355e60a6-c74f-492b-a6dc-366551afc6ae"},"vehicle_type_id":"4","last_reported":1712336777,"current_range_meters":0,"station_id":"","pricing_plan_id":"cebpf4jnsgd1na2vs0mg"},{"bike_id":"99ebec1c-904a-489a-8ab2-79bfa325fb5b","system_id":"levelo_inurba_marseille","lat":43.310804,"lon":5.38359,"is_reserved":false,"is_disabled":false,"rental_uris":{"android":"levelo://app?vid=99ebec1c-904a-489a-8ab2-79bfa325fb5b","ios":"levelo://app?vid=99ebec1c-904a-489a-8ab2-79bfa325fb5b"},"vehicle_type_id":"4","last_reported":1712336777,"current_range_meters":14000,"station_id":"ce4bgv92rcd13ifvqcr0","pricing_plan_id":"cebpf4jnsgd1na2vs0mg"},{"bike_id":"11747f62-8515-4aea-bbc6-b998b370c7b5","system_id":"levelo_inurba_marseille","lat":43.291994,"lon":5.357886,"is_reserved":false,"is_disabled":false,"rental_uris":{"android":"levelo://app?vid=11747f62-8515-4aea-bbc6-b998b370c7b5","ios":"levelo://app?vid=11747f62-8515-4aea-bbc6-b998b370c7b5"},"vehicle_type_id":"4","last_reported":1712336777,"current_range_meters":6400,"station_id":"ce4bhb12rcd13ifvqel0","pricing_plan_id":"cebpf4jnsgd1na2vs0mg"},{"bike_id":"cca06457-bcec-4bc4-89b3-0d7b98c150ea","system_id":"levelo_inurba_marseille","lat":43.298764,"lon":5.388973,"is_reserved":false,"is_disabled":false,"rental_uris":{"android":"levelo://app?vid=cca06457-bcec-4bc4-89b3-0d7b98c150ea","ios":"levelo://app?vid=cca06457-bcec-4bc4-89b3-0d7b98c150ea"},"vehicle_type_id":"4","last_reported":1712336777,"current_range_meters":8800,"station_id":"ce4bh392rcd13ifvqdl0","pricing_plan_id":"cebpf4jnsgd1na2vs0mg"},{"bike_id":"f91bb8a0-b975-4839-8085-d453f2a56b92","system_id":"levelo_inurba_marseille","lat":43.291671,"lon":5.371575,"is_reserved":false,"is_disabled":false,"rental_uris":{"android":"levelo://app?vid=f91bb8a0-b975-4839-8085-d453f2a56b92","ios":"levelo://app?vid=f91bb8a0-b975-4839-8085-d453f2a56b92"},"vehicle_type_id":"4","last_reported":1712336777,"current_range_meters":0,"station_id":"ce4bha92rcd13ifvqeh0","pricing_plan_id":"cebpf4jnsgd1na2vs0mg"},{"bike_id":"556df9ee-8980-4f56-9816-7d19ef0e03ba","system_id":"levelo_inurba_marseille","lat":43.291675,"lon":5.371583,"is_reserved":false,"is_disabled":false,"rental_uris":{"android":"levelo://app?vid=556df9ee-8980-4f56-9816-7d19ef0e03ba","ios":"levelo://app?vid=556df9ee-8980-4f56-9816-7d19ef0e03ba"},"vehicle_type_id":"4","last_reported":1712336777,"current_range_meters":0,"station_id":"ce4bha92rcd13ifvqeh0","pricing_plan_id":"cebpf4jnsgd1na2vs0mg"},{"bike_id":"65569922-82c6-4961-acba-3668e0066954","system_id":"levelo_inurba_marseille","lat":43.292005,"lon":5.357875,"is_reserved":false,"is_disabled":false,"rental_uris":{"android":"levelo://app?vid=65569922-82c6-4961-acba-3668e0066954","ios":"levelo://app?vid=65569922-82c6-4961-acba-3668e0066954"},"vehicle_type_id":"4","last_reported":1712336777,"current_range_meters":1600,"station_id":"ce4bhb12rcd13ifvqel0","pricing_plan_id":"cebpf4jnsgd1na2vs0mg"},{"bike_id":"5245111d-1c78-4bfe-a7dd-b4685a0e68cd","system_id":"levelo_inurba_marseille","lat":43.313291,"lon":5.396838,"is_reserved":false,"is_disabled":false,"rental_uris":{"android":"levelo://app?vid=5245111d-1c78-4bfe-a7dd-b4685a0e68cd","ios":"levelo://app?vid=5245111d-1c78-4bfe-a7dd-b4685a0e68cd"},"vehicle_type_id":"4","last_reported":1712336777,"current_range_meters":10400,"station_id":"ce4bgvp2rcd13ifvqcu0","pricing_plan_id":"cebpf4jnsgd1na2vs0mg"},{"bike_id":"5a4878b9-510c-44b7-9f65-5d95249fdfca","system_id":"levelo_inurba_marseille","lat":43.2919,"lon":5.35798,"is_reserved":false,"is_disabled":false,"rental_uris":{"android":"levelo://app?vid=5a4878b9-510c-44b7-9f65-5d95249fdfca","ios":"levelo://app?vid=5a4878b9-510c-44b7-9f65-5d95249fdfca"},"vehicle_type_id":"4","last_reported":1712336777,"current_range_meters":0,"station_id":"ce4bhb12rcd13ifvqel0","pricing_plan_id":"cebpf4jnsgd1na2vs0mg"},{"bike_id":"9c6eff74-67fb-4de6-84b1-2d8406c6eaad","system_id":"levelo_inurba_marseille","lat":43.313291,"lon":5.396838,"is_reserved":false,"is_disabled":false,"rental_uris":{"android":"levelo://app?vid=9c6eff74-67fb-4de6-84b1-2d8406c6eaad","ios":"levelo://app?vid=9c6eff74-67fb-4de6-84b1-2d8406c6eaad"},"vehicle_type_id":"4","last_reported":1712336777,"current_range_meters":3200,"station_id":"ce4bgvp2rcd13ifvqcu0","pricing_plan_id":"cebpf4jnsgd1na2vs0mg"},{"bike_id":"5efb1ceb-6872-495b-8d52-21f1dac9a5e8","system_id":"levelo_inurba_marseille","lat":43.313291,"lon":5.396838,"is_reserved":false,"is_disabled":false,"rental_uris":{"android":"levelo://app?vid=5efb1ceb-6872-495b-8d52-21f1dac9a5e8","ios":"levelo://app?vid=5efb1ceb-6872-495b-8d52-21f1dac9a5e8"},"vehicle_type_id":"4","last_reported":1712336777,"current_range_meters":9200,"station_id":"ce4bgvp2rcd13ifvqcu0","pricing_plan_id":"cebpf4jnsgd1na2vs0mg"},{"bike_id":"0a085772-b1e8-4f7e-bbe3-82dbeb4bd6de","system_id":"levelo_inurba_marseille","lat":43.29533,"lon":5.38539,"is_reserved":false,"is_disabled":false,"rental_uris":{"android":"levelo://app?vid=0a085772-b1e8-4f7e-bbe3-82dbeb4bd6de","ios":"levelo://app?vid=0a085772-b1e8-4f7e-bbe3-82dbeb4bd6de"},"vehicle_type_id":"4","last_reported":1712336777,"current_range_meters":0,"station_id":"ce4bgih2rcd13ifvqba0","pricing_plan_id":"cebpf4jnsgd1na2vs0mg"},{"bike_id":"ae34cce6-ad66-454d-ab95-83656ddab975","system_id":"levelo_inurba_marseille","lat":43.29529,"lon":5.385581,"is_reserved":false,"is_disabled":false,"rental_uris":{"android":"levelo://app?vid=ae34cce6-ad66-454d-ab95-83656ddab975","ios":"levelo://app?vid=ae34cce6-ad66-454d-ab95-83656ddab975"},"vehicle_type_id":"4","last_reported":1712336777,"current_range_meters":9600,"station_id":"ce4bgih2rcd13ifvqba0","pricing_plan_id":"cebpf4jnsgd1na2vs0mg"},{"bike_id":"65b735f0-ec0c-411c-8d9c-e4af1f205d65","system_id":"levelo_inurba_marseille","lat":43.29529,"lon":5.385581,"is_reserved":false,"is_disabled":false,"rental_uris":{"android":"levelo://app?vid=65b735f0-ec0c-411c-8d9c-e4af1f205d65","ios":"levelo://app?vid=65b735f0-ec0c-411c-8d9c-e4af1f205d65"},"vehicle_type_id":"4","last_reported":1712336777,"current_range_meters":4000,"station_id":"ce4bgih2rcd13ifvqba0","pricing_plan_id":"cebpf4jnsgd1na2vs0mg"},{"bike_id":"73533c5b-8362-4057-8671-2ec431bbfc0d","system_id":"levelo_inurba_marseille","lat":43.29534,"lon":5.38547,"is_reserved":false,"is_disabled":false,"rental_uris":{"android":"levelo://app?vid=73533c5b-8362-4057-8671-2ec431bbfc0d","ios":"levelo://app?vid=73533c5b-8362-4057-8671-2ec431bbfc0d"},"vehicle_type_id":"4","last_reported":1712336777,"current_range_meters":0,"station_id":"ce4bgih2rcd13ifvqba0","pricing_plan_id":"cebpf4jnsgd1na2vs0mg"},{"bike_id":"e7e0863c-dad8-4c67-8563-63fafc48682e","system_id":"levelo_inurba_marseille","lat":43.28856,"lon":5.358371,"is_reserved":false,"is_disabled":false,"rental_uris":{"android":"levelo://app?vid=e7e0863c-dad8-4c67-8563-63fafc48682e","ios":"levelo://app?vid=e7e0863c-dad8-4c67-8563-63fafc48682e"},"vehicle_type_id":"4","last_reported":1712336777,"current_range_meters":0,"station_id":"ce4bhb12rcd13ifvqem0","pricing_plan_id":"cebpf4jnsgd1na2vs0mg"},{"bike_id":"7c205bd9-89bc-4f3f-9ae4-58aeaeae3801","system_id":"levelo_inurba_marseille","lat":43.29529,"lon":5.385581,"is_reserved":false,"is_disabled":false,"rental_uris":{"android":"levelo://app?vid=7c205bd9-89bc-4f3f-9ae4-58aeaeae3801","ios":"levelo://app?vid=7c205bd9-89bc-4f3f-9ae4-58aeaeae3801"},"vehicle_type_id":"4","last_reported":1712336777,"current_range_meters":0,"station_id":"ce4bgih2rcd13ifvqba0","pricing_plan_id":"cebpf4jnsgd1na2vs0mg"},{"bike_id":"08bc09dc-81b5-4c4f-9d25-5aabbf182807","system_id":"levelo_inurba_marseille","lat":43.29529,"lon":5.385581,"is_reserved":false,"is_disabled":false,"rental_uris":{"android":"levelo://app?vid=08bc09dc-81b5-4c4f-9d25-5aabbf182807","ios":"levelo://app?vid=08bc09dc-81b5-4c4f-9d25-5aabbf182807"},"vehicle_type_id":"4","last_reported":1712336777,"current_range_meters":0,"station_id":"ce4bgih2rcd13ifvqba0","pricing_plan_id":"cebpf4jnsgd1na2vs0mg"},{"bike_id":"01a4a851-7154-4098-9bab-d0bc229a715f","system_id":"levelo_inurba_marseille","lat":43.313291,"lon":5.396838,"is_reserved":false,"is_disabled":false,"rental_uris":{"android":"levelo://app?vid=01a4a851-7154-4098-9bab-d0bc229a715f","ios":"levelo://app?vid=01a4a851-7154-4098-9bab-d0bc229a715f"},"vehicle_type_id":"4","last_reported":1712336777,"current_range_meters":9200,"station_id":"ce4bgvp2rcd13ifvqcu0","pricing_plan_id":"cebpf4jnsgd1na2vs0mg"},{"bike_id":"cdc6595c-5166-41b4-b44b-c86bf3c14787","system_id":"levelo_inurba_marseille","lat":43.313571,"lon":5.384829,"is_reserved":false,"is_disabled":false,"rental_uris":{"android":"levelo://app?vid=cdc6595c-5166-41b4-b44b-c86bf3c14787","ios":"levelo://app?vid=cdc6595c-5166-41b4-b44b-c86bf3c14787"},"vehicle_type_id":"4","last_reported":1712336777,"current_range_meters":4800,"station_id":"ce4bgt92rcd13ifvqcf0","pricing_plan_id":"cebpf4jnsgd1na2vs0mg"},{"bike_id":"f9a0fead-31e2-4945-90ab-bd5c01f4573d","system_id":"levelo_inurba_marseille","lat":43.290779,"lon":5.371482,"is_reserved":false,"is_disabled":false,"rental_uris":{"android":"levelo://app?vid=f9a0fead-31e2-4945-90ab-bd5c01f4573d","ios":"levelo://app?vid=f9a0fead-31e2-4945-90ab-bd5c01f4573d"},"vehicle_type_id":"4","last_reported":1712336777,"current_range_meters":4000,"station_id":"ce4bh5p2rcd13ifvqe4g","pricing_plan_id":"cebpf4jnsgd1na2vs0mg"},{"bike_id":"8650595c-50f2-4153-ba94-48e930881448","system_id":"levelo_inurba_marseille","lat":43.302008,"lon":5.394694,"is_reserved":false,"is_disabled":false,"rental_uris":{"android":"levelo://app?vid=8650595c-50f2-4153-ba94-48e930881448","ios":"levelo://app?vid=8650595c-50f2-4153-ba94-48e930881448"},"vehicle_type_id":"4","last_reported":1712336777,"current_range_meters":2400,"station_id":"ce4bh0p2rcd13ifvqd70","pricing_plan_id":"cebpf4jnsgd1na2vs0mg"},{"bike_id":"8dec1263-6766-47da-9174-f9e565656b22","system_id":"levelo_inurba_marseille","lat":43.302008,"lon":5.394694,"is_reserved":false,"is_disabled":false,"rental_uris":{"android":"levelo://app?vid=8dec1263-6766-47da-9174-f9e565656b22","ios":"levelo://app?vid=8dec1263-6766-47da-9174-f9e565656b22"},"vehicle_type_id":"4","last_reported":1712336777,"current_range_meters":3600,"station_id":"ce4bh0p2rcd13ifvqd70","pricing_plan_id":"cebpf4jnsgd1na2vs0mg"},{"bike_id":"18558f64-b245-4d84-909e-25ceef3e6797","system_id":"levelo_inurba_marseille","lat":43.289184,"lon":5.366408,"is_reserved":false,"is_disabled":false,"rental_uris":{"android":"levelo://app?vid=18558f64-b245-4d84-909e-25ceef3e6797","ios":"levelo://app?vid=18558f64-b245-4d84-909e-25ceef3e6797"},"vehicle_type_id":"4","last_reported":1712336777,"current_range_meters":1200,"station_id":"ce4bhap2rcd13ifvqek0","pricing_plan_id":"cebpf4jnsgd1na2vs0mg"},{"bike_id":"e40a0f84-1ad2-408e-ba5b-edcf34a53217","system_id":"levelo_inurba_marseille","lat":43.290631,"lon":5.359244,"is_reserved":false,"is_disabled":false,"rental_uris":{"android":"levelo://app?vid=e40a0f84-1ad2-408e-ba5b-edcf34a53217","ios":"levelo://app?vid=e40a0f84-1ad2-408e-ba5b-edcf34a53217"},"vehicle_type_id":"4","last_reported":1712336777,"current_range_meters":0,"station_id":"ce4bha92rcd13ifvqeg0","pricing_plan_id":"cebpf4jnsgd1na2vs0mg"},{"bike_id":"2cc81a2b-5225-4d6b-91a4-2a3cde3678ed","system_id":"levelo_inurba_marseille","lat":43.289581,"lon":5.365264,"is_reserved":false,"is_disabled":false,"rental_uris":{"android":"levelo://app?vid=2cc81a2b-5225-4d6b-91a4-2a3cde3678ed","ios":"levelo://app?vid=2cc81a2b-5225-4d6b-91a4-2a3cde3678ed"},"vehicle_type_id":"4","last_reported":1712336777,"current_range_meters":7200,"station_id":"ce4bhap2rcd13ifvqek0","pricing_plan_id":"cebpf4jnsgd1na2vs0mg"},{"bike_id":"82c076d8-0338-423e-be0a-69b5bbd23785","system_id":"levelo_inurba_marseille","lat":43.28954,"lon":5.366542,"is_reserved":false,"is_disabled":false,"rental_uris":{"android":"levelo://app?vid=82c076d8-0338-423e-be0a-69b5bbd23785","ios":"levelo://app?vid=82c076d8-0338-423e-be0a-69b5bbd23785"},"vehicle_type_id":"4","last_reported":1712336777,"current_range_meters":0,"station_id":"ce4bhap2rcd13ifvqek0","pricing_plan_id":"cebpf4jnsgd1na2vs0mg"},{"bike_id":"bfc228c8-6e44-4145-a149-7d93cad1debd","system_id":"levelo_inurba_marseille","lat":43.29429,"lon":5.38628,"is_reserved":false,"is_disabled":false,"rental_uris":{"android":"levelo://app?vid=bfc228c8-6e44-4145-a149-7d93cad1debd","ios":"levelo://app?vid=bfc228c8-6e44-4145-a149-7d93cad1debd"},"vehicle_type_id":"4","last_reported":1712336777,"current_range_meters":0,"station_id":"ce4bh2h2rcd13ifvqdh0","pricing_plan_id":"cebpf4jnsgd1na2vs0mg"},{"bike_id":"a7569774-f51f-4423-a76e-71c5deb3f2e0","system_id":"levelo_inurba_marseille","lat":43.2904,"lon":5.37559,"is_reserved":false,"is_disabled":false,"rental_uris":{"android":"levelo://app?vid=a7569774-f51f-4423-a76e-71c5deb3f2e0","ios":"levelo://app?vid=a7569774-f51f-4423-a76e-71c5deb3f2e0"},"vehicle_type_id":"4","last_reported":1712336777,"current_range_meters":0,"station_id":"ce4bh692rcd13ifvqe90","pricing_plan_id":"cebpf4jnsgd1na2vs0mg"},{"bike_id":"6b7d0008-7929-41d0-96a2-0f53d647bc9b","system_id":"levelo_inurba_marseille","lat":43.289184,"lon":5.366408,"is_reserved":false,"is_disabled":false,"rental_uris":{"android":"levelo://app?vid=6b7d0008-7929-41d0-96a2-0f53d647bc9b","ios":"levelo://app?vid=6b7d0008-7929-41d0-96a2-0f53d647bc9b"},"vehicle_type_id":"4","last_reported":1712336777,"current_range_meters":0,"station_id":"ce4bhap2rcd13ifvqek0","pricing_plan_id":"cebpf4jnsgd1na2vs0mg"},{"bike_id":"349889a2-b758-422c-b259-5b545fb91b7f","system_id":"levelo_inurba_marseille","lat":43.294153,"lon":5.386305,"is_reserved":false,"is_disabled":false,"rental_uris":{"android":"levelo://app?vid=349889a2-b758-422c-b259-5b545fb91b7f","ios":"levelo://app?vid=349889a2-b758-422c-b259-5b545fb91b7f"},"vehicle_type_id":"4","last_reported":1712336777,"current_range_meters":12400,"station_id":"ce4bh2h2rcd13ifvqdh0","pricing_plan_id":"cebpf4jnsgd1na2vs0mg"},{"bike_id":"66bc15f8-f865-4342-a049-7637b1f426c1","system_id":"levelo_inurba_marseille","lat":43.296263,"lon":5.40601,"is_reserved":false,"is_disabled":false,"rental_uris":{"android":"levelo://app?vid=66bc15f8-f865-4342-a049-7637b1f426c1","ios":"levelo://app?vid=66bc15f8-f865-4342-a049-7637b1f426c1"},"vehicle_type_id":"4","last_reported":1712336777,"current_range_meters":17600,"station_id":"ce4bh0h2rcd13ifvqd60","pricing_plan_id":"cebpf4jnsgd1na2vs0mg"},{"bike_id":"38e6b264-bbc4-4a28-ae1d-172b68028c8c","system_id":"levelo_inurba_marseille","lat":43.289184,"lon":5.366408,"is_reserved":false,"is_disabled":false,"rental_uris":{"android":"levelo://app?vid=38e6b264-bbc4-4a28-ae1d-172b68028c8c","ios":"levelo://app?vid=38e6b264-bbc4-4a28-ae1d-172b68028c8c"},"vehicle_type_id":"4","last_reported":1712336777,"current_range_meters":27200,"station_id":"ce4bhap2rcd13ifvqek0","pricing_plan_id":"cebpf4jnsgd1na2vs0mg"},{"bike_id":"159ea9aa-46b9-465f-ac95-f2f12dd6aa98","system_id":"levelo_inurba_marseille","lat":43.294153,"lon":5.386305,"is_reserved":false,"is_disabled":false,"rental_uris":{"android":"levelo://app?vid=159ea9aa-46b9-465f-ac95-f2f12dd6aa98","ios":"levelo://app?vid=159ea9aa-46b9-465f-ac95-f2f12dd6aa98"},"vehicle_type_id":"4","last_reported":1712336777,"current_range_meters":0,"station_id":"ce4bh2h2rcd13ifvqdh0","pricing_plan_id":"cebpf4jnsgd1na2vs0mg"},{"bike_id":"ee9863d8-ed8d-4698-b634-14336dda3e73","system_id":"levelo_inurba_marseille","lat":43.289184,"lon":5.366408,"is_reserved":false,"is_disabled":false,"rental_uris":{"android":"levelo://app?vid=ee9863d8-ed8d-4698-b634-14336dda3e73","ios":"levelo://app?vid=ee9863d8-ed8d-4698-b634-14336dda3e73"},"vehicle_type_id":"4","last_reported":1712336777,"current_range_meters":0,"station_id":"ce4bhap2rcd13ifvqek0","pricing_plan_id":"cebpf4jnsgd1na2vs0mg"},{"bike_id":"2f521724-f231-41ef-a296-bde221f4d238","system_id":"levelo_inurba_marseille","lat":43.294162,"lon":5.386292,"is_reserved":false,"is_disabled":false,"rental_uris":{"android":"levelo://app?vid=2f521724-f231-41ef-a296-bde221f4d238","ios":"levelo://app?vid=2f521724-f231-41ef-a296-bde221f4d238"},"vehicle_type_id":"4","last_reported":1712336777,"current_range_meters":2000,"station_id":"ce4bh2h2rcd13ifvqdh0","pricing_plan_id":"cebpf4jnsgd1na2vs0mg"},{"bike_id":"d5f55f3d-936b-4815-b705-7ce7ff766da7","system_id":"levelo_inurba_marseille","lat":43.294162,"lon":5.386292,"is_reserved":false,"is_disabled":false,"rental_uris":{"android":"levelo://app?vid=d5f55f3d-936b-4815-b705-7ce7ff766da7","ios":"levelo://app?vid=d5f55f3d-936b-4815-b705-7ce7ff766da7"},"vehicle_type_id":"4","last_reported":1712336777,"current_range_meters":0,"station_id":"ce4bh2h2rcd13ifvqdh0","pricing_plan_id":"cebpf4jnsgd1na2vs0mg"},{"bike_id":"08ee45b7-c911-4e9a-84b1-cbb8940507c9","system_id":"levelo_inurba_marseille","lat":43.294162,"lon":5.386292,"is_reserved":false,"is_disabled":false,"rental_uris":{"android":"levelo://app?vid=08ee45b7-c911-4e9a-84b1-cbb8940507c9","ios":"levelo://app?vid=08ee45b7-c911-4e9a-84b1-cbb8940507c9"},"vehicle_type_id":"4","last_reported":1712336777,"current_range_meters":0,"station_id":"ce4bh2h2rcd13ifvqdh0","pricing_plan_id":"cebpf4jnsgd1na2vs0mg"},{"bike_id":"b1812ee4-f131-471d-a591-f58ee6f1b76b","system_id":"levelo_inurba_marseille","lat":43.294159,"lon":5.386211,"is_reserved":false,"is_disabled":false,"rental_uris":{"android":"levelo://app?vid=b1812ee4-f131-471d-a591-f58ee6f1b76b","ios":"levelo://app?vid=b1812ee4-f131-471d-a591-f58ee6f1b76b"},"vehicle_type_id":"4","last_reported":1712336777,"current_range_meters":0,"station_id":"ce4bh2h2rcd13ifvqdh0","pricing_plan_id":"cebpf4jnsgd1na2vs0mg"},{"bike_id":"e672d95f-ee35-4ee7-b5b1-2302db8db323","system_id":"levelo_inurba_marseille","lat":43.29419,"lon":5.38627,"is_reserved":false,"is_disabled":false,"rental_uris":{"android":"levelo://app?vid=e672d95f-ee35-4ee7-b5b1-2302db8db323","ios":"levelo://app?vid=e672d95f-ee35-4ee7-b5b1-2302db8db323"},"vehicle_type_id":"4","last_reported":1712336777,"current_range_meters":0,"station_id":"ce4bh2h2rcd13ifvqdh0","pricing_plan_id":"cebpf4jnsgd1na2vs0mg"},{"bike_id":"e370740b-b621-4ab1-8e89-479a9c40ae32","system_id":"levelo_inurba_marseille","lat":43.294153,"lon":5.386305,"is_reserved":false,"is_disabled":false,"rental_uris":{"android":"levelo://app?vid=e370740b-b621-4ab1-8e89-479a9c40ae32","ios":"levelo://app?vid=e370740b-b621-4ab1-8e89-479a9c40ae32"},"vehicle_type_id":"4","last_reported":1712336777,"current_range_meters":0,"station_id":"ce4bh2h2rcd13ifvqdh0","pricing_plan_id":"cebpf4jnsgd1na2vs0mg"},{"bike_id":"c58df94f-8772-48b6-9880-398818d7310e","system_id":"levelo_inurba_marseille","lat":43.29415,"lon":5.38626,"is_reserved":false,"is_disabled":false,"rental_uris":{"android":"levelo://app?vid=c58df94f-8772-48b6-9880-398818d7310e","ios":"levelo://app?vid=c58df94f-8772-48b6-9880-398818d7310e"},"vehicle_type_id":"4","last_reported":1712336777,"current_range_meters":0,"station_id":"ce4bh2h2rcd13ifvqdh0","pricing_plan_id":"cebpf4jnsgd1na2vs0mg"},{"bike_id":"650bff75-e073-4890-94f1-098fce086015","system_id":"levelo_inurba_marseille","lat":43.289184,"lon":5.366408,"is_reserved":false,"is_disabled":false,"rental_uris":{"android":"levelo://app?vid=650bff75-e073-4890-94f1-098fce086015","ios":"levelo://app?vid=650bff75-e073-4890-94f1-098fce086015"},"vehicle_type_id":"4","last_reported":1712336777,"current_range_meters":800,"station_id":"ce4bhap2rcd13ifvqek0","pricing_plan_id":"cebpf4jnsgd1na2vs0mg"},{"bike_id":"dc172f65-0dc5-4400-84f7-5c3082c16442","system_id":"levelo_inurba_marseille","lat":43.2894,"lon":5.36629,"is_reserved":false,"is_disabled":false,"rental_uris":{"android":"levelo://app?vid=dc172f65-0dc5-4400-84f7-5c3082c16442","ios":"levelo://app?vid=dc172f65-0dc5-4400-84f7-5c3082c16442"},"vehicle_type_id":"4","last_reported":1712336777,"current_range_meters":0,"station_id":"ce4bhap2rcd13ifvqek0","pricing_plan_id":"cebpf4jnsgd1na2vs0mg"},{"bike_id":"49810d3e-6b42-46cb-be4d-63349364be59","system_id":"levelo_inurba_marseille","lat":43.28939,"lon":5.36633,"is_reserved":false,"is_disabled":false,"rental_uris":{"android":"levelo://app?vid=49810d3e-6b42-46cb-be4d-63349364be59","ios":"levelo://app?vid=49810d3e-6b42-46cb-be4d-63349364be59"},"vehicle_type_id":"4","last_reported":1712336777,"current_range_meters":0,"station_id":"ce4bhap2rcd13ifvqek0","pricing_plan_id":"cebpf4jnsgd1na2vs0mg"},{"bike_id":"f949e47f-34f7-49f2-8183-bf6e5ec360aa","system_id":"levelo_inurba_marseille","lat":43.28938,"lon":5.36641,"is_reserved":false,"is_disabled":false,"rental_uris":{"android":"levelo://app?vid=f949e47f-34f7-49f2-8183-bf6e5ec360aa","ios":"levelo://app?vid=f949e47f-34f7-49f2-8183-bf6e5ec360aa"},"vehicle_type_id":"4","last_reported":1712336777,"current_range_meters":0,"station_id":"ce4bhap2rcd13ifvqek0","pricing_plan_id":"cebpf4jnsgd1na2vs0mg"},{"bike_id":"b3347f12-2d44-471b-a7f2-81ab6dbcca1e","system_id":"levelo_inurba_marseille","lat":43.294648,"lon":5.387319,"is_reserved":false,"is_disabled":false,"rental_uris":{"android":"levelo://app?vid=b3347f12-2d44-471b-a7f2-81ab6dbcca1e","ios":"levelo://app?vid=b3347f12-2d44-471b-a7f2-81ab6dbcca1e"},"vehicle_type_id":"4","last_reported":1712336777,"current_range_meters":0,"station_id":"ce4bh2h2rcd13ifvqdh0","pricing_plan_id":"cebpf4jnsgd1na2vs0mg"},{"bike_id":"08e1276a-4df6-4813-b280-434110c8a693","system_id":"levelo_inurba_marseille","lat":43.289417,"lon":5.363967,"is_reserved":false,"is_disabled":false,"rental_uris":{"android":"levelo://app?vid=08e1276a-4df6-4813-b280-434110c8a693","ios":"levelo://app?vid=08e1276a-4df6-4813-b280-434110c8a693"},"vehicle_type_id":"4","last_reported":1712336777,"current_range_meters":0,"station_id":"ce4bhc92rcd13ifvqetg","pricing_plan_id":"cebpf4jnsgd1na2vs0mg"},{"bike_id":"bcd7799f-3ed7-4c63-b3f9-90d1d653983d","system_id":"levelo_inurba_marseille","lat":43.28931,"lon":5.36639,"is_reserved":false,"is_disabled":false,"rental_uris":{"android":"levelo://app?vid=bcd7799f-3ed7-4c63-b3f9-90d1d653983d","ios":"levelo://app?vid=bcd7799f-3ed7-4c63-b3f9-90d1d653983d"},"vehicle_type_id":"4","last_reported":1712336777,"current_range_meters":0,"station_id":"ce4bhbp2rcd13ifvqerg","pricing_plan_id":"cebpf4jnsgd1na2vs0mg"},{"bike_id":"85226643-55a6-4e2f-8354-670290b1fc3c","system_id":"levelo_inurba_marseille","lat":43.289323,"lon":5.36393,"is_reserved":false,"is_disabled":false,"rental_uris":{"android":"levelo://app?vid=85226643-55a6-4e2f-8354-670290b1fc3c","ios":"levelo://app?vid=85226643-55a6-4e2f-8354-670290b1fc3c"},"vehicle_type_id":"4","last_reported":1712336777,"current_range_meters":0,"station_id":"ce4bhc92rcd13ifvqetg","pricing_plan_id":"cebpf4jnsgd1na2vs0mg"},{"bike_id":"bbe13161-e0d9-4f60-b7bb-5df6718e116f","system_id":"levelo_inurba_marseille","lat":43.289247,"lon":5.3639,"is_reserved":false,"is_disabled":false,"rental_uris":{"android":"levelo://app?vid=bbe13161-e0d9-4f60-b7bb-5df6718e116f","ios":"levelo://app?vid=bbe13161-e0d9-4f60-b7bb-5df6718e116f"},"vehicle_type_id":"4","last_reported":1712336777,"current_range_meters":0,"station_id":"ce4bhc92rcd13ifvqetg","pricing_plan_id":"cebpf4jnsgd1na2vs0mg"},{"bike_id":"c9aeafc0-4765-4645-bb0a-141ee9c7d09c","system_id":"levelo_inurba_marseille","lat":43.29261,"lon":5.38436,"is_reserved":false,"is_disabled":false,"rental_uris":{"android":"levelo://app?vid=c9aeafc0-4765-4645-bb0a-141ee9c7d09c","ios":"levelo://app?vid=c9aeafc0-4765-4645-bb0a-141ee9c7d09c"},"vehicle_type_id":"4","last_reported":1712336777,"current_range_meters":12000,"station_id":"ce4bh692rcd13ifvqea0","pricing_plan_id":"cebpf4jnsgd1na2vs0mg"},{"bike_id":"ef47a995-59a6-4f44-a095-d6e52e3c5578","system_id":"levelo_inurba_marseille","lat":43.292644,"lon":5.384257,"is_reserved":false,"is_disabled":false,"rental_uris":{"android":"levelo://app?vid=ef47a995-59a6-4f44-a095-d6e52e3c5578","ios":"levelo://app?vid=ef47a995-59a6-4f44-a095-d6e52e3c5578"},"vehicle_type_id":"4","last_reported":1712336777,"current_range_meters":20000,"station_id":"ce4bh692rcd13ifvqea0","pricing_plan_id":"cebpf4jnsgd1na2vs0mg"},{"bike_id":"eca7212f-03ed-435b-bb4a-8b9b43bb2e90","system_id":"levelo_inurba_marseille","lat":43.290103,"lon":5.356114,"is_reserved":false,"is_disabled":false,"rental_uris":{"android":"levelo://app?vid=eca7212f-03ed-435b-bb4a-8b9b43bb2e90","ios":"levelo://app?vid=eca7212f-03ed-435b-bb4a-8b9b43bb2e90"},"vehicle_type_id":"4","last_reported":1712336777,"current_range_meters":5600,"station_id":"ce4bhb92rcd13ifvqen0","pricing_plan_id":"cebpf4jnsgd1na2vs0mg"},{"bike_id":"d4b01693-614c-46e3-97af-4706269ec226","system_id":"levelo_inurba_marseille","lat":43.290102,"lon":5.356123,"is_reserved":false,"is_disabled":false,"rental_uris":{"android":"levelo://app?vid=d4b01693-614c-46e3-97af-4706269ec226","ios":"levelo://app?vid=d4b01693-614c-46e3-97af-4706269ec226"},"vehicle_type_id":"4","last_reported":1712336777,"current_range_meters":0,"station_id":"ce4bhb92rcd13ifvqen0","pricing_plan_id":"cebpf4jnsgd1na2vs0mg"},{"bike_id":"0a9a91f7-5b74-472b-80ac-a34f3a17ac48","system_id":"levelo_inurba_marseille","lat":43.290103,"lon":5.356114,"is_reserved":false,"is_disabled":false,"rental_uris":{"android":"levelo://app?vid=0a9a91f7-5b74-472b-80ac-a34f3a17ac48","ios":"levelo://app?vid=0a9a91f7-5b74-472b-80ac-a34f3a17ac48"},"vehicle_type_id":"4","last_reported":1712336777,"current_range_meters":0,"station_id":"ce4bhb92rcd13ifvqen0","pricing_plan_id":"cebpf4jnsgd1na2vs0mg"},{"bike_id":"63d9bf04-164d-40bc-9082-794c6a09e568","system_id":"levelo_inurba_marseille","lat":43.290104,"lon":5.356111,"is_reserved":false,"is_disabled":false,"rental_uris":{"android":"levelo://app?vid=63d9bf04-164d-40bc-9082-794c6a09e568","ios":"levelo://app?vid=63d9bf04-164d-40bc-9082-794c6a09e568"},"vehicle_type_id":"4","last_reported":1712336777,"current_range_meters":2800,"station_id":"ce4bhb92rcd13ifvqen0","pricing_plan_id":"cebpf4jnsgd1na2vs0mg"},{"bike_id":"f27a201f-79d3-4307-819d-745368ccd49a","system_id":"levelo_inurba_marseille","lat":43.290103,"lon":5.356114,"is_reserved":false,"is_disabled":false,"rental_uris":{"android":"levelo://app?vid=f27a201f-79d3-4307-819d-745368ccd49a","ios":"levelo://app?vid=f27a201f-79d3-4307-819d-745368ccd49a"},"vehicle_type_id":"4","last_reported":1712336777,"current_range_meters":15600,"station_id":"ce4bhb92rcd13ifvqen0","pricing_plan_id":"cebpf4jnsgd1na2vs0mg"},{"bike_id":"18f97dc1-d4fe-4abf-a0c7-965b90231d82","system_id":"levelo_inurba_marseille","lat":43.290103,"lon":5.356114,"is_reserved":false,"is_disabled":false,"rental_uris":{"android":"levelo://app?vid=18f97dc1-d4fe-4abf-a0c7-965b90231d82","ios":"levelo://app?vid=18f97dc1-d4fe-4abf-a0c7-965b90231d82"},"vehicle_type_id":"4","last_reported":1712336777,"current_range_meters":18800,"station_id":"ce4bhb92rcd13ifvqen0","pricing_plan_id":"cebpf4jnsgd1na2vs0mg"},{"bike_id":"8fa285ff-1316-440e-860e-ec58a5a500e5","system_id":"levelo_inurba_marseille","lat":43.290104,"lon":5.356111,"is_reserved":false,"is_disabled":false,"rental_uris":{"android":"levelo://app?vid=8fa285ff-1316-440e-860e-ec58a5a500e5","ios":"levelo://app?vid=8fa285ff-1316-440e-860e-ec58a5a500e5"},"vehicle_type_id":"4","last_reported":1712336777,"current_range_meters":16400,"station_id":"ce4bhb92rcd13ifvqen0","pricing_plan_id":"cebpf4jnsgd1na2vs0mg"},{"bike_id":"c5f7ab6c-ae0f-487e-a608-5b05e5d7c99d","system_id":"levelo_inurba_marseille","lat":43.291675,"lon":5.371583,"is_reserved":false,"is_disabled":false,"rental_uris":{"android":"levelo://app?vid=c5f7ab6c-ae0f-487e-a608-5b05e5d7c99d","ios":"levelo://app?vid=c5f7ab6c-ae0f-487e-a608-5b05e5d7c99d"},"vehicle_type_id":"4","last_reported":1712336777,"current_range_meters":14800,"station_id":"ce4bha92rcd13ifvqeh0","pricing_plan_id":"cebpf4jnsgd1na2vs0mg"},{"bike_id":"223e296a-c174-4699-ad7b-0fd443b8ec97","system_id":"levelo_inurba_marseille","lat":43.291028,"lon":5.381446,"is_reserved":false,"is_disabled":false,"rental_uris":{"android":"levelo://app?vid=223e296a-c174-4699-ad7b-0fd443b8ec97","ios":"levelo://app?vid=223e296a-c174-4699-ad7b-0fd443b8ec97"},"vehicle_type_id":"4","last_reported":1712336777,"current_range_meters":0,"station_id":"ce4bh512rcd13ifvqe2g","pricing_plan_id":"cebpf4jnsgd1na2vs0mg"},{"bike_id":"e067c6dd-9ccc-42ab-8f16-38d8ae92d8d9","system_id":"levelo_inurba_marseille","lat":43.290995,"lon":5.381361,"is_reserved":false,"is_disabled":false,"rental_uris":{"android":"levelo://app?vid=e067c6dd-9ccc-42ab-8f16-38d8ae92d8d9","ios":"levelo://app?vid=e067c6dd-9ccc-42ab-8f16-38d8ae92d8d9"},"vehicle_type_id":"4","last_reported":1712336777,"current_range_meters":0,"station_id":"ce4bh512rcd13ifvqe2g","pricing_plan_id":"cebpf4jnsgd1na2vs0mg"},{"bike_id":"39b78713-fdbe-437e-8a8e-ced9b2b2d075","system_id":"levelo_inurba_marseille","lat":43.290103,"lon":5.356114,"is_reserved":false,"is_disabled":false,"rental_uris":{"android":"levelo://app?vid=39b78713-fdbe-437e-8a8e-ced9b2b2d075","ios":"levelo://app?vid=39b78713-fdbe-437e-8a8e-ced9b2b2d075"},"vehicle_type_id":"4","last_reported":1712336777,"current_range_meters":0,"station_id":"ce4bhb92rcd13ifvqen0","pricing_plan_id":"cebpf4jnsgd1na2vs0mg"},{"bike_id":"616b22a1-989d-484d-aa65-9a109ea3b96d","system_id":"levelo_inurba_marseille","lat":43.29789,"lon":5.3934,"is_reserved":false,"is_disabled":false,"rental_uris":{"android":"levelo://app?vid=616b22a1-989d-484d-aa65-9a109ea3b96d","ios":"levelo://app?vid=616b22a1-989d-484d-aa65-9a109ea3b96d"},"vehicle_type_id":"4","last_reported":1712336777,"current_range_meters":0,"station_id":"","pricing_plan_id":"cebpf4jnsgd1na2vs0mg"},{"bike_id":"f5efb968-c2c9-46b2-8c96-74076d3513fc","system_id":"levelo_inurba_marseille","lat":43.33023,"lon":5.39031,"is_reserved":false,"is_disabled":false,"rental_uris":{"android":"levelo://app?vid=f5efb968-c2c9-46b2-8c96-74076d3513fc","ios":"levelo://app?vid=f5efb968-c2c9-46b2-8c96-74076d3513fc"},"vehicle_type_id":"4","last_reported":1712336777,"current_range_meters":0,"station_id":"ce4bhr92rcd13ifvqhrg","pricing_plan_id":"cebpf4jnsgd1na2vs0mg"},{"bike_id":"53e0c1be-b6c9-4a98-a224-1656bdfd3bb0","system_id":"levelo_inurba_marseille","lat":43.330442,"lon":5.389148,"is_reserved":false,"is_disabled":false,"rental_uris":{"android":"levelo://app?vid=53e0c1be-b6c9-4a98-a224-1656bdfd3bb0","ios":"levelo://app?vid=53e0c1be-b6c9-4a98-a224-1656bdfd3bb0"},"vehicle_type_id":"4","last_reported":1712336777,"current_range_meters":31600,"station_id":"ce4bhr92rcd13ifvqhrg","pricing_plan_id":"cebpf4jnsgd1na2vs0mg"},{"bike_id":"c2e9d430-2537-43af-85e1-448ce2a265cf","system_id":"levelo_inurba_marseille","lat":43.33021,"lon":5.39035,"is_reserved":false,"is_disabled":false,"rental_uris":{"android":"levelo://app?vid=c2e9d430-2537-43af-85e1-448ce2a265cf","ios":"levelo://app?vid=c2e9d430-2537-43af-85e1-448ce2a265cf"},"vehicle_type_id":"4","last_reported":1712336777,"current_range_meters":16400,"station_id":"ce4bhr92rcd13ifvqhrg","pricing_plan_id":"cebpf4jnsgd1na2vs0mg"},{"bike_id":"11016847-0738-439f-9732-5321270350ea","system_id":"levelo_inurba_marseille","lat":43.33023,"lon":5.39035,"is_reserved":false,"is_disabled":false,"rental_uris":{"android":"levelo://app?vid=11016847-0738-439f-9732-5321270350ea","ios":"levelo://app?vid=11016847-0738-439f-9732-5321270350ea"},"vehicle_type_id":"4","last_reported":1712336777,"current_range_meters":14800,"station_id":"ce4bhr92rcd13ifvqhrg","pricing_plan_id":"cebpf4jnsgd1na2vs0mg"},{"bike_id":"1036151e-528b-4839-8277-6d8f5d150e15","system_id":"levelo_inurba_marseille","lat":43.330442,"lon":5.389148,"is_reserved":false,"is_disabled":false,"rental_uris":{"android":"levelo://app?vid=1036151e-528b-4839-8277-6d8f5d150e15","ios":"levelo://app?vid=1036151e-528b-4839-8277-6d8f5d150e15"},"vehicle_type_id":"4","last_reported":1712336777,"current_range_meters":10000,"station_id":"ce4bhr92rcd13ifvqhrg","pricing_plan_id":"cebpf4jnsgd1na2vs0mg"},{"bike_id":"698a9f43-a7f3-48e2-b200-d1e64cb6e83c","system_id":"levelo_inurba_marseille","lat":43.289743,"lon":5.378304,"is_reserved":false,"is_disabled":false,"rental_uris":{"android":"levelo://app?vid=698a9f43-a7f3-48e2-b200-d1e64cb6e83c","ios":"levelo://app?vid=698a9f43-a7f3-48e2-b200-d1e64cb6e83c"},"vehicle_type_id":"4","last_reported":1712336777,"current_range_meters":0,"station_id":"ce4bh9p2rcd13ifvqed0","pricing_plan_id":"cebpf4jnsgd1na2vs0mg"},{"bike_id":"906e2bab-d5e2-427b-974c-38d8f697754d","system_id":"levelo_inurba_marseille","lat":43.33026,"lon":5.39036,"is_reserved":false,"is_disabled":false,"rental_uris":{"android":"levelo://app?vid=906e2bab-d5e2-427b-974c-38d8f697754d","ios":"levelo://app?vid=906e2bab-d5e2-427b-974c-38d8f697754d"},"vehicle_type_id":"4","last_reported":1712336777,"current_range_meters":0,"station_id":"ce4bhr92rcd13ifvqhrg","pricing_plan_id":"cebpf4jnsgd1na2vs0mg"},{"bike_id":"9df3f58b-59d7-47a8-94f7-205d1a6d2571","system_id":"levelo_inurba_marseille","lat":43.33025,"lon":5.39039,"is_reserved":false,"is_disabled":false,"rental_uris":{"android":"levelo://app?vid=9df3f58b-59d7-47a8-94f7-205d1a6d2571","ios":"levelo://app?vid=9df3f58b-59d7-47a8-94f7-205d1a6d2571"},"vehicle_type_id":"4","last_reported":1712336777,"current_range_meters":14800,"station_id":"ce4bhr92rcd13ifvqhrg","pricing_plan_id":"cebpf4jnsgd1na2vs0mg"},{"bike_id":"02b25051-d88b-4db4-a883-ec800850511c","system_id":"levelo_inurba_marseille","lat":43.33025,"lon":5.39041,"is_reserved":false,"is_disabled":false,"rental_uris":{"android":"levelo://app?vid=02b25051-d88b-4db4-a883-ec800850511c","ios":"levelo://app?vid=02b25051-d88b-4db4-a883-ec800850511c"},"vehicle_type_id":"4","last_reported":1712336777,"current_range_meters":0,"station_id":"ce4bhr92rcd13ifvqhrg","pricing_plan_id":"cebpf4jnsgd1na2vs0mg"},{"bike_id":"347d1f46-f135-40c9-81a4-7e1a5cd0ff3f","system_id":"levelo_inurba_marseille","lat":43.33027,"lon":5.39039,"is_reserved":false,"is_disabled":false,"rental_uris":{"android":"levelo://app?vid=347d1f46-f135-40c9-81a4-7e1a5cd0ff3f","ios":"levelo://app?vid=347d1f46-f135-40c9-81a4-7e1a5cd0ff3f"},"vehicle_type_id":"4","last_reported":1712336777,"current_range_meters":8400,"station_id":"ce4bhr92rcd13ifvqhrg","pricing_plan_id":"cebpf4jnsgd1na2vs0mg"},{"bike_id":"3a91dd90-9171-4330-aac6-09ca7e2835fd","system_id":"levelo_inurba_marseille","lat":43.330442,"lon":5.389148,"is_reserved":false,"is_disabled":false,"rental_uris":{"android":"levelo://app?vid=3a91dd90-9171-4330-aac6-09ca7e2835fd","ios":"levelo://app?vid=3a91dd90-9171-4330-aac6-09ca7e2835fd"},"vehicle_type_id":"4","last_reported":1712336777,"current_range_meters":20000,"station_id":"ce4bhr92rcd13ifvqhrg","pricing_plan_id":"cebpf4jnsgd1na2vs0mg"},{"bike_id":"05aec92a-9d55-4c63-a360-4442aad6c3c5","system_id":"levelo_inurba_marseille","lat":43.33026,"lon":5.39042,"is_reserved":false,"is_disabled":false,"rental_uris":{"android":"levelo://app?vid=05aec92a-9d55-4c63-a360-4442aad6c3c5","ios":"levelo://app?vid=05aec92a-9d55-4c63-a360-4442aad6c3c5"},"vehicle_type_id":"4","last_reported":1712336777,"current_range_meters":17600,"station_id":"ce4bhr92rcd13ifvqhrg","pricing_plan_id":"cebpf4jnsgd1na2vs0mg"},{"bike_id":"7fd64579-be49-45b9-83c9-ba5d1805f490","system_id":"levelo_inurba_marseille","lat":43.33027,"lon":5.39041,"is_reserved":false,"is_disabled":false,"rental_uris":{"android":"levelo://app?vid=7fd64579-be49-45b9-83c9-ba5d1805f490","ios":"levelo://app?vid=7fd64579-be49-45b9-83c9-ba5d1805f490"},"vehicle_type_id":"4","last_reported":1712336777,"current_range_meters":400,"station_id":"ce4bhr92rcd13ifvqhrg","pricing_plan_id":"cebpf4jnsgd1na2vs0mg"},{"bike_id":"f19fa646-5b9e-4335-9e02-2d9c288c77fa","system_id":"levelo_inurba_marseille","lat":43.330442,"lon":5.389148,"is_reserved":false,"is_disabled":false,"rental_uris":{"android":"levelo://app?vid=f19fa646-5b9e-4335-9e02-2d9c288c77fa","ios":"levelo://app?vid=f19fa646-5b9e-4335-9e02-2d9c288c77fa"},"vehicle_type_id":"4","last_reported":1712336777,"current_range_meters":7600,"station_id":"ce4bhr92rcd13ifvqhrg","pricing_plan_id":"cebpf4jnsgd1na2vs0mg"},{"bike_id":"1dce9aa1-5232-4b74-8ce2-5f74a5bbde23","system_id":"levelo_inurba_marseille","lat":43.33113,"lon":5.38923,"is_reserved":false,"is_disabled":false,"rental_uris":{"android":"levelo://app?vid=1dce9aa1-5232-4b74-8ce2-5f74a5bbde23","ios":"levelo://app?vid=1dce9aa1-5232-4b74-8ce2-5f74a5bbde23"},"vehicle_type_id":"4","last_reported":1712336777,"current_range_meters":20400,"station_id":"","pricing_plan_id":"cebpf4jnsgd1na2vs0mg"},{"bike_id":"3b87a693-8ce6-42e3-8ed8-1fbf50b15285","system_id":"levelo_inurba_marseille","lat":43.33659,"lon":5.37508,"is_reserved":false,"is_disabled":false,"rental_uris":{"android":"levelo://app?vid=3b87a693-8ce6-42e3-8ed8-1fbf50b15285","ios":"levelo://app?vid=3b87a693-8ce6-42e3-8ed8-1fbf50b15285"},"vehicle_type_id":"4","last_reported":1712336777,"current_range_meters":1600,"station_id":"","pricing_plan_id":"cebpf4jnsgd1na2vs0mg"},{"bike_id":"36647548-f920-41c9-b794-124e1533e929","system_id":"levelo_inurba_marseille","lat":43.295169,"lon":5.390426,"is_reserved":false,"is_disabled":false,"rental_uris":{"android":"levelo://app?vid=36647548-f920-41c9-b794-124e1533e929","ios":"levelo://app?vid=36647548-f920-41c9-b794-124e1533e929"},"vehicle_type_id":"4","last_reported":1712336777,"current_range_meters":22000,"station_id":"ce4bh3p2rcd13ifvqdp0","pricing_plan_id":"cebpf4jnsgd1na2vs0mg"},{"bike_id":"015bc769-5ce4-4a4e-b94b-2388f439d547","system_id":"levelo_inurba_marseille","lat":43.291628,"lon":5.384885,"is_reserved":false,"is_disabled":false,"rental_uris":{"android":"levelo://app?vid=015bc769-5ce4-4a4e-b94b-2388f439d547","ios":"levelo://app?vid=015bc769-5ce4-4a4e-b94b-2388f439d547"},"vehicle_type_id":"4","last_reported":1712336777,"current_range_meters":0,"station_id":"","pricing_plan_id":"cebpf4jnsgd1na2vs0mg"},{"bike_id":"29c81ea7-76a8-4b06-85e9-7a60b4187df5","system_id":"levelo_inurba_marseille","lat":43.28856,"lon":5.358371,"is_reserved":false,"is_disabled":false,"rental_uris":{"android":"levelo://app?vid=29c81ea7-76a8-4b06-85e9-7a60b4187df5","ios":"levelo://app?vid=29c81ea7-76a8-4b06-85e9-7a60b4187df5"},"vehicle_type_id":"4","last_reported":1712336777,"current_range_meters":6400,"station_id":"ce4bhb12rcd13ifvqem0","pricing_plan_id":"cebpf4jnsgd1na2vs0mg"},{"bike_id":"2f6cb23b-7a83-4fd2-ab1b-42ca26d21ebd","system_id":"levelo_inurba_marseille","lat":43.28856,"lon":5.358371,"is_reserved":false,"is_disabled":false,"rental_uris":{"android":"levelo://app?vid=2f6cb23b-7a83-4fd2-ab1b-42ca26d21ebd","ios":"levelo://app?vid=2f6cb23b-7a83-4fd2-ab1b-42ca26d21ebd"},"vehicle_type_id":"4","last_reported":1712336777,"current_range_meters":11200,"station_id":"ce4bhb12rcd13ifvqem0","pricing_plan_id":"cebpf4jnsgd1na2vs0mg"},{"bike_id":"ac9aba3d-6241-42c2-8390-48600b2405a6","system_id":"levelo_inurba_marseille","lat":43.28848,"lon":5.3585,"is_reserved":false,"is_disabled":false,"rental_uris":{"android":"levelo://app?vid=ac9aba3d-6241-42c2-8390-48600b2405a6","ios":"levelo://app?vid=ac9aba3d-6241-42c2-8390-48600b2405a6"},"vehicle_type_id":"4","last_reported":1712336777,"current_range_meters":0,"station_id":"ce4bhb12rcd13ifvqem0","pricing_plan_id":"cebpf4jnsgd1na2vs0mg"},{"bike_id":"617c98e1-48bb-4c1d-a1a5-14eb82febf6e","system_id":"levelo_inurba_marseille","lat":43.312609,"lon":5.401662,"is_reserved":false,"is_disabled":false,"rental_uris":{"android":"levelo://app?vid=617c98e1-48bb-4c1d-a1a5-14eb82febf6e","ios":"levelo://app?vid=617c98e1-48bb-4c1d-a1a5-14eb82febf6e"},"vehicle_type_id":"4","last_reported":1712336777,"current_range_meters":1600,"station_id":"ce4bh092rcd13ifvqd30","pricing_plan_id":"cebpf4jnsgd1na2vs0mg"},{"bike_id":"7231a3a4-2b87-4afd-9db9-121f2f6b89d3","system_id":"levelo_inurba_marseille","lat":43.309371,"lon":5.401449,"is_reserved":false,"is_disabled":false,"rental_uris":{"android":"levelo://app?vid=7231a3a4-2b87-4afd-9db9-121f2f6b89d3","ios":"levelo://app?vid=7231a3a4-2b87-4afd-9db9-121f2f6b89d3"},"vehicle_type_id":"4","last_reported":1712336777,"current_range_meters":0,"station_id":"ce4bgvp2rcd13ifvqct0","pricing_plan_id":"cebpf4jnsgd1na2vs0mg"},{"bike_id":"8f793d12-4dab-4502-93f1-c0a270056ad7","system_id":"levelo_inurba_marseille","lat":43.306412,"lon":5.401035,"is_reserved":false,"is_disabled":false,"rental_uris":{"android":"levelo://app?vid=8f793d12-4dab-4502-93f1-c0a270056ad7","ios":"levelo://app?vid=8f793d12-4dab-4502-93f1-c0a270056ad7"},"vehicle_type_id":"4","last_reported":1712336777,"current_range_meters":400,"station_id":"ce4bh112rcd13ifvqda0","pricing_plan_id":"cebpf4jnsgd1na2vs0mg"},{"bike_id":"3be91b4d-5095-4d65-af91-773286006ad1","system_id":"levelo_inurba_marseille","lat":43.306412,"lon":5.401035,"is_reserved":false,"is_disabled":false,"rental_uris":{"android":"levelo://app?vid=3be91b4d-5095-4d65-af91-773286006ad1","ios":"levelo://app?vid=3be91b4d-5095-4d65-af91-773286006ad1"},"vehicle_type_id":"4","last_reported":1712336777,"current_range_meters":4800,"station_id":"ce4bh112rcd13ifvqda0","pricing_plan_id":"cebpf4jnsgd1na2vs0mg"},{"bike_id":"843b0503-0e31-4fab-8bc2-8c34222adc52","system_id":"levelo_inurba_marseille","lat":43.30642,"lon":5.401031,"is_reserved":false,"is_disabled":false,"rental_uris":{"android":"levelo://app?vid=843b0503-0e31-4fab-8bc2-8c34222adc52","ios":"levelo://app?vid=843b0503-0e31-4fab-8bc2-8c34222adc52"},"vehicle_type_id":"4","last_reported":1712336777,"current_range_meters":15600,"station_id":"ce4bh112rcd13ifvqda0","pricing_plan_id":"cebpf4jnsgd1na2vs0mg"},{"bike_id":"1c87d750-347c-48e7-989f-f31e695c1f88","system_id":"levelo_inurba_marseille","lat":43.3011,"lon":5.39842,"is_reserved":false,"is_disabled":false,"rental_uris":{"android":"levelo://app?vid=1c87d750-347c-48e7-989f-f31e695c1f88","ios":"levelo://app?vid=1c87d750-347c-48e7-989f-f31e695c1f88"},"vehicle_type_id":"4","last_reported":1712336777,"current_range_meters":4400,"station_id":"ce4bh0h2rcd13ifvqd40","pricing_plan_id":"cebpf4jnsgd1na2vs0mg"},{"bike_id":"82b9491a-b4cb-4f0c-9873-451db09f4259","system_id":"levelo_inurba_marseille","lat":43.306412,"lon":5.401035,"is_reserved":false,"is_disabled":false,"rental_uris":{"android":"levelo://app?vid=82b9491a-b4cb-4f0c-9873-451db09f4259","ios":"levelo://app?vid=82b9491a-b4cb-4f0c-9873-451db09f4259"},"vehicle_type_id":"4","last_reported":1712336777,"current_range_meters":9200,"station_id":"ce4bh112rcd13ifvqda0","pricing_plan_id":"cebpf4jnsgd1na2vs0mg"},{"bike_id":"5aeebaef-12ad-4b19-93f7-95d44b932a73","system_id":"levelo_inurba_marseille","lat":43.301117,"lon":5.398795,"is_reserved":false,"is_disabled":false,"rental_uris":{"android":"levelo://app?vid=5aeebaef-12ad-4b19-93f7-95d44b932a73","ios":"levelo://app?vid=5aeebaef-12ad-4b19-93f7-95d44b932a73"},"vehicle_type_id":"4","last_reported":1712336777,"current_range_meters":0,"station_id":"ce4bh0h2rcd13ifvqd40","pricing_plan_id":"cebpf4jnsgd1na2vs0mg"},