{"last_updated":1744308845,"ttl":60,"version":"2.2","data":{"bikes":[{"bike_id":"d8b81fa4-909f-45ab-afdf-afc8226626b7","system_id":"levelo_inurba_marseille","lat":43.27976,"lon":5.3874,"is_reserved":false,"is_disabled":false,"rental_uris":{"android":"levelo://app?vid=d8b81fa4-909f-45ab-afdf-afc8226626b7","ios":"levelo://app?vid=d8b81fa4-909f-45ab-afdf-afc8226626b7"},"vehicle_type_id":"4","last_reported":1744308846,"current_range_meters":3200,"station_id":"ce4bhg12rcd13ifvqf80","pricing_plan_id":"cebpf4jnsgd1na2vs0mg"},{"bike_id":"e2f38829-3d87-45b1-abb9-9cba7ed6ed2c","system_id":"levelo_inurba_marseille","lat":43.29068,"lon":5.37186,"is_reserved":false,"is_disabled":false,"rental_uris":{"android":"levelo://app?vid=e2f38829-3d87-45b1-abb9-9cba7ed6ed2c","ios":"levelo://app?vid=e2f38829-3d87-45b1-abb9-9cba7ed6ed2c"},"vehicle_type_id":"4","last_reported":1744308846,"current_range_meters":3200,"station_id":"ce4bh5p2rcd13ifvqe4g","pricing_plan_id":"cebpf4jnsgd1na2vs0mg"},{"bike_id":"5855c9ce-3014-4ed1-adee-16a6e9e5aa56","system_id":"levelo_inurba_marseille","lat":43.2872,"lon":5.37946,"is_reserved":false,"is_disabled":false,"rental_uris":{"android":"levelo://app?vid=5855c9ce-3014-4ed1-adee-16a6e9e5aa56","ios":"levelo://app?vid=5855c9ce-3014-4ed1-adee-16a6e9e5aa56"},"vehicle_type_id":"4","last_reported":1744308846,"current_range_meters":3200,"station_id":"ce4bh9p2rcd13ifvqec0","pricing_plan_id":"cebpf4jnsgd1na2vs0mg"},{"bike_id":"80663e12-6b64-446d-88c9-20255bde1a8a","system_id":"levelo_inurba_marseille","lat":43.308859,"lon":5.396336,"is_reserved":false,"is_disabled":true,"rental_uris":{"android":"levelo://app?vid=80663e12-6b64-446d-88c9-20255bde1a8a","ios":"levelo://app?vid=80663e12-6b64-446d-88c9-20255bde1a8a"},"vehicle_type_id":"4","last_reported":1744308846,"current_range_meters":3200,"station_id":"ce4bh012rcd13ifvqcv0","pricing_plan_id":"cebpf4jnsgd1na2vs0mg"},{"bike_id":"3a5d5587-b23d-4114-aad1-1efc1909a514","system_id":"levelo_inurba_marseille","lat":43.27895,"lon":5.37967,"is_reserved":false,"is_disabled":true,"rental_uris":{"android":"levelo://app?vid=3a5d5587-b23d-4114-aad1-1efc1909a514","ios":"levelo://app?vid=3a5d5587-b23d-4114-aad1-1efc1909a514"},"vehicle_type_id":"4","last_reported":1744308846,"current_range_meters":3200,"station_id":"ce4bhf92rcd13ifvqf50","pricing_plan_id":"cebpf4jnsgd1na2vs0mg"},{"bike_id":"7e130bb5-02b3-472a-b4d8-52546d85bc56","system_id":"levelo_inurba_marseille","lat":43.27577,"lon":5.38425,"is_reserved":false,"is_disabled":false,"rental_uris":{"android":"levelo://app?vid=7e130bb5-02b3-472a-b4d8-52546d85bc56","ios":"levelo://app?vid=7e130bb5-02b3-472a-b4d8-52546d85bc56"},"vehicle_type_id":"4","last_reported":1744308846,"current_range_meters":3200,"station_id":"ce4bhh92rcd13ifvqfi0","pricing_plan_id":"cebpf4jnsgd1na2vs0mg"},{"bike_id":"caf2e612-0d07-4975-a511-be1f176bfca5","system_id":"levelo_inurba_marseille","lat":43.2478,"lon":5.4003,"is_reserved":false,"is_disabled":true,"rental_uris":{"android":"levelo://app?vid=caf2e612-0d07-4975-a511-be1f176bfca5","ios":"levelo://app?vid=caf2e612-0d07-4975-a511-be1f176bfca5"},"vehicle_type_id":"4","last_reported":1744308846,"current_range_meters":3200,"station_id":"","pricing_plan_id":"cebpf4jnsgd1na2vs0mg"},{"bike_id":"c51aabba-132d-450a-8aed-18552ef9aa3a","system_id":"levelo_inurba_marseille","lat":43.28851,"lon":5.35861,"is_reserved":false,"is_disabled":false,"rental_uris":{"android":"levelo://app?vid=c51aabba-132d-450a-8aed-18552ef9aa3a","ios":"levelo://app?vid=c51aabba-132d-450a-8aed-18552ef9aa3a"},"vehicle_type_id":"4","last_reported":1744308846,"current_range_meters":3200,"station_id":"ce4bhb12rcd13ifvqem0","pricing_plan_id":"cebpf4jnsgd1na2vs0mg"},{"bike_id":"a70ab785-d54f-4151-bdee-dff559c8143f","system_id":"levelo_inurba_marseille","lat":43.286635,"lon":5.386692,"is_reserved":false,"is_disabled":false,"rental_uris":{"android":"levelo://app?vid=a70ab785-d54f-4151-bdee-dff559c8143f","ios":"levelo://app?vid=a70ab785-d54f-4151-bdee-dff559c8143f"},"vehicle_type_id":"4","last_reported":1744308846,"current_range_meters":3600,"station_id":"ce4bh492rcd13ifvqdug","pricing_plan_id":"cebpf4jnsgd1na2vs0mg"},{"bike_id":"731a0705-4dd1-4a10-b1b0-a4569f089772","system_id":"levelo_inurba_marseille","lat":43.29266,"lon":5.38439,"is_reserved":false,"is_disabled":false,"rental_uris":{"android":"levelo://app?vid=731a0705-4dd1-4a10-b1b0-a4569f089772","ios":"levelo://app?vid=731a0705-4dd1-4a10-b1b0-a4569f089772"},"vehicle_type_id":"4","last_reported":1744308846,"current_range_meters":3600,"station_id":"ce4bh692rcd13ifvqea0","pricing_plan_id":"cebpf4jnsgd1na2vs0mg"},{"bike_id":"0c7126f2-5cbf-41b7-814c-9b35e43cd6e6","system_id":"levelo_inurba_marseille","lat":43.267897,"lon":5.394126,"is_reserved":false,"is_disabled":false,"rental_uris":{"android":"levelo://app?vid=0c7126f2-5cbf-41b7-814c-9b35e43cd6e6","ios":"levelo://app?vid=0c7126f2-5cbf-41b7-814c-9b35e43cd6e6"},"vehicle_type_id":"4","last_reported":1744308846,"current_range_meters":3600,"station_id":"ce4bh4p2rcd13ifvqe0g","pricing_plan_id":"cebpf4jnsgd1na2vs0mg"},{"bike_id":"fc85eff2-cc48-435c-9efb-eed84275c81f","system_id":"levelo_inurba_marseille","lat":43.29217,"lon":5.36074,"is_reserved":false,"is_disabled":false,"rental_uris":{"android":"levelo://app?vid=fc85eff2-cc48-435c-9efb-eed84275c81f","ios":"levelo://app?vid=fc85eff2-cc48-435c-9efb-eed84275c81f"},"vehicle_type_id":"4","last_reported":1744308846,"current_range_meters":3600,"station_id":"ce4bhbh2rcd13ifvqeqg","pricing_plan_id":"cebpf4jnsgd1na2vs0mg"},{"bike_id":"8e433a30-bdd6-4211-bb03-d49d47ef3ecf","system_id":"levelo_inurba_marseille","lat":43.29094,"lon":5.38148,"is_reserved":false,"is_disabled":false,"rental_uris":{"android":"levelo://app?vid=8e433a30-bdd6-4211-bb03-d49d47ef3ecf","ios":"levelo://app?vid=8e433a30-bdd6-4211-bb03-d49d47ef3ecf"},"vehicle_type_id":"4","last_reported":1744308846,"current_range_meters":3200,"station_id":"ce4bh512rcd13ifvqe2g","pricing_plan_id":"cebpf4jnsgd1na2vs0mg"},{"bike_id":"43aff4bf-c27d-49f4-93a4-4bdcc274fb91","system_id":"levelo_inurba_marseille","lat":43.25719,"lon":5.41115,"is_reserved":false,"is_disabled":false,"rental_uris":{"android":"levelo://app?vid=43aff4bf-c27d-49f4-93a4-4bdcc274fb91","ios":"levelo://app?vid=43aff4bf-c27d-49f4-93a4-4bdcc274fb91"},"vehicle_type_id":"4","last_reported":1744308846,"current_range_meters":3600,"station_id":"ce4bhkp2rcd13ifvqgd0","pricing_plan_id":"cebpf4jnsgd1na2vs0mg"},{"bike_id":"1014355b-b524-4b6a-b8d3-8278438f8919","system_id":"levelo_inurba_marseille","lat":43.29266,"lon":5.38443,"is_reserved":false,"is_disabled":false,"rental_uris":{"android":"levelo://app?vid=1014355b-b524-4b6a-b8d3-8278438f8919","ios":"levelo://app?vid=1014355b-b524-4b6a-b8d3-8278438f8919"},"vehicle_type_id":"4","last_reported":1744308846,"current_range_meters":4000,"station_id":"ce4bh692rcd13ifvqea0","pricing_plan_id":"cebpf4jnsgd1na2vs0mg"},{"bike_id":"c4541438-16ce-4761-86e4-6e3caa26d6a8","system_id":"levelo_inurba_marseille","lat":43.27613,"lon":5.36105,"is_reserved":false,"is_disabled":false,"rental_uris":{"android":"levelo://app?vid=c4541438-16ce-4761-86e4-6e3caa26d6a8","ios":"levelo://app?vid=c4541438-16ce-4761-86e4-6e3caa26d6a8"},"vehicle_type_id":"4","last_reported":1744308846,"current_range_meters":4000,"station_id":"ce4bgj92rcd13ifvqbe0","pricing_plan_id":"cebpf4jnsgd1na2vs0mg"},{"bike_id":"499efa1e-75fc-40f3-b410-6f625448e1fc","system_id":"levelo_inurba_marseille","lat":43.28677,"lon":5.38677,"is_reserved":false,"is_disabled":false,"rental_uris":{"android":"levelo://app?vid=499efa1e-75fc-40f3-b410-6f625448e1fc","ios":"levelo://app?vid=499efa1e-75fc-40f3-b410-6f625448e1fc"},"vehicle_type_id":"4","last_reported":1744308846,"current_range_meters":4000,"station_id":"ce4bh492rcd13ifvqdug","pricing_plan_id":"cebpf4jnsgd1na2vs0mg"},{"bike_id":"a0b60e12-2034-45de-9c6e-2c3843d661cc","system_id":"levelo_inurba_marseille","lat":43.29198,"lon":5.3582,"is_reserved":false,"is_disabled":false,"rental_uris":{"android":"levelo://app?vid=a0b60e12-2034-45de-9c6e-2c3843d661cc","ios":"levelo://app?vid=a0b60e12-2034-45de-9c6e-2c3843d661cc"},"vehicle_type_id":"4","last_reported":1744308846,"current_range_meters":4000,"station_id":"ce4bhb12rcd13ifvqel0","pricing_plan_id":"cebpf4jnsgd1na2vs0mg"},{"bike_id":"f1489199-54cb-4a09-b753-f9c2cba8583e","system_id":"levelo_inurba_marseille","lat":43.30892,"lon":5.39644,"is_reserved":false,"is_disabled":false,"rental_uris":{"android":"levelo://app?vid=f1489199-54cb-4a09-b753-f9c2cba8583e","ios":"levelo://app?vid=f1489199-54cb-4a09-b753-f9c2cba8583e"},"vehicle_type_id":"4","last_reported":1744308846,"current_range_meters":4400,"station_id":"ce4bh012rcd13ifvqcv0","pricing_plan_id":"cebpf4jnsgd1na2vs0mg"},{"bike_id":"340d8636-f9ce-41f3-b63a-b4ec9fbf7fff","system_id":"levelo_inurba_marseille","lat":43.27567,"lon":5.384267,"is_reserved":false,"is_disabled":false,"rental_uris":{"android":"levelo://app?vid=340d8636-f9ce-41f3-b63a-b4ec9fbf7fff","ios":"levelo://app?vid=340d8636-f9ce-41f3-b63a-b4ec9fbf7fff"},"vehicle_type_id":"4","last_reported":1744308846,"current_range_meters":4400,"station_id":"ce4bhh92rcd13ifvqfi0","pricing_plan_id":"cebpf4jnsgd1na2vs0mg"},{"bike_id":"08f9c0c8-8b33-4578-8a03-20f44d582241","system_id":"levelo_inurba_marseille","lat":43.30547,"lon":5.36936,"is_reserved":false,"is_disabled":false,"rental_uris":{"android":"levelo://app?vid=08f9c0c8-8b33-4578-8a03-20f44d582241","ios":"levelo://app?vid=08f9c0c8-8b33-4578-8a03-20f44d582241"},"vehicle_type_id":"4","last_reported":1744308846,"current_range_meters":4400,"station_id":"","pricing_plan_id":"cebpf4jnsgd1na2vs0mg"},{"bike_id":"1d51e0f7-178c-4ae3-88a2-488d4f01b826","system_id":"levelo_inurba_marseille","lat":43.28168,"lon":5.4238,"is_reserved":false,"is_disabled":false,"rental_uris":{"android":"levelo://app?vid=1d51e0f7-178c-4ae3-88a2-488d4f01b826","ios":"levelo://app?vid=1d51e0f7-178c-4ae3-88a2-488d4f01b826"},"vehicle_type_id":"4","last_reported":1744308846,"current_range_meters":4800,"station_id":"","pricing_plan_id":"cebpf4jnsgd1na2vs0mg"},{"bike_id":"3f1cdc51-269e-4ed2-9a42-1c24c09f8810","system_id":"levelo_inurba_marseille","lat":43.305328,"lon":5.384286,"is_reserved":false,"is_disabled":false,"rental_uris":{"android":"levelo://app?vid=3f1cdc51-269e-4ed2-9a42-1c24c09f8810","ios":"levelo://app?vid=3f1cdc51-269e-4ed2-9a42-1c24c09f8810"},"vehicle_type_id":"4","last_reported":1744308846,"current_range_meters":4800,"station_id":"ce4bgg92rcd13ifvqb30","pricing_plan_id":"cebpf4jnsgd1na2vs0mg"},{"bike_id":"7ba29266-3585-4801-95e4-641a85d826fc","system_id":"levelo_inurba_marseille","lat":43.29792,"lon":5.38092,"is_reserved":false,"is_disabled":false,"rental_uris":{"android":"levelo://app?vid=7ba29266-3585-4801-95e4-641a85d826fc","ios":"levelo://app?vid=7ba29266-3585-4801-95e4-641a85d826fc"},"vehicle_type_id":"4","last_reported":1744308846,"current_range_meters":4800,"station_id":"ce4bgip2rcd13ifvqbb0","pricing_plan_id":"cebpf4jnsgd1na2vs0mg"},{"bike_id":"f0e98d81-0117-4b68-ad1c-512aceae0e2e","system_id":"levelo_inurba_marseille","lat":43.29099,"lon":5.38149,"is_reserved":false,"is_disabled":false,"rental_uris":{"android":"levelo://app?vid=f0e98d81-0117-4b68-ad1c-512aceae0e2e","ios":"levelo://app?vid=f0e98d81-0117-4b68-ad1c-512aceae0e2e"},"vehicle_type_id":"4","last_reported":1744308846,"current_range_meters":4800,"station_id":"ce4bh512rcd13ifvqe2g","pricing_plan_id":"cebpf4jnsgd1na2vs0mg"},{"bike_id":"41ab9294-cfa0-4707-9122-a417a1221d30","system_id":"levelo_inurba_marseille","lat":43.30309,"lon":5.36899,"is_reserved":false,"is_disabled":false,"rental_uris":{"android":"levelo://app?vid=41ab9294-cfa0-4707-9122-a417a1221d30","ios":"levelo://app?vid=41ab9294-cfa0-4707-9122-a417a1221d30"},"vehicle_type_id":"4","last_reported":1744308846,"current_range_meters":4800,"station_id":"ce4bgqh2rcd13ifvqc5g","pricing_plan_id":"cebpf4jnsgd1na2vs0mg"},{"bike_id":"488970c7-ad85-4166-a4ad-456252c5bcc5","system_id":"levelo_inurba_marseille","lat":43.27309,"lon":5.42909,"is_reserved":false,"is_disabled":false,"rental_uris":{"android":"levelo://app?vid=488970c7-ad85-4166-a4ad-456252c5bcc5","ios":"levelo://app?vid=488970c7-ad85-4166-a4ad-456252c5bcc5"},"vehicle_type_id":"4","last_reported":1744308846,"current_range_meters":4800,"station_id":"","pricing_plan_id":"cebpf4jnsgd1na2vs0mg"},{"bike_id":"fdc2a9a6-ebd7-481e-8641-9e473f129576","system_id":"levelo_inurba_marseille","lat":43.29532,"lon":5.39041,"is_reserved":false,"is_disabled":false,"rental_uris":{"android":"levelo://app?vid=fdc2a9a6-ebd7-481e-8641-9e473f129576","ios":"levelo://app?vid=fdc2a9a6-ebd7-481e-8641-9e473f129576"},"vehicle_type_id":"4","last_reported":1744308846,"current_range_meters":4800,"station_id":"ce4bh3p2rcd13ifvqdp0","pricing_plan_id":"cebpf4jnsgd1na2vs0mg"},{"bike_id":"b6f5b9c0-a11f-4cce-8353-8a358dd13efa","system_id":"levelo_inurba_marseille","lat":43.292023,"lon":5.358648,"is_reserved":false,"is_disabled":false,"rental_uris":{"android":"levelo://app?vid=b6f5b9c0-a11f-4cce-8353-8a358dd13efa","ios":"levelo://app?vid=b6f5b9c0-a11f-4cce-8353-8a358dd13efa"},"vehicle_type_id":"4","last_reported":1744308846,"current_range_meters":4800,"station_id":"ce4bhb12rcd13ifvqel0","pricing_plan_id":"cebpf4jnsgd1na2vs0mg"},{"bike_id":"48c7f1ba-6aa8-4cbc-82d1-1975eda1c3ee","system_id":"levelo_inurba_marseille","lat":43.26214,"lon":5.37452,"is_reserved":false,"is_disabled":false,"rental_uris":{"android":"levelo://app?vid=48c7f1ba-6aa8-4cbc-82d1-1975eda1c3ee","ios":"levelo://app?vid=48c7f1ba-6aa8-4cbc-82d1-1975eda1c3ee"},"vehicle_type_id":"4","last_reported":1744308846,"current_range_meters":4800,"station_id":"ce4bhgp2rcd13ifvqfc0","pricing_plan_id":"cebpf4jnsgd1na2vs0mg"},{"bike_id":"cbc59241-c105-4eb4-b0f1-9fe5a4d639d5","system_id":"levelo_inurba_marseille","lat":43.29532,"lon":5.39038,"is_reserved":false,"is_disabled":false,"rental_uris":{"android":"levelo://app?vid=cbc59241-c105-4eb4-b0f1-9fe5a4d639d5","ios":"levelo://app?vid=cbc59241-c105-4eb4-b0f1-9fe5a4d639d5"},"vehicle_type_id":"4","last_reported":1744308846,"current_range_meters":5600,"station_id":"ce4bh3p2rcd13ifvqdp0","pricing_plan_id":"cebpf4jnsgd1na2vs0mg"},{"bike_id":"d0478949-7b65-42f9-a9b2-3c899c50e2c0","system_id":"levelo_inurba_marseille","lat":43.309052,"lon":5.401449,"is_reserved":false,"is_disabled":false,"rental_uris":{"android":"levelo://app?vid=d0478949-7b65-42f9-a9b2-3c899c50e2c0","ios":"levelo://app?vid=d0478949-7b65-42f9-a9b2-3c899c50e2c0"},"vehicle_type_id":"4","last_reported":1744308846,"current_range_meters":5600,"station_id":"ce4bgvp2rcd13ifvqct0","pricing_plan_id":"cebpf4jnsgd1na2vs0mg"},{"bike_id":"3f8dd93b-c83e-45f2-a729-7d2ef0a98e6d","system_id":"levelo_inurba_marseille","lat":43.28982,"lon":5.37847,"is_reserved":false,"is_disabled":false,"rental_uris":{"android":"levelo://app?vid=3f8dd93b-c83e-45f2-a729-7d2ef0a98e6d","ios":"levelo://app?vid=3f8dd93b-c83e-45f2-a729-7d2ef0a98e6d"},"vehicle_type_id":"4","last_reported":1744308846,"current_range_meters":5600,"station_id":"ce4bh9p2rcd13ifvqed0","pricing_plan_id":"cebpf4jnsgd1na2vs0mg"},{"bike_id":"fc7af893-02f0-4477-8ada-4e6fc5e129ae","system_id":"levelo_inurba_marseille","lat":43.29259,"lon":5.37623,"is_reserved":false,"is_disabled":false,"rental_uris":{"android":"levelo://app?vid=fc7af893-02f0-4477-8ada-4e6fc5e129ae","ios":"levelo://app?vid=fc7af893-02f0-4477-8ada-4e6fc5e129ae"},"vehicle_type_id":"4","last_reported":1744308846,"current_range_meters":5600,"station_id":"ce4bgi12rcd13ifvqb80","pricing_plan_id":"cebpf4jnsgd1na2vs0mg"},{"bike_id":"cdf7f30c-b91f-42b3-b758-22ad26becd66","system_id":"levelo_inurba_marseille","lat":43.290483,"lon":5.359178,"is_reserved":false,"is_disabled":true,"rental_uris":{"android":"levelo://app?vid=cdf7f30c-b91f-42b3-b758-22ad26becd66","ios":"levelo://app?vid=cdf7f30c-b91f-42b3-b758-22ad26becd66"},"vehicle_type_id":"4","last_reported":1744308846,"current_range_meters":6000,"station_id":"ce4bha92rcd13ifvqeg0","pricing_plan_id":"cebpf4jnsgd1na2vs0mg"},{"bike_id":"552f5d8c-26e8-48b2-9d0f-338ee6c24228","system_id":"levelo_inurba_marseille","lat":43.29261,"lon":5.38434,"is_reserved":false,"is_disabled":false,"rental_uris":{"android":"levelo://app?vid=552f5d8c-26e8-48b2-9d0f-338ee6c24228","ios":"levelo://app?vid=552f5d8c-26e8-48b2-9d0f-338ee6c24228"},"vehicle_type_id":"4","last_reported":1744308846,"current_range_meters":6000,"station_id":"ce4bh692rcd13ifvqea0","pricing_plan_id":"cebpf4jnsgd1na2vs0mg"},{"bike_id":"a3c1dbbb-72ee-435e-8f76-2ba96e10b962","system_id":"levelo_inurba_marseille","lat":43.29844,"lon":5.36278,"is_reserved":false,"is_disabled":false,"rental_uris":{"android":"levelo://app?vid=a3c1dbbb-72ee-435e-8f76-2ba96e10b962","ios":"levelo://app?vid=a3c1dbbb-72ee-435e-8f76-2ba96e10b962"},"vehicle_type_id":"4","last_reported":1744308846,"current_range_meters":6000,"station_id":"ce4bgpp2rcd13ifvqc3g","pricing_plan_id":"cebpf4jnsgd1na2vs0mg"},{"bike_id":"0ba3bac4-4fd9-45ee-bbe1-e18381c5f577","system_id":"levelo_inurba_marseille","lat":43.29009,"lon":5.35619,"is_reserved":false,"is_disabled":false,"rental_uris":{"android":"levelo://app?vid=0ba3bac4-4fd9-45ee-bbe1-e18381c5f577","ios":"levelo://app?vid=0ba3bac4-4fd9-45ee-bbe1-e18381c5f577"},"vehicle_type_id":"4","last_reported":1744308846,"current_range_meters":6000,"station_id":"ce4bhb92rcd13ifvqen0","pricing_plan_id":"cebpf4jnsgd1na2vs0mg"},{"bike_id":"df19e52c-0676-44f8-b866-ff54783edd4c","system_id":"levelo_inurba_marseille","lat":43.27618,"lon":5.36111,"is_reserved":false,"is_disabled":false,"rental_uris":{"android":"levelo://app?vid=df19e52c-0676-44f8-b866-ff54783edd4c","ios":"levelo://app?vid=df19e52c-0676-44f8-b866-ff54783edd4c"},"vehicle_type_id":"4","last_reported":1744308846,"current_range_meters":6000,"station_id":"ce4bgj92rcd13ifvqbe0","pricing_plan_id":"cebpf4jnsgd1na2vs0mg"},{"bike_id":"9281599b-8e7f-4988-ad81-a5f080b0e9c3","system_id":"levelo_inurba_marseille","lat":43.25105,"lon":5.4033,"is_reserved":false,"is_disabled":false,"rental_uris":{"android":"levelo://app?vid=9281599b-8e7f-4988-ad81-a5f080b0e9c3","ios":"levelo://app?vid=9281599b-8e7f-4988-ad81-a5f080b0e9c3"},"vehicle_type_id":"4","last_reported":1744308846,"current_range_meters":6000,"station_id":"ce4bhlh2rcd13ifvqgig","pricing_plan_id":"cebpf4jnsgd1na2vs0mg"},{"bike_id":"cf1ded85-b7df-4341-887f-dc15f38cd593","system_id":"levelo_inurba_marseille","lat":43.2991,"lon":5.3815,"is_reserved":false,"is_disabled":false,"rental_uris":{"android":"levelo://app?vid=cf1ded85-b7df-4341-887f-dc15f38cd593","ios":"levelo://app?vid=cf1ded85-b7df-4341-887f-dc15f38cd593"},"vehicle_type_id":"4","last_reported":1744308846,"current_range_meters":6400,"station_id":"ce4bgj12rcd13ifvqbc0","pricing_plan_id":"cebpf4jnsgd1na2vs0mg"},{"bike_id":"c96377b9-be0e-4629-be5d-f04b8b703561","system_id":"levelo_inurba_marseille","lat":43.29193,"lon":5.35814,"is_reserved":false,"is_disabled":false,"rental_uris":{"android":"levelo://app?vid=c96377b9-be0e-4629-be5d-f04b8b703561","ios":"levelo://app?vid=c96377b9-be0e-4629-be5d-f04b8b703561"},"vehicle_type_id":"4","last_reported":1744308846,"current_range_meters":6400,"station_id":"ce4bhb12rcd13ifvqel0","pricing_plan_id":"cebpf4jnsgd1na2vs0mg"},{"bike_id":"9a783337-d909-4f84-8d05-9f2dbd89349e","system_id":"levelo_inurba_marseille","lat":43.3009,"lon":5.39081,"is_reserved":false,"is_disabled":false,"rental_uris":{"android":"levelo://app?vid=9a783337-d909-4f84-8d05-9f2dbd89349e","ios":"levelo://app?vid=9a783337-d909-4f84-8d05-9f2dbd89349e"},"vehicle_type_id":"4","last_reported":1744308846,"current_range_meters":6400,"station_id":"ce4bh192rcd13ifvqdb0","pricing_plan_id":"cebpf4jnsgd1na2vs0mg"},{"bike_id":"fa96bd87-2a73-4710-85e4-f171fd749196","system_id":"levelo_inurba_marseille","lat":43.28487,"lon":5.38578,"is_reserved":false,"is_disabled":false,"rental_uris":{"android":"levelo://app?vid=fa96bd87-2a73-4710-85e4-f171fd749196","ios":"levelo://app?vid=fa96bd87-2a73-4710-85e4-f171fd749196"},"vehicle_type_id":"4","last_reported":1744308846,"current_range_meters":6400,"station_id":"ce4bh8p2rcd13ifvqeb0","pricing_plan_id":"cebpf4jnsgd1na2vs0mg"},{"bike_id":"76021347-cdb0-4170-8fa7-32f61a2a6094","system_id":"levelo_inurba_marseille","lat":43.24803,"lon":5.37453,"is_reserved":false,"is_disabled":false,"rental_uris":{"android":"levelo://app?vid=76021347-cdb0-4170-8fa7-32f61a2a6094","ios":"levelo://app?vid=76021347-cdb0-4170-8fa7-32f61a2a6094"},"vehicle_type_id":"4","last_reported":1744308846,"current_range_meters":6800,"station_id":"ce4bhgh2rcd13ifvqfb0","pricing_plan_id":"cebpf4jnsgd1na2vs0mg"},{"bike_id":"a75d7b5d-9c3f-4bc6-8077-ff16ea3eda19","system_id":"levelo_inurba_marseille","lat":43.289954,"lon":5.355996,"is_reserved":false,"is_disabled":false,"rental_uris":{"android":"levelo://app?vid=a75d7b5d-9c3f-4bc6-8077-ff16ea3eda19","ios":"levelo://app?vid=a75d7b5d-9c3f-4bc6-8077-ff16ea3eda19"},"vehicle_type_id":"4","last_reported":1744308846,"current_range_meters":6800,"station_id":"ce4bhb92rcd13ifvqen0","pricing_plan_id":"cebpf4jnsgd1na2vs0mg"},{"bike_id":"b728e579-9fd9-4f40-ad9b-e2f01a7e3fc2","system_id":"levelo_inurba_marseille","lat":43.241803,"lon":5.397364,"is_reserved":false,"is_disabled":false,"rental_uris":{"android":"levelo://app?vid=b728e579-9fd9-4f40-ad9b-e2f01a7e3fc2","ios":"levelo://app?vid=b728e579-9fd9-4f40-ad9b-e2f01a7e3fc2"},"vehicle_type_id":"4","last_reported":1744308846,"current_range_meters":6800,"station_id":"","pricing_plan_id":"cebpf4jnsgd1na2vs0mg"},{"bike_id":"19e4103b-ff27-4c98-88a6-e69981a13361","system_id":"levelo_inurba_marseille","lat":43.31891,"lon":5.3791,"is_reserved":false,"is_disabled":false,"rental_uris":{"android":"levelo://app?vid=19e4103b-ff27-4c98-88a6-e69981a13361","ios":"levelo://app?vid=19e4103b-ff27-4c98-88a6-e69981a13361"},"vehicle_type_id":"4","last_reported":1744308846,"current_range_meters":6800,"station_id":"","pricing_plan_id":"cebpf4jnsgd1na2vs0mg"},{"bike_id":"52b3e9d2-afbe-4665-8182-660a98d23164","system_id":"levelo_inurba_marseille","lat":43.29629,"lon":5.40595,"is_reserved":false,"is_disabled":false,"rental_uris":{"android":"levelo://app?vid=52b3e9d2-afbe-4665-8182-660a98d23164","ios":"levelo://app?vid=52b3e9d2-afbe-4665-8182-660a98d23164"},"vehicle_type_id":"4","last_reported":1744308846,"current_range_meters":6800,"station_id":"ce4bh0h2rcd13ifvqd60","pricing_plan_id":"cebpf4jnsgd1na2vs0mg"},{"bike_id":"59bc8587-6db6-45ce-af9d-bf52c6280bb7","system_id":"levelo_inurba_marseille","lat":43.26574,"lon":5.39018,"is_reserved":false,"is_disabled":false,"rental_uris":{"android":"levelo://app?vid=59bc8587-6db6-45ce-af9d-bf52c6280bb7","ios":"levelo://app?vid=59bc8587-6db6-45ce-af9d-bf52c6280bb7"},"vehicle_type_id":"4","last_reported":1744308846,"current_range_meters":6800,"station_id":"ce4bhe12rcd13ifvqf30","pricing_plan_id":"cebpf4jnsgd1na2vs0mg"},{"bike_id":"8383ffb1-2d24-4143-8163-7800662e3e05","system_id":"levelo_inurba_marseille","lat":43.28424,"lon":5.35002,"is_reserved":false,"is_disabled":false,"rental_uris":{"android":"levelo://app?vid=8383ffb1-2d24-4143-8163-7800662e3e05","ios":"levelo://app?vid=8383ffb1-2d24-4143-8163-7800662e3e05"},"vehicle_type_id":"4","last_reported":1744308846,"current_range_meters":7200,"station_id":"ce4bhbh2rcd13ifvqepg","pricing_plan_id":"cebpf4jnsgd1na2vs0mg"},{"bike_id":"47547968-ff75-4c83-8645-aded963a3406","system_id":"levelo_inurba_marseille","lat":43.29223,"lon":5.36031,"is_reserved":false,"is_disabled":false,"rental_uris":{"android":"levelo://app?vid=47547968-ff75-4c83-8645-aded963a3406","ios":"levelo://app?vid=47547968-ff75-4c83-8645-aded963a3406"},"vehicle_type_id":"4","last_reported":1744308846,"current_range_meters":7200,"station_id":"ce4bhbh2rcd13ifvqeqg","pricing_plan_id":"cebpf4jnsgd1na2vs0mg"},{"bike_id":"84aabbba-a421-4485-a5d4-af89e9066230","system_id":"levelo_inurba_marseille","lat":43.28696,"lon":5.37403,"is_reserved":false,"is_disabled":false,"rental_uris":{"android":"levelo://app?vid=84aabbba-a421-4485-a5d4-af89e9066230","ios":"levelo://app?vid=84aabbba-a421-4485-a5d4-af89e9066230"},"vehicle_type_id":"4","last_reported":1744308846,"current_range_meters":7200,"station_id":"ce4bh3p2rcd13ifvqdq0","pricing_plan_id":"cebpf4jnsgd1na2vs0mg"},{"bike_id":"06677dc2-7a3b-4f81-bebe-974c3849c23d","system_id":"levelo_inurba_marseille","lat":43.288313,"lon":5.387762,"is_reserved":false,"is_disabled":false,"rental_uris":{"android":"levelo://app?vid=06677dc2-7a3b-4f81-bebe-974c3849c23d","ios":"levelo://app?vid=06677dc2-7a3b-4f81-bebe-974c3849c23d"},"vehicle_type_id":"4","last_reported":1744308846,"current_range_meters":7200,"station_id":"ce4bh4p2rcd13ifvqe0g","pricing_plan_id":"cebpf4jnsgd1na2vs0mg"},{"bike_id":"0034db4b-efd6-4119-a358-80e858a45e83","system_id":"levelo_inurba_marseille","lat":43.31769,"lon":5.38937,"is_reserved":false,"is_disabled":false,"rental_uris":{"android":"levelo://app?vid=0034db4b-efd6-4119-a358-80e858a45e83","ios":"levelo://app?vid=0034db4b-efd6-4119-a358-80e858a45e83"},"vehicle_type_id":"4","last_reported":1744308846,"current_range_meters":7200,"station_id":"","pricing_plan_id":"cebpf4jnsgd1na2vs0mg"},{"bike_id":"4b42a525-cf89-480f-8725-53611ba74a64","system_id":"levelo_inurba_marseille","lat":43.29094,"lon":5.38159,"is_reserved":false,"is_disabled":false,"rental_uris":{"android":"levelo://app?vid=4b42a525-cf89-480f-8725-53611ba74a64","ios":"levelo://app?vid=4b42a525-cf89-480f-8725-53611ba74a64"},"vehicle_type_id":"4","last_reported":1744308846,"current_range_meters":7200,"station_id":"ce4bh512rcd13ifvqe2g","pricing_plan_id":"cebpf4jnsgd1na2vs0mg"},{"bike_id":"3498f7cf-ddd5-477e-8ac5-aeff5ce782e9","system_id":"levelo_inurba_marseille","lat":43.28422,"lon":5.3499,"is_reserved":false,"is_disabled":false,"rental_uris":{"android":"levelo://app?vid=3498f7cf-ddd5-477e-8ac5-aeff5ce782e9","ios":"levelo://app?vid=3498f7cf-ddd5-477e-8ac5-aeff5ce782e9"},"vehicle_type_id":"4","last_reported":1744308846,"current_range_meters":7200,"station_id":"ce4bhbh2rcd13ifvqepg","pricing_plan_id":"cebpf4jnsgd1na2vs0mg"},{"bike_id":"36f43cf7-8ec9-448e-a60e-5a5b3f22fb4b","system_id":"levelo_inurba_marseille","lat":43.29278,"lon":5.36846,"is_reserved":false,"is_disabled":false,"rental_uris":{"android":"levelo://app?vid=36f43cf7-8ec9-448e-a60e-5a5b3f22fb4b","ios":"levelo://app?vid=36f43cf7-8ec9-448e-a60e-5a5b3f22fb4b"},"vehicle_type_id":"4","last_reported":1744308846,"current_range_meters":7200,"station_id":"ce4bhbp2rcd13ifvqesg","pricing_plan_id":"cebpf4jnsgd1na2vs0mg"},{"bike_id":"252d5874-aaf5-4c62-a799-a9e4d2d42077","system_id":"levelo_inurba_marseille","lat":43.29263,"lon":5.3844,"is_reserved":false,"is_disabled":false,"rental_uris":{"android":"levelo://app?vid=252d5874-aaf5-4c62-a799-a9e4d2d42077","ios":"levelo://app?vid=252d5874-aaf5-4c62-a799-a9e4d2d42077"},"vehicle_type_id":"4","last_reported":1744308846,"current_range_meters":7200,"station_id":"ce4bh692rcd13ifvqea0","pricing_plan_id":"cebpf4jnsgd1na2vs0mg"},{"bike_id":"bfe3e326-abfa-43be-8432-14b98ad0d8ca","system_id":"levelo_inurba_marseille","lat":43.28941,"lon":5.36413,"is_reserved":false,"is_disabled":false,"rental_uris":{"android":"levelo://app?vid=bfe3e326-abfa-43be-8432-14b98ad0d8ca","ios":"levelo://app?vid=bfe3e326-abfa-43be-8432-14b98ad0d8ca"},"vehicle_type_id":"4","last_reported":1744308846,"current_range_meters":8000,"station_id":"ce4bhc92rcd13ifvqetg","pricing_plan_id":"cebpf4jnsgd1na2vs0mg"},{"bike_id":"82c1309f-fee3-48d4-84bf-3892ff791528","system_id":"levelo_inurba_marseille","lat":43.292542,"lon":5.384454,"is_reserved":false,"is_disabled":false,"rental_uris":{"android":"levelo://app?vid=82c1309f-fee3-48d4-84bf-3892ff791528","ios":"levelo://app?vid=82c1309f-fee3-48d4-84bf-3892ff791528"},"vehicle_type_id":"4","last_reported":1744308846,"current_range_meters":8000,"station_id":"ce4bh692rcd13ifvqea0","pricing_plan_id":"cebpf4jnsgd1na2vs0mg"},{"bike_id":"b6ad0187-bc79-452d-b536-46c7fd74b6fb","system_id":"levelo_inurba_marseille","lat":43.28644,"lon":5.35113,"is_reserved":false,"is_disabled":false,"rental_uris":{"android":"levelo://app?vid=b6ad0187-bc79-452d-b536-46c7fd74b6fb","ios":"levelo://app?vid=b6ad0187-bc79-452d-b536-46c7fd74b6fb"},"vehicle_type_id":"4","last_reported":1744308846,"current_range_meters":8000,"station_id":"ce4bhch2rcd13ifvqeug","pricing_plan_id":"cebpf4jnsgd1na2vs0mg"},{"bike_id":"87af19e9-ce54-462a-846c-f70fa2963b16","system_id":"levelo_inurba_marseille","lat":43.29259,"lon":5.3608,"is_reserved":false,"is_disabled":false,"rental_uris":{"android":"levelo://app?vid=87af19e9-ce54-462a-846c-f70fa2963b16","ios":"levelo://app?vid=87af19e9-ce54-462a-846c-f70fa2963b16"},"vehicle_type_id":"4","last_reported":1744308846,"current_range_meters":8000,"station_id":"ce4bhbh2rcd13ifvqeqg","pricing_plan_id":"cebpf4jnsgd1na2vs0mg"},{"bike_id":"01e31f15-bc9b-4d18-bebd-edf19bcedef2","system_id":"levelo_inurba_marseille","lat":43.287217,"lon":5.37963,"is_reserved":false,"is_disabled":true,"rental_uris":{"android":"levelo://app?vid=01e31f15-bc9b-4d18-bebd-edf19bcedef2","ios":"levelo://app?vid=01e31f15-bc9b-4d18-bebd-edf19bcedef2"},"vehicle_type_id":"4","last_reported":1744308846,"current_range_meters":8000,"station_id":"ce4bh9p2rcd13ifvqec0","pricing_plan_id":"cebpf4jnsgd1na2vs0mg"},{"bike_id":"d8402b37-5718-4e66-96f8-350b9cb6a08f","system_id":"levelo_inurba_marseille","lat":43.28477,"lon":5.384245,"is_reserved":false,"is_disabled":false,"rental_uris":{"android":"levelo://app?vid=d8402b37-5718-4e66-96f8-350b9cb6a08f","ios":"levelo://app?vid=d8402b37-5718-4e66-96f8-350b9cb6a08f"},"vehicle_type_id":"4","last_reported":1744308846,"current_range_meters":8000,"station_id":"ce4bh512rcd13ifvqe3g","pricing_plan_id":"cebpf4jnsgd1na2vs0mg"},{"bike_id":"b7dcf25f-735f-4684-89ce-67892b37a2b5","system_id":"levelo_inurba_marseille","lat":43.27385,"lon":5.36269,"is_reserved":false,"is_disabled":false,"rental_uris":{"android":"levelo://app?vid=b7dcf25f-735f-4684-89ce-67892b37a2b5","ios":"levelo://app?vid=b7dcf25f-735f-4684-89ce-67892b37a2b5"},"vehicle_type_id":"4","last_reported":1744308846,"current_range_meters":8000,"station_id":"ce4bhbh2rcd13ifvqeo0","pricing_plan_id":"cebpf4jnsgd1na2vs0mg"},{"bike_id":"10f5b016-d273-422a-a279-772e843cae82","system_id":"levelo_inurba_marseille","lat":43.26548,"lon":5.37285,"is_reserved":false,"is_disabled":false,"rental_uris":{"android":"levelo://app?vid=10f5b016-d273-422a-a279-772e843cae82","ios":"levelo://app?vid=10f5b016-d273-422a-a279-772e843cae82"},"vehicle_type_id":"4","last_reported":1744308846,"current_range_meters":8400,"station_id":"ce4bhg12rcd13ifvqf70","pricing_plan_id":"cebpf4jnsgd1na2vs0mg"},{"bike_id":"f0b084e4-b3dc-4a55-a8fc-21da10f382fd","system_id":"levelo_inurba_marseille","lat":43.27622,"lon":5.3613,"is_reserved":false,"is_disabled":false,"rental_uris":{"android":"levelo://app?vid=f0b084e4-b3dc-4a55-a8fc-21da10f382fd","ios":"levelo://app?vid=f0b084e4-b3dc-4a55-a8fc-21da10f382fd"},"vehicle_type_id":"4","last_reported":1744308846,"current_range_meters":8400,"station_id":"ce4bgj92rcd13ifvqbe0","pricing_plan_id":"cebpf4jnsgd1na2vs0mg"},{"bike_id":"da84cb26-1fb5-4a9f-9df4-8113be2e4bcb","system_id":"levelo_inurba_marseille","lat":43.2928,"lon":5.36848,"is_reserved":false,"is_disabled":false,"rental_uris":{"android":"levelo://app?vid=da84cb26-1fb5-4a9f-9df4-8113be2e4bcb","ios":"levelo://app?vid=da84cb26-1fb5-4a9f-9df4-8113be2e4bcb"},"vehicle_type_id":"4","last_reported":1744308846,"current_range_meters":8400,"station_id":"ce4bhbp2rcd13ifvqesg","pricing_plan_id":"cebpf4jnsgd1na2vs0mg"},{"bike_id":"4ef9153b-57a4-4547-991e-ff72e576059d","system_id":"levelo_inurba_marseille","lat":43.31004,"lon":5.36778,"is_reserved":false,"is_disabled":false,"rental_uris":{"android":"levelo://app?vid=4ef9153b-57a4-4547-991e-ff72e576059d","ios":"levelo://app?vid=4ef9153b-57a4-4547-991e-ff72e576059d"},"vehicle_type_id":"4","last_reported":1744308846,"current_range_meters":8400,"station_id":"","pricing_plan_id":"cebpf4jnsgd1na2vs0mg"},{"bike_id":"5f30a5a4-de9f-499e-b151-b811ebb3b43a","system_id":"levelo_inurba_marseille","lat":43.310757,"lon":5.383555,"is_reserved":false,"is_disabled":true,"rental_uris":{"android":"levelo://app?vid=5f30a5a4-de9f-499e-b151-b811ebb3b43a","ios":"levelo://app?vid=5f30a5a4-de9f-499e-b151-b811ebb3b43a"},"vehicle_type_id":"4","last_reported":1744308846,"current_range_meters":8400,"station_id":"ce4bgv92rcd13ifvqcr0","pricing_plan_id":"cebpf4jnsgd1na2vs0mg"},{"bike_id":"dcbbd445-62c0-4f90-9edf-3081cefd50e5","system_id":"levelo_inurba_marseille","lat":43.29261,"lon":5.40905,"is_reserved":false,"is_disabled":false,"rental_uris":{"android":"levelo://app?vid=dcbbd445-62c0-4f90-9edf-3081cefd50e5","ios":"levelo://app?vid=dcbbd445-62c0-4f90-9edf-3081cefd50e5"},"vehicle_type_id":"4","last_reported":1744308846,"current_range_meters":8400,"station_id":"ce4bh192rcd13ifvqdc0","pricing_plan_id":"cebpf4jnsgd1na2vs0mg"},{"bike_id":"67849fba-938d-425c-84c4-088c9f7c7778","system_id":"levelo_inurba_marseille","lat":43.241821,"lon":5.397416,"is_reserved":false,"is_disabled":false,"rental_uris":{"android":"levelo://app?vid=67849fba-938d-425c-84c4-088c9f7c7778","ios":"levelo://app?vid=67849fba-938d-425c-84c4-088c9f7c7778"},"vehicle_type_id":"4","last_reported":1744308846,"current_range_meters":8400,"station_id":"ce4bhn12rcd13ifvqgpg","pricing_plan_id":"cebpf4jnsgd1na2vs0mg"},{"bike_id":"7a3b5c12-c919-4c53-9983-08c1bf6d28b3","system_id":"levelo_inurba_marseille","lat":43.2861,"lon":5.35106,"is_reserved":false,"is_disabled":false,"rental_uris":{"android":"levelo://app?vid=7a3b5c12-c919-4c53-9983-08c1bf6d28b3","ios":"levelo://app?vid=7a3b5c12-c919-4c53-9983-08c1bf6d28b3"},"vehicle_type_id":"4","last_reported":1744308846,"current_range_meters":8400,"station_id":"ce4bhch2rcd13ifvqeug","pricing_plan_id":"cebpf4jnsgd1na2vs0mg"},{"bike_id":"77681eb7-0ca7-4181-8f4d-dc0d81e04ff3","system_id":"levelo_inurba_marseille","lat":43.24184,"lon":5.36407,"is_reserved":false,"is_disabled":false,"rental_uris":{"android":"levelo://app?vid=77681eb7-0ca7-4181-8f4d-dc0d81e04ff3","ios":"levelo://app?vid=77681eb7-0ca7-4181-8f4d-dc0d81e04ff3"},"vehicle_type_id":"4","last_reported":1744308846,"current_range_meters":8400,"station_id":"cpo36qri1sfpv3e86is0","pricing_plan_id":"cebpf4jnsgd1na2vs0mg"},{"bike_id":"c243072f-6bd2-4d94-ba83-04162cf2a05c","system_id":"levelo_inurba_marseille","lat":43.27173,"lon":5.40117,"is_reserved":false,"is_disabled":false,"rental_uris":{"android":"levelo://app?vid=c243072f-6bd2-4d94-ba83-04162cf2a05c","ios":"levelo://app?vid=c243072f-6bd2-4d94-ba83-04162cf2a05c"},"vehicle_type_id":"4","last_reported":1744308846,"current_range_meters":8400,"station_id":"","pricing_plan_id":"cebpf4jnsgd1na2vs0mg"},{"bike_id":"579b1f3c-9822-4861-a125-c2edfb9e093a","system_id":"levelo_inurba_marseille","lat":43.29416,"lon":5.38631,"is_reserved":false,"is_disabled":false,"rental_uris":{"android":"levelo://app?vid=579b1f3c-9822-4861-a125-c2edfb9e093a","ios":"levelo://app?vid=579b1f3c-9822-4861-a125-c2edfb9e093a"},"vehicle_type_id":"4","last_reported":1744308846,"current_range_meters":8400,"station_id":"ce4bh2h2rcd13ifvqdh0","pricing_plan_id":"cebpf4jnsgd1na2vs0mg"},{"bike_id":"3d00f407-872c-4050-a9a8-6eaf7029bcfb","system_id":"levelo_inurba_marseille","lat":43.32663,"lon":5.40999,"is_reserved":false,"is_disabled":false,"rental_uris":{"android":"levelo://app?vid=3d00f407-872c-4050-a9a8-6eaf7029bcfb","ios":"levelo://app?vid=3d00f407-872c-4050-a9a8-6eaf7029bcfb"},"vehicle_type_id":"4","last_reported":1744308846,"current_range_meters":8400,"station_id":"ce4bhpp2rcd13ifvqhgg","pricing_plan_id":"cebpf4jnsgd1na2vs0mg"},{"bike_id":"6a44d07f-efb6-44c9-9903-b0eb2ef1be59","system_id":"levelo_inurba_marseille","lat":43.229329,"lon":5.353701,"is_reserved":false,"is_disabled":false,"rental_uris":{"android":"levelo://app?vid=6a44d07f-efb6-44c9-9903-b0eb2ef1be59","ios":"levelo://app?vid=6a44d07f-efb6-44c9-9903-b0eb2ef1be59"},"vehicle_type_id":"4","last_reported":1744308846,"current_range_meters":8800,"station_id":"cpo3342slgdg3j2ifvpg","pricing_plan_id":"cebpf4jnsgd1na2vs0mg"},{"bike_id":"d37408de-b5d7-4466-8973-ab7c2a7000bc","system_id":"levelo_inurba_marseille","lat":43.292771,"lon":5.368421,"is_reserved":false,"is_disabled":true,"rental_uris":{"android":"levelo://app?vid=d37408de-b5d7-4466-8973-ab7c2a7000bc","ios":"levelo://app?vid=d37408de-b5d7-4466-8973-ab7c2a7000bc"},"vehicle_type_id":"4","last_reported":1744308846,"current_range_meters":8800,"station_id":"ce4bhbp2rcd13ifvqesg","pricing_plan_id":"cebpf4jnsgd1na2vs0mg"},{"bike_id":"84aed37d-fe15-4edc-aa5e-8d4e34a51615","system_id":"levelo_inurba_marseille","lat":43.294388,"lon":5.397573,"is_reserved":false,"is_disabled":false,"rental_uris":{"android":"levelo://app?vid=84aed37d-fe15-4edc-aa5e-8d4e34a51615","ios":"levelo://app?vid=84aed37d-fe15-4edc-aa5e-8d4e34a51615"},"vehicle_type_id":"4","last_reported":1744308846,"current_range_meters":8800,"station_id":"ce4bho92rcd13ifvqh4g","pricing_plan_id":"cebpf4jnsgd1na2vs0mg"},{"bike_id":"682f263c-54c8-4f30-bab5-d540251a8124","system_id":"levelo_inurba_marseille","lat":43.294196,"lon":5.386187,"is_reserved":false,"is_disabled":false,"rental_uris":{"android":"levelo://app?vid=682f263c-54c8-4f30-bab5-d540251a8124","ios":"levelo://app?vid=682f263c-54c8-4f30-bab5-d540251a8124"},"vehicle_type_id":"4","last_reported":1744308846,"current_range_meters":8800,"station_id":"ce4bh2h2rcd13ifvqdh0","pricing_plan_id":"cebpf4jnsgd1na2vs0mg"},{"bike_id":"d20a3427-133e-4248-b5b7-96b4719e3159","system_id":"levelo_inurba_marseille","lat":43.25483,"lon":5.37657,"is_reserved":false,"is_disabled":false,"rental_uris":{"android":"levelo://app?vid=d20a3427-133e-4248-b5b7-96b4719e3159","ios":"levelo://app?vid=d20a3427-133e-4248-b5b7-96b4719e3159"},"vehicle_type_id":"4","last_reported":1744308846,"current_range_meters":8800,"station_id":"ce4bhh12rcd13ifvqff0","pricing_plan_id":"cebpf4jnsgd1na2vs0mg"},{"bike_id":"d9b032dc-003c-46f8-bcc3-d3af8c7468f8","system_id":"levelo_inurba_marseille","lat":43.28613,"lon":5.35108,"is_reserved":false,"is_disabled":false,"rental_uris":{"android":"levelo://app?vid=d9b032dc-003c-46f8-bcc3-d3af8c7468f8","ios":"levelo://app?vid=d9b032dc-003c-46f8-bcc3-d3af8c7468f8"},"vehicle_type_id":"4","last_reported":1744308846,"current_range_meters":8800,"station_id":"ce4bhch2rcd13ifvqeug","pricing_plan_id":"cebpf4jnsgd1na2vs0mg"},{"bike_id":"c3cc51d9-2f9d-4811-a080-cd472542e4fb","system_id":"levelo_inurba_marseille","lat":43.29977,"lon":5.38498,"is_reserved":false,"is_disabled":false,"rental_uris":{"android":"levelo://app?vid=c3cc51d9-2f9d-4811-a080-cd472542e4fb","ios":"levelo://app?vid=c3cc51d9-2f9d-4811-a080-cd472542e4fb"},"vehicle_type_id":"4","last_reported":1744308846,"current_range_meters":9200,"station_id":"ce4bgj92rcd13ifvqbd0","pricing_plan_id":"cebpf4jnsgd1na2vs0mg"},{"bike_id":"32858a8d-a537-4b01-bdf8-76eec2f7ecf3","system_id":"levelo_inurba_marseille","lat":43.29031,"lon":5.35914,"is_reserved":false,"is_disabled":false,"rental_uris":{"android":"levelo://app?vid=32858a8d-a537-4b01-bdf8-76eec2f7ecf3","ios":"levelo://app?vid=32858a8d-a537-4b01-bdf8-76eec2f7ecf3"},"vehicle_type_id":"4","last_reported":1744308846,"current_range_meters":9200,"station_id":"ce4bha92rcd13ifvqeg0","pricing_plan_id":"cebpf4jnsgd1na2vs0mg"},{"bike_id":"e6b27e51-7a6f-4c87-9cdb-e0dbaf392783","system_id":"levelo_inurba_marseille","lat":43.31002,"lon":5.39643,"is_reserved":false,"is_disabled":false,"rental_uris":{"android":"levelo://app?vid=e6b27e51-7a6f-4c87-9cdb-e0dbaf392783","ios":"levelo://app?vid=e6b27e51-7a6f-4c87-9cdb-e0dbaf392783"},"vehicle_type_id":"4","last_reported":1744308846,"current_range_meters":9200,"station_id":"","pricing_plan_id":"cebpf4jnsgd1na2vs0mg"},{"bike_id":"ff7d1bbb-a973-404d-9c65-4674e380e201","system_id":"levelo_inurba_marseille","lat":43.2842,"lon":5.37507,"is_reserved":false,"is_disabled":false,"rental_uris":{"android":"levelo://app?vid=ff7d1bbb-a973-404d-9c65-4674e380e201","ios":"levelo://app?vid=ff7d1bbb-a973-404d-9c65-4674e380e201"},"vehicle_type_id":"4","last_reported":1744308846,"current_range_meters":9200,"station_id":"ce4bh412rcd13ifvqds0","pricing_plan_id":"cebpf4jnsgd1na2vs0mg"},{"bike_id":"cec94938-5836-4fb1-b107-6be08662aa0a","system_id":"levelo_inurba_marseille","lat":43.27506,"lon":5.42461,"is_reserved":false,"is_disabled":false,"rental_uris":{"android":"levelo://app?vid=cec94938-5836-4fb1-b107-6be08662aa0a","ios":"levelo://app?vid=cec94938-5836-4fb1-b107-6be08662aa0a"},"vehicle_type_id":"4","last_reported":1744308846,"current_range_meters":9200,"station_id":"ce4bhn92rcd13ifvqgrg","pricing_plan_id":"cebpf4jnsgd1na2vs0mg"},{"bike_id":"9ce80678-2ca4-4baa-a7d2-19d4fc944020","system_id":"levelo_inurba_marseille","lat":43.24166,"lon":5.36389,"is_reserved":false,"is_disabled":false,"rental_uris":{"android":"levelo://app?vid=9ce80678-2ca4-4baa-a7d2-19d4fc944020","ios":"levelo://app?vid=9ce80678-2ca4-4baa-a7d2-19d4fc944020"},"vehicle_type_id":"4","last_reported":1744308846,"current_range_meters":9200,"station_id":"cpo36qri1sfpv3e86is0","pricing_plan_id":"cebpf4jnsgd1na2vs0mg"},{"bike_id":"19925b0c-bf13-433b-a8af-947f6f1941e5","system_id":"levelo_inurba_marseille","lat":43.29413,"lon":5.38579,"is_reserved":false,"is_disabled":false,"rental_uris":{"android":"levelo://app?vid=19925b0c-bf13-433b-a8af-947f6f1941e5","ios":"levelo://app?vid=19925b0c-bf13-433b-a8af-947f6f1941e5"},"vehicle_type_id":"4","last_reported":1744308846,"current_range_meters":9200,"station_id":"ce4bh2h2rcd13ifvqdh0","pricing_plan_id":"cebpf4jnsgd1na2vs0mg"},{"bike_id":"01928ea2-a99b-4ee7-a6dd-f7e9b60efba7","system_id":"levelo_inurba_marseille","lat":43.29299,"lon":5.37453,"is_reserved":false,"is_disabled":false,"rental_uris":{"android":"levelo://app?vid=01928ea2-a99b-4ee7-a6dd-f7e9b60efba7","ios":"levelo://app?vid=01928ea2-a99b-4ee7-a6dd-f7e9b60efba7"},"vehicle_type_id":"4","last_reported":1744308846,"current_range_meters":9600,"station_id":"ce4bgi12rcd13ifvqb70","pricing_plan_id":"cebpf4jnsgd1na2vs0mg"},{"bike_id":"c66e0227-8dab-43f7-959d-ad39878fa71f","system_id":"levelo_inurba_marseille","lat":43.23072,"lon":5.35511,"is_reserved":false,"is_disabled":false,"rental_uris":{"android":"levelo://app?vid=c66e0227-8dab-43f7-959d-ad39878fa71f","ios":"levelo://app?vid=c66e0227-8dab-43f7-959d-ad39878fa71f"},"vehicle_type_id":"4","last_reported":1744308846,"current_range_meters":9600,"station_id":"cpo3342slgdg3j2ifvpg","pricing_plan_id":"cebpf4jnsgd1na2vs0mg"},{"bike_id":"beb6695f-e1ce-4e79-8f8b-0536e2e7fd8d","system_id":"levelo_inurba_marseille","lat":43.28267,"lon":5.35061,"is_reserved":false,"is_disabled":false,"rental_uris":{"android":"levelo://app?vid=beb6695f-e1ce-4e79-8f8b-0536e2e7fd8d","ios":"levelo://app?vid=beb6695f-e1ce-4e79-8f8b-0536e2e7fd8d"},"vehicle_type_id":"4","last_reported":1744308846,"current_range_meters":9600,"station_id":"ce4bhbp2rcd13ifvqerg","pricing_plan_id":"cebpf4jnsgd1na2vs0mg"},{"bike_id":"a08fdf65-f7c3-4eb9-83c1-6d1abed3497e","system_id":"levelo_inurba_marseille","lat":43.286966,"lon":5.39983,"is_reserved":false,"is_disabled":true,"rental_uris":{"android":"levelo://app?vid=a08fdf65-f7c3-4eb9-83c1-6d1abed3497e","ios":"levelo://app?vid=a08fdf65-f7c3-4eb9-83c1-6d1abed3497e"},"vehicle_type_id":"4","last_reported":1744308846,"current_range_meters":9600,"station_id":"ce4bho92rcd13ifvqh3g","pricing_plan_id":"cebpf4jnsgd1na2vs0mg"},{"bike_id":"2896b90f-1991-4e02-a810-45b8ab67a87a","system_id":"levelo_inurba_marseille","lat":43.29569,"lon":5.37532,"is_reserved":false,"is_disabled":false,"rental_uris":{"android":"levelo://app?vid=2896b90f-1991-4e02-a810-45b8ab67a87a","ios":"levelo://app?vid=2896b90f-1991-4e02-a810-45b8ab67a87a"},"vehicle_type_id":"4","last_reported":1744308846,"current_range_meters":9600,"station_id":"ce4bgh92rcd13ifvqb50","pricing_plan_id":"cebpf4jnsgd1na2vs0mg"},{"bike_id":"60098edf-bc7e-410d-b0bc-d672e86f1956","system_id":"levelo_inurba_marseille","lat":43.29004,"lon":5.35608,"is_reserved":false,"is_disabled":false,"rental_uris":{"android":"levelo://app?vid=60098edf-bc7e-410d-b0bc-d672e86f1956","ios":"levelo://app?vid=60098edf-bc7e-410d-b0bc-d672e86f1956"},"vehicle_type_id":"4","last_reported":1744308846,"current_range_meters":9600,"station_id":"ce4bhb92rcd13ifvqen0","pricing_plan_id":"cebpf4jnsgd1na2vs0mg"},{"bike_id":"f75fe83e-6dba-4b71-b6a7-cf8d0a19cd36","system_id":"levelo_inurba_marseille","lat":43.286682,"lon":5.386604,"is_reserved":false,"is_disabled":false,"rental_uris":{"android":"levelo://app?vid=f75fe83e-6dba-4b71-b6a7-cf8d0a19cd36","ios":"levelo://app?vid=f75fe83e-6dba-4b71-b6a7-cf8d0a19cd36"},"vehicle_type_id":"4","last_reported":1744308846,"current_range_meters":9600,"station_id":"ce4bh492rcd13ifvqdug","pricing_plan_id":"cebpf4jnsgd1na2vs0mg"},{"bike_id":"9e7e214e-3c88-4239-87a1-eaf8d774686c","system_id":"levelo_inurba_marseille","lat":43.30807,"lon":5.43522,"is_reserved":false,"is_disabled":false,"rental_uris":{"android":"levelo://app?vid=9e7e214e-3c88-4239-87a1-eaf8d774686c","ios":"levelo://app?vid=9e7e214e-3c88-4239-87a1-eaf8d774686c"},"vehicle_type_id":"4","last_reported":1744308846,"current_range_meters":9600,"station_id":"ce4bhph2rcd13ifvqheg","pricing_plan_id":"cebpf4jnsgd1na2vs0mg"},{"bike_id":"1b5e1a6a-30b1-49b2-8140-7fe8bbbd4144","system_id":"levelo_inurba_marseille","lat":43.2988,"lon":5.38906,"is_reserved":false,"is_disabled":false,"rental_uris":{"android":"levelo://app?vid=1b5e1a6a-30b1-49b2-8140-7fe8bbbd4144","ios":"levelo://app?vid=1b5e1a6a-30b1-49b2-8140-7fe8bbbd4144"},"vehicle_type_id":"4","last_reported":1744308846,"current_range_meters":9600,"station_id":"ce4bh392rcd13ifvqdl0","pricing_plan_id":"cebpf4jnsgd1na2vs0mg"},{"bike_id":"37f52763-11da-4e26-89ad-fcef6d3d6439","system_id":"levelo_inurba_marseille","lat":43.27429,"lon":5.39418,"is_reserved":false,"is_disabled":false,"rental_uris":{"android":"levelo://app?vid=37f52763-11da-4e26-89ad-fcef6d3d6439","ios":"levelo://app?vid=37f52763-11da-4e26-89ad-fcef6d3d6439"},"vehicle_type_id":"4","last_reported":1744308846,"current_range_meters":9600,"station_id":"ce4bhdp2rcd13ifvqf20","pricing_plan_id":"cebpf4jnsgd1na2vs0mg"},{"bike_id":"f96ad8ee-a680-4c45-ab07-57737ae579d2","system_id":"levelo_inurba_marseille","lat":43.28852,"lon":5.35857,"is_reserved":false,"is_disabled":false,"rental_uris":{"android":"levelo://app?vid=f96ad8ee-a680-4c45-ab07-57737ae579d2","ios":"levelo://app?vid=f96ad8ee-a680-4c45-ab07-57737ae579d2"},"vehicle_type_id":"4","last_reported":1744308846,"current_range_meters":9600,"station_id":"ce4bhb12rcd13ifvqem0","pricing_plan_id":"cebpf4jnsgd1na2vs0mg"},{"bike_id":"2551afd0-c5a9-4255-9411-243acb9b4cd5","system_id":"levelo_inurba_marseille","lat":43.25873,"lon":5.39904,"is_reserved":false,"is_disabled":false,"rental_uris":{"android":"levelo://app?vid=2551afd0-c5a9-4255-9411-243acb9b4cd5","ios":"levelo://app?vid=2551afd0-c5a9-4255-9411-243acb9b4cd5"},"vehicle_type_id":"4","last_reported":1744308846,"current_range_meters":9600,"station_id":"ce4bhl92rcd13ifvqghg","pricing_plan_id":"cebpf4jnsgd1na2vs0mg"},{"bike_id":"9544e58f-863e-4776-8bcf-8ed5b564fd18","system_id":"levelo_inurba_marseille","lat":43.27572,"lon":5.38446,"is_reserved":false,"is_disabled":false,"rental_uris":{"android":"levelo://app?vid=9544e58f-863e-4776-8bcf-8ed5b564fd18","ios":"levelo://app?vid=9544e58f-863e-4776-8bcf-8ed5b564fd18"},"vehicle_type_id":"4","last_reported":1744308846,"current_range_meters":10000,"station_id":"ce4bhh92rcd13ifvqfi0","pricing_plan_id":"cebpf4jnsgd1na2vs0mg"},{"bike_id":"c7922c9e-df40-4d6f-92a1-640cc6bd2ff7","system_id":"levelo_inurba_marseille","lat":43.241672,"lon":5.363973,"is_reserved":false,"is_disabled":false,"rental_uris":{"android":"levelo://app?vid=c7922c9e-df40-4d6f-92a1-640cc6bd2ff7","ios":"levelo://app?vid=c7922c9e-df40-4d6f-92a1-640cc6bd2ff7"},"vehicle_type_id":"4","last_reported":1744308846,"current_range_meters":10000,"station_id":"cpo36qri1sfpv3e86is0","pricing_plan_id":"cebpf4jnsgd1na2vs0mg"},{"bike_id":"f7d023fb-c27b-420e-bd06-414492b389fc","system_id":"levelo_inurba_marseille","lat":43.301262,"lon":5.400715,"is_reserved":false,"is_disabled":false,"rental_uris":{"android":"levelo://app?vid=f7d023fb-c27b-420e-bd06-414492b389fc","ios":"levelo://app?vid=f7d023fb-c27b-420e-bd06-414492b389fc"},"vehicle_type_id":"4","last_reported":1744308846,"current_range_meters":10000,"station_id":"ce4bgvh2rcd13ifvqcs0","pricing_plan_id":"cebpf4jnsgd1na2vs0mg"},{"bike_id":"bff67837-c676-4b88-9fdc-8db7fe587121","system_id":"levelo_inurba_marseille","lat":43.30228,"lon":5.40066,"is_reserved":false,"is_disabled":true,"rental_uris":{"android":"levelo://app?vid=bff67837-c676-4b88-9fdc-8db7fe587121","ios":"levelo://app?vid=bff67837-c676-4b88-9fdc-8db7fe587121"},"vehicle_type_id":"4","last_reported":1744308846,"current_range_meters":10000,"station_id":"ce4bgvh2rcd13ifvqcs0","pricing_plan_id":"cebpf4jnsgd1na2vs0mg"},{"bike_id":"2000497b-6d4b-416f-b43b-2a4143aad53b","system_id":"levelo_inurba_marseille","lat":43.3236,"lon":5.38352,"is_reserved":false,"is_disabled":false,"rental_uris":{"android":"levelo://app?vid=2000497b-6d4b-416f-b43b-2a4143aad53b","ios":"levelo://app?vid=2000497b-6d4b-416f-b43b-2a4143aad53b"},"vehicle_type_id":"4","last_reported":1744308846,"current_range_meters":10800,"station_id":"","pricing_plan_id":"cebpf4jnsgd1na2vs0mg"},{"bike_id":"54691b81-5084-441d-bb18-f4cca3600336","system_id":"levelo_inurba_marseille","lat":43.29313,"lon":5.37194,"is_reserved":false,"is_disabled":false,"rental_uris":{"android":"levelo://app?vid=54691b81-5084-441d-bb18-f4cca3600336","ios":"levelo://app?vid=54691b81-5084-441d-bb18-f4cca3600336"},"vehicle_type_id":"4","last_reported":1744308846,"current_range_meters":10000,"station_id":"ce4bgh92rcd13ifvqb40","pricing_plan_id":"cebpf4jnsgd1na2vs0mg"},{"bike_id":"c19e66b4-a2b6-432d-9457-bd31ced7bfc9","system_id":"levelo_inurba_marseille","lat":43.29014,"lon":5.35625,"is_reserved":false,"is_disabled":false,"rental_uris":{"android":"levelo://app?vid=c19e66b4-a2b6-432d-9457-bd31ced7bfc9","ios":"levelo://app?vid=c19e66b4-a2b6-432d-9457-bd31ced7bfc9"},"vehicle_type_id":"4","last_reported":1744308846,"current_range_meters":10000,"station_id":"ce4bhb92rcd13ifvqen0","pricing_plan_id":"cebpf4jnsgd1na2vs0mg"},{"bike_id":"e52ca8f8-cc1b-4f34-aa34-aa8078fc817c","system_id":"levelo_inurba_marseille","lat":43.25728,"lon":5.41112,"is_reserved":false,"is_disabled":false,"rental_uris":{"android":"levelo://app?vid=e52ca8f8-cc1b-4f34-aa34-aa8078fc817c","ios":"levelo://app?vid=e52ca8f8-cc1b-4f34-aa34-aa8078fc817c"},"vehicle_type_id":"4","last_reported":1744308846,"current_range_meters":10000,"station_id":"ce4bhkp2rcd13ifvqgd0","pricing_plan_id":"cebpf4jnsgd1na2vs0mg"},{"bike_id":"33443bd1-63f0-4476-823e-4549241d83bd","system_id":"levelo_inurba_marseille","lat":43.22951,"lon":5.35386,"is_reserved":false,"is_disabled":false,"rental_uris":{"android":"levelo://app?vid=33443bd1-63f0-4476-823e-4549241d83bd","ios":"levelo://app?vid=33443bd1-63f0-4476-823e-4549241d83bd"},"vehicle_type_id":"4","last_reported":1744308846,"current_range_meters":10800,"station_id":"cpo3532slgdg3j2ikp40","pricing_plan_id":"cebpf4jnsgd1na2vs0mg"},{"bike_id":"a1fdd794-2cd0-4fb6-96b3-8dafaa593e65","system_id":"levelo_inurba_marseille","lat":43.33764,"lon":5.37461,"is_reserved":false,"is_disabled":true,"rental_uris":{"android":"levelo://app?vid=a1fdd794-2cd0-4fb6-96b3-8dafaa593e65","ios":"levelo://app?vid=a1fdd794-2cd0-4fb6-96b3-8dafaa593e65"},"vehicle_type_id":"4","last_reported":1744308846,"current_range_meters":10800,"station_id":"","pricing_plan_id":"cebpf4jnsgd1na2vs0mg"},{"bike_id":"34ec37b1-1979-45c7-b734-43d14dc4ad67","system_id":"levelo_inurba_marseille","lat":43.24813,"lon":5.37464,"is_reserved":false,"is_disabled":false,"rental_uris":{"android":"levelo://app?vid=34ec37b1-1979-45c7-b734-43d14dc4ad67","ios":"levelo://app?vid=34ec37b1-1979-45c7-b734-43d14dc4ad67"},"vehicle_type_id":"4","last_reported":1744308846,"current_range_meters":10800,"station_id":"ce4bhgh2rcd13ifvqfb0","pricing_plan_id":"cebpf4jnsgd1na2vs0mg"},{"bike_id":"0836fac6-b3a4-4b46-8330-72a1112dfc7e","system_id":"levelo_inurba_marseille","lat":43.27846,"lon":5.39226,"is_reserved":false,"is_disabled":false,"rental_uris":{"android":"levelo://app?vid=0836fac6-b3a4-4b46-8330-72a1112dfc7e","ios":"levelo://app?vid=0836fac6-b3a4-4b46-8330-72a1112dfc7e"},"vehicle_type_id":"4","last_reported":1744308846,"current_range_meters":10800,"station_id":"ce4bhjp2rcd13ifvqga0","pricing_plan_id":"cebpf4jnsgd1na2vs0mg"},{"bike_id":"e71a4f06-f0db-432f-89e1-9c9c85449d9c","system_id":"levelo_inurba_marseille","lat":43.29522,"lon":5.39405,"is_reserved":false,"is_disabled":false,"rental_uris":{"android":"levelo://app?vid=e71a4f06-f0db-432f-89e1-9c9c85449d9c","ios":"levelo://app?vid=e71a4f06-f0db-432f-89e1-9c9c85449d9c"},"vehicle_type_id":"4","last_reported":1744308846,"current_range_meters":10800,"station_id":"ce4bh292rcd13ifvqdf0","pricing_plan_id":"cebpf4jnsgd1na2vs0mg"},{"bike_id":"8a832b7c-0339-427e-afcc-e1e799490325","system_id":"levelo_inurba_marseille","lat":43.21744,"lon":5.34608,"is_reserved":false,"is_disabled":false,"rental_uris":{"android":"levelo://app?vid=8a832b7c-0339-427e-afcc-e1e799490325","ios":"levelo://app?vid=8a832b7c-0339-427e-afcc-e1e799490325"},"vehicle_type_id":"4","last_reported":1744308846,"current_range_meters":10800,"station_id":"","pricing_plan_id":"cebpf4jnsgd1na2vs0mg"},{"bike_id":"9e4fc984-b01a-4a94-affc-3255144725b4","system_id":"levelo_inurba_marseille","lat":43.28943,"lon":5.36395,"is_reserved":false,"is_disabled":false,"rental_uris":{"android":"levelo://app?vid=9e4fc984-b01a-4a94-affc-3255144725b4","ios":"levelo://app?vid=9e4fc984-b01a-4a94-affc-3255144725b4"},"vehicle_type_id":"4","last_reported":1744308846,"current_range_meters":11200,"station_id":"ce4bhc92rcd13ifvqetg","pricing_plan_id":"cebpf4jnsgd1na2vs0mg"},{"bike_id":"6a9de135-ea0d-4312-8a10-05d0c2457f03","system_id":"levelo_inurba_marseille","lat":43.2931,"lon":5.37183,"is_reserved":false,"is_disabled":false,"rental_uris":{"android":"levelo://app?vid=6a9de135-ea0d-4312-8a10-05d0c2457f03","ios":"levelo://app?vid=6a9de135-ea0d-4312-8a10-05d0c2457f03"},"vehicle_type_id":"4","last_reported":1744308846,"current_range_meters":11200,"station_id":"ce4bgh92rcd13ifvqb40","pricing_plan_id":"cebpf4jnsgd1na2vs0mg"},{"bike_id":"78bf90e2-ed94-451a-8ecb-e99e76e986f6","system_id":"levelo_inurba_marseille","lat":43.27976,"lon":5.3875,"is_reserved":false,"is_disabled":false,"rental_uris":{"android":"levelo://app?vid=78bf90e2-ed94-451a-8ecb-e99e76e986f6","ios":"levelo://app?vid=78bf90e2-ed94-451a-8ecb-e99e76e986f6"},"vehicle_type_id":"4","last_reported":1744308846,"current_range_meters":11200,"station_id":"ce4bhg12rcd13ifvqf80","pricing_plan_id":"cebpf4jnsgd1na2vs0mg"},{"bike_id":"081bfb0b-add5-4417-9e0d-7a3ee0809f5e","system_id":"levelo_inurba_marseille","lat":43.30892,"lon":5.3967,"is_reserved":false,"is_disabled":false,"rental_uris":{"android":"levelo://app?vid=081bfb0b-add5-4417-9e0d-7a3ee0809f5e","ios":"levelo://app?vid=081bfb0b-add5-4417-9e0d-7a3ee0809f5e"},"vehicle_type_id":"4","last_reported":1744308846,"current_range_meters":11200,"station_id":"ce4bh012rcd13ifvqcv0","pricing_plan_id":"cebpf4jnsgd1na2vs0mg"},{"bike_id":"077743ef-343d-4a54-b34d-2b257fc89e34","system_id":"levelo_inurba_marseille","lat":43.28945,"lon":5.36399,"is_reserved":false,"is_disabled":false,"rental_uris":{"android":"levelo://app?vid=077743ef-343d-4a54-b34d-2b257fc89e34","ios":"levelo://app?vid=077743ef-343d-4a54-b34d-2b257fc89e34"},"vehicle_type_id":"4","last_reported":1744308846,"current_range_meters":11200,"station_id":"ce4bhc92rcd13ifvqetg","pricing_plan_id":"cebpf4jnsgd1na2vs0mg"},{"bike_id":"dcdf5388-9f06-4d2c-84d4-8a5c0ff3517e","system_id":"levelo_inurba_marseille","lat":43.26678,"lon":5.38266,"is_reserved":false,"is_disabled":false,"rental_uris":{"android":"levelo://app?vid=dcdf5388-9f06-4d2c-84d4-8a5c0ff3517e","ios":"levelo://app?vid=dcdf5388-9f06-4d2c-84d4-8a5c0ff3517e"},"vehicle_type_id":"4","last_reported":1744308846,"current_range_meters":10800,"station_id":"ce4bhg92rcd13ifvqf90","pricing_plan_id":"cebpf4jnsgd1na2vs0mg"},{"bike_id":"ed1f0c13-6f65-4dca-96a7-1ad05f34a730","system_id":"levelo_inurba_marseille","lat":43.30891,"lon":5.39658,"is_reserved":false,"is_disabled":false,"rental_uris":{"android":"levelo://app?vid=ed1f0c13-6f65-4dca-96a7-1ad05f34a730","ios":"levelo://app?vid=ed1f0c13-6f65-4dca-96a7-1ad05f34a730"},"vehicle_type_id":"4","last_reported":1744308846,"current_range_meters":11200,"station_id":"ce4bh012rcd13ifvqcv0","pricing_plan_id":"cebpf4jnsgd1na2vs0mg"},{"bike_id":"dfee35f1-f409-40c7-93e5-2e3bfa533534","system_id":"levelo_inurba_marseille","lat":43.24997,"lon":5.38935,"is_reserved":false,"is_disabled":false,"rental_uris":{"android":"levelo://app?vid=dfee35f1-f409-40c7-93e5-2e3bfa533534","ios":"levelo://app?vid=dfee35f1-f409-40c7-93e5-2e3bfa533534"},"vehicle_type_id":"4","last_reported":1744308846,"current_range_meters":10800,"station_id":"ce4bhgp2rcd13ifvqfd0","pricing_plan_id":"cebpf4jnsgd1na2vs0mg"},{"bike_id":"242f8d28-f822-412a-a220-22ba3cd27f24","system_id":"levelo_inurba_marseille","lat":43.27378,"lon":5.36254,"is_reserved":false,"is_disabled":false,"rental_uris":{"android":"levelo://app?vid=242f8d28-f822-412a-a220-22ba3cd27f24","ios":"levelo://app?vid=242f8d28-f822-412a-a220-22ba3cd27f24"},"vehicle_type_id":"4","last_reported":1744308846,"current_range_meters":11200,"station_id":"ce4bhbh2rcd13ifvqeo0","pricing_plan_id":"cebpf4jnsgd1na2vs0mg"},{"bike_id":"65f52e07-c7c1-4b0b-a98a-2cb0cb6e9ef2","system_id":"levelo_inurba_marseille","lat":43.24081,"lon":5.37731,"is_reserved":false,"is_disabled":false,"rental_uris":{"android":"levelo://app?vid=65f52e07-c7c1-4b0b-a98a-2cb0cb6e9ef2","ios":"levelo://app?vid=65f52e07-c7c1-4b0b-a98a-2cb0cb6e9ef2"},"vehicle_type_id":"4","last_reported":1744308846,"current_range_meters":11200,"station_id":"ce4bhnp2rcd13ifvqgvg","pricing_plan_id":"cebpf4jnsgd1na2vs0mg"},{"bike_id":"ac9182e5-ccba-491d-b0dd-9249210a801a","system_id":"levelo_inurba_marseille","lat":43.30527,"lon":5.38425,"is_reserved":false,"is_disabled":false,"rental_uris":{"android":"levelo://app?vid=ac9182e5-ccba-491d-b0dd-9249210a801a","ios":"levelo://app?vid=ac9182e5-ccba-491d-b0dd-9249210a801a"},"vehicle_type_id":"4","last_reported":1744308846,"current_range_meters":11600,"station_id":"ce4bgg92rcd13ifvqb30","pricing_plan_id":"cebpf4jnsgd1na2vs0mg"},{"bike_id":"9446fb3e-16ca-4457-8854-1c2ceab8aa1d","system_id":"levelo_inurba_marseille","lat":43.28715,"lon":5.36101,"is_reserved":false,"is_disabled":false,"rental_uris":{"android":"levelo://app?vid=9446fb3e-16ca-4457-8854-1c2ceab8aa1d","ios":"levelo://app?vid=9446fb3e-16ca-4457-8854-1c2ceab8aa1d"},"vehicle_type_id":"4","last_reported":1744308846,"current_range_meters":11600,"station_id":"cki0cbj6b192h4jlfktg","pricing_plan_id":"cebpf4jnsgd1na2vs0mg"},{"bike_id":"d48c734e-5f3a-42df-a71b-aab474edcaba","system_id":"levelo_inurba_marseille","lat":43.32663,"lon":5.40985,"is_reserved":false,"is_disabled":false,"rental_uris":{"android":"levelo://app?vid=d48c734e-5f3a-42df-a71b-aab474edcaba","ios":"levelo://app?vid=d48c734e-5f3a-42df-a71b-aab474edcaba"},"vehicle_type_id":"4","last_reported":1744308846,"current_range_meters":11600,"station_id":"ce4bhpp2rcd13ifvqhgg","pricing_plan_id":"cebpf4jnsgd1na2vs0mg"},{"bike_id":"f8be9081-c514-460d-9be3-4d086fbd951f","system_id":"levelo_inurba_marseille","lat":43.28626,"lon":5.35096,"is_reserved":false,"is_disabled":false,"rental_uris":{"android":"levelo://app?vid=f8be9081-c514-460d-9be3-4d086fbd951f","ios":"levelo://app?vid=f8be9081-c514-460d-9be3-4d086fbd951f"},"vehicle_type_id":"4","last_reported":1744308846,"current_range_meters":11600,"station_id":"ce4bhch2rcd13ifvqeug","pricing_plan_id":"cebpf4jnsgd1na2vs0mg"},{"bike_id":"e57e48fa-d4eb-4834-bc58-0903fa606026","system_id":"levelo_inurba_marseille","lat":43.24166,"lon":5.36401,"is_reserved":false,"is_disabled":false,"rental_uris":{"android":"levelo://app?vid=e57e48fa-d4eb-4834-bc58-0903fa606026","ios":"levelo://app?vid=e57e48fa-d4eb-4834-bc58-0903fa606026"},"vehicle_type_id":"4","last_reported":1744308846,"current_range_meters":11600,"station_id":"cpo36qri1sfpv3e86is0","pricing_plan_id":"cebpf4jnsgd1na2vs0mg"},{"bike_id":"e6a03078-6b1c-4eed-82df-d967e1995a64","system_id":"levelo_inurba_marseille","lat":43.30783,"lon":5.37638,"is_reserved":false,"is_disabled":false,"rental_uris":{"android":"levelo://app?vid=e6a03078-6b1c-4eed-82df-d967e1995a64","ios":"levelo://app?vid=e6a03078-6b1c-4eed-82df-d967e1995a64"},"vehicle_type_id":"4","last_reported":1744308846,"current_range_meters":11600,"station_id":"ce4bgv92rcd13ifvqcq0","pricing_plan_id":"cebpf4jnsgd1na2vs0mg"},{"bike_id":"f4aae5ec-7bc5-4863-bed7-a2d4465303b3","system_id":"levelo_inurba_marseille","lat":43.26061,"lon":5.39398,"is_reserved":false,"is_disabled":false,"rental_uris":{"android":"levelo://app?vid=f4aae5ec-7bc5-4863-bed7-a2d4465303b3","ios":"levelo://app?vid=f4aae5ec-7bc5-4863-bed7-a2d4465303b3"},"vehicle_type_id":"4","last_reported":1744308846,"current_range_meters":11600,"station_id":"ce4bhh92rcd13ifvqfj0","pricing_plan_id":"cebpf4jnsgd1na2vs0mg"},{"bike_id":"4193f7fc-0ab5-46dc-97c9-ec18f8d1436e","system_id":"levelo_inurba_marseille","lat":43.29294,"lon":5.37466,"is_reserved":false,"is_disabled":false,"rental_uris":{"android":"levelo://app?vid=4193f7fc-0ab5-46dc-97c9-ec18f8d1436e","ios":"levelo://app?vid=4193f7fc-0ab5-46dc-97c9-ec18f8d1436e"},"vehicle_type_id":"4","last_reported":1744308846,"current_range_meters":11600,"station_id":"ce4bgi12rcd13ifvqb70","pricing_plan_id":"cebpf4jnsgd1na2vs0mg"},{"bike_id":"179cf72c-1316-40e3-a35b-ecb57c344390","system_id":"levelo_inurba_marseille","lat":43.28411,"lon":5.34994,"is_reserved":false,"is_disabled":false,"rental_uris":{"android":"levelo://app?vid=179cf72c-1316-40e3-a35b-ecb57c344390","ios":"levelo://app?vid=179cf72c-1316-40e3-a35b-ecb57c344390"},"vehicle_type_id":"4","last_reported":1744308846,"current_range_meters":11600,"station_id":"ce4bhbh2rcd13ifvqepg","pricing_plan_id":"cebpf4jnsgd1na2vs0mg"},{"bike_id":"dfb01372-8243-44ad-a2ec-0c8fa8c47b47","system_id":"levelo_inurba_marseille","lat":43.28617,"lon":5.3511,"is_reserved":false,"is_disabled":false,"rental_uris":{"android":"levelo://app?vid=dfb01372-8243-44ad-a2ec-0c8fa8c47b47","ios":"levelo://app?vid=dfb01372-8243-44ad-a2ec-0c8fa8c47b47"},"vehicle_type_id":"4","last_reported":1744308846,"current_range_meters":11600,"station_id":"ce4bhch2rcd13ifvqeug","pricing_plan_id":"cebpf4jnsgd1na2vs0mg"},{"bike_id":"cb83e91f-c3ea-4f26-837f-7d6a1c63be11","system_id":"levelo_inurba_marseille","lat":43.29419,"lon":5.38628,"is_reserved":false,"is_disabled":false,"rental_uris":{"android":"levelo://app?vid=cb83e91f-c3ea-4f26-837f-7d6a1c63be11","ios":"levelo://app?vid=cb83e91f-c3ea-4f26-837f-7d6a1c63be11"},"vehicle_type_id":"4","last_reported":1744308846,"current_range_meters":11600,"station_id":"ce4bh2h2rcd13ifvqdh0","pricing_plan_id":"cebpf4jnsgd1na2vs0mg"},{"bike_id":"e5c359ae-9096-45a8-a53a-8b26b4d30a61","system_id":"levelo_inurba_marseille","lat":43.28107,"lon":5.37851,"is_reserved":false,"is_disabled":false,"rental_uris":{"android":"levelo://app?vid=e5c359ae-9096-45a8-a53a-8b26b4d30a61","ios":"levelo://app?vid=e5c359ae-9096-45a8-a53a-8b26b4d30a61"},"vehicle_type_id":"4","last_reported":1744308846,"current_range_meters":12000,"station_id":"ce4bha12rcd13ifvqee0","pricing_plan_id":"cebpf4jnsgd1na2vs0mg"},{"bike_id":"674363a5-747a-4d33-89d6-adee419a8014","system_id":"levelo_inurba_marseille","lat":43.294163,"lon":5.386282,"is_reserved":false,"is_disabled":false,"rental_uris":{"android":"levelo://app?vid=674363a5-747a-4d33-89d6-adee419a8014","ios":"levelo://app?vid=674363a5-747a-4d33-89d6-adee419a8014"},"vehicle_type_id":"4","last_reported":1744308846,"current_range_meters":12000,"station_id":"ce4bh2h2rcd13ifvqdh0","pricing_plan_id":"cebpf4jnsgd1na2vs0mg"},{"bike_id":"fc7fcdf1-688c-4298-b338-ff2cfe64a88a","system_id":"levelo_inurba_marseille","lat":43.29271,"lon":5.36842,"is_reserved":false,"is_disabled":false,"rental_uris":{"android":"levelo://app?vid=fc7fcdf1-688c-4298-b338-ff2cfe64a88a","ios":"levelo://app?vid=fc7fcdf1-688c-4298-b338-ff2cfe64a88a"},"vehicle_type_id":"4","last_reported":1744308846,"current_range_meters":12400,"station_id":"ce4bhbp2rcd13ifvqesg","pricing_plan_id":"cebpf4jnsgd1na2vs0mg"},{"bike_id":"59ca3246-c68d-42a8-8caa-a8dda6f74db1","system_id":"levelo_inurba_marseille","lat":43.29072,"lon":5.37175,"is_reserved":false,"is_disabled":false,"rental_uris":{"android":"levelo://app?vid=59ca3246-c68d-42a8-8caa-a8dda6f74db1","ios":"levelo://app?vid=59ca3246-c68d-42a8-8caa-a8dda6f74db1"},"vehicle_type_id":"4","last_reported":1744308846,"current_range_meters":12400,"station_id":"ce4bh5p2rcd13ifvqe4g","pricing_plan_id":"cebpf4jnsgd1na2vs0mg"},{"bike_id":"a4f1ae08-7c40-482c-9d64-ff1a605bd74f","system_id":"levelo_inurba_marseille","lat":43.29067,"lon":5.37169,"is_reserved":false,"is_disabled":false,"rental_uris":{"android":"levelo://app?vid=a4f1ae08-7c40-482c-9d64-ff1a605bd74f","ios":"levelo://app?vid=a4f1ae08-7c40-482c-9d64-ff1a605bd74f"},"vehicle_type_id":"4","last_reported":1744308846,"current_range_meters":12400,"station_id":"ce4bh5p2rcd13ifvqe4g","pricing_plan_id":"cebpf4jnsgd1na2vs0mg"},{"bike_id":"08537aca-0ae5-4b26-b2b0-a6d705ac25b9","system_id":"levelo_inurba_marseille","lat":43.28415,"lon":5.34995,"is_reserved":false,"is_disabled":false,"rental_uris":{"android":"levelo://app?vid=08537aca-0ae5-4b26-b2b0-a6d705ac25b9","ios":"levelo://app?vid=08537aca-0ae5-4b26-b2b0-a6d705ac25b9"},"vehicle_type_id":"4","last_reported":1744308846,"current_range_meters":12400,"station_id":"ce4bhbh2rcd13ifvqepg","pricing_plan_id":"cebpf4jnsgd1na2vs0mg"},{"bike_id":"9baf0db5-73da-4f2d-8093-a61b44ac0c0a","system_id":"levelo_inurba_marseille","lat":43.27381,"lon":5.36265,"is_reserved":false,"is_disabled":false,"rental_uris":{"android":"levelo://app?vid=9baf0db5-73da-4f2d-8093-a61b44ac0c0a","ios":"levelo://app?vid=9baf0db5-73da-4f2d-8093-a61b44ac0c0a"},"vehicle_type_id":"4","last_reported":1744308846,"current_range_meters":12400,"station_id":"ce4bhbh2rcd13ifvqeo0","pricing_plan_id":"cebpf4jnsgd1na2vs0mg"},{"bike_id":"ac42341f-fc5a-42ab-b5ee-ffd8ac75c84b","system_id":"levelo_inurba_marseille","lat":43.29309,"lon":5.37183,"is_reserved":false,"is_disabled":false,"rental_uris":{"android":"levelo://app?vid=ac42341f-fc5a-42ab-b5ee-ffd8ac75c84b","ios":"levelo://app?vid=ac42341f-fc5a-42ab-b5ee-ffd8ac75c84b"},"vehicle_type_id":"4","last_reported":1744308846,"current_range_meters":12400,"station_id":"ce4bgh92rcd13ifvqb40","pricing_plan_id":"cebpf4jnsgd1na2vs0mg"},{"bike_id":"1741b489-a8ea-4c41-9d0d-75107d63165f","system_id":"levelo_inurba_marseille","lat":43.29434,"lon":5.38616,"is_reserved":false,"is_disabled":false,"rental_uris":{"android":"levelo://app?vid=1741b489-a8ea-4c41-9d0d-75107d63165f","ios":"levelo://app?vid=1741b489-a8ea-4c41-9d0d-75107d63165f"},"vehicle_type_id":"4","last_reported":1744308846,"current_range_meters":12400,"station_id":"ce4bh2h2rcd13ifvqdh0","pricing_plan_id":"cebpf4jnsgd1na2vs0mg"},{"bike_id":"7c86ebaf-c9fe-4bc4-bc7c-bb16ccfd1fa7","system_id":"levelo_inurba_marseille","lat":43.273781,"lon":5.362487,"is_reserved":false,"is_disabled":false,"rental_uris":{"android":"levelo://app?vid=7c86ebaf-c9fe-4bc4-bc7c-bb16ccfd1fa7","ios":"levelo://app?vid=7c86ebaf-c9fe-4bc4-bc7c-bb16ccfd1fa7"},"vehicle_type_id":"4","last_reported":1744308846,"current_range_meters":12400,"station_id":"ce4bhbh2rcd13ifvqeo0","pricing_plan_id":"cebpf4jnsgd1na2vs0mg"},{"bike_id":"abce1ad2-7c95-4822-8e9b-f88fb83133e3","system_id":"levelo_inurba_marseille","lat":43.29307,"lon":5.371657,"is_reserved":false,"is_disabled":false,"rental_uris":{"android":"levelo://app?vid=abce1ad2-7c95-4822-8e9b-f88fb83133e3","ios":"levelo://app?vid=abce1ad2-7c95-4822-8e9b-f88fb83133e3"},"vehicle_type_id":"4","last_reported":1744308846,"current_range_meters":12800,"station_id":"ce4bgjh2rcd13ifvqbf0","pricing_plan_id":"cebpf4jnsgd1na2vs0mg"},{"bike_id":"d1f717be-f7bf-496b-a68b-0807e0c8f6d8","system_id":"levelo_inurba_marseille","lat":43.29532,"lon":5.38545,"is_reserved":false,"is_disabled":false,"rental_uris":{"android":"levelo://app?vid=d1f717be-f7bf-496b-a68b-0807e0c8f6d8","ios":"levelo://app?vid=d1f717be-f7bf-496b-a68b-0807e0c8f6d8"},"vehicle_type_id":"4","last_reported":1744308846,"current_range_meters":12800,"station_id":"ce4bgih2rcd13ifvqba0","pricing_plan_id":"cebpf4jnsgd1na2vs0mg"},{"bike_id":"7cc9ba28-b17b-4764-972f-908f30e26c9f","system_id":"levelo_inurba_marseille","lat":43.28847,"lon":5.35867,"is_reserved":false,"is_disabled":false,"rental_uris":{"android":"levelo://app?vid=7cc9ba28-b17b-4764-972f-908f30e26c9f","ios":"levelo://app?vid=7cc9ba28-b17b-4764-972f-908f30e26c9f"},"vehicle_type_id":"4","last_reported":1744308846,"current_range_meters":12800,"station_id":"ce4bhb12rcd13ifvqem0","pricing_plan_id":"cebpf4jnsgd1na2vs0mg"},{"bike_id":"de07953f-a368-43dd-aba2-34a7197efe50","system_id":"levelo_inurba_marseille","lat":43.256115,"lon":5.405147,"is_reserved":false,"is_disabled":false,"rental_uris":{"android":"levelo://app?vid=de07953f-a368-43dd-aba2-34a7197efe50","ios":"levelo://app?vid=de07953f-a368-43dd-aba2-34a7197efe50"},"vehicle_type_id":"4","last_reported":1744308846,"current_range_meters":12800,"station_id":"","pricing_plan_id":"cebpf4jnsgd1na2vs0mg"},{"bike_id":"88884b12-f93c-49d2-8ee8-977b95e761b5","system_id":"levelo_inurba_marseille","lat":43.279885,"lon":5.38741,"is_reserved":false,"is_disabled":false,"rental_uris":{"android":"levelo://app?vid=88884b12-f93c-49d2-8ee8-977b95e761b5","ios":"levelo://app?vid=88884b12-f93c-49d2-8ee8-977b95e761b5"},"vehicle_type_id":"4","last_reported":1744308846,"current_range_meters":12800,"station_id":"ce4bhg12rcd13ifvqf80","pricing_plan_id":"cebpf4jnsgd1na2vs0mg"},{"bike_id":"445581f1-2457-42dc-a94c-3ad30557c664","system_id":"levelo_inurba_marseille","lat":43.29211,"lon":5.36082,"is_reserved":false,"is_disabled":false,"rental_uris":{"android":"levelo://app?vid=445581f1-2457-42dc-a94c-3ad30557c664","ios":"levelo://app?vid=445581f1-2457-42dc-a94c-3ad30557c664"},"vehicle_type_id":"4","last_reported":1744308846,"current_range_meters":12800,"station_id":"ce4bhbh2rcd13ifvqeqg","pricing_plan_id":"cebpf4jnsgd1na2vs0mg"},{"bike_id":"516fd308-8c41-4b56-bd23-2f5a45994daa","system_id":"levelo_inurba_marseille","lat":43.298662,"lon":5.363168,"is_reserved":false,"is_disabled":false,"rental_uris":{"android":"levelo://app?vid=516fd308-8c41-4b56-bd23-2f5a45994daa","ios":"levelo://app?vid=516fd308-8c41-4b56-bd23-2f5a45994daa"},"vehicle_type_id":"4","last_reported":1744308846,"current_range_meters":12800,"station_id":"ce4bgpp2rcd13ifvqc3g","pricing_plan_id":"cebpf4jnsgd1na2vs0mg"},{"bike_id":"36dd2f5e-4014-41b9-8f6e-aa54636e0b8b","system_id":"levelo_inurba_marseille","lat":43.24151,"lon":5.36429,"is_reserved":false,"is_disabled":false,"rental_uris":{"android":"levelo://app?vid=36dd2f5e-4014-41b9-8f6e-aa54636e0b8b","ios":"levelo://app?vid=36dd2f5e-4014-41b9-8f6e-aa54636e0b8b"},"vehicle_type_id":"4","last_reported":1744308846,"current_range_meters":12800,"station_id":"cpo36qri1sfpv3e86is0","pricing_plan_id":"cebpf4jnsgd1na2vs0mg"},{"bike_id":"18c8aea9-216e-462b-a15e-03d0945ac2cf","system_id":"levelo_inurba_marseille","lat":43.29271,"lon":5.38459,"is_reserved":false,"is_disabled":false,"rental_uris":{"android":"levelo://app?vid=18c8aea9-216e-462b-a15e-03d0945ac2cf","ios":"levelo://app?vid=18c8aea9-216e-462b-a15e-03d0945ac2cf"},"vehicle_type_id":"4","last_reported":1744308846,"current_range_meters":12800,"station_id":"ce4bh692rcd13ifvqea0","pricing_plan_id":"cebpf4jnsgd1na2vs0mg"},{"bike_id":"dbed5158-18de-4e5b-8769-192429d9a469","system_id":"levelo_inurba_marseille","lat":43.27395,"lon":5.36256,"is_reserved":false,"is_disabled":false,"rental_uris":{"android":"levelo://app?vid=dbed5158-18de-4e5b-8769-192429d9a469","ios":"levelo://app?vid=dbed5158-18de-4e5b-8769-192429d9a469"},"vehicle_type_id":"4","last_reported":1744308846,"current_range_meters":13600,"station_id":"ce4bhbh2rcd13ifvqeo0","pricing_plan_id":"cebpf4jnsgd1na2vs0mg"},{"bike_id":"329489be-fdb7-42d3-bac8-884e2eef9758","system_id":"levelo_inurba_marseille","lat":43.27991,"lon":5.41661,"is_reserved":false,"is_disabled":false,"rental_uris":{"android":"levelo://app?vid=329489be-fdb7-42d3-bac8-884e2eef9758","ios":"levelo://app?vid=329489be-fdb7-42d3-bac8-884e2eef9758"},"vehicle_type_id":"4","last_reported":1744308846,"current_range_meters":13600,"station_id":"ce4bho12rcd13ifvqh1g","pricing_plan_id":"cebpf4jnsgd1na2vs0mg"},{"bike_id":"4d6f0b25-6620-4007-a775-35a6d21dbbf9","system_id":"levelo_inurba_marseille","lat":43.29334,"lon":5.38327,"is_reserved":false,"is_disabled":false,"rental_uris":{"android":"levelo://app?vid=4d6f0b25-6620-4007-a775-35a6d21dbbf9","ios":"levelo://app?vid=4d6f0b25-6620-4007-a775-35a6d21dbbf9"},"vehicle_type_id":"4","last_reported":1744308846,"current_range_meters":13600,"station_id":"","pricing_plan_id":"cebpf4jnsgd1na2vs0mg"},{"bike_id":"46b8a4b9-4053-4bf4-9283-ed8af47f47d9","system_id":"levelo_inurba_marseille","lat":43.29781,"lon":5.37292,"is_reserved":false,"is_disabled":false,"rental_uris":{"android":"levelo://app?vid=46b8a4b9-4053-4bf4-9283-ed8af47f47d9","ios":"levelo://app?vid=46b8a4b9-4053-4bf4-9283-ed8af47f47d9"},"vehicle_type_id":"4","last_reported":1744308846,"current_range_meters":13600,"station_id":"ce4bgop2rcd13ifvqc1g","pricing_plan_id":"cebpf4jnsgd1na2vs0mg"},{"bike_id":"d35e45c1-f848-4254-a3e4-531709350aa5","system_id":"levelo_inurba_marseille","lat":43.27395,"lon":5.36277,"is_reserved":false,"is_disabled":false,"rental_uris":{"android":"levelo://app?vid=d35e45c1-f848-4254-a3e4-531709350aa5","ios":"levelo://app?vid=d35e45c1-f848-4254-a3e4-531709350aa5"},"vehicle_type_id":"4","last_reported":1744308846,"current_range_meters":13600,"station_id":"ce4bhbh2rcd13ifvqeo0","pricing_plan_id":"cebpf4jnsgd1na2vs0mg"},{"bike_id":"b8559ad8-e571-45fa-92ff-1e0aa7813dbf","system_id":"levelo_inurba_marseille","lat":43.28154,"lon":5.42643,"is_reserved":false,"is_disabled":false,"rental_uris":{"android":"levelo://app?vid=b8559ad8-e571-45fa-92ff-1e0aa7813dbf","ios":"levelo://app?vid=b8559ad8-e571-45fa-92ff-1e0aa7813dbf"},"vehicle_type_id":"4","last_reported":1744308846,"current_range_meters":13600,"station_id":"ce4bhnh2rcd13ifvqgug","pricing_plan_id":"cebpf4jnsgd1na2vs0mg"},{"bike_id":"2f1af76a-b5fb-4a1c-9818-30a340a73c24","system_id":"levelo_inurba_marseille","lat":43.2499,"lon":5.38929,"is_reserved":false,"is_disabled":false,"rental_uris":{"android":"levelo://app?vid=2f1af76a-b5fb-4a1c-9818-30a340a73c24","ios":"levelo://app?vid=2f1af76a-b5fb-4a1c-9818-30a340a73c24"},"vehicle_type_id":"4","last_reported":1744308846,"current_range_meters":12800,"station_id":"ce4bhgp2rcd13ifvqfd0","pricing_plan_id":"cebpf4jnsgd1na2vs0mg"},{"bike_id":"dd13b160-d20e-4a29-9af3-720a1520a2f8","system_id":"levelo_inurba_marseille","lat":43.23186,"lon":5.39995,"is_reserved":false,"is_disabled":false,"rental_uris":{"android":"levelo://app?vid=dd13b160-d20e-4a29-9af3-720a1520a2f8","ios":"levelo://app?vid=dd13b160-d20e-4a29-9af3-720a1520a2f8"},"vehicle_type_id":"4","last_reported":1744308846,"current_range_meters":13600,"station_id":"ce4bhn12rcd13ifvqgqg","pricing_plan_id":"cebpf4jnsgd1na2vs0mg"},{"bike_id":"974a87f1-0eb9-4faa-96d3-e4a02c558794","system_id":"levelo_inurba_marseille","lat":43.2923,"lon":5.36075,"is_reserved":false,"is_disabled":false,"rental_uris":{"android":"levelo://app?vid=974a87f1-0eb9-4faa-96d3-e4a02c558794","ios":"levelo://app?vid=974a87f1-0eb9-4faa-96d3-e4a02c558794"},"vehicle_type_id":"4","last_reported":1744308846,"current_range_meters":14000,"station_id":"ce4bhbh2rcd13ifvqeqg","pricing_plan_id":"cebpf4jnsgd1na2vs0mg"},{"bike_id":"c120f3e4-cf43-4702-b824-1b2e83189af2","system_id":"levelo_inurba_marseille","lat":43.28443,"lon":5.39197,"is_reserved":false,"is_disabled":false,"rental_uris":{"android":"levelo://app?vid=c120f3e4-cf43-4702-b824-1b2e83189af2","ios":"levelo://app?vid=c120f3e4-cf43-4702-b824-1b2e83189af2"},"vehicle_type_id":"4","last_reported":1744308846,"current_range_meters":13600,"station_id":"ce4bhoh2rcd13ifvqh5g","pricing_plan_id":"cebpf4jnsgd1na2vs0mg"},{"bike_id":"582ddf4d-203d-4e0d-8a2f-2af190e215b3","system_id":"levelo_inurba_marseille","lat":43.29267,"lon":5.38437,"is_reserved":false,"is_disabled":false,"rental_uris":{"android":"levelo://app?vid=582ddf4d-203d-4e0d-8a2f-2af190e215b3","ios":"levelo://app?vid=582ddf4d-203d-4e0d-8a2f-2af190e215b3"},"vehicle_type_id":"4","last_reported":1744308846,"current_range_meters":14000,"station_id":"ce4bh692rcd13ifvqea0","pricing_plan_id":"cebpf4jnsgd1na2vs0mg"},{"bike_id":"2ca39368-5f74-401b-9f13-33e2790cae05","system_id":"levelo_inurba_marseille","lat":43.272122,"lon":5.391877,"is_reserved":false,"is_disabled":false,"rental_uris":{"android":"levelo://app?vid=2ca39368-5f74-401b-9f13-33e2790cae05","ios":"levelo://app?vid=2ca39368-5f74-401b-9f13-33e2790cae05"},"vehicle_type_id":"4","last_reported":1744308846,"current_range_meters":14000,"station_id":"ce4bhhp2rcd13ifvqfm0","pricing_plan_id":"cebpf4jnsgd1na2vs0mg"},{"bike_id":"741003ea-9d7e-45b1-a4b4-23f2a8a905bc","system_id":"levelo_inurba_marseille","lat":43.217531,"lon":5.346035,"is_reserved":false,"is_disabled":false,"rental_uris":{"android":"levelo://app?vid=741003ea-9d7e-45b1-a4b4-23f2a8a905bc","ios":"levelo://app?vid=741003ea-9d7e-45b1-a4b4-23f2a8a905bc"},"vehicle_type_id":"4","last_reported":1744308846,"current_range_meters":14000,"station_id":"ce4bhjp2rcd13ifvqg90","pricing_plan_id":"cebpf4jnsgd1na2vs0mg"},{"bike_id":"eab6cbfa-cb8e-47d7-b0d6-226ab7facec7","system_id":"levelo_inurba_marseille","lat":43.31715,"lon":5.4241,"is_reserved":false,"is_disabled":true,"rental_uris":{"android":"levelo://app?vid=eab6cbfa-cb8e-47d7-b0d6-226ab7facec7","ios":"levelo://app?vid=eab6cbfa-cb8e-47d7-b0d6-226ab7facec7"},"vehicle_type_id":"4","last_reported":1744308846,"current_range_meters":14000,"station_id":"ce4bhp92rcd13ifvqhbg","pricing_plan_id":"cebpf4jnsgd1na2vs0mg"},{"bike_id":"95928099-b5bd-4ef5-94a1-b3f9a8805811","system_id":"levelo_inurba_marseille","lat":43.290063,"lon":5.356147,"is_reserved":false,"is_disabled":false,"rental_uris":{"android":"levelo://app?vid=95928099-b5bd-4ef5-94a1-b3f9a8805811","ios":"levelo://app?vid=95928099-b5bd-4ef5-94a1-b3f9a8805811"},"vehicle_type_id":"4","last_reported":1744308846,"current_range_meters":14400,"station_id":"ce4bhb92rcd13ifvqen0","pricing_plan_id":"cebpf4jnsgd1na2vs0mg"},{"bike_id":"784f6f6f-9f28-47b2-878e-a7ec8d21c437","system_id":"levelo_inurba_marseille","lat":43.33802,"lon":5.374713,"is_reserved":false,"is_disabled":false,"rental_uris":{"android":"levelo://app?vid=784f6f6f-9f28-47b2-878e-a7ec8d21c437","ios":"levelo://app?vid=784f6f6f-9f28-47b2-878e-a7ec8d21c437"},"vehicle_type_id":"4","last_reported":1744308846,"current_range_meters":14400,"station_id":"","pricing_plan_id":"cebpf4jnsgd1na2vs0mg"},{"bike_id":"0801f89b-1ed0-4d57-a40e-9f6b2d4f412a","system_id":"levelo_inurba_marseille","lat":43.28612,"lon":5.3511,"is_reserved":false,"is_disabled":false,"rental_uris":{"android":"levelo://app?vid=0801f89b-1ed0-4d57-a40e-9f6b2d4f412a","ios":"levelo://app?vid=0801f89b-1ed0-4d57-a40e-9f6b2d4f412a"},"vehicle_type_id":"4","last_reported":1744308846,"current_range_meters":14400,"station_id":"","pricing_plan_id":"cebpf4jnsgd1na2vs0mg"},{"bike_id":"c30b1e23-d412-47e2-9f2a-58c548cd2779","system_id":"levelo_inurba_marseille","lat":43.25723,"lon":5.4111,"is_reserved":false,"is_disabled":false,"rental_uris":{"android":"levelo://app?vid=c30b1e23-d412-47e2-9f2a-58c548cd2779","ios":"levelo://app?vid=c30b1e23-d412-47e2-9f2a-58c548cd2779"},"vehicle_type_id":"4","last_reported":1744308846,"current_range_meters":14400,"station_id":"ce4bhkp2rcd13ifvqgd0","pricing_plan_id":"cebpf4jnsgd1na2vs0mg"},{"bike_id":"2b296aec-df6b-4eb4-8cdd-bc56a99b1595","system_id":"levelo_inurba_marseille","lat":43.273932,"lon":5.362335,"is_reserved":false,"is_disabled":false,"rental_uris":{"android":"levelo://app?vid=2b296aec-df6b-4eb4-8cdd-bc56a99b1595","ios":"levelo://app?vid=2b296aec-df6b-4eb4-8cdd-bc56a99b1595"},"vehicle_type_id":"4","last_reported":1744308846,"current_range_meters":14800,"station_id":"ce4bhbh2rcd13ifvqeo0","pricing_plan_id":"cebpf4jnsgd1na2vs0mg"},{"bike_id":"8c01c616-33d3-4f21-a94b-3bf76ab48ae7","system_id":"levelo_inurba_marseille","lat":43.28936,"lon":5.36641,"is_reserved":false,"is_disabled":true,"rental_uris":{"android":"levelo://app?vid=8c01c616-33d3-4f21-a94b-3bf76ab48ae7","ios":"levelo://app?vid=8c01c616-33d3-4f21-a94b-3bf76ab48ae7"},"vehicle_type_id":"4","last_reported":1744308846,"current_range_meters":14800,"station_id":"ce4bhap2rcd13ifvqek0","pricing_plan_id":"cebpf4jnsgd1na2vs0mg"},{"bike_id":"159caf0f-7def-4fe2-b59d-92eda57895d1","system_id":"levelo_inurba_marseille","lat":43.28957,"lon":5.36413,"is_reserved":false,"is_disabled":false,"rental_uris":{"android":"levelo://app?vid=159caf0f-7def-4fe2-b59d-92eda57895d1","ios":"levelo://app?vid=159caf0f-7def-4fe2-b59d-92eda57895d1"},"vehicle_type_id":"4","last_reported":1744308846,"current_range_meters":14400,"station_id":"ce4bhc92rcd13ifvqetg","pricing_plan_id":"cebpf4jnsgd1na2vs0mg"},{"bike_id":"d9d3e481-deed-4a39-96d1-056de30293d3","system_id":"levelo_inurba_marseille","lat":43.30258,"lon":5.40075,"is_reserved":false,"is_disabled":false,"rental_uris":{"android":"levelo://app?vid=d9d3e481-deed-4a39-96d1-056de30293d3","ios":"levelo://app?vid=d9d3e481-deed-4a39-96d1-056de30293d3"},"vehicle_type_id":"4","last_reported":1744308846,"current_range_meters":14800,"station_id":"ce4bgvh2rcd13ifvqcs0","pricing_plan_id":"cebpf4jnsgd1na2vs0mg"},{"bike_id":"2f604b1b-d5c1-4825-8a1c-02d30e0bb26a","system_id":"levelo_inurba_marseille","lat":43.31074,"lon":5.38363,"is_reserved":false,"is_disabled":false,"rental_uris":{"android":"levelo://app?vid=2f604b1b-d5c1-4825-8a1c-02d30e0bb26a","ios":"levelo://app?vid=2f604b1b-d5c1-4825-8a1c-02d30e0bb26a"},"vehicle_type_id":"4","last_reported":1744308846,"current_range_meters":14800,"station_id":"ce4bgv92rcd13ifvqcr0","pricing_plan_id":"cebpf4jnsgd1na2vs0mg"},{"bike_id":"9c07b687-0cca-4a28-82f6-66c50d295640","system_id":"levelo_inurba_marseille","lat":43.323543,"lon":5.383373,"is_reserved":false,"is_disabled":false,"rental_uris":{"android":"levelo://app?vid=9c07b687-0cca-4a28-82f6-66c50d295640","ios":"levelo://app?vid=9c07b687-0cca-4a28-82f6-66c50d295640"},"vehicle_type_id":"4","last_reported":1744308846,"current_range_meters":14800,"station_id":"","pricing_plan_id":"cebpf4jnsgd1na2vs0mg"},{"bike_id":"40e851f2-c205-467a-9c6b-52a5c6c7e865","system_id":"levelo_inurba_marseille","lat":43.25867,"lon":5.39896,"is_reserved":false,"is_disabled":false,"rental_uris":{"android":"levelo://app?vid=40e851f2-c205-467a-9c6b-52a5c6c7e865","ios":"levelo://app?vid=40e851f2-c205-467a-9c6b-52a5c6c7e865"},"vehicle_type_id":"4","last_reported":1744308846,"current_range_meters":14800,"station_id":"ce4bhl92rcd13ifvqghg","pricing_plan_id":"cebpf4jnsgd1na2vs0mg"},{"bike_id":"060e769c-6ffe-46c6-8a40-62d7f6d9c812","system_id":"levelo_inurba_marseille","lat":43.2926,"lon":5.38438,"is_reserved":false,"is_disabled":false,"rental_uris":{"android":"levelo://app?vid=060e769c-6ffe-46c6-8a40-62d7f6d9c812","ios":"levelo://app?vid=060e769c-6ffe-46c6-8a40-62d7f6d9c812"},"vehicle_type_id":"4","last_reported":1744308846,"current_range_meters":14800,"station_id":"ce4bh692rcd13ifvqea0","pricing_plan_id":"cebpf4jnsgd1na2vs0mg"},{"bike_id":"1620bc0a-1877-448f-9cca-ca01e1c25c16","system_id":"levelo_inurba_marseille","lat":43.30531,"lon":5.3842,"is_reserved":false,"is_disabled":false,"rental_uris":{"android":"levelo://app?vid=1620bc0a-1877-448f-9cca-ca01e1c25c16","ios":"levelo://app?vid=1620bc0a-1877-448f-9cca-ca01e1c25c16"},"vehicle_type_id":"4","last_reported":1744308846,"current_range_meters":14800,"station_id":"ce4bgg92rcd13ifvqb30","pricing_plan_id":"cebpf4jnsgd1na2vs0mg"},{"bike_id":"26668775-3ed9-4afd-8ebc-23933930ece0","system_id":"levelo_inurba_marseille","lat":43.29077,"lon":5.37172,"is_reserved":false,"is_disabled":false,"rental_uris":{"android":"levelo://app?vid=26668775-3ed9-4afd-8ebc-23933930ece0","ios":"levelo://app?vid=26668775-3ed9-4afd-8ebc-23933930ece0"},"vehicle_type_id":"4","last_reported":1744308846,"current_range_meters":14800,"station_id":"ce4bh5p2rcd13ifvqe4g","pricing_plan_id":"cebpf4jnsgd1na2vs0mg"},{"bike_id":"badfd41d-bbe0-48c1-a645-6e3b67ac22f9","system_id":"levelo_inurba_marseille","lat":43.26943,"lon":5.36669,"is_reserved":false,"is_disabled":false,"rental_uris":{"android":"levelo://app?vid=badfd41d-bbe0-48c1-a645-6e3b67ac22f9","ios":"levelo://app?vid=badfd41d-bbe0-48c1-a645-6e3b67ac22f9"},"vehicle_type_id":"4","last_reported":1744308846,"current_range_meters":15200,"station_id":"ce4bhg12rcd13ifvqf70","pricing_plan_id":"cebpf4jnsgd1na2vs0mg"},{"bike_id":"33dd4749-e852-436d-a750-1eeef8ef5cee","system_id":"levelo_inurba_marseille","lat":43.30312,"lon":5.36899,"is_reserved":false,"is_disabled":false,"rental_uris":{"android":"levelo://app?vid=33dd4749-e852-436d-a750-1eeef8ef5cee","ios":"levelo://app?vid=33dd4749-e852-436d-a750-1eeef8ef5cee"},"vehicle_type_id":"4","last_reported":1744308846,"current_range_meters":15200,"station_id":"ce4bgqh2rcd13ifvqc5g","pricing_plan_id":"cebpf4jnsgd1na2vs0mg"},{"bike_id":"8d928683-fd19-4e85-a705-949f44a3bf51","system_id":"levelo_inurba_marseille","lat":43.27655,"lon":5.36137,"is_reserved":false,"is_disabled":false,"rental_uris":{"android":"levelo://app?vid=8d928683-fd19-4e85-a705-949f44a3bf51","ios":"levelo://app?vid=8d928683-fd19-4e85-a705-949f44a3bf51"},"vehicle_type_id":"4","last_reported":1744308846,"current_range_meters":15200,"station_id":"","pricing_plan_id":"cebpf4jnsgd1na2vs0mg"},{"bike_id":"6e38b321-a309-4117-a206-04568d8162f3","system_id":"levelo_inurba_marseille","lat":43.29008,"lon":5.35615,"is_reserved":false,"is_disabled":false,"rental_uris":{"android":"levelo://app?vid=6e38b321-a309-4117-a206-04568d8162f3","ios":"levelo://app?vid=6e38b321-a309-4117-a206-04568d8162f3"},"vehicle_type_id":"4","last_reported":1744308846,"current_range_meters":15200,"station_id":"ce4bhb92rcd13ifvqen0","pricing_plan_id":"cebpf4jnsgd1na2vs0mg"},{"bike_id":"f65dbe6f-a8a0-4aa1-87a6-a3a7af51000d","system_id":"levelo_inurba_marseille","lat":43.286135,"lon":5.35107,"is_reserved":false,"is_disabled":false,"rental_uris":{"android":"levelo://app?vid=f65dbe6f-a8a0-4aa1-87a6-a3a7af51000d","ios":"levelo://app?vid=f65dbe6f-a8a0-4aa1-87a6-a3a7af51000d"},"vehicle_type_id":"4","last_reported":1744308846,"current_range_meters":15200,"station_id":"ce4bhch2rcd13ifvqeug","pricing_plan_id":"cebpf4jnsgd1na2vs0mg"},{"bike_id":"0922821c-4e1d-4817-9469-860e55f8f0d1","system_id":"levelo_inurba_marseille","lat":43.337444,"lon":5.374475,"is_reserved":false,"is_disabled":false,"rental_uris":{"android":"levelo://app?vid=0922821c-4e1d-4817-9469-860e55f8f0d1","ios":"levelo://app?vid=0922821c-4e1d-4817-9469-860e55f8f0d1"},"vehicle_type_id":"4","last_reported":1744308846,"current_range_meters":15200,"station_id":"","pricing_plan_id":"cebpf4jnsgd1na2vs0mg"},{"bike_id":"17263dba-3a35-4838-983f-3d8d965c6bab","system_id":"levelo_inurba_marseille","lat":43.28998,"lon":5.35608,"is_reserved":false,"is_disabled":false,"rental_uris":{"android":"levelo://app?vid=17263dba-3a35-4838-983f-3d8d965c6bab","ios":"levelo://app?vid=17263dba-3a35-4838-983f-3d8d965c6bab"},"vehicle_type_id":"4","last_reported":1744308846,"current_range_meters":16000,"station_id":"ce4bhb92rcd13ifvqen0","pricing_plan_id":"cebpf4jnsgd1na2vs0mg"},{"bike_id":"23718e9a-5ce7-4d28-99a5-8f754f56e13c","system_id":"levelo_inurba_marseille","lat":43.22517,"lon":5.34783,"is_reserved":false,"is_disabled":false,"rental_uris":{"android":"levelo://app?vid=23718e9a-5ce7-4d28-99a5-8f754f56e13c","ios":"levelo://app?vid=23718e9a-5ce7-4d28-99a5-8f754f56e13c"},"vehicle_type_id":"4","last_reported":1744308846,"current_range_meters":16400,"station_id":"","pricing_plan_id":"cebpf4jnsgd1na2vs0mg"},{"bike_id":"dc71c31d-274a-4d6c-9eba-afdd37c9709a","system_id":"levelo_inurba_marseille","lat":43.2407,"lon":5.37762,"is_reserved":false,"is_disabled":false,"rental_uris":{"android":"levelo://app?vid=dc71c31d-274a-4d6c-9eba-afdd37c9709a","ios":"levelo://app?vid=dc71c31d-274a-4d6c-9eba-afdd37c9709a"},"vehicle_type_id":"4","last_reported":1744308846,"current_range_meters":16000,"station_id":"ce4bhnp2rcd13ifvqgvg","pricing_plan_id":"cebpf4jnsgd1na2vs0mg"},{"bike_id":"83be441f-460c-46c9-b1d4-968776a570bd","system_id":"levelo_inurba_marseille","lat":43.26549,"lon":5.37287,"is_reserved":false,"is_disabled":false,"rental_uris":{"android":"levelo://app?vid=83be441f-460c-46c9-b1d4-968776a570bd","ios":"levelo://app?vid=83be441f-460c-46c9-b1d4-968776a570bd"},"vehicle_type_id":"4","last_reported":1744308846,"current_range_meters":16000,"station_id":"ce4bhg12rcd13ifvqf70","pricing_plan_id":"cebpf4jnsgd1na2vs0mg"},{"bike_id":"a034f737-c7d2-4943-9d22-7ee87c8de504","system_id":"levelo_inurba_marseille","lat":43.284208,"lon":5.349896,"is_reserved":false,"is_disabled":false,"rental_uris":{"android":"levelo://app?vid=a034f737-c7d2-4943-9d22-7ee87c8de504","ios":"levelo://app?vid=a034f737-c7d2-4943-9d22-7ee87c8de504"},"vehicle_type_id":"4","last_reported":1744308846,"current_range_meters":16000,"station_id":"ce4bhbh2rcd13ifvqepg","pricing_plan_id":"cebpf4jnsgd1na2vs0mg"},{"bike_id":"992d1ab1-2ef4-454c-a3db-15c7eedd594f","system_id":"levelo_inurba_marseille","lat":43.28871,"lon":5.35855,"is_reserved":false,"is_disabled":false,"rental_uris":{"android":"levelo://app?vid=992d1ab1-2ef4-454c-a3db-15c7eedd594f","ios":"levelo://app?vid=992d1ab1-2ef4-454c-a3db-15c7eedd594f"},"vehicle_type_id":"4","last_reported":1744308846,"current_range_meters":16000,"station_id":"ce4bhb12rcd13ifvqem0","pricing_plan_id":"cebpf4jnsgd1na2vs0mg"},{"bike_id":"0be42ab3-a778-4754-bcb5-9073f31aa2e7","system_id":"levelo_inurba_marseille","lat":43.30903,"lon":5.39667,"is_reserved":false,"is_disabled":false,"rental_uris":{"android":"levelo://app?vid=0be42ab3-a778-4754-bcb5-9073f31aa2e7","ios":"levelo://app?vid=0be42ab3-a778-4754-bcb5-9073f31aa2e7"},"vehicle_type_id":"4","last_reported":1744308846,"current_range_meters":16000,"station_id":"ce4bh012rcd13ifvqcv0","pricing_plan_id":"cebpf4jnsgd1na2vs0mg"},{"bike_id":"bf38a76f-ade5-427d-8e61-1f69e18e00ae","system_id":"levelo_inurba_marseille","lat":43.2862,"lon":5.35101,"is_reserved":false,"is_disabled":false,"rental_uris":{"android":"levelo://app?vid=bf38a76f-ade5-427d-8e61-1f69e18e00ae","ios":"levelo://app?vid=bf38a76f-ade5-427d-8e61-1f69e18e00ae"},"vehicle_type_id":"4","last_reported":1744308846,"current_range_meters":16000,"station_id":"ce4bhch2rcd13ifvqeug","pricing_plan_id":"cebpf4jnsgd1na2vs0mg"},{"bike_id":"ea8f9db4-170c-4210-9c8b-163a56406ceb","system_id":"levelo_inurba_marseille","lat":43.28938,"lon":5.36633,"is_reserved":false,"is_disabled":false,"rental_uris":{"android":"levelo://app?vid=ea8f9db4-170c-4210-9c8b-163a56406ceb","ios":"levelo://app?vid=ea8f9db4-170c-4210-9c8b-163a56406ceb"},"vehicle_type_id":"4","last_reported":1744308846,"current_range_meters":16400,"station_id":"ce4bhap2rcd13ifvqek0","pricing_plan_id":"cebpf4jnsgd1na2vs0mg"},{"bike_id":"a737f5db-dfb3-4dd8-aeff-67617975e190","system_id":"levelo_inurba_marseille","lat":43.29609,"lon":5.3776,"is_reserved":false,"is_disabled":true,"rental_uris":{"android":"levelo://app?vid=a737f5db-dfb3-4dd8-aeff-67617975e190","ios":"levelo://app?vid=a737f5db-dfb3-4dd8-aeff-67617975e190"},"vehicle_type_id":"4","last_reported":1744308846,"current_range_meters":16400,"station_id":"ce4bgi92rcd13ifvqb90","pricing_plan_id":"cebpf4jnsgd1na2vs0mg"},{"bike_id":"52c3b748-b29e-4ce9-aba4-2948b8a19d23","system_id":"levelo_inurba_marseille","lat":43.28429,"lon":5.3501,"is_reserved":false,"is_disabled":false,"rental_uris":{"android":"levelo://app?vid=52c3b748-b29e-4ce9-aba4-2948b8a19d23","ios":"levelo://app?vid=52c3b748-b29e-4ce9-aba4-2948b8a19d23"},"vehicle_type_id":"4","last_reported":1744308846,"current_range_meters":16400,"station_id":"ce4bhbh2rcd13ifvqepg","pricing_plan_id":"cebpf4jnsgd1na2vs0mg"},{"bike_id":"07fca2a0-d255-4df6-ad2b-ca59debd6b87","system_id":"levelo_inurba_marseille","lat":43.3176,"lon":5.39032,"is_reserved":false,"is_disabled":false,"rental_uris":{"android":"levelo://app?vid=07fca2a0-d255-4df6-ad2b-ca59debd6b87","ios":"levelo://app?vid=07fca2a0-d255-4df6-ad2b-ca59debd6b87"},"vehicle_type_id":"4","last_reported":1744308846,"current_range_meters":16000,"station_id":"ce4bhqp2rcd13ifvqhng","pricing_plan_id":"cebpf4jnsgd1na2vs0mg"},{"bike_id":"5787e348-4c9b-4f11-91a8-6ee68c293924","system_id":"levelo_inurba_marseille","lat":43.27615,"lon":5.36106,"is_reserved":false,"is_disabled":false,"rental_uris":{"android":"levelo://app?vid=5787e348-4c9b-4f11-91a8-6ee68c293924","ios":"levelo://app?vid=5787e348-4c9b-4f11-91a8-6ee68c293924"},"vehicle_type_id":"4","last_reported":1744308846,"current_range_meters":16400,"station_id":"ce4bgj92rcd13ifvqbe0","pricing_plan_id":"cebpf4jnsgd1na2vs0mg"},{"bike_id":"45e60039-c30c-4b59-a6a5-14c5d838d1d5","system_id":"levelo_inurba_marseille","lat":43.29873,"lon":5.38917,"is_reserved":false,"is_disabled":false,"rental_uris":{"android":"levelo://app?vid=45e60039-c30c-4b59-a6a5-14c5d838d1d5","ios":"levelo://app?vid=45e60039-c30c-4b59-a6a5-14c5d838d1d5"},"vehicle_type_id":"4","last_reported":1744308846,"current_range_meters":16000,"station_id":"ce4bh392rcd13ifvqdl0","pricing_plan_id":"cebpf4jnsgd1na2vs0mg"},{"bike_id":"94455896-0f19-4fae-bd72-9879f01fcd6e","system_id":"levelo_inurba_marseille","lat":43.29547,"lon":5.42273,"is_reserved":false,"is_disabled":true,"rental_uris":{"android":"levelo://app?vid=94455896-0f19-4fae-bd72-9879f01fcd6e","ios":"levelo://app?vid=94455896-0f19-4fae-bd72-9879f01fcd6e"},"vehicle_type_id":"4","last_reported":1744308846,"current_range_meters":16400,"station_id":"ce4bhph2rcd13ifvqhdg","pricing_plan_id":"cebpf4jnsgd1na2vs0mg"},{"bike_id":"1a8675f7-96a5-4fc2-8fd4-53f39f26b59b","system_id":"levelo_inurba_marseille","lat":43.32397,"lon":5.38997,"is_reserved":false,"is_disabled":false,"rental_uris":{"android":"levelo://app?vid=1a8675f7-96a5-4fc2-8fd4-53f39f26b59b","ios":"levelo://app?vid=1a8675f7-96a5-4fc2-8fd4-53f39f26b59b"},"vehicle_type_id":"4","last_reported":1744308846,"current_range_meters":16400,"station_id":"ce4bhr12rcd13ifvqhqg","pricing_plan_id":"cebpf4jnsgd1na2vs0mg"},{"bike_id":"0a636a6f-5979-441c-b8e8-c8299e75ca80","system_id":"levelo_inurba_marseille","lat":43.27957,"lon":5.38705,"is_reserved":false,"is_disabled":false,"rental_uris":{"android":"levelo://app?vid=0a636a6f-5979-441c-b8e8-c8299e75ca80","ios":"levelo://app?vid=0a636a6f-5979-441c-b8e8-c8299e75ca80"},"vehicle_type_id":"4","last_reported":1744308846,"current_range_meters":16400,"station_id":"ce4bhg12rcd13ifvqf80","pricing_plan_id":"cebpf4jnsgd1na2vs0mg"},{"bike_id":"b5b2dc97-7651-48a9-b9f8-5e815834b620","system_id":"levelo_inurba_marseille","lat":43.22504,"lon":5.34791,"is_reserved":false,"is_disabled":false,"rental_uris":{"android":"levelo://app?vid=b5b2dc97-7651-48a9-b9f8-5e815834b620","ios":"levelo://app?vid=b5b2dc97-7651-48a9-b9f8-5e815834b620"},"vehicle_type_id":"4","last_reported":1744308846,"current_range_meters":16800,"station_id":"st_cvj5dfep6f1abm77gieg","pricing_plan_id":"cebpf4jnsgd1na2vs0mg"},{"bike_id":"467924d9-889a-4591-a26d-c954ba0abb33","system_id":"levelo_inurba_marseille","lat":43.32381,"lon":5.38992,"is_reserved":false,"is_disabled":false,"rental_uris":{"android":"levelo://app?vid=467924d9-889a-4591-a26d-c954ba0abb33","ios":"levelo://app?vid=467924d9-889a-4591-a26d-c954ba0abb33"},"vehicle_type_id":"4","last_reported":1744308846,"current_range_meters":16800,"station_id":"","pricing_plan_id":"cebpf4jnsgd1na2vs0mg"},{"bike_id":"ddc0d0f8-e0f6-412f-8ae0-5f381fd80822","system_id":"levelo_inurba_marseille","lat":43.27575,"lon":5.38432,"is_reserved":false,"is_disabled":false,"rental_uris":{"android":"levelo://app?vid=ddc0d0f8-e0f6-412f-8ae0-5f381fd80822","ios":"levelo://app?vid=ddc0d0f8-e0f6-412f-8ae0-5f381fd80822"},"vehicle_type_id":"4","last_reported":1744308846,"current_range_meters":16800,"station_id":"ce4bhh92rcd13ifvqfi0","pricing_plan_id":"cebpf4jnsgd1na2vs0mg"},{"bike_id":"dc1a15c3-2327-43da-ba36-b9de9f5ed0e4","system_id":"levelo_inurba_marseille","lat":43.28727,"lon":5.36091,"is_reserved":false,"is_disabled":false,"rental_uris":{"android":"levelo://app?vid=dc1a15c3-2327-43da-ba36-b9de9f5ed0e4","ios":"levelo://app?vid=dc1a15c3-2327-43da-ba36-b9de9f5ed0e4"},"vehicle_type_id":"4","last_reported":1744308846,"current_range_meters":16800,"station_id":"cki0cbj6b192h4jlfktg","pricing_plan_id":"cebpf4jnsgd1na2vs0mg"},{"bike_id":"f50e806a-9a67-4671-b60f-6adbb66239c2","system_id":"levelo_inurba_marseille","lat":43.29262,"lon":5.3763,"is_reserved":false,"is_disabled":false,"rental_uris":{"android":"levelo://app?vid=f50e806a-9a67-4671-b60f-6adbb66239c2","ios":"levelo://app?vid=f50e806a-9a67-4671-b60f-6adbb66239c2"},"vehicle_type_id":"4","last_reported":1744308846,"current_range_meters":16800,"station_id":"ce4bgi12rcd13ifvqb80","pricing_plan_id":"cebpf4jnsgd1na2vs0mg"},{"bike_id":"182650a6-9433-4951-80ba-44b6e3878dab","system_id":"levelo_inurba_marseille","lat":43.30575,"lon":5.38436,"is_reserved":false,"is_disabled":true,"rental_uris":{"android":"levelo://app?vid=182650a6-9433-4951-80ba-44b6e3878dab","ios":"levelo://app?vid=182650a6-9433-4951-80ba-44b6e3878dab"},"vehicle_type_id":"4","last_reported":1744308846,"current_range_meters":16800,"station_id":"ce4bgg92rcd13ifvqb30","pricing_plan_id":"cebpf4jnsgd1na2vs0mg"},{"bike_id":"59af0944-86d6-45fe-b437-a024b34a447e","system_id":"levelo_inurba_marseille","lat":43.273838,"lon":5.362678,"is_reserved":false,"is_disabled":false,"rental_uris":{"android":"levelo://app?vid=59af0944-86d6-45fe-b437-a024b34a447e","ios":"levelo://app?vid=59af0944-86d6-45fe-b437-a024b34a447e"},"vehicle_type_id":"4","last_reported":1744308846,"current_range_meters":16800,"station_id":"ce4bhbh2rcd13ifvqeo0","pricing_plan_id":"cebpf4jnsgd1na2vs0mg"},{"bike_id":"22e2033a-a27f-41af-bdc7-27fa264ec92d","system_id":"levelo_inurba_marseille","lat":43.31074,"lon":5.42464,"is_reserved":false,"is_disabled":false,"rental_uris":{"android":"levelo://app?vid=22e2033a-a27f-41af-bdc7-27fa264ec92d","ios":"levelo://app?vid=22e2033a-a27f-41af-bdc7-27fa264ec92d"},"vehicle_type_id":"4","last_reported":1744308846,"current_range_meters":16800,"station_id":"ce4bhp92rcd13ifvqhag","pricing_plan_id":"cebpf4jnsgd1na2vs0mg"},{"bike_id":"1819d3d9-5063-463d-960e-003bcf0c4b3a","system_id":"levelo_inurba_marseille","lat":43.30375,"lon":5.42491,"is_reserved":false,"is_disabled":false,"rental_uris":{"android":"levelo://app?vid=1819d3d9-5063-463d-960e-003bcf0c4b3a","ios":"levelo://app?vid=1819d3d9-5063-463d-960e-003bcf0c4b3a"},"vehicle_type_id":"4","last_reported":1744308846,"current_range_meters":16800,"station_id":"ce4bhoh2rcd13ifvqh6g","pricing_plan_id":"cebpf4jnsgd1na2vs0mg"},{"bike_id":"463b41fd-37bb-48c0-a6e4-12f737a3d7cf","system_id":"levelo_inurba_marseille","lat":43.26939,"lon":5.4028,"is_reserved":false,"is_disabled":true,"rental_uris":{"android":"levelo://app?vid=463b41fd-37bb-48c0-a6e4-12f737a3d7cf","ios":"levelo://app?vid=463b41fd-37bb-48c0-a6e4-12f737a3d7cf"},"vehicle_type_id":"4","last_reported":1744308846,"current_range_meters":17200,"station_id":"cjm6bp8fraef2m0cb0m0","pricing_plan_id":"cebpf4jnsgd1na2vs0mg"},{"bike_id":"e5d58615-2b41-44f2-a0de-d0338bae1857","system_id":"levelo_inurba_marseille","lat":43.29271,"lon":5.3684,"is_reserved":false,"is_disabled":false,"rental_uris":{"android":"levelo://app?vid=e5d58615-2b41-44f2-a0de-d0338bae1857","ios":"levelo://app?vid=e5d58615-2b41-44f2-a0de-d0338bae1857"},"vehicle_type_id":"4","last_reported":1744308846,"current_range_meters":17200,"station_id":"ce4bhbp2rcd13ifvqesg","pricing_plan_id":"cebpf4jnsgd1na2vs0mg"},{"bike_id":"a7aa57e6-00d8-447d-a822-3e2651d0b6db","system_id":"levelo_inurba_marseille","lat":43.29972,"lon":5.38492,"is_reserved":false,"is_disabled":false,"rental_uris":{"android":"levelo://app?vid=a7aa57e6-00d8-447d-a822-3e2651d0b6db","ios":"levelo://app?vid=a7aa57e6-00d8-447d-a822-3e2651d0b6db"},