{"last_updated":1743232117,"ttl":60,"version":"2.2","data":{"bikes":[{"bike_id":"49c214c6-bda1-4b8d-ac2f-f4e19ce0c80c","system_id":"levelo_inurba_marseille","lat":43.29955,"lon":5.38505,"is_reserved":false,"is_disabled":false,"rental_uris":{"android":"levelo://app?vid=49c214c6-bda1-4b8d-ac2f-f4e19ce0c80c","ios":"levelo://app?vid=49c214c6-bda1-4b8d-ac2f-f4e19ce0c80c"},"vehicle_type_id":"4","last_reported":1743232118,"current_range_meters":2800,"station_id":"ce4bgj92rcd13ifvqbd0","pricing_plan_id":"cebpf4jnsgd1na2vs0mg"},{"bike_id":"980ff761-ef4f-469b-8661-624f949ac9ec","system_id":"levelo_inurba_marseille","lat":43.25806,"lon":5.39453,"is_reserved":false,"is_disabled":false,"rental_uris":{"android":"levelo://app?vid=980ff761-ef4f-469b-8661-624f949ac9ec","ios":"levelo://app?vid=980ff761-ef4f-469b-8661-624f949ac9ec"},"vehicle_type_id":"4","last_reported":1743232118,"current_range_meters":2800,"station_id":"ce4bhip2rcd13ifvqft0","pricing_plan_id":"cebpf4jnsgd1na2vs0mg"},{"bike_id":"562d152b-de7c-40bf-84ea-a8d455a931c4","system_id":"levelo_inurba_marseille","lat":43.3059,"lon":5.37222,"is_reserved":false,"is_disabled":false,"rental_uris":{"android":"levelo://app?vid=562d152b-de7c-40bf-84ea-a8d455a931c4","ios":"levelo://app?vid=562d152b-de7c-40bf-84ea-a8d455a931c4"},"vehicle_type_id":"4","last_reported":1743232118,"current_range_meters":2800,"station_id":"ce4bgqh2rcd13ifvqc4g","pricing_plan_id":"cebpf4jnsgd1na2vs0mg"},{"bike_id":"f264c0e3-93c9-4f1d-9365-cc6236e6ec76","system_id":"levelo_inurba_marseille","lat":43.28711,"lon":5.36121,"is_reserved":false,"is_disabled":false,"rental_uris":{"android":"levelo://app?vid=f264c0e3-93c9-4f1d-9365-cc6236e6ec76","ios":"levelo://app?vid=f264c0e3-93c9-4f1d-9365-cc6236e6ec76"},"vehicle_type_id":"4","last_reported":1743232118,"current_range_meters":2800,"station_id":"cki0cbj6b192h4jlfktg","pricing_plan_id":"cebpf4jnsgd1na2vs0mg"},{"bike_id":"9b6b5664-07f9-450e-a946-ff576f414882","system_id":"levelo_inurba_marseille","lat":43.27974,"lon":5.38589,"is_reserved":false,"is_disabled":true,"rental_uris":{"android":"levelo://app?vid=9b6b5664-07f9-450e-a946-ff576f414882","ios":"levelo://app?vid=9b6b5664-07f9-450e-a946-ff576f414882"},"vehicle_type_id":"4","last_reported":1743232118,"current_range_meters":2800,"station_id":"","pricing_plan_id":"cebpf4jnsgd1na2vs0mg"},{"bike_id":"a9d7c1ae-b643-49b7-9ccd-983bf21286c3","system_id":"levelo_inurba_marseille","lat":43.299258,"lon":5.374734,"is_reserved":false,"is_disabled":false,"rental_uris":{"android":"levelo://app?vid=a9d7c1ae-b643-49b7-9ccd-983bf21286c3","ios":"levelo://app?vid=a9d7c1ae-b643-49b7-9ccd-983bf21286c3"},"vehicle_type_id":"4","last_reported":1743232118,"current_range_meters":2800,"station_id":"ce4bgjh2rcd13ifvqbg0","pricing_plan_id":"cebpf4jnsgd1na2vs0mg"},{"bike_id":"fb94d37c-a5f0-424c-9c95-a0f43cd760b8","system_id":"levelo_inurba_marseille","lat":43.30416,"lon":5.39757,"is_reserved":false,"is_disabled":true,"rental_uris":{"android":"levelo://app?vid=fb94d37c-a5f0-424c-9c95-a0f43cd760b8","ios":"levelo://app?vid=fb94d37c-a5f0-424c-9c95-a0f43cd760b8"},"vehicle_type_id":"4","last_reported":1743232118,"current_range_meters":2800,"station_id":"ce4bh092rcd13ifvqd20","pricing_plan_id":"cebpf4jnsgd1na2vs0mg"},{"bike_id":"19221227-42ec-4f4b-8f04-42a0818e22f5","system_id":"levelo_inurba_marseille","lat":43.32079,"lon":5.36816,"is_reserved":false,"is_disabled":true,"rental_uris":{"android":"levelo://app?vid=19221227-42ec-4f4b-8f04-42a0818e22f5","ios":"levelo://app?vid=19221227-42ec-4f4b-8f04-42a0818e22f5"},"vehicle_type_id":"4","last_reported":1743232118,"current_range_meters":3200,"station_id":"ce4bhrh2rcd13ifvqhug","pricing_plan_id":"cebpf4jnsgd1na2vs0mg"},{"bike_id":"fc8e8371-f4e9-4721-bc19-563801e389dc","system_id":"levelo_inurba_marseille","lat":43.337444,"lon":5.374475,"is_reserved":false,"is_disabled":false,"rental_uris":{"android":"levelo://app?vid=fc8e8371-f4e9-4721-bc19-563801e389dc","ios":"levelo://app?vid=fc8e8371-f4e9-4721-bc19-563801e389dc"},"vehicle_type_id":"4","last_reported":1743232118,"current_range_meters":3200,"station_id":"","pricing_plan_id":"cebpf4jnsgd1na2vs0mg"},{"bike_id":"7fe9a38f-4d97-49ec-8db6-139f7c5ded5a","system_id":"levelo_inurba_marseille","lat":43.28896,"lon":5.36731,"is_reserved":false,"is_disabled":false,"rental_uris":{"android":"levelo://app?vid=7fe9a38f-4d97-49ec-8db6-139f7c5ded5a","ios":"levelo://app?vid=7fe9a38f-4d97-49ec-8db6-139f7c5ded5a"},"vehicle_type_id":"4","last_reported":1743232118,"current_range_meters":3600,"station_id":"","pricing_plan_id":"cebpf4jnsgd1na2vs0mg"},{"bike_id":"dcdfd9e0-c7f1-448b-8be0-772c5b33f307","system_id":"levelo_inurba_marseille","lat":43.31734,"lon":5.40499,"is_reserved":false,"is_disabled":false,"rental_uris":{"android":"levelo://app?vid=dcdfd9e0-c7f1-448b-8be0-772c5b33f307","ios":"levelo://app?vid=dcdfd9e0-c7f1-448b-8be0-772c5b33f307"},"vehicle_type_id":"4","last_reported":1743232118,"current_range_meters":3600,"station_id":"","pricing_plan_id":"cebpf4jnsgd1na2vs0mg"},{"bike_id":"67a1a2f2-eb76-40dd-b124-62581646fa46","system_id":"levelo_inurba_marseille","lat":43.28034,"lon":5.36951,"is_reserved":false,"is_disabled":false,"rental_uris":{"android":"levelo://app?vid=67a1a2f2-eb76-40dd-b124-62581646fa46","ios":"levelo://app?vid=67a1a2f2-eb76-40dd-b124-62581646fa46"},"vehicle_type_id":"4","last_reported":1743232118,"current_range_meters":3600,"station_id":"ce4bha12rcd13ifvqef0","pricing_plan_id":"cebpf4jnsgd1na2vs0mg"},{"bike_id":"c14a8fc7-e8db-45ab-b563-5fdd959cef0f","system_id":"levelo_inurba_marseille","lat":43.26028,"lon":5.41739,"is_reserved":false,"is_disabled":false,"rental_uris":{"android":"levelo://app?vid=c14a8fc7-e8db-45ab-b563-5fdd959cef0f","ios":"levelo://app?vid=c14a8fc7-e8db-45ab-b563-5fdd959cef0f"},"vehicle_type_id":"4","last_reported":1743232118,"current_range_meters":3600,"station_id":"","pricing_plan_id":"cebpf4jnsgd1na2vs0mg"},{"bike_id":"3801425b-e231-40ba-bc6c-f689dbd7e8f2","system_id":"levelo_inurba_marseille","lat":43.24671,"lon":5.38167,"is_reserved":false,"is_disabled":false,"rental_uris":{"android":"levelo://app?vid=3801425b-e231-40ba-bc6c-f689dbd7e8f2","ios":"levelo://app?vid=3801425b-e231-40ba-bc6c-f689dbd7e8f2"},"vehicle_type_id":"4","last_reported":1743232118,"current_range_meters":3600,"station_id":"ce4bhih2rcd13ifvqfr0","pricing_plan_id":"cebpf4jnsgd1na2vs0mg"},{"bike_id":"bdf77a47-5dce-4034-bfb2-e15bc7df990f","system_id":"levelo_inurba_marseille","lat":43.30591,"lon":5.39342,"is_reserved":false,"is_disabled":false,"rental_uris":{"android":"levelo://app?vid=bdf77a47-5dce-4034-bfb2-e15bc7df990f","ios":"levelo://app?vid=bdf77a47-5dce-4034-bfb2-e15bc7df990f"},"vehicle_type_id":"4","last_reported":1743232118,"current_range_meters":4000,"station_id":"ce4bh0p2rcd13ifvqd80","pricing_plan_id":"cebpf4jnsgd1na2vs0mg"},{"bike_id":"337eae03-dc56-489d-8a4b-db46835d291b","system_id":"levelo_inurba_marseille","lat":43.29786,"lon":5.38115,"is_reserved":false,"is_disabled":false,"rental_uris":{"android":"levelo://app?vid=337eae03-dc56-489d-8a4b-db46835d291b","ios":"levelo://app?vid=337eae03-dc56-489d-8a4b-db46835d291b"},"vehicle_type_id":"4","last_reported":1743232118,"current_range_meters":4000,"station_id":"ce4bgip2rcd13ifvqbb0","pricing_plan_id":"cebpf4jnsgd1na2vs0mg"},{"bike_id":"ddb3e057-8a1c-4f4a-8056-17b5b845e0b9","system_id":"levelo_inurba_marseille","lat":43.280942,"lon":5.398758,"is_reserved":false,"is_disabled":false,"rental_uris":{"android":"levelo://app?vid=ddb3e057-8a1c-4f4a-8056-17b5b845e0b9","ios":"levelo://app?vid=ddb3e057-8a1c-4f4a-8056-17b5b845e0b9"},"vehicle_type_id":"4","last_reported":1743232118,"current_range_meters":4000,"station_id":"","pricing_plan_id":"cebpf4jnsgd1na2vs0mg"},{"bike_id":"936627ce-2d98-4b08-be4d-c8b4627e7825","system_id":"levelo_inurba_marseille","lat":43.28033,"lon":5.36949,"is_reserved":false,"is_disabled":false,"rental_uris":{"android":"levelo://app?vid=936627ce-2d98-4b08-be4d-c8b4627e7825","ios":"levelo://app?vid=936627ce-2d98-4b08-be4d-c8b4627e7825"},"vehicle_type_id":"4","last_reported":1743232118,"current_range_meters":4000,"station_id":"ce4bha12rcd13ifvqef0","pricing_plan_id":"cebpf4jnsgd1na2vs0mg"},{"bike_id":"a8378dcb-c63c-4ffe-9fb7-885a8f569a7a","system_id":"levelo_inurba_marseille","lat":43.231889,"lon":5.399848,"is_reserved":false,"is_disabled":false,"rental_uris":{"android":"levelo://app?vid=a8378dcb-c63c-4ffe-9fb7-885a8f569a7a","ios":"levelo://app?vid=a8378dcb-c63c-4ffe-9fb7-885a8f569a7a"},"vehicle_type_id":"4","last_reported":1743232118,"current_range_meters":4000,"station_id":"ce4bhn12rcd13ifvqgqg","pricing_plan_id":"cebpf4jnsgd1na2vs0mg"},{"bike_id":"b017764e-0631-4a98-976b-6e4065ed92c5","system_id":"levelo_inurba_marseille","lat":43.28458,"lon":5.38459,"is_reserved":false,"is_disabled":false,"rental_uris":{"android":"levelo://app?vid=b017764e-0631-4a98-976b-6e4065ed92c5","ios":"levelo://app?vid=b017764e-0631-4a98-976b-6e4065ed92c5"},"vehicle_type_id":"4","last_reported":1743232118,"current_range_meters":4000,"station_id":"ce4bh512rcd13ifvqe3g","pricing_plan_id":"cebpf4jnsgd1na2vs0mg"},{"bike_id":"14054c23-e1aa-4fb0-b7cc-6cf90b5fbd28","system_id":"levelo_inurba_marseille","lat":43.29774,"lon":5.3813,"is_reserved":false,"is_disabled":true,"rental_uris":{"android":"levelo://app?vid=14054c23-e1aa-4fb0-b7cc-6cf90b5fbd28","ios":"levelo://app?vid=14054c23-e1aa-4fb0-b7cc-6cf90b5fbd28"},"vehicle_type_id":"4","last_reported":1743232118,"current_range_meters":4400,"station_id":"ce4bgip2rcd13ifvqbb0","pricing_plan_id":"cebpf4jnsgd1na2vs0mg"},{"bike_id":"aa6c11aa-d87b-4227-b866-e0dbc799eed5","system_id":"levelo_inurba_marseille","lat":43.2885,"lon":5.35893,"is_reserved":false,"is_disabled":false,"rental_uris":{"android":"levelo://app?vid=aa6c11aa-d87b-4227-b866-e0dbc799eed5","ios":"levelo://app?vid=aa6c11aa-d87b-4227-b866-e0dbc799eed5"},"vehicle_type_id":"4","last_reported":1743232118,"current_range_meters":4400,"station_id":"","pricing_plan_id":"cebpf4jnsgd1na2vs0mg"},{"bike_id":"ec940620-2a09-4eae-aace-1a0a72b62180","system_id":"levelo_inurba_marseille","lat":43.30309,"lon":5.40084,"is_reserved":false,"is_disabled":false,"rental_uris":{"android":"levelo://app?vid=ec940620-2a09-4eae-aace-1a0a72b62180","ios":"levelo://app?vid=ec940620-2a09-4eae-aace-1a0a72b62180"},"vehicle_type_id":"4","last_reported":1743232118,"current_range_meters":4400,"station_id":"ce4bgvh2rcd13ifvqcs0","pricing_plan_id":"cebpf4jnsgd1na2vs0mg"},{"bike_id":"cd115686-8f4e-4fb1-81c7-4ea23d669c39","system_id":"levelo_inurba_marseille","lat":43.3025,"lon":5.40068,"is_reserved":false,"is_disabled":false,"rental_uris":{"android":"levelo://app?vid=cd115686-8f4e-4fb1-81c7-4ea23d669c39","ios":"levelo://app?vid=cd115686-8f4e-4fb1-81c7-4ea23d669c39"},"vehicle_type_id":"4","last_reported":1743232118,"current_range_meters":4400,"station_id":"ce4bgvh2rcd13ifvqcs0","pricing_plan_id":"cebpf4jnsgd1na2vs0mg"},{"bike_id":"5c45b865-aa62-4eb2-b90a-e3b937bfc4d8","system_id":"levelo_inurba_marseille","lat":43.28584,"lon":5.37061,"is_reserved":false,"is_disabled":false,"rental_uris":{"android":"levelo://app?vid=5c45b865-aa62-4eb2-b90a-e3b937bfc4d8","ios":"levelo://app?vid=5c45b865-aa62-4eb2-b90a-e3b937bfc4d8"},"vehicle_type_id":"4","last_reported":1743232118,"current_range_meters":4400,"station_id":"ce4bht12rcd13ifvqi60","pricing_plan_id":"cebpf4jnsgd1na2vs0mg"},{"bike_id":"0ac88cdf-dd3a-494f-aaa5-2b24d1ce393f","system_id":"levelo_inurba_marseille","lat":43.23174,"lon":5.35555,"is_reserved":false,"is_disabled":false,"rental_uris":{"android":"levelo://app?vid=0ac88cdf-dd3a-494f-aaa5-2b24d1ce393f","ios":"levelo://app?vid=0ac88cdf-dd3a-494f-aaa5-2b24d1ce393f"},"vehicle_type_id":"4","last_reported":1743232118,"current_range_meters":4400,"station_id":"ce4bhu92rcd13ifvqi70","pricing_plan_id":"cebpf4jnsgd1na2vs0mg"},{"bike_id":"64f0ea86-1180-4755-95e1-3cbc9c8d4cf5","system_id":"levelo_inurba_marseille","lat":43.330121,"lon":5.43868,"is_reserved":false,"is_disabled":true,"rental_uris":{"android":"levelo://app?vid=64f0ea86-1180-4755-95e1-3cbc9c8d4cf5","ios":"levelo://app?vid=64f0ea86-1180-4755-95e1-3cbc9c8d4cf5"},"vehicle_type_id":"4","last_reported":1743232118,"current_range_meters":4400,"station_id":"","pricing_plan_id":"cebpf4jnsgd1na2vs0mg"},{"bike_id":"e8fe3ebb-2f5c-4c4e-9de9-c1912783f48b","system_id":"levelo_inurba_marseille","lat":43.29187,"lon":5.40003,"is_reserved":false,"is_disabled":false,"rental_uris":{"android":"levelo://app?vid=e8fe3ebb-2f5c-4c4e-9de9-c1912783f48b","ios":"levelo://app?vid=e8fe3ebb-2f5c-4c4e-9de9-c1912783f48b"},"vehicle_type_id":"4","last_reported":1743232118,"current_range_meters":4400,"station_id":"ce4bh312rcd13ifvqdk0","pricing_plan_id":"cebpf4jnsgd1na2vs0mg"},{"bike_id":"94656661-d160-44db-a718-ef497581cc88","system_id":"levelo_inurba_marseille","lat":43.302145,"lon":5.394655,"is_reserved":false,"is_disabled":false,"rental_uris":{"android":"levelo://app?vid=94656661-d160-44db-a718-ef497581cc88","ios":"levelo://app?vid=94656661-d160-44db-a718-ef497581cc88"},"vehicle_type_id":"4","last_reported":1743232118,"current_range_meters":4400,"station_id":"ce4bh0p2rcd13ifvqd70","pricing_plan_id":"cebpf4jnsgd1na2vs0mg"},{"bike_id":"961245ca-8d90-4d71-b735-61afea929100","system_id":"levelo_inurba_marseille","lat":43.241668,"lon":5.364022,"is_reserved":false,"is_disabled":false,"rental_uris":{"android":"levelo://app?vid=961245ca-8d90-4d71-b735-61afea929100","ios":"levelo://app?vid=961245ca-8d90-4d71-b735-61afea929100"},"vehicle_type_id":"4","last_reported":1743232118,"current_range_meters":4800,"station_id":"cpo36qri1sfpv3e86is0","pricing_plan_id":"cebpf4jnsgd1na2vs0mg"},{"bike_id":"d0c2ba62-325f-42ee-b4c5-fe6707aa69d7","system_id":"levelo_inurba_marseille","lat":43.2482,"lon":5.37466,"is_reserved":false,"is_disabled":false,"rental_uris":{"android":"levelo://app?vid=d0c2ba62-325f-42ee-b4c5-fe6707aa69d7","ios":"levelo://app?vid=d0c2ba62-325f-42ee-b4c5-fe6707aa69d7"},"vehicle_type_id":"4","last_reported":1743232118,"current_range_meters":4800,"station_id":"ce4bhgh2rcd13ifvqfb0","pricing_plan_id":"cebpf4jnsgd1na2vs0mg"},{"bike_id":"850e9242-7704-4fc7-b0e6-d5ec59d44395","system_id":"levelo_inurba_marseille","lat":43.279383,"lon":5.387604,"is_reserved":false,"is_disabled":false,"rental_uris":{"android":"levelo://app?vid=850e9242-7704-4fc7-b0e6-d5ec59d44395","ios":"levelo://app?vid=850e9242-7704-4fc7-b0e6-d5ec59d44395"},"vehicle_type_id":"4","last_reported":1743232118,"current_range_meters":4800,"station_id":"","pricing_plan_id":"cebpf4jnsgd1na2vs0mg"},{"bike_id":"5ce256d8-df5a-49ec-a9d7-d012197f7db8","system_id":"levelo_inurba_marseille","lat":43.2922,"lon":5.36064,"is_reserved":false,"is_disabled":false,"rental_uris":{"android":"levelo://app?vid=5ce256d8-df5a-49ec-a9d7-d012197f7db8","ios":"levelo://app?vid=5ce256d8-df5a-49ec-a9d7-d012197f7db8"},"vehicle_type_id":"4","last_reported":1743232118,"current_range_meters":5600,"station_id":"ce4bhbh2rcd13ifvqeqg","pricing_plan_id":"cebpf4jnsgd1na2vs0mg"},{"bike_id":"6026f9b7-25ae-4d64-8648-76338e9b1c4c","system_id":"levelo_inurba_marseille","lat":43.32353,"lon":5.38902,"is_reserved":false,"is_disabled":false,"rental_uris":{"android":"levelo://app?vid=6026f9b7-25ae-4d64-8648-76338e9b1c4c","ios":"levelo://app?vid=6026f9b7-25ae-4d64-8648-76338e9b1c4c"},"vehicle_type_id":"4","last_reported":1743232118,"current_range_meters":5600,"station_id":"ce4bhqp2rcd13ifvqhog","pricing_plan_id":"cebpf4jnsgd1na2vs0mg"},{"bike_id":"0714e207-7246-458a-9d1d-be45c6f0f274","system_id":"levelo_inurba_marseille","lat":43.30323,"lon":5.40439,"is_reserved":false,"is_disabled":false,"rental_uris":{"android":"levelo://app?vid=0714e207-7246-458a-9d1d-be45c6f0f274","ios":"levelo://app?vid=0714e207-7246-458a-9d1d-be45c6f0f274"},"vehicle_type_id":"4","last_reported":1743232118,"current_range_meters":5600,"station_id":"ce4bh012rcd13ifvqd10","pricing_plan_id":"cebpf4jnsgd1na2vs0mg"},{"bike_id":"546aad17-b002-4278-9188-e4e2e3b7d824","system_id":"levelo_inurba_marseille","lat":43.301506,"lon":5.380679,"is_reserved":false,"is_disabled":false,"rental_uris":{"android":"levelo://app?vid=546aad17-b002-4278-9188-e4e2e3b7d824","ios":"levelo://app?vid=546aad17-b002-4278-9188-e4e2e3b7d824"},"vehicle_type_id":"4","last_reported":1743232118,"current_range_meters":5600,"station_id":"ce4bgjp2rcd13ifvqbh0","pricing_plan_id":"cebpf4jnsgd1na2vs0mg"},{"bike_id":"4deb4783-8cfd-4878-9232-6f4ec00fece7","system_id":"levelo_inurba_marseille","lat":43.30867,"lon":5.40134,"is_reserved":false,"is_disabled":false,"rental_uris":{"android":"levelo://app?vid=4deb4783-8cfd-4878-9232-6f4ec00fece7","ios":"levelo://app?vid=4deb4783-8cfd-4878-9232-6f4ec00fece7"},"vehicle_type_id":"4","last_reported":1743232118,"current_range_meters":5600,"station_id":"","pricing_plan_id":"cebpf4jnsgd1na2vs0mg"},{"bike_id":"92fb722b-55da-4f6e-9ecf-5551bd89806c","system_id":"levelo_inurba_marseille","lat":43.27906,"lon":5.39626,"is_reserved":false,"is_disabled":false,"rental_uris":{"android":"levelo://app?vid=92fb722b-55da-4f6e-9ecf-5551bd89806c","ios":"levelo://app?vid=92fb722b-55da-4f6e-9ecf-5551bd89806c"},"vehicle_type_id":"4","last_reported":1743232118,"current_range_meters":6000,"station_id":"ce4bhf92rcd13ifvqf40","pricing_plan_id":"cebpf4jnsgd1na2vs0mg"},{"bike_id":"5206b6ee-f2ea-4f0f-88a6-16465994b437","system_id":"levelo_inurba_marseille","lat":43.27212,"lon":5.392,"is_reserved":false,"is_disabled":false,"rental_uris":{"android":"levelo://app?vid=5206b6ee-f2ea-4f0f-88a6-16465994b437","ios":"levelo://app?vid=5206b6ee-f2ea-4f0f-88a6-16465994b437"},"vehicle_type_id":"4","last_reported":1743232118,"current_range_meters":6000,"station_id":"ce4bhhp2rcd13ifvqfm0","pricing_plan_id":"cebpf4jnsgd1na2vs0mg"},{"bike_id":"64614d85-14d6-4550-9679-122515eda3ee","system_id":"levelo_inurba_marseille","lat":43.26575,"lon":5.39024,"is_reserved":false,"is_disabled":false,"rental_uris":{"android":"levelo://app?vid=64614d85-14d6-4550-9679-122515eda3ee","ios":"levelo://app?vid=64614d85-14d6-4550-9679-122515eda3ee"},"vehicle_type_id":"4","last_reported":1743232118,"current_range_meters":6000,"station_id":"ce4bhe12rcd13ifvqf30","pricing_plan_id":"cebpf4jnsgd1na2vs0mg"},{"bike_id":"69d4a96e-aebb-48d7-9d81-4070f7503e98","system_id":"levelo_inurba_marseille","lat":43.30831,"lon":5.37427,"is_reserved":false,"is_disabled":false,"rental_uris":{"android":"levelo://app?vid=69d4a96e-aebb-48d7-9d81-4070f7503e98","ios":"levelo://app?vid=69d4a96e-aebb-48d7-9d81-4070f7503e98"},"vehicle_type_id":"4","last_reported":1743232118,"current_range_meters":6000,"station_id":"","pricing_plan_id":"cebpf4jnsgd1na2vs0mg"},{"bike_id":"6ed81b6d-3cb1-4986-bdfe-a63705d9298a","system_id":"levelo_inurba_marseille","lat":43.30261,"lon":5.40072,"is_reserved":false,"is_disabled":false,"rental_uris":{"android":"levelo://app?vid=6ed81b6d-3cb1-4986-bdfe-a63705d9298a","ios":"levelo://app?vid=6ed81b6d-3cb1-4986-bdfe-a63705d9298a"},"vehicle_type_id":"4","last_reported":1743232118,"current_range_meters":6000,"station_id":"ce4bgvh2rcd13ifvqcs0","pricing_plan_id":"cebpf4jnsgd1na2vs0mg"},{"bike_id":"f6f9fa63-a538-4962-89a2-7e0fd8bec717","system_id":"levelo_inurba_marseille","lat":43.32028,"lon":5.38144,"is_reserved":false,"is_disabled":true,"rental_uris":{"android":"levelo://app?vid=f6f9fa63-a538-4962-89a2-7e0fd8bec717","ios":"levelo://app?vid=f6f9fa63-a538-4962-89a2-7e0fd8bec717"},"vehicle_type_id":"4","last_reported":1743232118,"current_range_meters":6000,"station_id":"ce4bhr12rcd13ifvqhpg","pricing_plan_id":"cebpf4jnsgd1na2vs0mg"},{"bike_id":"d8995671-8d10-4595-a48d-c072afc16bcb","system_id":"levelo_inurba_marseille","lat":43.28614,"lon":5.3511,"is_reserved":false,"is_disabled":false,"rental_uris":{"android":"levelo://app?vid=d8995671-8d10-4595-a48d-c072afc16bcb","ios":"levelo://app?vid=d8995671-8d10-4595-a48d-c072afc16bcb"},"vehicle_type_id":"4","last_reported":1743232118,"current_range_meters":6000,"station_id":"ce4bhch2rcd13ifvqeug","pricing_plan_id":"cebpf4jnsgd1na2vs0mg"},{"bike_id":"6a5faf51-2bec-4782-8a8f-e039ed407c9b","system_id":"levelo_inurba_marseille","lat":43.25098,"lon":5.39526,"is_reserved":false,"is_disabled":false,"rental_uris":{"android":"levelo://app?vid=6a5faf51-2bec-4782-8a8f-e039ed407c9b","ios":"levelo://app?vid=6a5faf51-2bec-4782-8a8f-e039ed407c9b"},"vehicle_type_id":"4","last_reported":1743232118,"current_range_meters":6000,"station_id":"ce4bhm12rcd13ifvqgkg","pricing_plan_id":"cebpf4jnsgd1na2vs0mg"},{"bike_id":"fd726e0d-0840-4801-aa97-085ea1cb89a8","system_id":"levelo_inurba_marseille","lat":43.28447,"lon":5.39195,"is_reserved":false,"is_disabled":false,"rental_uris":{"android":"levelo://app?vid=fd726e0d-0840-4801-aa97-085ea1cb89a8","ios":"levelo://app?vid=fd726e0d-0840-4801-aa97-085ea1cb89a8"},"vehicle_type_id":"4","last_reported":1743232118,"current_range_meters":6000,"station_id":"ce4bhoh2rcd13ifvqh5g","pricing_plan_id":"cebpf4jnsgd1na2vs0mg"},{"bike_id":"ee9a67f6-8378-40c2-854e-cdbc1deec05a","system_id":"levelo_inurba_marseille","lat":43.29258,"lon":5.38453,"is_reserved":false,"is_disabled":true,"rental_uris":{"android":"levelo://app?vid=ee9a67f6-8378-40c2-854e-cdbc1deec05a","ios":"levelo://app?vid=ee9a67f6-8378-40c2-854e-cdbc1deec05a"},"vehicle_type_id":"4","last_reported":1743232118,"current_range_meters":6000,"station_id":"ce4bh692rcd13ifvqea0","pricing_plan_id":"cebpf4jnsgd1na2vs0mg"},{"bike_id":"bf486d29-80ae-43fc-9394-756ed3e2b73e","system_id":"levelo_inurba_marseille","lat":43.27998,"lon":5.40009,"is_reserved":false,"is_disabled":false,"rental_uris":{"android":"levelo://app?vid=bf486d29-80ae-43fc-9394-756ed3e2b73e","ios":"levelo://app?vid=bf486d29-80ae-43fc-9394-756ed3e2b73e"},"vehicle_type_id":"4","last_reported":1743232118,"current_range_meters":6400,"station_id":"ce4bho92rcd13ifvqh4g","pricing_plan_id":"cebpf4jnsgd1na2vs0mg"},{"bike_id":"50ea93e6-fff8-4d2c-95d0-0b9215818caa","system_id":"levelo_inurba_marseille","lat":43.265664,"lon":5.390183,"is_reserved":false,"is_disabled":false,"rental_uris":{"android":"levelo://app?vid=50ea93e6-fff8-4d2c-95d0-0b9215818caa","ios":"levelo://app?vid=50ea93e6-fff8-4d2c-95d0-0b9215818caa"},"vehicle_type_id":"4","last_reported":1743232118,"current_range_meters":6400,"station_id":"ce4bhe12rcd13ifvqf30","pricing_plan_id":"cebpf4jnsgd1na2vs0mg"},{"bike_id":"fd134268-1499-401e-bb83-137ea2b7a695","system_id":"levelo_inurba_marseille","lat":43.239628,"lon":5.36639,"is_reserved":false,"is_disabled":false,"rental_uris":{"android":"levelo://app?vid=fd134268-1499-401e-bb83-137ea2b7a695","ios":"levelo://app?vid=fd134268-1499-401e-bb83-137ea2b7a695"},"vehicle_type_id":"4","last_reported":1743232118,"current_range_meters":6400,"station_id":"ce4bhi12rcd13ifvqfp0","pricing_plan_id":"cebpf4jnsgd1na2vs0mg"},{"bike_id":"9bc52cdb-14cf-4540-8365-7549893a9d2f","system_id":"levelo_inurba_marseille","lat":43.28483,"lon":5.3842,"is_reserved":false,"is_disabled":false,"rental_uris":{"android":"levelo://app?vid=9bc52cdb-14cf-4540-8365-7549893a9d2f","ios":"levelo://app?vid=9bc52cdb-14cf-4540-8365-7549893a9d2f"},"vehicle_type_id":"4","last_reported":1743232118,"current_range_meters":6400,"station_id":"ce4bh512rcd13ifvqe3g","pricing_plan_id":"cebpf4jnsgd1na2vs0mg"},{"bike_id":"a3514274-c949-4c91-b768-3857fda27d00","system_id":"levelo_inurba_marseille","lat":43.28612,"lon":5.37074,"is_reserved":false,"is_disabled":false,"rental_uris":{"android":"levelo://app?vid=a3514274-c949-4c91-b768-3857fda27d00","ios":"levelo://app?vid=a3514274-c949-4c91-b768-3857fda27d00"},"vehicle_type_id":"4","last_reported":1743232118,"current_range_meters":6400,"station_id":"ce4bht12rcd13ifvqi60","pricing_plan_id":"cebpf4jnsgd1na2vs0mg"},{"bike_id":"9faffa80-67d4-4e2a-9130-9db11f86ce81","system_id":"levelo_inurba_marseille","lat":43.28716,"lon":5.39961,"is_reserved":false,"is_disabled":false,"rental_uris":{"android":"levelo://app?vid=9faffa80-67d4-4e2a-9130-9db11f86ce81","ios":"levelo://app?vid=9faffa80-67d4-4e2a-9130-9db11f86ce81"},"vehicle_type_id":"4","last_reported":1743232118,"current_range_meters":6400,"station_id":"ce4bho92rcd13ifvqh3g","pricing_plan_id":"cebpf4jnsgd1na2vs0mg"},{"bike_id":"b2fd8e70-5b37-4865-bf49-d30da2481695","system_id":"levelo_inurba_marseille","lat":43.23197,"lon":5.3556,"is_reserved":false,"is_disabled":false,"rental_uris":{"android":"levelo://app?vid=b2fd8e70-5b37-4865-bf49-d30da2481695","ios":"levelo://app?vid=b2fd8e70-5b37-4865-bf49-d30da2481695"},"vehicle_type_id":"4","last_reported":1743232118,"current_range_meters":6400,"station_id":"ce4bhu92rcd13ifvqi70","pricing_plan_id":"cebpf4jnsgd1na2vs0mg"},{"bike_id":"09012fd1-5856-42c8-860d-cb6fa0c3ec4d","system_id":"levelo_inurba_marseille","lat":43.30471,"lon":5.37916,"is_reserved":false,"is_disabled":false,"rental_uris":{"android":"levelo://app?vid=09012fd1-5856-42c8-860d-cb6fa0c3ec4d","ios":"levelo://app?vid=09012fd1-5856-42c8-860d-cb6fa0c3ec4d"},"vehicle_type_id":"4","last_reported":1743232118,"current_range_meters":6400,"station_id":"ce4bgup2rcd13ifvqcn0","pricing_plan_id":"cebpf4jnsgd1na2vs0mg"},{"bike_id":"ee2588a0-8a3d-4c56-88e3-6823a90de92d","system_id":"levelo_inurba_marseille","lat":43.281022,"lon":5.385634,"is_reserved":false,"is_disabled":false,"rental_uris":{"android":"levelo://app?vid=ee2588a0-8a3d-4c56-88e3-6823a90de92d","ios":"levelo://app?vid=ee2588a0-8a3d-4c56-88e3-6823a90de92d"},"vehicle_type_id":"4","last_reported":1743232118,"current_range_meters":6400,"station_id":"","pricing_plan_id":"cebpf4jnsgd1na2vs0mg"},{"bike_id":"bf5aeddd-6ef7-4913-8e72-99d69bbe3c55","system_id":"levelo_inurba_marseille","lat":43.27913,"lon":5.38709,"is_reserved":false,"is_disabled":false,"rental_uris":{"android":"levelo://app?vid=bf5aeddd-6ef7-4913-8e72-99d69bbe3c55","ios":"levelo://app?vid=bf5aeddd-6ef7-4913-8e72-99d69bbe3c55"},"vehicle_type_id":"4","last_reported":1743232118,"current_range_meters":6400,"station_id":"ce4bhg12rcd13ifvqf80","pricing_plan_id":"cebpf4jnsgd1na2vs0mg"},{"bike_id":"0480ed99-bc5e-4d69-a9da-0c15e31de3a0","system_id":"levelo_inurba_marseille","lat":43.316988,"lon":5.377714,"is_reserved":false,"is_disabled":false,"rental_uris":{"android":"levelo://app?vid=0480ed99-bc5e-4d69-a9da-0c15e31de3a0","ios":"levelo://app?vid=0480ed99-bc5e-4d69-a9da-0c15e31de3a0"},"vehicle_type_id":"4","last_reported":1743232118,"current_range_meters":6400,"station_id":"ce4bgth2rcd13ifvqch0","pricing_plan_id":"cebpf4jnsgd1na2vs0mg"},{"bike_id":"57f8c7cb-17ce-46c9-b07d-dc98d28c951d","system_id":"levelo_inurba_marseille","lat":43.25862,"lon":5.39409,"is_reserved":false,"is_disabled":false,"rental_uris":{"android":"levelo://app?vid=57f8c7cb-17ce-46c9-b07d-dc98d28c951d","ios":"levelo://app?vid=57f8c7cb-17ce-46c9-b07d-dc98d28c951d"},"vehicle_type_id":"4","last_reported":1743232118,"current_range_meters":6400,"station_id":"","pricing_plan_id":"cebpf4jnsgd1na2vs0mg"},{"bike_id":"6202c9ff-0e6f-47d0-88c5-cf1d8a55d9be","system_id":"levelo_inurba_marseille","lat":43.29087,"lon":5.40122,"is_reserved":false,"is_disabled":false,"rental_uris":{"android":"levelo://app?vid=6202c9ff-0e6f-47d0-88c5-cf1d8a55d9be","ios":"levelo://app?vid=6202c9ff-0e6f-47d0-88c5-cf1d8a55d9be"},"vehicle_type_id":"4","last_reported":1743232118,"current_range_meters":6400,"station_id":"","pricing_plan_id":"cebpf4jnsgd1na2vs0mg"},{"bike_id":"582b4121-ab0e-461b-a4b3-ac8e2e27ca5a","system_id":"levelo_inurba_marseille","lat":43.30655,"lon":5.40062,"is_reserved":false,"is_disabled":false,"rental_uris":{"android":"levelo://app?vid=582b4121-ab0e-461b-a4b3-ac8e2e27ca5a","ios":"levelo://app?vid=582b4121-ab0e-461b-a4b3-ac8e2e27ca5a"},"vehicle_type_id":"4","last_reported":1743232118,"current_range_meters":6800,"station_id":"ce4bh112rcd13ifvqda0","pricing_plan_id":"cebpf4jnsgd1na2vs0mg"},{"bike_id":"72c78bbb-f16b-4937-919e-913520fb5ad0","system_id":"levelo_inurba_marseille","lat":43.28465,"lon":5.38432,"is_reserved":false,"is_disabled":false,"rental_uris":{"android":"levelo://app?vid=72c78bbb-f16b-4937-919e-913520fb5ad0","ios":"levelo://app?vid=72c78bbb-f16b-4937-919e-913520fb5ad0"},"vehicle_type_id":"4","last_reported":1743232118,"current_range_meters":6800,"station_id":"ce4bhg92rcd13ifvqf90","pricing_plan_id":"cebpf4jnsgd1na2vs0mg"},{"bike_id":"04f4a73b-cd58-4830-9242-a5bbcf7947cf","system_id":"levelo_inurba_marseille","lat":43.3188,"lon":5.40726,"is_reserved":false,"is_disabled":false,"rental_uris":{"android":"levelo://app?vid=04f4a73b-cd58-4830-9242-a5bbcf7947cf","ios":"levelo://app?vid=04f4a73b-cd58-4830-9242-a5bbcf7947cf"},"vehicle_type_id":"4","last_reported":1743232118,"current_range_meters":6800,"station_id":"ce4bhq12rcd13ifvqhig","pricing_plan_id":"cebpf4jnsgd1na2vs0mg"},{"bike_id":"4b5737af-12cb-4c50-bbf2-4fd1b4b9ff87","system_id":"levelo_inurba_marseille","lat":43.28417,"lon":5.37517,"is_reserved":false,"is_disabled":false,"rental_uris":{"android":"levelo://app?vid=4b5737af-12cb-4c50-bbf2-4fd1b4b9ff87","ios":"levelo://app?vid=4b5737af-12cb-4c50-bbf2-4fd1b4b9ff87"},"vehicle_type_id":"4","last_reported":1743232118,"current_range_meters":6800,"station_id":"ce4bh412rcd13ifvqds0","pricing_plan_id":"cebpf4jnsgd1na2vs0mg"},{"bike_id":"1def5fc1-8f39-4131-8109-88fb354ea625","system_id":"levelo_inurba_marseille","lat":43.28003,"lon":5.40014,"is_reserved":false,"is_disabled":false,"rental_uris":{"android":"levelo://app?vid=1def5fc1-8f39-4131-8109-88fb354ea625","ios":"levelo://app?vid=1def5fc1-8f39-4131-8109-88fb354ea625"},"vehicle_type_id":"4","last_reported":1743232118,"current_range_meters":6800,"station_id":"ce4bho92rcd13ifvqh4g","pricing_plan_id":"cebpf4jnsgd1na2vs0mg"},{"bike_id":"7201e83f-6b3c-4d50-905a-46d5815f0094","system_id":"levelo_inurba_marseille","lat":43.30262,"lon":5.40064,"is_reserved":false,"is_disabled":false,"rental_uris":{"android":"levelo://app?vid=7201e83f-6b3c-4d50-905a-46d5815f0094","ios":"levelo://app?vid=7201e83f-6b3c-4d50-905a-46d5815f0094"},"vehicle_type_id":"4","last_reported":1743232118,"current_range_meters":6800,"station_id":"ce4bgvh2rcd13ifvqcs0","pricing_plan_id":"cebpf4jnsgd1na2vs0mg"},{"bike_id":"891cbfc1-a699-4dab-81c0-4ef39d49821a","system_id":"levelo_inurba_marseille","lat":43.30321,"lon":5.40437,"is_reserved":false,"is_disabled":false,"rental_uris":{"android":"levelo://app?vid=891cbfc1-a699-4dab-81c0-4ef39d49821a","ios":"levelo://app?vid=891cbfc1-a699-4dab-81c0-4ef39d49821a"},"vehicle_type_id":"4","last_reported":1743232118,"current_range_meters":6800,"station_id":"ce4bh012rcd13ifvqd10","pricing_plan_id":"cebpf4jnsgd1na2vs0mg"},{"bike_id":"0009eca3-f243-43d3-a06a-66f6a4a5ccdd","system_id":"levelo_inurba_marseille","lat":43.231927,"lon":5.355563,"is_reserved":false,"is_disabled":false,"rental_uris":{"android":"levelo://app?vid=0009eca3-f243-43d3-a06a-66f6a4a5ccdd","ios":"levelo://app?vid=0009eca3-f243-43d3-a06a-66f6a4a5ccdd"},"vehicle_type_id":"4","last_reported":1743232118,"current_range_meters":6800,"station_id":"ce4bhu92rcd13ifvqi70","pricing_plan_id":"cebpf4jnsgd1na2vs0mg"},{"bike_id":"030cfc8f-eae6-4f84-af2d-150b7913eae6","system_id":"levelo_inurba_marseille","lat":43.29605,"lon":5.38107,"is_reserved":false,"is_disabled":false,"rental_uris":{"android":"levelo://app?vid=030cfc8f-eae6-4f84-af2d-150b7913eae6","ios":"levelo://app?vid=030cfc8f-eae6-4f84-af2d-150b7913eae6"},"vehicle_type_id":"4","last_reported":1743232118,"current_range_meters":7200,"station_id":"ce4bgl12rcd13ifvqbo0","pricing_plan_id":"cebpf4jnsgd1na2vs0mg"},{"bike_id":"81016e0e-0f86-448c-8480-4bfee0d904f6","system_id":"levelo_inurba_marseille","lat":43.28013,"lon":5.36942,"is_reserved":false,"is_disabled":false,"rental_uris":{"android":"levelo://app?vid=81016e0e-0f86-448c-8480-4bfee0d904f6","ios":"levelo://app?vid=81016e0e-0f86-448c-8480-4bfee0d904f6"},"vehicle_type_id":"4","last_reported":1743232118,"current_range_meters":7200,"station_id":"ce4bha12rcd13ifvqef0","pricing_plan_id":"cebpf4jnsgd1na2vs0mg"},{"bike_id":"94b5bcc7-6238-4eda-85ba-005d36893295","system_id":"levelo_inurba_marseille","lat":43.29037,"lon":5.35906,"is_reserved":false,"is_disabled":false,"rental_uris":{"android":"levelo://app?vid=94b5bcc7-6238-4eda-85ba-005d36893295","ios":"levelo://app?vid=94b5bcc7-6238-4eda-85ba-005d36893295"},"vehicle_type_id":"4","last_reported":1743232118,"current_range_meters":7200,"station_id":"ce4bha92rcd13ifvqeg0","pricing_plan_id":"cebpf4jnsgd1na2vs0mg"},{"bike_id":"653f4403-c5cd-4032-b5a8-482768e38f5f","system_id":"levelo_inurba_marseille","lat":43.23955,"lon":5.36636,"is_reserved":false,"is_disabled":false,"rental_uris":{"android":"levelo://app?vid=653f4403-c5cd-4032-b5a8-482768e38f5f","ios":"levelo://app?vid=653f4403-c5cd-4032-b5a8-482768e38f5f"},"vehicle_type_id":"4","last_reported":1743232118,"current_range_meters":7200,"station_id":"ce4bhi12rcd13ifvqfp0","pricing_plan_id":"cebpf4jnsgd1na2vs0mg"},{"bike_id":"4a42ca1e-41e4-4233-a4bb-a180f04564d6","system_id":"levelo_inurba_marseille","lat":43.291707,"lon":5.371429,"is_reserved":false,"is_disabled":true,"rental_uris":{"android":"levelo://app?vid=4a42ca1e-41e4-4233-a4bb-a180f04564d6","ios":"levelo://app?vid=4a42ca1e-41e4-4233-a4bb-a180f04564d6"},"vehicle_type_id":"4","last_reported":1743232118,"current_range_meters":7200,"station_id":"ce4bha92rcd13ifvqeh0","pricing_plan_id":"cebpf4jnsgd1na2vs0mg"},{"bike_id":"9ee402e7-1a17-4a4f-8096-bc833bafbd6b","system_id":"levelo_inurba_marseille","lat":43.28953,"lon":5.3663,"is_reserved":false,"is_disabled":false,"rental_uris":{"android":"levelo://app?vid=9ee402e7-1a17-4a4f-8096-bc833bafbd6b","ios":"levelo://app?vid=9ee402e7-1a17-4a4f-8096-bc833bafbd6b"},"vehicle_type_id":"4","last_reported":1743232118,"current_range_meters":7200,"station_id":"ce4bhap2rcd13ifvqek0","pricing_plan_id":"cebpf4jnsgd1na2vs0mg"},{"bike_id":"f439faaa-ce2d-437b-bd83-3a4e6c6ea628","system_id":"levelo_inurba_marseille","lat":43.24187,"lon":5.39744,"is_reserved":false,"is_disabled":false,"rental_uris":{"android":"levelo://app?vid=f439faaa-ce2d-437b-bd83-3a4e6c6ea628","ios":"levelo://app?vid=f439faaa-ce2d-437b-bd83-3a4e6c6ea628"},"vehicle_type_id":"4","last_reported":1743232118,"current_range_meters":7200,"station_id":"ce4bhn12rcd13ifvqgpg","pricing_plan_id":"cebpf4jnsgd1na2vs0mg"},{"bike_id":"861ae205-c318-4688-ac53-947993e1b65f","system_id":"levelo_inurba_marseille","lat":43.241628,"lon":5.363928,"is_reserved":false,"is_disabled":false,"rental_uris":{"android":"levelo://app?vid=861ae205-c318-4688-ac53-947993e1b65f","ios":"levelo://app?vid=861ae205-c318-4688-ac53-947993e1b65f"},"vehicle_type_id":"4","last_reported":1743232118,"current_range_meters":7200,"station_id":"cpo36qri1sfpv3e86is0","pricing_plan_id":"cebpf4jnsgd1na2vs0mg"},{"bike_id":"c6b682a7-e903-4363-967f-d69957e8f7ed","system_id":"levelo_inurba_marseille","lat":43.28612,"lon":5.35118,"is_reserved":false,"is_disabled":false,"rental_uris":{"android":"levelo://app?vid=c6b682a7-e903-4363-967f-d69957e8f7ed","ios":"levelo://app?vid=c6b682a7-e903-4363-967f-d69957e8f7ed"},"vehicle_type_id":"4","last_reported":1743232118,"current_range_meters":7200,"station_id":"ce4bhch2rcd13ifvqeug","pricing_plan_id":"cebpf4jnsgd1na2vs0mg"},{"bike_id":"9706b643-c205-41ac-9b92-80d747a14eed","system_id":"levelo_inurba_marseille","lat":43.31038,"lon":5.37727,"is_reserved":false,"is_disabled":false,"rental_uris":{"android":"levelo://app?vid=9706b643-c205-41ac-9b92-80d747a14eed","ios":"levelo://app?vid=9706b643-c205-41ac-9b92-80d747a14eed"},"vehicle_type_id":"4","last_reported":1743232118,"current_range_meters":7200,"station_id":"ce4bgt92rcd13ifvqcg0","pricing_plan_id":"cebpf4jnsgd1na2vs0mg"},{"bike_id":"6c234787-17fb-4b36-ad51-3e6b1f2200d3","system_id":"levelo_inurba_marseille","lat":43.31221,"lon":5.368451,"is_reserved":false,"is_disabled":false,"rental_uris":{"android":"levelo://app?vid=6c234787-17fb-4b36-ad51-3e6b1f2200d3","ios":"levelo://app?vid=6c234787-17fb-4b36-ad51-3e6b1f2200d3"},"vehicle_type_id":"4","last_reported":1743232118,"current_range_meters":7200,"station_id":"ce4bgl92rcd13ifvqbq0","pricing_plan_id":"cebpf4jnsgd1na2vs0mg"},{"bike_id":"e68a3cd4-776d-477e-b868-19282e6dc1d7","system_id":"levelo_inurba_marseille","lat":43.30781,"lon":5.37653,"is_reserved":false,"is_disabled":false,"rental_uris":{"android":"levelo://app?vid=e68a3cd4-776d-477e-b868-19282e6dc1d7","ios":"levelo://app?vid=e68a3cd4-776d-477e-b868-19282e6dc1d7"},"vehicle_type_id":"4","last_reported":1743232118,"current_range_meters":7200,"station_id":"ce4bgv92rcd13ifvqcq0","pricing_plan_id":"cebpf4jnsgd1na2vs0mg"},{"bike_id":"422a75c2-467f-4b23-9c54-3e84a1bf2eb6","system_id":"levelo_inurba_marseille","lat":43.33025,"lon":5.39073,"is_reserved":false,"is_disabled":false,"rental_uris":{"android":"levelo://app?vid=422a75c2-467f-4b23-9c54-3e84a1bf2eb6","ios":"levelo://app?vid=422a75c2-467f-4b23-9c54-3e84a1bf2eb6"},"vehicle_type_id":"4","last_reported":1743232118,"current_range_meters":7200,"station_id":"ce4bhr92rcd13ifvqhrg","pricing_plan_id":"cebpf4jnsgd1na2vs0mg"},{"bike_id":"372077d7-6912-4560-8e62-7c1226cc8258","system_id":"levelo_inurba_marseille","lat":43.28008,"lon":5.39978,"is_reserved":false,"is_disabled":false,"rental_uris":{"android":"levelo://app?vid=372077d7-6912-4560-8e62-7c1226cc8258","ios":"levelo://app?vid=372077d7-6912-4560-8e62-7c1226cc8258"},"vehicle_type_id":"4","last_reported":1743232118,"current_range_meters":8000,"station_id":"ce4bho92rcd13ifvqh4g","pricing_plan_id":"cebpf4jnsgd1na2vs0mg"},{"bike_id":"4bc0dbb3-90de-4eb9-aa21-74c63a07a4eb","system_id":"levelo_inurba_marseille","lat":43.31139,"lon":5.3777,"is_reserved":false,"is_disabled":false,"rental_uris":{"android":"levelo://app?vid=4bc0dbb3-90de-4eb9-aa21-74c63a07a4eb","ios":"levelo://app?vid=4bc0dbb3-90de-4eb9-aa21-74c63a07a4eb"},"vehicle_type_id":"4","last_reported":1743232118,"current_range_meters":8000,"station_id":"ce4bgt92rcd13ifvqcg0","pricing_plan_id":"cebpf4jnsgd1na2vs0mg"},{"bike_id":"971c92cb-66df-438d-9a85-e63af939e6ff","system_id":"levelo_inurba_marseille","lat":43.28613,"lon":5.350997,"is_reserved":false,"is_disabled":true,"rental_uris":{"android":"levelo://app?vid=971c92cb-66df-438d-9a85-e63af939e6ff","ios":"levelo://app?vid=971c92cb-66df-438d-9a85-e63af939e6ff"},"vehicle_type_id":"4","last_reported":1743232118,"current_range_meters":8000,"station_id":"ce4bhch2rcd13ifvqeug","pricing_plan_id":"cebpf4jnsgd1na2vs0mg"},{"bike_id":"90df0f14-f996-423e-b605-53c2c708242e","system_id":"levelo_inurba_marseille","lat":43.316831,"lon":5.405191,"is_reserved":false,"is_disabled":false,"rental_uris":{"android":"levelo://app?vid=90df0f14-f996-423e-b605-53c2c708242e","ios":"levelo://app?vid=90df0f14-f996-423e-b605-53c2c708242e"},"vehicle_type_id":"4","last_reported":1743232118,"current_range_meters":8000,"station_id":"ce4bh012rcd13ifvqd00","pricing_plan_id":"cebpf4jnsgd1na2vs0mg"},{"bike_id":"87ce5af9-2c3f-4b34-8106-a0bd98c8708b","system_id":"levelo_inurba_marseille","lat":43.27997,"lon":5.40029,"is_reserved":false,"is_disabled":false,"rental_uris":{"android":"levelo://app?vid=87ce5af9-2c3f-4b34-8106-a0bd98c8708b","ios":"levelo://app?vid=87ce5af9-2c3f-4b34-8106-a0bd98c8708b"},"vehicle_type_id":"4","last_reported":1743232118,"current_range_meters":8000,"station_id":"ce4bho92rcd13ifvqh4g","pricing_plan_id":"cebpf4jnsgd1na2vs0mg"},{"bike_id":"4a911fa5-f99f-457c-9b53-c2d92940e8a8","system_id":"levelo_inurba_marseille","lat":43.30433,"lon":5.39749,"is_reserved":false,"is_disabled":false,"rental_uris":{"android":"levelo://app?vid=4a911fa5-f99f-457c-9b53-c2d92940e8a8","ios":"levelo://app?vid=4a911fa5-f99f-457c-9b53-c2d92940e8a8"},"vehicle_type_id":"4","last_reported":1743232118,"current_range_meters":8000,"station_id":"ce4bh092rcd13ifvqd20","pricing_plan_id":"cebpf4jnsgd1na2vs0mg"},{"bike_id":"3c724e4a-ec93-4dd4-87a9-608ce3fa202a","system_id":"levelo_inurba_marseille","lat":43.310713,"lon":5.383449,"is_reserved":false,"is_disabled":false,"rental_uris":{"android":"levelo://app?vid=3c724e4a-ec93-4dd4-87a9-608ce3fa202a","ios":"levelo://app?vid=3c724e4a-ec93-4dd4-87a9-608ce3fa202a"},"vehicle_type_id":"4","last_reported":1743232118,"current_range_meters":8000,"station_id":"ce4bgv92rcd13ifvqcr0","pricing_plan_id":"cebpf4jnsgd1na2vs0mg"},{"bike_id":"08b02a00-9839-42c9-848b-e9f5de59af20","system_id":"levelo_inurba_marseille","lat":43.31363,"lon":5.38499,"is_reserved":false,"is_disabled":false,"rental_uris":{"android":"levelo://app?vid=08b02a00-9839-42c9-848b-e9f5de59af20","ios":"levelo://app?vid=08b02a00-9839-42c9-848b-e9f5de59af20"},"vehicle_type_id":"4","last_reported":1743232118,"current_range_meters":8000,"station_id":"ce4bgt92rcd13ifvqcf0","pricing_plan_id":"cebpf4jnsgd1na2vs0mg"},{"bike_id":"2dd07609-0435-4017-a0ce-576c9e34e300","system_id":"levelo_inurba_marseille","lat":43.28675,"lon":5.36376,"is_reserved":false,"is_disabled":false,"rental_uris":{"android":"levelo://app?vid=2dd07609-0435-4017-a0ce-576c9e34e300","ios":"levelo://app?vid=2dd07609-0435-4017-a0ce-576c9e34e300"},"vehicle_type_id":"4","last_reported":1743232118,"current_range_meters":8000,"station_id":"ce4bhah2rcd13ifvqej0","pricing_plan_id":"cebpf4jnsgd1na2vs0mg"},{"bike_id":"092faada-6bf5-456d-afc5-5020968531d2","system_id":"levelo_inurba_marseille","lat":43.32371,"lon":5.38882,"is_reserved":false,"is_disabled":false,"rental_uris":{"android":"levelo://app?vid=092faada-6bf5-456d-afc5-5020968531d2","ios":"levelo://app?vid=092faada-6bf5-456d-afc5-5020968531d2"},"vehicle_type_id":"4","last_reported":1743232118,"current_range_meters":8000,"station_id":"ce4bhqp2rcd13ifvqhog","pricing_plan_id":"cebpf4jnsgd1na2vs0mg"},{"bike_id":"1c14bf9c-ada4-4a36-8853-740a1a2c000a","system_id":"levelo_inurba_marseille","lat":43.231941,"lon":5.355546,"is_reserved":false,"is_disabled":false,"rental_uris":{"android":"levelo://app?vid=1c14bf9c-ada4-4a36-8853-740a1a2c000a","ios":"levelo://app?vid=1c14bf9c-ada4-4a36-8853-740a1a2c000a"},"vehicle_type_id":"4","last_reported":1743232118,"current_range_meters":8000,"station_id":"ce4bhu92rcd13ifvqi70","pricing_plan_id":"cebpf4jnsgd1na2vs0mg"},{"bike_id":"afde944a-633f-47b5-a2d3-76be709cb025","system_id":"levelo_inurba_marseille","lat":43.28731,"lon":5.36086,"is_reserved":false,"is_disabled":false,"rental_uris":{"android":"levelo://app?vid=afde944a-633f-47b5-a2d3-76be709cb025","ios":"levelo://app?vid=afde944a-633f-47b5-a2d3-76be709cb025"},"vehicle_type_id":"4","last_reported":1743232118,"current_range_meters":8000,"station_id":"cki0cbj6b192h4jlfktg","pricing_plan_id":"cebpf4jnsgd1na2vs0mg"},{"bike_id":"ac7b446a-5fec-4cbb-868e-45d0239dc236","system_id":"levelo_inurba_marseille","lat":43.24664,"lon":5.38155,"is_reserved":false,"is_disabled":false,"rental_uris":{"android":"levelo://app?vid=ac7b446a-5fec-4cbb-868e-45d0239dc236","ios":"levelo://app?vid=ac7b446a-5fec-4cbb-868e-45d0239dc236"},"vehicle_type_id":"4","last_reported":1743232118,"current_range_meters":8000,"station_id":"ce4bhih2rcd13ifvqfr0","pricing_plan_id":"cebpf4jnsgd1na2vs0mg"},{"bike_id":"846275f0-7b72-4373-a828-815bfa22388d","system_id":"levelo_inurba_marseille","lat":43.28862,"lon":5.35862,"is_reserved":false,"is_disabled":false,"rental_uris":{"android":"levelo://app?vid=846275f0-7b72-4373-a828-815bfa22388d","ios":"levelo://app?vid=846275f0-7b72-4373-a828-815bfa22388d"},"vehicle_type_id":"4","last_reported":1743232118,"current_range_meters":8400,"station_id":"ce4bhb12rcd13ifvqem0","pricing_plan_id":"cebpf4jnsgd1na2vs0mg"},{"bike_id":"3baabe1e-785f-4275-b2ae-669cc3f900da","system_id":"levelo_inurba_marseille","lat":43.27829,"lon":5.40762,"is_reserved":false,"is_disabled":true,"rental_uris":{"android":"levelo://app?vid=3baabe1e-785f-4275-b2ae-669cc3f900da","ios":"levelo://app?vid=3baabe1e-785f-4275-b2ae-669cc3f900da"},"vehicle_type_id":"4","last_reported":1743232118,"current_range_meters":8400,"station_id":"ce4bhnh2rcd13ifvqgtg","pricing_plan_id":"cebpf4jnsgd1na2vs0mg"},{"bike_id":"47ad7ef3-58ae-45f0-9b6e-4619eae20d58","system_id":"levelo_inurba_marseille","lat":43.29255,"lon":5.40911,"is_reserved":false,"is_disabled":false,"rental_uris":{"android":"levelo://app?vid=47ad7ef3-58ae-45f0-9b6e-4619eae20d58","ios":"levelo://app?vid=47ad7ef3-58ae-45f0-9b6e-4619eae20d58"},"vehicle_type_id":"4","last_reported":1743232118,"current_range_meters":8400,"station_id":"ce4bh192rcd13ifvqdc0","pricing_plan_id":"cebpf4jnsgd1na2vs0mg"},{"bike_id":"de69b711-10c8-44e3-b5a7-d0d7f511c5db","system_id":"levelo_inurba_marseille","lat":43.30558,"lon":5.38443,"is_reserved":false,"is_disabled":false,"rental_uris":{"android":"levelo://app?vid=de69b711-10c8-44e3-b5a7-d0d7f511c5db","ios":"levelo://app?vid=de69b711-10c8-44e3-b5a7-d0d7f511c5db"},"vehicle_type_id":"4","last_reported":1743232118,"current_range_meters":8400,"station_id":"ce4bgg92rcd13ifvqb30","pricing_plan_id":"cebpf4jnsgd1na2vs0mg"},{"bike_id":"cbe177f9-7359-4495-b99f-8a1700a0286f","system_id":"levelo_inurba_marseille","lat":43.287268,"lon":5.360887,"is_reserved":false,"is_disabled":false,"rental_uris":{"android":"levelo://app?vid=cbe177f9-7359-4495-b99f-8a1700a0286f","ios":"levelo://app?vid=cbe177f9-7359-4495-b99f-8a1700a0286f"},"vehicle_type_id":"4","last_reported":1743232118,"current_range_meters":8400,"station_id":"cki0cbj6b192h4jlfktg","pricing_plan_id":"cebpf4jnsgd1na2vs0mg"},{"bike_id":"79191f8e-3709-4910-9c40-6b5411da7dad","system_id":"levelo_inurba_marseille","lat":43.30499,"lon":5.37912,"is_reserved":false,"is_disabled":false,"rental_uris":{"android":"levelo://app?vid=79191f8e-3709-4910-9c40-6b5411da7dad","ios":"levelo://app?vid=79191f8e-3709-4910-9c40-6b5411da7dad"},"vehicle_type_id":"4","last_reported":1743232118,"current_range_meters":8400,"station_id":"ce4bgup2rcd13ifvqcn0","pricing_plan_id":"cebpf4jnsgd1na2vs0mg"},{"bike_id":"1e399c71-356e-429c-81a2-1c9ac6ffd8e3","system_id":"levelo_inurba_marseille","lat":43.30557,"lon":5.38445,"is_reserved":false,"is_disabled":false,"rental_uris":{"android":"levelo://app?vid=1e399c71-356e-429c-81a2-1c9ac6ffd8e3","ios":"levelo://app?vid=1e399c71-356e-429c-81a2-1c9ac6ffd8e3"},"vehicle_type_id":"4","last_reported":1743232118,"current_range_meters":8400,"station_id":"ce4bgg92rcd13ifvqb30","pricing_plan_id":"cebpf4jnsgd1na2vs0mg"},{"bike_id":"7a24a423-2986-4e0d-8a6a-b7b9c3149165","system_id":"levelo_inurba_marseille","lat":43.28915,"lon":5.42853,"is_reserved":false,"is_disabled":false,"rental_uris":{"android":"levelo://app?vid=7a24a423-2986-4e0d-8a6a-b7b9c3149165","ios":"levelo://app?vid=7a24a423-2986-4e0d-8a6a-b7b9c3149165"},"vehicle_type_id":"4","last_reported":1743232118,"current_range_meters":8400,"station_id":"","pricing_plan_id":"cebpf4jnsgd1na2vs0mg"},{"bike_id":"dbb786fe-6069-4016-9341-41e100bb0229","system_id":"levelo_inurba_marseille","lat":43.30673,"lon":5.40066,"is_reserved":false,"is_disabled":false,"rental_uris":{"android":"levelo://app?vid=dbb786fe-6069-4016-9341-41e100bb0229","ios":"levelo://app?vid=dbb786fe-6069-4016-9341-41e100bb0229"},"vehicle_type_id":"4","last_reported":1743232118,"current_range_meters":8400,"station_id":"ce4bh112rcd13ifvqda0","pricing_plan_id":"cebpf4jnsgd1na2vs0mg"},{"bike_id":"c34b7d4e-dedf-42dd-b25e-d003527cd79f","system_id":"levelo_inurba_marseille","lat":43.28479,"lon":5.38552,"is_reserved":false,"is_disabled":false,"rental_uris":{"android":"levelo://app?vid=c34b7d4e-dedf-42dd-b25e-d003527cd79f","ios":"levelo://app?vid=c34b7d4e-dedf-42dd-b25e-d003527cd79f"},"vehicle_type_id":"4","last_reported":1743232118,"current_range_meters":8400,"station_id":"ce4bh8p2rcd13ifvqeb0","pricing_plan_id":"cebpf4jnsgd1na2vs0mg"},{"bike_id":"571e43af-e4f5-404b-9dd8-9e11760bfa4c","system_id":"levelo_inurba_marseille","lat":43.287249,"lon":5.360991,"is_reserved":false,"is_disabled":false,"rental_uris":{"android":"levelo://app?vid=571e43af-e4f5-404b-9dd8-9e11760bfa4c","ios":"levelo://app?vid=571e43af-e4f5-404b-9dd8-9e11760bfa4c"},"vehicle_type_id":"4","last_reported":1743232118,"current_range_meters":8400,"station_id":"cki0cbj6b192h4jlfktg","pricing_plan_id":"cebpf4jnsgd1na2vs0mg"},{"bike_id":"d6ae2dac-bcff-421f-8aa6-f2a5b3559285","system_id":"levelo_inurba_marseille","lat":43.2649,"lon":5.3955,"is_reserved":false,"is_disabled":false,"rental_uris":{"android":"levelo://app?vid=d6ae2dac-bcff-421f-8aa6-f2a5b3559285","ios":"levelo://app?vid=d6ae2dac-bcff-421f-8aa6-f2a5b3559285"},"vehicle_type_id":"4","last_reported":1743232118,"current_range_meters":8400,"station_id":"ce4bhi12rcd13ifvqfq0","pricing_plan_id":"cebpf4jnsgd1na2vs0mg"},{"bike_id":"d2be6ce3-8e79-4804-b0d3-008c875e7b9d","system_id":"levelo_inurba_marseille","lat":43.26185,"lon":5.37913,"is_reserved":false,"is_disabled":false,"rental_uris":{"android":"levelo://app?vid=d2be6ce3-8e79-4804-b0d3-008c875e7b9d","ios":"levelo://app?vid=d2be6ce3-8e79-4804-b0d3-008c875e7b9d"},"vehicle_type_id":"4","last_reported":1743232118,"current_range_meters":8800,"station_id":"ce4bhjp2rcd13ifvqg90","pricing_plan_id":"cebpf4jnsgd1na2vs0mg"},{"bike_id":"17d2c56a-04b7-4565-828e-4e8647a3dd59","system_id":"levelo_inurba_marseille","lat":43.2321,"lon":5.35572,"is_reserved":false,"is_disabled":false,"rental_uris":{"android":"levelo://app?vid=17d2c56a-04b7-4565-828e-4e8647a3dd59","ios":"levelo://app?vid=17d2c56a-04b7-4565-828e-4e8647a3dd59"},"vehicle_type_id":"4","last_reported":1743232118,"current_range_meters":8800,"station_id":"ce4bhu92rcd13ifvqi70","pricing_plan_id":"cebpf4jnsgd1na2vs0mg"},{"bike_id":"f47eba55-a588-4033-a3dc-992c836c995d","system_id":"levelo_inurba_marseille","lat":43.31687,"lon":5.40521,"is_reserved":false,"is_disabled":false,"rental_uris":{"android":"levelo://app?vid=f47eba55-a588-4033-a3dc-992c836c995d","ios":"levelo://app?vid=f47eba55-a588-4033-a3dc-992c836c995d"},"vehicle_type_id":"4","last_reported":1743232118,"current_range_meters":8800,"station_id":"ce4bh012rcd13ifvqd00","pricing_plan_id":"cebpf4jnsgd1na2vs0mg"},{"bike_id":"6082a6d8-29f3-4441-bd82-d0f95ead75d7","system_id":"levelo_inurba_marseille","lat":43.231852,"lon":5.355584,"is_reserved":false,"is_disabled":false,"rental_uris":{"android":"levelo://app?vid=6082a6d8-29f3-4441-bd82-d0f95ead75d7","ios":"levelo://app?vid=6082a6d8-29f3-4441-bd82-d0f95ead75d7"},"vehicle_type_id":"4","last_reported":1743232118,"current_range_meters":8800,"station_id":"ce4bhu92rcd13ifvqi70","pricing_plan_id":"cebpf4jnsgd1na2vs0mg"},{"bike_id":"4fbfc3e6-1d5a-469b-ab70-bfc87a275095","system_id":"levelo_inurba_marseille","lat":43.23201,"lon":5.35562,"is_reserved":false,"is_disabled":false,"rental_uris":{"android":"levelo://app?vid=4fbfc3e6-1d5a-469b-ab70-bfc87a275095","ios":"levelo://app?vid=4fbfc3e6-1d5a-469b-ab70-bfc87a275095"},"vehicle_type_id":"4","last_reported":1743232118,"current_range_meters":8800,"station_id":"ce4bhu92rcd13ifvqi70","pricing_plan_id":"cebpf4jnsgd1na2vs0mg"},{"bike_id":"bb238aab-ecce-4d51-ba90-677f93725c94","system_id":"levelo_inurba_marseille","lat":43.34141,"lon":5.40937,"is_reserved":false,"is_disabled":false,"rental_uris":{"android":"levelo://app?vid=bb238aab-ecce-4d51-ba90-677f93725c94","ios":"levelo://app?vid=bb238aab-ecce-4d51-ba90-677f93725c94"},"vehicle_type_id":"4","last_reported":1743232118,"current_range_meters":8800,"station_id":"ce4bhqh2rcd13ifvqhlg","pricing_plan_id":"cebpf4jnsgd1na2vs0mg"},{"bike_id":"9462a91b-8b4b-430a-ac7a-4612f1bebb31","system_id":"levelo_inurba_marseille","lat":43.2909,"lon":5.3816,"is_reserved":false,"is_disabled":true,"rental_uris":{"android":"levelo://app?vid=9462a91b-8b4b-430a-ac7a-4612f1bebb31","ios":"levelo://app?vid=9462a91b-8b4b-430a-ac7a-4612f1bebb31"},"vehicle_type_id":"4","last_reported":1743232118,"current_range_meters":8800,"station_id":"ce4bh512rcd13ifvqe2g","pricing_plan_id":"cebpf4jnsgd1na2vs0mg"},{"bike_id":"d5ffff0a-47db-470d-a1ce-99a37bfcd090","system_id":"levelo_inurba_marseille","lat":43.28624,"lon":5.35113,"is_reserved":false,"is_disabled":false,"rental_uris":{"android":"levelo://app?vid=d5ffff0a-47db-470d-a1ce-99a37bfcd090","ios":"levelo://app?vid=d5ffff0a-47db-470d-a1ce-99a37bfcd090"},"vehicle_type_id":"4","last_reported":1743232118,"current_range_meters":8800,"station_id":"ce4bhch2rcd13ifvqeug","pricing_plan_id":"cebpf4jnsgd1na2vs0mg"},{"bike_id":"49d82921-8e45-4d36-a579-bbe4c6b4b32a","system_id":"levelo_inurba_marseille","lat":43.28693,"lon":5.40001,"is_reserved":false,"is_disabled":false,"rental_uris":{"android":"levelo://app?vid=49d82921-8e45-4d36-a579-bbe4c6b4b32a","ios":"levelo://app?vid=49d82921-8e45-4d36-a579-bbe4c6b4b32a"},"vehicle_type_id":"4","last_reported":1743232118,"current_range_meters":8800,"station_id":"ce4bho92rcd13ifvqh3g","pricing_plan_id":"cebpf4jnsgd1na2vs0mg"},{"bike_id":"78879d72-d868-43c9-a743-a6ab48dd9b11","system_id":"levelo_inurba_marseille","lat":43.28685,"lon":5.36123,"is_reserved":false,"is_disabled":false,"rental_uris":{"android":"levelo://app?vid=78879d72-d868-43c9-a743-a6ab48dd9b11","ios":"levelo://app?vid=78879d72-d868-43c9-a743-a6ab48dd9b11"},"vehicle_type_id":"4","last_reported":1743232118,"current_range_meters":9200,"station_id":"","pricing_plan_id":"cebpf4jnsgd1na2vs0mg"},{"bike_id":"201331f6-89d2-473a-a738-b22172ea4f15","system_id":"levelo_inurba_marseille","lat":43.312761,"lon":5.401726,"is_reserved":false,"is_disabled":false,"rental_uris":{"android":"levelo://app?vid=201331f6-89d2-473a-a738-b22172ea4f15","ios":"levelo://app?vid=201331f6-89d2-473a-a738-b22172ea4f15"},"vehicle_type_id":"4","last_reported":1743232118,"current_range_meters":9200,"station_id":"ce4bh092rcd13ifvqd30","pricing_plan_id":"cebpf4jnsgd1na2vs0mg"},{"bike_id":"b5ace6c6-32e3-486d-9744-efb1ce0dfa9d","system_id":"levelo_inurba_marseille","lat":43.2862,"lon":5.37066,"is_reserved":false,"is_disabled":false,"rental_uris":{"android":"levelo://app?vid=b5ace6c6-32e3-486d-9744-efb1ce0dfa9d","ios":"levelo://app?vid=b5ace6c6-32e3-486d-9744-efb1ce0dfa9d"},"vehicle_type_id":"4","last_reported":1743232118,"current_range_meters":9200,"station_id":"ce4bht12rcd13ifvqi60","pricing_plan_id":"cebpf4jnsgd1na2vs0mg"},{"bike_id":"787c5a7b-7ea5-4559-9257-3bbdf77951a7","system_id":"levelo_inurba_marseille","lat":43.31064,"lon":5.38371,"is_reserved":false,"is_disabled":false,"rental_uris":{"android":"levelo://app?vid=787c5a7b-7ea5-4559-9257-3bbdf77951a7","ios":"levelo://app?vid=787c5a7b-7ea5-4559-9257-3bbdf77951a7"},"vehicle_type_id":"4","last_reported":1743232118,"current_range_meters":9200,"station_id":"ce4bgv92rcd13ifvqcr0","pricing_plan_id":"cebpf4jnsgd1na2vs0mg"},{"bike_id":"62ec7208-1c23-48c9-a058-897ce6565ea4","system_id":"levelo_inurba_marseille","lat":43.28071,"lon":5.39654,"is_reserved":false,"is_disabled":false,"rental_uris":{"android":"levelo://app?vid=62ec7208-1c23-48c9-a058-897ce6565ea4","ios":"levelo://app?vid=62ec7208-1c23-48c9-a058-897ce6565ea4"},"vehicle_type_id":"4","last_reported":1743232118,"current_range_meters":9200,"station_id":"ce4bho12rcd13ifvqh2g","pricing_plan_id":"cebpf4jnsgd1na2vs0mg"},{"bike_id":"6e5f4618-59dd-425b-aa11-f67d0d9fb1a5","system_id":"levelo_inurba_marseille","lat":43.32005,"lon":5.38153,"is_reserved":false,"is_disabled":true,"rental_uris":{"android":"levelo://app?vid=6e5f4618-59dd-425b-aa11-f67d0d9fb1a5","ios":"levelo://app?vid=6e5f4618-59dd-425b-aa11-f67d0d9fb1a5"},"vehicle_type_id":"4","last_reported":1743232118,"current_range_meters":9200,"station_id":"ce4bhr12rcd13ifvqhpg","pricing_plan_id":"cebpf4jnsgd1na2vs0mg"},{"bike_id":"af254d97-a043-44da-9e0b-050315514acc","system_id":"levelo_inurba_marseille","lat":43.23649,"lon":5.40466,"is_reserved":false,"is_disabled":false,"rental_uris":{"android":"levelo://app?vid=af254d97-a043-44da-9e0b-050315514acc","ios":"levelo://app?vid=af254d97-a043-44da-9e0b-050315514acc"},"vehicle_type_id":"4","last_reported":1743232118,"current_range_meters":9200,"station_id":"","pricing_plan_id":"cebpf4jnsgd1na2vs0mg"},{"bike_id":"779df052-2e91-4c4c-b7c7-c99a5f967063","system_id":"levelo_inurba_marseille","lat":43.28851,"lon":5.39323,"is_reserved":false,"is_disabled":false,"rental_uris":{"android":"levelo://app?vid=779df052-2e91-4c4c-b7c7-c99a5f967063","ios":"levelo://app?vid=779df052-2e91-4c4c-b7c7-c99a5f967063"},"vehicle_type_id":"4","last_reported":1743232118,"current_range_meters":9200,"station_id":"ce4bh2p2rcd13ifvqdi0","pricing_plan_id":"cebpf4jnsgd1na2vs0mg"},{"bike_id":"e4614adf-59ca-49c9-9f29-fb2629aacd37","system_id":"levelo_inurba_marseille","lat":43.28635,"lon":5.35147,"is_reserved":false,"is_disabled":false,"rental_uris":{"android":"levelo://app?vid=e4614adf-59ca-49c9-9f29-fb2629aacd37","ios":"levelo://app?vid=e4614adf-59ca-49c9-9f29-fb2629aacd37"},"vehicle_type_id":"4","last_reported":1743232118,"current_range_meters":9200,"station_id":"ce4bhch2rcd13ifvqeug","pricing_plan_id":"cebpf4jnsgd1na2vs0mg"},{"bike_id":"b35af153-65c3-4e01-ad77-b4570783aa52","system_id":"levelo_inurba_marseille","lat":43.30925,"lon":5.40139,"is_reserved":false,"is_disabled":false,"rental_uris":{"android":"levelo://app?vid=b35af153-65c3-4e01-ad77-b4570783aa52","ios":"levelo://app?vid=b35af153-65c3-4e01-ad77-b4570783aa52"},"vehicle_type_id":"4","last_reported":1743232118,"current_range_meters":9600,"station_id":"ce4bgvp2rcd13ifvqct0","pricing_plan_id":"cebpf4jnsgd1na2vs0mg"},{"bike_id":"7cb45fac-62b5-4ead-be9c-e53660ce9dfb","system_id":"levelo_inurba_marseille","lat":43.28732,"lon":5.40021,"is_reserved":false,"is_disabled":true,"rental_uris":{"android":"levelo://app?vid=7cb45fac-62b5-4ead-be9c-e53660ce9dfb","ios":"levelo://app?vid=7cb45fac-62b5-4ead-be9c-e53660ce9dfb"},"vehicle_type_id":"4","last_reported":1743232118,"current_range_meters":9600,"station_id":"ce4bho92rcd13ifvqh3g","pricing_plan_id":"cebpf4jnsgd1na2vs0mg"},{"bike_id":"983c4c9f-ee1a-4d13-8ce7-bfd36c479f46","system_id":"levelo_inurba_marseille","lat":43.24174,"lon":5.36404,"is_reserved":false,"is_disabled":false,"rental_uris":{"android":"levelo://app?vid=983c4c9f-ee1a-4d13-8ce7-bfd36c479f46","ios":"levelo://app?vid=983c4c9f-ee1a-4d13-8ce7-bfd36c479f46"},"vehicle_type_id":"4","last_reported":1743232118,"current_range_meters":9600,"station_id":"cpo36qri1sfpv3e86is0","pricing_plan_id":"cebpf4jnsgd1na2vs0mg"},{"bike_id":"d110ea9c-afe8-47f1-b008-e66bc6e44a55","system_id":"levelo_inurba_marseille","lat":43.28419,"lon":5.34998,"is_reserved":false,"is_disabled":false,"rental_uris":{"android":"levelo://app?vid=d110ea9c-afe8-47f1-b008-e66bc6e44a55","ios":"levelo://app?vid=d110ea9c-afe8-47f1-b008-e66bc6e44a55"},"vehicle_type_id":"4","last_reported":1743232118,"current_range_meters":9600,"station_id":"ce4bhbh2rcd13ifvqepg","pricing_plan_id":"cebpf4jnsgd1na2vs0mg"},{"bike_id":"5931979f-217a-43a6-8599-373bf824e6f5","system_id":"levelo_inurba_marseille","lat":43.287,"lon":5.39971,"is_reserved":false,"is_disabled":false,"rental_uris":{"android":"levelo://app?vid=5931979f-217a-43a6-8599-373bf824e6f5","ios":"levelo://app?vid=5931979f-217a-43a6-8599-373bf824e6f5"},"vehicle_type_id":"4","last_reported":1743232118,"current_range_meters":9600,"station_id":"ce4bho92rcd13ifvqh3g","pricing_plan_id":"cebpf4jnsgd1na2vs0mg"},{"bike_id":"676aa410-285a-48fa-832f-41d35fee7288","system_id":"levelo_inurba_marseille","lat":43.28604,"lon":5.37053,"is_reserved":false,"is_disabled":false,"rental_uris":{"android":"levelo://app?vid=676aa410-285a-48fa-832f-41d35fee7288","ios":"levelo://app?vid=676aa410-285a-48fa-832f-41d35fee7288"},"vehicle_type_id":"4","last_reported":1743232118,"current_range_meters":9600,"station_id":"ce4bht12rcd13ifvqi60","pricing_plan_id":"cebpf4jnsgd1na2vs0mg"},{"bike_id":"3a2e35ff-67f7-42a4-b09b-1fe3ef6e95d8","system_id":"levelo_inurba_marseille","lat":43.22929,"lon":5.35378,"is_reserved":false,"is_disabled":false,"rental_uris":{"android":"levelo://app?vid=3a2e35ff-67f7-42a4-b09b-1fe3ef6e95d8","ios":"levelo://app?vid=3a2e35ff-67f7-42a4-b09b-1fe3ef6e95d8"},"vehicle_type_id":"4","last_reported":1743232118,"current_range_meters":9600,"station_id":"cpo3532slgdg3j2ikp40","pricing_plan_id":"cebpf4jnsgd1na2vs0mg"},{"bike_id":"1a8ec8fe-cd0f-44f4-9a76-dfc354a60ccc","system_id":"levelo_inurba_marseille","lat":43.23971,"lon":5.36637,"is_reserved":false,"is_disabled":false,"rental_uris":{"android":"levelo://app?vid=1a8ec8fe-cd0f-44f4-9a76-dfc354a60ccc","ios":"levelo://app?vid=1a8ec8fe-cd0f-44f4-9a76-dfc354a60ccc"},"vehicle_type_id":"4","last_reported":1743232118,"current_range_meters":9600,"station_id":"ce4bhi12rcd13ifvqfp0","pricing_plan_id":"cebpf4jnsgd1na2vs0mg"},{"bike_id":"ea4d652d-0687-4fa8-9e2c-7cf26eec9129","system_id":"levelo_inurba_marseille","lat":43.29242,"lon":5.38448,"is_reserved":false,"is_disabled":true,"rental_uris":{"android":"levelo://app?vid=ea4d652d-0687-4fa8-9e2c-7cf26eec9129","ios":"levelo://app?vid=ea4d652d-0687-4fa8-9e2c-7cf26eec9129"},"vehicle_type_id":"4","last_reported":1743232118,"current_range_meters":9600,"station_id":"ce4bh692rcd13ifvqea0","pricing_plan_id":"cebpf4jnsgd1na2vs0mg"},{"bike_id":"d14cdd1e-f0b3-48a5-be5e-77128af69a2d","system_id":"levelo_inurba_marseille","lat":43.28623,"lon":5.35102,"is_reserved":false,"is_disabled":false,"rental_uris":{"android":"levelo://app?vid=d14cdd1e-f0b3-48a5-be5e-77128af69a2d","ios":"levelo://app?vid=d14cdd1e-f0b3-48a5-be5e-77128af69a2d"},"vehicle_type_id":"4","last_reported":1743232118,"current_range_meters":9600,"station_id":"ce4bhch2rcd13ifvqeug","pricing_plan_id":"cebpf4jnsgd1na2vs0mg"},{"bike_id":"86402da5-f9ef-43b6-a281-06ce7c4c3160","system_id":"levelo_inurba_marseille","lat":43.28636,"lon":5.35204,"is_reserved":false,"is_disabled":false,"rental_uris":{"android":"levelo://app?vid=86402da5-f9ef-43b6-a281-06ce7c4c3160","ios":"levelo://app?vid=86402da5-f9ef-43b6-a281-06ce7c4c3160"},"vehicle_type_id":"4","last_reported":1743232118,"current_range_meters":10000,"station_id":"","pricing_plan_id":"cebpf4jnsgd1na2vs0mg"},{"bike_id":"b1ecd358-38ec-4753-8af1-9b87454b444a","system_id":"levelo_inurba_marseille","lat":43.28652,"lon":5.3517,"is_reserved":false,"is_disabled":false,"rental_uris":{"android":"levelo://app?vid=b1ecd358-38ec-4753-8af1-9b87454b444a","ios":"levelo://app?vid=b1ecd358-38ec-4753-8af1-9b87454b444a"},"vehicle_type_id":"4","last_reported":1743232118,"current_range_meters":10000,"station_id":"","pricing_plan_id":"cebpf4jnsgd1na2vs0mg"},{"bike_id":"376e2628-4699-4887-9ff3-b8de9424e7ce","system_id":"levelo_inurba_marseille","lat":43.27981,"lon":5.41662,"is_reserved":false,"is_disabled":false,"rental_uris":{"android":"levelo://app?vid=376e2628-4699-4887-9ff3-b8de9424e7ce","ios":"levelo://app?vid=376e2628-4699-4887-9ff3-b8de9424e7ce"},"vehicle_type_id":"4","last_reported":1743232118,"current_range_meters":10000,"station_id":"ce4bho12rcd13ifvqh1g","pricing_plan_id":"cebpf4jnsgd1na2vs0mg"},{"bike_id":"8b6540df-f0de-4fe4-a1a8-c73d8d908f05","system_id":"levelo_inurba_marseille","lat":43.32369,"lon":5.38885,"is_reserved":false,"is_disabled":false,"rental_uris":{"android":"levelo://app?vid=8b6540df-f0de-4fe4-a1a8-c73d8d908f05","ios":"levelo://app?vid=8b6540df-f0de-4fe4-a1a8-c73d8d908f05"},"vehicle_type_id":"4","last_reported":1743232118,"current_range_meters":10000,"station_id":"ce4bhqp2rcd13ifvqhog","pricing_plan_id":"cebpf4jnsgd1na2vs0mg"},{"bike_id":"52513dff-a40d-43af-9ce1-676840710ebe","system_id":"levelo_inurba_marseille","lat":43.28071,"lon":5.39658,"is_reserved":false,"is_disabled":false,"rental_uris":{"android":"levelo://app?vid=52513dff-a40d-43af-9ce1-676840710ebe","ios":"levelo://app?vid=52513dff-a40d-43af-9ce1-676840710ebe"},"vehicle_type_id":"4","last_reported":1743232118,"current_range_meters":10000,"station_id":"ce4bho12rcd13ifvqh2g","pricing_plan_id":"cebpf4jnsgd1na2vs0mg"},{"bike_id":"4d33bc5b-fded-4b79-abc4-d8ca2a4f7165","system_id":"levelo_inurba_marseille","lat":43.25726,"lon":5.41137,"is_reserved":false,"is_disabled":false,"rental_uris":{"android":"levelo://app?vid=4d33bc5b-fded-4b79-abc4-d8ca2a4f7165","ios":"levelo://app?vid=4d33bc5b-fded-4b79-abc4-d8ca2a4f7165"},"vehicle_type_id":"4","last_reported":1743232118,"current_range_meters":10000,"station_id":"ce4bhkp2rcd13ifvqgd0","pricing_plan_id":"cebpf4jnsgd1na2vs0mg"},{"bike_id":"980b1b8d-c114-4f00-88f8-a0ddccb8fb71","system_id":"levelo_inurba_marseille","lat":43.28634,"lon":5.35104,"is_reserved":false,"is_disabled":false,"rental_uris":{"android":"levelo://app?vid=980b1b8d-c114-4f00-88f8-a0ddccb8fb71","ios":"levelo://app?vid=980b1b8d-c114-4f00-88f8-a0ddccb8fb71"},"vehicle_type_id":"4","last_reported":1743232118,"current_range_meters":10000,"station_id":"ce4bhch2rcd13ifvqeug","pricing_plan_id":"cebpf4jnsgd1na2vs0mg"},{"bike_id":"258cd958-e46f-4e56-879b-fac508681c9b","system_id":"levelo_inurba_marseille","lat":43.28949,"lon":5.36412,"is_reserved":false,"is_disabled":false,"rental_uris":{"android":"levelo://app?vid=258cd958-e46f-4e56-879b-fac508681c9b","ios":"levelo://app?vid=258cd958-e46f-4e56-879b-fac508681c9b"},"vehicle_type_id":"4","last_reported":1743232118,"current_range_meters":10000,"station_id":"ce4bhc92rcd13ifvqetg","pricing_plan_id":"cebpf4jnsgd1na2vs0mg"},{"bike_id":"651396a6-560d-4eae-a200-0f80cbcf5fd9","system_id":"levelo_inurba_marseille","lat":43.31264,"lon":5.36842,"is_reserved":false,"is_disabled":false,"rental_uris":{"android":"levelo://app?vid=651396a6-560d-4eae-a200-0f80cbcf5fd9","ios":"levelo://app?vid=651396a6-560d-4eae-a200-0f80cbcf5fd9"},"vehicle_type_id":"4","last_reported":1743232118,"current_range_meters":9600,"station_id":"ce4bgl92rcd13ifvqbq0","pricing_plan_id":"cebpf4jnsgd1na2vs0mg"},{"bike_id":"96fa1290-e699-40b9-9109-379d3b77c6fb","system_id":"levelo_inurba_marseille","lat":43.33731,"lon":5.39205,"is_reserved":false,"is_disabled":false,"rental_uris":{"android":"levelo://app?vid=96fa1290-e699-40b9-9109-379d3b77c6fb","ios":"levelo://app?vid=96fa1290-e699-40b9-9109-379d3b77c6fb"},"vehicle_type_id":"4","last_reported":1743232118,"current_range_meters":10800,"station_id":"ce4bhr92rcd13ifvqhsg","pricing_plan_id":"cebpf4jnsgd1na2vs0mg"},{"bike_id":"a2dd611d-97f8-4a80-9052-0416216c6368","system_id":"levelo_inurba_marseille","lat":43.29205,"lon":5.36055,"is_reserved":false,"is_disabled":true,"rental_uris":{"android":"levelo://app?vid=a2dd611d-97f8-4a80-9052-0416216c6368","ios":"levelo://app?vid=a2dd611d-97f8-4a80-9052-0416216c6368"},"vehicle_type_id":"4","last_reported":1743232118,"current_range_meters":10800,"station_id":"ce4bhbh2rcd13ifvqeqg","pricing_plan_id":"cebpf4jnsgd1na2vs0mg"},{"bike_id":"4b2323ae-94b8-41f7-9062-4d9bd4bd549e","system_id":"levelo_inurba_marseille","lat":43.24168,"lon":5.36447,"is_reserved":false,"is_disabled":false,"rental_uris":{"android":"levelo://app?vid=4b2323ae-94b8-41f7-9062-4d9bd4bd549e","ios":"levelo://app?vid=4b2323ae-94b8-41f7-9062-4d9bd4bd549e"},"vehicle_type_id":"4","last_reported":1743232118,"current_range_meters":10800,"station_id":"cpo36qri1sfpv3e86is0","pricing_plan_id":"cebpf4jnsgd1na2vs0mg"},{"bike_id":"9b4b936a-6ccf-4470-91dd-67504c3f349f","system_id":"levelo_inurba_marseille","lat":43.26947,"lon":5.38632,"is_reserved":false,"is_disabled":false,"rental_uris":{"android":"levelo://app?vid=9b4b936a-6ccf-4470-91dd-67504c3f349f","ios":"levelo://app?vid=9b4b936a-6ccf-4470-91dd-67504c3f349f"},"vehicle_type_id":"4","last_reported":1743232118,"current_range_meters":10800,"station_id":"ce4bhh92rcd13ifvqfh0","pricing_plan_id":"cebpf4jnsgd1na2vs0mg"},{"bike_id":"7aaf5a0e-2c2f-4ed8-8a34-59a0a4d174c4","system_id":"levelo_inurba_marseille","lat":43.28864,"lon":5.39307,"is_reserved":false,"is_disabled":false,"rental_uris":{"android":"levelo://app?vid=7aaf5a0e-2c2f-4ed8-8a34-59a0a4d174c4","ios":"levelo://app?vid=7aaf5a0e-2c2f-4ed8-8a34-59a0a4d174c4"},"vehicle_type_id":"4","last_reported":1743232118,"current_range_meters":10800,"station_id":"ce4bh2p2rcd13ifvqdi0","pricing_plan_id":"cebpf4jnsgd1na2vs0mg"},{"bike_id":"161d8420-1bd4-4c54-8885-cf257d3ec950","system_id":"levelo_inurba_marseille","lat":43.25008,"lon":5.38974,"is_reserved":false,"is_disabled":false,"rental_uris":{"android":"levelo://app?vid=161d8420-1bd4-4c54-8885-cf257d3ec950","ios":"levelo://app?vid=161d8420-1bd4-4c54-8885-cf257d3ec950"},"vehicle_type_id":"4","last_reported":1743232118,"current_range_meters":10800,"station_id":"ce4bhgp2rcd13ifvqfd0","pricing_plan_id":"cebpf4jnsgd1na2vs0mg"},{"bike_id":"3a632c6f-7f42-4629-aa6e-0a86e11bf372","system_id":"levelo_inurba_marseille","lat":43.24158,"lon":5.39757,"is_reserved":false,"is_disabled":false,"rental_uris":{"android":"levelo://app?vid=3a632c6f-7f42-4629-aa6e-0a86e11bf372","ios":"levelo://app?vid=3a632c6f-7f42-4629-aa6e-0a86e11bf372"},"vehicle_type_id":"4","last_reported":1743232118,"current_range_meters":10800,"station_id":"ce4bhn12rcd13ifvqgpg","pricing_plan_id":"cebpf4jnsgd1na2vs0mg"},{"bike_id":"cc888607-afe6-4660-baa2-d1a347aa74d4","system_id":"levelo_inurba_marseille","lat":43.28813,"lon":5.39345,"is_reserved":false,"is_disabled":false,"rental_uris":{"android":"levelo://app?vid=cc888607-afe6-4660-baa2-d1a347aa74d4","ios":"levelo://app?vid=cc888607-afe6-4660-baa2-d1a347aa74d4"},"vehicle_type_id":"4","last_reported":1743232118,"current_range_meters":10800,"station_id":"ce4bh2p2rcd13ifvqdi0","pricing_plan_id":"cebpf4jnsgd1na2vs0mg"},{"bike_id":"c002039a-7a5c-4c14-b885-cd2b9fb7c7ec","system_id":"levelo_inurba_marseille","lat":43.286561,"lon":5.363429,"is_reserved":false,"is_disabled":false,"rental_uris":{"android":"levelo://app?vid=c002039a-7a5c-4c14-b885-cd2b9fb7c7ec","ios":"levelo://app?vid=c002039a-7a5c-4c14-b885-cd2b9fb7c7ec"},"vehicle_type_id":"4","last_reported":1743232118,"current_range_meters":10800,"station_id":"ce4bhah2rcd13ifvqej0","pricing_plan_id":"cebpf4jnsgd1na2vs0mg"},{"bike_id":"5b6a8b80-2d63-46d6-9df2-cbd6216a992b","system_id":"levelo_inurba_marseille","lat":43.313514,"lon":5.367407,"is_reserved":false,"is_disabled":true,"rental_uris":{"android":"levelo://app?vid=5b6a8b80-2d63-46d6-9df2-cbd6216a992b","ios":"levelo://app?vid=5b6a8b80-2d63-46d6-9df2-cbd6216a992b"},"vehicle_type_id":"4","last_reported":1743232118,"current_range_meters":10800,"station_id":"ce4bgr92rcd13ifvqc6g","pricing_plan_id":"cebpf4jnsgd1na2vs0mg"},{"bike_id":"f9de63e8-e5f0-486f-88e4-96470d4381e2","system_id":"levelo_inurba_marseille","lat":43.29277,"lon":5.40131,"is_reserved":false,"is_disabled":false,"rental_uris":{"android":"levelo://app?vid=f9de63e8-e5f0-486f-88e4-96470d4381e2","ios":"levelo://app?vid=f9de63e8-e5f0-486f-88e4-96470d4381e2"},"vehicle_type_id":"4","last_reported":1743232118,"current_range_meters":11200,"station_id":"ce4bh312rcd13ifvqdk0","pricing_plan_id":"cebpf4jnsgd1na2vs0mg"},{"bike_id":"b590f89d-8143-4d33-b2c8-aec684e9f18f","system_id":"levelo_inurba_marseille","lat":43.30326,"lon":5.40441,"is_reserved":false,"is_disabled":false,"rental_uris":{"android":"levelo://app?vid=b590f89d-8143-4d33-b2c8-aec684e9f18f","ios":"levelo://app?vid=b590f89d-8143-4d33-b2c8-aec684e9f18f"},"vehicle_type_id":"4","last_reported":1743232118,"current_range_meters":11200,"station_id":"ce4bh012rcd13ifvqd10","pricing_plan_id":"cebpf4jnsgd1na2vs0mg"},{"bike_id":"bc13ce4b-80c3-434c-be50-109c6ccb0031","system_id":"levelo_inurba_marseille","lat":43.292551,"lon":5.409092,"is_reserved":false,"is_disabled":false,"rental_uris":{"android":"levelo://app?vid=bc13ce4b-80c3-434c-be50-109c6ccb0031","ios":"levelo://app?vid=bc13ce4b-80c3-434c-be50-109c6ccb0031"},"vehicle_type_id":"4","last_reported":1743232118,"current_range_meters":11200,"station_id":"ce4bh192rcd13ifvqdc0","pricing_plan_id":"cebpf4jnsgd1na2vs0mg"},{"bike_id":"4586e23a-2d77-446c-8e8c-a15b6ae5de02","system_id":"levelo_inurba_marseille","lat":43.28605,"lon":5.38131,"is_reserved":false,"is_disabled":false,"rental_uris":{"android":"levelo://app?vid=4586e23a-2d77-446c-8e8c-a15b6ae5de02","ios":"levelo://app?vid=4586e23a-2d77-446c-8e8c-a15b6ae5de02"},"vehicle_type_id":"4","last_reported":1743232118,"current_range_meters":11200,"station_id":"","pricing_plan_id":"cebpf4jnsgd1na2vs0mg"},{"bike_id":"993980d6-9d20-4788-86fc-be6d236dccfb","system_id":"levelo_inurba_marseille","lat":43.29277,"lon":5.40165,"is_reserved":false,"is_disabled":false,"rental_uris":{"android":"levelo://app?vid=993980d6-9d20-4788-86fc-be6d236dccfb","ios":"levelo://app?vid=993980d6-9d20-4788-86fc-be6d236dccfb"},"vehicle_type_id":"4","last_reported":1743232118,"current_range_meters":11200,"station_id":"ce4bh312rcd13ifvqdk0","pricing_plan_id":"cebpf4jnsgd1na2vs0mg"},{"bike_id":"4f2ef70c-1612-49b7-b152-9f750843e2a0","system_id":"levelo_inurba_marseille","lat":43.3032,"lon":5.40449,"is_reserved":false,"is_disabled":false,"rental_uris":{"android":"levelo://app?vid=4f2ef70c-1612-49b7-b152-9f750843e2a0","ios":"levelo://app?vid=4f2ef70c-1612-49b7-b152-9f750843e2a0"},"vehicle_type_id":"4","last_reported":1743232118,"current_range_meters":11200,"station_id":"ce4bh012rcd13ifvqd10","pricing_plan_id":"cebpf4jnsgd1na2vs0mg"},{"bike_id":"54cac18f-5ce4-4e7f-b00d-d82fe785171e","system_id":"levelo_inurba_marseille","lat":43.30595,"lon":5.3935,"is_reserved":false,"is_disabled":false,"rental_uris":{"android":"levelo://app?vid=54cac18f-5ce4-4e7f-b00d-d82fe785171e","ios":"levelo://app?vid=54cac18f-5ce4-4e7f-b00d-d82fe785171e"},"vehicle_type_id":"4","last_reported":1743232118,"current_range_meters":10800,"station_id":"ce4bh0p2rcd13ifvqd80","pricing_plan_id":"cebpf4jnsgd1na2vs0mg"},{"bike_id":"d82c4c77-dd71-4aee-b863-66f4ff3733a4","system_id":"levelo_inurba_marseille","lat":43.24697,"lon":5.38157,"is_reserved":false,"is_disabled":false,"rental_uris":{"android":"levelo://app?vid=d82c4c77-dd71-4aee-b863-66f4ff3733a4","ios":"levelo://app?vid=d82c4c77-dd71-4aee-b863-66f4ff3733a4"},"vehicle_type_id":"4","last_reported":1743232118,"current_range_meters":11600,"station_id":"ce4bhih2rcd13ifvqfr0","pricing_plan_id":"cebpf4jnsgd1na2vs0mg"},{"bike_id":"6923d6a9-7a78-46cf-a22b-73ed15f379bc","system_id":"levelo_inurba_marseille","lat":43.28101,"lon":5.39638,"is_reserved":false,"is_disabled":false,"rental_uris":{"android":"levelo://app?vid=6923d6a9-7a78-46cf-a22b-73ed15f379bc","ios":"levelo://app?vid=6923d6a9-7a78-46cf-a22b-73ed15f379bc"},"vehicle_type_id":"4","last_reported":1743232118,"current_range_meters":11600,"station_id":"ce4bho12rcd13ifvqh2g","pricing_plan_id":"cebpf4jnsgd1na2vs0mg"},{"bike_id":"3d6f77a5-38af-4abc-b9f0-4b0dedd9675c","system_id":"levelo_inurba_marseille","lat":43.24882,"lon":5.39403,"is_reserved":false,"is_disabled":false,"rental_uris":{"android":"levelo://app?vid=3d6f77a5-38af-4abc-b9f0-4b0dedd9675c","ios":"levelo://app?vid=3d6f77a5-38af-4abc-b9f0-4b0dedd9675c"},"vehicle_type_id":"4","last_reported":1743232118,"current_range_meters":11600,"station_id":"","pricing_plan_id":"cebpf4jnsgd1na2vs0mg"},{"bike_id":"3f7539a9-fe9d-4bf3-a143-40a9bdd56d65","system_id":"levelo_inurba_marseille","lat":43.29553,"lon":5.42289,"is_reserved":false,"is_disabled":true,"rental_uris":{"android":"levelo://app?vid=3f7539a9-fe9d-4bf3-a143-40a9bdd56d65","ios":"levelo://app?vid=3f7539a9-fe9d-4bf3-a143-40a9bdd56d65"},"vehicle_type_id":"4","last_reported":1743232118,"current_range_meters":11600,"station_id":"ce4bhph2rcd13ifvqhdg","pricing_plan_id":"cebpf4jnsgd1na2vs0mg"},{"bike_id":"d5663f91-3cb7-47b4-8564-7ef2d5682e29","system_id":"levelo_inurba_marseille","lat":43.31493,"lon":5.37201,"is_reserved":false,"is_disabled":false,"rental_uris":{"android":"levelo://app?vid=d5663f91-3cb7-47b4-8564-7ef2d5682e29","ios":"levelo://app?vid=d5663f91-3cb7-47b4-8564-7ef2d5682e29"},"vehicle_type_id":"4","last_reported":1743232118,"current_range_meters":11600,"station_id":"ce4bgt12rcd13ifvqcd0","pricing_plan_id":"cebpf4jnsgd1na2vs0mg"},{"bike_id":"6938d0ce-f954-4fff-b95b-2d698d38a5d7","system_id":"levelo_inurba_marseille","lat":43.27925,"lon":5.41036,"is_reserved":false,"is_disabled":false,"rental_uris":{"android":"levelo://app?vid=6938d0ce-f954-4fff-b95b-2d698d38a5d7","ios":"levelo://app?vid=6938d0ce-f954-4fff-b95b-2d698d38a5d7"},"vehicle_type_id":"4","last_reported":1743232118,"current_range_meters":11600,"station_id":"ce4bhnp2rcd13ifvqh0g","pricing_plan_id":"cebpf4jnsgd1na2vs0mg"},{"bike_id":"9f2583cf-461d-4d57-8c37-99ef1e89cade","system_id":"levelo_inurba_marseille","lat":43.231944,"lon":5.355516,"is_reserved":false,"is_disabled":false,"rental_uris":{"android":"levelo://app?vid=9f2583cf-461d-4d57-8c37-99ef1e89cade","ios":"levelo://app?vid=9f2583cf-461d-4d57-8c37-99ef1e89cade"},"vehicle_type_id":"4","last_reported":1743232118,"current_range_meters":11600,"station_id":"ce4bhu92rcd13ifvqi70","pricing_plan_id":"cebpf4jnsgd1na2vs0mg"},{"bike_id":"18a7459a-9de6-4413-bb5e-bd445e06b1f8","system_id":"levelo_inurba_marseille","lat":43.29219,"lon":5.35819,"is_reserved":false,"is_disabled":false,"rental_uris":{"android":"levelo://app?vid=18a7459a-9de6-4413-bb5e-bd445e06b1f8","ios":"levelo://app?vid=18a7459a-9de6-4413-bb5e-bd445e06b1f8"},"vehicle_type_id":"4","last_reported":1743232118,"current_range_meters":11600,"station_id":"ce4bhb12rcd13ifvqel0","pricing_plan_id":"cebpf4jnsgd1na2vs0mg"},{"bike_id":"3936dc87-5b94-4b1d-885f-ed7a4849921c","system_id":"levelo_inurba_marseille","lat":43.2696,"lon":5.38646,"is_reserved":false,"is_disabled":false,"rental_uris":{"android":"levelo://app?vid=3936dc87-5b94-4b1d-885f-ed7a4849921c","ios":"levelo://app?vid=3936dc87-5b94-4b1d-885f-ed7a4849921c"},"vehicle_type_id":"4","last_reported":1743232118,"current_range_meters":12000,"station_id":"ce4bhh92rcd13ifvqfh0","pricing_plan_id":"cebpf4jnsgd1na2vs0mg"},{"bike_id":"c573c046-f36a-4bd3-af73-5fc85d05e776","system_id":"levelo_inurba_marseille","lat":43.28452,"lon":5.35893,"is_reserved":false,"is_disabled":false,"rental_uris":{"android":"levelo://app?vid=c573c046-f36a-4bd3-af73-5fc85d05e776","ios":"levelo://app?vid=c573c046-f36a-4bd3-af73-5fc85d05e776"},"vehicle_type_id":"4","last_reported":1743232118,"current_range_meters":12000,"station_id":"ce4bhah2rcd13ifvqei0","pricing_plan_id":"cebpf4jnsgd1na2vs0mg"},{"bike_id":"cef7767c-2350-4b54-be5c-fc4153b8edec","system_id":"levelo_inurba_marseille","lat":43.29769,"lon":5.39356,"is_reserved":false,"is_disabled":true,"rental_uris":{"android":"levelo://app?vid=cef7767c-2350-4b54-be5c-fc4153b8edec","ios":"levelo://app?vid=cef7767c-2350-4b54-be5c-fc4153b8edec"},"vehicle_type_id":"4","last_reported":1743232118,"current_range_meters":12000,"station_id":"chh1huq6cuj3fo74tm60","pricing_plan_id":"cebpf4jnsgd1na2vs0mg"},{"bike_id":"2acfa73f-a641-41f1-89a3-4a76bd75321b","system_id":"levelo_inurba_marseille","lat":43.30284,"lon":5.40045,"is_reserved":false,"is_disabled":false,"rental_uris":{"android":"levelo://app?vid=2acfa73f-a641-41f1-89a3-4a76bd75321b","ios":"levelo://app?vid=2acfa73f-a641-41f1-89a3-4a76bd75321b"},"vehicle_type_id":"4","last_reported":1743232118,"current_range_meters":12000,"station_id":"ce4bgvh2rcd13ifvqcs0","pricing_plan_id":"cebpf4jnsgd1na2vs0mg"},{"bike_id":"d3ecc912-dd45-41e9-9931-0b8cba10b689","system_id":"levelo_inurba_marseille","lat":43.279189,"lon":5.395883,"is_reserved":false,"is_disabled":false,"rental_uris":{"android":"levelo://app?vid=d3ecc912-dd45-41e9-9931-0b8cba10b689","ios":"levelo://app?vid=d3ecc912-dd45-41e9-9931-0b8cba10b689"},"vehicle_type_id":"4","last_reported":1743232118,"current_range_meters":12000,"station_id":"ce4bhf92rcd13ifvqf40","pricing_plan_id":"cebpf4jnsgd1na2vs0mg"},{"bike_id":"7fdcd55f-1c78-4ded-99ed-725169c92149","system_id":"levelo_inurba_marseille","lat":43.27387,"lon":5.38276,"is_reserved":false,"is_disabled":false,"rental_uris":{"android":"levelo://app?vid=7fdcd55f-1c78-4ded-99ed-725169c92149","ios":"levelo://app?vid=7fdcd55f-1c78-4ded-99ed-725169c92149"},"vehicle_type_id":"4","last_reported":1743232118,"current_range_meters":12000,"station_id":"","pricing_plan_id":"cebpf4jnsgd1na2vs0mg"},{"bike_id":"55f17432-8643-4cf6-acff-3f0a026dccc9","system_id":"levelo_inurba_marseille","lat":43.27975,"lon":5.38763,"is_reserved":false,"is_disabled":false,"rental_uris":{"android":"levelo://app?vid=55f17432-8643-4cf6-acff-3f0a026dccc9","ios":"levelo://app?vid=55f17432-8643-4cf6-acff-3f0a026dccc9"},"vehicle_type_id":"4","last_reported":1743232118,"current_range_meters":12400,"station_id":"ce4bhg12rcd13ifvqf80","pricing_plan_id":"cebpf4jnsgd1na2vs0mg"},{"bike_id":"96ac20e8-5840-4579-b371-184ec6253952","system_id":"levelo_inurba_marseille","lat":43.275016,"lon":5.41146,"is_reserved":false,"is_disabled":false,"rental_uris":{"android":"levelo://app?vid=96ac20e8-5840-4579-b371-184ec6253952","ios":"levelo://app?vid=96ac20e8-5840-4579-b371-184ec6253952"},"vehicle_type_id":"4","last_reported":1743232118,"current_range_meters":12400,"station_id":"","pricing_plan_id":"cebpf4jnsgd1na2vs0mg"},{"bike_id":"0358092f-a004-46e4-a31a-2526bdebfc87","system_id":"levelo_inurba_marseille","lat":43.26697,"lon":5.38254,"is_reserved":false,"is_disabled":false,"rental_uris":{"android":"levelo://app?vid=0358092f-a004-46e4-a31a-2526bdebfc87","ios":"levelo://app?vid=0358092f-a004-46e4-a31a-2526bdebfc87"},"vehicle_type_id":"4","last_reported":1743232118,"current_range_meters":12400,"station_id":"ce4bhg92rcd13ifvqf90","pricing_plan_id":"cebpf4jnsgd1na2vs0mg"},{"bike_id":"89b372e0-e34b-4448-a651-9f0d9816c98e","system_id":"levelo_inurba_marseille","lat":43.24179,"lon":5.36452,"is_reserved":false,"is_disabled":false,"rental_uris":{"android":"levelo://app?vid=89b372e0-e34b-4448-a651-9f0d9816c98e","ios":"levelo://app?vid=89b372e0-e34b-4448-a651-9f0d9816c98e"},"vehicle_type_id":"4","last_reported":1743232118,"current_range_meters":12400,"station_id":"cpo36qri1sfpv3e86is0","pricing_plan_id":"cebpf4jnsgd1na2vs0mg"},{"bike_id":"ad074726-9d59-42fc-b92d-c5e8dd37ec8f","system_id":"levelo_inurba_marseille","lat":43.26227,"lon":5.40453,"is_reserved":false,"is_disabled":false,"rental_uris":{"android":"levelo://app?vid=ad074726-9d59-42fc-b92d-c5e8dd37ec8f","ios":"levelo://app?vid=ad074726-9d59-42fc-b92d-c5e8dd37ec8f"},"vehicle_type_id":"4","last_reported":1743232118,"current_range_meters":12400,"station_id":"ce4bhmh2rcd13ifvqgmg","pricing_plan_id":"cebpf4jnsgd1na2vs0mg"},{"bike_id":"d4f74c5c-23a4-4390-8b6b-72beeae35c2e","system_id":"levelo_inurba_marseille","lat":43.29964,"lon":5.37169,"is_reserved":false,"is_disabled":true,"rental_uris":{"android":"levelo://app?vid=d4f74c5c-23a4-4390-8b6b-72beeae35c2e","ios":"levelo://app?vid=d4f74c5c-23a4-4390-8b6b-72beeae35c2e"},"vehicle_type_id":"4","last_reported":1743232118,"current_range_meters":12400,"station_id":"ce4bgr92rcd13ifvqc7g","pricing_plan_id":"cebpf4jnsgd1na2vs0mg"},{"bike_id":"019c74de-8f3e-40a5-8942-c5eab69f1a42","system_id":"levelo_inurba_marseille","lat":43.28718,"lon":5.39984,"is_reserved":false,"is_disabled":false,"rental_uris":{"android":"levelo://app?vid=019c74de-8f3e-40a5-8942-c5eab69f1a42","ios":"levelo://app?vid=019c74de-8f3e-40a5-8942-c5eab69f1a42"},"vehicle_type_id":"4","last_reported":1743232118,"current_range_meters":12400,"station_id":"ce4bho92rcd13ifvqh3g","pricing_plan_id":"cebpf4jnsgd1na2vs0mg"},{"bike_id":"d454fd87-052b-4ca8-90be-84145efe9fd0","system_id":"levelo_inurba_marseille","lat":43.28506,"lon":5.379875,"is_reserved":false,"is_disabled":false,"rental_uris":{"android":"levelo://app?vid=d454fd87-052b-4ca8-90be-84145efe9fd0","ios":"levelo://app?vid=d454fd87-052b-4ca8-90be-84145efe9fd0"},"vehicle_type_id":"4","last_reported":1743232118,"current_range_meters":12800,"station_id":"","pricing_plan_id":"cebpf4jnsgd1na2vs0mg"},{"bike_id":"d42b0697-0001-445f-a5ab-e97cd50bb993","system_id":"levelo_inurba_marseille","lat":43.24826,"lon":5.37463,"is_reserved":false,"is_disabled":false,"rental_uris":{"android":"levelo://app?vid=d42b0697-0001-445f-a5ab-e97cd50bb993","ios":"levelo://app?vid=d42b0697-0001-445f-a5ab-e97cd50bb993"},"vehicle_type_id":"4","last_reported":1743232118,"current_range_meters":12800,"station_id":"ce4bhgh2rcd13ifvqfb0","pricing_plan_id":"cebpf4jnsgd1na2vs0mg"},{"bike_id":"8c7f8eda-084c-48db-b1e8-98138a0008f4","system_id":"levelo_inurba_marseille","lat":43.30269,"lon":5.40143,"is_reserved":false,"is_disabled":true,"rental_uris":{"android":"levelo://app?vid=8c7f8eda-084c-48db-b1e8-98138a0008f4","ios":"levelo://app?vid=8c7f8eda-084c-48db-b1e8-98138a0008f4"},"vehicle_type_id":"4","last_reported":1743232118,"current_range_meters":12800,"station_id":"ce4bgvh2rcd13ifvqcs0","pricing_plan_id":"cebpf4jnsgd1na2vs0mg"},{"bike_id":"6b4cfcd1-08df-48e0-9d17-53a80535687a","system_id":"levelo_inurba_marseille","lat":43.281055,"lon":5.378321,"is_reserved":false,"is_disabled":false,"rental_uris":{"android":"levelo://app?vid=6b4cfcd1-08df-48e0-9d17-53a80535687a","ios":"levelo://app?vid=6b4cfcd1-08df-48e0-9d17-53a80535687a"},"vehicle_type_id":"4","last_reported":1743232118,"current_range_meters":12800,"station_id":"ce4bha12rcd13ifvqee0","pricing_plan_id":"cebpf4jnsgd1na2vs0mg"},{"bike_id":"a87a4f3d-aefc-4b8f-a7df-bf0a94f9093e","system_id":"levelo_inurba_marseille","lat":43.28342,"lon":5.38103,"is_reserved":false,"is_disabled":false,"rental_uris":{"android":"levelo://app?vid=a87a4f3d-aefc-4b8f-a7df-bf0a94f9093e","ios":"levelo://app?vid=a87a4f3d-aefc-4b8f-a7df-bf0a94f9093e"},"vehicle_type_id":"4","last_reported":1743232118,"current_range_meters":12800,"station_id":"ce4bh412rcd13ifvqdr0","pricing_plan_id":"cebpf4jnsgd1na2vs0mg"},{"bike_id":"a6841dc8-fe23-408f-b976-0d4692ece61b","system_id":"levelo_inurba_marseille","lat":43.30464,"lon":5.37896,"is_reserved":false,"is_disabled":false,"rental_uris":{"android":"levelo://app?vid=a6841dc8-fe23-408f-b976-0d4692ece61b","ios":"levelo://app?vid=a6841dc8-fe23-408f-b976-0d4692ece61b"},"vehicle_type_id":"4","last_reported":1743232118,"current_range_meters":12800,"station_id":"ce4bgup2rcd13ifvqcn0","pricing_plan_id":"cebpf4jnsgd1na2vs0mg"},{"bike_id":"56c7d975-e736-42e5-8d46-a2b4f71c4ac2","system_id":"levelo_inurba_marseille","lat":43.28712,"lon":5.39983,"is_reserved":false,"is_disabled":true,"rental_uris":{"android":"levelo://app?vid=56c7d975-e736-42e5-8d46-a2b4f71c4ac2","ios":"levelo://app?vid=56c7d975-e736-42e5-8d46-a2b4f71c4ac2"},"vehicle_type_id":"4","last_reported":1743232118,"current_range_meters":12800,"station_id":"ce4bho92rcd13ifvqh3g","pricing_plan_id":"cebpf4jnsgd1na2vs0mg"},{"bike_id":"b10013b1-6e18-45d0-93c6-e52068d555f2","system_id":"levelo_inurba_marseille","lat":43.28445,"lon":5.35902,"is_reserved":false,"is_disabled":true,"rental_uris":{"android":"levelo://app?vid=b10013b1-6e18-45d0-93c6-e52068d555f2","ios":"levelo://app?vid=b10013b1-6e18-45d0-93c6-e52068d555f2"},"vehicle_type_id":"4","last_reported":1743232118,"current_range_meters":12800,"station_id":"ce4bhah2rcd13ifvqei0","pricing_plan_id":"cebpf4jnsgd1na2vs0mg"},{"bike_id":"7f9e733c-fa89-49ab-8010-8acb21ac5585","system_id":"levelo_inurba_marseille","lat":43.23147,"lon":5.43707,"is_reserved":false,"is_disabled":false,"rental_uris":{"android":"levelo://app?vid=7f9e733c-fa89-49ab-8010-8acb21ac5585","ios":"levelo://app?vid=7f9e733c-fa89-49ab-8010-8acb21ac5585"},"vehicle_type_id":"4","last_reported":1743232118,"current_range_meters":12800,"station_id":"ce4bhmp2rcd13ifvqgog","pricing_plan_id":"cebpf4jnsgd1na2vs0mg"},{"bike_id":"838a22d7-46d9-4851-a0aa-3de8e56d7876","system_id":"levelo_inurba_marseille","lat":43.27211,"lon":5.39186,"is_reserved":false,"is_disabled":false,"rental_uris":{"android":"levelo://app?vid=838a22d7-46d9-4851-a0aa-3de8e56d7876","ios":"levelo://app?vid=838a22d7-46d9-4851-a0aa-3de8e56d7876"},"vehicle_type_id":"4","last_reported":1743232118,"current_range_meters":12800,"station_id":"ce4bhhp2rcd13ifvqfm0","pricing_plan_id":"cebpf4jnsgd1na2vs0mg"},{"bike_id":"8f889fa0-5fa0-4391-b0dc-ff8332f1e1e4","system_id":"levelo_inurba_marseille","lat":43.28099,"lon":5.39662,"is_reserved":false,"is_disabled":false,"rental_uris":{"android":"levelo://app?vid=8f889fa0-5fa0-4391-b0dc-ff8332f1e1e4","ios":"levelo://app?vid=8f889fa0-5fa0-4391-b0dc-ff8332f1e1e4"},"vehicle_type_id":"4","last_reported":1743232118,"current_range_meters":12800,"station_id":"ce4bho12rcd13ifvqh2g","pricing_plan_id":"cebpf4jnsgd1na2vs0mg"},{"bike_id":"fbcf3d94-57c6-42fa-b3a1-9492f2c69319","system_id":"levelo_inurba_marseille","lat":43.28861,"lon":5.35879,"is_reserved":false,"is_disabled":false,"rental_uris":{"android":"levelo://app?vid=fbcf3d94-57c6-42fa-b3a1-9492f2c69319","ios":"levelo://app?vid=fbcf3d94-57c6-42fa-b3a1-9492f2c69319"},"vehicle_type_id":"4","last_reported":1743232118,"current_range_meters":12800,"station_id":"ce4bhb12rcd13ifvqem0","pricing_plan_id":"cebpf4jnsgd1na2vs0mg"},{"bike_id":"699cb6a9-80bb-4d7b-8f84-b25847471872","system_id":"levelo_inurba_marseille","lat":43.28915,"lon":5.36412,"is_reserved":false,"is_disabled":false,"rental_uris":{"android":"levelo://app?vid=699cb6a9-80bb-4d7b-8f84-b25847471872","ios":"levelo://app?vid=699cb6a9-80bb-4d7b-8f84-b25847471872"},"vehicle_type_id":"4","last_reported":1743232118,"current_range_meters":12800,"station_id":"ce4bhc92rcd13ifvqetg","pricing_plan_id":"cebpf4jnsgd1na2vs0mg"},{"bike_id":"acf1e1c3-a629-4c7b-a838-cba3f3b54603","system_id":"levelo_inurba_marseille","lat":43.31853,"lon":5.37645,"is_reserved":false,"is_disabled":false,"rental_uris":{"android":"levelo://app?vid=acf1e1c3-a629-4c7b-a838-cba3f3b54603","ios":"levelo://app?vid=acf1e1c3-a629-4c7b-a838-cba3f3b54603"},"vehicle_type_id":"4","last_reported":1743232118,"current_range_meters":12800,"station_id":"","pricing_plan_id":"cebpf4jnsgd1na2vs0mg"},{"bike_id":"f7702038-5b05-4ea4-b3dd-53d00e3ca8f0","system_id":"levelo_inurba_marseille","lat":43.23563,"lon":5.40342,"is_reserved":false,"is_disabled":false,"rental_uris":{"android":"levelo://app?vid=f7702038-5b05-4ea4-b3dd-53d00e3ca8f0","ios":"levelo://app?vid=f7702038-5b05-4ea4-b3dd-53d00e3ca8f0"},"vehicle_type_id":"4","last_reported":1743232118,"current_range_meters":13600,"station_id":"","pricing_plan_id":"cebpf4jnsgd1na2vs0mg"},{"bike_id":"ee90131f-fac9-41ab-a515-7e354e587f5f","system_id":"levelo_inurba_marseille","lat":43.3058,"lon":5.39354,"is_reserved":false,"is_disabled":false,"rental_uris":{"android":"levelo://app?vid=ee90131f-fac9-41ab-a515-7e354e587f5f","ios":"levelo://app?vid=ee90131f-fac9-41ab-a515-7e354e587f5f"},"vehicle_type_id":"4","last_reported":1743232118,"current_range_meters":13600,"station_id":"ce4bh0p2rcd13ifvqd80","pricing_plan_id":"cebpf4jnsgd1na2vs0mg"},{"bike_id":"801ded7d-7987-40d6-a418-6c4946ce33af","system_id":"levelo_inurba_marseille","lat":43.28096,"lon":5.37834,"is_reserved":false,"is_disabled":false,"rental_uris":{"android":"levelo://app?vid=801ded7d-7987-40d6-a418-6c4946ce33af","ios":"levelo://app?vid=801ded7d-7987-40d6-a418-6c4946ce33af"},"vehicle_type_id":"4","last_reported":1743232118,"current_range_meters":13600,"station_id":"ce4bha12rcd13ifvqee0","pricing_plan_id":"cebpf4jnsgd1na2vs0mg"},{"bike_id":"3f2bcfca-c616-4059-a95b-b1ee7948eb41","system_id":"levelo_inurba_marseille","lat":43.29861,"lon":5.39736,"is_reserved":false,"is_disabled":false,"rental_uris":{"android":"levelo://app?vid=3f2bcfca-c616-4059-a95b-b1ee7948eb41","ios":"levelo://app?vid=3f2bcfca-c616-4059-a95b-b1ee7948eb41"},"vehicle_type_id":"4","last_reported":1743232118,"current_range_meters":13600,"station_id":"ce4bh0h2rcd13ifvqd50","pricing_plan_id":"cebpf4jnsgd1na2vs0mg"},{"bike_id":"abd3241e-325c-4afb-bdb7-08c1b88e1658","system_id":"levelo_inurba_marseille","lat":43.28884,"lon":5.35845,"is_reserved":false,"is_disabled":false,"rental_uris":{"android":"levelo://app?vid=abd3241e-325c-4afb-bdb7-08c1b88e1658","ios":"levelo://app?vid=abd3241e-325c-4afb-bdb7-08c1b88e1658"},"vehicle_type_id":"4","last_reported":1743232118,"current_range_meters":13600,"station_id":"ce4bhb12rcd13ifvqem0","pricing_plan_id":"cebpf4jnsgd1na2vs0mg"},{"bike_id":"43e30df2-3ea2-4192-ac27-17ac9e6bf6ec","system_id":"levelo_inurba_marseille","lat":43.32368,"lon":5.38941,"is_reserved":false,"is_disabled":false,"rental_uris":{"android":"levelo://app?vid=43e30df2-3ea2-4192-ac27-17ac9e6bf6ec","ios":"levelo://app?vid=43e30df2-3ea2-4192-ac27-17ac9e6bf6ec"},"vehicle_type_id":"4","last_reported":1743232118,"current_range_meters":13600,"station_id":"ce4bhqp2rcd13ifvqhog","pricing_plan_id":"cebpf4jnsgd1na2vs0mg"},{"bike_id":"aa8607bb-b5d2-4f91-a082-c4272120a7ed","system_id":"levelo_inurba_marseille","lat":43.28937,"lon":5.36403,"is_reserved":false,"is_disabled":false,"rental_uris":{"android":"levelo://app?vid=aa8607bb-b5d2-4f91-a082-c4272120a7ed","ios":"levelo://app?vid=aa8607bb-b5d2-4f91-a082-c4272120a7ed"},"vehicle_type_id":"4","last_reported":1743232118,"current_range_meters":13600,"station_id":"ce4bhc92rcd13ifvqetg","pricing_plan_id":"cebpf4jnsgd1na2vs0mg"},{"bike_id":"a047dca2-59cb-499d-99d8-9bf525f320cf","system_id":"levelo_inurba_marseille","lat":43.28001,"lon":5.39995,"is_reserved":false,"is_disabled":false,"rental_uris":{"android":"levelo://app?vid=a047dca2-59cb-499d-99d8-9bf525f320cf","ios":"levelo://app?vid=a047dca2-59cb-499d-99d8-9bf525f320cf"},"vehicle_type_id":"4","last_reported":1743232118,"current_range_meters":13600,"station_id":"ce4bho92rcd13ifvqh4g","pricing_plan_id":"cebpf4jnsgd1na2vs0mg"},{"bike_id":"30c7f53b-e8dc-4573-afd3-cdf078c64b9c","system_id":"levelo_inurba_marseille","lat":43.28658,"lon":5.36361,"is_reserved":false,"is_disabled":false,"rental_uris":{"android":"levelo://app?vid=30c7f53b-e8dc-4573-afd3-cdf078c64b9c","ios":"levelo://app?vid=30c7f53b-e8dc-4573-afd3-cdf078c64b9c"},"vehicle_type_id":"4","last_reported":1743232118,"current_range_meters":13600,"station_id":"ce4bhah2rcd13ifvqej0","pricing_plan_id":"cebpf4jnsgd1na2vs0mg"},{"bike_id":"516eec70-9871-443d-bcef-31d65d51e4f5","system_id":"levelo_inurba_marseille","lat":43.30294,"lon":5.377,"is_reserved":false,"is_disabled":false,"rental_uris":{"android":"levelo://app?vid=516eec70-9871-443d-bcef-31d65d51e4f5","ios":"levelo://app?vid=516eec70-9871-443d-bcef-31d65d51e4f5"},"vehicle_type_id":"4","last_reported":1743232118,"current_range_meters":13600,"station_id":"ce4bguh2rcd13ifvqcj0","pricing_plan_id":"cebpf4jnsgd1na2vs0mg"},{"bike_id":"2509a5ab-f054-473a-ab79-d4f7660e6b59","system_id":"levelo_inurba_marseille","lat":43.30379,"lon":5.42505,"is_reserved":false,"is_disabled":false,"rental_uris":{"android":"levelo://app?vid=2509a5ab-f054-473a-ab79-d4f7660e6b59","ios":"levelo://app?vid=2509a5ab-f054-473a-ab79-d4f7660e6b59"},"vehicle_type_id":"4","last_reported":1743232118,"current_range_meters":14000,"station_id":"ce4bhoh2rcd13ifvqh6g","pricing_plan_id":"cebpf4jnsgd1na2vs0mg"},{"bike_id":"d94237ff-c868-4505-ab18-534e32ab72ed","system_id":"levelo_inurba_marseille","lat":43.28419,"lon":5.37522,"is_reserved":false,"is_disabled":false,"rental_uris":{"android":"levelo://app?vid=d94237ff-c868-4505-ab18-534e32ab72ed","ios":"levelo://app?vid=d94237ff-c868-4505-ab18-534e32ab72ed"},"vehicle_type_id":"4","last_reported":1743232118,"current_range_meters":14000,"station_id":"ce4bh412rcd13ifvqds0","pricing_plan_id":"cebpf4jnsgd1na2vs0mg"},{"bike_id":"25bb5fbc-8229-4010-b703-31f5ee6ac141","system_id":"levelo_inurba_marseille","lat":43.30621,"lon":5.36561,"is_reserved":false,"is_disabled":false,"rental_uris":{"android":"levelo://app?vid=25bb5fbc-8229-4010-b703-31f5ee6ac141","ios":"levelo://app?vid=25bb5fbc-8229-4010-b703-31f5ee6ac141"},"vehicle_type_id":"4","last_reported":1743232118,"current_range_meters":14400,"station_id":"","pricing_plan_id":"cebpf4jnsgd1na2vs0mg"},{"bike_id":"76d4ed16-8625-4a14-a5f1-d28ac2574c13","system_id":"levelo_inurba_marseille","lat":43.2454,"lon":5.39527,"is_reserved":false,"is_disabled":false,"rental_uris":{"android":"levelo://app?vid=76d4ed16-8625-4a14-a5f1-d28ac2574c13","ios":"levelo://app?vid=76d4ed16-8625-4a14-a5f1-d28ac2574c13"},"vehicle_type_id":"4","last_reported":1743232118,"current_range_meters":14400,"station_id":"","pricing_plan_id":"cebpf4jnsgd1na2vs0mg"},{"bike_id":"906b540e-e920-417f-92b5-0ef35349f644","system_id":"levelo_inurba_marseille","lat":43.31531,"lon":5.39713,"is_reserved":false,"is_disabled":false,"rental_uris":{"android":"levelo://app?vid=906b540e-e920-417f-92b5-0ef35349f644","ios":"levelo://app?vid=906b540e-e920-417f-92b5-0ef35349f644"},"vehicle_type_id":"4","last_reported":1743232118,"current_range_meters":14400,"station_id":"","pricing_plan_id":"cebpf4jnsgd1na2vs0mg"},{"bike_id":"0509fd5a-cd70-40f1-b26e-3f3e3192484f","system_id":"levelo_inurba_marseille","lat":43.28938,"lon":5.36412,"is_reserved":false,"is_disabled":false,"rental_uris":{"android":"levelo://app?vid=0509fd5a-cd70-40f1-b26e-3f3e3192484f","ios":"levelo://app?vid=0509fd5a-cd70-40f1-b26e-3f3e3192484f"},"vehicle_type_id":"4","last_reported":1743232118,"current_range_meters":14400,"station_id":"ce4bhc92rcd13ifvqetg","pricing_plan_id":"cebpf4jnsgd1na2vs0mg"},{"bike_id":"12240523-da62-4476-97ff-2c3e5dcabff3","system_id":"levelo_inurba_marseille","lat":43.31106,"lon":5.3777,"is_reserved":false,"is_disabled":false,"rental_uris":{"android":"levelo://app?vid=12240523-da62-4476-97ff-2c3e5dcabff3","ios":"levelo://app?vid=12240523-da62-4476-97ff-2c3e5dcabff3"},"vehicle_type_id":"4","last_reported":1743232118,"current_range_meters":14400,"station_id":"ce4bgt92rcd13ifvqcg0","pricing_plan_id":"cebpf4jnsgd1na2vs0mg"},{"bike_id":"4d84894c-24d9-4f73-874b-b0df2ef91235","system_id":"levelo_inurba_marseille","lat":43.30471,"lon":5.37907,"is_reserved":false,"is_disabled":false,"rental_uris":{"android":"levelo://app?vid=4d84894c-24d9-4f73-874b-b0df2ef91235","ios":"levelo://app?vid=4d84894c-24d9-4f73-874b-b0df2ef91235"},"vehicle_type_id":"4","last_reported":1743232118,"current_range_meters":14400,"station_id":"ce4bgup2rcd13ifvqcn0","pricing_plan_id":"cebpf4jnsgd1na2vs0mg"},{"bike_id":"afded9c5-511b-4e72-9b26-51a115252b20","system_id":"levelo_inurba_marseille","lat":43.29571,"lon":5.39982,"is_reserved":false,"is_disabled":false,"rental_uris":{"android":"levelo://app?vid=afded9c5-511b-4e72-9b26-51a115252b20","ios":"levelo://app?vid=afded9c5-511b-4e72-9b26-51a115252b20"},"vehicle_type_id":"4","last_reported":1743232118,"current_range_meters":14400,"station_id":"ce4bh312rcd13ifvqdj0","pricing_plan_id":"cebpf4jnsgd1na2vs0mg"},{"bike_id":"55c46d49-9363-40b2-8dbf-638f8433b356","system_id":"levelo_inurba_marseille","lat":43.248091,"lon":5.374569,"is_reserved":false,"is_disabled":false,"rental_uris":{"android":"levelo://app?vid=55c46d49-9363-40b2-8dbf-638f8433b356","ios":"levelo://app?vid=55c46d49-9363-40b2-8dbf-638f8433b356"},"vehicle_type_id":"4","last_reported":1743232118,"current_range_meters":14400,"station_id":"ce4bhgh2rcd13ifvqfb0","pricing_plan_id":"cebpf4jnsgd1na2vs0mg"},{"bike_id":"c2752b3a-718e-4661-94ed-39b78e5920df","system_id":"levelo_inurba_marseille","lat":43.231864,"lon":5.399928,"is_reserved":false,"is_disabled":true,"rental_uris":{"android":"levelo://app?vid=c2752b3a-718e-4661-94ed-39b78e5920df","ios":"levelo://app?vid=c2752b3a-718e-4661-94ed-39b78e5920df"},"vehicle_type_id":"4","last_reported":1743232118,"current_range_meters":14400,"station_id":"ce4bhn12rcd13ifvqgqg","pricing_plan_id":"cebpf4jnsgd1na2vs0mg"},{"bike_id":"00be0317-17ab-4e44-83e9-4e55c9cffd8f","system_id":"levelo_inurba_marseille","lat":43.23965,"lon":5.36653,"is_reserved":false,"is_disabled":false,"rental_uris":{"android":"levelo://app?vid=00be0317-17ab-4e44-83e9-4e55c9cffd8f","ios":"levelo://app?vid=00be0317-17ab-4e44-83e9-4e55c9cffd8f"},"vehicle_type_id":"4","last_reported":1743232118,"current_range_meters":14400,"station_id":"ce4bhi12rcd13ifvqfp0","pricing_plan_id":"cebpf4jnsgd1na2vs0mg"},{"bike_id":"b089e2bb-29e2-4335-8a3f-8b20faa88529","system_id":"levelo_inurba_marseille","lat":43.27934,"lon":5.410448,"is_reserved":false,"is_disabled":false,"rental_uris":{"android":"levelo://app?vid=b089e2bb-29e2-4335-8a3f-8b20faa88529","ios":"levelo://app?vid=b089e2bb-29e2-4335-8a3f-8b20faa88529"},"vehicle_type_id":"4","last_reported":1743232118,"current_range_meters":14400,"station_id":"ce4bhnp2rcd13ifvqh0g","pricing_plan_id":"cebpf4jnsgd1na2vs0mg"},{"bike_id":"b1faf2d3-6abb-4622-ae93-2caf0fc98d7d","system_id":"levelo_inurba_marseille","lat":43.31177,"lon":5.38714,"is_reserved":false,"is_disabled":false,"rental_uris":{"android":"levelo://app?vid=b1faf2d3-6abb-4622-ae93-2caf0fc98d7d","ios":"levelo://app?vid=b1faf2d3-6abb-4622-ae93-2caf0fc98d7d"},"vehicle_type_id":"4","last_reported":1743232118,"current_range_meters":14400,"station_id":"ce4bgv12rcd13ifvqcp0","pricing_plan_id":"cebpf4jnsgd1na2vs0mg"},{"bike_id":"2c175a10-c5cd-4a71-88ca-b1c3ac502091","system_id":"levelo_inurba_marseille","lat":43.30643,"lon":5.40083,"is_reserved":false,"is_disabled":false,"rental_uris":{"android":"levelo://app?vid=2c175a10-c5cd-4a71-88ca-b1c3ac502091","ios":"levelo://app?vid=2c175a10-c5cd-4a71-88ca-b1c3ac502091"},"vehicle_type_id":"4","last_reported":1743232118,"current_range_meters":14800,"station_id":"ce4bh112rcd13ifvqda0","pricing_plan_id":"cebpf4jnsgd1na2vs0mg"},