{"last_updated":1751101779,"ttl":60,"version":"2.2","data":{"bikes":[{"bike_id":"3da29fb8-fc97-44c6-b9ac-31dd456b2fd4","system_id":"levelo_inurba_marseille","lat":43.33771,"lon":5.37424,"is_reserved":false,"is_disabled":true,"rental_uris":{"android":"levelo://app?vid=3da29fb8-fc97-44c6-b9ac-31dd456b2fd4","ios":"levelo://app?vid=3da29fb8-fc97-44c6-b9ac-31dd456b2fd4"},"vehicle_type_id":"4","last_reported":1751101779,"current_range_meters":0,"station_id":"","pricing_plan_id":"cebpf4jnsgd1na2vs0mg"},{"bike_id":"01861ad8-a8d7-4be6-816e-651927c87584","system_id":"levelo_inurba_marseille","lat":43.33751,"lon":5.37456,"is_reserved":false,"is_disabled":true,"rental_uris":{"android":"levelo://app?vid=01861ad8-a8d7-4be6-816e-651927c87584","ios":"levelo://app?vid=01861ad8-a8d7-4be6-816e-651927c87584"},"vehicle_type_id":"4","last_reported":1751101779,"current_range_meters":0,"station_id":"","pricing_plan_id":"cebpf4jnsgd1na2vs0mg"},{"bike_id":"77673b0f-fa8d-4a5f-802e-e3125964cb45","system_id":"levelo_inurba_marseille","lat":43.33091,"lon":5.36493,"is_reserved":false,"is_disabled":true,"rental_uris":{"android":"levelo://app?vid=77673b0f-fa8d-4a5f-802e-e3125964cb45","ios":"levelo://app?vid=77673b0f-fa8d-4a5f-802e-e3125964cb45"},"vehicle_type_id":"4","last_reported":1751101779,"current_range_meters":0,"station_id":"","pricing_plan_id":"cebpf4jnsgd1na2vs0mg"},{"bike_id":"b01c0395-3fb0-43dc-8b3e-18f1ecdcd73b","system_id":"levelo_inurba_marseille","lat":43.28613,"lon":5.35105,"is_reserved":false,"is_disabled":true,"rental_uris":{"android":"levelo://app?vid=b01c0395-3fb0-43dc-8b3e-18f1ecdcd73b","ios":"levelo://app?vid=b01c0395-3fb0-43dc-8b3e-18f1ecdcd73b"},"vehicle_type_id":"4","last_reported":1751101779,"current_range_meters":0,"station_id":"ce4bhch2rcd13ifvqeug","pricing_plan_id":"cebpf4jnsgd1na2vs0mg"},{"bike_id":"7f243616-0094-460c-9095-52547fbc8230","system_id":"levelo_inurba_marseille","lat":43.25581,"lon":5.38231,"is_reserved":false,"is_disabled":true,"rental_uris":{"android":"levelo://app?vid=7f243616-0094-460c-9095-52547fbc8230","ios":"levelo://app?vid=7f243616-0094-460c-9095-52547fbc8230"},"vehicle_type_id":"4","last_reported":1751101779,"current_range_meters":0,"station_id":"ce4bhih2rcd13ifvqfs0","pricing_plan_id":"cebpf4jnsgd1na2vs0mg"},{"bike_id":"c8ce0351-fe68-40b1-beb5-45d8ee0eed11","system_id":"levelo_inurba_marseille","lat":43.30375,"lon":5.42482,"is_reserved":false,"is_disabled":true,"rental_uris":{"android":"levelo://app?vid=c8ce0351-fe68-40b1-beb5-45d8ee0eed11","ios":"levelo://app?vid=c8ce0351-fe68-40b1-beb5-45d8ee0eed11"},"vehicle_type_id":"4","last_reported":1751101779,"current_range_meters":0,"station_id":"ce4bhoh2rcd13ifvqh6g","pricing_plan_id":"cebpf4jnsgd1na2vs0mg"},{"bike_id":"fde70215-ce15-4258-a0bf-27a465a43a0d","system_id":"levelo_inurba_marseille","lat":43.32117,"lon":5.36781,"is_reserved":false,"is_disabled":true,"rental_uris":{"android":"levelo://app?vid=fde70215-ce15-4258-a0bf-27a465a43a0d","ios":"levelo://app?vid=fde70215-ce15-4258-a0bf-27a465a43a0d"},"vehicle_type_id":"4","last_reported":1751101779,"current_range_meters":0,"station_id":"ce4bhrh2rcd13ifvqhug","pricing_plan_id":"cebpf4jnsgd1na2vs0mg"},{"bike_id":"b00d0b8f-8c84-4e74-9a29-996120ad9a19","system_id":"levelo_inurba_marseille","lat":43.26794,"lon":5.4029,"is_reserved":false,"is_disabled":true,"rental_uris":{"android":"levelo://app?vid=b00d0b8f-8c84-4e74-9a29-996120ad9a19","ios":"levelo://app?vid=b00d0b8f-8c84-4e74-9a29-996120ad9a19"},"vehicle_type_id":"4","last_reported":1751101779,"current_range_meters":0,"station_id":"ce501612rcd8frsf0b60","pricing_plan_id":"cebpf4jnsgd1na2vs0mg"},{"bike_id":"999dea79-4cb5-441c-917f-cae0da3de961","system_id":"levelo_inurba_marseille","lat":43.22926,"lon":5.35378,"is_reserved":false,"is_disabled":true,"rental_uris":{"android":"levelo://app?vid=999dea79-4cb5-441c-917f-cae0da3de961","ios":"levelo://app?vid=999dea79-4cb5-441c-917f-cae0da3de961"},"vehicle_type_id":"4","last_reported":1751101779,"current_range_meters":0,"station_id":"cpo3532slgdg3j2ikp40","pricing_plan_id":"cebpf4jnsgd1na2vs0mg"},{"bike_id":"29ec4185-f87e-45a2-91e6-759a1d934b1c","system_id":"levelo_inurba_marseille","lat":43.21746,"lon":5.34592,"is_reserved":false,"is_disabled":true,"rental_uris":{"android":"levelo://app?vid=29ec4185-f87e-45a2-91e6-759a1d934b1c","ios":"levelo://app?vid=29ec4185-f87e-45a2-91e6-759a1d934b1c"},"vehicle_type_id":"4","last_reported":1751101779,"current_range_meters":0,"station_id":"st_cvj6r9ubvosntc0bgbag","pricing_plan_id":"cebpf4jnsgd1na2vs0mg"},{"bike_id":"a0aa7f48-2c07-453d-845a-eaeace62b973","system_id":"levelo_inurba_marseille","lat":43.311232,"lon":5.377591,"is_reserved":false,"is_disabled":true,"rental_uris":{"android":"levelo://app?vid=a0aa7f48-2c07-453d-845a-eaeace62b973","ios":"levelo://app?vid=a0aa7f48-2c07-453d-845a-eaeace62b973"},"vehicle_type_id":"4","last_reported":1751101779,"current_range_meters":400,"station_id":"ce4bgt92rcd13ifvqcg0","pricing_plan_id":"cebpf4jnsgd1na2vs0mg"},{"bike_id":"92d3bb11-4cf3-47e6-bc0f-ff80eea58ad1","system_id":"levelo_inurba_marseille","lat":43.30377,"lon":5.42475,"is_reserved":false,"is_disabled":true,"rental_uris":{"android":"levelo://app?vid=92d3bb11-4cf3-47e6-bc0f-ff80eea58ad1","ios":"levelo://app?vid=92d3bb11-4cf3-47e6-bc0f-ff80eea58ad1"},"vehicle_type_id":"4","last_reported":1751101779,"current_range_meters":800,"station_id":"ce4bhoh2rcd13ifvqh6g","pricing_plan_id":"cebpf4jnsgd1na2vs0mg"},{"bike_id":"1ad40b83-4d8b-470b-a6d7-abb6cc5778d2","system_id":"levelo_inurba_marseille","lat":43.282684,"lon":5.350634,"is_reserved":false,"is_disabled":true,"rental_uris":{"android":"levelo://app?vid=1ad40b83-4d8b-470b-a6d7-abb6cc5778d2","ios":"levelo://app?vid=1ad40b83-4d8b-470b-a6d7-abb6cc5778d2"},"vehicle_type_id":"4","last_reported":1751101779,"current_range_meters":1200,"station_id":"ce4bhbp2rcd13ifvqerg","pricing_plan_id":"cebpf4jnsgd1na2vs0mg"},{"bike_id":"f47876d7-9c85-474e-92c5-7a242e08b67c","system_id":"levelo_inurba_marseille","lat":43.305531,"lon":5.375542,"is_reserved":false,"is_disabled":true,"rental_uris":{"android":"levelo://app?vid=f47876d7-9c85-474e-92c5-7a242e08b67c","ios":"levelo://app?vid=f47876d7-9c85-474e-92c5-7a242e08b67c"},"vehicle_type_id":"4","last_reported":1751101779,"current_range_meters":1600,"station_id":"","pricing_plan_id":"cebpf4jnsgd1na2vs0mg"},{"bike_id":"1e27f916-add9-497a-8560-a727e2a3be63","system_id":"levelo_inurba_marseille","lat":43.25577,"lon":5.38266,"is_reserved":false,"is_disabled":false,"rental_uris":{"android":"levelo://app?vid=1e27f916-add9-497a-8560-a727e2a3be63","ios":"levelo://app?vid=1e27f916-add9-497a-8560-a727e2a3be63"},"vehicle_type_id":"4","last_reported":1751101779,"current_range_meters":2800,"station_id":"ce4bhih2rcd13ifvqfs0","pricing_plan_id":"cebpf4jnsgd1na2vs0mg"},{"bike_id":"f76b04f8-a631-4214-aeb9-21e1adb1f3cf","system_id":"levelo_inurba_marseille","lat":43.29627,"lon":5.40598,"is_reserved":false,"is_disabled":false,"rental_uris":{"android":"levelo://app?vid=f76b04f8-a631-4214-aeb9-21e1adb1f3cf","ios":"levelo://app?vid=f76b04f8-a631-4214-aeb9-21e1adb1f3cf"},"vehicle_type_id":"4","last_reported":1751101779,"current_range_meters":3200,"station_id":"ce4bh0h2rcd13ifvqd60","pricing_plan_id":"cebpf4jnsgd1na2vs0mg"},{"bike_id":"b75c9cb8-fd78-4a80-9d1b-540023d5ad53","system_id":"levelo_inurba_marseille","lat":43.34134,"lon":5.40902,"is_reserved":false,"is_disabled":false,"rental_uris":{"android":"levelo://app?vid=b75c9cb8-fd78-4a80-9d1b-540023d5ad53","ios":"levelo://app?vid=b75c9cb8-fd78-4a80-9d1b-540023d5ad53"},"vehicle_type_id":"4","last_reported":1751101779,"current_range_meters":3200,"station_id":"ce4bhqh2rcd13ifvqhlg","pricing_plan_id":"cebpf4jnsgd1na2vs0mg"},{"bike_id":"86c30bd3-0118-428a-a797-1a809ea19561","system_id":"levelo_inurba_marseille","lat":43.23182,"lon":5.39988,"is_reserved":false,"is_disabled":false,"rental_uris":{"android":"levelo://app?vid=86c30bd3-0118-428a-a797-1a809ea19561","ios":"levelo://app?vid=86c30bd3-0118-428a-a797-1a809ea19561"},"vehicle_type_id":"4","last_reported":1751101779,"current_range_meters":3600,"station_id":"ce4bhn12rcd13ifvqgqg","pricing_plan_id":"cebpf4jnsgd1na2vs0mg"},{"bike_id":"7e7141da-051a-41f0-9ff2-e41dc0c7d859","system_id":"levelo_inurba_marseille","lat":43.23181,"lon":5.39986,"is_reserved":false,"is_disabled":false,"rental_uris":{"android":"levelo://app?vid=7e7141da-051a-41f0-9ff2-e41dc0c7d859","ios":"levelo://app?vid=7e7141da-051a-41f0-9ff2-e41dc0c7d859"},"vehicle_type_id":"4","last_reported":1751101779,"current_range_meters":3600,"station_id":"ce4bhn12rcd13ifvqgqg","pricing_plan_id":"cebpf4jnsgd1na2vs0mg"},{"bike_id":"5ca389b6-3c55-49e5-8a9d-e45d483aac4e","system_id":"levelo_inurba_marseille","lat":43.27948,"lon":5.41037,"is_reserved":false,"is_disabled":false,"rental_uris":{"android":"levelo://app?vid=5ca389b6-3c55-49e5-8a9d-e45d483aac4e","ios":"levelo://app?vid=5ca389b6-3c55-49e5-8a9d-e45d483aac4e"},"vehicle_type_id":"4","last_reported":1751101779,"current_range_meters":4000,"station_id":"ce4bhnp2rcd13ifvqh0g","pricing_plan_id":"cebpf4jnsgd1na2vs0mg"},{"bike_id":"94e84186-d780-461a-b647-8d1cf3f036ad","system_id":"levelo_inurba_marseille","lat":43.31695,"lon":5.3776,"is_reserved":false,"is_disabled":false,"rental_uris":{"android":"levelo://app?vid=94e84186-d780-461a-b647-8d1cf3f036ad","ios":"levelo://app?vid=94e84186-d780-461a-b647-8d1cf3f036ad"},"vehicle_type_id":"4","last_reported":1751101779,"current_range_meters":4400,"station_id":"ce4bgth2rcd13ifvqch0","pricing_plan_id":"cebpf4jnsgd1na2vs0mg"},{"bike_id":"dc13ebea-27c3-41b6-9c8a-96ca11c59cbf","system_id":"levelo_inurba_marseille","lat":43.292558,"lon":5.409084,"is_reserved":false,"is_disabled":false,"rental_uris":{"android":"levelo://app?vid=dc13ebea-27c3-41b6-9c8a-96ca11c59cbf","ios":"levelo://app?vid=dc13ebea-27c3-41b6-9c8a-96ca11c59cbf"},"vehicle_type_id":"4","last_reported":1751101779,"current_range_meters":4400,"station_id":"ce4bh192rcd13ifvqdc0","pricing_plan_id":"cebpf4jnsgd1na2vs0mg"},{"bike_id":"456fcd91-9e91-46f3-8460-440efc5cb8b4","system_id":"levelo_inurba_marseille","lat":43.31483,"lon":5.373,"is_reserved":false,"is_disabled":false,"rental_uris":{"android":"levelo://app?vid=456fcd91-9e91-46f3-8460-440efc5cb8b4","ios":"levelo://app?vid=456fcd91-9e91-46f3-8460-440efc5cb8b4"},"vehicle_type_id":"4","last_reported":1751101779,"current_range_meters":6000,"station_id":"ce4bgt12rcd13ifvqcd0","pricing_plan_id":"cebpf4jnsgd1na2vs0mg"},{"bike_id":"73a03650-973e-42b0-bad4-545481e15f73","system_id":"levelo_inurba_marseille","lat":43.31239,"lon":5.39063,"is_reserved":false,"is_disabled":false,"rental_uris":{"android":"levelo://app?vid=73a03650-973e-42b0-bad4-545481e15f73","ios":"levelo://app?vid=73a03650-973e-42b0-bad4-545481e15f73"},"vehicle_type_id":"4","last_reported":1751101779,"current_range_meters":6400,"station_id":"","pricing_plan_id":"cebpf4jnsgd1na2vs0mg"},{"bike_id":"dcea07ca-9323-4b9b-98f6-e1fc9b106559","system_id":"levelo_inurba_marseille","lat":43.30359,"lon":5.37599,"is_reserved":false,"is_disabled":false,"rental_uris":{"android":"levelo://app?vid=dcea07ca-9323-4b9b-98f6-e1fc9b106559","ios":"levelo://app?vid=dcea07ca-9323-4b9b-98f6-e1fc9b106559"},"vehicle_type_id":"4","last_reported":1751101779,"current_range_meters":6400,"station_id":"","pricing_plan_id":"cebpf4jnsgd1na2vs0mg"},{"bike_id":"fb790ee1-6c22-4bdc-bdf5-6ed0ad67c39e","system_id":"levelo_inurba_marseille","lat":43.270012,"lon":5.387748,"is_reserved":false,"is_disabled":false,"rental_uris":{"android":"levelo://app?vid=fb790ee1-6c22-4bdc-bdf5-6ed0ad67c39e","ios":"levelo://app?vid=fb790ee1-6c22-4bdc-bdf5-6ed0ad67c39e"},"vehicle_type_id":"4","last_reported":1751101779,"current_range_meters":6400,"station_id":"ce4bhg12rcd13ifvqf80","pricing_plan_id":"cebpf4jnsgd1na2vs0mg"},{"bike_id":"4b8da722-ee9e-48a4-a5e5-3a8a10364708","system_id":"levelo_inurba_marseille","lat":43.31237,"lon":5.37827,"is_reserved":false,"is_disabled":false,"rental_uris":{"android":"levelo://app?vid=4b8da722-ee9e-48a4-a5e5-3a8a10364708","ios":"levelo://app?vid=4b8da722-ee9e-48a4-a5e5-3a8a10364708"},"vehicle_type_id":"4","last_reported":1751101779,"current_range_meters":6800,"station_id":"","pricing_plan_id":"cebpf4jnsgd1na2vs0mg"},{"bike_id":"7a92a51b-12db-41cc-98c0-2618d3831133","system_id":"levelo_inurba_marseille","lat":43.32302,"lon":5.38255,"is_reserved":false,"is_disabled":false,"rental_uris":{"android":"levelo://app?vid=7a92a51b-12db-41cc-98c0-2618d3831133","ios":"levelo://app?vid=7a92a51b-12db-41cc-98c0-2618d3831133"},"vehicle_type_id":"4","last_reported":1751101779,"current_range_meters":6800,"station_id":"ce4bhr12rcd13ifvqhqg","pricing_plan_id":"cebpf4jnsgd1na2vs0mg"},{"bike_id":"b7d0d8a1-c5dd-4278-8b3b-f5786872fe32","system_id":"levelo_inurba_marseille","lat":43.32103,"lon":5.36771,"is_reserved":false,"is_disabled":false,"rental_uris":{"android":"levelo://app?vid=b7d0d8a1-c5dd-4278-8b3b-f5786872fe32","ios":"levelo://app?vid=b7d0d8a1-c5dd-4278-8b3b-f5786872fe32"},"vehicle_type_id":"4","last_reported":1751101779,"current_range_meters":6800,"station_id":"ce4bhrh2rcd13ifvqhug","pricing_plan_id":"cebpf4jnsgd1na2vs0mg"},{"bike_id":"0e3c4545-23ac-400c-b613-5a7b70527fa4","system_id":"levelo_inurba_marseille","lat":43.27947,"lon":5.41042,"is_reserved":false,"is_disabled":false,"rental_uris":{"android":"levelo://app?vid=0e3c4545-23ac-400c-b613-5a7b70527fa4","ios":"levelo://app?vid=0e3c4545-23ac-400c-b613-5a7b70527fa4"},"vehicle_type_id":"4","last_reported":1751101779,"current_range_meters":8000,"station_id":"ce4bhnp2rcd13ifvqh0g","pricing_plan_id":"cebpf4jnsgd1na2vs0mg"},{"bike_id":"d93518a7-acea-49d1-8b1d-66917831e25a","system_id":"levelo_inurba_marseille","lat":43.28364,"lon":5.39565,"is_reserved":false,"is_disabled":false,"rental_uris":{"android":"levelo://app?vid=d93518a7-acea-49d1-8b1d-66917831e25a","ios":"levelo://app?vid=d93518a7-acea-49d1-8b1d-66917831e25a"},"vehicle_type_id":"4","last_reported":1751101779,"current_range_meters":8400,"station_id":"","pricing_plan_id":"cebpf4jnsgd1na2vs0mg"},{"bike_id":"a440f2f6-8cf8-4348-9ba1-e21002a18a07","system_id":"levelo_inurba_marseille","lat":43.32122,"lon":5.36782,"is_reserved":false,"is_disabled":false,"rental_uris":{"android":"levelo://app?vid=a440f2f6-8cf8-4348-9ba1-e21002a18a07","ios":"levelo://app?vid=a440f2f6-8cf8-4348-9ba1-e21002a18a07"},"vehicle_type_id":"4","last_reported":1751101779,"current_range_meters":8400,"station_id":"ce4bhrh2rcd13ifvqhug","pricing_plan_id":"cebpf4jnsgd1na2vs0mg"},{"bike_id":"2dc6f9e6-543a-445a-9243-65a430c00412","system_id":"levelo_inurba_marseille","lat":43.27917,"lon":5.39576,"is_reserved":false,"is_disabled":false,"rental_uris":{"android":"levelo://app?vid=2dc6f9e6-543a-445a-9243-65a430c00412","ios":"levelo://app?vid=2dc6f9e6-543a-445a-9243-65a430c00412"},"vehicle_type_id":"4","last_reported":1751101779,"current_range_meters":8800,"station_id":"ce4bhf92rcd13ifvqf40","pricing_plan_id":"cebpf4jnsgd1na2vs0mg"},{"bike_id":"88c44910-a430-4e33-9c91-a4a8d0c5c1d1","system_id":"levelo_inurba_marseille","lat":43.24398,"lon":5.3705,"is_reserved":false,"is_disabled":false,"rental_uris":{"android":"levelo://app?vid=88c44910-a430-4e33-9c91-a4a8d0c5c1d1","ios":"levelo://app?vid=88c44910-a430-4e33-9c91-a4a8d0c5c1d1"},"vehicle_type_id":"4","last_reported":1751101779,"current_range_meters":8800,"station_id":"ce4bhhh2rcd13ifvqfk0","pricing_plan_id":"cebpf4jnsgd1na2vs0mg"},{"bike_id":"cd1bc6c1-6b6c-49cc-81a7-97fdf0f3a681","system_id":"levelo_inurba_marseille","lat":43.240709,"lon":5.377618,"is_reserved":false,"is_disabled":false,"rental_uris":{"android":"levelo://app?vid=cd1bc6c1-6b6c-49cc-81a7-97fdf0f3a681","ios":"levelo://app?vid=cd1bc6c1-6b6c-49cc-81a7-97fdf0f3a681"},"vehicle_type_id":"4","last_reported":1751101779,"current_range_meters":8800,"station_id":"ce4bhnp2rcd13ifvqgvg","pricing_plan_id":"cebpf4jnsgd1na2vs0mg"},{"bike_id":"3e82f598-9d1d-4257-8afa-a4dc7305de09","system_id":"levelo_inurba_marseille","lat":43.21194,"lon":5.3507,"is_reserved":false,"is_disabled":false,"rental_uris":{"android":"levelo://app?vid=3e82f598-9d1d-4257-8afa-a4dc7305de09","ios":"levelo://app?vid=3e82f598-9d1d-4257-8afa-a4dc7305de09"},"vehicle_type_id":"4","last_reported":1751101779,"current_range_meters":8800,"station_id":"st_cvj6sg6p6f1abm77japg","pricing_plan_id":"cebpf4jnsgd1na2vs0mg"},{"bike_id":"a1efc803-1520-45fc-9e03-1f27beb25e3d","system_id":"levelo_inurba_marseille","lat":43.30647,"lon":5.40084,"is_reserved":false,"is_disabled":false,"rental_uris":{"android":"levelo://app?vid=a1efc803-1520-45fc-9e03-1f27beb25e3d","ios":"levelo://app?vid=a1efc803-1520-45fc-9e03-1f27beb25e3d"},"vehicle_type_id":"4","last_reported":1751101779,"current_range_meters":9200,"station_id":"ce4bh112rcd13ifvqda0","pricing_plan_id":"cebpf4jnsgd1na2vs0mg"},{"bike_id":"1c8ab180-05fd-405f-9922-b2b2c2d5142f","system_id":"levelo_inurba_marseille","lat":43.3207,"lon":5.36794,"is_reserved":false,"is_disabled":false,"rental_uris":{"android":"levelo://app?vid=1c8ab180-05fd-405f-9922-b2b2c2d5142f","ios":"levelo://app?vid=1c8ab180-05fd-405f-9922-b2b2c2d5142f"},"vehicle_type_id":"4","last_reported":1751101779,"current_range_meters":9200,"station_id":"ce4bhrh2rcd13ifvqhug","pricing_plan_id":"cebpf4jnsgd1na2vs0mg"},{"bike_id":"eb298d09-5958-4d51-a272-76707cbb5a3e","system_id":"levelo_inurba_marseille","lat":43.26803,"lon":5.40264,"is_reserved":false,"is_disabled":false,"rental_uris":{"android":"levelo://app?vid=eb298d09-5958-4d51-a272-76707cbb5a3e","ios":"levelo://app?vid=eb298d09-5958-4d51-a272-76707cbb5a3e"},"vehicle_type_id":"4","last_reported":1751101779,"current_range_meters":9200,"station_id":"ce501612rcd8frsf0b60","pricing_plan_id":"cebpf4jnsgd1na2vs0mg"},{"bike_id":"5d5e13a4-10cc-485c-a362-06d02242e666","system_id":"levelo_inurba_marseille","lat":43.211902,"lon":5.350781,"is_reserved":false,"is_disabled":false,"rental_uris":{"android":"levelo://app?vid=5d5e13a4-10cc-485c-a362-06d02242e666","ios":"levelo://app?vid=5d5e13a4-10cc-485c-a362-06d02242e666"},"vehicle_type_id":"4","last_reported":1751101779,"current_range_meters":9200,"station_id":"st_cvj6sg6p6f1abm77japg","pricing_plan_id":"cebpf4jnsgd1na2vs0mg"},{"bike_id":"5a01ae6d-9064-484c-8d77-2d9e141e2313","system_id":"levelo_inurba_marseille","lat":43.244851,"lon":5.390208,"is_reserved":false,"is_disabled":false,"rental_uris":{"android":"levelo://app?vid=5a01ae6d-9064-484c-8d77-2d9e141e2313","ios":"levelo://app?vid=5a01ae6d-9064-484c-8d77-2d9e141e2313"},"vehicle_type_id":"4","last_reported":1751101779,"current_range_meters":9600,"station_id":"","pricing_plan_id":"cebpf4jnsgd1na2vs0mg"},{"bike_id":"802b2630-8376-4119-a81f-42e77fef6b85","system_id":"levelo_inurba_marseille","lat":43.284237,"lon":5.349854,"is_reserved":false,"is_disabled":false,"rental_uris":{"android":"levelo://app?vid=802b2630-8376-4119-a81f-42e77fef6b85","ios":"levelo://app?vid=802b2630-8376-4119-a81f-42e77fef6b85"},"vehicle_type_id":"4","last_reported":1751101779,"current_range_meters":9600,"station_id":"ce4bhbh2rcd13ifvqepg","pricing_plan_id":"cebpf4jnsgd1na2vs0mg"},{"bike_id":"d1c5b8bc-0412-4feb-b29f-a412bde834ab","system_id":"levelo_inurba_marseille","lat":43.25819,"lon":5.3943,"is_reserved":false,"is_disabled":false,"rental_uris":{"android":"levelo://app?vid=d1c5b8bc-0412-4feb-b29f-a412bde834ab","ios":"levelo://app?vid=d1c5b8bc-0412-4feb-b29f-a412bde834ab"},"vehicle_type_id":"4","last_reported":1751101779,"current_range_meters":9600,"station_id":"ce4bhip2rcd13ifvqft0","pricing_plan_id":"cebpf4jnsgd1na2vs0mg"},{"bike_id":"ae585140-2ebc-4e9e-9c6f-37fd3c7c898e","system_id":"levelo_inurba_marseille","lat":43.23185,"lon":5.39986,"is_reserved":false,"is_disabled":false,"rental_uris":{"android":"levelo://app?vid=ae585140-2ebc-4e9e-9c6f-37fd3c7c898e","ios":"levelo://app?vid=ae585140-2ebc-4e9e-9c6f-37fd3c7c898e"},"vehicle_type_id":"4","last_reported":1751101779,"current_range_meters":9600,"station_id":"ce4bhn12rcd13ifvqgqg","pricing_plan_id":"cebpf4jnsgd1na2vs0mg"},{"bike_id":"468a98c5-5dbc-4755-b2b4-222fef0faa0b","system_id":"levelo_inurba_marseille","lat":43.29894,"lon":5.4366,"is_reserved":false,"is_disabled":false,"rental_uris":{"android":"levelo://app?vid=468a98c5-5dbc-4755-b2b4-222fef0faa0b","ios":"levelo://app?vid=468a98c5-5dbc-4755-b2b4-222fef0faa0b"},"vehicle_type_id":"4","last_reported":1751101779,"current_range_meters":9600,"station_id":"ce4bhpp2rcd13ifvqhfg","pricing_plan_id":"cebpf4jnsgd1na2vs0mg"},{"bike_id":"8ad39a1f-4731-4360-af34-70928566742a","system_id":"levelo_inurba_marseille","lat":43.30144,"lon":5.38074,"is_reserved":false,"is_disabled":false,"rental_uris":{"android":"levelo://app?vid=8ad39a1f-4731-4360-af34-70928566742a","ios":"levelo://app?vid=8ad39a1f-4731-4360-af34-70928566742a"},"vehicle_type_id":"4","last_reported":1751101779,"current_range_meters":10000,"station_id":"ce4bgjp2rcd13ifvqbh0","pricing_plan_id":"cebpf4jnsgd1na2vs0mg"},{"bike_id":"734a91ef-281f-4101-9bfa-8cb9e562f0ac","system_id":"levelo_inurba_marseille","lat":43.29261,"lon":5.40898,"is_reserved":false,"is_disabled":false,"rental_uris":{"android":"levelo://app?vid=734a91ef-281f-4101-9bfa-8cb9e562f0ac","ios":"levelo://app?vid=734a91ef-281f-4101-9bfa-8cb9e562f0ac"},"vehicle_type_id":"4","last_reported":1751101779,"current_range_meters":10000,"station_id":"ce4bh192rcd13ifvqdc0","pricing_plan_id":"cebpf4jnsgd1na2vs0mg"},{"bike_id":"d5e70777-ad97-4594-91b6-43ede9611b14","system_id":"levelo_inurba_marseille","lat":43.32132,"lon":5.36819,"is_reserved":false,"is_disabled":false,"rental_uris":{"android":"levelo://app?vid=d5e70777-ad97-4594-91b6-43ede9611b14","ios":"levelo://app?vid=d5e70777-ad97-4594-91b6-43ede9611b14"},"vehicle_type_id":"4","last_reported":1751101779,"current_range_meters":10800,"station_id":"","pricing_plan_id":"cebpf4jnsgd1na2vs0mg"},{"bike_id":"7a67f600-391d-4d55-8197-cadbc4b4c33a","system_id":"levelo_inurba_marseille","lat":43.262168,"lon":5.37437,"is_reserved":false,"is_disabled":false,"rental_uris":{"android":"levelo://app?vid=7a67f600-391d-4d55-8197-cadbc4b4c33a","ios":"levelo://app?vid=7a67f600-391d-4d55-8197-cadbc4b4c33a"},"vehicle_type_id":"4","last_reported":1751101779,"current_range_meters":10800,"station_id":"ce4bgj92rcd13ifvqbe0","pricing_plan_id":"cebpf4jnsgd1na2vs0mg"},{"bike_id":"ea8aef64-b77d-45df-891c-526c816c3810","system_id":"levelo_inurba_marseille","lat":43.29205,"lon":5.35792,"is_reserved":false,"is_disabled":false,"rental_uris":{"android":"levelo://app?vid=ea8aef64-b77d-45df-891c-526c816c3810","ios":"levelo://app?vid=ea8aef64-b77d-45df-891c-526c816c3810"},"vehicle_type_id":"4","last_reported":1751101779,"current_range_meters":10800,"station_id":"ce4bhb12rcd13ifvqel0","pricing_plan_id":"cebpf4jnsgd1na2vs0mg"},{"bike_id":"2bb80ec4-00d7-4bf8-a4a9-7190a2ef2930","system_id":"levelo_inurba_marseille","lat":43.25868,"lon":5.39894,"is_reserved":false,"is_disabled":false,"rental_uris":{"android":"levelo://app?vid=2bb80ec4-00d7-4bf8-a4a9-7190a2ef2930","ios":"levelo://app?vid=2bb80ec4-00d7-4bf8-a4a9-7190a2ef2930"},"vehicle_type_id":"4","last_reported":1751101779,"current_range_meters":10800,"station_id":"ce4bhl92rcd13ifvqghg","pricing_plan_id":"cebpf4jnsgd1na2vs0mg"},{"bike_id":"d641659c-64fc-486a-91a2-3cc8072043e6","system_id":"levelo_inurba_marseille","lat":43.32108,"lon":5.36788,"is_reserved":false,"is_disabled":false,"rental_uris":{"android":"levelo://app?vid=d641659c-64fc-486a-91a2-3cc8072043e6","ios":"levelo://app?vid=d641659c-64fc-486a-91a2-3cc8072043e6"},"vehicle_type_id":"4","last_reported":1751101779,"current_range_meters":10800,"station_id":"ce4bhrh2rcd13ifvqhug","pricing_plan_id":"cebpf4jnsgd1na2vs0mg"},{"bike_id":"056cb0a3-2f32-4cdb-bf3b-9ba621a46f42","system_id":"levelo_inurba_marseille","lat":43.22928,"lon":5.35385,"is_reserved":false,"is_disabled":false,"rental_uris":{"android":"levelo://app?vid=056cb0a3-2f32-4cdb-bf3b-9ba621a46f42","ios":"levelo://app?vid=056cb0a3-2f32-4cdb-bf3b-9ba621a46f42"},"vehicle_type_id":"4","last_reported":1751101779,"current_range_meters":10800,"station_id":"cpo3532slgdg3j2ikp40","pricing_plan_id":"cebpf4jnsgd1na2vs0mg"},{"bike_id":"2a9a5366-8dad-42f1-bee6-ffb042c54776","system_id":"levelo_inurba_marseille","lat":43.21193,"lon":5.35072,"is_reserved":false,"is_disabled":false,"rental_uris":{"android":"levelo://app?vid=2a9a5366-8dad-42f1-bee6-ffb042c54776","ios":"levelo://app?vid=2a9a5366-8dad-42f1-bee6-ffb042c54776"},"vehicle_type_id":"4","last_reported":1751101779,"current_range_meters":10800,"station_id":"st_cvj6sg6p6f1abm77japg","pricing_plan_id":"cebpf4jnsgd1na2vs0mg"},{"bike_id":"f0057ca2-de2d-4464-8902-068dc3677e00","system_id":"levelo_inurba_marseille","lat":43.211935,"lon":5.350771,"is_reserved":false,"is_disabled":false,"rental_uris":{"android":"levelo://app?vid=f0057ca2-de2d-4464-8902-068dc3677e00","ios":"levelo://app?vid=f0057ca2-de2d-4464-8902-068dc3677e00"},"vehicle_type_id":"4","last_reported":1751101779,"current_range_meters":10800,"station_id":"st_cvj6sg6p6f1abm77japg","pricing_plan_id":"cebpf4jnsgd1na2vs0mg"},{"bike_id":"8b1bcd7a-ec52-47cf-be70-5fb3dda94674","system_id":"levelo_inurba_marseille","lat":43.31708,"lon":5.40446,"is_reserved":false,"is_disabled":false,"rental_uris":{"android":"levelo://app?vid=8b1bcd7a-ec52-47cf-be70-5fb3dda94674","ios":"levelo://app?vid=8b1bcd7a-ec52-47cf-be70-5fb3dda94674"},"vehicle_type_id":"4","last_reported":1751101779,"current_range_meters":11200,"station_id":"ce4bh012rcd13ifvqd00","pricing_plan_id":"cebpf4jnsgd1na2vs0mg"},{"bike_id":"0dd415ce-285e-46a1-80b6-e5bab5a93294","system_id":"levelo_inurba_marseille","lat":43.29275,"lon":5.36833,"is_reserved":false,"is_disabled":false,"rental_uris":{"android":"levelo://app?vid=0dd415ce-285e-46a1-80b6-e5bab5a93294","ios":"levelo://app?vid=0dd415ce-285e-46a1-80b6-e5bab5a93294"},"vehicle_type_id":"4","last_reported":1751101779,"current_range_meters":11200,"station_id":"ce4bhbp2rcd13ifvqesg","pricing_plan_id":"cebpf4jnsgd1na2vs0mg"},{"bike_id":"84cdea62-7b1d-4b1a-8f94-00854ad22848","system_id":"levelo_inurba_marseille","lat":43.27193,"lon":5.4097,"is_reserved":false,"is_disabled":false,"rental_uris":{"android":"levelo://app?vid=84cdea62-7b1d-4b1a-8f94-00854ad22848","ios":"levelo://app?vid=84cdea62-7b1d-4b1a-8f94-00854ad22848"},"vehicle_type_id":"4","last_reported":1751101779,"current_range_meters":11200,"station_id":"ce4bhl12rcd13ifvqgf0","pricing_plan_id":"cebpf4jnsgd1na2vs0mg"},{"bike_id":"2d10d829-aff1-4886-be29-26e16412203e","system_id":"levelo_inurba_marseille","lat":43.25939,"lon":5.40869,"is_reserved":false,"is_disabled":false,"rental_uris":{"android":"levelo://app?vid=2d10d829-aff1-4886-be29-26e16412203e","ios":"levelo://app?vid=2d10d829-aff1-4886-be29-26e16412203e"},"vehicle_type_id":"4","last_reported":1751101779,"current_range_meters":11200,"station_id":"ce4bhm92rcd13ifvqglg","pricing_plan_id":"cebpf4jnsgd1na2vs0mg"},{"bike_id":"0084fa36-b099-43a6-9ba4-567287b5ca8d","system_id":"levelo_inurba_marseille","lat":43.23182,"lon":5.39985,"is_reserved":false,"is_disabled":false,"rental_uris":{"android":"levelo://app?vid=0084fa36-b099-43a6-9ba4-567287b5ca8d","ios":"levelo://app?vid=0084fa36-b099-43a6-9ba4-567287b5ca8d"},"vehicle_type_id":"4","last_reported":1751101779,"current_range_meters":11200,"station_id":"ce4bhn12rcd13ifvqgqg","pricing_plan_id":"cebpf4jnsgd1na2vs0mg"},{"bike_id":"6910b214-f4f8-4108-ba03-c3a5bc8e06b5","system_id":"levelo_inurba_marseille","lat":43.32288,"lon":5.382694,"is_reserved":false,"is_disabled":false,"rental_uris":{"android":"levelo://app?vid=6910b214-f4f8-4108-ba03-c3a5bc8e06b5","ios":"levelo://app?vid=6910b214-f4f8-4108-ba03-c3a5bc8e06b5"},"vehicle_type_id":"4","last_reported":1751101779,"current_range_meters":11200,"station_id":"ce4bhr12rcd13ifvqhqg","pricing_plan_id":"cebpf4jnsgd1na2vs0mg"},{"bike_id":"e98d8d26-8d56-4ca2-b3fe-7f729fc9a93f","system_id":"levelo_inurba_marseille","lat":43.268038,"lon":5.402675,"is_reserved":false,"is_disabled":false,"rental_uris":{"android":"levelo://app?vid=e98d8d26-8d56-4ca2-b3fe-7f729fc9a93f","ios":"levelo://app?vid=e98d8d26-8d56-4ca2-b3fe-7f729fc9a93f"},"vehicle_type_id":"4","last_reported":1751101779,"current_range_meters":11200,"station_id":"ce501612rcd8frsf0b60","pricing_plan_id":"cebpf4jnsgd1na2vs0mg"},{"bike_id":"21610ac3-16de-4a45-948b-5e651a24f042","system_id":"levelo_inurba_marseille","lat":43.30793,"lon":5.38157,"is_reserved":false,"is_disabled":false,"rental_uris":{"android":"levelo://app?vid=21610ac3-16de-4a45-948b-5e651a24f042","ios":"levelo://app?vid=21610ac3-16de-4a45-948b-5e651a24f042"},"vehicle_type_id":"4","last_reported":1751101779,"current_range_meters":11600,"station_id":"ce4bgt12rcd13ifvqce0","pricing_plan_id":"cebpf4jnsgd1na2vs0mg"},{"bike_id":"7025df18-330e-42a4-bc8d-a4cf9b4b300e","system_id":"levelo_inurba_marseille","lat":43.24799,"lon":5.37443,"is_reserved":false,"is_disabled":false,"rental_uris":{"android":"levelo://app?vid=7025df18-330e-42a4-bc8d-a4cf9b4b300e","ios":"levelo://app?vid=7025df18-330e-42a4-bc8d-a4cf9b4b300e"},"vehicle_type_id":"4","last_reported":1751101779,"current_range_meters":11600,"station_id":"ce4bhgh2rcd13ifvqfb0","pricing_plan_id":"cebpf4jnsgd1na2vs0mg"},{"bike_id":"bbc4a376-bee7-4ad5-a49a-1022d27c1489","system_id":"levelo_inurba_marseille","lat":43.320823,"lon":5.367531,"is_reserved":false,"is_disabled":false,"rental_uris":{"android":"levelo://app?vid=bbc4a376-bee7-4ad5-a49a-1022d27c1489","ios":"levelo://app?vid=bbc4a376-bee7-4ad5-a49a-1022d27c1489"},"vehicle_type_id":"4","last_reported":1751101779,"current_range_meters":11600,"station_id":"ce4bhrh2rcd13ifvqhug","pricing_plan_id":"cebpf4jnsgd1na2vs0mg"},{"bike_id":"e6ce70f7-9138-485c-a4db-2c9174614cff","system_id":"levelo_inurba_marseille","lat":43.317764,"lon":5.36857,"is_reserved":false,"is_disabled":false,"rental_uris":{"android":"levelo://app?vid=e6ce70f7-9138-485c-a4db-2c9174614cff","ios":"levelo://app?vid=e6ce70f7-9138-485c-a4db-2c9174614cff"},"vehicle_type_id":"4","last_reported":1751101779,"current_range_meters":12000,"station_id":"","pricing_plan_id":"cebpf4jnsgd1na2vs0mg"},{"bike_id":"a2588648-26dc-4121-bee2-c283e3f6b0c1","system_id":"levelo_inurba_marseille","lat":43.34146,"lon":5.40903,"is_reserved":false,"is_disabled":false,"rental_uris":{"android":"levelo://app?vid=a2588648-26dc-4121-bee2-c283e3f6b0c1","ios":"levelo://app?vid=a2588648-26dc-4121-bee2-c283e3f6b0c1"},"vehicle_type_id":"4","last_reported":1751101779,"current_range_meters":12000,"station_id":"ce4bhqh2rcd13ifvqhlg","pricing_plan_id":"cebpf4jnsgd1na2vs0mg"},{"bike_id":"13726ea4-91b3-4b24-87ce-db653217d50c","system_id":"levelo_inurba_marseille","lat":43.32107,"lon":5.36744,"is_reserved":false,"is_disabled":false,"rental_uris":{"android":"levelo://app?vid=13726ea4-91b3-4b24-87ce-db653217d50c","ios":"levelo://app?vid=13726ea4-91b3-4b24-87ce-db653217d50c"},"vehicle_type_id":"4","last_reported":1751101779,"current_range_meters":12000,"station_id":"ce4bhrh2rcd13ifvqhug","pricing_plan_id":"cebpf4jnsgd1na2vs0mg"},{"bike_id":"3eabe1e2-f9f5-41cb-a4ed-73ca7f909c5c","system_id":"levelo_inurba_marseille","lat":43.2119,"lon":5.35067,"is_reserved":false,"is_disabled":false,"rental_uris":{"android":"levelo://app?vid=3eabe1e2-f9f5-41cb-a4ed-73ca7f909c5c","ios":"levelo://app?vid=3eabe1e2-f9f5-41cb-a4ed-73ca7f909c5c"},"vehicle_type_id":"4","last_reported":1751101779,"current_range_meters":12000,"station_id":"st_cvj6sg6p6f1abm77japg","pricing_plan_id":"cebpf4jnsgd1na2vs0mg"},{"bike_id":"2cbd26d7-8ccb-4bca-b892-7ed090bc3322","system_id":"levelo_inurba_marseille","lat":43.23193,"lon":5.35553,"is_reserved":false,"is_disabled":false,"rental_uris":{"android":"levelo://app?vid=2cbd26d7-8ccb-4bca-b892-7ed090bc3322","ios":"levelo://app?vid=2cbd26d7-8ccb-4bca-b892-7ed090bc3322"},"vehicle_type_id":"4","last_reported":1751101779,"current_range_meters":12400,"station_id":"ce4bhu92rcd13ifvqi70","pricing_plan_id":"cebpf4jnsgd1na2vs0mg"},{"bike_id":"d94461a0-709f-4ebf-a527-5ea4c045eebd","system_id":"levelo_inurba_marseille","lat":43.23062,"lon":5.35485,"is_reserved":false,"is_disabled":false,"rental_uris":{"android":"levelo://app?vid=d94461a0-709f-4ebf-a527-5ea4c045eebd","ios":"levelo://app?vid=d94461a0-709f-4ebf-a527-5ea4c045eebd"},"vehicle_type_id":"4","last_reported":1751101779,"current_range_meters":12400,"station_id":"cpo3342slgdg3j2ifvpg","pricing_plan_id":"cebpf4jnsgd1na2vs0mg"},{"bike_id":"44b677c8-76ed-4eac-8888-58151f9d5d6e","system_id":"levelo_inurba_marseille","lat":43.31958,"lon":5.36763,"is_reserved":false,"is_disabled":false,"rental_uris":{"android":"levelo://app?vid=44b677c8-76ed-4eac-8888-58151f9d5d6e","ios":"levelo://app?vid=44b677c8-76ed-4eac-8888-58151f9d5d6e"},"vehicle_type_id":"4","last_reported":1751101779,"current_range_meters":12800,"station_id":"","pricing_plan_id":"cebpf4jnsgd1na2vs0mg"},{"bike_id":"f1953887-1b02-447a-bc77-4e2cfee8acd9","system_id":"levelo_inurba_marseille","lat":43.27944,"lon":5.3959,"is_reserved":false,"is_disabled":false,"rental_uris":{"android":"levelo://app?vid=f1953887-1b02-447a-bc77-4e2cfee8acd9","ios":"levelo://app?vid=f1953887-1b02-447a-bc77-4e2cfee8acd9"},"vehicle_type_id":"4","last_reported":1751101779,"current_range_meters":12800,"station_id":"ce4bhf92rcd13ifvqf40","pricing_plan_id":"cebpf4jnsgd1na2vs0mg"},{"bike_id":"2b84c6ca-acae-4739-a032-fa86a72c0fe0","system_id":"levelo_inurba_marseille","lat":43.27975,"lon":5.38737,"is_reserved":false,"is_disabled":false,"rental_uris":{"android":"levelo://app?vid=2b84c6ca-acae-4739-a032-fa86a72c0fe0","ios":"levelo://app?vid=2b84c6ca-acae-4739-a032-fa86a72c0fe0"},"vehicle_type_id":"4","last_reported":1751101779,"current_range_meters":12800,"station_id":"ce4bhg12rcd13ifvqf80","pricing_plan_id":"cebpf4jnsgd1na2vs0mg"},{"bike_id":"4c65a551-917e-47d3-a93f-6a3b743e5ab2","system_id":"levelo_inurba_marseille","lat":43.26037,"lon":5.37541,"is_reserved":false,"is_disabled":false,"rental_uris":{"android":"levelo://app?vid=4c65a551-917e-47d3-a93f-6a3b743e5ab2","ios":"levelo://app?vid=4c65a551-917e-47d3-a93f-6a3b743e5ab2"},"vehicle_type_id":"4","last_reported":1751101779,"current_range_meters":12800,"station_id":"ce4bhgh2rcd13ifvqfa0","pricing_plan_id":"cebpf4jnsgd1na2vs0mg"},{"bike_id":"3405a45d-e821-4b57-8d62-377bdfe718c2","system_id":"levelo_inurba_marseille","lat":43.27078,"lon":5.42266,"is_reserved":false,"is_disabled":false,"rental_uris":{"android":"levelo://app?vid=3405a45d-e821-4b57-8d62-377bdfe718c2","ios":"levelo://app?vid=3405a45d-e821-4b57-8d62-377bdfe718c2"},"vehicle_type_id":"4","last_reported":1751101779,"current_range_meters":14000,"station_id":"ce4bhk92rcd13ifvqgb0","pricing_plan_id":"cebpf4jnsgd1na2vs0mg"},{"bike_id":"721165c1-ef6f-40cc-8d33-af3a7999864b","system_id":"levelo_inurba_marseille","lat":43.326596,"lon":5.378724,"is_reserved":false,"is_disabled":false,"rental_uris":{"android":"levelo://app?vid=721165c1-ef6f-40cc-8d33-af3a7999864b","ios":"levelo://app?vid=721165c1-ef6f-40cc-8d33-af3a7999864b"},"vehicle_type_id":"4","last_reported":1751101779,"current_range_meters":14400,"station_id":"","pricing_plan_id":"cebpf4jnsgd1na2vs0mg"},{"bike_id":"2c9484a9-4dab-4c41-9a4a-6af8a024adcf","system_id":"levelo_inurba_marseille","lat":43.26789,"lon":5.39408,"is_reserved":false,"is_disabled":false,"rental_uris":{"android":"levelo://app?vid=2c9484a9-4dab-4c41-9a4a-6af8a024adcf","ios":"levelo://app?vid=2c9484a9-4dab-4c41-9a4a-6af8a024adcf"},"vehicle_type_id":"4","last_reported":1751101779,"current_range_meters":14400,"station_id":"ce4bhh12rcd13ifvqfg0","pricing_plan_id":"cebpf4jnsgd1na2vs0mg"},{"bike_id":"873ce198-d36d-4815-8778-b72bd2ca0116","system_id":"levelo_inurba_marseille","lat":43.321028,"lon":5.367745,"is_reserved":false,"is_disabled":false,"rental_uris":{"android":"levelo://app?vid=873ce198-d36d-4815-8778-b72bd2ca0116","ios":"levelo://app?vid=873ce198-d36d-4815-8778-b72bd2ca0116"},"vehicle_type_id":"4","last_reported":1751101779,"current_range_meters":14400,"station_id":"ce4bhrh2rcd13ifvqhug","pricing_plan_id":"cebpf4jnsgd1na2vs0mg"},{"bike_id":"12c7fc9f-7c7b-4185-9b2f-badd0c17e36b","system_id":"levelo_inurba_marseille","lat":43.24743,"lon":5.37437,"is_reserved":false,"is_disabled":false,"rental_uris":{"android":"levelo://app?vid=12c7fc9f-7c7b-4185-9b2f-badd0c17e36b","ios":"levelo://app?vid=12c7fc9f-7c7b-4185-9b2f-badd0c17e36b"},"vehicle_type_id":"4","last_reported":1751101779,"current_range_meters":14800,"station_id":"","pricing_plan_id":"cebpf4jnsgd1na2vs0mg"},{"bike_id":"a7883090-0e10-4075-944b-a3cca54bc544","system_id":"levelo_inurba_marseille","lat":43.22508,"lon":5.34774,"is_reserved":false,"is_disabled":false,"rental_uris":{"android":"levelo://app?vid=a7883090-0e10-4075-944b-a3cca54bc544","ios":"levelo://app?vid=a7883090-0e10-4075-944b-a3cca54bc544"},"vehicle_type_id":"4","last_reported":1751101779,"current_range_meters":14800,"station_id":"st_cvj5dfep6f1abm77gieg","pricing_plan_id":"cebpf4jnsgd1na2vs0mg"},{"bike_id":"7a63f1f0-ab92-4431-90a0-628ae7550c2d","system_id":"levelo_inurba_marseille","lat":43.21192,"lon":5.35066,"is_reserved":false,"is_disabled":false,"rental_uris":{"android":"levelo://app?vid=7a63f1f0-ab92-4431-90a0-628ae7550c2d","ios":"levelo://app?vid=7a63f1f0-ab92-4431-90a0-628ae7550c2d"},"vehicle_type_id":"4","last_reported":1751101779,"current_range_meters":14800,"station_id":"st_cvj6sg6p6f1abm77japg","pricing_plan_id":"cebpf4jnsgd1na2vs0mg"},{"bike_id":"5cf668d2-b52a-4028-a184-5a338cef1763","system_id":"levelo_inurba_marseille","lat":43.26553,"lon":5.37284,"is_reserved":false,"is_disabled":false,"rental_uris":{"android":"levelo://app?vid=5cf668d2-b52a-4028-a184-5a338cef1763","ios":"levelo://app?vid=5cf668d2-b52a-4028-a184-5a338cef1763"},"vehicle_type_id":"4","last_reported":1751101779,"current_range_meters":15200,"station_id":"ce4bhg12rcd13ifvqf70","pricing_plan_id":"cebpf4jnsgd1na2vs0mg"},{"bike_id":"d03faf0e-6a14-4631-ade1-532df8d3d60e","system_id":"levelo_inurba_marseille","lat":43.260274,"lon":5.375488,"is_reserved":false,"is_disabled":false,"rental_uris":{"android":"levelo://app?vid=d03faf0e-6a14-4631-ade1-532df8d3d60e","ios":"levelo://app?vid=d03faf0e-6a14-4631-ade1-532df8d3d60e"},"vehicle_type_id":"4","last_reported":1751101779,"current_range_meters":15200,"station_id":"ce4bhgh2rcd13ifvqfa0","pricing_plan_id":"cebpf4jnsgd1na2vs0mg"},{"bike_id":"129c12b2-6184-4236-aab5-833fc8141add","system_id":"levelo_inurba_marseille","lat":43.26193,"lon":5.3744,"is_reserved":false,"is_disabled":false,"rental_uris":{"android":"levelo://app?vid=129c12b2-6184-4236-aab5-833fc8141add","ios":"levelo://app?vid=129c12b2-6184-4236-aab5-833fc8141add"},"vehicle_type_id":"4","last_reported":1751101779,"current_range_meters":15200,"station_id":"ce4bhgp2rcd13ifvqfc0","pricing_plan_id":"cebpf4jnsgd1na2vs0mg"},{"bike_id":"f020d5f0-3e7b-4cc6-98ef-ba2443e01c66","system_id":"levelo_inurba_marseille","lat":43.27189,"lon":5.4097,"is_reserved":false,"is_disabled":false,"rental_uris":{"android":"levelo://app?vid=f020d5f0-3e7b-4cc6-98ef-ba2443e01c66","ios":"levelo://app?vid=f020d5f0-3e7b-4cc6-98ef-ba2443e01c66"},"vehicle_type_id":"4","last_reported":1751101779,"current_range_meters":15200,"station_id":"ce4bhl12rcd13ifvqgf0","pricing_plan_id":"cebpf4jnsgd1na2vs0mg"},{"bike_id":"14e8ef37-e834-4d76-9946-e98f7a083a2f","system_id":"levelo_inurba_marseille","lat":43.211937,"lon":5.350665,"is_reserved":false,"is_disabled":false,"rental_uris":{"android":"levelo://app?vid=14e8ef37-e834-4d76-9946-e98f7a083a2f","ios":"levelo://app?vid=14e8ef37-e834-4d76-9946-e98f7a083a2f"},"vehicle_type_id":"4","last_reported":1751101779,"current_range_meters":15200,"station_id":"st_cvj6sg6p6f1abm77japg","pricing_plan_id":"cebpf4jnsgd1na2vs0mg"},{"bike_id":"0c803610-f6e9-41d4-936d-0b433fa62796","system_id":"levelo_inurba_marseille","lat":43.301888,"lon":5.378239,"is_reserved":false,"is_disabled":false,"rental_uris":{"android":"levelo://app?vid=0c803610-f6e9-41d4-936d-0b433fa62796","ios":"levelo://app?vid=0c803610-f6e9-41d4-936d-0b433fa62796"},"vehicle_type_id":"4","last_reported":1751101779,"current_range_meters":16000,"station_id":"","pricing_plan_id":"cebpf4jnsgd1na2vs0mg"},{"bike_id":"805073ca-85b9-42b0-9e57-7e7428595d04","system_id":"levelo_inurba_marseille","lat":43.288549,"lon":5.384511,"is_reserved":false,"is_disabled":false,"rental_uris":{"android":"levelo://app?vid=805073ca-85b9-42b0-9e57-7e7428595d04","ios":"levelo://app?vid=805073ca-85b9-42b0-9e57-7e7428595d04"},"vehicle_type_id":"4","last_reported":1751101779,"current_range_meters":16000,"station_id":"","pricing_plan_id":"cebpf4jnsgd1na2vs0mg"},{"bike_id":"ad257cb2-80ab-48da-982d-b7b72a3e1b91","system_id":"levelo_inurba_marseille","lat":43.29362,"lon":5.37839,"is_reserved":false,"is_disabled":false,"rental_uris":{"android":"levelo://app?vid=ad257cb2-80ab-48da-982d-b7b72a3e1b91","ios":"levelo://app?vid=ad257cb2-80ab-48da-982d-b7b72a3e1b91"},"vehicle_type_id":"4","last_reported":1751101779,"current_range_meters":16000,"station_id":"ce4bgjh2rcd13ifvqbf0","pricing_plan_id":"cebpf4jnsgd1na2vs0mg"},{"bike_id":"03e0de36-bf27-4790-823b-078c473638df","system_id":"levelo_inurba_marseille","lat":43.2958,"lon":5.3673,"is_reserved":false,"is_disabled":false,"rental_uris":{"android":"levelo://app?vid=03e0de36-bf27-4790-823b-078c473638df","ios":"levelo://app?vid=03e0de36-bf27-4790-823b-078c473638df"},"vehicle_type_id":"4","last_reported":1751101779,"current_range_meters":16000,"station_id":"ce4bgph2rcd13ifvqc2g","pricing_plan_id":"cebpf4jnsgd1na2vs0mg"},{"bike_id":"42817030-9551-478a-95d8-addde4e6ae5b","system_id":"levelo_inurba_marseille","lat":43.31395,"lon":5.36709,"is_reserved":false,"is_disabled":false,"rental_uris":{"android":"levelo://app?vid=42817030-9551-478a-95d8-addde4e6ae5b","ios":"levelo://app?vid=42817030-9551-478a-95d8-addde4e6ae5b"},"vehicle_type_id":"4","last_reported":1751101779,"current_range_meters":16000,"station_id":"ce4bgr92rcd13ifvqc6g","pricing_plan_id":"cebpf4jnsgd1na2vs0mg"},{"bike_id":"0ca717a1-45d0-467a-befd-9d85a9b7f044","system_id":"levelo_inurba_marseille","lat":43.30307,"lon":5.40123,"is_reserved":false,"is_disabled":false,"rental_uris":{"android":"levelo://app?vid=0ca717a1-45d0-467a-befd-9d85a9b7f044","ios":"levelo://app?vid=0ca717a1-45d0-467a-befd-9d85a9b7f044"},"vehicle_type_id":"4","last_reported":1751101779,"current_range_meters":16000,"station_id":"ce4bgvh2rcd13ifvqcs0","pricing_plan_id":"cebpf4jnsgd1na2vs0mg"},{"bike_id":"1f3a697c-219e-414a-b34b-16a551152912","system_id":"levelo_inurba_marseille","lat":43.28271,"lon":5.35069,"is_reserved":false,"is_disabled":false,"rental_uris":{"android":"levelo://app?vid=1f3a697c-219e-414a-b34b-16a551152912","ios":"levelo://app?vid=1f3a697c-219e-414a-b34b-16a551152912"},"vehicle_type_id":"4","last_reported":1751101779,"current_range_meters":16000,"station_id":"ce4bhbp2rcd13ifvqerg","pricing_plan_id":"cebpf4jnsgd1na2vs0mg"},{"bike_id":"f4db1676-2989-4961-9e5d-370e18ab1e9b","system_id":"levelo_inurba_marseille","lat":43.27424,"lon":5.39423,"is_reserved":false,"is_disabled":false,"rental_uris":{"android":"levelo://app?vid=f4db1676-2989-4961-9e5d-370e18ab1e9b","ios":"levelo://app?vid=f4db1676-2989-4961-9e5d-370e18ab1e9b"},"vehicle_type_id":"4","last_reported":1751101779,"current_range_meters":16000,"station_id":"ce4bhdp2rcd13ifvqf20","pricing_plan_id":"cebpf4jnsgd1na2vs0mg"},{"bike_id":"6bd9b448-0b38-4c33-b738-f1b5e8722b1e","system_id":"levelo_inurba_marseille","lat":43.271746,"lon":5.409865,"is_reserved":false,"is_disabled":false,"rental_uris":{"android":"levelo://app?vid=6bd9b448-0b38-4c33-b738-f1b5e8722b1e","ios":"levelo://app?vid=6bd9b448-0b38-4c33-b738-f1b5e8722b1e"},"vehicle_type_id":"4","last_reported":1751101779,"current_range_meters":16000,"station_id":"ce4bhl12rcd13ifvqgf0","pricing_plan_id":"cebpf4jnsgd1na2vs0mg"},{"bike_id":"6af79a00-84aa-4908-a347-34425e08c383","system_id":"levelo_inurba_marseille","lat":43.30281,"lon":5.37571,"is_reserved":false,"is_disabled":false,"rental_uris":{"android":"levelo://app?vid=6af79a00-84aa-4908-a347-34425e08c383","ios":"levelo://app?vid=6af79a00-84aa-4908-a347-34425e08c383"},"vehicle_type_id":"4","last_reported":1751101779,"current_range_meters":16400,"station_id":"","pricing_plan_id":"cebpf4jnsgd1na2vs0mg"},{"bike_id":"a292c988-64f7-401e-80fb-d96272dfed02","system_id":"levelo_inurba_marseille","lat":43.30472,"lon":5.37895,"is_reserved":false,"is_disabled":false,"rental_uris":{"android":"levelo://app?vid=a292c988-64f7-401e-80fb-d96272dfed02","ios":"levelo://app?vid=a292c988-64f7-401e-80fb-d96272dfed02"},"vehicle_type_id":"4","last_reported":1751101779,"current_range_meters":16400,"station_id":"ce4bgup2rcd13ifvqcn0","pricing_plan_id":"cebpf4jnsgd1na2vs0mg"},{"bike_id":"4d7db8d7-3b0e-409e-bb84-58d0b9e4a9c3","system_id":"levelo_inurba_marseille","lat":43.29527,"lon":5.39405,"is_reserved":false,"is_disabled":false,"rental_uris":{"android":"levelo://app?vid=4d7db8d7-3b0e-409e-bb84-58d0b9e4a9c3","ios":"levelo://app?vid=4d7db8d7-3b0e-409e-bb84-58d0b9e4a9c3"},"vehicle_type_id":"4","last_reported":1751101779,"current_range_meters":16400,"station_id":"ce4bh292rcd13ifvqdf0","pricing_plan_id":"cebpf4jnsgd1na2vs0mg"},{"bike_id":"683968a8-695d-48a7-b7bc-a62aae74517d","system_id":"levelo_inurba_marseille","lat":43.28415,"lon":5.34979,"is_reserved":false,"is_disabled":false,"rental_uris":{"android":"levelo://app?vid=683968a8-695d-48a7-b7bc-a62aae74517d","ios":"levelo://app?vid=683968a8-695d-48a7-b7bc-a62aae74517d"},"vehicle_type_id":"4","last_reported":1751101779,"current_range_meters":16400,"station_id":"ce4bhbh2rcd13ifvqepg","pricing_plan_id":"cebpf4jnsgd1na2vs0mg"},{"bike_id":"bf525adf-9539-4b47-9dea-a6c9ac31b7a5","system_id":"levelo_inurba_marseille","lat":43.22932,"lon":5.35392,"is_reserved":false,"is_disabled":false,"rental_uris":{"android":"levelo://app?vid=bf525adf-9539-4b47-9dea-a6c9ac31b7a5","ios":"levelo://app?vid=bf525adf-9539-4b47-9dea-a6c9ac31b7a5"},"vehicle_type_id":"4","last_reported":1751101779,"current_range_meters":16400,"station_id":"cpo3532slgdg3j2ikp40","pricing_plan_id":"cebpf4jnsgd1na2vs0mg"},{"bike_id":"b7b58613-cdc6-4750-8137-2d44544d5e13","system_id":"levelo_inurba_marseille","lat":43.31468,"lon":5.36911,"is_reserved":false,"is_disabled":false,"rental_uris":{"android":"levelo://app?vid=b7b58613-cdc6-4750-8137-2d44544d5e13","ios":"levelo://app?vid=b7b58613-cdc6-4750-8137-2d44544d5e13"},"vehicle_type_id":"4","last_reported":1751101779,"current_range_meters":16800,"station_id":"","pricing_plan_id":"cebpf4jnsgd1na2vs0mg"},{"bike_id":"8ca19979-1edc-4e4f-9b50-d865e56feffc","system_id":"levelo_inurba_marseille","lat":43.28282,"lon":5.35072,"is_reserved":false,"is_disabled":false,"rental_uris":{"android":"levelo://app?vid=8ca19979-1edc-4e4f-9b50-d865e56feffc","ios":"levelo://app?vid=8ca19979-1edc-4e4f-9b50-d865e56feffc"},"vehicle_type_id":"4","last_reported":1751101779,"current_range_meters":16800,"station_id":"ce4bhbp2rcd13ifvqerg","pricing_plan_id":"cebpf4jnsgd1na2vs0mg"},{"bike_id":"641e6289-6811-41fe-a848-4459481912e3","system_id":"levelo_inurba_marseille","lat":43.27908,"lon":5.39572,"is_reserved":false,"is_disabled":false,"rental_uris":{"android":"levelo://app?vid=641e6289-6811-41fe-a848-4459481912e3","ios":"levelo://app?vid=641e6289-6811-41fe-a848-4459481912e3"},"vehicle_type_id":"4","last_reported":1751101779,"current_range_meters":16800,"station_id":"ce4bhf92rcd13ifvqf40","pricing_plan_id":"cebpf4jnsgd1na2vs0mg"},{"bike_id":"5f4a7588-4657-4890-a12c-3d38cf15fb5d","system_id":"levelo_inurba_marseille","lat":43.26215,"lon":5.37417,"is_reserved":false,"is_disabled":false,"rental_uris":{"android":"levelo://app?vid=5f4a7588-4657-4890-a12c-3d38cf15fb5d","ios":"levelo://app?vid=5f4a7588-4657-4890-a12c-3d38cf15fb5d"},"vehicle_type_id":"4","last_reported":1751101779,"current_range_meters":16800,"station_id":"ce4bhgp2rcd13ifvqfc0","pricing_plan_id":"cebpf4jnsgd1na2vs0mg"},{"bike_id":"f810be2a-3c00-446f-9ba1-1f3840ce349d","system_id":"levelo_inurba_marseille","lat":43.32097,"lon":5.36773,"is_reserved":false,"is_disabled":false,"rental_uris":{"android":"levelo://app?vid=f810be2a-3c00-446f-9ba1-1f3840ce349d","ios":"levelo://app?vid=f810be2a-3c00-446f-9ba1-1f3840ce349d"},"vehicle_type_id":"4","last_reported":1751101779,"current_range_meters":16800,"station_id":"ce4bhrh2rcd13ifvqhug","pricing_plan_id":"cebpf4jnsgd1na2vs0mg"},{"bike_id":"73eae19d-5cc5-48fe-810c-85fc7175c6a0","system_id":"levelo_inurba_marseille","lat":43.23052,"lon":5.3549,"is_reserved":false,"is_disabled":false,"rental_uris":{"android":"levelo://app?vid=73eae19d-5cc5-48fe-810c-85fc7175c6a0","ios":"levelo://app?vid=73eae19d-5cc5-48fe-810c-85fc7175c6a0"},"vehicle_type_id":"4","last_reported":1751101779,"current_range_meters":16800,"station_id":"cpo3342slgdg3j2ifvpg","pricing_plan_id":"cebpf4jnsgd1na2vs0mg"},{"bike_id":"352b2116-d423-485f-afd5-55c48a8870b0","system_id":"levelo_inurba_marseille","lat":43.2991,"lon":5.38142,"is_reserved":false,"is_disabled":false,"rental_uris":{"android":"levelo://app?vid=352b2116-d423-485f-afd5-55c48a8870b0","ios":"levelo://app?vid=352b2116-d423-485f-afd5-55c48a8870b0"},"vehicle_type_id":"4","last_reported":1751101779,"current_range_meters":17200,"station_id":"ce4bgj12rcd13ifvqbc0","pricing_plan_id":"cebpf4jnsgd1na2vs0mg"},{"bike_id":"2287b753-3344-403e-a9e0-526651a52461","system_id":"levelo_inurba_marseille","lat":43.240742,"lon":5.377616,"is_reserved":false,"is_disabled":false,"rental_uris":{"android":"levelo://app?vid=2287b753-3344-403e-a9e0-526651a52461","ios":"levelo://app?vid=2287b753-3344-403e-a9e0-526651a52461"},"vehicle_type_id":"4","last_reported":1751101779,"current_range_meters":17200,"station_id":"ce4bhnp2rcd13ifvqgvg","pricing_plan_id":"cebpf4jnsgd1na2vs0mg"},{"bike_id":"fc360b07-2fb5-491e-992a-92c31c653844","system_id":"levelo_inurba_marseille","lat":43.240713,"lon":5.366032,"is_reserved":false,"is_disabled":false,"rental_uris":{"android":"levelo://app?vid=fc360b07-2fb5-491e-992a-92c31c653844","ios":"levelo://app?vid=fc360b07-2fb5-491e-992a-92c31c653844"},"vehicle_type_id":"4","last_reported":1751101779,"current_range_meters":17200,"station_id":"cpo3532slgdg3j2ikp40","pricing_plan_id":"cebpf4jnsgd1na2vs0mg"},{"bike_id":"1422aae9-4428-4bc5-9f1e-88df6f664dde","system_id":"levelo_inurba_marseille","lat":43.2919,"lon":5.35706,"is_reserved":false,"is_disabled":false,"rental_uris":{"android":"levelo://app?vid=1422aae9-4428-4bc5-9f1e-88df6f664dde","ios":"levelo://app?vid=1422aae9-4428-4bc5-9f1e-88df6f664dde"},"vehicle_type_id":"4","last_reported":1751101779,"current_range_meters":17600,"station_id":"","pricing_plan_id":"cebpf4jnsgd1na2vs0mg"},{"bike_id":"6f4919b0-d9c4-4c52-b108-ac1dd2e153c7","system_id":"levelo_inurba_marseille","lat":43.31226,"lon":5.36883,"is_reserved":false,"is_disabled":false,"rental_uris":{"android":"levelo://app?vid=6f4919b0-d9c4-4c52-b108-ac1dd2e153c7","ios":"levelo://app?vid=6f4919b0-d9c4-4c52-b108-ac1dd2e153c7"},"vehicle_type_id":"4","last_reported":1751101779,"current_range_meters":17600,"station_id":"ce4bgl92rcd13ifvqbq0","pricing_plan_id":"cebpf4jnsgd1na2vs0mg"},{"bike_id":"d88f7a9b-532d-4f16-a895-aad8a6fdc835","system_id":"levelo_inurba_marseille","lat":43.2958,"lon":5.3674,"is_reserved":false,"is_disabled":false,"rental_uris":{"android":"levelo://app?vid=d88f7a9b-532d-4f16-a895-aad8a6fdc835","ios":"levelo://app?vid=d88f7a9b-532d-4f16-a895-aad8a6fdc835"},"vehicle_type_id":"4","last_reported":1751101779,"current_range_meters":17600,"station_id":"ce4bgph2rcd13ifvqc2g","pricing_plan_id":"cebpf4jnsgd1na2vs0mg"},{"bike_id":"f342fe44-5d74-40e3-a0fa-5214bcb4d08c","system_id":"levelo_inurba_marseille","lat":43.316866,"lon":5.404681,"is_reserved":false,"is_disabled":false,"rental_uris":{"android":"levelo://app?vid=f342fe44-5d74-40e3-a0fa-5214bcb4d08c","ios":"levelo://app?vid=f342fe44-5d74-40e3-a0fa-5214bcb4d08c"},"vehicle_type_id":"4","last_reported":1751101779,"current_range_meters":17600,"station_id":"ce4bh012rcd13ifvqd00","pricing_plan_id":"cebpf4jnsgd1na2vs0mg"},{"bike_id":"e949af3d-2bf7-4da6-b713-72a337f27d64","system_id":"levelo_inurba_marseille","lat":43.23965,"lon":5.36633,"is_reserved":false,"is_disabled":false,"rental_uris":{"android":"levelo://app?vid=e949af3d-2bf7-4da6-b713-72a337f27d64","ios":"levelo://app?vid=e949af3d-2bf7-4da6-b713-72a337f27d64"},"vehicle_type_id":"4","last_reported":1751101779,"current_range_meters":17600,"station_id":"ce4bhi12rcd13ifvqfp0","pricing_plan_id":"cebpf4jnsgd1na2vs0mg"},{"bike_id":"c0a2de0a-20e3-4e62-848e-f0dbd6b2e588","system_id":"levelo_inurba_marseille","lat":43.22494,"lon":5.34783,"is_reserved":false,"is_disabled":false,"rental_uris":{"android":"levelo://app?vid=c0a2de0a-20e3-4e62-848e-f0dbd6b2e588","ios":"levelo://app?vid=c0a2de0a-20e3-4e62-848e-f0dbd6b2e588"},"vehicle_type_id":"4","last_reported":1751101779,"current_range_meters":17600,"station_id":"st_cvj5dfep6f1abm77gieg","pricing_plan_id":"cebpf4jnsgd1na2vs0mg"},{"bike_id":"4f7da216-f811-4c57-9e64-cdee7467bddd","system_id":"levelo_inurba_marseille","lat":43.22501,"lon":5.3479,"is_reserved":false,"is_disabled":false,"rental_uris":{"android":"levelo://app?vid=4f7da216-f811-4c57-9e64-cdee7467bddd","ios":"levelo://app?vid=4f7da216-f811-4c57-9e64-cdee7467bddd"},"vehicle_type_id":"4","last_reported":1751101779,"current_range_meters":17600,"station_id":"st_cvj5dfep6f1abm77gieg","pricing_plan_id":"cebpf4jnsgd1na2vs0mg"},{"bike_id":"db821bdc-433a-4b87-abec-9312b5b57723","system_id":"levelo_inurba_marseille","lat":43.21191,"lon":5.35071,"is_reserved":false,"is_disabled":false,"rental_uris":{"android":"levelo://app?vid=db821bdc-433a-4b87-abec-9312b5b57723","ios":"levelo://app?vid=db821bdc-433a-4b87-abec-9312b5b57723"},"vehicle_type_id":"4","last_reported":1751101779,"current_range_meters":17600,"station_id":"st_cvj6sg6p6f1abm77japg","pricing_plan_id":"cebpf4jnsgd1na2vs0mg"},{"bike_id":"735fb3ec-51d3-42a0-b0e0-35a6ef148211","system_id":"levelo_inurba_marseille","lat":43.312867,"lon":5.373162,"is_reserved":false,"is_disabled":false,"rental_uris":{"android":"levelo://app?vid=735fb3ec-51d3-42a0-b0e0-35a6ef148211","ios":"levelo://app?vid=735fb3ec-51d3-42a0-b0e0-35a6ef148211"},"vehicle_type_id":"4","last_reported":1751101779,"current_range_meters":18000,"station_id":"","pricing_plan_id":"cebpf4jnsgd1na2vs0mg"},{"bike_id":"d308c658-b19c-49c0-8014-5506ff26f69a","system_id":"levelo_inurba_marseille","lat":43.23077,"lon":5.40483,"is_reserved":false,"is_disabled":false,"rental_uris":{"android":"levelo://app?vid=d308c658-b19c-49c0-8014-5506ff26f69a","ios":"levelo://app?vid=d308c658-b19c-49c0-8014-5506ff26f69a"},"vehicle_type_id":"4","last_reported":1751101779,"current_range_meters":18000,"station_id":"","pricing_plan_id":"cebpf4jnsgd1na2vs0mg"},{"bike_id":"ec1641df-6975-481a-9083-9175bcb48235","system_id":"levelo_inurba_marseille","lat":43.31503,"lon":5.37294,"is_reserved":false,"is_disabled":false,"rental_uris":{"android":"levelo://app?vid=ec1641df-6975-481a-9083-9175bcb48235","ios":"levelo://app?vid=ec1641df-6975-481a-9083-9175bcb48235"},"vehicle_type_id":"4","last_reported":1751101779,"current_range_meters":18000,"station_id":"ce4bgt12rcd13ifvqcd0","pricing_plan_id":"cebpf4jnsgd1na2vs0mg"},{"bike_id":"80a563cd-2512-4b18-8644-9b4140646fdc","system_id":"levelo_inurba_marseille","lat":43.257341,"lon":5.411073,"is_reserved":false,"is_disabled":false,"rental_uris":{"android":"levelo://app?vid=80a563cd-2512-4b18-8644-9b4140646fdc","ios":"levelo://app?vid=80a563cd-2512-4b18-8644-9b4140646fdc"},"vehicle_type_id":"4","last_reported":1751101779,"current_range_meters":18000,"station_id":"ce4bhkp2rcd13ifvqgd0","pricing_plan_id":"cebpf4jnsgd1na2vs0mg"},{"bike_id":"a7d9ea85-783b-4a03-af7f-769c6913b5a6","system_id":"levelo_inurba_marseille","lat":43.24185,"lon":5.39736,"is_reserved":false,"is_disabled":false,"rental_uris":{"android":"levelo://app?vid=a7d9ea85-783b-4a03-af7f-769c6913b5a6","ios":"levelo://app?vid=a7d9ea85-783b-4a03-af7f-769c6913b5a6"},"vehicle_type_id":"4","last_reported":1751101779,"current_range_meters":18000,"station_id":"ce4bhn12rcd13ifvqgpg","pricing_plan_id":"cebpf4jnsgd1na2vs0mg"},{"bike_id":"aff4423e-c2af-4b70-b9bd-2bdc17fafffc","system_id":"levelo_inurba_marseille","lat":43.24171,"lon":5.36382,"is_reserved":false,"is_disabled":false,"rental_uris":{"android":"levelo://app?vid=aff4423e-c2af-4b70-b9bd-2bdc17fafffc","ios":"levelo://app?vid=aff4423e-c2af-4b70-b9bd-2bdc17fafffc"},"vehicle_type_id":"4","last_reported":1751101779,"current_range_meters":18000,"station_id":"cpo36qri1sfpv3e86is0","pricing_plan_id":"cebpf4jnsgd1na2vs0mg"},{"bike_id":"8938ae4b-572d-47fc-b025-02b05af60188","system_id":"levelo_inurba_marseille","lat":43.22519,"lon":5.34764,"is_reserved":false,"is_disabled":false,"rental_uris":{"android":"levelo://app?vid=8938ae4b-572d-47fc-b025-02b05af60188","ios":"levelo://app?vid=8938ae4b-572d-47fc-b025-02b05af60188"},"vehicle_type_id":"4","last_reported":1751101779,"current_range_meters":18000,"station_id":"st_cvj5dfep6f1abm77gieg","pricing_plan_id":"cebpf4jnsgd1na2vs0mg"},{"bike_id":"b13877a6-4825-4d82-b46b-67fa8ad66c5d","system_id":"levelo_inurba_marseille","lat":43.212024,"lon":5.350674,"is_reserved":false,"is_disabled":false,"rental_uris":{"android":"levelo://app?vid=b13877a6-4825-4d82-b46b-67fa8ad66c5d","ios":"levelo://app?vid=b13877a6-4825-4d82-b46b-67fa8ad66c5d"},"vehicle_type_id":"4","last_reported":1751101779,"current_range_meters":18000,"station_id":"st_cvj6sg6p6f1abm77japg","pricing_plan_id":"cebpf4jnsgd1na2vs0mg"},{"bike_id":"c595d0e1-c778-4abe-9c79-a9dd74f54e27","system_id":"levelo_inurba_marseille","lat":43.244704,"lon":5.372249,"is_reserved":false,"is_disabled":false,"rental_uris":{"android":"levelo://app?vid=c595d0e1-c778-4abe-9c79-a9dd74f54e27","ios":"levelo://app?vid=c595d0e1-c778-4abe-9c79-a9dd74f54e27"},"vehicle_type_id":"4","last_reported":1751101779,"current_range_meters":18800,"station_id":"","pricing_plan_id":"cebpf4jnsgd1na2vs0mg"},{"bike_id":"28fd240d-8d43-405b-8b0f-06bf2c135c9d","system_id":"levelo_inurba_marseille","lat":43.23966,"lon":5.3663,"is_reserved":false,"is_disabled":false,"rental_uris":{"android":"levelo://app?vid=28fd240d-8d43-405b-8b0f-06bf2c135c9d","ios":"levelo://app?vid=28fd240d-8d43-405b-8b0f-06bf2c135c9d"},"vehicle_type_id":"4","last_reported":1751101779,"current_range_meters":18800,"station_id":"ce4bhi12rcd13ifvqfp0","pricing_plan_id":"cebpf4jnsgd1na2vs0mg"},{"bike_id":"00232df6-47e0-4159-9a64-03051f9ea3a1","system_id":"levelo_inurba_marseille","lat":43.28133,"lon":5.39827,"is_reserved":false,"is_disabled":false,"rental_uris":{"android":"levelo://app?vid=00232df6-47e0-4159-9a64-03051f9ea3a1","ios":"levelo://app?vid=00232df6-47e0-4159-9a64-03051f9ea3a1"},"vehicle_type_id":"4","last_reported":1751101779,"current_range_meters":19200,"station_id":"","pricing_plan_id":"cebpf4jnsgd1na2vs0mg"},{"bike_id":"a61101a2-743e-458d-bad8-585e8755b65f","system_id":"levelo_inurba_marseille","lat":43.23058,"lon":5.35491,"is_reserved":false,"is_disabled":false,"rental_uris":{"android":"levelo://app?vid=a61101a2-743e-458d-bad8-585e8755b65f","ios":"levelo://app?vid=a61101a2-743e-458d-bad8-585e8755b65f"},"vehicle_type_id":"4","last_reported":1751101779,"current_range_meters":19200,"station_id":"cpo3342slgdg3j2ifvpg","pricing_plan_id":"cebpf4jnsgd1na2vs0mg"},{"bike_id":"3a7e54b5-a2f5-42f3-a085-743ac5e93398","system_id":"levelo_inurba_marseille","lat":43.25187,"lon":5.42205,"is_reserved":false,"is_disabled":false,"rental_uris":{"android":"levelo://app?vid=3a7e54b5-a2f5-42f3-a085-743ac5e93398","ios":"levelo://app?vid=3a7e54b5-a2f5-42f3-a085-743ac5e93398"},"vehicle_type_id":"4","last_reported":1751101779,"current_range_meters":19600,"station_id":"","pricing_plan_id":"cebpf4jnsgd1na2vs0mg"},{"bike_id":"81983798-f8af-49a3-b622-1aaba5322c2e","system_id":"levelo_inurba_marseille","lat":43.30308,"lon":5.3689,"is_reserved":false,"is_disabled":false,"rental_uris":{"android":"levelo://app?vid=81983798-f8af-49a3-b622-1aaba5322c2e","ios":"levelo://app?vid=81983798-f8af-49a3-b622-1aaba5322c2e"},"vehicle_type_id":"4","last_reported":1751101779,"current_range_meters":19600,"station_id":"ce4bgqh2rcd13ifvqc5g","pricing_plan_id":"cebpf4jnsgd1na2vs0mg"},{"bike_id":"85588e01-da9c-4683-97be-c3cac88e555d","system_id":"levelo_inurba_marseille","lat":43.30181,"lon":5.36602,"is_reserved":false,"is_disabled":false,"rental_uris":{"android":"levelo://app?vid=85588e01-da9c-4683-97be-c3cac88e555d","ios":"levelo://app?vid=85588e01-da9c-4683-97be-c3cac88e555d"},"vehicle_type_id":"4","last_reported":1751101779,"current_range_meters":19600,"station_id":"ce4bgrh2rcd13ifvqc8g","pricing_plan_id":"cebpf4jnsgd1na2vs0mg"},{"bike_id":"fede116f-fe8f-4996-bd86-bef08c43bb15","system_id":"levelo_inurba_marseille","lat":43.28422,"lon":5.34985,"is_reserved":false,"is_disabled":false,"rental_uris":{"android":"levelo://app?vid=fede116f-fe8f-4996-bd86-bef08c43bb15","ios":"levelo://app?vid=fede116f-fe8f-4996-bd86-bef08c43bb15"},"vehicle_type_id":"4","last_reported":1751101779,"current_range_meters":19600,"station_id":"ce4bhbh2rcd13ifvqepg","pricing_plan_id":"cebpf4jnsgd1na2vs0mg"},{"bike_id":"cd785289-3456-4cb4-9469-fcc7ea2e6edc","system_id":"levelo_inurba_marseille","lat":43.28273,"lon":5.35068,"is_reserved":false,"is_disabled":false,"rental_uris":{"android":"levelo://app?vid=cd785289-3456-4cb4-9469-fcc7ea2e6edc","ios":"levelo://app?vid=cd785289-3456-4cb4-9469-fcc7ea2e6edc"},"vehicle_type_id":"4","last_reported":1751101779,"current_range_meters":19600,"station_id":"ce4bhbp2rcd13ifvqerg","pricing_plan_id":"cebpf4jnsgd1na2vs0mg"},{"bike_id":"7757c5d7-8597-4da8-bc28-0c6a39bb89b9","system_id":"levelo_inurba_marseille","lat":43.32307,"lon":5.38271,"is_reserved":false,"is_disabled":false,"rental_uris":{"android":"levelo://app?vid=7757c5d7-8597-4da8-bc28-0c6a39bb89b9","ios":"levelo://app?vid=7757c5d7-8597-4da8-bc28-0c6a39bb89b9"},"vehicle_type_id":"4","last_reported":1751101779,"current_range_meters":19600,"station_id":"ce4bhr12rcd13ifvqhqg","pricing_plan_id":"cebpf4jnsgd1na2vs0mg"},{"bike_id":"e8ea605e-e138-4e5e-ba06-7b44d8d7c125","system_id":"levelo_inurba_marseille","lat":43.21182,"lon":5.35063,"is_reserved":false,"is_disabled":false,"rental_uris":{"android":"levelo://app?vid=e8ea605e-e138-4e5e-ba06-7b44d8d7c125","ios":"levelo://app?vid=e8ea605e-e138-4e5e-ba06-7b44d8d7c125"},"vehicle_type_id":"4","last_reported":1751101779,"current_range_meters":19600,"station_id":"st_cvj6sg6p6f1abm77japg","pricing_plan_id":"cebpf4jnsgd1na2vs0mg"},{"bike_id":"c5aa97fb-ba07-4cc2-ab38-c002a96df413","system_id":"levelo_inurba_marseille","lat":43.29907,"lon":5.38132,"is_reserved":false,"is_disabled":false,"rental_uris":{"android":"levelo://app?vid=c5aa97fb-ba07-4cc2-ab38-c002a96df413","ios":"levelo://app?vid=c5aa97fb-ba07-4cc2-ab38-c002a96df413"},"vehicle_type_id":"4","last_reported":1751101779,"current_range_meters":20000,"station_id":"ce4bgj12rcd13ifvqbc0","pricing_plan_id":"cebpf4jnsgd1na2vs0mg"},{"bike_id":"a3261e7a-d4d7-41df-825f-a76a646abba6","system_id":"levelo_inurba_marseille","lat":43.26791,"lon":5.39412,"is_reserved":false,"is_disabled":false,"rental_uris":{"android":"levelo://app?vid=a3261e7a-d4d7-41df-825f-a76a646abba6","ios":"levelo://app?vid=a3261e7a-d4d7-41df-825f-a76a646abba6"},"vehicle_type_id":"4","last_reported":1751101779,"current_range_meters":20000,"station_id":"ce4bhh12rcd13ifvqfg0","pricing_plan_id":"cebpf4jnsgd1na2vs0mg"},{"bike_id":"181e9af0-5490-4f46-9a76-4c450ccf62c6","system_id":"levelo_inurba_marseille","lat":43.23959,"lon":5.36619,"is_reserved":false,"is_disabled":false,"rental_uris":{"android":"levelo://app?vid=181e9af0-5490-4f46-9a76-4c450ccf62c6","ios":"levelo://app?vid=181e9af0-5490-4f46-9a76-4c450ccf62c6"},"vehicle_type_id":"4","last_reported":1751101779,"current_range_meters":20000,"station_id":"ce4bhi12rcd13ifvqfp0","pricing_plan_id":"cebpf4jnsgd1na2vs0mg"},{"bike_id":"938a3fd4-3ed6-48f4-b993-bfd037cb52d6","system_id":"levelo_inurba_marseille","lat":43.22491,"lon":5.34806,"is_reserved":false,"is_disabled":false,"rental_uris":{"android":"levelo://app?vid=938a3fd4-3ed6-48f4-b993-bfd037cb52d6","ios":"levelo://app?vid=938a3fd4-3ed6-48f4-b993-bfd037cb52d6"},"vehicle_type_id":"4","last_reported":1751101779,"current_range_meters":20000,"station_id":"st_cvj5dfep6f1abm77gieg","pricing_plan_id":"cebpf4jnsgd1na2vs0mg"},{"bike_id":"39391c58-0ced-47c1-ad0c-ead1501fc7b8","system_id":"levelo_inurba_marseille","lat":43.21759,"lon":5.34602,"is_reserved":false,"is_disabled":false,"rental_uris":{"android":"levelo://app?vid=39391c58-0ced-47c1-ad0c-ead1501fc7b8","ios":"levelo://app?vid=39391c58-0ced-47c1-ad0c-ead1501fc7b8"},"vehicle_type_id":"4","last_reported":1751101779,"current_range_meters":20000,"station_id":"st_cvj6r9ubvosntc0bgbag","pricing_plan_id":"cebpf4jnsgd1na2vs0mg"},{"bike_id":"6e53ad1f-d4f5-4de6-9418-67b290ec993f","system_id":"levelo_inurba_marseille","lat":43.30941,"lon":5.4103,"is_reserved":false,"is_disabled":false,"rental_uris":{"android":"levelo://app?vid=6e53ad1f-d4f5-4de6-9418-67b290ec993f","ios":"levelo://app?vid=6e53ad1f-d4f5-4de6-9418-67b290ec993f"},"vehicle_type_id":"4","last_reported":1751101779,"current_range_meters":20400,"station_id":"","pricing_plan_id":"cebpf4jnsgd1na2vs0mg"},{"bike_id":"021a97b1-5ba1-4412-b63a-3d7e34ede277","system_id":"levelo_inurba_marseille","lat":43.29569,"lon":5.37517,"is_reserved":false,"is_disabled":false,"rental_uris":{"android":"levelo://app?vid=021a97b1-5ba1-4412-b63a-3d7e34ede277","ios":"levelo://app?vid=021a97b1-5ba1-4412-b63a-3d7e34ede277"},"vehicle_type_id":"4","last_reported":1751101779,"current_range_meters":20400,"station_id":"ce4bgh92rcd13ifvqb50","pricing_plan_id":"cebpf4jnsgd1na2vs0mg"},{"bike_id":"44fb4cee-d067-41cd-96e3-e0cc6ac4f3ab","system_id":"levelo_inurba_marseille","lat":43.29568,"lon":5.37491,"is_reserved":false,"is_disabled":false,"rental_uris":{"android":"levelo://app?vid=44fb4cee-d067-41cd-96e3-e0cc6ac4f3ab","ios":"levelo://app?vid=44fb4cee-d067-41cd-96e3-e0cc6ac4f3ab"},"vehicle_type_id":"4","last_reported":1751101779,"current_range_meters":20400,"station_id":"ce4bgh92rcd13ifvqb50","pricing_plan_id":"cebpf4jnsgd1na2vs0mg"},{"bike_id":"d113360d-5494-491b-9546-b6e0f97680fc","system_id":"levelo_inurba_marseille","lat":43.29091,"lon":5.38111,"is_reserved":false,"is_disabled":false,"rental_uris":{"android":"levelo://app?vid=d113360d-5494-491b-9546-b6e0f97680fc","ios":"levelo://app?vid=d113360d-5494-491b-9546-b6e0f97680fc"},"vehicle_type_id":"4","last_reported":1751101779,"current_range_meters":20400,"station_id":"ce4bh512rcd13ifvqe2g","pricing_plan_id":"cebpf4jnsgd1na2vs0mg"},{"bike_id":"3712e055-98e2-4a2b-a781-d12d53a41026","system_id":"levelo_inurba_marseille","lat":43.29273,"lon":5.3684,"is_reserved":false,"is_disabled":false,"rental_uris":{"android":"levelo://app?vid=3712e055-98e2-4a2b-a781-d12d53a41026","ios":"levelo://app?vid=3712e055-98e2-4a2b-a781-d12d53a41026"},"vehicle_type_id":"4","last_reported":1751101779,"current_range_meters":20400,"station_id":"ce4bhbp2rcd13ifvqesg","pricing_plan_id":"cebpf4jnsgd1na2vs0mg"},{"bike_id":"7bda6b61-95c2-4760-9b18-5f93255ec6e6","system_id":"levelo_inurba_marseille","lat":43.265571,"lon":5.372846,"is_reserved":false,"is_disabled":false,"rental_uris":{"android":"levelo://app?vid=7bda6b61-95c2-4760-9b18-5f93255ec6e6","ios":"levelo://app?vid=7bda6b61-95c2-4760-9b18-5f93255ec6e6"},"vehicle_type_id":"4","last_reported":1751101779,"current_range_meters":20400,"station_id":"ce4bhg12rcd13ifvqf70","pricing_plan_id":"cebpf4jnsgd1na2vs0mg"},{"bike_id":"bc0333fd-1397-4952-b6c9-b389233d6324","system_id":"levelo_inurba_marseille","lat":43.25501,"lon":5.3765,"is_reserved":false,"is_disabled":false,"rental_uris":{"android":"levelo://app?vid=bc0333fd-1397-4952-b6c9-b389233d6324","ios":"levelo://app?vid=bc0333fd-1397-4952-b6c9-b389233d6324"},"vehicle_type_id":"4","last_reported":1751101779,"current_range_meters":20400,"station_id":"ce4bhh12rcd13ifvqff0","pricing_plan_id":"cebpf4jnsgd1na2vs0mg"},{"bike_id":"2ba1d83c-a8b9-4d68-afff-cdaba803f839","system_id":"levelo_inurba_marseille","lat":43.24391,"lon":5.37062,"is_reserved":false,"is_disabled":false,"rental_uris":{"android":"levelo://app?vid=2ba1d83c-a8b9-4d68-afff-cdaba803f839","ios":"levelo://app?vid=2ba1d83c-a8b9-4d68-afff-cdaba803f839"},"vehicle_type_id":"4","last_reported":1751101779,"current_range_meters":20400,"station_id":"ce4bhhh2rcd13ifvqfk0","pricing_plan_id":"cebpf4jnsgd1na2vs0mg"},{"bike_id":"bf24b26e-7f51-4120-9a48-54c87edaa2f7","system_id":"levelo_inurba_marseille","lat":43.211937,"lon":5.350706,"is_reserved":false,"is_disabled":false,"rental_uris":{"android":"levelo://app?vid=bf24b26e-7f51-4120-9a48-54c87edaa2f7","ios":"levelo://app?vid=bf24b26e-7f51-4120-9a48-54c87edaa2f7"},"vehicle_type_id":"4","last_reported":1751101779,"current_range_meters":20400,"station_id":"st_cvj6sg6p6f1abm77japg","pricing_plan_id":"cebpf4jnsgd1na2vs0mg"},{"bike_id":"09cb3b7f-3ebf-4726-ab49-a55d4fd48b3c","system_id":"levelo_inurba_marseille","lat":43.280823,"lon":5.407315,"is_reserved":false,"is_disabled":false,"rental_uris":{"android":"levelo://app?vid=09cb3b7f-3ebf-4726-ab49-a55d4fd48b3c","ios":"levelo://app?vid=09cb3b7f-3ebf-4726-ab49-a55d4fd48b3c"},"vehicle_type_id":"4","last_reported":1751101779,"current_range_meters":20800,"station_id":"","pricing_plan_id":"cebpf4jnsgd1na2vs0mg"},{"bike_id":"a48552d5-2c58-43d6-95ef-14837cfa1b7a","system_id":"levelo_inurba_marseille","lat":43.30966,"lon":5.40495,"is_reserved":false,"is_disabled":false,"rental_uris":{"android":"levelo://app?vid=a48552d5-2c58-43d6-95ef-14837cfa1b7a","ios":"levelo://app?vid=a48552d5-2c58-43d6-95ef-14837cfa1b7a"},"vehicle_type_id":"4","last_reported":1751101779,"current_range_meters":20800,"station_id":"","pricing_plan_id":"cebpf4jnsgd1na2vs0mg"},{"bike_id":"ef5b5aa8-b221-44c7-8920-8ccdbd4f11c2","system_id":"levelo_inurba_marseille","lat":43.28415,"lon":5.34978,"is_reserved":false,"is_disabled":false,"rental_uris":{"android":"levelo://app?vid=ef5b5aa8-b221-44c7-8920-8ccdbd4f11c2","ios":"levelo://app?vid=ef5b5aa8-b221-44c7-8920-8ccdbd4f11c2"},"vehicle_type_id":"4","last_reported":1751101779,"current_range_meters":20800,"station_id":"ce4bhbh2rcd13ifvqepg","pricing_plan_id":"cebpf4jnsgd1na2vs0mg"},{"bike_id":"ed92a9c0-fb64-496e-9fee-b9638536839a","system_id":"levelo_inurba_marseille","lat":43.23182,"lon":5.35568,"is_reserved":false,"is_disabled":false,"rental_uris":{"android":"levelo://app?vid=ed92a9c0-fb64-496e-9fee-b9638536839a","ios":"levelo://app?vid=ed92a9c0-fb64-496e-9fee-b9638536839a"},"vehicle_type_id":"4","last_reported":1751101779,"current_range_meters":20800,"station_id":"ce4bhu92rcd13ifvqi70","pricing_plan_id":"cebpf4jnsgd1na2vs0mg"},{"bike_id":"7f212f1e-9b22-4ad3-88bb-18d999719345","system_id":"levelo_inurba_marseille","lat":43.211943,"lon":5.350746,"is_reserved":false,"is_disabled":false,"rental_uris":{"android":"levelo://app?vid=7f212f1e-9b22-4ad3-88bb-18d999719345","ios":"levelo://app?vid=7f212f1e-9b22-4ad3-88bb-18d999719345"},"vehicle_type_id":"4","last_reported":1751101779,"current_range_meters":20800,"station_id":"st_cvj6sg6p6f1abm77japg","pricing_plan_id":"cebpf4jnsgd1na2vs0mg"},{"bike_id":"ed770461-ca86-48a0-9e67-54dc30bd9693","system_id":"levelo_inurba_marseille","lat":43.30592,"lon":5.37242,"is_reserved":false,"is_disabled":false,"rental_uris":{"android":"levelo://app?vid=ed770461-ca86-48a0-9e67-54dc30bd9693","ios":"levelo://app?vid=ed770461-ca86-48a0-9e67-54dc30bd9693"},"vehicle_type_id":"4","last_reported":1751101779,"current_range_meters":21600,"station_id":"ce4bgqh2rcd13ifvqc4g","pricing_plan_id":"cebpf4jnsgd1na2vs0mg"},{"bike_id":"0a4d2453-3b93-4904-bf6a-60bf1ec25ada","system_id":"levelo_inurba_marseille","lat":43.30435,"lon":5.39744,"is_reserved":false,"is_disabled":false,"rental_uris":{"android":"levelo://app?vid=0a4d2453-3b93-4904-bf6a-60bf1ec25ada","ios":"levelo://app?vid=0a4d2453-3b93-4904-bf6a-60bf1ec25ada"},"vehicle_type_id":"4","last_reported":1751101779,"current_range_meters":21600,"station_id":"ce4bh092rcd13ifvqd20","pricing_plan_id":"cebpf4jnsgd1na2vs0mg"},{"bike_id":"a2cdaa3c-dc25-4cd3-ab6f-26ee402b0cf4","system_id":"levelo_inurba_marseille","lat":43.28019,"lon":5.38992,"is_reserved":false,"is_disabled":false,"rental_uris":{"android":"levelo://app?vid=a2cdaa3c-dc25-4cd3-ab6f-26ee402b0cf4","ios":"levelo://app?vid=a2cdaa3c-dc25-4cd3-ab6f-26ee402b0cf4"},"vehicle_type_id":"4","last_reported":1751101779,"current_range_meters":22000,"station_id":"","pricing_plan_id":"cebpf4jnsgd1na2vs0mg"},{"bike_id":"211cf3e4-1679-4389-bf22-052d79e16c19","system_id":"levelo_inurba_marseille","lat":43.28455,"lon":5.38541,"is_reserved":false,"is_disabled":false,"rental_uris":{"android":"levelo://app?vid=211cf3e4-1679-4389-bf22-052d79e16c19","ios":"levelo://app?vid=211cf3e4-1679-4389-bf22-052d79e16c19"},"vehicle_type_id":"4","last_reported":1751101779,"current_range_meters":22000,"station_id":"ce4bh8p2rcd13ifvqeb0","pricing_plan_id":"cebpf4jnsgd1na2vs0mg"},{"bike_id":"f926e5be-6d4f-4439-8ad9-bccda08a61e4","system_id":"levelo_inurba_marseille","lat":43.28617,"lon":5.35108,"is_reserved":false,"is_disabled":false,"rental_uris":{"android":"levelo://app?vid=f926e5be-6d4f-4439-8ad9-bccda08a61e4","ios":"levelo://app?vid=f926e5be-6d4f-4439-8ad9-bccda08a61e4"},"vehicle_type_id":"4","last_reported":1751101779,"current_range_meters":22000,"station_id":"ce4bhch2rcd13ifvqeug","pricing_plan_id":"cebpf4jnsgd1na2vs0mg"},{"bike_id":"c4be0e32-eeb3-4451-9277-1b7a74488010","system_id":"levelo_inurba_marseille","lat":43.25506,"lon":5.37636,"is_reserved":false,"is_disabled":false,"rental_uris":{"android":"levelo://app?vid=c4be0e32-eeb3-4451-9277-1b7a74488010","ios":"levelo://app?vid=c4be0e32-eeb3-4451-9277-1b7a74488010"},"vehicle_type_id":"4","last_reported":1751101779,"current_range_meters":22000,"station_id":"ce4bhh12rcd13ifvqff0","pricing_plan_id":"cebpf4jnsgd1na2vs0mg"},{"bike_id":"e7641e58-176f-485d-9342-129003cdc52b","system_id":"levelo_inurba_marseille","lat":43.32107,"lon":5.36755,"is_reserved":false,"is_disabled":false,"rental_uris":{"android":"levelo://app?vid=e7641e58-176f-485d-9342-129003cdc52b","ios":"levelo://app?vid=e7641e58-176f-485d-9342-129003cdc52b"},"vehicle_type_id":"4","last_reported":1751101779,"current_range_meters":22000,"station_id":"ce4bhrh2rcd13ifvqhug","pricing_plan_id":"cebpf4jnsgd1na2vs0mg"},{"bike_id":"d44a2ce9-8b80-4136-839a-1e70de2d396e","system_id":"levelo_inurba_marseille","lat":43.23049,"lon":5.355,"is_reserved":false,"is_disabled":false,"rental_uris":{"android":"levelo://app?vid=d44a2ce9-8b80-4136-839a-1e70de2d396e","ios":"levelo://app?vid=d44a2ce9-8b80-4136-839a-1e70de2d396e"},"vehicle_type_id":"4","last_reported":1751101779,"current_range_meters":22000,"station_id":"cpo3342slgdg3j2ifvpg","pricing_plan_id":"cebpf4jnsgd1na2vs0mg"},{"bike_id":"5fb6d129-dabf-409e-8f04-6dc56535e80f","system_id":"levelo_inurba_marseille","lat":43.29578,"lon":5.3673,"is_reserved":false,"is_disabled":false,"rental_uris":{"android":"levelo://app?vid=5fb6d129-dabf-409e-8f04-6dc56535e80f","ios":"levelo://app?vid=5fb6d129-dabf-409e-8f04-6dc56535e80f"},"vehicle_type_id":"4","last_reported":1751101779,"current_range_meters":22400,"station_id":"ce4bgph2rcd13ifvqc2g","pricing_plan_id":"cebpf4jnsgd1na2vs0mg"},{"bike_id":"5d371c83-91ba-4626-b0b8-87a078805a8f","system_id":"levelo_inurba_marseille","lat":43.3064,"lon":5.400717,"is_reserved":false,"is_disabled":false,"rental_uris":{"android":"levelo://app?vid=5d371c83-91ba-4626-b0b8-87a078805a8f","ios":"levelo://app?vid=5d371c83-91ba-4626-b0b8-87a078805a8f"},"vehicle_type_id":"4","last_reported":1751101779,"current_range_meters":22400,"station_id":"ce4bh112rcd13ifvqda0","pricing_plan_id":"cebpf4jnsgd1na2vs0mg"},{"bike_id":"dff7db00-e100-4179-ba7c-7e6515637c44","system_id":"levelo_inurba_marseille","lat":43.28413,"lon":5.34977,"is_reserved":false,"is_disabled":false,"rental_uris":{"android":"levelo://app?vid=dff7db00-e100-4179-ba7c-7e6515637c44","ios":"levelo://app?vid=dff7db00-e100-4179-ba7c-7e6515637c44"},"vehicle_type_id":"4","last_reported":1751101779,"current_range_meters":22400,"station_id":"ce4bhbh2rcd13ifvqepg","pricing_plan_id":"cebpf4jnsgd1na2vs0mg"},{"bike_id":"d0b6ab98-0f27-402a-a933-c5b37beefcd6","system_id":"levelo_inurba_marseille","lat":43.29219,"lon":5.3607,"is_reserved":false,"is_disabled":false,"rental_uris":{"android":"levelo://app?vid=d0b6ab98-0f27-402a-a933-c5b37beefcd6","ios":"levelo://app?vid=d0b6ab98-0f27-402a-a933-c5b37beefcd6"},"vehicle_type_id":"4","last_reported":1751101779,"current_range_meters":22400,"station_id":"ce4bhbh2rcd13ifvqeqg","pricing_plan_id":"cebpf4jnsgd1na2vs0mg"},{"bike_id":"ac4640cf-cf42-47f5-b68a-2d6d9b128cf7","system_id":"levelo_inurba_marseille","lat":43.262031,"lon":5.37934,"is_reserved":false,"is_disabled":false,"rental_uris":{"android":"levelo://app?vid=ac4640cf-cf42-47f5-b68a-2d6d9b128cf7","ios":"levelo://app?vid=ac4640cf-cf42-47f5-b68a-2d6d9b128cf7"},"vehicle_type_id":"4","last_reported":1751101779,"current_range_meters":22400,"station_id":"ce4bhjp2rcd13ifvqg90","pricing_plan_id":"cebpf4jnsgd1na2vs0mg"},{"bike_id":"525b007c-f7cc-4402-8822-0aab47b66e56","system_id":"levelo_inurba_marseille","lat":43.241794,"lon":5.397059,"is_reserved":false,"is_disabled":false,"rental_uris":{"android":"levelo://app?vid=525b007c-f7cc-4402-8822-0aab47b66e56","ios":"levelo://app?vid=525b007c-f7cc-4402-8822-0aab47b66e56"},"vehicle_type_id":"4","last_reported":1751101779,"current_range_meters":22400,"station_id":"ce4bhn12rcd13ifvqgpg","pricing_plan_id":"cebpf4jnsgd1na2vs0mg"},{"bike_id":"69f89b09-68ab-44be-aa89-83e99ae211a9","system_id":"levelo_inurba_marseille","lat":43.29308,"lon":5.37174,"is_reserved":false,"is_disabled":false,"rental_uris":{"android":"levelo://app?vid=69f89b09-68ab-44be-aa89-83e99ae211a9","ios":"levelo://app?vid=69f89b09-68ab-44be-aa89-83e99ae211a9"},"vehicle_type_id":"4","last_reported":1751101779,"current_range_meters":22800,"station_id":"ce4bgh92rcd13ifvqb40","pricing_plan_id":"cebpf4jnsgd1na2vs0mg"},{"bike_id":"bb1fa3de-d5fc-4a65-a017-3bf9e1a09e84","system_id":"levelo_inurba_marseille","lat":43.28433,"lon":5.34996,"is_reserved":false,"is_disabled":false,"rental_uris":{"android":"levelo://app?vid=bb1fa3de-d5fc-4a65-a017-3bf9e1a09e84","ios":"levelo://app?vid=bb1fa3de-d5fc-4a65-a017-3bf9e1a09e84"},"vehicle_type_id":"4","last_reported":1751101779,"current_range_meters":22800,"station_id":"ce4bhbh2rcd13ifvqepg","pricing_plan_id":"cebpf4jnsgd1na2vs0mg"},{"bike_id":"8d79f18a-5391-4980-8b5a-74d607fcbb64","system_id":"levelo_inurba_marseille","lat":43.25499,"lon":5.37648,"is_reserved":false,"is_disabled":false,"rental_uris":{"android":"levelo://app?vid=8d79f18a-5391-4980-8b5a-74d607fcbb64","ios":"levelo://app?vid=8d79f18a-5391-4980-8b5a-74d607fcbb64"},"vehicle_type_id":"4","last_reported":1751101779,"current_range_meters":22800,"station_id":"ce4bhh12rcd13ifvqff0","pricing_plan_id":"cebpf4jnsgd1na2vs0mg"},{"bike_id":"ff359b06-e82b-4518-b602-f9c62162a27d","system_id":"levelo_inurba_marseille","lat":43.21194,"lon":5.35056,"is_reserved":false,"is_disabled":false,"rental_uris":{"android":"levelo://app?vid=ff359b06-e82b-4518-b602-f9c62162a27d","ios":"levelo://app?vid=ff359b06-e82b-4518-b602-f9c62162a27d"},"vehicle_type_id":"4","last_reported":1751101779,"current_range_meters":22800,"station_id":"st_cvj6sg6p6f1abm77japg","pricing_plan_id":"cebpf4jnsgd1na2vs0mg"},{"bike_id":"9b21541a-edfa-4c28-a626-87d8c52e11d9","system_id":"levelo_inurba_marseille","lat":43.31769,"lon":5.37434,"is_reserved":false,"is_disabled":false,"rental_uris":{"android":"levelo://app?vid=9b21541a-edfa-4c28-a626-87d8c52e11d9","ios":"levelo://app?vid=9b21541a-edfa-4c28-a626-87d8c52e11d9"},"vehicle_type_id":"4","last_reported":1751101779,"current_range_meters":23200,"station_id":"","pricing_plan_id":"cebpf4jnsgd1na2vs0mg"},{"bike_id":"1ac664aa-f2a4-4b75-879f-dcb93272d133","system_id":"levelo_inurba_marseille","lat":43.32024,"lon":5.41015,"is_reserved":false,"is_disabled":false,"rental_uris":{"android":"levelo://app?vid=1ac664aa-f2a4-4b75-879f-dcb93272d133","ios":"levelo://app?vid=1ac664aa-f2a4-4b75-879f-dcb93272d133"},"vehicle_type_id":"4","last_reported":1751101779,"current_range_meters":23200,"station_id":"","pricing_plan_id":"cebpf4jnsgd1na2vs0mg"},{"bike_id":"8619baa9-c3b2-4030-b1fa-f2e2dc9e5119","system_id":"levelo_inurba_marseille","lat":43.29193,"lon":5.35803,"is_reserved":false,"is_disabled":false,"rental_uris":{"android":"levelo://app?vid=8619baa9-c3b2-4030-b1fa-f2e2dc9e5119","ios":"levelo://app?vid=8619baa9-c3b2-4030-b1fa-f2e2dc9e5119"},"vehicle_type_id":"4","last_reported":1751101779,"current_range_meters":23200,"station_id":"ce4bhb12rcd13ifvqel0","pricing_plan_id":"cebpf4jnsgd1na2vs0mg"},{"bike_id":"aed93264-ed50-458f-af3f-6116d6194882","system_id":"levelo_inurba_marseille","lat":43.33718,"lon":5.39169,"is_reserved":false,"is_disabled":false,"rental_uris":{"android":"levelo://app?vid=aed93264-ed50-458f-af3f-6116d6194882","ios":"levelo://app?vid=aed93264-ed50-458f-af3f-6116d6194882"},"vehicle_type_id":"4","last_reported":1751101779,"current_range_meters":23200,"station_id":"ce4bhr92rcd13ifvqhsg","pricing_plan_id":"cebpf4jnsgd1na2vs0mg"},{"bike_id":"01c9b150-e855-411d-929e-a0bc737e52c6","system_id":"levelo_inurba_marseille","lat":43.21186,"lon":5.35067,"is_reserved":false,"is_disabled":false,"rental_uris":{"android":"levelo://app?vid=01c9b150-e855-411d-929e-a0bc737e52c6","ios":"levelo://app?vid=01c9b150-e855-411d-929e-a0bc737e52c6"},"vehicle_type_id":"4","last_reported":1751101779,"current_range_meters":23200,"station_id":"st_cvj6sg6p6f1abm77japg","pricing_plan_id":"cebpf4jnsgd1na2vs0mg"},{"bike_id":"452e8211-4f44-45d0-814a-3e9e25b8c44e","system_id":"levelo_inurba_marseille","lat":43.21205,"lon":5.35067,"is_reserved":false,"is_disabled":false,"rental_uris":{"android":"levelo://app?vid=452e8211-4f44-45d0-814a-3e9e25b8c44e","ios":"levelo://app?vid=452e8211-4f44-45d0-814a-3e9e25b8c44e"},"vehicle_type_id":"4","last_reported":1751101779,"current_range_meters":23200,"station_id":"st_cvj6sg6p6f1abm77japg","pricing_plan_id":"cebpf4jnsgd1na2vs0mg"},{"bike_id":"7a53931f-8668-445d-8da5-3f7307f600b0","system_id":"levelo_inurba_marseille","lat":43.2959,"lon":5.36734,"is_reserved":false,"is_disabled":false,"rental_uris":{"android":"levelo://app?vid=7a53931f-8668-445d-8da5-3f7307f600b0","ios":"levelo://app?vid=7a53931f-8668-445d-8da5-3f7307f600b0"},"vehicle_type_id":"4","last_reported":1751101779,"current_range_meters":24000,"station_id":"ce4bgph2rcd13ifvqc2g","pricing_plan_id":"cebpf4jnsgd1na2vs0mg"},{"bike_id":"932c8c40-5040-4c40-bc6b-3fb4f2152b5d","system_id":"levelo_inurba_marseille","lat":43.31114,"lon":5.37763,"is_reserved":false,"is_disabled":false,"rental_uris":{"android":"levelo://app?vid=932c8c40-5040-4c40-bc6b-3fb4f2152b5d","ios":"levelo://app?vid=932c8c40-5040-4c40-bc6b-3fb4f2152b5d"},"vehicle_type_id":"4","last_reported":1751101779,"current_range_meters":24000,"station_id":"ce4bgt92rcd13ifvqcg0","pricing_plan_id":"cebpf4jnsgd1na2vs0mg"},{"bike_id":"1e0c2c2e-f630-47b6-96c7-ad924bdc8036","system_id":"levelo_inurba_marseille","lat":43.29629,"lon":5.40602,"is_reserved":false,"is_disabled":false,"rental_uris":{"android":"levelo://app?vid=1e0c2c2e-f630-47b6-96c7-ad924bdc8036","ios":"levelo://app?vid=1e0c2c2e-f630-47b6-96c7-ad924bdc8036"},"vehicle_type_id":"4","last_reported":1751101779,"current_range_meters":24000,"station_id":"ce4bh0h2rcd13ifvqd60","pricing_plan_id":"cebpf4jnsgd1na2vs0mg"},{"bike_id":"15132cdd-0b10-4485-85ec-af008cafdbf4","system_id":"levelo_inurba_marseille","lat":43.2841,"lon":5.34985,"is_reserved":false,"is_disabled":false,"rental_uris":{"android":"levelo://app?vid=15132cdd-0b10-4485-85ec-af008cafdbf4","ios":"levelo://app?vid=15132cdd-0b10-4485-85ec-af008cafdbf4"},"vehicle_type_id":"4","last_reported":1751101779,"current_range_meters":24000,"station_id":"ce4bhbh2rcd13ifvqepg","pricing_plan_id":"cebpf4jnsgd1na2vs0mg"},{"bike_id":"8cef66de-4d92-4f07-a867-40d4ac8d07af","system_id":"levelo_inurba_marseille","lat":43.28145,"lon":5.42695,"is_reserved":false,"is_disabled":false,"rental_uris":{"android":"levelo://app?vid=8cef66de-4d92-4f07-a867-40d4ac8d07af","ios":"levelo://app?vid=8cef66de-4d92-4f07-a867-40d4ac8d07af"},"vehicle_type_id":"4","last_reported":1751101779,"current_range_meters":24000,"station_id":"ce4bhnh2rcd13ifvqgug","pricing_plan_id":"cebpf4jnsgd1na2vs0mg"},{"bike_id":"d192b54c-3cee-43bf-b9ba-ebe5381351f6","system_id":"levelo_inurba_marseille","lat":43.21746,"lon":5.34601,"is_reserved":false,"is_disabled":false,"rental_uris":{"android":"levelo://app?vid=d192b54c-3cee-43bf-b9ba-ebe5381351f6","ios":"levelo://app?vid=d192b54c-3cee-43bf-b9ba-ebe5381351f6"},"vehicle_type_id":"4","last_reported":1751101779,"current_range_meters":24000,"station_id":"st_cvj6r9ubvosntc0bgbag","pricing_plan_id":"cebpf4jnsgd1na2vs0mg"},{"bike_id":"ba926bfc-9632-4680-b0ed-32a040d6fb83","system_id":"levelo_inurba_marseille","lat":43.21186,"lon":5.35064,"is_reserved":false,"is_disabled":false,"rental_uris":{"android":"levelo://app?vid=ba926bfc-9632-4680-b0ed-32a040d6fb83","ios":"levelo://app?vid=ba926bfc-9632-4680-b0ed-32a040d6fb83"},"vehicle_type_id":"4","last_reported":1751101779,"current_range_meters":24000,"station_id":"st_cvj6sg6p6f1abm77japg","pricing_plan_id":"cebpf4jnsgd1na2vs0mg"},{"bike_id":"9e722597-2431-40e4-9a94-4f7e8d24b19d","system_id":"levelo_inurba_marseille","lat":43.31524,"lon":5.37276,"is_reserved":false,"is_disabled":false,"rental_uris":{"android":"levelo://app?vid=9e722597-2431-40e4-9a94-4f7e8d24b19d","ios":"levelo://app?vid=9e722597-2431-40e4-9a94-4f7e8d24b19d"},"vehicle_type_id":"4","last_reported":1751101779,"current_range_meters":24400,"station_id":"","pricing_plan_id":"cebpf4jnsgd1na2vs0mg"},{"bike_id":"a8dc4115-b472-4281-8cc2-351dfe648ffd","system_id":"levelo_inurba_marseille","lat":43.30904,"lon":5.36807,"is_reserved":false,"is_disabled":false,"rental_uris":{"android":"levelo://app?vid=a8dc4115-b472-4281-8cc2-351dfe648ffd","ios":"levelo://app?vid=a8dc4115-b472-4281-8cc2-351dfe648ffd"},"vehicle_type_id":"4","last_reported":1751101779,"current_range_meters":24400,"station_id":"ce4bgn92rcd13ifvqbvg","pricing_plan_id":"cebpf4jnsgd1na2vs0mg"},{"bike_id":"35480415-8cbd-453f-8238-19ddedc64722","system_id":"levelo_inurba_marseille","lat":43.30531,"lon":5.36531,"is_reserved":false,"is_disabled":false,"rental_uris":{"android":"levelo://app?vid=35480415-8cbd-453f-8238-19ddedc64722","ios":"levelo://app?vid=35480415-8cbd-453f-8238-19ddedc64722"},"vehicle_type_id":"4","last_reported":1751101779,"current_range_meters":24400,"station_id":"ce4bgs12rcd13ifvqcag","pricing_plan_id":"cebpf4jnsgd1na2vs0mg"},{"bike_id":"b9a2a062-badb-48f4-baac-39c7ba602ad6","system_id":"levelo_inurba_marseille","lat":43.31121,"lon":5.37758,"is_reserved":false,"is_disabled":false,"rental_uris":{"android":"levelo://app?vid=b9a2a062-badb-48f4-baac-39c7ba602ad6","ios":"levelo://app?vid=b9a2a062-badb-48f4-baac-39c7ba602ad6"},"vehicle_type_id":"4","last_reported":1751101779,"current_range_meters":24400,"station_id":"ce4bgt92rcd13ifvqcg0","pricing_plan_id":"cebpf4jnsgd1na2vs0mg"},{"bike_id":"8786963e-1715-42d8-925d-73e756704f67","system_id":"levelo_inurba_marseille","lat":43.316905,"lon":5.404563,"is_reserved":false,"is_disabled":false,"rental_uris":{"android":"levelo://app?vid=8786963e-1715-42d8-925d-73e756704f67","ios":"levelo://app?vid=8786963e-1715-42d8-925d-73e756704f67"},"vehicle_type_id":"4","last_reported":1751101779,"current_range_meters":24400,"station_id":"ce4bh012rcd13ifvqd00","pricing_plan_id":"cebpf4jnsgd1na2vs0mg"},{"bike_id":"ed6894f1-e55f-4063-92e2-65b33008248a","system_id":"levelo_inurba_marseille","lat":43.26226,"lon":5.37415,"is_reserved":false,"is_disabled":false,"rental_uris":{"android":"levelo://app?vid=ed6894f1-e55f-4063-92e2-65b33008248a","ios":"levelo://app?vid=ed6894f1-e55f-4063-92e2-65b33008248a"},"vehicle_type_id":"4","last_reported":1751101779,"current_range_meters":24400,"station_id":"ce4bhgp2rcd13ifvqfc0","pricing_plan_id":"cebpf4jnsgd1na2vs0mg"},{"bike_id":"57d7d080-32a9-4c65-b3ac-f79d313f4ef3","system_id":"levelo_inurba_marseille","lat":43.24553,"lon":5.39514,"is_reserved":false,"is_disabled":false,"rental_uris":{"android":"levelo://app?vid=57d7d080-32a9-4c65-b3ac-f79d313f4ef3","ios":"levelo://app?vid=57d7d080-32a9-4c65-b3ac-f79d313f4ef3"},"vehicle_type_id":"4","last_reported":1751101779,"current_range_meters":24400,"station_id":"ce4bhlp2rcd13ifvqgjg","pricing_plan_id":"cebpf4jnsgd1na2vs0mg"},{"bike_id":"1f30e6ed-8504-4448-b3d0-3017ab371be8","system_id":"levelo_inurba_marseille","lat":43.29894,"lon":5.43664,"is_reserved":false,"is_disabled":false,"rental_uris":{"android":"levelo://app?vid=1f30e6ed-8504-4448-b3d0-3017ab371be8","ios":"levelo://app?vid=1f30e6ed-8504-4448-b3d0-3017ab371be8"},"vehicle_type_id":"4","last_reported":1751101779,"current_range_meters":24400,"station_id":"ce4bhpp2rcd13ifvqhfg","pricing_plan_id":"cebpf4jnsgd1na2vs0mg"},{"bike_id":"9a2900e0-a6cf-4a2f-aef1-d40236c71563","system_id":"levelo_inurba_marseille","lat":43.24165,"lon":5.36376,"is_reserved":false,"is_disabled":false,"rental_uris":{"android":"levelo://app?vid=9a2900e0-a6cf-4a2f-aef1-d40236c71563","ios":"levelo://app?vid=9a2900e0-a6cf-4a2f-aef1-d40236c71563"},"vehicle_type_id":"4","last_reported":1751101779,"current_range_meters":24400,"station_id":"cpo36qri1sfpv3e86is0","pricing_plan_id":"cebpf4jnsgd1na2vs0mg"},{"bike_id":"3046ca0d-ca98-4100-abe5-7dd23120e893","system_id":"levelo_inurba_marseille","lat":43.2119,"lon":5.35066,"is_reserved":false,"is_disabled":false,"rental_uris":{"android":"levelo://app?vid=3046ca0d-ca98-4100-abe5-7dd23120e893","ios":"levelo://app?vid=3046ca0d-ca98-4100-abe5-7dd23120e893"},"vehicle_type_id":"4","last_reported":1751101779,"current_range_meters":24400,"station_id":"st_cvj6sg6p6f1abm77japg","pricing_plan_id":"cebpf4jnsgd1na2vs0mg"},{"bike_id":"bf4ce0e8-ac48-4d20-a3de-2f452ccc406d","system_id":"levelo_inurba_marseille","lat":43.30534,"lon":5.38418,"is_reserved":false,"is_disabled":false,"rental_uris":{"android":"levelo://app?vid=bf4ce0e8-ac48-4d20-a3de-2f452ccc406d","ios":"levelo://app?vid=bf4ce0e8-ac48-4d20-a3de-2f452ccc406d"},"vehicle_type_id":"4","last_reported":1751101779,"current_range_meters":24800,"station_id":"ce4bgg92rcd13ifvqb30","pricing_plan_id":"cebpf4jnsgd1na2vs0mg"},{"bike_id":"028bae4e-2bec-4c7a-bda5-251bb97f5a7c","system_id":"levelo_inurba_marseille","lat":43.29713,"lon":5.36589,"is_reserved":false,"is_disabled":false,"rental_uris":{"android":"levelo://app?vid=028bae4e-2bec-4c7a-bda5-251bb97f5a7c","ios":"levelo://app?vid=028bae4e-2bec-4c7a-bda5-251bb97f5a7c"},"vehicle_type_id":"4","last_reported":1751101779,"current_range_meters":24800,"station_id":"ce4bgn12rcd13ifvqbt0","pricing_plan_id":"cebpf4jnsgd1na2vs0mg"},{"bike_id":"b7ba5994-31c4-45e5-a64a-4590ae409e91","system_id":"levelo_inurba_marseille","lat":43.301295,"lon":5.364133,"is_reserved":false,"is_disabled":false,"rental_uris":{"android":"levelo://app?vid=b7ba5994-31c4-45e5-a64a-4590ae409e91","ios":"levelo://app?vid=b7ba5994-31c4-45e5-a64a-4590ae409e91"},"vehicle_type_id":"4","last_reported":1751101779,"current_range_meters":24800,"station_id":"ce4bgnh2rcd13ifvqc0g","pricing_plan_id":"cebpf4jnsgd1na2vs0mg"},{"bike_id":"ba472abd-c20d-4926-a673-fd77ee70dc02","system_id":"levelo_inurba_marseille","lat":43.30533,"lon":5.36551,"is_reserved":false,"is_disabled":false,"rental_uris":{"android":"levelo://app?vid=ba472abd-c20d-4926-a673-fd77ee70dc02","ios":"levelo://app?vid=ba472abd-c20d-4926-a673-fd77ee70dc02"},"vehicle_type_id":"4","last_reported":1751101779,"current_range_meters":24800,"station_id":"ce4bgs12rcd13ifvqcag","pricing_plan_id":"cebpf4jnsgd1na2vs0mg"},{"bike_id":"70e4cc21-5d35-446f-97cc-df276e1b6efe","system_id":"levelo_inurba_marseille","lat":43.30544,"lon":5.36523,"is_reserved":false,"is_disabled":false,"rental_uris":{"android":"levelo://app?vid=70e4cc21-5d35-446f-97cc-df276e1b6efe","ios":"levelo://app?vid=70e4cc21-5d35-446f-97cc-df276e1b6efe"},"vehicle_type_id":"4","last_reported":1751101779,"current_range_meters":24800,"station_id":"ce4bgs12rcd13ifvqcag","pricing_plan_id":"cebpf4jnsgd1na2vs0mg"},{"bike_id":"c98eff70-cb19-4eba-a920-fc8e7a1a558a","system_id":"levelo_inurba_marseille","lat":43.317,"lon":5.40444,"is_reserved":false,"is_disabled":false,"rental_uris":{"android":"levelo://app?vid=c98eff70-cb19-4eba-a920-fc8e7a1a558a","ios":"levelo://app?vid=c98eff70-cb19-4eba-a920-fc8e7a1a558a"},"vehicle_type_id":"4","last_reported":1751101779,"current_range_meters":24800,"station_id":"ce4bh012rcd13ifvqd00","pricing_plan_id":"cebpf4jnsgd1na2vs0mg"},{"bike_id":"47526409-c30c-4861-8249-924be23e7b76","system_id":"levelo_inurba_marseille","lat":43.281114,"lon":5.378274,"is_reserved":false,"is_disabled":false,"rental_uris":{"android":"levelo://app?vid=47526409-c30c-4861-8249-924be23e7b76","ios":"levelo://app?vid=47526409-c30c-4861-8249-924be23e7b76"},"vehicle_type_id":"4","last_reported":1751101779,"current_range_meters":24800,"station_id":"ce4bha12rcd13ifvqee0","pricing_plan_id":"cebpf4jnsgd1na2vs0mg"},{"bike_id":"5a676b2c-ba23-4f7c-9abb-a85cebcafea1","system_id":"levelo_inurba_marseille","lat":43.28871,"lon":5.35861,"is_reserved":false,"is_disabled":false,"rental_uris":{"android":"levelo://app?vid=5a676b2c-ba23-4f7c-9abb-a85cebcafea1","ios":"levelo://app?vid=5a676b2c-ba23-4f7c-9abb-a85cebcafea1"},"vehicle_type_id":"4","last_reported":1751101779,"current_range_meters":24800,"station_id":"ce4bhb12rcd13ifvqem0","pricing_plan_id":"cebpf4jnsgd1na2vs0mg"},{"bike_id":"ab89e5ed-9225-4a8f-bf7b-6939f71feac7","system_id":"levelo_inurba_marseille","lat":43.28416,"lon":5.34984,"is_reserved":false,"is_disabled":false,"rental_uris":{"android":"levelo://app?vid=ab89e5ed-9225-4a8f-bf7b-6939f71feac7","ios":"levelo://app?vid=ab89e5ed-9225-4a8f-bf7b-6939f71feac7"},"vehicle_type_id":"4","last_reported":1751101779,"current_range_meters":24800,"station_id":"ce4bhbh2rcd13ifvqepg","pricing_plan_id":"cebpf4jnsgd1na2vs0mg"},{"bike_id":"104d3949-4479-474c-8914-a608703ac558","system_id":"levelo_inurba_marseille","lat":43.2827,"lon":5.35059,"is_reserved":false,"is_disabled":false,"rental_uris":{"android":"levelo://app?vid=104d3949-4479-474c-8914-a608703ac558","ios":"levelo://app?vid=104d3949-4479-474c-8914-a608703ac558"},"vehicle_type_id":"4","last_reported":1751101779,"current_range_meters":24800,"station_id":"ce4bhbp2rcd13ifvqerg","pricing_plan_id":"cebpf4jnsgd1na2vs0mg"},{"bike_id":"f21a07ed-baf9-4a53-8742-4703f4166f96","system_id":"levelo_inurba_marseille","lat":43.26548,"lon":5.37288,"is_reserved":false,"is_disabled":false,"rental_uris":{"android":"levelo://app?vid=f21a07ed-baf9-4a53-8742-4703f4166f96","ios":"levelo://app?vid=f21a07ed-baf9-4a53-8742-4703f4166f96"},"vehicle_type_id":"4","last_reported":1751101779,"current_range_meters":24800,"station_id":"ce4bhg12rcd13ifvqf70","pricing_plan_id":"cebpf4jnsgd1na2vs0mg"},{"bike_id":"7b0254ae-5cba-4f02-bab8-8fa88a545f1c","system_id":"levelo_inurba_marseille","lat":43.2511,"lon":5.4032,"is_reserved":false,"is_disabled":false,"rental_uris":{"android":"levelo://app?vid=7b0254ae-5cba-4f02-bab8-8fa88a545f1c","ios":"levelo://app?vid=7b0254ae-5cba-4f02-bab8-8fa88a545f1c"},"vehicle_type_id":"4","last_reported":1751101779,"current_range_meters":24800,"station_id":"ce4bhlh2rcd13ifvqgig","pricing_plan_id":"cebpf4jnsgd1na2vs0mg"},{"bike_id":"ce5b3342-ea78-4604-a07d-d74f838f153a","system_id":"levelo_inurba_marseille","lat":43.23188,"lon":5.39971,"is_reserved":false,"is_disabled":false,"rental_uris":{"android":"levelo://app?vid=ce5b3342-ea78-4604-a07d-d74f838f153a","ios":"levelo://app?vid=ce5b3342-ea78-4604-a07d-d74f838f153a"},"vehicle_type_id":"4","last_reported":1751101779,"current_range_meters":24800,"station_id":"ce4bhn12rcd13ifvqgqg","pricing_plan_id":"cebpf4jnsgd1na2vs0mg"},{"bike_id":"f6c2e9a8-f04d-43c7-b48a-1bf2f7c70b74","system_id":"levelo_inurba_marseille","lat":43.27996,"lon":5.41642,"is_reserved":false,"is_disabled":false,"rental_uris":{"android":"levelo://app?vid=f6c2e9a8-f04d-43c7-b48a-1bf2f7c70b74","ios":"levelo://app?vid=f6c2e9a8-f04d-43c7-b48a-1bf2f7c70b74"},"vehicle_type_id":"4","last_reported":1751101779,"current_range_meters":24800,"station_id":"ce4bho12rcd13ifvqh1g","pricing_plan_id":"cebpf4jnsgd1na2vs0mg"},{"bike_id":"8fc36912-d7a7-4c5e-bf3c-ae03694d6ba3","system_id":"levelo_inurba_marseille","lat":43.21195,"lon":5.35069,"is_reserved":false,"is_disabled":false,"rental_uris":{"android":"levelo://app?vid=8fc36912-d7a7-4c5e-bf3c-ae03694d6ba3","ios":"levelo://app?vid=8fc36912-d7a7-4c5e-bf3c-ae03694d6ba3"},"vehicle_type_id":"4","last_reported":1751101779,"current_range_meters":24800,"station_id":"st_cvj6sg6p6f1abm77japg","pricing_plan_id":"cebpf4jnsgd1na2vs0mg"},{"bike_id":"268924cd-3ce5-4168-940a-81d51127d7bc","system_id":"levelo_inurba_marseille","lat":43.31678,"lon":5.4046,"is_reserved":false,"is_disabled":false,"rental_uris":{"android":"levelo://app?vid=268924cd-3ce5-4168-940a-81d51127d7bc","ios":"levelo://app?vid=268924cd-3ce5-4168-940a-81d51127d7bc"},"vehicle_type_id":"4","last_reported":1751101779,"current_range_meters":25200,"station_id":"ce4bh012rcd13ifvqd00","pricing_plan_id":"cebpf4jnsgd1na2vs0mg"},{"bike_id":"e8e633aa-6913-4f5a-9681-4be6e4fcda77","system_id":"levelo_inurba_marseille","lat":43.28266,"lon":5.35068,"is_reserved":false,"is_disabled":false,"rental_uris":{"android":"levelo://app?vid=e8e633aa-6913-4f5a-9681-4be6e4fcda77","ios":"levelo://app?vid=e8e633aa-6913-4f5a-9681-4be6e4fcda77"},"vehicle_type_id":"4","last_reported":1751101779,"current_range_meters":25200,"station_id":"ce4bhbp2rcd13ifvqerg","pricing_plan_id":"cebpf4jnsgd1na2vs0mg"},{"bike_id":"6248a3ef-766e-45da-9351-45f0df09d787","system_id":"levelo_inurba_marseille","lat":43.337253,"lon":5.391893,"is_reserved":false,"is_disabled":false,"rental_uris":{"android":"levelo://app?vid=6248a3ef-766e-45da-9351-45f0df09d787","ios":"levelo://app?vid=6248a3ef-766e-45da-9351-45f0df09d787"},"vehicle_type_id":"4","last_reported":1751101779,"current_range_meters":25200,"station_id":"ce4bhr92rcd13ifvqhsg","pricing_plan_id":"cebpf4jnsgd1na2vs0mg"},{"bike_id":"8ceb2860-ca09-420a-8aab-fcf0c529a0d3","system_id":"levelo_inurba_marseille","lat":43.21193,"lon":5.35065,"is_reserved":false,"is_disabled":false,"rental_uris":{"android":"levelo://app?vid=8ceb2860-ca09-420a-8aab-fcf0c529a0d3","ios":"levelo://app?vid=8ceb2860-ca09-420a-8aab-fcf0c529a0d3"},"vehicle_type_id":"4","last_reported":1751101779,"current_range_meters":25200,"station_id":"st_cvj6sg6p6f1abm77japg","pricing_plan_id":"cebpf4jnsgd1na2vs0mg"},{"bike_id":"7712491c-e18b-4b09-bb79-30880b357c07","system_id":"levelo_inurba_marseille","lat":43.21199,"lon":5.35068,"is_reserved":false,"is_disabled":false,"rental_uris":{"android":"levelo://app?vid=7712491c-e18b-4b09-bb79-30880b357c07","ios":"levelo://app?vid=7712491c-e18b-4b09-bb79-30880b357c07"},"vehicle_type_id":"4","last_reported":1751101779,"current_range_meters":25200,"station_id":"st_cvj6sg6p6f1abm77japg","pricing_plan_id":"cebpf4jnsgd1na2vs0mg"},{"bike_id":"ee9d32c9-57de-43e5-b2a3-20100be10352","system_id":"levelo_inurba_marseille","lat":43.31113,"lon":5.37758,"is_reserved":false,"is_disabled":false,"rental_uris":{"android":"levelo://app?vid=ee9d32c9-57de-43e5-b2a3-20100be10352","ios":"levelo://app?vid=ee9d32c9-57de-43e5-b2a3-20100be10352"},"vehicle_type_id":"4","last_reported":1751101779,"current_range_meters":25600,"station_id":"ce4bgt92rcd13ifvqcg0","pricing_plan_id":"cebpf4jnsgd1na2vs0mg"},{"bike_id":"fb512b8c-a635-496f-be49-674804cf3473","system_id":"levelo_inurba_marseille","lat":43.28618,"lon":5.35097,"is_reserved":false,"is_disabled":false,"rental_uris":{"android":"levelo://app?vid=fb512b8c-a635-496f-be49-674804cf3473","ios":"levelo://app?vid=fb512b8c-a635-496f-be49-674804cf3473"},"vehicle_type_id":"4","last_reported":1751101779,"current_range_meters":25600,"station_id":"ce4bhch2rcd13ifvqeug","pricing_plan_id":"cebpf4jnsgd1na2vs0mg"},{"bike_id":"fe87724d-f411-436f-960c-eaddece8f3a4","system_id":"levelo_inurba_marseille","lat":43.255767,"lon":5.382327,"is_reserved":false,"is_disabled":false,"rental_uris":{"android":"levelo://app?vid=fe87724d-f411-436f-960c-eaddece8f3a4","ios":"levelo://app?vid=fe87724d-f411-436f-960c-eaddece8f3a4"},