{"last_updated":1757869626,"ttl":60,"version":"2.2","data":{"bikes":[{"bike_id":"0867f9b8-f223-48a3-93ca-9728c6ae4fe6","system_id":"levelo_inurba_marseille","lat":43.308863,"lon":5.396583,"is_reserved":false,"is_disabled":false,"rental_uris":{"android":"levelo://app?vid=0867f9b8-f223-48a3-93ca-9728c6ae4fe6","ios":"levelo://app?vid=0867f9b8-f223-48a3-93ca-9728c6ae4fe6"},"vehicle_type_id":"4","last_reported":1757869626,"current_range_meters":2800,"station_id":"ce4bh012rcd13ifvqcv0","pricing_plan_id":"cebpf4jnsgd1na2vs0mg"},{"bike_id":"5903183c-89cb-47ef-a311-48e8528b4f76","system_id":"levelo_inurba_marseille","lat":43.30176,"lon":5.36611,"is_reserved":false,"is_disabled":false,"rental_uris":{"android":"levelo://app?vid=5903183c-89cb-47ef-a311-48e8528b4f76","ios":"levelo://app?vid=5903183c-89cb-47ef-a311-48e8528b4f76"},"vehicle_type_id":"4","last_reported":1757869626,"current_range_meters":7200,"station_id":"ce4bgrh2rcd13ifvqc8g","pricing_plan_id":"cebpf4jnsgd1na2vs0mg"},{"bike_id":"c63d7249-195f-484a-9fcb-2c620a7e4d30","system_id":"levelo_inurba_marseille","lat":43.31058,"lon":5.38367,"is_reserved":false,"is_disabled":false,"rental_uris":{"android":"levelo://app?vid=c63d7249-195f-484a-9fcb-2c620a7e4d30","ios":"levelo://app?vid=c63d7249-195f-484a-9fcb-2c620a7e4d30"},"vehicle_type_id":"4","last_reported":1757869626,"current_range_meters":2800,"station_id":"ce4bgv92rcd13ifvqcr0","pricing_plan_id":"cebpf4jnsgd1na2vs0mg"},{"bike_id":"cd5057af-88be-41aa-a895-2730e7b39e03","system_id":"levelo_inurba_marseille","lat":43.27063,"lon":5.4228,"is_reserved":false,"is_disabled":false,"rental_uris":{"android":"levelo://app?vid=cd5057af-88be-41aa-a895-2730e7b39e03","ios":"levelo://app?vid=cd5057af-88be-41aa-a895-2730e7b39e03"},"vehicle_type_id":"4","last_reported":1757869626,"current_range_meters":2800,"station_id":"ce4bhk92rcd13ifvqgb0","pricing_plan_id":"cebpf4jnsgd1na2vs0mg"},{"bike_id":"8a6c01b0-083d-4b97-81ab-26c6d55e6634","system_id":"levelo_inurba_marseille","lat":43.31529,"lon":5.38041,"is_reserved":false,"is_disabled":false,"rental_uris":{"android":"levelo://app?vid=8a6c01b0-083d-4b97-81ab-26c6d55e6634","ios":"levelo://app?vid=8a6c01b0-083d-4b97-81ab-26c6d55e6634"},"vehicle_type_id":"4","last_reported":1757869626,"current_range_meters":2800,"station_id":"ce4bhsp2rcd13ifvqi50","pricing_plan_id":"cebpf4jnsgd1na2vs0mg"},{"bike_id":"4ab3fcbe-403d-4962-8ed2-683bf8768a9e","system_id":"levelo_inurba_marseille","lat":43.29678,"lon":5.37281,"is_reserved":false,"is_disabled":false,"rental_uris":{"android":"levelo://app?vid=4ab3fcbe-403d-4962-8ed2-683bf8768a9e","ios":"levelo://app?vid=4ab3fcbe-403d-4962-8ed2-683bf8768a9e"},"vehicle_type_id":"4","last_reported":1757869626,"current_range_meters":4000,"station_id":"ce4bgk12rcd13ifvqbj0","pricing_plan_id":"cebpf4jnsgd1na2vs0mg"},{"bike_id":"3ce6abce-df11-4229-a5a9-d7968046acd8","system_id":"levelo_inurba_marseille","lat":43.29272,"lon":5.36851,"is_reserved":false,"is_disabled":false,"rental_uris":{"android":"levelo://app?vid=3ce6abce-df11-4229-a5a9-d7968046acd8","ios":"levelo://app?vid=3ce6abce-df11-4229-a5a9-d7968046acd8"},"vehicle_type_id":"4","last_reported":1757869626,"current_range_meters":2800,"station_id":"ce4bhbp2rcd13ifvqesg","pricing_plan_id":"cebpf4jnsgd1na2vs0mg"},{"bike_id":"3e18aaf7-aacb-4eb7-8165-eca00a2d7448","system_id":"levelo_inurba_marseille","lat":43.28006,"lon":5.40027,"is_reserved":false,"is_disabled":false,"rental_uris":{"android":"levelo://app?vid=3e18aaf7-aacb-4eb7-8165-eca00a2d7448","ios":"levelo://app?vid=3e18aaf7-aacb-4eb7-8165-eca00a2d7448"},"vehicle_type_id":"4","last_reported":1757869626,"current_range_meters":2800,"station_id":"ce4bho92rcd13ifvqh4g","pricing_plan_id":"cebpf4jnsgd1na2vs0mg"},{"bike_id":"b29b593f-b229-42a6-b6b9-083af1c6cd8c","system_id":"levelo_inurba_marseille","lat":43.30137,"lon":5.38795,"is_reserved":false,"is_disabled":false,"rental_uris":{"android":"levelo://app?vid=b29b593f-b229-42a6-b6b9-083af1c6cd8c","ios":"levelo://app?vid=b29b593f-b229-42a6-b6b9-083af1c6cd8c"},"vehicle_type_id":"4","last_reported":1757869626,"current_range_meters":2800,"station_id":"ce4bghh2rcd13ifvqb60","pricing_plan_id":"cebpf4jnsgd1na2vs0mg"},{"bike_id":"ac256fea-28f5-4e9a-a630-4c82711abcbf","system_id":"levelo_inurba_marseille","lat":43.296,"lon":5.37536,"is_reserved":false,"is_disabled":false,"rental_uris":{"android":"levelo://app?vid=ac256fea-28f5-4e9a-a630-4c82711abcbf","ios":"levelo://app?vid=ac256fea-28f5-4e9a-a630-4c82711abcbf"},"vehicle_type_id":"4","last_reported":1757869626,"current_range_meters":3200,"station_id":"ce4bgh92rcd13ifvqb50","pricing_plan_id":"cebpf4jnsgd1na2vs0mg"},{"bike_id":"3d78301d-e0c4-459b-9999-bb19bd2df99c","system_id":"levelo_inurba_marseille","lat":43.23965,"lon":5.36627,"is_reserved":false,"is_disabled":true,"rental_uris":{"android":"levelo://app?vid=3d78301d-e0c4-459b-9999-bb19bd2df99c","ios":"levelo://app?vid=3d78301d-e0c4-459b-9999-bb19bd2df99c"},"vehicle_type_id":"4","last_reported":1757869626,"current_range_meters":3200,"station_id":"ce4bhi12rcd13ifvqfp0","pricing_plan_id":"cebpf4jnsgd1na2vs0mg"},{"bike_id":"ae586fe6-f29d-4637-8b3c-8b7d4735d3fc","system_id":"levelo_inurba_marseille","lat":43.29109,"lon":5.38136,"is_reserved":false,"is_disabled":false,"rental_uris":{"android":"levelo://app?vid=ae586fe6-f29d-4637-8b3c-8b7d4735d3fc","ios":"levelo://app?vid=ae586fe6-f29d-4637-8b3c-8b7d4735d3fc"},"vehicle_type_id":"4","last_reported":1757869626,"current_range_meters":3200,"station_id":"ce4bh512rcd13ifvqe2g","pricing_plan_id":"cebpf4jnsgd1na2vs0mg"},{"bike_id":"c6395e12-a8a5-4c44-abb2-576c85fbf635","system_id":"levelo_inurba_marseille","lat":43.29534,"lon":5.38549,"is_reserved":false,"is_disabled":true,"rental_uris":{"android":"levelo://app?vid=c6395e12-a8a5-4c44-abb2-576c85fbf635","ios":"levelo://app?vid=c6395e12-a8a5-4c44-abb2-576c85fbf635"},"vehicle_type_id":"4","last_reported":1757869626,"current_range_meters":3200,"station_id":"ce4bgih2rcd13ifvqba0","pricing_plan_id":"cebpf4jnsgd1na2vs0mg"},{"bike_id":"a5083e10-8a3c-44b7-ad44-856683414438","system_id":"levelo_inurba_marseille","lat":43.29573,"lon":5.38128,"is_reserved":false,"is_disabled":false,"rental_uris":{"android":"levelo://app?vid=a5083e10-8a3c-44b7-ad44-856683414438","ios":"levelo://app?vid=a5083e10-8a3c-44b7-ad44-856683414438"},"vehicle_type_id":"4","last_reported":1757869626,"current_range_meters":3200,"station_id":"ce4bgl12rcd13ifvqbo0","pricing_plan_id":"cebpf4jnsgd1na2vs0mg"},{"bike_id":"d82efe90-f610-4226-9b07-f323cbd5ccde","system_id":"levelo_inurba_marseille","lat":43.27936,"lon":5.41049,"is_reserved":false,"is_disabled":false,"rental_uris":{"android":"levelo://app?vid=d82efe90-f610-4226-9b07-f323cbd5ccde","ios":"levelo://app?vid=d82efe90-f610-4226-9b07-f323cbd5ccde"},"vehicle_type_id":"4","last_reported":1757869626,"current_range_meters":3200,"station_id":"ce4bhnp2rcd13ifvqh0g","pricing_plan_id":"cebpf4jnsgd1na2vs0mg"},{"bike_id":"d4ba692c-bd11-4664-80b8-3775aee5f412","system_id":"levelo_inurba_marseille","lat":43.29269,"lon":5.36854,"is_reserved":false,"is_disabled":false,"rental_uris":{"android":"levelo://app?vid=d4ba692c-bd11-4664-80b8-3775aee5f412","ios":"levelo://app?vid=d4ba692c-bd11-4664-80b8-3775aee5f412"},"vehicle_type_id":"4","last_reported":1757869626,"current_range_meters":3200,"station_id":"ce4bhbp2rcd13ifvqesg","pricing_plan_id":"cebpf4jnsgd1na2vs0mg"},{"bike_id":"98d16117-4a54-40f1-ad99-3b883136d0c8","system_id":"levelo_inurba_marseille","lat":43.28405,"lon":5.37517,"is_reserved":false,"is_disabled":false,"rental_uris":{"android":"levelo://app?vid=98d16117-4a54-40f1-ad99-3b883136d0c8","ios":"levelo://app?vid=98d16117-4a54-40f1-ad99-3b883136d0c8"},"vehicle_type_id":"4","last_reported":1757869626,"current_range_meters":3200,"station_id":"ce4bh412rcd13ifvqds0","pricing_plan_id":"cebpf4jnsgd1na2vs0mg"},{"bike_id":"7de56a34-c78b-45ee-952a-16aab7dfe574","system_id":"levelo_inurba_marseille","lat":43.29527,"lon":5.3853,"is_reserved":false,"is_disabled":false,"rental_uris":{"android":"levelo://app?vid=7de56a34-c78b-45ee-952a-16aab7dfe574","ios":"levelo://app?vid=7de56a34-c78b-45ee-952a-16aab7dfe574"},"vehicle_type_id":"4","last_reported":1757869626,"current_range_meters":3200,"station_id":"ce4bgih2rcd13ifvqba0","pricing_plan_id":"cebpf4jnsgd1na2vs0mg"},{"bike_id":"8e43cd59-240f-451b-ad1e-d9564f386892","system_id":"levelo_inurba_marseille","lat":43.31266,"lon":5.40164,"is_reserved":false,"is_disabled":false,"rental_uris":{"android":"levelo://app?vid=8e43cd59-240f-451b-ad1e-d9564f386892","ios":"levelo://app?vid=8e43cd59-240f-451b-ad1e-d9564f386892"},"vehicle_type_id":"4","last_reported":1757869626,"current_range_meters":3600,"station_id":"ce4bh092rcd13ifvqd30","pricing_plan_id":"cebpf4jnsgd1na2vs0mg"},{"bike_id":"88d209e6-3130-4ef3-bdc6-c189b7987deb","system_id":"levelo_inurba_marseille","lat":43.27943,"lon":5.38713,"is_reserved":false,"is_disabled":false,"rental_uris":{"android":"levelo://app?vid=88d209e6-3130-4ef3-bdc6-c189b7987deb","ios":"levelo://app?vid=88d209e6-3130-4ef3-bdc6-c189b7987deb"},"vehicle_type_id":"4","last_reported":1757869626,"current_range_meters":3600,"station_id":"ce4bhg12rcd13ifvqf80","pricing_plan_id":"cebpf4jnsgd1na2vs0mg"},{"bike_id":"3bd595b7-af3b-43b1-8697-1bcb2a61af6f","system_id":"levelo_inurba_marseille","lat":43.27995,"lon":5.40014,"is_reserved":false,"is_disabled":true,"rental_uris":{"android":"levelo://app?vid=3bd595b7-af3b-43b1-8697-1bcb2a61af6f","ios":"levelo://app?vid=3bd595b7-af3b-43b1-8697-1bcb2a61af6f"},"vehicle_type_id":"4","last_reported":1757869626,"current_range_meters":3600,"station_id":"ce4bho92rcd13ifvqh4g","pricing_plan_id":"cebpf4jnsgd1na2vs0mg"},{"bike_id":"feda5e19-2027-450d-aa03-3e0c987650f5","system_id":"levelo_inurba_marseille","lat":43.27732,"lon":5.38852,"is_reserved":false,"is_disabled":false,"rental_uris":{"android":"levelo://app?vid=feda5e19-2027-450d-aa03-3e0c987650f5","ios":"levelo://app?vid=feda5e19-2027-450d-aa03-3e0c987650f5"},"vehicle_type_id":"4","last_reported":1757869626,"current_range_meters":3600,"station_id":"","pricing_plan_id":"cebpf4jnsgd1na2vs0mg"},{"bike_id":"29939e1d-7683-455b-aa01-8621cf17f4fa","system_id":"levelo_inurba_marseille","lat":43.24944,"lon":5.40519,"is_reserved":false,"is_disabled":true,"rental_uris":{"android":"levelo://app?vid=29939e1d-7683-455b-aa01-8621cf17f4fa","ios":"levelo://app?vid=29939e1d-7683-455b-aa01-8621cf17f4fa"},"vehicle_type_id":"4","last_reported":1757869626,"current_range_meters":3600,"station_id":"st_d2ngiaodas8pm72gd1h0","pricing_plan_id":"cebpf4jnsgd1na2vs0mg"},{"bike_id":"972b4c5f-3a00-4bb2-9116-b81f2cecc9f2","system_id":"levelo_inurba_marseille","lat":43.33764,"lon":5.37483,"is_reserved":false,"is_disabled":false,"rental_uris":{"android":"levelo://app?vid=972b4c5f-3a00-4bb2-9116-b81f2cecc9f2","ios":"levelo://app?vid=972b4c5f-3a00-4bb2-9116-b81f2cecc9f2"},"vehicle_type_id":"4","last_reported":1757869626,"current_range_meters":3600,"station_id":"","pricing_plan_id":"cebpf4jnsgd1na2vs0mg"},{"bike_id":"61254ee5-9f94-4f1e-948b-2f54171826e5","system_id":"levelo_inurba_marseille","lat":43.2928,"lon":5.36834,"is_reserved":false,"is_disabled":false,"rental_uris":{"android":"levelo://app?vid=61254ee5-9f94-4f1e-948b-2f54171826e5","ios":"levelo://app?vid=61254ee5-9f94-4f1e-948b-2f54171826e5"},"vehicle_type_id":"4","last_reported":1757869626,"current_range_meters":3600,"station_id":"ce4bhbp2rcd13ifvqesg","pricing_plan_id":"cebpf4jnsgd1na2vs0mg"},{"bike_id":"36e7a50f-8b8f-4bb9-b61c-a14951778924","system_id":"levelo_inurba_marseille","lat":43.31357,"lon":5.3849,"is_reserved":false,"is_disabled":false,"rental_uris":{"android":"levelo://app?vid=36e7a50f-8b8f-4bb9-b61c-a14951778924","ios":"levelo://app?vid=36e7a50f-8b8f-4bb9-b61c-a14951778924"},"vehicle_type_id":"4","last_reported":1757869626,"current_range_meters":5600,"station_id":"ce4bgt92rcd13ifvqcf0","pricing_plan_id":"cebpf4jnsgd1na2vs0mg"},{"bike_id":"47d0d36c-b18e-444a-a6af-3ae633edaf88","system_id":"levelo_inurba_marseille","lat":43.29149,"lon":5.383061,"is_reserved":false,"is_disabled":false,"rental_uris":{"android":"levelo://app?vid=47d0d36c-b18e-444a-a6af-3ae633edaf88","ios":"levelo://app?vid=47d0d36c-b18e-444a-a6af-3ae633edaf88"},"vehicle_type_id":"4","last_reported":1757869626,"current_range_meters":3600,"station_id":"ce4bh692rcd13ifvqea0","pricing_plan_id":"cebpf4jnsgd1na2vs0mg"},{"bike_id":"a3977072-5f91-4a68-b0d6-dc3cb909a337","system_id":"levelo_inurba_marseille","lat":43.33773,"lon":5.37506,"is_reserved":false,"is_disabled":false,"rental_uris":{"android":"levelo://app?vid=a3977072-5f91-4a68-b0d6-dc3cb909a337","ios":"levelo://app?vid=a3977072-5f91-4a68-b0d6-dc3cb909a337"},"vehicle_type_id":"4","last_reported":1757869626,"current_range_meters":4000,"station_id":"","pricing_plan_id":"cebpf4jnsgd1na2vs0mg"},{"bike_id":"f77a3f11-c842-4707-8fe2-ace322516d36","system_id":"levelo_inurba_marseille","lat":43.31325,"lon":5.3968,"is_reserved":false,"is_disabled":false,"rental_uris":{"android":"levelo://app?vid=f77a3f11-c842-4707-8fe2-ace322516d36","ios":"levelo://app?vid=f77a3f11-c842-4707-8fe2-ace322516d36"},"vehicle_type_id":"4","last_reported":1757869626,"current_range_meters":4000,"station_id":"ce4bgvp2rcd13ifvqcu0","pricing_plan_id":"cebpf4jnsgd1na2vs0mg"},{"bike_id":"b43495c4-2096-40d9-b249-5144717ad98c","system_id":"levelo_inurba_marseille","lat":43.287,"lon":5.37399,"is_reserved":false,"is_disabled":false,"rental_uris":{"android":"levelo://app?vid=b43495c4-2096-40d9-b249-5144717ad98c","ios":"levelo://app?vid=b43495c4-2096-40d9-b249-5144717ad98c"},"vehicle_type_id":"4","last_reported":1757869626,"current_range_meters":4000,"station_id":"ce4bh3p2rcd13ifvqdq0","pricing_plan_id":"cebpf4jnsgd1na2vs0mg"},{"bike_id":"822e2e1f-b632-44fa-969f-4ca65a3cf339","system_id":"levelo_inurba_marseille","lat":43.28612,"lon":5.35098,"is_reserved":false,"is_disabled":false,"rental_uris":{"android":"levelo://app?vid=822e2e1f-b632-44fa-969f-4ca65a3cf339","ios":"levelo://app?vid=822e2e1f-b632-44fa-969f-4ca65a3cf339"},"vehicle_type_id":"4","last_reported":1757869626,"current_range_meters":4000,"station_id":"ce4bhch2rcd13ifvqeug","pricing_plan_id":"cebpf4jnsgd1na2vs0mg"},{"bike_id":"d73a9d22-7bd0-48b2-8914-852c6a66229d","system_id":"levelo_inurba_marseille","lat":43.29864,"lon":5.39731,"is_reserved":false,"is_disabled":false,"rental_uris":{"android":"levelo://app?vid=d73a9d22-7bd0-48b2-8914-852c6a66229d","ios":"levelo://app?vid=d73a9d22-7bd0-48b2-8914-852c6a66229d"},"vehicle_type_id":"4","last_reported":1757869626,"current_range_meters":4000,"station_id":"ce4bh0h2rcd13ifvqd50","pricing_plan_id":"cebpf4jnsgd1na2vs0mg"},{"bike_id":"0f3ca8ec-16d2-4edc-af23-d9e8ee61ed2c","system_id":"levelo_inurba_marseille","lat":43.2957,"lon":5.39966,"is_reserved":false,"is_disabled":false,"rental_uris":{"android":"levelo://app?vid=0f3ca8ec-16d2-4edc-af23-d9e8ee61ed2c","ios":"levelo://app?vid=0f3ca8ec-16d2-4edc-af23-d9e8ee61ed2c"},"vehicle_type_id":"4","last_reported":1757869626,"current_range_meters":4000,"station_id":"ce4bh312rcd13ifvqdj0","pricing_plan_id":"cebpf4jnsgd1na2vs0mg"},{"bike_id":"152ba9e1-d574-4d85-bfc7-fe5eddd70765","system_id":"levelo_inurba_marseille","lat":43.29619,"lon":5.37161,"is_reserved":false,"is_disabled":false,"rental_uris":{"android":"levelo://app?vid=152ba9e1-d574-4d85-bfc7-fe5eddd70765","ios":"levelo://app?vid=152ba9e1-d574-4d85-bfc7-fe5eddd70765"},"vehicle_type_id":"4","last_reported":1757869626,"current_range_meters":4000,"station_id":"ce4bgnh2rcd13ifvqc0g","pricing_plan_id":"cebpf4jnsgd1na2vs0mg"},{"bike_id":"badb8d92-7179-49f4-a60c-38dbf7bad5d6","system_id":"levelo_inurba_marseille","lat":43.28857,"lon":5.3585,"is_reserved":false,"is_disabled":false,"rental_uris":{"android":"levelo://app?vid=badb8d92-7179-49f4-a60c-38dbf7bad5d6","ios":"levelo://app?vid=badb8d92-7179-49f4-a60c-38dbf7bad5d6"},"vehicle_type_id":"4","last_reported":1757869626,"current_range_meters":4000,"station_id":"ce4bhb12rcd13ifvqem0","pricing_plan_id":"cebpf4jnsgd1na2vs0mg"},{"bike_id":"ff10bb43-ac63-4167-8c53-1fd45ccb4e31","system_id":"levelo_inurba_marseille","lat":43.28442,"lon":5.391923,"is_reserved":false,"is_disabled":false,"rental_uris":{"android":"levelo://app?vid=ff10bb43-ac63-4167-8c53-1fd45ccb4e31","ios":"levelo://app?vid=ff10bb43-ac63-4167-8c53-1fd45ccb4e31"},"vehicle_type_id":"4","last_reported":1757869626,"current_range_meters":4400,"station_id":"ce4bhoh2rcd13ifvqh5g","pricing_plan_id":"cebpf4jnsgd1na2vs0mg"},{"bike_id":"065f1c95-b6fa-43d1-8496-9a41c3cf7cd0","system_id":"levelo_inurba_marseille","lat":43.28413,"lon":5.37509,"is_reserved":false,"is_disabled":false,"rental_uris":{"android":"levelo://app?vid=065f1c95-b6fa-43d1-8496-9a41c3cf7cd0","ios":"levelo://app?vid=065f1c95-b6fa-43d1-8496-9a41c3cf7cd0"},"vehicle_type_id":"4","last_reported":1757869626,"current_range_meters":4400,"station_id":"ce4bh412rcd13ifvqds0","pricing_plan_id":"cebpf4jnsgd1na2vs0mg"},{"bike_id":"3e79c689-8f54-48c1-950c-ffe244aa3aa1","system_id":"levelo_inurba_marseille","lat":43.31327,"lon":5.39692,"is_reserved":false,"is_disabled":false,"rental_uris":{"android":"levelo://app?vid=3e79c689-8f54-48c1-950c-ffe244aa3aa1","ios":"levelo://app?vid=3e79c689-8f54-48c1-950c-ffe244aa3aa1"},"vehicle_type_id":"4","last_reported":1757869626,"current_range_meters":4400,"station_id":"ce4bgvp2rcd13ifvqcu0","pricing_plan_id":"cebpf4jnsgd1na2vs0mg"},{"bike_id":"500ccb85-fbf6-4b8c-9023-402fb56a5f0b","system_id":"levelo_inurba_marseille","lat":43.291901,"lon":5.372812,"is_reserved":false,"is_disabled":false,"rental_uris":{"android":"levelo://app?vid=500ccb85-fbf6-4b8c-9023-402fb56a5f0b","ios":"levelo://app?vid=500ccb85-fbf6-4b8c-9023-402fb56a5f0b"},"vehicle_type_id":"4","last_reported":1757869626,"current_range_meters":4000,"station_id":"ce4bha92rcd13ifvqeh0","pricing_plan_id":"cebpf4jnsgd1na2vs0mg"},{"bike_id":"0d84c989-afc6-4e4b-a5eb-0fb24eba7d0b","system_id":"levelo_inurba_marseille","lat":43.31982,"lon":5.38162,"is_reserved":false,"is_disabled":false,"rental_uris":{"android":"levelo://app?vid=0d84c989-afc6-4e4b-a5eb-0fb24eba7d0b","ios":"levelo://app?vid=0d84c989-afc6-4e4b-a5eb-0fb24eba7d0b"},"vehicle_type_id":"4","last_reported":1757869626,"current_range_meters":4400,"station_id":"ce4bhr12rcd13ifvqhpg","pricing_plan_id":"cebpf4jnsgd1na2vs0mg"},{"bike_id":"775af279-8ac9-4585-9121-809be9b13265","system_id":"levelo_inurba_marseille","lat":43.337775,"lon":5.374412,"is_reserved":false,"is_disabled":false,"rental_uris":{"android":"levelo://app?vid=775af279-8ac9-4585-9121-809be9b13265","ios":"levelo://app?vid=775af279-8ac9-4585-9121-809be9b13265"},"vehicle_type_id":"4","last_reported":1757869626,"current_range_meters":5600,"station_id":"","pricing_plan_id":"cebpf4jnsgd1na2vs0mg"},{"bike_id":"e03bd15c-c472-4f08-bc2f-c1b8a57b70fb","system_id":"levelo_inurba_marseille","lat":43.32923,"lon":5.39016,"is_reserved":false,"is_disabled":false,"rental_uris":{"android":"levelo://app?vid=e03bd15c-c472-4f08-bc2f-c1b8a57b70fb","ios":"levelo://app?vid=e03bd15c-c472-4f08-bc2f-c1b8a57b70fb"},"vehicle_type_id":"4","last_reported":1757869626,"current_range_meters":4800,"station_id":"","pricing_plan_id":"cebpf4jnsgd1na2vs0mg"},{"bike_id":"8b90b725-64e8-46f9-9ff1-b0a52a5e0971","system_id":"levelo_inurba_marseille","lat":43.30134,"lon":5.39885,"is_reserved":false,"is_disabled":false,"rental_uris":{"android":"levelo://app?vid=8b90b725-64e8-46f9-9ff1-b0a52a5e0971","ios":"levelo://app?vid=8b90b725-64e8-46f9-9ff1-b0a52a5e0971"},"vehicle_type_id":"4","last_reported":1757869626,"current_range_meters":4800,"station_id":"ce4bh0h2rcd13ifvqd40","pricing_plan_id":"cebpf4jnsgd1na2vs0mg"},{"bike_id":"7afc9655-ad13-477c-92ed-b206cc9b8c81","system_id":"levelo_inurba_marseille","lat":43.246672,"lon":5.381623,"is_reserved":false,"is_disabled":false,"rental_uris":{"android":"levelo://app?vid=7afc9655-ad13-477c-92ed-b206cc9b8c81","ios":"levelo://app?vid=7afc9655-ad13-477c-92ed-b206cc9b8c81"},"vehicle_type_id":"4","last_reported":1757869626,"current_range_meters":4800,"station_id":"ce4bhih2rcd13ifvqfr0","pricing_plan_id":"cebpf4jnsgd1na2vs0mg"},{"bike_id":"edd0bad1-ae88-4e5c-beeb-a6d29873e683","system_id":"levelo_inurba_marseille","lat":43.301736,"lon":5.366223,"is_reserved":false,"is_disabled":false,"rental_uris":{"android":"levelo://app?vid=edd0bad1-ae88-4e5c-beeb-a6d29873e683","ios":"levelo://app?vid=edd0bad1-ae88-4e5c-beeb-a6d29873e683"},"vehicle_type_id":"4","last_reported":1757869626,"current_range_meters":4800,"station_id":"ce4bgrh2rcd13ifvqc8g","pricing_plan_id":"cebpf4jnsgd1na2vs0mg"},{"bike_id":"04df3ba7-acf0-40f8-9a89-f4534a09fc36","system_id":"levelo_inurba_marseille","lat":43.30583,"lon":5.39357,"is_reserved":false,"is_disabled":false,"rental_uris":{"android":"levelo://app?vid=04df3ba7-acf0-40f8-9a89-f4534a09fc36","ios":"levelo://app?vid=04df3ba7-acf0-40f8-9a89-f4534a09fc36"},"vehicle_type_id":"4","last_reported":1757869626,"current_range_meters":5600,"station_id":"ce4bh0p2rcd13ifvqd80","pricing_plan_id":"cebpf4jnsgd1na2vs0mg"},{"bike_id":"c431e9e6-94af-4fc9-ad75-18fbfc44288f","system_id":"levelo_inurba_marseille","lat":43.29892,"lon":5.43654,"is_reserved":false,"is_disabled":false,"rental_uris":{"android":"levelo://app?vid=c431e9e6-94af-4fc9-ad75-18fbfc44288f","ios":"levelo://app?vid=c431e9e6-94af-4fc9-ad75-18fbfc44288f"},"vehicle_type_id":"4","last_reported":1757869626,"current_range_meters":5600,"station_id":"ce4bhpp2rcd13ifvqhfg","pricing_plan_id":"cebpf4jnsgd1na2vs0mg"},{"bike_id":"369692af-d928-4c0b-9cf6-9806006382e7","system_id":"levelo_inurba_marseille","lat":43.31488,"lon":5.37311,"is_reserved":false,"is_disabled":false,"rental_uris":{"android":"levelo://app?vid=369692af-d928-4c0b-9cf6-9806006382e7","ios":"levelo://app?vid=369692af-d928-4c0b-9cf6-9806006382e7"},"vehicle_type_id":"4","last_reported":1757869626,"current_range_meters":5600,"station_id":"ce4bgt12rcd13ifvqcd0","pricing_plan_id":"cebpf4jnsgd1na2vs0mg"},{"bike_id":"ec27be9d-f010-4f49-a996-d4041950409b","system_id":"levelo_inurba_marseille","lat":43.239655,"lon":5.366102,"is_reserved":false,"is_disabled":false,"rental_uris":{"android":"levelo://app?vid=ec27be9d-f010-4f49-a996-d4041950409b","ios":"levelo://app?vid=ec27be9d-f010-4f49-a996-d4041950409b"},"vehicle_type_id":"4","last_reported":1757869626,"current_range_meters":6000,"station_id":"ce4bhi12rcd13ifvqfp0","pricing_plan_id":"cebpf4jnsgd1na2vs0mg"},{"bike_id":"cca507b6-7bbb-42ce-9345-e134593823f6","system_id":"levelo_inurba_marseille","lat":43.30426,"lon":5.38894,"is_reserved":false,"is_disabled":false,"rental_uris":{"android":"levelo://app?vid=cca507b6-7bbb-42ce-9345-e134593823f6","ios":"levelo://app?vid=cca507b6-7bbb-42ce-9345-e134593823f6"},"vehicle_type_id":"4","last_reported":1757869626,"current_range_meters":6000,"station_id":"ce4bgk12rcd13ifvqbi0","pricing_plan_id":"cebpf4jnsgd1na2vs0mg"},{"bike_id":"ae2200e0-55fa-4d16-87bf-72ca65d67371","system_id":"levelo_inurba_marseille","lat":43.28358,"lon":5.38454,"is_reserved":false,"is_disabled":false,"rental_uris":{"android":"levelo://app?vid=ae2200e0-55fa-4d16-87bf-72ca65d67371","ios":"levelo://app?vid=ae2200e0-55fa-4d16-87bf-72ca65d67371"},"vehicle_type_id":"4","last_reported":1757869626,"current_range_meters":6000,"station_id":"","pricing_plan_id":"cebpf4jnsgd1na2vs0mg"},{"bike_id":"a23e3f16-4cd9-46b4-aa30-7bafa962cefa","system_id":"levelo_inurba_marseille","lat":43.31529,"lon":5.38034,"is_reserved":false,"is_disabled":false,"rental_uris":{"android":"levelo://app?vid=a23e3f16-4cd9-46b4-aa30-7bafa962cefa","ios":"levelo://app?vid=a23e3f16-4cd9-46b4-aa30-7bafa962cefa"},"vehicle_type_id":"4","last_reported":1757869626,"current_range_meters":6000,"station_id":"ce4bhsp2rcd13ifvqi50","pricing_plan_id":"cebpf4jnsgd1na2vs0mg"},{"bike_id":"c58aac85-9623-4d18-8ead-693457aaaaf7","system_id":"levelo_inurba_marseille","lat":43.306487,"lon":5.40089,"is_reserved":false,"is_disabled":false,"rental_uris":{"android":"levelo://app?vid=c58aac85-9623-4d18-8ead-693457aaaaf7","ios":"levelo://app?vid=c58aac85-9623-4d18-8ead-693457aaaaf7"},"vehicle_type_id":"4","last_reported":1757869626,"current_range_meters":6000,"station_id":"ce4bh112rcd13ifvqda0","pricing_plan_id":"cebpf4jnsgd1na2vs0mg"},{"bike_id":"8bf035d7-af22-44a4-96ae-c1b62d707da1","system_id":"levelo_inurba_marseille","lat":43.29261,"lon":5.38441,"is_reserved":false,"is_disabled":false,"rental_uris":{"android":"levelo://app?vid=8bf035d7-af22-44a4-96ae-c1b62d707da1","ios":"levelo://app?vid=8bf035d7-af22-44a4-96ae-c1b62d707da1"},"vehicle_type_id":"4","last_reported":1757869626,"current_range_meters":6000,"station_id":"ce4bh692rcd13ifvqea0","pricing_plan_id":"cebpf4jnsgd1na2vs0mg"},{"bike_id":"0eac0c05-dbf1-4c0b-af6d-53c5df91e290","system_id":"levelo_inurba_marseille","lat":43.29678,"lon":5.371364,"is_reserved":false,"is_disabled":false,"rental_uris":{"android":"levelo://app?vid=0eac0c05-dbf1-4c0b-af6d-53c5df91e290","ios":"levelo://app?vid=0eac0c05-dbf1-4c0b-af6d-53c5df91e290"},"vehicle_type_id":"4","last_reported":1757869626,"current_range_meters":6400,"station_id":"","pricing_plan_id":"cebpf4jnsgd1na2vs0mg"},{"bike_id":"283878a2-3436-4e4f-8dbf-7ceb8f92ee52","system_id":"levelo_inurba_marseille","lat":43.29243,"lon":5.3844,"is_reserved":false,"is_disabled":false,"rental_uris":{"android":"levelo://app?vid=283878a2-3436-4e4f-8dbf-7ceb8f92ee52","ios":"levelo://app?vid=283878a2-3436-4e4f-8dbf-7ceb8f92ee52"},"vehicle_type_id":"4","last_reported":1757869626,"current_range_meters":6400,"station_id":"ce4bh692rcd13ifvqea0","pricing_plan_id":"cebpf4jnsgd1na2vs0mg"},{"bike_id":"e1d2e4b0-dcc3-4ec6-8f60-71a0707cd0fe","system_id":"levelo_inurba_marseille","lat":43.21734,"lon":5.34605,"is_reserved":false,"is_disabled":true,"rental_uris":{"android":"levelo://app?vid=e1d2e4b0-dcc3-4ec6-8f60-71a0707cd0fe","ios":"levelo://app?vid=e1d2e4b0-dcc3-4ec6-8f60-71a0707cd0fe"},"vehicle_type_id":"4","last_reported":1757869626,"current_range_meters":6400,"station_id":"st_cvj6r9ubvosntc0bgbag","pricing_plan_id":"cebpf4jnsgd1na2vs0mg"},{"bike_id":"ec64b2e4-a8fe-43c8-9098-e852856deec8","system_id":"levelo_inurba_marseille","lat":43.2867,"lon":5.38663,"is_reserved":false,"is_disabled":false,"rental_uris":{"android":"levelo://app?vid=ec64b2e4-a8fe-43c8-9098-e852856deec8","ios":"levelo://app?vid=ec64b2e4-a8fe-43c8-9098-e852856deec8"},"vehicle_type_id":"4","last_reported":1757869626,"current_range_meters":6800,"station_id":"ce4bh492rcd13ifvqdug","pricing_plan_id":"cebpf4jnsgd1na2vs0mg"},{"bike_id":"a24c4696-920b-4645-847f-87e0b46915a6","system_id":"levelo_inurba_marseille","lat":43.32347,"lon":5.42516,"is_reserved":false,"is_disabled":false,"rental_uris":{"android":"levelo://app?vid=a24c4696-920b-4645-847f-87e0b46915a6","ios":"levelo://app?vid=a24c4696-920b-4645-847f-87e0b46915a6"},"vehicle_type_id":"4","last_reported":1757869626,"current_range_meters":6800,"station_id":"","pricing_plan_id":"cebpf4jnsgd1na2vs0mg"},{"bike_id":"e30ee915-2cfa-4776-bfb4-f70f84b1354a","system_id":"levelo_inurba_marseille","lat":43.28679,"lon":5.38663,"is_reserved":false,"is_disabled":false,"rental_uris":{"android":"levelo://app?vid=e30ee915-2cfa-4776-bfb4-f70f84b1354a","ios":"levelo://app?vid=e30ee915-2cfa-4776-bfb4-f70f84b1354a"},"vehicle_type_id":"4","last_reported":1757869626,"current_range_meters":6800,"station_id":"ce4bh492rcd13ifvqdug","pricing_plan_id":"cebpf4jnsgd1na2vs0mg"},{"bike_id":"94f81f39-3c51-4c7c-9f88-5224c18d3bd6","system_id":"levelo_inurba_marseille","lat":43.318972,"lon":5.407194,"is_reserved":false,"is_disabled":false,"rental_uris":{"android":"levelo://app?vid=94f81f39-3c51-4c7c-9f88-5224c18d3bd6","ios":"levelo://app?vid=94f81f39-3c51-4c7c-9f88-5224c18d3bd6"},"vehicle_type_id":"4","last_reported":1757869626,"current_range_meters":6800,"station_id":"ce4bhq12rcd13ifvqhig","pricing_plan_id":"cebpf4jnsgd1na2vs0mg"},{"bike_id":"b485eabd-c95a-479f-8357-619417370544","system_id":"levelo_inurba_marseille","lat":43.29263,"lon":5.38435,"is_reserved":false,"is_disabled":false,"rental_uris":{"android":"levelo://app?vid=b485eabd-c95a-479f-8357-619417370544","ios":"levelo://app?vid=b485eabd-c95a-479f-8357-619417370544"},"vehicle_type_id":"4","last_reported":1757869626,"current_range_meters":6800,"station_id":"ce4bh692rcd13ifvqea0","pricing_plan_id":"cebpf4jnsgd1na2vs0mg"},{"bike_id":"4fa4993a-fd4b-4825-85af-e45edea7dfbd","system_id":"levelo_inurba_marseille","lat":43.28145,"lon":5.44203,"is_reserved":false,"is_disabled":false,"rental_uris":{"android":"levelo://app?vid=4fa4993a-fd4b-4825-85af-e45edea7dfbd","ios":"levelo://app?vid=4fa4993a-fd4b-4825-85af-e45edea7dfbd"},"vehicle_type_id":"4","last_reported":1757869626,"current_range_meters":6800,"station_id":"","pricing_plan_id":"cebpf4jnsgd1na2vs0mg"},{"bike_id":"a8d51a01-39bc-4069-8d96-7d4623848667","system_id":"levelo_inurba_marseille","lat":43.28664,"lon":5.38663,"is_reserved":false,"is_disabled":false,"rental_uris":{"android":"levelo://app?vid=a8d51a01-39bc-4069-8d96-7d4623848667","ios":"levelo://app?vid=a8d51a01-39bc-4069-8d96-7d4623848667"},"vehicle_type_id":"4","last_reported":1757869626,"current_range_meters":6800,"station_id":"ce4bh492rcd13ifvqdug","pricing_plan_id":"cebpf4jnsgd1na2vs0mg"},{"bike_id":"fcc917f8-5b60-41bf-bbe9-90b8ede358ff","system_id":"levelo_inurba_marseille","lat":43.29194,"lon":5.39324,"is_reserved":false,"is_disabled":false,"rental_uris":{"android":"levelo://app?vid=fcc917f8-5b60-41bf-bbe9-90b8ede358ff","ios":"levelo://app?vid=fcc917f8-5b60-41bf-bbe9-90b8ede358ff"},"vehicle_type_id":"4","last_reported":1757869626,"current_range_meters":6800,"station_id":"ce4bh192rcd13ifvqdd0","pricing_plan_id":"cebpf4jnsgd1na2vs0mg"},{"bike_id":"77b7289b-dd73-44ea-a10f-65a8b03de89f","system_id":"levelo_inurba_marseille","lat":43.28685,"lon":5.37397,"is_reserved":false,"is_disabled":false,"rental_uris":{"android":"levelo://app?vid=77b7289b-dd73-44ea-a10f-65a8b03de89f","ios":"levelo://app?vid=77b7289b-dd73-44ea-a10f-65a8b03de89f"},"vehicle_type_id":"4","last_reported":1757869626,"current_range_meters":6800,"station_id":"ce4bh3p2rcd13ifvqdq0","pricing_plan_id":"cebpf4jnsgd1na2vs0mg"},{"bike_id":"472f9f03-d60b-4ddc-a573-3b260bf6b41b","system_id":"levelo_inurba_marseille","lat":43.32323,"lon":5.40642,"is_reserved":false,"is_disabled":false,"rental_uris":{"android":"levelo://app?vid=472f9f03-d60b-4ddc-a573-3b260bf6b41b","ios":"levelo://app?vid=472f9f03-d60b-4ddc-a573-3b260bf6b41b"},"vehicle_type_id":"4","last_reported":1757869626,"current_range_meters":6800,"station_id":"ce4bhq92rcd13ifvqhjg","pricing_plan_id":"cebpf4jnsgd1na2vs0mg"},{"bike_id":"cb81a4bd-952b-4814-ae22-3e834d34cfed","system_id":"levelo_inurba_marseille","lat":43.29291,"lon":5.37164,"is_reserved":false,"is_disabled":false,"rental_uris":{"android":"levelo://app?vid=cb81a4bd-952b-4814-ae22-3e834d34cfed","ios":"levelo://app?vid=cb81a4bd-952b-4814-ae22-3e834d34cfed"},"vehicle_type_id":"4","last_reported":1757869626,"current_range_meters":7200,"station_id":"ce4bgh92rcd13ifvqb40","pricing_plan_id":"cebpf4jnsgd1na2vs0mg"},{"bike_id":"fbcaa5be-76d1-41b1-8be1-f8ff6820e3ae","system_id":"levelo_inurba_marseille","lat":43.32335,"lon":5.4063,"is_reserved":false,"is_disabled":false,"rental_uris":{"android":"levelo://app?vid=fbcaa5be-76d1-41b1-8be1-f8ff6820e3ae","ios":"levelo://app?vid=fbcaa5be-76d1-41b1-8be1-f8ff6820e3ae"},"vehicle_type_id":"4","last_reported":1757869626,"current_range_meters":7200,"station_id":"ce4bhq92rcd13ifvqhjg","pricing_plan_id":"cebpf4jnsgd1na2vs0mg"},{"bike_id":"8c2c4ca1-e2d8-4cf6-94d6-963467695610","system_id":"levelo_inurba_marseille","lat":43.311122,"lon":5.385637,"is_reserved":false,"is_disabled":false,"rental_uris":{"android":"levelo://app?vid=8c2c4ca1-e2d8-4cf6-94d6-963467695610","ios":"levelo://app?vid=8c2c4ca1-e2d8-4cf6-94d6-963467695610"},"vehicle_type_id":"4","last_reported":1757869626,"current_range_meters":7200,"station_id":"","pricing_plan_id":"cebpf4jnsgd1na2vs0mg"},{"bike_id":"42f79429-4655-483c-bab4-8696e3727b1e","system_id":"levelo_inurba_marseille","lat":43.28348,"lon":5.38101,"is_reserved":false,"is_disabled":false,"rental_uris":{"android":"levelo://app?vid=42f79429-4655-483c-bab4-8696e3727b1e","ios":"levelo://app?vid=42f79429-4655-483c-bab4-8696e3727b1e"},"vehicle_type_id":"4","last_reported":1757869626,"current_range_meters":6800,"station_id":"ce4bh412rcd13ifvqdr0","pricing_plan_id":"cebpf4jnsgd1na2vs0mg"},{"bike_id":"eaa220fb-5349-44c0-849a-e1e199bab0e0","system_id":"levelo_inurba_marseille","lat":43.304564,"lon":5.367169,"is_reserved":false,"is_disabled":true,"rental_uris":{"android":"levelo://app?vid=eaa220fb-5349-44c0-849a-e1e199bab0e0","ios":"levelo://app?vid=eaa220fb-5349-44c0-849a-e1e199bab0e0"},"vehicle_type_id":"4","last_reported":1757869626,"current_range_meters":8000,"station_id":"","pricing_plan_id":"cebpf4jnsgd1na2vs0mg"},{"bike_id":"333aa237-9ec0-4507-b69e-191fda98de94","system_id":"levelo_inurba_marseille","lat":43.29906,"lon":5.38152,"is_reserved":false,"is_disabled":false,"rental_uris":{"android":"levelo://app?vid=333aa237-9ec0-4507-b69e-191fda98de94","ios":"levelo://app?vid=333aa237-9ec0-4507-b69e-191fda98de94"},"vehicle_type_id":"4","last_reported":1757869626,"current_range_meters":5600,"station_id":"ce4bgj12rcd13ifvqbc0","pricing_plan_id":"cebpf4jnsgd1na2vs0mg"},{"bike_id":"b1573566-06d1-4abf-8f28-0292a19f252f","system_id":"levelo_inurba_marseille","lat":43.28702,"lon":5.373896,"is_reserved":false,"is_disabled":false,"rental_uris":{"android":"levelo://app?vid=b1573566-06d1-4abf-8f28-0292a19f252f","ios":"levelo://app?vid=b1573566-06d1-4abf-8f28-0292a19f252f"},"vehicle_type_id":"4","last_reported":1757869626,"current_range_meters":8000,"station_id":"ce4bh3p2rcd13ifvqdq0","pricing_plan_id":"cebpf4jnsgd1na2vs0mg"},{"bike_id":"4891d751-b66c-4a3d-89d5-78926b795844","system_id":"levelo_inurba_marseille","lat":43.30255,"lon":5.44827,"is_reserved":false,"is_disabled":false,"rental_uris":{"android":"levelo://app?vid=4891d751-b66c-4a3d-89d5-78926b795844","ios":"levelo://app?vid=4891d751-b66c-4a3d-89d5-78926b795844"},"vehicle_type_id":"4","last_reported":1757869626,"current_range_meters":8000,"station_id":"","pricing_plan_id":"cebpf4jnsgd1na2vs0mg"},{"bike_id":"9a45254c-c77a-469d-8fa3-a3fa05a580ba","system_id":"levelo_inurba_marseille","lat":43.27197,"lon":5.3866,"is_reserved":false,"is_disabled":false,"rental_uris":{"android":"levelo://app?vid=9a45254c-c77a-469d-8fa3-a3fa05a580ba","ios":"levelo://app?vid=9a45254c-c77a-469d-8fa3-a3fa05a580ba"},"vehicle_type_id":"4","last_reported":1757869626,"current_range_meters":8000,"station_id":"","pricing_plan_id":"cebpf4jnsgd1na2vs0mg"},{"bike_id":"9604b56e-3c87-4803-8ea1-6b403e72be48","system_id":"levelo_inurba_marseille","lat":43.25107,"lon":5.40325,"is_reserved":false,"is_disabled":false,"rental_uris":{"android":"levelo://app?vid=9604b56e-3c87-4803-8ea1-6b403e72be48","ios":"levelo://app?vid=9604b56e-3c87-4803-8ea1-6b403e72be48"},"vehicle_type_id":"4","last_reported":1757869626,"current_range_meters":8000,"station_id":"ce4bhlh2rcd13ifvqgig","pricing_plan_id":"cebpf4jnsgd1na2vs0mg"},{"bike_id":"463345a6-2d4f-4448-8488-9cab1efda713","system_id":"levelo_inurba_marseille","lat":43.25489,"lon":5.40168,"is_reserved":false,"is_disabled":false,"rental_uris":{"android":"levelo://app?vid=463345a6-2d4f-4448-8488-9cab1efda713","ios":"levelo://app?vid=463345a6-2d4f-4448-8488-9cab1efda713"},"vehicle_type_id":"4","last_reported":1757869626,"current_range_meters":8000,"station_id":"","pricing_plan_id":"cebpf4jnsgd1na2vs0mg"},{"bike_id":"215ab831-122f-41dd-93f0-1f191001f909","system_id":"levelo_inurba_marseille","lat":43.28675,"lon":5.38675,"is_reserved":false,"is_disabled":false,"rental_uris":{"android":"levelo://app?vid=215ab831-122f-41dd-93f0-1f191001f909","ios":"levelo://app?vid=215ab831-122f-41dd-93f0-1f191001f909"},"vehicle_type_id":"4","last_reported":1757869626,"current_range_meters":8000,"station_id":"ce4bh492rcd13ifvqdug","pricing_plan_id":"cebpf4jnsgd1na2vs0mg"},{"bike_id":"ca8dd5fd-2312-4d60-ac5e-360068201f05","system_id":"levelo_inurba_marseille","lat":43.292657,"lon":5.384375,"is_reserved":false,"is_disabled":false,"rental_uris":{"android":"levelo://app?vid=ca8dd5fd-2312-4d60-ac5e-360068201f05","ios":"levelo://app?vid=ca8dd5fd-2312-4d60-ac5e-360068201f05"},"vehicle_type_id":"4","last_reported":1757869626,"current_range_meters":8000,"station_id":"ce4bh692rcd13ifvqea0","pricing_plan_id":"cebpf4jnsgd1na2vs0mg"},{"bike_id":"00f655c0-484c-43cd-bd4c-e7c64e889943","system_id":"levelo_inurba_marseille","lat":43.29885,"lon":5.38906,"is_reserved":false,"is_disabled":false,"rental_uris":{"android":"levelo://app?vid=00f655c0-484c-43cd-bd4c-e7c64e889943","ios":"levelo://app?vid=00f655c0-484c-43cd-bd4c-e7c64e889943"},"vehicle_type_id":"4","last_reported":1757869626,"current_range_meters":7200,"station_id":"ce4bh392rcd13ifvqdl0","pricing_plan_id":"cebpf4jnsgd1na2vs0mg"},{"bike_id":"f8f5c417-8d03-45d4-88db-d50f689bacd2","system_id":"levelo_inurba_marseille","lat":43.26781,"lon":5.39419,"is_reserved":false,"is_disabled":false,"rental_uris":{"android":"levelo://app?vid=f8f5c417-8d03-45d4-88db-d50f689bacd2","ios":"levelo://app?vid=f8f5c417-8d03-45d4-88db-d50f689bacd2"},"vehicle_type_id":"4","last_reported":1757869626,"current_range_meters":8800,"station_id":"ce4bhh12rcd13ifvqfg0","pricing_plan_id":"cebpf4jnsgd1na2vs0mg"},{"bike_id":"d9556468-4187-4a4c-91e2-41887ad59097","system_id":"levelo_inurba_marseille","lat":43.25489,"lon":5.37662,"is_reserved":false,"is_disabled":false,"rental_uris":{"android":"levelo://app?vid=d9556468-4187-4a4c-91e2-41887ad59097","ios":"levelo://app?vid=d9556468-4187-4a4c-91e2-41887ad59097"},"vehicle_type_id":"4","last_reported":1757869626,"current_range_meters":8400,"station_id":"ce4bhh12rcd13ifvqff0","pricing_plan_id":"cebpf4jnsgd1na2vs0mg"},{"bike_id":"84be000e-b186-4e60-8aaa-b7a0f42a7175","system_id":"levelo_inurba_marseille","lat":43.337616,"lon":5.374353,"is_reserved":false,"is_disabled":false,"rental_uris":{"android":"levelo://app?vid=84be000e-b186-4e60-8aaa-b7a0f42a7175","ios":"levelo://app?vid=84be000e-b186-4e60-8aaa-b7a0f42a7175"},"vehicle_type_id":"4","last_reported":1757869626,"current_range_meters":8400,"station_id":"","pricing_plan_id":"cebpf4jnsgd1na2vs0mg"},{"bike_id":"49805d6c-fb65-4033-8ef8-2e52956080f5","system_id":"levelo_inurba_marseille","lat":43.29029,"lon":5.386416,"is_reserved":false,"is_disabled":false,"rental_uris":{"android":"levelo://app?vid=49805d6c-fb65-4033-8ef8-2e52956080f5","ios":"levelo://app?vid=49805d6c-fb65-4033-8ef8-2e52956080f5"},"vehicle_type_id":"4","last_reported":1757869626,"current_range_meters":8400,"station_id":"ce4bh4p2rcd13ifvqe0g","pricing_plan_id":"cebpf4jnsgd1na2vs0mg"},{"bike_id":"c675a074-2c28-407f-91ec-e776fd90bf09","system_id":"levelo_inurba_marseille","lat":43.290013,"lon":5.356119,"is_reserved":false,"is_disabled":false,"rental_uris":{"android":"levelo://app?vid=c675a074-2c28-407f-91ec-e776fd90bf09","ios":"levelo://app?vid=c675a074-2c28-407f-91ec-e776fd90bf09"},"vehicle_type_id":"4","last_reported":1757869626,"current_range_meters":8400,"station_id":"ce4bhb92rcd13ifvqen0","pricing_plan_id":"cebpf4jnsgd1na2vs0mg"},{"bike_id":"78f84639-56f9-4c15-8768-49ed5cee722d","system_id":"levelo_inurba_marseille","lat":43.2602,"lon":5.37555,"is_reserved":false,"is_disabled":true,"rental_uris":{"android":"levelo://app?vid=78f84639-56f9-4c15-8768-49ed5cee722d","ios":"levelo://app?vid=78f84639-56f9-4c15-8768-49ed5cee722d"},"vehicle_type_id":"4","last_reported":1757869626,"current_range_meters":8400,"station_id":"ce4bhgh2rcd13ifvqfa0","pricing_plan_id":"cebpf4jnsgd1na2vs0mg"},{"bike_id":"1eade7e9-da60-4d04-b67a-be407b9c634e","system_id":"levelo_inurba_marseille","lat":43.29271,"lon":5.36849,"is_reserved":false,"is_disabled":false,"rental_uris":{"android":"levelo://app?vid=1eade7e9-da60-4d04-b67a-be407b9c634e","ios":"levelo://app?vid=1eade7e9-da60-4d04-b67a-be407b9c634e"},"vehicle_type_id":"4","last_reported":1757869626,"current_range_meters":8400,"station_id":"ce4bhbp2rcd13ifvqesg","pricing_plan_id":"cebpf4jnsgd1na2vs0mg"},{"bike_id":"8b3cc20e-1905-47f9-a913-4cb2dfc44a26","system_id":"levelo_inurba_marseille","lat":43.286696,"lon":5.386574,"is_reserved":false,"is_disabled":false,"rental_uris":{"android":"levelo://app?vid=8b3cc20e-1905-47f9-a913-4cb2dfc44a26","ios":"levelo://app?vid=8b3cc20e-1905-47f9-a913-4cb2dfc44a26"},"vehicle_type_id":"4","last_reported":1757869626,"current_range_meters":8400,"station_id":"ce4bh492rcd13ifvqdug","pricing_plan_id":"cebpf4jnsgd1na2vs0mg"},{"bike_id":"d5c98035-fc72-4062-a3ec-13203f68e8ed","system_id":"levelo_inurba_marseille","lat":43.28863,"lon":5.42514,"is_reserved":false,"is_disabled":false,"rental_uris":{"android":"levelo://app?vid=d5c98035-fc72-4062-a3ec-13203f68e8ed","ios":"levelo://app?vid=d5c98035-fc72-4062-a3ec-13203f68e8ed"},"vehicle_type_id":"4","last_reported":1757869626,"current_range_meters":8400,"station_id":"","pricing_plan_id":"cebpf4jnsgd1na2vs0mg"},{"bike_id":"799abdac-8495-45a0-8bb6-09e6179469d5","system_id":"levelo_inurba_marseille","lat":43.25501,"lon":5.37681,"is_reserved":false,"is_disabled":true,"rental_uris":{"android":"levelo://app?vid=799abdac-8495-45a0-8bb6-09e6179469d5","ios":"levelo://app?vid=799abdac-8495-45a0-8bb6-09e6179469d5"},"vehicle_type_id":"4","last_reported":1757869626,"current_range_meters":8800,"station_id":"ce4bhh12rcd13ifvqff0","pricing_plan_id":"cebpf4jnsgd1na2vs0mg"},{"bike_id":"6515536f-56de-4109-b7a1-24c742aed225","system_id":"levelo_inurba_marseille","lat":43.31997,"lon":5.37234,"is_reserved":false,"is_disabled":false,"rental_uris":{"android":"levelo://app?vid=6515536f-56de-4109-b7a1-24c742aed225","ios":"levelo://app?vid=6515536f-56de-4109-b7a1-24c742aed225"},"vehicle_type_id":"4","last_reported":1757869626,"current_range_meters":8800,"station_id":"","pricing_plan_id":"cebpf4jnsgd1na2vs0mg"},{"bike_id":"55d59e02-f5a5-4e1a-9360-556e842fa2a4","system_id":"levelo_inurba_marseille","lat":43.33764,"lon":5.37496,"is_reserved":false,"is_disabled":false,"rental_uris":{"android":"levelo://app?vid=55d59e02-f5a5-4e1a-9360-556e842fa2a4","ios":"levelo://app?vid=55d59e02-f5a5-4e1a-9360-556e842fa2a4"},"vehicle_type_id":"4","last_reported":1757869626,"current_range_meters":8800,"station_id":"","pricing_plan_id":"cebpf4jnsgd1na2vs0mg"},{"bike_id":"38193a70-2ce0-4df3-8e83-dbda80bb6624","system_id":"levelo_inurba_marseille","lat":43.30133,"lon":5.39867,"is_reserved":false,"is_disabled":false,"rental_uris":{"android":"levelo://app?vid=38193a70-2ce0-4df3-8e83-dbda80bb6624","ios":"levelo://app?vid=38193a70-2ce0-4df3-8e83-dbda80bb6624"},"vehicle_type_id":"4","last_reported":1757869626,"current_range_meters":8800,"station_id":"","pricing_plan_id":"cebpf4jnsgd1na2vs0mg"},{"bike_id":"5faca784-6575-4825-8fe9-ef838d4dfa8e","system_id":"levelo_inurba_marseille","lat":43.28021,"lon":5.3694,"is_reserved":false,"is_disabled":false,"rental_uris":{"android":"levelo://app?vid=5faca784-6575-4825-8fe9-ef838d4dfa8e","ios":"levelo://app?vid=5faca784-6575-4825-8fe9-ef838d4dfa8e"},"vehicle_type_id":"4","last_reported":1757869626,"current_range_meters":8800,"station_id":"ce4bha12rcd13ifvqef0","pricing_plan_id":"cebpf4jnsgd1na2vs0mg"},{"bike_id":"9f7fd2f9-e277-4298-a3b5-28508f7412b9","system_id":"levelo_inurba_marseille","lat":43.28093,"lon":5.37831,"is_reserved":false,"is_disabled":false,"rental_uris":{"android":"levelo://app?vid=9f7fd2f9-e277-4298-a3b5-28508f7412b9","ios":"levelo://app?vid=9f7fd2f9-e277-4298-a3b5-28508f7412b9"},"vehicle_type_id":"4","last_reported":1757869626,"current_range_meters":8800,"station_id":"ce4bha12rcd13ifvqee0","pricing_plan_id":"cebpf4jnsgd1na2vs0mg"},{"bike_id":"02dbb44c-70e3-4a7a-b86e-6159cc35ba47","system_id":"levelo_inurba_marseille","lat":43.29587,"lon":5.38689,"is_reserved":false,"is_disabled":false,"rental_uris":{"android":"levelo://app?vid=02dbb44c-70e3-4a7a-b86e-6159cc35ba47","ios":"levelo://app?vid=02dbb44c-70e3-4a7a-b86e-6159cc35ba47"},"vehicle_type_id":"4","last_reported":1757869626,"current_range_meters":8800,"station_id":"ce4bgih2rcd13ifvqba0","pricing_plan_id":"cebpf4jnsgd1na2vs0mg"},{"bike_id":"d224ab29-3000-4bbf-8c7a-2737b8f93d8e","system_id":"levelo_inurba_marseille","lat":43.24806,"lon":5.37463,"is_reserved":false,"is_disabled":true,"rental_uris":{"android":"levelo://app?vid=d224ab29-3000-4bbf-8c7a-2737b8f93d8e","ios":"levelo://app?vid=d224ab29-3000-4bbf-8c7a-2737b8f93d8e"},"vehicle_type_id":"4","last_reported":1757869626,"current_range_meters":8800,"station_id":"ce4bhgh2rcd13ifvqfb0","pricing_plan_id":"cebpf4jnsgd1na2vs0mg"},{"bike_id":"e8228046-11e7-4607-9c06-0b7f48816751","system_id":"levelo_inurba_marseille","lat":43.246527,"lon":5.388961,"is_reserved":false,"is_disabled":true,"rental_uris":{"android":"levelo://app?vid=e8228046-11e7-4607-9c06-0b7f48816751","ios":"levelo://app?vid=e8228046-11e7-4607-9c06-0b7f48816751"},"vehicle_type_id":"4","last_reported":1757869626,"current_range_meters":9200,"station_id":"ce4bhg12rcd13ifvqf60","pricing_plan_id":"cebpf4jnsgd1na2vs0mg"},{"bike_id":"182289c1-d8ed-492c-a287-70c8f4e5e1b2","system_id":"levelo_inurba_marseille","lat":43.32402,"lon":5.38931,"is_reserved":false,"is_disabled":false,"rental_uris":{"android":"levelo://app?vid=182289c1-d8ed-492c-a287-70c8f4e5e1b2","ios":"levelo://app?vid=182289c1-d8ed-492c-a287-70c8f4e5e1b2"},"vehicle_type_id":"4","last_reported":1757869626,"current_range_meters":9200,"station_id":"","pricing_plan_id":"cebpf4jnsgd1na2vs0mg"},{"bike_id":"d5fe8587-d577-4927-9f03-bf5f1fa338f3","system_id":"levelo_inurba_marseille","lat":43.3257,"lon":5.37597,"is_reserved":false,"is_disabled":false,"rental_uris":{"android":"levelo://app?vid=d5fe8587-d577-4927-9f03-bf5f1fa338f3","ios":"levelo://app?vid=d5fe8587-d577-4927-9f03-bf5f1fa338f3"},"vehicle_type_id":"4","last_reported":1757869626,"current_range_meters":9200,"station_id":"","pricing_plan_id":"cebpf4jnsgd1na2vs0mg"},{"bike_id":"8682fe47-39ea-48bf-81dc-8c4cb3e6fa3c","system_id":"levelo_inurba_marseille","lat":43.28034,"lon":5.36956,"is_reserved":false,"is_disabled":false,"rental_uris":{"android":"levelo://app?vid=8682fe47-39ea-48bf-81dc-8c4cb3e6fa3c","ios":"levelo://app?vid=8682fe47-39ea-48bf-81dc-8c4cb3e6fa3c"},"vehicle_type_id":"4","last_reported":1757869626,"current_range_meters":9200,"station_id":"ce4bha12rcd13ifvqef0","pricing_plan_id":"cebpf4jnsgd1na2vs0mg"},{"bike_id":"406f6607-363d-4cf0-95ae-26829ed0307c","system_id":"levelo_inurba_marseille","lat":43.2621,"lon":5.40457,"is_reserved":false,"is_disabled":true,"rental_uris":{"android":"levelo://app?vid=406f6607-363d-4cf0-95ae-26829ed0307c","ios":"levelo://app?vid=406f6607-363d-4cf0-95ae-26829ed0307c"},"vehicle_type_id":"4","last_reported":1757869626,"current_range_meters":9200,"station_id":"ce4bhmh2rcd13ifvqgmg","pricing_plan_id":"cebpf4jnsgd1na2vs0mg"},{"bike_id":"974e0192-4f9e-4803-b6bc-e5f6e12940e1","system_id":"levelo_inurba_marseille","lat":43.31747,"lon":5.38798,"is_reserved":false,"is_disabled":false,"rental_uris":{"android":"levelo://app?vid=974e0192-4f9e-4803-b6bc-e5f6e12940e1","ios":"levelo://app?vid=974e0192-4f9e-4803-b6bc-e5f6e12940e1"},"vehicle_type_id":"4","last_reported":1757869626,"current_range_meters":9600,"station_id":"","pricing_plan_id":"cebpf4jnsgd1na2vs0mg"},{"bike_id":"65ae9aea-cd44-4795-aa71-d995df1d92fa","system_id":"levelo_inurba_marseille","lat":43.29777,"lon":5.37109,"is_reserved":false,"is_disabled":false,"rental_uris":{"android":"levelo://app?vid=65ae9aea-cd44-4795-aa71-d995df1d92fa","ios":"levelo://app?vid=65ae9aea-cd44-4795-aa71-d995df1d92fa"},"vehicle_type_id":"4","last_reported":1757869626,"current_range_meters":9600,"station_id":"ce4bgop2rcd13ifvqc1g","pricing_plan_id":"cebpf4jnsgd1na2vs0mg"},{"bike_id":"af855c88-100f-429f-ba0c-3dad51b30928","system_id":"levelo_inurba_marseille","lat":43.211927,"lon":5.350718,"is_reserved":false,"is_disabled":true,"rental_uris":{"android":"levelo://app?vid=af855c88-100f-429f-ba0c-3dad51b30928","ios":"levelo://app?vid=af855c88-100f-429f-ba0c-3dad51b30928"},"vehicle_type_id":"4","last_reported":1757869626,"current_range_meters":9600,"station_id":"st_cvj6sg6p6f1abm77japg","pricing_plan_id":"cebpf4jnsgd1na2vs0mg"},{"bike_id":"49e09061-fa7e-430c-b2a4-fcc34d072b44","system_id":"levelo_inurba_marseille","lat":43.26137,"lon":5.37495,"is_reserved":false,"is_disabled":false,"rental_uris":{"android":"levelo://app?vid=49e09061-fa7e-430c-b2a4-fcc34d072b44","ios":"levelo://app?vid=49e09061-fa7e-430c-b2a4-fcc34d072b44"},"vehicle_type_id":"4","last_reported":1757869626,"current_range_meters":9600,"station_id":"","pricing_plan_id":"cebpf4jnsgd1na2vs0mg"},{"bike_id":"58e4d2c3-ca5a-414f-acc3-c631f749869c","system_id":"levelo_inurba_marseille","lat":43.31357,"lon":5.38495,"is_reserved":false,"is_disabled":true,"rental_uris":{"android":"levelo://app?vid=58e4d2c3-ca5a-414f-acc3-c631f749869c","ios":"levelo://app?vid=58e4d2c3-ca5a-414f-acc3-c631f749869c"},"vehicle_type_id":"4","last_reported":1757869626,"current_range_meters":9600,"station_id":"ce4bgt92rcd13ifvqcf0","pricing_plan_id":"cebpf4jnsgd1na2vs0mg"},{"bike_id":"67d25c15-328c-4d8b-98de-e2ce745518ed","system_id":"levelo_inurba_marseille","lat":43.27901,"lon":5.38014,"is_reserved":false,"is_disabled":false,"rental_uris":{"android":"levelo://app?vid=67d25c15-328c-4d8b-98de-e2ce745518ed","ios":"levelo://app?vid=67d25c15-328c-4d8b-98de-e2ce745518ed"},"vehicle_type_id":"4","last_reported":1757869626,"current_range_meters":9600,"station_id":"ce4bhf92rcd13ifvqf50","pricing_plan_id":"cebpf4jnsgd1na2vs0mg"},{"bike_id":"0b9519eb-50e4-429a-aa11-adbb1e2fce96","system_id":"levelo_inurba_marseille","lat":43.2835,"lon":5.3865,"is_reserved":false,"is_disabled":false,"rental_uris":{"android":"levelo://app?vid=0b9519eb-50e4-429a-aa11-adbb1e2fce96","ios":"levelo://app?vid=0b9519eb-50e4-429a-aa11-adbb1e2fce96"},"vehicle_type_id":"4","last_reported":1757869626,"current_range_meters":9600,"station_id":"ce4bh492rcd13ifvqdvg","pricing_plan_id":"cebpf4jnsgd1na2vs0mg"},{"bike_id":"d9c11a94-d122-4240-b95b-24fdee8810ac","system_id":"levelo_inurba_marseille","lat":43.28256,"lon":5.39929,"is_reserved":false,"is_disabled":false,"rental_uris":{"android":"levelo://app?vid=d9c11a94-d122-4240-b95b-24fdee8810ac","ios":"levelo://app?vid=d9c11a94-d122-4240-b95b-24fdee8810ac"},"vehicle_type_id":"4","last_reported":1757869626,"current_range_meters":9600,"station_id":"","pricing_plan_id":"cebpf4jnsgd1na2vs0mg"},{"bike_id":"f07d1a34-6972-4c1d-8ed8-100dd0fc1e78","system_id":"levelo_inurba_marseille","lat":43.32985,"lon":5.39052,"is_reserved":false,"is_disabled":false,"rental_uris":{"android":"levelo://app?vid=f07d1a34-6972-4c1d-8ed8-100dd0fc1e78","ios":"levelo://app?vid=f07d1a34-6972-4c1d-8ed8-100dd0fc1e78"},"vehicle_type_id":"4","last_reported":1757869626,"current_range_meters":9600,"station_id":"ce4bhr92rcd13ifvqhrg","pricing_plan_id":"cebpf4jnsgd1na2vs0mg"},{"bike_id":"30e85da9-4a4e-420a-bc64-cfe1eeea89eb","system_id":"levelo_inurba_marseille","lat":43.28348,"lon":5.37647,"is_reserved":false,"is_disabled":false,"rental_uris":{"android":"levelo://app?vid=30e85da9-4a4e-420a-bc64-cfe1eeea89eb","ios":"levelo://app?vid=30e85da9-4a4e-420a-bc64-cfe1eeea89eb"},"vehicle_type_id":"4","last_reported":1757869626,"current_range_meters":9600,"station_id":"","pricing_plan_id":"cebpf4jnsgd1na2vs0mg"},{"bike_id":"31f4578e-18c6-48fb-9fec-123fce0578f9","system_id":"levelo_inurba_marseille","lat":43.33795,"lon":5.37457,"is_reserved":false,"is_disabled":false,"rental_uris":{"android":"levelo://app?vid=31f4578e-18c6-48fb-9fec-123fce0578f9","ios":"levelo://app?vid=31f4578e-18c6-48fb-9fec-123fce0578f9"},"vehicle_type_id":"4","last_reported":1757869626,"current_range_meters":9600,"station_id":"","pricing_plan_id":"cebpf4jnsgd1na2vs0mg"},{"bike_id":"54756892-40fc-40da-862a-36f475f86070","system_id":"levelo_inurba_marseille","lat":43.29675,"lon":5.37158,"is_reserved":false,"is_disabled":false,"rental_uris":{"android":"levelo://app?vid=54756892-40fc-40da-862a-36f475f86070","ios":"levelo://app?vid=54756892-40fc-40da-862a-36f475f86070"},"vehicle_type_id":"4","last_reported":1757869626,"current_range_meters":9600,"station_id":"","pricing_plan_id":"cebpf4jnsgd1na2vs0mg"},{"bike_id":"ca3e6e40-39a6-495d-900a-7b746d784a39","system_id":"levelo_inurba_marseille","lat":43.28107,"lon":5.37851,"is_reserved":false,"is_disabled":false,"rental_uris":{"android":"levelo://app?vid=ca3e6e40-39a6-495d-900a-7b746d784a39","ios":"levelo://app?vid=ca3e6e40-39a6-495d-900a-7b746d784a39"},"vehicle_type_id":"4","last_reported":1757869626,"current_range_meters":10000,"station_id":"ce4bha12rcd13ifvqee0","pricing_plan_id":"cebpf4jnsgd1na2vs0mg"},{"bike_id":"8b453ebd-bead-4ede-b4bb-6e8271309ef6","system_id":"levelo_inurba_marseille","lat":43.26798,"lon":5.40276,"is_reserved":false,"is_disabled":false,"rental_uris":{"android":"levelo://app?vid=8b453ebd-bead-4ede-b4bb-6e8271309ef6","ios":"levelo://app?vid=8b453ebd-bead-4ede-b4bb-6e8271309ef6"},"vehicle_type_id":"4","last_reported":1757869626,"current_range_meters":10000,"station_id":"ce501612rcd8frsf0b60","pricing_plan_id":"cebpf4jnsgd1na2vs0mg"},{"bike_id":"a1796e77-652d-49f4-82a0-0b0193a0afb1","system_id":"levelo_inurba_marseille","lat":43.29541,"lon":5.42289,"is_reserved":false,"is_disabled":false,"rental_uris":{"android":"levelo://app?vid=a1796e77-652d-49f4-82a0-0b0193a0afb1","ios":"levelo://app?vid=a1796e77-652d-49f4-82a0-0b0193a0afb1"},"vehicle_type_id":"4","last_reported":1757869626,"current_range_meters":10000,"station_id":"ce4bhph2rcd13ifvqhdg","pricing_plan_id":"cebpf4jnsgd1na2vs0mg"},{"bike_id":"81178cdb-131f-42bb-a25b-f1ff353f6fb2","system_id":"levelo_inurba_marseille","lat":43.28401,"lon":5.35009,"is_reserved":false,"is_disabled":false,"rental_uris":{"android":"levelo://app?vid=81178cdb-131f-42bb-a25b-f1ff353f6fb2","ios":"levelo://app?vid=81178cdb-131f-42bb-a25b-f1ff353f6fb2"},"vehicle_type_id":"4","last_reported":1757869626,"current_range_meters":10000,"station_id":"ce4bhbh2rcd13ifvqepg","pricing_plan_id":"cebpf4jnsgd1na2vs0mg"},{"bike_id":"2a2497be-b987-492b-a17c-d497933a8aed","system_id":"levelo_inurba_marseille","lat":43.32359,"lon":5.36756,"is_reserved":false,"is_disabled":false,"rental_uris":{"android":"levelo://app?vid=2a2497be-b987-492b-a17c-d497933a8aed","ios":"levelo://app?vid=2a2497be-b987-492b-a17c-d497933a8aed"},"vehicle_type_id":"4","last_reported":1757869626,"current_range_meters":10000,"station_id":"ce4bhsh2rcd13ifvqi2g","pricing_plan_id":"cebpf4jnsgd1na2vs0mg"},{"bike_id":"cd104b68-7370-4e88-ba9c-1edeee0f6c77","system_id":"levelo_inurba_marseille","lat":43.25226,"lon":5.42566,"is_reserved":false,"is_disabled":true,"rental_uris":{"android":"levelo://app?vid=cd104b68-7370-4e88-ba9c-1edeee0f6c77","ios":"levelo://app?vid=cd104b68-7370-4e88-ba9c-1edeee0f6c77"},"vehicle_type_id":"4","last_reported":1757869626,"current_range_meters":10000,"station_id":"","pricing_plan_id":"cebpf4jnsgd1na2vs0mg"},{"bike_id":"ee42c31a-b74b-4b2d-917a-cd50dc10c6ce","system_id":"levelo_inurba_marseille","lat":43.32989,"lon":5.39298,"is_reserved":false,"is_disabled":false,"rental_uris":{"android":"levelo://app?vid=ee42c31a-b74b-4b2d-917a-cd50dc10c6ce","ios":"levelo://app?vid=ee42c31a-b74b-4b2d-917a-cd50dc10c6ce"},"vehicle_type_id":"4","last_reported":1757869626,"current_range_meters":10000,"station_id":"","pricing_plan_id":"cebpf4jnsgd1na2vs0mg"},{"bike_id":"c5cba6d7-e282-4417-a818-5fc0802dcb08","system_id":"levelo_inurba_marseille","lat":43.33761,"lon":5.3745,"is_reserved":false,"is_disabled":false,"rental_uris":{"android":"levelo://app?vid=c5cba6d7-e282-4417-a818-5fc0802dcb08","ios":"levelo://app?vid=c5cba6d7-e282-4417-a818-5fc0802dcb08"},"vehicle_type_id":"4","last_reported":1757869626,"current_range_meters":10000,"station_id":"","pricing_plan_id":"cebpf4jnsgd1na2vs0mg"},{"bike_id":"dbeec3b6-4b1d-491c-9c40-c65b631e2839","system_id":"levelo_inurba_marseille","lat":43.290375,"lon":5.386391,"is_reserved":false,"is_disabled":false,"rental_uris":{"android":"levelo://app?vid=dbeec3b6-4b1d-491c-9c40-c65b631e2839","ios":"levelo://app?vid=dbeec3b6-4b1d-491c-9c40-c65b631e2839"},"vehicle_type_id":"4","last_reported":1757869626,"current_range_meters":10800,"station_id":"ce4bh4p2rcd13ifvqe0g","pricing_plan_id":"cebpf4jnsgd1na2vs0mg"},{"bike_id":"e7a329bd-ed66-4ac7-aaba-63f2810ddd86","system_id":"levelo_inurba_marseille","lat":43.31917,"lon":5.37203,"is_reserved":false,"is_disabled":false,"rental_uris":{"android":"levelo://app?vid=e7a329bd-ed66-4ac7-aaba-63f2810ddd86","ios":"levelo://app?vid=e7a329bd-ed66-4ac7-aaba-63f2810ddd86"},"vehicle_type_id":"4","last_reported":1757869626,"current_range_meters":10800,"station_id":"","pricing_plan_id":"cebpf4jnsgd1na2vs0mg"},{"bike_id":"8fa56154-07de-4d5d-ae53-83022e0626ff","system_id":"levelo_inurba_marseille","lat":43.281,"lon":5.37835,"is_reserved":false,"is_disabled":false,"rental_uris":{"android":"levelo://app?vid=8fa56154-07de-4d5d-ae53-83022e0626ff","ios":"levelo://app?vid=8fa56154-07de-4d5d-ae53-83022e0626ff"},"vehicle_type_id":"4","last_reported":1757869626,"current_range_meters":10800,"station_id":"ce4bha12rcd13ifvqee0","pricing_plan_id":"cebpf4jnsgd1na2vs0mg"},{"bike_id":"16572620-16f0-40a6-8afc-79d0b1846f64","system_id":"levelo_inurba_marseille","lat":43.281589,"lon":5.426265,"is_reserved":false,"is_disabled":false,"rental_uris":{"android":"levelo://app?vid=16572620-16f0-40a6-8afc-79d0b1846f64","ios":"levelo://app?vid=16572620-16f0-40a6-8afc-79d0b1846f64"},"vehicle_type_id":"4","last_reported":1757869626,"current_range_meters":10800,"station_id":"ce4bhnh2rcd13ifvqgug","pricing_plan_id":"cebpf4jnsgd1na2vs0mg"},{"bike_id":"c4816243-a4e8-484c-ab0f-df7968f31207","system_id":"levelo_inurba_marseille","lat":43.29298,"lon":5.37448,"is_reserved":false,"is_disabled":false,"rental_uris":{"android":"levelo://app?vid=c4816243-a4e8-484c-ab0f-df7968f31207","ios":"levelo://app?vid=c4816243-a4e8-484c-ab0f-df7968f31207"},"vehicle_type_id":"4","last_reported":1757869626,"current_range_meters":10800,"station_id":"ce4bgi12rcd13ifvqb70","pricing_plan_id":"cebpf4jnsgd1na2vs0mg"},{"bike_id":"d16230ff-2955-426b-a6aa-84f8e2e13648","system_id":"levelo_inurba_marseille","lat":43.28867,"lon":5.42524,"is_reserved":false,"is_disabled":false,"rental_uris":{"android":"levelo://app?vid=d16230ff-2955-426b-a6aa-84f8e2e13648","ios":"levelo://app?vid=d16230ff-2955-426b-a6aa-84f8e2e13648"},"vehicle_type_id":"4","last_reported":1757869626,"current_range_meters":10800,"station_id":"","pricing_plan_id":"cebpf4jnsgd1na2vs0mg"},{"bike_id":"c682ef70-00bc-4415-9b10-9a35bd5ddcc1","system_id":"levelo_inurba_marseille","lat":43.27482,"lon":5.42452,"is_reserved":false,"is_disabled":false,"rental_uris":{"android":"levelo://app?vid=c682ef70-00bc-4415-9b10-9a35bd5ddcc1","ios":"levelo://app?vid=c682ef70-00bc-4415-9b10-9a35bd5ddcc1"},"vehicle_type_id":"4","last_reported":1757869626,"current_range_meters":11200,"station_id":"ce4bhn92rcd13ifvqgrg","pricing_plan_id":"cebpf4jnsgd1na2vs0mg"},{"bike_id":"6f688d13-5d68-4ea3-9890-a51a37e6a99f","system_id":"levelo_inurba_marseille","lat":43.28609,"lon":5.3707,"is_reserved":false,"is_disabled":false,"rental_uris":{"android":"levelo://app?vid=6f688d13-5d68-4ea3-9890-a51a37e6a99f","ios":"levelo://app?vid=6f688d13-5d68-4ea3-9890-a51a37e6a99f"},"vehicle_type_id":"4","last_reported":1757869626,"current_range_meters":11200,"station_id":"ce4bht12rcd13ifvqi60","pricing_plan_id":"cebpf4jnsgd1na2vs0mg"},{"bike_id":"5c1e55d9-decd-426f-89d8-b98a558f3809","system_id":"levelo_inurba_marseille","lat":43.316992,"lon":5.404733,"is_reserved":false,"is_disabled":true,"rental_uris":{"android":"levelo://app?vid=5c1e55d9-decd-426f-89d8-b98a558f3809","ios":"levelo://app?vid=5c1e55d9-decd-426f-89d8-b98a558f3809"},"vehicle_type_id":"4","last_reported":1757869626,"current_range_meters":11200,"station_id":"ce4bh012rcd13ifvqd00","pricing_plan_id":"cebpf4jnsgd1na2vs0mg"},{"bike_id":"460aec04-f533-4ad5-a9c4-c7a428001881","system_id":"levelo_inurba_marseille","lat":43.296009,"lon":5.386758,"is_reserved":false,"is_disabled":false,"rental_uris":{"android":"levelo://app?vid=460aec04-f533-4ad5-a9c4-c7a428001881","ios":"levelo://app?vid=460aec04-f533-4ad5-a9c4-c7a428001881"},"vehicle_type_id":"4","last_reported":1757869626,"current_range_meters":11200,"station_id":"ce4bh392rcd13ifvqdl0","pricing_plan_id":"cebpf4jnsgd1na2vs0mg"},{"bike_id":"42f0d81d-d8a1-45d0-8bb4-bc801a51727f","system_id":"levelo_inurba_marseille","lat":43.28692,"lon":5.37381,"is_reserved":false,"is_disabled":false,"rental_uris":{"android":"levelo://app?vid=42f0d81d-d8a1-45d0-8bb4-bc801a51727f","ios":"levelo://app?vid=42f0d81d-d8a1-45d0-8bb4-bc801a51727f"},"vehicle_type_id":"4","last_reported":1757869626,"current_range_meters":11200,"station_id":"ce4bh3p2rcd13ifvqdq0","pricing_plan_id":"cebpf4jnsgd1na2vs0mg"},{"bike_id":"3bc338fd-b3c5-4caa-b6e6-3c70a52689ba","system_id":"levelo_inurba_marseille","lat":43.31718,"lon":5.38915,"is_reserved":false,"is_disabled":false,"rental_uris":{"android":"levelo://app?vid=3bc338fd-b3c5-4caa-b6e6-3c70a52689ba","ios":"levelo://app?vid=3bc338fd-b3c5-4caa-b6e6-3c70a52689ba"},"vehicle_type_id":"4","last_reported":1757869626,"current_range_meters":11200,"station_id":"","pricing_plan_id":"cebpf4jnsgd1na2vs0mg"},{"bike_id":"51d3ac22-5b2e-458d-945f-fb4a6dfe165c","system_id":"levelo_inurba_marseille","lat":43.28938,"lon":5.36645,"is_reserved":false,"is_disabled":false,"rental_uris":{"android":"levelo://app?vid=51d3ac22-5b2e-458d-945f-fb4a6dfe165c","ios":"levelo://app?vid=51d3ac22-5b2e-458d-945f-fb4a6dfe165c"},"vehicle_type_id":"4","last_reported":1757869626,"current_range_meters":11200,"station_id":"ce4bhap2rcd13ifvqek0","pricing_plan_id":"cebpf4jnsgd1na2vs0mg"},{"bike_id":"5b08033c-e596-407a-ada4-49eb3a516099","system_id":"levelo_inurba_marseille","lat":43.25826,"lon":5.394165,"is_reserved":false,"is_disabled":false,"rental_uris":{"android":"levelo://app?vid=5b08033c-e596-407a-ada4-49eb3a516099","ios":"levelo://app?vid=5b08033c-e596-407a-ada4-49eb3a516099"},"vehicle_type_id":"4","last_reported":1757869626,"current_range_meters":11600,"station_id":"ce4bhip2rcd13ifvqft0","pricing_plan_id":"cebpf4jnsgd1na2vs0mg"},{"bike_id":"d0a1739a-c22f-4203-9f71-a089f4b367e4","system_id":"levelo_inurba_marseille","lat":43.319907,"lon":5.381223,"is_reserved":false,"is_disabled":true,"rental_uris":{"android":"levelo://app?vid=d0a1739a-c22f-4203-9f71-a089f4b367e4","ios":"levelo://app?vid=d0a1739a-c22f-4203-9f71-a089f4b367e4"},"vehicle_type_id":"4","last_reported":1757869626,"current_range_meters":11600,"station_id":"ce4bhr12rcd13ifvqhpg","pricing_plan_id":"cebpf4jnsgd1na2vs0mg"},{"bike_id":"bd59d344-b7b0-4d98-ae54-06a1f3084307","system_id":"levelo_inurba_marseille","lat":43.31156,"lon":5.38721,"is_reserved":false,"is_disabled":false,"rental_uris":{"android":"levelo://app?vid=bd59d344-b7b0-4d98-ae54-06a1f3084307","ios":"levelo://app?vid=bd59d344-b7b0-4d98-ae54-06a1f3084307"},"vehicle_type_id":"4","last_reported":1757869626,"current_range_meters":11600,"station_id":"ce4bgv12rcd13ifvqcp0","pricing_plan_id":"cebpf4jnsgd1na2vs0mg"},{"bike_id":"90b99ccf-2b3c-4d75-9e45-7dd3a550aac1","system_id":"levelo_inurba_marseille","lat":43.23569,"lon":5.39891,"is_reserved":false,"is_disabled":false,"rental_uris":{"android":"levelo://app?vid=90b99ccf-2b3c-4d75-9e45-7dd3a550aac1","ios":"levelo://app?vid=90b99ccf-2b3c-4d75-9e45-7dd3a550aac1"},"vehicle_type_id":"4","last_reported":1757869626,"current_range_meters":11600,"station_id":"","pricing_plan_id":"cebpf4jnsgd1na2vs0mg"},{"bike_id":"3665bea6-9b4f-4463-9de5-acec03414d4f","system_id":"levelo_inurba_marseille","lat":43.293,"lon":5.37467,"is_reserved":false,"is_disabled":false,"rental_uris":{"android":"levelo://app?vid=3665bea6-9b4f-4463-9de5-acec03414d4f","ios":"levelo://app?vid=3665bea6-9b4f-4463-9de5-acec03414d4f"},"vehicle_type_id":"4","last_reported":1757869626,"current_range_meters":11600,"station_id":"ce4bgi12rcd13ifvqb70","pricing_plan_id":"cebpf4jnsgd1na2vs0mg"},{"bike_id":"ff4f0eb2-6610-4c60-9ed8-7710247ececd","system_id":"levelo_inurba_marseille","lat":43.30794,"lon":5.38155,"is_reserved":false,"is_disabled":false,"rental_uris":{"android":"levelo://app?vid=ff4f0eb2-6610-4c60-9ed8-7710247ececd","ios":"levelo://app?vid=ff4f0eb2-6610-4c60-9ed8-7710247ececd"},"vehicle_type_id":"4","last_reported":1757869626,"current_range_meters":12000,"station_id":"ce4bgt12rcd13ifvqce0","pricing_plan_id":"cebpf4jnsgd1na2vs0mg"},{"bike_id":"4b0f1871-90bd-4184-8cb2-adcb307fa151","system_id":"levelo_inurba_marseille","lat":43.29681,"lon":5.37297,"is_reserved":false,"is_disabled":false,"rental_uris":{"android":"levelo://app?vid=4b0f1871-90bd-4184-8cb2-adcb307fa151","ios":"levelo://app?vid=4b0f1871-90bd-4184-8cb2-adcb307fa151"},"vehicle_type_id":"4","last_reported":1757869626,"current_range_meters":12000,"station_id":"ce4bgk12rcd13ifvqbj0","pricing_plan_id":"cebpf4jnsgd1na2vs0mg"},{"bike_id":"5a3ee987-625c-409a-98c8-7d4e2f2b50f8","system_id":"levelo_inurba_marseille","lat":43.29012,"lon":5.35612,"is_reserved":false,"is_disabled":false,"rental_uris":{"android":"levelo://app?vid=5a3ee987-625c-409a-98c8-7d4e2f2b50f8","ios":"levelo://app?vid=5a3ee987-625c-409a-98c8-7d4e2f2b50f8"},"vehicle_type_id":"4","last_reported":1757869626,"current_range_meters":12400,"station_id":"ce4bhb92rcd13ifvqen0","pricing_plan_id":"cebpf4jnsgd1na2vs0mg"},{"bike_id":"fcb621b5-9ca3-4d2d-b144-b697987d4442","system_id":"levelo_inurba_marseille","lat":43.29905,"lon":5.38145,"is_reserved":false,"is_disabled":false,"rental_uris":{"android":"levelo://app?vid=fcb621b5-9ca3-4d2d-b144-b697987d4442","ios":"levelo://app?vid=fcb621b5-9ca3-4d2d-b144-b697987d4442"},"vehicle_type_id":"4","last_reported":1757869626,"current_range_meters":12400,"station_id":"ce4bgj12rcd13ifvqbc0","pricing_plan_id":"cebpf4jnsgd1na2vs0mg"},{"bike_id":"b27aec61-2b96-4707-bde6-1d443762f6ae","system_id":"levelo_inurba_marseille","lat":43.28693,"lon":5.37388,"is_reserved":false,"is_disabled":false,"rental_uris":{"android":"levelo://app?vid=b27aec61-2b96-4707-bde6-1d443762f6ae","ios":"levelo://app?vid=b27aec61-2b96-4707-bde6-1d443762f6ae"},"vehicle_type_id":"4","last_reported":1757869626,"current_range_meters":12400,"station_id":"ce4bh3p2rcd13ifvqdq0","pricing_plan_id":"cebpf4jnsgd1na2vs0mg"},{"bike_id":"8e3a9e83-812e-4b5d-8c7b-5119699e81be","system_id":"levelo_inurba_marseille","lat":43.315786,"lon":5.40591,"is_reserved":false,"is_disabled":false,"rental_uris":{"android":"levelo://app?vid=8e3a9e83-812e-4b5d-8c7b-5119699e81be","ios":"levelo://app?vid=8e3a9e83-812e-4b5d-8c7b-5119699e81be"},"vehicle_type_id":"4","last_reported":1757869626,"current_range_meters":12400,"station_id":"","pricing_plan_id":"cebpf4jnsgd1na2vs0mg"},{"bike_id":"2238dd80-da25-4394-9e7e-e6d9c6e345eb","system_id":"levelo_inurba_marseille","lat":43.23184,"lon":5.35544,"is_reserved":false,"is_disabled":false,"rental_uris":{"android":"levelo://app?vid=2238dd80-da25-4394-9e7e-e6d9c6e345eb","ios":"levelo://app?vid=2238dd80-da25-4394-9e7e-e6d9c6e345eb"},"vehicle_type_id":"4","last_reported":1757869626,"current_range_meters":12400,"station_id":"ce4bhu92rcd13ifvqi70","pricing_plan_id":"cebpf4jnsgd1na2vs0mg"},{"bike_id":"f0f91981-97a4-4847-ba72-080bc75ab7b1","system_id":"levelo_inurba_marseille","lat":43.253287,"lon":5.421727,"is_reserved":false,"is_disabled":true,"rental_uris":{"android":"levelo://app?vid=f0f91981-97a4-4847-ba72-080bc75ab7b1","ios":"levelo://app?vid=f0f91981-97a4-4847-ba72-080bc75ab7b1"},"vehicle_type_id":"4","last_reported":1757869626,"current_range_meters":12400,"station_id":"st_d2m65c5bi1j21697t3ng","pricing_plan_id":"cebpf4jnsgd1na2vs0mg"},{"bike_id":"9d3f7647-d3a6-4160-aa34-46775c778919","system_id":"levelo_inurba_marseille","lat":43.3014,"lon":5.39865,"is_reserved":false,"is_disabled":false,"rental_uris":{"android":"levelo://app?vid=9d3f7647-d3a6-4160-aa34-46775c778919","ios":"levelo://app?vid=9d3f7647-d3a6-4160-aa34-46775c778919"},"vehicle_type_id":"4","last_reported":1757869626,"current_range_meters":12800,"station_id":"ce4bh0h2rcd13ifvqd40","pricing_plan_id":"cebpf4jnsgd1na2vs0mg"},{"bike_id":"daf6eb47-c310-4e4f-8488-f49a0ba00399","system_id":"levelo_inurba_marseille","lat":43.30086,"lon":5.36432,"is_reserved":false,"is_disabled":false,"rental_uris":{"android":"levelo://app?vid=daf6eb47-c310-4e4f-8488-f49a0ba00399","ios":"levelo://app?vid=daf6eb47-c310-4e4f-8488-f49a0ba00399"},"vehicle_type_id":"4","last_reported":1757869626,"current_range_meters":12800,"station_id":"","pricing_plan_id":"cebpf4jnsgd1na2vs0mg"},{"bike_id":"85db8ab9-6b24-4c23-8762-109e948df9cd","system_id":"levelo_inurba_marseille","lat":43.30613,"lon":5.40443,"is_reserved":false,"is_disabled":false,"rental_uris":{"android":"levelo://app?vid=85db8ab9-6b24-4c23-8762-109e948df9cd","ios":"levelo://app?vid=85db8ab9-6b24-4c23-8762-109e948df9cd"},"vehicle_type_id":"4","last_reported":1757869626,"current_range_meters":12800,"station_id":"","pricing_plan_id":"cebpf4jnsgd1na2vs0mg"},{"bike_id":"8ab60a89-bd14-40d7-b359-020ea126cfef","system_id":"levelo_inurba_marseille","lat":43.323635,"lon":5.36755,"is_reserved":false,"is_disabled":false,"rental_uris":{"android":"levelo://app?vid=8ab60a89-bd14-40d7-b359-020ea126cfef","ios":"levelo://app?vid=8ab60a89-bd14-40d7-b359-020ea126cfef"},"vehicle_type_id":"4","last_reported":1757869626,"current_range_meters":12800,"station_id":"","pricing_plan_id":"cebpf4jnsgd1na2vs0mg"},{"bike_id":"ad5021ed-5346-4110-8529-239c5ea74ca9","system_id":"levelo_inurba_marseille","lat":43.28456,"lon":5.35887,"is_reserved":false,"is_disabled":false,"rental_uris":{"android":"levelo://app?vid=ad5021ed-5346-4110-8529-239c5ea74ca9","ios":"levelo://app?vid=ad5021ed-5346-4110-8529-239c5ea74ca9"},"vehicle_type_id":"4","last_reported":1757869626,"current_range_meters":2800,"station_id":"ce4bhah2rcd13ifvqei0","pricing_plan_id":"cebpf4jnsgd1na2vs0mg"},{"bike_id":"fbd0328c-4ce4-4080-b126-d2d47d815fa6","system_id":"levelo_inurba_marseille","lat":43.21741,"lon":5.34607,"is_reserved":false,"is_disabled":true,"rental_uris":{"android":"levelo://app?vid=fbd0328c-4ce4-4080-b126-d2d47d815fa6","ios":"levelo://app?vid=fbd0328c-4ce4-4080-b126-d2d47d815fa6"},"vehicle_type_id":"4","last_reported":1757869626,"current_range_meters":12800,"station_id":"st_cvj6r9ubvosntc0bgbag","pricing_plan_id":"cebpf4jnsgd1na2vs0mg"},{"bike_id":"53e261c9-8d2a-4316-ba8f-ee6d9e6b7616","system_id":"levelo_inurba_marseille","lat":43.286071,"lon":5.350997,"is_reserved":false,"is_disabled":true,"rental_uris":{"android":"levelo://app?vid=53e261c9-8d2a-4316-ba8f-ee6d9e6b7616","ios":"levelo://app?vid=53e261c9-8d2a-4316-ba8f-ee6d9e6b7616"},"vehicle_type_id":"4","last_reported":1757869626,"current_range_meters":13600,"station_id":"ce4bhch2rcd13ifvqeug","pricing_plan_id":"cebpf4jnsgd1na2vs0mg"},{"bike_id":"7510d37e-e6e5-4779-87ff-b9380f7a710c","system_id":"levelo_inurba_marseille","lat":43.28923,"lon":5.36649,"is_reserved":false,"is_disabled":false,"rental_uris":{"android":"levelo://app?vid=7510d37e-e6e5-4779-87ff-b9380f7a710c","ios":"levelo://app?vid=7510d37e-e6e5-4779-87ff-b9380f7a710c"},"vehicle_type_id":"4","last_reported":1757869626,"current_range_meters":13600,"station_id":"ce4bhap2rcd13ifvqek0","pricing_plan_id":"cebpf4jnsgd1na2vs0mg"},{"bike_id":"35a34e57-0a41-4c31-b74f-0db21c0ec944","system_id":"levelo_inurba_marseille","lat":43.296788,"lon":5.372862,"is_reserved":false,"is_disabled":false,"rental_uris":{"android":"levelo://app?vid=35a34e57-0a41-4c31-b74f-0db21c0ec944","ios":"levelo://app?vid=35a34e57-0a41-4c31-b74f-0db21c0ec944"},"vehicle_type_id":"4","last_reported":1757869626,"current_range_meters":13600,"station_id":"ce4bgk12rcd13ifvqbj0","pricing_plan_id":"cebpf4jnsgd1na2vs0mg"},{"bike_id":"17883518-8432-48af-ad0b-779fe029883a","system_id":"levelo_inurba_marseille","lat":43.29195,"lon":5.39318,"is_reserved":false,"is_disabled":false,"rental_uris":{"android":"levelo://app?vid=17883518-8432-48af-ad0b-779fe029883a","ios":"levelo://app?vid=17883518-8432-48af-ad0b-779fe029883a"},"vehicle_type_id":"4","last_reported":1757869626,"current_range_meters":14000,"station_id":"ce4bh192rcd13ifvqdd0","pricing_plan_id":"cebpf4jnsgd1na2vs0mg"},{"bike_id":"416a5366-b97a-45f7-a1e6-cdd8fe846b86","system_id":"levelo_inurba_marseille","lat":43.32364,"lon":5.38891,"is_reserved":false,"is_disabled":false,"rental_uris":{"android":"levelo://app?vid=416a5366-b97a-45f7-a1e6-cdd8fe846b86","ios":"levelo://app?vid=416a5366-b97a-45f7-a1e6-cdd8fe846b86"},"vehicle_type_id":"4","last_reported":1757869626,"current_range_meters":14000,"station_id":"ce4bhqp2rcd13ifvqhog","pricing_plan_id":"cebpf4jnsgd1na2vs0mg"},{"bike_id":"6bff213e-0f5a-4aec-ad7c-cf13aa005ebe","system_id":"levelo_inurba_marseille","lat":43.30248,"lon":5.40073,"is_reserved":false,"is_disabled":false,"rental_uris":{"android":"levelo://app?vid=6bff213e-0f5a-4aec-ad7c-cf13aa005ebe","ios":"levelo://app?vid=6bff213e-0f5a-4aec-ad7c-cf13aa005ebe"},"vehicle_type_id":"4","last_reported":1757869626,"current_range_meters":14000,"station_id":"ce4bgvh2rcd13ifvqcs0","pricing_plan_id":"cebpf4jnsgd1na2vs0mg"},{"bike_id":"d9c4202c-de13-4428-8c40-40d90faf1618","system_id":"levelo_inurba_marseille","lat":43.31356,"lon":5.3707,"is_reserved":false,"is_disabled":false,"rental_uris":{"android":"levelo://app?vid=d9c4202c-de13-4428-8c40-40d90faf1618","ios":"levelo://app?vid=d9c4202c-de13-4428-8c40-40d90faf1618"},"vehicle_type_id":"4","last_reported":1757869626,"current_range_meters":14000,"station_id":"","pricing_plan_id":"cebpf4jnsgd1na2vs0mg"},{"bike_id":"98ec5e77-8c7d-4793-bc7a-6d9a5110750c","system_id":"levelo_inurba_marseille","lat":43.29023,"lon":5.38648,"is_reserved":false,"is_disabled":false,"rental_uris":{"android":"levelo://app?vid=98ec5e77-8c7d-4793-bc7a-6d9a5110750c","ios":"levelo://app?vid=98ec5e77-8c7d-4793-bc7a-6d9a5110750c"},"vehicle_type_id":"4","last_reported":1757869626,"current_range_meters":14000,"station_id":"ce4bh4p2rcd13ifvqe0g","pricing_plan_id":"cebpf4jnsgd1na2vs0mg"},{"bike_id":"e8930cfa-2c36-4dbf-ab3e-6afdedf38824","system_id":"levelo_inurba_marseille","lat":43.22566,"lon":5.41626,"is_reserved":false,"is_disabled":false,"rental_uris":{"android":"levelo://app?vid=e8930cfa-2c36-4dbf-ab3e-6afdedf38824","ios":"levelo://app?vid=e8930cfa-2c36-4dbf-ab3e-6afdedf38824"},"vehicle_type_id":"4","last_reported":1757869626,"current_range_meters":14000,"station_id":"st_d2o4gvlbi1j2169b742g","pricing_plan_id":"cebpf4jnsgd1na2vs0mg"},{"bike_id":"4d6e6605-7f16-44fa-a19a-c138ee7cb360","system_id":"levelo_inurba_marseille","lat":43.33799,"lon":5.37446,"is_reserved":false,"is_disabled":false,"rental_uris":{"android":"levelo://app?vid=4d6e6605-7f16-44fa-a19a-c138ee7cb360","ios":"levelo://app?vid=4d6e6605-7f16-44fa-a19a-c138ee7cb360"},"vehicle_type_id":"4","last_reported":1757869626,"current_range_meters":14000,"station_id":"","pricing_plan_id":"cebpf4jnsgd1na2vs0mg"},{"bike_id":"2d4f8702-f871-4299-b471-061f32bc7f69","system_id":"levelo_inurba_marseille","lat":43.22576,"lon":5.41641,"is_reserved":false,"is_disabled":false,"rental_uris":{"android":"levelo://app?vid=2d4f8702-f871-4299-b471-061f32bc7f69","ios":"levelo://app?vid=2d4f8702-f871-4299-b471-061f32bc7f69"},"vehicle_type_id":"4","last_reported":1757869626,"current_range_meters":14000,"station_id":"st_d2o4gvlbi1j2169b742g","pricing_plan_id":"cebpf4jnsgd1na2vs0mg"},{"bike_id":"5e9ed4d8-9d45-4c86-b2d0-a307e5606086","system_id":"levelo_inurba_marseille","lat":43.28658,"lon":5.3867,"is_reserved":false,"is_disabled":false,"rental_uris":{"android":"levelo://app?vid=5e9ed4d8-9d45-4c86-b2d0-a307e5606086","ios":"levelo://app?vid=5e9ed4d8-9d45-4c86-b2d0-a307e5606086"},"vehicle_type_id":"4","last_reported":1757869626,"current_range_meters":14000,"station_id":"ce4bh492rcd13ifvqdug","pricing_plan_id":"cebpf4jnsgd1na2vs0mg"},{"bike_id":"90701b71-a708-4f08-9d9a-1af5a2524406","system_id":"levelo_inurba_marseille","lat":43.28098,"lon":5.37833,"is_reserved":false,"is_disabled":false,"rental_uris":{"android":"levelo://app?vid=90701b71-a708-4f08-9d9a-1af5a2524406","ios":"levelo://app?vid=90701b71-a708-4f08-9d9a-1af5a2524406"},"vehicle_type_id":"4","last_reported":1757869626,"current_range_meters":14000,"station_id":"ce4bha12rcd13ifvqee0","pricing_plan_id":"cebpf4jnsgd1na2vs0mg"},{"bike_id":"1a3dbf3a-7c8e-477d-bb32-2bdc91783905","system_id":"levelo_inurba_marseille","lat":43.27372,"lon":5.36251,"is_reserved":false,"is_disabled":false,"rental_uris":{"android":"levelo://app?vid=1a3dbf3a-7c8e-477d-bb32-2bdc91783905","ios":"levelo://app?vid=1a3dbf3a-7c8e-477d-bb32-2bdc91783905"},"vehicle_type_id":"4","last_reported":1757869626,"current_range_meters":14400,"station_id":"ce4bhbh2rcd13ifvqeo0","pricing_plan_id":"cebpf4jnsgd1na2vs0mg"},{"bike_id":"867a06c4-c507-468c-a42b-66dfa736196d","system_id":"levelo_inurba_marseille","lat":43.28413,"lon":5.34995,"is_reserved":false,"is_disabled":true,"rental_uris":{"android":"levelo://app?vid=867a06c4-c507-468c-a42b-66dfa736196d","ios":"levelo://app?vid=867a06c4-c507-468c-a42b-66dfa736196d"},"vehicle_type_id":"4","last_reported":1757869626,"current_range_meters":14400,"station_id":"ce4bhbh2rcd13ifvqepg","pricing_plan_id":"cebpf4jnsgd1na2vs0mg"},{"bike_id":"4955a604-af0c-4acb-b892-574c39c673c0","system_id":"levelo_inurba_marseille","lat":43.284159,"lon":5.349971,"is_reserved":false,"is_disabled":false,"rental_uris":{"android":"levelo://app?vid=4955a604-af0c-4acb-b892-574c39c673c0","ios":"levelo://app?vid=4955a604-af0c-4acb-b892-574c39c673c0"},"vehicle_type_id":"4","last_reported":1757869626,"current_range_meters":14400,"station_id":"ce4bhbh2rcd13ifvqepg","pricing_plan_id":"cebpf4jnsgd1na2vs0mg"},{"bike_id":"f75ae2b3-1100-4a8b-b0b5-278a36f1aa2e","system_id":"levelo_inurba_marseille","lat":43.29005,"lon":5.35611,"is_reserved":false,"is_disabled":false,"rental_uris":{"android":"levelo://app?vid=f75ae2b3-1100-4a8b-b0b5-278a36f1aa2e","ios":"levelo://app?vid=f75ae2b3-1100-4a8b-b0b5-278a36f1aa2e"},"vehicle_type_id":"4","last_reported":1757869626,"current_range_meters":14400,"station_id":"ce4bhb92rcd13ifvqen0","pricing_plan_id":"cebpf4jnsgd1na2vs0mg"},{"bike_id":"e06d2e94-3ae2-4b4b-9d7e-05d3f806365a","system_id":"levelo_inurba_marseille","lat":43.25828,"lon":5.3942,"is_reserved":false,"is_disabled":false,"rental_uris":{"android":"levelo://app?vid=e06d2e94-3ae2-4b4b-9d7e-05d3f806365a","ios":"levelo://app?vid=e06d2e94-3ae2-4b4b-9d7e-05d3f806365a"},"vehicle_type_id":"4","last_reported":1757869626,"current_range_meters":14400,"station_id":"ce4bhip2rcd13ifvqft0","pricing_plan_id":"cebpf4jnsgd1na2vs0mg"},{"bike_id":"1f031202-2c4d-41e5-8e0d-b185dd460be1","system_id":"levelo_inurba_marseille","lat":43.29391,"lon":5.401058,"is_reserved":false,"is_disabled":false,"rental_uris":{"android":"levelo://app?vid=1f031202-2c4d-41e5-8e0d-b185dd460be1","ios":"levelo://app?vid=1f031202-2c4d-41e5-8e0d-b185dd460be1"},"vehicle_type_id":"4","last_reported":1757869626,"current_range_meters":14400,"station_id":"ce4bgup2rcd13ifvqco0","pricing_plan_id":"cebpf4jnsgd1na2vs0mg"},{"bike_id":"ffdd2e29-5479-45ca-a3f9-e1c037d4543f","system_id":"levelo_inurba_marseille","lat":43.27617,"lon":5.361,"is_reserved":false,"is_disabled":false,"rental_uris":{"android":"levelo://app?vid=ffdd2e29-5479-45ca-a3f9-e1c037d4543f","ios":"levelo://app?vid=ffdd2e29-5479-45ca-a3f9-e1c037d4543f"},"vehicle_type_id":"4","last_reported":1757869626,"current_range_meters":14400,"station_id":"ce4bgj92rcd13ifvqbe0","pricing_plan_id":"cebpf4jnsgd1na2vs0mg"},{"bike_id":"200d9c2e-1962-425a-a726-48215d1231bc","system_id":"levelo_inurba_marseille","lat":43.29779,"lon":5.3934,"is_reserved":false,"is_disabled":false,"rental_uris":{"android":"levelo://app?vid=200d9c2e-1962-425a-a726-48215d1231bc","ios":"levelo://app?vid=200d9c2e-1962-425a-a726-48215d1231bc"},"vehicle_type_id":"4","last_reported":1757869626,"current_range_meters":14800,"station_id":"chh1huq6cuj3fo74tm60","pricing_plan_id":"cebpf4jnsgd1na2vs0mg"},{"bike_id":"c96bd6c4-ba50-431f-942e-bd8ac00276c6","system_id":"levelo_inurba_marseille","lat":43.248842,"lon":5.374819,"is_reserved":false,"is_disabled":false,"rental_uris":{"android":"levelo://app?vid=c96bd6c4-ba50-431f-942e-bd8ac00276c6","ios":"levelo://app?vid=c96bd6c4-ba50-431f-942e-bd8ac00276c6"},"vehicle_type_id":"4","last_reported":1757869626,"current_range_meters":14800,"station_id":"ce4bhgh2rcd13ifvqfb0","pricing_plan_id":"cebpf4jnsgd1na2vs0mg"},{"bike_id":"a554bdbd-e968-4aa6-adf8-aa72918c66df","system_id":"levelo_inurba_marseille","lat":43.31526,"lon":5.38036,"is_reserved":false,"is_disabled":false,"rental_uris":{"android":"levelo://app?vid=a554bdbd-e968-4aa6-adf8-aa72918c66df","ios":"levelo://app?vid=a554bdbd-e968-4aa6-adf8-aa72918c66df"},"vehicle_type_id":"4","last_reported":1757869626,"current_range_meters":14800,"station_id":"ce4bhsp2rcd13ifvqi50","pricing_plan_id":"cebpf4jnsgd1na2vs0mg"},{"bike_id":"7d7b03c9-f46f-4377-b089-b2019aae399f","system_id":"levelo_inurba_marseille","lat":43.23183,"lon":5.399715,"is_reserved":false,"is_disabled":true,"rental_uris":{"android":"levelo://app?vid=7d7b03c9-f46f-4377-b089-b2019aae399f","ios":"levelo://app?vid=7d7b03c9-f46f-4377-b089-b2019aae399f"},"vehicle_type_id":"4","last_reported":1757869626,"current_range_meters":14800,"station_id":"ce4bhn12rcd13ifvqgqg","pricing_plan_id":"cebpf4jnsgd1na2vs0mg"},{"bike_id":"ec023c05-e446-4489-926e-a33f7c270a2c","system_id":"levelo_inurba_marseille","lat":43.28405,"lon":5.37509,"is_reserved":false,"is_disabled":false,"rental_uris":{"android":"levelo://app?vid=ec023c05-e446-4489-926e-a33f7c270a2c","ios":"levelo://app?vid=ec023c05-e446-4489-926e-a33f7c270a2c"},"vehicle_type_id":"4","last_reported":1757869626,"current_range_meters":14800,"station_id":"ce4bh412rcd13ifvqds0","pricing_plan_id":"cebpf4jnsgd1na2vs0mg"},{"bike_id":"746f8f66-7f46-4e2a-8f64-942936320bf9","system_id":"levelo_inurba_marseille","lat":43.23965,"lon":5.36619,"is_reserved":false,"is_disabled":true,"rental_uris":{"android":"levelo://app?vid=746f8f66-7f46-4e2a-8f64-942936320bf9","ios":"levelo://app?vid=746f8f66-7f46-4e2a-8f64-942936320bf9"},"vehicle_type_id":"4","last_reported":1757869626,"current_range_meters":14800,"station_id":"ce4bhi12rcd13ifvqfp0","pricing_plan_id":"cebpf4jnsgd1na2vs0mg"},{"bike_id":"f75319f4-d3a6-440f-9c89-5af7f4acd041","system_id":"levelo_inurba_marseille","lat":43.22553,"lon":5.41672,"is_reserved":false,"is_disabled":false,"rental_uris":{"android":"levelo://app?vid=f75319f4-d3a6-440f-9c89-5af7f4acd041","ios":"levelo://app?vid=f75319f4-d3a6-440f-9c89-5af7f4acd041"},"vehicle_type_id":"4","last_reported":1757869626,"current_range_meters":15200,"station_id":"st_d2o4gvlbi1j2169b742g","pricing_plan_id":"cebpf4jnsgd1na2vs0mg"},{"bike_id":"319a870a-15ff-4a5d-90ce-1278355c75c3","system_id":"levelo_inurba_marseille","lat":43.28086,"lon":5.39662,"is_reserved":false,"is_disabled":false,"rental_uris":{"android":"levelo://app?vid=319a870a-15ff-4a5d-90ce-1278355c75c3","ios":"levelo://app?vid=319a870a-15ff-4a5d-90ce-1278355c75c3"},"vehicle_type_id":"4","last_reported":1757869626,"current_range_meters":15200,"station_id":"ce4bho12rcd13ifvqh2g","pricing_plan_id":"cebpf4jnsgd1na2vs0mg"},{"bike_id":"b2fba456-5a3b-40c6-8765-ad84661db187","system_id":"levelo_inurba_marseille","lat":43.257205,"lon":5.411136,"is_reserved":false,"is_disabled":true,"rental_uris":{"android":"levelo://app?vid=b2fba456-5a3b-40c6-8765-ad84661db187","ios":"levelo://app?vid=b2fba456-5a3b-40c6-8765-ad84661db187"},"vehicle_type_id":"4","last_reported":1757869626,"current_range_meters":15200,"station_id":"ce4bhkp2rcd13ifvqgd0","pricing_plan_id":"cebpf4jnsgd1na2vs0mg"},{"bike_id":"f57245bb-ec07-45a1-bfcb-432e5ec88da0","system_id":"levelo_inurba_marseille","lat":43.25004,"lon":5.38914,"is_reserved":false,"is_disabled":false,"rental_uris":{"android":"levelo://app?vid=f57245bb-ec07-45a1-bfcb-432e5ec88da0","ios":"levelo://app?vid=f57245bb-ec07-45a1-bfcb-432e5ec88da0"},"vehicle_type_id":"4","last_reported":1757869626,"current_range_meters":15200,"station_id":"ce4bhgp2rcd13ifvqfd0","pricing_plan_id":"cebpf4jnsgd1na2vs0mg"},{"bike_id":"1e96a3ea-2e1f-49f3-ae32-412b81a212ae","system_id":"levelo_inurba_marseille","lat":43.31711,"lon":5.37766,"is_reserved":false,"is_disabled":false,"rental_uris":{"android":"levelo://app?vid=1e96a3ea-2e1f-49f3-ae32-412b81a212ae","ios":"levelo://app?vid=1e96a3ea-2e1f-49f3-ae32-412b81a212ae"},"vehicle_type_id":"4","last_reported":1757869626,"current_range_meters":15200,"station_id":"ce4bgth2rcd13ifvqch0","pricing_plan_id":"cebpf4jnsgd1na2vs0mg"},{"bike_id":"e05eea5e-3ede-4b75-8a49-e9854c3d159d","system_id":"levelo_inurba_marseille","lat":43.28617,"lon":5.35111,"is_reserved":false,"is_disabled":true,"rental_uris":{"android":"levelo://app?vid=e05eea5e-3ede-4b75-8a49-e9854c3d159d","ios":"levelo://app?vid=e05eea5e-3ede-4b75-8a49-e9854c3d159d"},"vehicle_type_id":"4","last_reported":1757869626,"current_range_meters":16000,"station_id":"ce4bhch2rcd13ifvqeug","pricing_plan_id":"cebpf4jnsgd1na2vs0mg"},{"bike_id":"15c12f1b-150c-43be-9134-ac05fb9a1bef","system_id":"levelo_inurba_marseille","lat":43.29073,"lon":5.37162,"is_reserved":false,"is_disabled":true,"rental_uris":{"android":"levelo://app?vid=15c12f1b-150c-43be-9134-ac05fb9a1bef","ios":"levelo://app?vid=15c12f1b-150c-43be-9134-ac05fb9a1bef"},"vehicle_type_id":"4","last_reported":1757869626,"current_range_meters":16000,"station_id":"ce4bh5p2rcd13ifvqe4g","pricing_plan_id":"cebpf4jnsgd1na2vs0mg"},{"bike_id":"b002a392-08fa-4b2e-b212-3e002cd96c5d","system_id":"levelo_inurba_marseille","lat":43.23967,"lon":5.36624,"is_reserved":false,"is_disabled":false,"rental_uris":{"android":"levelo://app?vid=b002a392-08fa-4b2e-b212-3e002cd96c5d","ios":"levelo://app?vid=b002a392-08fa-4b2e-b212-3e002cd96c5d"},"vehicle_type_id":"4","last_reported":1757869626,"current_range_meters":16000,"station_id":"ce4bhi12rcd13ifvqfp0","pricing_plan_id":"cebpf4jnsgd1na2vs0mg"},{"bike_id":"41a75c27-32db-4960-adb3-f8396c08585f","system_id":"levelo_inurba_marseille","lat":43.28731,"lon":5.36097,"is_reserved":false,"is_disabled":false,"rental_uris":{"android":"levelo://app?vid=41a75c27-32db-4960-adb3-f8396c08585f","ios":"levelo://app?vid=41a75c27-32db-4960-adb3-f8396c08585f"},"vehicle_type_id":"4","last_reported":1757869626,"current_range_meters":16000,"station_id":"cki0cbj6b192h4jlfktg","pricing_plan_id":"cebpf4jnsgd1na2vs0mg"},{"bike_id":"aa7ff02d-adf0-4a6f-a17c-4587563d0d9c","system_id":"levelo_inurba_marseille","lat":43.27429,"lon":5.39414,"is_reserved":false,"is_disabled":false,"rental_uris":{"android":"levelo://app?vid=aa7ff02d-adf0-4a6f-a17c-4587563d0d9c","ios":"levelo://app?vid=aa7ff02d-adf0-4a6f-a17c-4587563d0d9c"},"vehicle_type_id":"4","last_reported":1757869626,"current_range_meters":16000,"station_id":"ce4bhdp2rcd13ifvqf20","pricing_plan_id":"cebpf4jnsgd1na2vs0mg"},{"bike_id":"afb9a5ff-60a7-4cd3-8986-595160b86226","system_id":"levelo_inurba_marseille","lat":43.2842,"lon":5.34993,"is_reserved":false,"is_disabled":false,"rental_uris":{"android":"levelo://app?vid=afb9a5ff-60a7-4cd3-8986-595160b86226","ios":"levelo://app?vid=afb9a5ff-60a7-4cd3-8986-595160b86226"},"vehicle_type_id":"4","last_reported":1757869626,"current_range_meters":16000,"station_id":"ce4bhbh2rcd13ifvqepg","pricing_plan_id":"cebpf4jnsgd1na2vs0mg"},{"bike_id":"12f1394b-bb48-4fbe-ac41-fe01aa9a3d00","system_id":"levelo_inurba_marseille","lat":43.23962,"lon":5.36639,"is_reserved":false,"is_disabled":false,"rental_uris":{"android":"levelo://app?vid=12f1394b-bb48-4fbe-ac41-fe01aa9a3d00","ios":"levelo://app?vid=12f1394b-bb48-4fbe-ac41-fe01aa9a3d00"},"vehicle_type_id":"4","last_reported":1757869626,"current_range_meters":16000,"station_id":"ce4bhi12rcd13ifvqfp0","pricing_plan_id":"cebpf4jnsgd1na2vs0mg"},{"bike_id":"1d00b1da-40ae-48d9-b03f-193c191a67f1","system_id":"levelo_inurba_marseille","lat":43.29251,"lon":5.40909,"is_reserved":false,"is_disabled":true,"rental_uris":{"android":"levelo://app?vid=1d00b1da-40ae-48d9-b03f-193c191a67f1","ios":"levelo://app?vid=1d00b1da-40ae-48d9-b03f-193c191a67f1"},"vehicle_type_id":"4","last_reported":1757869626,"current_range_meters":16400,"station_id":"ce4bh192rcd13ifvqdc0","pricing_plan_id":"cebpf4jnsgd1na2vs0mg"},{"bike_id":"950a5f0c-6122-4d8d-a42b-4763023d14f2","system_id":"levelo_inurba_marseille","lat":43.2549,"lon":5.37647,"is_reserved":false,"is_disabled":true,"rental_uris":{"android":"levelo://app?vid=950a5f0c-6122-4d8d-a42b-4763023d14f2","ios":"levelo://app?vid=950a5f0c-6122-4d8d-a42b-4763023d14f2"},"vehicle_type_id":"4","last_reported":1757869626,"current_range_meters":16400,"station_id":"ce4bhh12rcd13ifvqff0","pricing_plan_id":"cebpf4jnsgd1na2vs0mg"},{"bike_id":"f91317c6-4f2e-4fcf-9e14-aa37028f4f5d","system_id":"levelo_inurba_marseille","lat":43.31231,"lon":5.36864,"is_reserved":false,"is_disabled":false,"rental_uris":{"android":"levelo://app?vid=f91317c6-4f2e-4fcf-9e14-aa37028f4f5d","ios":"levelo://app?vid=f91317c6-4f2e-4fcf-9e14-aa37028f4f5d"},"vehicle_type_id":"4","last_reported":1757869626,"current_range_meters":16400,"station_id":"ce4bgl92rcd13ifvqbq0","pricing_plan_id":"cebpf4jnsgd1na2vs0mg"},{"bike_id":"8f04fe6a-b496-4a33-88d0-7a57c81f211d","system_id":"levelo_inurba_marseille","lat":43.24389,"lon":5.37066,"is_reserved":false,"is_disabled":true,"rental_uris":{"android":"levelo://app?vid=8f04fe6a-b496-4a33-88d0-7a57c81f211d","ios":"levelo://app?vid=8f04fe6a-b496-4a33-88d0-7a57c81f211d"},"vehicle_type_id":"4","last_reported":1757869626,"current_range_meters":16400,"station_id":"ce4bhhh2rcd13ifvqfk0","pricing_plan_id":"cebpf4jnsgd1na2vs0mg"},{"bike_id":"a2a9e70a-c4ff-4147-80bb-641e2d519899","system_id":"levelo_inurba_marseille","lat":43.24168,"lon":5.36403,"is_reserved":false,"is_disabled":false,"rental_uris":{"android":"levelo://app?vid=a2a9e70a-c4ff-4147-80bb-641e2d519899","ios":"levelo://app?vid=a2a9e70a-c4ff-4147-80bb-641e2d519899"},"vehicle_type_id":"4","last_reported":1757869626,"current_range_meters":16400,"station_id":"cpo36qri1sfpv3e86is0","pricing_plan_id":"cebpf4jnsgd1na2vs0mg"},{"bike_id":"c05baab9-fa8e-476d-91a2-b5ffd93a6701","system_id":"levelo_inurba_marseille","lat":43.24991,"lon":5.38954,"is_reserved":false,"is_disabled":false,"rental_uris":{"android":"levelo://app?vid=c05baab9-fa8e-476d-91a2-b5ffd93a6701","ios":"levelo://app?vid=c05baab9-fa8e-476d-91a2-b5ffd93a6701"},"vehicle_type_id":"4","last_reported":1757869626,"current_range_meters":16400,"station_id":"ce4bhgp2rcd13ifvqfd0","pricing_plan_id":"cebpf4jnsgd1na2vs0mg"},{"bike_id":"7126826c-d5fc-45a5-b8dd-c23c72091844","system_id":"levelo_inurba_marseille","lat":43.29881,"lon":5.38898,"is_reserved":false,"is_disabled":false,"rental_uris":{"android":"levelo://app?vid=7126826c-d5fc-45a5-b8dd-c23c72091844","ios":"levelo://app?vid=7126826c-d5fc-45a5-b8dd-c23c72091844"},"vehicle_type_id":"4","last_reported":1757869626,"current_range_meters":16400,"station_id":"ce4bh392rcd13ifvqdl0","pricing_plan_id":"cebpf4jnsgd1na2vs0mg"},{"bike_id":"853a4893-339d-477d-bd8c-74a3256e3b0a","system_id":"levelo_inurba_marseille","lat":43.284232,"lon":5.34967,"is_reserved":false,"is_disabled":false,"rental_uris":{"android":"levelo://app?vid=853a4893-339d-477d-bd8c-74a3256e3b0a","ios":"levelo://app?vid=853a4893-339d-477d-bd8c-74a3256e3b0a"},"vehicle_type_id":"4","last_reported":1757869626,"current_range_meters":16400,"station_id":"ce4bhbh2rcd13ifvqepg","pricing_plan_id":"cebpf4jnsgd1na2vs0mg"},{"bike_id":"fcc92c8a-d905-4675-8ff1-4d5bd3577157","system_id":"levelo_inurba_marseille","lat":43.29228,"lon":5.36074,"is_reserved":false,"is_disabled":false,"rental_uris":{"android":"levelo://app?vid=fcc92c8a-d905-4675-8ff1-4d5bd3577157","ios":"levelo://app?vid=fcc92c8a-d905-4675-8ff1-4d5bd3577157"},"vehicle_type_id":"4","last_reported":1757869626,"current_range_meters":17600,"station_id":"ce4bhbh2rcd13ifvqeqg","pricing_plan_id":"cebpf4jnsgd1na2vs0mg"},{"bike_id":"93a9ef8d-5c6c-4337-afb6-735d3541b0eb","system_id":"levelo_inurba_marseille","lat":43.255756,"lon":5.38236,"is_reserved":false,"is_disabled":false,"rental_uris":{"android":"levelo://app?vid=93a9ef8d-5c6c-4337-afb6-735d3541b0eb","ios":"levelo://app?vid=93a9ef8d-5c6c-4337-afb6-735d3541b0eb"},"vehicle_type_id":"4","last_reported":1757869626,"current_range_meters":16800,"station_id":"ce4bhih2rcd13ifvqfs0","pricing_plan_id":"cebpf4jnsgd1na2vs0mg"},{"bike_id":"046ba709-b940-4fa3-9690-1d81db536e4b","system_id":"levelo_inurba_marseille","lat":43.22558,"lon":5.416219,"is_reserved":false,"is_disabled":false,"rental_uris":{"android":"levelo://app?vid=046ba709-b940-4fa3-9690-1d81db536e4b","ios":"levelo://app?vid=046ba709-b940-4fa3-9690-1d81db536e4b"},"vehicle_type_id":"4","last_reported":1757869626,"current_range_meters":16800,"station_id":"st_d2o4gvlbi1j2169b742g","pricing_plan_id":"cebpf4jnsgd1na2vs0mg"},{"bike_id":"322c1f5a-85db-4ef6-bcd4-1b5c417c8ee0","system_id":"levelo_inurba_marseille","lat":43.3377,"lon":5.37488,"is_reserved":false,"is_disabled":false,"rental_uris":{"android":"levelo://app?vid=322c1f5a-85db-4ef6-bcd4-1b5c417c8ee0","ios":"levelo://app?vid=322c1f5a-85db-4ef6-bcd4-1b5c417c8ee0"},"vehicle_type_id":"4","last_reported":1757869626,"current_range_meters":16800,"station_id":"","pricing_plan_id":"cebpf4jnsgd1na2vs0mg"},{"bike_id":"95251c11-6699-4aa0-8909-a444151e2dc9","system_id":"levelo_inurba_marseille","lat":43.24096,"lon":5.37789,"is_reserved":false,"is_disabled":false,"rental_uris":{"android":"levelo://app?vid=95251c11-6699-4aa0-8909-a444151e2dc9","ios":"levelo://app?vid=95251c11-6699-4aa0-8909-a444151e2dc9"},"vehicle_type_id":"4","last_reported":1757869626,"current_range_meters":16800,"station_id":"ce4bhnp2rcd13ifvqgvg","pricing_plan_id":"cebpf4jnsgd1na2vs0mg"},{"bike_id":"749532c5-84cf-4e92-b2e4-6bfb3c08b903","system_id":"levelo_inurba_marseille","lat":43.23964,"lon":5.36625,"is_reserved":false,"is_disabled":false,"rental_uris":{"android":"levelo://app?vid=749532c5-84cf-4e92-b2e4-6bfb3c08b903","ios":"levelo://app?vid=749532c5-84cf-4e92-b2e4-6bfb3c08b903"},"vehicle_type_id":"4","last_reported":1757869626,"current_range_meters":16800,"station_id":"ce4bhi12rcd13ifvqfp0","pricing_plan_id":"cebpf4jnsgd1na2vs0mg"},{"bike_id":"61b5e2ab-23d1-4d4a-bafe-b928c59cfc58","system_id":"levelo_inurba_marseille","lat":43.288574,"lon":5.358625,"is_reserved":false,"is_disabled":false,"rental_uris":{"android":"levelo://app?vid=61b5e2ab-23d1-4d4a-bafe-b928c59cfc58","ios":"levelo://app?vid=61b5e2ab-23d1-4d4a-bafe-b928c59cfc58"},"vehicle_type_id":"4","last_reported":1757869626,"current_range_meters":16800,"station_id":"ce4bhb12rcd13ifvqem0","pricing_plan_id":"cebpf4jnsgd1na2vs0mg"},{"bike_id":"2f1da71e-a47e-425a-831f-076af0e30a51","system_id":"levelo_inurba_marseille","lat":43.29524,"lon":5.37494,"is_reserved":false,"is_disabled":false,"rental_uris":{"android":"levelo://app?vid=2f1da71e-a47e-425a-831f-076af0e30a51","ios":"levelo://app?vid=2f1da71e-a47e-425a-831f-076af0e30a51"},"vehicle_type_id":"4","last_reported":1757869626,"current_range_meters":17200,"station_id":"ce4bgkp2rcd13ifvqbmg","pricing_plan_id":"cebpf4jnsgd1na2vs0mg"},{"bike_id":"0c6fe877-1024-4901-84e8-0fbaefe45584","system_id":"levelo_inurba_marseille","lat":43.334338,"lon":5.400586,"is_reserved":false,"is_disabled":false,"rental_uris":{"android":"levelo://app?vid=0c6fe877-1024-4901-84e8-0fbaefe45584","ios":"levelo://app?vid=0c6fe877-1024-4901-84e8-0fbaefe45584"},"vehicle_type_id":"4","last_reported":1757869626,"current_range_meters":17200,"station_id":"","pricing_plan_id":"cebpf4jnsgd1na2vs0mg"},{"bike_id":"ebc28d3f-48e0-4c19-84dd-0c3a04a1ca62","system_id":"levelo_inurba_marseille","lat":43.25881,"lon":5.39929,"is_reserved":false,"is_disabled":true,"rental_uris":{"android":"levelo://app?vid=ebc28d3f-48e0-4c19-84dd-0c3a04a1ca62","ios":"levelo://app?vid=ebc28d3f-48e0-4c19-84dd-0c3a04a1ca62"},"vehicle_type_id":"4","last_reported":1757869626,"current_range_meters":17200,"station_id":"ce4bhl92rcd13ifvqghg","pricing_plan_id":"cebpf4jnsgd1na2vs0mg"},{"bike_id":"c9f82b86-7ced-43c5-8bc4-fa83f1b9c33c","system_id":"levelo_inurba_marseille","lat":43.24665,"lon":5.38165,"is_reserved":false,"is_disabled":false,"rental_uris":{"android":"levelo://app?vid=c9f82b86-7ced-43c5-8bc4-fa83f1b9c33c","ios":"levelo://app?vid=c9f82b86-7ced-43c5-8bc4-fa83f1b9c33c"},"vehicle_type_id":"4","last_reported":1757869626,"current_range_meters":17200,"station_id":"ce4bhih2rcd13ifvqfr0","pricing_plan_id":"cebpf4jnsgd1na2vs0mg"},{"bike_id":"0de961b7-95cf-46a6-9afb-a8225b137cc9","system_id":"levelo_inurba_marseille","lat":43.22565,"lon":5.41628,"is_reserved":false,"is_disabled":false,"rental_uris":{"android":"levelo://app?vid=0de961b7-95cf-46a6-9afb-a8225b137cc9","ios":"levelo://app?vid=0de961b7-95cf-46a6-9afb-a8225b137cc9"},"vehicle_type_id":"4","last_reported":1757869626,"current_range_meters":17200,"station_id":"st_d2o4gvlbi1j2169b742g","pricing_plan_id":"cebpf4jnsgd1na2vs0mg"},{"bike_id":"32030184-da1c-49cd-aa1d-350c44db43e0","system_id":"levelo_inurba_marseille","lat":43.26193,"lon":5.37452,"is_reserved":false,"is_disabled":false,"rental_uris":{"android":"levelo://app?vid=32030184-da1c-49cd-aa1d-350c44db43e0","ios":"levelo://app?vid=32030184-da1c-49cd-aa1d-350c44db43e0"},"vehicle_type_id":"4","last_reported":1757869626,"current_range_meters":17200,"station_id":"ce4bhgp2rcd13ifvqfc0","pricing_plan_id":"cebpf4jnsgd1na2vs0mg"},{"bike_id":"cab5b54c-2e29-4b50-b4a7-ceebd50500cd","system_id":"levelo_inurba_marseille","lat":43.2508,"lon":5.39528,"is_reserved":false,"is_disabled":false,"rental_uris":{"android":"levelo://app?vid=cab5b54c-2e29-4b50-b4a7-ceebd50500cd","ios":"levelo://app?vid=cab5b54c-2e29-4b50-b4a7-ceebd50500cd"},"vehicle_type_id":"4","last_reported":1757869626,"current_range_meters":17200,"station_id":"ce4bhm12rcd13ifvqgkg","pricing_plan_id":"cebpf4jnsgd1na2vs0mg"},{"bike_id":"60df5be0-868d-496d-a7cc-2e097de1a47a","system_id":"levelo_inurba_marseille","lat":43.22557,"lon":5.41628,"is_reserved":false,"is_disabled":false,"rental_uris":{"android":"levelo://app?vid=60df5be0-868d-496d-a7cc-2e097de1a47a","ios":"levelo://app?vid=60df5be0-868d-496d-a7cc-2e097de1a47a"},"vehicle_type_id":"4","last_reported":1757869626,"current_range_meters":17200,"station_id":"st_d2o4gvlbi1j2169b742g","pricing_plan_id":"cebpf4jnsgd1na2vs0mg"},{"bike_id":"a4d60757-8148-4188-859b-b82a0e651636","system_id":"levelo_inurba_marseille","lat":43.31329,"lon":5.39708,"is_reserved":false,"is_disabled":false,"rental_uris":{"android":"levelo://app?vid=a4d60757-8148-4188-859b-b82a0e651636","ios":"levelo://app?vid=a4d60757-8148-4188-859b-b82a0e651636"},"vehicle_type_id":"4","last_reported":1757869626,"current_range_meters":17200,"station_id":"ce4bgvp2rcd13ifvqcu0","pricing_plan_id":"cebpf4jnsgd1na2vs0mg"},{"bike_id":"7640ce71-9077-4b50-a925-b3f92b74ee4b","system_id":"levelo_inurba_marseille","lat":43.293003,"lon":5.371578,"is_reserved":false,"is_disabled":false,"rental_uris":{"android":"levelo://app?vid=7640ce71-9077-4b50-a925-b3f92b74ee4b","ios":"levelo://app?vid=7640ce71-9077-4b50-a925-b3f92b74ee4b"},"vehicle_type_id":"4","last_reported":1757869626,"current_range_meters":17600,"station_id":"ce4bgh92rcd13ifvqb40","pricing_plan_id":"cebpf4jnsgd1na2vs0mg"},{"bike_id":"f2d58183-71d0-47a7-99fa-c9648519790c","system_id":"levelo_inurba_marseille","lat":43.28341,"lon":5.38107,"is_reserved":false,"is_disabled":false,"rental_uris":{"android":"levelo://app?vid=f2d58183-71d0-47a7-99fa-c9648519790c","ios":"levelo://app?vid=f2d58183-71d0-47a7-99fa-c9648519790c"},"vehicle_type_id":"4","last_reported":1757869626,"current_range_meters":17600,"station_id":"ce4bh412rcd13ifvqdr0","pricing_plan_id":"cebpf4jnsgd1na2vs0mg"},{"bike_id":"2652b4d2-6350-43ce-a637-b16535b8137a","system_id":"levelo_inurba_marseille","lat":43.29023,"lon":5.38653,"is_reserved":false,"is_disabled":false,"rental_uris":{"android":"levelo://app?vid=2652b4d2-6350-43ce-a637-b16535b8137a","ios":"levelo://app?vid=2652b4d2-6350-43ce-a637-b16535b8137a"},"vehicle_type_id":"4","last_reported":1757869626,"current_range_meters":17600,"station_id":"ce4bh4p2rcd13ifvqe0g","pricing_plan_id":"cebpf4jnsgd1na2vs0mg"},{"bike_id":"cb9f0282-7456-4e8a-a3f3-8010ac0934c0","system_id":"levelo_inurba_marseille","lat":43.28104,"lon":5.37869,"is_reserved":false,"is_disabled":false,"rental_uris":{"android":"levelo://app?vid=cb9f0282-7456-4e8a-a3f3-8010ac0934c0","ios":"levelo://app?vid=cb9f0282-7456-4e8a-a3f3-8010ac0934c0"},