{"last_updated":1736323980,"ttl":60,"version":"2.2","data":{"bikes":[{"bike_id":"89421f62-06fd-4b68-bcb1-b94fd7ea6d26","system_id":"levelo_inurba_marseille","lat":43.32362,"lon":5.38891,"is_reserved":false,"is_disabled":false,"rental_uris":{"android":"levelo://app?vid=89421f62-06fd-4b68-bcb1-b94fd7ea6d26","ios":"levelo://app?vid=89421f62-06fd-4b68-bcb1-b94fd7ea6d26"},"vehicle_type_id":"4","last_reported":1736323980,"current_range_meters":18000,"station_id":"ce4bhqp2rcd13ifvqhog","pricing_plan_id":"cebpf4jnsgd1na2vs0mg"},{"bike_id":"243c166b-b7ae-4ee3-a168-8156f749039e","system_id":"levelo_inurba_marseille","lat":43.27819,"lon":5.40714,"is_reserved":false,"is_disabled":false,"rental_uris":{"android":"levelo://app?vid=243c166b-b7ae-4ee3-a168-8156f749039e","ios":"levelo://app?vid=243c166b-b7ae-4ee3-a168-8156f749039e"},"vehicle_type_id":"4","last_reported":1736323980,"current_range_meters":37600,"station_id":"ce4bhnh2rcd13ifvqgtg","pricing_plan_id":"cebpf4jnsgd1na2vs0mg"},{"bike_id":"19aa1d25-f781-496a-bbb9-147e19783b08","system_id":"levelo_inurba_marseille","lat":43.29553,"lon":5.42282,"is_reserved":false,"is_disabled":false,"rental_uris":{"android":"levelo://app?vid=19aa1d25-f781-496a-bbb9-147e19783b08","ios":"levelo://app?vid=19aa1d25-f781-496a-bbb9-147e19783b08"},"vehicle_type_id":"4","last_reported":1736323980,"current_range_meters":37600,"station_id":"ce4bhph2rcd13ifvqhdg","pricing_plan_id":"cebpf4jnsgd1na2vs0mg"},{"bike_id":"f98d5c26-fc14-42dd-adca-41d68eb164ac","system_id":"levelo_inurba_marseille","lat":43.24075,"lon":5.37757,"is_reserved":false,"is_disabled":false,"rental_uris":{"android":"levelo://app?vid=f98d5c26-fc14-42dd-adca-41d68eb164ac","ios":"levelo://app?vid=f98d5c26-fc14-42dd-adca-41d68eb164ac"},"vehicle_type_id":"4","last_reported":1736323980,"current_range_meters":17600,"station_id":"ce4bhnp2rcd13ifvqgvg","pricing_plan_id":"cebpf4jnsgd1na2vs0mg"},{"bike_id":"0c5773c5-3d12-4e34-8534-86a4c78bef29","system_id":"levelo_inurba_marseille","lat":43.29096,"lon":5.38117,"is_reserved":false,"is_disabled":false,"rental_uris":{"android":"levelo://app?vid=0c5773c5-3d12-4e34-8534-86a4c78bef29","ios":"levelo://app?vid=0c5773c5-3d12-4e34-8534-86a4c78bef29"},"vehicle_type_id":"4","last_reported":1736323980,"current_range_meters":23200,"station_id":"ce4bh512rcd13ifvqe2g","pricing_plan_id":"cebpf4jnsgd1na2vs0mg"},{"bike_id":"c9a62b43-7132-46b7-a7a3-6aa585d491f4","system_id":"levelo_inurba_marseille","lat":43.29419,"lon":5.376492,"is_reserved":false,"is_disabled":false,"rental_uris":{"android":"levelo://app?vid=c9a62b43-7132-46b7-a7a3-6aa585d491f4","ios":"levelo://app?vid=c9a62b43-7132-46b7-a7a3-6aa585d491f4"},"vehicle_type_id":"4","last_reported":1736323980,"current_range_meters":24400,"station_id":"ce4bgm92rcd13ifvqbr0","pricing_plan_id":"cebpf4jnsgd1na2vs0mg"},{"bike_id":"a289fb1b-5f21-48af-a806-ce60b8382da2","system_id":"levelo_inurba_marseille","lat":43.22929,"lon":5.35377,"is_reserved":false,"is_disabled":false,"rental_uris":{"android":"levelo://app?vid=a289fb1b-5f21-48af-a806-ce60b8382da2","ios":"levelo://app?vid=a289fb1b-5f21-48af-a806-ce60b8382da2"},"vehicle_type_id":"4","last_reported":1736323980,"current_range_meters":6400,"station_id":"cpo3532slgdg3j2ikp40","pricing_plan_id":"cebpf4jnsgd1na2vs0mg"},{"bike_id":"55d08fde-ac2b-4230-9985-be7440636dea","system_id":"levelo_inurba_marseille","lat":43.27491,"lon":5.42451,"is_reserved":false,"is_disabled":false,"rental_uris":{"android":"levelo://app?vid=55d08fde-ac2b-4230-9985-be7440636dea","ios":"levelo://app?vid=55d08fde-ac2b-4230-9985-be7440636dea"},"vehicle_type_id":"4","last_reported":1736323980,"current_range_meters":23200,"station_id":"ce4bhn92rcd13ifvqgrg","pricing_plan_id":"cebpf4jnsgd1na2vs0mg"},{"bike_id":"0c06f679-85b2-4f8b-8237-3c1bdba6d34d","system_id":"levelo_inurba_marseille","lat":43.27209,"lon":5.40995,"is_reserved":false,"is_disabled":false,"rental_uris":{"android":"levelo://app?vid=0c06f679-85b2-4f8b-8237-3c1bdba6d34d","ios":"levelo://app?vid=0c06f679-85b2-4f8b-8237-3c1bdba6d34d"},"vehicle_type_id":"4","last_reported":1736323980,"current_range_meters":38000,"station_id":"ce4bhl12rcd13ifvqgf0","pricing_plan_id":"cebpf4jnsgd1na2vs0mg"},{"bike_id":"05a2c15a-fb68-455c-8082-fdf747a62fe7","system_id":"levelo_inurba_marseille","lat":43.27817,"lon":5.40713,"is_reserved":false,"is_disabled":false,"rental_uris":{"android":"levelo://app?vid=05a2c15a-fb68-455c-8082-fdf747a62fe7","ios":"levelo://app?vid=05a2c15a-fb68-455c-8082-fdf747a62fe7"},"vehicle_type_id":"4","last_reported":1736323980,"current_range_meters":36800,"station_id":"ce4bhnh2rcd13ifvqgtg","pricing_plan_id":"cebpf4jnsgd1na2vs0mg"},{"bike_id":"4b29141b-4a03-4076-8d70-de5cc02e29f3","system_id":"levelo_inurba_marseille","lat":43.25828,"lon":5.39432,"is_reserved":false,"is_disabled":true,"rental_uris":{"android":"levelo://app?vid=4b29141b-4a03-4076-8d70-de5cc02e29f3","ios":"levelo://app?vid=4b29141b-4a03-4076-8d70-de5cc02e29f3"},"vehicle_type_id":"4","last_reported":1736323980,"current_range_meters":33200,"station_id":"ce4bhip2rcd13ifvqft0","pricing_plan_id":"cebpf4jnsgd1na2vs0mg"},{"bike_id":"188565a5-3bc0-4691-9e17-249c13b6736e","system_id":"levelo_inurba_marseille","lat":43.27175,"lon":5.40998,"is_reserved":false,"is_disabled":false,"rental_uris":{"android":"levelo://app?vid=188565a5-3bc0-4691-9e17-249c13b6736e","ios":"levelo://app?vid=188565a5-3bc0-4691-9e17-249c13b6736e"},"vehicle_type_id":"4","last_reported":1736323980,"current_range_meters":28400,"station_id":"ce4bhl12rcd13ifvqgf0","pricing_plan_id":"cebpf4jnsgd1na2vs0mg"},{"bike_id":"fb5d34fe-b00e-4645-b258-427113ce03d0","system_id":"levelo_inurba_marseille","lat":43.2866,"lon":5.36343,"is_reserved":false,"is_disabled":false,"rental_uris":{"android":"levelo://app?vid=fb5d34fe-b00e-4645-b258-427113ce03d0","ios":"levelo://app?vid=fb5d34fe-b00e-4645-b258-427113ce03d0"},"vehicle_type_id":"4","last_reported":1736323980,"current_range_meters":38800,"station_id":"ce4bhah2rcd13ifvqej0","pricing_plan_id":"cebpf4jnsgd1na2vs0mg"},{"bike_id":"2e3020fc-739e-484f-aff1-968aa18f2ac1","system_id":"levelo_inurba_marseille","lat":43.27984,"lon":5.41671,"is_reserved":false,"is_disabled":true,"rental_uris":{"android":"levelo://app?vid=2e3020fc-739e-484f-aff1-968aa18f2ac1","ios":"levelo://app?vid=2e3020fc-739e-484f-aff1-968aa18f2ac1"},"vehicle_type_id":"4","last_reported":1736323980,"current_range_meters":30800,"station_id":"ce4bho12rcd13ifvqh1g","pricing_plan_id":"cebpf4jnsgd1na2vs0mg"},{"bike_id":"508712e8-c246-4ef4-9b9e-20f18ed4e9a4","system_id":"levelo_inurba_marseille","lat":43.274893,"lon":5.424633,"is_reserved":false,"is_disabled":false,"rental_uris":{"android":"levelo://app?vid=508712e8-c246-4ef4-9b9e-20f18ed4e9a4","ios":"levelo://app?vid=508712e8-c246-4ef4-9b9e-20f18ed4e9a4"},"vehicle_type_id":"4","last_reported":1736323980,"current_range_meters":16400,"station_id":"ce4bhn92rcd13ifvqgrg","pricing_plan_id":"cebpf4jnsgd1na2vs0mg"},{"bike_id":"54706f4d-3807-4316-80c4-c6c99386bb04","system_id":"levelo_inurba_marseille","lat":43.26685,"lon":5.38268,"is_reserved":false,"is_disabled":false,"rental_uris":{"android":"levelo://app?vid=54706f4d-3807-4316-80c4-c6c99386bb04","ios":"levelo://app?vid=54706f4d-3807-4316-80c4-c6c99386bb04"},"vehicle_type_id":"4","last_reported":1736323980,"current_range_meters":24800,"station_id":"ce4bhg92rcd13ifvqf90","pricing_plan_id":"cebpf4jnsgd1na2vs0mg"},{"bike_id":"8b7b03a4-76c0-429d-86c4-2cba528f75db","system_id":"levelo_inurba_marseille","lat":43.32353,"lon":5.38905,"is_reserved":false,"is_disabled":true,"rental_uris":{"android":"levelo://app?vid=8b7b03a4-76c0-429d-86c4-2cba528f75db","ios":"levelo://app?vid=8b7b03a4-76c0-429d-86c4-2cba528f75db"},"vehicle_type_id":"4","last_reported":1736323980,"current_range_meters":1200,"station_id":"ce4bhqp2rcd13ifvqhog","pricing_plan_id":"cebpf4jnsgd1na2vs0mg"},{"bike_id":"d4e6248e-5526-47d5-86cf-f46afb735eb2","system_id":"levelo_inurba_marseille","lat":43.27487,"lon":5.42457,"is_reserved":false,"is_disabled":false,"rental_uris":{"android":"levelo://app?vid=d4e6248e-5526-47d5-86cf-f46afb735eb2","ios":"levelo://app?vid=d4e6248e-5526-47d5-86cf-f46afb735eb2"},"vehicle_type_id":"4","last_reported":1736323980,"current_range_meters":30000,"station_id":"ce4bhn92rcd13ifvqgrg","pricing_plan_id":"cebpf4jnsgd1na2vs0mg"},{"bike_id":"e1d67e76-e9ef-43a5-b307-2704c03519b0","system_id":"levelo_inurba_marseille","lat":43.28924,"lon":5.39696,"is_reserved":false,"is_disabled":false,"rental_uris":{"android":"levelo://app?vid=e1d67e76-e9ef-43a5-b307-2704c03519b0","ios":"levelo://app?vid=e1d67e76-e9ef-43a5-b307-2704c03519b0"},"vehicle_type_id":"4","last_reported":1736323980,"current_range_meters":18000,"station_id":"","pricing_plan_id":"cebpf4jnsgd1na2vs0mg"},{"bike_id":"3fd8c986-d393-40dd-a28c-67a9ff20b0ca","system_id":"levelo_inurba_marseille","lat":43.30278,"lon":5.37707,"is_reserved":false,"is_disabled":true,"rental_uris":{"android":"levelo://app?vid=3fd8c986-d393-40dd-a28c-67a9ff20b0ca","ios":"levelo://app?vid=3fd8c986-d393-40dd-a28c-67a9ff20b0ca"},"vehicle_type_id":"4","last_reported":1736323980,"current_range_meters":1600,"station_id":"ce4bguh2rcd13ifvqcj0","pricing_plan_id":"cebpf4jnsgd1na2vs0mg"},{"bike_id":"8d65b2b1-927b-45d9-8b22-6f75685ab908","system_id":"levelo_inurba_marseille","lat":43.23151,"lon":5.43712,"is_reserved":false,"is_disabled":false,"rental_uris":{"android":"levelo://app?vid=8d65b2b1-927b-45d9-8b22-6f75685ab908","ios":"levelo://app?vid=8d65b2b1-927b-45d9-8b22-6f75685ab908"},"vehicle_type_id":"4","last_reported":1736323980,"current_range_meters":39200,"station_id":"ce4bhmp2rcd13ifvqgog","pricing_plan_id":"cebpf4jnsgd1na2vs0mg"},{"bike_id":"671cb47d-9fac-43ba-b6de-bc1b35ae3f1b","system_id":"levelo_inurba_marseille","lat":43.29013,"lon":5.35594,"is_reserved":false,"is_disabled":false,"rental_uris":{"android":"levelo://app?vid=671cb47d-9fac-43ba-b6de-bc1b35ae3f1b","ios":"levelo://app?vid=671cb47d-9fac-43ba-b6de-bc1b35ae3f1b"},"vehicle_type_id":"4","last_reported":1736323980,"current_range_meters":26000,"station_id":"ce4bhb92rcd13ifvqen0","pricing_plan_id":"cebpf4jnsgd1na2vs0mg"},{"bike_id":"b07d00a8-6032-4d59-abf5-d2c19c2da952","system_id":"levelo_inurba_marseille","lat":43.31342,"lon":5.36703,"is_reserved":false,"is_disabled":false,"rental_uris":{"android":"levelo://app?vid=b07d00a8-6032-4d59-abf5-d2c19c2da952","ios":"levelo://app?vid=b07d00a8-6032-4d59-abf5-d2c19c2da952"},"vehicle_type_id":"4","last_reported":1736323980,"current_range_meters":10000,"station_id":"ce4bgr92rcd13ifvqc6g","pricing_plan_id":"cebpf4jnsgd1na2vs0mg"},{"bike_id":"f8c4877a-beee-4798-92eb-04e9371f94d3","system_id":"levelo_inurba_marseille","lat":43.24385,"lon":5.37052,"is_reserved":false,"is_disabled":false,"rental_uris":{"android":"levelo://app?vid=f8c4877a-beee-4798-92eb-04e9371f94d3","ios":"levelo://app?vid=f8c4877a-beee-4798-92eb-04e9371f94d3"},"vehicle_type_id":"4","last_reported":1736323980,"current_range_meters":38800,"station_id":"ce4bhhh2rcd13ifvqfk0","pricing_plan_id":"cebpf4jnsgd1na2vs0mg"},{"bike_id":"798bde8a-387a-42aa-9e2e-18ba4858cfd2","system_id":"levelo_inurba_marseille","lat":43.28453,"lon":5.35884,"is_reserved":false,"is_disabled":false,"rental_uris":{"android":"levelo://app?vid=798bde8a-387a-42aa-9e2e-18ba4858cfd2","ios":"levelo://app?vid=798bde8a-387a-42aa-9e2e-18ba4858cfd2"},"vehicle_type_id":"4","last_reported":1736323980,"current_range_meters":22000,"station_id":"ce4bhah2rcd13ifvqei0","pricing_plan_id":"cebpf4jnsgd1na2vs0mg"},{"bike_id":"d201fd91-b116-47c6-b879-fa489756dca6","system_id":"levelo_inurba_marseille","lat":43.24077,"lon":5.37758,"is_reserved":false,"is_disabled":false,"rental_uris":{"android":"levelo://app?vid=d201fd91-b116-47c6-b879-fa489756dca6","ios":"levelo://app?vid=d201fd91-b116-47c6-b879-fa489756dca6"},"vehicle_type_id":"4","last_reported":1736323980,"current_range_meters":36800,"station_id":"ce4bhnp2rcd13ifvqgvg","pricing_plan_id":"cebpf4jnsgd1na2vs0mg"},{"bike_id":"f5477bd9-ae2b-4f4a-90d2-43e1d2905a20","system_id":"levelo_inurba_marseille","lat":43.28422,"lon":5.34987,"is_reserved":false,"is_disabled":false,"rental_uris":{"android":"levelo://app?vid=f5477bd9-ae2b-4f4a-90d2-43e1d2905a20","ios":"levelo://app?vid=f5477bd9-ae2b-4f4a-90d2-43e1d2905a20"},"vehicle_type_id":"4","last_reported":1736323980,"current_range_meters":20000,"station_id":"ce4bhbh2rcd13ifvqepg","pricing_plan_id":"cebpf4jnsgd1na2vs0mg"},{"bike_id":"ad036647-e9f4-4246-953d-37ee6601db50","system_id":"levelo_inurba_marseille","lat":43.24671,"lon":5.38143,"is_reserved":false,"is_disabled":false,"rental_uris":{"android":"levelo://app?vid=ad036647-e9f4-4246-953d-37ee6601db50","ios":"levelo://app?vid=ad036647-e9f4-4246-953d-37ee6601db50"},"vehicle_type_id":"4","last_reported":1736323980,"current_range_meters":11600,"station_id":"ce4bhih2rcd13ifvqfr0","pricing_plan_id":"cebpf4jnsgd1na2vs0mg"},{"bike_id":"cf99dd8e-1bed-4d5d-9f65-f0abf712f21e","system_id":"levelo_inurba_marseille","lat":43.27977,"lon":5.38784,"is_reserved":false,"is_disabled":false,"rental_uris":{"android":"levelo://app?vid=cf99dd8e-1bed-4d5d-9f65-f0abf712f21e","ios":"levelo://app?vid=cf99dd8e-1bed-4d5d-9f65-f0abf712f21e"},"vehicle_type_id":"4","last_reported":1736323980,"current_range_meters":30000,"station_id":"ce4bhg12rcd13ifvqf80","pricing_plan_id":"cebpf4jnsgd1na2vs0mg"},{"bike_id":"a25a9571-68eb-4f8c-b5c4-11cd6d79579e","system_id":"levelo_inurba_marseille","lat":43.2315,"lon":5.43706,"is_reserved":false,"is_disabled":false,"rental_uris":{"android":"levelo://app?vid=a25a9571-68eb-4f8c-b5c4-11cd6d79579e","ios":"levelo://app?vid=a25a9571-68eb-4f8c-b5c4-11cd6d79579e"},"vehicle_type_id":"4","last_reported":1736323980,"current_range_meters":22800,"station_id":"ce4bhmp2rcd13ifvqgog","pricing_plan_id":"cebpf4jnsgd1na2vs0mg"},{"bike_id":"83d61421-4a96-4675-8cf7-7779890541e6","system_id":"levelo_inurba_marseille","lat":43.31524,"lon":5.38029,"is_reserved":false,"is_disabled":false,"rental_uris":{"android":"levelo://app?vid=83d61421-4a96-4675-8cf7-7779890541e6","ios":"levelo://app?vid=83d61421-4a96-4675-8cf7-7779890541e6"},"vehicle_type_id":"4","last_reported":1736323980,"current_range_meters":38800,"station_id":"ce4bhsp2rcd13ifvqi50","pricing_plan_id":"cebpf4jnsgd1na2vs0mg"},{"bike_id":"227d7753-3708-4db4-98f6-036ee69b5100","system_id":"levelo_inurba_marseille","lat":43.32478,"lon":5.3655,"is_reserved":false,"is_disabled":false,"rental_uris":{"android":"levelo://app?vid=227d7753-3708-4db4-98f6-036ee69b5100","ios":"levelo://app?vid=227d7753-3708-4db4-98f6-036ee69b5100"},"vehicle_type_id":"4","last_reported":1736323980,"current_range_meters":20000,"station_id":"ce4bhs12rcd13ifvqhvg","pricing_plan_id":"cebpf4jnsgd1na2vs0mg"},{"bike_id":"d57e7492-0563-45b1-89e4-1aafc8796641","system_id":"levelo_inurba_marseille","lat":43.29629,"lon":5.37724,"is_reserved":false,"is_disabled":false,"rental_uris":{"android":"levelo://app?vid=d57e7492-0563-45b1-89e4-1aafc8796641","ios":"levelo://app?vid=d57e7492-0563-45b1-89e4-1aafc8796641"},"vehicle_type_id":"4","last_reported":1736323980,"current_range_meters":34800,"station_id":"ce4bgi92rcd13ifvqb90","pricing_plan_id":"cebpf4jnsgd1na2vs0mg"},{"bike_id":"c736efc7-bdd4-4760-a57b-96851815e95f","system_id":"levelo_inurba_marseille","lat":43.26509,"lon":5.39555,"is_reserved":false,"is_disabled":true,"rental_uris":{"android":"levelo://app?vid=c736efc7-bdd4-4760-a57b-96851815e95f","ios":"levelo://app?vid=c736efc7-bdd4-4760-a57b-96851815e95f"},"vehicle_type_id":"4","last_reported":1736323980,"current_range_meters":39200,"station_id":"ce4bhi12rcd13ifvqfq0","pricing_plan_id":"cebpf4jnsgd1na2vs0mg"},{"bike_id":"a1ceaab5-cc98-4739-8fba-923512224dcf","system_id":"levelo_inurba_marseille","lat":43.23194,"lon":5.35557,"is_reserved":false,"is_disabled":false,"rental_uris":{"android":"levelo://app?vid=a1ceaab5-cc98-4739-8fba-923512224dcf","ios":"levelo://app?vid=a1ceaab5-cc98-4739-8fba-923512224dcf"},"vehicle_type_id":"4","last_reported":1736323980,"current_range_meters":38800,"station_id":"ce4bhu92rcd13ifvqi70","pricing_plan_id":"cebpf4jnsgd1na2vs0mg"},{"bike_id":"0071a927-f6f8-433a-a051-21a458c8608f","system_id":"levelo_inurba_marseille","lat":43.2718,"lon":5.40994,"is_reserved":false,"is_disabled":false,"rental_uris":{"android":"levelo://app?vid=0071a927-f6f8-433a-a051-21a458c8608f","ios":"levelo://app?vid=0071a927-f6f8-433a-a051-21a458c8608f"},"vehicle_type_id":"4","last_reported":1736323980,"current_range_meters":36000,"station_id":"ce4bhl12rcd13ifvqgf0","pricing_plan_id":"cebpf4jnsgd1na2vs0mg"},{"bike_id":"670aca15-a0b5-4e9b-9f94-4d512f324a68","system_id":"levelo_inurba_marseille","lat":43.29199,"lon":5.39309,"is_reserved":false,"is_disabled":true,"rental_uris":{"android":"levelo://app?vid=670aca15-a0b5-4e9b-9f94-4d512f324a68","ios":"levelo://app?vid=670aca15-a0b5-4e9b-9f94-4d512f324a68"},"vehicle_type_id":"4","last_reported":1736323980,"current_range_meters":4800,"station_id":"ce4bh192rcd13ifvqdd0","pricing_plan_id":"cebpf4jnsgd1na2vs0mg"},{"bike_id":"0eb3ec3b-8822-4d11-a863-b63fe4ce2d15","system_id":"levelo_inurba_marseille","lat":43.298,"lon":5.3812,"is_reserved":false,"is_disabled":false,"rental_uris":{"android":"levelo://app?vid=0eb3ec3b-8822-4d11-a863-b63fe4ce2d15","ios":"levelo://app?vid=0eb3ec3b-8822-4d11-a863-b63fe4ce2d15"},"vehicle_type_id":"4","last_reported":1736323980,"current_range_meters":19600,"station_id":"ce4bgip2rcd13ifvqbb0","pricing_plan_id":"cebpf4jnsgd1na2vs0mg"},{"bike_id":"0d869571-702b-474e-9734-e51fa36b8db2","system_id":"levelo_inurba_marseille","lat":43.29187,"lon":5.39321,"is_reserved":false,"is_disabled":true,"rental_uris":{"android":"levelo://app?vid=0d869571-702b-474e-9734-e51fa36b8db2","ios":"levelo://app?vid=0d869571-702b-474e-9734-e51fa36b8db2"},"vehicle_type_id":"4","last_reported":1736323980,"current_range_meters":4400,"station_id":"ce4bh192rcd13ifvqdd0","pricing_plan_id":"cebpf4jnsgd1na2vs0mg"},{"bike_id":"a340c54d-64ac-4229-b30a-2f08cb17e8bb","system_id":"levelo_inurba_marseille","lat":43.29278,"lon":5.36844,"is_reserved":false,"is_disabled":false,"rental_uris":{"android":"levelo://app?vid=a340c54d-64ac-4229-b30a-2f08cb17e8bb","ios":"levelo://app?vid=a340c54d-64ac-4229-b30a-2f08cb17e8bb"},"vehicle_type_id":"4","last_reported":1736323980,"current_range_meters":38000,"station_id":"ce4bhbp2rcd13ifvqesg","pricing_plan_id":"cebpf4jnsgd1na2vs0mg"},{"bike_id":"10ce3bff-323d-4ee2-9868-de476bf8af72","system_id":"levelo_inurba_marseille","lat":43.29973,"lon":5.38487,"is_reserved":false,"is_disabled":false,"rental_uris":{"android":"levelo://app?vid=10ce3bff-323d-4ee2-9868-de476bf8af72","ios":"levelo://app?vid=10ce3bff-323d-4ee2-9868-de476bf8af72"},"vehicle_type_id":"4","last_reported":1736323980,"current_range_meters":19200,"station_id":"ce4bgj92rcd13ifvqbd0","pricing_plan_id":"cebpf4jnsgd1na2vs0mg"},{"bike_id":"948ec750-a0b2-4307-b653-8885aba7e21e","system_id":"levelo_inurba_marseille","lat":43.33718,"lon":5.3917,"is_reserved":false,"is_disabled":false,"rental_uris":{"android":"levelo://app?vid=948ec750-a0b2-4307-b653-8885aba7e21e","ios":"levelo://app?vid=948ec750-a0b2-4307-b653-8885aba7e21e"},"vehicle_type_id":"4","last_reported":1736323980,"current_range_meters":38800,"station_id":"ce4bhr92rcd13ifvqhsg","pricing_plan_id":"cebpf4jnsgd1na2vs0mg"},{"bike_id":"f5ccc5f6-079e-40fb-8a2d-13909406ac83","system_id":"levelo_inurba_marseille","lat":43.26951,"lon":5.3862,"is_reserved":false,"is_disabled":false,"rental_uris":{"android":"levelo://app?vid=f5ccc5f6-079e-40fb-8a2d-13909406ac83","ios":"levelo://app?vid=f5ccc5f6-079e-40fb-8a2d-13909406ac83"},"vehicle_type_id":"4","last_reported":1736323980,"current_range_meters":22000,"station_id":"ce4bhh92rcd13ifvqfh0","pricing_plan_id":"cebpf4jnsgd1na2vs0mg"},{"bike_id":"89211829-6a20-497c-8e50-7e7d27e11d4c","system_id":"levelo_inurba_marseille","lat":43.28138,"lon":5.42645,"is_reserved":false,"is_disabled":false,"rental_uris":{"android":"levelo://app?vid=89211829-6a20-497c-8e50-7e7d27e11d4c","ios":"levelo://app?vid=89211829-6a20-497c-8e50-7e7d27e11d4c"},"vehicle_type_id":"4","last_reported":1736323980,"current_range_meters":8400,"station_id":"ce4bhnh2rcd13ifvqgug","pricing_plan_id":"cebpf4jnsgd1na2vs0mg"},{"bike_id":"8ffdb1b0-c1ec-4e13-9d1a-2d1f30211d91","system_id":"levelo_inurba_marseille","lat":43.30597,"lon":5.39361,"is_reserved":false,"is_disabled":false,"rental_uris":{"android":"levelo://app?vid=8ffdb1b0-c1ec-4e13-9d1a-2d1f30211d91","ios":"levelo://app?vid=8ffdb1b0-c1ec-4e13-9d1a-2d1f30211d91"},"vehicle_type_id":"4","last_reported":1736323980,"current_range_meters":35600,"station_id":"ce4bh0p2rcd13ifvqd80","pricing_plan_id":"cebpf4jnsgd1na2vs0mg"},{"bike_id":"a5980a39-9282-4802-94ff-bc0ffe6ef784","system_id":"levelo_inurba_marseille","lat":43.24075,"lon":5.37744,"is_reserved":false,"is_disabled":false,"rental_uris":{"android":"levelo://app?vid=a5980a39-9282-4802-94ff-bc0ffe6ef784","ios":"levelo://app?vid=a5980a39-9282-4802-94ff-bc0ffe6ef784"},"vehicle_type_id":"4","last_reported":1736323980,"current_range_meters":36000,"station_id":"ce4bhnp2rcd13ifvqgvg","pricing_plan_id":"cebpf4jnsgd1na2vs0mg"},{"bike_id":"45d8c38d-f6d8-403b-8ce3-9f5a1eec15f7","system_id":"levelo_inurba_marseille","lat":43.27489,"lon":5.42449,"is_reserved":false,"is_disabled":false,"rental_uris":{"android":"levelo://app?vid=45d8c38d-f6d8-403b-8ce3-9f5a1eec15f7","ios":"levelo://app?vid=45d8c38d-f6d8-403b-8ce3-9f5a1eec15f7"},"vehicle_type_id":"4","last_reported":1736323980,"current_range_meters":38800,"station_id":"ce4bhn92rcd13ifvqgrg","pricing_plan_id":"cebpf4jnsgd1na2vs0mg"},{"bike_id":"5cf5d467-316b-44fa-8fb8-856da6a44a4c","system_id":"levelo_inurba_marseille","lat":43.246431,"lon":5.377852,"is_reserved":false,"is_disabled":true,"rental_uris":{"android":"levelo://app?vid=5cf5d467-316b-44fa-8fb8-856da6a44a4c","ios":"levelo://app?vid=5cf5d467-316b-44fa-8fb8-856da6a44a4c"},"vehicle_type_id":"4","last_reported":1736323980,"current_range_meters":0,"station_id":"","pricing_plan_id":"cebpf4jnsgd1na2vs0mg"},{"bike_id":"d3223931-0093-411c-bbb1-9586b74e30b4","system_id":"levelo_inurba_marseille","lat":43.2707,"lon":5.42279,"is_reserved":false,"is_disabled":false,"rental_uris":{"android":"levelo://app?vid=d3223931-0093-411c-bbb1-9586b74e30b4","ios":"levelo://app?vid=d3223931-0093-411c-bbb1-9586b74e30b4"},"vehicle_type_id":"4","last_reported":1736323980,"current_range_meters":9200,"station_id":"ce4bhk92rcd13ifvqgb0","pricing_plan_id":"cebpf4jnsgd1na2vs0mg"},{"bike_id":"14d5f8d1-ea3b-4e17-b1d9-95f9924f4f82","system_id":"levelo_inurba_marseille","lat":43.26932,"lon":5.38926,"is_reserved":false,"is_disabled":false,"rental_uris":{"android":"levelo://app?vid=14d5f8d1-ea3b-4e17-b1d9-95f9924f4f82","ios":"levelo://app?vid=14d5f8d1-ea3b-4e17-b1d9-95f9924f4f82"},"vehicle_type_id":"4","last_reported":1736323980,"current_range_meters":27600,"station_id":"ce4bhhh2rcd13ifvqfl0","pricing_plan_id":"cebpf4jnsgd1na2vs0mg"},{"bike_id":"a8acd766-c8b6-49fa-a448-d51110da8e25","system_id":"levelo_inurba_marseille","lat":43.25121,"lon":5.40332,"is_reserved":false,"is_disabled":false,"rental_uris":{"android":"levelo://app?vid=a8acd766-c8b6-49fa-a448-d51110da8e25","ios":"levelo://app?vid=a8acd766-c8b6-49fa-a448-d51110da8e25"},"vehicle_type_id":"4","last_reported":1736323980,"current_range_meters":17600,"station_id":"ce4bhlh2rcd13ifvqgig","pricing_plan_id":"cebpf4jnsgd1na2vs0mg"},{"bike_id":"eec7a26a-363d-4616-a5da-9de2258d40f5","system_id":"levelo_inurba_marseille","lat":43.24066,"lon":5.377507,"is_reserved":false,"is_disabled":false,"rental_uris":{"android":"levelo://app?vid=eec7a26a-363d-4616-a5da-9de2258d40f5","ios":"levelo://app?vid=eec7a26a-363d-4616-a5da-9de2258d40f5"},"vehicle_type_id":"4","last_reported":1736323980,"current_range_meters":8800,"station_id":"ce4bhnp2rcd13ifvqgvg","pricing_plan_id":"cebpf4jnsgd1na2vs0mg"},{"bike_id":"f5f5c0c3-bf0d-4e89-9bff-89b492f51af6","system_id":"levelo_inurba_marseille","lat":43.24064,"lon":5.37756,"is_reserved":false,"is_disabled":false,"rental_uris":{"android":"levelo://app?vid=f5f5c0c3-bf0d-4e89-9bff-89b492f51af6","ios":"levelo://app?vid=f5f5c0c3-bf0d-4e89-9bff-89b492f51af6"},"vehicle_type_id":"4","last_reported":1736323980,"current_range_meters":38800,"station_id":"ce4bhnp2rcd13ifvqgvg","pricing_plan_id":"cebpf4jnsgd1na2vs0mg"},{"bike_id":"840e3f90-17d0-4c94-88a0-c5120c40cdea","system_id":"levelo_inurba_marseille","lat":43.257276,"lon":5.411058,"is_reserved":false,"is_disabled":true,"rental_uris":{"android":"levelo://app?vid=840e3f90-17d0-4c94-88a0-c5120c40cdea","ios":"levelo://app?vid=840e3f90-17d0-4c94-88a0-c5120c40cdea"},"vehicle_type_id":"4","last_reported":1736323980,"current_range_meters":37600,"station_id":"ce4bhkp2rcd13ifvqgd0","pricing_plan_id":"cebpf4jnsgd1na2vs0mg"},{"bike_id":"18989a28-842c-4216-9b41-9977ee09c012","system_id":"levelo_inurba_marseille","lat":43.271747,"lon":5.409857,"is_reserved":false,"is_disabled":false,"rental_uris":{"android":"levelo://app?vid=18989a28-842c-4216-9b41-9977ee09c012","ios":"levelo://app?vid=18989a28-842c-4216-9b41-9977ee09c012"},"vehicle_type_id":"4","last_reported":1736323980,"current_range_meters":39200,"station_id":"ce4bhl12rcd13ifvqgf0","pricing_plan_id":"cebpf4jnsgd1na2vs0mg"},{"bike_id":"1bc78c82-74eb-430f-9c54-76623708396a","system_id":"levelo_inurba_marseille","lat":43.26198,"lon":5.37933,"is_reserved":false,"is_disabled":false,"rental_uris":{"android":"levelo://app?vid=1bc78c82-74eb-430f-9c54-76623708396a","ios":"levelo://app?vid=1bc78c82-74eb-430f-9c54-76623708396a"},"vehicle_type_id":"4","last_reported":1736323980,"current_range_meters":24000,"station_id":"ce4bhjp2rcd13ifvqg90","pricing_plan_id":"cebpf4jnsgd1na2vs0mg"},{"bike_id":"3f205333-1375-4776-8495-32be9889d547","system_id":"levelo_inurba_marseille","lat":43.26932,"lon":5.38924,"is_reserved":false,"is_disabled":false,"rental_uris":{"android":"levelo://app?vid=3f205333-1375-4776-8495-32be9889d547","ios":"levelo://app?vid=3f205333-1375-4776-8495-32be9889d547"},"vehicle_type_id":"4","last_reported":1736323980,"current_range_meters":28400,"station_id":"ce4bhhh2rcd13ifvqfl0","pricing_plan_id":"cebpf4jnsgd1na2vs0mg"},{"bike_id":"f315f1f6-15a6-45f1-b66d-ebc071343df0","system_id":"levelo_inurba_marseille","lat":43.29372,"lon":5.37857,"is_reserved":false,"is_disabled":true,"rental_uris":{"android":"levelo://app?vid=f315f1f6-15a6-45f1-b66d-ebc071343df0","ios":"levelo://app?vid=f315f1f6-15a6-45f1-b66d-ebc071343df0"},"vehicle_type_id":"4","last_reported":1736323980,"current_range_meters":32800,"station_id":"ce4bgjh2rcd13ifvqbf0","pricing_plan_id":"cebpf4jnsgd1na2vs0mg"},{"bike_id":"514d218d-b1d9-4d7b-9fa0-8ced26e21a3c","system_id":"levelo_inurba_marseille","lat":43.27185,"lon":5.40997,"is_reserved":false,"is_disabled":false,"rental_uris":{"android":"levelo://app?vid=514d218d-b1d9-4d7b-9fa0-8ced26e21a3c","ios":"levelo://app?vid=514d218d-b1d9-4d7b-9fa0-8ced26e21a3c"},"vehicle_type_id":"4","last_reported":1736323980,"current_range_meters":38800,"station_id":"ce4bhl12rcd13ifvqgf0","pricing_plan_id":"cebpf4jnsgd1na2vs0mg"},{"bike_id":"a790695b-a6c0-49bc-9553-4405e3fdcf05","system_id":"levelo_inurba_marseille","lat":43.29582,"lon":5.37512,"is_reserved":false,"is_disabled":false,"rental_uris":{"android":"levelo://app?vid=a790695b-a6c0-49bc-9553-4405e3fdcf05","ios":"levelo://app?vid=a790695b-a6c0-49bc-9553-4405e3fdcf05"},"vehicle_type_id":"4","last_reported":1736323980,"current_range_meters":23200,"station_id":"ce4bgh92rcd13ifvqb50","pricing_plan_id":"cebpf4jnsgd1na2vs0mg"},{"bike_id":"4fb281c5-0d59-4c79-9b47-42571b08731b","system_id":"levelo_inurba_marseille","lat":43.2731,"lon":5.3908,"is_reserved":false,"is_disabled":false,"rental_uris":{"android":"levelo://app?vid=4fb281c5-0d59-4c79-9b47-42571b08731b","ios":"levelo://app?vid=4fb281c5-0d59-4c79-9b47-42571b08731b"},"vehicle_type_id":"4","last_reported":1736323980,"current_range_meters":12400,"station_id":"ce4bhgp2rcd13ifvqfe0","pricing_plan_id":"cebpf4jnsgd1na2vs0mg"},{"bike_id":"9373fa41-5dce-48ef-901d-2ed74b8ccf3b","system_id":"levelo_inurba_marseille","lat":43.30472,"lon":5.37905,"is_reserved":false,"is_disabled":false,"rental_uris":{"android":"levelo://app?vid=9373fa41-5dce-48ef-901d-2ed74b8ccf3b","ios":"levelo://app?vid=9373fa41-5dce-48ef-901d-2ed74b8ccf3b"},"vehicle_type_id":"4","last_reported":1736323980,"current_range_meters":38800,"station_id":"ce4bgup2rcd13ifvqcn0","pricing_plan_id":"cebpf4jnsgd1na2vs0mg"},{"bike_id":"224a60e5-c52c-48b0-a24b-de7b1b71367c","system_id":"levelo_inurba_marseille","lat":43.31486,"lon":5.37314,"is_reserved":false,"is_disabled":true,"rental_uris":{"android":"levelo://app?vid=224a60e5-c52c-48b0-a24b-de7b1b71367c","ios":"levelo://app?vid=224a60e5-c52c-48b0-a24b-de7b1b71367c"},"vehicle_type_id":"4","last_reported":1736323980,"current_range_meters":8400,"station_id":"ce4bgt12rcd13ifvqcd0","pricing_plan_id":"cebpf4jnsgd1na2vs0mg"},{"bike_id":"8c9f902b-6145-4b29-8893-9f907145c8a9","system_id":"levelo_inurba_marseille","lat":43.23053,"lon":5.35483,"is_reserved":false,"is_disabled":false,"rental_uris":{"android":"levelo://app?vid=8c9f902b-6145-4b29-8893-9f907145c8a9","ios":"levelo://app?vid=8c9f902b-6145-4b29-8893-9f907145c8a9"},"vehicle_type_id":"4","last_reported":1736323980,"current_range_meters":38000,"station_id":"cpo3342slgdg3j2ifvpg","pricing_plan_id":"cebpf4jnsgd1na2vs0mg"},{"bike_id":"3fa7d797-61d7-4135-b5b2-630cf042e9cb","system_id":"levelo_inurba_marseille","lat":43.30595,"lon":5.39352,"is_reserved":false,"is_disabled":true,"rental_uris":{"android":"levelo://app?vid=3fa7d797-61d7-4135-b5b2-630cf042e9cb","ios":"levelo://app?vid=3fa7d797-61d7-4135-b5b2-630cf042e9cb"},"vehicle_type_id":"4","last_reported":1736323980,"current_range_meters":36400,"station_id":"ce4bh0p2rcd13ifvqd80","pricing_plan_id":"cebpf4jnsgd1na2vs0mg"},{"bike_id":"ccefbdf4-df27-4947-9b01-eba3707af800","system_id":"levelo_inurba_marseille","lat":43.29543,"lon":5.38551,"is_reserved":false,"is_disabled":true,"rental_uris":{"android":"levelo://app?vid=ccefbdf4-df27-4947-9b01-eba3707af800","ios":"levelo://app?vid=ccefbdf4-df27-4947-9b01-eba3707af800"},"vehicle_type_id":"4","last_reported":1736323980,"current_range_meters":16400,"station_id":"ce4bgih2rcd13ifvqba0","pricing_plan_id":"cebpf4jnsgd1na2vs0mg"},{"bike_id":"ea60edce-76ab-4155-8e79-99022a30bcac","system_id":"levelo_inurba_marseille","lat":43.29553,"lon":5.4227,"is_reserved":false,"is_disabled":false,"rental_uris":{"android":"levelo://app?vid=ea60edce-76ab-4155-8e79-99022a30bcac","ios":"levelo://app?vid=ea60edce-76ab-4155-8e79-99022a30bcac"},"vehicle_type_id":"4","last_reported":1736323980,"current_range_meters":10800,"station_id":"ce4bhph2rcd13ifvqhdg","pricing_plan_id":"cebpf4jnsgd1na2vs0mg"},{"bike_id":"23855dc5-5879-4251-80ba-18b8e1b17b19","system_id":"levelo_inurba_marseille","lat":43.24072,"lon":5.37747,"is_reserved":false,"is_disabled":false,"rental_uris":{"android":"levelo://app?vid=23855dc5-5879-4251-80ba-18b8e1b17b19","ios":"levelo://app?vid=23855dc5-5879-4251-80ba-18b8e1b17b19"},"vehicle_type_id":"4","last_reported":1736323980,"current_range_meters":31200,"station_id":"ce4bhnp2rcd13ifvqgvg","pricing_plan_id":"cebpf4jnsgd1na2vs0mg"},{"bike_id":"e8634937-b487-46f5-820d-ccadc37798ef","system_id":"levelo_inurba_marseille","lat":43.24996,"lon":5.38938,"is_reserved":false,"is_disabled":false,"rental_uris":{"android":"levelo://app?vid=e8634937-b487-46f5-820d-ccadc37798ef","ios":"levelo://app?vid=e8634937-b487-46f5-820d-ccadc37798ef"},"vehicle_type_id":"4","last_reported":1736323980,"current_range_meters":28000,"station_id":"ce4bhgp2rcd13ifvqfd0","pricing_plan_id":"cebpf4jnsgd1na2vs0mg"},{"bike_id":"b87c0510-9212-4f4a-921a-d0778b99bef7","system_id":"levelo_inurba_marseille","lat":43.336086,"lon":5.410345,"is_reserved":false,"is_disabled":false,"rental_uris":{"android":"levelo://app?vid=b87c0510-9212-4f4a-921a-d0778b99bef7","ios":"levelo://app?vid=b87c0510-9212-4f4a-921a-d0778b99bef7"},"vehicle_type_id":"4","last_reported":1736323980,"current_range_meters":26000,"station_id":"ce4bhqh2rcd13ifvqhmg","pricing_plan_id":"cebpf4jnsgd1na2vs0mg"},{"bike_id":"b13965eb-7a3e-487c-8f4f-1d2936af4009","system_id":"levelo_inurba_marseille","lat":43.25827,"lon":5.39424,"is_reserved":false,"is_disabled":false,"rental_uris":{"android":"levelo://app?vid=b13965eb-7a3e-487c-8f4f-1d2936af4009","ios":"levelo://app?vid=b13965eb-7a3e-487c-8f4f-1d2936af4009"},"vehicle_type_id":"4","last_reported":1736323980,"current_range_meters":38800,"station_id":"ce4bhip2rcd13ifvqft0","pricing_plan_id":"cebpf4jnsgd1na2vs0mg"},{"bike_id":"304884a8-edbb-4b51-8422-42a9e30f1931","system_id":"levelo_inurba_marseille","lat":43.24075,"lon":5.37759,"is_reserved":false,"is_disabled":false,"rental_uris":{"android":"levelo://app?vid=304884a8-edbb-4b51-8422-42a9e30f1931","ios":"levelo://app?vid=304884a8-edbb-4b51-8422-42a9e30f1931"},"vehicle_type_id":"4","last_reported":1736323980,"current_range_meters":2800,"station_id":"ce4bhnp2rcd13ifvqgvg","pricing_plan_id":"cebpf4jnsgd1na2vs0mg"},{"bike_id":"3ad0f3ed-1061-459e-b238-515ecfd1abd9","system_id":"levelo_inurba_marseille","lat":43.30799,"lon":5.37648,"is_reserved":false,"is_disabled":false,"rental_uris":{"android":"levelo://app?vid=3ad0f3ed-1061-459e-b238-515ecfd1abd9","ios":"levelo://app?vid=3ad0f3ed-1061-459e-b238-515ecfd1abd9"},"vehicle_type_id":"4","last_reported":1736323980,"current_range_meters":38400,"station_id":"ce4bgv92rcd13ifvqcq0","pricing_plan_id":"cebpf4jnsgd1na2vs0mg"},{"bike_id":"637c9e25-6ec5-4d5c-9ec9-ed6c73dcb821","system_id":"levelo_inurba_marseille","lat":43.3171,"lon":5.37754,"is_reserved":false,"is_disabled":false,"rental_uris":{"android":"levelo://app?vid=637c9e25-6ec5-4d5c-9ec9-ed6c73dcb821","ios":"levelo://app?vid=637c9e25-6ec5-4d5c-9ec9-ed6c73dcb821"},"vehicle_type_id":"4","last_reported":1736323980,"current_range_meters":32000,"station_id":"ce4bgth2rcd13ifvqch0","pricing_plan_id":"cebpf4jnsgd1na2vs0mg"},{"bike_id":"8c6e351c-0361-48f3-a409-0c5834f3f005","system_id":"levelo_inurba_marseille","lat":43.23154,"lon":5.43701,"is_reserved":false,"is_disabled":true,"rental_uris":{"android":"levelo://app?vid=8c6e351c-0361-48f3-a409-0c5834f3f005","ios":"levelo://app?vid=8c6e351c-0361-48f3-a409-0c5834f3f005"},"vehicle_type_id":"4","last_reported":1736323980,"current_range_meters":20400,"station_id":"ce4bhmp2rcd13ifvqgog","pricing_plan_id":"cebpf4jnsgd1na2vs0mg"},{"bike_id":"037f1d82-de7e-43d0-93c6-34305ceccba6","system_id":"levelo_inurba_marseille","lat":43.29631,"lon":5.40596,"is_reserved":false,"is_disabled":false,"rental_uris":{"android":"levelo://app?vid=037f1d82-de7e-43d0-93c6-34305ceccba6","ios":"levelo://app?vid=037f1d82-de7e-43d0-93c6-34305ceccba6"},"vehicle_type_id":"4","last_reported":1736323980,"current_range_meters":36400,"station_id":"ce4bh0h2rcd13ifvqd60","pricing_plan_id":"cebpf4jnsgd1na2vs0mg"},{"bike_id":"be418997-7c9d-4737-98e3-b90706366001","system_id":"levelo_inurba_marseille","lat":43.3153,"lon":5.38021,"is_reserved":false,"is_disabled":false,"rental_uris":{"android":"levelo://app?vid=be418997-7c9d-4737-98e3-b90706366001","ios":"levelo://app?vid=be418997-7c9d-4737-98e3-b90706366001"},"vehicle_type_id":"4","last_reported":1736323980,"current_range_meters":25600,"station_id":"ce4bhsp2rcd13ifvqi50","pricing_plan_id":"cebpf4jnsgd1na2vs0mg"},{"bike_id":"5671a7cc-1094-4b46-906d-b97f733ad9e2","system_id":"levelo_inurba_marseille","lat":43.30307,"lon":5.40448,"is_reserved":false,"is_disabled":true,"rental_uris":{"android":"levelo://app?vid=5671a7cc-1094-4b46-906d-b97f733ad9e2","ios":"levelo://app?vid=5671a7cc-1094-4b46-906d-b97f733ad9e2"},"vehicle_type_id":"4","last_reported":1736323980,"current_range_meters":33600,"station_id":"ce4bh012rcd13ifvqd10","pricing_plan_id":"cebpf4jnsgd1na2vs0mg"},{"bike_id":"e595796a-c7a2-4bc5-9efd-820721cae471","system_id":"levelo_inurba_marseille","lat":43.25928,"lon":5.40909,"is_reserved":false,"is_disabled":false,"rental_uris":{"android":"levelo://app?vid=e595796a-c7a2-4bc5-9efd-820721cae471","ios":"levelo://app?vid=e595796a-c7a2-4bc5-9efd-820721cae471"},"vehicle_type_id":"4","last_reported":1736323980,"current_range_meters":37600,"station_id":"ce4bhm92rcd13ifvqglg","pricing_plan_id":"cebpf4jnsgd1na2vs0mg"},{"bike_id":"013091b2-da9b-4660-95cc-06e55ec64952","system_id":"levelo_inurba_marseille","lat":43.24078,"lon":5.37747,"is_reserved":false,"is_disabled":false,"rental_uris":{"android":"levelo://app?vid=013091b2-da9b-4660-95cc-06e55ec64952","ios":"levelo://app?vid=013091b2-da9b-4660-95cc-06e55ec64952"},"vehicle_type_id":"4","last_reported":1736323980,"current_range_meters":16800,"station_id":"ce4bhnp2rcd13ifvqgvg","pricing_plan_id":"cebpf4jnsgd1na2vs0mg"},{"bike_id":"005c2044-0c78-410b-b1cd-e1e9feaa0e05","system_id":"levelo_inurba_marseille","lat":43.23964,"lon":5.36625,"is_reserved":false,"is_disabled":false,"rental_uris":{"android":"levelo://app?vid=005c2044-0c78-410b-b1cd-e1e9feaa0e05","ios":"levelo://app?vid=005c2044-0c78-410b-b1cd-e1e9feaa0e05"},"vehicle_type_id":"4","last_reported":1736323980,"current_range_meters":14400,"station_id":"ce4bhi12rcd13ifvqfp0","pricing_plan_id":"cebpf4jnsgd1na2vs0mg"},{"bike_id":"db190856-6440-4075-89bd-6bb8e507459d","system_id":"levelo_inurba_marseille","lat":43.2396,"lon":5.36636,"is_reserved":false,"is_disabled":false,"rental_uris":{"android":"levelo://app?vid=db190856-6440-4075-89bd-6bb8e507459d","ios":"levelo://app?vid=db190856-6440-4075-89bd-6bb8e507459d"},"vehicle_type_id":"4","last_reported":1736323980,"current_range_meters":9600,"station_id":"ce4bhi12rcd13ifvqfp0","pricing_plan_id":"cebpf4jnsgd1na2vs0mg"},{"bike_id":"9c058318-42bf-43a7-832a-41c9b4c46de4","system_id":"levelo_inurba_marseille","lat":43.29038,"lon":5.39967,"is_reserved":false,"is_disabled":true,"rental_uris":{"android":"levelo://app?vid=9c058318-42bf-43a7-832a-41c9b4c46de4","ios":"levelo://app?vid=9c058318-42bf-43a7-832a-41c9b4c46de4"},"vehicle_type_id":"4","last_reported":1736323980,"current_range_meters":1600,"station_id":"ce4bh392rcd13ifvqdm0","pricing_plan_id":"cebpf4jnsgd1na2vs0mg"},{"bike_id":"c481e915-0c70-45b1-8b76-47cd9b7f18e3","system_id":"levelo_inurba_marseille","lat":43.3095,"lon":5.39022,"is_reserved":false,"is_disabled":false,"rental_uris":{"android":"levelo://app?vid=c481e915-0c70-45b1-8b76-47cd9b7f18e3","ios":"levelo://app?vid=c481e915-0c70-45b1-8b76-47cd9b7f18e3"},"vehicle_type_id":"4","last_reported":1736323980,"current_range_meters":20000,"station_id":"ce4bgup2rcd13ifvqco0","pricing_plan_id":"cebpf4jnsgd1na2vs0mg"},{"bike_id":"94ae9d8d-339e-41f5-bf14-1e9df4322647","system_id":"levelo_inurba_marseille","lat":43.27499,"lon":5.42455,"is_reserved":false,"is_disabled":true,"rental_uris":{"android":"levelo://app?vid=94ae9d8d-339e-41f5-bf14-1e9df4322647","ios":"levelo://app?vid=94ae9d8d-339e-41f5-bf14-1e9df4322647"},"vehicle_type_id":"4","last_reported":1736323980,"current_range_meters":32800,"station_id":"ce4bhn92rcd13ifvqgrg","pricing_plan_id":"cebpf4jnsgd1na2vs0mg"},{"bike_id":"6a595de3-0911-46a9-bdbf-4cca5437105e","system_id":"levelo_inurba_marseille","lat":43.232,"lon":5.35539,"is_reserved":false,"is_disabled":false,"rental_uris":{"android":"levelo://app?vid=6a595de3-0911-46a9-bdbf-4cca5437105e","ios":"levelo://app?vid=6a595de3-0911-46a9-bdbf-4cca5437105e"},"vehicle_type_id":"4","last_reported":1736323980,"current_range_meters":11200,"station_id":"ce4bhu92rcd13ifvqi70","pricing_plan_id":"cebpf4jnsgd1na2vs0mg"},{"bike_id":"641d8acc-50b2-4173-ab23-c70f2a11d28e","system_id":"levelo_inurba_marseille","lat":43.28153,"lon":5.42621,"is_reserved":false,"is_disabled":true,"rental_uris":{"android":"levelo://app?vid=641d8acc-50b2-4173-ab23-c70f2a11d28e","ios":"levelo://app?vid=641d8acc-50b2-4173-ab23-c70f2a11d28e"},"vehicle_type_id":"4","last_reported":1736323980,"current_range_meters":19600,"station_id":"ce4bhnh2rcd13ifvqgug","pricing_plan_id":"cebpf4jnsgd1na2vs0mg"},{"bike_id":"15e503f5-1d52-42d6-a98f-33a61fd8b554","system_id":"levelo_inurba_marseille","lat":43.28463,"lon":5.35882,"is_reserved":false,"is_disabled":true,"rental_uris":{"android":"levelo://app?vid=15e503f5-1d52-42d6-a98f-33a61fd8b554","ios":"levelo://app?vid=15e503f5-1d52-42d6-a98f-33a61fd8b554"},"vehicle_type_id":"4","last_reported":1736323980,"current_range_meters":11600,"station_id":"ce4bhah2rcd13ifvqei0","pricing_plan_id":"cebpf4jnsgd1na2vs0mg"},{"bike_id":"4a309558-80dc-41fc-8d1f-f7f76baadbf6","system_id":"levelo_inurba_marseille","lat":43.29846,"lon":5.36285,"is_reserved":false,"is_disabled":false,"rental_uris":{"android":"levelo://app?vid=4a309558-80dc-41fc-8d1f-f7f76baadbf6","ios":"levelo://app?vid=4a309558-80dc-41fc-8d1f-f7f76baadbf6"},"vehicle_type_id":"4","last_reported":1736323980,"current_range_meters":17200,"station_id":"ce4bgpp2rcd13ifvqc3g","pricing_plan_id":"cebpf4jnsgd1na2vs0mg"},{"bike_id":"d9697bb8-b1e0-405f-a7a8-a19e2df9e468","system_id":"levelo_inurba_marseille","lat":43.30527,"lon":5.36707,"is_reserved":false,"is_disabled":false,"rental_uris":{"android":"levelo://app?vid=d9697bb8-b1e0-405f-a7a8-a19e2df9e468","ios":"levelo://app?vid=d9697bb8-b1e0-405f-a7a8-a19e2df9e468"},"vehicle_type_id":"4","last_reported":1736323980,"current_range_meters":39200,"station_id":"ce4bgrp2rcd13ifvqc9g","pricing_plan_id":"cebpf4jnsgd1na2vs0mg"},{"bike_id":"d15cb0d9-6fb7-4979-b83b-e5d15e01bbdb","system_id":"levelo_inurba_marseille","lat":43.27971,"lon":5.38735,"is_reserved":false,"is_disabled":false,"rental_uris":{"android":"levelo://app?vid=d15cb0d9-6fb7-4979-b83b-e5d15e01bbdb","ios":"levelo://app?vid=d15cb0d9-6fb7-4979-b83b-e5d15e01bbdb"},"vehicle_type_id":"4","last_reported":1736323980,"current_range_meters":32000,"station_id":"ce4bhg12rcd13ifvqf80","pricing_plan_id":"cebpf4jnsgd1na2vs0mg"},{"bike_id":"44ab28fa-0b3d-469d-97ff-06319e1159ef","system_id":"levelo_inurba_marseille","lat":43.23964,"lon":5.36645,"is_reserved":false,"is_disabled":false,"rental_uris":{"android":"levelo://app?vid=44ab28fa-0b3d-469d-97ff-06319e1159ef","ios":"levelo://app?vid=44ab28fa-0b3d-469d-97ff-06319e1159ef"},"vehicle_type_id":"4","last_reported":1736323980,"current_range_meters":16000,"station_id":"ce4bhi12rcd13ifvqfp0","pricing_plan_id":"cebpf4jnsgd1na2vs0mg"},{"bike_id":"eb76c646-8adc-409f-b1e6-d1eabb3d2215","system_id":"levelo_inurba_marseille","lat":43.25939,"lon":5.40903,"is_reserved":false,"is_disabled":false,"rental_uris":{"android":"levelo://app?vid=eb76c646-8adc-409f-b1e6-d1eabb3d2215","ios":"levelo://app?vid=eb76c646-8adc-409f-b1e6-d1eabb3d2215"},"vehicle_type_id":"4","last_reported":1736323980,"current_range_meters":24800,"station_id":"ce4bhm92rcd13ifvqglg","pricing_plan_id":"cebpf4jnsgd1na2vs0mg"},{"bike_id":"b44cdae0-01a5-4a6a-a5cf-3b1e64163f02","system_id":"levelo_inurba_marseille","lat":43.25102,"lon":5.40321,"is_reserved":false,"is_disabled":false,"rental_uris":{"android":"levelo://app?vid=b44cdae0-01a5-4a6a-a5cf-3b1e64163f02","ios":"levelo://app?vid=b44cdae0-01a5-4a6a-a5cf-3b1e64163f02"},"vehicle_type_id":"4","last_reported":1736323980,"current_range_meters":38800,"station_id":"ce4bhlh2rcd13ifvqgig","pricing_plan_id":"cebpf4jnsgd1na2vs0mg"},{"bike_id":"22c89690-6047-410c-8c13-fe24ba3194e9","system_id":"levelo_inurba_marseille","lat":43.30597,"lon":5.39357,"is_reserved":false,"is_disabled":false,"rental_uris":{"android":"levelo://app?vid=22c89690-6047-410c-8c13-fe24ba3194e9","ios":"levelo://app?vid=22c89690-6047-410c-8c13-fe24ba3194e9"},"vehicle_type_id":"4","last_reported":1736323980,"current_range_meters":38800,"station_id":"ce4bh0p2rcd13ifvqd80","pricing_plan_id":"cebpf4jnsgd1na2vs0mg"},{"bike_id":"0a79eed2-003b-4218-9fdf-f43d76c17e3e","system_id":"levelo_inurba_marseille","lat":43.292991,"lon":5.374633,"is_reserved":false,"is_disabled":true,"rental_uris":{"android":"levelo://app?vid=0a79eed2-003b-4218-9fdf-f43d76c17e3e","ios":"levelo://app?vid=0a79eed2-003b-4218-9fdf-f43d76c17e3e"},"vehicle_type_id":"4","last_reported":1736323980,"current_range_meters":35200,"station_id":"ce4bgi12rcd13ifvqb70","pricing_plan_id":"cebpf4jnsgd1na2vs0mg"},{"bike_id":"6d88bbf0-f428-4bd4-ab8a-2ee8d5e7c74e","system_id":"levelo_inurba_marseille","lat":43.23075,"lon":5.35471,"is_reserved":false,"is_disabled":false,"rental_uris":{"android":"levelo://app?vid=6d88bbf0-f428-4bd4-ab8a-2ee8d5e7c74e","ios":"levelo://app?vid=6d88bbf0-f428-4bd4-ab8a-2ee8d5e7c74e"},"vehicle_type_id":"4","last_reported":1736323980,"current_range_meters":35600,"station_id":"cpo3342slgdg3j2ifvpg","pricing_plan_id":"cebpf4jnsgd1na2vs0mg"},{"bike_id":"2382b937-0534-4351-93e8-e905b5bd83d6","system_id":"levelo_inurba_marseille","lat":43.30604,"lon":5.37218,"is_reserved":false,"is_disabled":false,"rental_uris":{"android":"levelo://app?vid=2382b937-0534-4351-93e8-e905b5bd83d6","ios":"levelo://app?vid=2382b937-0534-4351-93e8-e905b5bd83d6"},"vehicle_type_id":"4","last_reported":1736323980,"current_range_meters":18800,"station_id":"ce4bgqh2rcd13ifvqc4g","pricing_plan_id":"cebpf4jnsgd1na2vs0mg"},{"bike_id":"e3fb05d7-491e-4ca0-bd25-0e9b0619e01a","system_id":"levelo_inurba_marseille","lat":43.26938,"lon":5.38659,"is_reserved":false,"is_disabled":false,"rental_uris":{"android":"levelo://app?vid=e3fb05d7-491e-4ca0-bd25-0e9b0619e01a","ios":"levelo://app?vid=e3fb05d7-491e-4ca0-bd25-0e9b0619e01a"},"vehicle_type_id":"4","last_reported":1736323980,"current_range_meters":36400,"station_id":"ce4bhh92rcd13ifvqfh0","pricing_plan_id":"cebpf4jnsgd1na2vs0mg"},{"bike_id":"a52cab4e-02f6-46a0-be65-5140e85c5c71","system_id":"levelo_inurba_marseille","lat":43.30598,"lon":5.3935,"is_reserved":false,"is_disabled":false,"rental_uris":{"android":"levelo://app?vid=a52cab4e-02f6-46a0-be65-5140e85c5c71","ios":"levelo://app?vid=a52cab4e-02f6-46a0-be65-5140e85c5c71"},"vehicle_type_id":"4","last_reported":1736323980,"current_range_meters":27200,"station_id":"ce4bh0p2rcd13ifvqd80","pricing_plan_id":"cebpf4jnsgd1na2vs0mg"},{"bike_id":"866d366a-e8f1-4f54-846a-c951a8be904d","system_id":"levelo_inurba_marseille","lat":43.27619,"lon":5.36115,"is_reserved":false,"is_disabled":false,"rental_uris":{"android":"levelo://app?vid=866d366a-e8f1-4f54-846a-c951a8be904d","ios":"levelo://app?vid=866d366a-e8f1-4f54-846a-c951a8be904d"},"vehicle_type_id":"4","last_reported":1736323980,"current_range_meters":16000,"station_id":"ce4bgj92rcd13ifvqbe0","pricing_plan_id":"cebpf4jnsgd1na2vs0mg"},{"bike_id":"0d54d3b5-8886-42c2-98f3-02b73817b0be","system_id":"levelo_inurba_marseille","lat":43.31341,"lon":5.36737,"is_reserved":false,"is_disabled":false,"rental_uris":{"android":"levelo://app?vid=0d54d3b5-8886-42c2-98f3-02b73817b0be","ios":"levelo://app?vid=0d54d3b5-8886-42c2-98f3-02b73817b0be"},"vehicle_type_id":"4","last_reported":1736323980,"current_range_meters":24400,"station_id":"ce4bgr92rcd13ifvqc6g","pricing_plan_id":"cebpf4jnsgd1na2vs0mg"},{"bike_id":"768e9c78-d0a3-4809-a132-8653852c97b2","system_id":"levelo_inurba_marseille","lat":43.27489,"lon":5.42449,"is_reserved":false,"is_disabled":false,"rental_uris":{"android":"levelo://app?vid=768e9c78-d0a3-4809-a132-8653852c97b2","ios":"levelo://app?vid=768e9c78-d0a3-4809-a132-8653852c97b2"},"vehicle_type_id":"4","last_reported":1736323980,"current_range_meters":20400,"station_id":"ce4bhn92rcd13ifvqgrg","pricing_plan_id":"cebpf4jnsgd1na2vs0mg"},{"bike_id":"5e106622-1b1d-4d23-8700-bb5b92ae4b6b","system_id":"levelo_inurba_marseille","lat":43.29023,"lon":5.39972,"is_reserved":false,"is_disabled":false,"rental_uris":{"android":"levelo://app?vid=5e106622-1b1d-4d23-8700-bb5b92ae4b6b","ios":"levelo://app?vid=5e106622-1b1d-4d23-8700-bb5b92ae4b6b"},"vehicle_type_id":"4","last_reported":1736323980,"current_range_meters":38800,"station_id":"ce4bh392rcd13ifvqdm0","pricing_plan_id":"cebpf4jnsgd1na2vs0mg"},{"bike_id":"05171470-9655-4536-889b-43822d7bd8f5","system_id":"levelo_inurba_marseille","lat":43.31294,"lon":5.37381,"is_reserved":false,"is_disabled":false,"rental_uris":{"android":"levelo://app?vid=05171470-9655-4536-889b-43822d7bd8f5","ios":"levelo://app?vid=05171470-9655-4536-889b-43822d7bd8f5"},"vehicle_type_id":"4","last_reported":1736323980,"current_range_meters":10000,"station_id":"","pricing_plan_id":"cebpf4jnsgd1na2vs0mg"},{"bike_id":"0d7fcab5-24b3-45d1-8cba-62bcf110dff8","system_id":"levelo_inurba_marseille","lat":43.30922,"lon":5.40157,"is_reserved":false,"is_disabled":true,"rental_uris":{"android":"levelo://app?vid=0d7fcab5-24b3-45d1-8cba-62bcf110dff8","ios":"levelo://app?vid=0d7fcab5-24b3-45d1-8cba-62bcf110dff8"},"vehicle_type_id":"4","last_reported":1736323980,"current_range_meters":6800,"station_id":"ce4bgvp2rcd13ifvqct0","pricing_plan_id":"cebpf4jnsgd1na2vs0mg"},{"bike_id":"aae3be7c-9f84-4d73-acc6-b7f51578fa4e","system_id":"levelo_inurba_marseille","lat":43.2407,"lon":5.37757,"is_reserved":false,"is_disabled":false,"rental_uris":{"android":"levelo://app?vid=aae3be7c-9f84-4d73-acc6-b7f51578fa4e","ios":"levelo://app?vid=aae3be7c-9f84-4d73-acc6-b7f51578fa4e"},"vehicle_type_id":"4","last_reported":1736323980,"current_range_meters":30800,"station_id":"ce4bhnp2rcd13ifvqgvg","pricing_plan_id":"cebpf4jnsgd1na2vs0mg"},{"bike_id":"d0f7f7c9-5d11-43e5-ac3d-598fa4404ec8","system_id":"levelo_inurba_marseille","lat":43.231865,"lon":5.399781,"is_reserved":false,"is_disabled":false,"rental_uris":{"android":"levelo://app?vid=d0f7f7c9-5d11-43e5-ac3d-598fa4404ec8","ios":"levelo://app?vid=d0f7f7c9-5d11-43e5-ac3d-598fa4404ec8"},"vehicle_type_id":"4","last_reported":1736323980,"current_range_meters":19200,"station_id":"ce4bhn12rcd13ifvqgqg","pricing_plan_id":"cebpf4jnsgd1na2vs0mg"},{"bike_id":"80874cac-448d-4f9e-a429-5a947b0a0b06","system_id":"levelo_inurba_marseille","lat":43.30152,"lon":5.38096,"is_reserved":false,"is_disabled":false,"rental_uris":{"android":"levelo://app?vid=80874cac-448d-4f9e-a429-5a947b0a0b06","ios":"levelo://app?vid=80874cac-448d-4f9e-a429-5a947b0a0b06"},"vehicle_type_id":"4","last_reported":1736323980,"current_range_meters":34800,"station_id":"ce4bgjp2rcd13ifvqbh0","pricing_plan_id":"cebpf4jnsgd1na2vs0mg"},{"bike_id":"c569b9a0-a915-4014-b77e-cceef08af58d","system_id":"levelo_inurba_marseille","lat":43.31243,"lon":5.36887,"is_reserved":false,"is_disabled":false,"rental_uris":{"android":"levelo://app?vid=c569b9a0-a915-4014-b77e-cceef08af58d","ios":"levelo://app?vid=c569b9a0-a915-4014-b77e-cceef08af58d"},"vehicle_type_id":"4","last_reported":1736323980,"current_range_meters":34800,"station_id":"ce4bgl92rcd13ifvqbq0","pricing_plan_id":"cebpf4jnsgd1na2vs0mg"},{"bike_id":"1eb8b8fc-0fdf-4440-98ab-d54db1502e51","system_id":"levelo_inurba_marseille","lat":43.30183,"lon":5.36606,"is_reserved":false,"is_disabled":false,"rental_uris":{"android":"levelo://app?vid=1eb8b8fc-0fdf-4440-98ab-d54db1502e51","ios":"levelo://app?vid=1eb8b8fc-0fdf-4440-98ab-d54db1502e51"},"vehicle_type_id":"4","last_reported":1736323980,"current_range_meters":38800,"station_id":"ce4bgrh2rcd13ifvqc8g","pricing_plan_id":"cebpf4jnsgd1na2vs0mg"},{"bike_id":"0d5482e7-f541-412e-a421-0991dca692ea","system_id":"levelo_inurba_marseille","lat":43.31357,"lon":5.3671,"is_reserved":false,"is_disabled":false,"rental_uris":{"android":"levelo://app?vid=0d5482e7-f541-412e-a421-0991dca692ea","ios":"levelo://app?vid=0d5482e7-f541-412e-a421-0991dca692ea"},"vehicle_type_id":"4","last_reported":1736323980,"current_range_meters":11600,"station_id":"ce4bgr92rcd13ifvqc6g","pricing_plan_id":"cebpf4jnsgd1na2vs0mg"},{"bike_id":"257c7a47-4074-4a91-b13c-b76f6fa570cc","system_id":"levelo_inurba_marseille","lat":43.25511,"lon":5.38351,"is_reserved":false,"is_disabled":false,"rental_uris":{"android":"levelo://app?vid=257c7a47-4074-4a91-b13c-b76f6fa570cc","ios":"levelo://app?vid=257c7a47-4074-4a91-b13c-b76f6fa570cc"},"vehicle_type_id":"4","last_reported":1736323980,"current_range_meters":28400,"station_id":"","pricing_plan_id":"cebpf4jnsgd1na2vs0mg"},{"bike_id":"cdfea266-e5fd-4018-a292-1ba3701f72dd","system_id":"levelo_inurba_marseille","lat":43.25488,"lon":5.37651,"is_reserved":false,"is_disabled":false,"rental_uris":{"android":"levelo://app?vid=cdfea266-e5fd-4018-a292-1ba3701f72dd","ios":"levelo://app?vid=cdfea266-e5fd-4018-a292-1ba3701f72dd"},"vehicle_type_id":"4","last_reported":1736323980,"current_range_meters":28400,"station_id":"ce4bhh12rcd13ifvqff0","pricing_plan_id":"cebpf4jnsgd1na2vs0mg"},{"bike_id":"5a3d3736-8dd8-474b-9443-eccca0fd88f2","system_id":"levelo_inurba_marseille","lat":43.28455,"lon":5.3589,"is_reserved":false,"is_disabled":false,"rental_uris":{"android":"levelo://app?vid=5a3d3736-8dd8-474b-9443-eccca0fd88f2","ios":"levelo://app?vid=5a3d3736-8dd8-474b-9443-eccca0fd88f2"},"vehicle_type_id":"4","last_reported":1736323980,"current_range_meters":31200,"station_id":"ce4bhah2rcd13ifvqei0","pricing_plan_id":"cebpf4jnsgd1na2vs0mg"},{"bike_id":"ebe2855d-10ef-4682-8861-c7f4ec91888f","system_id":"levelo_inurba_marseille","lat":43.33728,"lon":5.39175,"is_reserved":false,"is_disabled":false,"rental_uris":{"android":"levelo://app?vid=ebe2855d-10ef-4682-8861-c7f4ec91888f","ios":"levelo://app?vid=ebe2855d-10ef-4682-8861-c7f4ec91888f"},"vehicle_type_id":"4","last_reported":1736323980,"current_range_meters":26800,"station_id":"ce4bhr92rcd13ifvqhsg","pricing_plan_id":"cebpf4jnsgd1na2vs0mg"},{"bike_id":"d17d631b-7434-4c3f-a667-cb43ae2fd84f","system_id":"levelo_inurba_marseille","lat":43.28836,"lon":5.35863,"is_reserved":false,"is_disabled":false,"rental_uris":{"android":"levelo://app?vid=d17d631b-7434-4c3f-a667-cb43ae2fd84f","ios":"levelo://app?vid=d17d631b-7434-4c3f-a667-cb43ae2fd84f"},"vehicle_type_id":"4","last_reported":1736323980,"current_range_meters":38800,"station_id":"ce4bhb12rcd13ifvqem0","pricing_plan_id":"cebpf4jnsgd1na2vs0mg"},{"bike_id":"cf55238d-3e2d-485d-8238-c5609593f49b","system_id":"levelo_inurba_marseille","lat":43.26696,"lon":5.3826,"is_reserved":false,"is_disabled":true,"rental_uris":{"android":"levelo://app?vid=cf55238d-3e2d-485d-8238-c5609593f49b","ios":"levelo://app?vid=cf55238d-3e2d-485d-8238-c5609593f49b"},"vehicle_type_id":"4","last_reported":1736323980,"current_range_meters":22800,"station_id":"ce4bhg92rcd13ifvqf90","pricing_plan_id":"cebpf4jnsgd1na2vs0mg"},{"bike_id":"336be5b4-41be-4c93-8b79-276dcd225506","system_id":"levelo_inurba_marseille","lat":43.29217,"lon":5.36068,"is_reserved":false,"is_disabled":true,"rental_uris":{"android":"levelo://app?vid=336be5b4-41be-4c93-8b79-276dcd225506","ios":"levelo://app?vid=336be5b4-41be-4c93-8b79-276dcd225506"},"vehicle_type_id":"4","last_reported":1736323980,"current_range_meters":27200,"station_id":"ce4bhbh2rcd13ifvqeqg","pricing_plan_id":"cebpf4jnsgd1na2vs0mg"},{"bike_id":"a038acd5-df80-40b0-854d-db4e76ddfe83","system_id":"levelo_inurba_marseille","lat":43.2917,"lon":5.37172,"is_reserved":false,"is_disabled":false,"rental_uris":{"android":"levelo://app?vid=a038acd5-df80-40b0-854d-db4e76ddfe83","ios":"levelo://app?vid=a038acd5-df80-40b0-854d-db4e76ddfe83"},"vehicle_type_id":"4","last_reported":1736323980,"current_range_meters":35200,"station_id":"ce4bha92rcd13ifvqeh0","pricing_plan_id":"cebpf4jnsgd1na2vs0mg"},{"bike_id":"acbcaac0-84a8-48ae-82ec-06cf807a6045","system_id":"levelo_inurba_marseille","lat":43.27806,"lon":5.40707,"is_reserved":false,"is_disabled":false,"rental_uris":{"android":"levelo://app?vid=acbcaac0-84a8-48ae-82ec-06cf807a6045","ios":"levelo://app?vid=acbcaac0-84a8-48ae-82ec-06cf807a6045"},"vehicle_type_id":"4","last_reported":1736323980,"current_range_meters":25200,"station_id":"ce4bhnh2rcd13ifvqgtg","pricing_plan_id":"cebpf4jnsgd1na2vs0mg"},{"bike_id":"c4ece075-62d8-400a-b873-18850276cf5a","system_id":"levelo_inurba_marseille","lat":43.279649,"lon":5.387491,"is_reserved":false,"is_disabled":false,"rental_uris":{"android":"levelo://app?vid=c4ece075-62d8-400a-b873-18850276cf5a","ios":"levelo://app?vid=c4ece075-62d8-400a-b873-18850276cf5a"},"vehicle_type_id":"4","last_reported":1736323980,"current_range_meters":11600,"station_id":"ce4bhg12rcd13ifvqf80","pricing_plan_id":"cebpf4jnsgd1na2vs0mg"},{"bike_id":"bd7a65c2-9d47-4a77-9109-57459ddf79ea","system_id":"levelo_inurba_marseille","lat":43.3361,"lon":5.41018,"is_reserved":false,"is_disabled":false,"rental_uris":{"android":"levelo://app?vid=bd7a65c2-9d47-4a77-9109-57459ddf79ea","ios":"levelo://app?vid=bd7a65c2-9d47-4a77-9109-57459ddf79ea"},"vehicle_type_id":"4","last_reported":1736323980,"current_range_meters":28800,"station_id":"ce4bhqh2rcd13ifvqhmg","pricing_plan_id":"cebpf4jnsgd1na2vs0mg"},{"bike_id":"d2b56a15-230e-4877-8466-23e461fb8aea","system_id":"levelo_inurba_marseille","lat":43.3054,"lon":5.36547,"is_reserved":false,"is_disabled":false,"rental_uris":{"android":"levelo://app?vid=d2b56a15-230e-4877-8466-23e461fb8aea","ios":"levelo://app?vid=d2b56a15-230e-4877-8466-23e461fb8aea"},"vehicle_type_id":"4","last_reported":1736323980,"current_range_meters":20400,"station_id":"ce4bgs12rcd13ifvqcag","pricing_plan_id":"cebpf4jnsgd1na2vs0mg"},{"bike_id":"39bedfab-5abf-4402-bf7e-cb9f470f945f","system_id":"levelo_inurba_marseille","lat":43.25726,"lon":5.41102,"is_reserved":false,"is_disabled":true,"rental_uris":{"android":"levelo://app?vid=39bedfab-5abf-4402-bf7e-cb9f470f945f","ios":"levelo://app?vid=39bedfab-5abf-4402-bf7e-cb9f470f945f"},"vehicle_type_id":"4","last_reported":1736323980,"current_range_meters":6800,"station_id":"ce4bhkp2rcd13ifvqgd0","pricing_plan_id":"cebpf4jnsgd1na2vs0mg"},{"bike_id":"9535e3a7-5cf3-4d8b-b4c1-a58d434715e2","system_id":"levelo_inurba_marseille","lat":43.26941,"lon":5.3865,"is_reserved":false,"is_disabled":false,"rental_uris":{"android":"levelo://app?vid=9535e3a7-5cf3-4d8b-b4c1-a58d434715e2","ios":"levelo://app?vid=9535e3a7-5cf3-4d8b-b4c1-a58d434715e2"},"vehicle_type_id":"4","last_reported":1736323980,"current_range_meters":17600,"station_id":"ce4bhh92rcd13ifvqfh0","pricing_plan_id":"cebpf4jnsgd1na2vs0mg"},{"bike_id":"0dfeb564-82a8-447d-8770-508128c22cb5","system_id":"levelo_inurba_marseille","lat":43.28683,"lon":5.38674,"is_reserved":false,"is_disabled":false,"rental_uris":{"android":"levelo://app?vid=0dfeb564-82a8-447d-8770-508128c22cb5","ios":"levelo://app?vid=0dfeb564-82a8-447d-8770-508128c22cb5"},"vehicle_type_id":"4","last_reported":1736323980,"current_range_meters":32800,"station_id":"ce4bh492rcd13ifvqdug","pricing_plan_id":"cebpf4jnsgd1na2vs0mg"},{"bike_id":"8c8ea84c-4d86-44db-8498-d41f200c5014","system_id":"levelo_inurba_marseille","lat":43.28153,"lon":5.4264,"is_reserved":false,"is_disabled":false,"rental_uris":{"android":"levelo://app?vid=8c8ea84c-4d86-44db-8498-d41f200c5014","ios":"levelo://app?vid=8c8ea84c-4d86-44db-8498-d41f200c5014"},"vehicle_type_id":"4","last_reported":1736323980,"current_range_meters":4800,"station_id":"ce4bhnh2rcd13ifvqgug","pricing_plan_id":"cebpf4jnsgd1na2vs0mg"},{"bike_id":"14011734-03fb-4617-8f69-52df8bbdce3b","system_id":"levelo_inurba_marseille","lat":43.26784,"lon":5.3941,"is_reserved":false,"is_disabled":false,"rental_uris":{"android":"levelo://app?vid=14011734-03fb-4617-8f69-52df8bbdce3b","ios":"levelo://app?vid=14011734-03fb-4617-8f69-52df8bbdce3b"},"vehicle_type_id":"4","last_reported":1736323980,"current_range_meters":24000,"station_id":"ce4bhh12rcd13ifvqfg0","pricing_plan_id":"cebpf4jnsgd1na2vs0mg"},{"bike_id":"a4dec33a-3574-46ab-bf07-5ce5a74a1fd6","system_id":"levelo_inurba_marseille","lat":43.28637,"lon":5.35088,"is_reserved":false,"is_disabled":false,"rental_uris":{"android":"levelo://app?vid=a4dec33a-3574-46ab-bf07-5ce5a74a1fd6","ios":"levelo://app?vid=a4dec33a-3574-46ab-bf07-5ce5a74a1fd6"},"vehicle_type_id":"4","last_reported":1736323980,"current_range_meters":28000,"station_id":"ce4bhch2rcd13ifvqeug","pricing_plan_id":"cebpf4jnsgd1na2vs0mg"},{"bike_id":"e63f1381-465a-42a4-9983-175aafc43e9d","system_id":"levelo_inurba_marseille","lat":43.23163,"lon":5.4372,"is_reserved":false,"is_disabled":true,"rental_uris":{"android":"levelo://app?vid=e63f1381-465a-42a4-9983-175aafc43e9d","ios":"levelo://app?vid=e63f1381-465a-42a4-9983-175aafc43e9d"},"vehicle_type_id":"4","last_reported":1736323980,"current_range_meters":19600,"station_id":"ce4bhmp2rcd13ifvqgog","pricing_plan_id":"cebpf4jnsgd1na2vs0mg"},{"bike_id":"3af9aed3-600d-41eb-821b-058b9ff7b0d9","system_id":"levelo_inurba_marseille","lat":43.26201,"lon":5.37925,"is_reserved":false,"is_disabled":false,"rental_uris":{"android":"levelo://app?vid=3af9aed3-600d-41eb-821b-058b9ff7b0d9","ios":"levelo://app?vid=3af9aed3-600d-41eb-821b-058b9ff7b0d9"},"vehicle_type_id":"4","last_reported":1736323980,"current_range_meters":38400,"station_id":"ce4bhjp2rcd13ifvqg90","pricing_plan_id":"cebpf4jnsgd1na2vs0mg"},{"bike_id":"4d5d09de-a31a-4eca-8af1-fa854c3b7051","system_id":"levelo_inurba_marseille","lat":43.25928,"lon":5.40902,"is_reserved":false,"is_disabled":true,"rental_uris":{"android":"levelo://app?vid=4d5d09de-a31a-4eca-8af1-fa854c3b7051","ios":"levelo://app?vid=4d5d09de-a31a-4eca-8af1-fa854c3b7051"},"vehicle_type_id":"4","last_reported":1736323980,"current_range_meters":38800,"station_id":"ce4bhm92rcd13ifvqglg","pricing_plan_id":"cebpf4jnsgd1na2vs0mg"},{"bike_id":"5b44023a-cdd2-41be-8460-751afb10d323","system_id":"levelo_inurba_marseille","lat":43.29569,"lon":5.37529,"is_reserved":false,"is_disabled":false,"rental_uris":{"android":"levelo://app?vid=5b44023a-cdd2-41be-8460-751afb10d323","ios":"levelo://app?vid=5b44023a-cdd2-41be-8460-751afb10d323"},"vehicle_type_id":"4","last_reported":1736323980,"current_range_meters":6400,"station_id":"ce4bgh92rcd13ifvqb50","pricing_plan_id":"cebpf4jnsgd1na2vs0mg"},{"bike_id":"39a66161-6256-4a44-9ff8-9ec79f8478c8","system_id":"levelo_inurba_marseille","lat":43.28617,"lon":5.35108,"is_reserved":false,"is_disabled":false,"rental_uris":{"android":"levelo://app?vid=39a66161-6256-4a44-9ff8-9ec79f8478c8","ios":"levelo://app?vid=39a66161-6256-4a44-9ff8-9ec79f8478c8"},"vehicle_type_id":"4","last_reported":1736323980,"current_range_meters":17600,"station_id":"ce4bhch2rcd13ifvqeug","pricing_plan_id":"cebpf4jnsgd1na2vs0mg"},{"bike_id":"b7a3e479-22c8-4bef-b564-687b2aaffdab","system_id":"levelo_inurba_marseille","lat":43.3014,"lon":5.3991,"is_reserved":false,"is_disabled":false,"rental_uris":{"android":"levelo://app?vid=b7a3e479-22c8-4bef-b564-687b2aaffdab","ios":"levelo://app?vid=b7a3e479-22c8-4bef-b564-687b2aaffdab"},"vehicle_type_id":"4","last_reported":1736323980,"current_range_meters":36000,"station_id":"ce4bh0h2rcd13ifvqd40","pricing_plan_id":"cebpf4jnsgd1na2vs0mg"},{"bike_id":"d45d0089-5e8c-41ac-a04c-9866c8dc94cc","system_id":"levelo_inurba_marseille","lat":43.23197,"lon":5.35546,"is_reserved":false,"is_disabled":false,"rental_uris":{"android":"levelo://app?vid=d45d0089-5e8c-41ac-a04c-9866c8dc94cc","ios":"levelo://app?vid=d45d0089-5e8c-41ac-a04c-9866c8dc94cc"},"vehicle_type_id":"4","last_reported":1736323980,"current_range_meters":37600,"station_id":"ce4bhu92rcd13ifvqi70","pricing_plan_id":"cebpf4jnsgd1na2vs0mg"},{"bike_id":"da60c4cf-490b-4e60-8141-e8f05bde3cfa","system_id":"levelo_inurba_marseille","lat":43.28616,"lon":5.35094,"is_reserved":false,"is_disabled":true,"rental_uris":{"android":"levelo://app?vid=da60c4cf-490b-4e60-8141-e8f05bde3cfa","ios":"levelo://app?vid=da60c4cf-490b-4e60-8141-e8f05bde3cfa"},"vehicle_type_id":"4","last_reported":1736323980,"current_range_meters":400,"station_id":"ce4bhch2rcd13ifvqeug","pricing_plan_id":"cebpf4jnsgd1na2vs0mg"},{"bike_id":"575c7848-1f08-49bb-92f7-0460841f383d","system_id":"levelo_inurba_marseille","lat":43.28305,"lon":5.38283,"is_reserved":false,"is_disabled":false,"rental_uris":{"android":"levelo://app?vid=575c7848-1f08-49bb-92f7-0460841f383d","ios":"levelo://app?vid=575c7848-1f08-49bb-92f7-0460841f383d"},"vehicle_type_id":"4","last_reported":1736323980,"current_range_meters":14800,"station_id":"","pricing_plan_id":"cebpf4jnsgd1na2vs0mg"},{"bike_id":"aa33a53e-f806-43a8-ad7e-8e2bd9644426","system_id":"levelo_inurba_marseille","lat":43.32345,"lon":5.40629,"is_reserved":false,"is_disabled":true,"rental_uris":{"android":"levelo://app?vid=aa33a53e-f806-43a8-ad7e-8e2bd9644426","ios":"levelo://app?vid=aa33a53e-f806-43a8-ad7e-8e2bd9644426"},"vehicle_type_id":"4","last_reported":1736323980,"current_range_meters":0,"station_id":"ce4bhq92rcd13ifvqhjg","pricing_plan_id":"cebpf4jnsgd1na2vs0mg"},{"bike_id":"f83b7699-eac2-4711-a122-38ce9691ada2","system_id":"levelo_inurba_marseille","lat":43.3048,"lon":5.37855,"is_reserved":false,"is_disabled":false,"rental_uris":{"android":"levelo://app?vid=f83b7699-eac2-4711-a122-38ce9691ada2","ios":"levelo://app?vid=f83b7699-eac2-4711-a122-38ce9691ada2"},"vehicle_type_id":"4","last_reported":1736323980,"current_range_meters":38800,"station_id":"ce4bgup2rcd13ifvqcn0","pricing_plan_id":"cebpf4jnsgd1na2vs0mg"},{"bike_id":"139d7fee-ba07-4123-ad67-237db0bc1f21","system_id":"levelo_inurba_marseille","lat":43.26946,"lon":5.38624,"is_reserved":false,"is_disabled":false,"rental_uris":{"android":"levelo://app?vid=139d7fee-ba07-4123-ad67-237db0bc1f21","ios":"levelo://app?vid=139d7fee-ba07-4123-ad67-237db0bc1f21"},"vehicle_type_id":"4","last_reported":1736323980,"current_range_meters":28000,"station_id":"ce4bhh92rcd13ifvqfh0","pricing_plan_id":"cebpf4jnsgd1na2vs0mg"},{"bike_id":"9a036d7f-58a4-4dd9-a561-64a6144c1184","system_id":"levelo_inurba_marseille","lat":43.24068,"lon":5.37762,"is_reserved":false,"is_disabled":false,"rental_uris":{"android":"levelo://app?vid=9a036d7f-58a4-4dd9-a561-64a6144c1184","ios":"levelo://app?vid=9a036d7f-58a4-4dd9-a561-64a6144c1184"},"vehicle_type_id":"4","last_reported":1736323980,"current_range_meters":14800,"station_id":"ce4bhnp2rcd13ifvqgvg","pricing_plan_id":"cebpf4jnsgd1na2vs0mg"},{"bike_id":"015df2ec-0dd0-4de1-8244-56462b4571fd","system_id":"levelo_inurba_marseille","lat":43.25904,"lon":5.39426,"is_reserved":false,"is_disabled":false,"rental_uris":{"android":"levelo://app?vid=015df2ec-0dd0-4de1-8244-56462b4571fd","ios":"levelo://app?vid=015df2ec-0dd0-4de1-8244-56462b4571fd"},"vehicle_type_id":"4","last_reported":1736323980,"current_range_meters":12400,"station_id":"","pricing_plan_id":"cebpf4jnsgd1na2vs0mg"},{"bike_id":"d1e69457-f978-489f-9ea7-bb05ebb86d90","system_id":"levelo_inurba_marseille","lat":43.30541,"lon":5.36725,"is_reserved":false,"is_disabled":false,"rental_uris":{"android":"levelo://app?vid=d1e69457-f978-489f-9ea7-bb05ebb86d90","ios":"levelo://app?vid=d1e69457-f978-489f-9ea7-bb05ebb86d90"},"vehicle_type_id":"4","last_reported":1736323980,"current_range_meters":29600,"station_id":"ce4bgrp2rcd13ifvqc9g","pricing_plan_id":"cebpf4jnsgd1na2vs0mg"},{"bike_id":"be457d0e-e951-4c20-92b5-c162743063cd","system_id":"levelo_inurba_marseille","lat":43.33016,"lon":5.39052,"is_reserved":false,"is_disabled":false,"rental_uris":{"android":"levelo://app?vid=be457d0e-e951-4c20-92b5-c162743063cd","ios":"levelo://app?vid=be457d0e-e951-4c20-92b5-c162743063cd"},"vehicle_type_id":"4","last_reported":1736323980,"current_range_meters":14800,"station_id":"ce4bhr92rcd13ifvqhrg","pricing_plan_id":"cebpf4jnsgd1na2vs0mg"},{"bike_id":"5a610a92-ec66-4c09-b8f2-d292ab86e791","system_id":"levelo_inurba_marseille","lat":43.3013,"lon":5.374,"is_reserved":false,"is_disabled":true,"rental_uris":{"android":"levelo://app?vid=5a610a92-ec66-4c09-b8f2-d292ab86e791","ios":"levelo://app?vid=5a610a92-ec66-4c09-b8f2-d292ab86e791"},"vehicle_type_id":"4","last_reported":1736323980,"current_range_meters":37600,"station_id":"ce4bgs92rcd13ifvqcc0","pricing_plan_id":"cebpf4jnsgd1na2vs0mg"},{"bike_id":"8b42b122-781c-4312-8289-d3e216b3876e","system_id":"levelo_inurba_marseille","lat":43.25919,"lon":5.40918,"is_reserved":false,"is_disabled":false,"rental_uris":{"android":"levelo://app?vid=8b42b122-781c-4312-8289-d3e216b3876e","ios":"levelo://app?vid=8b42b122-781c-4312-8289-d3e216b3876e"},"vehicle_type_id":"4","last_reported":1736323980,"current_range_meters":38800,"station_id":"ce4bhm92rcd13ifvqglg","pricing_plan_id":"cebpf4jnsgd1na2vs0mg"},{"bike_id":"34c9a149-7d1b-4e58-a6b4-17edaa5a6718","system_id":"levelo_inurba_marseille","lat":43.32541,"lon":5.41444,"is_reserved":false,"is_disabled":false,"rental_uris":{"android":"levelo://app?vid=34c9a149-7d1b-4e58-a6b4-17edaa5a6718","ios":"levelo://app?vid=34c9a149-7d1b-4e58-a6b4-17edaa5a6718"},"vehicle_type_id":"4","last_reported":1736323980,"current_range_meters":39200,"station_id":"ce4bhq12rcd13ifvqhhg","pricing_plan_id":"cebpf4jnsgd1na2vs0mg"},{"bike_id":"70b964cc-a7e8-4575-ad39-090a0f1baff7","system_id":"levelo_inurba_marseille","lat":43.30949,"lon":5.39025,"is_reserved":false,"is_disabled":true,"rental_uris":{"android":"levelo://app?vid=70b964cc-a7e8-4575-ad39-090a0f1baff7","ios":"levelo://app?vid=70b964cc-a7e8-4575-ad39-090a0f1baff7"},"vehicle_type_id":"4","last_reported":1736323980,"current_range_meters":30400,"station_id":"ce4bgup2rcd13ifvqco0","pricing_plan_id":"cebpf4jnsgd1na2vs0mg"},{"bike_id":"45976433-508e-4d90-a5fb-7a7f31608f71","system_id":"levelo_inurba_marseille","lat":43.26211,"lon":5.37442,"is_reserved":false,"is_disabled":false,"rental_uris":{"android":"levelo://app?vid=45976433-508e-4d90-a5fb-7a7f31608f71","ios":"levelo://app?vid=45976433-508e-4d90-a5fb-7a7f31608f71"},"vehicle_type_id":"4","last_reported":1736323980,"current_range_meters":36000,"station_id":"ce4bhgp2rcd13ifvqfc0","pricing_plan_id":"cebpf4jnsgd1na2vs0mg"},{"bike_id":"14a4122a-f452-4aae-b18c-712339646710","system_id":"levelo_inurba_marseille","lat":43.33015,"lon":5.39038,"is_reserved":false,"is_disabled":false,"rental_uris":{"android":"levelo://app?vid=14a4122a-f452-4aae-b18c-712339646710","ios":"levelo://app?vid=14a4122a-f452-4aae-b18c-712339646710"},"vehicle_type_id":"4","last_reported":1736323980,"current_range_meters":37600,"station_id":"ce4bhr92rcd13ifvqhrg","pricing_plan_id":"cebpf4jnsgd1na2vs0mg"},{"bike_id":"31fc1b88-f4e1-46ba-b85e-c38872103c84","system_id":"levelo_inurba_marseille","lat":43.27965,"lon":5.38695,"is_reserved":false,"is_disabled":false,"rental_uris":{"android":"levelo://app?vid=31fc1b88-f4e1-46ba-b85e-c38872103c84","ios":"levelo://app?vid=31fc1b88-f4e1-46ba-b85e-c38872103c84"},"vehicle_type_id":"4","last_reported":1736323980,"current_range_meters":2800,"station_id":"ce4bhg12rcd13ifvqf80","pricing_plan_id":"cebpf4jnsgd1na2vs0mg"},{"bike_id":"1e4b11b9-aef6-4e3d-9c15-1a4a39f3f31a","system_id":"levelo_inurba_marseille","lat":43.2977,"lon":5.38142,"is_reserved":false,"is_disabled":true,"rental_uris":{"android":"levelo://app?vid=1e4b11b9-aef6-4e3d-9c15-1a4a39f3f31a","ios":"levelo://app?vid=1e4b11b9-aef6-4e3d-9c15-1a4a39f3f31a"},"vehicle_type_id":"4","last_reported":1736323980,"current_range_meters":36000,"station_id":"ce4bgip2rcd13ifvqbb0","pricing_plan_id":"cebpf4jnsgd1na2vs0mg"},{"bike_id":"7b786416-a15d-4888-bc83-cebc3c5143fe","system_id":"levelo_inurba_marseille","lat":43.28037,"lon":5.36938,"is_reserved":false,"is_disabled":false,"rental_uris":{"android":"levelo://app?vid=7b786416-a15d-4888-bc83-cebc3c5143fe","ios":"levelo://app?vid=7b786416-a15d-4888-bc83-cebc3c5143fe"},"vehicle_type_id":"4","last_reported":1736323980,"current_range_meters":36000,"station_id":"ce4bha12rcd13ifvqef0","pricing_plan_id":"cebpf4jnsgd1na2vs0mg"},{"bike_id":"b611d04a-68fa-4e69-89f5-f5abfb42c0c2","system_id":"levelo_inurba_marseille","lat":43.273716,"lon":5.362609,"is_reserved":false,"is_disabled":false,"rental_uris":{"android":"levelo://app?vid=b611d04a-68fa-4e69-89f5-f5abfb42c0c2","ios":"levelo://app?vid=b611d04a-68fa-4e69-89f5-f5abfb42c0c2"},"vehicle_type_id":"4","last_reported":1736323980,"current_range_meters":38000,"station_id":"ce4bhbh2rcd13ifvqeo0","pricing_plan_id":"cebpf4jnsgd1na2vs0mg"},{"bike_id":"e5bdb990-8fd8-4d6b-a4be-716d9b355fa0","system_id":"levelo_inurba_marseille","lat":43.33616,"lon":5.4098,"is_reserved":false,"is_disabled":false,"rental_uris":{"android":"levelo://app?vid=e5bdb990-8fd8-4d6b-a4be-716d9b355fa0","ios":"levelo://app?vid=e5bdb990-8fd8-4d6b-a4be-716d9b355fa0"},"vehicle_type_id":"4","last_reported":1736323980,"current_range_meters":39200,"station_id":"ce4bhqh2rcd13ifvqhmg","pricing_plan_id":"cebpf4jnsgd1na2vs0mg"},{"bike_id":"309ccd6b-875d-41f3-8e5c-a2f1cb9b9a1b","system_id":"levelo_inurba_marseille","lat":43.30946,"lon":5.39023,"is_reserved":false,"is_disabled":true,"rental_uris":{"android":"levelo://app?vid=309ccd6b-875d-41f3-8e5c-a2f1cb9b9a1b","ios":"levelo://app?vid=309ccd6b-875d-41f3-8e5c-a2f1cb9b9a1b"},"vehicle_type_id":"4","last_reported":1736323980,"current_range_meters":32000,"station_id":"ce4bgup2rcd13ifvqco0","pricing_plan_id":"cebpf4jnsgd1na2vs0mg"},{"bike_id":"12a6974f-ad95-49dd-b762-24b4440cae9f","system_id":"levelo_inurba_marseille","lat":43.258677,"lon":5.399017,"is_reserved":false,"is_disabled":true,"rental_uris":{"android":"levelo://app?vid=12a6974f-ad95-49dd-b762-24b4440cae9f","ios":"levelo://app?vid=12a6974f-ad95-49dd-b762-24b4440cae9f"},"vehicle_type_id":"4","last_reported":1736323980,"current_range_meters":38800,"station_id":"ce4bhl92rcd13ifvqghg","pricing_plan_id":"cebpf4jnsgd1na2vs0mg"},{"bike_id":"4cd81cd1-fc10-4bfd-a78d-7dc5cffb7b07","system_id":"levelo_inurba_marseille","lat":43.28947,"lon":5.36404,"is_reserved":false,"is_disabled":false,"rental_uris":{"android":"levelo://app?vid=4cd81cd1-fc10-4bfd-a78d-7dc5cffb7b07","ios":"levelo://app?vid=4cd81cd1-fc10-4bfd-a78d-7dc5cffb7b07"},"vehicle_type_id":"4","last_reported":1736323980,"current_range_meters":38400,"station_id":"ce4bhc92rcd13ifvqetg","pricing_plan_id":"cebpf4jnsgd1na2vs0mg"},{"bike_id":"bbf998ea-d252-4590-8711-16d78ff4b07c","system_id":"levelo_inurba_marseille","lat":43.24643,"lon":5.38895,"is_reserved":false,"is_disabled":false,"rental_uris":{"android":"levelo://app?vid=bbf998ea-d252-4590-8711-16d78ff4b07c","ios":"levelo://app?vid=bbf998ea-d252-4590-8711-16d78ff4b07c"},"vehicle_type_id":"4","last_reported":1736323980,"current_range_meters":24000,"station_id":"ce4bhg12rcd13ifvqf60","pricing_plan_id":"cebpf4jnsgd1na2vs0mg"},{"bike_id":"029846ec-4a4b-4a30-bda8-b1a9de2c64fb","system_id":"levelo_inurba_marseille","lat":43.31355,"lon":5.36706,"is_reserved":false,"is_disabled":false,"rental_uris":{"android":"levelo://app?vid=029846ec-4a4b-4a30-bda8-b1a9de2c64fb","ios":"levelo://app?vid=029846ec-4a4b-4a30-bda8-b1a9de2c64fb"},"vehicle_type_id":"4","last_reported":1736323980,"current_range_meters":26800,"station_id":"ce4bgr92rcd13ifvqc6g","pricing_plan_id":"cebpf4jnsgd1na2vs0mg"},{"bike_id":"9bff1121-f05e-4336-a38e-1f28103c59ac","system_id":"levelo_inurba_marseille","lat":43.29568,"lon":5.39958,"is_reserved":false,"is_disabled":false,"rental_uris":{"android":"levelo://app?vid=9bff1121-f05e-4336-a38e-1f28103c59ac","ios":"levelo://app?vid=9bff1121-f05e-4336-a38e-1f28103c59ac"},"vehicle_type_id":"4","last_reported":1736323980,"current_range_meters":32000,"station_id":"ce4bh312rcd13ifvqdj0","pricing_plan_id":"cebpf4jnsgd1na2vs0mg"},{"bike_id":"923074d6-010f-4e55-8918-33d31e71d5a6","system_id":"levelo_inurba_marseille","lat":43.26061,"lon":5.39373,"is_reserved":false,"is_disabled":false,"rental_uris":{"android":"levelo://app?vid=923074d6-010f-4e55-8918-33d31e71d5a6","ios":"levelo://app?vid=923074d6-010f-4e55-8918-33d31e71d5a6"},"vehicle_type_id":"4","last_reported":1736323980,"current_range_meters":14800,"station_id":"ce4bhh92rcd13ifvqfj0","pricing_plan_id":"cebpf4jnsgd1na2vs0mg"},{"bike_id":"07584b57-f35c-455a-a9df-bd46a39da882","system_id":"levelo_inurba_marseille","lat":43.30471,"lon":5.37914,"is_reserved":false,"is_disabled":false,"rental_uris":{"android":"levelo://app?vid=07584b57-f35c-455a-a9df-bd46a39da882","ios":"levelo://app?vid=07584b57-f35c-455a-a9df-bd46a39da882"},"vehicle_type_id":"4","last_reported":1736323980,"current_range_meters":32000,"station_id":"ce4bgup2rcd13ifvqcn0","pricing_plan_id":"cebpf4jnsgd1na2vs0mg"},{"bike_id":"ac378c34-4184-45d2-94fe-9e715bf2795b","system_id":"levelo_inurba_marseille","lat":43.30311,"lon":5.36911,"is_reserved":false,"is_disabled":false,"rental_uris":{"android":"levelo://app?vid=ac378c34-4184-45d2-94fe-9e715bf2795b","ios":"levelo://app?vid=ac378c34-4184-45d2-94fe-9e715bf2795b"},"vehicle_type_id":"4","last_reported":1736323980,"current_range_meters":26800,"station_id":"ce4bgqh2rcd13ifvqc5g","pricing_plan_id":"cebpf4jnsgd1na2vs0mg"},{"bike_id":"c3b209c7-d95c-454f-ac55-b8aa00930607","system_id":"levelo_inurba_marseille","lat":43.29924,"lon":5.37472,"is_reserved":false,"is_disabled":false,"rental_uris":{"android":"levelo://app?vid=c3b209c7-d95c-454f-ac55-b8aa00930607","ios":"levelo://app?vid=c3b209c7-d95c-454f-ac55-b8aa00930607"},"vehicle_type_id":"4","last_reported":1736323980,"current_range_meters":33200,"station_id":"ce4bgjh2rcd13ifvqbg0","pricing_plan_id":"cebpf4jnsgd1na2vs0mg"},{"bike_id":"7501b46c-f34a-4d33-9c30-ec6840e8af9c","system_id":"levelo_inurba_marseille","lat":43.28337,"lon":5.38122,"is_reserved":false,"is_disabled":true,"rental_uris":{"android":"levelo://app?vid=7501b46c-f34a-4d33-9c30-ec6840e8af9c","ios":"levelo://app?vid=7501b46c-f34a-4d33-9c30-ec6840e8af9c"},"vehicle_type_id":"4","last_reported":1736323980,"current_range_meters":36000,"station_id":"ce4bh412rcd13ifvqdr0","pricing_plan_id":"cebpf4jnsgd1na2vs0mg"},{"bike_id":"d9498735-00f3-48c9-ad13-3d0c9ae00353","system_id":"levelo_inurba_marseille","lat":43.26686,"lon":5.38271,"is_reserved":false,"is_disabled":false,"rental_uris":{"android":"levelo://app?vid=d9498735-00f3-48c9-ad13-3d0c9ae00353","ios":"levelo://app?vid=d9498735-00f3-48c9-ad13-3d0c9ae00353"},"vehicle_type_id":"4","last_reported":1736323980,"current_range_meters":38800,"station_id":"ce4bhg92rcd13ifvqf90","pricing_plan_id":"cebpf4jnsgd1na2vs0mg"},{"bike_id":"bc2873b0-9774-491c-a2de-b95e350f7bdb","system_id":"levelo_inurba_marseille","lat":43.27778,"lon":5.39903,"is_reserved":false,"is_disabled":true,"rental_uris":{"android":"levelo://app?vid=bc2873b0-9774-491c-a2de-b95e350f7bdb","ios":"levelo://app?vid=bc2873b0-9774-491c-a2de-b95e350f7bdb"},"vehicle_type_id":"4","last_reported":1736323980,"current_range_meters":0,"station_id":"","pricing_plan_id":"cebpf4jnsgd1na2vs0mg"},{"bike_id":"74942fe7-3e6e-4a0f-84df-8d76dcc310a7","system_id":"levelo_inurba_marseille","lat":43.29555,"lon":5.42283,"is_reserved":false,"is_disabled":true,"rental_uris":{"android":"levelo://app?vid=74942fe7-3e6e-4a0f-84df-8d76dcc310a7","ios":"levelo://app?vid=74942fe7-3e6e-4a0f-84df-8d76dcc310a7"},"vehicle_type_id":"4","last_reported":1736323980,"current_range_meters":1600,"station_id":"ce4bhph2rcd13ifvqhdg","pricing_plan_id":"cebpf4jnsgd1na2vs0mg"},{"bike_id":"d66fa23c-9061-45b0-afac-bee93436838c","system_id":"levelo_inurba_marseille","lat":43.31529,"lon":5.38019,"is_reserved":false,"is_disabled":false,"rental_uris":{"android":"levelo://app?vid=d66fa23c-9061-45b0-afac-bee93436838c","ios":"levelo://app?vid=d66fa23c-9061-45b0-afac-bee93436838c"},"vehicle_type_id":"4","last_reported":1736323980,"current_range_meters":22800,"station_id":"ce4bhsp2rcd13ifvqi50","pricing_plan_id":"cebpf4jnsgd1na2vs0mg"},{"bike_id":"1e297576-65d7-4d7e-82e0-d872b833f39a","system_id":"levelo_inurba_marseille","lat":43.30858,"lon":5.3686,"is_reserved":false,"is_disabled":true,"rental_uris":{"android":"levelo://app?vid=1e297576-65d7-4d7e-82e0-d872b833f39a","ios":"levelo://app?vid=1e297576-65d7-4d7e-82e0-d872b833f39a"},"vehicle_type_id":"4","last_reported":1736323980,"current_range_meters":20800,"station_id":"","pricing_plan_id":"cebpf4jnsgd1na2vs0mg"},{"bike_id":"12862326-6e9b-4d25-bff6-7861cc3847bb","system_id":"levelo_inurba_marseille","lat":43.26943,"lon":5.38645,"is_reserved":false,"is_disabled":false,"rental_uris":{"android":"levelo://app?vid=12862326-6e9b-4d25-bff6-7861cc3847bb","ios":"levelo://app?vid=12862326-6e9b-4d25-bff6-7861cc3847bb"},"vehicle_type_id":"4","last_reported":1736323980,"current_range_meters":34800,"station_id":"ce4bhh92rcd13ifvqfh0","pricing_plan_id":"cebpf4jnsgd1na2vs0mg"},{"bike_id":"f3068faf-6ea3-45c0-943e-8f5eb9fecb3c","system_id":"levelo_inurba_marseille","lat":43.23962,"lon":5.36633,"is_reserved":false,"is_disabled":false,"rental_uris":{"android":"levelo://app?vid=f3068faf-6ea3-45c0-943e-8f5eb9fecb3c","ios":"levelo://app?vid=f3068faf-6ea3-45c0-943e-8f5eb9fecb3c"},"vehicle_type_id":"4","last_reported":1736323980,"current_range_meters":34000,"station_id":"ce4bhi12rcd13ifvqfp0","pricing_plan_id":"cebpf4jnsgd1na2vs0mg"},{"bike_id":"e40367b0-c531-4691-bd5b-4322a48cc8cc","system_id":"levelo_inurba_marseille","lat":43.24066,"lon":5.37756,"is_reserved":false,"is_disabled":false,"rental_uris":{"android":"levelo://app?vid=e40367b0-c531-4691-bd5b-4322a48cc8cc","ios":"levelo://app?vid=e40367b0-c531-4691-bd5b-4322a48cc8cc"},"vehicle_type_id":"4","last_reported":1736323980,"current_range_meters":20800,"station_id":"ce4bhnp2rcd13ifvqgvg","pricing_plan_id":"cebpf4jnsgd1na2vs0mg"},{"bike_id":"23a66e3f-8e17-4ad8-b689-a42d7cb5191e","system_id":"levelo_inurba_marseille","lat":43.27845,"lon":5.39254,"is_reserved":false,"is_disabled":true,"rental_uris":{"android":"levelo://app?vid=23a66e3f-8e17-4ad8-b689-a42d7cb5191e","ios":"levelo://app?vid=23a66e3f-8e17-4ad8-b689-a42d7cb5191e"},"vehicle_type_id":"4","last_reported":1736323980,"current_range_meters":2000,"station_id":"","pricing_plan_id":"cebpf4jnsgd1na2vs0mg"},{"bike_id":"2937c8f0-6f06-4c7f-8240-41ad44bc55fa","system_id":"levelo_inurba_marseille","lat":43.232,"lon":5.3998,"is_reserved":false,"is_disabled":false,"rental_uris":{"android":"levelo://app?vid=2937c8f0-6f06-4c7f-8240-41ad44bc55fa","ios":"levelo://app?vid=2937c8f0-6f06-4c7f-8240-41ad44bc55fa"},"vehicle_type_id":"4","last_reported":1736323980,"current_range_meters":8000,"station_id":"ce4bhn12rcd13ifvqgqg","pricing_plan_id":"cebpf4jnsgd1na2vs0mg"},{"bike_id":"d2393e5f-f314-4a5a-b0fd-30f9b50a97d3","system_id":"levelo_inurba_marseille","lat":43.29902,"lon":5.38157,"is_reserved":false,"is_disabled":false,"rental_uris":{"android":"levelo://app?vid=d2393e5f-f314-4a5a-b0fd-30f9b50a97d3","ios":"levelo://app?vid=d2393e5f-f314-4a5a-b0fd-30f9b50a97d3"},"vehicle_type_id":"4","last_reported":1736323980,"current_range_meters":18800,"station_id":"ce4bgj12rcd13ifvqbc0","pricing_plan_id":"cebpf4jnsgd1na2vs0mg"},{"bike_id":"c67f86a7-d1e6-4e2d-a762-5d292001711c","system_id":"levelo_inurba_marseille","lat":43.33018,"lon":5.39039,"is_reserved":false,"is_disabled":false,"rental_uris":{"android":"levelo://app?vid=c67f86a7-d1e6-4e2d-a762-5d292001711c","ios":"levelo://app?vid=c67f86a7-d1e6-4e2d-a762-5d292001711c"},"vehicle_type_id":"4","last_reported":1736323980,"current_range_meters":38400,"station_id":"ce4bhr92rcd13ifvqhrg","pricing_plan_id":"cebpf4jnsgd1na2vs0mg"},{"bike_id":"c01f4f1a-573b-4d99-8da5-f2adf753be43","system_id":"levelo_inurba_marseille","lat":43.29033,"lon":5.39984,"is_reserved":false,"is_disabled":false,"rental_uris":{"android":"levelo://app?vid=c01f4f1a-573b-4d99-8da5-f2adf753be43","ios":"levelo://app?vid=c01f4f1a-573b-4d99-8da5-f2adf753be43"},"vehicle_type_id":"4","last_reported":1736323980,"current_range_meters":8000,"station_id":"ce4bh392rcd13ifvqdm0","pricing_plan_id":"cebpf4jnsgd1na2vs0mg"},{"bike_id":"ce9c1f47-c060-4871-9113-bc30d61810e0","system_id":"levelo_inurba_marseille","lat":43.25,"lon":5.38933,"is_reserved":false,"is_disabled":false,"rental_uris":{"android":"levelo://app?vid=ce9c1f47-c060-4871-9113-bc30d61810e0","ios":"levelo://app?vid=ce9c1f47-c060-4871-9113-bc30d61810e0"},"vehicle_type_id":"4","last_reported":1736323980,"current_range_meters":9600,"station_id":"ce4bhgp2rcd13ifvqfd0","pricing_plan_id":"cebpf4jnsgd1na2vs0mg"},{"bike_id":"a9d52fa1-29df-4cb7-b585-92394082e948","system_id":"levelo_inurba_marseille","lat":43.24076,"lon":5.3776,"is_reserved":false,"is_disabled":false,"rental_uris":{"android":"levelo://app?vid=a9d52fa1-29df-4cb7-b585-92394082e948","ios":"levelo://app?vid=a9d52fa1-29df-4cb7-b585-92394082e948"},"vehicle_type_id":"4","last_reported":1736323980,"current_range_meters":20400,"station_id":"ce4bhnp2rcd13ifvqgvg","pricing_plan_id":"cebpf4jnsgd1na2vs0mg"},{"bike_id":"43f1ba0d-d75a-4d84-9d5d-13602150594c","system_id":"levelo_inurba_marseille","lat":43.29529,"lon":5.38547,"is_reserved":false,"is_disabled":false,"rental_uris":{"android":"levelo://app?vid=43f1ba0d-d75a-4d84-9d5d-13602150594c","ios":"levelo://app?vid=43f1ba0d-d75a-4d84-9d5d-13602150594c"},"vehicle_type_id":"4","last_reported":1736323980,"current_range_meters":34800,"station_id":"ce4bgih2rcd13ifvqba0","pricing_plan_id":"cebpf4jnsgd1na2vs0mg"},{"bike_id":"c5f8f22d-3e47-4405-a9fb-74cfce6679cc","system_id":"levelo_inurba_marseille","lat":43.289734,"lon":5.378326,"is_reserved":false,"is_disabled":false,"rental_uris":{"android":"levelo://app?vid=c5f8f22d-3e47-4405-a9fb-74cfce6679cc","ios":"levelo://app?vid=c5f8f22d-3e47-4405-a9fb-74cfce6679cc"},"vehicle_type_id":"4","last_reported":1736323980,"current_range_meters":38800,"station_id":"ce4bh9p2rcd13ifvqed0","pricing_plan_id":"cebpf4jnsgd1na2vs0mg"},{"bike_id":"d014f699-d84d-436b-b3bf-8c059d18ea89","system_id":"levelo_inurba_marseille","lat":43.22916,"lon":5.35374,"is_reserved":false,"is_disabled":false,"rental_uris":{"android":"levelo://app?vid=d014f699-d84d-436b-b3bf-8c059d18ea89","ios":"levelo://app?vid=d014f699-d84d-436b-b3bf-8c059d18ea89"},"vehicle_type_id":"4","last_reported":1736323980,"current_range_meters":4000,"station_id":"cpo3532slgdg3j2ikp40","pricing_plan_id":"cebpf4jnsgd1na2vs0mg"},{"bike_id":"85db0274-aa0a-4f9a-b691-02cfca5d3623","system_id":"levelo_inurba_marseille","lat":43.29853,"lon":5.36271,"is_reserved":false,"is_disabled":false,"rental_uris":{"android":"levelo://app?vid=85db0274-aa0a-4f9a-b691-02cfca5d3623","ios":"levelo://app?vid=85db0274-aa0a-4f9a-b691-02cfca5d3623"},"vehicle_type_id":"4","last_reported":1736323980,"current_range_meters":38800,"station_id":"ce4bgpp2rcd13ifvqc3g","pricing_plan_id":"cebpf4jnsgd1na2vs0mg"},{"bike_id":"bcf0873f-047d-422f-a962-e3d9e5c25737","system_id":"levelo_inurba_marseille","lat":43.26685,"lon":5.38274,"is_reserved":false,"is_disabled":false,"rental_uris":{"android":"levelo://app?vid=bcf0873f-047d-422f-a962-e3d9e5c25737","ios":"levelo://app?vid=bcf0873f-047d-422f-a962-e3d9e5c25737"},"vehicle_type_id":"4","last_reported":1736323980,"current_range_meters":30000,"station_id":"ce4bhg92rcd13ifvqf90","pricing_plan_id":"cebpf4jnsgd1na2vs0mg"},{"bike_id":"307844d7-d74c-46a0-85d7-996f2835bb34","system_id":"levelo_inurba_marseille","lat":43.28854,"lon":5.35853,"is_reserved":false,"is_disabled":false,"rental_uris":{"android":"levelo://app?vid=307844d7-d74c-46a0-85d7-996f2835bb34","ios":"levelo://app?vid=307844d7-d74c-46a0-85d7-996f2835bb34"},"vehicle_type_id":"4","last_reported":1736323980,"current_range_meters":37600,"station_id":"ce4bhb12rcd13ifvqem0","pricing_plan_id":"cebpf4jnsgd1na2vs0mg"},{"bike_id":"955387a8-4a47-4691-946f-78754c88504b","system_id":"levelo_inurba_marseille","lat":43.23191,"lon":5.35553,"is_reserved":false,"is_disabled":false,"rental_uris":{"android":"levelo://app?vid=955387a8-4a47-4691-946f-78754c88504b","ios":"levelo://app?vid=955387a8-4a47-4691-946f-78754c88504b"},"vehicle_type_id":"4","last_reported":1736323980,"current_range_meters":34000,"station_id":"ce4bhu92rcd13ifvqi70","pricing_plan_id":"cebpf4jnsgd1na2vs0mg"},{"bike_id":"f949af9a-2683-4ec9-b4bf-168b31b3bcb2","system_id":"levelo_inurba_marseille","lat":43.24642,"lon":5.38923,"is_reserved":false,"is_disabled":false,"rental_uris":{"android":"levelo://app?vid=f949af9a-2683-4ec9-b4bf-168b31b3bcb2","ios":"levelo://app?vid=f949af9a-2683-4ec9-b4bf-168b31b3bcb2"},"vehicle_type_id":"4","last_reported":1736323980,"current_range_meters":12800,"station_id":"ce4bhg12rcd13ifvqf60","pricing_plan_id":"cebpf4jnsgd1na2vs0mg"},{"bike_id":"924cf6cf-e55f-47b8-a215-85149c3ae1eb","system_id":"levelo_inurba_marseille","lat":43.29611,"lon":5.37701,"is_reserved":false,"is_disabled":false,"rental_uris":{"android":"levelo://app?vid=924cf6cf-e55f-47b8-a215-85149c3ae1eb","ios":"levelo://app?vid=924cf6cf-e55f-47b8-a215-85149c3ae1eb"},"vehicle_type_id":"4","last_reported":1736323980,"current_range_meters":30800,"station_id":"ce4bgi92rcd13ifvqb90","pricing_plan_id":"cebpf4jnsgd1na2vs0mg"},{"bike_id":"9e8d28b3-5653-4ae0-beef-c25652e53ff6","system_id":"levelo_inurba_marseille","lat":43.29973,"lon":5.38484,"is_reserved":false,"is_disabled":false,"rental_uris":{"android":"levelo://app?vid=9e8d28b3-5653-4ae0-beef-c25652e53ff6","ios":"levelo://app?vid=9e8d28b3-5653-4ae0-beef-c25652e53ff6"},"vehicle_type_id":"4","last_reported":1736323980,"current_range_meters":35600,"station_id":"ce4bgj92rcd13ifvqbd0","pricing_plan_id":"cebpf4jnsgd1na2vs0mg"},{"bike_id":"aa850542-0e89-4864-a06c-1c75e60a736e","system_id":"levelo_inurba_marseille","lat":43.26796,"lon":5.39414,"is_reserved":false,"is_disabled":false,"rental_uris":{"android":"levelo://app?vid=aa850542-0e89-4864-a06c-1c75e60a736e","ios":"levelo://app?vid=aa850542-0e89-4864-a06c-1c75e60a736e"},"vehicle_type_id":"4","last_reported":1736323980,"current_range_meters":9600,"station_id":"ce4bhh12rcd13ifvqfg0","pricing_plan_id":"cebpf4jnsgd1na2vs0mg"},{"bike_id":"1175f5cf-eb4d-441c-8803-ab44ee1c1fb5","system_id":"levelo_inurba_marseille","lat":43.29056,"lon":5.3591,"is_reserved":false,"is_disabled":true,"rental_uris":{"android":"levelo://app?vid=1175f5cf-eb4d-441c-8803-ab44ee1c1fb5","ios":"levelo://app?vid=1175f5cf-eb4d-441c-8803-ab44ee1c1fb5"},"vehicle_type_id":"4","last_reported":1736323980,"current_range_meters":38000,"station_id":"ce4bha92rcd13ifvqeg0","pricing_plan_id":"cebpf4jnsgd1na2vs0mg"},{"bike_id":"bc1bddae-bd10-42d4-8103-93c754584557","system_id":"levelo_inurba_marseille","lat":43.29584,"lon":5.37577,"is_reserved":false,"is_disabled":false,"rental_uris":{"android":"levelo://app?vid=bc1bddae-bd10-42d4-8103-93c754584557","ios":"levelo://app?vid=bc1bddae-bd10-42d4-8103-93c754584557"},"vehicle_type_id":"4","last_reported":1736323980,"current_range_meters":28400,"station_id":"ce4bgup2rcd13ifvqco0","pricing_plan_id":"cebpf4jnsgd1na2vs0mg"},{"bike_id":"bfa48a80-9b65-46cd-b2e8-810ef73b75e8","system_id":"levelo_inurba_marseille","lat":43.29036,"lon":5.39967,"is_reserved":false,"is_disabled":false,"rental_uris":{"android":"levelo://app?vid=bfa48a80-9b65-46cd-b2e8-810ef73b75e8","ios":"levelo://app?vid=bfa48a80-9b65-46cd-b2e8-810ef73b75e8"},"vehicle_type_id":"4","last_reported":1736323980,"current_range_meters":30800,"station_id":"ce4bh392rcd13ifvqdm0","pricing_plan_id":"cebpf4jnsgd1na2vs0mg"},{"bike_id":"a344e607-2212-45d5-b6de-a9033a6aa79f","system_id":"levelo_inurba_marseille","lat":43.26212,"lon":5.37896,"is_reserved":false,"is_disabled":false,"rental_uris":{"android":"levelo://app?vid=a344e607-2212-45d5-b6de-a9033a6aa79f","ios":"levelo://app?vid=a344e607-2212-45d5-b6de-a9033a6aa79f"},"vehicle_type_id":"4","last_reported":1736323980,"current_range_meters":36400,"station_id":"ce4bhjp2rcd13ifvqg90","pricing_plan_id":"cebpf4jnsgd1na2vs0mg"},{"bike_id":"e5bdc656-799c-4b61-9e89-7dbf4d0b6f78","system_id":"levelo_inurba_marseille","lat":43.30947,"lon":5.39027,"is_reserved":false,"is_disabled":false,"rental_uris":{"android":"levelo://app?vid=e5bdc656-799c-4b61-9e89-7dbf4d0b6f78","ios":"levelo://app?vid=e5bdc656-799c-4b61-9e89-7dbf4d0b6f78"},"vehicle_type_id":"4","last_reported":1736323980,"current_range_meters":39200,"station_id":"ce4bgup2rcd13ifvqco0","pricing_plan_id":"cebpf4jnsgd1na2vs0mg"},{"bike_id":"73369133-d002-437e-a950-674ed971c349","system_id":"levelo_inurba_marseille","lat":43.3094,"lon":5.39037,"is_reserved":false,"is_disabled":false,"rental_uris":{"android":"levelo://app?vid=73369133-d002-437e-a950-674ed971c349","ios":"levelo://app?vid=73369133-d002-437e-a950-674ed971c349"},"vehicle_type_id":"4","last_reported":1736323980,"current_range_meters":23200,"station_id":"ce4bgup2rcd13ifvqco0","pricing_plan_id":"cebpf4jnsgd1na2vs0mg"},{"bike_id":"16b0ab00-8b4f-4f6e-9216-7be0728dd86e","system_id":"levelo_inurba_marseille","lat":43.31366,"lon":5.36691,"is_reserved":false,"is_disabled":false,"rental_uris":{"android":"levelo://app?vid=16b0ab00-8b4f-4f6e-9216-7be0728dd86e","ios":"levelo://app?vid=16b0ab00-8b4f-4f6e-9216-7be0728dd86e"},"vehicle_type_id":"4","last_reported":1736323980,"current_range_meters":4400,"station_id":"ce4bgr92rcd13ifvqc6g","pricing_plan_id":"cebpf4jnsgd1na2vs0mg"},{"bike_id":"4d8933e2-5888-4f6b-80fa-fa70e448ecfe","system_id":"levelo_inurba_marseille","lat":43.2416,"lon":5.36406,"is_reserved":false,"is_disabled":false,"rental_uris":{"android":"levelo://app?vid=4d8933e2-5888-4f6b-80fa-fa70e448ecfe","ios":"levelo://app?vid=4d8933e2-5888-4f6b-80fa-fa70e448ecfe"},"vehicle_type_id":"4","last_reported":1736323980,"current_range_meters":20400,"station_id":"cpo36qri1sfpv3e86is0","pricing_plan_id":"cebpf4jnsgd1na2vs0mg"},{"bike_id":"761d165d-f444-4b88-8a90-c1b0c76f3158","system_id":"levelo_inurba_marseille","lat":43.251,"lon":5.40356,"is_reserved":false,"is_disabled":false,"rental_uris":{"android":"levelo://app?vid=761d165d-f444-4b88-8a90-c1b0c76f3158","ios":"levelo://app?vid=761d165d-f444-4b88-8a90-c1b0c76f3158"},"vehicle_type_id":"4","last_reported":1736323980,"current_range_meters":38000,"station_id":"ce4bhlh2rcd13ifvqgig","pricing_plan_id":"cebpf4jnsgd1na2vs0mg"},{"bike_id":"2cac112a-19df-44f0-8ce7-3be7bf881544","system_id":"levelo_inurba_marseille","lat":43.2826,"lon":5.35084,"is_reserved":false,"is_disabled":false,"rental_uris":{"android":"levelo://app?vid=2cac112a-19df-44f0-8ce7-3be7bf881544","ios":"levelo://app?vid=2cac112a-19df-44f0-8ce7-3be7bf881544"},"vehicle_type_id":"4","last_reported":1736323980,"current_range_meters":39200,"station_id":"ce4bhbp2rcd13ifvqerg","pricing_plan_id":"cebpf4jnsgd1na2vs0mg"},{"bike_id":"4a668f30-3ac2-4c09-a676-43b7579d0d95","system_id":"levelo_inurba_marseille","lat":43.28152,"lon":5.42643,"is_reserved":false,"is_disabled":true,"rental_uris":{"android":"levelo://app?vid=4a668f30-3ac2-4c09-a676-43b7579d0d95","ios":"levelo://app?vid=4a668f30-3ac2-4c09-a676-43b7579d0d95"},"vehicle_type_id":"4","last_reported":1736323980,"current_range_meters":37600,"station_id":"ce4bhnh2rcd13ifvqgug","pricing_plan_id":"cebpf4jnsgd1na2vs0mg"},{"bike_id":"8f3e7cbd-d425-4da1-a1b5-5721b9afd044","system_id":"levelo_inurba_marseille","lat":43.28691,"lon":5.37391,"is_reserved":false,"is_disabled":false,"rental_uris":{"android":"levelo://app?vid=8f3e7cbd-d425-4da1-a1b5-5721b9afd044","ios":"levelo://app?vid=8f3e7cbd-d425-4da1-a1b5-5721b9afd044"},"vehicle_type_id":"4","last_reported":1736323980,"current_range_meters":31200,"station_id":"ce4bh3p2rcd13ifvqdq0","pricing_plan_id":"cebpf4jnsgd1na2vs0mg"},{"bike_id":"1a72204e-0b92-4b14-8ab2-15304a4475c5","system_id":"levelo_inurba_marseille","lat":43.29896,"lon":5.43673,"is_reserved":false,"is_disabled":false,"rental_uris":{"android":"levelo://app?vid=1a72204e-0b92-4b14-8ab2-15304a4475c5","ios":"levelo://app?vid=1a72204e-0b92-4b14-8ab2-15304a4475c5"},"vehicle_type_id":"4","last_reported":1736323980,"current_range_meters":18000,"station_id":"ce4bhpp2rcd13ifvqhfg","pricing_plan_id":"cebpf4jnsgd1na2vs0mg"},{"bike_id":"cbffa85f-21da-4f55-8518-83068fef689f","system_id":"levelo_inurba_marseille","lat":43.26681,"lon":5.38276,"is_reserved":false,"is_disabled":true,"rental_uris":{"android":"levelo://app?vid=cbffa85f-21da-4f55-8518-83068fef689f","ios":"levelo://app?vid=cbffa85f-21da-4f55-8518-83068fef689f"},"vehicle_type_id":"4","last_reported":1736323980,"current_range_meters":36400,"station_id":"ce4bhg92rcd13ifvqf90","pricing_plan_id":"cebpf4jnsgd1na2vs0mg"},{"bike_id":"09eef186-38b8-4ef0-a084-8519d0c60e4f","system_id":"levelo_inurba_marseille","lat":43.29029,"lon":5.38128,"is_reserved":false,"is_disabled":false,"rental_uris":{"android":"levelo://app?vid=09eef186-38b8-4ef0-a084-8519d0c60e4f","ios":"levelo://app?vid=09eef186-38b8-4ef0-a084-8519d0c60e4f"},"vehicle_type_id":"4","last_reported":1736323980,"current_range_meters":35600,"station_id":"ce4bh4p2rcd13ifvqe1g","pricing_plan_id":"cebpf4jnsgd1na2vs0mg"},{"bike_id":"297688eb-4501-4b3d-b45f-9a54f15aab0e","system_id":"levelo_inurba_marseille","lat":43.27313,"lon":5.39077,"is_reserved":false,"is_disabled":false,"rental_uris":{"android":"levelo://app?vid=297688eb-4501-4b3d-b45f-9a54f15aab0e","ios":"levelo://app?vid=297688eb-4501-4b3d-b45f-9a54f15aab0e"},"vehicle_type_id":"4","last_reported":1736323980,"current_range_meters":23200,"station_id":"ce4bhgp2rcd13ifvqfe0","pricing_plan_id":"cebpf4jnsgd1na2vs0mg"},{"bike_id":"bb56b8a6-667a-4371-be94-dac446bed30b","system_id":"levelo_inurba_marseille","lat":43.31693,"lon":5.40473,"is_reserved":false,"is_disabled":true,"rental_uris":{"android":"levelo://app?vid=bb56b8a6-667a-4371-be94-dac446bed30b","ios":"levelo://app?vid=bb56b8a6-667a-4371-be94-dac446bed30b"},"vehicle_type_id":"4","last_reported":1736323980,"current_range_meters":29600,"station_id":"","pricing_plan_id":"cebpf4jnsgd1na2vs0mg"},{"bike_id":"6ca79e06-7f55-46b4-aebb-513a808de066","system_id":"levelo_inurba_marseille","lat":43.30155,"lon":5.38082,"is_reserved":false,"is_disabled":false,"rental_uris":{"android":"levelo://app?vid=6ca79e06-7f55-46b4-aebb-513a808de066","ios":"levelo://app?vid=6ca79e06-7f55-46b4-aebb-513a808de066"},"vehicle_type_id":"4","last_reported":1736323980,"current_range_meters":38000,"station_id":"ce4bgjp2rcd13ifvqbh0","pricing_plan_id":"cebpf4jnsgd1na2vs0mg"},{"bike_id":"5bc37f34-a570-4087-afd6-4faaf22dd83e","system_id":"levelo_inurba_marseille","lat":43.32542,"lon":5.41437,"is_reserved":false,"is_disabled":false,"rental_uris":{"android":"levelo://app?vid=5bc37f34-a570-4087-afd6-4faaf22dd83e","ios":"levelo://app?vid=5bc37f34-a570-4087-afd6-4faaf22dd83e"},"vehicle_type_id":"4","last_reported":1736323980,"current_range_meters":33200,"station_id":"ce4bhq12rcd13ifvqhhg","pricing_plan_id":"cebpf4jnsgd1na2vs0mg"},{"bike_id":"07e6a187-707a-422d-b02c-d2c25576bb8c","system_id":"levelo_inurba_marseille","lat":43.32352,"lon":5.38898,"is_reserved":false,"is_disabled":false,"rental_uris":{"android":"levelo://app?vid=07e6a187-707a-422d-b02c-d2c25576bb8c","ios":"levelo://app?vid=07e6a187-707a-422d-b02c-d2c25576bb8c"},"vehicle_type_id":"4","last_reported":1736323980,"current_range_meters":11200,"station_id":"ce4bhqp2rcd13ifvqhog","pricing_plan_id":"cebpf4jnsgd1na2vs0mg"},{"bike_id":"d26d2a2b-6b23-4fc3-b931-56527ca935bc","system_id":"levelo_inurba_marseille","lat":43.31758,"lon":5.39017,"is_reserved":false,"is_disabled":false,"rental_uris":{"android":"levelo://app?vid=d26d2a2b-6b23-4fc3-b931-56527ca935bc","ios":"levelo://app?vid=d26d2a2b-6b23-4fc3-b931-56527ca935bc"},"vehicle_type_id":"4","last_reported":1736323980,"current_range_meters":16000,"station_id":"ce4bhqp2rcd13ifvqhng","pricing_plan_id":"cebpf4jnsgd1na2vs0mg"},{"bike_id":"295a4dcf-0b6e-4c11-b779-d48b33f08e0b","system_id":"levelo_inurba_marseille","lat":43.30186,"lon":5.36618,"is_reserved":false,"is_disabled":false,"rental_uris":{"android":"levelo://app?vid=295a4dcf-0b6e-4c11-b779-d48b33f08e0b","ios":"levelo://app?vid=295a4dcf-0b6e-4c11-b779-d48b33f08e0b"},"vehicle_type_id":"4","last_reported":1736323980,"current_range_meters":37600,"station_id":"ce4bgrh2rcd13ifvqc8g","pricing_plan_id":"cebpf4jnsgd1na2vs0mg"},{"bike_id":"ea3f7ffa-01ca-4030-84be-88dbb8d13230","system_id":"levelo_inurba_marseille","lat":43.27481,"lon":5.42462,"is_reserved":false,"is_disabled":false,"rental_uris":{"android":"levelo://app?vid=ea3f7ffa-01ca-4030-84be-88dbb8d13230","ios":"levelo://app?vid=ea3f7ffa-01ca-4030-84be-88dbb8d13230"},"vehicle_type_id":"4","last_reported":1736323980,"current_range_meters":32800,"station_id":"ce4bhn92rcd13ifvqgrg","pricing_plan_id":"cebpf4jnsgd1na2vs0mg"},{"bike_id":"1569853a-3f58-4ae9-8f61-db33ec95dfbc","system_id":"levelo_inurba_marseille","lat":43.32282,"lon":5.38274,"is_reserved":false,"is_disabled":false,"rental_uris":{"android":"levelo://app?vid=1569853a-3f58-4ae9-8f61-db33ec95dfbc","ios":"levelo://app?vid=1569853a-3f58-4ae9-8f61-db33ec95dfbc"},"vehicle_type_id":"4","last_reported":1736323980,"current_range_meters":38800,"station_id":"ce4bhr12rcd13ifvqhqg","pricing_plan_id":"cebpf4jnsgd1na2vs0mg"},{"bike_id":"f2ea6372-b9d9-4d1a-8370-1cf09c6d3f49","system_id":"levelo_inurba_marseille","lat":43.24071,"lon":5.37758,"is_reserved":false,"is_disabled":false,"rental_uris":{"android":"levelo://app?vid=f2ea6372-b9d9-4d1a-8370-1cf09c6d3f49","ios":"levelo://app?vid=f2ea6372-b9d9-4d1a-8370-1cf09c6d3f49"},"vehicle_type_id":"4","last_reported":1736323980,"current_range_meters":4400,"station_id":"ce4bhnp2rcd13ifvqgvg","pricing_plan_id":"cebpf4jnsgd1na2vs0mg"},