{"last_updated":1784760866,"ttl":60,"version":"2.2","data":{"bikes":[{"bike_id":"7ef36254-6bb3-448c-8d77-979d957d54b6","system_id":"levelo_inurba_marseille","lat":43.337444,"lon":5.374475,"is_reserved":false,"is_disabled":false,"rental_uris":{"android":"levelo://app?vid=7ef36254-6bb3-448c-8d77-979d957d54b6","ios":"levelo://app?vid=7ef36254-6bb3-448c-8d77-979d957d54b6"},"vehicle_type_id":"4","last_reported":1784760866,"current_range_meters":0,"station_id":"","pricing_plan_id":"cebpf4jnsgd1na2vs0mg"},{"bike_id":"21fe2e98-0432-4b40-a81f-10dd00b0f57d","system_id":"levelo_inurba_marseille","lat":43.337444,"lon":5.374475,"is_reserved":false,"is_disabled":false,"rental_uris":{"android":"levelo://app?vid=21fe2e98-0432-4b40-a81f-10dd00b0f57d","ios":"levelo://app?vid=21fe2e98-0432-4b40-a81f-10dd00b0f57d"},"vehicle_type_id":"4","last_reported":1784760866,"current_range_meters":0,"station_id":"","pricing_plan_id":"cebpf4jnsgd1na2vs0mg"},{"bike_id":"74e63f80-9a64-4358-bbc0-f4bf523b1542","system_id":"levelo_inurba_marseille","lat":43.29189,"lon":5.39331,"is_reserved":false,"is_disabled":false,"rental_uris":{"android":"levelo://app?vid=74e63f80-9a64-4358-bbc0-f4bf523b1542","ios":"levelo://app?vid=74e63f80-9a64-4358-bbc0-f4bf523b1542"},"vehicle_type_id":"4","last_reported":1784760866,"current_range_meters":36000,"station_id":"ce4bh192rcd13ifvqdd0","pricing_plan_id":"cebpf4jnsgd1na2vs0mg"},{"bike_id":"1436c8fc-1976-4375-a86e-3d183547cdb8","system_id":"levelo_inurba_marseille","lat":43.32651,"lon":5.40993,"is_reserved":false,"is_disabled":false,"rental_uris":{"android":"levelo://app?vid=1436c8fc-1976-4375-a86e-3d183547cdb8","ios":"levelo://app?vid=1436c8fc-1976-4375-a86e-3d183547cdb8"},"vehicle_type_id":"4","last_reported":1784760866,"current_range_meters":34000,"station_id":"ce4bhpp2rcd13ifvqhgg","pricing_plan_id":"cebpf4jnsgd1na2vs0mg"},{"bike_id":"910edd9b-3f88-46ff-af53-0deba1c167b6","system_id":"levelo_inurba_marseille","lat":43.23954,"lon":5.36637,"is_reserved":false,"is_disabled":false,"rental_uris":{"android":"levelo://app?vid=910edd9b-3f88-46ff-af53-0deba1c167b6","ios":"levelo://app?vid=910edd9b-3f88-46ff-af53-0deba1c167b6"},"vehicle_type_id":"4","last_reported":1784760866,"current_range_meters":38400,"station_id":"ce4bhi12rcd13ifvqfp0","pricing_plan_id":"cebpf4jnsgd1na2vs0mg"},{"bike_id":"b8e064f1-518d-4adb-bc46-2d1160d72e79","system_id":"levelo_inurba_marseille","lat":43.31043,"lon":5.37167,"is_reserved":false,"is_disabled":false,"rental_uris":{"android":"levelo://app?vid=b8e064f1-518d-4adb-bc46-2d1160d72e79","ios":"levelo://app?vid=b8e064f1-518d-4adb-bc46-2d1160d72e79"},"vehicle_type_id":"4","last_reported":1784760866,"current_range_meters":17600,"station_id":"st_d4kl2rp97mjs73e7tdfg","pricing_plan_id":"cebpf4jnsgd1na2vs0mg"},{"bike_id":"eaf6c4bf-604d-4dd8-b4de-52f6da479651","system_id":"levelo_inurba_marseille","lat":43.25073,"lon":5.39526,"is_reserved":false,"is_disabled":false,"rental_uris":{"android":"levelo://app?vid=eaf6c4bf-604d-4dd8-b4de-52f6da479651","ios":"levelo://app?vid=eaf6c4bf-604d-4dd8-b4de-52f6da479651"},"vehicle_type_id":"4","last_reported":1784760866,"current_range_meters":35600,"station_id":"ce4bhm12rcd13ifvqgkg","pricing_plan_id":"cebpf4jnsgd1na2vs0mg"},{"bike_id":"f2c26268-2002-48c9-a2f8-8f76ed8a8540","system_id":"levelo_inurba_marseille","lat":43.23893,"lon":5.37462,"is_reserved":false,"is_disabled":false,"rental_uris":{"android":"levelo://app?vid=f2c26268-2002-48c9-a2f8-8f76ed8a8540","ios":"levelo://app?vid=f2c26268-2002-48c9-a2f8-8f76ed8a8540"},"vehicle_type_id":"4","last_reported":1784760866,"current_range_meters":38800,"station_id":"st_d6sm7csbq4hs73f8fpjg","pricing_plan_id":"cebpf4jnsgd1na2vs0mg"},{"bike_id":"fc079d15-0938-45f7-80b7-6e7d703b61d8","system_id":"levelo_inurba_marseille","lat":43.28417,"lon":5.37515,"is_reserved":false,"is_disabled":false,"rental_uris":{"android":"levelo://app?vid=fc079d15-0938-45f7-80b7-6e7d703b61d8","ios":"levelo://app?vid=fc079d15-0938-45f7-80b7-6e7d703b61d8"},"vehicle_type_id":"4","last_reported":1784760866,"current_range_meters":39200,"station_id":"ce4bh412rcd13ifvqds0","pricing_plan_id":"cebpf4jnsgd1na2vs0mg"},{"bike_id":"72706276-fb69-4388-946e-2b4fb06a5929","system_id":"levelo_inurba_marseille","lat":43.32969,"lon":5.39076,"is_reserved":false,"is_disabled":false,"rental_uris":{"android":"levelo://app?vid=72706276-fb69-4388-946e-2b4fb06a5929","ios":"levelo://app?vid=72706276-fb69-4388-946e-2b4fb06a5929"},"vehicle_type_id":"4","last_reported":1784760866,"current_range_meters":39200,"station_id":"","pricing_plan_id":"cebpf4jnsgd1na2vs0mg"},{"bike_id":"223508c3-8c15-43e2-8d11-ffe934be9e7e","system_id":"levelo_inurba_marseille","lat":43.29254,"lon":5.40906,"is_reserved":false,"is_disabled":false,"rental_uris":{"android":"levelo://app?vid=223508c3-8c15-43e2-8d11-ffe934be9e7e","ios":"levelo://app?vid=223508c3-8c15-43e2-8d11-ffe934be9e7e"},"vehicle_type_id":"4","last_reported":1784760866,"current_range_meters":18800,"station_id":"ce4bh192rcd13ifvqdc0","pricing_plan_id":"cebpf4jnsgd1na2vs0mg"},{"bike_id":"1914db54-2477-43de-b8a3-251c739d9c91","system_id":"levelo_inurba_marseille","lat":43.30806,"lon":5.38164,"is_reserved":false,"is_disabled":false,"rental_uris":{"android":"levelo://app?vid=1914db54-2477-43de-b8a3-251c739d9c91","ios":"levelo://app?vid=1914db54-2477-43de-b8a3-251c739d9c91"},"vehicle_type_id":"4","last_reported":1784760866,"current_range_meters":36000,"station_id":"ce4bgt12rcd13ifvqce0","pricing_plan_id":"cebpf4jnsgd1na2vs0mg"},{"bike_id":"a3a2fc6a-55a6-4c59-b5eb-af329f69e502","system_id":"levelo_inurba_marseille","lat":43.24398,"lon":5.3705,"is_reserved":false,"is_disabled":false,"rental_uris":{"android":"levelo://app?vid=a3a2fc6a-55a6-4c59-b5eb-af329f69e502","ios":"levelo://app?vid=a3a2fc6a-55a6-4c59-b5eb-af329f69e502"},"vehicle_type_id":"4","last_reported":1784760866,"current_range_meters":33600,"station_id":"ce4bhhh2rcd13ifvqfk0","pricing_plan_id":"cebpf4jnsgd1na2vs0mg"},{"bike_id":"b4eb82e3-4188-4aea-931f-9c75f17c1c62","system_id":"levelo_inurba_marseille","lat":43.29016,"lon":5.38125,"is_reserved":false,"is_disabled":false,"rental_uris":{"android":"levelo://app?vid=b4eb82e3-4188-4aea-931f-9c75f17c1c62","ios":"levelo://app?vid=b4eb82e3-4188-4aea-931f-9c75f17c1c62"},"vehicle_type_id":"4","last_reported":1784760866,"current_range_meters":38800,"station_id":"ce4bh4p2rcd13ifvqe1g","pricing_plan_id":"cebpf4jnsgd1na2vs0mg"},{"bike_id":"a278d1de-69f6-4411-9626-a144bc8f62c6","system_id":"levelo_inurba_marseille","lat":43.28405,"lon":5.37511,"is_reserved":false,"is_disabled":false,"rental_uris":{"android":"levelo://app?vid=a278d1de-69f6-4411-9626-a144bc8f62c6","ios":"levelo://app?vid=a278d1de-69f6-4411-9626-a144bc8f62c6"},"vehicle_type_id":"4","last_reported":1784760866,"current_range_meters":32000,"station_id":"ce4bh412rcd13ifvqds0","pricing_plan_id":"cebpf4jnsgd1na2vs0mg"},{"bike_id":"685ffcb6-1a34-469f-a317-a847a345be39","system_id":"levelo_inurba_marseille","lat":43.27222,"lon":5.3919,"is_reserved":false,"is_disabled":false,"rental_uris":{"android":"levelo://app?vid=685ffcb6-1a34-469f-a317-a847a345be39","ios":"levelo://app?vid=685ffcb6-1a34-469f-a317-a847a345be39"},"vehicle_type_id":"4","last_reported":1784760866,"current_range_meters":38800,"station_id":"ce4bhhp2rcd13ifvqfm0","pricing_plan_id":"cebpf4jnsgd1na2vs0mg"},{"bike_id":"3101f7ce-d802-418d-8fba-8e517979d361","system_id":"levelo_inurba_marseille","lat":43.24167,"lon":5.36405,"is_reserved":false,"is_disabled":false,"rental_uris":{"android":"levelo://app?vid=3101f7ce-d802-418d-8fba-8e517979d361","ios":"levelo://app?vid=3101f7ce-d802-418d-8fba-8e517979d361"},"vehicle_type_id":"4","last_reported":1784760866,"current_range_meters":13600,"station_id":"cpo36qri1sfpv3e86is0","pricing_plan_id":"cebpf4jnsgd1na2vs0mg"},{"bike_id":"45c49d7a-ce5a-4cef-92b3-a6a99f7ffcbc","system_id":"levelo_inurba_marseille","lat":43.31751,"lon":5.39013,"is_reserved":false,"is_disabled":false,"rental_uris":{"android":"levelo://app?vid=45c49d7a-ce5a-4cef-92b3-a6a99f7ffcbc","ios":"levelo://app?vid=45c49d7a-ce5a-4cef-92b3-a6a99f7ffcbc"},"vehicle_type_id":"4","last_reported":1784760866,"current_range_meters":38000,"station_id":"ce4bhqp2rcd13ifvqhng","pricing_plan_id":"cebpf4jnsgd1na2vs0mg"},{"bike_id":"57995630-c16c-4ab3-8288-3c463116c252","system_id":"levelo_inurba_marseille","lat":43.28941,"lon":5.3963,"is_reserved":false,"is_disabled":false,"rental_uris":{"android":"levelo://app?vid=57995630-c16c-4ab3-8288-3c463116c252","ios":"levelo://app?vid=57995630-c16c-4ab3-8288-3c463116c252"},"vehicle_type_id":"4","last_reported":1784760866,"current_range_meters":38400,"station_id":"ce4bh3h2rcd13ifvqdn0","pricing_plan_id":"cebpf4jnsgd1na2vs0mg"},{"bike_id":"f0911db4-b0a2-4855-ba9e-d59b0fc05464","system_id":"levelo_inurba_marseille","lat":43.29763,"lon":5.37689,"is_reserved":false,"is_disabled":false,"rental_uris":{"android":"levelo://app?vid=f0911db4-b0a2-4855-ba9e-d59b0fc05464","ios":"levelo://app?vid=f0911db4-b0a2-4855-ba9e-d59b0fc05464"},"vehicle_type_id":"4","last_reported":1784760866,"current_range_meters":30400,"station_id":"","pricing_plan_id":"cebpf4jnsgd1na2vs0mg"},{"bike_id":"0334278a-f526-4865-9991-40008fe349be","system_id":"levelo_inurba_marseille","lat":43.28042,"lon":5.39626,"is_reserved":false,"is_disabled":true,"rental_uris":{"android":"levelo://app?vid=0334278a-f526-4865-9991-40008fe349be","ios":"levelo://app?vid=0334278a-f526-4865-9991-40008fe349be"},"vehicle_type_id":"4","last_reported":1784760866,"current_range_meters":37600,"station_id":"","pricing_plan_id":"cebpf4jnsgd1na2vs0mg"},{"bike_id":"3455e20c-522e-437c-be9f-471c37fa2a69","system_id":"levelo_inurba_marseille","lat":43.29812,"lon":5.40402,"is_reserved":false,"is_disabled":false,"rental_uris":{"android":"levelo://app?vid=3455e20c-522e-437c-be9f-471c37fa2a69","ios":"levelo://app?vid=3455e20c-522e-437c-be9f-471c37fa2a69"},"vehicle_type_id":"4","last_reported":1784760866,"current_range_meters":20400,"station_id":"ce4bh112rcd13ifvqd90","pricing_plan_id":"cebpf4jnsgd1na2vs0mg"},{"bike_id":"ad05ffcf-3512-4a22-b300-d03a54b1a5c0","system_id":"levelo_inurba_marseille","lat":43.28474,"lon":5.38549,"is_reserved":false,"is_disabled":false,"rental_uris":{"android":"levelo://app?vid=ad05ffcf-3512-4a22-b300-d03a54b1a5c0","ios":"levelo://app?vid=ad05ffcf-3512-4a22-b300-d03a54b1a5c0"},"vehicle_type_id":"4","last_reported":1784760866,"current_range_meters":28800,"station_id":"ce4bh8p2rcd13ifvqeb0","pricing_plan_id":"cebpf4jnsgd1na2vs0mg"},{"bike_id":"7b893c3a-f50d-4ab1-b4e5-684f550fde57","system_id":"levelo_inurba_marseille","lat":43.31496,"lon":5.37302,"is_reserved":false,"is_disabled":true,"rental_uris":{"android":"levelo://app?vid=7b893c3a-f50d-4ab1-b4e5-684f550fde57","ios":"levelo://app?vid=7b893c3a-f50d-4ab1-b4e5-684f550fde57"},"vehicle_type_id":"4","last_reported":1784760866,"current_range_meters":6800,"station_id":"ce4bgt12rcd13ifvqcd0","pricing_plan_id":"cebpf4jnsgd1na2vs0mg"},{"bike_id":"d64aacf5-f68f-4803-b06e-959f96eb684d","system_id":"levelo_inurba_marseille","lat":43.31182,"lon":5.36843,"is_reserved":false,"is_disabled":false,"rental_uris":{"android":"levelo://app?vid=d64aacf5-f68f-4803-b06e-959f96eb684d","ios":"levelo://app?vid=d64aacf5-f68f-4803-b06e-959f96eb684d"},"vehicle_type_id":"4","last_reported":1784760866,"current_range_meters":39200,"station_id":"ce4bgl92rcd13ifvqbq0","pricing_plan_id":"cebpf4jnsgd1na2vs0mg"},{"bike_id":"c138627d-4fbc-40e4-bdca-e731ee473d20","system_id":"levelo_inurba_marseille","lat":43.30157,"lon":5.38776,"is_reserved":false,"is_disabled":false,"rental_uris":{"android":"levelo://app?vid=c138627d-4fbc-40e4-bdca-e731ee473d20","ios":"levelo://app?vid=c138627d-4fbc-40e4-bdca-e731ee473d20"},"vehicle_type_id":"4","last_reported":1784760866,"current_range_meters":11600,"station_id":"ce4bghh2rcd13ifvqb60","pricing_plan_id":"cebpf4jnsgd1na2vs0mg"},{"bike_id":"e8930f96-69c9-4bb0-94c0-7276fd8e5fcb","system_id":"levelo_inurba_marseille","lat":43.26067,"lon":5.39396,"is_reserved":false,"is_disabled":false,"rental_uris":{"android":"levelo://app?vid=e8930f96-69c9-4bb0-94c0-7276fd8e5fcb","ios":"levelo://app?vid=e8930f96-69c9-4bb0-94c0-7276fd8e5fcb"},"vehicle_type_id":"4","last_reported":1784760866,"current_range_meters":28400,"station_id":"ce4bhh92rcd13ifvqfj0","pricing_plan_id":"cebpf4jnsgd1na2vs0mg"},{"bike_id":"092a8e30-6514-4600-acda-54def350112e","system_id":"levelo_inurba_marseille","lat":43.30911,"lon":5.40141,"is_reserved":false,"is_disabled":false,"rental_uris":{"android":"levelo://app?vid=092a8e30-6514-4600-acda-54def350112e","ios":"levelo://app?vid=092a8e30-6514-4600-acda-54def350112e"},"vehicle_type_id":"4","last_reported":1784760866,"current_range_meters":28400,"station_id":"ce4bgvp2rcd13ifvqct0","pricing_plan_id":"cebpf4jnsgd1na2vs0mg"},{"bike_id":"bb6740e4-f2f7-43af-b7fb-56cb5beb6d3d","system_id":"levelo_inurba_marseille","lat":43.28366,"lon":5.38633,"is_reserved":false,"is_disabled":false,"rental_uris":{"android":"levelo://app?vid=bb6740e4-f2f7-43af-b7fb-56cb5beb6d3d","ios":"levelo://app?vid=bb6740e4-f2f7-43af-b7fb-56cb5beb6d3d"},"vehicle_type_id":"4","last_reported":1784760866,"current_range_meters":40000,"station_id":"ce4bh492rcd13ifvqdvg","pricing_plan_id":"cebpf4jnsgd1na2vs0mg"},{"bike_id":"78c965f0-3dcc-4c2d-9473-61c3fb2cbec4","system_id":"levelo_inurba_marseille","lat":43.28333,"lon":5.38127,"is_reserved":false,"is_disabled":false,"rental_uris":{"android":"levelo://app?vid=78c965f0-3dcc-4c2d-9473-61c3fb2cbec4","ios":"levelo://app?vid=78c965f0-3dcc-4c2d-9473-61c3fb2cbec4"},"vehicle_type_id":"4","last_reported":1784760866,"current_range_meters":35200,"station_id":"ce4bh412rcd13ifvqdr0","pricing_plan_id":"cebpf4jnsgd1na2vs0mg"},{"bike_id":"c90e53da-5a2d-4819-9c49-bf39ef8a4b47","system_id":"levelo_inurba_marseille","lat":43.28603,"lon":5.39895,"is_reserved":false,"is_disabled":false,"rental_uris":{"android":"levelo://app?vid=c90e53da-5a2d-4819-9c49-bf39ef8a4b47","ios":"levelo://app?vid=c90e53da-5a2d-4819-9c49-bf39ef8a4b47"},"vehicle_type_id":"4","last_reported":1784760866,"current_range_meters":38000,"station_id":"st_d4a7ka997mjs738ck50g","pricing_plan_id":"cebpf4jnsgd1na2vs0mg"},{"bike_id":"43921a88-8198-4811-bf1a-2505f3f318d4","system_id":"levelo_inurba_marseille","lat":43.2892,"lon":5.36635,"is_reserved":false,"is_disabled":false,"rental_uris":{"android":"levelo://app?vid=43921a88-8198-4811-bf1a-2505f3f318d4","ios":"levelo://app?vid=43921a88-8198-4811-bf1a-2505f3f318d4"},"vehicle_type_id":"4","last_reported":1784760866,"current_range_meters":32000,"station_id":"ce4bhap2rcd13ifvqek0","pricing_plan_id":"cebpf4jnsgd1na2vs0mg"},{"bike_id":"7764970a-34ed-47ec-8822-620f6c0f8a78","system_id":"levelo_inurba_marseille","lat":43.24969,"lon":5.38977,"is_reserved":false,"is_disabled":true,"rental_uris":{"android":"levelo://app?vid=7764970a-34ed-47ec-8822-620f6c0f8a78","ios":"levelo://app?vid=7764970a-34ed-47ec-8822-620f6c0f8a78"},"vehicle_type_id":"4","last_reported":1784760866,"current_range_meters":0,"station_id":"","pricing_plan_id":"cebpf4jnsgd1na2vs0mg"},{"bike_id":"de857784-7532-44c2-aa79-301d8e429e60","system_id":"levelo_inurba_marseille","lat":43.29025,"lon":5.38633,"is_reserved":false,"is_disabled":false,"rental_uris":{"android":"levelo://app?vid=de857784-7532-44c2-aa79-301d8e429e60","ios":"levelo://app?vid=de857784-7532-44c2-aa79-301d8e429e60"},"vehicle_type_id":"4","last_reported":1784760866,"current_range_meters":38000,"station_id":"ce4bh4p2rcd13ifvqe0g","pricing_plan_id":"cebpf4jnsgd1na2vs0mg"},{"bike_id":"497c1642-88ed-4eb3-b1c3-89b3cc1b7762","system_id":"levelo_inurba_marseille","lat":43.31686,"lon":5.40483,"is_reserved":false,"is_disabled":false,"rental_uris":{"android":"levelo://app?vid=497c1642-88ed-4eb3-b1c3-89b3cc1b7762","ios":"levelo://app?vid=497c1642-88ed-4eb3-b1c3-89b3cc1b7762"},"vehicle_type_id":"4","last_reported":1784760866,"current_range_meters":39200,"station_id":"ce4bh012rcd13ifvqd00","pricing_plan_id":"cebpf4jnsgd1na2vs0mg"},{"bike_id":"a338cea5-f797-4d31-b718-3121663ee29c","system_id":"levelo_inurba_marseille","lat":43.30393,"lon":5.37905,"is_reserved":false,"is_disabled":false,"rental_uris":{"android":"levelo://app?vid=a338cea5-f797-4d31-b718-3121663ee29c","ios":"levelo://app?vid=a338cea5-f797-4d31-b718-3121663ee29c"},"vehicle_type_id":"4","last_reported":1784760866,"current_range_meters":32400,"station_id":"","pricing_plan_id":"cebpf4jnsgd1na2vs0mg"},{"bike_id":"2d9b4fdc-e240-4c3a-ba91-40ca77d9a762","system_id":"levelo_inurba_marseille","lat":43.28198,"lon":5.34742,"is_reserved":false,"is_disabled":false,"rental_uris":{"android":"levelo://app?vid=2d9b4fdc-e240-4c3a-ba91-40ca77d9a762","ios":"levelo://app?vid=2d9b4fdc-e240-4c3a-ba91-40ca77d9a762"},"vehicle_type_id":"4","last_reported":1784760866,"current_range_meters":35200,"station_id":"","pricing_plan_id":"cebpf4jnsgd1na2vs0mg"},{"bike_id":"28f45640-5226-43a0-81ad-a42c7c9f447e","system_id":"levelo_inurba_marseille","lat":43.28976,"lon":5.3784,"is_reserved":false,"is_disabled":false,"rental_uris":{"android":"levelo://app?vid=28f45640-5226-43a0-81ad-a42c7c9f447e","ios":"levelo://app?vid=28f45640-5226-43a0-81ad-a42c7c9f447e"},"vehicle_type_id":"4","last_reported":1784760866,"current_range_meters":39200,"station_id":"ce4bh9p2rcd13ifvqed0","pricing_plan_id":"cebpf4jnsgd1na2vs0mg"},{"bike_id":"a0cf1fe7-6d18-4478-8c08-79d4e82a4c9a","system_id":"levelo_inurba_marseille","lat":43.30588,"lon":5.3843,"is_reserved":false,"is_disabled":false,"rental_uris":{"android":"levelo://app?vid=a0cf1fe7-6d18-4478-8c08-79d4e82a4c9a","ios":"levelo://app?vid=a0cf1fe7-6d18-4478-8c08-79d4e82a4c9a"},"vehicle_type_id":"4","last_reported":1784760866,"current_range_meters":38400,"station_id":"ce4bgg92rcd13ifvqb30","pricing_plan_id":"cebpf4jnsgd1na2vs0mg"},{"bike_id":"a7c9489a-3c37-4218-bc38-92c335aa3a8a","system_id":"levelo_inurba_marseille","lat":43.28481,"lon":5.48387,"is_reserved":false,"is_disabled":false,"rental_uris":{"android":"levelo://app?vid=a7c9489a-3c37-4218-bc38-92c335aa3a8a","ios":"levelo://app?vid=a7c9489a-3c37-4218-bc38-92c335aa3a8a"},"vehicle_type_id":"4","last_reported":1784760866,"current_range_meters":39200,"station_id":"st_d3svhcjqgbts73a3dn0g","pricing_plan_id":"cebpf4jnsgd1na2vs0mg"},{"bike_id":"67b3b13e-f154-4212-aad2-bfcb9d756cb6","system_id":"levelo_inurba_marseille","lat":43.30538,"lon":5.38439,"is_reserved":false,"is_disabled":false,"rental_uris":{"android":"levelo://app?vid=67b3b13e-f154-4212-aad2-bfcb9d756cb6","ios":"levelo://app?vid=67b3b13e-f154-4212-aad2-bfcb9d756cb6"},"vehicle_type_id":"4","last_reported":1784760866,"current_range_meters":20000,"station_id":"ce4bgg92rcd13ifvqb30","pricing_plan_id":"cebpf4jnsgd1na2vs0mg"},{"bike_id":"b4a84a03-8380-4ead-838e-21f3cf0d177c","system_id":"levelo_inurba_marseille","lat":43.32275,"lon":5.38278,"is_reserved":false,"is_disabled":false,"rental_uris":{"android":"levelo://app?vid=b4a84a03-8380-4ead-838e-21f3cf0d177c","ios":"levelo://app?vid=b4a84a03-8380-4ead-838e-21f3cf0d177c"},"vehicle_type_id":"4","last_reported":1784760866,"current_range_meters":24400,"station_id":"ce4bhr12rcd13ifvqhqg","pricing_plan_id":"cebpf4jnsgd1na2vs0mg"},{"bike_id":"b8e856c1-a581-416f-b4a7-9d85023fcbcd","system_id":"levelo_inurba_marseille","lat":43.28644,"lon":5.36348,"is_reserved":false,"is_disabled":false,"rental_uris":{"android":"levelo://app?vid=b8e856c1-a581-416f-b4a7-9d85023fcbcd","ios":"levelo://app?vid=b8e856c1-a581-416f-b4a7-9d85023fcbcd"},"vehicle_type_id":"4","last_reported":1784760866,"current_range_meters":9200,"station_id":"ce4bhah2rcd13ifvqej0","pricing_plan_id":"cebpf4jnsgd1na2vs0mg"},{"bike_id":"3d3363f1-b079-4e13-899e-dbc693f0dea6","system_id":"levelo_inurba_marseille","lat":43.27493,"lon":5.42455,"is_reserved":false,"is_disabled":false,"rental_uris":{"android":"levelo://app?vid=3d3363f1-b079-4e13-899e-dbc693f0dea6","ios":"levelo://app?vid=3d3363f1-b079-4e13-899e-dbc693f0dea6"},"vehicle_type_id":"4","last_reported":1784760866,"current_range_meters":8800,"station_id":"ce4bhn92rcd13ifvqgrg","pricing_plan_id":"cebpf4jnsgd1na2vs0mg"},{"bike_id":"dcb52276-35bc-42b7-9a0d-fe3391fbd2fe","system_id":"levelo_inurba_marseille","lat":43.32507,"lon":5.36569,"is_reserved":false,"is_disabled":false,"rental_uris":{"android":"levelo://app?vid=dcb52276-35bc-42b7-9a0d-fe3391fbd2fe","ios":"levelo://app?vid=dcb52276-35bc-42b7-9a0d-fe3391fbd2fe"},"vehicle_type_id":"4","last_reported":1784760866,"current_range_meters":32000,"station_id":"ce4bhs12rcd13ifvqhvg","pricing_plan_id":"cebpf4jnsgd1na2vs0mg"},{"bike_id":"5aa3ca14-34f8-4cf6-bf98-84664ad40ed9","system_id":"levelo_inurba_marseille","lat":43.3236,"lon":5.38863,"is_reserved":false,"is_disabled":false,"rental_uris":{"android":"levelo://app?vid=5aa3ca14-34f8-4cf6-bf98-84664ad40ed9","ios":"levelo://app?vid=5aa3ca14-34f8-4cf6-bf98-84664ad40ed9"},"vehicle_type_id":"4","last_reported":1784760866,"current_range_meters":36000,"station_id":"ce4bhqp2rcd13ifvqhog","pricing_plan_id":"cebpf4jnsgd1na2vs0mg"},{"bike_id":"3ee6d996-cc13-4efb-afcc-6bef7bfb6185","system_id":"levelo_inurba_marseille","lat":43.26206,"lon":5.37933,"is_reserved":false,"is_disabled":false,"rental_uris":{"android":"levelo://app?vid=3ee6d996-cc13-4efb-afcc-6bef7bfb6185","ios":"levelo://app?vid=3ee6d996-cc13-4efb-afcc-6bef7bfb6185"},"vehicle_type_id":"4","last_reported":1784760866,"current_range_meters":39200,"station_id":"ce4bhjp2rcd13ifvqg90","pricing_plan_id":"cebpf4jnsgd1na2vs0mg"},{"bike_id":"f6cdfb28-cd38-4dfc-b098-a41de186f0d6","system_id":"levelo_inurba_marseille","lat":43.29559,"lon":5.3905,"is_reserved":false,"is_disabled":false,"rental_uris":{"android":"levelo://app?vid=f6cdfb28-cd38-4dfc-b098-a41de186f0d6","ios":"levelo://app?vid=f6cdfb28-cd38-4dfc-b098-a41de186f0d6"},"vehicle_type_id":"4","last_reported":1784760866,"current_range_meters":38800,"station_id":"ce4bh3p2rcd13ifvqdp0","pricing_plan_id":"cebpf4jnsgd1na2vs0mg"},{"bike_id":"0547f557-b090-4345-9140-124bc0c4fa4e","system_id":"levelo_inurba_marseille","lat":43.33162,"lon":5.37704,"is_reserved":false,"is_disabled":false,"rental_uris":{"android":"levelo://app?vid=0547f557-b090-4345-9140-124bc0c4fa4e","ios":"levelo://app?vid=0547f557-b090-4345-9140-124bc0c4fa4e"},"vehicle_type_id":"4","last_reported":1784760866,"current_range_meters":32000,"station_id":"st_d46cu089ee8s73dldbu0","pricing_plan_id":"cebpf4jnsgd1na2vs0mg"},{"bike_id":"a4e34098-8c0f-4326-9772-a08c7f6b76fa","system_id":"levelo_inurba_marseille","lat":43.27055,"lon":5.42276,"is_reserved":false,"is_disabled":false,"rental_uris":{"android":"levelo://app?vid=a4e34098-8c0f-4326-9772-a08c7f6b76fa","ios":"levelo://app?vid=a4e34098-8c0f-4326-9772-a08c7f6b76fa"},"vehicle_type_id":"4","last_reported":1784760866,"current_range_meters":38000,"station_id":"ce4bhk92rcd13ifvqgb0","pricing_plan_id":"cebpf4jnsgd1na2vs0mg"},{"bike_id":"8b48f329-937d-4f33-bc8e-cc3992c67190","system_id":"levelo_inurba_marseille","lat":43.29624,"lon":5.37169,"is_reserved":false,"is_disabled":true,"rental_uris":{"android":"levelo://app?vid=8b48f329-937d-4f33-bc8e-cc3992c67190","ios":"levelo://app?vid=8b48f329-937d-4f33-bc8e-cc3992c67190"},"vehicle_type_id":"4","last_reported":1784760866,"current_range_meters":34000,"station_id":"","pricing_plan_id":"cebpf4jnsgd1na2vs0mg"},{"bike_id":"d2f317eb-ede0-48d9-9c1e-726306402956","system_id":"levelo_inurba_marseille","lat":43.28896,"lon":5.39621,"is_reserved":false,"is_disabled":false,"rental_uris":{"android":"levelo://app?vid=d2f317eb-ede0-48d9-9c1e-726306402956","ios":"levelo://app?vid=d2f317eb-ede0-48d9-9c1e-726306402956"},"vehicle_type_id":"4","last_reported":1784760866,"current_range_meters":38800,"station_id":"ce4bh3h2rcd13ifvqdn0","pricing_plan_id":"cebpf4jnsgd1na2vs0mg"},{"bike_id":"8f0e7d8f-4628-4ae9-adf4-e14f8541deb9","system_id":"levelo_inurba_marseille","lat":43.2718,"lon":5.409911,"is_reserved":false,"is_disabled":false,"rental_uris":{"android":"levelo://app?vid=8f0e7d8f-4628-4ae9-adf4-e14f8541deb9","ios":"levelo://app?vid=8f0e7d8f-4628-4ae9-adf4-e14f8541deb9"},"vehicle_type_id":"4","last_reported":1784760866,"current_range_meters":19200,"station_id":"ce4bhl12rcd13ifvqgf0","pricing_plan_id":"cebpf4jnsgd1na2vs0mg"},{"bike_id":"429de8f6-407d-420a-b872-986ad355a2d5","system_id":"levelo_inurba_marseille","lat":43.25588,"lon":5.3767,"is_reserved":false,"is_disabled":true,"rental_uris":{"android":"levelo://app?vid=429de8f6-407d-420a-b872-986ad355a2d5","ios":"levelo://app?vid=429de8f6-407d-420a-b872-986ad355a2d5"},"vehicle_type_id":"4","last_reported":1784760866,"current_range_meters":18800,"station_id":"","pricing_plan_id":"cebpf4jnsgd1na2vs0mg"},{"bike_id":"b62c6f43-d381-4900-8a07-23d79aaa3392","system_id":"levelo_inurba_marseille","lat":43.29557,"lon":5.42268,"is_reserved":false,"is_disabled":false,"rental_uris":{"android":"levelo://app?vid=b62c6f43-d381-4900-8a07-23d79aaa3392","ios":"levelo://app?vid=b62c6f43-d381-4900-8a07-23d79aaa3392"},"vehicle_type_id":"4","last_reported":1784760866,"current_range_meters":16800,"station_id":"ce4bhph2rcd13ifvqhdg","pricing_plan_id":"cebpf4jnsgd1na2vs0mg"},{"bike_id":"b4ac26d0-963a-4a25-bf7e-8083e1294ae5","system_id":"levelo_inurba_marseille","lat":43.23962,"lon":5.36609,"is_reserved":false,"is_disabled":false,"rental_uris":{"android":"levelo://app?vid=b4ac26d0-963a-4a25-bf7e-8083e1294ae5","ios":"levelo://app?vid=b4ac26d0-963a-4a25-bf7e-8083e1294ae5"},"vehicle_type_id":"4","last_reported":1784760866,"current_range_meters":30800,"station_id":"ce4bhi12rcd13ifvqfp0","pricing_plan_id":"cebpf4jnsgd1na2vs0mg"},{"bike_id":"06195112-6882-4fb6-b232-8620d1008b12","system_id":"levelo_inurba_marseille","lat":43.29266,"lon":5.36832,"is_reserved":false,"is_disabled":false,"rental_uris":{"android":"levelo://app?vid=06195112-6882-4fb6-b232-8620d1008b12","ios":"levelo://app?vid=06195112-6882-4fb6-b232-8620d1008b12"},"vehicle_type_id":"4","last_reported":1784760866,"current_range_meters":38800,"station_id":"","pricing_plan_id":"cebpf4jnsgd1na2vs0mg"},{"bike_id":"9e4a02dd-c466-4c18-9778-615dcb056a36","system_id":"levelo_inurba_marseille","lat":43.276757,"lon":5.388632,"is_reserved":false,"is_disabled":false,"rental_uris":{"android":"levelo://app?vid=9e4a02dd-c466-4c18-9778-615dcb056a36","ios":"levelo://app?vid=9e4a02dd-c466-4c18-9778-615dcb056a36"},"vehicle_type_id":"4","last_reported":1784760866,"current_range_meters":32800,"station_id":"ce4bhi12rcd13ifvqfo0","pricing_plan_id":"cebpf4jnsgd1na2vs0mg"},{"bike_id":"3a295aff-6816-4af7-ac5a-87a5bd41c1cd","system_id":"levelo_inurba_marseille","lat":43.28484,"lon":5.4839,"is_reserved":false,"is_disabled":false,"rental_uris":{"android":"levelo://app?vid=3a295aff-6816-4af7-ac5a-87a5bd41c1cd","ios":"levelo://app?vid=3a295aff-6816-4af7-ac5a-87a5bd41c1cd"},"vehicle_type_id":"4","last_reported":1784760866,"current_range_meters":25600,"station_id":"st_d3svhcjqgbts73a3dn0g","pricing_plan_id":"cebpf4jnsgd1na2vs0mg"},{"bike_id":"7b1a34a9-9772-429a-ac81-dbcf3805788e","system_id":"levelo_inurba_marseille","lat":43.27837,"lon":5.35535,"is_reserved":false,"is_disabled":false,"rental_uris":{"android":"levelo://app?vid=7b1a34a9-9772-429a-ac81-dbcf3805788e","ios":"levelo://app?vid=7b1a34a9-9772-429a-ac81-dbcf3805788e"},"vehicle_type_id":"4","last_reported":1784760866,"current_range_meters":16400,"station_id":"","pricing_plan_id":"cebpf4jnsgd1na2vs0mg"},{"bike_id":"aa391704-cb81-469a-8f7c-4fac615a81b3","system_id":"levelo_inurba_marseille","lat":43.28416,"lon":5.37509,"is_reserved":false,"is_disabled":false,"rental_uris":{"android":"levelo://app?vid=aa391704-cb81-469a-8f7c-4fac615a81b3","ios":"levelo://app?vid=aa391704-cb81-469a-8f7c-4fac615a81b3"},"vehicle_type_id":"4","last_reported":1784760866,"current_range_meters":40000,"station_id":"ce4bh412rcd13ifvqds0","pricing_plan_id":"cebpf4jnsgd1na2vs0mg"},{"bike_id":"7b25ed2b-a387-4dd8-96e1-6ed8183d149d","system_id":"levelo_inurba_marseille","lat":43.30321,"lon":5.40452,"is_reserved":false,"is_disabled":false,"rental_uris":{"android":"levelo://app?vid=7b25ed2b-a387-4dd8-96e1-6ed8183d149d","ios":"levelo://app?vid=7b25ed2b-a387-4dd8-96e1-6ed8183d149d"},"vehicle_type_id":"4","last_reported":1784760866,"current_range_meters":38000,"station_id":"ce4bh012rcd13ifvqd10","pricing_plan_id":"cebpf4jnsgd1na2vs0mg"},{"bike_id":"b3615f38-9ae4-47b3-be0f-27da959fb130","system_id":"levelo_inurba_marseille","lat":43.26555,"lon":5.39639,"is_reserved":false,"is_disabled":false,"rental_uris":{"android":"levelo://app?vid=b3615f38-9ae4-47b3-be0f-27da959fb130","ios":"levelo://app?vid=b3615f38-9ae4-47b3-be0f-27da959fb130"},"vehicle_type_id":"4","last_reported":1784760866,"current_range_meters":12800,"station_id":"","pricing_plan_id":"cebpf4jnsgd1na2vs0mg"},{"bike_id":"8328695f-c1b4-4a5d-b9f5-b947fa6f90a1","system_id":"levelo_inurba_marseille","lat":43.31341,"lon":5.39706,"is_reserved":false,"is_disabled":false,"rental_uris":{"android":"levelo://app?vid=8328695f-c1b4-4a5d-b9f5-b947fa6f90a1","ios":"levelo://app?vid=8328695f-c1b4-4a5d-b9f5-b947fa6f90a1"},"vehicle_type_id":"4","last_reported":1784760866,"current_range_meters":30400,"station_id":"ce4bgvp2rcd13ifvqcu0","pricing_plan_id":"cebpf4jnsgd1na2vs0mg"},{"bike_id":"8094c541-617a-4d8d-a8a0-d0bafcd084c1","system_id":"levelo_inurba_marseille","lat":43.27809,"lon":5.40699,"is_reserved":false,"is_disabled":false,"rental_uris":{"android":"levelo://app?vid=8094c541-617a-4d8d-a8a0-d0bafcd084c1","ios":"levelo://app?vid=8094c541-617a-4d8d-a8a0-d0bafcd084c1"},"vehicle_type_id":"4","last_reported":1784760866,"current_range_meters":39200,"station_id":"ce4bhnh2rcd13ifvqgtg","pricing_plan_id":"cebpf4jnsgd1na2vs0mg"},{"bike_id":"01d9a676-01f3-4b98-beb9-e0a1a490c722","system_id":"levelo_inurba_marseille","lat":43.28157,"lon":5.42624,"is_reserved":false,"is_disabled":false,"rental_uris":{"android":"levelo://app?vid=01d9a676-01f3-4b98-beb9-e0a1a490c722","ios":"levelo://app?vid=01d9a676-01f3-4b98-beb9-e0a1a490c722"},"vehicle_type_id":"4","last_reported":1784760866,"current_range_meters":27600,"station_id":"ce4bhnh2rcd13ifvqgug","pricing_plan_id":"cebpf4jnsgd1na2vs0mg"},{"bike_id":"f765bc46-853b-4f5f-a0cf-13f9a2c85881","system_id":"levelo_inurba_marseille","lat":43.32108,"lon":5.36786,"is_reserved":false,"is_disabled":false,"rental_uris":{"android":"levelo://app?vid=f765bc46-853b-4f5f-a0cf-13f9a2c85881","ios":"levelo://app?vid=f765bc46-853b-4f5f-a0cf-13f9a2c85881"},"vehicle_type_id":"4","last_reported":1784760866,"current_range_meters":31200,"station_id":"ce4bhrh2rcd13ifvqhug","pricing_plan_id":"cebpf4jnsgd1na2vs0mg"},{"bike_id":"43249b10-4c2a-400b-b275-b8d935c1660c","system_id":"levelo_inurba_marseille","lat":43.25589,"lon":5.38239,"is_reserved":false,"is_disabled":false,"rental_uris":{"android":"levelo://app?vid=43249b10-4c2a-400b-b275-b8d935c1660c","ios":"levelo://app?vid=43249b10-4c2a-400b-b275-b8d935c1660c"},"vehicle_type_id":"4","last_reported":1784760866,"current_range_meters":37600,"station_id":"ce4bhih2rcd13ifvqfs0","pricing_plan_id":"cebpf4jnsgd1na2vs0mg"},{"bike_id":"c469d1f0-e1f3-4009-933d-1f7d58ff00a5","system_id":"levelo_inurba_marseille","lat":43.25895,"lon":5.39894,"is_reserved":false,"is_disabled":false,"rental_uris":{"android":"levelo://app?vid=c469d1f0-e1f3-4009-933d-1f7d58ff00a5","ios":"levelo://app?vid=c469d1f0-e1f3-4009-933d-1f7d58ff00a5"},"vehicle_type_id":"4","last_reported":1784760866,"current_range_meters":25600,"station_id":"","pricing_plan_id":"cebpf4jnsgd1na2vs0mg"},{"bike_id":"cf018048-2387-49ea-bf45-48ad047fb488","system_id":"levelo_inurba_marseille","lat":43.2894,"lon":5.38395,"is_reserved":false,"is_disabled":false,"rental_uris":{"android":"levelo://app?vid=cf018048-2387-49ea-bf45-48ad047fb488","ios":"levelo://app?vid=cf018048-2387-49ea-bf45-48ad047fb488"},"vehicle_type_id":"4","last_reported":1784760866,"current_range_meters":20000,"station_id":"ce4bh612rcd13ifvqe6g","pricing_plan_id":"cebpf4jnsgd1na2vs0mg"},{"bike_id":"a13e16e4-e177-431d-8bef-33b38f696e96","system_id":"levelo_inurba_marseille","lat":43.26759,"lon":5.3998,"is_reserved":false,"is_disabled":false,"rental_uris":{"android":"levelo://app?vid=a13e16e4-e177-431d-8bef-33b38f696e96","ios":"levelo://app?vid=a13e16e4-e177-431d-8bef-33b38f696e96"},"vehicle_type_id":"4","last_reported":1784760866,"current_range_meters":24000,"station_id":"","pricing_plan_id":"cebpf4jnsgd1na2vs0mg"},{"bike_id":"2d7109ad-46e8-47c3-91fe-8fafb72b67c5","system_id":"levelo_inurba_marseille","lat":43.31887,"lon":5.36819,"is_reserved":false,"is_disabled":false,"rental_uris":{"android":"levelo://app?vid=2d7109ad-46e8-47c3-91fe-8fafb72b67c5","ios":"levelo://app?vid=2d7109ad-46e8-47c3-91fe-8fafb72b67c5"},"vehicle_type_id":"4","last_reported":1784760866,"current_range_meters":6400,"station_id":"st_d6o2h0d0559c73evc1b0","pricing_plan_id":"cebpf4jnsgd1na2vs0mg"},{"bike_id":"3281dc6c-da59-4ffa-a4e6-15741ec6bf20","system_id":"levelo_inurba_marseille","lat":43.27823,"lon":5.40717,"is_reserved":false,"is_disabled":false,"rental_uris":{"android":"levelo://app?vid=3281dc6c-da59-4ffa-a4e6-15741ec6bf20","ios":"levelo://app?vid=3281dc6c-da59-4ffa-a4e6-15741ec6bf20"},"vehicle_type_id":"4","last_reported":1784760866,"current_range_meters":26000,"station_id":"ce4bhnh2rcd13ifvqgtg","pricing_plan_id":"cebpf4jnsgd1na2vs0mg"},{"bike_id":"de84f93e-2efe-44dd-902e-99315be80f66","system_id":"levelo_inurba_marseille","lat":43.24168,"lon":5.36388,"is_reserved":false,"is_disabled":false,"rental_uris":{"android":"levelo://app?vid=de84f93e-2efe-44dd-902e-99315be80f66","ios":"levelo://app?vid=de84f93e-2efe-44dd-902e-99315be80f66"},"vehicle_type_id":"4","last_reported":1784760866,"current_range_meters":35200,"station_id":"cpo36qri1sfpv3e86is0","pricing_plan_id":"cebpf4jnsgd1na2vs0mg"},{"bike_id":"015692f9-0841-4e6f-97ea-79643710251a","system_id":"levelo_inurba_marseille","lat":43.30081,"lon":5.39073,"is_reserved":false,"is_disabled":false,"rental_uris":{"android":"levelo://app?vid=015692f9-0841-4e6f-97ea-79643710251a","ios":"levelo://app?vid=015692f9-0841-4e6f-97ea-79643710251a"},"vehicle_type_id":"4","last_reported":1784760866,"current_range_meters":22000,"station_id":"ce4bh192rcd13ifvqdb0","pricing_plan_id":"cebpf4jnsgd1na2vs0mg"},{"bike_id":"efd0529b-3ea0-449c-b7d1-4a2a1bc354db","system_id":"levelo_inurba_marseille","lat":43.30136,"lon":5.37384,"is_reserved":false,"is_disabled":false,"rental_uris":{"android":"levelo://app?vid=efd0529b-3ea0-449c-b7d1-4a2a1bc354db","ios":"levelo://app?vid=efd0529b-3ea0-449c-b7d1-4a2a1bc354db"},"vehicle_type_id":"4","last_reported":1784760866,"current_range_meters":4000,"station_id":"ce4bgs92rcd13ifvqcc0","pricing_plan_id":"cebpf4jnsgd1na2vs0mg"},{"bike_id":"6a04307a-b5c3-41e0-ba26-168c5d2d0e9b","system_id":"levelo_inurba_marseille","lat":43.30585,"lon":5.3936,"is_reserved":false,"is_disabled":false,"rental_uris":{"android":"levelo://app?vid=6a04307a-b5c3-41e0-ba26-168c5d2d0e9b","ios":"levelo://app?vid=6a04307a-b5c3-41e0-ba26-168c5d2d0e9b"},"vehicle_type_id":"4","last_reported":1784760866,"current_range_meters":38800,"station_id":"ce4bh0p2rcd13ifvqd80","pricing_plan_id":"cebpf4jnsgd1na2vs0mg"},{"bike_id":"0a3a6ebb-bddd-43e8-b9e0-b190e5fcbe3f","system_id":"levelo_inurba_marseille","lat":43.3095,"lon":5.39036,"is_reserved":false,"is_disabled":false,"rental_uris":{"android":"levelo://app?vid=0a3a6ebb-bddd-43e8-b9e0-b190e5fcbe3f","ios":"levelo://app?vid=0a3a6ebb-bddd-43e8-b9e0-b190e5fcbe3f"},"vehicle_type_id":"4","last_reported":1784760866,"current_range_meters":27200,"station_id":"ce4bgup2rcd13ifvqco0","pricing_plan_id":"cebpf4jnsgd1na2vs0mg"},{"bike_id":"d6e30c27-1641-4cb1-98ef-611871bdd179","system_id":"levelo_inurba_marseille","lat":43.29524,"lon":5.39035,"is_reserved":false,"is_disabled":false,"rental_uris":{"android":"levelo://app?vid=d6e30c27-1641-4cb1-98ef-611871bdd179","ios":"levelo://app?vid=d6e30c27-1641-4cb1-98ef-611871bdd179"},"vehicle_type_id":"4","last_reported":1784760866,"current_range_meters":8400,"station_id":"ce4bh3p2rcd13ifvqdp0","pricing_plan_id":"cebpf4jnsgd1na2vs0mg"},{"bike_id":"6e1c807d-7ad9-454b-9842-cad0e1f907e4","system_id":"levelo_inurba_marseille","lat":43.25519,"lon":5.37678,"is_reserved":false,"is_disabled":true,"rental_uris":{"android":"levelo://app?vid=6e1c807d-7ad9-454b-9842-cad0e1f907e4","ios":"levelo://app?vid=6e1c807d-7ad9-454b-9842-cad0e1f907e4"},"vehicle_type_id":"4","last_reported":1784760866,"current_range_meters":13600,"station_id":"ce4bhh12rcd13ifvqff0","pricing_plan_id":"cebpf4jnsgd1na2vs0mg"},{"bike_id":"06a47a70-c4aa-4b09-8775-c059e958d2f4","system_id":"levelo_inurba_marseille","lat":43.28404,"lon":5.37534,"is_reserved":false,"is_disabled":false,"rental_uris":{"android":"levelo://app?vid=06a47a70-c4aa-4b09-8775-c059e958d2f4","ios":"levelo://app?vid=06a47a70-c4aa-4b09-8775-c059e958d2f4"},"vehicle_type_id":"4","last_reported":1784760866,"current_range_meters":24400,"station_id":"ce4bh412rcd13ifvqds0","pricing_plan_id":"cebpf4jnsgd1na2vs0mg"},{"bike_id":"134ed701-9182-4c12-bab7-2fd9709954d7","system_id":"levelo_inurba_marseille","lat":43.26523,"lon":5.3938,"is_reserved":false,"is_disabled":true,"rental_uris":{"android":"levelo://app?vid=134ed701-9182-4c12-bab7-2fd9709954d7","ios":"levelo://app?vid=134ed701-9182-4c12-bab7-2fd9709954d7"},"vehicle_type_id":"4","last_reported":1784760866,"current_range_meters":0,"station_id":"","pricing_plan_id":"cebpf4jnsgd1na2vs0mg"},{"bike_id":"99eca4cb-2770-40f8-a552-79e6b6b5d0c7","system_id":"levelo_inurba_marseille","lat":43.27228,"lon":5.39169,"is_reserved":false,"is_disabled":false,"rental_uris":{"android":"levelo://app?vid=99eca4cb-2770-40f8-a552-79e6b6b5d0c7","ios":"levelo://app?vid=99eca4cb-2770-40f8-a552-79e6b6b5d0c7"},"vehicle_type_id":"4","last_reported":1784760866,"current_range_meters":20400,"station_id":"ce4bhhp2rcd13ifvqfm0","pricing_plan_id":"cebpf4jnsgd1na2vs0mg"},{"bike_id":"217094aa-27be-4c09-8cc3-9848f7f85541","system_id":"levelo_inurba_marseille","lat":43.28495,"lon":5.38545,"is_reserved":false,"is_disabled":false,"rental_uris":{"android":"levelo://app?vid=217094aa-27be-4c09-8cc3-9848f7f85541","ios":"levelo://app?vid=217094aa-27be-4c09-8cc3-9848f7f85541"},"vehicle_type_id":"4","last_reported":1784760866,"current_range_meters":39200,"station_id":"ce4bh8p2rcd13ifvqeb0","pricing_plan_id":"cebpf4jnsgd1na2vs0mg"},{"bike_id":"48436673-e795-4095-9f2d-b89504a4a8bc","system_id":"levelo_inurba_marseille","lat":43.30805,"lon":5.38152,"is_reserved":false,"is_disabled":false,"rental_uris":{"android":"levelo://app?vid=48436673-e795-4095-9f2d-b89504a4a8bc","ios":"levelo://app?vid=48436673-e795-4095-9f2d-b89504a4a8bc"},"vehicle_type_id":"4","last_reported":1784760866,"current_range_meters":22400,"station_id":"ce4bgt12rcd13ifvqce0","pricing_plan_id":"cebpf4jnsgd1na2vs0mg"},{"bike_id":"1ffd6e8d-c4af-44c4-b5ee-8153d663260f","system_id":"levelo_inurba_marseille","lat":43.2918,"lon":5.39318,"is_reserved":false,"is_disabled":true,"rental_uris":{"android":"levelo://app?vid=1ffd6e8d-c4af-44c4-b5ee-8153d663260f","ios":"levelo://app?vid=1ffd6e8d-c4af-44c4-b5ee-8153d663260f"},"vehicle_type_id":"4","last_reported":1784760866,"current_range_meters":21600,"station_id":"ce4bh192rcd13ifvqdd0","pricing_plan_id":"cebpf4jnsgd1na2vs0mg"},{"bike_id":"65b58bcf-4346-49dc-8a22-60f4aed99d77","system_id":"levelo_inurba_marseille","lat":43.24166,"lon":5.36394,"is_reserved":false,"is_disabled":false,"rental_uris":{"android":"levelo://app?vid=65b58bcf-4346-49dc-8a22-60f4aed99d77","ios":"levelo://app?vid=65b58bcf-4346-49dc-8a22-60f4aed99d77"},"vehicle_type_id":"4","last_reported":1784760866,"current_range_meters":8000,"station_id":"cpo36qri1sfpv3e86is0","pricing_plan_id":"cebpf4jnsgd1na2vs0mg"},{"bike_id":"f27125b7-9dc2-4097-85ab-bda6151e3a81","system_id":"levelo_inurba_marseille","lat":43.30331,"lon":5.40444,"is_reserved":false,"is_disabled":false,"rental_uris":{"android":"levelo://app?vid=f27125b7-9dc2-4097-85ab-bda6151e3a81","ios":"levelo://app?vid=f27125b7-9dc2-4097-85ab-bda6151e3a81"},"vehicle_type_id":"4","last_reported":1784760866,"current_range_meters":37600,"station_id":"ce4bh012rcd13ifvqd10","pricing_plan_id":"cebpf4jnsgd1na2vs0mg"},{"bike_id":"e3e78347-ef60-4ab2-ba18-b94c585c9f77","system_id":"levelo_inurba_marseille","lat":43.30878,"lon":5.39631,"is_reserved":false,"is_disabled":false,"rental_uris":{"android":"levelo://app?vid=e3e78347-ef60-4ab2-ba18-b94c585c9f77","ios":"levelo://app?vid=e3e78347-ef60-4ab2-ba18-b94c585c9f77"},"vehicle_type_id":"4","last_reported":1784760866,"current_range_meters":8800,"station_id":"ce4bh012rcd13ifvqcv0","pricing_plan_id":"cebpf4jnsgd1na2vs0mg"},{"bike_id":"856c1d79-33bf-4dc6-a3ad-e8a03c6a267d","system_id":"levelo_inurba_marseille","lat":43.29017,"lon":5.37558,"is_reserved":false,"is_disabled":true,"rental_uris":{"android":"levelo://app?vid=856c1d79-33bf-4dc6-a3ad-e8a03c6a267d","ios":"levelo://app?vid=856c1d79-33bf-4dc6-a3ad-e8a03c6a267d"},"vehicle_type_id":"4","last_reported":1784760866,"current_range_meters":32800,"station_id":"ce4bh692rcd13ifvqe90","pricing_plan_id":"cebpf4jnsgd1na2vs0mg"},{"bike_id":"1f258f1a-090f-4fc9-aa0c-dfcc2e237f21","system_id":"levelo_inurba_marseille","lat":43.28672,"lon":5.3866,"is_reserved":false,"is_disabled":false,"rental_uris":{"android":"levelo://app?vid=1f258f1a-090f-4fc9-aa0c-dfcc2e237f21","ios":"levelo://app?vid=1f258f1a-090f-4fc9-aa0c-dfcc2e237f21"},"vehicle_type_id":"4","last_reported":1784760866,"current_range_meters":32800,"station_id":"ce4bh492rcd13ifvqdug","pricing_plan_id":"cebpf4jnsgd1na2vs0mg"},{"bike_id":"2bbb3aeb-b508-42f7-910e-0c84ff3ada82","system_id":"levelo_inurba_marseille","lat":43.31247,"lon":5.39011,"is_reserved":false,"is_disabled":false,"rental_uris":{"android":"levelo://app?vid=2bbb3aeb-b508-42f7-910e-0c84ff3ada82","ios":"levelo://app?vid=2bbb3aeb-b508-42f7-910e-0c84ff3ada82"},"vehicle_type_id":"4","last_reported":1784760866,"current_range_meters":11200,"station_id":"","pricing_plan_id":"cebpf4jnsgd1na2vs0mg"},{"bike_id":"c96f6969-8a16-4c7f-b06e-c3d079436fcb","system_id":"levelo_inurba_marseille","lat":43.29557,"lon":5.39941,"is_reserved":false,"is_disabled":false,"rental_uris":{"android":"levelo://app?vid=c96f6969-8a16-4c7f-b06e-c3d079436fcb","ios":"levelo://app?vid=c96f6969-8a16-4c7f-b06e-c3d079436fcb"},"vehicle_type_id":"4","last_reported":1784760866,"current_range_meters":16800,"station_id":"ce4bh312rcd13ifvqdj0","pricing_plan_id":"cebpf4jnsgd1na2vs0mg"},{"bike_id":"93d74098-7dc1-4fc1-b192-8f57ffdd9c46","system_id":"levelo_inurba_marseille","lat":43.29614,"lon":5.37745,"is_reserved":false,"is_disabled":false,"rental_uris":{"android":"levelo://app?vid=93d74098-7dc1-4fc1-b192-8f57ffdd9c46","ios":"levelo://app?vid=93d74098-7dc1-4fc1-b192-8f57ffdd9c46"},"vehicle_type_id":"4","last_reported":1784760866,"current_range_meters":23200,"station_id":"ce4bgi92rcd13ifvqb90","pricing_plan_id":"cebpf4jnsgd1na2vs0mg"},{"bike_id":"c0486753-d975-43ea-b6d4-1d6219ec8830","system_id":"levelo_inurba_marseille","lat":43.29251,"lon":5.36688,"is_reserved":false,"is_disabled":false,"rental_uris":{"android":"levelo://app?vid=c0486753-d975-43ea-b6d4-1d6219ec8830","ios":"levelo://app?vid=c0486753-d975-43ea-b6d4-1d6219ec8830"},"vehicle_type_id":"4","last_reported":1784760866,"current_range_meters":24400,"station_id":"","pricing_plan_id":"cebpf4jnsgd1na2vs0mg"},{"bike_id":"ab907c16-2123-44c2-912f-95e0f2737c03","system_id":"levelo_inurba_marseille","lat":43.3039,"lon":5.42731,"is_reserved":false,"is_disabled":true,"rental_uris":{"android":"levelo://app?vid=ab907c16-2123-44c2-912f-95e0f2737c03","ios":"levelo://app?vid=ab907c16-2123-44c2-912f-95e0f2737c03"},"vehicle_type_id":"4","last_reported":1784760866,"current_range_meters":22400,"station_id":"","pricing_plan_id":"cebpf4jnsgd1na2vs0mg"},{"bike_id":"7ea947c2-6348-4b4e-960a-27b32eb29d3b","system_id":"levelo_inurba_marseille","lat":43.27994,"lon":5.38696,"is_reserved":false,"is_disabled":false,"rental_uris":{"android":"levelo://app?vid=7ea947c2-6348-4b4e-960a-27b32eb29d3b","ios":"levelo://app?vid=7ea947c2-6348-4b4e-960a-27b32eb29d3b"},"vehicle_type_id":"4","last_reported":1784760866,"current_range_meters":18000,"station_id":"ce4bhg12rcd13ifvqf80","pricing_plan_id":"cebpf4jnsgd1na2vs0mg"},{"bike_id":"1fb2f5a3-8d7e-4823-bf6a-5fef2cc785f8","system_id":"levelo_inurba_marseille","lat":43.31626,"lon":5.39018,"is_reserved":false,"is_disabled":false,"rental_uris":{"android":"levelo://app?vid=1fb2f5a3-8d7e-4823-bf6a-5fef2cc785f8","ios":"levelo://app?vid=1fb2f5a3-8d7e-4823-bf6a-5fef2cc785f8"},"vehicle_type_id":"4","last_reported":1784760866,"current_range_meters":27600,"station_id":"","pricing_plan_id":"cebpf4jnsgd1na2vs0mg"},{"bike_id":"6fdf1414-4a4e-4122-acc5-0f1f2cd2bff6","system_id":"levelo_inurba_marseille","lat":43.30797,"lon":5.38168,"is_reserved":false,"is_disabled":false,"rental_uris":{"android":"levelo://app?vid=6fdf1414-4a4e-4122-acc5-0f1f2cd2bff6","ios":"levelo://app?vid=6fdf1414-4a4e-4122-acc5-0f1f2cd2bff6"},"vehicle_type_id":"4","last_reported":1784760866,"current_range_meters":27200,"station_id":"","pricing_plan_id":"cebpf4jnsgd1na2vs0mg"},{"bike_id":"a68600bb-7cb8-446a-8af2-4628e3a05293","system_id":"levelo_inurba_marseille","lat":43.31085,"lon":5.37167,"is_reserved":false,"is_disabled":false,"rental_uris":{"android":"levelo://app?vid=a68600bb-7cb8-446a-8af2-4628e3a05293","ios":"levelo://app?vid=a68600bb-7cb8-446a-8af2-4628e3a05293"},"vehicle_type_id":"4","last_reported":1784760866,"current_range_meters":8000,"station_id":"st_d4kl2rp97mjs73e7tdfg","pricing_plan_id":"cebpf4jnsgd1na2vs0mg"},{"bike_id":"5a26a324-7be6-4998-86e5-eebbf8b2c06f","system_id":"levelo_inurba_marseille","lat":43.25324,"lon":5.40888,"is_reserved":false,"is_disabled":false,"rental_uris":{"android":"levelo://app?vid=5a26a324-7be6-4998-86e5-eebbf8b2c06f","ios":"levelo://app?vid=5a26a324-7be6-4998-86e5-eebbf8b2c06f"},"vehicle_type_id":"4","last_reported":1784760866,"current_range_meters":28000,"station_id":"","pricing_plan_id":"cebpf4jnsgd1na2vs0mg"},{"bike_id":"c520161e-c250-4161-a55a-6b287776d8da","system_id":"levelo_inurba_marseille","lat":43.2846,"lon":5.48388,"is_reserved":false,"is_disabled":false,"rental_uris":{"android":"levelo://app?vid=c520161e-c250-4161-a55a-6b287776d8da","ios":"levelo://app?vid=c520161e-c250-4161-a55a-6b287776d8da"},"vehicle_type_id":"4","last_reported":1784760866,"current_range_meters":26800,"station_id":"st_d3svhcjqgbts73a3dn0g","pricing_plan_id":"cebpf4jnsgd1na2vs0mg"},{"bike_id":"1be16c68-4af1-419d-93d4-773b2af07f2a","system_id":"levelo_inurba_marseille","lat":43.28532,"lon":5.44097,"is_reserved":false,"is_disabled":false,"rental_uris":{"android":"levelo://app?vid=1be16c68-4af1-419d-93d4-773b2af07f2a","ios":"levelo://app?vid=1be16c68-4af1-419d-93d4-773b2af07f2a"},"vehicle_type_id":"4","last_reported":1784760866,"current_range_meters":35200,"station_id":"st_d3j3df2ikq2c7380ej80","pricing_plan_id":"cebpf4jnsgd1na2vs0mg"},{"bike_id":"e2558628-b96f-40d0-8841-b8d4f846138e","system_id":"levelo_inurba_marseille","lat":43.25106,"lon":5.40318,"is_reserved":false,"is_disabled":false,"rental_uris":{"android":"levelo://app?vid=e2558628-b96f-40d0-8841-b8d4f846138e","ios":"levelo://app?vid=e2558628-b96f-40d0-8841-b8d4f846138e"},"vehicle_type_id":"4","last_reported":1784760866,"current_range_meters":32400,"station_id":"ce4bhlh2rcd13ifvqgig","pricing_plan_id":"cebpf4jnsgd1na2vs0mg"},{"bike_id":"3d015542-b60d-439c-a105-f5b0e4bf8bc5","system_id":"levelo_inurba_marseille","lat":43.30042,"lon":5.39081,"is_reserved":false,"is_disabled":false,"rental_uris":{"android":"levelo://app?vid=3d015542-b60d-439c-a105-f5b0e4bf8bc5","ios":"levelo://app?vid=3d015542-b60d-439c-a105-f5b0e4bf8bc5"},"vehicle_type_id":"4","last_reported":1784760866,"current_range_meters":28400,"station_id":"ce4bh192rcd13ifvqdb0","pricing_plan_id":"cebpf4jnsgd1na2vs0mg"},{"bike_id":"058cbe73-cf01-4c1e-914c-148728b986c8","system_id":"levelo_inurba_marseille","lat":43.31476,"lon":5.373,"is_reserved":false,"is_disabled":false,"rental_uris":{"android":"levelo://app?vid=058cbe73-cf01-4c1e-914c-148728b986c8","ios":"levelo://app?vid=058cbe73-cf01-4c1e-914c-148728b986c8"},"vehicle_type_id":"4","last_reported":1784760866,"current_range_meters":38800,"station_id":"ce4bgt12rcd13ifvqcd0","pricing_plan_id":"cebpf4jnsgd1na2vs0mg"},{"bike_id":"86b68a25-cf05-4d9d-a1fc-14ed7f4082b4","system_id":"levelo_inurba_marseille","lat":43.28401,"lon":5.37515,"is_reserved":false,"is_disabled":false,"rental_uris":{"android":"levelo://app?vid=86b68a25-cf05-4d9d-a1fc-14ed7f4082b4","ios":"levelo://app?vid=86b68a25-cf05-4d9d-a1fc-14ed7f4082b4"},"vehicle_type_id":"4","last_reported":1784760866,"current_range_meters":18800,"station_id":"ce4bh412rcd13ifvqds0","pricing_plan_id":"cebpf4jnsgd1na2vs0mg"},{"bike_id":"804dc358-9357-46bb-92e7-a688fb04e878","system_id":"levelo_inurba_marseille","lat":43.30794,"lon":5.38163,"is_reserved":false,"is_disabled":false,"rental_uris":{"android":"levelo://app?vid=804dc358-9357-46bb-92e7-a688fb04e878","ios":"levelo://app?vid=804dc358-9357-46bb-92e7-a688fb04e878"},"vehicle_type_id":"4","last_reported":1784760866,"current_range_meters":17200,"station_id":"ce4bgt12rcd13ifvqce0","pricing_plan_id":"cebpf4jnsgd1na2vs0mg"},{"bike_id":"21b1d065-f365-4ef3-9cc2-2f14f870f8d9","system_id":"levelo_inurba_marseille","lat":43.29629,"lon":5.38118,"is_reserved":false,"is_disabled":false,"rental_uris":{"android":"levelo://app?vid=21b1d065-f365-4ef3-9cc2-2f14f870f8d9","ios":"levelo://app?vid=21b1d065-f365-4ef3-9cc2-2f14f870f8d9"},"vehicle_type_id":"4","last_reported":1784760866,"current_range_meters":30000,"station_id":"ce4bgl12rcd13ifvqbo0","pricing_plan_id":"cebpf4jnsgd1na2vs0mg"},{"bike_id":"9c49127c-d038-47c3-9f8c-69e8bb7469b0","system_id":"levelo_inurba_marseille","lat":43.29032,"lon":5.38643,"is_reserved":false,"is_disabled":false,"rental_uris":{"android":"levelo://app?vid=9c49127c-d038-47c3-9f8c-69e8bb7469b0","ios":"levelo://app?vid=9c49127c-d038-47c3-9f8c-69e8bb7469b0"},"vehicle_type_id":"4","last_reported":1784760866,"current_range_meters":21600,"station_id":"ce4bh4p2rcd13ifvqe0g","pricing_plan_id":"cebpf4jnsgd1na2vs0mg"},{"bike_id":"08d8455b-4dd9-4252-9fd2-534179cbd1ea","system_id":"levelo_inurba_marseille","lat":43.27422,"lon":5.394,"is_reserved":false,"is_disabled":false,"rental_uris":{"android":"levelo://app?vid=08d8455b-4dd9-4252-9fd2-534179cbd1ea","ios":"levelo://app?vid=08d8455b-4dd9-4252-9fd2-534179cbd1ea"},"vehicle_type_id":"4","last_reported":1784760866,"current_range_meters":39200,"station_id":"ce4bhdp2rcd13ifvqf20","pricing_plan_id":"cebpf4jnsgd1na2vs0mg"},{"bike_id":"3a34f52e-1e5b-45cf-b1c8-7a76d3f0220c","system_id":"levelo_inurba_marseille","lat":43.29251,"lon":5.41757,"is_reserved":false,"is_disabled":false,"rental_uris":{"android":"levelo://app?vid=3a34f52e-1e5b-45cf-b1c8-7a76d3f0220c","ios":"levelo://app?vid=3a34f52e-1e5b-45cf-b1c8-7a76d3f0220c"},"vehicle_type_id":"4","last_reported":1784760866,"current_range_meters":30400,"station_id":"","pricing_plan_id":"cebpf4jnsgd1na2vs0mg"},{"bike_id":"0353fca3-fbdd-4286-a9eb-ebce376c25fa","system_id":"levelo_inurba_marseille","lat":43.2339,"lon":5.41246,"is_reserved":false,"is_disabled":false,"rental_uris":{"android":"levelo://app?vid=0353fca3-fbdd-4286-a9eb-ebce376c25fa","ios":"levelo://app?vid=0353fca3-fbdd-4286-a9eb-ebce376c25fa"},"vehicle_type_id":"4","last_reported":1784760866,"current_range_meters":38000,"station_id":"st_d75pvndhf9lc73cqq3eg","pricing_plan_id":"cebpf4jnsgd1na2vs0mg"},{"bike_id":"b8e43a89-3bb1-4279-9cee-f7b093c9b703","system_id":"levelo_inurba_marseille","lat":43.33718,"lon":5.37415,"is_reserved":false,"is_disabled":false,"rental_uris":{"android":"levelo://app?vid=b8e43a89-3bb1-4279-9cee-f7b093c9b703","ios":"levelo://app?vid=b8e43a89-3bb1-4279-9cee-f7b093c9b703"},"vehicle_type_id":"4","last_reported":1784760866,"current_range_meters":12800,"station_id":"","pricing_plan_id":"cebpf4jnsgd1na2vs0mg"},{"bike_id":"a061221c-7b6d-41be-a72e-a2fa8d416b64","system_id":"levelo_inurba_marseille","lat":43.2835,"lon":5.38109,"is_reserved":false,"is_disabled":false,"rental_uris":{"android":"levelo://app?vid=a061221c-7b6d-41be-a72e-a2fa8d416b64","ios":"levelo://app?vid=a061221c-7b6d-41be-a72e-a2fa8d416b64"},"vehicle_type_id":"4","last_reported":1784760866,"current_range_meters":6400,"station_id":"ce4bh412rcd13ifvqdr0","pricing_plan_id":"cebpf4jnsgd1na2vs0mg"},{"bike_id":"17ec69e9-f82e-42b7-8fd3-de92d2bea59d","system_id":"levelo_inurba_marseille","lat":43.25341,"lon":5.42169,"is_reserved":false,"is_disabled":false,"rental_uris":{"android":"levelo://app?vid=17ec69e9-f82e-42b7-8fd3-de92d2bea59d","ios":"levelo://app?vid=17ec69e9-f82e-42b7-8fd3-de92d2bea59d"},"vehicle_type_id":"4","last_reported":1784760866,"current_range_meters":22400,"station_id":"st_d2m65c5bi1j21697t3ng","pricing_plan_id":"cebpf4jnsgd1na2vs0mg"},{"bike_id":"7c723535-400d-40c1-830d-4ce22ffaa2e6","system_id":"levelo_inurba_marseille","lat":43.30123,"lon":5.3987,"is_reserved":false,"is_disabled":false,"rental_uris":{"android":"levelo://app?vid=7c723535-400d-40c1-830d-4ce22ffaa2e6","ios":"levelo://app?vid=7c723535-400d-40c1-830d-4ce22ffaa2e6"},"vehicle_type_id":"4","last_reported":1784760866,"current_range_meters":8000,"station_id":"ce4bh0h2rcd13ifvqd40","pricing_plan_id":"cebpf4jnsgd1na2vs0mg"},{"bike_id":"ebbd8caa-28e2-4f5a-b7ea-c02aed1edd75","system_id":"levelo_inurba_marseille","lat":43.26488,"lon":5.39551,"is_reserved":false,"is_disabled":false,"rental_uris":{"android":"levelo://app?vid=ebbd8caa-28e2-4f5a-b7ea-c02aed1edd75","ios":"levelo://app?vid=ebbd8caa-28e2-4f5a-b7ea-c02aed1edd75"},"vehicle_type_id":"4","last_reported":1784760866,"current_range_meters":38400,"station_id":"ce4bhi12rcd13ifvqfq0","pricing_plan_id":"cebpf4jnsgd1na2vs0mg"},{"bike_id":"5783761d-f3a8-46b4-8c26-9812d8d66703","system_id":"levelo_inurba_marseille","lat":43.22536,"lon":5.34847,"is_reserved":false,"is_disabled":false,"rental_uris":{"android":"levelo://app?vid=5783761d-f3a8-46b4-8c26-9812d8d66703","ios":"levelo://app?vid=5783761d-f3a8-46b4-8c26-9812d8d66703"},"vehicle_type_id":"4","last_reported":1784760866,"current_range_meters":20800,"station_id":"st_cvj5dfep6f1abm77gieg","pricing_plan_id":"cebpf4jnsgd1na2vs0mg"},{"bike_id":"3f403486-e585-44eb-9187-7d69588b4e24","system_id":"levelo_inurba_marseille","lat":43.30418,"lon":5.39755,"is_reserved":false,"is_disabled":false,"rental_uris":{"android":"levelo://app?vid=3f403486-e585-44eb-9187-7d69588b4e24","ios":"levelo://app?vid=3f403486-e585-44eb-9187-7d69588b4e24"},"vehicle_type_id":"4","last_reported":1784760866,"current_range_meters":36000,"station_id":"ce4bh092rcd13ifvqd20","pricing_plan_id":"cebpf4jnsgd1na2vs0mg"},{"bike_id":"8775496e-66bc-4ada-9928-7ea0663d9e78","system_id":"levelo_inurba_marseille","lat":43.29516,"lon":5.39413,"is_reserved":false,"is_disabled":false,"rental_uris":{"android":"levelo://app?vid=8775496e-66bc-4ada-9928-7ea0663d9e78","ios":"levelo://app?vid=8775496e-66bc-4ada-9928-7ea0663d9e78"},"vehicle_type_id":"4","last_reported":1784760866,"current_range_meters":21600,"station_id":"ce4bh292rcd13ifvqdf0","pricing_plan_id":"cebpf4jnsgd1na2vs0mg"},{"bike_id":"c8e3d09f-d30c-4135-90f9-77af655e83c5","system_id":"levelo_inurba_marseille","lat":43.27355,"lon":5.3629,"is_reserved":false,"is_disabled":false,"rental_uris":{"android":"levelo://app?vid=c8e3d09f-d30c-4135-90f9-77af655e83c5","ios":"levelo://app?vid=c8e3d09f-d30c-4135-90f9-77af655e83c5"},"vehicle_type_id":"4","last_reported":1784760866,"current_range_meters":27600,"station_id":"ce4bhbh2rcd13ifvqeo0","pricing_plan_id":"cebpf4jnsgd1na2vs0mg"},{"bike_id":"f18ea830-a5ca-4d06-a237-2cf81bc6d0e7","system_id":"levelo_inurba_marseille","lat":43.30829,"lon":5.38205,"is_reserved":false,"is_disabled":false,"rental_uris":{"android":"levelo://app?vid=f18ea830-a5ca-4d06-a237-2cf81bc6d0e7","ios":"levelo://app?vid=f18ea830-a5ca-4d06-a237-2cf81bc6d0e7"},"vehicle_type_id":"4","last_reported":1784760866,"current_range_meters":20800,"station_id":"","pricing_plan_id":"cebpf4jnsgd1na2vs0mg"},{"bike_id":"13bbfe3b-874b-44d7-9abb-922c8de23c11","system_id":"levelo_inurba_marseille","lat":43.23213,"lon":5.35395,"is_reserved":false,"is_disabled":false,"rental_uris":{"android":"levelo://app?vid=13bbfe3b-874b-44d7-9abb-922c8de23c11","ios":"levelo://app?vid=13bbfe3b-874b-44d7-9abb-922c8de23c11"},"vehicle_type_id":"4","last_reported":1784760866,"current_range_meters":20400,"station_id":"","pricing_plan_id":"cebpf4jnsgd1na2vs0mg"},{"bike_id":"a29fc34b-47f0-4e6c-a49d-ad840f4184cd","system_id":"levelo_inurba_marseille","lat":43.33157,"lon":5.37723,"is_reserved":false,"is_disabled":false,"rental_uris":{"android":"levelo://app?vid=a29fc34b-47f0-4e6c-a49d-ad840f4184cd","ios":"levelo://app?vid=a29fc34b-47f0-4e6c-a49d-ad840f4184cd"},"vehicle_type_id":"4","last_reported":1784760866,"current_range_meters":39200,"station_id":"st_d46cu089ee8s73dldbu0","pricing_plan_id":"cebpf4jnsgd1na2vs0mg"},{"bike_id":"49a1373d-2792-477e-87cc-ec0c37648bd2","system_id":"levelo_inurba_marseille","lat":43.31079,"lon":5.42439,"is_reserved":false,"is_disabled":true,"rental_uris":{"android":"levelo://app?vid=49a1373d-2792-477e-87cc-ec0c37648bd2","ios":"levelo://app?vid=49a1373d-2792-477e-87cc-ec0c37648bd2"},"vehicle_type_id":"4","last_reported":1784760866,"current_range_meters":400,"station_id":"ce4bhp92rcd13ifvqhag","pricing_plan_id":"cebpf4jnsgd1na2vs0mg"},{"bike_id":"9a86c5d2-1372-44b0-9209-43c3e2bf6ce4","system_id":"levelo_inurba_marseille","lat":43.31363,"lon":5.36725,"is_reserved":false,"is_disabled":false,"rental_uris":{"android":"levelo://app?vid=9a86c5d2-1372-44b0-9209-43c3e2bf6ce4","ios":"levelo://app?vid=9a86c5d2-1372-44b0-9209-43c3e2bf6ce4"},"vehicle_type_id":"4","last_reported":1784760866,"current_range_meters":32400,"station_id":"ce4bgr92rcd13ifvqc6g","pricing_plan_id":"cebpf4jnsgd1na2vs0mg"},{"bike_id":"6ed5f8c3-6da8-4cec-bfad-13253a432d70","system_id":"levelo_inurba_marseille","lat":43.29406,"lon":5.38593,"is_reserved":false,"is_disabled":true,"rental_uris":{"android":"levelo://app?vid=6ed5f8c3-6da8-4cec-bfad-13253a432d70","ios":"levelo://app?vid=6ed5f8c3-6da8-4cec-bfad-13253a432d70"},"vehicle_type_id":"4","last_reported":1784760866,"current_range_meters":30800,"station_id":"","pricing_plan_id":"cebpf4jnsgd1na2vs0mg"},{"bike_id":"2abfcdfb-2eb0-4480-932d-1071dc8638d6","system_id":"levelo_inurba_marseille","lat":43.3354,"lon":5.37458,"is_reserved":false,"is_disabled":false,"rental_uris":{"android":"levelo://app?vid=2abfcdfb-2eb0-4480-932d-1071dc8638d6","ios":"levelo://app?vid=2abfcdfb-2eb0-4480-932d-1071dc8638d6"},"vehicle_type_id":"4","last_reported":1784760866,"current_range_meters":39200,"station_id":"st_d46tts09ee8s73dlu43g","pricing_plan_id":"cebpf4jnsgd1na2vs0mg"},{"bike_id":"0dee0085-d5a5-4c48-b3f1-a323bb744f3d","system_id":"levelo_inurba_marseille","lat":43.22569,"lon":5.41639,"is_reserved":false,"is_disabled":false,"rental_uris":{"android":"levelo://app?vid=0dee0085-d5a5-4c48-b3f1-a323bb744f3d","ios":"levelo://app?vid=0dee0085-d5a5-4c48-b3f1-a323bb744f3d"},"vehicle_type_id":"4","last_reported":1784760866,"current_range_meters":30000,"station_id":"st_d2o4gvlbi1j2169b742g","pricing_plan_id":"cebpf4jnsgd1na2vs0mg"},{"bike_id":"589bc921-31be-458b-a0b7-d712c5f2b103","system_id":"levelo_inurba_marseille","lat":43.27179,"lon":5.40994,"is_reserved":false,"is_disabled":false,"rental_uris":{"android":"levelo://app?vid=589bc921-31be-458b-a0b7-d712c5f2b103","ios":"levelo://app?vid=589bc921-31be-458b-a0b7-d712c5f2b103"},"vehicle_type_id":"4","last_reported":1784760866,"current_range_meters":3200,"station_id":"ce4bhl12rcd13ifvqgf0","pricing_plan_id":"cebpf4jnsgd1na2vs0mg"},{"bike_id":"79bbf534-c03c-4148-a77c-b3dec2958332","system_id":"levelo_inurba_marseille","lat":43.26371,"lon":5.41086,"is_reserved":false,"is_disabled":false,"rental_uris":{"android":"levelo://app?vid=79bbf534-c03c-4148-a77c-b3dec2958332","ios":"levelo://app?vid=79bbf534-c03c-4148-a77c-b3dec2958332"},"vehicle_type_id":"4","last_reported":1784760866,"current_range_meters":32000,"station_id":"st_d4e5ca6na9uc73bfl5fg","pricing_plan_id":"cebpf4jnsgd1na2vs0mg"},{"bike_id":"5f238376-0c8f-4526-8c2c-ed47690a5ee9","system_id":"levelo_inurba_marseille","lat":43.28865,"lon":5.393,"is_reserved":false,"is_disabled":false,"rental_uris":{"android":"levelo://app?vid=5f238376-0c8f-4526-8c2c-ed47690a5ee9","ios":"levelo://app?vid=5f238376-0c8f-4526-8c2c-ed47690a5ee9"},"vehicle_type_id":"4","last_reported":1784760866,"current_range_meters":38000,"station_id":"ce4bh2p2rcd13ifvqdi0","pricing_plan_id":"cebpf4jnsgd1na2vs0mg"},{"bike_id":"0b2c45f2-fdaa-45fe-9511-e6426cab85f6","system_id":"levelo_inurba_marseille","lat":43.27484,"lon":5.42454,"is_reserved":false,"is_disabled":false,"rental_uris":{"android":"levelo://app?vid=0b2c45f2-fdaa-45fe-9511-e6426cab85f6","ios":"levelo://app?vid=0b2c45f2-fdaa-45fe-9511-e6426cab85f6"},"vehicle_type_id":"4","last_reported":1784760866,"current_range_meters":17600,"station_id":"ce4bhn92rcd13ifvqgrg","pricing_plan_id":"cebpf4jnsgd1na2vs0mg"},{"bike_id":"534cd954-f736-46e4-b80c-bd1506dfd342","system_id":"levelo_inurba_marseille","lat":43.2804,"lon":5.36952,"is_reserved":false,"is_disabled":false,"rental_uris":{"android":"levelo://app?vid=534cd954-f736-46e4-b80c-bd1506dfd342","ios":"levelo://app?vid=534cd954-f736-46e4-b80c-bd1506dfd342"},"vehicle_type_id":"4","last_reported":1784760866,"current_range_meters":15200,"station_id":"ce4bha12rcd13ifvqef0","pricing_plan_id":"cebpf4jnsgd1na2vs0mg"},{"bike_id":"46829d30-948c-4700-9279-2117a96cb634","system_id":"levelo_inurba_marseille","lat":43.29625,"lon":5.40591,"is_reserved":false,"is_disabled":false,"rental_uris":{"android":"levelo://app?vid=46829d30-948c-4700-9279-2117a96cb634","ios":"levelo://app?vid=46829d30-948c-4700-9279-2117a96cb634"},"vehicle_type_id":"4","last_reported":1784760866,"current_range_meters":38400,"station_id":"ce4bh0h2rcd13ifvqd60","pricing_plan_id":"cebpf4jnsgd1na2vs0mg"},{"bike_id":"dad5eff3-cb3a-4459-ba39-741abe4a6c6c","system_id":"levelo_inurba_marseille","lat":43.32106,"lon":5.36775,"is_reserved":false,"is_disabled":false,"rental_uris":{"android":"levelo://app?vid=dad5eff3-cb3a-4459-ba39-741abe4a6c6c","ios":"levelo://app?vid=dad5eff3-cb3a-4459-ba39-741abe4a6c6c"},"vehicle_type_id":"4","last_reported":1784760866,"current_range_meters":7200,"station_id":"ce4bhrh2rcd13ifvqhug","pricing_plan_id":"cebpf4jnsgd1na2vs0mg"},{"bike_id":"f10d8fec-f7ac-49dc-b3ee-38d2e98c5e02","system_id":"levelo_inurba_marseille","lat":43.2619,"lon":5.37929,"is_reserved":false,"is_disabled":false,"rental_uris":{"android":"levelo://app?vid=f10d8fec-f7ac-49dc-b3ee-38d2e98c5e02","ios":"levelo://app?vid=f10d8fec-f7ac-49dc-b3ee-38d2e98c5e02"},"vehicle_type_id":"4","last_reported":1784760866,"current_range_meters":40000,"station_id":"ce4bhjp2rcd13ifvqg90","pricing_plan_id":"cebpf4jnsgd1na2vs0mg"},{"bike_id":"803f7df9-868f-456a-ad9f-b9f6950af8c3","system_id":"levelo_inurba_marseille","lat":43.23194,"lon":5.39985,"is_reserved":false,"is_disabled":false,"rental_uris":{"android":"levelo://app?vid=803f7df9-868f-456a-ad9f-b9f6950af8c3","ios":"levelo://app?vid=803f7df9-868f-456a-ad9f-b9f6950af8c3"},"vehicle_type_id":"4","last_reported":1784760866,"current_range_meters":26800,"station_id":"ce4bhn12rcd13ifvqgqg","pricing_plan_id":"cebpf4jnsgd1na2vs0mg"},{"bike_id":"b979ebf4-f778-43b8-bf54-9a684b09d95e","system_id":"levelo_inurba_marseille","lat":43.28936,"lon":5.36632,"is_reserved":false,"is_disabled":false,"rental_uris":{"android":"levelo://app?vid=b979ebf4-f778-43b8-bf54-9a684b09d95e","ios":"levelo://app?vid=b979ebf4-f778-43b8-bf54-9a684b09d95e"},"vehicle_type_id":"4","last_reported":1784760866,"current_range_meters":22000,"station_id":"ce4bhap2rcd13ifvqek0","pricing_plan_id":"cebpf4jnsgd1na2vs0mg"},{"bike_id":"8d8673aa-a69c-4d74-931d-06b8f35221f4","system_id":"levelo_inurba_marseille","lat":43.26705,"lon":5.41966,"is_reserved":false,"is_disabled":false,"rental_uris":{"android":"levelo://app?vid=8d8673aa-a69c-4d74-931d-06b8f35221f4","ios":"levelo://app?vid=8d8673aa-a69c-4d74-931d-06b8f35221f4"},"vehicle_type_id":"4","last_reported":1784760866,"current_range_meters":25200,"station_id":"","pricing_plan_id":"cebpf4jnsgd1na2vs0mg"},{"bike_id":"8c024520-5ef9-4a9c-a20e-91073dc95666","system_id":"levelo_inurba_marseille","lat":43.299828,"lon":5.371924,"is_reserved":false,"is_disabled":false,"rental_uris":{"android":"levelo://app?vid=8c024520-5ef9-4a9c-a20e-91073dc95666","ios":"levelo://app?vid=8c024520-5ef9-4a9c-a20e-91073dc95666"},"vehicle_type_id":"4","last_reported":1784760866,"current_range_meters":34000,"station_id":"ce4bh4p2rcd13ifvqe1g","pricing_plan_id":"cebpf4jnsgd1na2vs0mg"},{"bike_id":"bb6c1d94-b8a1-4d7e-8e26-2628675f7e1d","system_id":"levelo_inurba_marseille","lat":43.2958,"lon":5.37729,"is_reserved":false,"is_disabled":true,"rental_uris":{"android":"levelo://app?vid=bb6c1d94-b8a1-4d7e-8e26-2628675f7e1d","ios":"levelo://app?vid=bb6c1d94-b8a1-4d7e-8e26-2628675f7e1d"},"vehicle_type_id":"4","last_reported":1784760866,"current_range_meters":19600,"station_id":"","pricing_plan_id":"cebpf4jnsgd1na2vs0mg"},{"bike_id":"ad73d6c5-5ed9-43f7-92cc-606421124dcf","system_id":"levelo_inurba_marseille","lat":43.3136,"lon":5.38497,"is_reserved":false,"is_disabled":false,"rental_uris":{"android":"levelo://app?vid=ad73d6c5-5ed9-43f7-92cc-606421124dcf","ios":"levelo://app?vid=ad73d6c5-5ed9-43f7-92cc-606421124dcf"},"vehicle_type_id":"4","last_reported":1784760866,"current_range_meters":32000,"station_id":"ce4bgt92rcd13ifvqcf0","pricing_plan_id":"cebpf4jnsgd1na2vs0mg"},{"bike_id":"e0407ed7-b9d0-4700-b557-a0073d2bec5b","system_id":"levelo_inurba_marseille","lat":43.304,"lon":5.39761,"is_reserved":false,"is_disabled":false,"rental_uris":{"android":"levelo://app?vid=e0407ed7-b9d0-4700-b557-a0073d2bec5b","ios":"levelo://app?vid=e0407ed7-b9d0-4700-b557-a0073d2bec5b"},"vehicle_type_id":"4","last_reported":1784760866,"current_range_meters":14400,"station_id":"ce4bh092rcd13ifvqd20","pricing_plan_id":"cebpf4jnsgd1na2vs0mg"},{"bike_id":"1fade11d-8e73-4748-8586-d9741ca55ced","system_id":"levelo_inurba_marseille","lat":43.317152,"lon":5.437034,"is_reserved":false,"is_disabled":false,"rental_uris":{"android":"levelo://app?vid=1fade11d-8e73-4748-8586-d9741ca55ced","ios":"levelo://app?vid=1fade11d-8e73-4748-8586-d9741ca55ced"},"vehicle_type_id":"4","last_reported":1784760866,"current_range_meters":29600,"station_id":"ce4bhp92rcd13ifvqhcg","pricing_plan_id":"cebpf4jnsgd1na2vs0mg"},{"bike_id":"d73bd1e4-68e9-4c2e-ae1c-15606b0054ae","system_id":"levelo_inurba_marseille","lat":43.23894,"lon":5.37458,"is_reserved":false,"is_disabled":false,"rental_uris":{"android":"levelo://app?vid=d73bd1e4-68e9-4c2e-ae1c-15606b0054ae","ios":"levelo://app?vid=d73bd1e4-68e9-4c2e-ae1c-15606b0054ae"},"vehicle_type_id":"4","last_reported":1784760866,"current_range_meters":26000,"station_id":"st_d6sm7csbq4hs73f8fpjg","pricing_plan_id":"cebpf4jnsgd1na2vs0mg"},{"bike_id":"ffe6ae5a-d919-4213-9d4a-fc19bf5ddb19","system_id":"levelo_inurba_marseille","lat":43.30435,"lon":5.39743,"is_reserved":false,"is_disabled":false,"rental_uris":{"android":"levelo://app?vid=ffe6ae5a-d919-4213-9d4a-fc19bf5ddb19","ios":"levelo://app?vid=ffe6ae5a-d919-4213-9d4a-fc19bf5ddb19"},"vehicle_type_id":"4","last_reported":1784760866,"current_range_meters":34000,"station_id":"ce4bh092rcd13ifvqd20","pricing_plan_id":"cebpf4jnsgd1na2vs0mg"},{"bike_id":"c8da8785-9f17-47b4-8522-306ee67d5911","system_id":"levelo_inurba_marseille","lat":43.260309,"lon":5.375524,"is_reserved":false,"is_disabled":false,"rental_uris":{"android":"levelo://app?vid=c8da8785-9f17-47b4-8522-306ee67d5911","ios":"levelo://app?vid=c8da8785-9f17-47b4-8522-306ee67d5911"},"vehicle_type_id":"4","last_reported":1784760866,"current_range_meters":38000,"station_id":"","pricing_plan_id":"cebpf4jnsgd1na2vs0mg"},{"bike_id":"6ebb0a3c-6954-4eb3-943b-a6e5d9b59f27","system_id":"levelo_inurba_marseille","lat":43.29524,"lon":5.39408,"is_reserved":false,"is_disabled":false,"rental_uris":{"android":"levelo://app?vid=6ebb0a3c-6954-4eb3-943b-a6e5d9b59f27","ios":"levelo://app?vid=6ebb0a3c-6954-4eb3-943b-a6e5d9b59f27"},"vehicle_type_id":"4","last_reported":1784760866,"current_range_meters":22400,"station_id":"ce4bh292rcd13ifvqdf0","pricing_plan_id":"cebpf4jnsgd1na2vs0mg"},{"bike_id":"75146afd-6944-4808-9153-760cee29f303","system_id":"levelo_inurba_marseille","lat":43.24651,"lon":5.37864,"is_reserved":false,"is_disabled":false,"rental_uris":{"android":"levelo://app?vid=75146afd-6944-4808-9153-760cee29f303","ios":"levelo://app?vid=75146afd-6944-4808-9153-760cee29f303"},"vehicle_type_id":"4","last_reported":1784760866,"current_range_meters":24000,"station_id":"","pricing_plan_id":"cebpf4jnsgd1na2vs0mg"},{"bike_id":"fa1ebf0e-0294-458b-9d53-54151cd2a3b5","system_id":"levelo_inurba_marseille","lat":43.29584,"lon":5.38107,"is_reserved":false,"is_disabled":false,"rental_uris":{"android":"levelo://app?vid=fa1ebf0e-0294-458b-9d53-54151cd2a3b5","ios":"levelo://app?vid=fa1ebf0e-0294-458b-9d53-54151cd2a3b5"},"vehicle_type_id":"4","last_reported":1784760866,"current_range_meters":24000,"station_id":"ce4bgl12rcd13ifvqbo0","pricing_plan_id":"cebpf4jnsgd1na2vs0mg"},{"bike_id":"36f797d9-5b95-4843-b50e-7f80ed979ebf","system_id":"levelo_inurba_marseille","lat":43.25579,"lon":5.38239,"is_reserved":false,"is_disabled":false,"rental_uris":{"android":"levelo://app?vid=36f797d9-5b95-4843-b50e-7f80ed979ebf","ios":"levelo://app?vid=36f797d9-5b95-4843-b50e-7f80ed979ebf"},"vehicle_type_id":"4","last_reported":1784760866,"current_range_meters":24800,"station_id":"ce4bhih2rcd13ifvqfs0","pricing_plan_id":"cebpf4jnsgd1na2vs0mg"},{"bike_id":"a31cea0c-4cff-4f6d-8f93-36842670158b","system_id":"levelo_inurba_marseille","lat":43.29713,"lon":5.36615,"is_reserved":false,"is_disabled":true,"rental_uris":{"android":"levelo://app?vid=a31cea0c-4cff-4f6d-8f93-36842670158b","ios":"levelo://app?vid=a31cea0c-4cff-4f6d-8f93-36842670158b"},"vehicle_type_id":"4","last_reported":1784760866,"current_range_meters":39200,"station_id":"ce4bgn12rcd13ifvqbt0","pricing_plan_id":"cebpf4jnsgd1na2vs0mg"},{"bike_id":"91f42b21-0df3-45b1-8e17-e5638f0043ee","system_id":"levelo_inurba_marseille","lat":43.30758,"lon":5.3815,"is_reserved":false,"is_disabled":false,"rental_uris":{"android":"levelo://app?vid=91f42b21-0df3-45b1-8e17-e5638f0043ee","ios":"levelo://app?vid=91f42b21-0df3-45b1-8e17-e5638f0043ee"},"vehicle_type_id":"4","last_reported":1784760866,"current_range_meters":39200,"station_id":"ce4bgt12rcd13ifvqce0","pricing_plan_id":"cebpf4jnsgd1na2vs0mg"},{"bike_id":"452ac296-b654-4152-89ca-c3c2d6dfb656","system_id":"levelo_inurba_marseille","lat":43.27072,"lon":5.38298,"is_reserved":false,"is_disabled":false,"rental_uris":{"android":"levelo://app?vid=452ac296-b654-4152-89ca-c3c2d6dfb656","ios":"levelo://app?vid=452ac296-b654-4152-89ca-c3c2d6dfb656"},"vehicle_type_id":"4","last_reported":1784760866,"current_range_meters":24000,"station_id":"st_d3n2fo6cfp8s73cte1j0","pricing_plan_id":"cebpf4jnsgd1na2vs0mg"},{"bike_id":"3d53c05f-73e3-440a-8c06-cf8f366e6e22","system_id":"levelo_inurba_marseille","lat":43.31525,"lon":5.3803,"is_reserved":false,"is_disabled":false,"rental_uris":{"android":"levelo://app?vid=3d53c05f-73e3-440a-8c06-cf8f366e6e22","ios":"levelo://app?vid=3d53c05f-73e3-440a-8c06-cf8f366e6e22"},"vehicle_type_id":"4","last_reported":1784760866,"current_range_meters":22400,"station_id":"ce4bhsp2rcd13ifvqi50","pricing_plan_id":"cebpf4jnsgd1na2vs0mg"},{"bike_id":"b6e149ac-230a-48ff-a674-48ad8c1be1cf","system_id":"levelo_inurba_marseille","lat":43.31356,"lon":5.3851,"is_reserved":false,"is_disabled":true,"rental_uris":{"android":"levelo://app?vid=b6e149ac-230a-48ff-a674-48ad8c1be1cf","ios":"levelo://app?vid=b6e149ac-230a-48ff-a674-48ad8c1be1cf"},"vehicle_type_id":"4","last_reported":1784760866,"current_range_meters":33600,"station_id":"ce4bgt92rcd13ifvqcf0","pricing_plan_id":"cebpf4jnsgd1na2vs0mg"},{"bike_id":"425cee52-7ff4-408d-b63f-f1bb20a33257","system_id":"levelo_inurba_marseille","lat":43.27494,"lon":5.42549,"is_reserved":false,"is_disabled":false,"rental_uris":{"android":"levelo://app?vid=425cee52-7ff4-408d-b63f-f1bb20a33257","ios":"levelo://app?vid=425cee52-7ff4-408d-b63f-f1bb20a33257"},"vehicle_type_id":"4","last_reported":1784760866,"current_range_meters":36400,"station_id":"st_d8t4bh7nbrqs73arha60","pricing_plan_id":"cebpf4jnsgd1na2vs0mg"},{"bike_id":"acb6c310-64e8-4ffb-9d0e-3645b38213aa","system_id":"levelo_inurba_marseille","lat":43.22593,"lon":5.41646,"is_reserved":false,"is_disabled":false,"rental_uris":{"android":"levelo://app?vid=acb6c310-64e8-4ffb-9d0e-3645b38213aa","ios":"levelo://app?vid=acb6c310-64e8-4ffb-9d0e-3645b38213aa"},"vehicle_type_id":"4","last_reported":1784760866,"current_range_meters":7200,"station_id":"st_d2o4gvlbi1j2169b742g","pricing_plan_id":"cebpf4jnsgd1na2vs0mg"},{"bike_id":"5a627881-0e8d-4187-9d6a-6839fab00feb","system_id":"levelo_inurba_marseille","lat":43.29585,"lon":5.38109,"is_reserved":false,"is_disabled":false,"rental_uris":{"android":"levelo://app?vid=5a627881-0e8d-4187-9d6a-6839fab00feb","ios":"levelo://app?vid=5a627881-0e8d-4187-9d6a-6839fab00feb"},"vehicle_type_id":"4","last_reported":1784760866,"current_range_meters":27200,"station_id":"ce4bgl12rcd13ifvqbo0","pricing_plan_id":"cebpf4jnsgd1na2vs0mg"},{"bike_id":"f879891d-1098-40c4-8114-7979c70cf0f1","system_id":"levelo_inurba_marseille","lat":43.30202,"lon":5.3882,"is_reserved":false,"is_disabled":false,"rental_uris":{"android":"levelo://app?vid=f879891d-1098-40c4-8114-7979c70cf0f1","ios":"levelo://app?vid=f879891d-1098-40c4-8114-7979c70cf0f1"},"vehicle_type_id":"4","last_reported":1784760866,"current_range_meters":19600,"station_id":"","pricing_plan_id":"cebpf4jnsgd1na2vs0mg"},{"bike_id":"2b2d5806-a98a-4b6d-8666-219c96826a65","system_id":"levelo_inurba_marseille","lat":43.32986,"lon":5.3903,"is_reserved":false,"is_disabled":false,"rental_uris":{"android":"levelo://app?vid=2b2d5806-a98a-4b6d-8666-219c96826a65","ios":"levelo://app?vid=2b2d5806-a98a-4b6d-8666-219c96826a65"},"vehicle_type_id":"4","last_reported":1784760866,"current_range_meters":8000,"station_id":"ce4bhr92rcd13ifvqhrg","pricing_plan_id":"cebpf4jnsgd1na2vs0mg"},{"bike_id":"9d4b8430-c687-4ce9-b117-2b375d0afc9f","system_id":"levelo_inurba_marseille","lat":43.2417,"lon":5.36413,"is_reserved":false,"is_disabled":true,"rental_uris":{"android":"levelo://app?vid=9d4b8430-c687-4ce9-b117-2b375d0afc9f","ios":"levelo://app?vid=9d4b8430-c687-4ce9-b117-2b375d0afc9f"},"vehicle_type_id":"4","last_reported":1784760866,"current_range_meters":33600,"station_id":"cpo36qri1sfpv3e86is0","pricing_plan_id":"cebpf4jnsgd1na2vs0mg"},{"bike_id":"082b74ec-c702-449f-8679-14ae7de251d0","system_id":"levelo_inurba_marseille","lat":43.291978,"lon":5.358076,"is_reserved":false,"is_disabled":true,"rental_uris":{"android":"levelo://app?vid=082b74ec-c702-449f-8679-14ae7de251d0","ios":"levelo://app?vid=082b74ec-c702-449f-8679-14ae7de251d0"},"vehicle_type_id":"4","last_reported":1784760866,"current_range_meters":800,"station_id":"ce4bhb12rcd13ifvqel0","pricing_plan_id":"cebpf4jnsgd1na2vs0mg"},{"bike_id":"8e661f57-eae5-43a0-9064-850e77532136","system_id":"levelo_inurba_marseille","lat":43.29364,"lon":5.3785,"is_reserved":false,"is_disabled":true,"rental_uris":{"android":"levelo://app?vid=8e661f57-eae5-43a0-9064-850e77532136","ios":"levelo://app?vid=8e661f57-eae5-43a0-9064-850e77532136"},"vehicle_type_id":"4","last_reported":1784760866,"current_range_meters":28400,"station_id":"ce4bgjh2rcd13ifvqbf0","pricing_plan_id":"cebpf4jnsgd1na2vs0mg"},{"bike_id":"bbce7a3d-81af-4218-bca7-57509cdbd381","system_id":"levelo_inurba_marseille","lat":43.30879,"lon":5.39627,"is_reserved":false,"is_disabled":false,"rental_uris":{"android":"levelo://app?vid=bbce7a3d-81af-4218-bca7-57509cdbd381","ios":"levelo://app?vid=bbce7a3d-81af-4218-bca7-57509cdbd381"},"vehicle_type_id":"4","last_reported":1784760866,"current_range_meters":32800,"station_id":"ce4bh012rcd13ifvqcv0","pricing_plan_id":"cebpf4jnsgd1na2vs0mg"},{"bike_id":"a83f6dd4-a966-4c48-9c5e-40cd101889e5","system_id":"levelo_inurba_marseille","lat":43.28628,"lon":5.36305,"is_reserved":false,"is_disabled":true,"rental_uris":{"android":"levelo://app?vid=a83f6dd4-a966-4c48-9c5e-40cd101889e5","ios":"levelo://app?vid=a83f6dd4-a966-4c48-9c5e-40cd101889e5"},"vehicle_type_id":"4","last_reported":1784760866,"current_range_meters":27200,"station_id":"ce4bhah2rcd13ifvqej0","pricing_plan_id":"cebpf4jnsgd1na2vs0mg"},{"bike_id":"429123e4-dc43-429b-abc2-42a83c22e46e","system_id":"levelo_inurba_marseille","lat":43.23195,"lon":5.35551,"is_reserved":false,"is_disabled":false,"rental_uris":{"android":"levelo://app?vid=429123e4-dc43-429b-abc2-42a83c22e46e","ios":"levelo://app?vid=429123e4-dc43-429b-abc2-42a83c22e46e"},"vehicle_type_id":"4","last_reported":1784760866,"current_range_meters":28000,"station_id":"ce4bhu92rcd13ifvqi70","pricing_plan_id":"cebpf4jnsgd1na2vs0mg"},{"bike_id":"d4176fdd-97a2-4c8b-af24-a5d62c1ee6a5","system_id":"levelo_inurba_marseille","lat":43.28686,"lon":5.38655,"is_reserved":false,"is_disabled":true,"rental_uris":{"android":"levelo://app?vid=d4176fdd-97a2-4c8b-af24-a5d62c1ee6a5","ios":"levelo://app?vid=d4176fdd-97a2-4c8b-af24-a5d62c1ee6a5"},"vehicle_type_id":"4","last_reported":1784760866,"current_range_meters":30000,"station_id":"ce4bh492rcd13ifvqdug","pricing_plan_id":"cebpf4jnsgd1na2vs0mg"},{"bike_id":"340c0ce1-b229-4811-afc8-78d6b4740191","system_id":"levelo_inurba_marseille","lat":43.24955,"lon":5.40502,"is_reserved":false,"is_disabled":false,"rental_uris":{"android":"levelo://app?vid=340c0ce1-b229-4811-afc8-78d6b4740191","ios":"levelo://app?vid=340c0ce1-b229-4811-afc8-78d6b4740191"},"vehicle_type_id":"4","last_reported":1784760866,"current_range_meters":6000,"station_id":"st_d2ngiaodas8pm72gd1h0","pricing_plan_id":"cebpf4jnsgd1na2vs0mg"},{"bike_id":"09480c37-728d-435c-b0c2-253c37c37d30","system_id":"levelo_inurba_marseille","lat":43.28466,"lon":5.38407,"is_reserved":false,"is_disabled":false,"rental_uris":{"android":"levelo://app?vid=09480c37-728d-435c-b0c2-253c37c37d30","ios":"levelo://app?vid=09480c37-728d-435c-b0c2-253c37c37d30"},"vehicle_type_id":"4","last_reported":1784760866,"current_range_meters":28400,"station_id":"ce4bh512rcd13ifvqe3g","pricing_plan_id":"cebpf4jnsgd1na2vs0mg"},{"bike_id":"bace381c-6258-4d80-80f1-070c343af026","system_id":"levelo_inurba_marseille","lat":43.3316,"lon":5.377,"is_reserved":false,"is_disabled":false,"rental_uris":{"android":"levelo://app?vid=bace381c-6258-4d80-80f1-070c343af026","ios":"levelo://app?vid=bace381c-6258-4d80-80f1-070c343af026"},"vehicle_type_id":"4","last_reported":1784760866,"current_range_meters":8800,"station_id":"st_d46cu089ee8s73dldbu0","pricing_plan_id":"cebpf4jnsgd1na2vs0mg"},{"bike_id":"484e47bb-c244-4caf-825b-8db5ca56ab5f","system_id":"levelo_inurba_marseille","lat":43.24391,"lon":5.37067,"is_reserved":false,"is_disabled":false,"rental_uris":{"android":"levelo://app?vid=484e47bb-c244-4caf-825b-8db5ca56ab5f","ios":"levelo://app?vid=484e47bb-c244-4caf-825b-8db5ca56ab5f"},"vehicle_type_id":"4","last_reported":1784760866,"current_range_meters":37600,"station_id":"ce4bhhh2rcd13ifvqfk0","pricing_plan_id":"cebpf4jnsgd1na2vs0mg"},{"bike_id":"96b5c5f9-2213-4d50-a768-81194203f08d","system_id":"levelo_inurba_marseille","lat":43.337444,"lon":5.374475,"is_reserved":false,"is_disabled":false,"rental_uris":{"android":"levelo://app?vid=96b5c5f9-2213-4d50-a768-81194203f08d","ios":"levelo://app?vid=96b5c5f9-2213-4d50-a768-81194203f08d"},"vehicle_type_id":"4","last_reported":1784760866,"current_range_meters":27600,"station_id":"","pricing_plan_id":"cebpf4jnsgd1na2vs0mg"},{"bike_id":"fb644f12-853e-41a1-b0c5-c15aaf166b0d","system_id":"levelo_inurba_marseille","lat":43.30806,"lon":5.43949,"is_reserved":false,"is_disabled":false,"rental_uris":{"android":"levelo://app?vid=fb644f12-853e-41a1-b0c5-c15aaf166b0d","ios":"levelo://app?vid=fb644f12-853e-41a1-b0c5-c15aaf166b0d"},"vehicle_type_id":"4","last_reported":1784760866,"current_range_meters":11600,"station_id":"","pricing_plan_id":"cebpf4jnsgd1na2vs0mg"},{"bike_id":"e9e543b0-8ca5-47a6-998c-4902ea53cdd4","system_id":"levelo_inurba_marseille","lat":43.25179,"lon":5.37321,"is_reserved":false,"is_disabled":true,"rental_uris":{"android":"levelo://app?vid=e9e543b0-8ca5-47a6-998c-4902ea53cdd4","ios":"levelo://app?vid=e9e543b0-8ca5-47a6-998c-4902ea53cdd4"},"vehicle_type_id":"4","last_reported":1784760866,"current_range_meters":10000,"station_id":"","pricing_plan_id":"cebpf4jnsgd1na2vs0mg"},{"bike_id":"3ca835a2-f6fd-48f7-b2d8-9c4bf8c198f9","system_id":"levelo_inurba_marseille","lat":43.27507,"lon":5.41583,"is_reserved":false,"is_disabled":false,"rental_uris":{"android":"levelo://app?vid=3ca835a2-f6fd-48f7-b2d8-9c4bf8c198f9","ios":"levelo://app?vid=3ca835a2-f6fd-48f7-b2d8-9c4bf8c198f9"},"vehicle_type_id":"4","last_reported":1784760866,"current_range_meters":38400,"station_id":"st_d6im8g6chgec73a5pndg","pricing_plan_id":"cebpf4jnsgd1na2vs0mg"},{"bike_id":"e0423e1d-d607-4bb9-b5cc-a84f975ef725","system_id":"levelo_inurba_marseille","lat":43.279983,"lon":5.400053,"is_reserved":false,"is_disabled":false,"rental_uris":{"android":"levelo://app?vid=e0423e1d-d607-4bb9-b5cc-a84f975ef725","ios":"levelo://app?vid=e0423e1d-d607-4bb9-b5cc-a84f975ef725"},"vehicle_type_id":"4","last_reported":1784760866,"current_range_meters":19200,"station_id":"ce4bho92rcd13ifvqh4g","pricing_plan_id":"cebpf4jnsgd1na2vs0mg"},{"bike_id":"f7dbc9f6-a65e-4eb0-89f3-6dc571951b72","system_id":"levelo_inurba_marseille","lat":43.24648,"lon":5.38889,"is_reserved":false,"is_disabled":false,"rental_uris":{"android":"levelo://app?vid=f7dbc9f6-a65e-4eb0-89f3-6dc571951b72","ios":"levelo://app?vid=f7dbc9f6-a65e-4eb0-89f3-6dc571951b72"},"vehicle_type_id":"4","last_reported":1784760866,"current_range_meters":38000,"station_id":"ce4bhg12rcd13ifvqf60","pricing_plan_id":"cebpf4jnsgd1na2vs0mg"},{"bike_id":"8f31f3af-0aa6-4421-8e2c-a77a880bef79","system_id":"levelo_inurba_marseille","lat":43.273726,"lon":5.398294,"is_reserved":false,"is_disabled":true,"rental_uris":{"android":"levelo://app?vid=8f31f3af-0aa6-4421-8e2c-a77a880bef79","ios":"levelo://app?vid=8f31f3af-0aa6-4421-8e2c-a77a880bef79"},"vehicle_type_id":"4","last_reported":1784760866,"current_range_meters":5600,"station_id":"","pricing_plan_id":"cebpf4jnsgd1na2vs0mg"},{"bike_id":"deb2104e-5d07-4a21-8a99-dc31b53da17a","system_id":"levelo_inurba_marseille","lat":43.30431,"lon":5.39755,"is_reserved":false,"is_disabled":false,"rental_uris":{"android":"levelo://app?vid=deb2104e-5d07-4a21-8a99-dc31b53da17a","ios":"levelo://app?vid=deb2104e-5d07-4a21-8a99-dc31b53da17a"},"vehicle_type_id":"4","last_reported":1784760866,"current_range_meters":38800,"station_id":"ce4bh092rcd13ifvqd20","pricing_plan_id":"cebpf4jnsgd1na2vs0mg"},{"bike_id":"54ad900a-8841-4b0f-b519-e43ccfc6fbbd","system_id":"levelo_inurba_marseille","lat":43.28018,"lon":5.36941,"is_reserved":false,"is_disabled":false,"rental_uris":{"android":"levelo://app?vid=54ad900a-8841-4b0f-b519-e43ccfc6fbbd","ios":"levelo://app?vid=54ad900a-8841-4b0f-b519-e43ccfc6fbbd"},"vehicle_type_id":"4","last_reported":1784760866,"current_range_meters":38800,"station_id":"ce4bha12rcd13ifvqef0","pricing_plan_id":"cebpf4jnsgd1na2vs0mg"},{"bike_id":"94ba4e38-84c8-4128-b74a-623b3f5141e6","system_id":"levelo_inurba_marseille","lat":43.29044,"lon":5.37567,"is_reserved":false,"is_disabled":false,"rental_uris":{"android":"levelo://app?vid=94ba4e38-84c8-4128-b74a-623b3f5141e6","ios":"levelo://app?vid=94ba4e38-84c8-4128-b74a-623b3f5141e6"},"vehicle_type_id":"4","last_reported":1784760866,"current_range_meters":39200,"station_id":"ce4bh692rcd13ifvqe90","pricing_plan_id":"cebpf4jnsgd1na2vs0mg"},{"bike_id":"063b26fd-1491-407d-bb4a-8be598519fe7","system_id":"levelo_inurba_marseille","lat":43.29033,"lon":5.38663,"is_reserved":false,"is_disabled":false,"rental_uris":{"android":"levelo://app?vid=063b26fd-1491-407d-bb4a-8be598519fe7","ios":"levelo://app?vid=063b26fd-1491-407d-bb4a-8be598519fe7"},"vehicle_type_id":"4","last_reported":1784760866,"current_range_meters":38800,"station_id":"ce4bh4p2rcd13ifvqe0g","pricing_plan_id":"cebpf4jnsgd1na2vs0mg"},{"bike_id":"a2c9fd6e-925c-4795-ba3f-b9c641931695","system_id":"levelo_inurba_marseille","lat":43.29612,"lon":5.37729,"is_reserved":false,"is_disabled":true,"rental_uris":{"android":"levelo://app?vid=a2c9fd6e-925c-4795-ba3f-b9c641931695","ios":"levelo://app?vid=a2c9fd6e-925c-4795-ba3f-b9c641931695"},"vehicle_type_id":"4","last_reported":1784760866,"current_range_meters":23200,"station_id":"ce4bgi92rcd13ifvqb90","pricing_plan_id":"cebpf4jnsgd1na2vs0mg"},{"bike_id":"62b26bd9-baa5-443a-98e6-6d62711a5119","system_id":"levelo_inurba_marseille","lat":43.28653,"lon":5.38664,"is_reserved":false,"is_disabled":false,"rental_uris":{"android":"levelo://app?vid=62b26bd9-baa5-443a-98e6-6d62711a5119","ios":"levelo://app?vid=62b26bd9-baa5-443a-98e6-6d62711a5119"},"vehicle_type_id":"4","last_reported":1784760866,"current_range_meters":13600,"station_id":"ce4bh492rcd13ifvqdug","pricing_plan_id":"cebpf4jnsgd1na2vs0mg"},{"bike_id":"d6c26f88-3d7b-4068-a235-4049bb6e9207","system_id":"levelo_inurba_marseille","lat":43.29646,"lon":5.37692,"is_reserved":false,"is_disabled":false,"rental_uris":{"android":"levelo://app?vid=d6c26f88-3d7b-4068-a235-4049bb6e9207","ios":"levelo://app?vid=d6c26f88-3d7b-4068-a235-4049bb6e9207"},"vehicle_type_id":"4","last_reported":1784760866,"current_range_meters":38800,"station_id":"ce4bgi92rcd13ifvqb90","pricing_plan_id":"cebpf4jnsgd1na2vs0mg"},{"bike_id":"7b7c350c-7fa0-4260-b6c2-812c00fe7727","system_id":"levelo_inurba_marseille","lat":43.32114,"lon":5.36785,"is_reserved":false,"is_disabled":false,"rental_uris":{"android":"levelo://app?vid=7b7c350c-7fa0-4260-b6c2-812c00fe7727","ios":"levelo://app?vid=7b7c350c-7fa0-4260-b6c2-812c00fe7727"},"vehicle_type_id":"4","last_reported":1784760866,"current_range_meters":26000,"station_id":"ce4bhrh2rcd13ifvqhug","pricing_plan_id":"cebpf4jnsgd1na2vs0mg"},{"bike_id":"002b6de9-4906-4900-bd53-a26437451aab","system_id":"levelo_inurba_marseille","lat":43.33249,"lon":5.35878,"is_reserved":false,"is_disabled":false,"rental_uris":{"android":"levelo://app?vid=002b6de9-4906-4900-bd53-a26437451aab","ios":"levelo://app?vid=002b6de9-4906-4900-bd53-a26437451aab"},"vehicle_type_id":"4","last_reported":1784760866,"current_range_meters":11200,"station_id":"","pricing_plan_id":"cebpf4jnsgd1na2vs0mg"},{"bike_id":"691a7ef8-70bb-41a4-baf6-af710fe1cfa1","system_id":"levelo_inurba_marseille","lat":43.28698,"lon":5.39983,"is_reserved":false,"is_disabled":false,"rental_uris":{"android":"levelo://app?vid=691a7ef8-70bb-41a4-baf6-af710fe1cfa1","ios":"levelo://app?vid=691a7ef8-70bb-41a4-baf6-af710fe1cfa1"},"vehicle_type_id":"4","last_reported":1784760866,"current_range_meters":32000,"station_id":"ce4bho92rcd13ifvqh3g","pricing_plan_id":"cebpf4jnsgd1na2vs0mg"},{"bike_id":"94f1b0ad-aaa9-4b51-806c-9eae39355e9b","system_id":"levelo_inurba_marseille","lat":43.27389,"lon":5.36263,"is_reserved":false,"is_disabled":true,"rental_uris":{"android":"levelo://app?vid=94f1b0ad-aaa9-4b51-806c-9eae39355e9b","ios":"levelo://app?vid=94f1b0ad-aaa9-4b51-806c-9eae39355e9b"},"vehicle_type_id":"4","last_reported":1784760866,"current_range_meters":4800,"station_id":"ce4bhbh2rcd13ifvqeo0","pricing_plan_id":"cebpf4jnsgd1na2vs0mg"},{"bike_id":"d568f017-0550-40c3-b758-69fc0156698c","system_id":"levelo_inurba_marseille","lat":43.28695,"lon":5.39971,"is_reserved":false,"is_disabled":false,"rental_uris":{"android":"levelo://app?vid=d568f017-0550-40c3-b758-69fc0156698c","ios":"levelo://app?vid=d568f017-0550-40c3-b758-69fc0156698c"},"vehicle_type_id":"4","last_reported":1784760866,"current_range_meters":40000,"station_id":"ce4bho92rcd13ifvqh3g","pricing_plan_id":"cebpf4jnsgd1na2vs0mg"},{"bike_id":"3d185dea-3134-4b35-9cee-49aed1f0c978","system_id":"levelo_inurba_marseille","lat":43.24668,"lon":5.38171,"is_reserved":false,"is_disabled":true,"rental_uris":{"android":"levelo://app?vid=3d185dea-3134-4b35-9cee-49aed1f0c978","ios":"levelo://app?vid=3d185dea-3134-4b35-9cee-49aed1f0c978"},"vehicle_type_id":"4","last_reported":1784760866,"current_range_meters":35600,"station_id":"ce4bhih2rcd13ifvqfr0","pricing_plan_id":"cebpf4jnsgd1na2vs0mg"},{"bike_id":"d59836fa-cc94-4caa-8c24-e346fea64424","system_id":"levelo_inurba_marseille","lat":43.29971,"lon":5.38495,"is_reserved":false,"is_disabled":true,"rental_uris":{"android":"levelo://app?vid=d59836fa-cc94-4caa-8c24-e346fea64424","ios":"levelo://app?vid=d59836fa-cc94-4caa-8c24-e346fea64424"},"vehicle_type_id":"4","last_reported":1784760866,"current_range_meters":9600,"station_id":"ce4bgj92rcd13ifvqbd0","pricing_plan_id":"cebpf4jnsgd1na2vs0mg"},{"bike_id":"3248231c-7ab2-4049-b8d2-a654312bdda8","system_id":"levelo_inurba_marseille","lat":43.287032,"lon":5.399916,"is_reserved":false,"is_disabled":false,"rental_uris":{"android":"levelo://app?vid=3248231c-7ab2-4049-b8d2-a654312bdda8","ios":"levelo://app?vid=3248231c-7ab2-4049-b8d2-a654312bdda8"},"vehicle_type_id":"4","last_reported":1784760866,"current_range_meters":20800,"station_id":"","pricing_plan_id":"cebpf4jnsgd1na2vs0mg"},{"bike_id":"a354ba16-a5f6-43d3-bde4-db2c6dcb8924","system_id":"levelo_inurba_marseille","lat":43.292467,"lon":5.383699,"is_reserved":false,"is_disabled":false,"rental_uris":{"android":"levelo://app?vid=a354ba16-a5f6-43d3-bde4-db2c6dcb8924","ios":"levelo://app?vid=a354ba16-a5f6-43d3-bde4-db2c6dcb8924"},"vehicle_type_id":"4","last_reported":1784760866,"current_range_meters":39200,"station_id":"ce4bh692rcd13ifvqea0","pricing_plan_id":"cebpf4jnsgd1na2vs0mg"},{"bike_id":"77bcfa31-f113-42f5-a1d5-390cc9e03aaf","system_id":"levelo_inurba_marseille","lat":43.24393,"lon":5.37049,"is_reserved":false,"is_disabled":false,"rental_uris":{"android":"levelo://app?vid=77bcfa31-f113-42f5-a1d5-390cc9e03aaf","ios":"levelo://app?vid=77bcfa31-f113-42f5-a1d5-390cc9e03aaf"},"vehicle_type_id":"4","last_reported":1784760866,"current_range_meters":22000,"station_id":"ce4bhhh2rcd13ifvqfk0","pricing_plan_id":"cebpf4jnsgd1na2vs0mg"},{"bike_id":"16c1f100-ded8-41c5-85ce-060e556d650d","system_id":"levelo_inurba_marseille","lat":43.24998,"lon":5.38928,"is_reserved":false,"is_disabled":false,"rental_uris":{"android":"levelo://app?vid=16c1f100-ded8-41c5-85ce-060e556d650d","ios":"levelo://app?vid=16c1f100-ded8-41c5-85ce-060e556d650d"},"vehicle_type_id":"4","last_reported":1784760866,"current_range_meters":39200,"station_id":"ce4bhgp2rcd13ifvqfd0","pricing_plan_id":"cebpf4jnsgd1na2vs0mg"},{"bike_id":"1981d3ef-d7ae-460e-a247-e2f1120f8322","system_id":"levelo_inurba_marseille","lat":43.24587,"lon":5.41958,"is_reserved":false,"is_disabled":false,"rental_uris":{"android":"levelo://app?vid=1981d3ef-d7ae-460e-a247-e2f1120f8322","ios":"levelo://app?vid=1981d3ef-d7ae-460e-a247-e2f1120f8322"},"vehicle_type_id":"4","last_reported":1784760866,"current_range_meters":16400,"station_id":"","pricing_plan_id":"cebpf4jnsgd1na2vs0mg"},{"bike_id":"165f17ce-60d5-4c1f-b561-f2a05656aed3","system_id":"levelo_inurba_marseille","lat":43.24173,"lon":5.36408,"is_reserved":false,"is_disabled":false,"rental_uris":{"android":"levelo://app?vid=165f17ce-60d5-4c1f-b561-f2a05656aed3","ios":"levelo://app?vid=165f17ce-60d5-4c1f-b561-f2a05656aed3"},"vehicle_type_id":"4","last_reported":1784760866,"current_range_meters":30800,"station_id":"cpo36qri1sfpv3e86is0","pricing_plan_id":"cebpf4jnsgd1na2vs0mg"},{"bike_id":"bbb6d84d-52b2-4523-b78b-60cb354411ef","system_id":"levelo_inurba_marseille","lat":43.32085,"lon":5.36774,"is_reserved":false,"is_disabled":false,"rental_uris":{"android":"levelo://app?vid=bbb6d84d-52b2-4523-b78b-60cb354411ef","ios":"levelo://app?vid=bbb6d84d-52b2-4523-b78b-60cb354411ef"},"vehicle_type_id":"4","last_reported":1784760866,"current_range_meters":35200,"station_id":"ce4bhrh2rcd13ifvqhug","pricing_plan_id":"cebpf4jnsgd1na2vs0mg"},{"bike_id":"8a836e41-787b-455d-b6d7-39f01e28f08c","system_id":"levelo_inurba_marseille","lat":43.302,"lon":5.39465,"is_reserved":false,"is_disabled":false,"rental_uris":{"android":"levelo://app?vid=8a836e41-787b-455d-b6d7-39f01e28f08c","ios":"levelo://app?vid=8a836e41-787b-455d-b6d7-39f01e28f08c"},"vehicle_type_id":"4","last_reported":1784760866,"current_range_meters":40000,"station_id":"ce4bh0p2rcd13ifvqd70","pricing_plan_id":"cebpf4jnsgd1na2vs0mg"},{"bike_id":"7c215944-6de0-44b9-b267-ecfcdb73eb11","system_id":"levelo_inurba_marseille","lat":43.27791,"lon":5.40703,"is_reserved":false,"is_disabled":true,"rental_uris":{"android":"levelo://app?vid=7c215944-6de0-44b9-b267-ecfcdb73eb11","ios":"levelo://app?vid=7c215944-6de0-44b9-b267-ecfcdb73eb11"},"vehicle_type_id":"4","last_reported":1784760866,"current_range_meters":39200,"station_id":"ce4bhnh2rcd13ifvqgtg","pricing_plan_id":"cebpf4jnsgd1na2vs0mg"},{"bike_id":"a9863fcb-8ca0-4220-b083-cb27e96475fe","system_id":"levelo_inurba_marseille","lat":43.23193,"lon":5.35556,"is_reserved":false,"is_disabled":false,"rental_uris":{"android":"levelo://app?vid=a9863fcb-8ca0-4220-b083-cb27e96475fe","ios":"levelo://app?vid=a9863fcb-8ca0-4220-b083-cb27e96475fe"},"vehicle_type_id":"4","last_reported":1784760866,"current_range_meters":7200,"station_id":"ce4bhu92rcd13ifvqi70","pricing_plan_id":"cebpf4jnsgd1na2vs0mg"},{"bike_id":"64d6a1bb-9f40-4c2f-86db-a81e217c2827","system_id":"levelo_inurba_marseille","lat":43.24366,"lon":5.37029,"is_reserved":false,"is_disabled":false,"rental_uris":{"android":"levelo://app?vid=64d6a1bb-9f40-4c2f-86db-a81e217c2827","ios":"levelo://app?vid=64d6a1bb-9f40-4c2f-86db-a81e217c2827"},"vehicle_type_id":"4","last_reported":1784760866,"current_range_meters":11600,"station_id":"ce4bhhh2rcd13ifvqfk0","pricing_plan_id":"cebpf4jnsgd1na2vs0mg"},{"bike_id":"a8da38aa-f94e-4c2e-80f0-e41e78a1c855","system_id":"levelo_inurba_marseille","lat":43.2979,"lon":5.38099,"is_reserved":false,"is_disabled":true,"rental_uris":{"android":"levelo://app?vid=a8da38aa-f94e-4c2e-80f0-e41e78a1c855","ios":"levelo://app?vid=a8da38aa-f94e-4c2e-80f0-e41e78a1c855"},"vehicle_type_id":"4","last_reported":1784760866,"current_range_meters":37600,"station_id":"ce4bgip2rcd13ifvqbb0","pricing_plan_id":"cebpf4jnsgd1na2vs0mg"},{"bike_id":"599dcdec-d04d-4211-abcf-1c6bdaea74fc","system_id":"levelo_inurba_marseille","lat":43.29612,"lon":5.38114,"is_reserved":false,"is_disabled":false,"rental_uris":{"android":"levelo://app?vid=599dcdec-d04d-4211-abcf-1c6bdaea74fc","ios":"levelo://app?vid=599dcdec-d04d-4211-abcf-1c6bdaea74fc"},"vehicle_type_id":"4","last_reported":1784760866,"current_range_meters":36800,"station_id":"ce4bgl12rcd13ifvqbo0","pricing_plan_id":"cebpf4jnsgd1na2vs0mg"},{"bike_id":"b5a9d944-9eb1-434c-931a-e7a13d8c2c58","system_id":"levelo_inurba_marseille","lat":43.27412,"lon":5.39405,"is_reserved":false,"is_disabled":true,"rental_uris":{"android":"levelo://app?vid=b5a9d944-9eb1-434c-931a-e7a13d8c2c58","ios":"levelo://app?vid=b5a9d944-9eb1-434c-931a-e7a13d8c2c58"},"vehicle_type_id":"4","last_reported":1784760866,"current_range_meters":39200,"station_id":"ce4bhdp2rcd13ifvqf20","pricing_plan_id":"cebpf4jnsgd1na2vs0mg"},{"bike_id":"354a079f-ed28-41a7-a06b-85ab194fda38","system_id":"levelo_inurba_marseille","lat":43.29417,"lon":5.39769,"is_reserved":false,"is_disabled":false,"rental_uris":{"android":"levelo://app?vid=354a079f-ed28-41a7-a06b-85ab194fda38","ios":"levelo://app?vid=354a079f-ed28-41a7-a06b-85ab194fda38"},"vehicle_type_id":"4","last_reported":1784760866,"current_range_meters":39200,"station_id":"ce4bh3h2rcd13ifvqdo0","pricing_plan_id":"cebpf4jnsgd1na2vs0mg"},{"bike_id":"25d63c03-240b-4596-9842-ae7363543101","system_id":"levelo_inurba_marseille","lat":43.33166,"lon":5.37693,"is_reserved":false,"is_disabled":false,"rental_uris":{"android":"levelo://app?vid=25d63c03-240b-4596-9842-ae7363543101","ios":"levelo://app?vid=25d63c03-240b-4596-9842-ae7363543101"},"vehicle_type_id":"4","last_reported":1784760866,"current_range_meters":38400,"station_id":"st_d46cu089ee8s73dldbu0","pricing_plan_id":"cebpf4jnsgd1na2vs0mg"},{"bike_id":"4cb9a7da-25aa-4c50-a60f-6dfbe96e9143","system_id":"levelo_inurba_marseille","lat":43.29931,"lon":5.3655,"is_reserved":false,"is_disabled":false,"rental_uris":{"android":"levelo://app?vid=4cb9a7da-25aa-4c50-a60f-6dfbe96e9143","ios":"levelo://app?vid=4cb9a7da-25aa-4c50-a60f-6dfbe96e9143"},"vehicle_type_id":"4","last_reported":1784760866,"current_range_meters":39200,"station_id":"ce4bgm92rcd13ifvqbr0","pricing_plan_id":"cebpf4jnsgd1na2vs0mg"},{"bike_id":"0ad06047-e8e1-4c2b-b1da-cd3f01596b01","system_id":"levelo_inurba_marseille","lat":43.28359,"lon":5.38634,"is_reserved":false,"is_disabled":false,"rental_uris":{"android":"levelo://app?vid=0ad06047-e8e1-4c2b-b1da-cd3f01596b01","ios":"levelo://app?vid=0ad06047-e8e1-4c2b-b1da-cd3f01596b01"},"vehicle_type_id":"4","last_reported":1784760866,"current_range_meters":32800,"station_id":"ce4bh492rcd13ifvqdvg","pricing_plan_id":"cebpf4jnsgd1na2vs0mg"},{"bike_id":"f8d90c4e-4908-4f03-845e-3c10c53cb1f4","system_id":"levelo_inurba_marseille","lat":43.30058,"lon":5.40935,"is_reserved":false,"is_disabled":false,"rental_uris":{"android":"levelo://app?vid=f8d90c4e-4908-4f03-845e-3c10c53cb1f4","ios":"levelo://app?vid=f8d90c4e-4908-4f03-845e-3c10c53cb1f4"},"vehicle_type_id":"4","last_reported":1784760866,"current_range_meters":22400,"station_id":"","pricing_plan_id":"cebpf4jnsgd1na2vs0mg"},{"bike_id":"a6d911c2-7ab9-453f-85be-7edf0a8d2103","system_id":"levelo_inurba_marseille","lat":43.28981,"lon":5.38134,"is_reserved":false,"is_disabled":false,"rental_uris":{"android":"levelo://app?vid=a6d911c2-7ab9-453f-85be-7edf0a8d2103","ios":"levelo://app?vid=a6d911c2-7ab9-453f-85be-7edf0a8d2103"},"vehicle_type_id":"4","last_reported":1784760866,"current_range_meters":32400,"station_id":"ce4bh4p2rcd13ifvqe1g","pricing_plan_id":"cebpf4jnsgd1na2vs0mg"},{"bike_id":"65d6656f-ecee-4f25-9237-02f3ee9b2162","system_id":"levelo_inurba_marseille","lat":43.29906,"lon":5.37481,"is_reserved":false,"is_disabled":true,"rental_uris":{"android":"levelo://app?vid=65d6656f-ecee-4f25-9237-02f3ee9b2162","ios":"levelo://app?vid=65d6656f-ecee-4f25-9237-02f3ee9b2162"},"vehicle_type_id":"4","last_reported":1784760866,"current_range_meters":39200,"station_id":"ce4bgjh2rcd13ifvqbg0","pricing_plan_id":"cebpf4jnsgd1na2vs0mg"},{"bike_id":"27e1e4c5-a07c-4ba9-9e46-007cc925fb39","system_id":"levelo_inurba_marseille","lat":43.2551,"lon":5.41604,"is_reserved":false,"is_disabled":false,"rental_uris":{"android":"levelo://app?vid=27e1e4c5-a07c-4ba9-9e46-007cc925fb39","ios":"levelo://app?vid=27e1e4c5-a07c-4ba9-9e46-007cc925fb39"},"vehicle_type_id":"4","last_reported":1784760866,"current_range_meters":9600,"station_id":"","pricing_plan_id":"cebpf4jnsgd1na2vs0mg"},{"bike_id":"67d053d3-0a5c-4d69-b96b-93fa0053ac90","system_id":"levelo_inurba_marseille","lat":43.289287,"lon":5.383901,"is_reserved":false,"is_disabled":false,"rental_uris":{"android":"levelo://app?vid=67d053d3-0a5c-4d69-b96b-93fa0053ac90","ios":"levelo://app?vid=67d053d3-0a5c-4d69-b96b-93fa0053ac90"},"vehicle_type_id":"4","last_reported":1784760866,"current_range_meters":20000,"station_id":"ce4bh612rcd13ifvqe6g","pricing_plan_id":"cebpf4jnsgd1na2vs0mg"},{"bike_id":"cd288035-eddb-4f42-a73e-3fa03a084ed5","system_id":"levelo_inurba_marseille","lat":43.265732,"lon":5.390492,"is_reserved":false,"is_disabled":false,"rental_uris":{"android":"levelo://app?vid=cd288035-eddb-4f42-a73e-3fa03a084ed5","ios":"levelo://app?vid=cd288035-eddb-4f42-a73e-3fa03a084ed5"},"vehicle_type_id":"4","last_reported":1784760866,"current_range_meters":36400,"station_id":"cpo3532slgdg3j2ikp40","pricing_plan_id":"cebpf4jnsgd1na2vs0mg"},{"bike_id":"5a87d78f-bce0-4026-a623-b63371d564c6","system_id":"levelo_inurba_marseille","lat":43.2917,"lon":5.35795,"is_reserved":false,"is_disabled":true,"rental_uris":{"android":"levelo://app?vid=5a87d78f-bce0-4026-a623-b63371d564c6","ios":"levelo://app?vid=5a87d78f-bce0-4026-a623-b63371d564c6"},"vehicle_type_id":"4","last_reported":1784760866,"current_range_meters":34000,"station_id":"ce4bhb12rcd13ifvqel0","pricing_plan_id":"cebpf4jnsgd1na2vs0mg"},