{"last_updated":1730308089,"ttl":60,"version":"2.2","data":{"bikes":[{"bike_id":"e0594c9b-1912-4f09-958a-91f8a4561c29","system_id":"levelo_inurba_marseille","lat":43.2439,"lon":5.37057,"is_reserved":false,"is_disabled":false,"rental_uris":{"android":"levelo://app?vid=e0594c9b-1912-4f09-958a-91f8a4561c29","ios":"levelo://app?vid=e0594c9b-1912-4f09-958a-91f8a4561c29"},"vehicle_type_id":"4","last_reported":1730308089,"current_range_meters":40000,"station_id":"ce4bhhh2rcd13ifvqfk0","pricing_plan_id":"cebpf4jnsgd1na2vs0mg"},{"bike_id":"79967858-277c-414d-a7e5-1d80151c4cb6","system_id":"levelo_inurba_marseille","lat":43.28952,"lon":5.36417,"is_reserved":false,"is_disabled":false,"rental_uris":{"android":"levelo://app?vid=79967858-277c-414d-a7e5-1d80151c4cb6","ios":"levelo://app?vid=79967858-277c-414d-a7e5-1d80151c4cb6"},"vehicle_type_id":"4","last_reported":1730308089,"current_range_meters":26000,"station_id":"ce4bhc92rcd13ifvqetg","pricing_plan_id":"cebpf4jnsgd1na2vs0mg"},{"bike_id":"b3edae71-c749-4ec0-81ef-8d3b7292b578","system_id":"levelo_inurba_marseille","lat":43.26785,"lon":5.39426,"is_reserved":false,"is_disabled":false,"rental_uris":{"android":"levelo://app?vid=b3edae71-c749-4ec0-81ef-8d3b7292b578","ios":"levelo://app?vid=b3edae71-c749-4ec0-81ef-8d3b7292b578"},"vehicle_type_id":"4","last_reported":1730308089,"current_range_meters":6000,"station_id":"ce4bhh12rcd13ifvqfg0","pricing_plan_id":"cebpf4jnsgd1na2vs0mg"},{"bike_id":"fd16bd52-7400-4db5-a02a-ee5f7fa0f80e","system_id":"levelo_inurba_marseille","lat":43.28933,"lon":5.36378,"is_reserved":false,"is_disabled":false,"rental_uris":{"android":"levelo://app?vid=fd16bd52-7400-4db5-a02a-ee5f7fa0f80e","ios":"levelo://app?vid=fd16bd52-7400-4db5-a02a-ee5f7fa0f80e"},"vehicle_type_id":"4","last_reported":1730308089,"current_range_meters":24800,"station_id":"ce4bhc92rcd13ifvqetg","pricing_plan_id":"cebpf4jnsgd1na2vs0mg"},{"bike_id":"6351ae34-5bfb-4585-a45e-d5957ee1b2d8","system_id":"levelo_inurba_marseille","lat":43.27815,"lon":5.40721,"is_reserved":false,"is_disabled":false,"rental_uris":{"android":"levelo://app?vid=6351ae34-5bfb-4585-a45e-d5957ee1b2d8","ios":"levelo://app?vid=6351ae34-5bfb-4585-a45e-d5957ee1b2d8"},"vehicle_type_id":"4","last_reported":1730308089,"current_range_meters":38800,"station_id":"ce4bhnh2rcd13ifvqgtg","pricing_plan_id":"cebpf4jnsgd1na2vs0mg"},{"bike_id":"df1d4e22-eee4-4498-9b42-7ffbda26b493","system_id":"levelo_inurba_marseille","lat":43.229273,"lon":5.353792,"is_reserved":false,"is_disabled":false,"rental_uris":{"android":"levelo://app?vid=df1d4e22-eee4-4498-9b42-7ffbda26b493","ios":"levelo://app?vid=df1d4e22-eee4-4498-9b42-7ffbda26b493"},"vehicle_type_id":"4","last_reported":1730308089,"current_range_meters":38800,"station_id":"cpo3532slgdg3j2ikp40","pricing_plan_id":"cebpf4jnsgd1na2vs0mg"},{"bike_id":"10489581-10c3-4054-ba87-d1f577fee19d","system_id":"levelo_inurba_marseille","lat":43.29032,"lon":5.38123,"is_reserved":false,"is_disabled":false,"rental_uris":{"android":"levelo://app?vid=10489581-10c3-4054-ba87-d1f577fee19d","ios":"levelo://app?vid=10489581-10c3-4054-ba87-d1f577fee19d"},"vehicle_type_id":"4","last_reported":1730308089,"current_range_meters":34800,"station_id":"ce4bh4p2rcd13ifvqe1g","pricing_plan_id":"cebpf4jnsgd1na2vs0mg"},{"bike_id":"4075e605-7e2d-4335-883e-4292dc011012","system_id":"levelo_inurba_marseille","lat":43.2397,"lon":5.36634,"is_reserved":false,"is_disabled":false,"rental_uris":{"android":"levelo://app?vid=4075e605-7e2d-4335-883e-4292dc011012","ios":"levelo://app?vid=4075e605-7e2d-4335-883e-4292dc011012"},"vehicle_type_id":"4","last_reported":1730308089,"current_range_meters":8800,"station_id":"ce4bhi12rcd13ifvqfp0","pricing_plan_id":"cebpf4jnsgd1na2vs0mg"},{"bike_id":"5f78fe3e-b6c8-47a8-9820-706177c150a5","system_id":"levelo_inurba_marseille","lat":43.30135,"lon":5.39872,"is_reserved":false,"is_disabled":false,"rental_uris":{"android":"levelo://app?vid=5f78fe3e-b6c8-47a8-9820-706177c150a5","ios":"levelo://app?vid=5f78fe3e-b6c8-47a8-9820-706177c150a5"},"vehicle_type_id":"4","last_reported":1730308089,"current_range_meters":23200,"station_id":"ce4bh0h2rcd13ifvqd40","pricing_plan_id":"cebpf4jnsgd1na2vs0mg"},{"bike_id":"a62eba43-3e60-4c35-8ffc-4060457cca08","system_id":"levelo_inurba_marseille","lat":43.29658,"lon":5.37153,"is_reserved":false,"is_disabled":false,"rental_uris":{"android":"levelo://app?vid=a62eba43-3e60-4c35-8ffc-4060457cca08","ios":"levelo://app?vid=a62eba43-3e60-4c35-8ffc-4060457cca08"},"vehicle_type_id":"4","last_reported":1730308089,"current_range_meters":39200,"station_id":"ce4bgnh2rcd13ifvqc0g","pricing_plan_id":"cebpf4jnsgd1na2vs0mg"},{"bike_id":"47e8bbea-4428-4325-b606-c96c2e6f9377","system_id":"levelo_inurba_marseille","lat":43.29028,"lon":5.37556,"is_reserved":false,"is_disabled":false,"rental_uris":{"android":"levelo://app?vid=47e8bbea-4428-4325-b606-c96c2e6f9377","ios":"levelo://app?vid=47e8bbea-4428-4325-b606-c96c2e6f9377"},"vehicle_type_id":"4","last_reported":1730308089,"current_range_meters":26800,"station_id":"ce4bh692rcd13ifvqe90","pricing_plan_id":"cebpf4jnsgd1na2vs0mg"},{"bike_id":"60573890-556e-4b63-a28b-53a1fdbb37d4","system_id":"levelo_inurba_marseille","lat":43.31329,"lon":5.39695,"is_reserved":false,"is_disabled":false,"rental_uris":{"android":"levelo://app?vid=60573890-556e-4b63-a28b-53a1fdbb37d4","ios":"levelo://app?vid=60573890-556e-4b63-a28b-53a1fdbb37d4"},"vehicle_type_id":"4","last_reported":1730308089,"current_range_meters":36800,"station_id":"ce4bgvp2rcd13ifvqcu0","pricing_plan_id":"cebpf4jnsgd1na2vs0mg"},{"bike_id":"0a52d1c1-8f6f-4b50-aac6-8604eb20db08","system_id":"levelo_inurba_marseille","lat":43.29198,"lon":5.39321,"is_reserved":false,"is_disabled":false,"rental_uris":{"android":"levelo://app?vid=0a52d1c1-8f6f-4b50-aac6-8604eb20db08","ios":"levelo://app?vid=0a52d1c1-8f6f-4b50-aac6-8604eb20db08"},"vehicle_type_id":"4","last_reported":1730308089,"current_range_meters":27200,"station_id":"ce4bh192rcd13ifvqdd0","pricing_plan_id":"cebpf4jnsgd1na2vs0mg"},{"bike_id":"c49b1c87-727c-42ba-8802-5230907e6072","system_id":"levelo_inurba_marseille","lat":43.25543,"lon":5.40082,"is_reserved":false,"is_disabled":false,"rental_uris":{"android":"levelo://app?vid=c49b1c87-727c-42ba-8802-5230907e6072","ios":"levelo://app?vid=c49b1c87-727c-42ba-8802-5230907e6072"},"vehicle_type_id":"4","last_reported":1730308089,"current_range_meters":24000,"station_id":"ce4bhlh2rcd13ifvqgig","pricing_plan_id":"cebpf4jnsgd1na2vs0mg"},{"bike_id":"7453b1a8-93f1-4692-8261-659392084231","system_id":"levelo_inurba_marseille","lat":43.2707,"lon":5.42277,"is_reserved":false,"is_disabled":false,"rental_uris":{"android":"levelo://app?vid=7453b1a8-93f1-4692-8261-659392084231","ios":"levelo://app?vid=7453b1a8-93f1-4692-8261-659392084231"},"vehicle_type_id":"4","last_reported":1730308089,"current_range_meters":5600,"station_id":"ce4bhk92rcd13ifvqgb0","pricing_plan_id":"cebpf4jnsgd1na2vs0mg"},{"bike_id":"ccee9136-f95e-48ab-be02-c9efb33f1a51","system_id":"levelo_inurba_marseille","lat":43.29798,"lon":5.38105,"is_reserved":false,"is_disabled":false,"rental_uris":{"android":"levelo://app?vid=ccee9136-f95e-48ab-be02-c9efb33f1a51","ios":"levelo://app?vid=ccee9136-f95e-48ab-be02-c9efb33f1a51"},"vehicle_type_id":"4","last_reported":1730308089,"current_range_meters":22800,"station_id":"ce4bgip2rcd13ifvqbb0","pricing_plan_id":"cebpf4jnsgd1na2vs0mg"},{"bike_id":"42e61598-64ce-4f84-97eb-90c09ebd9abe","system_id":"levelo_inurba_marseille","lat":43.23183,"lon":5.4,"is_reserved":false,"is_disabled":false,"rental_uris":{"android":"levelo://app?vid=42e61598-64ce-4f84-97eb-90c09ebd9abe","ios":"levelo://app?vid=42e61598-64ce-4f84-97eb-90c09ebd9abe"},"vehicle_type_id":"4","last_reported":1730308089,"current_range_meters":21600,"station_id":"ce4bhn12rcd13ifvqgqg","pricing_plan_id":"cebpf4jnsgd1na2vs0mg"},{"bike_id":"eaa2ec44-361f-45ae-835c-edc4cc9b51e7","system_id":"levelo_inurba_marseille","lat":43.2836,"lon":5.38642,"is_reserved":false,"is_disabled":false,"rental_uris":{"android":"levelo://app?vid=eaa2ec44-361f-45ae-835c-edc4cc9b51e7","ios":"levelo://app?vid=eaa2ec44-361f-45ae-835c-edc4cc9b51e7"},"vehicle_type_id":"4","last_reported":1730308089,"current_range_meters":9200,"station_id":"ce4bh492rcd13ifvqdvg","pricing_plan_id":"cebpf4jnsgd1na2vs0mg"},{"bike_id":"a65b7600-bc14-4cb1-bd98-91e0257743b9","system_id":"levelo_inurba_marseille","lat":43.24076,"lon":5.37765,"is_reserved":false,"is_disabled":false,"rental_uris":{"android":"levelo://app?vid=a65b7600-bc14-4cb1-bd98-91e0257743b9","ios":"levelo://app?vid=a65b7600-bc14-4cb1-bd98-91e0257743b9"},"vehicle_type_id":"4","last_reported":1730308089,"current_range_meters":4400,"station_id":"ce4bhnp2rcd13ifvqgvg","pricing_plan_id":"cebpf4jnsgd1na2vs0mg"},{"bike_id":"603282e0-c5de-42bf-bf58-87cc6b4fce96","system_id":"levelo_inurba_marseille","lat":43.23969,"lon":5.36625,"is_reserved":false,"is_disabled":false,"rental_uris":{"android":"levelo://app?vid=603282e0-c5de-42bf-bf58-87cc6b4fce96","ios":"levelo://app?vid=603282e0-c5de-42bf-bf58-87cc6b4fce96"},"vehicle_type_id":"4","last_reported":1730308089,"current_range_meters":22000,"station_id":"ce4bhi12rcd13ifvqfp0","pricing_plan_id":"cebpf4jnsgd1na2vs0mg"},{"bike_id":"70bb78fe-4bef-4d56-a833-affc0bdfc9f3","system_id":"levelo_inurba_marseille","lat":43.23196,"lon":5.35561,"is_reserved":false,"is_disabled":false,"rental_uris":{"android":"levelo://app?vid=70bb78fe-4bef-4d56-a833-affc0bdfc9f3","ios":"levelo://app?vid=70bb78fe-4bef-4d56-a833-affc0bdfc9f3"},"vehicle_type_id":"4","last_reported":1730308089,"current_range_meters":40000,"station_id":"ce4bhu92rcd13ifvqi70","pricing_plan_id":"cebpf4jnsgd1na2vs0mg"},{"bike_id":"eda5468f-1add-4dd6-bf67-99ac157a94b4","system_id":"levelo_inurba_marseille","lat":43.2867,"lon":5.38679,"is_reserved":false,"is_disabled":false,"rental_uris":{"android":"levelo://app?vid=eda5468f-1add-4dd6-bf67-99ac157a94b4","ios":"levelo://app?vid=eda5468f-1add-4dd6-bf67-99ac157a94b4"},"vehicle_type_id":"4","last_reported":1730308089,"current_range_meters":17600,"station_id":"ce4bh492rcd13ifvqdug","pricing_plan_id":"cebpf4jnsgd1na2vs0mg"},{"bike_id":"bbded228-7000-49e2-a3ba-d37afc67f71a","system_id":"levelo_inurba_marseille","lat":43.31501,"lon":5.37304,"is_reserved":false,"is_disabled":false,"rental_uris":{"android":"levelo://app?vid=bbded228-7000-49e2-a3ba-d37afc67f71a","ios":"levelo://app?vid=bbded228-7000-49e2-a3ba-d37afc67f71a"},"vehicle_type_id":"4","last_reported":1730308089,"current_range_meters":2800,"station_id":"ce4bgt12rcd13ifvqcd0","pricing_plan_id":"cebpf4jnsgd1na2vs0mg"},{"bike_id":"8eaaf3fd-ac62-44ad-b1d6-8d870f98f946","system_id":"levelo_inurba_marseille","lat":43.29798,"lon":5.38115,"is_reserved":false,"is_disabled":false,"rental_uris":{"android":"levelo://app?vid=8eaaf3fd-ac62-44ad-b1d6-8d870f98f946","ios":"levelo://app?vid=8eaaf3fd-ac62-44ad-b1d6-8d870f98f946"},"vehicle_type_id":"4","last_reported":1730308089,"current_range_meters":9200,"station_id":"ce4bgip2rcd13ifvqbb0","pricing_plan_id":"cebpf4jnsgd1na2vs0mg"},{"bike_id":"039acc60-5d76-4312-a3a9-e40ca78089ee","system_id":"levelo_inurba_marseille","lat":43.29416,"lon":5.38626,"is_reserved":false,"is_disabled":false,"rental_uris":{"android":"levelo://app?vid=039acc60-5d76-4312-a3a9-e40ca78089ee","ios":"levelo://app?vid=039acc60-5d76-4312-a3a9-e40ca78089ee"},"vehicle_type_id":"4","last_reported":1730308089,"current_range_meters":4000,"station_id":"ce4bh2h2rcd13ifvqdh0","pricing_plan_id":"cebpf4jnsgd1na2vs0mg"},{"bike_id":"5c244c3d-8fd7-4c95-b825-2f7fe2f15994","system_id":"levelo_inurba_marseille","lat":43.23195,"lon":5.35553,"is_reserved":false,"is_disabled":false,"rental_uris":{"android":"levelo://app?vid=5c244c3d-8fd7-4c95-b825-2f7fe2f15994","ios":"levelo://app?vid=5c244c3d-8fd7-4c95-b825-2f7fe2f15994"},"vehicle_type_id":"4","last_reported":1730308089,"current_range_meters":40000,"station_id":"ce4bhu92rcd13ifvqi70","pricing_plan_id":"cebpf4jnsgd1na2vs0mg"},{"bike_id":"7d1fe817-f784-45b3-a7f6-2e79abcfa29c","system_id":"levelo_inurba_marseille","lat":43.337444,"lon":5.374475,"is_reserved":false,"is_disabled":false,"rental_uris":{"android":"levelo://app?vid=7d1fe817-f784-45b3-a7f6-2e79abcfa29c","ios":"levelo://app?vid=7d1fe817-f784-45b3-a7f6-2e79abcfa29c"},"vehicle_type_id":"4","last_reported":1730308089,"current_range_meters":38400,"station_id":"","pricing_plan_id":"cebpf4jnsgd1na2vs0mg"},{"bike_id":"c05331ae-b46a-4ca2-a2ab-37871a7c6791","system_id":"levelo_inurba_marseille","lat":43.28717,"lon":5.37947,"is_reserved":false,"is_disabled":false,"rental_uris":{"android":"levelo://app?vid=c05331ae-b46a-4ca2-a2ab-37871a7c6791","ios":"levelo://app?vid=c05331ae-b46a-4ca2-a2ab-37871a7c6791"},"vehicle_type_id":"4","last_reported":1730308089,"current_range_meters":25200,"station_id":"ce4bh9p2rcd13ifvqec0","pricing_plan_id":"cebpf4jnsgd1na2vs0mg"},{"bike_id":"1a5d5284-46cf-4207-8167-7bfc47014091","system_id":"levelo_inurba_marseille","lat":43.25831,"lon":5.39438,"is_reserved":false,"is_disabled":false,"rental_uris":{"android":"levelo://app?vid=1a5d5284-46cf-4207-8167-7bfc47014091","ios":"levelo://app?vid=1a5d5284-46cf-4207-8167-7bfc47014091"},"vehicle_type_id":"4","last_reported":1730308089,"current_range_meters":11600,"station_id":"ce4bhip2rcd13ifvqft0","pricing_plan_id":"cebpf4jnsgd1na2vs0mg"},{"bike_id":"5ffc23bb-602e-4de7-9cc2-9e9e8da45694","system_id":"levelo_inurba_marseille","lat":43.298892,"lon":5.387772,"is_reserved":false,"is_disabled":false,"rental_uris":{"android":"levelo://app?vid=5ffc23bb-602e-4de7-9cc2-9e9e8da45694","ios":"levelo://app?vid=5ffc23bb-602e-4de7-9cc2-9e9e8da45694"},"vehicle_type_id":"4","last_reported":1730308089,"current_range_meters":22000,"station_id":"","pricing_plan_id":"cebpf4jnsgd1na2vs0mg"},{"bike_id":"af64b594-829b-4a82-ba59-2100baeee8e7","system_id":"levelo_inurba_marseille","lat":43.30636,"lon":5.40072,"is_reserved":false,"is_disabled":false,"rental_uris":{"android":"levelo://app?vid=af64b594-829b-4a82-ba59-2100baeee8e7","ios":"levelo://app?vid=af64b594-829b-4a82-ba59-2100baeee8e7"},"vehicle_type_id":"4","last_reported":1730308089,"current_range_meters":13600,"station_id":"ce4bh112rcd13ifvqda0","pricing_plan_id":"cebpf4jnsgd1na2vs0mg"},{"bike_id":"92adf987-4779-4b78-ad9c-8e29ab9175f3","system_id":"levelo_inurba_marseille","lat":43.23195,"lon":5.35542,"is_reserved":false,"is_disabled":false,"rental_uris":{"android":"levelo://app?vid=92adf987-4779-4b78-ad9c-8e29ab9175f3","ios":"levelo://app?vid=92adf987-4779-4b78-ad9c-8e29ab9175f3"},"vehicle_type_id":"4","last_reported":1730308089,"current_range_meters":11600,"station_id":"ce4bhu92rcd13ifvqi70","pricing_plan_id":"cebpf4jnsgd1na2vs0mg"},{"bike_id":"ce2310f1-0848-4180-8bb1-c79c12d253ca","system_id":"levelo_inurba_marseille","lat":43.33761,"lon":5.37454,"is_reserved":false,"is_disabled":false,"rental_uris":{"android":"levelo://app?vid=ce2310f1-0848-4180-8bb1-c79c12d253ca","ios":"levelo://app?vid=ce2310f1-0848-4180-8bb1-c79c12d253ca"},"vehicle_type_id":"4","last_reported":1730308089,"current_range_meters":35200,"station_id":"","pricing_plan_id":"cebpf4jnsgd1na2vs0mg"},{"bike_id":"a21f8334-a721-4433-83f6-629853ad0b8d","system_id":"levelo_inurba_marseille","lat":43.2762,"lon":5.36106,"is_reserved":false,"is_disabled":false,"rental_uris":{"android":"levelo://app?vid=a21f8334-a721-4433-83f6-629853ad0b8d","ios":"levelo://app?vid=a21f8334-a721-4433-83f6-629853ad0b8d"},"vehicle_type_id":"4","last_reported":1730308089,"current_range_meters":38800,"station_id":"ce4bgj92rcd13ifvqbe0","pricing_plan_id":"cebpf4jnsgd1na2vs0mg"},{"bike_id":"6c32e404-fe13-4f97-9a61-4844a1aa3e45","system_id":"levelo_inurba_marseille","lat":43.29284,"lon":5.36839,"is_reserved":false,"is_disabled":false,"rental_uris":{"android":"levelo://app?vid=6c32e404-fe13-4f97-9a61-4844a1aa3e45","ios":"levelo://app?vid=6c32e404-fe13-4f97-9a61-4844a1aa3e45"},"vehicle_type_id":"4","last_reported":1730308089,"current_range_meters":35200,"station_id":"ce4bhbp2rcd13ifvqesg","pricing_plan_id":"cebpf4jnsgd1na2vs0mg"},{"bike_id":"269a4193-03a6-4fe1-93c0-2b8610ca1e7f","system_id":"levelo_inurba_marseille","lat":43.24393,"lon":5.37054,"is_reserved":false,"is_disabled":false,"rental_uris":{"android":"levelo://app?vid=269a4193-03a6-4fe1-93c0-2b8610ca1e7f","ios":"levelo://app?vid=269a4193-03a6-4fe1-93c0-2b8610ca1e7f"},"vehicle_type_id":"4","last_reported":1730308089,"current_range_meters":17200,"station_id":"ce4bhhh2rcd13ifvqfk0","pricing_plan_id":"cebpf4jnsgd1na2vs0mg"},{"bike_id":"ec6bf2c6-81ba-4965-828b-92e734ee6e46","system_id":"levelo_inurba_marseille","lat":43.23196,"lon":5.35545,"is_reserved":false,"is_disabled":false,"rental_uris":{"android":"levelo://app?vid=ec6bf2c6-81ba-4965-828b-92e734ee6e46","ios":"levelo://app?vid=ec6bf2c6-81ba-4965-828b-92e734ee6e46"},"vehicle_type_id":"4","last_reported":1730308089,"current_range_meters":28400,"station_id":"ce4bhu92rcd13ifvqi70","pricing_plan_id":"cebpf4jnsgd1na2vs0mg"},{"bike_id":"2d1ff06f-7f9a-4873-8802-aaf3fc04b3c7","system_id":"levelo_inurba_marseille","lat":43.293444,"lon":5.42848,"is_reserved":false,"is_disabled":false,"rental_uris":{"android":"levelo://app?vid=2d1ff06f-7f9a-4873-8802-aaf3fc04b3c7","ios":"levelo://app?vid=2d1ff06f-7f9a-4873-8802-aaf3fc04b3c7"},"vehicle_type_id":"4","last_reported":1730308089,"current_range_meters":22800,"station_id":"","pricing_plan_id":"cebpf4jnsgd1na2vs0mg"},{"bike_id":"6ad783cb-41da-4545-85fe-6fd00e6a9ab3","system_id":"levelo_inurba_marseille","lat":43.290284,"lon":5.386381,"is_reserved":false,"is_disabled":false,"rental_uris":{"android":"levelo://app?vid=6ad783cb-41da-4545-85fe-6fd00e6a9ab3","ios":"levelo://app?vid=6ad783cb-41da-4545-85fe-6fd00e6a9ab3"},"vehicle_type_id":"4","last_reported":1730308089,"current_range_meters":25200,"station_id":"ce4bh4p2rcd13ifvqe0g","pricing_plan_id":"cebpf4jnsgd1na2vs0mg"},{"bike_id":"319156f6-71f8-41c1-b028-2ea5fd7c4b95","system_id":"levelo_inurba_marseille","lat":43.27184,"lon":5.41002,"is_reserved":false,"is_disabled":false,"rental_uris":{"android":"levelo://app?vid=319156f6-71f8-41c1-b028-2ea5fd7c4b95","ios":"levelo://app?vid=319156f6-71f8-41c1-b028-2ea5fd7c4b95"},"vehicle_type_id":"4","last_reported":1730308089,"current_range_meters":22000,"station_id":"ce4bhl12rcd13ifvqgf0","pricing_plan_id":"cebpf4jnsgd1na2vs0mg"},{"bike_id":"436a6a69-d3b4-4bdf-8c98-78260ced3e10","system_id":"levelo_inurba_marseille","lat":43.286804,"lon":5.37394,"is_reserved":false,"is_disabled":false,"rental_uris":{"android":"levelo://app?vid=436a6a69-d3b4-4bdf-8c98-78260ced3e10","ios":"levelo://app?vid=436a6a69-d3b4-4bdf-8c98-78260ced3e10"},"vehicle_type_id":"4","last_reported":1730308089,"current_range_meters":6000,"station_id":"ce4bh3p2rcd13ifvqdq0","pricing_plan_id":"cebpf4jnsgd1na2vs0mg"},{"bike_id":"e141d070-365c-4a0a-a8a8-0484301ff74a","system_id":"levelo_inurba_marseille","lat":43.298,"lon":5.38092,"is_reserved":false,"is_disabled":false,"rental_uris":{"android":"levelo://app?vid=e141d070-365c-4a0a-a8a8-0484301ff74a","ios":"levelo://app?vid=e141d070-365c-4a0a-a8a8-0484301ff74a"},"vehicle_type_id":"4","last_reported":1730308089,"current_range_meters":11600,"station_id":"ce4bgip2rcd13ifvqbb0","pricing_plan_id":"cebpf4jnsgd1na2vs0mg"},{"bike_id":"fe5a4f25-ed16-41fe-8b56-64c8fd315a7b","system_id":"levelo_inurba_marseille","lat":43.308,"lon":5.43533,"is_reserved":false,"is_disabled":false,"rental_uris":{"android":"levelo://app?vid=fe5a4f25-ed16-41fe-8b56-64c8fd315a7b","ios":"levelo://app?vid=fe5a4f25-ed16-41fe-8b56-64c8fd315a7b"},"vehicle_type_id":"4","last_reported":1730308089,"current_range_meters":39200,"station_id":"ce4bhph2rcd13ifvqheg","pricing_plan_id":"cebpf4jnsgd1na2vs0mg"},{"bike_id":"77435c07-a404-440f-b5dc-eb1e0980b008","system_id":"levelo_inurba_marseille","lat":43.24393,"lon":5.37067,"is_reserved":false,"is_disabled":false,"rental_uris":{"android":"levelo://app?vid=77435c07-a404-440f-b5dc-eb1e0980b008","ios":"levelo://app?vid=77435c07-a404-440f-b5dc-eb1e0980b008"},"vehicle_type_id":"4","last_reported":1730308089,"current_range_meters":8400,"station_id":"ce4bhhh2rcd13ifvqfk0","pricing_plan_id":"cebpf4jnsgd1na2vs0mg"},{"bike_id":"2370a04e-d358-4a29-b67a-890bf50b34fd","system_id":"levelo_inurba_marseille","lat":43.24171,"lon":5.36403,"is_reserved":false,"is_disabled":false,"rental_uris":{"android":"levelo://app?vid=2370a04e-d358-4a29-b67a-890bf50b34fd","ios":"levelo://app?vid=2370a04e-d358-4a29-b67a-890bf50b34fd"},"vehicle_type_id":"4","last_reported":1730308089,"current_range_meters":6000,"station_id":"cpo36qri1sfpv3e86is0","pricing_plan_id":"cebpf4jnsgd1na2vs0mg"},{"bike_id":"c35a4bba-221f-4d53-882d-5012fe1ee1e6","system_id":"levelo_inurba_marseille","lat":43.29611,"lon":5.37724,"is_reserved":false,"is_disabled":false,"rental_uris":{"android":"levelo://app?vid=c35a4bba-221f-4d53-882d-5012fe1ee1e6","ios":"levelo://app?vid=c35a4bba-221f-4d53-882d-5012fe1ee1e6"},"vehicle_type_id":"4","last_reported":1730308089,"current_range_meters":38800,"station_id":"ce4bgi92rcd13ifvqb90","pricing_plan_id":"cebpf4jnsgd1na2vs0mg"},{"bike_id":"d244d77b-7e82-4b83-9594-c2e67ebdb158","system_id":"levelo_inurba_marseille","lat":43.26061,"lon":5.39405,"is_reserved":false,"is_disabled":false,"rental_uris":{"android":"levelo://app?vid=d244d77b-7e82-4b83-9594-c2e67ebdb158","ios":"levelo://app?vid=d244d77b-7e82-4b83-9594-c2e67ebdb158"},"vehicle_type_id":"4","last_reported":1730308089,"current_range_meters":4400,"station_id":"ce4bhh92rcd13ifvqfj0","pricing_plan_id":"cebpf4jnsgd1na2vs0mg"},{"bike_id":"03e26363-1adc-494c-8098-91070571fba5","system_id":"levelo_inurba_marseille","lat":43.232,"lon":5.35556,"is_reserved":false,"is_disabled":false,"rental_uris":{"android":"levelo://app?vid=03e26363-1adc-494c-8098-91070571fba5","ios":"levelo://app?vid=03e26363-1adc-494c-8098-91070571fba5"},"vehicle_type_id":"4","last_reported":1730308089,"current_range_meters":29600,"station_id":"ce4bhu92rcd13ifvqi70","pricing_plan_id":"cebpf4jnsgd1na2vs0mg"},{"bike_id":"9ef39e10-3ba3-4156-ac4a-7970df6873af","system_id":"levelo_inurba_marseille","lat":43.26981,"lon":5.39867,"is_reserved":false,"is_disabled":false,"rental_uris":{"android":"levelo://app?vid=9ef39e10-3ba3-4156-ac4a-7970df6873af","ios":"levelo://app?vid=9ef39e10-3ba3-4156-ac4a-7970df6873af"},"vehicle_type_id":"4","last_reported":1730308089,"current_range_meters":16400,"station_id":"","pricing_plan_id":"cebpf4jnsgd1na2vs0mg"},{"bike_id":"d16e0ef4-af34-4834-a45a-7b39039ff022","system_id":"levelo_inurba_marseille","lat":43.23207,"lon":5.35555,"is_reserved":false,"is_disabled":false,"rental_uris":{"android":"levelo://app?vid=d16e0ef4-af34-4834-a45a-7b39039ff022","ios":"levelo://app?vid=d16e0ef4-af34-4834-a45a-7b39039ff022"},"vehicle_type_id":"4","last_reported":1730308089,"current_range_meters":11600,"station_id":"ce4bhu92rcd13ifvqi70","pricing_plan_id":"cebpf4jnsgd1na2vs0mg"},{"bike_id":"0679dc8c-4cd5-425b-98e8-e054e5681e5d","system_id":"levelo_inurba_marseille","lat":43.28939,"lon":5.36629,"is_reserved":false,"is_disabled":false,"rental_uris":{"android":"levelo://app?vid=0679dc8c-4cd5-425b-98e8-e054e5681e5d","ios":"levelo://app?vid=0679dc8c-4cd5-425b-98e8-e054e5681e5d"},"vehicle_type_id":"4","last_reported":1730308089,"current_range_meters":6800,"station_id":"ce4bhap2rcd13ifvqek0","pricing_plan_id":"cebpf4jnsgd1na2vs0mg"},{"bike_id":"26ea66a3-1682-41d3-816b-3454e793663c","system_id":"levelo_inurba_marseille","lat":43.24649,"lon":5.38891,"is_reserved":false,"is_disabled":false,"rental_uris":{"android":"levelo://app?vid=26ea66a3-1682-41d3-816b-3454e793663c","ios":"levelo://app?vid=26ea66a3-1682-41d3-816b-3454e793663c"},"vehicle_type_id":"4","last_reported":1730308089,"current_range_meters":37600,"station_id":"ce4bhg12rcd13ifvqf60","pricing_plan_id":"cebpf4jnsgd1na2vs0mg"},{"bike_id":"ec36fa07-6530-4413-9957-db78dc77de95","system_id":"levelo_inurba_marseille","lat":43.239691,"lon":5.366372,"is_reserved":false,"is_disabled":false,"rental_uris":{"android":"levelo://app?vid=ec36fa07-6530-4413-9957-db78dc77de95","ios":"levelo://app?vid=ec36fa07-6530-4413-9957-db78dc77de95"},"vehicle_type_id":"4","last_reported":1730308089,"current_range_meters":27600,"station_id":"ce4bh3p2rcd13ifvqdq0","pricing_plan_id":"cebpf4jnsgd1na2vs0mg"},{"bike_id":"0bc66c84-baaa-43b9-824e-d2d8ca07d5b2","system_id":"levelo_inurba_marseille","lat":43.28575,"lon":5.39504,"is_reserved":false,"is_disabled":false,"rental_uris":{"android":"levelo://app?vid=0bc66c84-baaa-43b9-824e-d2d8ca07d5b2","ios":"levelo://app?vid=0bc66c84-baaa-43b9-824e-d2d8ca07d5b2"},"vehicle_type_id":"4","last_reported":1730308089,"current_range_meters":7200,"station_id":"ce4bh292rcd13ifvqdg0","pricing_plan_id":"cebpf4jnsgd1na2vs0mg"},{"bike_id":"859b0938-9274-460c-89d0-9278cd272477","system_id":"levelo_inurba_marseille","lat":43.30173,"lon":5.36628,"is_reserved":false,"is_disabled":false,"rental_uris":{"android":"levelo://app?vid=859b0938-9274-460c-89d0-9278cd272477","ios":"levelo://app?vid=859b0938-9274-460c-89d0-9278cd272477"},"vehicle_type_id":"4","last_reported":1730308089,"current_range_meters":20800,"station_id":"ce4bgrh2rcd13ifvqc8g","pricing_plan_id":"cebpf4jnsgd1na2vs0mg"},{"bike_id":"203cdc68-feff-483d-ac1a-996e1a200a5a","system_id":"levelo_inurba_marseille","lat":43.27918,"lon":5.39583,"is_reserved":false,"is_disabled":false,"rental_uris":{"android":"levelo://app?vid=203cdc68-feff-483d-ac1a-996e1a200a5a","ios":"levelo://app?vid=203cdc68-feff-483d-ac1a-996e1a200a5a"},"vehicle_type_id":"4","last_reported":1730308089,"current_range_meters":32800,"station_id":"ce4bhf92rcd13ifvqf40","pricing_plan_id":"cebpf4jnsgd1na2vs0mg"},{"bike_id":"5d3b7e17-62b7-47c9-807c-7971fec5b6c3","system_id":"levelo_inurba_marseille","lat":43.29067,"lon":5.3717,"is_reserved":false,"is_disabled":false,"rental_uris":{"android":"levelo://app?vid=5d3b7e17-62b7-47c9-807c-7971fec5b6c3","ios":"levelo://app?vid=5d3b7e17-62b7-47c9-807c-7971fec5b6c3"},"vehicle_type_id":"4","last_reported":1730308089,"current_range_meters":21600,"station_id":"ce4bh5p2rcd13ifvqe4g","pricing_plan_id":"cebpf4jnsgd1na2vs0mg"},{"bike_id":"2a1b7bcd-538c-409b-95c2-ea6d7c5d25a0","system_id":"levelo_inurba_marseille","lat":43.24551,"lon":5.39526,"is_reserved":false,"is_disabled":false,"rental_uris":{"android":"levelo://app?vid=2a1b7bcd-538c-409b-95c2-ea6d7c5d25a0","ios":"levelo://app?vid=2a1b7bcd-538c-409b-95c2-ea6d7c5d25a0"},"vehicle_type_id":"4","last_reported":1730308089,"current_range_meters":3600,"station_id":"ce4bhlp2rcd13ifvqgjg","pricing_plan_id":"cebpf4jnsgd1na2vs0mg"},{"bike_id":"52b8505a-280d-4f86-9570-b21d8645c430","system_id":"levelo_inurba_marseille","lat":43.31536,"lon":5.38033,"is_reserved":false,"is_disabled":false,"rental_uris":{"android":"levelo://app?vid=52b8505a-280d-4f86-9570-b21d8645c430","ios":"levelo://app?vid=52b8505a-280d-4f86-9570-b21d8645c430"},"vehicle_type_id":"4","last_reported":1730308089,"current_range_meters":6400,"station_id":"ce4bhsp2rcd13ifvqi50","pricing_plan_id":"cebpf4jnsgd1na2vs0mg"},{"bike_id":"34d3ca7a-5373-41b8-930d-9959b349a9d4","system_id":"levelo_inurba_marseille","lat":43.28466,"lon":5.35897,"is_reserved":false,"is_disabled":false,"rental_uris":{"android":"levelo://app?vid=34d3ca7a-5373-41b8-930d-9959b349a9d4","ios":"levelo://app?vid=34d3ca7a-5373-41b8-930d-9959b349a9d4"},"vehicle_type_id":"4","last_reported":1730308089,"current_range_meters":13600,"station_id":"ce4bhah2rcd13ifvqei0","pricing_plan_id":"cebpf4jnsgd1na2vs0mg"},{"bike_id":"3f410385-5381-443a-bdc4-e62c55ee066e","system_id":"levelo_inurba_marseille","lat":43.28433,"lon":5.40952,"is_reserved":false,"is_disabled":false,"rental_uris":{"android":"levelo://app?vid=3f410385-5381-443a-bdc4-e62c55ee066e","ios":"levelo://app?vid=3f410385-5381-443a-bdc4-e62c55ee066e"},"vehicle_type_id":"4","last_reported":1730308089,"current_range_meters":28400,"station_id":"","pricing_plan_id":"cebpf4jnsgd1na2vs0mg"},{"bike_id":"0c1cf920-9d1d-4b4e-bc3a-1d259777f3d1","system_id":"levelo_inurba_marseille","lat":43.31117,"lon":5.37778,"is_reserved":false,"is_disabled":false,"rental_uris":{"android":"levelo://app?vid=0c1cf920-9d1d-4b4e-bc3a-1d259777f3d1","ios":"levelo://app?vid=0c1cf920-9d1d-4b4e-bc3a-1d259777f3d1"},"vehicle_type_id":"4","last_reported":1730308089,"current_range_meters":16800,"station_id":"ce4bgt92rcd13ifvqcg0","pricing_plan_id":"cebpf4jnsgd1na2vs0mg"},{"bike_id":"4336d32a-29af-4ffe-8bfd-01febe373c11","system_id":"levelo_inurba_marseille","lat":43.29292,"lon":5.40122,"is_reserved":false,"is_disabled":false,"rental_uris":{"android":"levelo://app?vid=4336d32a-29af-4ffe-8bfd-01febe373c11","ios":"levelo://app?vid=4336d32a-29af-4ffe-8bfd-01febe373c11"},"vehicle_type_id":"4","last_reported":1730308089,"current_range_meters":4800,"station_id":"ce4bh312rcd13ifvqdk0","pricing_plan_id":"cebpf4jnsgd1na2vs0mg"},{"bike_id":"26e976ae-4689-4006-be23-17e739b32128","system_id":"levelo_inurba_marseille","lat":43.311676,"lon":5.377215,"is_reserved":false,"is_disabled":false,"rental_uris":{"android":"levelo://app?vid=26e976ae-4689-4006-be23-17e739b32128","ios":"levelo://app?vid=26e976ae-4689-4006-be23-17e739b32128"},"vehicle_type_id":"4","last_reported":1730308089,"current_range_meters":27200,"station_id":"ce4bgt92rcd13ifvqcg0","pricing_plan_id":"cebpf4jnsgd1na2vs0mg"},{"bike_id":"eaf25d76-a677-4b2f-a819-408528ef542a","system_id":"levelo_inurba_marseille","lat":43.2293,"lon":5.35377,"is_reserved":false,"is_disabled":false,"rental_uris":{"android":"levelo://app?vid=eaf25d76-a677-4b2f-a819-408528ef542a","ios":"levelo://app?vid=eaf25d76-a677-4b2f-a819-408528ef542a"},"vehicle_type_id":"4","last_reported":1730308089,"current_range_meters":8400,"station_id":"cpo3532slgdg3j2ikp40","pricing_plan_id":"cebpf4jnsgd1na2vs0mg"},{"bike_id":"63b4ce53-06b7-43f9-8e14-d314a1f16d96","system_id":"levelo_inurba_marseille","lat":43.32537,"lon":5.41457,"is_reserved":false,"is_disabled":false,"rental_uris":{"android":"levelo://app?vid=63b4ce53-06b7-43f9-8e14-d314a1f16d96","ios":"levelo://app?vid=63b4ce53-06b7-43f9-8e14-d314a1f16d96"},"vehicle_type_id":"4","last_reported":1730308089,"current_range_meters":33200,"station_id":"ce4bhq12rcd13ifvqhhg","pricing_plan_id":"cebpf4jnsgd1na2vs0mg"},{"bike_id":"711ba33b-ddbe-4b24-b05b-8f0396efdd57","system_id":"levelo_inurba_marseille","lat":43.28946,"lon":5.36642,"is_reserved":false,"is_disabled":false,"rental_uris":{"android":"levelo://app?vid=711ba33b-ddbe-4b24-b05b-8f0396efdd57","ios":"levelo://app?vid=711ba33b-ddbe-4b24-b05b-8f0396efdd57"},"vehicle_type_id":"4","last_reported":1730308089,"current_range_meters":14000,"station_id":"ce4bhap2rcd13ifvqek0","pricing_plan_id":"cebpf4jnsgd1na2vs0mg"},{"bike_id":"e7d74dc5-19fe-490f-a366-6fb558f0d90f","system_id":"levelo_inurba_marseille","lat":43.32294,"lon":5.38262,"is_reserved":false,"is_disabled":false,"rental_uris":{"android":"levelo://app?vid=e7d74dc5-19fe-490f-a366-6fb558f0d90f","ios":"levelo://app?vid=e7d74dc5-19fe-490f-a366-6fb558f0d90f"},"vehicle_type_id":"4","last_reported":1730308089,"current_range_meters":22400,"station_id":"ce4bhr12rcd13ifvqhqg","pricing_plan_id":"cebpf4jnsgd1na2vs0mg"},{"bike_id":"5ff74640-5d39-40f8-808a-e5695df59fd4","system_id":"levelo_inurba_marseille","lat":43.27194,"lon":5.41025,"is_reserved":false,"is_disabled":false,"rental_uris":{"android":"levelo://app?vid=5ff74640-5d39-40f8-808a-e5695df59fd4","ios":"levelo://app?vid=5ff74640-5d39-40f8-808a-e5695df59fd4"},"vehicle_type_id":"4","last_reported":1730308089,"current_range_meters":12000,"station_id":"ce4bhl12rcd13ifvqgf0","pricing_plan_id":"cebpf4jnsgd1na2vs0mg"},{"bike_id":"b6ec7309-539b-44bc-858e-c5c78276b1d1","system_id":"levelo_inurba_marseille","lat":43.26065,"lon":5.39397,"is_reserved":false,"is_disabled":false,"rental_uris":{"android":"levelo://app?vid=b6ec7309-539b-44bc-858e-c5c78276b1d1","ios":"levelo://app?vid=b6ec7309-539b-44bc-858e-c5c78276b1d1"},"vehicle_type_id":"4","last_reported":1730308089,"current_range_meters":36800,"station_id":"ce4bhh92rcd13ifvqfj0","pricing_plan_id":"cebpf4jnsgd1na2vs0mg"},{"bike_id":"87d23bf7-4e73-43b2-8adf-83be3477f5aa","system_id":"levelo_inurba_marseille","lat":43.2321,"lon":5.35556,"is_reserved":false,"is_disabled":false,"rental_uris":{"android":"levelo://app?vid=87d23bf7-4e73-43b2-8adf-83be3477f5aa","ios":"levelo://app?vid=87d23bf7-4e73-43b2-8adf-83be3477f5aa"},"vehicle_type_id":"4","last_reported":1730308089,"current_range_meters":32800,"station_id":"ce4bhu92rcd13ifvqi70","pricing_plan_id":"cebpf4jnsgd1na2vs0mg"},{"bike_id":"99a2f135-45de-40ea-ab7e-c05cd571370f","system_id":"levelo_inurba_marseille","lat":43.30312,"lon":5.36901,"is_reserved":false,"is_disabled":false,"rental_uris":{"android":"levelo://app?vid=99a2f135-45de-40ea-ab7e-c05cd571370f","ios":"levelo://app?vid=99a2f135-45de-40ea-ab7e-c05cd571370f"},"vehicle_type_id":"4","last_reported":1730308089,"current_range_meters":8400,"station_id":"ce4bgqh2rcd13ifvqc5g","pricing_plan_id":"cebpf4jnsgd1na2vs0mg"},{"bike_id":"95456d32-a80a-4825-b22f-78f32bd6bb05","system_id":"levelo_inurba_marseille","lat":43.23964,"lon":5.36647,"is_reserved":false,"is_disabled":false,"rental_uris":{"android":"levelo://app?vid=95456d32-a80a-4825-b22f-78f32bd6bb05","ios":"levelo://app?vid=95456d32-a80a-4825-b22f-78f32bd6bb05"},"vehicle_type_id":"4","last_reported":1730308089,"current_range_meters":28400,"station_id":"ce4bhi12rcd13ifvqfp0","pricing_plan_id":"cebpf4jnsgd1na2vs0mg"},{"bike_id":"8737a883-97f0-4469-8279-0e4c0a7640d0","system_id":"levelo_inurba_marseille","lat":43.29804,"lon":5.38097,"is_reserved":false,"is_disabled":false,"rental_uris":{"android":"levelo://app?vid=8737a883-97f0-4469-8279-0e4c0a7640d0","ios":"levelo://app?vid=8737a883-97f0-4469-8279-0e4c0a7640d0"},"vehicle_type_id":"4","last_reported":1730308089,"current_range_meters":2000,"station_id":"ce4bgip2rcd13ifvqbb0","pricing_plan_id":"cebpf4jnsgd1na2vs0mg"},{"bike_id":"257c3a88-bd69-4d3d-8d18-10a421051122","system_id":"levelo_inurba_marseille","lat":43.303737,"lon":5.418797,"is_reserved":false,"is_disabled":false,"rental_uris":{"android":"levelo://app?vid=257c3a88-bd69-4d3d-8d18-10a421051122","ios":"levelo://app?vid=257c3a88-bd69-4d3d-8d18-10a421051122"},"vehicle_type_id":"4","last_reported":1730308089,"current_range_meters":3600,"station_id":"ce4bhop2rcd13ifvqh7g","pricing_plan_id":"cebpf4jnsgd1na2vs0mg"},{"bike_id":"2363ef99-382c-41c0-9a03-399d9ee97507","system_id":"levelo_inurba_marseille","lat":43.29972,"lon":5.38498,"is_reserved":false,"is_disabled":false,"rental_uris":{"android":"levelo://app?vid=2363ef99-382c-41c0-9a03-399d9ee97507","ios":"levelo://app?vid=2363ef99-382c-41c0-9a03-399d9ee97507"},"vehicle_type_id":"4","last_reported":1730308089,"current_range_meters":9600,"station_id":"ce4bgj92rcd13ifvqbd0","pricing_plan_id":"cebpf4jnsgd1na2vs0mg"},{"bike_id":"a8ea8170-9759-4c35-8847-0efbc1a1bc34","system_id":"levelo_inurba_marseille","lat":43.30185,"lon":5.3662,"is_reserved":false,"is_disabled":false,"rental_uris":{"android":"levelo://app?vid=a8ea8170-9759-4c35-8847-0efbc1a1bc34","ios":"levelo://app?vid=a8ea8170-9759-4c35-8847-0efbc1a1bc34"},"vehicle_type_id":"4","last_reported":1730308089,"current_range_meters":30000,"station_id":"ce4bgrh2rcd13ifvqc8g","pricing_plan_id":"cebpf4jnsgd1na2vs0mg"},{"bike_id":"39b2cc2d-958a-429b-882b-731954b50cf3","system_id":"levelo_inurba_marseille","lat":43.29544,"lon":5.38553,"is_reserved":false,"is_disabled":false,"rental_uris":{"android":"levelo://app?vid=39b2cc2d-958a-429b-882b-731954b50cf3","ios":"levelo://app?vid=39b2cc2d-958a-429b-882b-731954b50cf3"},"vehicle_type_id":"4","last_reported":1730308089,"current_range_meters":28400,"station_id":"ce4bgih2rcd13ifvqba0","pricing_plan_id":"cebpf4jnsgd1na2vs0mg"},{"bike_id":"5e3e5e15-a26a-4370-a4d7-22b0461d60e4","system_id":"levelo_inurba_marseille","lat":43.31998,"lon":5.3817,"is_reserved":false,"is_disabled":false,"rental_uris":{"android":"levelo://app?vid=5e3e5e15-a26a-4370-a4d7-22b0461d60e4","ios":"levelo://app?vid=5e3e5e15-a26a-4370-a4d7-22b0461d60e4"},"vehicle_type_id":"4","last_reported":1730308089,"current_range_meters":20000,"station_id":"ce4bhr12rcd13ifvqhpg","pricing_plan_id":"cebpf4jnsgd1na2vs0mg"},{"bike_id":"353d92db-64ee-41c0-8d6a-9f61a17934fe","system_id":"levelo_inurba_marseille","lat":43.27422,"lon":5.39408,"is_reserved":false,"is_disabled":false,"rental_uris":{"android":"levelo://app?vid=353d92db-64ee-41c0-8d6a-9f61a17934fe","ios":"levelo://app?vid=353d92db-64ee-41c0-8d6a-9f61a17934fe"},"vehicle_type_id":"4","last_reported":1730308089,"current_range_meters":32000,"station_id":"ce4bhdp2rcd13ifvqf20","pricing_plan_id":"cebpf4jnsgd1na2vs0mg"},{"bike_id":"3271d7f6-0f65-475f-8b65-c5efde785335","system_id":"levelo_inurba_marseille","lat":43.23196,"lon":5.35558,"is_reserved":false,"is_disabled":false,"rental_uris":{"android":"levelo://app?vid=3271d7f6-0f65-475f-8b65-c5efde785335","ios":"levelo://app?vid=3271d7f6-0f65-475f-8b65-c5efde785335"},"vehicle_type_id":"4","last_reported":1730308089,"current_range_meters":38800,"station_id":"ce4bhu92rcd13ifvqi70","pricing_plan_id":"cebpf4jnsgd1na2vs0mg"},{"bike_id":"9d61a810-d31d-49e7-9949-c508f7d1d9d0","system_id":"levelo_inurba_marseille","lat":43.29799,"lon":5.38108,"is_reserved":false,"is_disabled":false,"rental_uris":{"android":"levelo://app?vid=9d61a810-d31d-49e7-9949-c508f7d1d9d0","ios":"levelo://app?vid=9d61a810-d31d-49e7-9949-c508f7d1d9d0"},"vehicle_type_id":"4","last_reported":1730308089,"current_range_meters":4000,"station_id":"ce4bgip2rcd13ifvqbb0","pricing_plan_id":"cebpf4jnsgd1na2vs0mg"},{"bike_id":"550c7d4e-812f-4953-a5aa-0b098869a3b4","system_id":"levelo_inurba_marseille","lat":43.29674,"lon":5.37298,"is_reserved":false,"is_disabled":false,"rental_uris":{"android":"levelo://app?vid=550c7d4e-812f-4953-a5aa-0b098869a3b4","ios":"levelo://app?vid=550c7d4e-812f-4953-a5aa-0b098869a3b4"},"vehicle_type_id":"4","last_reported":1730308089,"current_range_meters":27600,"station_id":"ce4bgk12rcd13ifvqbj0","pricing_plan_id":"cebpf4jnsgd1na2vs0mg"},{"bike_id":"1ee7c53a-2b1f-4d80-9c53-352b1408ce80","system_id":"levelo_inurba_marseille","lat":43.29005,"lon":5.35611,"is_reserved":false,"is_disabled":false,"rental_uris":{"android":"levelo://app?vid=1ee7c53a-2b1f-4d80-9c53-352b1408ce80","ios":"levelo://app?vid=1ee7c53a-2b1f-4d80-9c53-352b1408ce80"},"vehicle_type_id":"4","last_reported":1730308089,"current_range_meters":38000,"station_id":"ce4bhb92rcd13ifvqen0","pricing_plan_id":"cebpf4jnsgd1na2vs0mg"},{"bike_id":"80a55486-5eec-4788-95a6-5836d2daa838","system_id":"levelo_inurba_marseille","lat":43.33027,"lon":5.39038,"is_reserved":false,"is_disabled":false,"rental_uris":{"android":"levelo://app?vid=80a55486-5eec-4788-95a6-5836d2daa838","ios":"levelo://app?vid=80a55486-5eec-4788-95a6-5836d2daa838"},"vehicle_type_id":"4","last_reported":1730308089,"current_range_meters":12400,"station_id":"ce4bhr92rcd13ifvqhrg","pricing_plan_id":"cebpf4jnsgd1na2vs0mg"},{"bike_id":"f99547b6-e0b7-4a86-b4bb-f600f8ca5cb2","system_id":"levelo_inurba_marseille","lat":43.24175,"lon":5.3641,"is_reserved":false,"is_disabled":false,"rental_uris":{"android":"levelo://app?vid=f99547b6-e0b7-4a86-b4bb-f600f8ca5cb2","ios":"levelo://app?vid=f99547b6-e0b7-4a86-b4bb-f600f8ca5cb2"},"vehicle_type_id":"4","last_reported":1730308089,"current_range_meters":22000,"station_id":"cpo36qri1sfpv3e86is0","pricing_plan_id":"cebpf4jnsgd1na2vs0mg"},{"bike_id":"afc8a59e-718c-432c-b226-d6be0903e5fb","system_id":"levelo_inurba_marseille","lat":43.24394,"lon":5.37067,"is_reserved":false,"is_disabled":false,"rental_uris":{"android":"levelo://app?vid=afc8a59e-718c-432c-b226-d6be0903e5fb","ios":"levelo://app?vid=afc8a59e-718c-432c-b226-d6be0903e5fb"},"vehicle_type_id":"4","last_reported":1730308089,"current_range_meters":32000,"station_id":"ce4bhhh2rcd13ifvqfk0","pricing_plan_id":"cebpf4jnsgd1na2vs0mg"},{"bike_id":"1db854a3-4354-4c61-b488-a72b66e72d4f","system_id":"levelo_inurba_marseille","lat":43.29868,"lon":5.39743,"is_reserved":false,"is_disabled":false,"rental_uris":{"android":"levelo://app?vid=1db854a3-4354-4c61-b488-a72b66e72d4f","ios":"levelo://app?vid=1db854a3-4354-4c61-b488-a72b66e72d4f"},"vehicle_type_id":"4","last_reported":1730308089,"current_range_meters":38800,"station_id":"ce4bh0h2rcd13ifvqd50","pricing_plan_id":"cebpf4jnsgd1na2vs0mg"},{"bike_id":"72e37474-1bc8-4568-aec8-ce5464e6b828","system_id":"levelo_inurba_marseille","lat":43.23195,"lon":5.35555,"is_reserved":false,"is_disabled":false,"rental_uris":{"android":"levelo://app?vid=72e37474-1bc8-4568-aec8-ce5464e6b828","ios":"levelo://app?vid=72e37474-1bc8-4568-aec8-ce5464e6b828"},"vehicle_type_id":"4","last_reported":1730308089,"current_range_meters":28400,"station_id":"ce4bhu92rcd13ifvqi70","pricing_plan_id":"cebpf4jnsgd1na2vs0mg"},{"bike_id":"81ae24c3-cb36-4750-8210-a0e7606fa9c7","system_id":"levelo_inurba_marseille","lat":43.30647,"lon":5.40084,"is_reserved":false,"is_disabled":false,"rental_uris":{"android":"levelo://app?vid=81ae24c3-cb36-4750-8210-a0e7606fa9c7","ios":"levelo://app?vid=81ae24c3-cb36-4750-8210-a0e7606fa9c7"},"vehicle_type_id":"4","last_reported":1730308089,"current_range_meters":10800,"station_id":"ce4bh112rcd13ifvqda0","pricing_plan_id":"cebpf4jnsgd1na2vs0mg"},{"bike_id":"d69f4718-3db4-4d0b-8564-f5c3467ecc9b","system_id":"levelo_inurba_marseille","lat":43.295715,"lon":5.399742,"is_reserved":false,"is_disabled":false,"rental_uris":{"android":"levelo://app?vid=d69f4718-3db4-4d0b-8564-f5c3467ecc9b","ios":"levelo://app?vid=d69f4718-3db4-4d0b-8564-f5c3467ecc9b"},"vehicle_type_id":"4","last_reported":1730308089,"current_range_meters":15200,"station_id":"ce4bh312rcd13ifvqdj0","pricing_plan_id":"cebpf4jnsgd1na2vs0mg"},{"bike_id":"54d2e7c1-0997-4e85-b497-01eca9eb4f00","system_id":"levelo_inurba_marseille","lat":43.2319,"lon":5.35567,"is_reserved":false,"is_disabled":false,"rental_uris":{"android":"levelo://app?vid=54d2e7c1-0997-4e85-b497-01eca9eb4f00","ios":"levelo://app?vid=54d2e7c1-0997-4e85-b497-01eca9eb4f00"},"vehicle_type_id":"4","last_reported":1730308089,"current_range_meters":15200,"station_id":"ce4bhu92rcd13ifvqi70","pricing_plan_id":"cebpf4jnsgd1na2vs0mg"},{"bike_id":"7ea60cf8-dcab-4943-a81f-de9a2f98c75e","system_id":"levelo_inurba_marseille","lat":43.307892,"lon":5.381665,"is_reserved":false,"is_disabled":false,"rental_uris":{"android":"levelo://app?vid=7ea60cf8-dcab-4943-a81f-de9a2f98c75e","ios":"levelo://app?vid=7ea60cf8-dcab-4943-a81f-de9a2f98c75e"},"vehicle_type_id":"4","last_reported":1730308089,"current_range_meters":25200,"station_id":"ce4bh612rcd13ifvqe6g","pricing_plan_id":"cebpf4jnsgd1na2vs0mg"},{"bike_id":"e1b150c2-966e-4b17-81ab-ef87e14ea824","system_id":"levelo_inurba_marseille","lat":43.28076,"lon":5.39668,"is_reserved":false,"is_disabled":false,"rental_uris":{"android":"levelo://app?vid=e1b150c2-966e-4b17-81ab-ef87e14ea824","ios":"levelo://app?vid=e1b150c2-966e-4b17-81ab-ef87e14ea824"},"vehicle_type_id":"4","last_reported":1730308089,"current_range_meters":38800,"station_id":"ce4bho12rcd13ifvqh2g","pricing_plan_id":"cebpf4jnsgd1na2vs0mg"},{"bike_id":"0c4d523e-9a18-4a4b-b508-390b87cb7955","system_id":"levelo_inurba_marseille","lat":43.28657,"lon":5.36359,"is_reserved":false,"is_disabled":false,"rental_uris":{"android":"levelo://app?vid=0c4d523e-9a18-4a4b-b508-390b87cb7955","ios":"levelo://app?vid=0c4d523e-9a18-4a4b-b508-390b87cb7955"},"vehicle_type_id":"4","last_reported":1730308089,"current_range_meters":12400,"station_id":"ce4bhah2rcd13ifvqej0","pricing_plan_id":"cebpf4jnsgd1na2vs0mg"},{"bike_id":"e8f2586a-fbe0-4b4e-8d92-5fe9cc348fdb","system_id":"levelo_inurba_marseille","lat":43.283722,"lon":5.386374,"is_reserved":false,"is_disabled":false,"rental_uris":{"android":"levelo://app?vid=e8f2586a-fbe0-4b4e-8d92-5fe9cc348fdb","ios":"levelo://app?vid=e8f2586a-fbe0-4b4e-8d92-5fe9cc348fdb"},"vehicle_type_id":"4","last_reported":1730308089,"current_range_meters":28000,"station_id":"ce4bh492rcd13ifvqdvg","pricing_plan_id":"cebpf4jnsgd1na2vs0mg"},{"bike_id":"44e1279b-17d4-4668-9d93-3aaabc1b9a06","system_id":"levelo_inurba_marseille","lat":43.28419,"lon":5.34984,"is_reserved":false,"is_disabled":false,"rental_uris":{"android":"levelo://app?vid=44e1279b-17d4-4668-9d93-3aaabc1b9a06","ios":"levelo://app?vid=44e1279b-17d4-4668-9d93-3aaabc1b9a06"},"vehicle_type_id":"4","last_reported":1730308089,"current_range_meters":22000,"station_id":"ce4bhbh2rcd13ifvqepg","pricing_plan_id":"cebpf4jnsgd1na2vs0mg"},{"bike_id":"e6c4e71c-150a-4bf6-9f75-70b82405e1f9","system_id":"levelo_inurba_marseille","lat":43.22253,"lon":5.34609,"is_reserved":false,"is_disabled":false,"rental_uris":{"android":"levelo://app?vid=e6c4e71c-150a-4bf6-9f75-70b82405e1f9","ios":"levelo://app?vid=e6c4e71c-150a-4bf6-9f75-70b82405e1f9"},"vehicle_type_id":"4","last_reported":1730308089,"current_range_meters":6800,"station_id":"cpo3532slgdg3j2ikp40","pricing_plan_id":"cebpf4jnsgd1na2vs0mg"},{"bike_id":"cbd6e71b-da90-49a9-852e-9e6ceb2a79ce","system_id":"levelo_inurba_marseille","lat":43.23181,"lon":5.39994,"is_reserved":false,"is_disabled":false,"rental_uris":{"android":"levelo://app?vid=cbd6e71b-da90-49a9-852e-9e6ceb2a79ce","ios":"levelo://app?vid=cbd6e71b-da90-49a9-852e-9e6ceb2a79ce"},"vehicle_type_id":"4","last_reported":1730308089,"current_range_meters":26000,"station_id":"ce4bhn12rcd13ifvqgqg","pricing_plan_id":"cebpf4jnsgd1na2vs0mg"},{"bike_id":"c7e0806a-d694-4a23-a01d-dbdbff5e1c91","system_id":"levelo_inurba_marseille","lat":43.28666,"lon":5.36355,"is_reserved":false,"is_disabled":false,"rental_uris":{"android":"levelo://app?vid=c7e0806a-d694-4a23-a01d-dbdbff5e1c91","ios":"levelo://app?vid=c7e0806a-d694-4a23-a01d-dbdbff5e1c91"},"vehicle_type_id":"4","last_reported":1730308089,"current_range_meters":39200,"station_id":"ce4bhah2rcd13ifvqej0","pricing_plan_id":"cebpf4jnsgd1na2vs0mg"},{"bike_id":"9ec77140-2846-4e58-a1b8-dfda5b93d692","system_id":"levelo_inurba_marseille","lat":43.29533,"lon":5.38535,"is_reserved":false,"is_disabled":false,"rental_uris":{"android":"levelo://app?vid=9ec77140-2846-4e58-a1b8-dfda5b93d692","ios":"levelo://app?vid=9ec77140-2846-4e58-a1b8-dfda5b93d692"},"vehicle_type_id":"4","last_reported":1730308089,"current_range_meters":38800,"station_id":"ce4bgih2rcd13ifvqba0","pricing_plan_id":"cebpf4jnsgd1na2vs0mg"},{"bike_id":"1995d42f-9bb2-423e-a419-1706f5fab24e","system_id":"levelo_inurba_marseille","lat":43.27075,"lon":5.42278,"is_reserved":false,"is_disabled":false,"rental_uris":{"android":"levelo://app?vid=1995d42f-9bb2-423e-a419-1706f5fab24e","ios":"levelo://app?vid=1995d42f-9bb2-423e-a419-1706f5fab24e"},"vehicle_type_id":"4","last_reported":1730308089,"current_range_meters":32800,"station_id":"ce4bhk92rcd13ifvqgb0","pricing_plan_id":"cebpf4jnsgd1na2vs0mg"},{"bike_id":"bcffe17e-46d5-40cc-895c-8d3cb3d22e07","system_id":"levelo_inurba_marseille","lat":43.25878,"lon":5.39895,"is_reserved":false,"is_disabled":false,"rental_uris":{"android":"levelo://app?vid=bcffe17e-46d5-40cc-895c-8d3cb3d22e07","ios":"levelo://app?vid=bcffe17e-46d5-40cc-895c-8d3cb3d22e07"},"vehicle_type_id":"4","last_reported":1730308089,"current_range_meters":8000,"station_id":"ce4bhl92rcd13ifvqghg","pricing_plan_id":"cebpf4jnsgd1na2vs0mg"},{"bike_id":"8162e4a8-23c1-4020-bbef-be4a2e70aefe","system_id":"levelo_inurba_marseille","lat":43.23202,"lon":5.3556,"is_reserved":false,"is_disabled":false,"rental_uris":{"android":"levelo://app?vid=8162e4a8-23c1-4020-bbef-be4a2e70aefe","ios":"levelo://app?vid=8162e4a8-23c1-4020-bbef-be4a2e70aefe"},"vehicle_type_id":"4","last_reported":1730308089,"current_range_meters":8800,"station_id":"ce4bhu92rcd13ifvqi70","pricing_plan_id":"cebpf4jnsgd1na2vs0mg"},{"bike_id":"f400d701-e7ba-42de-a4cb-abda9b0a1f0b","system_id":"levelo_inurba_marseille","lat":43.296282,"lon":5.377155,"is_reserved":false,"is_disabled":false,"rental_uris":{"android":"levelo://app?vid=f400d701-e7ba-42de-a4cb-abda9b0a1f0b","ios":"levelo://app?vid=f400d701-e7ba-42de-a4cb-abda9b0a1f0b"},"vehicle_type_id":"4","last_reported":1730308089,"current_range_meters":35200,"station_id":"ce4bh4p2rcd13ifvqe0g","pricing_plan_id":"cebpf4jnsgd1na2vs0mg"},{"bike_id":"b18bad00-6e50-4536-9035-6a34aeabfd38","system_id":"levelo_inurba_marseille","lat":43.24653,"lon":5.38895,"is_reserved":false,"is_disabled":false,"rental_uris":{"android":"levelo://app?vid=b18bad00-6e50-4536-9035-6a34aeabfd38","ios":"levelo://app?vid=b18bad00-6e50-4536-9035-6a34aeabfd38"},"vehicle_type_id":"4","last_reported":1730308089,"current_range_meters":25600,"station_id":"ce4bhg12rcd13ifvqf60","pricing_plan_id":"cebpf4jnsgd1na2vs0mg"},{"bike_id":"5f62db8a-f55e-4a94-927f-fd2c7a7c59c1","system_id":"levelo_inurba_marseille","lat":43.30541,"lon":5.36548,"is_reserved":false,"is_disabled":false,"rental_uris":{"android":"levelo://app?vid=5f62db8a-f55e-4a94-927f-fd2c7a7c59c1","ios":"levelo://app?vid=5f62db8a-f55e-4a94-927f-fd2c7a7c59c1"},"vehicle_type_id":"4","last_reported":1730308089,"current_range_meters":28400,"station_id":"ce4bgs12rcd13ifvqcag","pricing_plan_id":"cebpf4jnsgd1na2vs0mg"},{"bike_id":"061d3e0b-fea6-4a6b-a60e-9cac2be52669","system_id":"levelo_inurba_marseille","lat":43.29086,"lon":5.3812,"is_reserved":false,"is_disabled":false,"rental_uris":{"android":"levelo://app?vid=061d3e0b-fea6-4a6b-a60e-9cac2be52669","ios":"levelo://app?vid=061d3e0b-fea6-4a6b-a60e-9cac2be52669"},"vehicle_type_id":"4","last_reported":1730308089,"current_range_meters":30400,"station_id":"ce4bh512rcd13ifvqe2g","pricing_plan_id":"cebpf4jnsgd1na2vs0mg"},{"bike_id":"b0a1eaa9-3a19-4a75-a9fe-04c7762930af","system_id":"levelo_inurba_marseille","lat":43.28409,"lon":5.37521,"is_reserved":false,"is_disabled":false,"rental_uris":{"android":"levelo://app?vid=b0a1eaa9-3a19-4a75-a9fe-04c7762930af","ios":"levelo://app?vid=b0a1eaa9-3a19-4a75-a9fe-04c7762930af"},"vehicle_type_id":"4","last_reported":1730308089,"current_range_meters":37600,"station_id":"ce4bh412rcd13ifvqds0","pricing_plan_id":"cebpf4jnsgd1na2vs0mg"},{"bike_id":"602f6220-27b7-42f1-b20b-e1535baef625","system_id":"levelo_inurba_marseille","lat":43.27808,"lon":5.4072,"is_reserved":false,"is_disabled":false,"rental_uris":{"android":"levelo://app?vid=602f6220-27b7-42f1-b20b-e1535baef625","ios":"levelo://app?vid=602f6220-27b7-42f1-b20b-e1535baef625"},"vehicle_type_id":"4","last_reported":1730308089,"current_range_meters":20400,"station_id":"ce4bhnh2rcd13ifvqgtg","pricing_plan_id":"cebpf4jnsgd1na2vs0mg"},{"bike_id":"e95e4efd-2954-483f-a646-e7f484350e74","system_id":"levelo_inurba_marseille","lat":43.29874,"lon":5.38903,"is_reserved":false,"is_disabled":false,"rental_uris":{"android":"levelo://app?vid=e95e4efd-2954-483f-a646-e7f484350e74","ios":"levelo://app?vid=e95e4efd-2954-483f-a646-e7f484350e74"},"vehicle_type_id":"4","last_reported":1730308089,"current_range_meters":17200,"station_id":"ce4bh392rcd13ifvqdl0","pricing_plan_id":"cebpf4jnsgd1na2vs0mg"},{"bike_id":"cf3b5983-9c3f-4f95-8c84-1d6b7d48a6b9","system_id":"levelo_inurba_marseille","lat":43.30217,"lon":5.39464,"is_reserved":false,"is_disabled":false,"rental_uris":{"android":"levelo://app?vid=cf3b5983-9c3f-4f95-8c84-1d6b7d48a6b9","ios":"levelo://app?vid=cf3b5983-9c3f-4f95-8c84-1d6b7d48a6b9"},"vehicle_type_id":"4","last_reported":1730308089,"current_range_meters":17600,"station_id":"ce4bh0p2rcd13ifvqd70","pricing_plan_id":"cebpf4jnsgd1na2vs0mg"},{"bike_id":"379d974e-51a1-4b04-b633-c4150016c54e","system_id":"levelo_inurba_marseille","lat":43.28413,"lon":5.37526,"is_reserved":false,"is_disabled":false,"rental_uris":{"android":"levelo://app?vid=379d974e-51a1-4b04-b633-c4150016c54e","ios":"levelo://app?vid=379d974e-51a1-4b04-b633-c4150016c54e"},"vehicle_type_id":"4","last_reported":1730308089,"current_range_meters":35600,"station_id":"ce4bh412rcd13ifvqds0","pricing_plan_id":"cebpf4jnsgd1na2vs0mg"},{"bike_id":"73b91a5c-462b-445d-ac2c-3b2ae6e44141","system_id":"levelo_inurba_marseille","lat":43.28657,"lon":5.36357,"is_reserved":false,"is_disabled":false,"rental_uris":{"android":"levelo://app?vid=73b91a5c-462b-445d-ac2c-3b2ae6e44141","ios":"levelo://app?vid=73b91a5c-462b-445d-ac2c-3b2ae6e44141"},"vehicle_type_id":"4","last_reported":1730308089,"current_range_meters":35200,"station_id":"ce4bhah2rcd13ifvqej0","pricing_plan_id":"cebpf4jnsgd1na2vs0mg"},{"bike_id":"8821c2e7-1a3e-4ee6-b8b3-2956bda8c370","system_id":"levelo_inurba_marseille","lat":43.26808,"lon":5.40269,"is_reserved":false,"is_disabled":false,"rental_uris":{"android":"levelo://app?vid=8821c2e7-1a3e-4ee6-b8b3-2956bda8c370","ios":"levelo://app?vid=8821c2e7-1a3e-4ee6-b8b3-2956bda8c370"},"vehicle_type_id":"4","last_reported":1730308089,"current_range_meters":8800,"station_id":"ce501612rcd8frsf0b60","pricing_plan_id":"cebpf4jnsgd1na2vs0mg"},{"bike_id":"d0624709-a8ba-4991-b986-5ed0527e9b16","system_id":"levelo_inurba_marseille","lat":43.27818,"lon":5.40722,"is_reserved":false,"is_disabled":false,"rental_uris":{"android":"levelo://app?vid=d0624709-a8ba-4991-b986-5ed0527e9b16","ios":"levelo://app?vid=d0624709-a8ba-4991-b986-5ed0527e9b16"},"vehicle_type_id":"4","last_reported":1730308089,"current_range_meters":27600,"station_id":"ce4bhnh2rcd13ifvqgtg","pricing_plan_id":"cebpf4jnsgd1na2vs0mg"},{"bike_id":"9f3b3051-51f9-4c8b-91cf-3cc0f2bc9c35","system_id":"levelo_inurba_marseille","lat":43.317224,"lon":5.423912,"is_reserved":false,"is_disabled":false,"rental_uris":{"android":"levelo://app?vid=9f3b3051-51f9-4c8b-91cf-3cc0f2bc9c35","ios":"levelo://app?vid=9f3b3051-51f9-4c8b-91cf-3cc0f2bc9c35"},"vehicle_type_id":"4","last_reported":1730308089,"current_range_meters":20000,"station_id":"ce4bhp92rcd13ifvqhbg","pricing_plan_id":"cebpf4jnsgd1na2vs0mg"},{"bike_id":"c30c20a3-a003-4e47-981b-d4a01d18b8ed","system_id":"levelo_inurba_marseille","lat":43.24169,"lon":5.36411,"is_reserved":false,"is_disabled":false,"rental_uris":{"android":"levelo://app?vid=c30c20a3-a003-4e47-981b-d4a01d18b8ed","ios":"levelo://app?vid=c30c20a3-a003-4e47-981b-d4a01d18b8ed"},"vehicle_type_id":"4","last_reported":1730308089,"current_range_meters":38800,"station_id":"cpo36qri1sfpv3e86is0","pricing_plan_id":"cebpf4jnsgd1na2vs0mg"},{"bike_id":"8b245559-b15a-42a0-89c8-3d7439e1f773","system_id":"levelo_inurba_marseille","lat":43.2455,"lon":5.39526,"is_reserved":false,"is_disabled":false,"rental_uris":{"android":"levelo://app?vid=8b245559-b15a-42a0-89c8-3d7439e1f773","ios":"levelo://app?vid=8b245559-b15a-42a0-89c8-3d7439e1f773"},"vehicle_type_id":"4","last_reported":1730308089,"current_range_meters":24000,"station_id":"ce4bhlp2rcd13ifvqgjg","pricing_plan_id":"cebpf4jnsgd1na2vs0mg"},{"bike_id":"49d39f45-2423-42ba-a2c1-58440c5c3d68","system_id":"levelo_inurba_marseille","lat":43.29035,"lon":5.3864,"is_reserved":false,"is_disabled":false,"rental_uris":{"android":"levelo://app?vid=49d39f45-2423-42ba-a2c1-58440c5c3d68","ios":"levelo://app?vid=49d39f45-2423-42ba-a2c1-58440c5c3d68"},"vehicle_type_id":"4","last_reported":1730308089,"current_range_meters":26800,"station_id":"ce4bh4p2rcd13ifvqe0g","pricing_plan_id":"cebpf4jnsgd1na2vs0mg"},{"bike_id":"06be41f9-8626-41f4-bc00-6dec28012c26","system_id":"levelo_inurba_marseille","lat":43.29603,"lon":5.38107,"is_reserved":false,"is_disabled":false,"rental_uris":{"android":"levelo://app?vid=06be41f9-8626-41f4-bc00-6dec28012c26","ios":"levelo://app?vid=06be41f9-8626-41f4-bc00-6dec28012c26"},"vehicle_type_id":"4","last_reported":1730308089,"current_range_meters":33200,"station_id":"ce4bgl12rcd13ifvqbo0","pricing_plan_id":"cebpf4jnsgd1na2vs0mg"},{"bike_id":"a276a5cf-6c27-44d4-b0c7-a3c414a65cae","system_id":"levelo_inurba_marseille","lat":43.22934,"lon":5.35381,"is_reserved":false,"is_disabled":false,"rental_uris":{"android":"levelo://app?vid=a276a5cf-6c27-44d4-b0c7-a3c414a65cae","ios":"levelo://app?vid=a276a5cf-6c27-44d4-b0c7-a3c414a65cae"},"vehicle_type_id":"4","last_reported":1730308089,"current_range_meters":38800,"station_id":"cpo3532slgdg3j2ikp40","pricing_plan_id":"cebpf4jnsgd1na2vs0mg"},{"bike_id":"fea23d88-9bbb-4ffa-af08-7b03ca37348f","system_id":"levelo_inurba_marseille","lat":43.23182,"lon":5.39999,"is_reserved":false,"is_disabled":false,"rental_uris":{"android":"levelo://app?vid=fea23d88-9bbb-4ffa-af08-7b03ca37348f","ios":"levelo://app?vid=fea23d88-9bbb-4ffa-af08-7b03ca37348f"},"vehicle_type_id":"4","last_reported":1730308089,"current_range_meters":29600,"station_id":"ce4bhn12rcd13ifvqgqg","pricing_plan_id":"cebpf4jnsgd1na2vs0mg"},{"bike_id":"0929b241-3ccb-4d43-8c40-9fe76f61853f","system_id":"levelo_inurba_marseille","lat":43.29978,"lon":5.38492,"is_reserved":false,"is_disabled":false,"rental_uris":{"android":"levelo://app?vid=0929b241-3ccb-4d43-8c40-9fe76f61853f","ios":"levelo://app?vid=0929b241-3ccb-4d43-8c40-9fe76f61853f"},"vehicle_type_id":"4","last_reported":1730308089,"current_range_meters":8400,"station_id":"ce4bgj92rcd13ifvqbd0","pricing_plan_id":"cebpf4jnsgd1na2vs0mg"},{"bike_id":"2cd3ce98-6e36-41e2-9b7e-ca0ba9efe6a9","system_id":"levelo_inurba_marseille","lat":43.29967,"lon":5.38499,"is_reserved":false,"is_disabled":false,"rental_uris":{"android":"levelo://app?vid=2cd3ce98-6e36-41e2-9b7e-ca0ba9efe6a9","ios":"levelo://app?vid=2cd3ce98-6e36-41e2-9b7e-ca0ba9efe6a9"},"vehicle_type_id":"4","last_reported":1730308089,"current_range_meters":32400,"station_id":"ce4bgj92rcd13ifvqbd0","pricing_plan_id":"cebpf4jnsgd1na2vs0mg"},{"bike_id":"160c3125-d109-49e3-a687-ede78b99dea2","system_id":"levelo_inurba_marseille","lat":43.23195,"lon":5.35543,"is_reserved":false,"is_disabled":false,"rental_uris":{"android":"levelo://app?vid=160c3125-d109-49e3-a687-ede78b99dea2","ios":"levelo://app?vid=160c3125-d109-49e3-a687-ede78b99dea2"},"vehicle_type_id":"4","last_reported":1730308089,"current_range_meters":38400,"station_id":"ce4bhu92rcd13ifvqi70","pricing_plan_id":"cebpf4jnsgd1na2vs0mg"},{"bike_id":"c1bf4a91-a646-4162-907b-90b1796a78e8","system_id":"levelo_inurba_marseille","lat":43.29895,"lon":5.43678,"is_reserved":false,"is_disabled":false,"rental_uris":{"android":"levelo://app?vid=c1bf4a91-a646-4162-907b-90b1796a78e8","ios":"levelo://app?vid=c1bf4a91-a646-4162-907b-90b1796a78e8"},"vehicle_type_id":"4","last_reported":1730308089,"current_range_meters":38800,"station_id":"ce4bhpp2rcd13ifvqhfg","pricing_plan_id":"cebpf4jnsgd1na2vs0mg"},{"bike_id":"58e334c1-6d7a-4f34-8814-71f1e8a668ef","system_id":"levelo_inurba_marseille","lat":43.30591,"lon":5.37233,"is_reserved":false,"is_disabled":false,"rental_uris":{"android":"levelo://app?vid=58e334c1-6d7a-4f34-8814-71f1e8a668ef","ios":"levelo://app?vid=58e334c1-6d7a-4f34-8814-71f1e8a668ef"},"vehicle_type_id":"4","last_reported":1730308089,"current_range_meters":17600,"station_id":"ce4bgqh2rcd13ifvqc4g","pricing_plan_id":"cebpf4jnsgd1na2vs0mg"},{"bike_id":"c4a47581-2099-4e6e-b3ec-751ed472bddb","system_id":"levelo_inurba_marseille","lat":43.29261,"lon":5.38441,"is_reserved":false,"is_disabled":false,"rental_uris":{"android":"levelo://app?vid=c4a47581-2099-4e6e-b3ec-751ed472bddb","ios":"levelo://app?vid=c4a47581-2099-4e6e-b3ec-751ed472bddb"},"vehicle_type_id":"4","last_reported":1730308089,"current_range_meters":30800,"station_id":"ce4bh692rcd13ifvqea0","pricing_plan_id":"cebpf4jnsgd1na2vs0mg"},{"bike_id":"bad04bcb-28c3-4af5-b8f4-908d5df4b5e5","system_id":"levelo_inurba_marseille","lat":43.290061,"lon":5.356211,"is_reserved":false,"is_disabled":false,"rental_uris":{"android":"levelo://app?vid=bad04bcb-28c3-4af5-b8f4-908d5df4b5e5","ios":"levelo://app?vid=bad04bcb-28c3-4af5-b8f4-908d5df4b5e5"},"vehicle_type_id":"4","last_reported":1730308089,"current_range_meters":28000,"station_id":"ce4bhb92rcd13ifvqen0","pricing_plan_id":"cebpf4jnsgd1na2vs0mg"},{"bike_id":"9ce175e1-f5d2-4a37-928e-48db105a5649","system_id":"levelo_inurba_marseille","lat":43.27998,"lon":5.41659,"is_reserved":false,"is_disabled":false,"rental_uris":{"android":"levelo://app?vid=9ce175e1-f5d2-4a37-928e-48db105a5649","ios":"levelo://app?vid=9ce175e1-f5d2-4a37-928e-48db105a5649"},"vehicle_type_id":"4","last_reported":1730308089,"current_range_meters":36800,"station_id":"ce4bho12rcd13ifvqh1g","pricing_plan_id":"cebpf4jnsgd1na2vs0mg"},{"bike_id":"dc6b02f2-a2bd-4e81-a971-ae790e0ec7de","system_id":"levelo_inurba_marseille","lat":43.26063,"lon":5.39397,"is_reserved":false,"is_disabled":false,"rental_uris":{"android":"levelo://app?vid=dc6b02f2-a2bd-4e81-a971-ae790e0ec7de","ios":"levelo://app?vid=dc6b02f2-a2bd-4e81-a971-ae790e0ec7de"},"vehicle_type_id":"4","last_reported":1730308089,"current_range_meters":38400,"station_id":"ce4bhh92rcd13ifvqfj0","pricing_plan_id":"cebpf4jnsgd1na2vs0mg"},{"bike_id":"215f99f4-1266-4ef3-b559-96d8c5f02f9b","system_id":"levelo_inurba_marseille","lat":43.27619,"lon":5.36108,"is_reserved":false,"is_disabled":false,"rental_uris":{"android":"levelo://app?vid=215f99f4-1266-4ef3-b559-96d8c5f02f9b","ios":"levelo://app?vid=215f99f4-1266-4ef3-b559-96d8c5f02f9b"},"vehicle_type_id":"4","last_reported":1730308089,"current_range_meters":36000,"station_id":"ce4bgj92rcd13ifvqbe0","pricing_plan_id":"cebpf4jnsgd1na2vs0mg"},{"bike_id":"6f040d5b-4354-496f-a005-b7fb893f1b3d","system_id":"levelo_inurba_marseille","lat":43.30434,"lon":5.38889,"is_reserved":false,"is_disabled":false,"rental_uris":{"android":"levelo://app?vid=6f040d5b-4354-496f-a005-b7fb893f1b3d","ios":"levelo://app?vid=6f040d5b-4354-496f-a005-b7fb893f1b3d"},"vehicle_type_id":"4","last_reported":1730308089,"current_range_meters":11200,"station_id":"ce4bgk12rcd13ifvqbi0","pricing_plan_id":"cebpf4jnsgd1na2vs0mg"},{"bike_id":"bfb1a2f2-5dd7-404a-90bb-be56759f829f","system_id":"levelo_inurba_marseille","lat":43.28018,"lon":5.41658,"is_reserved":false,"is_disabled":false,"rental_uris":{"android":"levelo://app?vid=bfb1a2f2-5dd7-404a-90bb-be56759f829f","ios":"levelo://app?vid=bfb1a2f2-5dd7-404a-90bb-be56759f829f"},"vehicle_type_id":"4","last_reported":1730308089,"current_range_meters":36000,"station_id":"ce4bho12rcd13ifvqh1g","pricing_plan_id":"cebpf4jnsgd1na2vs0mg"},{"bike_id":"20a610db-774d-40c4-84cd-6b52b20d234f","system_id":"levelo_inurba_marseille","lat":43.27944,"lon":5.41048,"is_reserved":false,"is_disabled":false,"rental_uris":{"android":"levelo://app?vid=20a610db-774d-40c4-84cd-6b52b20d234f","ios":"levelo://app?vid=20a610db-774d-40c4-84cd-6b52b20d234f"},"vehicle_type_id":"4","last_reported":1730308089,"current_range_meters":6000,"station_id":"ce4bhnp2rcd13ifvqh0g","pricing_plan_id":"cebpf4jnsgd1na2vs0mg"},{"bike_id":"f4dcfc73-83cf-4c70-8fed-cacf69925473","system_id":"levelo_inurba_marseille","lat":43.25826,"lon":5.39441,"is_reserved":false,"is_disabled":false,"rental_uris":{"android":"levelo://app?vid=f4dcfc73-83cf-4c70-8fed-cacf69925473","ios":"levelo://app?vid=f4dcfc73-83cf-4c70-8fed-cacf69925473"},"vehicle_type_id":"4","last_reported":1730308089,"current_range_meters":39200,"station_id":"ce4bhip2rcd13ifvqft0","pricing_plan_id":"cebpf4jnsgd1na2vs0mg"},{"bike_id":"fd9c4c84-6c34-47bc-b568-c8c450072619","system_id":"levelo_inurba_marseille","lat":43.27372,"lon":5.3624,"is_reserved":false,"is_disabled":false,"rental_uris":{"android":"levelo://app?vid=fd9c4c84-6c34-47bc-b568-c8c450072619","ios":"levelo://app?vid=fd9c4c84-6c34-47bc-b568-c8c450072619"},"vehicle_type_id":"4","last_reported":1730308089,"current_range_meters":36000,"station_id":"ce4bhbh2rcd13ifvqeo0","pricing_plan_id":"cebpf4jnsgd1na2vs0mg"},{"bike_id":"da5f84d0-f584-478e-b4b0-e232c1b2261f","system_id":"levelo_inurba_marseille","lat":43.2953,"lon":5.39057,"is_reserved":false,"is_disabled":false,"rental_uris":{"android":"levelo://app?vid=da5f84d0-f584-478e-b4b0-e232c1b2261f","ios":"levelo://app?vid=da5f84d0-f584-478e-b4b0-e232c1b2261f"},"vehicle_type_id":"4","last_reported":1730308089,"current_range_meters":26000,"station_id":"ce4bh3p2rcd13ifvqdp0","pricing_plan_id":"cebpf4jnsgd1na2vs0mg"},{"bike_id":"3ff7342d-06c4-4e17-9af6-e6c35f757950","system_id":"levelo_inurba_marseille","lat":43.295321,"lon":5.390268,"is_reserved":false,"is_disabled":false,"rental_uris":{"android":"levelo://app?vid=3ff7342d-06c4-4e17-9af6-e6c35f757950","ios":"levelo://app?vid=3ff7342d-06c4-4e17-9af6-e6c35f757950"},"vehicle_type_id":"4","last_reported":1730308089,"current_range_meters":2800,"station_id":"ce4bh3p2rcd13ifvqdp0","pricing_plan_id":"cebpf4jnsgd1na2vs0mg"},{"bike_id":"06d2168c-a1af-4009-b8fd-9a6b7dd7757b","system_id":"levelo_inurba_marseille","lat":43.29269,"lon":5.38459,"is_reserved":false,"is_disabled":false,"rental_uris":{"android":"levelo://app?vid=06d2168c-a1af-4009-b8fd-9a6b7dd7757b","ios":"levelo://app?vid=06d2168c-a1af-4009-b8fd-9a6b7dd7757b"},"vehicle_type_id":"4","last_reported":1730308089,"current_range_meters":37600,"station_id":"ce4bh692rcd13ifvqea0","pricing_plan_id":"cebpf4jnsgd1na2vs0mg"},{"bike_id":"00570a9a-70dc-4fd9-a21d-b33665529146","system_id":"levelo_inurba_marseille","lat":43.23969,"lon":5.36634,"is_reserved":false,"is_disabled":false,"rental_uris":{"android":"levelo://app?vid=00570a9a-70dc-4fd9-a21d-b33665529146","ios":"levelo://app?vid=00570a9a-70dc-4fd9-a21d-b33665529146"},"vehicle_type_id":"4","last_reported":1730308089,"current_range_meters":39200,"station_id":"ce4bhi12rcd13ifvqfp0","pricing_plan_id":"cebpf4jnsgd1na2vs0mg"},{"bike_id":"9592eb1a-4a46-4535-b3fe-0af141dace43","system_id":"levelo_inurba_marseille","lat":43.2396,"lon":5.36637,"is_reserved":false,"is_disabled":false,"rental_uris":{"android":"levelo://app?vid=9592eb1a-4a46-4535-b3fe-0af141dace43","ios":"levelo://app?vid=9592eb1a-4a46-4535-b3fe-0af141dace43"},"vehicle_type_id":"4","last_reported":1730308089,"current_range_meters":31200,"station_id":"ce4bhi12rcd13ifvqfp0","pricing_plan_id":"cebpf4jnsgd1na2vs0mg"},{"bike_id":"8d5cc5eb-8f17-49d5-9150-d5e5b585f243","system_id":"levelo_inurba_marseille","lat":43.301514,"lon":5.374684,"is_reserved":false,"is_disabled":false,"rental_uris":{"android":"levelo://app?vid=8d5cc5eb-8f17-49d5-9150-d5e5b585f243","ios":"levelo://app?vid=8d5cc5eb-8f17-49d5-9150-d5e5b585f243"},"vehicle_type_id":"4","last_reported":1730308089,"current_range_meters":30400,"station_id":"ce4bgs92rcd13ifvqcc0","pricing_plan_id":"cebpf4jnsgd1na2vs0mg"},{"bike_id":"85058a67-6c96-401c-b3b1-04ac20dcde4e","system_id":"levelo_inurba_marseille","lat":43.28083,"lon":5.39658,"is_reserved":false,"is_disabled":false,"rental_uris":{"android":"levelo://app?vid=85058a67-6c96-401c-b3b1-04ac20dcde4e","ios":"levelo://app?vid=85058a67-6c96-401c-b3b1-04ac20dcde4e"},"vehicle_type_id":"4","last_reported":1730308089,"current_range_meters":11600,"station_id":"ce4bho12rcd13ifvqh2g","pricing_plan_id":"cebpf4jnsgd1na2vs0mg"},{"bike_id":"84f320a3-1680-4735-8518-e24311afc7cd","system_id":"levelo_inurba_marseille","lat":43.30426,"lon":5.412889,"is_reserved":false,"is_disabled":false,"rental_uris":{"android":"levelo://app?vid=84f320a3-1680-4735-8518-e24311afc7cd","ios":"levelo://app?vid=84f320a3-1680-4735-8518-e24311afc7cd"},"vehicle_type_id":"4","last_reported":1730308089,"current_range_meters":38000,"station_id":"ce4bhop2rcd13ifvqh8g","pricing_plan_id":"cebpf4jnsgd1na2vs0mg"},{"bike_id":"ef7b6f97-1fa4-4994-891e-4ec6accaab10","system_id":"levelo_inurba_marseille","lat":43.31162,"lon":5.38724,"is_reserved":false,"is_disabled":false,"rental_uris":{"android":"levelo://app?vid=ef7b6f97-1fa4-4994-891e-4ec6accaab10","ios":"levelo://app?vid=ef7b6f97-1fa4-4994-891e-4ec6accaab10"},"vehicle_type_id":"4","last_reported":1730308089,"current_range_meters":7200,"station_id":"ce4bgv12rcd13ifvqcp0","pricing_plan_id":"cebpf4jnsgd1na2vs0mg"},{"bike_id":"12795c01-3a1c-483c-954f-6283275b7596","system_id":"levelo_inurba_marseille","lat":43.28697,"lon":5.37384,"is_reserved":false,"is_disabled":false,"rental_uris":{"android":"levelo://app?vid=12795c01-3a1c-483c-954f-6283275b7596","ios":"levelo://app?vid=12795c01-3a1c-483c-954f-6283275b7596"},"vehicle_type_id":"4","last_reported":1730308089,"current_range_meters":18000,"station_id":"ce4bh3p2rcd13ifvqdq0","pricing_plan_id":"cebpf4jnsgd1na2vs0mg"},{"bike_id":"b9ce3a66-581d-4523-88b3-3f4411bc9bec","system_id":"levelo_inurba_marseille","lat":43.28725,"lon":5.3804,"is_reserved":false,"is_disabled":false,"rental_uris":{"android":"levelo://app?vid=b9ce3a66-581d-4523-88b3-3f4411bc9bec","ios":"levelo://app?vid=b9ce3a66-581d-4523-88b3-3f4411bc9bec"},"vehicle_type_id":"4","last_reported":1730308089,"current_range_meters":30800,"station_id":"ce4bhap2rcd13ifvqek0","pricing_plan_id":"cebpf4jnsgd1na2vs0mg"},{"bike_id":"0f4bb216-ae62-44ef-bfbc-0690d837d681","system_id":"levelo_inurba_marseille","lat":43.28762,"lon":5.37483,"is_reserved":false,"is_disabled":false,"rental_uris":{"android":"levelo://app?vid=0f4bb216-ae62-44ef-bfbc-0690d837d681","ios":"levelo://app?vid=0f4bb216-ae62-44ef-bfbc-0690d837d681"},"vehicle_type_id":"4","last_reported":1730308089,"current_range_meters":24400,"station_id":"","pricing_plan_id":"cebpf4jnsgd1na2vs0mg"},{"bike_id":"b0b4d035-aca2-44d9-9728-938465e9333d","system_id":"levelo_inurba_marseille","lat":43.27945,"lon":5.41051,"is_reserved":false,"is_disabled":false,"rental_uris":{"android":"levelo://app?vid=b0b4d035-aca2-44d9-9728-938465e9333d","ios":"levelo://app?vid=b0b4d035-aca2-44d9-9728-938465e9333d"},"vehicle_type_id":"4","last_reported":1730308089,"current_range_meters":30000,"station_id":"ce4bhnp2rcd13ifvqh0g","pricing_plan_id":"cebpf4jnsgd1na2vs0mg"},{"bike_id":"6ca20d50-fd85-4c39-9e1e-5e417152c3d1","system_id":"levelo_inurba_marseille","lat":43.28452,"lon":5.35902,"is_reserved":false,"is_disabled":false,"rental_uris":{"android":"levelo://app?vid=6ca20d50-fd85-4c39-9e1e-5e417152c3d1","ios":"levelo://app?vid=6ca20d50-fd85-4c39-9e1e-5e417152c3d1"},"vehicle_type_id":"4","last_reported":1730308089,"current_range_meters":33600,"station_id":"ce4bhah2rcd13ifvqei0","pricing_plan_id":"cebpf4jnsgd1na2vs0mg"},{"bike_id":"de8a43e0-d2ec-4b51-a267-8ed09aa47edb","system_id":"levelo_inurba_marseille","lat":43.26566,"lon":5.37287,"is_reserved":false,"is_disabled":false,"rental_uris":{"android":"levelo://app?vid=de8a43e0-d2ec-4b51-a267-8ed09aa47edb","ios":"levelo://app?vid=de8a43e0-d2ec-4b51-a267-8ed09aa47edb"},"vehicle_type_id":"4","last_reported":1730308089,"current_range_meters":38800,"station_id":"ce4bhg12rcd13ifvqf70","pricing_plan_id":"cebpf4jnsgd1na2vs0mg"},{"bike_id":"4ad1a6a0-d939-49b5-b869-57801235a14f","system_id":"levelo_inurba_marseille","lat":43.23194,"lon":5.35561,"is_reserved":false,"is_disabled":false,"rental_uris":{"android":"levelo://app?vid=4ad1a6a0-d939-49b5-b869-57801235a14f","ios":"levelo://app?vid=4ad1a6a0-d939-49b5-b869-57801235a14f"},"vehicle_type_id":"4","last_reported":1730308089,"current_range_meters":37600,"station_id":"ce4bhu92rcd13ifvqi70","pricing_plan_id":"cebpf4jnsgd1na2vs0mg"},{"bike_id":"b55c79c6-cb86-4a49-b99f-dae8963d0dc6","system_id":"levelo_inurba_marseille","lat":43.28002,"lon":5.41653,"is_reserved":false,"is_disabled":false,"rental_uris":{"android":"levelo://app?vid=b55c79c6-cb86-4a49-b99f-dae8963d0dc6","ios":"levelo://app?vid=b55c79c6-cb86-4a49-b99f-dae8963d0dc6"},"vehicle_type_id":"4","last_reported":1730308089,"current_range_meters":36400,"station_id":"ce4bho12rcd13ifvqh1g","pricing_plan_id":"cebpf4jnsgd1na2vs0mg"},{"bike_id":"67240f91-3d2b-4ccf-9d87-7fc6661892bd","system_id":"levelo_inurba_marseille","lat":43.29874,"lon":5.39727,"is_reserved":false,"is_disabled":false,"rental_uris":{"android":"levelo://app?vid=67240f91-3d2b-4ccf-9d87-7fc6661892bd","ios":"levelo://app?vid=67240f91-3d2b-4ccf-9d87-7fc6661892bd"},"vehicle_type_id":"4","last_reported":1730308089,"current_range_meters":8000,"station_id":"ce4bh0h2rcd13ifvqd50","pricing_plan_id":"cebpf4jnsgd1na2vs0mg"},{"bike_id":"04fd21cc-fe11-4bc6-84bb-9a78f0f5b8a2","system_id":"levelo_inurba_marseille","lat":43.2583,"lon":5.39436,"is_reserved":false,"is_disabled":false,"rental_uris":{"android":"levelo://app?vid=04fd21cc-fe11-4bc6-84bb-9a78f0f5b8a2","ios":"levelo://app?vid=04fd21cc-fe11-4bc6-84bb-9a78f0f5b8a2"},"vehicle_type_id":"4","last_reported":1730308089,"current_range_meters":36800,"station_id":"ce4bhip2rcd13ifvqft0","pricing_plan_id":"cebpf4jnsgd1na2vs0mg"},{"bike_id":"4d8891d1-d505-4081-a1c0-9a5da3554397","system_id":"levelo_inurba_marseille","lat":43.2867,"lon":5.38662,"is_reserved":false,"is_disabled":false,"rental_uris":{"android":"levelo://app?vid=4d8891d1-d505-4081-a1c0-9a5da3554397","ios":"levelo://app?vid=4d8891d1-d505-4081-a1c0-9a5da3554397"},"vehicle_type_id":"4","last_reported":1730308089,"current_range_meters":38800,"station_id":"ce4bh492rcd13ifvqdug","pricing_plan_id":"cebpf4jnsgd1na2vs0mg"},{"bike_id":"0d4e0479-d8a2-45f2-91e0-dd87823320fe","system_id":"levelo_inurba_marseille","lat":43.33777,"lon":5.37469,"is_reserved":false,"is_disabled":false,"rental_uris":{"android":"levelo://app?vid=0d4e0479-d8a2-45f2-91e0-dd87823320fe","ios":"levelo://app?vid=0d4e0479-d8a2-45f2-91e0-dd87823320fe"},"vehicle_type_id":"4","last_reported":1730308089,"current_range_meters":34000,"station_id":"","pricing_plan_id":"cebpf4jnsgd1na2vs0mg"},{"bike_id":"0f86a94f-4744-4c49-afed-b8732ab4b3cc","system_id":"levelo_inurba_marseille","lat":43.33022,"lon":5.39039,"is_reserved":false,"is_disabled":false,"rental_uris":{"android":"levelo://app?vid=0f86a94f-4744-4c49-afed-b8732ab4b3cc","ios":"levelo://app?vid=0f86a94f-4744-4c49-afed-b8732ab4b3cc"},"vehicle_type_id":"4","last_reported":1730308089,"current_range_meters":12800,"station_id":"ce4bhr92rcd13ifvqhrg","pricing_plan_id":"cebpf4jnsgd1na2vs0mg"},{"bike_id":"47cc539e-dd2b-406d-9d73-84ccfecb4a32","system_id":"levelo_inurba_marseille","lat":43.24666,"lon":5.38168,"is_reserved":false,"is_disabled":false,"rental_uris":{"android":"levelo://app?vid=47cc539e-dd2b-406d-9d73-84ccfecb4a32","ios":"levelo://app?vid=47cc539e-dd2b-406d-9d73-84ccfecb4a32"},"vehicle_type_id":"4","last_reported":1730308089,"current_range_meters":11200,"station_id":"ce4bhih2rcd13ifvqfr0","pricing_plan_id":"cebpf4jnsgd1na2vs0mg"},{"bike_id":"660c60e2-57a6-443d-82d8-a4ca3957590f","system_id":"levelo_inurba_marseille","lat":43.303105,"lon":5.369122,"is_reserved":false,"is_disabled":false,"rental_uris":{"android":"levelo://app?vid=660c60e2-57a6-443d-82d8-a4ca3957590f","ios":"levelo://app?vid=660c60e2-57a6-443d-82d8-a4ca3957590f"},"vehicle_type_id":"4","last_reported":1730308089,"current_range_meters":12800,"station_id":"ce4bgqh2rcd13ifvqc5g","pricing_plan_id":"cebpf4jnsgd1na2vs0mg"},{"bike_id":"6bfbd9e8-1672-48a0-ba05-1eb8704cc135","system_id":"levelo_inurba_marseille","lat":43.29982,"lon":5.3718,"is_reserved":false,"is_disabled":false,"rental_uris":{"android":"levelo://app?vid=6bfbd9e8-1672-48a0-ba05-1eb8704cc135","ios":"levelo://app?vid=6bfbd9e8-1672-48a0-ba05-1eb8704cc135"},"vehicle_type_id":"4","last_reported":1730308089,"current_range_meters":37600,"station_id":"ce4bgr92rcd13ifvqc7g","pricing_plan_id":"cebpf4jnsgd1na2vs0mg"},{"bike_id":"2a882200-e950-4350-8573-5d6c9d4dcc39","system_id":"levelo_inurba_marseille","lat":43.23963,"lon":5.3664,"is_reserved":false,"is_disabled":false,"rental_uris":{"android":"levelo://app?vid=2a882200-e950-4350-8573-5d6c9d4dcc39","ios":"levelo://app?vid=2a882200-e950-4350-8573-5d6c9d4dcc39"},"vehicle_type_id":"4","last_reported":1730308089,"current_range_meters":39200,"station_id":"ce4bhi12rcd13ifvqfp0","pricing_plan_id":"cebpf4jnsgd1na2vs0mg"},{"bike_id":"f20f5b9c-89b9-4b26-8e9d-6a09ce204200","system_id":"levelo_inurba_marseille","lat":43.22925,"lon":5.35375,"is_reserved":false,"is_disabled":false,"rental_uris":{"android":"levelo://app?vid=f20f5b9c-89b9-4b26-8e9d-6a09ce204200","ios":"levelo://app?vid=f20f5b9c-89b9-4b26-8e9d-6a09ce204200"},"vehicle_type_id":"4","last_reported":1730308089,"current_range_meters":36800,"station_id":"cpo3532slgdg3j2ikp40","pricing_plan_id":"cebpf4jnsgd1na2vs0mg"},{"bike_id":"f8da475b-5a2d-4933-a442-891b3d1404ee","system_id":"levelo_inurba_marseille","lat":43.301363,"lon":5.387775,"is_reserved":false,"is_disabled":false,"rental_uris":{"android":"levelo://app?vid=f8da475b-5a2d-4933-a442-891b3d1404ee","ios":"levelo://app?vid=f8da475b-5a2d-4933-a442-891b3d1404ee"},"vehicle_type_id":"4","last_reported":1730308089,"current_range_meters":32000,"station_id":"ce4bghh2rcd13ifvqb60","pricing_plan_id":"cebpf4jnsgd1na2vs0mg"},{"bike_id":"71eb0b10-e331-4af4-aa5a-8aaa948345e5","system_id":"levelo_inurba_marseille","lat":43.296173,"lon":5.371757,"is_reserved":false,"is_disabled":false,"rental_uris":{"android":"levelo://app?vid=71eb0b10-e331-4af4-aa5a-8aaa948345e5","ios":"levelo://app?vid=71eb0b10-e331-4af4-aa5a-8aaa948345e5"},"vehicle_type_id":"4","last_reported":1730308089,"current_range_meters":35200,"station_id":"ce4bgnh2rcd13ifvqc0g","pricing_plan_id":"cebpf4jnsgd1na2vs0mg"},{"bike_id":"165828b1-d06e-4b70-b3a7-636ec8e9ee04","system_id":"levelo_inurba_marseille","lat":43.24166,"lon":5.36401,"is_reserved":false,"is_disabled":false,"rental_uris":{"android":"levelo://app?vid=165828b1-d06e-4b70-b3a7-636ec8e9ee04","ios":"levelo://app?vid=165828b1-d06e-4b70-b3a7-636ec8e9ee04"},"vehicle_type_id":"4","last_reported":1730308089,"current_range_meters":37600,"station_id":"cpo36qri1sfpv3e86is0","pricing_plan_id":"cebpf4jnsgd1na2vs0mg"},{"bike_id":"b641048b-295c-41c1-8a1c-b4f787bc39b8","system_id":"levelo_inurba_marseille","lat":43.31086,"lon":5.42429,"is_reserved":false,"is_disabled":false,"rental_uris":{"android":"levelo://app?vid=b641048b-295c-41c1-8a1c-b4f787bc39b8","ios":"levelo://app?vid=b641048b-295c-41c1-8a1c-b4f787bc39b8"},"vehicle_type_id":"4","last_reported":1730308089,"current_range_meters":38800,"station_id":"ce4bhp92rcd13ifvqhag","pricing_plan_id":"cebpf4jnsgd1na2vs0mg"},{"bike_id":"d2f37ed3-a66e-482d-8dd4-ca3bd90ab517","system_id":"levelo_inurba_marseille","lat":43.304069,"lon":5.399877,"is_reserved":false,"is_disabled":false,"rental_uris":{"android":"levelo://app?vid=d2f37ed3-a66e-482d-8dd4-ca3bd90ab517","ios":"levelo://app?vid=d2f37ed3-a66e-482d-8dd4-ca3bd90ab517"},"vehicle_type_id":"4","last_reported":1730308089,"current_range_meters":28800,"station_id":"ce4bgjh2rcd13ifvqbg0","pricing_plan_id":"cebpf4jnsgd1na2vs0mg"},{"bike_id":"6a7bf69e-e48c-4311-99d1-0f0894999a5f","system_id":"levelo_inurba_marseille","lat":43.27815,"lon":5.40715,"is_reserved":false,"is_disabled":false,"rental_uris":{"android":"levelo://app?vid=6a7bf69e-e48c-4311-99d1-0f0894999a5f","ios":"levelo://app?vid=6a7bf69e-e48c-4311-99d1-0f0894999a5f"},"vehicle_type_id":"4","last_reported":1730308089,"current_range_meters":10000,"station_id":"ce4bhnh2rcd13ifvqgtg","pricing_plan_id":"cebpf4jnsgd1na2vs0mg"},{"bike_id":"7ee950e2-91a3-4f53-96b1-28a101105661","system_id":"levelo_inurba_marseille","lat":43.273807,"lon":5.362619,"is_reserved":false,"is_disabled":false,"rental_uris":{"android":"levelo://app?vid=7ee950e2-91a3-4f53-96b1-28a101105661","ios":"levelo://app?vid=7ee950e2-91a3-4f53-96b1-28a101105661"},"vehicle_type_id":"4","last_reported":1730308089,"current_range_meters":6000,"station_id":"ce4bhhh2rcd13ifvqfl0","pricing_plan_id":"cebpf4jnsgd1na2vs0mg"},{"bike_id":"feece552-1b97-45c5-8d1c-7ef7200ce1ec","system_id":"levelo_inurba_marseille","lat":43.30797,"lon":5.43529,"is_reserved":false,"is_disabled":false,"rental_uris":{"android":"levelo://app?vid=feece552-1b97-45c5-8d1c-7ef7200ce1ec","ios":"levelo://app?vid=feece552-1b97-45c5-8d1c-7ef7200ce1ec"},"vehicle_type_id":"4","last_reported":1730308089,"current_range_meters":30800,"station_id":"ce4bhph2rcd13ifvqheg","pricing_plan_id":"cebpf4jnsgd1na2vs0mg"},{"bike_id":"cf89086b-9f0f-4428-a2f2-1ec25d5e90a8","system_id":"levelo_inurba_marseille","lat":43.2928,"lon":5.36849,"is_reserved":false,"is_disabled":false,"rental_uris":{"android":"levelo://app?vid=cf89086b-9f0f-4428-a2f2-1ec25d5e90a8","ios":"levelo://app?vid=cf89086b-9f0f-4428-a2f2-1ec25d5e90a8"},"vehicle_type_id":"4","last_reported":1730308089,"current_range_meters":34000,"station_id":"ce4bhbp2rcd13ifvqesg","pricing_plan_id":"cebpf4jnsgd1na2vs0mg"},{"bike_id":"b5eefd57-56bd-40e7-bd70-89a5925881e4","system_id":"levelo_inurba_marseille","lat":43.29444,"lon":5.39758,"is_reserved":false,"is_disabled":false,"rental_uris":{"android":"levelo://app?vid=b5eefd57-56bd-40e7-bd70-89a5925881e4","ios":"levelo://app?vid=b5eefd57-56bd-40e7-bd70-89a5925881e4"},"vehicle_type_id":"4","last_reported":1730308089,"current_range_meters":24400,"station_id":"ce4bh3h2rcd13ifvqdo0","pricing_plan_id":"cebpf4jnsgd1na2vs0mg"},{"bike_id":"be290d4e-1868-416a-b0ff-f43bed3f683b","system_id":"levelo_inurba_marseille","lat":43.29266,"lon":5.38443,"is_reserved":false,"is_disabled":false,"rental_uris":{"android":"levelo://app?vid=be290d4e-1868-416a-b0ff-f43bed3f683b","ios":"levelo://app?vid=be290d4e-1868-416a-b0ff-f43bed3f683b"},"vehicle_type_id":"4","last_reported":1730308089,"current_range_meters":18000,"station_id":"ce4bh692rcd13ifvqea0","pricing_plan_id":"cebpf4jnsgd1na2vs0mg"},{"bike_id":"eaab9327-0ca4-46f7-abbb-79e78a2152bd","system_id":"levelo_inurba_marseille","lat":43.24167,"lon":5.36391,"is_reserved":false,"is_disabled":false,"rental_uris":{"android":"levelo://app?vid=eaab9327-0ca4-46f7-abbb-79e78a2152bd","ios":"levelo://app?vid=eaab9327-0ca4-46f7-abbb-79e78a2152bd"},"vehicle_type_id":"4","last_reported":1730308089,"current_range_meters":28400,"station_id":"cpo36qri1sfpv3e86is0","pricing_plan_id":"cebpf4jnsgd1na2vs0mg"},{"bike_id":"9aa9ee20-160a-4d53-a731-ca252b62fdb0","system_id":"levelo_inurba_marseille","lat":43.3065,"lon":5.40096,"is_reserved":false,"is_disabled":false,"rental_uris":{"android":"levelo://app?vid=9aa9ee20-160a-4d53-a731-ca252b62fdb0","ios":"levelo://app?vid=9aa9ee20-160a-4d53-a731-ca252b62fdb0"},"vehicle_type_id":"4","last_reported":1730308089,"current_range_meters":2800,"station_id":"ce4bh112rcd13ifvqda0","pricing_plan_id":"cebpf4jnsgd1na2vs0mg"},{"bike_id":"cfd658e2-ea5d-4a7f-b3ec-9743b1b66ad7","system_id":"levelo_inurba_marseille","lat":43.298492,"lon":5.362961,"is_reserved":false,"is_disabled":false,"rental_uris":{"android":"levelo://app?vid=cfd658e2-ea5d-4a7f-b3ec-9743b1b66ad7","ios":"levelo://app?vid=cfd658e2-ea5d-4a7f-b3ec-9743b1b66ad7"},"vehicle_type_id":"4","last_reported":1730308089,"current_range_meters":28800,"station_id":"ce4bhr92rcd13ifvqhrg","pricing_plan_id":"cebpf4jnsgd1na2vs0mg"},{"bike_id":"741f426f-0155-4430-9dba-322edc983a6c","system_id":"levelo_inurba_marseille","lat":43.2988,"lon":5.38898,"is_reserved":false,"is_disabled":false,"rental_uris":{"android":"levelo://app?vid=741f426f-0155-4430-9dba-322edc983a6c","ios":"levelo://app?vid=741f426f-0155-4430-9dba-322edc983a6c"},"vehicle_type_id":"4","last_reported":1730308089,"current_range_meters":10000,"station_id":"ce4bh392rcd13ifvqdl0","pricing_plan_id":"cebpf4jnsgd1na2vs0mg"},{"bike_id":"40f38d3d-06c8-4a71-abf7-63558b3be6d1","system_id":"levelo_inurba_marseille","lat":43.31084,"lon":5.42431,"is_reserved":false,"is_disabled":false,"rental_uris":{"android":"levelo://app?vid=40f38d3d-06c8-4a71-abf7-63558b3be6d1","ios":"levelo://app?vid=40f38d3d-06c8-4a71-abf7-63558b3be6d1"},"vehicle_type_id":"4","last_reported":1730308089,"current_range_meters":38800,"station_id":"ce4bhp92rcd13ifvqhag","pricing_plan_id":"cebpf4jnsgd1na2vs0mg"},{"bike_id":"acbfa862-37f6-44cb-a274-76ea077723a0","system_id":"levelo_inurba_marseille","lat":43.30171,"lon":5.3708,"is_reserved":false,"is_disabled":false,"rental_uris":{"android":"levelo://app?vid=acbfa862-37f6-44cb-a274-76ea077723a0","ios":"levelo://app?vid=acbfa862-37f6-44cb-a274-76ea077723a0"},"vehicle_type_id":"4","last_reported":1730308089,"current_range_meters":28800,"station_id":"ce4bgop2rcd13ifvqc1g","pricing_plan_id":"cebpf4jnsgd1na2vs0mg"},{"bike_id":"377448d2-30a6-4cf9-b60c-a1370fb7518f","system_id":"levelo_inurba_marseille","lat":43.23064,"lon":5.35497,"is_reserved":false,"is_disabled":false,"rental_uris":{"android":"levelo://app?vid=377448d2-30a6-4cf9-b60c-a1370fb7518f","ios":"levelo://app?vid=377448d2-30a6-4cf9-b60c-a1370fb7518f"},"vehicle_type_id":"4","last_reported":1730308089,"current_range_meters":38800,"station_id":"cpo3342slgdg3j2ifvpg","pricing_plan_id":"cebpf4jnsgd1na2vs0mg"},{"bike_id":"22720719-d4d3-40d5-99a2-f70ea808725c","system_id":"levelo_inurba_marseille","lat":43.28704,"lon":5.37396,"is_reserved":false,"is_disabled":false,"rental_uris":{"android":"levelo://app?vid=22720719-d4d3-40d5-99a2-f70ea808725c","ios":"levelo://app?vid=22720719-d4d3-40d5-99a2-f70ea808725c"},"vehicle_type_id":"4","last_reported":1730308089,"current_range_meters":39200,"station_id":"ce4bh3p2rcd13ifvqdq0","pricing_plan_id":"cebpf4jnsgd1na2vs0mg"},{"bike_id":"ccc3ddb5-d6df-40f6-81ab-f895d3a06831","system_id":"levelo_inurba_marseille","lat":43.23063,"lon":5.35497,"is_reserved":false,"is_disabled":false,"rental_uris":{"android":"levelo://app?vid=ccc3ddb5-d6df-40f6-81ab-f895d3a06831","ios":"levelo://app?vid=ccc3ddb5-d6df-40f6-81ab-f895d3a06831"},"vehicle_type_id":"4","last_reported":1730308089,"current_range_meters":11600,"station_id":"cpo3342slgdg3j2ifvpg","pricing_plan_id":"cebpf4jnsgd1na2vs0mg"},{"bike_id":"59271ab6-aab2-4687-9c1a-5ee793093d8e","system_id":"levelo_inurba_marseille","lat":43.30535,"lon":5.36714,"is_reserved":false,"is_disabled":false,"rental_uris":{"android":"levelo://app?vid=59271ab6-aab2-4687-9c1a-5ee793093d8e","ios":"levelo://app?vid=59271ab6-aab2-4687-9c1a-5ee793093d8e"},"vehicle_type_id":"4","last_reported":1730308089,"current_range_meters":38800,"station_id":"ce4bgrp2rcd13ifvqc9g","pricing_plan_id":"cebpf4jnsgd1na2vs0mg"},{"bike_id":"f83c915f-7bc4-4196-9097-0a09fd61fe73","system_id":"levelo_inurba_marseille","lat":43.24389,"lon":5.37053,"is_reserved":false,"is_disabled":false,"rental_uris":{"android":"levelo://app?vid=f83c915f-7bc4-4196-9097-0a09fd61fe73","ios":"levelo://app?vid=f83c915f-7bc4-4196-9097-0a09fd61fe73"},"vehicle_type_id":"4","last_reported":1730308089,"current_range_meters":40000,"station_id":"ce4bhhh2rcd13ifvqfk0","pricing_plan_id":"cebpf4jnsgd1na2vs0mg"},{"bike_id":"ec4e2674-9a3c-47d5-b548-983e893e15c5","system_id":"levelo_inurba_marseille","lat":43.30301,"lon":5.39213,"is_reserved":false,"is_disabled":false,"rental_uris":{"android":"levelo://app?vid=ec4e2674-9a3c-47d5-b548-983e893e15c5","ios":"levelo://app?vid=ec4e2674-9a3c-47d5-b548-983e893e15c5"},"vehicle_type_id":"4","last_reported":1730308089,"current_range_meters":28400,"station_id":"ce4bgkh2rcd13ifvqbk0","pricing_plan_id":"cebpf4jnsgd1na2vs0mg"},{"bike_id":"bb0a030c-ef81-46db-aeef-c78259525bd2","system_id":"levelo_inurba_marseille","lat":43.2737,"lon":5.3627,"is_reserved":false,"is_disabled":false,"rental_uris":{"android":"levelo://app?vid=bb0a030c-ef81-46db-aeef-c78259525bd2","ios":"levelo://app?vid=bb0a030c-ef81-46db-aeef-c78259525bd2"},"vehicle_type_id":"4","last_reported":1730308089,"current_range_meters":37600,"station_id":"ce4bhbh2rcd13ifvqeo0","pricing_plan_id":"cebpf4jnsgd1na2vs0mg"},{"bike_id":"7f6dc26a-0439-4aa8-bbe2-7474be7550e5","system_id":"levelo_inurba_marseille","lat":43.30355,"lon":5.41878,"is_reserved":false,"is_disabled":false,"rental_uris":{"android":"levelo://app?vid=7f6dc26a-0439-4aa8-bbe2-7474be7550e5","ios":"levelo://app?vid=7f6dc26a-0439-4aa8-bbe2-7474be7550e5"},"vehicle_type_id":"4","last_reported":1730308089,"current_range_meters":8000,"station_id":"ce4bhop2rcd13ifvqh7g","pricing_plan_id":"cebpf4jnsgd1na2vs0mg"},{"bike_id":"53d022cd-86a2-4dde-90aa-b3be6534d9a1","system_id":"levelo_inurba_marseille","lat":43.32338,"lon":5.40622,"is_reserved":false,"is_disabled":false,"rental_uris":{"android":"levelo://app?vid=53d022cd-86a2-4dde-90aa-b3be6534d9a1","ios":"levelo://app?vid=53d022cd-86a2-4dde-90aa-b3be6534d9a1"},"vehicle_type_id":"4","last_reported":1730308089,"current_range_meters":18800,"station_id":"ce4bhq92rcd13ifvqhjg","pricing_plan_id":"cebpf4jnsgd1na2vs0mg"},{"bike_id":"9f6f409d-613b-439a-9402-00d760f3d1b3","system_id":"levelo_inurba_marseille","lat":43.23964,"lon":5.36635,"is_reserved":false,"is_disabled":false,"rental_uris":{"android":"levelo://app?vid=9f6f409d-613b-439a-9402-00d760f3d1b3","ios":"levelo://app?vid=9f6f409d-613b-439a-9402-00d760f3d1b3"},"vehicle_type_id":"4","last_reported":1730308089,"current_range_meters":40000,"station_id":"ce4bhi12rcd13ifvqfp0","pricing_plan_id":"cebpf4jnsgd1na2vs0mg"},{"bike_id":"264d5e4e-911f-4430-b892-a501c42db2ac","system_id":"levelo_inurba_marseille","lat":43.29617,"lon":5.37714,"is_reserved":false,"is_disabled":false,"rental_uris":{"android":"levelo://app?vid=264d5e4e-911f-4430-b892-a501c42db2ac","ios":"levelo://app?vid=264d5e4e-911f-4430-b892-a501c42db2ac"},"vehicle_type_id":"4","last_reported":1730308089,"current_range_meters":2800,"station_id":"ce4bgi92rcd13ifvqb90","pricing_plan_id":"cebpf4jnsgd1na2vs0mg"},{"bike_id":"1cb3bf62-f74b-42ff-b803-c130f36bad2a","system_id":"levelo_inurba_marseille","lat":43.270729,"lon":5.422811,"is_reserved":false,"is_disabled":false,"rental_uris":{"android":"levelo://app?vid=1cb3bf62-f74b-42ff-b803-c130f36bad2a","ios":"levelo://app?vid=1cb3bf62-f74b-42ff-b803-c130f36bad2a"},"vehicle_type_id":"4","last_reported":1730308089,"current_range_meters":10800,"station_id":"ce4bhk92rcd13ifvqgb0","pricing_plan_id":"cebpf4jnsgd1na2vs0mg"},{"bike_id":"954495f4-a3d3-4cea-a5e6-6f26fac8f43e","system_id":"levelo_inurba_marseille","lat":43.301612,"lon":5.383638,"is_reserved":false,"is_disabled":false,"rental_uris":{"android":"levelo://app?vid=954495f4-a3d3-4cea-a5e6-6f26fac8f43e","ios":"levelo://app?vid=954495f4-a3d3-4cea-a5e6-6f26fac8f43e"},"vehicle_type_id":"4","last_reported":1730308089,"current_range_meters":36800,"station_id":"ce4bgv12rcd13ifvqcp0","pricing_plan_id":"cebpf4jnsgd1na2vs0mg"},{"bike_id":"2da43f3d-691d-4d79-a809-b70c6e06c318","system_id":"levelo_inurba_marseille","lat":43.28033,"lon":5.36952,"is_reserved":false,"is_disabled":false,"rental_uris":{"android":"levelo://app?vid=2da43f3d-691d-4d79-a809-b70c6e06c318","ios":"levelo://app?vid=2da43f3d-691d-4d79-a809-b70c6e06c318"},"vehicle_type_id":"4","last_reported":1730308089,"current_range_meters":32400,"station_id":"ce4bha12rcd13ifvqef0","pricing_plan_id":"cebpf4jnsgd1na2vs0mg"},{"bike_id":"460f31aa-59b5-479f-8a4d-d99c62fcad2c","system_id":"levelo_inurba_marseille","lat":43.28658,"lon":5.36359,"is_reserved":false,"is_disabled":false,"rental_uris":{"android":"levelo://app?vid=460f31aa-59b5-479f-8a4d-d99c62fcad2c","ios":"levelo://app?vid=460f31aa-59b5-479f-8a4d-d99c62fcad2c"},"vehicle_type_id":"4","last_reported":1730308089,"current_range_meters":39200,"station_id":"ce4bhah2rcd13ifvqej0","pricing_plan_id":"cebpf4jnsgd1na2vs0mg"},{"bike_id":"d05a4f4a-4a65-4a21-b38b-8512223be39a","system_id":"levelo_inurba_marseille","lat":43.33752,"lon":5.37473,"is_reserved":false,"is_disabled":false,"rental_uris":{"android":"levelo://app?vid=d05a4f4a-4a65-4a21-b38b-8512223be39a","ios":"levelo://app?vid=d05a4f4a-4a65-4a21-b38b-8512223be39a"},"vehicle_type_id":"4","last_reported":1730308089,"current_range_meters":33600,"station_id":"","pricing_plan_id":"cebpf4jnsgd1na2vs0mg"},{"bike_id":"63c2d6eb-2688-48d4-81c1-14f04540d5b1","system_id":"levelo_inurba_marseille","lat":43.23182,"lon":5.39986,"is_reserved":false,"is_disabled":false,"rental_uris":{"android":"levelo://app?vid=63c2d6eb-2688-48d4-81c1-14f04540d5b1","ios":"levelo://app?vid=63c2d6eb-2688-48d4-81c1-14f04540d5b1"},"vehicle_type_id":"4","last_reported":1730308089,"current_range_meters":24800,"station_id":"ce4bhn12rcd13ifvqgqg","pricing_plan_id":"cebpf4jnsgd1na2vs0mg"},{"bike_id":"d043aec7-9007-4061-9459-fcf23a05fc88","system_id":"levelo_inurba_marseille","lat":43.28156,"lon":5.42647,"is_reserved":false,"is_disabled":false,"rental_uris":{"android":"levelo://app?vid=d043aec7-9007-4061-9459-fcf23a05fc88","ios":"levelo://app?vid=d043aec7-9007-4061-9459-fcf23a05fc88"},"vehicle_type_id":"4","last_reported":1730308089,"current_range_meters":16400,"station_id":"ce4bhnh2rcd13ifvqgug","pricing_plan_id":"cebpf4jnsgd1na2vs0mg"},{"bike_id":"6ce5653d-14e2-4605-8f7e-d52d8118419a","system_id":"levelo_inurba_marseille","lat":43.28614,"lon":5.38216,"is_reserved":false,"is_disabled":false,"rental_uris":{"android":"levelo://app?vid=6ce5653d-14e2-4605-8f7e-d52d8118419a","ios":"levelo://app?vid=6ce5653d-14e2-4605-8f7e-d52d8118419a"},"vehicle_type_id":"4","last_reported":1730308089,"current_range_meters":7200,"station_id":"","pricing_plan_id":"cebpf4jnsgd1na2vs0mg"},{"bike_id":"1c9a2c8f-db6a-472c-bb3f-786aa60cd48b","system_id":"levelo_inurba_marseille","lat":43.25831,"lon":5.39428,"is_reserved":false,"is_disabled":false,"rental_uris":{"android":"levelo://app?vid=1c9a2c8f-db6a-472c-bb3f-786aa60cd48b","ios":"levelo://app?vid=1c9a2c8f-db6a-472c-bb3f-786aa60cd48b"},"vehicle_type_id":"4","last_reported":1730308089,"current_range_meters":16800,"station_id":"ce4bhip2rcd13ifvqft0","pricing_plan_id":"cebpf4jnsgd1na2vs0mg"},{"bike_id":"9fe61944-add9-4a36-bdb1-be8b7a9e1911","system_id":"levelo_inurba_marseille","lat":43.3079,"lon":5.37644,"is_reserved":false,"is_disabled":false,"rental_uris":{"android":"levelo://app?vid=9fe61944-add9-4a36-bdb1-be8b7a9e1911","ios":"levelo://app?vid=9fe61944-add9-4a36-bdb1-be8b7a9e1911"},"vehicle_type_id":"4","last_reported":1730308089,"current_range_meters":12000,"station_id":"ce4bgv92rcd13ifvqcq0","pricing_plan_id":"cebpf4jnsgd1na2vs0mg"},{"bike_id":"0e4f332d-2127-423e-b603-4613d51d907a","system_id":"levelo_inurba_marseille","lat":43.2319,"lon":5.35552,"is_reserved":false,"is_disabled":false,"rental_uris":{"android":"levelo://app?vid=0e4f332d-2127-423e-b603-4613d51d907a","ios":"levelo://app?vid=0e4f332d-2127-423e-b603-4613d51d907a"},"vehicle_type_id":"4","last_reported":1730308089,"current_range_meters":24400,"station_id":"ce4bhu92rcd13ifvqi70","pricing_plan_id":"cebpf4jnsgd1na2vs0mg"},{"bike_id":"dee77e92-861d-453e-b085-9511b66e2dcb","system_id":"levelo_inurba_marseille","lat":43.23965,"lon":5.36631,"is_reserved":false,"is_disabled":false,"rental_uris":{"android":"levelo://app?vid=dee77e92-861d-453e-b085-9511b66e2dcb","ios":"levelo://app?vid=dee77e92-861d-453e-b085-9511b66e2dcb"},"vehicle_type_id":"4","last_reported":1730308089,"current_range_meters":30400,"station_id":"ce4bhi12rcd13ifvqfp0","pricing_plan_id":"cebpf4jnsgd1na2vs0mg"},{"bike_id":"4cd3b85b-1262-4813-81b9-c2464b4f19cb","system_id":"levelo_inurba_marseille","lat":43.31488,"lon":5.37312,"is_reserved":false,"is_disabled":false,"rental_uris":{"android":"levelo://app?vid=4cd3b85b-1262-4813-81b9-c2464b4f19cb","ios":"levelo://app?vid=4cd3b85b-1262-4813-81b9-c2464b4f19cb"},"vehicle_type_id":"4","last_reported":1730308089,"current_range_meters":7200,"station_id":"ce4bgt12rcd13ifvqcd0","pricing_plan_id":"cebpf4jnsgd1na2vs0mg"},{"bike_id":"3b4b2aed-5ef4-4437-9e73-6fe3e09ac523","system_id":"levelo_inurba_marseille","lat":43.337605,"lon":5.374813,"is_reserved":false,"is_disabled":false,"rental_uris":{"android":"levelo://app?vid=3b4b2aed-5ef4-4437-9e73-6fe3e09ac523","ios":"levelo://app?vid=3b4b2aed-5ef4-4437-9e73-6fe3e09ac523"},"vehicle_type_id":"4","last_reported":1730308089,"current_range_meters":34800,"station_id":"","pricing_plan_id":"cebpf4jnsgd1na2vs0mg"},{"bike_id":"1cd5aacf-8ad3-4847-b38e-3ea94c984bbc","system_id":"levelo_inurba_marseille","lat":43.26212,"lon":5.37451,"is_reserved":false,"is_disabled":false,"rental_uris":{"android":"levelo://app?vid=1cd5aacf-8ad3-4847-b38e-3ea94c984bbc","ios":"levelo://app?vid=1cd5aacf-8ad3-4847-b38e-3ea94c984bbc"},"vehicle_type_id":"4","last_reported":1730308089,"current_range_meters":6400,"station_id":"ce4bhgp2rcd13ifvqfc0","pricing_plan_id":"cebpf4jnsgd1na2vs0mg"},{"bike_id":"5cd01e70-c63c-41c2-b9e8-f912b8531664","system_id":"levelo_inurba_marseille","lat":43.26216,"lon":5.37445,"is_reserved":false,"is_disabled":false,"rental_uris":{"android":"levelo://app?vid=5cd01e70-c63c-41c2-b9e8-f912b8531664","ios":"levelo://app?vid=5cd01e70-c63c-41c2-b9e8-f912b8531664"},"vehicle_type_id":"4","last_reported":1730308089,"current_range_meters":32400,"station_id":"ce4bhgp2rcd13ifvqfc0","pricing_plan_id":"cebpf4jnsgd1na2vs0mg"},{"bike_id":"65ef041e-d211-4852-a65c-a793688b15f7","system_id":"levelo_inurba_marseille","lat":43.27922,"lon":5.39594,"is_reserved":false,"is_disabled":false,"rental_uris":{"android":"levelo://app?vid=65ef041e-d211-4852-a65c-a793688b15f7","ios":"levelo://app?vid=65ef041e-d211-4852-a65c-a793688b15f7"},"vehicle_type_id":"4","last_reported":1730308089,"current_range_meters":18800,"station_id":"ce4bhf92rcd13ifvqf40","pricing_plan_id":"cebpf4jnsgd1na2vs0mg"},{"bike_id":"fa434ac1-0932-4c06-b1e4-55c78b614eed","system_id":"levelo_inurba_marseille","lat":43.30805,"lon":5.38159,"is_reserved":false,"is_disabled":false,"rental_uris":{"android":"levelo://app?vid=fa434ac1-0932-4c06-b1e4-55c78b614eed","ios":"levelo://app?vid=fa434ac1-0932-4c06-b1e4-55c78b614eed"},"vehicle_type_id":"4","last_reported":1730308089,"current_range_meters":28000,"station_id":"ce4bgt12rcd13ifvqce0","pricing_plan_id":"cebpf4jnsgd1na2vs0mg"},{"bike_id":"3ec30823-52d9-4d72-9bd1-e50df456e34d","system_id":"levelo_inurba_marseille","lat":43.23179,"lon":5.39994,"is_reserved":false,"is_disabled":false,"rental_uris":{"android":"levelo://app?vid=3ec30823-52d9-4d72-9bd1-e50df456e34d","ios":"levelo://app?vid=3ec30823-52d9-4d72-9bd1-e50df456e34d"},"vehicle_type_id":"4","last_reported":1730308089,"current_range_meters":16400,"station_id":"ce4bhn12rcd13ifvqgqg","pricing_plan_id":"cebpf4jnsgd1na2vs0mg"},{"bike_id":"b332d0ba-96bd-4861-b158-34fb11db212d","system_id":"levelo_inurba_marseille","lat":43.29165,"lon":5.37172,"is_reserved":false,"is_disabled":false,"rental_uris":{"android":"levelo://app?vid=b332d0ba-96bd-4861-b158-34fb11db212d","ios":"levelo://app?vid=b332d0ba-96bd-4861-b158-34fb11db212d"},"vehicle_type_id":"4","last_reported":1730308089,"current_range_meters":6800,"station_id":"ce4bha92rcd13ifvqeh0","pricing_plan_id":"cebpf4jnsgd1na2vs0mg"},{"bike_id":"a47cc535-4aff-4d9f-931e-aac6cd796a7b","system_id":"levelo_inurba_marseille","lat":43.27614,"lon":5.36106,"is_reserved":false,"is_disabled":false,"rental_uris":{"android":"levelo://app?vid=a47cc535-4aff-4d9f-931e-aac6cd796a7b","ios":"levelo://app?vid=a47cc535-4aff-4d9f-931e-aac6cd796a7b"},"vehicle_type_id":"4","last_reported":1730308089,"current_range_meters":3200,"station_id":"ce4bgj92rcd13ifvqbe0","pricing_plan_id":"cebpf4jnsgd1na2vs0mg"},{"bike_id":"e5e53f34-dab0-4b84-8f81-50a0fcdd7773","system_id":"levelo_inurba_marseille","lat":43.23059,"lon":5.35498,"is_reserved":false,"is_disabled":false,"rental_uris":{"android":"levelo://app?vid=e5e53f34-dab0-4b84-8f81-50a0fcdd7773","ios":"levelo://app?vid=e5e53f34-dab0-4b84-8f81-50a0fcdd7773"},"vehicle_type_id":"4","last_reported":1730308089,"current_range_meters":32000,"station_id":"cpo3342slgdg3j2ifvpg","pricing_plan_id":"cebpf4jnsgd1na2vs0mg"},{"bike_id":"0e9e7e00-2578-47cd-b2f1-3835de5a56e4","system_id":"levelo_inurba_marseille","lat":43.28976,"lon":5.37833,"is_reserved":false,"is_disabled":false,"rental_uris":{"android":"levelo://app?vid=0e9e7e00-2578-47cd-b2f1-3835de5a56e4","ios":"levelo://app?vid=0e9e7e00-2578-47cd-b2f1-3835de5a56e4"},"vehicle_type_id":"4","last_reported":1730308089,"current_range_meters":32800,"station_id":"ce4bh9p2rcd13ifvqed0","pricing_plan_id":"cebpf4jnsgd1na2vs0mg"},{"bike_id":"354d6cdf-1392-463c-a3b8-239d48f8a721","system_id":"levelo_inurba_marseille","lat":43.29864,"lon":5.39735,"is_reserved":false,"is_disabled":false,"rental_uris":{"android":"levelo://app?vid=354d6cdf-1392-463c-a3b8-239d48f8a721","ios":"levelo://app?vid=354d6cdf-1392-463c-a3b8-239d48f8a721"},"vehicle_type_id":"4","last_reported":1730308089,"current_range_meters":2000,"station_id":"ce4bh0h2rcd13ifvqd50","pricing_plan_id":"cebpf4jnsgd1na2vs0mg"},{"bike_id":"da151751-6704-4098-86ed-d90649c6bd6a","system_id":"levelo_inurba_marseille","lat":43.28418,"lon":5.37512,"is_reserved":false,"is_disabled":false,"rental_uris":{"android":"levelo://app?vid=da151751-6704-4098-86ed-d90649c6bd6a","ios":"levelo://app?vid=da151751-6704-4098-86ed-d90649c6bd6a"},"vehicle_type_id":"4","last_reported":1730308089,"current_range_meters":26000,"station_id":"ce4bh412rcd13ifvqds0","pricing_plan_id":"cebpf4jnsgd1na2vs0mg"},{"bike_id":"c2c4b2b9-60fc-4ba9-86e7-846164db1295","system_id":"levelo_inurba_marseille","lat":43.29047,"lon":5.38639,"is_reserved":false,"is_disabled":false,"rental_uris":{"android":"levelo://app?vid=c2c4b2b9-60fc-4ba9-86e7-846164db1295","ios":"levelo://app?vid=c2c4b2b9-60fc-4ba9-86e7-846164db1295"},"vehicle_type_id":"4","last_reported":1730308089,"current_range_meters":7200,"station_id":"ce4bh4p2rcd13ifvqe0g","pricing_plan_id":"cebpf4jnsgd1na2vs0mg"},