{"last_updated":1726243808,"ttl":30,"version":"2.2","data":{"bikes":[{"bike_id":"bc35aeaa-3e4d-43e6-9935-c8f1110a4b4c","system_id":"levelo_inurba_marseille","lat":43.30509,"lon":5.36701,"is_reserved":false,"is_disabled":false,"rental_uris":{"android":"levelo://app?vid=bc35aeaa-3e4d-43e6-9935-c8f1110a4b4c","ios":"levelo://app?vid=bc35aeaa-3e4d-43e6-9935-c8f1110a4b4c"},"vehicle_type_id":"4","last_reported":1726243808,"current_range_meters":36800,"station_id":"ce4bgrp2rcd13ifvqc9g","pricing_plan_id":"cebpf4jnsgd1na2vs0mg"},{"bike_id":"2ca2fd52-6283-4397-ac7e-8db28b0c8f78","system_id":"levelo_inurba_marseille","lat":43.23196,"lon":5.35555,"is_reserved":false,"is_disabled":false,"rental_uris":{"android":"levelo://app?vid=2ca2fd52-6283-4397-ac7e-8db28b0c8f78","ios":"levelo://app?vid=2ca2fd52-6283-4397-ac7e-8db28b0c8f78"},"vehicle_type_id":"4","last_reported":1726243808,"current_range_meters":10800,"station_id":"ce4bhu92rcd13ifvqi70","pricing_plan_id":"cebpf4jnsgd1na2vs0mg"},{"bike_id":"df7edb97-2a32-471d-9c43-e73e5f6f871c","system_id":"levelo_inurba_marseille","lat":43.32355,"lon":5.38881,"is_reserved":false,"is_disabled":false,"rental_uris":{"android":"levelo://app?vid=df7edb97-2a32-471d-9c43-e73e5f6f871c","ios":"levelo://app?vid=df7edb97-2a32-471d-9c43-e73e5f6f871c"},"vehicle_type_id":"4","last_reported":1726243808,"current_range_meters":16400,"station_id":"ce4bhqp2rcd13ifvqhog","pricing_plan_id":"cebpf4jnsgd1na2vs0mg"},{"bike_id":"1433cc86-19c5-4d38-a0b5-c5c087739e0a","system_id":"levelo_inurba_marseille","lat":43.22932,"lon":5.35374,"is_reserved":false,"is_disabled":false,"rental_uris":{"android":"levelo://app?vid=1433cc86-19c5-4d38-a0b5-c5c087739e0a","ios":"levelo://app?vid=1433cc86-19c5-4d38-a0b5-c5c087739e0a"},"vehicle_type_id":"4","last_reported":1726243808,"current_range_meters":30000,"station_id":"cpo3532slgdg3j2ikp40","pricing_plan_id":"cebpf4jnsgd1na2vs0mg"},{"bike_id":"89b58a37-f0b7-4143-98d4-2bda37126b7b","system_id":"levelo_inurba_marseille","lat":43.26492,"lon":5.39539,"is_reserved":false,"is_disabled":false,"rental_uris":{"android":"levelo://app?vid=89b58a37-f0b7-4143-98d4-2bda37126b7b","ios":"levelo://app?vid=89b58a37-f0b7-4143-98d4-2bda37126b7b"},"vehicle_type_id":"4","last_reported":1726243808,"current_range_meters":3200,"station_id":"ce4bhi12rcd13ifvqfq0","pricing_plan_id":"cebpf4jnsgd1na2vs0mg"},{"bike_id":"ddb23d70-5273-4df6-abcb-1dc17a0f69d1","system_id":"levelo_inurba_marseille","lat":43.31764,"lon":5.39015,"is_reserved":false,"is_disabled":false,"rental_uris":{"android":"levelo://app?vid=ddb23d70-5273-4df6-abcb-1dc17a0f69d1","ios":"levelo://app?vid=ddb23d70-5273-4df6-abcb-1dc17a0f69d1"},"vehicle_type_id":"4","last_reported":1726243808,"current_range_meters":36400,"station_id":"ce4bhqp2rcd13ifvqhng","pricing_plan_id":"cebpf4jnsgd1na2vs0mg"},{"bike_id":"083984dd-1abd-4a7d-84c6-e8ceb7b63abe","system_id":"levelo_inurba_marseille","lat":43.31116,"lon":5.37761,"is_reserved":false,"is_disabled":false,"rental_uris":{"android":"levelo://app?vid=083984dd-1abd-4a7d-84c6-e8ceb7b63abe","ios":"levelo://app?vid=083984dd-1abd-4a7d-84c6-e8ceb7b63abe"},"vehicle_type_id":"4","last_reported":1726243808,"current_range_meters":37600,"station_id":"ce4bgt92rcd13ifvqcg0","pricing_plan_id":"cebpf4jnsgd1na2vs0mg"},{"bike_id":"f2aab370-6e0a-414f-a9aa-b82870be9ba4","system_id":"levelo_inurba_marseille","lat":43.2861,"lon":5.35101,"is_reserved":false,"is_disabled":false,"rental_uris":{"android":"levelo://app?vid=f2aab370-6e0a-414f-a9aa-b82870be9ba4","ios":"levelo://app?vid=f2aab370-6e0a-414f-a9aa-b82870be9ba4"},"vehicle_type_id":"4","last_reported":1726243808,"current_range_meters":22000,"station_id":"ce4bhch2rcd13ifvqeug","pricing_plan_id":"cebpf4jnsgd1na2vs0mg"},{"bike_id":"c5ed8bab-12e3-4101-81bb-39350c57310d","system_id":"levelo_inurba_marseille","lat":43.24166,"lon":5.364,"is_reserved":false,"is_disabled":false,"rental_uris":{"android":"levelo://app?vid=c5ed8bab-12e3-4101-81bb-39350c57310d","ios":"levelo://app?vid=c5ed8bab-12e3-4101-81bb-39350c57310d"},"vehicle_type_id":"4","last_reported":1726243808,"current_range_meters":4000,"station_id":"cpo36qri1sfpv3e86is0","pricing_plan_id":"cebpf4jnsgd1na2vs0mg"},{"bike_id":"ef1b8045-2f0a-4d86-bf74-93821aeeb0e7","system_id":"levelo_inurba_marseille","lat":43.31761,"lon":5.39016,"is_reserved":false,"is_disabled":false,"rental_uris":{"android":"levelo://app?vid=ef1b8045-2f0a-4d86-bf74-93821aeeb0e7","ios":"levelo://app?vid=ef1b8045-2f0a-4d86-bf74-93821aeeb0e7"},"vehicle_type_id":"4","last_reported":1726243808,"current_range_meters":37600,"station_id":"ce4bhqp2rcd13ifvqhng","pricing_plan_id":"cebpf4jnsgd1na2vs0mg"},{"bike_id":"f45d9413-9a73-47f2-a10e-0dc762623601","system_id":"levelo_inurba_marseille","lat":43.23152,"lon":5.43703,"is_reserved":false,"is_disabled":false,"rental_uris":{"android":"levelo://app?vid=f45d9413-9a73-47f2-a10e-0dc762623601","ios":"levelo://app?vid=f45d9413-9a73-47f2-a10e-0dc762623601"},"vehicle_type_id":"4","last_reported":1726243808,"current_range_meters":38800,"station_id":"ce4bhmp2rcd13ifvqgog","pricing_plan_id":"cebpf4jnsgd1na2vs0mg"},{"bike_id":"fb9dbfe1-01d0-400a-aab3-c465c4c7ed0b","system_id":"levelo_inurba_marseille","lat":43.31166,"lon":5.38726,"is_reserved":false,"is_disabled":false,"rental_uris":{"android":"levelo://app?vid=fb9dbfe1-01d0-400a-aab3-c465c4c7ed0b","ios":"levelo://app?vid=fb9dbfe1-01d0-400a-aab3-c465c4c7ed0b"},"vehicle_type_id":"4","last_reported":1726243808,"current_range_meters":27200,"station_id":"ce4bgv12rcd13ifvqcp0","pricing_plan_id":"cebpf4jnsgd1na2vs0mg"},{"bike_id":"574ce4d8-388f-4488-82af-da9719f73d6a","system_id":"levelo_inurba_marseille","lat":43.292303,"lon":5.408654,"is_reserved":false,"is_disabled":false,"rental_uris":{"android":"levelo://app?vid=574ce4d8-388f-4488-82af-da9719f73d6a","ios":"levelo://app?vid=574ce4d8-388f-4488-82af-da9719f73d6a"},"vehicle_type_id":"4","last_reported":1726243808,"current_range_meters":24000,"station_id":"ce4bh192rcd13ifvqdc0","pricing_plan_id":"cebpf4jnsgd1na2vs0mg"},{"bike_id":"13ec4916-f0ea-4897-8afc-596425b42c42","system_id":"levelo_inurba_marseille","lat":43.23191,"lon":5.35553,"is_reserved":false,"is_disabled":false,"rental_uris":{"android":"levelo://app?vid=13ec4916-f0ea-4897-8afc-596425b42c42","ios":"levelo://app?vid=13ec4916-f0ea-4897-8afc-596425b42c42"},"vehicle_type_id":"4","last_reported":1726243808,"current_range_meters":30800,"station_id":"ce4bhu92rcd13ifvqi70","pricing_plan_id":"cebpf4jnsgd1na2vs0mg"},{"bike_id":"00bde258-4aa5-4b01-8574-6fe44a8f875f","system_id":"levelo_inurba_marseille","lat":43.28615,"lon":5.35106,"is_reserved":false,"is_disabled":false,"rental_uris":{"android":"levelo://app?vid=00bde258-4aa5-4b01-8574-6fe44a8f875f","ios":"levelo://app?vid=00bde258-4aa5-4b01-8574-6fe44a8f875f"},"vehicle_type_id":"4","last_reported":1726243808,"current_range_meters":12400,"station_id":"ce4bhch2rcd13ifvqeug","pricing_plan_id":"cebpf4jnsgd1na2vs0mg"},{"bike_id":"2f382ca5-a810-4d77-9bef-79969b8ce95a","system_id":"levelo_inurba_marseille","lat":43.24663,"lon":5.38159,"is_reserved":false,"is_disabled":false,"rental_uris":{"android":"levelo://app?vid=2f382ca5-a810-4d77-9bef-79969b8ce95a","ios":"levelo://app?vid=2f382ca5-a810-4d77-9bef-79969b8ce95a"},"vehicle_type_id":"4","last_reported":1726243808,"current_range_meters":38000,"station_id":"ce4bhih2rcd13ifvqfr0","pricing_plan_id":"cebpf4jnsgd1na2vs0mg"},{"bike_id":"a59d64a6-0c90-478e-8726-6eda2f84c2f7","system_id":"levelo_inurba_marseille","lat":43.26027,"lon":5.37551,"is_reserved":false,"is_disabled":false,"rental_uris":{"android":"levelo://app?vid=a59d64a6-0c90-478e-8726-6eda2f84c2f7","ios":"levelo://app?vid=a59d64a6-0c90-478e-8726-6eda2f84c2f7"},"vehicle_type_id":"4","last_reported":1726243808,"current_range_meters":3600,"station_id":"ce4bhgh2rcd13ifvqfa0","pricing_plan_id":"cebpf4jnsgd1na2vs0mg"},{"bike_id":"1b69e28d-b657-4802-b5dd-aa17fb5a768b","system_id":"levelo_inurba_marseille","lat":43.27144,"lon":5.42791,"is_reserved":false,"is_disabled":false,"rental_uris":{"android":"levelo://app?vid=1b69e28d-b657-4802-b5dd-aa17fb5a768b","ios":"levelo://app?vid=1b69e28d-b657-4802-b5dd-aa17fb5a768b"},"vehicle_type_id":"4","last_reported":1726243808,"current_range_meters":30400,"station_id":"","pricing_plan_id":"cebpf4jnsgd1na2vs0mg"},{"bike_id":"cc9fd39e-68d6-4d17-984a-4962f9580def","system_id":"levelo_inurba_marseille","lat":43.31687,"lon":5.40461,"is_reserved":false,"is_disabled":false,"rental_uris":{"android":"levelo://app?vid=cc9fd39e-68d6-4d17-984a-4962f9580def","ios":"levelo://app?vid=cc9fd39e-68d6-4d17-984a-4962f9580def"},"vehicle_type_id":"4","last_reported":1726243808,"current_range_meters":2000,"station_id":"ce4bh012rcd13ifvqd00","pricing_plan_id":"cebpf4jnsgd1na2vs0mg"},{"bike_id":"995d3a7e-289e-4ebd-b785-9d2da426ad57","system_id":"levelo_inurba_marseille","lat":43.23198,"lon":5.3555,"is_reserved":false,"is_disabled":false,"rental_uris":{"android":"levelo://app?vid=995d3a7e-289e-4ebd-b785-9d2da426ad57","ios":"levelo://app?vid=995d3a7e-289e-4ebd-b785-9d2da426ad57"},"vehicle_type_id":"4","last_reported":1726243808,"current_range_meters":25200,"station_id":"ce4bhu92rcd13ifvqi70","pricing_plan_id":"cebpf4jnsgd1na2vs0mg"},{"bike_id":"74c67d55-8a5f-40c9-8066-d68354718f8c","system_id":"levelo_inurba_marseille","lat":43.23192,"lon":5.35558,"is_reserved":false,"is_disabled":false,"rental_uris":{"android":"levelo://app?vid=74c67d55-8a5f-40c9-8066-d68354718f8c","ios":"levelo://app?vid=74c67d55-8a5f-40c9-8066-d68354718f8c"},"vehicle_type_id":"4","last_reported":1726243808,"current_range_meters":28800,"station_id":"ce4bhu92rcd13ifvqi70","pricing_plan_id":"cebpf4jnsgd1na2vs0mg"},{"bike_id":"65b41972-e5b3-473a-a165-476202ec5eb9","system_id":"levelo_inurba_marseille","lat":43.27923,"lon":5.39582,"is_reserved":false,"is_disabled":false,"rental_uris":{"android":"levelo://app?vid=65b41972-e5b3-473a-a165-476202ec5eb9","ios":"levelo://app?vid=65b41972-e5b3-473a-a165-476202ec5eb9"},"vehicle_type_id":"4","last_reported":1726243808,"current_range_meters":9600,"station_id":"ce4bhf92rcd13ifvqf40","pricing_plan_id":"cebpf4jnsgd1na2vs0mg"},{"bike_id":"1d1fe77b-c32b-4d92-8e57-d6a8f8d034dd","system_id":"levelo_inurba_marseille","lat":43.27572,"lon":5.38429,"is_reserved":false,"is_disabled":false,"rental_uris":{"android":"levelo://app?vid=1d1fe77b-c32b-4d92-8e57-d6a8f8d034dd","ios":"levelo://app?vid=1d1fe77b-c32b-4d92-8e57-d6a8f8d034dd"},"vehicle_type_id":"4","last_reported":1726243808,"current_range_meters":22000,"station_id":"ce4bhh92rcd13ifvqfi0","pricing_plan_id":"cebpf4jnsgd1na2vs0mg"},{"bike_id":"690cf838-66d1-40e8-9ccd-4de9cdc05ba4","system_id":"levelo_inurba_marseille","lat":43.27811,"lon":5.40722,"is_reserved":false,"is_disabled":false,"rental_uris":{"android":"levelo://app?vid=690cf838-66d1-40e8-9ccd-4de9cdc05ba4","ios":"levelo://app?vid=690cf838-66d1-40e8-9ccd-4de9cdc05ba4"},"vehicle_type_id":"4","last_reported":1726243808,"current_range_meters":7200,"station_id":"ce4bhnh2rcd13ifvqgtg","pricing_plan_id":"cebpf4jnsgd1na2vs0mg"},{"bike_id":"e2be0aea-67dc-4dc6-b46f-e2412631f2dd","system_id":"levelo_inurba_marseille","lat":43.25007,"lon":5.38931,"is_reserved":false,"is_disabled":false,"rental_uris":{"android":"levelo://app?vid=e2be0aea-67dc-4dc6-b46f-e2412631f2dd","ios":"levelo://app?vid=e2be0aea-67dc-4dc6-b46f-e2412631f2dd"},"vehicle_type_id":"4","last_reported":1726243808,"current_range_meters":7200,"station_id":"ce4bhgp2rcd13ifvqfd0","pricing_plan_id":"cebpf4jnsgd1na2vs0mg"},{"bike_id":"6267baa5-f35c-4311-91c4-71f926f47f2c","system_id":"levelo_inurba_marseille","lat":43.29743,"lon":5.3791,"is_reserved":false,"is_disabled":false,"rental_uris":{"android":"levelo://app?vid=6267baa5-f35c-4311-91c4-71f926f47f2c","ios":"levelo://app?vid=6267baa5-f35c-4311-91c4-71f926f47f2c"},"vehicle_type_id":"4","last_reported":1726243808,"current_range_meters":7200,"station_id":"","pricing_plan_id":"cebpf4jnsgd1na2vs0mg"},{"bike_id":"6f5e4e2a-7d3a-4470-88d8-f1770984d04a","system_id":"levelo_inurba_marseille","lat":43.31995,"lon":5.38155,"is_reserved":false,"is_disabled":false,"rental_uris":{"android":"levelo://app?vid=6f5e4e2a-7d3a-4470-88d8-f1770984d04a","ios":"levelo://app?vid=6f5e4e2a-7d3a-4470-88d8-f1770984d04a"},"vehicle_type_id":"4","last_reported":1726243808,"current_range_meters":23200,"station_id":"ce4bhr12rcd13ifvqhpg","pricing_plan_id":"cebpf4jnsgd1na2vs0mg"},{"bike_id":"e2d4c195-a622-4339-a266-d9bfa306341a","system_id":"levelo_inurba_marseille","lat":43.29884,"lon":5.38908,"is_reserved":false,"is_disabled":false,"rental_uris":{"android":"levelo://app?vid=e2d4c195-a622-4339-a266-d9bfa306341a","ios":"levelo://app?vid=e2d4c195-a622-4339-a266-d9bfa306341a"},"vehicle_type_id":"4","last_reported":1726243808,"current_range_meters":16000,"station_id":"ce4bh392rcd13ifvqdl0","pricing_plan_id":"cebpf4jnsgd1na2vs0mg"},{"bike_id":"90aaa042-2fe4-435a-ac86-73c50cb1c745","system_id":"levelo_inurba_marseille","lat":43.25497,"lon":5.37649,"is_reserved":false,"is_disabled":false,"rental_uris":{"android":"levelo://app?vid=90aaa042-2fe4-435a-ac86-73c50cb1c745","ios":"levelo://app?vid=90aaa042-2fe4-435a-ac86-73c50cb1c745"},"vehicle_type_id":"4","last_reported":1726243808,"current_range_meters":36800,"station_id":"ce4bhh12rcd13ifvqff0","pricing_plan_id":"cebpf4jnsgd1na2vs0mg"},{"bike_id":"15bbdaa4-35e6-4a65-8a24-89fa60fe6c35","system_id":"levelo_inurba_marseille","lat":43.33024,"lon":5.39035,"is_reserved":false,"is_disabled":false,"rental_uris":{"android":"levelo://app?vid=15bbdaa4-35e6-4a65-8a24-89fa60fe6c35","ios":"levelo://app?vid=15bbdaa4-35e6-4a65-8a24-89fa60fe6c35"},"vehicle_type_id":"4","last_reported":1726243808,"current_range_meters":24400,"station_id":"ce4bhr92rcd13ifvqhrg","pricing_plan_id":"cebpf4jnsgd1na2vs0mg"},{"bike_id":"bdcd95a0-5f9b-49ae-8f9b-3b02219d6eb4","system_id":"levelo_inurba_marseille","lat":43.23963,"lon":5.3664,"is_reserved":false,"is_disabled":false,"rental_uris":{"android":"levelo://app?vid=bdcd95a0-5f9b-49ae-8f9b-3b02219d6eb4","ios":"levelo://app?vid=bdcd95a0-5f9b-49ae-8f9b-3b02219d6eb4"},"vehicle_type_id":"4","last_reported":1726243808,"current_range_meters":12000,"station_id":"ce4bhi12rcd13ifvqfp0","pricing_plan_id":"cebpf4jnsgd1na2vs0mg"},{"bike_id":"af535742-2c29-4a75-aba4-bfe02b811be0","system_id":"levelo_inurba_marseille","lat":43.25582,"lon":5.38229,"is_reserved":false,"is_disabled":false,"rental_uris":{"android":"levelo://app?vid=af535742-2c29-4a75-aba4-bfe02b811be0","ios":"levelo://app?vid=af535742-2c29-4a75-aba4-bfe02b811be0"},"vehicle_type_id":"4","last_reported":1726243808,"current_range_meters":8400,"station_id":"ce4bhih2rcd13ifvqfs0","pricing_plan_id":"cebpf4jnsgd1na2vs0mg"},{"bike_id":"2a089944-b1a6-45af-99d1-9b70add064d3","system_id":"levelo_inurba_marseille","lat":43.24812,"lon":5.37461,"is_reserved":false,"is_disabled":false,"rental_uris":{"android":"levelo://app?vid=2a089944-b1a6-45af-99d1-9b70add064d3","ios":"levelo://app?vid=2a089944-b1a6-45af-99d1-9b70add064d3"},"vehicle_type_id":"4","last_reported":1726243808,"current_range_meters":16400,"station_id":"ce4bhgh2rcd13ifvqfb0","pricing_plan_id":"cebpf4jnsgd1na2vs0mg"},{"bike_id":"34721204-9cc8-4128-8304-5b698c26b1e6","system_id":"levelo_inurba_marseille","lat":43.23187,"lon":5.39976,"is_reserved":false,"is_disabled":false,"rental_uris":{"android":"levelo://app?vid=34721204-9cc8-4128-8304-5b698c26b1e6","ios":"levelo://app?vid=34721204-9cc8-4128-8304-5b698c26b1e6"},"vehicle_type_id":"4","last_reported":1726243808,"current_range_meters":38800,"station_id":"ce4bhn12rcd13ifvqgqg","pricing_plan_id":"cebpf4jnsgd1na2vs0mg"},{"bike_id":"a55322ce-4fdd-4ead-a01e-84b4a3e84db7","system_id":"levelo_inurba_marseille","lat":43.26494,"lon":5.3955,"is_reserved":false,"is_disabled":false,"rental_uris":{"android":"levelo://app?vid=a55322ce-4fdd-4ead-a01e-84b4a3e84db7","ios":"levelo://app?vid=a55322ce-4fdd-4ead-a01e-84b4a3e84db7"},"vehicle_type_id":"4","last_reported":1726243808,"current_range_meters":19600,"station_id":"ce4bhi12rcd13ifvqfq0","pricing_plan_id":"cebpf4jnsgd1na2vs0mg"},{"bike_id":"39b86749-80ef-4310-953b-c60370086942","system_id":"levelo_inurba_marseille","lat":43.24545,"lon":5.39525,"is_reserved":false,"is_disabled":false,"rental_uris":{"android":"levelo://app?vid=39b86749-80ef-4310-953b-c60370086942","ios":"levelo://app?vid=39b86749-80ef-4310-953b-c60370086942"},"vehicle_type_id":"4","last_reported":1726243808,"current_range_meters":30000,"station_id":"ce4bhlp2rcd13ifvqgjg","pricing_plan_id":"cebpf4jnsgd1na2vs0mg"},{"bike_id":"6a8f2f10-9a94-4930-acf4-9d3abaa17531","system_id":"levelo_inurba_marseille","lat":43.255,"lon":5.37651,"is_reserved":false,"is_disabled":false,"rental_uris":{"android":"levelo://app?vid=6a8f2f10-9a94-4930-acf4-9d3abaa17531","ios":"levelo://app?vid=6a8f2f10-9a94-4930-acf4-9d3abaa17531"},"vehicle_type_id":"4","last_reported":1726243808,"current_range_meters":35600,"station_id":"ce4bhh12rcd13ifvqff0","pricing_plan_id":"cebpf4jnsgd1na2vs0mg"},{"bike_id":"4cad2379-f22f-4bf0-a45e-a36b3b61dd30","system_id":"levelo_inurba_marseille","lat":43.25582,"lon":5.3823,"is_reserved":false,"is_disabled":false,"rental_uris":{"android":"levelo://app?vid=4cad2379-f22f-4bf0-a45e-a36b3b61dd30","ios":"levelo://app?vid=4cad2379-f22f-4bf0-a45e-a36b3b61dd30"},"vehicle_type_id":"4","last_reported":1726243808,"current_range_meters":38800,"station_id":"ce4bhih2rcd13ifvqfs0","pricing_plan_id":"cebpf4jnsgd1na2vs0mg"},{"bike_id":"acb4473c-f793-440a-9c76-0eca7b03c7c3","system_id":"levelo_inurba_marseille","lat":43.27652,"lon":5.38128,"is_reserved":false,"is_disabled":false,"rental_uris":{"android":"levelo://app?vid=acb4473c-f793-440a-9c76-0eca7b03c7c3","ios":"levelo://app?vid=acb4473c-f793-440a-9c76-0eca7b03c7c3"},"vehicle_type_id":"4","last_reported":1726243808,"current_range_meters":6400,"station_id":"","pricing_plan_id":"cebpf4jnsgd1na2vs0mg"},{"bike_id":"2599aa4a-256f-42cc-a153-354014413cfd","system_id":"levelo_inurba_marseille","lat":43.28848,"lon":5.35865,"is_reserved":false,"is_disabled":false,"rental_uris":{"android":"levelo://app?vid=2599aa4a-256f-42cc-a153-354014413cfd","ios":"levelo://app?vid=2599aa4a-256f-42cc-a153-354014413cfd"},"vehicle_type_id":"4","last_reported":1726243808,"current_range_meters":24800,"station_id":"ce4bhb12rcd13ifvqem0","pricing_plan_id":"cebpf4jnsgd1na2vs0mg"},{"bike_id":"e6c6755e-220e-47b9-b066-516fea4e81af","system_id":"levelo_inurba_marseille","lat":43.29442,"lon":5.39735,"is_reserved":false,"is_disabled":false,"rental_uris":{"android":"levelo://app?vid=e6c6755e-220e-47b9-b066-516fea4e81af","ios":"levelo://app?vid=e6c6755e-220e-47b9-b066-516fea4e81af"},"vehicle_type_id":"4","last_reported":1726243808,"current_range_meters":30000,"station_id":"ce4bh3h2rcd13ifvqdo0","pricing_plan_id":"cebpf4jnsgd1na2vs0mg"},{"bike_id":"69fc560a-a08b-4a9b-8230-4bf95f5d2e96","system_id":"levelo_inurba_marseille","lat":43.24544,"lon":5.39519,"is_reserved":false,"is_disabled":false,"rental_uris":{"android":"levelo://app?vid=69fc560a-a08b-4a9b-8230-4bf95f5d2e96","ios":"levelo://app?vid=69fc560a-a08b-4a9b-8230-4bf95f5d2e96"},"vehicle_type_id":"4","last_reported":1726243808,"current_range_meters":38400,"station_id":"ce4bhlp2rcd13ifvqgjg","pricing_plan_id":"cebpf4jnsgd1na2vs0mg"},{"bike_id":"630c2311-d9e4-41ab-ac0b-e468c284347f","system_id":"levelo_inurba_marseille","lat":43.30136,"lon":5.3986,"is_reserved":false,"is_disabled":false,"rental_uris":{"android":"levelo://app?vid=630c2311-d9e4-41ab-ac0b-e468c284347f","ios":"levelo://app?vid=630c2311-d9e4-41ab-ac0b-e468c284347f"},"vehicle_type_id":"4","last_reported":1726243808,"current_range_meters":6000,"station_id":"ce4bh0h2rcd13ifvqd40","pricing_plan_id":"cebpf4jnsgd1na2vs0mg"},{"bike_id":"4f50ddcb-e3db-4219-8ed6-122c9456ef91","system_id":"levelo_inurba_marseille","lat":43.2953,"lon":5.37501,"is_reserved":false,"is_disabled":false,"rental_uris":{"android":"levelo://app?vid=4f50ddcb-e3db-4219-8ed6-122c9456ef91","ios":"levelo://app?vid=4f50ddcb-e3db-4219-8ed6-122c9456ef91"},"vehicle_type_id":"4","last_reported":1726243808,"current_range_meters":20000,"station_id":"ce4bgkp2rcd13ifvqbmg","pricing_plan_id":"cebpf4jnsgd1na2vs0mg"},{"bike_id":"eaf3218e-3b2a-4dde-9c15-99a6c4254e56","system_id":"levelo_inurba_marseille","lat":43.299,"lon":5.43657,"is_reserved":false,"is_disabled":false,"rental_uris":{"android":"levelo://app?vid=eaf3218e-3b2a-4dde-9c15-99a6c4254e56","ios":"levelo://app?vid=eaf3218e-3b2a-4dde-9c15-99a6c4254e56"},"vehicle_type_id":"4","last_reported":1726243808,"current_range_meters":38800,"station_id":"ce4bhpp2rcd13ifvqhfg","pricing_plan_id":"cebpf4jnsgd1na2vs0mg"},{"bike_id":"bf9d2e2a-32bb-4b55-b192-843d17126d0f","system_id":"levelo_inurba_marseille","lat":43.299533,"lon":5.385453,"is_reserved":false,"is_disabled":false,"rental_uris":{"android":"levelo://app?vid=bf9d2e2a-32bb-4b55-b192-843d17126d0f","ios":"levelo://app?vid=bf9d2e2a-32bb-4b55-b192-843d17126d0f"},"vehicle_type_id":"4","last_reported":1726243808,"current_range_meters":25200,"station_id":"ce4bgj92rcd13ifvqbd0","pricing_plan_id":"cebpf4jnsgd1na2vs0mg"},{"bike_id":"578fe535-1ca5-46e4-9e6c-f0e8aa8560bc","system_id":"levelo_inurba_marseille","lat":43.32368,"lon":5.38884,"is_reserved":false,"is_disabled":false,"rental_uris":{"android":"levelo://app?vid=578fe535-1ca5-46e4-9e6c-f0e8aa8560bc","ios":"levelo://app?vid=578fe535-1ca5-46e4-9e6c-f0e8aa8560bc"},"vehicle_type_id":"4","last_reported":1726243808,"current_range_meters":16800,"station_id":"ce4bhqp2rcd13ifvqhog","pricing_plan_id":"cebpf4jnsgd1na2vs0mg"},{"bike_id":"6dfe49f4-83e2-40d0-8865-0920a4415a17","system_id":"levelo_inurba_marseille","lat":43.29695,"lon":5.37702,"is_reserved":false,"is_disabled":false,"rental_uris":{"android":"levelo://app?vid=6dfe49f4-83e2-40d0-8865-0920a4415a17","ios":"levelo://app?vid=6dfe49f4-83e2-40d0-8865-0920a4415a17"},"vehicle_type_id":"4","last_reported":1726243808,"current_range_meters":38800,"station_id":"ce4bgkh2rcd13ifvqbl0","pricing_plan_id":"cebpf4jnsgd1na2vs0mg"},{"bike_id":"0ea99d89-f29c-4e54-9766-bdcd2d65271c","system_id":"levelo_inurba_marseille","lat":43.22936,"lon":5.35375,"is_reserved":false,"is_disabled":false,"rental_uris":{"android":"levelo://app?vid=0ea99d89-f29c-4e54-9766-bdcd2d65271c","ios":"levelo://app?vid=0ea99d89-f29c-4e54-9766-bdcd2d65271c"},"vehicle_type_id":"4","last_reported":1726243808,"current_range_meters":26000,"station_id":"cpo3532slgdg3j2ikp40","pricing_plan_id":"cebpf4jnsgd1na2vs0mg"},{"bike_id":"85aa7923-0081-4480-ac25-bd7e293901bd","system_id":"levelo_inurba_marseille","lat":43.29869,"lon":5.397338,"is_reserved":false,"is_disabled":false,"rental_uris":{"android":"levelo://app?vid=85aa7923-0081-4480-ac25-bd7e293901bd","ios":"levelo://app?vid=85aa7923-0081-4480-ac25-bd7e293901bd"},"vehicle_type_id":"4","last_reported":1726243808,"current_range_meters":33200,"station_id":"ce4bh0h2rcd13ifvqd50","pricing_plan_id":"cebpf4jnsgd1na2vs0mg"},{"bike_id":"da752d37-08d6-4594-a91f-f2daa05620f5","system_id":"levelo_inurba_marseille","lat":43.24649,"lon":5.38891,"is_reserved":false,"is_disabled":false,"rental_uris":{"android":"levelo://app?vid=da752d37-08d6-4594-a91f-f2daa05620f5","ios":"levelo://app?vid=da752d37-08d6-4594-a91f-f2daa05620f5"},"vehicle_type_id":"4","last_reported":1726243808,"current_range_meters":38800,"station_id":"ce4bhg12rcd13ifvqf60","pricing_plan_id":"cebpf4jnsgd1na2vs0mg"},{"bike_id":"cd757bad-8b42-47b0-ad74-b9c32d24af44","system_id":"levelo_inurba_marseille","lat":43.23181,"lon":5.39989,"is_reserved":false,"is_disabled":false,"rental_uris":{"android":"levelo://app?vid=cd757bad-8b42-47b0-ad74-b9c32d24af44","ios":"levelo://app?vid=cd757bad-8b42-47b0-ad74-b9c32d24af44"},"vehicle_type_id":"4","last_reported":1726243808,"current_range_meters":7200,"station_id":"ce4bhn12rcd13ifvqgqg","pricing_plan_id":"cebpf4jnsgd1na2vs0mg"},{"bike_id":"e49093f7-6383-4e7f-9f16-cb91fa6cb74b","system_id":"levelo_inurba_marseille","lat":43.24999,"lon":5.38928,"is_reserved":false,"is_disabled":false,"rental_uris":{"android":"levelo://app?vid=e49093f7-6383-4e7f-9f16-cb91fa6cb74b","ios":"levelo://app?vid=e49093f7-6383-4e7f-9f16-cb91fa6cb74b"},"vehicle_type_id":"4","last_reported":1726243808,"current_range_meters":28400,"station_id":"ce4bhgp2rcd13ifvqfd0","pricing_plan_id":"cebpf4jnsgd1na2vs0mg"},{"bike_id":"f5d80230-6671-4c19-998a-9bc8d3d47824","system_id":"levelo_inurba_marseille","lat":43.29004,"lon":5.35607,"is_reserved":false,"is_disabled":false,"rental_uris":{"android":"levelo://app?vid=f5d80230-6671-4c19-998a-9bc8d3d47824","ios":"levelo://app?vid=f5d80230-6671-4c19-998a-9bc8d3d47824"},"vehicle_type_id":"4","last_reported":1726243808,"current_range_meters":39200,"station_id":"ce4bhb92rcd13ifvqen0","pricing_plan_id":"cebpf4jnsgd1na2vs0mg"},{"bike_id":"bcaea7b5-936b-4e65-b428-5636b40aa919","system_id":"levelo_inurba_marseille","lat":43.31275,"lon":5.40167,"is_reserved":false,"is_disabled":false,"rental_uris":{"android":"levelo://app?vid=bcaea7b5-936b-4e65-b428-5636b40aa919","ios":"levelo://app?vid=bcaea7b5-936b-4e65-b428-5636b40aa919"},"vehicle_type_id":"4","last_reported":1726243808,"current_range_meters":33600,"station_id":"ce4bh092rcd13ifvqd30","pricing_plan_id":"cebpf4jnsgd1na2vs0mg"},{"bike_id":"21ae8cc9-1696-469c-8f34-edd55dcb2718","system_id":"levelo_inurba_marseille","lat":43.28944,"lon":5.36633,"is_reserved":false,"is_disabled":false,"rental_uris":{"android":"levelo://app?vid=21ae8cc9-1696-469c-8f34-edd55dcb2718","ios":"levelo://app?vid=21ae8cc9-1696-469c-8f34-edd55dcb2718"},"vehicle_type_id":"4","last_reported":1726243808,"current_range_meters":4400,"station_id":"ce4bhap2rcd13ifvqek0","pricing_plan_id":"cebpf4jnsgd1na2vs0mg"},{"bike_id":"96cb29cb-8da1-4dd6-bd35-ee190827a973","system_id":"levelo_inurba_marseille","lat":43.26556,"lon":5.37285,"is_reserved":false,"is_disabled":false,"rental_uris":{"android":"levelo://app?vid=96cb29cb-8da1-4dd6-bd35-ee190827a973","ios":"levelo://app?vid=96cb29cb-8da1-4dd6-bd35-ee190827a973"},"vehicle_type_id":"4","last_reported":1726243808,"current_range_meters":6000,"station_id":"ce4bhg12rcd13ifvqf70","pricing_plan_id":"cebpf4jnsgd1na2vs0mg"},{"bike_id":"98211fdd-55f8-4aac-8d0d-86f8807528b7","system_id":"levelo_inurba_marseille","lat":43.30334,"lon":5.40441,"is_reserved":false,"is_disabled":false,"rental_uris":{"android":"levelo://app?vid=98211fdd-55f8-4aac-8d0d-86f8807528b7","ios":"levelo://app?vid=98211fdd-55f8-4aac-8d0d-86f8807528b7"},"vehicle_type_id":"4","last_reported":1726243808,"current_range_meters":20000,"station_id":"ce4bh012rcd13ifvqd10","pricing_plan_id":"cebpf4jnsgd1na2vs0mg"},{"bike_id":"e285f8ab-30f6-4c0b-909e-8d0cbd624b2c","system_id":"levelo_inurba_marseille","lat":43.292084,"lon":5.392261,"is_reserved":false,"is_disabled":false,"rental_uris":{"android":"levelo://app?vid=e285f8ab-30f6-4c0b-909e-8d0cbd624b2c","ios":"levelo://app?vid=e285f8ab-30f6-4c0b-909e-8d0cbd624b2c"},"vehicle_type_id":"4","last_reported":1726243808,"current_range_meters":24000,"station_id":"ce4bh192rcd13ifvqdd0","pricing_plan_id":"cebpf4jnsgd1na2vs0mg"},{"bike_id":"0604935e-f7ef-4740-9538-7bdc2b090401","system_id":"levelo_inurba_marseille","lat":43.27569,"lon":5.38423,"is_reserved":false,"is_disabled":false,"rental_uris":{"android":"levelo://app?vid=0604935e-f7ef-4740-9538-7bdc2b090401","ios":"levelo://app?vid=0604935e-f7ef-4740-9538-7bdc2b090401"},"vehicle_type_id":"4","last_reported":1726243808,"current_range_meters":29600,"station_id":"ce4bhh92rcd13ifvqfi0","pricing_plan_id":"cebpf4jnsgd1na2vs0mg"},{"bike_id":"9b49fc06-69dc-4375-9bc8-2ab31283d424","system_id":"levelo_inurba_marseille","lat":43.29901,"lon":5.43657,"is_reserved":false,"is_disabled":false,"rental_uris":{"android":"levelo://app?vid=9b49fc06-69dc-4375-9bc8-2ab31283d424","ios":"levelo://app?vid=9b49fc06-69dc-4375-9bc8-2ab31283d424"},"vehicle_type_id":"4","last_reported":1726243808,"current_range_meters":36800,"station_id":"ce4bhpp2rcd13ifvqhfg","pricing_plan_id":"cebpf4jnsgd1na2vs0mg"},{"bike_id":"c6d56cc6-8f39-491f-9320-5e5bfa5fbbf4","system_id":"levelo_inurba_marseille","lat":43.27173,"lon":5.40988,"is_reserved":false,"is_disabled":false,"rental_uris":{"android":"levelo://app?vid=c6d56cc6-8f39-491f-9320-5e5bfa5fbbf4","ios":"levelo://app?vid=c6d56cc6-8f39-491f-9320-5e5bfa5fbbf4"},"vehicle_type_id":"4","last_reported":1726243808,"current_range_meters":3600,"station_id":"ce4bhl12rcd13ifvqgf0","pricing_plan_id":"cebpf4jnsgd1na2vs0mg"},{"bike_id":"b5305bc3-1f97-417d-ade0-d17e8d952c61","system_id":"levelo_inurba_marseille","lat":43.31712,"lon":5.43706,"is_reserved":false,"is_disabled":false,"rental_uris":{"android":"levelo://app?vid=b5305bc3-1f97-417d-ade0-d17e8d952c61","ios":"levelo://app?vid=b5305bc3-1f97-417d-ade0-d17e8d952c61"},"vehicle_type_id":"4","last_reported":1726243808,"current_range_meters":23200,"station_id":"ce4bhp92rcd13ifvqhcg","pricing_plan_id":"cebpf4jnsgd1na2vs0mg"},{"bike_id":"ef886e6e-01ee-4e12-90cf-1aba83e0d5fa","system_id":"levelo_inurba_marseille","lat":43.28931,"lon":5.38396,"is_reserved":false,"is_disabled":false,"rental_uris":{"android":"levelo://app?vid=ef886e6e-01ee-4e12-90cf-1aba83e0d5fa","ios":"levelo://app?vid=ef886e6e-01ee-4e12-90cf-1aba83e0d5fa"},"vehicle_type_id":"4","last_reported":1726243808,"current_range_meters":20400,"station_id":"ce4bh612rcd13ifvqe6g","pricing_plan_id":"cebpf4jnsgd1na2vs0mg"},{"bike_id":"80e1df3e-eb48-4184-928d-73e74edc75bc","system_id":"levelo_inurba_marseille","lat":43.30543,"lon":5.36554,"is_reserved":false,"is_disabled":false,"rental_uris":{"android":"levelo://app?vid=80e1df3e-eb48-4184-928d-73e74edc75bc","ios":"levelo://app?vid=80e1df3e-eb48-4184-928d-73e74edc75bc"},"vehicle_type_id":"4","last_reported":1726243808,"current_range_meters":17200,"station_id":"ce4bgs12rcd13ifvqcag","pricing_plan_id":"cebpf4jnsgd1na2vs0mg"},{"bike_id":"46d70e9c-49ee-440a-a92c-d8b60775e17c","system_id":"levelo_inurba_marseille","lat":43.27425,"lon":5.39418,"is_reserved":false,"is_disabled":false,"rental_uris":{"android":"levelo://app?vid=46d70e9c-49ee-440a-a92c-d8b60775e17c","ios":"levelo://app?vid=46d70e9c-49ee-440a-a92c-d8b60775e17c"},"vehicle_type_id":"4","last_reported":1726243808,"current_range_meters":8400,"station_id":"ce4bhdp2rcd13ifvqf20","pricing_plan_id":"cebpf4jnsgd1na2vs0mg"},{"bike_id":"45abe7a4-c6b9-4560-bb39-ef6e16897bd5","system_id":"levelo_inurba_marseille","lat":43.29441,"lon":5.39747,"is_reserved":false,"is_disabled":false,"rental_uris":{"android":"levelo://app?vid=45abe7a4-c6b9-4560-bb39-ef6e16897bd5","ios":"levelo://app?vid=45abe7a4-c6b9-4560-bb39-ef6e16897bd5"},"vehicle_type_id":"4","last_reported":1726243808,"current_range_meters":24400,"station_id":"ce4bh3h2rcd13ifvqdo0","pricing_plan_id":"cebpf4jnsgd1na2vs0mg"},{"bike_id":"79b7950d-90c8-4e3c-a243-1a31b18cd68e","system_id":"levelo_inurba_marseille","lat":43.2397,"lon":5.36632,"is_reserved":false,"is_disabled":false,"rental_uris":{"android":"levelo://app?vid=79b7950d-90c8-4e3c-a243-1a31b18cd68e","ios":"levelo://app?vid=79b7950d-90c8-4e3c-a243-1a31b18cd68e"},"vehicle_type_id":"4","last_reported":1726243808,"current_range_meters":10000,"station_id":"ce4bhi12rcd13ifvqfp0","pricing_plan_id":"cebpf4jnsgd1na2vs0mg"},{"bike_id":"4d0f967e-c81f-46ed-91db-75a0d012fc0f","system_id":"levelo_inurba_marseille","lat":43.25579,"lon":5.3823,"is_reserved":false,"is_disabled":false,"rental_uris":{"android":"levelo://app?vid=4d0f967e-c81f-46ed-91db-75a0d012fc0f","ios":"levelo://app?vid=4d0f967e-c81f-46ed-91db-75a0d012fc0f"},"vehicle_type_id":"4","last_reported":1726243808,"current_range_meters":19600,"station_id":"ce4bhih2rcd13ifvqfs0","pricing_plan_id":"cebpf4jnsgd1na2vs0mg"},{"bike_id":"dd2da4a1-1e2d-4a91-8829-9d22598c1c22","system_id":"levelo_inurba_marseille","lat":43.3019,"lon":5.36607,"is_reserved":false,"is_disabled":false,"rental_uris":{"android":"levelo://app?vid=dd2da4a1-1e2d-4a91-8829-9d22598c1c22","ios":"levelo://app?vid=dd2da4a1-1e2d-4a91-8829-9d22598c1c22"},"vehicle_type_id":"4","last_reported":1726243808,"current_range_meters":27200,"station_id":"ce4bgrh2rcd13ifvqc8g","pricing_plan_id":"cebpf4jnsgd1na2vs0mg"},{"bike_id":"75ded247-c7fe-494a-9225-f4472ed31a22","system_id":"levelo_inurba_marseille","lat":43.31498,"lon":5.37307,"is_reserved":false,"is_disabled":false,"rental_uris":{"android":"levelo://app?vid=75ded247-c7fe-494a-9225-f4472ed31a22","ios":"levelo://app?vid=75ded247-c7fe-494a-9225-f4472ed31a22"},"vehicle_type_id":"4","last_reported":1726243808,"current_range_meters":11200,"station_id":"ce4bgt12rcd13ifvqcd0","pricing_plan_id":"cebpf4jnsgd1na2vs0mg"},{"bike_id":"5808faf6-9bd9-4730-8859-0718e969bfc3","system_id":"levelo_inurba_marseille","lat":43.30543,"lon":5.36527,"is_reserved":false,"is_disabled":false,"rental_uris":{"android":"levelo://app?vid=5808faf6-9bd9-4730-8859-0718e969bfc3","ios":"levelo://app?vid=5808faf6-9bd9-4730-8859-0718e969bfc3"},"vehicle_type_id":"4","last_reported":1726243808,"current_range_meters":38800,"station_id":"ce4bgs12rcd13ifvqcag","pricing_plan_id":"cebpf4jnsgd1na2vs0mg"},{"bike_id":"1c2dbbe6-f396-4bf1-97da-e794da00ccc2","system_id":"levelo_inurba_marseille","lat":43.320099,"lon":5.414891,"is_reserved":false,"is_disabled":false,"rental_uris":{"android":"levelo://app?vid=1c2dbbe6-f396-4bf1-97da-e794da00ccc2","ios":"levelo://app?vid=1c2dbbe6-f396-4bf1-97da-e794da00ccc2"},"vehicle_type_id":"4","last_reported":1726243808,"current_range_meters":16400,"station_id":"ce4bhq92rcd13ifvqhkg","pricing_plan_id":"cebpf4jnsgd1na2vs0mg"},{"bike_id":"28064442-5b7e-4783-b9ed-ecfce850f81f","system_id":"levelo_inurba_marseille","lat":43.29991,"lon":5.37172,"is_reserved":false,"is_disabled":false,"rental_uris":{"android":"levelo://app?vid=28064442-5b7e-4783-b9ed-ecfce850f81f","ios":"levelo://app?vid=28064442-5b7e-4783-b9ed-ecfce850f81f"},"vehicle_type_id":"4","last_reported":1726243808,"current_range_meters":30400,"station_id":"ce4bgr92rcd13ifvqc7g","pricing_plan_id":"cebpf4jnsgd1na2vs0mg"},{"bike_id":"60d5bda9-f640-405a-935d-62d1314e50fa","system_id":"levelo_inurba_marseille","lat":43.23968,"lon":5.36637,"is_reserved":false,"is_disabled":false,"rental_uris":{"android":"levelo://app?vid=60d5bda9-f640-405a-935d-62d1314e50fa","ios":"levelo://app?vid=60d5bda9-f640-405a-935d-62d1314e50fa"},"vehicle_type_id":"4","last_reported":1726243808,"current_range_meters":27200,"station_id":"ce4bhi12rcd13ifvqfp0","pricing_plan_id":"cebpf4jnsgd1na2vs0mg"},{"bike_id":"282bd09f-caa5-4f3c-9372-c9952bf71863","system_id":"levelo_inurba_marseille","lat":43.26062,"lon":5.39397,"is_reserved":false,"is_disabled":false,"rental_uris":{"android":"levelo://app?vid=282bd09f-caa5-4f3c-9372-c9952bf71863","ios":"levelo://app?vid=282bd09f-caa5-4f3c-9372-c9952bf71863"},"vehicle_type_id":"4","last_reported":1726243808,"current_range_meters":11200,"station_id":"ce4bhh92rcd13ifvqfj0","pricing_plan_id":"cebpf4jnsgd1na2vs0mg"},{"bike_id":"4fd0eb6f-28cf-4e18-8cb4-506eaade4b97","system_id":"levelo_inurba_marseille","lat":43.25496,"lon":5.37648,"is_reserved":false,"is_disabled":false,"rental_uris":{"android":"levelo://app?vid=4fd0eb6f-28cf-4e18-8cb4-506eaade4b97","ios":"levelo://app?vid=4fd0eb6f-28cf-4e18-8cb4-506eaade4b97"},"vehicle_type_id":"4","last_reported":1726243808,"current_range_meters":3200,"station_id":"ce4bhh12rcd13ifvqff0","pricing_plan_id":"cebpf4jnsgd1na2vs0mg"},{"bike_id":"705da35e-0630-4cf5-a4fd-28c54e186977","system_id":"levelo_inurba_marseille","lat":43.26492,"lon":5.39549,"is_reserved":false,"is_disabled":false,"rental_uris":{"android":"levelo://app?vid=705da35e-0630-4cf5-a4fd-28c54e186977","ios":"levelo://app?vid=705da35e-0630-4cf5-a4fd-28c54e186977"},"vehicle_type_id":"4","last_reported":1726243808,"current_range_meters":2800,"station_id":"ce4bhi12rcd13ifvqfq0","pricing_plan_id":"cebpf4jnsgd1na2vs0mg"},{"bike_id":"4f0ea37a-15ba-4240-b0fa-68e3874bc062","system_id":"levelo_inurba_marseille","lat":43.24996,"lon":5.38938,"is_reserved":false,"is_disabled":false,"rental_uris":{"android":"levelo://app?vid=4f0ea37a-15ba-4240-b0fa-68e3874bc062","ios":"levelo://app?vid=4f0ea37a-15ba-4240-b0fa-68e3874bc062"},"vehicle_type_id":"4","last_reported":1726243808,"current_range_meters":5600,"station_id":"ce4bhgp2rcd13ifvqfd0","pricing_plan_id":"cebpf4jnsgd1na2vs0mg"},{"bike_id":"af3bb50c-b2bc-4829-b52f-372167d0673e","system_id":"levelo_inurba_marseille","lat":43.31173,"lon":5.38716,"is_reserved":false,"is_disabled":false,"rental_uris":{"android":"levelo://app?vid=af3bb50c-b2bc-4829-b52f-372167d0673e","ios":"levelo://app?vid=af3bb50c-b2bc-4829-b52f-372167d0673e"},"vehicle_type_id":"4","last_reported":1726243808,"current_range_meters":34000,"station_id":"ce4bgv12rcd13ifvqcp0","pricing_plan_id":"cebpf4jnsgd1na2vs0mg"},{"bike_id":"8d6da78f-251e-4eaa-b275-e17b1f1964dd","system_id":"levelo_inurba_marseille","lat":43.27942,"lon":5.41049,"is_reserved":false,"is_disabled":false,"rental_uris":{"android":"levelo://app?vid=8d6da78f-251e-4eaa-b275-e17b1f1964dd","ios":"levelo://app?vid=8d6da78f-251e-4eaa-b275-e17b1f1964dd"},"vehicle_type_id":"4","last_reported":1726243808,"current_range_meters":6000,"station_id":"ce4bhnp2rcd13ifvqh0g","pricing_plan_id":"cebpf4jnsgd1na2vs0mg"},{"bike_id":"01397819-866a-466e-b7a8-fb1eaee03617","system_id":"levelo_inurba_marseille","lat":43.26948,"lon":5.40249,"is_reserved":false,"is_disabled":false,"rental_uris":{"android":"levelo://app?vid=01397819-866a-466e-b7a8-fb1eaee03617","ios":"levelo://app?vid=01397819-866a-466e-b7a8-fb1eaee03617"},"vehicle_type_id":"4","last_reported":1726243808,"current_range_meters":38000,"station_id":"cjm6bp8fraef2m0cb0m0","pricing_plan_id":"cebpf4jnsgd1na2vs0mg"},{"bike_id":"9e78c4bd-3c37-4468-8f62-302d540d889c","system_id":"levelo_inurba_marseille","lat":43.24174,"lon":5.39722,"is_reserved":false,"is_disabled":false,"rental_uris":{"android":"levelo://app?vid=9e78c4bd-3c37-4468-8f62-302d540d889c","ios":"levelo://app?vid=9e78c4bd-3c37-4468-8f62-302d540d889c"},"vehicle_type_id":"4","last_reported":1726243808,"current_range_meters":34000,"station_id":"ce4bhn12rcd13ifvqgpg","pricing_plan_id":"cebpf4jnsgd1na2vs0mg"},{"bike_id":"02ad2c3d-0087-4851-8ace-c9437b1855db","system_id":"levelo_inurba_marseille","lat":43.29879,"lon":5.38918,"is_reserved":false,"is_disabled":false,"rental_uris":{"android":"levelo://app?vid=02ad2c3d-0087-4851-8ace-c9437b1855db","ios":"levelo://app?vid=02ad2c3d-0087-4851-8ace-c9437b1855db"},"vehicle_type_id":"4","last_reported":1726243808,"current_range_meters":19600,"station_id":"ce4bh392rcd13ifvqdl0","pricing_plan_id":"cebpf4jnsgd1na2vs0mg"},{"bike_id":"2d9f6a36-1e8d-46ce-8819-b2bb04006d43","system_id":"levelo_inurba_marseille","lat":43.25586,"lon":5.38223,"is_reserved":false,"is_disabled":false,"rental_uris":{"android":"levelo://app?vid=2d9f6a36-1e8d-46ce-8819-b2bb04006d43","ios":"levelo://app?vid=2d9f6a36-1e8d-46ce-8819-b2bb04006d43"},"vehicle_type_id":"4","last_reported":1726243808,"current_range_meters":28800,"station_id":"ce4bhih2rcd13ifvqfs0","pricing_plan_id":"cebpf4jnsgd1na2vs0mg"},{"bike_id":"9678d2ab-e7cb-491b-b859-98abb235b4e7","system_id":"levelo_inurba_marseille","lat":43.29416,"lon":5.38628,"is_reserved":false,"is_disabled":false,"rental_uris":{"android":"levelo://app?vid=9678d2ab-e7cb-491b-b859-98abb235b4e7","ios":"levelo://app?vid=9678d2ab-e7cb-491b-b859-98abb235b4e7"},"vehicle_type_id":"4","last_reported":1726243808,"current_range_meters":25600,"station_id":"ce4bh2h2rcd13ifvqdh0","pricing_plan_id":"cebpf4jnsgd1na2vs0mg"},{"bike_id":"75c35499-0de6-41a0-acf5-7c9b58381038","system_id":"levelo_inurba_marseille","lat":43.23189,"lon":5.3998,"is_reserved":false,"is_disabled":false,"rental_uris":{"android":"levelo://app?vid=75c35499-0de6-41a0-acf5-7c9b58381038","ios":"levelo://app?vid=75c35499-0de6-41a0-acf5-7c9b58381038"},"vehicle_type_id":"4","last_reported":1726243808,"current_range_meters":13600,"station_id":"ce4bhn12rcd13ifvqgqg","pricing_plan_id":"cebpf4jnsgd1na2vs0mg"},{"bike_id":"f9f5799e-942c-481f-81e0-a6ab30c24dc3","system_id":"levelo_inurba_marseille","lat":43.287091,"lon":5.379378,"is_reserved":false,"is_disabled":false,"rental_uris":{"android":"levelo://app?vid=f9f5799e-942c-481f-81e0-a6ab30c24dc3","ios":"levelo://app?vid=f9f5799e-942c-481f-81e0-a6ab30c24dc3"},"vehicle_type_id":"4","last_reported":1726243808,"current_range_meters":35200,"station_id":"ce4bh9p2rcd13ifvqec0","pricing_plan_id":"cebpf4jnsgd1na2vs0mg"},{"bike_id":"e62c8c71-b14f-4c94-8aa4-e0afcaaf93b6","system_id":"levelo_inurba_marseille","lat":43.24816,"lon":5.37461,"is_reserved":false,"is_disabled":false,"rental_uris":{"android":"levelo://app?vid=e62c8c71-b14f-4c94-8aa4-e0afcaaf93b6","ios":"levelo://app?vid=e62c8c71-b14f-4c94-8aa4-e0afcaaf93b6"},"vehicle_type_id":"4","last_reported":1726243808,"current_range_meters":31200,"station_id":"ce4bhgh2rcd13ifvqfb0","pricing_plan_id":"cebpf4jnsgd1na2vs0mg"},{"bike_id":"1688bf2d-1509-40aa-882a-e0d341e90efa","system_id":"levelo_inurba_marseille","lat":43.28941,"lon":5.36387,"is_reserved":false,"is_disabled":false,"rental_uris":{"android":"levelo://app?vid=1688bf2d-1509-40aa-882a-e0d341e90efa","ios":"levelo://app?vid=1688bf2d-1509-40aa-882a-e0d341e90efa"},"vehicle_type_id":"4","last_reported":1726243808,"current_range_meters":34800,"station_id":"ce4bhc92rcd13ifvqetg","pricing_plan_id":"cebpf4jnsgd1na2vs0mg"},{"bike_id":"a9da4e15-8474-4d24-866c-922e04f5a6c0","system_id":"levelo_inurba_marseille","lat":43.31746,"lon":5.39039,"is_reserved":false,"is_disabled":false,"rental_uris":{"android":"levelo://app?vid=a9da4e15-8474-4d24-866c-922e04f5a6c0","ios":"levelo://app?vid=a9da4e15-8474-4d24-866c-922e04f5a6c0"},"vehicle_type_id":"4","last_reported":1726243808,"current_range_meters":15200,"station_id":"ce4bhqp2rcd13ifvqhng","pricing_plan_id":"cebpf4jnsgd1na2vs0mg"},{"bike_id":"69b26a0b-db83-4395-8ee1-1e784091ffad","system_id":"levelo_inurba_marseille","lat":43.23152,"lon":5.43707,"is_reserved":false,"is_disabled":false,"rental_uris":{"android":"levelo://app?vid=69b26a0b-db83-4395-8ee1-1e784091ffad","ios":"levelo://app?vid=69b26a0b-db83-4395-8ee1-1e784091ffad"},"vehicle_type_id":"4","last_reported":1726243808,"current_range_meters":38800,"station_id":"ce4bhmp2rcd13ifvqgog","pricing_plan_id":"cebpf4jnsgd1na2vs0mg"},{"bike_id":"b506159f-a775-4733-b310-23093ca74a69","system_id":"levelo_inurba_marseille","lat":43.33028,"lon":5.39041,"is_reserved":false,"is_disabled":false,"rental_uris":{"android":"levelo://app?vid=b506159f-a775-4733-b310-23093ca74a69","ios":"levelo://app?vid=b506159f-a775-4733-b310-23093ca74a69"},"vehicle_type_id":"4","last_reported":1726243808,"current_range_meters":18000,"station_id":"ce4bhr92rcd13ifvqhrg","pricing_plan_id":"cebpf4jnsgd1na2vs0mg"},{"bike_id":"23bdef86-571f-4df7-983f-820422174a84","system_id":"levelo_inurba_marseille","lat":43.31169,"lon":5.38707,"is_reserved":false,"is_disabled":false,"rental_uris":{"android":"levelo://app?vid=23bdef86-571f-4df7-983f-820422174a84","ios":"levelo://app?vid=23bdef86-571f-4df7-983f-820422174a84"},"vehicle_type_id":"4","last_reported":1726243808,"current_range_meters":8000,"station_id":"ce4bgv12rcd13ifvqcp0","pricing_plan_id":"cebpf4jnsgd1na2vs0mg"},{"bike_id":"91d155a1-0e95-42f4-9cf2-24e586735a13","system_id":"levelo_inurba_marseille","lat":43.33723,"lon":5.39182,"is_reserved":false,"is_disabled":false,"rental_uris":{"android":"levelo://app?vid=91d155a1-0e95-42f4-9cf2-24e586735a13","ios":"levelo://app?vid=91d155a1-0e95-42f4-9cf2-24e586735a13"},"vehicle_type_id":"4","last_reported":1726243808,"current_range_meters":28000,"station_id":"ce4bhr92rcd13ifvqhsg","pricing_plan_id":"cebpf4jnsgd1na2vs0mg"},{"bike_id":"a2d21b2f-1cc0-47aa-8d22-f49ce3910b8e","system_id":"levelo_inurba_marseille","lat":43.30537,"lon":5.36559,"is_reserved":false,"is_disabled":false,"rental_uris":{"android":"levelo://app?vid=a2d21b2f-1cc0-47aa-8d22-f49ce3910b8e","ios":"levelo://app?vid=a2d21b2f-1cc0-47aa-8d22-f49ce3910b8e"},"vehicle_type_id":"4","last_reported":1726243808,"current_range_meters":6800,"station_id":"ce4bgs12rcd13ifvqcag","pricing_plan_id":"cebpf4jnsgd1na2vs0mg"},{"bike_id":"fa35d646-8e53-48c1-9759-924bedcb2224","system_id":"levelo_inurba_marseille","lat":43.31886,"lon":5.40732,"is_reserved":false,"is_disabled":false,"rental_uris":{"android":"levelo://app?vid=fa35d646-8e53-48c1-9759-924bedcb2224","ios":"levelo://app?vid=fa35d646-8e53-48c1-9759-924bedcb2224"},"vehicle_type_id":"4","last_reported":1726243808,"current_range_meters":12400,"station_id":"ce4bhq12rcd13ifvqhig","pricing_plan_id":"cebpf4jnsgd1na2vs0mg"},{"bike_id":"249033a2-5767-4fcf-a0f7-0556d998561e","system_id":"levelo_inurba_marseille","lat":43.30603,"lon":5.37223,"is_reserved":false,"is_disabled":false,"rental_uris":{"android":"levelo://app?vid=249033a2-5767-4fcf-a0f7-0556d998561e","ios":"levelo://app?vid=249033a2-5767-4fcf-a0f7-0556d998561e"},"vehicle_type_id":"4","last_reported":1726243808,"current_range_meters":25600,"station_id":"ce4bgqh2rcd13ifvqc4g","pricing_plan_id":"cebpf4jnsgd1na2vs0mg"},{"bike_id":"7117576d-08d4-4a9d-a33a-f440da185482","system_id":"levelo_inurba_marseille","lat":43.29419,"lon":5.38628,"is_reserved":false,"is_disabled":false,"rental_uris":{"android":"levelo://app?vid=7117576d-08d4-4a9d-a33a-f440da185482","ios":"levelo://app?vid=7117576d-08d4-4a9d-a33a-f440da185482"},"vehicle_type_id":"4","last_reported":1726243808,"current_range_meters":8800,"station_id":"ce4bh2h2rcd13ifvqdh0","pricing_plan_id":"cebpf4jnsgd1na2vs0mg"},{"bike_id":"55837c86-b1fc-4fc2-accb-a90f91126a9c","system_id":"levelo_inurba_marseille","lat":43.30781,"lon":5.37638,"is_reserved":false,"is_disabled":false,"rental_uris":{"android":"levelo://app?vid=55837c86-b1fc-4fc2-accb-a90f91126a9c","ios":"levelo://app?vid=55837c86-b1fc-4fc2-accb-a90f91126a9c"},"vehicle_type_id":"4","last_reported":1726243808,"current_range_meters":38000,"station_id":"ce4bgv92rcd13ifvqcq0","pricing_plan_id":"cebpf4jnsgd1na2vs0mg"},{"bike_id":"9368e81d-9d41-40d8-9614-e043ff6b63f3","system_id":"levelo_inurba_marseille","lat":43.3136,"lon":5.38504,"is_reserved":false,"is_disabled":false,"rental_uris":{"android":"levelo://app?vid=9368e81d-9d41-40d8-9614-e043ff6b63f3","ios":"levelo://app?vid=9368e81d-9d41-40d8-9614-e043ff6b63f3"},"vehicle_type_id":"4","last_reported":1726243808,"current_range_meters":24000,"station_id":"ce4bgt92rcd13ifvqcf0","pricing_plan_id":"cebpf4jnsgd1na2vs0mg"},{"bike_id":"ad91f2fc-3824-4b54-affc-b4e42a09d32e","system_id":"levelo_inurba_marseille","lat":43.29789,"lon":5.37103,"is_reserved":false,"is_disabled":false,"rental_uris":{"android":"levelo://app?vid=ad91f2fc-3824-4b54-affc-b4e42a09d32e","ios":"levelo://app?vid=ad91f2fc-3824-4b54-affc-b4e42a09d32e"},"vehicle_type_id":"4","last_reported":1726243808,"current_range_meters":24000,"station_id":"ce4bgop2rcd13ifvqc1g","pricing_plan_id":"cebpf4jnsgd1na2vs0mg"},{"bike_id":"a8408bc0-1ad0-4261-92e7-4324637d7c82","system_id":"levelo_inurba_marseille","lat":43.29008,"lon":5.35613,"is_reserved":false,"is_disabled":false,"rental_uris":{"android":"levelo://app?vid=a8408bc0-1ad0-4261-92e7-4324637d7c82","ios":"levelo://app?vid=a8408bc0-1ad0-4261-92e7-4324637d7c82"},"vehicle_type_id":"4","last_reported":1726243808,"current_range_meters":38800,"station_id":"ce4bhb92rcd13ifvqen0","pricing_plan_id":"cebpf4jnsgd1na2vs0mg"},{"bike_id":"0d9f035c-8e47-426d-8593-e2bc7f05f235","system_id":"levelo_inurba_marseille","lat":43.30438,"lon":5.36499,"is_reserved":false,"is_disabled":false,"rental_uris":{"android":"levelo://app?vid=0d9f035c-8e47-426d-8593-e2bc7f05f235","ios":"levelo://app?vid=0d9f035c-8e47-426d-8593-e2bc7f05f235"},"vehicle_type_id":"4","last_reported":1726243808,"current_range_meters":12400,"station_id":"","pricing_plan_id":"cebpf4jnsgd1na2vs0mg"},{"bike_id":"d65b293c-1208-4290-82c3-2198141edb9b","system_id":"levelo_inurba_marseille","lat":43.31166,"lon":5.38724,"is_reserved":false,"is_disabled":false,"rental_uris":{"android":"levelo://app?vid=d65b293c-1208-4290-82c3-2198141edb9b","ios":"levelo://app?vid=d65b293c-1208-4290-82c3-2198141edb9b"},"vehicle_type_id":"4","last_reported":1726243808,"current_range_meters":33200,"station_id":"ce4bgv12rcd13ifvqcp0","pricing_plan_id":"cebpf4jnsgd1na2vs0mg"},{"bike_id":"51c484ef-11c2-4c4a-abde-a5bdd899aee7","system_id":"levelo_inurba_marseille","lat":43.25083,"lon":5.39511,"is_reserved":false,"is_disabled":false,"rental_uris":{"android":"levelo://app?vid=51c484ef-11c2-4c4a-abde-a5bdd899aee7","ios":"levelo://app?vid=51c484ef-11c2-4c4a-abde-a5bdd899aee7"},"vehicle_type_id":"4","last_reported":1726243808,"current_range_meters":3200,"station_id":"ce4bhm12rcd13ifvqgkg","pricing_plan_id":"cebpf4jnsgd1na2vs0mg"},{"bike_id":"fc06d0f3-1536-4a3e-b9c9-f25e1a82e1f7","system_id":"levelo_inurba_marseille","lat":43.27564,"lon":5.38429,"is_reserved":false,"is_disabled":false,"rental_uris":{"android":"levelo://app?vid=fc06d0f3-1536-4a3e-b9c9-f25e1a82e1f7","ios":"levelo://app?vid=fc06d0f3-1536-4a3e-b9c9-f25e1a82e1f7"},"vehicle_type_id":"4","last_reported":1726243808,"current_range_meters":26000,"station_id":"ce4bhh92rcd13ifvqfi0","pricing_plan_id":"cebpf4jnsgd1na2vs0mg"},{"bike_id":"58efc01b-e90d-450e-a17b-a4560079f9f6","system_id":"levelo_inurba_marseille","lat":43.27937,"lon":5.38751,"is_reserved":false,"is_disabled":false,"rental_uris":{"android":"levelo://app?vid=58efc01b-e90d-450e-a17b-a4560079f9f6","ios":"levelo://app?vid=58efc01b-e90d-450e-a17b-a4560079f9f6"},"vehicle_type_id":"4","last_reported":1726243808,"current_range_meters":20800,"station_id":"ce4bhg12rcd13ifvqf80","pricing_plan_id":"cebpf4jnsgd1na2vs0mg"},{"bike_id":"d34255d3-52bf-4ece-9585-2c92724e2029","system_id":"levelo_inurba_marseille","lat":43.26936,"lon":5.40252,"is_reserved":false,"is_disabled":false,"rental_uris":{"android":"levelo://app?vid=d34255d3-52bf-4ece-9585-2c92724e2029","ios":"levelo://app?vid=d34255d3-52bf-4ece-9585-2c92724e2029"},"vehicle_type_id":"4","last_reported":1726243808,"current_range_meters":30800,"station_id":"cjm6bp8fraef2m0cb0m0","pricing_plan_id":"cebpf4jnsgd1na2vs0mg"},{"bike_id":"64ab04ab-6c9e-4d82-90ef-d02340275696","system_id":"levelo_inurba_marseille","lat":43.30303,"lon":5.39218,"is_reserved":false,"is_disabled":false,"rental_uris":{"android":"levelo://app?vid=64ab04ab-6c9e-4d82-90ef-d02340275696","ios":"levelo://app?vid=64ab04ab-6c9e-4d82-90ef-d02340275696"},"vehicle_type_id":"4","last_reported":1726243808,"current_range_meters":28800,"station_id":"ce4bgkh2rcd13ifvqbk0","pricing_plan_id":"cebpf4jnsgd1na2vs0mg"},{"bike_id":"552ccea4-a0ab-4fa2-9015-1ea8da64cd61","system_id":"levelo_inurba_marseille","lat":43.2558,"lon":5.38229,"is_reserved":false,"is_disabled":false,"rental_uris":{"android":"levelo://app?vid=552ccea4-a0ab-4fa2-9015-1ea8da64cd61","ios":"levelo://app?vid=552ccea4-a0ab-4fa2-9015-1ea8da64cd61"},"vehicle_type_id":"4","last_reported":1726243808,"current_range_meters":8400,"station_id":"ce4bhih2rcd13ifvqfs0","pricing_plan_id":"cebpf4jnsgd1na2vs0mg"},{"bike_id":"63706bb1-16b6-46b5-89e6-1c9c7df31f2e","system_id":"levelo_inurba_marseille","lat":43.28444,"lon":5.39189,"is_reserved":false,"is_disabled":false,"rental_uris":{"android":"levelo://app?vid=63706bb1-16b6-46b5-89e6-1c9c7df31f2e","ios":"levelo://app?vid=63706bb1-16b6-46b5-89e6-1c9c7df31f2e"},"vehicle_type_id":"4","last_reported":1726243808,"current_range_meters":20400,"station_id":"ce4bhoh2rcd13ifvqh5g","pricing_plan_id":"cebpf4jnsgd1na2vs0mg"},{"bike_id":"7c0ae92f-06d0-4ab8-bbd8-831a5ec57f08","system_id":"levelo_inurba_marseille","lat":43.24648,"lon":5.38581,"is_reserved":false,"is_disabled":false,"rental_uris":{"android":"levelo://app?vid=7c0ae92f-06d0-4ab8-bbd8-831a5ec57f08","ios":"levelo://app?vid=7c0ae92f-06d0-4ab8-bbd8-831a5ec57f08"},"vehicle_type_id":"4","last_reported":1726243808,"current_range_meters":3600,"station_id":"","pricing_plan_id":"cebpf4jnsgd1na2vs0mg"},{"bike_id":"47456ee9-a7f0-444f-ad0e-ab1f5adaac61","system_id":"levelo_inurba_marseille","lat":43.31329,"lon":5.39688,"is_reserved":false,"is_disabled":false,"rental_uris":{"android":"levelo://app?vid=47456ee9-a7f0-444f-ad0e-ab1f5adaac61","ios":"levelo://app?vid=47456ee9-a7f0-444f-ad0e-ab1f5adaac61"},"vehicle_type_id":"4","last_reported":1726243808,"current_range_meters":7200,"station_id":"ce4bgvp2rcd13ifvqcu0","pricing_plan_id":"cebpf4jnsgd1na2vs0mg"},{"bike_id":"99d71669-09a0-47af-836f-a81d7b0a0219","system_id":"levelo_inurba_marseille","lat":43.24655,"lon":5.38892,"is_reserved":false,"is_disabled":false,"rental_uris":{"android":"levelo://app?vid=99d71669-09a0-47af-836f-a81d7b0a0219","ios":"levelo://app?vid=99d71669-09a0-47af-836f-a81d7b0a0219"},"vehicle_type_id":"4","last_reported":1726243808,"current_range_meters":8000,"station_id":"ce4bhg12rcd13ifvqf60","pricing_plan_id":"cebpf4jnsgd1na2vs0mg"},{"bike_id":"68ea187f-1c60-49b3-828b-0034e7d44877","system_id":"levelo_inurba_marseille","lat":43.28456,"lon":5.35882,"is_reserved":false,"is_disabled":false,"rental_uris":{"android":"levelo://app?vid=68ea187f-1c60-49b3-828b-0034e7d44877","ios":"levelo://app?vid=68ea187f-1c60-49b3-828b-0034e7d44877"},"vehicle_type_id":"4","last_reported":1726243808,"current_range_meters":16000,"station_id":"ce4bhah2rcd13ifvqei0","pricing_plan_id":"cebpf4jnsgd1na2vs0mg"},{"bike_id":"c2fffdea-fea6-4584-bd0b-df4cf5a5c761","system_id":"levelo_inurba_marseille","lat":43.24662,"lon":5.38169,"is_reserved":false,"is_disabled":false,"rental_uris":{"android":"levelo://app?vid=c2fffdea-fea6-4584-bd0b-df4cf5a5c761","ios":"levelo://app?vid=c2fffdea-fea6-4584-bd0b-df4cf5a5c761"},"vehicle_type_id":"4","last_reported":1726243808,"current_range_meters":9200,"station_id":"ce4bhih2rcd13ifvqfr0","pricing_plan_id":"cebpf4jnsgd1na2vs0mg"},{"bike_id":"81452878-7128-4b41-9c54-e833d109da3a","system_id":"levelo_inurba_marseille","lat":43.29263,"lon":5.38446,"is_reserved":false,"is_disabled":false,"rental_uris":{"android":"levelo://app?vid=81452878-7128-4b41-9c54-e833d109da3a","ios":"levelo://app?vid=81452878-7128-4b41-9c54-e833d109da3a"},"vehicle_type_id":"4","last_reported":1726243808,"current_range_meters":6800,"station_id":"ce4bh692rcd13ifvqea0","pricing_plan_id":"cebpf4jnsgd1na2vs0mg"},{"bike_id":"a53f2c4a-ed75-4e71-a05c-4f8ad8e68153","system_id":"levelo_inurba_marseille","lat":43.29025,"lon":5.38649,"is_reserved":false,"is_disabled":false,"rental_uris":{"android":"levelo://app?vid=a53f2c4a-ed75-4e71-a05c-4f8ad8e68153","ios":"levelo://app?vid=a53f2c4a-ed75-4e71-a05c-4f8ad8e68153"},"vehicle_type_id":"4","last_reported":1726243808,"current_range_meters":17600,"station_id":"ce4bh4p2rcd13ifvqe0g","pricing_plan_id":"cebpf4jnsgd1na2vs0mg"},{"bike_id":"b5277d0d-a4da-4571-aadf-a78e40c7a3cb","system_id":"levelo_inurba_marseille","lat":43.30904,"lon":5.36835,"is_reserved":false,"is_disabled":false,"rental_uris":{"android":"levelo://app?vid=b5277d0d-a4da-4571-aadf-a78e40c7a3cb","ios":"levelo://app?vid=b5277d0d-a4da-4571-aadf-a78e40c7a3cb"},"vehicle_type_id":"4","last_reported":1726243808,"current_range_meters":6000,"station_id":"ce4bgn92rcd13ifvqbvg","pricing_plan_id":"cebpf4jnsgd1na2vs0mg"},{"bike_id":"8261ace5-2139-442c-b15a-c46a7ca49df2","system_id":"levelo_inurba_marseille","lat":43.299,"lon":5.43668,"is_reserved":false,"is_disabled":false,"rental_uris":{"android":"levelo://app?vid=8261ace5-2139-442c-b15a-c46a7ca49df2","ios":"levelo://app?vid=8261ace5-2139-442c-b15a-c46a7ca49df2"},"vehicle_type_id":"4","last_reported":1726243808,"current_range_meters":30400,"station_id":"ce4bhpp2rcd13ifvqhfg","pricing_plan_id":"cebpf4jnsgd1na2vs0mg"},{"bike_id":"4afb8b00-be3a-4d15-9b8b-47916e625762","system_id":"levelo_inurba_marseille","lat":43.2853,"lon":5.44235,"is_reserved":false,"is_disabled":false,"rental_uris":{"android":"levelo://app?vid=4afb8b00-be3a-4d15-9b8b-47916e625762","ios":"levelo://app?vid=4afb8b00-be3a-4d15-9b8b-47916e625762"},"vehicle_type_id":"4","last_reported":1726243808,"current_range_meters":27200,"station_id":"","pricing_plan_id":"cebpf4jnsgd1na2vs0mg"},{"bike_id":"6160092f-4981-4a7f-8ab0-7f6f0d746aa2","system_id":"levelo_inurba_marseille","lat":43.24995,"lon":5.38937,"is_reserved":false,"is_disabled":false,"rental_uris":{"android":"levelo://app?vid=6160092f-4981-4a7f-8ab0-7f6f0d746aa2","ios":"levelo://app?vid=6160092f-4981-4a7f-8ab0-7f6f0d746aa2"},"vehicle_type_id":"4","last_reported":1726243808,"current_range_meters":3200,"station_id":"ce4bhgp2rcd13ifvqfd0","pricing_plan_id":"cebpf4jnsgd1na2vs0mg"},{"bike_id":"bb7acf50-b6bc-4b2d-adf4-833abc23b24c","system_id":"levelo_inurba_marseille","lat":43.23191,"lon":5.35546,"is_reserved":false,"is_disabled":false,"rental_uris":{"android":"levelo://app?vid=bb7acf50-b6bc-4b2d-adf4-833abc23b24c","ios":"levelo://app?vid=bb7acf50-b6bc-4b2d-adf4-833abc23b24c"},"vehicle_type_id":"4","last_reported":1726243808,"current_range_meters":38800,"station_id":"ce4bhu92rcd13ifvqi70","pricing_plan_id":"cebpf4jnsgd1na2vs0mg"},{"bike_id":"30185eb9-6d76-4f5b-8b01-90344d5ee667","system_id":"levelo_inurba_marseille","lat":43.30419,"lon":5.41284,"is_reserved":false,"is_disabled":false,"rental_uris":{"android":"levelo://app?vid=30185eb9-6d76-4f5b-8b01-90344d5ee667","ios":"levelo://app?vid=30185eb9-6d76-4f5b-8b01-90344d5ee667"},"vehicle_type_id":"4","last_reported":1726243808,"current_range_meters":9200,"station_id":"ce4bhop2rcd13ifvqh8g","pricing_plan_id":"cebpf4jnsgd1na2vs0mg"},{"bike_id":"bc8be1fd-7bee-49c5-817c-184bdd69b536","system_id":"levelo_inurba_marseille","lat":43.27357,"lon":5.41974,"is_reserved":false,"is_disabled":false,"rental_uris":{"android":"levelo://app?vid=bc8be1fd-7bee-49c5-817c-184bdd69b536","ios":"levelo://app?vid=bc8be1fd-7bee-49c5-817c-184bdd69b536"},"vehicle_type_id":"4","last_reported":1726243808,"current_range_meters":29600,"station_id":"","pricing_plan_id":"cebpf4jnsgd1na2vs0mg"},{"bike_id":"452dd062-9dd5-418a-a8a9-271926c5cfa3","system_id":"levelo_inurba_marseille","lat":43.30192,"lon":5.36611,"is_reserved":false,"is_disabled":false,"rental_uris":{"android":"levelo://app?vid=452dd062-9dd5-418a-a8a9-271926c5cfa3","ios":"levelo://app?vid=452dd062-9dd5-418a-a8a9-271926c5cfa3"},"vehicle_type_id":"4","last_reported":1726243808,"current_range_meters":38800,"station_id":"ce4bgrh2rcd13ifvqc8g","pricing_plan_id":"cebpf4jnsgd1na2vs0mg"},{"bike_id":"bacbd85c-71dc-4ea1-8e8c-762e4476b5b0","system_id":"levelo_inurba_marseille","lat":43.3237,"lon":5.38888,"is_reserved":false,"is_disabled":false,"rental_uris":{"android":"levelo://app?vid=bacbd85c-71dc-4ea1-8e8c-762e4476b5b0","ios":"levelo://app?vid=bacbd85c-71dc-4ea1-8e8c-762e4476b5b0"},"vehicle_type_id":"4","last_reported":1726243808,"current_range_meters":33600,"station_id":"ce4bhqp2rcd13ifvqhog","pricing_plan_id":"cebpf4jnsgd1na2vs0mg"},{"bike_id":"5522c618-786b-41a6-a7ae-55c9cce82493","system_id":"levelo_inurba_marseille","lat":43.29007,"lon":5.374003,"is_reserved":false,"is_disabled":false,"rental_uris":{"android":"levelo://app?vid=5522c618-786b-41a6-a7ae-55c9cce82493","ios":"levelo://app?vid=5522c618-786b-41a6-a7ae-55c9cce82493"},"vehicle_type_id":"4","last_reported":1726243808,"current_range_meters":9200,"station_id":"ce4bh312rcd13ifvqdk0","pricing_plan_id":"cebpf4jnsgd1na2vs0mg"},{"bike_id":"1c887a3b-4540-4149-99b9-24bf12dc648f","system_id":"levelo_inurba_marseille","lat":43.23182,"lon":5.3999,"is_reserved":false,"is_disabled":false,"rental_uris":{"android":"levelo://app?vid=1c887a3b-4540-4149-99b9-24bf12dc648f","ios":"levelo://app?vid=1c887a3b-4540-4149-99b9-24bf12dc648f"},"vehicle_type_id":"4","last_reported":1726243808,"current_range_meters":18800,"station_id":"ce4bhn12rcd13ifvqgqg","pricing_plan_id":"cebpf4jnsgd1na2vs0mg"},{"bike_id":"5e80569e-3c80-456a-8f02-7d1290b9becb","system_id":"levelo_inurba_marseille","lat":43.33026,"lon":5.39039,"is_reserved":false,"is_disabled":false,"rental_uris":{"android":"levelo://app?vid=5e80569e-3c80-456a-8f02-7d1290b9becb","ios":"levelo://app?vid=5e80569e-3c80-456a-8f02-7d1290b9becb"},"vehicle_type_id":"4","last_reported":1726243808,"current_range_meters":32800,"station_id":"ce4bhr92rcd13ifvqhrg","pricing_plan_id":"cebpf4jnsgd1na2vs0mg"},{"bike_id":"a8f38c15-789d-4143-bcb2-f96f5bc6c77e","system_id":"levelo_inurba_marseille","lat":43.28364,"lon":5.38234,"is_reserved":false,"is_disabled":false,"rental_uris":{"android":"levelo://app?vid=a8f38c15-789d-4143-bcb2-f96f5bc6c77e","ios":"levelo://app?vid=a8f38c15-789d-4143-bcb2-f96f5bc6c77e"},"vehicle_type_id":"4","last_reported":1726243808,"current_range_meters":31200,"station_id":"","pricing_plan_id":"cebpf4jnsgd1na2vs0mg"},{"bike_id":"ea33e813-bac6-42b6-9e98-6bc4a63c5091","system_id":"levelo_inurba_marseille","lat":43.28937,"lon":5.36314,"is_reserved":false,"is_disabled":false,"rental_uris":{"android":"levelo://app?vid=ea33e813-bac6-42b6-9e98-6bc4a63c5091","ios":"levelo://app?vid=ea33e813-bac6-42b6-9e98-6bc4a63c5091"},"vehicle_type_id":"4","last_reported":1726243808,"current_range_meters":7200,"station_id":"ce4bhc92rcd13ifvqetg","pricing_plan_id":"cebpf4jnsgd1na2vs0mg"},{"bike_id":"c28ff0f1-1713-431a-bccf-4e7a21e8e39b","system_id":"levelo_inurba_marseille","lat":43.25501,"lon":5.37651,"is_reserved":false,"is_disabled":false,"rental_uris":{"android":"levelo://app?vid=c28ff0f1-1713-431a-bccf-4e7a21e8e39b","ios":"levelo://app?vid=c28ff0f1-1713-431a-bccf-4e7a21e8e39b"},"vehicle_type_id":"4","last_reported":1726243808,"current_range_meters":38800,"station_id":"ce4bhh12rcd13ifvqff0","pricing_plan_id":"cebpf4jnsgd1na2vs0mg"},{"bike_id":"6faa3ef1-a9e1-473d-98c8-1ef595119efc","system_id":"levelo_inurba_marseille","lat":43.29539,"lon":5.38538,"is_reserved":false,"is_disabled":false,"rental_uris":{"android":"levelo://app?vid=6faa3ef1-a9e1-473d-98c8-1ef595119efc","ios":"levelo://app?vid=6faa3ef1-a9e1-473d-98c8-1ef595119efc"},"vehicle_type_id":"4","last_reported":1726243808,"current_range_meters":9600,"station_id":"ce4bgih2rcd13ifvqba0","pricing_plan_id":"cebpf4jnsgd1na2vs0mg"},{"bike_id":"d63b08fd-7716-422a-94e4-8f1dfff5bb11","system_id":"levelo_inurba_marseille","lat":43.28615,"lon":5.35097,"is_reserved":false,"is_disabled":false,"rental_uris":{"android":"levelo://app?vid=d63b08fd-7716-422a-94e4-8f1dfff5bb11","ios":"levelo://app?vid=d63b08fd-7716-422a-94e4-8f1dfff5bb11"},"vehicle_type_id":"4","last_reported":1726243808,"current_range_meters":38400,"station_id":"ce4bhch2rcd13ifvqeug","pricing_plan_id":"cebpf4jnsgd1na2vs0mg"},{"bike_id":"69890d9f-94b6-40f2-bc93-58201930e0d5","system_id":"levelo_inurba_marseille","lat":43.300884,"lon":5.390865,"is_reserved":false,"is_disabled":false,"rental_uris":{"android":"levelo://app?vid=69890d9f-94b6-40f2-bc93-58201930e0d5","ios":"levelo://app?vid=69890d9f-94b6-40f2-bc93-58201930e0d5"},"vehicle_type_id":"4","last_reported":1726243808,"current_range_meters":3200,"station_id":"ce4bh192rcd13ifvqdb0","pricing_plan_id":"cebpf4jnsgd1na2vs0mg"},{"bike_id":"ec70d30b-37ec-4b5c-b10c-9617e30c7fa0","system_id":"levelo_inurba_marseille","lat":43.29897,"lon":5.36622,"is_reserved":false,"is_disabled":false,"rental_uris":{"android":"levelo://app?vid=ec70d30b-37ec-4b5c-b10c-9617e30c7fa0","ios":"levelo://app?vid=ec70d30b-37ec-4b5c-b10c-9617e30c7fa0"},"vehicle_type_id":"4","last_reported":1726243808,"current_range_meters":16400,"station_id":"","pricing_plan_id":"cebpf4jnsgd1na2vs0mg"},{"bike_id":"184e53f6-0940-4e93-9693-8a5f5f9da80d","system_id":"levelo_inurba_marseille","lat":43.290392,"lon":5.399659,"is_reserved":false,"is_disabled":false,"rental_uris":{"android":"levelo://app?vid=184e53f6-0940-4e93-9693-8a5f5f9da80d","ios":"levelo://app?vid=184e53f6-0940-4e93-9693-8a5f5f9da80d"},"vehicle_type_id":"4","last_reported":1726243808,"current_range_meters":16000,"station_id":"ce4bh392rcd13ifvqdm0","pricing_plan_id":"cebpf4jnsgd1na2vs0mg"},{"bike_id":"415d3c4f-5242-4572-8d05-9e1bd45eae7f","system_id":"levelo_inurba_marseille","lat":43.25575,"lon":5.38235,"is_reserved":false,"is_disabled":false,"rental_uris":{"android":"levelo://app?vid=415d3c4f-5242-4572-8d05-9e1bd45eae7f","ios":"levelo://app?vid=415d3c4f-5242-4572-8d05-9e1bd45eae7f"},"vehicle_type_id":"4","last_reported":1726243808,"current_range_meters":32400,"station_id":"ce4bhih2rcd13ifvqfs0","pricing_plan_id":"cebpf4jnsgd1na2vs0mg"},{"bike_id":"06be586c-7c46-466c-8f97-eac0c3d41244","system_id":"levelo_inurba_marseille","lat":43.27372,"lon":5.3626,"is_reserved":false,"is_disabled":false,"rental_uris":{"android":"levelo://app?vid=06be586c-7c46-466c-8f97-eac0c3d41244","ios":"levelo://app?vid=06be586c-7c46-466c-8f97-eac0c3d41244"},"vehicle_type_id":"4","last_reported":1726243808,"current_range_meters":28800,"station_id":"ce4bhbh2rcd13ifvqeo0","pricing_plan_id":"cebpf4jnsgd1na2vs0mg"},{"bike_id":"ca1b0649-3cdc-4fb6-a977-29b73bef590a","system_id":"levelo_inurba_marseille","lat":43.25736,"lon":5.41119,"is_reserved":false,"is_disabled":false,"rental_uris":{"android":"levelo://app?vid=ca1b0649-3cdc-4fb6-a977-29b73bef590a","ios":"levelo://app?vid=ca1b0649-3cdc-4fb6-a977-29b73bef590a"},"vehicle_type_id":"4","last_reported":1726243808,"current_range_meters":26800,"station_id":"ce4bhkp2rcd13ifvqgd0","pricing_plan_id":"cebpf4jnsgd1na2vs0mg"},{"bike_id":"b5b5287e-b66f-4f19-b47a-1f428d9f1b49","system_id":"levelo_inurba_marseille","lat":43.2314,"lon":5.43656,"is_reserved":false,"is_disabled":false,"rental_uris":{"android":"levelo://app?vid=b5b5287e-b66f-4f19-b47a-1f428d9f1b49","ios":"levelo://app?vid=b5b5287e-b66f-4f19-b47a-1f428d9f1b49"},"vehicle_type_id":"4","last_reported":1726243808,"current_range_meters":37600,"station_id":"ce4bhmp2rcd13ifvqgog","pricing_plan_id":"cebpf4jnsgd1na2vs0mg"},{"bike_id":"42e84e6d-33b9-4c46-830b-ea91b25f5838","system_id":"levelo_inurba_marseille","lat":43.30649,"lon":5.40092,"is_reserved":false,"is_disabled":false,"rental_uris":{"android":"levelo://app?vid=42e84e6d-33b9-4c46-830b-ea91b25f5838","ios":"levelo://app?vid=42e84e6d-33b9-4c46-830b-ea91b25f5838"},"vehicle_type_id":"4","last_reported":1726243808,"current_range_meters":32000,"station_id":"ce4bh112rcd13ifvqda0","pricing_plan_id":"cebpf4jnsgd1na2vs0mg"},{"bike_id":"f8702662-a0ec-4054-91f8-70a592e07b2d","system_id":"levelo_inurba_marseille","lat":43.28568,"lon":5.39494,"is_reserved":false,"is_disabled":false,"rental_uris":{"android":"levelo://app?vid=f8702662-a0ec-4054-91f8-70a592e07b2d","ios":"levelo://app?vid=f8702662-a0ec-4054-91f8-70a592e07b2d"},"vehicle_type_id":"4","last_reported":1726243808,"current_range_meters":38800,"station_id":"ce4bh292rcd13ifvqdg0","pricing_plan_id":"cebpf4jnsgd1na2vs0mg"},{"bike_id":"5370546a-7244-45da-af29-6ba1e105add1","system_id":"levelo_inurba_marseille","lat":43.27366,"lon":5.36235,"is_reserved":false,"is_disabled":false,"rental_uris":{"android":"levelo://app?vid=5370546a-7244-45da-af29-6ba1e105add1","ios":"levelo://app?vid=5370546a-7244-45da-af29-6ba1e105add1"},"vehicle_type_id":"4","last_reported":1726243808,"current_range_meters":24000,"station_id":"ce4bhbh2rcd13ifvqeo0","pricing_plan_id":"cebpf4jnsgd1na2vs0mg"},{"bike_id":"c38c479d-fa17-4193-b4dc-3af0a96a56b4","system_id":"levelo_inurba_marseille","lat":43.24188,"lon":5.39722,"is_reserved":false,"is_disabled":false,"rental_uris":{"android":"levelo://app?vid=c38c479d-fa17-4193-b4dc-3af0a96a56b4","ios":"levelo://app?vid=c38c479d-fa17-4193-b4dc-3af0a96a56b4"},"vehicle_type_id":"4","last_reported":1726243808,"current_range_meters":6000,"station_id":"ce4bhn12rcd13ifvqgpg","pricing_plan_id":"cebpf4jnsgd1na2vs0mg"},{"bike_id":"e0b2d167-d2f5-4161-9abb-494914b0d038","system_id":"levelo_inurba_marseille","lat":43.30557,"lon":5.36553,"is_reserved":false,"is_disabled":false,"rental_uris":{"android":"levelo://app?vid=e0b2d167-d2f5-4161-9abb-494914b0d038","ios":"levelo://app?vid=e0b2d167-d2f5-4161-9abb-494914b0d038"},"vehicle_type_id":"4","last_reported":1726243808,"current_range_meters":32000,"station_id":"ce4bgs12rcd13ifvqcag","pricing_plan_id":"cebpf4jnsgd1na2vs0mg"},{"bike_id":"d36bb78f-d929-4d06-b64b-cab67d5b9432","system_id":"levelo_inurba_marseille","lat":43.29729,"lon":5.37685,"is_reserved":false,"is_disabled":false,"rental_uris":{"android":"levelo://app?vid=d36bb78f-d929-4d06-b64b-cab67d5b9432","ios":"levelo://app?vid=d36bb78f-d929-4d06-b64b-cab67d5b9432"},"vehicle_type_id":"4","last_reported":1726243808,"current_range_meters":32400,"station_id":"ce4bgkh2rcd13ifvqbl0","pricing_plan_id":"cebpf4jnsgd1na2vs0mg"},{"bike_id":"1964d304-3ebb-4f59-a5c9-a65ad18d80cb","system_id":"levelo_inurba_marseille","lat":43.31074,"lon":5.38358,"is_reserved":false,"is_disabled":false,"rental_uris":{"android":"levelo://app?vid=1964d304-3ebb-4f59-a5c9-a65ad18d80cb","ios":"levelo://app?vid=1964d304-3ebb-4f59-a5c9-a65ad18d80cb"},"vehicle_type_id":"4","last_reported":1726243808,"current_range_meters":38000,"station_id":"ce4bgv92rcd13ifvqcr0","pricing_plan_id":"cebpf4jnsgd1na2vs0mg"},{"bike_id":"1e9ab519-e28c-400f-aecb-cbc58f39def2","system_id":"levelo_inurba_marseille","lat":43.29782,"lon":5.37879,"is_reserved":false,"is_disabled":false,"rental_uris":{"android":"levelo://app?vid=1e9ab519-e28c-400f-aecb-cbc58f39def2","ios":"levelo://app?vid=1e9ab519-e28c-400f-aecb-cbc58f39def2"},"vehicle_type_id":"4","last_reported":1726243808,"current_range_meters":8000,"station_id":"","pricing_plan_id":"cebpf4jnsgd1na2vs0mg"},{"bike_id":"03200ce1-e816-4485-a9db-29a204ad97d8","system_id":"levelo_inurba_marseille","lat":43.23955,"lon":5.36645,"is_reserved":false,"is_disabled":false,"rental_uris":{"android":"levelo://app?vid=03200ce1-e816-4485-a9db-29a204ad97d8","ios":"levelo://app?vid=03200ce1-e816-4485-a9db-29a204ad97d8"},"vehicle_type_id":"4","last_reported":1726243808,"current_range_meters":39200,"station_id":"ce4bhi12rcd13ifvqfp0","pricing_plan_id":"cebpf4jnsgd1na2vs0mg"},{"bike_id":"954d2b54-362e-442e-bcaa-d17939d90e2d","system_id":"levelo_inurba_marseille","lat":43.25495,"lon":5.37653,"is_reserved":false,"is_disabled":false,"rental_uris":{"android":"levelo://app?vid=954d2b54-362e-442e-bcaa-d17939d90e2d","ios":"levelo://app?vid=954d2b54-362e-442e-bcaa-d17939d90e2d"},"vehicle_type_id":"4","last_reported":1726243808,"current_range_meters":38800,"station_id":"ce4bhh12rcd13ifvqff0","pricing_plan_id":"cebpf4jnsgd1na2vs0mg"},{"bike_id":"82dec1e1-c024-4a59-b080-1ca526441f94","system_id":"levelo_inurba_marseille","lat":43.337612,"lon":5.374504,"is_reserved":false,"is_disabled":false,"rental_uris":{"android":"levelo://app?vid=82dec1e1-c024-4a59-b080-1ca526441f94","ios":"levelo://app?vid=82dec1e1-c024-4a59-b080-1ca526441f94"},"vehicle_type_id":"4","last_reported":1726243808,"current_range_meters":14000,"station_id":"","pricing_plan_id":"cebpf4jnsgd1na2vs0mg"},{"bike_id":"02269f0e-1758-473f-8a5c-764f1ddf9ddc","system_id":"levelo_inurba_marseille","lat":43.2319,"lon":5.39997,"is_reserved":false,"is_disabled":false,"rental_uris":{"android":"levelo://app?vid=02269f0e-1758-473f-8a5c-764f1ddf9ddc","ios":"levelo://app?vid=02269f0e-1758-473f-8a5c-764f1ddf9ddc"},"vehicle_type_id":"4","last_reported":1726243808,"current_range_meters":39200,"station_id":"ce4bhn12rcd13ifvqgqg","pricing_plan_id":"cebpf4jnsgd1na2vs0mg"},{"bike_id":"baf7d0fc-eae3-4f0c-99fc-59a5573e709f","system_id":"levelo_inurba_marseille","lat":43.29846,"lon":5.36284,"is_reserved":false,"is_disabled":false,"rental_uris":{"android":"levelo://app?vid=baf7d0fc-eae3-4f0c-99fc-59a5573e709f","ios":"levelo://app?vid=baf7d0fc-eae3-4f0c-99fc-59a5573e709f"},"vehicle_type_id":"4","last_reported":1726243808,"current_range_meters":31200,"station_id":"ce4bgpp2rcd13ifvqc3g","pricing_plan_id":"cebpf4jnsgd1na2vs0mg"},{"bike_id":"d1e94577-780d-4b23-8665-9ea339ca8bfd","system_id":"levelo_inurba_marseille","lat":43.29791,"lon":5.37118,"is_reserved":false,"is_disabled":false,"rental_uris":{"android":"levelo://app?vid=d1e94577-780d-4b23-8665-9ea339ca8bfd","ios":"levelo://app?vid=d1e94577-780d-4b23-8665-9ea339ca8bfd"},"vehicle_type_id":"4","last_reported":1726243808,"current_range_meters":21600,"station_id":"ce4bgop2rcd13ifvqc1g","pricing_plan_id":"cebpf4jnsgd1na2vs0mg"},{"bike_id":"b8d06701-fd47-4587-8b85-b15e05fc053a","system_id":"levelo_inurba_marseille","lat":43.30648,"lon":5.40102,"is_reserved":false,"is_disabled":false,"rental_uris":{"android":"levelo://app?vid=b8d06701-fd47-4587-8b85-b15e05fc053a","ios":"levelo://app?vid=b8d06701-fd47-4587-8b85-b15e05fc053a"},"vehicle_type_id":"4","last_reported":1726243808,"current_range_meters":30000,"station_id":"ce4bh112rcd13ifvqda0","pricing_plan_id":"cebpf4jnsgd1na2vs0mg"},{"bike_id":"9403782a-bc29-462c-af67-80761cc7e68e","system_id":"levelo_inurba_marseille","lat":43.2804,"lon":5.36945,"is_reserved":false,"is_disabled":false,"rental_uris":{"android":"levelo://app?vid=9403782a-bc29-462c-af67-80761cc7e68e","ios":"levelo://app?vid=9403782a-bc29-462c-af67-80761cc7e68e"},"vehicle_type_id":"4","last_reported":1726243808,"current_range_meters":20400,"station_id":"ce4bha12rcd13ifvqef0","pricing_plan_id":"cebpf4jnsgd1na2vs0mg"},{"bike_id":"1b8221b4-fc18-4abc-bca7-a933bd96387c","system_id":"levelo_inurba_marseille","lat":43.299583,"lon":5.371512,"is_reserved":false,"is_disabled":false,"rental_uris":{"android":"levelo://app?vid=1b8221b4-fc18-4abc-bca7-a933bd96387c","ios":"levelo://app?vid=1b8221b4-fc18-4abc-bca7-a933bd96387c"},"vehicle_type_id":"4","last_reported":1726243808,"current_range_meters":38400,"station_id":"ce4bgr92rcd13ifvqc7g","pricing_plan_id":"cebpf4jnsgd1na2vs0mg"},{"bike_id":"61e00977-be43-400f-99ea-3c33330f7657","system_id":"levelo_inurba_marseille","lat":43.2501,"lon":5.38916,"is_reserved":false,"is_disabled":false,"rental_uris":{"android":"levelo://app?vid=61e00977-be43-400f-99ea-3c33330f7657","ios":"levelo://app?vid=61e00977-be43-400f-99ea-3c33330f7657"},"vehicle_type_id":"4","last_reported":1726243808,"current_range_meters":24800,"station_id":"ce4bhgp2rcd13ifvqfd0","pricing_plan_id":"cebpf4jnsgd1na2vs0mg"},{"bike_id":"0032f5f1-e541-4093-a68c-d29e851a1466","system_id":"levelo_inurba_marseille","lat":43.25,"lon":5.38934,"is_reserved":false,"is_disabled":false,"rental_uris":{"android":"levelo://app?vid=0032f5f1-e541-4093-a68c-d29e851a1466","ios":"levelo://app?vid=0032f5f1-e541-4093-a68c-d29e851a1466"},"vehicle_type_id":"4","last_reported":1726243808,"current_range_meters":16800,"station_id":"ce4bhgp2rcd13ifvqfd0","pricing_plan_id":"cebpf4jnsgd1na2vs0mg"},{"bike_id":"6f460960-ce1e-4b86-8066-4975ee77fdb2","system_id":"levelo_inurba_marseille","lat":43.3248,"lon":5.36558,"is_reserved":false,"is_disabled":false,"rental_uris":{"android":"levelo://app?vid=6f460960-ce1e-4b86-8066-4975ee77fdb2","ios":"levelo://app?vid=6f460960-ce1e-4b86-8066-4975ee77fdb2"},"vehicle_type_id":"4","last_reported":1726243808,"current_range_meters":4400,"station_id":"ce4bhs12rcd13ifvqhvg","pricing_plan_id":"cebpf4jnsgd1na2vs0mg"},{"bike_id":"fa2b6255-eaf4-48d2-a30a-0d7f00982f6f","system_id":"levelo_inurba_marseille","lat":43.298203,"lon":5.380935,"is_reserved":false,"is_disabled":false,"rental_uris":{"android":"levelo://app?vid=fa2b6255-eaf4-48d2-a30a-0d7f00982f6f","ios":"levelo://app?vid=fa2b6255-eaf4-48d2-a30a-0d7f00982f6f"},"vehicle_type_id":"4","last_reported":1726243808,"current_range_meters":26000,"station_id":"ce4bgip2rcd13ifvqbb0","pricing_plan_id":"cebpf4jnsgd1na2vs0mg"},{"bike_id":"dea1de66-a000-470f-bed0-40cabf03afe3","system_id":"levelo_inurba_marseille","lat":43.27427,"lon":5.3942,"is_reserved":false,"is_disabled":false,"rental_uris":{"android":"levelo://app?vid=dea1de66-a000-470f-bed0-40cabf03afe3","ios":"levelo://app?vid=dea1de66-a000-470f-bed0-40cabf03afe3"},"vehicle_type_id":"4","last_reported":1726243808,"current_range_meters":33600,"station_id":"ce4bhdp2rcd13ifvqf20","pricing_plan_id":"cebpf4jnsgd1na2vs0mg"},{"bike_id":"f5834b57-ea8d-49ce-ad29-288e1199aea5","system_id":"levelo_inurba_marseille","lat":43.25816,"lon":5.39433,"is_reserved":false,"is_disabled":false,"rental_uris":{"android":"levelo://app?vid=f5834b57-ea8d-49ce-ad29-288e1199aea5","ios":"levelo://app?vid=f5834b57-ea8d-49ce-ad29-288e1199aea5"},"vehicle_type_id":"4","last_reported":1726243808,"current_range_meters":37600,"station_id":"ce4bhip2rcd13ifvqft0","pricing_plan_id":"cebpf4jnsgd1na2vs0mg"},{"bike_id":"2963c7ee-a014-4099-8a12-f0a4dd9c2eaa","system_id":"levelo_inurba_marseille","lat":43.29582,"lon":5.36741,"is_reserved":false,"is_disabled":false,"rental_uris":{"android":"levelo://app?vid=2963c7ee-a014-4099-8a12-f0a4dd9c2eaa","ios":"levelo://app?vid=2963c7ee-a014-4099-8a12-f0a4dd9c2eaa"},"vehicle_type_id":"4","last_reported":1726243808,"current_range_meters":20400,"station_id":"ce4bgph2rcd13ifvqc2g","pricing_plan_id":"cebpf4jnsgd1na2vs0mg"},{"bike_id":"ed83ac57-7faa-44f9-aff3-54a01c2b9301","system_id":"levelo_inurba_marseille","lat":43.29553,"lon":5.422851,"is_reserved":false,"is_disabled":false,"rental_uris":{"android":"levelo://app?vid=ed83ac57-7faa-44f9-aff3-54a01c2b9301","ios":"levelo://app?vid=ed83ac57-7faa-44f9-aff3-54a01c2b9301"},"vehicle_type_id":"4","last_reported":1726243808,"current_range_meters":28800,"station_id":"ce4bhph2rcd13ifvqhdg","pricing_plan_id":"cebpf4jnsgd1na2vs0mg"},{"bike_id":"cdfa9b92-6aea-4b2a-b18f-08e40cb19af9","system_id":"levelo_inurba_marseille","lat":43.23182,"lon":5.39986,"is_reserved":false,"is_disabled":false,"rental_uris":{"android":"levelo://app?vid=cdfa9b92-6aea-4b2a-b18f-08e40cb19af9","ios":"levelo://app?vid=cdfa9b92-6aea-4b2a-b18f-08e40cb19af9"},"vehicle_type_id":"4","last_reported":1726243808,"current_range_meters":10000,"station_id":"ce4bhn12rcd13ifvqgqg","pricing_plan_id":"cebpf4jnsgd1na2vs0mg"},{"bike_id":"8375304b-8959-48b9-88d3-f98e6b2b9263","system_id":"levelo_inurba_marseille","lat":43.3019,"lon":5.36605,"is_reserved":false,"is_disabled":false,"rental_uris":{"android":"levelo://app?vid=8375304b-8959-48b9-88d3-f98e6b2b9263","ios":"levelo://app?vid=8375304b-8959-48b9-88d3-f98e6b2b9263"},"vehicle_type_id":"4","last_reported":1726243808,"current_range_meters":24400,"station_id":"ce4bgrh2rcd13ifvqc8g","pricing_plan_id":"cebpf4jnsgd1na2vs0mg"},{"bike_id":"3b4631f1-0e73-4449-be64-c1cdece0b434","system_id":"levelo_inurba_marseille","lat":43.2827,"lon":5.35091,"is_reserved":false,"is_disabled":false,"rental_uris":{"android":"levelo://app?vid=3b4631f1-0e73-4449-be64-c1cdece0b434","ios":"levelo://app?vid=3b4631f1-0e73-4449-be64-c1cdece0b434"},"vehicle_type_id":"4","last_reported":1726243808,"current_range_meters":28400,"station_id":"ce4bhbp2rcd13ifvqerg","pricing_plan_id":"cebpf4jnsgd1na2vs0mg"},{"bike_id":"df199941-d39f-4350-a019-1267cbe92c0a","system_id":"levelo_inurba_marseille","lat":43.29038,"lon":5.38648,"is_reserved":false,"is_disabled":false,"rental_uris":{"android":"levelo://app?vid=df199941-d39f-4350-a019-1267cbe92c0a","ios":"levelo://app?vid=df199941-d39f-4350-a019-1267cbe92c0a"},"vehicle_type_id":"4","last_reported":1726243808,"current_range_meters":22400,"station_id":"ce4bh4p2rcd13ifvqe0g","pricing_plan_id":"cebpf4jnsgd1na2vs0mg"},{"bike_id":"bc6f5d67-e5da-4841-a122-d160861ea0ae","system_id":"levelo_inurba_marseille","lat":43.29624,"lon":5.37169,"is_reserved":false,"is_disabled":false,"rental_uris":{"android":"levelo://app?vid=bc6f5d67-e5da-4841-a122-d160861ea0ae","ios":"levelo://app?vid=bc6f5d67-e5da-4841-a122-d160861ea0ae"},"vehicle_type_id":"4","last_reported":1726243808,"current_range_meters":38800,"station_id":"ce4bgnh2rcd13ifvqc0g","pricing_plan_id":"cebpf4jnsgd1na2vs0mg"},{"bike_id":"1d004851-c08b-4a01-aec6-6340c8507935","system_id":"levelo_inurba_marseille","lat":43.24178,"lon":5.39729,"is_reserved":false,"is_disabled":false,"rental_uris":{"android":"levelo://app?vid=1d004851-c08b-4a01-aec6-6340c8507935","ios":"levelo://app?vid=1d004851-c08b-4a01-aec6-6340c8507935"},"vehicle_type_id":"4","last_reported":1726243808,"current_range_meters":32800,"station_id":"ce4bhn12rcd13ifvqgpg","pricing_plan_id":"cebpf4jnsgd1na2vs0mg"},{"bike_id":"f20f613d-77b3-4abc-847d-4abd98073b48","system_id":"levelo_inurba_marseille","lat":43.28621,"lon":5.35104,"is_reserved":false,"is_disabled":false,"rental_uris":{"android":"levelo://app?vid=f20f613d-77b3-4abc-847d-4abd98073b48","ios":"levelo://app?vid=f20f613d-77b3-4abc-847d-4abd98073b48"},"vehicle_type_id":"4","last_reported":1726243808,"current_range_meters":30400,"station_id":"ce4bhch2rcd13ifvqeug","pricing_plan_id":"cebpf4jnsgd1na2vs0mg"},{"bike_id":"52ef493d-112f-4c68-8662-3bb1cdb9cb18","system_id":"levelo_inurba_marseille","lat":43.23152,"lon":5.43721,"is_reserved":false,"is_disabled":false,"rental_uris":{"android":"levelo://app?vid=52ef493d-112f-4c68-8662-3bb1cdb9cb18","ios":"levelo://app?vid=52ef493d-112f-4c68-8662-3bb1cdb9cb18"},"vehicle_type_id":"4","last_reported":1726243808,"current_range_meters":34000,"station_id":"ce4bhmp2rcd13ifvqgog","pricing_plan_id":"cebpf4jnsgd1na2vs0mg"},{"bike_id":"532ee7e8-5451-445e-9a29-a93e453f150b","system_id":"levelo_inurba_marseille","lat":43.276764,"lon":5.388621,"is_reserved":false,"is_disabled":false,"rental_uris":{"android":"levelo://app?vid=532ee7e8-5451-445e-9a29-a93e453f150b","ios":"levelo://app?vid=532ee7e8-5451-445e-9a29-a93e453f150b"},"vehicle_type_id":"4","last_reported":1726243808,"current_range_meters":38400,"station_id":"ce4bhi12rcd13ifvqfo0","pricing_plan_id":"cebpf4jnsgd1na2vs0mg"},{"bike_id":"e46e2812-c16e-48dc-aff6-d74c45d3ef4f","system_id":"levelo_inurba_marseille","lat":43.298757,"lon":5.389006,"is_reserved":false,"is_disabled":false,"rental_uris":{"android":"levelo://app?vid=e46e2812-c16e-48dc-aff6-d74c45d3ef4f","ios":"levelo://app?vid=e46e2812-c16e-48dc-aff6-d74c45d3ef4f"},"vehicle_type_id":"4","last_reported":1726243808,"current_range_meters":22000,"station_id":"ce4bh392rcd13ifvqdl0","pricing_plan_id":"cebpf4jnsgd1na2vs0mg"},{"bike_id":"e2a9ef80-b0c6-4e8a-a032-3e6634094c93","system_id":"levelo_inurba_marseille","lat":43.28616,"lon":5.35105,"is_reserved":false,"is_disabled":false,"rental_uris":{"android":"levelo://app?vid=e2a9ef80-b0c6-4e8a-a032-3e6634094c93","ios":"levelo://app?vid=e2a9ef80-b0c6-4e8a-a032-3e6634094c93"},"vehicle_type_id":"4","last_reported":1726243808,"current_range_meters":3600,"station_id":"ce4bhch2rcd13ifvqeug","pricing_plan_id":"cebpf4jnsgd1na2vs0mg"},{"bike_id":"777e8c02-4812-4553-9346-a7a9f60db499","system_id":"levelo_inurba_marseille","lat":43.30412,"lon":5.41288,"is_reserved":false,"is_disabled":false,"rental_uris":{"android":"levelo://app?vid=777e8c02-4812-4553-9346-a7a9f60db499","ios":"levelo://app?vid=777e8c02-4812-4553-9346-a7a9f60db499"},"vehicle_type_id":"4","last_reported":1726243808,"current_range_meters":36400,"station_id":"ce4bhop2rcd13ifvqh8g","pricing_plan_id":"cebpf4jnsgd1na2vs0mg"},{"bike_id":"464c3be2-f357-4bf6-9644-c7b87ac60161","system_id":"levelo_inurba_marseille","lat":43.29582,"lon":5.36738,"is_reserved":false,"is_disabled":false,"rental_uris":{"android":"levelo://app?vid=464c3be2-f357-4bf6-9644-c7b87ac60161","ios":"levelo://app?vid=464c3be2-f357-4bf6-9644-c7b87ac60161"},"vehicle_type_id":"4","last_reported":1726243808,"current_range_meters":35600,"station_id":"ce4bgph2rcd13ifvqc2g","pricing_plan_id":"cebpf4jnsgd1na2vs0mg"},{"bike_id":"cf6c9917-4a0d-445e-9fb1-543afd2c0e87","system_id":"levelo_inurba_marseille","lat":43.23155,"lon":5.43701,"is_reserved":false,"is_disabled":false,"rental_uris":{"android":"levelo://app?vid=cf6c9917-4a0d-445e-9fb1-543afd2c0e87","ios":"levelo://app?vid=cf6c9917-4a0d-445e-9fb1-543afd2c0e87"},"vehicle_type_id":"4","last_reported":1726243808,"current_range_meters":38800,"station_id":"ce4bhmp2rcd13ifvqgog","pricing_plan_id":"cebpf4jnsgd1na2vs0mg"},{"bike_id":"4a2e5f71-141e-47bf-bfeb-ee602e710085","system_id":"levelo_inurba_marseille","lat":43.2694,"lon":5.40255,"is_reserved":false,"is_disabled":false,"rental_uris":{"android":"levelo://app?vid=4a2e5f71-141e-47bf-bfeb-ee602e710085","ios":"levelo://app?vid=4a2e5f71-141e-47bf-bfeb-ee602e710085"},"vehicle_type_id":"4","last_reported":1726243808,"current_range_meters":19200,"station_id":"cjm6bp8fraef2m0cb0m0","pricing_plan_id":"cebpf4jnsgd1na2vs0mg"},{"bike_id":"d91b2ce1-75f7-4b47-9670-dd17a0cfcfa7","system_id":"levelo_inurba_marseille","lat":43.24543,"lon":5.39525,"is_reserved":false,"is_disabled":false,"rental_uris":{"android":"levelo://app?vid=d91b2ce1-75f7-4b47-9670-dd17a0cfcfa7","ios":"levelo://app?vid=d91b2ce1-75f7-4b47-9670-dd17a0cfcfa7"},"vehicle_type_id":"4","last_reported":1726243808,"current_range_meters":28400,"station_id":"ce4bhlp2rcd13ifvqgjg","pricing_plan_id":"cebpf4jnsgd1na2vs0mg"},{"bike_id":"6c2debfa-51ec-4068-a105-bb2182e97057","system_id":"levelo_inurba_marseille","lat":43.30927,"lon":5.40143,"is_reserved":false,"is_disabled":false,"rental_uris":{"android":"levelo://app?vid=6c2debfa-51ec-4068-a105-bb2182e97057","ios":"levelo://app?vid=6c2debfa-51ec-4068-a105-bb2182e97057"},"vehicle_type_id":"4","last_reported":1726243808,"current_range_meters":30000,"station_id":"ce4bgvp2rcd13ifvqct0","pricing_plan_id":"cebpf4jnsgd1na2vs0mg"},{"bike_id":"b8842ea2-ab2d-4b52-b429-382a81c1a7d1","system_id":"levelo_inurba_marseille","lat":43.27997,"lon":5.40011,"is_reserved":false,"is_disabled":false,"rental_uris":{"android":"levelo://app?vid=b8842ea2-ab2d-4b52-b429-382a81c1a7d1","ios":"levelo://app?vid=b8842ea2-ab2d-4b52-b429-382a81c1a7d1"},"vehicle_type_id":"4","last_reported":1726243808,"current_range_meters":23200,"station_id":"ce4bho92rcd13ifvqh4g","pricing_plan_id":"cebpf4jnsgd1na2vs0mg"},{"bike_id":"5d516259-1bd4-4183-80d3-7796436b9155","system_id":"levelo_inurba_marseille","lat":43.26488,"lon":5.3954,"is_reserved":false,"is_disabled":false,"rental_uris":{"android":"levelo://app?vid=5d516259-1bd4-4183-80d3-7796436b9155","ios":"levelo://app?vid=5d516259-1bd4-4183-80d3-7796436b9155"},"vehicle_type_id":"4","last_reported":1726243808,"current_range_meters":26800,"station_id":"ce4bhi12rcd13ifvqfq0","pricing_plan_id":"cebpf4jnsgd1na2vs0mg"},{"bike_id":"32194af3-86e9-4c13-82d6-0103baeea50e","system_id":"levelo_inurba_marseille","lat":43.27565,"lon":5.38426,"is_reserved":false,"is_disabled":false,"rental_uris":{"android":"levelo://app?vid=32194af3-86e9-4c13-82d6-0103baeea50e","ios":"levelo://app?vid=32194af3-86e9-4c13-82d6-0103baeea50e"},"vehicle_type_id":"4","last_reported":1726243808,"current_range_meters":20400,"station_id":"ce4bhh92rcd13ifvqfi0","pricing_plan_id":"cebpf4jnsgd1na2vs0mg"},{"bike_id":"8431cde2-6bab-4b9d-9d3c-38ae873b457e","system_id":"levelo_inurba_marseille","lat":43.24177,"lon":5.39727,"is_reserved":false,"is_disabled":false,"rental_uris":{"android":"levelo://app?vid=8431cde2-6bab-4b9d-9d3c-38ae873b457e","ios":"levelo://app?vid=8431cde2-6bab-4b9d-9d3c-38ae873b457e"},"vehicle_type_id":"4","last_reported":1726243808,"current_range_meters":16800,"station_id":"ce4bhn12rcd13ifvqgpg","pricing_plan_id":"cebpf4jnsgd1na2vs0mg"},{"bike_id":"f400d370-a20e-4ced-86f0-64f62510749c","system_id":"levelo_inurba_marseille","lat":43.3237,"lon":5.38926,"is_reserved":false,"is_disabled":false,"rental_uris":{"android":"levelo://app?vid=f400d370-a20e-4ced-86f0-64f62510749c","ios":"levelo://app?vid=f400d370-a20e-4ced-86f0-64f62510749c"},"vehicle_type_id":"4","last_reported":1726243808,"current_range_meters":4000,"station_id":"","pricing_plan_id":"cebpf4jnsgd1na2vs0mg"},{"bike_id":"8578940c-55cb-4da5-a5e8-95031a7a0872","system_id":"levelo_inurba_marseille","lat":43.2586,"lon":5.39915,"is_reserved":false,"is_disabled":false,"rental_uris":{"android":"levelo://app?vid=8578940c-55cb-4da5-a5e8-95031a7a0872","ios":"levelo://app?vid=8578940c-55cb-4da5-a5e8-95031a7a0872"},"vehicle_type_id":"4","last_reported":1726243808,"current_range_meters":35600,"station_id":"ce4bhl92rcd13ifvqghg","pricing_plan_id":"cebpf4jnsgd1na2vs0mg"},{"bike_id":"5115cfc7-2f9b-470d-8e05-d689bff19441","system_id":"levelo_inurba_marseille","lat":43.30542,"lon":5.36532,"is_reserved":false,"is_disabled":false,"rental_uris":{"android":"levelo://app?vid=5115cfc7-2f9b-470d-8e05-d689bff19441","ios":"levelo://app?vid=5115cfc7-2f9b-470d-8e05-d689bff19441"},"vehicle_type_id":"4","last_reported":1726243808,"current_range_meters":11200,"station_id":"ce4bgs12rcd13ifvqcag","pricing_plan_id":"cebpf4jnsgd1na2vs0mg"},{"bike_id":"29cde858-91d6-4fe7-8095-73bb300eeeb0","system_id":"levelo_inurba_marseille","lat":43.31754,"lon":5.39006,"is_reserved":false,"is_disabled":false,"rental_uris":{"android":"levelo://app?vid=29cde858-91d6-4fe7-8095-73bb300eeeb0","ios":"levelo://app?vid=29cde858-91d6-4fe7-8095-73bb300eeeb0"},"vehicle_type_id":"4","last_reported":1726243808,"current_range_meters":30400,"station_id":"ce4bhqp2rcd13ifvqhng","pricing_plan_id":"cebpf4jnsgd1na2vs0mg"},{"bike_id":"49693315-ab43-4373-aac3-4b5b6e2aaed0","system_id":"levelo_inurba_marseille","lat":43.265709,"lon":5.39007,"is_reserved":false,"is_disabled":false,"rental_uris":{"android":"levelo://app?vid=49693315-ab43-4373-aac3-4b5b6e2aaed0","ios":"levelo://app?vid=49693315-ab43-4373-aac3-4b5b6e2aaed0"},"vehicle_type_id":"4","last_reported":1726243808,"current_range_meters":8000,"station_id":"ce4bhe12rcd13ifvqf30","pricing_plan_id":"cebpf4jnsgd1na2vs0mg"},{"bike_id":"fc61066f-06d8-4a2f-adcf-8c083d39053f","system_id":"levelo_inurba_marseille","lat":43.2558,"lon":5.38227,"is_reserved":false,"is_disabled":false,"rental_uris":{"android":"levelo://app?vid=fc61066f-06d8-4a2f-adcf-8c083d39053f","ios":"levelo://app?vid=fc61066f-06d8-4a2f-adcf-8c083d39053f"},"vehicle_type_id":"4","last_reported":1726243808,"current_range_meters":12400,"station_id":"ce4bhih2rcd13ifvqfs0","pricing_plan_id":"cebpf4jnsgd1na2vs0mg"},{"bike_id":"0476c856-a02c-4bbe-b5b8-02f103f01ba4","system_id":"levelo_inurba_marseille","lat":43.30131,"lon":5.39861,"is_reserved":false,"is_disabled":false,"rental_uris":{"android":"levelo://app?vid=0476c856-a02c-4bbe-b5b8-02f103f01ba4","ios":"levelo://app?vid=0476c856-a02c-4bbe-b5b8-02f103f01ba4"},"vehicle_type_id":"4","last_reported":1726243808,"current_range_meters":38000,"station_id":"ce4bh0h2rcd13ifvqd40","pricing_plan_id":"cebpf4jnsgd1na2vs0mg"},{"bike_id":"328d45f9-980e-4811-97c0-47d761861509","system_id":"levelo_inurba_marseille","lat":43.29846,"lon":5.3784,"is_reserved":false,"is_disabled":false,"rental_uris":{"android":"levelo://app?vid=328d45f9-980e-4811-97c0-47d761861509","ios":"levelo://app?vid=328d45f9-980e-4811-97c0-47d761861509"},"vehicle_type_id":"4","last_reported":1726243808,"current_range_meters":36800,"station_id":"ce4bgkh2rcd13ifvqbl0","pricing_plan_id":"cebpf4jnsgd1na2vs0mg"},{"bike_id":"50c3effc-10c6-4298-8c56-44c0ee291628","system_id":"levelo_inurba_marseille","lat":43.31284,"lon":5.40174,"is_reserved":false,"is_disabled":false,"rental_uris":{"android":"levelo://app?vid=50c3effc-10c6-4298-8c56-44c0ee291628","ios":"levelo://app?vid=50c3effc-10c6-4298-8c56-44c0ee291628"},"vehicle_type_id":"4","last_reported":1726243808,"current_range_meters":28400,"station_id":"ce4bh092rcd13ifvqd30","pricing_plan_id":"cebpf4jnsgd1na2vs0mg"},{"bike_id":"439ce068-90f6-4bff-826e-5c676dfdced2","system_id":"levelo_inurba_marseille","lat":43.23155,"lon":5.43712,"is_reserved":false,"is_disabled":false,"rental_uris":{"android":"levelo://app?vid=439ce068-90f6-4bff-826e-5c676dfdced2","ios":"levelo://app?vid=439ce068-90f6-4bff-826e-5c676dfdced2"},"vehicle_type_id":"4","last_reported":1726243808,"current_range_meters":38800,"station_id":"ce4bhmp2rcd13ifvqgog","pricing_plan_id":"cebpf4jnsgd1na2vs0mg"},{"bike_id":"cd7dffff-5d82-4009-9ccc-62766064fe38","system_id":"levelo_inurba_marseille","lat":43.29046,"lon":5.3996,"is_reserved":false,"is_disabled":false,"rental_uris":{"android":"levelo://app?vid=cd7dffff-5d82-4009-9ccc-62766064fe38","ios":"levelo://app?vid=cd7dffff-5d82-4009-9ccc-62766064fe38"},"vehicle_type_id":"4","last_reported":1726243808,"current_range_meters":20400,"station_id":"ce4bh392rcd13ifvqdm0","pricing_plan_id":"cebpf4jnsgd1na2vs0mg"},{"bike_id":"63b79cae-8738-43b3-8da9-ab7ada18a6bc","system_id":"levelo_inurba_marseille","lat":43.31359,"lon":5.38501,"is_reserved":false,"is_disabled":false,"rental_uris":{"android":"levelo://app?vid=63b79cae-8738-43b3-8da9-ab7ada18a6bc","ios":"levelo://app?vid=63b79cae-8738-43b3-8da9-ab7ada18a6bc"},"vehicle_type_id":"4","last_reported":1726243808,"current_range_meters":14800,"station_id":"ce4bgt92rcd13ifvqcf0","pricing_plan_id":"cebpf4jnsgd1na2vs0mg"},{"bike_id":"3aaf23df-ab45-4cad-bb64-d814895b7209","system_id":"levelo_inurba_marseille","lat":43.28442,"lon":5.392075,"is_reserved":false,"is_disabled":false,"rental_uris":{"android":"levelo://app?vid=3aaf23df-ab45-4cad-bb64-d814895b7209","ios":"levelo://app?vid=3aaf23df-ab45-4cad-bb64-d814895b7209"},"vehicle_type_id":"4","last_reported":1726243808,"current_range_meters":13600,"station_id":"ce4bhoh2rcd13ifvqh5g","pricing_plan_id":"cebpf4jnsgd1na2vs0mg"},{"bike_id":"92884ee9-a5a7-4ba6-9018-303e44b17248","system_id":"levelo_inurba_marseille","lat":43.260058,"lon":5.375258,"is_reserved":false,"is_disabled":false,"rental_uris":{"android":"levelo://app?vid=92884ee9-a5a7-4ba6-9018-303e44b17248","ios":"levelo://app?vid=92884ee9-a5a7-4ba6-9018-303e44b17248"},"vehicle_type_id":"4","last_reported":1726243808,"current_range_meters":24000,"station_id":"ce4bhgh2rcd13ifvqfa0","pricing_plan_id":"cebpf4jnsgd1na2vs0mg"},{"bike_id":"e683b8a3-fa6e-463c-8558-c310679783ad","system_id":"levelo_inurba_marseille","lat":43.29257,"lon":5.3844,"is_reserved":false,"is_disabled":false,"rental_uris":{"android":"levelo://app?vid=e683b8a3-fa6e-463c-8558-c310679783ad","ios":"levelo://app?vid=e683b8a3-fa6e-463c-8558-c310679783ad"},"vehicle_type_id":"4","last_reported":1726243808,"current_range_meters":36000,"station_id":"ce4bh692rcd13ifvqea0","pricing_plan_id":"cebpf4jnsgd1na2vs0mg"},{"bike_id":"d33e2940-31d9-4472-93e5-d5bbd5ac177e","system_id":"levelo_inurba_marseille","lat":43.27818,"lon":5.40721,"is_reserved":false,"is_disabled":false,"rental_uris":{"android":"levelo://app?vid=d33e2940-31d9-4472-93e5-d5bbd5ac177e","ios":"levelo://app?vid=d33e2940-31d9-4472-93e5-d5bbd5ac177e"},"vehicle_type_id":"4","last_reported":1726243808,"current_range_meters":26800,"station_id":"ce4bhnh2rcd13ifvqgtg","pricing_plan_id":"cebpf4jnsgd1na2vs0mg"},{"bike_id":"0a79b86d-b693-4299-8dc2-128f7a49bf0f","system_id":"levelo_inurba_marseille","lat":43.24547,"lon":5.39524,"is_reserved":false,"is_disabled":false,"rental_uris":{"android":"levelo://app?vid=0a79b86d-b693-4299-8dc2-128f7a49bf0f","ios":"levelo://app?vid=0a79b86d-b693-4299-8dc2-128f7a49bf0f"},"vehicle_type_id":"4","last_reported":1726243808,"current_range_meters":10800,"station_id":"ce4bhlp2rcd13ifvqgjg","pricing_plan_id":"cebpf4jnsgd1na2vs0mg"},{"bike_id":"6d1362f9-72a9-4a6c-8f97-96beeb0b7be4","system_id":"levelo_inurba_marseille","lat":43.240723,"lon":5.377647,"is_reserved":false,"is_disabled":false,"rental_uris":{"android":"levelo://app?vid=6d1362f9-72a9-4a6c-8f97-96beeb0b7be4","ios":"levelo://app?vid=6d1362f9-72a9-4a6c-8f97-96beeb0b7be4"},"vehicle_type_id":"4","last_reported":1726243808,"current_range_meters":9600,"station_id":"ce4bhnp2rcd13ifvqgvg","pricing_plan_id":"cebpf4jnsgd1na2vs0mg"},{"bike_id":"26afe759-2001-4462-84aa-106146ecbe64","system_id":"levelo_inurba_marseille","lat":43.25006,"lon":5.38926,"is_reserved":false,"is_disabled":false,"rental_uris":{"android":"levelo://app?vid=26afe759-2001-4462-84aa-106146ecbe64","ios":"levelo://app?vid=26afe759-2001-4462-84aa-106146ecbe64"},"vehicle_type_id":"4","last_reported":1726243808,"current_range_meters":38800,"station_id":"ce4bhgp2rcd13ifvqfd0","pricing_plan_id":"cebpf4jnsgd1na2vs0mg"},{"bike_id":"58900521-f788-4090-90d4-8129e5641ef0","system_id":"levelo_inurba_marseille","lat":43.28619,"lon":5.35102,"is_reserved":false,"is_disabled":false,"rental_uris":{"android":"levelo://app?vid=58900521-f788-4090-90d4-8129e5641ef0","ios":"levelo://app?vid=58900521-f788-4090-90d4-8129e5641ef0"},"vehicle_type_id":"4","last_reported":1726243808,"current_range_meters":27200,"station_id":"ce4bhch2rcd13ifvqeug","pricing_plan_id":"cebpf4jnsgd1na2vs0mg"},{"bike_id":"52566417-0402-41d9-b556-2a0f9f162cff","system_id":"levelo_inurba_marseille","lat":43.261239,"lon":5.374948,"is_reserved":false,"is_disabled":false,"rental_uris":{"android":"levelo://app?vid=52566417-0402-41d9-b556-2a0f9f162cff","ios":"levelo://app?vid=52566417-0402-41d9-b556-2a0f9f162cff"},"vehicle_type_id":"4","last_reported":1726243808,"current_range_meters":21600,"station_id":"ce4bhgp2rcd13ifvqfc0","pricing_plan_id":"cebpf4jnsgd1na2vs0mg"},{"bike_id":"222a8090-f62b-4d5a-8604-5ec1f675bb54","system_id":"levelo_inurba_marseille","lat":43.29195,"lon":5.35803,"is_reserved":false,"is_disabled":false,"rental_uris":{"android":"levelo://app?vid=222a8090-f62b-4d5a-8604-5ec1f675bb54","ios":"levelo://app?vid=222a8090-f62b-4d5a-8604-5ec1f675bb54"},"vehicle_type_id":"4","last_reported":1726243808,"current_range_meters":6400,"station_id":"ce4bhb12rcd13ifvqel0","pricing_plan_id":"cebpf4jnsgd1na2vs0mg"},{"bike_id":"ead487be-7728-45bb-a346-58e3c6b707ce","system_id":"levelo_inurba_marseille","lat":43.27067,"lon":5.42278,"is_reserved":false,"is_disabled":false,"rental_uris":{"android":"levelo://app?vid=ead487be-7728-45bb-a346-58e3c6b707ce","ios":"levelo://app?vid=ead487be-7728-45bb-a346-58e3c6b707ce"},"vehicle_type_id":"4","last_reported":1726243808,"current_range_meters":6000,"station_id":"ce4bhk92rcd13ifvqgb0","pricing_plan_id":"cebpf4jnsgd1na2vs0mg"},{"bike_id":"d0108df0-44aa-4ec3-a393-64bc3498694e","system_id":"levelo_inurba_marseille","lat":43.25086,"lon":5.3952,"is_reserved":false,"is_disabled":false,"rental_uris":{"android":"levelo://app?vid=d0108df0-44aa-4ec3-a393-64bc3498694e","ios":"levelo://app?vid=d0108df0-44aa-4ec3-a393-64bc3498694e"},"vehicle_type_id":"4","last_reported":1726243808,"current_range_meters":22800,"station_id":"ce4bhm12rcd13ifvqgkg","pricing_plan_id":"cebpf4jnsgd1na2vs0mg"},{"bike_id":"3f12e812-178c-4f68-b24c-9a13e7ee0557","system_id":"levelo_inurba_marseille","lat":43.27062,"lon":5.42273,"is_reserved":false,"is_disabled":false,"rental_uris":{"android":"levelo://app?vid=3f12e812-178c-4f68-b24c-9a13e7ee0557","ios":"levelo://app?vid=3f12e812-178c-4f68-b24c-9a13e7ee0557"},"vehicle_type_id":"4","last_reported":1726243808,"current_range_meters":38800,"station_id":"ce4bhk92rcd13ifvqgb0","pricing_plan_id":"cebpf4jnsgd1na2vs0mg"},{"bike_id":"aebbf198-be5b-487f-8241-eda4eef3a897","system_id":"levelo_inurba_marseille","lat":43.31989,"lon":5.38148,"is_reserved":false,"is_disabled":false,"rental_uris":{"android":"levelo://app?vid=aebbf198-be5b-487f-8241-eda4eef3a897","ios":"levelo://app?vid=aebbf198-be5b-487f-8241-eda4eef3a897"},"vehicle_type_id":"4","last_reported":1726243808,"current_range_meters":36400,"station_id":"ce4bhr12rcd13ifvqhpg","pricing_plan_id":"cebpf4jnsgd1na2vs0mg"},{"bike_id":"f15f01ea-9028-409f-82b6-667ba2a6e232","system_id":"levelo_inurba_marseille","lat":43.30644,"lon":5.40098,"is_reserved":false,"is_disabled":false,"rental_uris":{"android":"levelo://app?vid=f15f01ea-9028-409f-82b6-667ba2a6e232","ios":"levelo://app?vid=f15f01ea-9028-409f-82b6-667ba2a6e232"},"vehicle_type_id":"4","last_reported":1726243808,"current_range_meters":5600,"station_id":"ce4bh112rcd13ifvqda0","pricing_plan_id":"cebpf4jnsgd1na2vs0mg"},{"bike_id":"0462663c-4dfe-4148-8b28-ed963656b93f","system_id":"levelo_inurba_marseille","lat":43.29567,"lon":5.3999,"is_reserved":false,"is_disabled":false,"rental_uris":{"android":"levelo://app?vid=0462663c-4dfe-4148-8b28-ed963656b93f","ios":"levelo://app?vid=0462663c-4dfe-4148-8b28-ed963656b93f"},"vehicle_type_id":"4","last_reported":1726243808,"current_range_meters":3200,"station_id":"ce4bh312rcd13ifvqdj0","pricing_plan_id":"cebpf4jnsgd1na2vs0mg"},{"bike_id":"5c66317f-f4d2-4788-8285-989e7f5f67be","system_id":"levelo_inurba_marseille","lat":43.291809,"lon":5.394118,"is_reserved":false,"is_disabled":false,"rental_uris":{"android":"levelo://app?vid=5c66317f-f4d2-4788-8285-989e7f5f67be","ios":"levelo://app?vid=5c66317f-f4d2-4788-8285-989e7f5f67be"},"vehicle_type_id":"4","last_reported":1726243808,"current_range_meters":19200,"station_id":"ce4bh2p2rcd13ifvqdi0","pricing_plan_id":"cebpf4jnsgd1na2vs0mg"},{"bike_id":"be72c883-91a4-4cc9-8fa7-df86999c9b9f","system_id":"levelo_inurba_marseille","lat":43.29548,"lon":5.42278,"is_reserved":false,"is_disabled":false,"rental_uris":{"android":"levelo://app?vid=be72c883-91a4-4cc9-8fa7-df86999c9b9f","ios":"levelo://app?vid=be72c883-91a4-4cc9-8fa7-df86999c9b9f"},"vehicle_type_id":"4","last_reported":1726243808,"current_range_meters":7200,"station_id":"ce4bhph2rcd13ifvqhdg","pricing_plan_id":"cebpf4jnsgd1na2vs0mg"},