{"last_updated":1745914537,"ttl":60,"version":"2.2","data":{"bikes":[{"bike_id":"69d02f73-6122-4ea4-97e7-4df05d082ad7","system_id":"levelo_inurba_marseille","lat":43.309513,"lon":5.390258,"is_reserved":false,"is_disabled":false,"rental_uris":{"android":"levelo://app?vid=69d02f73-6122-4ea4-97e7-4df05d082ad7","ios":"levelo://app?vid=69d02f73-6122-4ea4-97e7-4df05d082ad7"},"vehicle_type_id":"4","last_reported":1745914538,"current_range_meters":2800,"station_id":"ce4bgup2rcd13ifvqco0","pricing_plan_id":"cebpf4jnsgd1na2vs0mg"},{"bike_id":"d8a9dba7-97ea-4b59-bad8-60c9431e5a87","system_id":"levelo_inurba_marseille","lat":43.30542,"lon":5.38429,"is_reserved":false,"is_disabled":true,"rental_uris":{"android":"levelo://app?vid=d8a9dba7-97ea-4b59-bad8-60c9431e5a87","ios":"levelo://app?vid=d8a9dba7-97ea-4b59-bad8-60c9431e5a87"},"vehicle_type_id":"4","last_reported":1745914538,"current_range_meters":3200,"station_id":"ce4bgg92rcd13ifvqb30","pricing_plan_id":"cebpf4jnsgd1na2vs0mg"},{"bike_id":"4f64c3e3-4693-4660-b55a-e5a4b0eed937","system_id":"levelo_inurba_marseille","lat":43.25941,"lon":5.409,"is_reserved":false,"is_disabled":false,"rental_uris":{"android":"levelo://app?vid=4f64c3e3-4693-4660-b55a-e5a4b0eed937","ios":"levelo://app?vid=4f64c3e3-4693-4660-b55a-e5a4b0eed937"},"vehicle_type_id":"4","last_reported":1745914538,"current_range_meters":3200,"station_id":"ce4bhm92rcd13ifvqglg","pricing_plan_id":"cebpf4jnsgd1na2vs0mg"},{"bike_id":"b2447220-d4ee-4b6b-9998-950e2d132245","system_id":"levelo_inurba_marseille","lat":43.28705,"lon":5.37383,"is_reserved":false,"is_disabled":false,"rental_uris":{"android":"levelo://app?vid=b2447220-d4ee-4b6b-9998-950e2d132245","ios":"levelo://app?vid=b2447220-d4ee-4b6b-9998-950e2d132245"},"vehicle_type_id":"4","last_reported":1745914538,"current_range_meters":3600,"station_id":"ce4bh3p2rcd13ifvqdq0","pricing_plan_id":"cebpf4jnsgd1na2vs0mg"},{"bike_id":"f81f8ca4-56bf-4810-a73b-241f7dd8838c","system_id":"levelo_inurba_marseille","lat":43.24176,"lon":5.39724,"is_reserved":false,"is_disabled":false,"rental_uris":{"android":"levelo://app?vid=f81f8ca4-56bf-4810-a73b-241f7dd8838c","ios":"levelo://app?vid=f81f8ca4-56bf-4810-a73b-241f7dd8838c"},"vehicle_type_id":"4","last_reported":1745914538,"current_range_meters":3600,"station_id":"ce4bhn12rcd13ifvqgpg","pricing_plan_id":"cebpf4jnsgd1na2vs0mg"},{"bike_id":"153ac0f8-c291-4407-9c57-b95790f8320d","system_id":"levelo_inurba_marseille","lat":43.30271,"lon":5.37708,"is_reserved":false,"is_disabled":false,"rental_uris":{"android":"levelo://app?vid=153ac0f8-c291-4407-9c57-b95790f8320d","ios":"levelo://app?vid=153ac0f8-c291-4407-9c57-b95790f8320d"},"vehicle_type_id":"4","last_reported":1745914538,"current_range_meters":3200,"station_id":"ce4bguh2rcd13ifvqcj0","pricing_plan_id":"cebpf4jnsgd1na2vs0mg"},{"bike_id":"99c1fcc4-c1f1-43d6-a453-ae0fcdb77adb","system_id":"levelo_inurba_marseille","lat":43.27966,"lon":5.38742,"is_reserved":false,"is_disabled":false,"rental_uris":{"android":"levelo://app?vid=99c1fcc4-c1f1-43d6-a453-ae0fcdb77adb","ios":"levelo://app?vid=99c1fcc4-c1f1-43d6-a453-ae0fcdb77adb"},"vehicle_type_id":"4","last_reported":1745914538,"current_range_meters":3600,"station_id":"ce4bhg12rcd13ifvqf80","pricing_plan_id":"cebpf4jnsgd1na2vs0mg"},{"bike_id":"34e94f7a-6f7a-407f-88cc-2f5925963783","system_id":"levelo_inurba_marseille","lat":43.23153,"lon":5.43705,"is_reserved":false,"is_disabled":false,"rental_uris":{"android":"levelo://app?vid=34e94f7a-6f7a-407f-88cc-2f5925963783","ios":"levelo://app?vid=34e94f7a-6f7a-407f-88cc-2f5925963783"},"vehicle_type_id":"4","last_reported":1745914538,"current_range_meters":4000,"station_id":"ce4bhmp2rcd13ifvqgog","pricing_plan_id":"cebpf4jnsgd1na2vs0mg"},{"bike_id":"0e0517aa-139d-49aa-9d37-746bc181df8f","system_id":"levelo_inurba_marseille","lat":43.28275,"lon":5.35052,"is_reserved":false,"is_disabled":false,"rental_uris":{"android":"levelo://app?vid=0e0517aa-139d-49aa-9d37-746bc181df8f","ios":"levelo://app?vid=0e0517aa-139d-49aa-9d37-746bc181df8f"},"vehicle_type_id":"4","last_reported":1745914538,"current_range_meters":4400,"station_id":"ce4bhbp2rcd13ifvqerg","pricing_plan_id":"cebpf4jnsgd1na2vs0mg"},{"bike_id":"b75a8921-83a1-4de2-80e2-a9427d0bac27","system_id":"levelo_inurba_marseille","lat":43.27687,"lon":5.38864,"is_reserved":false,"is_disabled":false,"rental_uris":{"android":"levelo://app?vid=b75a8921-83a1-4de2-80e2-a9427d0bac27","ios":"levelo://app?vid=b75a8921-83a1-4de2-80e2-a9427d0bac27"},"vehicle_type_id":"4","last_reported":1745914538,"current_range_meters":4400,"station_id":"ce4bhi12rcd13ifvqfo0","pricing_plan_id":"cebpf4jnsgd1na2vs0mg"},{"bike_id":"6ba5f6b0-be13-48ce-9b7b-ab69ca4dda1a","system_id":"levelo_inurba_marseille","lat":43.27494,"lon":5.42454,"is_reserved":false,"is_disabled":false,"rental_uris":{"android":"levelo://app?vid=6ba5f6b0-be13-48ce-9b7b-ab69ca4dda1a","ios":"levelo://app?vid=6ba5f6b0-be13-48ce-9b7b-ab69ca4dda1a"},"vehicle_type_id":"4","last_reported":1745914538,"current_range_meters":4800,"station_id":"ce4bhn92rcd13ifvqgrg","pricing_plan_id":"cebpf4jnsgd1na2vs0mg"},{"bike_id":"a4c8a335-745b-4d95-97e0-7bac3cb18549","system_id":"levelo_inurba_marseille","lat":43.28129,"lon":5.39836,"is_reserved":false,"is_disabled":false,"rental_uris":{"android":"levelo://app?vid=a4c8a335-745b-4d95-97e0-7bac3cb18549","ios":"levelo://app?vid=a4c8a335-745b-4d95-97e0-7bac3cb18549"},"vehicle_type_id":"4","last_reported":1745914538,"current_range_meters":4800,"station_id":"","pricing_plan_id":"cebpf4jnsgd1na2vs0mg"},{"bike_id":"ecfe73b0-03d0-4301-ae79-56ab811261f8","system_id":"levelo_inurba_marseille","lat":43.30303,"lon":5.36896,"is_reserved":false,"is_disabled":false,"rental_uris":{"android":"levelo://app?vid=ecfe73b0-03d0-4301-ae79-56ab811261f8","ios":"levelo://app?vid=ecfe73b0-03d0-4301-ae79-56ab811261f8"},"vehicle_type_id":"4","last_reported":1745914538,"current_range_meters":4800,"station_id":"ce4bgqh2rcd13ifvqc5g","pricing_plan_id":"cebpf4jnsgd1na2vs0mg"},{"bike_id":"ef56ba6c-fcdb-4aaf-82b0-1a42ab3b838f","system_id":"levelo_inurba_marseille","lat":43.27354,"lon":5.42406,"is_reserved":false,"is_disabled":false,"rental_uris":{"android":"levelo://app?vid=ef56ba6c-fcdb-4aaf-82b0-1a42ab3b838f","ios":"levelo://app?vid=ef56ba6c-fcdb-4aaf-82b0-1a42ab3b838f"},"vehicle_type_id":"4","last_reported":1745914538,"current_range_meters":6400,"station_id":"","pricing_plan_id":"cebpf4jnsgd1na2vs0mg"},{"bike_id":"823a57dd-2179-498d-94b0-85f773446c0a","system_id":"levelo_inurba_marseille","lat":43.33598,"lon":5.40992,"is_reserved":false,"is_disabled":false,"rental_uris":{"android":"levelo://app?vid=823a57dd-2179-498d-94b0-85f773446c0a","ios":"levelo://app?vid=823a57dd-2179-498d-94b0-85f773446c0a"},"vehicle_type_id":"4","last_reported":1745914538,"current_range_meters":6400,"station_id":"ce4bhqh2rcd13ifvqhmg","pricing_plan_id":"cebpf4jnsgd1na2vs0mg"},{"bike_id":"26deac1f-c435-40bc-9469-9ae0b266bb77","system_id":"levelo_inurba_marseille","lat":43.30201,"lon":5.38433,"is_reserved":false,"is_disabled":false,"rental_uris":{"android":"levelo://app?vid=26deac1f-c435-40bc-9469-9ae0b266bb77","ios":"levelo://app?vid=26deac1f-c435-40bc-9469-9ae0b266bb77"},"vehicle_type_id":"4","last_reported":1745914538,"current_range_meters":6400,"station_id":"","pricing_plan_id":"cebpf4jnsgd1na2vs0mg"},{"bike_id":"f4e4ca09-da66-4731-b5db-e368415f9731","system_id":"levelo_inurba_marseille","lat":43.27142,"lon":5.42222,"is_reserved":false,"is_disabled":false,"rental_uris":{"android":"levelo://app?vid=f4e4ca09-da66-4731-b5db-e368415f9731","ios":"levelo://app?vid=f4e4ca09-da66-4731-b5db-e368415f9731"},"vehicle_type_id":"4","last_reported":1745914538,"current_range_meters":6800,"station_id":"","pricing_plan_id":"cebpf4jnsgd1na2vs0mg"},{"bike_id":"60f486a5-04b9-4920-adeb-c41806805c99","system_id":"levelo_inurba_marseille","lat":43.231519,"lon":5.437132,"is_reserved":false,"is_disabled":false,"rental_uris":{"android":"levelo://app?vid=60f486a5-04b9-4920-adeb-c41806805c99","ios":"levelo://app?vid=60f486a5-04b9-4920-adeb-c41806805c99"},"vehicle_type_id":"4","last_reported":1745914538,"current_range_meters":6400,"station_id":"ce4bhmp2rcd13ifvqgog","pricing_plan_id":"cebpf4jnsgd1na2vs0mg"},{"bike_id":"47b5889b-592b-4eaa-97aa-4da02903fa2b","system_id":"levelo_inurba_marseille","lat":43.24978,"lon":5.38929,"is_reserved":false,"is_disabled":false,"rental_uris":{"android":"levelo://app?vid=47b5889b-592b-4eaa-97aa-4da02903fa2b","ios":"levelo://app?vid=47b5889b-592b-4eaa-97aa-4da02903fa2b"},"vehicle_type_id":"4","last_reported":1745914538,"current_range_meters":6800,"station_id":"ce4bhgp2rcd13ifvqfd0","pricing_plan_id":"cebpf4jnsgd1na2vs0mg"},{"bike_id":"a927ad15-b129-4085-9072-8cc54f2c8cf2","system_id":"levelo_inurba_marseille","lat":43.321008,"lon":5.367684,"is_reserved":false,"is_disabled":false,"rental_uris":{"android":"levelo://app?vid=a927ad15-b129-4085-9072-8cc54f2c8cf2","ios":"levelo://app?vid=a927ad15-b129-4085-9072-8cc54f2c8cf2"},"vehicle_type_id":"4","last_reported":1745914538,"current_range_meters":6800,"station_id":"ce4bhrh2rcd13ifvqhug","pricing_plan_id":"cebpf4jnsgd1na2vs0mg"},{"bike_id":"c83f77b9-0c2b-4736-8815-bc84ecba90eb","system_id":"levelo_inurba_marseille","lat":43.25933,"lon":5.40895,"is_reserved":false,"is_disabled":false,"rental_uris":{"android":"levelo://app?vid=c83f77b9-0c2b-4736-8815-bc84ecba90eb","ios":"levelo://app?vid=c83f77b9-0c2b-4736-8815-bc84ecba90eb"},"vehicle_type_id":"4","last_reported":1745914538,"current_range_meters":7200,"station_id":"ce4bhm92rcd13ifvqglg","pricing_plan_id":"cebpf4jnsgd1na2vs0mg"},{"bike_id":"af4f0c69-e62d-4155-b1d1-a67b45271ae1","system_id":"levelo_inurba_marseille","lat":43.24779,"lon":5.41219,"is_reserved":false,"is_disabled":false,"rental_uris":{"android":"levelo://app?vid=af4f0c69-e62d-4155-b1d1-a67b45271ae1","ios":"levelo://app?vid=af4f0c69-e62d-4155-b1d1-a67b45271ae1"},"vehicle_type_id":"4","last_reported":1745914538,"current_range_meters":7200,"station_id":"","pricing_plan_id":"cebpf4jnsgd1na2vs0mg"},{"bike_id":"9a90e093-ee00-45be-9fc3-fb97a7c27b5d","system_id":"levelo_inurba_marseille","lat":43.28952,"lon":5.36415,"is_reserved":false,"is_disabled":true,"rental_uris":{"android":"levelo://app?vid=9a90e093-ee00-45be-9fc3-fb97a7c27b5d","ios":"levelo://app?vid=9a90e093-ee00-45be-9fc3-fb97a7c27b5d"},"vehicle_type_id":"4","last_reported":1745914538,"current_range_meters":7200,"station_id":"ce4bhc92rcd13ifvqetg","pricing_plan_id":"cebpf4jnsgd1na2vs0mg"},{"bike_id":"af21a589-9045-4d56-b465-021f7f4d4372","system_id":"levelo_inurba_marseille","lat":43.26939,"lon":5.40255,"is_reserved":false,"is_disabled":false,"rental_uris":{"android":"levelo://app?vid=af21a589-9045-4d56-b465-021f7f4d4372","ios":"levelo://app?vid=af21a589-9045-4d56-b465-021f7f4d4372"},"vehicle_type_id":"4","last_reported":1745914538,"current_range_meters":7200,"station_id":"cjm6bp8fraef2m0cb0m0","pricing_plan_id":"cebpf4jnsgd1na2vs0mg"},{"bike_id":"e4953f24-3ef0-42b7-a0b5-21e52e55cfe4","system_id":"levelo_inurba_marseille","lat":43.2842,"lon":5.34969,"is_reserved":false,"is_disabled":false,"rental_uris":{"android":"levelo://app?vid=e4953f24-3ef0-42b7-a0b5-21e52e55cfe4","ios":"levelo://app?vid=e4953f24-3ef0-42b7-a0b5-21e52e55cfe4"},"vehicle_type_id":"4","last_reported":1745914538,"current_range_meters":7200,"station_id":"ce4bhbh2rcd13ifvqepg","pricing_plan_id":"cebpf4jnsgd1na2vs0mg"},{"bike_id":"1e42917d-a35a-4466-81c4-126f2bfce81a","system_id":"levelo_inurba_marseille","lat":43.27069,"lon":5.42275,"is_reserved":false,"is_disabled":false,"rental_uris":{"android":"levelo://app?vid=1e42917d-a35a-4466-81c4-126f2bfce81a","ios":"levelo://app?vid=1e42917d-a35a-4466-81c4-126f2bfce81a"},"vehicle_type_id":"4","last_reported":1745914538,"current_range_meters":8000,"station_id":"ce4bhk92rcd13ifvqgb0","pricing_plan_id":"cebpf4jnsgd1na2vs0mg"},{"bike_id":"11beab31-c7c5-4dd2-a927-f48a7ff7bce4","system_id":"levelo_inurba_marseille","lat":43.324837,"lon":5.365633,"is_reserved":false,"is_disabled":false,"rental_uris":{"android":"levelo://app?vid=11beab31-c7c5-4dd2-a927-f48a7ff7bce4","ios":"levelo://app?vid=11beab31-c7c5-4dd2-a927-f48a7ff7bce4"},"vehicle_type_id":"4","last_reported":1745914538,"current_range_meters":8400,"station_id":"ce4bhs12rcd13ifvqhvg","pricing_plan_id":"cebpf4jnsgd1na2vs0mg"},{"bike_id":"21cfafc3-2469-4529-8296-2c44314c92c7","system_id":"levelo_inurba_marseille","lat":43.292572,"lon":5.409171,"is_reserved":false,"is_disabled":true,"rental_uris":{"android":"levelo://app?vid=21cfafc3-2469-4529-8296-2c44314c92c7","ios":"levelo://app?vid=21cfafc3-2469-4529-8296-2c44314c92c7"},"vehicle_type_id":"4","last_reported":1745914538,"current_range_meters":8400,"station_id":"ce4bh192rcd13ifvqdc0","pricing_plan_id":"cebpf4jnsgd1na2vs0mg"},{"bike_id":"3232556a-950c-44c4-ac0f-4037abc1b33d","system_id":"levelo_inurba_marseille","lat":43.29289,"lon":5.37461,"is_reserved":false,"is_disabled":false,"rental_uris":{"android":"levelo://app?vid=3232556a-950c-44c4-ac0f-4037abc1b33d","ios":"levelo://app?vid=3232556a-950c-44c4-ac0f-4037abc1b33d"},"vehicle_type_id":"4","last_reported":1745914538,"current_range_meters":8400,"station_id":"ce4bgi12rcd13ifvqb70","pricing_plan_id":"cebpf4jnsgd1na2vs0mg"},{"bike_id":"1f19ae80-a633-40e2-944b-c9ca822ccc97","system_id":"levelo_inurba_marseille","lat":43.33099,"lon":5.4074,"is_reserved":false,"is_disabled":false,"rental_uris":{"android":"levelo://app?vid=1f19ae80-a633-40e2-944b-c9ca822ccc97","ios":"levelo://app?vid=1f19ae80-a633-40e2-944b-c9ca822ccc97"},"vehicle_type_id":"4","last_reported":1745914538,"current_range_meters":8400,"station_id":"","pricing_plan_id":"cebpf4jnsgd1na2vs0mg"},{"bike_id":"c7c87b89-4990-4d23-9034-092d3dfdccd5","system_id":"levelo_inurba_marseille","lat":43.24179,"lon":5.39725,"is_reserved":false,"is_disabled":false,"rental_uris":{"android":"levelo://app?vid=c7c87b89-4990-4d23-9034-092d3dfdccd5","ios":"levelo://app?vid=c7c87b89-4990-4d23-9034-092d3dfdccd5"},"vehicle_type_id":"4","last_reported":1745914538,"current_range_meters":8400,"station_id":"ce4bhn12rcd13ifvqgpg","pricing_plan_id":"cebpf4jnsgd1na2vs0mg"},{"bike_id":"ee6c05e5-1750-4b5f-bf66-0510125a0efc","system_id":"levelo_inurba_marseille","lat":43.28654,"lon":5.38658,"is_reserved":false,"is_disabled":true,"rental_uris":{"android":"levelo://app?vid=ee6c05e5-1750-4b5f-bf66-0510125a0efc","ios":"levelo://app?vid=ee6c05e5-1750-4b5f-bf66-0510125a0efc"},"vehicle_type_id":"4","last_reported":1745914538,"current_range_meters":8400,"station_id":"ce4bh492rcd13ifvqdug","pricing_plan_id":"cebpf4jnsgd1na2vs0mg"},{"bike_id":"bc0cb221-33ad-4d5d-a991-efd0809fe08f","system_id":"levelo_inurba_marseille","lat":43.30423,"lon":5.41278,"is_reserved":false,"is_disabled":false,"rental_uris":{"android":"levelo://app?vid=bc0cb221-33ad-4d5d-a991-efd0809fe08f","ios":"levelo://app?vid=bc0cb221-33ad-4d5d-a991-efd0809fe08f"},"vehicle_type_id":"4","last_reported":1745914538,"current_range_meters":8400,"station_id":"ce4bhop2rcd13ifvqh8g","pricing_plan_id":"cebpf4jnsgd1na2vs0mg"},{"bike_id":"8efb3ce0-5ec0-4e62-a575-1394de05752b","system_id":"levelo_inurba_marseille","lat":43.231509,"lon":5.437271,"is_reserved":false,"is_disabled":false,"rental_uris":{"android":"levelo://app?vid=8efb3ce0-5ec0-4e62-a575-1394de05752b","ios":"levelo://app?vid=8efb3ce0-5ec0-4e62-a575-1394de05752b"},"vehicle_type_id":"4","last_reported":1745914538,"current_range_meters":8400,"station_id":"ce4bhmp2rcd13ifvqgog","pricing_plan_id":"cebpf4jnsgd1na2vs0mg"},{"bike_id":"397c55f8-3493-4b39-84a7-8f1b29027a46","system_id":"levelo_inurba_marseille","lat":43.29531,"lon":5.390471,"is_reserved":false,"is_disabled":false,"rental_uris":{"android":"levelo://app?vid=397c55f8-3493-4b39-84a7-8f1b29027a46","ios":"levelo://app?vid=397c55f8-3493-4b39-84a7-8f1b29027a46"},"vehicle_type_id":"4","last_reported":1745914538,"current_range_meters":8800,"station_id":"ce4bh3p2rcd13ifvqdp0","pricing_plan_id":"cebpf4jnsgd1na2vs0mg"},{"bike_id":"a7627756-d055-44bb-a3de-62ad3f2a98c8","system_id":"levelo_inurba_marseille","lat":43.284782,"lon":5.384093,"is_reserved":false,"is_disabled":false,"rental_uris":{"android":"levelo://app?vid=a7627756-d055-44bb-a3de-62ad3f2a98c8","ios":"levelo://app?vid=a7627756-d055-44bb-a3de-62ad3f2a98c8"},"vehicle_type_id":"4","last_reported":1745914538,"current_range_meters":8400,"station_id":"ce4bh512rcd13ifvqe3g","pricing_plan_id":"cebpf4jnsgd1na2vs0mg"},{"bike_id":"bc418db1-bf51-4970-9e9f-dbcc96075a03","system_id":"levelo_inurba_marseille","lat":43.23151,"lon":5.43718,"is_reserved":false,"is_disabled":false,"rental_uris":{"android":"levelo://app?vid=bc418db1-bf51-4970-9e9f-dbcc96075a03","ios":"levelo://app?vid=bc418db1-bf51-4970-9e9f-dbcc96075a03"},"vehicle_type_id":"4","last_reported":1745914538,"current_range_meters":8800,"station_id":"ce4bhmp2rcd13ifvqgog","pricing_plan_id":"cebpf4jnsgd1na2vs0mg"},{"bike_id":"1c70e665-b438-4f34-aed5-6c01feb88b47","system_id":"levelo_inurba_marseille","lat":43.29524,"lon":5.39055,"is_reserved":false,"is_disabled":false,"rental_uris":{"android":"levelo://app?vid=1c70e665-b438-4f34-aed5-6c01feb88b47","ios":"levelo://app?vid=1c70e665-b438-4f34-aed5-6c01feb88b47"},"vehicle_type_id":"4","last_reported":1745914538,"current_range_meters":8800,"station_id":"ce4bh3p2rcd13ifvqdp0","pricing_plan_id":"cebpf4jnsgd1na2vs0mg"},{"bike_id":"1c818d25-eb8c-4b21-82ea-ff704ef94a17","system_id":"levelo_inurba_marseille","lat":43.32054,"lon":5.41547,"is_reserved":false,"is_disabled":false,"rental_uris":{"android":"levelo://app?vid=1c818d25-eb8c-4b21-82ea-ff704ef94a17","ios":"levelo://app?vid=1c818d25-eb8c-4b21-82ea-ff704ef94a17"},"vehicle_type_id":"4","last_reported":1745914538,"current_range_meters":9200,"station_id":"ce4bhq92rcd13ifvqhkg","pricing_plan_id":"cebpf4jnsgd1na2vs0mg"},{"bike_id":"e5b4b90d-e268-4de2-98f4-f6d0513f8801","system_id":"levelo_inurba_marseille","lat":43.26534,"lon":5.42194,"is_reserved":false,"is_disabled":false,"rental_uris":{"android":"levelo://app?vid=e5b4b90d-e268-4de2-98f4-f6d0513f8801","ios":"levelo://app?vid=e5b4b90d-e268-4de2-98f4-f6d0513f8801"},"vehicle_type_id":"4","last_reported":1745914538,"current_range_meters":9200,"station_id":"","pricing_plan_id":"cebpf4jnsgd1na2vs0mg"},{"bike_id":"fd5ef547-43a0-4651-8b9d-69b6527968ba","system_id":"levelo_inurba_marseille","lat":43.30149,"lon":5.38061,"is_reserved":false,"is_disabled":false,"rental_uris":{"android":"levelo://app?vid=fd5ef547-43a0-4651-8b9d-69b6527968ba","ios":"levelo://app?vid=fd5ef547-43a0-4651-8b9d-69b6527968ba"},"vehicle_type_id":"4","last_reported":1745914538,"current_range_meters":8800,"station_id":"ce4bgjp2rcd13ifvqbh0","pricing_plan_id":"cebpf4jnsgd1na2vs0mg"},{"bike_id":"f8527f98-9dba-4767-9c49-2ee5632fd2af","system_id":"levelo_inurba_marseille","lat":43.27817,"lon":5.40705,"is_reserved":false,"is_disabled":false,"rental_uris":{"android":"levelo://app?vid=f8527f98-9dba-4767-9c49-2ee5632fd2af","ios":"levelo://app?vid=f8527f98-9dba-4767-9c49-2ee5632fd2af"},"vehicle_type_id":"4","last_reported":1745914538,"current_range_meters":9200,"station_id":"ce4bhnh2rcd13ifvqgtg","pricing_plan_id":"cebpf4jnsgd1na2vs0mg"},{"bike_id":"c1934d23-18b4-43a8-b204-f297f00f2b39","system_id":"levelo_inurba_marseille","lat":43.30908,"lon":5.36846,"is_reserved":false,"is_disabled":false,"rental_uris":{"android":"levelo://app?vid=c1934d23-18b4-43a8-b204-f297f00f2b39","ios":"levelo://app?vid=c1934d23-18b4-43a8-b204-f297f00f2b39"},"vehicle_type_id":"4","last_reported":1745914538,"current_range_meters":9200,"station_id":"ce4bgn92rcd13ifvqbvg","pricing_plan_id":"cebpf4jnsgd1na2vs0mg"},{"bike_id":"3566469e-5adf-4ae7-9fad-25ede3e08c1b","system_id":"levelo_inurba_marseille","lat":43.292564,"lon":5.384364,"is_reserved":false,"is_disabled":true,"rental_uris":{"android":"levelo://app?vid=3566469e-5adf-4ae7-9fad-25ede3e08c1b","ios":"levelo://app?vid=3566469e-5adf-4ae7-9fad-25ede3e08c1b"},"vehicle_type_id":"4","last_reported":1745914538,"current_range_meters":9200,"station_id":"ce4bh692rcd13ifvqea0","pricing_plan_id":"cebpf4jnsgd1na2vs0mg"},{"bike_id":"aa0c69e0-ebf1-4e8f-8a56-e85d35673225","system_id":"levelo_inurba_marseille","lat":43.259338,"lon":5.409079,"is_reserved":false,"is_disabled":false,"rental_uris":{"android":"levelo://app?vid=aa0c69e0-ebf1-4e8f-8a56-e85d35673225","ios":"levelo://app?vid=aa0c69e0-ebf1-4e8f-8a56-e85d35673225"},"vehicle_type_id":"4","last_reported":1745914538,"current_range_meters":9600,"station_id":"ce4bhm92rcd13ifvqglg","pricing_plan_id":"cebpf4jnsgd1na2vs0mg"},{"bike_id":"2c27534e-1610-4419-a064-227b7d9e799a","system_id":"levelo_inurba_marseille","lat":43.284716,"lon":5.384181,"is_reserved":false,"is_disabled":false,"rental_uris":{"android":"levelo://app?vid=2c27534e-1610-4419-a064-227b7d9e799a","ios":"levelo://app?vid=2c27534e-1610-4419-a064-227b7d9e799a"},"vehicle_type_id":"4","last_reported":1745914538,"current_range_meters":10000,"station_id":"","pricing_plan_id":"cebpf4jnsgd1na2vs0mg"},{"bike_id":"ab4612c3-85f5-4cb4-9ce2-46373d9c1c69","system_id":"levelo_inurba_marseille","lat":43.25799,"lon":5.38586,"is_reserved":false,"is_disabled":false,"rental_uris":{"android":"levelo://app?vid=ab4612c3-85f5-4cb4-9ce2-46373d9c1c69","ios":"levelo://app?vid=ab4612c3-85f5-4cb4-9ce2-46373d9c1c69"},"vehicle_type_id":"4","last_reported":1745914538,"current_range_meters":10000,"station_id":"","pricing_plan_id":"cebpf4jnsgd1na2vs0mg"},{"bike_id":"a273dd95-99e2-4bb8-bee8-19cb9b13f516","system_id":"levelo_inurba_marseille","lat":43.299048,"lon":5.436615,"is_reserved":false,"is_disabled":true,"rental_uris":{"android":"levelo://app?vid=a273dd95-99e2-4bb8-bee8-19cb9b13f516","ios":"levelo://app?vid=a273dd95-99e2-4bb8-bee8-19cb9b13f516"},"vehicle_type_id":"4","last_reported":1745914538,"current_range_meters":10000,"station_id":"ce4bhpp2rcd13ifvqhfg","pricing_plan_id":"cebpf4jnsgd1na2vs0mg"},{"bike_id":"4f33f1fd-20a3-4897-9777-19066388bb99","system_id":"levelo_inurba_marseille","lat":43.29903,"lon":5.38302,"is_reserved":false,"is_disabled":true,"rental_uris":{"android":"levelo://app?vid=4f33f1fd-20a3-4897-9777-19066388bb99","ios":"levelo://app?vid=4f33f1fd-20a3-4897-9777-19066388bb99"},"vehicle_type_id":"4","last_reported":1745914538,"current_range_meters":10000,"station_id":"","pricing_plan_id":"cebpf4jnsgd1na2vs0mg"},{"bike_id":"91487ed5-0df2-4a37-a868-5ac8e099da3c","system_id":"levelo_inurba_marseille","lat":43.24175,"lon":5.39735,"is_reserved":false,"is_disabled":false,"rental_uris":{"android":"levelo://app?vid=91487ed5-0df2-4a37-a868-5ac8e099da3c","ios":"levelo://app?vid=91487ed5-0df2-4a37-a868-5ac8e099da3c"},"vehicle_type_id":"4","last_reported":1745914538,"current_range_meters":10800,"station_id":"ce4bhn12rcd13ifvqgpg","pricing_plan_id":"cebpf4jnsgd1na2vs0mg"},{"bike_id":"af98af90-ccfc-480d-9a97-9268e23b9d0a","system_id":"levelo_inurba_marseille","lat":43.31344,"lon":5.36749,"is_reserved":false,"is_disabled":false,"rental_uris":{"android":"levelo://app?vid=af98af90-ccfc-480d-9a97-9268e23b9d0a","ios":"levelo://app?vid=af98af90-ccfc-480d-9a97-9268e23b9d0a"},"vehicle_type_id":"4","last_reported":1745914538,"current_range_meters":10800,"station_id":"ce4bgr92rcd13ifvqc6g","pricing_plan_id":"cebpf4jnsgd1na2vs0mg"},{"bike_id":"f35c7b84-6ac3-4dcc-a0e5-a488e0ec4bd3","system_id":"levelo_inurba_marseille","lat":43.27499,"lon":5.4246,"is_reserved":false,"is_disabled":false,"rental_uris":{"android":"levelo://app?vid=f35c7b84-6ac3-4dcc-a0e5-a488e0ec4bd3","ios":"levelo://app?vid=f35c7b84-6ac3-4dcc-a0e5-a488e0ec4bd3"},"vehicle_type_id":"4","last_reported":1745914538,"current_range_meters":10800,"station_id":"ce4bhn92rcd13ifvqgrg","pricing_plan_id":"cebpf4jnsgd1na2vs0mg"},{"bike_id":"5773b8c3-4bce-4cd5-ae03-62ab7e7a7a59","system_id":"levelo_inurba_marseille","lat":43.32365,"lon":5.3888,"is_reserved":false,"is_disabled":false,"rental_uris":{"android":"levelo://app?vid=5773b8c3-4bce-4cd5-ae03-62ab7e7a7a59","ios":"levelo://app?vid=5773b8c3-4bce-4cd5-ae03-62ab7e7a7a59"},"vehicle_type_id":"4","last_reported":1745914538,"current_range_meters":10800,"station_id":"ce4bhqp2rcd13ifvqhog","pricing_plan_id":"cebpf4jnsgd1na2vs0mg"},{"bike_id":"e0fce97a-38d8-43c7-81c6-a502fabd1d3c","system_id":"levelo_inurba_marseille","lat":43.289182,"lon":5.383876,"is_reserved":false,"is_disabled":true,"rental_uris":{"android":"levelo://app?vid=e0fce97a-38d8-43c7-81c6-a502fabd1d3c","ios":"levelo://app?vid=e0fce97a-38d8-43c7-81c6-a502fabd1d3c"},"vehicle_type_id":"4","last_reported":1745914538,"current_range_meters":11200,"station_id":"ce4bh612rcd13ifvqe6g","pricing_plan_id":"cebpf4jnsgd1na2vs0mg"},{"bike_id":"4bf39d9a-ee2f-4c67-b8ef-b0a513b36472","system_id":"levelo_inurba_marseille","lat":43.24647,"lon":5.38895,"is_reserved":false,"is_disabled":false,"rental_uris":{"android":"levelo://app?vid=4bf39d9a-ee2f-4c67-b8ef-b0a513b36472","ios":"levelo://app?vid=4bf39d9a-ee2f-4c67-b8ef-b0a513b36472"},"vehicle_type_id":"4","last_reported":1745914538,"current_range_meters":11200,"station_id":"ce4bhg12rcd13ifvqf60","pricing_plan_id":"cebpf4jnsgd1na2vs0mg"},{"bike_id":"56d3126a-5caf-4303-83cc-6be1581e9786","system_id":"levelo_inurba_marseille","lat":43.248134,"lon":5.374584,"is_reserved":false,"is_disabled":false,"rental_uris":{"android":"levelo://app?vid=56d3126a-5caf-4303-83cc-6be1581e9786","ios":"levelo://app?vid=56d3126a-5caf-4303-83cc-6be1581e9786"},"vehicle_type_id":"4","last_reported":1745914538,"current_range_meters":11200,"station_id":"ce4bhgh2rcd13ifvqfb0","pricing_plan_id":"cebpf4jnsgd1na2vs0mg"},{"bike_id":"97bca748-eb79-4f1b-aedc-378bed4ebf25","system_id":"levelo_inurba_marseille","lat":43.30544,"lon":5.36706,"is_reserved":false,"is_disabled":false,"rental_uris":{"android":"levelo://app?vid=97bca748-eb79-4f1b-aedc-378bed4ebf25","ios":"levelo://app?vid=97bca748-eb79-4f1b-aedc-378bed4ebf25"},"vehicle_type_id":"4","last_reported":1745914538,"current_range_meters":11200,"station_id":"ce4bgrp2rcd13ifvqc9g","pricing_plan_id":"cebpf4jnsgd1na2vs0mg"},{"bike_id":"4cb9f3ab-ea93-40fa-8592-07f7e491c23e","system_id":"levelo_inurba_marseille","lat":43.30947,"lon":5.39033,"is_reserved":false,"is_disabled":false,"rental_uris":{"android":"levelo://app?vid=4cb9f3ab-ea93-40fa-8592-07f7e491c23e","ios":"levelo://app?vid=4cb9f3ab-ea93-40fa-8592-07f7e491c23e"},"vehicle_type_id":"4","last_reported":1745914538,"current_range_meters":11200,"station_id":"ce4bgup2rcd13ifvqco0","pricing_plan_id":"cebpf4jnsgd1na2vs0mg"},{"bike_id":"a17dfbc6-c24a-4f6f-a28a-8c7675d89f62","system_id":"levelo_inurba_marseille","lat":43.304072,"lon":5.412838,"is_reserved":false,"is_disabled":true,"rental_uris":{"android":"levelo://app?vid=a17dfbc6-c24a-4f6f-a28a-8c7675d89f62","ios":"levelo://app?vid=a17dfbc6-c24a-4f6f-a28a-8c7675d89f62"},"vehicle_type_id":"4","last_reported":1745914538,"current_range_meters":11200,"station_id":"ce4bhop2rcd13ifvqh8g","pricing_plan_id":"cebpf4jnsgd1na2vs0mg"},{"bike_id":"00520cb0-1e5c-4970-9fd6-e88f0c108821","system_id":"levelo_inurba_marseille","lat":43.29223,"lon":5.3606,"is_reserved":false,"is_disabled":false,"rental_uris":{"android":"levelo://app?vid=00520cb0-1e5c-4970-9fd6-e88f0c108821","ios":"levelo://app?vid=00520cb0-1e5c-4970-9fd6-e88f0c108821"},"vehicle_type_id":"4","last_reported":1745914538,"current_range_meters":11600,"station_id":"ce4bhbh2rcd13ifvqeqg","pricing_plan_id":"cebpf4jnsgd1na2vs0mg"},{"bike_id":"28894e81-ede6-4351-84e3-e6b48081a345","system_id":"levelo_inurba_marseille","lat":43.33465,"lon":5.400537,"is_reserved":false,"is_disabled":false,"rental_uris":{"android":"levelo://app?vid=28894e81-ede6-4351-84e3-e6b48081a345","ios":"levelo://app?vid=28894e81-ede6-4351-84e3-e6b48081a345"},"vehicle_type_id":"4","last_reported":1745914538,"current_range_meters":11600,"station_id":"","pricing_plan_id":"cebpf4jnsgd1na2vs0mg"},{"bike_id":"b24d099b-c213-4d0e-8bed-0a6b1553f715","system_id":"levelo_inurba_marseille","lat":43.32466,"lon":5.36566,"is_reserved":false,"is_disabled":false,"rental_uris":{"android":"levelo://app?vid=b24d099b-c213-4d0e-8bed-0a6b1553f715","ios":"levelo://app?vid=b24d099b-c213-4d0e-8bed-0a6b1553f715"},"vehicle_type_id":"4","last_reported":1745914538,"current_range_meters":11600,"station_id":"ce4bhs12rcd13ifvqhvg","pricing_plan_id":"cebpf4jnsgd1na2vs0mg"},{"bike_id":"b9194ba7-3012-4d0c-81a7-204eee04255a","system_id":"levelo_inurba_marseille","lat":43.309479,"lon":5.390258,"is_reserved":false,"is_disabled":false,"rental_uris":{"android":"levelo://app?vid=b9194ba7-3012-4d0c-81a7-204eee04255a","ios":"levelo://app?vid=b9194ba7-3012-4d0c-81a7-204eee04255a"},"vehicle_type_id":"4","last_reported":1745914538,"current_range_meters":11600,"station_id":"ce4bgup2rcd13ifvqco0","pricing_plan_id":"cebpf4jnsgd1na2vs0mg"},{"bike_id":"c7b0e814-cc1d-44ed-8259-8d530c8688b1","system_id":"levelo_inurba_marseille","lat":43.27494,"lon":5.42453,"is_reserved":false,"is_disabled":false,"rental_uris":{"android":"levelo://app?vid=c7b0e814-cc1d-44ed-8259-8d530c8688b1","ios":"levelo://app?vid=c7b0e814-cc1d-44ed-8259-8d530c8688b1"},"vehicle_type_id":"4","last_reported":1745914538,"current_range_meters":11600,"station_id":"ce4bhn92rcd13ifvqgrg","pricing_plan_id":"cebpf4jnsgd1na2vs0mg"},{"bike_id":"a4a07ea6-96ab-473a-8438-c1028481af57","system_id":"levelo_inurba_marseille","lat":43.30947,"lon":5.39023,"is_reserved":false,"is_disabled":false,"rental_uris":{"android":"levelo://app?vid=a4a07ea6-96ab-473a-8438-c1028481af57","ios":"levelo://app?vid=a4a07ea6-96ab-473a-8438-c1028481af57"},"vehicle_type_id":"4","last_reported":1745914538,"current_range_meters":11600,"station_id":"ce4bgup2rcd13ifvqco0","pricing_plan_id":"cebpf4jnsgd1na2vs0mg"},{"bike_id":"b3d7cca2-7d35-4030-8d40-4a8257616573","system_id":"levelo_inurba_marseille","lat":43.2249,"lon":5.34762,"is_reserved":false,"is_disabled":false,"rental_uris":{"android":"levelo://app?vid=b3d7cca2-7d35-4030-8d40-4a8257616573","ios":"levelo://app?vid=b3d7cca2-7d35-4030-8d40-4a8257616573"},"vehicle_type_id":"4","last_reported":1745914538,"current_range_meters":12000,"station_id":"st_cvj5dfep6f1abm77gieg","pricing_plan_id":"cebpf4jnsgd1na2vs0mg"},{"bike_id":"3f2c8720-4262-4c4b-b203-35899e59c127","system_id":"levelo_inurba_marseille","lat":43.34148,"lon":5.40917,"is_reserved":false,"is_disabled":false,"rental_uris":{"android":"levelo://app?vid=3f2c8720-4262-4c4b-b203-35899e59c127","ios":"levelo://app?vid=3f2c8720-4262-4c4b-b203-35899e59c127"},"vehicle_type_id":"4","last_reported":1745914538,"current_range_meters":12000,"station_id":"ce4bhqh2rcd13ifvqhlg","pricing_plan_id":"cebpf4jnsgd1na2vs0mg"},{"bike_id":"d58e03bb-19b9-469a-bcd7-0c3ce91d40b5","system_id":"levelo_inurba_marseille","lat":43.211972,"lon":5.350799,"is_reserved":false,"is_disabled":false,"rental_uris":{"android":"levelo://app?vid=d58e03bb-19b9-469a-bcd7-0c3ce91d40b5","ios":"levelo://app?vid=d58e03bb-19b9-469a-bcd7-0c3ce91d40b5"},"vehicle_type_id":"4","last_reported":1745914538,"current_range_meters":12000,"station_id":"","pricing_plan_id":"cebpf4jnsgd1na2vs0mg"},{"bike_id":"b13f9913-27dd-4197-ba83-0d6b671b36d4","system_id":"levelo_inurba_marseille","lat":43.32496,"lon":5.36626,"is_reserved":false,"is_disabled":false,"rental_uris":{"android":"levelo://app?vid=b13f9913-27dd-4197-ba83-0d6b671b36d4","ios":"levelo://app?vid=b13f9913-27dd-4197-ba83-0d6b671b36d4"},"vehicle_type_id":"4","last_reported":1745914538,"current_range_meters":12000,"station_id":"","pricing_plan_id":"cebpf4jnsgd1na2vs0mg"},{"bike_id":"c350cd71-1759-43fb-9444-8c9a25a69ce2","system_id":"levelo_inurba_marseille","lat":43.29935,"lon":5.36561,"is_reserved":false,"is_disabled":false,"rental_uris":{"android":"levelo://app?vid=c350cd71-1759-43fb-9444-8c9a25a69ce2","ios":"levelo://app?vid=c350cd71-1759-43fb-9444-8c9a25a69ce2"},"vehicle_type_id":"4","last_reported":1745914538,"current_range_meters":12000,"station_id":"ce4bgm92rcd13ifvqbr0","pricing_plan_id":"cebpf4jnsgd1na2vs0mg"},{"bike_id":"3d337857-4663-489f-893b-41ede5fdb8b8","system_id":"levelo_inurba_marseille","lat":43.33609,"lon":5.40989,"is_reserved":false,"is_disabled":false,"rental_uris":{"android":"levelo://app?vid=3d337857-4663-489f-893b-41ede5fdb8b8","ios":"levelo://app?vid=3d337857-4663-489f-893b-41ede5fdb8b8"},"vehicle_type_id":"4","last_reported":1745914538,"current_range_meters":12000,"station_id":"ce4bhqh2rcd13ifvqhmg","pricing_plan_id":"cebpf4jnsgd1na2vs0mg"},{"bike_id":"a958bd06-9a50-497e-aef9-55e910bf12d1","system_id":"levelo_inurba_marseille","lat":43.2991,"lon":5.3814,"is_reserved":false,"is_disabled":true,"rental_uris":{"android":"levelo://app?vid=a958bd06-9a50-497e-aef9-55e910bf12d1","ios":"levelo://app?vid=a958bd06-9a50-497e-aef9-55e910bf12d1"},"vehicle_type_id":"4","last_reported":1745914538,"current_range_meters":12400,"station_id":"ce4bgj12rcd13ifvqbc0","pricing_plan_id":"cebpf4jnsgd1na2vs0mg"},{"bike_id":"5d12ee4a-52f1-4f1a-af38-ad7a19a5a489","system_id":"levelo_inurba_marseille","lat":43.30543,"lon":5.36542,"is_reserved":false,"is_disabled":false,"rental_uris":{"android":"levelo://app?vid=5d12ee4a-52f1-4f1a-af38-ad7a19a5a489","ios":"levelo://app?vid=5d12ee4a-52f1-4f1a-af38-ad7a19a5a489"},"vehicle_type_id":"4","last_reported":1745914538,"current_range_meters":12400,"station_id":"ce4bgs12rcd13ifvqcag","pricing_plan_id":"cebpf4jnsgd1na2vs0mg"},{"bike_id":"011a082b-c0da-4ede-97e6-621d87468c30","system_id":"levelo_inurba_marseille","lat":43.27072,"lon":5.4228,"is_reserved":false,"is_disabled":false,"rental_uris":{"android":"levelo://app?vid=011a082b-c0da-4ede-97e6-621d87468c30","ios":"levelo://app?vid=011a082b-c0da-4ede-97e6-621d87468c30"},"vehicle_type_id":"4","last_reported":1745914538,"current_range_meters":12000,"station_id":"ce4bhk92rcd13ifvqgb0","pricing_plan_id":"cebpf4jnsgd1na2vs0mg"},{"bike_id":"e37b6224-58e3-43e9-ad69-08d7035d7151","system_id":"levelo_inurba_marseille","lat":43.323697,"lon":5.38883,"is_reserved":false,"is_disabled":false,"rental_uris":{"android":"levelo://app?vid=e37b6224-58e3-43e9-ad69-08d7035d7151","ios":"levelo://app?vid=e37b6224-58e3-43e9-ad69-08d7035d7151"},"vehicle_type_id":"4","last_reported":1745914538,"current_range_meters":8800,"station_id":"ce4bhqp2rcd13ifvqhog","pricing_plan_id":"cebpf4jnsgd1na2vs0mg"},{"bike_id":"ac462b1b-ddeb-4207-9dd3-9f27c1029474","system_id":"levelo_inurba_marseille","lat":43.29319,"lon":5.37176,"is_reserved":false,"is_disabled":false,"rental_uris":{"android":"levelo://app?vid=ac462b1b-ddeb-4207-9dd3-9f27c1029474","ios":"levelo://app?vid=ac462b1b-ddeb-4207-9dd3-9f27c1029474"},"vehicle_type_id":"4","last_reported":1745914538,"current_range_meters":12400,"station_id":"ce4bgh92rcd13ifvqb40","pricing_plan_id":"cebpf4jnsgd1na2vs0mg"},{"bike_id":"4b895ffc-93de-4c0a-9a5a-22699c8c0ef4","system_id":"levelo_inurba_marseille","lat":43.30737,"lon":5.42434,"is_reserved":false,"is_disabled":true,"rental_uris":{"android":"levelo://app?vid=4b895ffc-93de-4c0a-9a5a-22699c8c0ef4","ios":"levelo://app?vid=4b895ffc-93de-4c0a-9a5a-22699c8c0ef4"},"vehicle_type_id":"4","last_reported":1745914538,"current_range_meters":12400,"station_id":"st_cvj6ca6bvosntc0bfgr0","pricing_plan_id":"cebpf4jnsgd1na2vs0mg"},{"bike_id":"da823d1d-8330-43c0-888a-f738083e44fb","system_id":"levelo_inurba_marseille","lat":43.30955,"lon":5.39044,"is_reserved":false,"is_disabled":false,"rental_uris":{"android":"levelo://app?vid=da823d1d-8330-43c0-888a-f738083e44fb","ios":"levelo://app?vid=da823d1d-8330-43c0-888a-f738083e44fb"},"vehicle_type_id":"4","last_reported":1745914538,"current_range_meters":12800,"station_id":"ce4bgup2rcd13ifvqco0","pricing_plan_id":"cebpf4jnsgd1na2vs0mg"},{"bike_id":"c561163e-a003-49a9-bf4f-8ad31b0bbaac","system_id":"levelo_inurba_marseille","lat":43.2572,"lon":5.41837,"is_reserved":false,"is_disabled":false,"rental_uris":{"android":"levelo://app?vid=c561163e-a003-49a9-bf4f-8ad31b0bbaac","ios":"levelo://app?vid=c561163e-a003-49a9-bf4f-8ad31b0bbaac"},"vehicle_type_id":"4","last_reported":1745914538,"current_range_meters":13600,"station_id":"","pricing_plan_id":"cebpf4jnsgd1na2vs0mg"},{"bike_id":"0eb3d368-9ac6-43d6-88f4-c6528c324d4a","system_id":"levelo_inurba_marseille","lat":43.30912,"lon":5.36852,"is_reserved":false,"is_disabled":false,"rental_uris":{"android":"levelo://app?vid=0eb3d368-9ac6-43d6-88f4-c6528c324d4a","ios":"levelo://app?vid=0eb3d368-9ac6-43d6-88f4-c6528c324d4a"},"vehicle_type_id":"4","last_reported":1745914538,"current_range_meters":13600,"station_id":"ce4bgn92rcd13ifvqbvg","pricing_plan_id":"cebpf4jnsgd1na2vs0mg"},{"bike_id":"bd4dd0d7-46f4-440a-a46e-451b65dfbb5a","system_id":"levelo_inurba_marseille","lat":43.30559,"lon":5.36711,"is_reserved":false,"is_disabled":true,"rental_uris":{"android":"levelo://app?vid=bd4dd0d7-46f4-440a-a46e-451b65dfbb5a","ios":"levelo://app?vid=bd4dd0d7-46f4-440a-a46e-451b65dfbb5a"},"vehicle_type_id":"4","last_reported":1745914538,"current_range_meters":13600,"station_id":"ce4bgrp2rcd13ifvqc9g","pricing_plan_id":"cebpf4jnsgd1na2vs0mg"},{"bike_id":"1c71dd62-5c1a-42e0-8da7-81eceebfb73e","system_id":"levelo_inurba_marseille","lat":43.211875,"lon":5.350799,"is_reserved":false,"is_disabled":false,"rental_uris":{"android":"levelo://app?vid=1c71dd62-5c1a-42e0-8da7-81eceebfb73e","ios":"levelo://app?vid=1c71dd62-5c1a-42e0-8da7-81eceebfb73e"},"vehicle_type_id":"4","last_reported":1745914538,"current_range_meters":13600,"station_id":"st_cvj6sg6p6f1abm77japg","pricing_plan_id":"cebpf4jnsgd1na2vs0mg"},{"bike_id":"90ec756e-7d75-44ae-9837-bcc6f8c453df","system_id":"levelo_inurba_marseille","lat":43.23202,"lon":5.35547,"is_reserved":false,"is_disabled":false,"rental_uris":{"android":"levelo://app?vid=90ec756e-7d75-44ae-9837-bcc6f8c453df","ios":"levelo://app?vid=90ec756e-7d75-44ae-9837-bcc6f8c453df"},"vehicle_type_id":"4","last_reported":1745914538,"current_range_meters":13600,"station_id":"ce4bhu92rcd13ifvqi70","pricing_plan_id":"cebpf4jnsgd1na2vs0mg"},{"bike_id":"9366d0f7-d227-4995-badb-e85de9ed01d7","system_id":"levelo_inurba_marseille","lat":43.317216,"lon":5.378032,"is_reserved":false,"is_disabled":true,"rental_uris":{"android":"levelo://app?vid=9366d0f7-d227-4995-badb-e85de9ed01d7","ios":"levelo://app?vid=9366d0f7-d227-4995-badb-e85de9ed01d7"},"vehicle_type_id":"4","last_reported":1745914538,"current_range_meters":14000,"station_id":"","pricing_plan_id":"cebpf4jnsgd1na2vs0mg"},{"bike_id":"de3b690c-5ca2-4a7f-ba7c-fc443fe75656","system_id":"levelo_inurba_marseille","lat":43.28293,"lon":5.3508,"is_reserved":false,"is_disabled":false,"rental_uris":{"android":"levelo://app?vid=de3b690c-5ca2-4a7f-ba7c-fc443fe75656","ios":"levelo://app?vid=de3b690c-5ca2-4a7f-ba7c-fc443fe75656"},"vehicle_type_id":"4","last_reported":1745914538,"current_range_meters":13600,"station_id":"ce4bhbp2rcd13ifvqerg","pricing_plan_id":"cebpf4jnsgd1na2vs0mg"},{"bike_id":"16096a5e-70ed-4f1f-81de-ca76f59320ee","system_id":"levelo_inurba_marseille","lat":43.25582,"lon":5.38222,"is_reserved":false,"is_disabled":false,"rental_uris":{"android":"levelo://app?vid=16096a5e-70ed-4f1f-81de-ca76f59320ee","ios":"levelo://app?vid=16096a5e-70ed-4f1f-81de-ca76f59320ee"},"vehicle_type_id":"4","last_reported":1745914538,"current_range_meters":14400,"station_id":"ce4bhih2rcd13ifvqfs0","pricing_plan_id":"cebpf4jnsgd1na2vs0mg"},{"bike_id":"51cf61f7-eaa2-440c-8e66-180a142ab448","system_id":"levelo_inurba_marseille","lat":43.32481,"lon":5.36558,"is_reserved":false,"is_disabled":false,"rental_uris":{"android":"levelo://app?vid=51cf61f7-eaa2-440c-8e66-180a142ab448","ios":"levelo://app?vid=51cf61f7-eaa2-440c-8e66-180a142ab448"},"vehicle_type_id":"4","last_reported":1745914538,"current_range_meters":14400,"station_id":"ce4bhs12rcd13ifvqhvg","pricing_plan_id":"cebpf4jnsgd1na2vs0mg"},{"bike_id":"af63eb77-e6ac-4fa5-8a53-e9afe7b6a5d2","system_id":"levelo_inurba_marseille","lat":43.303743,"lon":5.42482,"is_reserved":false,"is_disabled":false,"rental_uris":{"android":"levelo://app?vid=af63eb77-e6ac-4fa5-8a53-e9afe7b6a5d2","ios":"levelo://app?vid=af63eb77-e6ac-4fa5-8a53-e9afe7b6a5d2"},"vehicle_type_id":"4","last_reported":1745914538,"current_range_meters":14400,"station_id":"ce4bhoh2rcd13ifvqh6g","pricing_plan_id":"cebpf4jnsgd1na2vs0mg"},{"bike_id":"489415b8-9254-45c1-b00c-e7554d56755c","system_id":"levelo_inurba_marseille","lat":43.24523,"lon":5.41206,"is_reserved":false,"is_disabled":false,"rental_uris":{"android":"levelo://app?vid=489415b8-9254-45c1-b00c-e7554d56755c","ios":"levelo://app?vid=489415b8-9254-45c1-b00c-e7554d56755c"},"vehicle_type_id":"4","last_reported":1745914538,"current_range_meters":14800,"station_id":"","pricing_plan_id":"cebpf4jnsgd1na2vs0mg"},{"bike_id":"69e5982b-1cfc-4bf9-a6c1-72ad2f9319a0","system_id":"levelo_inurba_marseille","lat":43.27515,"lon":5.42457,"is_reserved":false,"is_disabled":false,"rental_uris":{"android":"levelo://app?vid=69e5982b-1cfc-4bf9-a6c1-72ad2f9319a0","ios":"levelo://app?vid=69e5982b-1cfc-4bf9-a6c1-72ad2f9319a0"},"vehicle_type_id":"4","last_reported":1745914538,"current_range_meters":14800,"station_id":"ce4bhn92rcd13ifvqgrg","pricing_plan_id":"cebpf4jnsgd1na2vs0mg"},{"bike_id":"39f18c8b-df43-4308-a98e-40efc694b971","system_id":"levelo_inurba_marseille","lat":43.24088,"lon":5.3772,"is_reserved":false,"is_disabled":false,"rental_uris":{"android":"levelo://app?vid=39f18c8b-df43-4308-a98e-40efc694b971","ios":"levelo://app?vid=39f18c8b-df43-4308-a98e-40efc694b971"},"vehicle_type_id":"4","last_reported":1745914538,"current_range_meters":14800,"station_id":"ce4bhnp2rcd13ifvqgvg","pricing_plan_id":"cebpf4jnsgd1na2vs0mg"},{"bike_id":"2d303286-1748-405f-b5c7-c9d6c2ec111c","system_id":"levelo_inurba_marseille","lat":43.24388,"lon":5.37045,"is_reserved":false,"is_disabled":false,"rental_uris":{"android":"levelo://app?vid=2d303286-1748-405f-b5c7-c9d6c2ec111c","ios":"levelo://app?vid=2d303286-1748-405f-b5c7-c9d6c2ec111c"},"vehicle_type_id":"4","last_reported":1745914538,"current_range_meters":15200,"station_id":"ce4bhhh2rcd13ifvqfk0","pricing_plan_id":"cebpf4jnsgd1na2vs0mg"},{"bike_id":"2204e407-be4a-4d8a-9931-345c5ec253bb","system_id":"levelo_inurba_marseille","lat":43.28852,"lon":5.35854,"is_reserved":false,"is_disabled":false,"rental_uris":{"android":"levelo://app?vid=2204e407-be4a-4d8a-9931-345c5ec253bb","ios":"levelo://app?vid=2204e407-be4a-4d8a-9931-345c5ec253bb"},"vehicle_type_id":"4","last_reported":1745914538,"current_range_meters":15200,"station_id":"ce4bhb12rcd13ifvqem0","pricing_plan_id":"cebpf4jnsgd1na2vs0mg"},{"bike_id":"1b105ecf-d0a3-45d6-994d-6634e10a1750","system_id":"levelo_inurba_marseille","lat":43.28861,"lon":5.35848,"is_reserved":false,"is_disabled":false,"rental_uris":{"android":"levelo://app?vid=1b105ecf-d0a3-45d6-994d-6634e10a1750","ios":"levelo://app?vid=1b105ecf-d0a3-45d6-994d-6634e10a1750"},"vehicle_type_id":"4","last_reported":1745914538,"current_range_meters":15200,"station_id":"ce4bhb12rcd13ifvqem0","pricing_plan_id":"cebpf4jnsgd1na2vs0mg"},{"bike_id":"1ad8fe78-f810-420c-b70e-61eaa07378bb","system_id":"levelo_inurba_marseille","lat":43.284694,"lon":5.38423,"is_reserved":false,"is_disabled":false,"rental_uris":{"android":"levelo://app?vid=1ad8fe78-f810-420c-b70e-61eaa07378bb","ios":"levelo://app?vid=1ad8fe78-f810-420c-b70e-61eaa07378bb"},"vehicle_type_id":"4","last_reported":1745914538,"current_range_meters":16000,"station_id":"ce4bh512rcd13ifvqe3g","pricing_plan_id":"cebpf4jnsgd1na2vs0mg"},{"bike_id":"d1ed0c46-136b-4834-9370-2db483357d10","system_id":"levelo_inurba_marseille","lat":43.30593,"lon":5.39358,"is_reserved":false,"is_disabled":false,"rental_uris":{"android":"levelo://app?vid=d1ed0c46-136b-4834-9370-2db483357d10","ios":"levelo://app?vid=d1ed0c46-136b-4834-9370-2db483357d10"},"vehicle_type_id":"4","last_reported":1745914538,"current_range_meters":16000,"station_id":"ce4bh0p2rcd13ifvqd80","pricing_plan_id":"cebpf4jnsgd1na2vs0mg"},{"bike_id":"83170771-cfce-4a31-83de-cad32c4801d5","system_id":"levelo_inurba_marseille","lat":43.295303,"lon":5.390485,"is_reserved":false,"is_disabled":false,"rental_uris":{"android":"levelo://app?vid=83170771-cfce-4a31-83de-cad32c4801d5","ios":"levelo://app?vid=83170771-cfce-4a31-83de-cad32c4801d5"},"vehicle_type_id":"4","last_reported":1745914538,"current_range_meters":16400,"station_id":"ce4bh3p2rcd13ifvqdp0","pricing_plan_id":"cebpf4jnsgd1na2vs0mg"},{"bike_id":"516bcf45-fb34-498c-8400-bae34598544a","system_id":"levelo_inurba_marseille","lat":43.31082,"lon":5.42431,"is_reserved":false,"is_disabled":false,"rental_uris":{"android":"levelo://app?vid=516bcf45-fb34-498c-8400-bae34598544a","ios":"levelo://app?vid=516bcf45-fb34-498c-8400-bae34598544a"},"vehicle_type_id":"4","last_reported":1745914538,"current_range_meters":16000,"station_id":"ce4bhp92rcd13ifvqhag","pricing_plan_id":"cebpf4jnsgd1na2vs0mg"},{"bike_id":"7b9f5250-5732-4fcc-9e05-7f004c305774","system_id":"levelo_inurba_marseille","lat":43.30945,"lon":5.39026,"is_reserved":false,"is_disabled":false,"rental_uris":{"android":"levelo://app?vid=7b9f5250-5732-4fcc-9e05-7f004c305774","ios":"levelo://app?vid=7b9f5250-5732-4fcc-9e05-7f004c305774"},"vehicle_type_id":"4","last_reported":1745914538,"current_range_meters":16400,"station_id":"ce4bgup2rcd13ifvqco0","pricing_plan_id":"cebpf4jnsgd1na2vs0mg"},{"bike_id":"c61d834f-ae2a-4d78-8ac2-7ae8a2cb7207","system_id":"levelo_inurba_marseille","lat":43.2721,"lon":5.3918,"is_reserved":false,"is_disabled":false,"rental_uris":{"android":"levelo://app?vid=c61d834f-ae2a-4d78-8ac2-7ae8a2cb7207","ios":"levelo://app?vid=c61d834f-ae2a-4d78-8ac2-7ae8a2cb7207"},"vehicle_type_id":"4","last_reported":1745914538,"current_range_meters":16400,"station_id":"ce4bhhp2rcd13ifvqfm0","pricing_plan_id":"cebpf4jnsgd1na2vs0mg"},{"bike_id":"39fefff0-6eff-4cf5-8066-e3b24bc067e5","system_id":"levelo_inurba_marseille","lat":43.29265,"lon":5.36841,"is_reserved":false,"is_disabled":false,"rental_uris":{"android":"levelo://app?vid=39fefff0-6eff-4cf5-8066-e3b24bc067e5","ios":"levelo://app?vid=39fefff0-6eff-4cf5-8066-e3b24bc067e5"},"vehicle_type_id":"4","last_reported":1745914538,"current_range_meters":16400,"station_id":"ce4bhbp2rcd13ifvqesg","pricing_plan_id":"cebpf4jnsgd1na2vs0mg"},{"bike_id":"1cb3da76-f497-49e4-a8a6-5a0629444d60","system_id":"levelo_inurba_marseille","lat":43.29966,"lon":5.36686,"is_reserved":false,"is_disabled":false,"rental_uris":{"android":"levelo://app?vid=1cb3da76-f497-49e4-a8a6-5a0629444d60","ios":"levelo://app?vid=1cb3da76-f497-49e4-a8a6-5a0629444d60"},"vehicle_type_id":"4","last_reported":1745914538,"current_range_meters":16400,"station_id":"","pricing_plan_id":"cebpf4jnsgd1na2vs0mg"},{"bike_id":"3116d66b-5e57-4f41-b790-e11ad4af653f","system_id":"levelo_inurba_marseille","lat":43.27996,"lon":5.41658,"is_reserved":false,"is_disabled":false,"rental_uris":{"android":"levelo://app?vid=3116d66b-5e57-4f41-b790-e11ad4af653f","ios":"levelo://app?vid=3116d66b-5e57-4f41-b790-e11ad4af653f"},"vehicle_type_id":"4","last_reported":1745914538,"current_range_meters":16400,"station_id":"ce4bho12rcd13ifvqh1g","pricing_plan_id":"cebpf4jnsgd1na2vs0mg"},{"bike_id":"fecd7ad5-4d9a-471c-b2a2-a4f99bc7001c","system_id":"levelo_inurba_marseille","lat":43.25715,"lon":5.41117,"is_reserved":false,"is_disabled":false,"rental_uris":{"android":"levelo://app?vid=fecd7ad5-4d9a-471c-b2a2-a4f99bc7001c","ios":"levelo://app?vid=fecd7ad5-4d9a-471c-b2a2-a4f99bc7001c"},"vehicle_type_id":"4","last_reported":1745914538,"current_range_meters":16400,"station_id":"ce4bhkp2rcd13ifvqgd0","pricing_plan_id":"cebpf4jnsgd1na2vs0mg"},{"bike_id":"f93511c6-a587-41d4-a0fa-5f3069fef0b0","system_id":"levelo_inurba_marseille","lat":43.25001,"lon":5.38924,"is_reserved":false,"is_disabled":false,"rental_uris":{"android":"levelo://app?vid=f93511c6-a587-41d4-a0fa-5f3069fef0b0","ios":"levelo://app?vid=f93511c6-a587-41d4-a0fa-5f3069fef0b0"},"vehicle_type_id":"4","last_reported":1745914538,"current_range_meters":16400,"station_id":"ce4bhgp2rcd13ifvqfd0","pricing_plan_id":"cebpf4jnsgd1na2vs0mg"},{"bike_id":"086ec96c-d4a2-4a92-afe3-0db31eace0ab","system_id":"levelo_inurba_marseille","lat":43.29839,"lon":5.36268,"is_reserved":false,"is_disabled":false,"rental_uris":{"android":"levelo://app?vid=086ec96c-d4a2-4a92-afe3-0db31eace0ab","ios":"levelo://app?vid=086ec96c-d4a2-4a92-afe3-0db31eace0ab"},"vehicle_type_id":"4","last_reported":1745914538,"current_range_meters":16400,"station_id":"ce4bgpp2rcd13ifvqc3g","pricing_plan_id":"cebpf4jnsgd1na2vs0mg"},{"bike_id":"d431acbd-b17c-41ee-83e2-2f6face445d0","system_id":"levelo_inurba_marseille","lat":43.27492,"lon":5.42454,"is_reserved":false,"is_disabled":false,"rental_uris":{"android":"levelo://app?vid=d431acbd-b17c-41ee-83e2-2f6face445d0","ios":"levelo://app?vid=d431acbd-b17c-41ee-83e2-2f6face445d0"},"vehicle_type_id":"4","last_reported":1745914538,"current_range_meters":16800,"station_id":"ce4bhn92rcd13ifvqgrg","pricing_plan_id":"cebpf4jnsgd1na2vs0mg"},{"bike_id":"2257c8cc-6d7f-44dd-a0f8-0f00950b4925","system_id":"levelo_inurba_marseille","lat":43.286059,"lon":5.350936,"is_reserved":false,"is_disabled":false,"rental_uris":{"android":"levelo://app?vid=2257c8cc-6d7f-44dd-a0f8-0f00950b4925","ios":"levelo://app?vid=2257c8cc-6d7f-44dd-a0f8-0f00950b4925"},"vehicle_type_id":"4","last_reported":1745914538,"current_range_meters":16800,"station_id":"ce4bhch2rcd13ifvqeug","pricing_plan_id":"cebpf4jnsgd1na2vs0mg"},{"bike_id":"4a6fb84b-10d4-4658-966a-b51a5e45ebb1","system_id":"levelo_inurba_marseille","lat":43.29227,"lon":5.36061,"is_reserved":false,"is_disabled":false,"rental_uris":{"android":"levelo://app?vid=4a6fb84b-10d4-4658-966a-b51a5e45ebb1","ios":"levelo://app?vid=4a6fb84b-10d4-4658-966a-b51a5e45ebb1"},"vehicle_type_id":"4","last_reported":1745914538,"current_range_meters":16800,"station_id":"ce4bhbh2rcd13ifvqeqg","pricing_plan_id":"cebpf4jnsgd1na2vs0mg"},{"bike_id":"fe1df706-3663-4019-9506-471eb284591a","system_id":"levelo_inurba_marseille","lat":43.30916,"lon":5.36852,"is_reserved":false,"is_disabled":false,"rental_uris":{"android":"levelo://app?vid=fe1df706-3663-4019-9506-471eb284591a","ios":"levelo://app?vid=fe1df706-3663-4019-9506-471eb284591a"},"vehicle_type_id":"4","last_reported":1745914538,"current_range_meters":16800,"station_id":"ce4bgn92rcd13ifvqbvg","pricing_plan_id":"cebpf4jnsgd1na2vs0mg"},{"bike_id":"07693e24-7000-4fd3-8fe1-8644dd3f1e08","system_id":"levelo_inurba_marseille","lat":43.2738,"lon":5.38958,"is_reserved":false,"is_disabled":false,"rental_uris":{"android":"levelo://app?vid=07693e24-7000-4fd3-8fe1-8644dd3f1e08","ios":"levelo://app?vid=07693e24-7000-4fd3-8fe1-8644dd3f1e08"},"vehicle_type_id":"4","last_reported":1745914538,"current_range_meters":16800,"station_id":"","pricing_plan_id":"cebpf4jnsgd1na2vs0mg"},{"bike_id":"01a307e5-6763-4746-b7bb-ec28a34bc502","system_id":"levelo_inurba_marseille","lat":43.25961,"lon":5.40935,"is_reserved":false,"is_disabled":false,"rental_uris":{"android":"levelo://app?vid=01a307e5-6763-4746-b7bb-ec28a34bc502","ios":"levelo://app?vid=01a307e5-6763-4746-b7bb-ec28a34bc502"},"vehicle_type_id":"4","last_reported":1745914538,"current_range_meters":17200,"station_id":"ce4bhm92rcd13ifvqglg","pricing_plan_id":"cebpf4jnsgd1na2vs0mg"},{"bike_id":"bfed2da6-0d8b-41a3-9024-fac66defb3de","system_id":"levelo_inurba_marseille","lat":43.30974,"lon":5.36829,"is_reserved":false,"is_disabled":false,"rental_uris":{"android":"levelo://app?vid=bfed2da6-0d8b-41a3-9024-fac66defb3de","ios":"levelo://app?vid=bfed2da6-0d8b-41a3-9024-fac66defb3de"},"vehicle_type_id":"4","last_reported":1745914538,"current_range_meters":17200,"station_id":"","pricing_plan_id":"cebpf4jnsgd1na2vs0mg"},{"bike_id":"b091a2ed-64a8-4e4d-9f05-2ce11d2c14aa","system_id":"levelo_inurba_marseille","lat":43.24387,"lon":5.37062,"is_reserved":false,"is_disabled":false,"rental_uris":{"android":"levelo://app?vid=b091a2ed-64a8-4e4d-9f05-2ce11d2c14aa","ios":"levelo://app?vid=b091a2ed-64a8-4e4d-9f05-2ce11d2c14aa"},"vehicle_type_id":"4","last_reported":1745914538,"current_range_meters":17200,"station_id":"ce4bhhh2rcd13ifvqfk0","pricing_plan_id":"cebpf4jnsgd1na2vs0mg"},{"bike_id":"0725b739-bb90-453e-90e8-8db1300950a1","system_id":"levelo_inurba_marseille","lat":43.2847,"lon":5.384198,"is_reserved":false,"is_disabled":false,"rental_uris":{"android":"levelo://app?vid=0725b739-bb90-453e-90e8-8db1300950a1","ios":"levelo://app?vid=0725b739-bb90-453e-90e8-8db1300950a1"},"vehicle_type_id":"4","last_reported":1745914538,"current_range_meters":17200,"station_id":"ce4bh512rcd13ifvqe3g","pricing_plan_id":"cebpf4jnsgd1na2vs0mg"},{"bike_id":"17d1d6e3-ed5d-42b4-99ff-221d46d0b1a6","system_id":"levelo_inurba_marseille","lat":43.24084,"lon":5.37754,"is_reserved":false,"is_disabled":false,"rental_uris":{"android":"levelo://app?vid=17d1d6e3-ed5d-42b4-99ff-221d46d0b1a6","ios":"levelo://app?vid=17d1d6e3-ed5d-42b4-99ff-221d46d0b1a6"},"vehicle_type_id":"4","last_reported":1745914538,"current_range_meters":17200,"station_id":"ce4bhnp2rcd13ifvqgvg","pricing_plan_id":"cebpf4jnsgd1na2vs0mg"},{"bike_id":"a05c4a15-a630-409f-8eb0-cbcb19de8d65","system_id":"levelo_inurba_marseille","lat":43.28728,"lon":5.37942,"is_reserved":false,"is_disabled":false,"rental_uris":{"android":"levelo://app?vid=a05c4a15-a630-409f-8eb0-cbcb19de8d65","ios":"levelo://app?vid=a05c4a15-a630-409f-8eb0-cbcb19de8d65"},"vehicle_type_id":"4","last_reported":1745914538,"current_range_meters":17600,"station_id":"ce4bh9p2rcd13ifvqec0","pricing_plan_id":"cebpf4jnsgd1na2vs0mg"},{"bike_id":"488616de-f462-46da-bb68-96f3098ecf3f","system_id":"levelo_inurba_marseille","lat":43.25861,"lon":5.39897,"is_reserved":false,"is_disabled":false,"rental_uris":{"android":"levelo://app?vid=488616de-f462-46da-bb68-96f3098ecf3f","ios":"levelo://app?vid=488616de-f462-46da-bb68-96f3098ecf3f"},"vehicle_type_id":"4","last_reported":1745914538,"current_range_meters":17600,"station_id":"ce4bhl92rcd13ifvqghg","pricing_plan_id":"cebpf4jnsgd1na2vs0mg"},{"bike_id":"dcae510a-fb55-4a1e-9b94-49942e6daf9c","system_id":"levelo_inurba_marseille","lat":43.27904,"lon":5.39586,"is_reserved":false,"is_disabled":false,"rental_uris":{"android":"levelo://app?vid=dcae510a-fb55-4a1e-9b94-49942e6daf9c","ios":"levelo://app?vid=dcae510a-fb55-4a1e-9b94-49942e6daf9c"},"vehicle_type_id":"4","last_reported":1745914538,"current_range_meters":17600,"station_id":"ce4bhf92rcd13ifvqf40","pricing_plan_id":"cebpf4jnsgd1na2vs0mg"},{"bike_id":"972661d0-54db-4797-a425-2fce787f33ea","system_id":"levelo_inurba_marseille","lat":43.32476,"lon":5.36574,"is_reserved":false,"is_disabled":false,"rental_uris":{"android":"levelo://app?vid=972661d0-54db-4797-a425-2fce787f33ea","ios":"levelo://app?vid=972661d0-54db-4797-a425-2fce787f33ea"},"vehicle_type_id":"4","last_reported":1745914538,"current_range_meters":17600,"station_id":"ce4bhs12rcd13ifvqhvg","pricing_plan_id":"cebpf4jnsgd1na2vs0mg"},{"bike_id":"1ff7221b-8e1e-4dce-9e57-4aed861ca4b9","system_id":"levelo_inurba_marseille","lat":43.33724,"lon":5.39183,"is_reserved":false,"is_disabled":false,"rental_uris":{"android":"levelo://app?vid=1ff7221b-8e1e-4dce-9e57-4aed861ca4b9","ios":"levelo://app?vid=1ff7221b-8e1e-4dce-9e57-4aed861ca4b9"},"vehicle_type_id":"4","last_reported":1745914538,"current_range_meters":17600,"station_id":"ce4bhr92rcd13ifvqhsg","pricing_plan_id":"cebpf4jnsgd1na2vs0mg"},{"bike_id":"d2f13750-e22a-4165-8dd4-3429f9cedb09","system_id":"levelo_inurba_marseille","lat":43.2927,"lon":5.37611,"is_reserved":false,"is_disabled":true,"rental_uris":{"android":"levelo://app?vid=d2f13750-e22a-4165-8dd4-3429f9cedb09","ios":"levelo://app?vid=d2f13750-e22a-4165-8dd4-3429f9cedb09"},"vehicle_type_id":"4","last_reported":1745914538,"current_range_meters":17600,"station_id":"ce4bgi12rcd13ifvqb80","pricing_plan_id":"cebpf4jnsgd1na2vs0mg"},{"bike_id":"8cda1de9-fdcf-4668-98b5-74d0e4293e40","system_id":"levelo_inurba_marseille","lat":43.26681,"lon":5.38271,"is_reserved":false,"is_disabled":true,"rental_uris":{"android":"levelo://app?vid=8cda1de9-fdcf-4668-98b5-74d0e4293e40","ios":"levelo://app?vid=8cda1de9-fdcf-4668-98b5-74d0e4293e40"},"vehicle_type_id":"4","last_reported":1745914538,"current_range_meters":18000,"station_id":"ce4bhg92rcd13ifvqf90","pricing_plan_id":"cebpf4jnsgd1na2vs0mg"},{"bike_id":"85dada4e-45e6-4f1e-a374-2a8a7e5d610a","system_id":"levelo_inurba_marseille","lat":43.2594,"lon":5.40927,"is_reserved":false,"is_disabled":false,"rental_uris":{"android":"levelo://app?vid=85dada4e-45e6-4f1e-a374-2a8a7e5d610a","ios":"levelo://app?vid=85dada4e-45e6-4f1e-a374-2a8a7e5d610a"},"vehicle_type_id":"4","last_reported":1745914538,"current_range_meters":18000,"station_id":"ce4bhm92rcd13ifvqglg","pricing_plan_id":"cebpf4jnsgd1na2vs0mg"},{"bike_id":"1a9cabc0-5ee7-42b7-82c7-8cb331367cbc","system_id":"levelo_inurba_marseille","lat":43.30949,"lon":5.39025,"is_reserved":false,"is_disabled":false,"rental_uris":{"android":"levelo://app?vid=1a9cabc0-5ee7-42b7-82c7-8cb331367cbc","ios":"levelo://app?vid=1a9cabc0-5ee7-42b7-82c7-8cb331367cbc"},"vehicle_type_id":"4","last_reported":1745914538,"current_range_meters":17600,"station_id":"ce4bgup2rcd13ifvqco0","pricing_plan_id":"cebpf4jnsgd1na2vs0mg"},{"bike_id":"fb0b1301-5dde-4a5c-92df-829d8d59cb04","system_id":"levelo_inurba_marseille","lat":43.28852,"lon":5.3585,"is_reserved":false,"is_disabled":false,"rental_uris":{"android":"levelo://app?vid=fb0b1301-5dde-4a5c-92df-829d8d59cb04","ios":"levelo://app?vid=fb0b1301-5dde-4a5c-92df-829d8d59cb04"},"vehicle_type_id":"4","last_reported":1745914538,"current_range_meters":18000,"station_id":"ce4bhb12rcd13ifvqem0","pricing_plan_id":"cebpf4jnsgd1na2vs0mg"},{"bike_id":"a5febc54-c13f-4d06-bdf4-cdd189d219fe","system_id":"levelo_inurba_marseille","lat":43.289251,"lon":5.383988,"is_reserved":false,"is_disabled":false,"rental_uris":{"android":"levelo://app?vid=a5febc54-c13f-4d06-bdf4-cdd189d219fe","ios":"levelo://app?vid=a5febc54-c13f-4d06-bdf4-cdd189d219fe"},"vehicle_type_id":"4","last_reported":1745914538,"current_range_meters":17600,"station_id":"ce4bh612rcd13ifvqe6g","pricing_plan_id":"cebpf4jnsgd1na2vs0mg"},{"bike_id":"55dbfb08-f027-4634-90d6-2b1246dfdb71","system_id":"levelo_inurba_marseille","lat":43.33601,"lon":5.41032,"is_reserved":false,"is_disabled":false,"rental_uris":{"android":"levelo://app?vid=55dbfb08-f027-4634-90d6-2b1246dfdb71","ios":"levelo://app?vid=55dbfb08-f027-4634-90d6-2b1246dfdb71"},"vehicle_type_id":"4","last_reported":1745914538,"current_range_meters":18800,"station_id":"ce4bhqh2rcd13ifvqhmg","pricing_plan_id":"cebpf4jnsgd1na2vs0mg"},{"bike_id":"73bdaf62-584c-4aef-b388-35b847199721","system_id":"levelo_inurba_marseille","lat":43.280334,"lon":5.369412,"is_reserved":false,"is_disabled":false,"rental_uris":{"android":"levelo://app?vid=73bdaf62-584c-4aef-b388-35b847199721","ios":"levelo://app?vid=73bdaf62-584c-4aef-b388-35b847199721"},"vehicle_type_id":"4","last_reported":1745914538,"current_range_meters":18800,"station_id":"ce4bha12rcd13ifvqef0","pricing_plan_id":"cebpf4jnsgd1na2vs0mg"},{"bike_id":"416f56c9-d4a6-4629-a68f-9e2d92705b16","system_id":"levelo_inurba_marseille","lat":43.27488,"lon":5.42454,"is_reserved":false,"is_disabled":false,"rental_uris":{"android":"levelo://app?vid=416f56c9-d4a6-4629-a68f-9e2d92705b16","ios":"levelo://app?vid=416f56c9-d4a6-4629-a68f-9e2d92705b16"},"vehicle_type_id":"4","last_reported":1745914538,"current_range_meters":18800,"station_id":"ce4bhn92rcd13ifvqgrg","pricing_plan_id":"cebpf4jnsgd1na2vs0mg"},{"bike_id":"613dd303-9b9b-490c-8b90-12fd790120cd","system_id":"levelo_inurba_marseille","lat":43.23153,"lon":5.43705,"is_reserved":false,"is_disabled":false,"rental_uris":{"android":"levelo://app?vid=613dd303-9b9b-490c-8b90-12fd790120cd","ios":"levelo://app?vid=613dd303-9b9b-490c-8b90-12fd790120cd"},"vehicle_type_id":"4","last_reported":1745914538,"current_range_meters":18800,"station_id":"ce4bhmp2rcd13ifvqgog","pricing_plan_id":"cebpf4jnsgd1na2vs0mg"},{"bike_id":"dab7e891-cb83-4310-be13-42af1872a660","system_id":"levelo_inurba_marseille","lat":43.246607,"lon":5.381582,"is_reserved":false,"is_disabled":false,"rental_uris":{"android":"levelo://app?vid=dab7e891-cb83-4310-be13-42af1872a660","ios":"levelo://app?vid=dab7e891-cb83-4310-be13-42af1872a660"},"vehicle_type_id":"4","last_reported":1745914538,"current_range_meters":18800,"station_id":"","pricing_plan_id":"cebpf4jnsgd1na2vs0mg"},{"bike_id":"f1dba9be-6e70-4b56-988e-413fd1e3cd62","system_id":"levelo_inurba_marseille","lat":43.30136,"lon":5.37425,"is_reserved":false,"is_disabled":false,"rental_uris":{"android":"levelo://app?vid=f1dba9be-6e70-4b56-988e-413fd1e3cd62","ios":"levelo://app?vid=f1dba9be-6e70-4b56-988e-413fd1e3cd62"},"vehicle_type_id":"4","last_reported":1745914538,"current_range_meters":18800,"station_id":"ce4bgs92rcd13ifvqcc0","pricing_plan_id":"cebpf4jnsgd1na2vs0mg"},{"bike_id":"33f49823-bd61-40af-bdc8-8f0390f031d7","system_id":"levelo_inurba_marseille","lat":43.27493,"lon":5.42454,"is_reserved":false,"is_disabled":false,"rental_uris":{"android":"levelo://app?vid=33f49823-bd61-40af-bdc8-8f0390f031d7","ios":"levelo://app?vid=33f49823-bd61-40af-bdc8-8f0390f031d7"},"vehicle_type_id":"4","last_reported":1745914538,"current_range_meters":18800,"station_id":"ce4bhn92rcd13ifvqgrg","pricing_plan_id":"cebpf4jnsgd1na2vs0mg"},{"bike_id":"0c46722b-9dcc-4cf2-bae2-44ec0553adae","system_id":"levelo_inurba_marseille","lat":43.30911,"lon":5.3685,"is_reserved":false,"is_disabled":false,"rental_uris":{"android":"levelo://app?vid=0c46722b-9dcc-4cf2-bae2-44ec0553adae","ios":"levelo://app?vid=0c46722b-9dcc-4cf2-bae2-44ec0553adae"},"vehicle_type_id":"4","last_reported":1745914538,"current_range_meters":18800,"station_id":"ce4bgn92rcd13ifvqbvg","pricing_plan_id":"cebpf4jnsgd1na2vs0mg"},{"bike_id":"2cecb542-b36d-4403-8a6d-1d337663b62a","system_id":"levelo_inurba_marseille","lat":43.29573,"lon":5.37491,"is_reserved":false,"is_disabled":false,"rental_uris":{"android":"levelo://app?vid=2cecb542-b36d-4403-8a6d-1d337663b62a","ios":"levelo://app?vid=2cecb542-b36d-4403-8a6d-1d337663b62a"},"vehicle_type_id":"4","last_reported":1745914538,"current_range_meters":18800,"station_id":"ce4bgh92rcd13ifvqb50","pricing_plan_id":"cebpf4jnsgd1na2vs0mg"},{"bike_id":"9d16da21-6a74-4fc8-b8ad-41c41ab84a3b","system_id":"levelo_inurba_marseille","lat":43.31006,"lon":5.373223,"is_reserved":false,"is_disabled":true,"rental_uris":{"android":"levelo://app?vid=9d16da21-6a74-4fc8-b8ad-41c41ab84a3b","ios":"levelo://app?vid=9d16da21-6a74-4fc8-b8ad-41c41ab84a3b"},"vehicle_type_id":"4","last_reported":1745914538,"current_range_meters":18800,"station_id":"","pricing_plan_id":"cebpf4jnsgd1na2vs0mg"},{"bike_id":"9195c75b-fbb7-4a46-b4b5-16dd2350c568","system_id":"levelo_inurba_marseille","lat":43.30537,"lon":5.36689,"is_reserved":false,"is_disabled":false,"rental_uris":{"android":"levelo://app?vid=9195c75b-fbb7-4a46-b4b5-16dd2350c568","ios":"levelo://app?vid=9195c75b-fbb7-4a46-b4b5-16dd2350c568"},"vehicle_type_id":"4","last_reported":1745914538,"current_range_meters":19200,"station_id":"ce4bgrp2rcd13ifvqc9g","pricing_plan_id":"cebpf4jnsgd1na2vs0mg"},{"bike_id":"b26a0b33-650f-4f7b-8536-58a942167ba4","system_id":"levelo_inurba_marseille","lat":43.23187,"lon":5.35551,"is_reserved":false,"is_disabled":false,"rental_uris":{"android":"levelo://app?vid=b26a0b33-650f-4f7b-8536-58a942167ba4","ios":"levelo://app?vid=b26a0b33-650f-4f7b-8536-58a942167ba4"},"vehicle_type_id":"4","last_reported":1745914538,"current_range_meters":19200,"station_id":"ce4bhu92rcd13ifvqi70","pricing_plan_id":"cebpf4jnsgd1na2vs0mg"},{"bike_id":"32b33499-54fa-4c63-b565-ff6a41c5eea4","system_id":"levelo_inurba_marseille","lat":43.24183,"lon":5.39743,"is_reserved":false,"is_disabled":false,"rental_uris":{"android":"levelo://app?vid=32b33499-54fa-4c63-b565-ff6a41c5eea4","ios":"levelo://app?vid=32b33499-54fa-4c63-b565-ff6a41c5eea4"},"vehicle_type_id":"4","last_reported":1745914538,"current_range_meters":19200,"station_id":"ce4bhn12rcd13ifvqgpg","pricing_plan_id":"cebpf4jnsgd1na2vs0mg"},{"bike_id":"d9e08f95-179f-4ae0-9bc2-e736de45549e","system_id":"levelo_inurba_marseille","lat":43.23965,"lon":5.36629,"is_reserved":false,"is_disabled":false,"rental_uris":{"android":"levelo://app?vid=d9e08f95-179f-4ae0-9bc2-e736de45549e","ios":"levelo://app?vid=d9e08f95-179f-4ae0-9bc2-e736de45549e"},"vehicle_type_id":"4","last_reported":1745914538,"current_range_meters":19200,"station_id":"ce4bhi12rcd13ifvqfp0","pricing_plan_id":"cebpf4jnsgd1na2vs0mg"},{"bike_id":"78299f95-ca86-4b3d-bb9e-6146f0ec1e45","system_id":"levelo_inurba_marseille","lat":43.29275,"lon":5.4013,"is_reserved":false,"is_disabled":true,"rental_uris":{"android":"levelo://app?vid=78299f95-ca86-4b3d-bb9e-6146f0ec1e45","ios":"levelo://app?vid=78299f95-ca86-4b3d-bb9e-6146f0ec1e45"},"vehicle_type_id":"4","last_reported":1745914538,"current_range_meters":19200,"station_id":"ce4bh312rcd13ifvqdk0","pricing_plan_id":"cebpf4jnsgd1na2vs0mg"},{"bike_id":"bf7e87eb-2d1e-4987-8fd2-ba2f41ff7415","system_id":"levelo_inurba_marseille","lat":43.28461,"lon":5.35888,"is_reserved":false,"is_disabled":false,"rental_uris":{"android":"levelo://app?vid=bf7e87eb-2d1e-4987-8fd2-ba2f41ff7415","ios":"levelo://app?vid=bf7e87eb-2d1e-4987-8fd2-ba2f41ff7415"},"vehicle_type_id":"4","last_reported":1745914538,"current_range_meters":19200,"station_id":"ce4bhah2rcd13ifvqei0","pricing_plan_id":"cebpf4jnsgd1na2vs0mg"},{"bike_id":"29cd3bd7-4042-4675-9354-54243f71f739","system_id":"levelo_inurba_marseille","lat":43.262528,"lon":5.387752,"is_reserved":false,"is_disabled":false,"rental_uris":{"android":"levelo://app?vid=29cd3bd7-4042-4675-9354-54243f71f739","ios":"levelo://app?vid=29cd3bd7-4042-4675-9354-54243f71f739"},"vehicle_type_id":"4","last_reported":1745914538,"current_range_meters":19200,"station_id":"","pricing_plan_id":"cebpf4jnsgd1na2vs0mg"},{"bike_id":"942e1be8-0b4c-4b58-97b4-0482c4bdb7e4","system_id":"levelo_inurba_marseille","lat":43.30901,"lon":5.36849,"is_reserved":false,"is_disabled":false,"rental_uris":{"android":"levelo://app?vid=942e1be8-0b4c-4b58-97b4-0482c4bdb7e4","ios":"levelo://app?vid=942e1be8-0b4c-4b58-97b4-0482c4bdb7e4"},"vehicle_type_id":"4","last_reported":1745914538,"current_range_meters":19200,"station_id":"ce4bgn92rcd13ifvqbvg","pricing_plan_id":"cebpf4jnsgd1na2vs0mg"},{"bike_id":"048067ad-28be-46d7-a2f9-a76ac0a997a3","system_id":"levelo_inurba_marseille","lat":43.28711,"lon":5.37386,"is_reserved":false,"is_disabled":false,"rental_uris":{"android":"levelo://app?vid=048067ad-28be-46d7-a2f9-a76ac0a997a3","ios":"levelo://app?vid=048067ad-28be-46d7-a2f9-a76ac0a997a3"},"vehicle_type_id":"4","last_reported":1745914538,"current_range_meters":19200,"station_id":"ce4bh3p2rcd13ifvqdq0","pricing_plan_id":"cebpf4jnsgd1na2vs0mg"},{"bike_id":"47a9c5d0-ed84-424b-98b1-5dc8bf5c9b1b","system_id":"levelo_inurba_marseille","lat":43.30915,"lon":5.36861,"is_reserved":false,"is_disabled":false,"rental_uris":{"android":"levelo://app?vid=47a9c5d0-ed84-424b-98b1-5dc8bf5c9b1b","ios":"levelo://app?vid=47a9c5d0-ed84-424b-98b1-5dc8bf5c9b1b"},"vehicle_type_id":"4","last_reported":1745914538,"current_range_meters":19200,"station_id":"ce4bgn92rcd13ifvqbvg","pricing_plan_id":"cebpf4jnsgd1na2vs0mg"},{"bike_id":"8bc633f3-cd1e-4188-aaf8-e49d69f55aa8","system_id":"levelo_inurba_marseille","lat":43.30141,"lon":5.37421,"is_reserved":false,"is_disabled":false,"rental_uris":{"android":"levelo://app?vid=8bc633f3-cd1e-4188-aaf8-e49d69f55aa8","ios":"levelo://app?vid=8bc633f3-cd1e-4188-aaf8-e49d69f55aa8"},"vehicle_type_id":"4","last_reported":1745914538,"current_range_meters":19200,"station_id":"ce4bgs92rcd13ifvqcc0","pricing_plan_id":"cebpf4jnsgd1na2vs0mg"},{"bike_id":"39b2af7f-8f96-4174-bcfb-d63e2e818011","system_id":"levelo_inurba_marseille","lat":43.26949,"lon":5.38634,"is_reserved":false,"is_disabled":false,"rental_uris":{"android":"levelo://app?vid=39b2af7f-8f96-4174-bcfb-d63e2e818011","ios":"levelo://app?vid=39b2af7f-8f96-4174-bcfb-d63e2e818011"},"vehicle_type_id":"4","last_reported":1745914538,"current_range_meters":19200,"station_id":"ce4bhh92rcd13ifvqfh0","pricing_plan_id":"cebpf4jnsgd1na2vs0mg"},{"bike_id":"4678f98c-9605-485e-9f52-d38650b7e3f9","system_id":"levelo_inurba_marseille","lat":43.32477,"lon":5.36565,"is_reserved":false,"is_disabled":false,"rental_uris":{"android":"levelo://app?vid=4678f98c-9605-485e-9f52-d38650b7e3f9","ios":"levelo://app?vid=4678f98c-9605-485e-9f52-d38650b7e3f9"},"vehicle_type_id":"4","last_reported":1745914538,"current_range_meters":19200,"station_id":"ce4bhs12rcd13ifvqhvg","pricing_plan_id":"cebpf4jnsgd1na2vs0mg"},{"bike_id":"ce2710b2-8aee-43d8-8ef3-2843f2527c66","system_id":"levelo_inurba_marseille","lat":43.24175,"lon":5.36431,"is_reserved":false,"is_disabled":false,"rental_uris":{"android":"levelo://app?vid=ce2710b2-8aee-43d8-8ef3-2843f2527c66","ios":"levelo://app?vid=ce2710b2-8aee-43d8-8ef3-2843f2527c66"},"vehicle_type_id":"4","last_reported":1745914538,"current_range_meters":19200,"station_id":"cpo36qri1sfpv3e86is0","pricing_plan_id":"cebpf4jnsgd1na2vs0mg"},{"bike_id":"b190098f-99c4-4ee4-b42d-0d8b22265a47","system_id":"levelo_inurba_marseille","lat":43.29528,"lon":5.39035,"is_reserved":false,"is_disabled":false,"rental_uris":{"android":"levelo://app?vid=b190098f-99c4-4ee4-b42d-0d8b22265a47","ios":"levelo://app?vid=b190098f-99c4-4ee4-b42d-0d8b22265a47"},"vehicle_type_id":"4","last_reported":1745914538,"current_range_meters":19600,"station_id":"ce4bh3p2rcd13ifvqdp0","pricing_plan_id":"cebpf4jnsgd1na2vs0mg"},{"bike_id":"fce2c520-92d3-4d18-810b-8d643fc15a1a","system_id":"levelo_inurba_marseille","lat":43.23063,"lon":5.35485,"is_reserved":false,"is_disabled":false,"rental_uris":{"android":"levelo://app?vid=fce2c520-92d3-4d18-810b-8d643fc15a1a","ios":"levelo://app?vid=fce2c520-92d3-4d18-810b-8d643fc15a1a"},"vehicle_type_id":"4","last_reported":1745914538,"current_range_meters":19600,"station_id":"cpo3342slgdg3j2ifvpg","pricing_plan_id":"cebpf4jnsgd1na2vs0mg"},{"bike_id":"2767110b-46f6-461f-9053-309ad1bd2e5a","system_id":"levelo_inurba_marseille","lat":43.22917,"lon":5.35383,"is_reserved":false,"is_disabled":false,"rental_uris":{"android":"levelo://app?vid=2767110b-46f6-461f-9053-309ad1bd2e5a","ios":"levelo://app?vid=2767110b-46f6-461f-9053-309ad1bd2e5a"},"vehicle_type_id":"4","last_reported":1745914538,"current_range_meters":19600,"station_id":"cpo3532slgdg3j2ikp40","pricing_plan_id":"cebpf4jnsgd1na2vs0mg"},{"bike_id":"8179376d-d4e0-4616-b23d-8a06eae09f1a","system_id":"levelo_inurba_marseille","lat":43.34163,"lon":5.40925,"is_reserved":false,"is_disabled":false,"rental_uris":{"android":"levelo://app?vid=8179376d-d4e0-4616-b23d-8a06eae09f1a","ios":"levelo://app?vid=8179376d-d4e0-4616-b23d-8a06eae09f1a"},"vehicle_type_id":"4","last_reported":1745914538,"current_range_meters":19600,"station_id":"ce4bhqh2rcd13ifvqhlg","pricing_plan_id":"cebpf4jnsgd1na2vs0mg"},{"bike_id":"19bc06ff-788d-4601-8413-abaa0395d58e","system_id":"levelo_inurba_marseille","lat":43.32538,"lon":5.41435,"is_reserved":false,"is_disabled":false,"rental_uris":{"android":"levelo://app?vid=19bc06ff-788d-4601-8413-abaa0395d58e","ios":"levelo://app?vid=19bc06ff-788d-4601-8413-abaa0395d58e"},"vehicle_type_id":"4","last_reported":1745914538,"current_range_meters":20000,"station_id":"ce4bhq12rcd13ifvqhhg","pricing_plan_id":"cebpf4jnsgd1na2vs0mg"},{"bike_id":"a3a98855-d2c7-44a1-941d-c9de552cbbb6","system_id":"levelo_inurba_marseille","lat":43.23149,"lon":5.43725,"is_reserved":false,"is_disabled":false,"rental_uris":{"android":"levelo://app?vid=a3a98855-d2c7-44a1-941d-c9de552cbbb6","ios":"levelo://app?vid=a3a98855-d2c7-44a1-941d-c9de552cbbb6"},"vehicle_type_id":"4","last_reported":1745914538,"current_range_meters":20000,"station_id":"ce4bhmp2rcd13ifvqgog","pricing_plan_id":"cebpf4jnsgd1na2vs0mg"},{"bike_id":"54824c63-b063-4df6-a1f9-908fd44fb2d6","system_id":"levelo_inurba_marseille","lat":43.29165,"lon":5.3715,"is_reserved":false,"is_disabled":false,"rental_uris":{"android":"levelo://app?vid=54824c63-b063-4df6-a1f9-908fd44fb2d6","ios":"levelo://app?vid=54824c63-b063-4df6-a1f9-908fd44fb2d6"},"vehicle_type_id":"4","last_reported":1745914538,"current_range_meters":20000,"station_id":"ce4bha92rcd13ifvqeh0","pricing_plan_id":"cebpf4jnsgd1na2vs0mg"},{"bike_id":"86c2979e-8cf6-48ed-bdb1-835ff11e3adc","system_id":"levelo_inurba_marseille","lat":43.25378,"lon":5.41867,"is_reserved":false,"is_disabled":false,"rental_uris":{"android":"levelo://app?vid=86c2979e-8cf6-48ed-bdb1-835ff11e3adc","ios":"levelo://app?vid=86c2979e-8cf6-48ed-bdb1-835ff11e3adc"},"vehicle_type_id":"4","last_reported":1745914538,"current_range_meters":20000,"station_id":"","pricing_plan_id":"cebpf4jnsgd1na2vs0mg"},{"bike_id":"3107d534-5468-4e27-b57d-0f4d4ba27baa","system_id":"levelo_inurba_marseille","lat":43.30148,"lon":5.3809,"is_reserved":false,"is_disabled":false,"rental_uris":{"android":"levelo://app?vid=3107d534-5468-4e27-b57d-0f4d4ba27baa","ios":"levelo://app?vid=3107d534-5468-4e27-b57d-0f4d4ba27baa"},"vehicle_type_id":"4","last_reported":1745914538,"current_range_meters":19600,"station_id":"ce4bgjp2rcd13ifvqbh0","pricing_plan_id":"cebpf4jnsgd1na2vs0mg"},{"bike_id":"f40dcfa5-aac8-4c77-a8ea-6f63ff9f54e7","system_id":"levelo_inurba_marseille","lat":43.29017,"lon":5.38121,"is_reserved":false,"is_disabled":true,"rental_uris":{"android":"levelo://app?vid=f40dcfa5-aac8-4c77-a8ea-6f63ff9f54e7","ios":"levelo://app?vid=f40dcfa5-aac8-4c77-a8ea-6f63ff9f54e7"},"vehicle_type_id":"4","last_reported":1745914538,"current_range_meters":20000,"station_id":"ce4bh4p2rcd13ifvqe1g","pricing_plan_id":"cebpf4jnsgd1na2vs0mg"},{"bike_id":"2125b237-cda7-41d8-ad1c-6d66d79fdf2b","system_id":"levelo_inurba_marseille","lat":43.33615,"lon":5.41032,"is_reserved":false,"is_disabled":false,"rental_uris":{"android":"levelo://app?vid=2125b237-cda7-41d8-ad1c-6d66d79fdf2b","ios":"levelo://app?vid=2125b237-cda7-41d8-ad1c-6d66d79fdf2b"},"vehicle_type_id":"4","last_reported":1745914538,"current_range_meters":20000,"station_id":"ce4bhqh2rcd13ifvqhmg","pricing_plan_id":"cebpf4jnsgd1na2vs0mg"},{"bike_id":"1aa43037-e734-4c2c-97bd-6469b528c017","system_id":"levelo_inurba_marseille","lat":43.30548,"lon":5.36701,"is_reserved":false,"is_disabled":false,"rental_uris":{"android":"levelo://app?vid=1aa43037-e734-4c2c-97bd-6469b528c017","ios":"levelo://app?vid=1aa43037-e734-4c2c-97bd-6469b528c017"},"vehicle_type_id":"4","last_reported":1745914538,"current_range_meters":20000,"station_id":"ce4bgrp2rcd13ifvqc9g","pricing_plan_id":"cebpf4jnsgd1na2vs0mg"},{"bike_id":"965be06b-a5ce-4ee6-a1ae-d43b99ca3744","system_id":"levelo_inurba_marseille","lat":43.2407,"lon":5.37763,"is_reserved":false,"is_disabled":false,"rental_uris":{"android":"levelo://app?vid=965be06b-a5ce-4ee6-a1ae-d43b99ca3744","ios":"levelo://app?vid=965be06b-a5ce-4ee6-a1ae-d43b99ca3744"},"vehicle_type_id":"4","last_reported":1745914538,"current_range_meters":20000,"station_id":"ce4bhnp2rcd13ifvqgvg","pricing_plan_id":"cebpf4jnsgd1na2vs0mg"},{"bike_id":"886d3a42-d2c8-44f8-bac2-14da8dc8fdff","system_id":"levelo_inurba_marseille","lat":43.30913,"lon":5.36846,"is_reserved":false,"is_disabled":false,"rental_uris":{"android":"levelo://app?vid=886d3a42-d2c8-44f8-bac2-14da8dc8fdff","ios":"levelo://app?vid=886d3a42-d2c8-44f8-bac2-14da8dc8fdff"},"vehicle_type_id":"4","last_reported":1745914538,"current_range_meters":20400,"station_id":"ce4bgn92rcd13ifvqbvg","pricing_plan_id":"cebpf4jnsgd1na2vs0mg"},{"bike_id":"c1995f3f-0495-4507-8d09-527e63d69b75","system_id":"levelo_inurba_marseille","lat":43.30663,"lon":5.40083,"is_reserved":false,"is_disabled":true,"rental_uris":{"android":"levelo://app?vid=c1995f3f-0495-4507-8d09-527e63d69b75","ios":"levelo://app?vid=c1995f3f-0495-4507-8d09-527e63d69b75"},"vehicle_type_id":"4","last_reported":1745914538,"current_range_meters":20400,"station_id":"ce4bh112rcd13ifvqda0","pricing_plan_id":"cebpf4jnsgd1na2vs0mg"},{"bike_id":"754aaf30-d130-45cd-8668-ae35915e3408","system_id":"levelo_inurba_marseille","lat":43.3054,"lon":5.36704,"is_reserved":false,"is_disabled":false,"rental_uris":{"android":"levelo://app?vid=754aaf30-d130-45cd-8668-ae35915e3408","ios":"levelo://app?vid=754aaf30-d130-45cd-8668-ae35915e3408"},"vehicle_type_id":"4","last_reported":1745914538,"current_range_meters":20400,"station_id":"ce4bgrp2rcd13ifvqc9g","pricing_plan_id":"cebpf4jnsgd1na2vs0mg"},{"bike_id":"efed05e4-15fc-4306-8ac1-684e81ace351","system_id":"levelo_inurba_marseille","lat":43.30302,"lon":5.36892,"is_reserved":false,"is_disabled":false,"rental_uris":{"android":"levelo://app?vid=efed05e4-15fc-4306-8ac1-684e81ace351","ios":"levelo://app?vid=efed05e4-15fc-4306-8ac1-684e81ace351"},"vehicle_type_id":"4","last_reported":1745914538,"current_range_meters":20000,"station_id":"ce4bgqh2rcd13ifvqc5g","pricing_plan_id":"cebpf4jnsgd1na2vs0mg"},{"bike_id":"334f0609-b51b-492a-8482-a689c46d4ff0","system_id":"levelo_inurba_marseille","lat":43.28471,"lon":5.38459,"is_reserved":false,"is_disabled":true,"rental_uris":{"android":"levelo://app?vid=334f0609-b51b-492a-8482-a689c46d4ff0","ios":"levelo://app?vid=334f0609-b51b-492a-8482-a689c46d4ff0"},"vehicle_type_id":"4","last_reported":1745914538,"current_range_meters":20400,"station_id":"ce4bh512rcd13ifvqe3g","pricing_plan_id":"cebpf4jnsgd1na2vs0mg"},{"bike_id":"946f161a-49e1-4f5b-a2c3-788e3eb20de5","system_id":"levelo_inurba_marseille","lat":43.30542,"lon":5.36704,"is_reserved":false,"is_disabled":false,"rental_uris":{"android":"levelo://app?vid=946f161a-49e1-4f5b-a2c3-788e3eb20de5","ios":"levelo://app?vid=946f161a-49e1-4f5b-a2c3-788e3eb20de5"},"vehicle_type_id":"4","last_reported":1745914538,"current_range_meters":20400,"station_id":"ce4bgrp2rcd13ifvqc9g","pricing_plan_id":"cebpf4jnsgd1na2vs0mg"},{"bike_id":"45dbde69-a867-4cd1-9b21-c8baab31852c","system_id":"levelo_inurba_marseille","lat":43.34148,"lon":5.40902,"is_reserved":false,"is_disabled":false,"rental_uris":{"android":"levelo://app?vid=45dbde69-a867-4cd1-9b21-c8baab31852c","ios":"levelo://app?vid=45dbde69-a867-4cd1-9b21-c8baab31852c"},"vehicle_type_id":"4","last_reported":1745914538,"current_range_meters":20400,"station_id":"ce4bhqh2rcd13ifvqhlg","pricing_plan_id":"cebpf4jnsgd1na2vs0mg"},{"bike_id":"bac41595-7dd9-472a-aa60-28dc2bba518c","system_id":"levelo_inurba_marseille","lat":43.29027,"lon":5.38644,"is_reserved":false,"is_disabled":false,"rental_uris":{"android":"levelo://app?vid=bac41595-7dd9-472a-aa60-28dc2bba518c","ios":"levelo://app?vid=bac41595-7dd9-472a-aa60-28dc2bba518c"},"vehicle_type_id":"4","last_reported":1745914538,"current_range_meters":20400,"station_id":"ce4bh4p2rcd13ifvqe0g","pricing_plan_id":"cebpf4jnsgd1na2vs0mg"},{"bike_id":"637f17b1-a980-4bc5-993d-9a9de04fb5bf","system_id":"levelo_inurba_marseille","lat":43.3144,"lon":5.36866,"is_reserved":false,"is_disabled":false,"rental_uris":{"android":"levelo://app?vid=637f17b1-a980-4bc5-993d-9a9de04fb5bf","ios":"levelo://app?vid=637f17b1-a980-4bc5-993d-9a9de04fb5bf"},"vehicle_type_id":"4","last_reported":1745914538,"current_range_meters":20800,"station_id":"","pricing_plan_id":"cebpf4jnsgd1na2vs0mg"},{"bike_id":"70285977-8cc0-48f5-9a41-404f945d7684","system_id":"levelo_inurba_marseille","lat":43.25868,"lon":5.39894,"is_reserved":false,"is_disabled":false,"rental_uris":{"android":"levelo://app?vid=70285977-8cc0-48f5-9a41-404f945d7684","ios":"levelo://app?vid=70285977-8cc0-48f5-9a41-404f945d7684"},"vehicle_type_id":"4","last_reported":1745914538,"current_range_meters":20800,"station_id":"ce4bhl92rcd13ifvqghg","pricing_plan_id":"cebpf4jnsgd1na2vs0mg"},{"bike_id":"476d6e23-e0d6-4515-acd8-e9a58c14fa45","system_id":"levelo_inurba_marseille","lat":43.32673,"lon":5.40996,"is_reserved":false,"is_disabled":false,"rental_uris":{"android":"levelo://app?vid=476d6e23-e0d6-4515-acd8-e9a58c14fa45","ios":"levelo://app?vid=476d6e23-e0d6-4515-acd8-e9a58c14fa45"},"vehicle_type_id":"4","last_reported":1745914538,"current_range_meters":20800,"station_id":"ce4bhpp2rcd13ifvqhgg","pricing_plan_id":"cebpf4jnsgd1na2vs0mg"},{"bike_id":"e0ebca17-cccf-42f8-8e5b-ee2dab92f40b","system_id":"levelo_inurba_marseille","lat":43.29019,"lon":5.38122,"is_reserved":false,"is_disabled":false,"rental_uris":{"android":"levelo://app?vid=e0ebca17-cccf-42f8-8e5b-ee2dab92f40b","ios":"levelo://app?vid=e0ebca17-cccf-42f8-8e5b-ee2dab92f40b"},"vehicle_type_id":"4","last_reported":1745914538,"current_range_meters":20800,"station_id":"ce4bh4p2rcd13ifvqe1g","pricing_plan_id":"cebpf4jnsgd1na2vs0mg"},{"bike_id":"e644bd44-c292-4306-8346-c691554a767a","system_id":"levelo_inurba_marseille","lat":43.30524,"lon":5.36712,"is_reserved":false,"is_disabled":false,"rental_uris":{"android":"levelo://app?vid=e644bd44-c292-4306-8346-c691554a767a","ios":"levelo://app?vid=e644bd44-c292-4306-8346-c691554a767a"},"vehicle_type_id":"4","last_reported":1745914538,"current_range_meters":20800,"station_id":"ce4bgrp2rcd13ifvqc9g","pricing_plan_id":"cebpf4jnsgd1na2vs0mg"},{"bike_id":"ec4bd787-d395-473e-8c10-4d1e895c6470","system_id":"levelo_inurba_marseille","lat":43.26492,"lon":5.39553,"is_reserved":false,"is_disabled":false,"rental_uris":{"android":"levelo://app?vid=ec4bd787-d395-473e-8c10-4d1e895c6470","ios":"levelo://app?vid=ec4bd787-d395-473e-8c10-4d1e895c6470"},"vehicle_type_id":"4","last_reported":1745914538,"current_range_meters":20800,"station_id":"ce4bhi12rcd13ifvqfq0","pricing_plan_id":"cebpf4jnsgd1na2vs0mg"},{"bike_id":"66f71c4f-a411-4c30-a55f-17a2c763906e","system_id":"levelo_inurba_marseille","lat":43.24077,"lon":5.3776,"is_reserved":false,"is_disabled":false,"rental_uris":{"android":"levelo://app?vid=66f71c4f-a411-4c30-a55f-17a2c763906e","ios":"levelo://app?vid=66f71c4f-a411-4c30-a55f-17a2c763906e"},"vehicle_type_id":"4","last_reported":1745914538,"current_range_meters":20800,"station_id":"ce4bhnp2rcd13ifvqgvg","pricing_plan_id":"cebpf4jnsgd1na2vs0mg"},{"bike_id":"3cb31b89-e7f9-4ae1-ab70-5aa8b1845a93","system_id":"levelo_inurba_marseille","lat":43.33604,"lon":5.40976,"is_reserved":false,"is_disabled":false,"rental_uris":{"android":"levelo://app?vid=3cb31b89-e7f9-4ae1-ab70-5aa8b1845a93","ios":"levelo://app?vid=3cb31b89-e7f9-4ae1-ab70-5aa8b1845a93"},"vehicle_type_id":"4","last_reported":1745914538,"current_range_meters":20800,"station_id":"ce4bhqh2rcd13ifvqhmg","pricing_plan_id":"cebpf4jnsgd1na2vs0mg"},{"bike_id":"08a6842d-76d1-42ab-b390-025139d579af","system_id":"levelo_inurba_marseille","lat":43.28615,"lon":5.35106,"is_reserved":false,"is_disabled":false,"rental_uris":{"android":"levelo://app?vid=08a6842d-76d1-42ab-b390-025139d579af","ios":"levelo://app?vid=08a6842d-76d1-42ab-b390-025139d579af"},"vehicle_type_id":"4","last_reported":1745914538,"current_range_meters":21600,"station_id":"ce4bhch2rcd13ifvqeug","pricing_plan_id":"cebpf4jnsgd1na2vs0mg"},{"bike_id":"11c212d1-add3-4520-b702-f9982fd11bc1","system_id":"levelo_inurba_marseille","lat":43.30147,"lon":5.37424,"is_reserved":false,"is_disabled":false,"rental_uris":{"android":"levelo://app?vid=11c212d1-add3-4520-b702-f9982fd11bc1","ios":"levelo://app?vid=11c212d1-add3-4520-b702-f9982fd11bc1"},"vehicle_type_id":"4","last_reported":1745914538,"current_range_meters":21600,"station_id":"ce4bgs92rcd13ifvqcc0","pricing_plan_id":"cebpf4jnsgd1na2vs0mg"},{"bike_id":"4d890081-b587-4573-a712-fea6eadb0d3a","system_id":"levelo_inurba_marseille","lat":43.29087,"lon":5.38113,"is_reserved":false,"is_disabled":false,"rental_uris":{"android":"levelo://app?vid=4d890081-b587-4573-a712-fea6eadb0d3a","ios":"levelo://app?vid=4d890081-b587-4573-a712-fea6eadb0d3a"},"vehicle_type_id":"4","last_reported":1745914538,"current_range_meters":21600,"station_id":"ce4bh512rcd13ifvqe2g","pricing_plan_id":"cebpf4jnsgd1na2vs0mg"},{"bike_id":"01848dd4-50bd-411c-ad46-63627ba25ec6","system_id":"levelo_inurba_marseille","lat":43.29258,"lon":5.37621,"is_reserved":false,"is_disabled":false,"rental_uris":{"android":"levelo://app?vid=01848dd4-50bd-411c-ad46-63627ba25ec6","ios":"levelo://app?vid=01848dd4-50bd-411c-ad46-63627ba25ec6"},"vehicle_type_id":"4","last_reported":1745914538,"current_range_meters":21600,"station_id":"ce4bgi12rcd13ifvqb80","pricing_plan_id":"cebpf4jnsgd1na2vs0mg"},{"bike_id":"4bf6b69b-e08a-490c-9b07-d13072b37d89","system_id":"levelo_inurba_marseille","lat":43.24166,"lon":5.3639,"is_reserved":false,"is_disabled":false,"rental_uris":{"android":"levelo://app?vid=4bf6b69b-e08a-490c-9b07-d13072b37d89","ios":"levelo://app?vid=4bf6b69b-e08a-490c-9b07-d13072b37d89"},"vehicle_type_id":"4","last_reported":1745914538,"current_range_meters":22000,"station_id":"cpo36qri1sfpv3e86is0","pricing_plan_id":"cebpf4jnsgd1na2vs0mg"},{"bike_id":"2226c9fd-c6d7-4aaf-889c-fdd2feba0fce","system_id":"levelo_inurba_marseille","lat":43.23966,"lon":5.36632,"is_reserved":false,"is_disabled":false,"rental_uris":{"android":"levelo://app?vid=2226c9fd-c6d7-4aaf-889c-fdd2feba0fce","ios":"levelo://app?vid=2226c9fd-c6d7-4aaf-889c-fdd2feba0fce"},"vehicle_type_id":"4","last_reported":1745914538,"current_range_meters":22000,"station_id":"ce4bhi12rcd13ifvqfp0","pricing_plan_id":"cebpf4jnsgd1na2vs0mg"},{"bike_id":"ff5801a1-bfd1-49ca-970d-920bf4ea0de3","system_id":"levelo_inurba_marseille","lat":43.28673,"lon":5.38667,"is_reserved":false,"is_disabled":false,"rental_uris":{"android":"levelo://app?vid=ff5801a1-bfd1-49ca-970d-920bf4ea0de3","ios":"levelo://app?vid=ff5801a1-bfd1-49ca-970d-920bf4ea0de3"},"vehicle_type_id":"4","last_reported":1745914538,"current_range_meters":22000,"station_id":"ce4bh492rcd13ifvqdug","pricing_plan_id":"cebpf4jnsgd1na2vs0mg"},{"bike_id":"e4ccff64-7634-41f3-95e0-47bc80b1eb87","system_id":"levelo_inurba_marseille","lat":43.24802,"lon":5.374567,"is_reserved":false,"is_disabled":false,"rental_uris":{"android":"levelo://app?vid=e4ccff64-7634-41f3-95e0-47bc80b1eb87","ios":"levelo://app?vid=e4ccff64-7634-41f3-95e0-47bc80b1eb87"},"vehicle_type_id":"4","last_reported":1745914538,"current_range_meters":22000,"station_id":"ce4bhgh2rcd13ifvqfb0","pricing_plan_id":"cebpf4jnsgd1na2vs0mg"},{"bike_id":"25654065-24f4-4f22-a399-77eac522d6f5","system_id":"levelo_inurba_marseille","lat":43.33607,"lon":5.40971,"is_reserved":false,"is_disabled":false,"rental_uris":{"android":"levelo://app?vid=25654065-24f4-4f22-a399-77eac522d6f5","ios":"levelo://app?vid=25654065-24f4-4f22-a399-77eac522d6f5"},"vehicle_type_id":"4","last_reported":1745914538,"current_range_meters":21600,"station_id":"ce4bhqh2rcd13ifvqhmg","pricing_plan_id":"cebpf4jnsgd1na2vs0mg"},{"bike_id":"0efbbe37-fc10-439e-88c9-01bb00dbd564","system_id":"levelo_inurba_marseille","lat":43.2407,"lon":5.37773,"is_reserved":false,"is_disabled":false,"rental_uris":{"android":"levelo://app?vid=0efbbe37-fc10-439e-88c9-01bb00dbd564","ios":"levelo://app?vid=0efbbe37-fc10-439e-88c9-01bb00dbd564"},"vehicle_type_id":"4","last_reported":1745914538,"current_range_meters":22400,"station_id":"ce4bhnp2rcd13ifvqgvg","pricing_plan_id":"cebpf4jnsgd1na2vs0mg"},{"bike_id":"2372f7c6-1089-4c13-bafe-c3d7862aadcc","system_id":"levelo_inurba_marseille","lat":43.31705,"lon":5.43704,"is_reserved":false,"is_disabled":false,"rental_uris":{"android":"levelo://app?vid=2372f7c6-1089-4c13-bafe-c3d7862aadcc","ios":"levelo://app?vid=2372f7c6-1089-4c13-bafe-c3d7862aadcc"},"vehicle_type_id":"4","last_reported":1745914538,"current_range_meters":22400,"station_id":"ce4bhp92rcd13ifvqhcg","pricing_plan_id":"cebpf4jnsgd1na2vs0mg"},{"bike_id":"9eac9edc-c3d5-43dc-8ebc-c05868539cb4","system_id":"levelo_inurba_marseille","lat":43.24982,"lon":5.37976,"is_reserved":false,"is_disabled":false,"rental_uris":{"android":"levelo://app?vid=9eac9edc-c3d5-43dc-8ebc-c05868539cb4","ios":"levelo://app?vid=9eac9edc-c3d5-43dc-8ebc-c05868539cb4"},"vehicle_type_id":"4","last_reported":1745914538,"current_range_meters":22400,"station_id":"","pricing_plan_id":"cebpf4jnsgd1na2vs0mg"},{"bike_id":"2a4f5dfa-513d-46a0-923b-e5be40c3c2bc","system_id":"levelo_inurba_marseille","lat":43.28469,"lon":5.3917,"is_reserved":false,"is_disabled":true,"rental_uris":{"android":"levelo://app?vid=2a4f5dfa-513d-46a0-923b-e5be40c3c2bc","ios":"levelo://app?vid=2a4f5dfa-513d-46a0-923b-e5be40c3c2bc"},"vehicle_type_id":"4","last_reported":1745914538,"current_range_meters":22400,"station_id":"ce4bhoh2rcd13ifvqh5g","pricing_plan_id":"cebpf4jnsgd1na2vs0mg"},{"bike_id":"957a3d0d-ba17-460f-b4ec-4c0136a5ba25","system_id":"levelo_inurba_marseille","lat":43.29868,"lon":5.39739,"is_reserved":false,"is_disabled":true,"rental_uris":{"android":"levelo://app?vid=957a3d0d-ba17-460f-b4ec-4c0136a5ba25","ios":"levelo://app?vid=957a3d0d-ba17-460f-b4ec-4c0136a5ba25"},"vehicle_type_id":"4","last_reported":1745914538,"current_range_meters":22400,"station_id":"ce4bh0h2rcd13ifvqd50","pricing_plan_id":"cebpf4jnsgd1na2vs0mg"},{"bike_id":"9bfe6821-b569-461d-b21b-20646d93475e","system_id":"levelo_inurba_marseille","lat":43.32493,"lon":5.36566,"is_reserved":false,"is_disabled":false,"rental_uris":{"android":"levelo://app?vid=9bfe6821-b569-461d-b21b-20646d93475e","ios":"levelo://app?vid=9bfe6821-b569-461d-b21b-20646d93475e"},"vehicle_type_id":"4","last_reported":1745914538,"current_range_meters":22400,"station_id":"ce4bhs12rcd13ifvqhvg","pricing_plan_id":"cebpf4jnsgd1na2vs0mg"},{"bike_id":"a4cb4bb8-751a-4611-8cfa-e8429503b3ac","system_id":"levelo_inurba_marseille","lat":43.27377,"lon":5.36261,"is_reserved":false,"is_disabled":false,"rental_uris":{"android":"levelo://app?vid=a4cb4bb8-751a-4611-8cfa-e8429503b3ac","ios":"levelo://app?vid=a4cb4bb8-751a-4611-8cfa-e8429503b3ac"},"vehicle_type_id":"4","last_reported":1745914538,"current_range_meters":22400,"station_id":"ce4bhbh2rcd13ifvqeo0","pricing_plan_id":"cebpf4jnsgd1na2vs0mg"},{"bike_id":"7940bc1b-eaa7-4f49-a435-46dc9391f6a1","system_id":"levelo_inurba_marseille","lat":43.21194,"lon":5.3507,"is_reserved":false,"is_disabled":false,"rental_uris":{"android":"levelo://app?vid=7940bc1b-eaa7-4f49-a435-46dc9391f6a1","ios":"levelo://app?vid=7940bc1b-eaa7-4f49-a435-46dc9391f6a1"},"vehicle_type_id":"4","last_reported":1745914538,"current_range_meters":22400,"station_id":"","pricing_plan_id":"cebpf4jnsgd1na2vs0mg"},{"bike_id":"88979066-d548-4d45-8830-2946bc814250","system_id":"levelo_inurba_marseille","lat":43.30537,"lon":5.36551,"is_reserved":false,"is_disabled":false,"rental_uris":{"android":"levelo://app?vid=88979066-d548-4d45-8830-2946bc814250","ios":"levelo://app?vid=88979066-d548-4d45-8830-2946bc814250"},"vehicle_type_id":"4","last_reported":1745914538,"current_range_meters":22400,"station_id":"ce4bgs12rcd13ifvqcag","pricing_plan_id":"cebpf4jnsgd1na2vs0mg"},{"bike_id":"750b37f4-0312-424d-8787-8c7fa359a8d6","system_id":"levelo_inurba_marseille","lat":43.33604,"lon":5.41002,"is_reserved":false,"is_disabled":false,"rental_uris":{"android":"levelo://app?vid=750b37f4-0312-424d-8787-8c7fa359a8d6","ios":"levelo://app?vid=750b37f4-0312-424d-8787-8c7fa359a8d6"},"vehicle_type_id":"4","last_reported":1745914538,"current_range_meters":22400,"station_id":"ce4bhqh2rcd13ifvqhmg","pricing_plan_id":"cebpf4jnsgd1na2vs0mg"},{"bike_id":"c7ac3f4d-99da-4672-86a5-a20a296c8918","system_id":"levelo_inurba_marseille","lat":43.24181,"lon":5.39695,"is_reserved":false,"is_disabled":false,"rental_uris":{"android":"levelo://app?vid=c7ac3f4d-99da-4672-86a5-a20a296c8918","ios":"levelo://app?vid=c7ac3f4d-99da-4672-86a5-a20a296c8918"},"vehicle_type_id":"4","last_reported":1745914538,"current_range_meters":22800,"station_id":"ce4bhn12rcd13ifvqgpg","pricing_plan_id":"cebpf4jnsgd1na2vs0mg"},{"bike_id":"9a6d1a0d-0520-4c44-b0a9-74ddbe754418","system_id":"levelo_inurba_marseille","lat":43.25724,"lon":5.41127,"is_reserved":false,"is_disabled":false,"rental_uris":{"android":"levelo://app?vid=9a6d1a0d-0520-4c44-b0a9-74ddbe754418","ios":"levelo://app?vid=9a6d1a0d-0520-4c44-b0a9-74ddbe754418"},"vehicle_type_id":"4","last_reported":1745914538,"current_range_meters":22800,"station_id":"ce4bhkp2rcd13ifvqgd0","pricing_plan_id":"cebpf4jnsgd1na2vs0mg"},{"bike_id":"70d9cbb1-823e-434c-8144-5ca2a89c7451","system_id":"levelo_inurba_marseille","lat":43.283623,"lon":5.381193,"is_reserved":false,"is_disabled":true,"rental_uris":{"android":"levelo://app?vid=70d9cbb1-823e-434c-8144-5ca2a89c7451","ios":"levelo://app?vid=70d9cbb1-823e-434c-8144-5ca2a89c7451"},"vehicle_type_id":"4","last_reported":1745914538,"current_range_meters":22800,"station_id":"ce4bh412rcd13ifvqdr0","pricing_plan_id":"cebpf4jnsgd1na2vs0mg"},{"bike_id":"0a7d010b-1ba1-4f8a-8207-fede642d8457","system_id":"levelo_inurba_marseille","lat":43.29029,"lon":5.38652,"is_reserved":false,"is_disabled":false,"rental_uris":{"android":"levelo://app?vid=0a7d010b-1ba1-4f8a-8207-fede642d8457","ios":"levelo://app?vid=0a7d010b-1ba1-4f8a-8207-fede642d8457"},"vehicle_type_id":"4","last_reported":1745914538,"current_range_meters":22800,"station_id":"ce4bh4p2rcd13ifvqe0g","pricing_plan_id":"cebpf4jnsgd1na2vs0mg"},{"bike_id":"700a4863-a488-4b64-84f4-0812c87e0738","system_id":"levelo_inurba_marseille","lat":43.2928,"lon":5.36843,"is_reserved":false,"is_disabled":false,"rental_uris":{"android":"levelo://app?vid=700a4863-a488-4b64-84f4-0812c87e0738","ios":"levelo://app?vid=700a4863-a488-4b64-84f4-0812c87e0738"},"vehicle_type_id":"4","last_reported":1745914538,"current_range_meters":22800,"station_id":"ce4bhbp2rcd13ifvqesg","pricing_plan_id":"cebpf4jnsgd1na2vs0mg"},{"bike_id":"78f6e248-47a4-4cbc-9259-5408cb6e09d1","system_id":"levelo_inurba_marseille","lat":43.29118,"lon":5.38245,"is_reserved":false,"is_disabled":false,"rental_uris":{"android":"levelo://app?vid=78f6e248-47a4-4cbc-9259-5408cb6e09d1","ios":"levelo://app?vid=78f6e248-47a4-4cbc-9259-5408cb6e09d1"},"vehicle_type_id":"4","last_reported":1745914538,"current_range_meters":24800,"station_id":"ce4bh692rcd13ifvqe90","pricing_plan_id":"cebpf4jnsgd1na2vs0mg"},{"bike_id":"b65024f1-321f-4d06-a452-3dc7546cb35f","system_id":"levelo_inurba_marseille","lat":43.320508,"lon":5.415433,"is_reserved":false,"is_disabled":false,"rental_uris":{"android":"levelo://app?vid=b65024f1-321f-4d06-a452-3dc7546cb35f","ios":"levelo://app?vid=b65024f1-321f-4d06-a452-3dc7546cb35f"},"vehicle_type_id":"4","last_reported":1745914538,"current_range_meters":22800,"station_id":"ce4bhq92rcd13ifvqhkg","pricing_plan_id":"cebpf4jnsgd1na2vs0mg"},{"bike_id":"27ff7238-8f9d-4c20-8a7d-88cfb38491d8","system_id":"levelo_inurba_marseille","lat":43.30906,"lon":5.36853,"is_reserved":false,"is_disabled":false,"rental_uris":{"android":"levelo://app?vid=27ff7238-8f9d-4c20-8a7d-88cfb38491d8","ios":"levelo://app?vid=27ff7238-8f9d-4c20-8a7d-88cfb38491d8"},"vehicle_type_id":"4","last_reported":1745914538,"current_range_meters":23200,"station_id":"ce4bgn92rcd13ifvqbvg","pricing_plan_id":"cebpf4jnsgd1na2vs0mg"},{"bike_id":"1ec189bf-cd0a-4ad8-ac1f-73baa227f40a","system_id":"levelo_inurba_marseille","lat":43.29879,"lon":5.39738,"is_reserved":false,"is_disabled":false,"rental_uris":{"android":"levelo://app?vid=1ec189bf-cd0a-4ad8-ac1f-73baa227f40a","ios":"levelo://app?vid=1ec189bf-cd0a-4ad8-ac1f-73baa227f40a"},"vehicle_type_id":"4","last_reported":1745914538,"current_range_meters":23200,"station_id":"ce4bh0h2rcd13ifvqd50","pricing_plan_id":"cebpf4jnsgd1na2vs0mg"},{"bike_id":"958eb749-0688-4143-8e65-14f93b920079","system_id":"levelo_inurba_marseille","lat":43.3046,"lon":5.37896,"is_reserved":false,"is_disabled":false,"rental_uris":{"android":"levelo://app?vid=958eb749-0688-4143-8e65-14f93b920079","ios":"levelo://app?vid=958eb749-0688-4143-8e65-14f93b920079"},"vehicle_type_id":"4","last_reported":1745914538,"current_range_meters":23200,"station_id":"ce4bgup2rcd13ifvqcn0","pricing_plan_id":"cebpf4jnsgd1na2vs0mg"},{"bike_id":"01bbe0b0-0f60-4e3f-92d5-8f4ec380fa57","system_id":"levelo_inurba_marseille","lat":43.30904,"lon":5.36857,"is_reserved":false,"is_disabled":false,"rental_uris":{"android":"levelo://app?vid=01bbe0b0-0f60-4e3f-92d5-8f4ec380fa57","ios":"levelo://app?vid=01bbe0b0-0f60-4e3f-92d5-8f4ec380fa57"},"vehicle_type_id":"4","last_reported":1745914538,"current_range_meters":23200,"station_id":"ce4bgn92rcd13ifvqbvg","pricing_plan_id":"cebpf4jnsgd1na2vs0mg"},{"bike_id":"baabf42a-2dd1-443f-8eb4-a01c91abd85a","system_id":"levelo_inurba_marseille","lat":43.292724,"lon":5.368473,"is_reserved":false,"is_disabled":false,"rental_uris":{"android":"levelo://app?vid=baabf42a-2dd1-443f-8eb4-a01c91abd85a","ios":"levelo://app?vid=baabf42a-2dd1-443f-8eb4-a01c91abd85a"},"vehicle_type_id":"4","last_reported":1745914538,"current_range_meters":23200,"station_id":"ce4bhbp2rcd13ifvqesg","pricing_plan_id":"cebpf4jnsgd1na2vs0mg"},{"bike_id":"e001aea4-8bf8-4f9c-9a48-3d8c539cc3ee","system_id":"levelo_inurba_marseille","lat":43.30965,"lon":5.39042,"is_reserved":false,"is_disabled":false,"rental_uris":{"android":"levelo://app?vid=e001aea4-8bf8-4f9c-9a48-3d8c539cc3ee","ios":"levelo://app?vid=e001aea4-8bf8-4f9c-9a48-3d8c539cc3ee"},"vehicle_type_id":"4","last_reported":1745914538,"current_range_meters":23200,"station_id":"ce4bgup2rcd13ifvqco0","pricing_plan_id":"cebpf4jnsgd1na2vs0mg"},{"bike_id":"2bc59dd2-b33e-445e-bdfd-2dfa9574f9f9","system_id":"levelo_inurba_marseille","lat":43.29568,"lon":5.37521,"is_reserved":false,"is_disabled":false,"rental_uris":{"android":"levelo://app?vid=2bc59dd2-b33e-445e-bdfd-2dfa9574f9f9","ios":"levelo://app?vid=2bc59dd2-b33e-445e-bdfd-2dfa9574f9f9"},"vehicle_type_id":"4","last_reported":1745914538,"current_range_meters":23200,"station_id":"ce4bgh92rcd13ifvqb50","pricing_plan_id":"cebpf4jnsgd1na2vs0mg"},{"bike_id":"f5ee6b5c-07b9-4c0d-b44d-1ece77029f45","system_id":"levelo_inurba_marseille","lat":43.30555,"lon":5.365252,"is_reserved":false,"is_disabled":true,"rental_uris":{"android":"levelo://app?vid=f5ee6b5c-07b9-4c0d-b44d-1ece77029f45","ios":"levelo://app?vid=f5ee6b5c-07b9-4c0d-b44d-1ece77029f45"},"vehicle_type_id":"4","last_reported":1745914538,"current_range_meters":23200,"station_id":"ce4bgs12rcd13ifvqcag","pricing_plan_id":"cebpf4jnsgd1na2vs0mg"},{"bike_id":"185a1a91-5756-4192-ad81-a27ec29bc951","system_id":"levelo_inurba_marseille","lat":43.30146,"lon":5.38086,"is_reserved":false,"is_disabled":false,"rental_uris":{"android":"levelo://app?vid=185a1a91-5756-4192-ad81-a27ec29bc951","ios":"levelo://app?vid=185a1a91-5756-4192-ad81-a27ec29bc951"},"vehicle_type_id":"4","last_reported":1745914538,"current_range_meters":24000,"station_id":"ce4bgjp2rcd13ifvqbh0","pricing_plan_id":"cebpf4jnsgd1na2vs0mg"},{"bike_id":"6a7e4adb-0ab5-4ac5-8096-dfd43705db28","system_id":"levelo_inurba_marseille","lat":43.30909,"lon":5.36855,"is_reserved":false,"is_disabled":false,"rental_uris":{"android":"levelo://app?vid=6a7e4adb-0ab5-4ac5-8096-dfd43705db28","ios":"levelo://app?vid=6a7e4adb-0ab5-4ac5-8096-dfd43705db28"},"vehicle_type_id":"4","last_reported":1745914538,"current_range_meters":24000,"station_id":"ce4bgn92rcd13ifvqbvg","pricing_plan_id":"cebpf4jnsgd1na2vs0mg"},{"bike_id":"f70df9fb-fd26-4c89-b7f9-eca205c4a8ec","system_id":"levelo_inurba_marseille","lat":43.24175,"lon":5.39724,"is_reserved":false,"is_disabled":false,"rental_uris":{"android":"levelo://app?vid=f70df9fb-fd26-4c89-b7f9-eca205c4a8ec","ios":"levelo://app?vid=f70df9fb-fd26-4c89-b7f9-eca205c4a8ec"},"vehicle_type_id":"4","last_reported":1745914538,"current_range_meters":24000,"station_id":"ce4bhn12rcd13ifvqgpg","pricing_plan_id":"cebpf4jnsgd1na2vs0mg"},{"bike_id":"257c9036-e94a-4fcc-8f6d-cfef9354245e","system_id":"levelo_inurba_marseille","lat":43.280057,"lon":5.400128,"is_reserved":false,"is_disabled":false,"rental_uris":{"android":"levelo://app?vid=257c9036-e94a-4fcc-8f6d-cfef9354245e","ios":"levelo://app?vid=257c9036-e94a-4fcc-8f6d-cfef9354245e"},"vehicle_type_id":"4","last_reported":1745914538,"current_range_meters":24000,"station_id":"ce4bho92rcd13ifvqh4g","pricing_plan_id":"cebpf4jnsgd1na2vs0mg"},{"bike_id":"34180a0a-8c87-4995-a6fa-4da4effd0723","system_id":"levelo_inurba_marseille","lat":43.28001,"lon":5.41667,"is_reserved":false,"is_disabled":false,"rental_uris":{"android":"levelo://app?vid=34180a0a-8c87-4995-a6fa-4da4effd0723","ios":"levelo://app?vid=34180a0a-8c87-4995-a6fa-4da4effd0723"},"vehicle_type_id":"4","last_reported":1745914538,"current_range_meters":24000,"station_id":"ce4bho12rcd13ifvqh1g","pricing_plan_id":"cebpf4jnsgd1na2vs0mg"},{"bike_id":"cd457208-b108-4b8b-a5a8-73abb415cb7a","system_id":"levelo_inurba_marseille","lat":43.31328,"lon":5.36734,"is_reserved":false,"is_disabled":false,"rental_uris":{"android":"levelo://app?vid=cd457208-b108-4b8b-a5a8-73abb415cb7a","ios":"levelo://app?vid=cd457208-b108-4b8b-a5a8-73abb415cb7a"},