{"last_updated":1747638658,"ttl":60,"version":"2.2","data":{"bikes":[{"bike_id":"c0b9fd4f-e181-46ce-b0bf-f5119973334f","system_id":"levelo_inurba_marseille","lat":43.33771,"lon":5.37424,"is_reserved":false,"is_disabled":true,"rental_uris":{"android":"levelo://app?vid=c0b9fd4f-e181-46ce-b0bf-f5119973334f","ios":"levelo://app?vid=c0b9fd4f-e181-46ce-b0bf-f5119973334f"},"vehicle_type_id":"4","last_reported":1747638658,"current_range_meters":0,"station_id":"","pricing_plan_id":"cebpf4jnsgd1na2vs0mg"},{"bike_id":"5b68c6d2-4cdd-4190-8731-4cb7b2e6ccb7","system_id":"levelo_inurba_marseille","lat":43.29555,"lon":5.37429,"is_reserved":false,"is_disabled":true,"rental_uris":{"android":"levelo://app?vid=5b68c6d2-4cdd-4190-8731-4cb7b2e6ccb7","ios":"levelo://app?vid=5b68c6d2-4cdd-4190-8731-4cb7b2e6ccb7"},"vehicle_type_id":"4","last_reported":1747638658,"current_range_meters":0,"station_id":"","pricing_plan_id":"cebpf4jnsgd1na2vs0mg"},{"bike_id":"25b4f69a-1726-4c58-a89d-ca45327456b0","system_id":"levelo_inurba_marseille","lat":43.27268,"lon":5.36261,"is_reserved":false,"is_disabled":true,"rental_uris":{"android":"levelo://app?vid=25b4f69a-1726-4c58-a89d-ca45327456b0","ios":"levelo://app?vid=25b4f69a-1726-4c58-a89d-ca45327456b0"},"vehicle_type_id":"4","last_reported":1747638658,"current_range_meters":0,"station_id":"","pricing_plan_id":"cebpf4jnsgd1na2vs0mg"},{"bike_id":"fc2577e7-1497-425b-9d4f-ab8d7dc843c6","system_id":"levelo_inurba_marseille","lat":43.33771,"lon":5.37485,"is_reserved":false,"is_disabled":true,"rental_uris":{"android":"levelo://app?vid=fc2577e7-1497-425b-9d4f-ab8d7dc843c6","ios":"levelo://app?vid=fc2577e7-1497-425b-9d4f-ab8d7dc843c6"},"vehicle_type_id":"4","last_reported":1747638658,"current_range_meters":0,"station_id":"","pricing_plan_id":"cebpf4jnsgd1na2vs0mg"},{"bike_id":"80d0d83f-909d-4568-b4e7-8a3ef4eed2de","system_id":"levelo_inurba_marseille","lat":43.25362,"lon":5.4174,"is_reserved":false,"is_disabled":true,"rental_uris":{"android":"levelo://app?vid=80d0d83f-909d-4568-b4e7-8a3ef4eed2de","ios":"levelo://app?vid=80d0d83f-909d-4568-b4e7-8a3ef4eed2de"},"vehicle_type_id":"4","last_reported":1747638658,"current_range_meters":0,"station_id":"","pricing_plan_id":"cebpf4jnsgd1na2vs0mg"},{"bike_id":"1c306c3e-c8bd-4009-ac53-251079544953","system_id":"levelo_inurba_marseille","lat":43.25054,"lon":5.42641,"is_reserved":false,"is_disabled":true,"rental_uris":{"android":"levelo://app?vid=1c306c3e-c8bd-4009-ac53-251079544953","ios":"levelo://app?vid=1c306c3e-c8bd-4009-ac53-251079544953"},"vehicle_type_id":"4","last_reported":1747638658,"current_range_meters":0,"station_id":"","pricing_plan_id":"cebpf4jnsgd1na2vs0mg"},{"bike_id":"522a6fa9-3b0f-41ae-92d4-659155b9e6e8","system_id":"levelo_inurba_marseille","lat":43.239272,"lon":5.36185,"is_reserved":false,"is_disabled":true,"rental_uris":{"android":"levelo://app?vid=522a6fa9-3b0f-41ae-92d4-659155b9e6e8","ios":"levelo://app?vid=522a6fa9-3b0f-41ae-92d4-659155b9e6e8"},"vehicle_type_id":"4","last_reported":1747638658,"current_range_meters":0,"station_id":"","pricing_plan_id":"cebpf4jnsgd1na2vs0mg"},{"bike_id":"c31e7056-9264-49db-8d33-a9642cf776a3","system_id":"levelo_inurba_marseille","lat":43.279,"lon":5.35427,"is_reserved":false,"is_disabled":true,"rental_uris":{"android":"levelo://app?vid=c31e7056-9264-49db-8d33-a9642cf776a3","ios":"levelo://app?vid=c31e7056-9264-49db-8d33-a9642cf776a3"},"vehicle_type_id":"4","last_reported":1747638658,"current_range_meters":0,"station_id":"","pricing_plan_id":"cebpf4jnsgd1na2vs0mg"},{"bike_id":"ce4325af-2448-4172-bdec-81d552ee0b62","system_id":"levelo_inurba_marseille","lat":43.26106,"lon":5.42073,"is_reserved":false,"is_disabled":true,"rental_uris":{"android":"levelo://app?vid=ce4325af-2448-4172-bdec-81d552ee0b62","ios":"levelo://app?vid=ce4325af-2448-4172-bdec-81d552ee0b62"},"vehicle_type_id":"4","last_reported":1747638658,"current_range_meters":0,"station_id":"","pricing_plan_id":"cebpf4jnsgd1na2vs0mg"},{"bike_id":"0c418f4c-669b-42ee-ae64-391ab64faaa9","system_id":"levelo_inurba_marseille","lat":43.33585,"lon":5.40985,"is_reserved":false,"is_disabled":true,"rental_uris":{"android":"levelo://app?vid=0c418f4c-669b-42ee-ae64-391ab64faaa9","ios":"levelo://app?vid=0c418f4c-669b-42ee-ae64-391ab64faaa9"},"vehicle_type_id":"4","last_reported":1747638658,"current_range_meters":0,"station_id":"","pricing_plan_id":"cebpf4jnsgd1na2vs0mg"},{"bike_id":"23939faf-d206-4b93-ade4-199417584041","system_id":"levelo_inurba_marseille","lat":43.249472,"lon":5.375417,"is_reserved":false,"is_disabled":true,"rental_uris":{"android":"levelo://app?vid=23939faf-d206-4b93-ade4-199417584041","ios":"levelo://app?vid=23939faf-d206-4b93-ade4-199417584041"},"vehicle_type_id":"4","last_reported":1747638658,"current_range_meters":0,"station_id":"","pricing_plan_id":"cebpf4jnsgd1na2vs0mg"},{"bike_id":"8f3685e3-183d-4c98-9513-bfeeb8fbc041","system_id":"levelo_inurba_marseille","lat":43.27958,"lon":5.41199,"is_reserved":false,"is_disabled":true,"rental_uris":{"android":"levelo://app?vid=8f3685e3-183d-4c98-9513-bfeeb8fbc041","ios":"levelo://app?vid=8f3685e3-183d-4c98-9513-bfeeb8fbc041"},"vehicle_type_id":"4","last_reported":1747638658,"current_range_meters":0,"station_id":"","pricing_plan_id":"cebpf4jnsgd1na2vs0mg"},{"bike_id":"3ad8d331-154c-4b56-81be-0f7a34147948","system_id":"levelo_inurba_marseille","lat":43.2649,"lon":5.38534,"is_reserved":false,"is_disabled":true,"rental_uris":{"android":"levelo://app?vid=3ad8d331-154c-4b56-81be-0f7a34147948","ios":"levelo://app?vid=3ad8d331-154c-4b56-81be-0f7a34147948"},"vehicle_type_id":"4","last_reported":1747638658,"current_range_meters":0,"station_id":"","pricing_plan_id":"cebpf4jnsgd1na2vs0mg"},{"bike_id":"39e2ed66-9956-4ef6-982d-047884828e87","system_id":"levelo_inurba_marseille","lat":43.2629,"lon":5.39297,"is_reserved":false,"is_disabled":true,"rental_uris":{"android":"levelo://app?vid=39e2ed66-9956-4ef6-982d-047884828e87","ios":"levelo://app?vid=39e2ed66-9956-4ef6-982d-047884828e87"},"vehicle_type_id":"4","last_reported":1747638658,"current_range_meters":0,"station_id":"","pricing_plan_id":"cebpf4jnsgd1na2vs0mg"},{"bike_id":"4da25b0a-4863-4b58-a68b-a5c4bac89a1e","system_id":"levelo_inurba_marseille","lat":43.24335,"lon":5.37997,"is_reserved":false,"is_disabled":true,"rental_uris":{"android":"levelo://app?vid=4da25b0a-4863-4b58-a68b-a5c4bac89a1e","ios":"levelo://app?vid=4da25b0a-4863-4b58-a68b-a5c4bac89a1e"},"vehicle_type_id":"4","last_reported":1747638658,"current_range_meters":0,"station_id":"","pricing_plan_id":"cebpf4jnsgd1na2vs0mg"},{"bike_id":"338ab862-3eee-46b1-9f4f-ad12443dba67","system_id":"levelo_inurba_marseille","lat":43.30315,"lon":5.37613,"is_reserved":false,"is_disabled":true,"rental_uris":{"android":"levelo://app?vid=338ab862-3eee-46b1-9f4f-ad12443dba67","ios":"levelo://app?vid=338ab862-3eee-46b1-9f4f-ad12443dba67"},"vehicle_type_id":"4","last_reported":1747638658,"current_range_meters":0,"station_id":"","pricing_plan_id":"cebpf4jnsgd1na2vs0mg"},{"bike_id":"792567c6-0442-4011-aff0-9c05e25deb48","system_id":"levelo_inurba_marseille","lat":43.337444,"lon":5.374475,"is_reserved":false,"is_disabled":true,"rental_uris":{"android":"levelo://app?vid=792567c6-0442-4011-aff0-9c05e25deb48","ios":"levelo://app?vid=792567c6-0442-4011-aff0-9c05e25deb48"},"vehicle_type_id":"4","last_reported":1747638658,"current_range_meters":0,"station_id":"","pricing_plan_id":"cebpf4jnsgd1na2vs0mg"},{"bike_id":"c70b4a13-7680-4ad6-ad1c-c194c3175fc6","system_id":"levelo_inurba_marseille","lat":43.2642,"lon":5.39193,"is_reserved":false,"is_disabled":true,"rental_uris":{"android":"levelo://app?vid=c70b4a13-7680-4ad6-ad1c-c194c3175fc6","ios":"levelo://app?vid=c70b4a13-7680-4ad6-ad1c-c194c3175fc6"},"vehicle_type_id":"4","last_reported":1747638658,"current_range_meters":0,"station_id":"","pricing_plan_id":"cebpf4jnsgd1na2vs0mg"},{"bike_id":"bb0baa39-1e01-43e0-a77c-5ba8d631e8a2","system_id":"levelo_inurba_marseille","lat":43.27278,"lon":5.38577,"is_reserved":false,"is_disabled":true,"rental_uris":{"android":"levelo://app?vid=bb0baa39-1e01-43e0-a77c-5ba8d631e8a2","ios":"levelo://app?vid=bb0baa39-1e01-43e0-a77c-5ba8d631e8a2"},"vehicle_type_id":"4","last_reported":1747638658,"current_range_meters":0,"station_id":"","pricing_plan_id":"cebpf4jnsgd1na2vs0mg"},{"bike_id":"e9dd3aa4-b5e7-4480-926d-d7f537719bfa","system_id":"levelo_inurba_marseille","lat":43.23029,"lon":5.40191,"is_reserved":false,"is_disabled":true,"rental_uris":{"android":"levelo://app?vid=e9dd3aa4-b5e7-4480-926d-d7f537719bfa","ios":"levelo://app?vid=e9dd3aa4-b5e7-4480-926d-d7f537719bfa"},"vehicle_type_id":"4","last_reported":1747638658,"current_range_meters":0,"station_id":"","pricing_plan_id":"cebpf4jnsgd1na2vs0mg"},{"bike_id":"4f0cac25-4fc3-45bc-b3c5-b9dd5ac533e4","system_id":"levelo_inurba_marseille","lat":43.29615,"lon":5.37727,"is_reserved":false,"is_disabled":true,"rental_uris":{"android":"levelo://app?vid=4f0cac25-4fc3-45bc-b3c5-b9dd5ac533e4","ios":"levelo://app?vid=4f0cac25-4fc3-45bc-b3c5-b9dd5ac533e4"},"vehicle_type_id":"4","last_reported":1747638658,"current_range_meters":0,"station_id":"ce4bgi92rcd13ifvqb90","pricing_plan_id":"cebpf4jnsgd1na2vs0mg"},{"bike_id":"2ba09f29-0ba6-488b-9952-1f4171f7eabf","system_id":"levelo_inurba_marseille","lat":43.31361,"lon":5.38499,"is_reserved":false,"is_disabled":true,"rental_uris":{"android":"levelo://app?vid=2ba09f29-0ba6-488b-9952-1f4171f7eabf","ios":"levelo://app?vid=2ba09f29-0ba6-488b-9952-1f4171f7eabf"},"vehicle_type_id":"4","last_reported":1747638658,"current_range_meters":0,"station_id":"ce4bgt92rcd13ifvqcf0","pricing_plan_id":"cebpf4jnsgd1na2vs0mg"},{"bike_id":"dfeaab0d-c204-4133-a11f-b643f706a4b4","system_id":"levelo_inurba_marseille","lat":43.304362,"lon":5.398313,"is_reserved":false,"is_disabled":true,"rental_uris":{"android":"levelo://app?vid=dfeaab0d-c204-4133-a11f-b643f706a4b4","ios":"levelo://app?vid=dfeaab0d-c204-4133-a11f-b643f706a4b4"},"vehicle_type_id":"4","last_reported":1747638658,"current_range_meters":0,"station_id":"ce4bhbh2rcd13ifvqeo0","pricing_plan_id":"cebpf4jnsgd1na2vs0mg"},{"bike_id":"2a24e6ec-5b73-41fa-a18d-8a6c48a6c7f6","system_id":"levelo_inurba_marseille","lat":43.26176,"lon":5.37452,"is_reserved":false,"is_disabled":true,"rental_uris":{"android":"levelo://app?vid=2a24e6ec-5b73-41fa-a18d-8a6c48a6c7f6","ios":"levelo://app?vid=2a24e6ec-5b73-41fa-a18d-8a6c48a6c7f6"},"vehicle_type_id":"4","last_reported":1747638658,"current_range_meters":0,"station_id":"ce4bhgp2rcd13ifvqfc0","pricing_plan_id":"cebpf4jnsgd1na2vs0mg"},{"bike_id":"8a2c775c-92cb-48fc-9804-13c1eafc836b","system_id":"levelo_inurba_marseille","lat":43.269525,"lon":5.38621,"is_reserved":false,"is_disabled":true,"rental_uris":{"android":"levelo://app?vid=8a2c775c-92cb-48fc-9804-13c1eafc836b","ios":"levelo://app?vid=8a2c775c-92cb-48fc-9804-13c1eafc836b"},"vehicle_type_id":"4","last_reported":1747638658,"current_range_meters":0,"station_id":"ce4bhh92rcd13ifvqfh0","pricing_plan_id":"cebpf4jnsgd1na2vs0mg"},{"bike_id":"bd50a891-67ce-4351-95d8-571a0cb4a348","system_id":"levelo_inurba_marseille","lat":43.23962,"lon":5.3663,"is_reserved":false,"is_disabled":true,"rental_uris":{"android":"levelo://app?vid=bd50a891-67ce-4351-95d8-571a0cb4a348","ios":"levelo://app?vid=bd50a891-67ce-4351-95d8-571a0cb4a348"},"vehicle_type_id":"4","last_reported":1747638658,"current_range_meters":0,"station_id":"ce4bhi12rcd13ifvqfp0","pricing_plan_id":"cebpf4jnsgd1na2vs0mg"},{"bike_id":"3f88e141-56d6-4390-a75d-13b138997ecc","system_id":"levelo_inurba_marseille","lat":43.2407,"lon":5.37762,"is_reserved":false,"is_disabled":true,"rental_uris":{"android":"levelo://app?vid=3f88e141-56d6-4390-a75d-13b138997ecc","ios":"levelo://app?vid=3f88e141-56d6-4390-a75d-13b138997ecc"},"vehicle_type_id":"4","last_reported":1747638658,"current_range_meters":0,"station_id":"ce4bhnp2rcd13ifvqgvg","pricing_plan_id":"cebpf4jnsgd1na2vs0mg"},{"bike_id":"93145ef7-1691-4e84-a7fa-8713df07c823","system_id":"levelo_inurba_marseille","lat":43.24069,"lon":5.3775,"is_reserved":false,"is_disabled":true,"rental_uris":{"android":"levelo://app?vid=93145ef7-1691-4e84-a7fa-8713df07c823","ios":"levelo://app?vid=93145ef7-1691-4e84-a7fa-8713df07c823"},"vehicle_type_id":"4","last_reported":1747638658,"current_range_meters":0,"station_id":"ce4bhnp2rcd13ifvqgvg","pricing_plan_id":"cebpf4jnsgd1na2vs0mg"},{"bike_id":"7b7022bc-12ee-4706-9250-5d8a42a59eda","system_id":"levelo_inurba_marseille","lat":43.32478,"lon":5.365662,"is_reserved":false,"is_disabled":true,"rental_uris":{"android":"levelo://app?vid=7b7022bc-12ee-4706-9250-5d8a42a59eda","ios":"levelo://app?vid=7b7022bc-12ee-4706-9250-5d8a42a59eda"},"vehicle_type_id":"4","last_reported":1747638658,"current_range_meters":0,"station_id":"ce4bhs12rcd13ifvqhvg","pricing_plan_id":"cebpf4jnsgd1na2vs0mg"},{"bike_id":"9336215f-dd59-4b3e-a5e2-6e2f57b90a64","system_id":"levelo_inurba_marseille","lat":43.21764,"lon":5.34651,"is_reserved":false,"is_disabled":true,"rental_uris":{"android":"levelo://app?vid=9336215f-dd59-4b3e-a5e2-6e2f57b90a64","ios":"levelo://app?vid=9336215f-dd59-4b3e-a5e2-6e2f57b90a64"},"vehicle_type_id":"4","last_reported":1747638658,"current_range_meters":0,"station_id":"st_cvj6r9ubvosntc0bgbag","pricing_plan_id":"cebpf4jnsgd1na2vs0mg"},{"bike_id":"747f32cb-6b90-41cb-af47-7cc48fc9a982","system_id":"levelo_inurba_marseille","lat":43.21743,"lon":5.34611,"is_reserved":false,"is_disabled":true,"rental_uris":{"android":"levelo://app?vid=747f32cb-6b90-41cb-af47-7cc48fc9a982","ios":"levelo://app?vid=747f32cb-6b90-41cb-af47-7cc48fc9a982"},"vehicle_type_id":"4","last_reported":1747638658,"current_range_meters":0,"station_id":"st_cvj6r9ubvosntc0bgbag","pricing_plan_id":"cebpf4jnsgd1na2vs0mg"},{"bike_id":"8716564c-17a6-41bd-bb36-cb5e04b176a4","system_id":"levelo_inurba_marseille","lat":43.217498,"lon":5.346023,"is_reserved":false,"is_disabled":true,"rental_uris":{"android":"levelo://app?vid=8716564c-17a6-41bd-bb36-cb5e04b176a4","ios":"levelo://app?vid=8716564c-17a6-41bd-bb36-cb5e04b176a4"},"vehicle_type_id":"4","last_reported":1747638658,"current_range_meters":0,"station_id":"st_cvj6r9ubvosntc0bgbag","pricing_plan_id":"cebpf4jnsgd1na2vs0mg"},{"bike_id":"15f178c0-ae84-4856-ae0e-aaef582799d5","system_id":"levelo_inurba_marseille","lat":43.217573,"lon":5.34599,"is_reserved":false,"is_disabled":true,"rental_uris":{"android":"levelo://app?vid=15f178c0-ae84-4856-ae0e-aaef582799d5","ios":"levelo://app?vid=15f178c0-ae84-4856-ae0e-aaef582799d5"},"vehicle_type_id":"4","last_reported":1747638658,"current_range_meters":0,"station_id":"st_cvj6r9ubvosntc0bgbag","pricing_plan_id":"cebpf4jnsgd1na2vs0mg"},{"bike_id":"a8c75023-5bb2-4495-93bd-b9490d231e10","system_id":"levelo_inurba_marseille","lat":43.21759,"lon":5.34603,"is_reserved":false,"is_disabled":true,"rental_uris":{"android":"levelo://app?vid=a8c75023-5bb2-4495-93bd-b9490d231e10","ios":"levelo://app?vid=a8c75023-5bb2-4495-93bd-b9490d231e10"},"vehicle_type_id":"4","last_reported":1747638658,"current_range_meters":0,"station_id":"st_cvj6r9ubvosntc0bgbag","pricing_plan_id":"cebpf4jnsgd1na2vs0mg"},{"bike_id":"dbb85a3f-656f-4297-acc4-5e38126b12cc","system_id":"levelo_inurba_marseille","lat":43.211894,"lon":5.350945,"is_reserved":false,"is_disabled":true,"rental_uris":{"android":"levelo://app?vid=dbb85a3f-656f-4297-acc4-5e38126b12cc","ios":"levelo://app?vid=dbb85a3f-656f-4297-acc4-5e38126b12cc"},"vehicle_type_id":"4","last_reported":1747638658,"current_range_meters":0,"station_id":"st_cvj6sg6p6f1abm77japg","pricing_plan_id":"cebpf4jnsgd1na2vs0mg"},{"bike_id":"a8ec7b6e-6348-43a2-b1d5-162ebb6fa99f","system_id":"levelo_inurba_marseille","lat":43.29566,"lon":5.37515,"is_reserved":false,"is_disabled":true,"rental_uris":{"android":"levelo://app?vid=a8ec7b6e-6348-43a2-b1d5-162ebb6fa99f","ios":"levelo://app?vid=a8ec7b6e-6348-43a2-b1d5-162ebb6fa99f"},"vehicle_type_id":"4","last_reported":1747638658,"current_range_meters":400,"station_id":"ce4bgh92rcd13ifvqb50","pricing_plan_id":"cebpf4jnsgd1na2vs0mg"},{"bike_id":"5d603bbd-2c20-4e80-ba5f-c4681c2c798f","system_id":"levelo_inurba_marseille","lat":43.29901,"lon":5.38135,"is_reserved":false,"is_disabled":true,"rental_uris":{"android":"levelo://app?vid=5d603bbd-2c20-4e80-ba5f-c4681c2c798f","ios":"levelo://app?vid=5d603bbd-2c20-4e80-ba5f-c4681c2c798f"},"vehicle_type_id":"4","last_reported":1747638658,"current_range_meters":400,"station_id":"ce4bgj12rcd13ifvqbc0","pricing_plan_id":"cebpf4jnsgd1na2vs0mg"},{"bike_id":"1d83d1a8-2306-46ac-bbb7-a28fab61efae","system_id":"levelo_inurba_marseille","lat":43.30938,"lon":5.39022,"is_reserved":false,"is_disabled":true,"rental_uris":{"android":"levelo://app?vid=1d83d1a8-2306-46ac-bbb7-a28fab61efae","ios":"levelo://app?vid=1d83d1a8-2306-46ac-bbb7-a28fab61efae"},"vehicle_type_id":"4","last_reported":1747638658,"current_range_meters":400,"station_id":"ce4bgup2rcd13ifvqco0","pricing_plan_id":"cebpf4jnsgd1na2vs0mg"},{"bike_id":"56decbef-0511-49e1-bfff-be0c7da16ee5","system_id":"levelo_inurba_marseille","lat":43.2926,"lon":5.38454,"is_reserved":false,"is_disabled":true,"rental_uris":{"android":"levelo://app?vid=56decbef-0511-49e1-bfff-be0c7da16ee5","ios":"levelo://app?vid=56decbef-0511-49e1-bfff-be0c7da16ee5"},"vehicle_type_id":"4","last_reported":1747638658,"current_range_meters":400,"station_id":"ce4bh692rcd13ifvqea0","pricing_plan_id":"cebpf4jnsgd1na2vs0mg"},{"bike_id":"529f4b78-b07a-4471-8160-85eec5df9c72","system_id":"levelo_inurba_marseille","lat":43.2418,"lon":5.3972,"is_reserved":false,"is_disabled":true,"rental_uris":{"android":"levelo://app?vid=529f4b78-b07a-4471-8160-85eec5df9c72","ios":"levelo://app?vid=529f4b78-b07a-4471-8160-85eec5df9c72"},"vehicle_type_id":"4","last_reported":1747638658,"current_range_meters":400,"station_id":"ce4bhn12rcd13ifvqgpg","pricing_plan_id":"cebpf4jnsgd1na2vs0mg"},{"bike_id":"ad201fd8-43d4-4e13-b393-60400b28cd6f","system_id":"levelo_inurba_marseille","lat":43.24086,"lon":5.37791,"is_reserved":false,"is_disabled":true,"rental_uris":{"android":"levelo://app?vid=ad201fd8-43d4-4e13-b393-60400b28cd6f","ios":"levelo://app?vid=ad201fd8-43d4-4e13-b393-60400b28cd6f"},"vehicle_type_id":"4","last_reported":1747638658,"current_range_meters":400,"station_id":"ce4bhnp2rcd13ifvqgvg","pricing_plan_id":"cebpf4jnsgd1na2vs0mg"},{"bike_id":"aa1d8c1e-7594-4615-aa13-56fdebb973d7","system_id":"levelo_inurba_marseille","lat":43.26906,"lon":5.39166,"is_reserved":false,"is_disabled":true,"rental_uris":{"android":"levelo://app?vid=aa1d8c1e-7594-4615-aa13-56fdebb973d7","ios":"levelo://app?vid=aa1d8c1e-7594-4615-aa13-56fdebb973d7"},"vehicle_type_id":"4","last_reported":1747638658,"current_range_meters":800,"station_id":"","pricing_plan_id":"cebpf4jnsgd1na2vs0mg"},{"bike_id":"cad6e47d-9c83-48a0-8d82-8cee97d27c1d","system_id":"levelo_inurba_marseille","lat":43.25867,"lon":5.39892,"is_reserved":false,"is_disabled":true,"rental_uris":{"android":"levelo://app?vid=cad6e47d-9c83-48a0-8d82-8cee97d27c1d","ios":"levelo://app?vid=cad6e47d-9c83-48a0-8d82-8cee97d27c1d"},"vehicle_type_id":"4","last_reported":1747638658,"current_range_meters":800,"station_id":"ce4bhl92rcd13ifvqghg","pricing_plan_id":"cebpf4jnsgd1na2vs0mg"},{"bike_id":"bd823133-1586-4744-a34a-49ba7f90ad8f","system_id":"levelo_inurba_marseille","lat":43.31102,"lon":5.37762,"is_reserved":false,"is_disabled":true,"rental_uris":{"android":"levelo://app?vid=bd823133-1586-4744-a34a-49ba7f90ad8f","ios":"levelo://app?vid=bd823133-1586-4744-a34a-49ba7f90ad8f"},"vehicle_type_id":"4","last_reported":1747638658,"current_range_meters":1200,"station_id":"ce4bgt92rcd13ifvqcg0","pricing_plan_id":"cebpf4jnsgd1na2vs0mg"},{"bike_id":"178873cb-d5fd-4198-810a-973f821b0b52","system_id":"levelo_inurba_marseille","lat":43.29025,"lon":5.38645,"is_reserved":false,"is_disabled":true,"rental_uris":{"android":"levelo://app?vid=178873cb-d5fd-4198-810a-973f821b0b52","ios":"levelo://app?vid=178873cb-d5fd-4198-810a-973f821b0b52"},"vehicle_type_id":"4","last_reported":1747638658,"current_range_meters":1200,"station_id":"ce4bh4p2rcd13ifvqe0g","pricing_plan_id":"cebpf4jnsgd1na2vs0mg"},{"bike_id":"36a12be6-9754-4b11-8ac9-1bf32286b850","system_id":"levelo_inurba_marseille","lat":43.285359,"lon":5.38392,"is_reserved":false,"is_disabled":true,"rental_uris":{"android":"levelo://app?vid=36a12be6-9754-4b11-8ac9-1bf32286b850","ios":"levelo://app?vid=36a12be6-9754-4b11-8ac9-1bf32286b850"},"vehicle_type_id":"4","last_reported":1747638658,"current_range_meters":1200,"station_id":"ce4bh512rcd13ifvqe3g","pricing_plan_id":"cebpf4jnsgd1na2vs0mg"},{"bike_id":"8b77bb08-4e22-47c8-9d39-43b77ccc8e3d","system_id":"levelo_inurba_marseille","lat":43.286139,"lon":5.351047,"is_reserved":false,"is_disabled":true,"rental_uris":{"android":"levelo://app?vid=8b77bb08-4e22-47c8-9d39-43b77ccc8e3d","ios":"levelo://app?vid=8b77bb08-4e22-47c8-9d39-43b77ccc8e3d"},"vehicle_type_id":"4","last_reported":1747638658,"current_range_meters":1200,"station_id":"ce4bhch2rcd13ifvqeug","pricing_plan_id":"cebpf4jnsgd1na2vs0mg"},{"bike_id":"600b9a90-fb9b-410a-81b3-406695032514","system_id":"levelo_inurba_marseille","lat":43.25933,"lon":5.40907,"is_reserved":false,"is_disabled":true,"rental_uris":{"android":"levelo://app?vid=600b9a90-fb9b-410a-81b3-406695032514","ios":"levelo://app?vid=600b9a90-fb9b-410a-81b3-406695032514"},"vehicle_type_id":"4","last_reported":1747638658,"current_range_meters":1600,"station_id":"ce4bhm92rcd13ifvqglg","pricing_plan_id":"cebpf4jnsgd1na2vs0mg"},{"bike_id":"e23a29de-29a6-42b1-9268-226de19e4a69","system_id":"levelo_inurba_marseille","lat":43.26222,"lon":5.40446,"is_reserved":false,"is_disabled":true,"rental_uris":{"android":"levelo://app?vid=e23a29de-29a6-42b1-9268-226de19e4a69","ios":"levelo://app?vid=e23a29de-29a6-42b1-9268-226de19e4a69"},"vehicle_type_id":"4","last_reported":1747638658,"current_range_meters":1600,"station_id":"ce4bhmh2rcd13ifvqgmg","pricing_plan_id":"cebpf4jnsgd1na2vs0mg"},{"bike_id":"88229558-17ff-436c-91d4-c14a84c620af","system_id":"levelo_inurba_marseille","lat":43.29849,"lon":5.36281,"is_reserved":false,"is_disabled":true,"rental_uris":{"android":"levelo://app?vid=88229558-17ff-436c-91d4-c14a84c620af","ios":"levelo://app?vid=88229558-17ff-436c-91d4-c14a84c620af"},"vehicle_type_id":"4","last_reported":1747638658,"current_range_meters":2000,"station_id":"ce4bgpp2rcd13ifvqc3g","pricing_plan_id":"cebpf4jnsgd1na2vs0mg"},{"bike_id":"06662ae1-f70d-4417-96f1-33017a23c3ff","system_id":"levelo_inurba_marseille","lat":43.30953,"lon":5.39037,"is_reserved":false,"is_disabled":true,"rental_uris":{"android":"levelo://app?vid=06662ae1-f70d-4417-96f1-33017a23c3ff","ios":"levelo://app?vid=06662ae1-f70d-4417-96f1-33017a23c3ff"},"vehicle_type_id":"4","last_reported":1747638658,"current_range_meters":2000,"station_id":"ce4bgup2rcd13ifvqco0","pricing_plan_id":"cebpf4jnsgd1na2vs0mg"},{"bike_id":"a7bf40bc-3b12-4de7-a15b-040709683036","system_id":"levelo_inurba_marseille","lat":43.29582,"lon":5.39973,"is_reserved":false,"is_disabled":true,"rental_uris":{"android":"levelo://app?vid=a7bf40bc-3b12-4de7-a15b-040709683036","ios":"levelo://app?vid=a7bf40bc-3b12-4de7-a15b-040709683036"},"vehicle_type_id":"4","last_reported":1747638658,"current_range_meters":2000,"station_id":"ce4bh312rcd13ifvqdj0","pricing_plan_id":"cebpf4jnsgd1na2vs0mg"},{"bike_id":"1cc8eca4-4698-4d2a-af2b-797ad06615eb","system_id":"levelo_inurba_marseille","lat":43.2511,"lon":5.4032,"is_reserved":false,"is_disabled":true,"rental_uris":{"android":"levelo://app?vid=1cc8eca4-4698-4d2a-af2b-797ad06615eb","ios":"levelo://app?vid=1cc8eca4-4698-4d2a-af2b-797ad06615eb"},"vehicle_type_id":"4","last_reported":1747638658,"current_range_meters":2000,"station_id":"ce4bhlh2rcd13ifvqgig","pricing_plan_id":"cebpf4jnsgd1na2vs0mg"},{"bike_id":"8ad9a209-deb2-41f6-9a9a-22740719fc9d","system_id":"levelo_inurba_marseille","lat":43.34145,"lon":5.40912,"is_reserved":false,"is_disabled":true,"rental_uris":{"android":"levelo://app?vid=8ad9a209-deb2-41f6-9a9a-22740719fc9d","ios":"levelo://app?vid=8ad9a209-deb2-41f6-9a9a-22740719fc9d"},"vehicle_type_id":"4","last_reported":1747638658,"current_range_meters":2000,"station_id":"ce4bhqh2rcd13ifvqhlg","pricing_plan_id":"cebpf4jnsgd1na2vs0mg"},{"bike_id":"f07a1d81-93d3-41d2-932f-79f286549376","system_id":"levelo_inurba_marseille","lat":43.30907,"lon":5.36855,"is_reserved":false,"is_disabled":false,"rental_uris":{"android":"levelo://app?vid=f07a1d81-93d3-41d2-932f-79f286549376","ios":"levelo://app?vid=f07a1d81-93d3-41d2-932f-79f286549376"},"vehicle_type_id":"4","last_reported":1747638658,"current_range_meters":2800,"station_id":"ce4bgn92rcd13ifvqbvg","pricing_plan_id":"cebpf4jnsgd1na2vs0mg"},{"bike_id":"d8d5a032-2949-4976-a414-7d319cfd6437","system_id":"levelo_inurba_marseille","lat":43.30192,"lon":5.36614,"is_reserved":false,"is_disabled":false,"rental_uris":{"android":"levelo://app?vid=d8d5a032-2949-4976-a414-7d319cfd6437","ios":"levelo://app?vid=d8d5a032-2949-4976-a414-7d319cfd6437"},"vehicle_type_id":"4","last_reported":1747638658,"current_range_meters":2800,"station_id":"ce4bgrh2rcd13ifvqc8g","pricing_plan_id":"cebpf4jnsgd1na2vs0mg"},{"bike_id":"24931f6f-e0f3-4c99-8699-854098e0aefa","system_id":"levelo_inurba_marseille","lat":43.28275,"lon":5.3505,"is_reserved":false,"is_disabled":true,"rental_uris":{"android":"levelo://app?vid=24931f6f-e0f3-4c99-8699-854098e0aefa","ios":"levelo://app?vid=24931f6f-e0f3-4c99-8699-854098e0aefa"},"vehicle_type_id":"4","last_reported":1747638658,"current_range_meters":2800,"station_id":"ce4bhbp2rcd13ifvqerg","pricing_plan_id":"cebpf4jnsgd1na2vs0mg"},{"bike_id":"5028fc01-908b-4ab2-a0b9-bb293185b3df","system_id":"levelo_inurba_marseille","lat":43.2594,"lon":5.40899,"is_reserved":false,"is_disabled":false,"rental_uris":{"android":"levelo://app?vid=5028fc01-908b-4ab2-a0b9-bb293185b3df","ios":"levelo://app?vid=5028fc01-908b-4ab2-a0b9-bb293185b3df"},"vehicle_type_id":"4","last_reported":1747638658,"current_range_meters":2800,"station_id":"ce4bhm92rcd13ifvqglg","pricing_plan_id":"cebpf4jnsgd1na2vs0mg"},{"bike_id":"23804179-bd9a-49fe-a1be-c9225b046bb8","system_id":"levelo_inurba_marseille","lat":43.30538,"lon":5.36703,"is_reserved":false,"is_disabled":false,"rental_uris":{"android":"levelo://app?vid=23804179-bd9a-49fe-a1be-c9225b046bb8","ios":"levelo://app?vid=23804179-bd9a-49fe-a1be-c9225b046bb8"},"vehicle_type_id":"4","last_reported":1747638658,"current_range_meters":3200,"station_id":"ce4bgrp2rcd13ifvqc9g","pricing_plan_id":"cebpf4jnsgd1na2vs0mg"},{"bike_id":"cba2067c-a08b-479c-8b0b-7aae2b36b17b","system_id":"levelo_inurba_marseille","lat":43.24063,"lon":5.37768,"is_reserved":false,"is_disabled":false,"rental_uris":{"android":"levelo://app?vid=cba2067c-a08b-479c-8b0b-7aae2b36b17b","ios":"levelo://app?vid=cba2067c-a08b-479c-8b0b-7aae2b36b17b"},"vehicle_type_id":"4","last_reported":1747638658,"current_range_meters":3200,"station_id":"ce4bhnp2rcd13ifvqgvg","pricing_plan_id":"cebpf4jnsgd1na2vs0mg"},{"bike_id":"ea111f67-34fa-4ef1-a1ce-3ecbdb65057e","system_id":"levelo_inurba_marseille","lat":43.31671,"lon":5.40483,"is_reserved":false,"is_disabled":false,"rental_uris":{"android":"levelo://app?vid=ea111f67-34fa-4ef1-a1ce-3ecbdb65057e","ios":"levelo://app?vid=ea111f67-34fa-4ef1-a1ce-3ecbdb65057e"},"vehicle_type_id":"4","last_reported":1747638658,"current_range_meters":3600,"station_id":"ce4bh012rcd13ifvqd00","pricing_plan_id":"cebpf4jnsgd1na2vs0mg"},{"bike_id":"7a82397e-c258-4325-b836-1bc38b80aab5","system_id":"levelo_inurba_marseille","lat":43.24076,"lon":5.3775,"is_reserved":false,"is_disabled":false,"rental_uris":{"android":"levelo://app?vid=7a82397e-c258-4325-b836-1bc38b80aab5","ios":"levelo://app?vid=7a82397e-c258-4325-b836-1bc38b80aab5"},"vehicle_type_id":"4","last_reported":1747638658,"current_range_meters":4000,"station_id":"ce4bhnp2rcd13ifvqgvg","pricing_plan_id":"cebpf4jnsgd1na2vs0mg"},{"bike_id":"30a8e30a-ff24-4e19-9d22-112f13895c9f","system_id":"levelo_inurba_marseille","lat":43.31083,"lon":5.42425,"is_reserved":false,"is_disabled":false,"rental_uris":{"android":"levelo://app?vid=30a8e30a-ff24-4e19-9d22-112f13895c9f","ios":"levelo://app?vid=30a8e30a-ff24-4e19-9d22-112f13895c9f"},"vehicle_type_id":"4","last_reported":1747638658,"current_range_meters":4000,"station_id":"ce4bhp92rcd13ifvqhag","pricing_plan_id":"cebpf4jnsgd1na2vs0mg"},{"bike_id":"8c534558-3365-46b8-b638-dbb605db72a3","system_id":"levelo_inurba_marseille","lat":43.30546,"lon":5.36544,"is_reserved":false,"is_disabled":false,"rental_uris":{"android":"levelo://app?vid=8c534558-3365-46b8-b638-dbb605db72a3","ios":"levelo://app?vid=8c534558-3365-46b8-b638-dbb605db72a3"},"vehicle_type_id":"4","last_reported":1747638658,"current_range_meters":4800,"station_id":"ce4bgs12rcd13ifvqcag","pricing_plan_id":"cebpf4jnsgd1na2vs0mg"},{"bike_id":"d4fdb400-981e-451e-9a72-f43f5afc8b17","system_id":"levelo_inurba_marseille","lat":43.3095,"lon":5.39028,"is_reserved":false,"is_disabled":false,"rental_uris":{"android":"levelo://app?vid=d4fdb400-981e-451e-9a72-f43f5afc8b17","ios":"levelo://app?vid=d4fdb400-981e-451e-9a72-f43f5afc8b17"},"vehicle_type_id":"4","last_reported":1747638658,"current_range_meters":4800,"station_id":"ce4bgup2rcd13ifvqco0","pricing_plan_id":"cebpf4jnsgd1na2vs0mg"},{"bike_id":"c0db4030-ef30-480b-a735-af5435a471ed","system_id":"levelo_inurba_marseille","lat":43.27738,"lon":5.42666,"is_reserved":false,"is_disabled":false,"rental_uris":{"android":"levelo://app?vid=c0db4030-ef30-480b-a735-af5435a471ed","ios":"levelo://app?vid=c0db4030-ef30-480b-a735-af5435a471ed"},"vehicle_type_id":"4","last_reported":1747638658,"current_range_meters":5600,"station_id":"","pricing_plan_id":"cebpf4jnsgd1na2vs0mg"},{"bike_id":"7dbc09ef-b15a-4fa5-8e15-8988a7a6afa8","system_id":"levelo_inurba_marseille","lat":43.27493,"lon":5.42443,"is_reserved":false,"is_disabled":false,"rental_uris":{"android":"levelo://app?vid=7dbc09ef-b15a-4fa5-8e15-8988a7a6afa8","ios":"levelo://app?vid=7dbc09ef-b15a-4fa5-8e15-8988a7a6afa8"},"vehicle_type_id":"4","last_reported":1747638658,"current_range_meters":5600,"station_id":"ce4bhn92rcd13ifvqgrg","pricing_plan_id":"cebpf4jnsgd1na2vs0mg"},{"bike_id":"0fb02880-5c6e-4026-9e4a-07529c572b44","system_id":"levelo_inurba_marseille","lat":43.25492,"lon":5.37395,"is_reserved":false,"is_disabled":false,"rental_uris":{"android":"levelo://app?vid=0fb02880-5c6e-4026-9e4a-07529c572b44","ios":"levelo://app?vid=0fb02880-5c6e-4026-9e4a-07529c572b44"},"vehicle_type_id":"4","last_reported":1747638658,"current_range_meters":6400,"station_id":"","pricing_plan_id":"cebpf4jnsgd1na2vs0mg"},{"bike_id":"14603e41-b2dd-4757-a53c-2e366aa4f983","system_id":"levelo_inurba_marseille","lat":43.27004,"lon":5.42838,"is_reserved":false,"is_disabled":false,"rental_uris":{"android":"levelo://app?vid=14603e41-b2dd-4757-a53c-2e366aa4f983","ios":"levelo://app?vid=14603e41-b2dd-4757-a53c-2e366aa4f983"},"vehicle_type_id":"4","last_reported":1747638658,"current_range_meters":6400,"station_id":"","pricing_plan_id":"cebpf4jnsgd1na2vs0mg"},{"bike_id":"71390c34-0bbe-4a14-b35d-453cc7c6b534","system_id":"levelo_inurba_marseille","lat":43.30152,"lon":5.38087,"is_reserved":false,"is_disabled":false,"rental_uris":{"android":"levelo://app?vid=71390c34-0bbe-4a14-b35d-453cc7c6b534","ios":"levelo://app?vid=71390c34-0bbe-4a14-b35d-453cc7c6b534"},"vehicle_type_id":"4","last_reported":1747638658,"current_range_meters":6400,"station_id":"ce4bgjp2rcd13ifvqbh0","pricing_plan_id":"cebpf4jnsgd1na2vs0mg"},{"bike_id":"43797d4f-449a-4e21-870b-b61fadc5c98a","system_id":"levelo_inurba_marseille","lat":43.28856,"lon":5.39317,"is_reserved":false,"is_disabled":false,"rental_uris":{"android":"levelo://app?vid=43797d4f-449a-4e21-870b-b61fadc5c98a","ios":"levelo://app?vid=43797d4f-449a-4e21-870b-b61fadc5c98a"},"vehicle_type_id":"4","last_reported":1747638658,"current_range_meters":6800,"station_id":"ce4bh2p2rcd13ifvqdi0","pricing_plan_id":"cebpf4jnsgd1na2vs0mg"},{"bike_id":"80d43c8a-7497-4993-a7cb-7b633276dd4e","system_id":"levelo_inurba_marseille","lat":43.24064,"lon":5.37758,"is_reserved":false,"is_disabled":false,"rental_uris":{"android":"levelo://app?vid=80d43c8a-7497-4993-a7cb-7b633276dd4e","ios":"levelo://app?vid=80d43c8a-7497-4993-a7cb-7b633276dd4e"},"vehicle_type_id":"4","last_reported":1747638658,"current_range_meters":6800,"station_id":"ce4bhnp2rcd13ifvqgvg","pricing_plan_id":"cebpf4jnsgd1na2vs0mg"},{"bike_id":"0942a4e0-09d2-4a94-9ccc-136b2604fc2e","system_id":"levelo_inurba_marseille","lat":43.24087,"lon":5.37612,"is_reserved":false,"is_disabled":false,"rental_uris":{"android":"levelo://app?vid=0942a4e0-09d2-4a94-9ccc-136b2604fc2e","ios":"levelo://app?vid=0942a4e0-09d2-4a94-9ccc-136b2604fc2e"},"vehicle_type_id":"4","last_reported":1747638658,"current_range_meters":6800,"station_id":"ce4bhnp2rcd13ifvqgvg","pricing_plan_id":"cebpf4jnsgd1na2vs0mg"},{"bike_id":"67f72f62-eb9d-4994-bbcf-c10b28dd838c","system_id":"levelo_inurba_marseille","lat":43.26609,"lon":5.39336,"is_reserved":false,"is_disabled":false,"rental_uris":{"android":"levelo://app?vid=67f72f62-eb9d-4994-bbcf-c10b28dd838c","ios":"levelo://app?vid=67f72f62-eb9d-4994-bbcf-c10b28dd838c"},"vehicle_type_id":"4","last_reported":1747638658,"current_range_meters":7200,"station_id":"","pricing_plan_id":"cebpf4jnsgd1na2vs0mg"},{"bike_id":"ffc3ddf2-0082-4578-9e25-c91f5b4279bc","system_id":"levelo_inurba_marseille","lat":43.283125,"lon":5.411321,"is_reserved":false,"is_disabled":false,"rental_uris":{"android":"levelo://app?vid=ffc3ddf2-0082-4578-9e25-c91f5b4279bc","ios":"levelo://app?vid=ffc3ddf2-0082-4578-9e25-c91f5b4279bc"},"vehicle_type_id":"4","last_reported":1747638658,"current_range_meters":7200,"station_id":"","pricing_plan_id":"cebpf4jnsgd1na2vs0mg"},{"bike_id":"caf4c81d-8b81-4d8d-a4f9-9d00bac7ad70","system_id":"levelo_inurba_marseille","lat":43.30782,"lon":5.42767,"is_reserved":false,"is_disabled":false,"rental_uris":{"android":"levelo://app?vid=caf4c81d-8b81-4d8d-a4f9-9d00bac7ad70","ios":"levelo://app?vid=caf4c81d-8b81-4d8d-a4f9-9d00bac7ad70"},"vehicle_type_id":"4","last_reported":1747638658,"current_range_meters":7200,"station_id":"","pricing_plan_id":"cebpf4jnsgd1na2vs0mg"},{"bike_id":"0f9ddb26-1492-4945-ab35-b341312e4013","system_id":"levelo_inurba_marseille","lat":43.31345,"lon":5.36717,"is_reserved":false,"is_disabled":false,"rental_uris":{"android":"levelo://app?vid=0f9ddb26-1492-4945-ab35-b341312e4013","ios":"levelo://app?vid=0f9ddb26-1492-4945-ab35-b341312e4013"},"vehicle_type_id":"4","last_reported":1747638658,"current_range_meters":7200,"station_id":"ce4bgr92rcd13ifvqc6g","pricing_plan_id":"cebpf4jnsgd1na2vs0mg"},{"bike_id":"87e51718-a347-4ea9-99d3-8cc9ebc6c2b8","system_id":"levelo_inurba_marseille","lat":43.27369,"lon":5.36254,"is_reserved":false,"is_disabled":false,"rental_uris":{"android":"levelo://app?vid=87e51718-a347-4ea9-99d3-8cc9ebc6c2b8","ios":"levelo://app?vid=87e51718-a347-4ea9-99d3-8cc9ebc6c2b8"},"vehicle_type_id":"4","last_reported":1747638658,"current_range_meters":7200,"station_id":"ce4bhbh2rcd13ifvqeo0","pricing_plan_id":"cebpf4jnsgd1na2vs0mg"},{"bike_id":"297bb6c3-641c-4644-b187-042fdcedffb1","system_id":"levelo_inurba_marseille","lat":43.33613,"lon":5.40999,"is_reserved":false,"is_disabled":false,"rental_uris":{"android":"levelo://app?vid=297bb6c3-641c-4644-b187-042fdcedffb1","ios":"levelo://app?vid=297bb6c3-641c-4644-b187-042fdcedffb1"},"vehicle_type_id":"4","last_reported":1747638658,"current_range_meters":7200,"station_id":"ce4bhqh2rcd13ifvqhmg","pricing_plan_id":"cebpf4jnsgd1na2vs0mg"},{"bike_id":"983e6f26-96b5-4100-b34a-ba3baf053a67","system_id":"levelo_inurba_marseille","lat":43.29295,"lon":5.37437,"is_reserved":false,"is_disabled":false,"rental_uris":{"android":"levelo://app?vid=983e6f26-96b5-4100-b34a-ba3baf053a67","ios":"levelo://app?vid=983e6f26-96b5-4100-b34a-ba3baf053a67"},"vehicle_type_id":"4","last_reported":1747638658,"current_range_meters":8000,"station_id":"ce4bgi12rcd13ifvqb70","pricing_plan_id":"cebpf4jnsgd1na2vs0mg"},{"bike_id":"9d6e284c-d2e8-45ad-b979-772e90865afb","system_id":"levelo_inurba_marseille","lat":43.30908,"lon":5.36841,"is_reserved":false,"is_disabled":false,"rental_uris":{"android":"levelo://app?vid=9d6e284c-d2e8-45ad-b979-772e90865afb","ios":"levelo://app?vid=9d6e284c-d2e8-45ad-b979-772e90865afb"},"vehicle_type_id":"4","last_reported":1747638658,"current_range_meters":8000,"station_id":"ce4bgn92rcd13ifvqbvg","pricing_plan_id":"cebpf4jnsgd1na2vs0mg"},{"bike_id":"28cfeead-8e73-4fbe-8921-050c74bdd385","system_id":"levelo_inurba_marseille","lat":43.28966,"lon":5.37847,"is_reserved":false,"is_disabled":false,"rental_uris":{"android":"levelo://app?vid=28cfeead-8e73-4fbe-8921-050c74bdd385","ios":"levelo://app?vid=28cfeead-8e73-4fbe-8921-050c74bdd385"},"vehicle_type_id":"4","last_reported":1747638658,"current_range_meters":8000,"station_id":"ce4bh9p2rcd13ifvqed0","pricing_plan_id":"cebpf4jnsgd1na2vs0mg"},{"bike_id":"e094f58b-0649-4160-8bf4-5d377a645ced","system_id":"levelo_inurba_marseille","lat":43.26962,"lon":5.38643,"is_reserved":false,"is_disabled":false,"rental_uris":{"android":"levelo://app?vid=e094f58b-0649-4160-8bf4-5d377a645ced","ios":"levelo://app?vid=e094f58b-0649-4160-8bf4-5d377a645ced"},"vehicle_type_id":"4","last_reported":1747638658,"current_range_meters":8000,"station_id":"ce4bhh92rcd13ifvqfh0","pricing_plan_id":"cebpf4jnsgd1na2vs0mg"},{"bike_id":"35f3e9bd-6483-4f80-9ef2-e0c1d36d9830","system_id":"levelo_inurba_marseille","lat":43.25933,"lon":5.40913,"is_reserved":false,"is_disabled":false,"rental_uris":{"android":"levelo://app?vid=35f3e9bd-6483-4f80-9ef2-e0c1d36d9830","ios":"levelo://app?vid=35f3e9bd-6483-4f80-9ef2-e0c1d36d9830"},"vehicle_type_id":"4","last_reported":1747638658,"current_range_meters":8000,"station_id":"ce4bhm92rcd13ifvqglg","pricing_plan_id":"cebpf4jnsgd1na2vs0mg"},{"bike_id":"9e9bf122-002d-4b2b-80cf-72cefc9e6351","system_id":"levelo_inurba_marseille","lat":43.25939,"lon":5.40896,"is_reserved":false,"is_disabled":false,"rental_uris":{"android":"levelo://app?vid=9e9bf122-002d-4b2b-80cf-72cefc9e6351","ios":"levelo://app?vid=9e9bf122-002d-4b2b-80cf-72cefc9e6351"},"vehicle_type_id":"4","last_reported":1747638658,"current_range_meters":8000,"station_id":"ce4bhm92rcd13ifvqglg","pricing_plan_id":"cebpf4jnsgd1na2vs0mg"},{"bike_id":"b9525ad5-2e09-44e2-a48b-a9c7b0f9b124","system_id":"levelo_inurba_marseille","lat":43.241727,"lon":5.397277,"is_reserved":false,"is_disabled":false,"rental_uris":{"android":"levelo://app?vid=b9525ad5-2e09-44e2-a48b-a9c7b0f9b124","ios":"levelo://app?vid=b9525ad5-2e09-44e2-a48b-a9c7b0f9b124"},"vehicle_type_id":"4","last_reported":1747638658,"current_range_meters":8000,"station_id":"ce4bhn12rcd13ifvqgpg","pricing_plan_id":"cebpf4jnsgd1na2vs0mg"},{"bike_id":"f8ed51b9-873c-45ca-9c57-e03787ccbb61","system_id":"levelo_inurba_marseille","lat":43.30908,"lon":5.36844,"is_reserved":false,"is_disabled":false,"rental_uris":{"android":"levelo://app?vid=f8ed51b9-873c-45ca-9c57-e03787ccbb61","ios":"levelo://app?vid=f8ed51b9-873c-45ca-9c57-e03787ccbb61"},"vehicle_type_id":"4","last_reported":1747638658,"current_range_meters":8400,"station_id":"ce4bgn92rcd13ifvqbvg","pricing_plan_id":"cebpf4jnsgd1na2vs0mg"},{"bike_id":"651a9bf5-dad3-4d9d-ba4c-678a4c9959c7","system_id":"levelo_inurba_marseille","lat":43.30541,"lon":5.36696,"is_reserved":false,"is_disabled":false,"rental_uris":{"android":"levelo://app?vid=651a9bf5-dad3-4d9d-ba4c-678a4c9959c7","ios":"levelo://app?vid=651a9bf5-dad3-4d9d-ba4c-678a4c9959c7"},"vehicle_type_id":"4","last_reported":1747638658,"current_range_meters":8400,"station_id":"ce4bgrp2rcd13ifvqc9g","pricing_plan_id":"cebpf4jnsgd1na2vs0mg"},{"bike_id":"776056af-a555-4f4e-bf8f-559aa0dd4684","system_id":"levelo_inurba_marseille","lat":43.3148,"lon":5.37307,"is_reserved":false,"is_disabled":false,"rental_uris":{"android":"levelo://app?vid=776056af-a555-4f4e-bf8f-559aa0dd4684","ios":"levelo://app?vid=776056af-a555-4f4e-bf8f-559aa0dd4684"},"vehicle_type_id":"4","last_reported":1747638658,"current_range_meters":8400,"station_id":"ce4bgt12rcd13ifvqcd0","pricing_plan_id":"cebpf4jnsgd1na2vs0mg"},{"bike_id":"28560fde-54b2-46de-ad22-eadf2d227af8","system_id":"levelo_inurba_marseille","lat":43.2904,"lon":5.39986,"is_reserved":false,"is_disabled":false,"rental_uris":{"android":"levelo://app?vid=28560fde-54b2-46de-ad22-eadf2d227af8","ios":"levelo://app?vid=28560fde-54b2-46de-ad22-eadf2d227af8"},"vehicle_type_id":"4","last_reported":1747638658,"current_range_meters":8400,"station_id":"ce4bh392rcd13ifvqdm0","pricing_plan_id":"cebpf4jnsgd1na2vs0mg"},{"bike_id":"867df275-5a17-4b8c-968f-a8217c52bbf6","system_id":"levelo_inurba_marseille","lat":43.23964,"lon":5.36626,"is_reserved":false,"is_disabled":false,"rental_uris":{"android":"levelo://app?vid=867df275-5a17-4b8c-968f-a8217c52bbf6","ios":"levelo://app?vid=867df275-5a17-4b8c-968f-a8217c52bbf6"},"vehicle_type_id":"4","last_reported":1747638658,"current_range_meters":8400,"station_id":"ce4bhi12rcd13ifvqfp0","pricing_plan_id":"cebpf4jnsgd1na2vs0mg"},{"bike_id":"c608898e-58b6-42f7-903a-6008119c7a64","system_id":"levelo_inurba_marseille","lat":43.24074,"lon":5.37795,"is_reserved":false,"is_disabled":false,"rental_uris":{"android":"levelo://app?vid=c608898e-58b6-42f7-903a-6008119c7a64","ios":"levelo://app?vid=c608898e-58b6-42f7-903a-6008119c7a64"},"vehicle_type_id":"4","last_reported":1747638658,"current_range_meters":8400,"station_id":"ce4bhnp2rcd13ifvqgvg","pricing_plan_id":"cebpf4jnsgd1na2vs0mg"},{"bike_id":"4745dd8b-a0b2-49db-b417-8a28eecc51d4","system_id":"levelo_inurba_marseille","lat":43.24326,"lon":5.38,"is_reserved":false,"is_disabled":false,"rental_uris":{"android":"levelo://app?vid=4745dd8b-a0b2-49db-b417-8a28eecc51d4","ios":"levelo://app?vid=4745dd8b-a0b2-49db-b417-8a28eecc51d4"},"vehicle_type_id":"4","last_reported":1747638658,"current_range_meters":8800,"station_id":"","pricing_plan_id":"cebpf4jnsgd1na2vs0mg"},{"bike_id":"8832d55e-1dba-4f1d-a3f1-0f290ce093eb","system_id":"levelo_inurba_marseille","lat":43.30931,"lon":5.39034,"is_reserved":false,"is_disabled":false,"rental_uris":{"android":"levelo://app?vid=8832d55e-1dba-4f1d-a3f1-0f290ce093eb","ios":"levelo://app?vid=8832d55e-1dba-4f1d-a3f1-0f290ce093eb"},"vehicle_type_id":"4","last_reported":1747638658,"current_range_meters":8800,"station_id":"ce4bgup2rcd13ifvqco0","pricing_plan_id":"cebpf4jnsgd1na2vs0mg"},{"bike_id":"291066eb-2f84-438d-a8f6-24a73172bc78","system_id":"levelo_inurba_marseille","lat":43.30943,"lon":5.39023,"is_reserved":false,"is_disabled":false,"rental_uris":{"android":"levelo://app?vid=291066eb-2f84-438d-a8f6-24a73172bc78","ios":"levelo://app?vid=291066eb-2f84-438d-a8f6-24a73172bc78"},"vehicle_type_id":"4","last_reported":1747638658,"current_range_meters":8800,"station_id":"ce4bgup2rcd13ifvqco0","pricing_plan_id":"cebpf4jnsgd1na2vs0mg"},{"bike_id":"f4c3d49d-812f-4962-b911-1b013dbdd33d","system_id":"levelo_inurba_marseille","lat":43.290344,"lon":5.375658,"is_reserved":false,"is_disabled":false,"rental_uris":{"android":"levelo://app?vid=f4c3d49d-812f-4962-b911-1b013dbdd33d","ios":"levelo://app?vid=f4c3d49d-812f-4962-b911-1b013dbdd33d"},"vehicle_type_id":"4","last_reported":1747638658,"current_range_meters":8800,"station_id":"ce4bh692rcd13ifvqe90","pricing_plan_id":"cebpf4jnsgd1na2vs0mg"},{"bike_id":"6ee7001e-07ad-49d2-9902-4e2095457f59","system_id":"levelo_inurba_marseille","lat":43.2708,"lon":5.42281,"is_reserved":false,"is_disabled":false,"rental_uris":{"android":"levelo://app?vid=6ee7001e-07ad-49d2-9902-4e2095457f59","ios":"levelo://app?vid=6ee7001e-07ad-49d2-9902-4e2095457f59"},"vehicle_type_id":"4","last_reported":1747638658,"current_range_meters":8800,"station_id":"ce4bhk92rcd13ifvqgb0","pricing_plan_id":"cebpf4jnsgd1na2vs0mg"},{"bike_id":"7fe4927c-5754-4d2d-98e1-38c577e83eae","system_id":"levelo_inurba_marseille","lat":43.24076,"lon":5.37754,"is_reserved":false,"is_disabled":false,"rental_uris":{"android":"levelo://app?vid=7fe4927c-5754-4d2d-98e1-38c577e83eae","ios":"levelo://app?vid=7fe4927c-5754-4d2d-98e1-38c577e83eae"},"vehicle_type_id":"4","last_reported":1747638658,"current_range_meters":8800,"station_id":"ce4bhnp2rcd13ifvqgvg","pricing_plan_id":"cebpf4jnsgd1na2vs0mg"},{"bike_id":"e6b88a27-71bd-4dea-a96f-6290efbfefd4","system_id":"levelo_inurba_marseille","lat":43.26214,"lon":5.4045,"is_reserved":false,"is_disabled":false,"rental_uris":{"android":"levelo://app?vid=e6b88a27-71bd-4dea-a96f-6290efbfefd4","ios":"levelo://app?vid=e6b88a27-71bd-4dea-a96f-6290efbfefd4"},"vehicle_type_id":"4","last_reported":1747638658,"current_range_meters":9200,"station_id":"ce4bhmh2rcd13ifvqgmg","pricing_plan_id":"cebpf4jnsgd1na2vs0mg"},{"bike_id":"741153dc-5fa9-434a-af42-0af283dbbd1d","system_id":"levelo_inurba_marseille","lat":43.24087,"lon":5.37744,"is_reserved":false,"is_disabled":false,"rental_uris":{"android":"levelo://app?vid=741153dc-5fa9-434a-af42-0af283dbbd1d","ios":"levelo://app?vid=741153dc-5fa9-434a-af42-0af283dbbd1d"},"vehicle_type_id":"4","last_reported":1747638658,"current_range_meters":9200,"station_id":"ce4bhnp2rcd13ifvqgvg","pricing_plan_id":"cebpf4jnsgd1na2vs0mg"},{"bike_id":"bb463b8c-0c5e-4b89-a241-a019837c405b","system_id":"levelo_inurba_marseille","lat":43.3361,"lon":5.4103,"is_reserved":false,"is_disabled":false,"rental_uris":{"android":"levelo://app?vid=bb463b8c-0c5e-4b89-a241-a019837c405b","ios":"levelo://app?vid=bb463b8c-0c5e-4b89-a241-a019837c405b"},"vehicle_type_id":"4","last_reported":1747638658,"current_range_meters":9200,"station_id":"ce4bhqh2rcd13ifvqhmg","pricing_plan_id":"cebpf4jnsgd1na2vs0mg"},{"bike_id":"8790aa92-d211-47ba-937e-4002b2f75a68","system_id":"levelo_inurba_marseille","lat":43.30536,"lon":5.38446,"is_reserved":false,"is_disabled":false,"rental_uris":{"android":"levelo://app?vid=8790aa92-d211-47ba-937e-4002b2f75a68","ios":"levelo://app?vid=8790aa92-d211-47ba-937e-4002b2f75a68"},"vehicle_type_id":"4","last_reported":1747638658,"current_range_meters":10000,"station_id":"ce4bgg92rcd13ifvqb30","pricing_plan_id":"cebpf4jnsgd1na2vs0mg"},{"bike_id":"b691a1bc-feb9-4135-8978-1227121d34be","system_id":"levelo_inurba_marseille","lat":43.24068,"lon":5.37761,"is_reserved":false,"is_disabled":false,"rental_uris":{"android":"levelo://app?vid=b691a1bc-feb9-4135-8978-1227121d34be","ios":"levelo://app?vid=b691a1bc-feb9-4135-8978-1227121d34be"},"vehicle_type_id":"4","last_reported":1747638658,"current_range_meters":10000,"station_id":"ce4bhnp2rcd13ifvqgvg","pricing_plan_id":"cebpf4jnsgd1na2vs0mg"},{"bike_id":"12c4d802-2c6a-4c71-888e-000ffe312a3f","system_id":"levelo_inurba_marseille","lat":43.32369,"lon":5.36739,"is_reserved":false,"is_disabled":false,"rental_uris":{"android":"levelo://app?vid=12c4d802-2c6a-4c71-888e-000ffe312a3f","ios":"levelo://app?vid=12c4d802-2c6a-4c71-888e-000ffe312a3f"},"vehicle_type_id":"4","last_reported":1747638658,"current_range_meters":10000,"station_id":"ce4bhsh2rcd13ifvqi2g","pricing_plan_id":"cebpf4jnsgd1na2vs0mg"},{"bike_id":"cf0e6672-79f3-49bc-ae81-5a367314a352","system_id":"levelo_inurba_marseille","lat":43.3122,"lon":5.36855,"is_reserved":false,"is_disabled":false,"rental_uris":{"android":"levelo://app?vid=cf0e6672-79f3-49bc-ae81-5a367314a352","ios":"levelo://app?vid=cf0e6672-79f3-49bc-ae81-5a367314a352"},"vehicle_type_id":"4","last_reported":1747638658,"current_range_meters":10800,"station_id":"ce4bgl92rcd13ifvqbq0","pricing_plan_id":"cebpf4jnsgd1na2vs0mg"},{"bike_id":"b2d8cb22-bb08-445b-9edd-971005f2f520","system_id":"levelo_inurba_marseille","lat":43.30539,"lon":5.367,"is_reserved":false,"is_disabled":false,"rental_uris":{"android":"levelo://app?vid=b2d8cb22-bb08-445b-9edd-971005f2f520","ios":"levelo://app?vid=b2d8cb22-bb08-445b-9edd-971005f2f520"},"vehicle_type_id":"4","last_reported":1747638658,"current_range_meters":10800,"station_id":"ce4bgrp2rcd13ifvqc9g","pricing_plan_id":"cebpf4jnsgd1na2vs0mg"},{"bike_id":"eb0f4376-06d5-481a-8d28-a7fbd2c96f86","system_id":"levelo_inurba_marseille","lat":43.30549,"lon":5.36708,"is_reserved":false,"is_disabled":false,"rental_uris":{"android":"levelo://app?vid=eb0f4376-06d5-481a-8d28-a7fbd2c96f86","ios":"levelo://app?vid=eb0f4376-06d5-481a-8d28-a7fbd2c96f86"},"vehicle_type_id":"4","last_reported":1747638658,"current_range_meters":10800,"station_id":"ce4bgrp2rcd13ifvqc9g","pricing_plan_id":"cebpf4jnsgd1na2vs0mg"},{"bike_id":"b25c093b-58d3-42cc-b6b3-c89b07ed5fa1","system_id":"levelo_inurba_marseille","lat":43.305368,"lon":5.365564,"is_reserved":false,"is_disabled":false,"rental_uris":{"android":"levelo://app?vid=b25c093b-58d3-42cc-b6b3-c89b07ed5fa1","ios":"levelo://app?vid=b25c093b-58d3-42cc-b6b3-c89b07ed5fa1"},"vehicle_type_id":"4","last_reported":1747638658,"current_range_meters":10800,"station_id":"ce4bgs12rcd13ifvqcag","pricing_plan_id":"cebpf4jnsgd1na2vs0mg"},{"bike_id":"e472a7f3-1962-44a9-b366-ed0d4cb32e38","system_id":"levelo_inurba_marseille","lat":43.26231,"lon":5.404553,"is_reserved":false,"is_disabled":false,"rental_uris":{"android":"levelo://app?vid=e472a7f3-1962-44a9-b366-ed0d4cb32e38","ios":"levelo://app?vid=e472a7f3-1962-44a9-b366-ed0d4cb32e38"},"vehicle_type_id":"4","last_reported":1747638658,"current_range_meters":10800,"station_id":"ce4bhmh2rcd13ifvqgmg","pricing_plan_id":"cebpf4jnsgd1na2vs0mg"},{"bike_id":"6cd41407-766e-44cc-8d79-c53d9cdcf302","system_id":"levelo_inurba_marseille","lat":43.23145,"lon":5.43727,"is_reserved":false,"is_disabled":false,"rental_uris":{"android":"levelo://app?vid=6cd41407-766e-44cc-8d79-c53d9cdcf302","ios":"levelo://app?vid=6cd41407-766e-44cc-8d79-c53d9cdcf302"},"vehicle_type_id":"4","last_reported":1747638658,"current_range_meters":10800,"station_id":"ce4bhmp2rcd13ifvqgog","pricing_plan_id":"cebpf4jnsgd1na2vs0mg"},{"bike_id":"bf2b2bfb-9733-4bda-908d-03391ae976cc","system_id":"levelo_inurba_marseille","lat":43.31189,"lon":5.41602,"is_reserved":false,"is_disabled":false,"rental_uris":{"android":"levelo://app?vid=bf2b2bfb-9733-4bda-908d-03391ae976cc","ios":"levelo://app?vid=bf2b2bfb-9733-4bda-908d-03391ae976cc"},"vehicle_type_id":"4","last_reported":1747638658,"current_range_meters":11200,"station_id":"","pricing_plan_id":"cebpf4jnsgd1na2vs0mg"},{"bike_id":"06f0be29-7506-4961-93b8-d13e7d300c32","system_id":"levelo_inurba_marseille","lat":43.30127,"lon":5.37431,"is_reserved":false,"is_disabled":false,"rental_uris":{"android":"levelo://app?vid=06f0be29-7506-4961-93b8-d13e7d300c32","ios":"levelo://app?vid=06f0be29-7506-4961-93b8-d13e7d300c32"},"vehicle_type_id":"4","last_reported":1747638658,"current_range_meters":11200,"station_id":"ce4bgs92rcd13ifvqcc0","pricing_plan_id":"cebpf4jnsgd1na2vs0mg"},{"bike_id":"954f9a2f-3d92-4afe-8ccd-55ebda55dfe0","system_id":"levelo_inurba_marseille","lat":43.270745,"lon":5.422807,"is_reserved":false,"is_disabled":false,"rental_uris":{"android":"levelo://app?vid=954f9a2f-3d92-4afe-8ccd-55ebda55dfe0","ios":"levelo://app?vid=954f9a2f-3d92-4afe-8ccd-55ebda55dfe0"},"vehicle_type_id":"4","last_reported":1747638658,"current_range_meters":11200,"station_id":"ce4bhk92rcd13ifvqgb0","pricing_plan_id":"cebpf4jnsgd1na2vs0mg"},{"bike_id":"cb403e01-63af-4c90-8790-9db8dcaacd91","system_id":"levelo_inurba_marseille","lat":43.31351,"lon":5.36727,"is_reserved":false,"is_disabled":false,"rental_uris":{"android":"levelo://app?vid=cb403e01-63af-4c90-8790-9db8dcaacd91","ios":"levelo://app?vid=cb403e01-63af-4c90-8790-9db8dcaacd91"},"vehicle_type_id":"4","last_reported":1747638658,"current_range_meters":11600,"station_id":"ce4bgr92rcd13ifvqc6g","pricing_plan_id":"cebpf4jnsgd1na2vs0mg"},{"bike_id":"3ca34b46-4b9e-4b56-a126-096597cd005d","system_id":"levelo_inurba_marseille","lat":43.31344,"lon":5.36724,"is_reserved":false,"is_disabled":false,"rental_uris":{"android":"levelo://app?vid=3ca34b46-4b9e-4b56-a126-096597cd005d","ios":"levelo://app?vid=3ca34b46-4b9e-4b56-a126-096597cd005d"},"vehicle_type_id":"4","last_reported":1747638658,"current_range_meters":11600,"station_id":"ce4bgr92rcd13ifvqc6g","pricing_plan_id":"cebpf4jnsgd1na2vs0mg"},{"bike_id":"1251f3e6-f78a-418d-9e0a-7474b2b1d8ac","system_id":"levelo_inurba_marseille","lat":43.25937,"lon":5.409,"is_reserved":false,"is_disabled":false,"rental_uris":{"android":"levelo://app?vid=1251f3e6-f78a-418d-9e0a-7474b2b1d8ac","ios":"levelo://app?vid=1251f3e6-f78a-418d-9e0a-7474b2b1d8ac"},"vehicle_type_id":"4","last_reported":1747638658,"current_range_meters":11600,"station_id":"ce4bhm92rcd13ifvqglg","pricing_plan_id":"cebpf4jnsgd1na2vs0mg"},{"bike_id":"e2483e33-e22f-4969-8812-f7cdcc75c59a","system_id":"levelo_inurba_marseille","lat":43.32351,"lon":5.36773,"is_reserved":false,"is_disabled":false,"rental_uris":{"android":"levelo://app?vid=e2483e33-e22f-4969-8812-f7cdcc75c59a","ios":"levelo://app?vid=e2483e33-e22f-4969-8812-f7cdcc75c59a"},"vehicle_type_id":"4","last_reported":1747638658,"current_range_meters":11600,"station_id":"ce4bhsh2rcd13ifvqi2g","pricing_plan_id":"cebpf4jnsgd1na2vs0mg"},{"bike_id":"bcbdbd69-7be8-42f8-a855-a4358565de8f","system_id":"levelo_inurba_marseille","lat":43.27723,"lon":5.41384,"is_reserved":false,"is_disabled":false,"rental_uris":{"android":"levelo://app?vid=bcbdbd69-7be8-42f8-a855-a4358565de8f","ios":"levelo://app?vid=bcbdbd69-7be8-42f8-a855-a4358565de8f"},"vehicle_type_id":"4","last_reported":1747638658,"current_range_meters":12000,"station_id":"","pricing_plan_id":"cebpf4jnsgd1na2vs0mg"},{"bike_id":"30c41881-28c9-4165-a020-2f1129e4ee3c","system_id":"levelo_inurba_marseille","lat":43.23186,"lon":5.39984,"is_reserved":false,"is_disabled":false,"rental_uris":{"android":"levelo://app?vid=30c41881-28c9-4165-a020-2f1129e4ee3c","ios":"levelo://app?vid=30c41881-28c9-4165-a020-2f1129e4ee3c"},"vehicle_type_id":"4","last_reported":1747638658,"current_range_meters":12000,"station_id":"ce4bhn12rcd13ifvqgqg","pricing_plan_id":"cebpf4jnsgd1na2vs0mg"},{"bike_id":"62c57564-f0dd-44e4-b9fa-63bcc0f59fdc","system_id":"levelo_inurba_marseille","lat":43.33024,"lon":5.39035,"is_reserved":false,"is_disabled":false,"rental_uris":{"android":"levelo://app?vid=62c57564-f0dd-44e4-b9fa-63bcc0f59fdc","ios":"levelo://app?vid=62c57564-f0dd-44e4-b9fa-63bcc0f59fdc"},"vehicle_type_id":"4","last_reported":1747638658,"current_range_meters":12000,"station_id":"ce4bhr92rcd13ifvqhrg","pricing_plan_id":"cebpf4jnsgd1na2vs0mg"},{"bike_id":"a0ef91e8-eab4-4e92-9764-f8b59bed148c","system_id":"levelo_inurba_marseille","lat":43.31386,"lon":5.38445,"is_reserved":false,"is_disabled":false,"rental_uris":{"android":"levelo://app?vid=a0ef91e8-eab4-4e92-9764-f8b59bed148c","ios":"levelo://app?vid=a0ef91e8-eab4-4e92-9764-f8b59bed148c"},"vehicle_type_id":"4","last_reported":1747638658,"current_range_meters":12400,"station_id":"ce4bgt92rcd13ifvqcf0","pricing_plan_id":"cebpf4jnsgd1na2vs0mg"},{"bike_id":"54d2470c-98eb-4d24-a7f6-2fa6dab0e8b6","system_id":"levelo_inurba_marseille","lat":43.29249,"lon":5.4092,"is_reserved":false,"is_disabled":false,"rental_uris":{"android":"levelo://app?vid=54d2470c-98eb-4d24-a7f6-2fa6dab0e8b6","ios":"levelo://app?vid=54d2470c-98eb-4d24-a7f6-2fa6dab0e8b6"},"vehicle_type_id":"4","last_reported":1747638658,"current_range_meters":12400,"station_id":"ce4bh192rcd13ifvqdc0","pricing_plan_id":"cebpf4jnsgd1na2vs0mg"},{"bike_id":"2829c647-ef2c-47a2-b098-16b2519583d3","system_id":"levelo_inurba_marseille","lat":43.29028,"lon":5.37571,"is_reserved":false,"is_disabled":false,"rental_uris":{"android":"levelo://app?vid=2829c647-ef2c-47a2-b098-16b2519583d3","ios":"levelo://app?vid=2829c647-ef2c-47a2-b098-16b2519583d3"},"vehicle_type_id":"4","last_reported":1747638658,"current_range_meters":12400,"station_id":"ce4bh692rcd13ifvqe90","pricing_plan_id":"cebpf4jnsgd1na2vs0mg"},{"bike_id":"8c84c546-a5e0-446c-9310-121555d1b00b","system_id":"levelo_inurba_marseille","lat":43.25937,"lon":5.40901,"is_reserved":false,"is_disabled":false,"rental_uris":{"android":"levelo://app?vid=8c84c546-a5e0-446c-9310-121555d1b00b","ios":"levelo://app?vid=8c84c546-a5e0-446c-9310-121555d1b00b"},"vehicle_type_id":"4","last_reported":1747638658,"current_range_meters":12400,"station_id":"ce4bhm92rcd13ifvqglg","pricing_plan_id":"cebpf4jnsgd1na2vs0mg"},{"bike_id":"dd8adb64-65ce-4b41-b744-d6e3cb2e04ca","system_id":"levelo_inurba_marseille","lat":43.31219,"lon":5.36854,"is_reserved":false,"is_disabled":false,"rental_uris":{"android":"levelo://app?vid=dd8adb64-65ce-4b41-b744-d6e3cb2e04ca","ios":"levelo://app?vid=dd8adb64-65ce-4b41-b744-d6e3cb2e04ca"},"vehicle_type_id":"4","last_reported":1747638658,"current_range_meters":12800,"station_id":"","pricing_plan_id":"cebpf4jnsgd1na2vs0mg"},{"bike_id":"fba1abbc-eeec-4c66-81b5-a4ab1348e608","system_id":"levelo_inurba_marseille","lat":43.308946,"lon":5.371893,"is_reserved":false,"is_disabled":false,"rental_uris":{"android":"levelo://app?vid=fba1abbc-eeec-4c66-81b5-a4ab1348e608","ios":"levelo://app?vid=fba1abbc-eeec-4c66-81b5-a4ab1348e608"},"vehicle_type_id":"4","last_reported":1747638658,"current_range_meters":12800,"station_id":"ce4bguh2rcd13ifvqckg","pricing_plan_id":"cebpf4jnsgd1na2vs0mg"},{"bike_id":"3305b567-3c3d-4988-81e1-7900315fdac0","system_id":"levelo_inurba_marseille","lat":43.28849,"lon":5.39313,"is_reserved":false,"is_disabled":false,"rental_uris":{"android":"levelo://app?vid=3305b567-3c3d-4988-81e1-7900315fdac0","ios":"levelo://app?vid=3305b567-3c3d-4988-81e1-7900315fdac0"},"vehicle_type_id":"4","last_reported":1747638658,"current_range_meters":12800,"station_id":"ce4bh2p2rcd13ifvqdi0","pricing_plan_id":"cebpf4jnsgd1na2vs0mg"},{"bike_id":"3a3f5716-34f0-4cdd-86e6-b3490cf2daaa","system_id":"levelo_inurba_marseille","lat":43.24077,"lon":5.37757,"is_reserved":false,"is_disabled":false,"rental_uris":{"android":"levelo://app?vid=3a3f5716-34f0-4cdd-86e6-b3490cf2daaa","ios":"levelo://app?vid=3a3f5716-34f0-4cdd-86e6-b3490cf2daaa"},"vehicle_type_id":"4","last_reported":1747638658,"current_range_meters":12800,"station_id":"ce4bhnp2rcd13ifvqgvg","pricing_plan_id":"cebpf4jnsgd1na2vs0mg"},{"bike_id":"f2ace309-aafa-42d2-97dc-d25e300c83a2","system_id":"levelo_inurba_marseille","lat":43.29986,"lon":5.37182,"is_reserved":false,"is_disabled":false,"rental_uris":{"android":"levelo://app?vid=f2ace309-aafa-42d2-97dc-d25e300c83a2","ios":"levelo://app?vid=f2ace309-aafa-42d2-97dc-d25e300c83a2"},"vehicle_type_id":"4","last_reported":1747638658,"current_range_meters":13600,"station_id":"ce4bgr92rcd13ifvqc7g","pricing_plan_id":"cebpf4jnsgd1na2vs0mg"},{"bike_id":"e89e3f15-a7ff-46e6-9c26-0518e1a65252","system_id":"levelo_inurba_marseille","lat":43.31124,"lon":5.37762,"is_reserved":false,"is_disabled":false,"rental_uris":{"android":"levelo://app?vid=e89e3f15-a7ff-46e6-9c26-0518e1a65252","ios":"levelo://app?vid=e89e3f15-a7ff-46e6-9c26-0518e1a65252"},"vehicle_type_id":"4","last_reported":1747638658,"current_range_meters":13600,"station_id":"ce4bgt92rcd13ifvqcg0","pricing_plan_id":"cebpf4jnsgd1na2vs0mg"},{"bike_id":"b5a356f3-7627-4188-9abd-d82d7f2d45aa","system_id":"levelo_inurba_marseille","lat":43.245427,"lon":5.395214,"is_reserved":false,"is_disabled":false,"rental_uris":{"android":"levelo://app?vid=b5a356f3-7627-4188-9abd-d82d7f2d45aa","ios":"levelo://app?vid=b5a356f3-7627-4188-9abd-d82d7f2d45aa"},"vehicle_type_id":"4","last_reported":1747638658,"current_range_meters":13600,"station_id":"ce4bhlp2rcd13ifvqgjg","pricing_plan_id":"cebpf4jnsgd1na2vs0mg"},{"bike_id":"fba103a6-30ce-481c-a05a-9411e513bfcf","system_id":"levelo_inurba_marseille","lat":43.25898,"lon":5.40921,"is_reserved":false,"is_disabled":false,"rental_uris":{"android":"levelo://app?vid=fba103a6-30ce-481c-a05a-9411e513bfcf","ios":"levelo://app?vid=fba103a6-30ce-481c-a05a-9411e513bfcf"},"vehicle_type_id":"4","last_reported":1747638658,"current_range_meters":13600,"station_id":"ce4bhm92rcd13ifvqglg","pricing_plan_id":"cebpf4jnsgd1na2vs0mg"},{"bike_id":"41389e7c-6f3c-410d-88e7-f591b55a002a","system_id":"levelo_inurba_marseille","lat":43.24073,"lon":5.37751,"is_reserved":false,"is_disabled":false,"rental_uris":{"android":"levelo://app?vid=41389e7c-6f3c-410d-88e7-f591b55a002a","ios":"levelo://app?vid=41389e7c-6f3c-410d-88e7-f591b55a002a"},"vehicle_type_id":"4","last_reported":1747638658,"current_range_meters":13600,"station_id":"ce4bhnp2rcd13ifvqgvg","pricing_plan_id":"cebpf4jnsgd1na2vs0mg"},{"bike_id":"60c57e63-86f8-4f99-8932-0e795c3c4fc9","system_id":"levelo_inurba_marseille","lat":43.309459,"lon":5.390298,"is_reserved":false,"is_disabled":false,"rental_uris":{"android":"levelo://app?vid=60c57e63-86f8-4f99-8932-0e795c3c4fc9","ios":"levelo://app?vid=60c57e63-86f8-4f99-8932-0e795c3c4fc9"},"vehicle_type_id":"4","last_reported":1747638658,"current_range_meters":14000,"station_id":"ce4bgup2rcd13ifvqco0","pricing_plan_id":"cebpf4jnsgd1na2vs0mg"},{"bike_id":"7c288e5f-bf2e-426c-9424-762c5f2a6c72","system_id":"levelo_inurba_marseille","lat":43.29268,"lon":5.40059,"is_reserved":false,"is_disabled":false,"rental_uris":{"android":"levelo://app?vid=7c288e5f-bf2e-426c-9424-762c5f2a6c72","ios":"levelo://app?vid=7c288e5f-bf2e-426c-9424-762c5f2a6c72"},"vehicle_type_id":"4","last_reported":1747638658,"current_range_meters":14000,"station_id":"ce4bh312rcd13ifvqdk0","pricing_plan_id":"cebpf4jnsgd1na2vs0mg"},{"bike_id":"b57bf80e-47e7-4015-83b4-fed0d5114050","system_id":"levelo_inurba_marseille","lat":43.24806,"lon":5.37456,"is_reserved":false,"is_disabled":false,"rental_uris":{"android":"levelo://app?vid=b57bf80e-47e7-4015-83b4-fed0d5114050","ios":"levelo://app?vid=b57bf80e-47e7-4015-83b4-fed0d5114050"},"vehicle_type_id":"4","last_reported":1747638658,"current_range_meters":14000,"station_id":"ce4bhgh2rcd13ifvqfb0","pricing_plan_id":"cebpf4jnsgd1na2vs0mg"},{"bike_id":"e51ee2fa-d3b5-439f-a88d-da161182d059","system_id":"levelo_inurba_marseille","lat":43.32474,"lon":5.36564,"is_reserved":false,"is_disabled":false,"rental_uris":{"android":"levelo://app?vid=e51ee2fa-d3b5-439f-a88d-da161182d059","ios":"levelo://app?vid=e51ee2fa-d3b5-439f-a88d-da161182d059"},"vehicle_type_id":"4","last_reported":1747638658,"current_range_meters":14400,"station_id":"ce4bhs12rcd13ifvqhvg","pricing_plan_id":"cebpf4jnsgd1na2vs0mg"},{"bike_id":"bffbaf88-357a-4e87-a68c-a9a27a6e01e6","system_id":"levelo_inurba_marseille","lat":43.2623,"lon":5.42127,"is_reserved":false,"is_disabled":false,"rental_uris":{"android":"levelo://app?vid=bffbaf88-357a-4e87-a68c-a9a27a6e01e6","ios":"levelo://app?vid=bffbaf88-357a-4e87-a68c-a9a27a6e01e6"},"vehicle_type_id":"4","last_reported":1747638658,"current_range_meters":14800,"station_id":"","pricing_plan_id":"cebpf4jnsgd1na2vs0mg"},{"bike_id":"51dec999-0db6-457a-83a5-698a5871ea91","system_id":"levelo_inurba_marseille","lat":43.29292,"lon":5.37452,"is_reserved":false,"is_disabled":false,"rental_uris":{"android":"levelo://app?vid=51dec999-0db6-457a-83a5-698a5871ea91","ios":"levelo://app?vid=51dec999-0db6-457a-83a5-698a5871ea91"},"vehicle_type_id":"4","last_reported":1747638658,"current_range_meters":14800,"station_id":"ce4bgi12rcd13ifvqb70","pricing_plan_id":"cebpf4jnsgd1na2vs0mg"},{"bike_id":"b0413a50-a714-4a3e-8c7e-3341b60ac558","system_id":"levelo_inurba_marseille","lat":43.3171,"lon":5.37732,"is_reserved":false,"is_disabled":false,"rental_uris":{"android":"levelo://app?vid=b0413a50-a714-4a3e-8c7e-3341b60ac558","ios":"levelo://app?vid=b0413a50-a714-4a3e-8c7e-3341b60ac558"},"vehicle_type_id":"4","last_reported":1747638658,"current_range_meters":14800,"station_id":"ce4bgth2rcd13ifvqch0","pricing_plan_id":"cebpf4jnsgd1na2vs0mg"},{"bike_id":"2340bf9c-b398-4cd2-b775-f514870135d1","system_id":"levelo_inurba_marseille","lat":43.258213,"lon":5.394306,"is_reserved":false,"is_disabled":false,"rental_uris":{"android":"levelo://app?vid=2340bf9c-b398-4cd2-b775-f514870135d1","ios":"levelo://app?vid=2340bf9c-b398-4cd2-b775-f514870135d1"},"vehicle_type_id":"4","last_reported":1747638658,"current_range_meters":14800,"station_id":"ce4bhip2rcd13ifvqft0","pricing_plan_id":"cebpf4jnsgd1na2vs0mg"},{"bike_id":"30dcacef-5699-45d8-b221-b20468be7a24","system_id":"levelo_inurba_marseille","lat":43.25821,"lon":5.39436,"is_reserved":false,"is_disabled":false,"rental_uris":{"android":"levelo://app?vid=30dcacef-5699-45d8-b221-b20468be7a24","ios":"levelo://app?vid=30dcacef-5699-45d8-b221-b20468be7a24"},"vehicle_type_id":"4","last_reported":1747638658,"current_range_meters":14800,"station_id":"ce4bhip2rcd13ifvqft0","pricing_plan_id":"cebpf4jnsgd1na2vs0mg"},{"bike_id":"677ce4f0-2027-4faf-ad67-006be1ba409d","system_id":"levelo_inurba_marseille","lat":43.31718,"lon":5.43711,"is_reserved":false,"is_disabled":false,"rental_uris":{"android":"levelo://app?vid=677ce4f0-2027-4faf-ad67-006be1ba409d","ios":"levelo://app?vid=677ce4f0-2027-4faf-ad67-006be1ba409d"},"vehicle_type_id":"4","last_reported":1747638658,"current_range_meters":14800,"station_id":"ce4bhp92rcd13ifvqhcg","pricing_plan_id":"cebpf4jnsgd1na2vs0mg"},{"bike_id":"4d84e95c-d2af-4324-b46f-888d9bc5478f","system_id":"levelo_inurba_marseille","lat":43.312187,"lon":5.368653,"is_reserved":false,"is_disabled":false,"rental_uris":{"android":"levelo://app?vid=4d84e95c-d2af-4324-b46f-888d9bc5478f","ios":"levelo://app?vid=4d84e95c-d2af-4324-b46f-888d9bc5478f"},"vehicle_type_id":"4","last_reported":1747638658,"current_range_meters":15200,"station_id":"ce4bgl92rcd13ifvqbq0","pricing_plan_id":"cebpf4jnsgd1na2vs0mg"},{"bike_id":"293589fd-7658-4273-9fdd-35b57ad2d7ce","system_id":"levelo_inurba_marseille","lat":43.31354,"lon":5.36704,"is_reserved":false,"is_disabled":false,"rental_uris":{"android":"levelo://app?vid=293589fd-7658-4273-9fdd-35b57ad2d7ce","ios":"levelo://app?vid=293589fd-7658-4273-9fdd-35b57ad2d7ce"},"vehicle_type_id":"4","last_reported":1747638658,"current_range_meters":15200,"station_id":"ce4bgr92rcd13ifvqc6g","pricing_plan_id":"cebpf4jnsgd1na2vs0mg"},{"bike_id":"b5d5989e-d90d-4813-944b-d2eb90fda2de","system_id":"levelo_inurba_marseille","lat":43.33608,"lon":5.41028,"is_reserved":false,"is_disabled":false,"rental_uris":{"android":"levelo://app?vid=b5d5989e-d90d-4813-944b-d2eb90fda2de","ios":"levelo://app?vid=b5d5989e-d90d-4813-944b-d2eb90fda2de"},"vehicle_type_id":"4","last_reported":1747638658,"current_range_meters":15200,"station_id":"ce4bhqh2rcd13ifvqhmg","pricing_plan_id":"cebpf4jnsgd1na2vs0mg"},{"bike_id":"0ca1e4dc-ce4d-4d14-a524-f565de69ef95","system_id":"levelo_inurba_marseille","lat":43.26681,"lon":5.38265,"is_reserved":false,"is_disabled":false,"rental_uris":{"android":"levelo://app?vid=0ca1e4dc-ce4d-4d14-a524-f565de69ef95","ios":"levelo://app?vid=0ca1e4dc-ce4d-4d14-a524-f565de69ef95"},"vehicle_type_id":"4","last_reported":1747638658,"current_range_meters":16000,"station_id":"ce4bhg92rcd13ifvqf90","pricing_plan_id":"cebpf4jnsgd1na2vs0mg"},{"bike_id":"147f0919-b4f4-4da5-a06b-5f70c1438bc0","system_id":"levelo_inurba_marseille","lat":43.25944,"lon":5.40914,"is_reserved":false,"is_disabled":false,"rental_uris":{"android":"levelo://app?vid=147f0919-b4f4-4da5-a06b-5f70c1438bc0","ios":"levelo://app?vid=147f0919-b4f4-4da5-a06b-5f70c1438bc0"},"vehicle_type_id":"4","last_reported":1747638658,"current_range_meters":16000,"station_id":"ce4bhm92rcd13ifvqglg","pricing_plan_id":"cebpf4jnsgd1na2vs0mg"},{"bike_id":"eddc3e2f-204e-47a6-9d8f-809f554335b4","system_id":"levelo_inurba_marseille","lat":43.2408,"lon":5.37753,"is_reserved":false,"is_disabled":false,"rental_uris":{"android":"levelo://app?vid=eddc3e2f-204e-47a6-9d8f-809f554335b4","ios":"levelo://app?vid=eddc3e2f-204e-47a6-9d8f-809f554335b4"},"vehicle_type_id":"4","last_reported":1747638658,"current_range_meters":16000,"station_id":"ce4bhnp2rcd13ifvqgvg","pricing_plan_id":"cebpf4jnsgd1na2vs0mg"},{"bike_id":"9faf1773-08da-4d9f-8f7f-d37843cf2c54","system_id":"levelo_inurba_marseille","lat":43.24391,"lon":5.37061,"is_reserved":false,"is_disabled":false,"rental_uris":{"android":"levelo://app?vid=9faf1773-08da-4d9f-8f7f-d37843cf2c54","ios":"levelo://app?vid=9faf1773-08da-4d9f-8f7f-d37843cf2c54"},"vehicle_type_id":"4","last_reported":1747638658,"current_range_meters":16400,"station_id":"ce4bhhh2rcd13ifvqfk0","pricing_plan_id":"cebpf4jnsgd1na2vs0mg"},{"bike_id":"d70d3338-c3a9-43dd-9cdb-d021b57a970e","system_id":"levelo_inurba_marseille","lat":43.29269,"lon":5.37629,"is_reserved":false,"is_disabled":false,"rental_uris":{"android":"levelo://app?vid=d70d3338-c3a9-43dd-9cdb-d021b57a970e","ios":"levelo://app?vid=d70d3338-c3a9-43dd-9cdb-d021b57a970e"},"vehicle_type_id":"4","last_reported":1747638658,"current_range_meters":16800,"station_id":"ce4bgi12rcd13ifvqb80","pricing_plan_id":"cebpf4jnsgd1na2vs0mg"},{"bike_id":"00f23d5d-2887-4639-bc77-ff4127b81981","system_id":"levelo_inurba_marseille","lat":43.29844,"lon":5.36262,"is_reserved":false,"is_disabled":false,"rental_uris":{"android":"levelo://app?vid=00f23d5d-2887-4639-bc77-ff4127b81981","ios":"levelo://app?vid=00f23d5d-2887-4639-bc77-ff4127b81981"},"vehicle_type_id":"4","last_reported":1747638658,"current_range_meters":16800,"station_id":"ce4bgpp2rcd13ifvqc3g","pricing_plan_id":"cebpf4jnsgd1na2vs0mg"},{"bike_id":"f4170fd5-a6e5-41cb-ae41-3f7d837ec3b6","system_id":"levelo_inurba_marseille","lat":43.30563,"lon":5.36714,"is_reserved":false,"is_disabled":false,"rental_uris":{"android":"levelo://app?vid=f4170fd5-a6e5-41cb-ae41-3f7d837ec3b6","ios":"levelo://app?vid=f4170fd5-a6e5-41cb-ae41-3f7d837ec3b6"},"vehicle_type_id":"4","last_reported":1747638658,"current_range_meters":16800,"station_id":"ce4bgrp2rcd13ifvqc9g","pricing_plan_id":"cebpf4jnsgd1na2vs0mg"},{"bike_id":"114a9c8d-8e86-4467-a4ee-f2cd4cd1f088","system_id":"levelo_inurba_marseille","lat":43.30552,"lon":5.36533,"is_reserved":false,"is_disabled":false,"rental_uris":{"android":"levelo://app?vid=114a9c8d-8e86-4467-a4ee-f2cd4cd1f088","ios":"levelo://app?vid=114a9c8d-8e86-4467-a4ee-f2cd4cd1f088"},"vehicle_type_id":"4","last_reported":1747638658,"current_range_meters":16800,"station_id":"ce4bgs12rcd13ifvqcag","pricing_plan_id":"cebpf4jnsgd1na2vs0mg"},{"bike_id":"a95dc9f2-e987-4ba1-9092-605b2bf4dbcc","system_id":"levelo_inurba_marseille","lat":43.31478,"lon":5.37304,"is_reserved":false,"is_disabled":false,"rental_uris":{"android":"levelo://app?vid=a95dc9f2-e987-4ba1-9092-605b2bf4dbcc","ios":"levelo://app?vid=a95dc9f2-e987-4ba1-9092-605b2bf4dbcc"},"vehicle_type_id":"4","last_reported":1747638658,"current_range_meters":16800,"station_id":"ce4bgt12rcd13ifvqcd0","pricing_plan_id":"cebpf4jnsgd1na2vs0mg"},{"bike_id":"3f06f4e0-4114-4fa9-a354-f0971e5642ce","system_id":"levelo_inurba_marseille","lat":43.30894,"lon":5.37185,"is_reserved":false,"is_disabled":false,"rental_uris":{"android":"levelo://app?vid=3f06f4e0-4114-4fa9-a354-f0971e5642ce","ios":"levelo://app?vid=3f06f4e0-4114-4fa9-a354-f0971e5642ce"},"vehicle_type_id":"4","last_reported":1747638658,"current_range_meters":16800,"station_id":"ce4bguh2rcd13ifvqckg","pricing_plan_id":"cebpf4jnsgd1na2vs0mg"},{"bike_id":"1f71d4be-d5a3-43b7-b78a-94cbd137d221","system_id":"levelo_inurba_marseille","lat":43.24991,"lon":5.38928,"is_reserved":false,"is_disabled":false,"rental_uris":{"android":"levelo://app?vid=1f71d4be-d5a3-43b7-b78a-94cbd137d221","ios":"levelo://app?vid=1f71d4be-d5a3-43b7-b78a-94cbd137d221"},"vehicle_type_id":"4","last_reported":1747638658,"current_range_meters":16800,"station_id":"ce4bhgp2rcd13ifvqfd0","pricing_plan_id":"cebpf4jnsgd1na2vs0mg"},{"bike_id":"2d6fffec-3908-43c5-8106-411a216a22b9","system_id":"levelo_inurba_marseille","lat":43.26795,"lon":5.39409,"is_reserved":false,"is_disabled":false,"rental_uris":{"android":"levelo://app?vid=2d6fffec-3908-43c5-8106-411a216a22b9","ios":"levelo://app?vid=2d6fffec-3908-43c5-8106-411a216a22b9"},"vehicle_type_id":"4","last_reported":1747638658,"current_range_meters":16800,"station_id":"ce4bhh12rcd13ifvqfg0","pricing_plan_id":"cebpf4jnsgd1na2vs0mg"},{"bike_id":"a7f7c69f-8e30-4ab1-b0ad-53d7a45c0a15","system_id":"levelo_inurba_marseille","lat":43.24408,"lon":5.370633,"is_reserved":false,"is_disabled":false,"rental_uris":{"android":"levelo://app?vid=a7f7c69f-8e30-4ab1-b0ad-53d7a45c0a15","ios":"levelo://app?vid=a7f7c69f-8e30-4ab1-b0ad-53d7a45c0a15"},"vehicle_type_id":"4","last_reported":1747638658,"current_range_meters":16800,"station_id":"ce4bhhh2rcd13ifvqfk0","pricing_plan_id":"cebpf4jnsgd1na2vs0mg"},{"bike_id":"e8162579-a5ad-485f-ad83-fec8a2ebe7e1","system_id":"levelo_inurba_marseille","lat":43.26826,"lon":5.39099,"is_reserved":false,"is_disabled":false,"rental_uris":{"android":"levelo://app?vid=e8162579-a5ad-485f-ad83-fec8a2ebe7e1","ios":"levelo://app?vid=e8162579-a5ad-485f-ad83-fec8a2ebe7e1"},"vehicle_type_id":"4","last_reported":1747638658,"current_range_meters":17200,"station_id":"","pricing_plan_id":"cebpf4jnsgd1na2vs0mg"},{"bike_id":"65b05e62-1155-47a7-b5a7-3d8242137a17","system_id":"levelo_inurba_marseille","lat":43.30541,"lon":5.36704,"is_reserved":false,"is_disabled":false,"rental_uris":{"android":"levelo://app?vid=65b05e62-1155-47a7-b5a7-3d8242137a17","ios":"levelo://app?vid=65b05e62-1155-47a7-b5a7-3d8242137a17"},"vehicle_type_id":"4","last_reported":1747638658,"current_range_meters":17200,"station_id":"ce4bgrp2rcd13ifvqc9g","pricing_plan_id":"cebpf4jnsgd1na2vs0mg"},{"bike_id":"18e5fb47-02bf-493c-868f-92fed2587689","system_id":"levelo_inurba_marseille","lat":43.27071,"lon":5.42271,"is_reserved":false,"is_disabled":false,"rental_uris":{"android":"levelo://app?vid=18e5fb47-02bf-493c-868f-92fed2587689","ios":"levelo://app?vid=18e5fb47-02bf-493c-868f-92fed2587689"},"vehicle_type_id":"4","last_reported":1747638658,"current_range_meters":17200,"station_id":"ce4bhk92rcd13ifvqgb0","pricing_plan_id":"cebpf4jnsgd1na2vs0mg"},{"bike_id":"71031d0e-2ac2-4ec7-b0c7-df31a0a04af4","system_id":"levelo_inurba_marseille","lat":43.24074,"lon":5.37755,"is_reserved":false,"is_disabled":false,"rental_uris":{"android":"levelo://app?vid=71031d0e-2ac2-4ec7-b0c7-df31a0a04af4","ios":"levelo://app?vid=71031d0e-2ac2-4ec7-b0c7-df31a0a04af4"},"vehicle_type_id":"4","last_reported":1747638658,"current_range_meters":17200,"station_id":"ce4bhnp2rcd13ifvqgvg","pricing_plan_id":"cebpf4jnsgd1na2vs0mg"},{"bike_id":"1844f55d-0b4f-4ef0-bf3a-b0b9b8d26988","system_id":"levelo_inurba_marseille","lat":43.32478,"lon":5.36569,"is_reserved":false,"is_disabled":false,"rental_uris":{"android":"levelo://app?vid=1844f55d-0b4f-4ef0-bf3a-b0b9b8d26988","ios":"levelo://app?vid=1844f55d-0b4f-4ef0-bf3a-b0b9b8d26988"},"vehicle_type_id":"4","last_reported":1747638658,"current_range_meters":17200,"station_id":"ce4bhs12rcd13ifvqhvg","pricing_plan_id":"cebpf4jnsgd1na2vs0mg"},{"bike_id":"28f45564-465a-406a-9f7f-ac04ecf5329b","system_id":"levelo_inurba_marseille","lat":43.32481,"lon":5.36566,"is_reserved":false,"is_disabled":false,"rental_uris":{"android":"levelo://app?vid=28f45564-465a-406a-9f7f-ac04ecf5329b","ios":"levelo://app?vid=28f45564-465a-406a-9f7f-ac04ecf5329b"},"vehicle_type_id":"4","last_reported":1747638658,"current_range_meters":17200,"station_id":"ce4bhs12rcd13ifvqhvg","pricing_plan_id":"cebpf4jnsgd1na2vs0mg"},{"bike_id":"0f5c92df-9eb3-43f2-ab31-5fe4585d1334","system_id":"levelo_inurba_marseille","lat":43.33768,"lon":5.37438,"is_reserved":false,"is_disabled":false,"rental_uris":{"android":"levelo://app?vid=0f5c92df-9eb3-43f2-ab31-5fe4585d1334","ios":"levelo://app?vid=0f5c92df-9eb3-43f2-ab31-5fe4585d1334"},"vehicle_type_id":"4","last_reported":1747638658,"current_range_meters":17600,"station_id":"","pricing_plan_id":"cebpf4jnsgd1na2vs0mg"},{"bike_id":"99d624d1-b838-4730-a163-41f258a0b11e","system_id":"levelo_inurba_marseille","lat":43.3119,"lon":5.36832,"is_reserved":false,"is_disabled":false,"rental_uris":{"android":"levelo://app?vid=99d624d1-b838-4730-a163-41f258a0b11e","ios":"levelo://app?vid=99d624d1-b838-4730-a163-41f258a0b11e"},"vehicle_type_id":"4","last_reported":1747638658,"current_range_meters":17600,"station_id":"ce4bgl92rcd13ifvqbq0","pricing_plan_id":"cebpf4jnsgd1na2vs0mg"},{"bike_id":"856e1621-6ab6-41f8-b3bb-25a2d12d9b9f","system_id":"levelo_inurba_marseille","lat":43.31219,"lon":5.36859,"is_reserved":false,"is_disabled":false,"rental_uris":{"android":"levelo://app?vid=856e1621-6ab6-41f8-b3bb-25a2d12d9b9f","ios":"levelo://app?vid=856e1621-6ab6-41f8-b3bb-25a2d12d9b9f"},"vehicle_type_id":"4","last_reported":1747638658,"current_range_meters":17600,"station_id":"ce4bgl92rcd13ifvqbq0","pricing_plan_id":"cebpf4jnsgd1na2vs0mg"},{"bike_id":"f938a21a-8cf8-47c5-b277-896f5edda2da","system_id":"levelo_inurba_marseille","lat":43.29026,"lon":5.38646,"is_reserved":false,"is_disabled":false,"rental_uris":{"android":"levelo://app?vid=f938a21a-8cf8-47c5-b277-896f5edda2da","ios":"levelo://app?vid=f938a21a-8cf8-47c5-b277-896f5edda2da"},"vehicle_type_id":"4","last_reported":1747638658,"current_range_meters":17600,"station_id":"ce4bh4p2rcd13ifvqe0g","pricing_plan_id":"cebpf4jnsgd1na2vs0mg"},{"bike_id":"7d5d58cf-8fc3-40a6-9ca3-51059ce4bf3b","system_id":"levelo_inurba_marseille","lat":43.29039,"lon":5.37567,"is_reserved":false,"is_disabled":false,"rental_uris":{"android":"levelo://app?vid=7d5d58cf-8fc3-40a6-9ca3-51059ce4bf3b","ios":"levelo://app?vid=7d5d58cf-8fc3-40a6-9ca3-51059ce4bf3b"},"vehicle_type_id":"4","last_reported":1747638658,"current_range_meters":17600,"station_id":"ce4bh692rcd13ifvqe90","pricing_plan_id":"cebpf4jnsgd1na2vs0mg"},{"bike_id":"931d35d6-d49d-49e7-adbf-a8b873a6d887","system_id":"levelo_inurba_marseille","lat":43.23965,"lon":5.36625,"is_reserved":false,"is_disabled":false,"rental_uris":{"android":"levelo://app?vid=931d35d6-d49d-49e7-adbf-a8b873a6d887","ios":"levelo://app?vid=931d35d6-d49d-49e7-adbf-a8b873a6d887"},"vehicle_type_id":"4","last_reported":1747638658,"current_range_meters":17600,"station_id":"ce4bhi12rcd13ifvqfp0","pricing_plan_id":"cebpf4jnsgd1na2vs0mg"},{"bike_id":"47e833c7-b34c-476b-bfe7-81bdb4db04e4","system_id":"levelo_inurba_marseille","lat":43.25938,"lon":5.40888,"is_reserved":false,"is_disabled":false,"rental_uris":{"android":"levelo://app?vid=47e833c7-b34c-476b-bfe7-81bdb4db04e4","ios":"levelo://app?vid=47e833c7-b34c-476b-bfe7-81bdb4db04e4"},"vehicle_type_id":"4","last_reported":1747638658,"current_range_meters":17600,"station_id":"ce4bhm92rcd13ifvqglg","pricing_plan_id":"cebpf4jnsgd1na2vs0mg"},{"bike_id":"ab7d1ddb-c6ab-4c47-831b-69e06fb8bb1b","system_id":"levelo_inurba_marseille","lat":43.21749,"lon":5.34635,"is_reserved":false,"is_disabled":false,"rental_uris":{"android":"levelo://app?vid=ab7d1ddb-c6ab-4c47-831b-69e06fb8bb1b","ios":"levelo://app?vid=ab7d1ddb-c6ab-4c47-831b-69e06fb8bb1b"},"vehicle_type_id":"4","last_reported":1747638658,"current_range_meters":17600,"station_id":"st_cvj6r9ubvosntc0bgbag","pricing_plan_id":"cebpf4jnsgd1na2vs0mg"},{"bike_id":"3552fbf2-b43a-446f-93f5-d695fc251b73","system_id":"levelo_inurba_marseille","lat":43.25173,"lon":5.37524,"is_reserved":false,"is_disabled":false,"rental_uris":{"android":"levelo://app?vid=3552fbf2-b43a-446f-93f5-d695fc251b73","ios":"levelo://app?vid=3552fbf2-b43a-446f-93f5-d695fc251b73"},"vehicle_type_id":"4","last_reported":1747638658,"current_range_meters":18000,"station_id":"","pricing_plan_id":"cebpf4jnsgd1na2vs0mg"},{"bike_id":"5738bfd3-f4dd-4a4b-bee5-9143fc7eea06","system_id":"levelo_inurba_marseille","lat":43.299675,"lon":5.37125,"is_reserved":false,"is_disabled":false,"rental_uris":{"android":"levelo://app?vid=5738bfd3-f4dd-4a4b-bee5-9143fc7eea06","ios":"levelo://app?vid=5738bfd3-f4dd-4a4b-bee5-9143fc7eea06"},"vehicle_type_id":"4","last_reported":1747638658,"current_range_meters":18000,"station_id":"ce4bgn92rcd13ifvqbvg","pricing_plan_id":"cebpf4jnsgd1na2vs0mg"},{"bike_id":"3f7fe803-6821-4217-89f8-fc9b77e464f6","system_id":"levelo_inurba_marseille","lat":43.31342,"lon":5.36712,"is_reserved":false,"is_disabled":false,"rental_uris":{"android":"levelo://app?vid=3f7fe803-6821-4217-89f8-fc9b77e464f6","ios":"levelo://app?vid=3f7fe803-6821-4217-89f8-fc9b77e464f6"},"vehicle_type_id":"4","last_reported":1747638658,"current_range_meters":18000,"station_id":"ce4bgr92rcd13ifvqc6g","pricing_plan_id":"cebpf4jnsgd1na2vs0mg"},{"bike_id":"aceaf757-4a78-4085-92c4-db3b6447892d","system_id":"levelo_inurba_marseille","lat":43.31688,"lon":5.40479,"is_reserved":false,"is_disabled":false,"rental_uris":{"android":"levelo://app?vid=aceaf757-4a78-4085-92c4-db3b6447892d","ios":"levelo://app?vid=aceaf757-4a78-4085-92c4-db3b6447892d"},"vehicle_type_id":"4","last_reported":1747638658,"current_range_meters":18000,"station_id":"ce4bh012rcd13ifvqd00","pricing_plan_id":"cebpf4jnsgd1na2vs0mg"},{"bike_id":"760dbf51-ab65-4afe-8445-0fae134a0f99","system_id":"levelo_inurba_marseille","lat":43.24999,"lon":5.38936,"is_reserved":false,"is_disabled":false,"rental_uris":{"android":"levelo://app?vid=760dbf51-ab65-4afe-8445-0fae134a0f99","ios":"levelo://app?vid=760dbf51-ab65-4afe-8445-0fae134a0f99"},"vehicle_type_id":"4","last_reported":1747638658,"current_range_meters":18000,"station_id":"ce4bhgp2rcd13ifvqfd0","pricing_plan_id":"cebpf4jnsgd1na2vs0mg"},{"bike_id":"53882ed9-e061-4498-98dc-917b66609f40","system_id":"levelo_inurba_marseille","lat":43.25932,"lon":5.40902,"is_reserved":false,"is_disabled":false,"rental_uris":{"android":"levelo://app?vid=53882ed9-e061-4498-98dc-917b66609f40","ios":"levelo://app?vid=53882ed9-e061-4498-98dc-917b66609f40"},"vehicle_type_id":"4","last_reported":1747638658,"current_range_meters":18000,"station_id":"ce4bhm92rcd13ifvqglg","pricing_plan_id":"cebpf4jnsgd1na2vs0mg"},{"bike_id":"74788612-3952-4b9a-a123-149108f01c51","system_id":"levelo_inurba_marseille","lat":43.32539,"lon":5.41423,"is_reserved":false,"is_disabled":false,"rental_uris":{"android":"levelo://app?vid=74788612-3952-4b9a-a123-149108f01c51","ios":"levelo://app?vid=74788612-3952-4b9a-a123-149108f01c51"},"vehicle_type_id":"4","last_reported":1747638658,"current_range_meters":18000,"station_id":"ce4bhq12rcd13ifvqhhg","pricing_plan_id":"cebpf4jnsgd1na2vs0mg"},{"bike_id":"f198f61c-140a-45ab-9df5-fbdfbf1e2560","system_id":"levelo_inurba_marseille","lat":43.31988,"lon":5.38149,"is_reserved":false,"is_disabled":false,"rental_uris":{"android":"levelo://app?vid=f198f61c-140a-45ab-9df5-fbdfbf1e2560","ios":"levelo://app?vid=f198f61c-140a-45ab-9df5-fbdfbf1e2560"},"vehicle_type_id":"4","last_reported":1747638658,"current_range_meters":18000,"station_id":"ce4bhr12rcd13ifvqhpg","pricing_plan_id":"cebpf4jnsgd1na2vs0mg"},{"bike_id":"e2e3a6f6-0f08-4185-b27b-75bc9500a96d","system_id":"levelo_inurba_marseille","lat":43.211947,"lon":5.350753,"is_reserved":false,"is_disabled":false,"rental_uris":{"android":"levelo://app?vid=e2e3a6f6-0f08-4185-b27b-75bc9500a96d","ios":"levelo://app?vid=e2e3a6f6-0f08-4185-b27b-75bc9500a96d"},"vehicle_type_id":"4","last_reported":1747638658,"current_range_meters":18000,"station_id":"st_cvj6sg6p6f1abm77japg","pricing_plan_id":"cebpf4jnsgd1na2vs0mg"},{"bike_id":"4a51e65e-9e60-4ac6-b9b5-6d609ea56f44","system_id":"levelo_inurba_marseille","lat":43.29266,"lon":5.37628,"is_reserved":false,"is_disabled":false,"rental_uris":{"android":"levelo://app?vid=4a51e65e-9e60-4ac6-b9b5-6d609ea56f44","ios":"levelo://app?vid=4a51e65e-9e60-4ac6-b9b5-6d609ea56f44"},"vehicle_type_id":"4","last_reported":1747638658,"current_range_meters":18800,"station_id":"ce4bgi12rcd13ifvqb80","pricing_plan_id":"cebpf4jnsgd1na2vs0mg"},{"bike_id":"068d69a9-ad77-4ab6-af51-216ffdd78f59","system_id":"levelo_inurba_marseille","lat":43.29286,"lon":5.40173,"is_reserved":false,"is_disabled":false,"rental_uris":{"android":"levelo://app?vid=068d69a9-ad77-4ab6-af51-216ffdd78f59","ios":"levelo://app?vid=068d69a9-ad77-4ab6-af51-216ffdd78f59"},"vehicle_type_id":"4","last_reported":1747638658,"current_range_meters":18800,"station_id":"ce4bh312rcd13ifvqdk0","pricing_plan_id":"cebpf4jnsgd1na2vs0mg"},{"bike_id":"027b0274-185f-4197-9a6c-2e9d81abe256","system_id":"levelo_inurba_marseille","lat":43.28727,"lon":5.37928,"is_reserved":false,"is_disabled":false,"rental_uris":{"android":"levelo://app?vid=027b0274-185f-4197-9a6c-2e9d81abe256","ios":"levelo://app?vid=027b0274-185f-4197-9a6c-2e9d81abe256"},"vehicle_type_id":"4","last_reported":1747638658,"current_range_meters":18800,"station_id":"ce4bh9p2rcd13ifvqec0","pricing_plan_id":"cebpf4jnsgd1na2vs0mg"},{"bike_id":"9bf89986-119f-447e-a47d-1f9e338498d3","system_id":"levelo_inurba_marseille","lat":43.26954,"lon":5.38634,"is_reserved":false,"is_disabled":false,"rental_uris":{"android":"levelo://app?vid=9bf89986-119f-447e-a47d-1f9e338498d3","ios":"levelo://app?vid=9bf89986-119f-447e-a47d-1f9e338498d3"},"vehicle_type_id":"4","last_reported":1747638658,"current_range_meters":18800,"station_id":"ce4bhh92rcd13ifvqfh0","pricing_plan_id":"cebpf4jnsgd1na2vs0mg"},{"bike_id":"0edb901f-3244-4b67-900a-6815e862ab5f","system_id":"levelo_inurba_marseille","lat":43.27493,"lon":5.42448,"is_reserved":false,"is_disabled":false,"rental_uris":{"android":"levelo://app?vid=0edb901f-3244-4b67-900a-6815e862ab5f","ios":"levelo://app?vid=0edb901f-3244-4b67-900a-6815e862ab5f"},"vehicle_type_id":"4","last_reported":1747638658,"current_range_meters":18800,"station_id":"ce4bhn92rcd13ifvqgrg","pricing_plan_id":"cebpf4jnsgd1na2vs0mg"},{"bike_id":"0aa93a17-2c67-4401-bc28-11d2158b34f7","system_id":"levelo_inurba_marseille","lat":43.24072,"lon":5.37782,"is_reserved":false,"is_disabled":false,"rental_uris":{"android":"levelo://app?vid=0aa93a17-2c67-4401-bc28-11d2158b34f7","ios":"levelo://app?vid=0aa93a17-2c67-4401-bc28-11d2158b34f7"},"vehicle_type_id":"4","last_reported":1747638658,"current_range_meters":18800,"station_id":"ce4bhnp2rcd13ifvqgvg","pricing_plan_id":"cebpf4jnsgd1na2vs0mg"},{"bike_id":"32aba18c-72a6-4bf1-90ad-26487c06fc00","system_id":"levelo_inurba_marseille","lat":43.279893,"lon":5.400016,"is_reserved":false,"is_disabled":false,"rental_uris":{"android":"levelo://app?vid=32aba18c-72a6-4bf1-90ad-26487c06fc00","ios":"levelo://app?vid=32aba18c-72a6-4bf1-90ad-26487c06fc00"},"vehicle_type_id":"4","last_reported":1747638658,"current_range_meters":18800,"station_id":"ce4bho92rcd13ifvqh4g","pricing_plan_id":"cebpf4jnsgd1na2vs0mg"},{"bike_id":"a3f863b3-3ca2-4b41-9205-f47c03671c4a","system_id":"levelo_inurba_marseille","lat":43.29022,"lon":5.38131,"is_reserved":false,"is_disabled":false,"rental_uris":{"android":"levelo://app?vid=a3f863b3-3ca2-4b41-9205-f47c03671c4a","ios":"levelo://app?vid=a3f863b3-3ca2-4b41-9205-f47c03671c4a"},"vehicle_type_id":"4","last_reported":1747638658,"current_range_meters":19200,"station_id":"ce4bh4p2rcd13ifvqe1g","pricing_plan_id":"cebpf4jnsgd1na2vs0mg"},{"bike_id":"85d0eee4-7023-4816-8341-7b198d182543","system_id":"levelo_inurba_marseille","lat":43.25951,"lon":5.40862,"is_reserved":false,"is_disabled":false,"rental_uris":{"android":"levelo://app?vid=85d0eee4-7023-4816-8341-7b198d182543","ios":"levelo://app?vid=85d0eee4-7023-4816-8341-7b198d182543"},"vehicle_type_id":"4","last_reported":1747638658,"current_range_meters":19200,"station_id":"ce4bhm92rcd13ifvqglg","pricing_plan_id":"cebpf4jnsgd1na2vs0mg"},{"bike_id":"10788c96-5545-4832-aa2b-738902858d22","system_id":"levelo_inurba_marseille","lat":43.32367,"lon":5.38886,"is_reserved":false,"is_disabled":false,"rental_uris":{"android":"levelo://app?vid=10788c96-5545-4832-aa2b-738902858d22","ios":"levelo://app?vid=10788c96-5545-4832-aa2b-738902858d22"},"vehicle_type_id":"4","last_reported":1747638658,"current_range_meters":19200,"station_id":"ce4bhqp2rcd13ifvqhog","pricing_plan_id":"cebpf4jnsgd1na2vs0mg"},{"bike_id":"7ba1b4a6-db74-4c76-ac29-93dad132d73c","system_id":"levelo_inurba_marseille","lat":43.30786,"lon":5.37081,"is_reserved":false,"is_disabled":false,"rental_uris":{"android":"levelo://app?vid=7ba1b4a6-db74-4c76-ac29-93dad132d73c","ios":"levelo://app?vid=7ba1b4a6-db74-4c76-ac29-93dad132d73c"},"vehicle_type_id":"4","last_reported":1747638658,"current_range_meters":19600,"station_id":"","pricing_plan_id":"cebpf4jnsgd1na2vs0mg"},{"bike_id":"a3a8b2b4-674c-4431-bc60-a133dfa613b2","system_id":"levelo_inurba_marseille","lat":43.31349,"lon":5.36733,"is_reserved":false,"is_disabled":false,"rental_uris":{"android":"levelo://app?vid=a3a8b2b4-674c-4431-bc60-a133dfa613b2","ios":"levelo://app?vid=a3a8b2b4-674c-4431-bc60-a133dfa613b2"},"vehicle_type_id":"4","last_reported":1747638658,"current_range_meters":19600,"station_id":"ce4bgr92rcd13ifvqc6g","pricing_plan_id":"cebpf4jnsgd1na2vs0mg"},{"bike_id":"a162cffd-ee20-4551-903b-8d20a74c4973","system_id":"levelo_inurba_marseille","lat":43.30557,"lon":5.36695,"is_reserved":false,"is_disabled":false,"rental_uris":{"android":"levelo://app?vid=a162cffd-ee20-4551-903b-8d20a74c4973","ios":"levelo://app?vid=a162cffd-ee20-4551-903b-8d20a74c4973"},"vehicle_type_id":"4","last_reported":1747638658,"current_range_meters":19600,"station_id":"ce4bgrp2rcd13ifvqc9g","pricing_plan_id":"cebpf4jnsgd1na2vs0mg"},{"bike_id":"8675cc91-343d-4f04-a5ab-d440461b07f3","system_id":"levelo_inurba_marseille","lat":43.25928,"lon":5.40881,"is_reserved":false,"is_disabled":false,"rental_uris":{"android":"levelo://app?vid=8675cc91-343d-4f04-a5ab-d440461b07f3","ios":"levelo://app?vid=8675cc91-343d-4f04-a5ab-d440461b07f3"},"vehicle_type_id":"4","last_reported":1747638658,"current_range_meters":19600,"station_id":"ce4bhm92rcd13ifvqglg","pricing_plan_id":"cebpf4jnsgd1na2vs0mg"},{"bike_id":"047b03cc-eabc-4079-9461-5dea409ecfb2","system_id":"levelo_inurba_marseille","lat":43.27617,"lon":5.36106,"is_reserved":false,"is_disabled":false,"rental_uris":{"android":"levelo://app?vid=047b03cc-eabc-4079-9461-5dea409ecfb2","ios":"levelo://app?vid=047b03cc-eabc-4079-9461-5dea409ecfb2"},"vehicle_type_id":"4","last_reported":1747638658,"current_range_meters":20000,"station_id":"ce4bgj92rcd13ifvqbe0","pricing_plan_id":"cebpf4jnsgd1na2vs0mg"},{"bike_id":"96e9a04a-8b66-4df8-983d-02a1df413d24","system_id":"levelo_inurba_marseille","lat":43.31222,"lon":5.36846,"is_reserved":false,"is_disabled":false,"rental_uris":{"android":"levelo://app?vid=96e9a04a-8b66-4df8-983d-02a1df413d24","ios":"levelo://app?vid=96e9a04a-8b66-4df8-983d-02a1df413d24"},"vehicle_type_id":"4","last_reported":1747638658,"current_range_meters":20000,"station_id":"ce4bgl92rcd13ifvqbq0","pricing_plan_id":"cebpf4jnsgd1na2vs0mg"},{"bike_id":"34a8aac4-177e-4c9a-9a78-2da2725789b4","system_id":"levelo_inurba_marseille","lat":43.30951,"lon":5.39034,"is_reserved":false,"is_disabled":false,"rental_uris":{"android":"levelo://app?vid=34a8aac4-177e-4c9a-9a78-2da2725789b4","ios":"levelo://app?vid=34a8aac4-177e-4c9a-9a78-2da2725789b4"},"vehicle_type_id":"4","last_reported":1747638658,"current_range_meters":20000,"station_id":"ce4bgup2rcd13ifvqco0","pricing_plan_id":"cebpf4jnsgd1na2vs0mg"},{"bike_id":"9c0cae4e-e704-4bfa-a359-9897c0d78602","system_id":"levelo_inurba_marseille","lat":43.256967,"lon":5.411187,"is_reserved":false,"is_disabled":false,"rental_uris":{"android":"levelo://app?vid=9c0cae4e-e704-4bfa-a359-9897c0d78602","ios":"levelo://app?vid=9c0cae4e-e704-4bfa-a359-9897c0d78602"},"vehicle_type_id":"4","last_reported":1747638658,"current_range_meters":20000,"station_id":"ce4bhkp2rcd13ifvqgd0","pricing_plan_id":"cebpf4jnsgd1na2vs0mg"},{"bike_id":"11666ca0-7d23-41fd-9648-b02d4d361d02","system_id":"levelo_inurba_marseille","lat":43.25933,"lon":5.40911,"is_reserved":false,"is_disabled":false,"rental_uris":{"android":"levelo://app?vid=11666ca0-7d23-41fd-9648-b02d4d361d02","ios":"levelo://app?vid=11666ca0-7d23-41fd-9648-b02d4d361d02"},"vehicle_type_id":"4","last_reported":1747638658,"current_range_meters":20000,"station_id":"ce4bhm92rcd13ifvqglg","pricing_plan_id":"cebpf4jnsgd1na2vs0mg"},{"bike_id":"71029eda-7095-4591-ae29-b1a8a1bde677","system_id":"levelo_inurba_marseille","lat":43.27511,"lon":5.42457,"is_reserved":false,"is_disabled":false,"rental_uris":{"android":"levelo://app?vid=71029eda-7095-4591-ae29-b1a8a1bde677","ios":"levelo://app?vid=71029eda-7095-4591-ae29-b1a8a1bde677"},"vehicle_type_id":"4","last_reported":1747638658,"current_range_meters":20000,"station_id":"ce4bhn92rcd13ifvqgrg","pricing_plan_id":"cebpf4jnsgd1na2vs0mg"},{"bike_id":"8d41fbf3-468b-4953-92b0-99825e05444d","system_id":"levelo_inurba_marseille","lat":43.300739,"lon":5.386786,"is_reserved":false,"is_disabled":false,"rental_uris":{"android":"levelo://app?vid=8d41fbf3-468b-4953-92b0-99825e05444d","ios":"levelo://app?vid=8d41fbf3-468b-4953-92b0-99825e05444d"},"vehicle_type_id":"4","last_reported":1747638658,"current_range_meters":20400,"station_id":"ce4bgup2rcd13ifvqco0","pricing_plan_id":"cebpf4jnsgd1na2vs0mg"},{"bike_id":"15a05c9a-4b4c-421e-9328-b11bb1bde4d5","system_id":"levelo_inurba_marseille","lat":43.28674,"lon":5.38651,"is_reserved":false,"is_disabled":false,"rental_uris":{"android":"levelo://app?vid=15a05c9a-4b4c-421e-9328-b11bb1bde4d5","ios":"levelo://app?vid=15a05c9a-4b4c-421e-9328-b11bb1bde4d5"},"vehicle_type_id":"4","last_reported":1747638658,"current_range_meters":20400,"station_id":"ce4bh492rcd13ifvqdug","pricing_plan_id":"cebpf4jnsgd1na2vs0mg"},{"bike_id":"f1d70213-50d5-4029-90bf-0f238627540e","system_id":"levelo_inurba_marseille","lat":43.25498,"lon":5.37653,"is_reserved":false,"is_disabled":false,"rental_uris":{"android":"levelo://app?vid=f1d70213-50d5-4029-90bf-0f238627540e","ios":"levelo://app?vid=f1d70213-50d5-4029-90bf-0f238627540e"},"vehicle_type_id":"4","last_reported":1747638658,"current_range_meters":20400,"station_id":"ce4bhh12rcd13ifvqff0","pricing_plan_id":"cebpf4jnsgd1na2vs0mg"},{"bike_id":"06a2a826-56f5-47d7-abeb-13e44c8065c0","system_id":"levelo_inurba_marseille","lat":43.25706,"lon":5.41115,"is_reserved":false,"is_disabled":false,"rental_uris":{"android":"levelo://app?vid=06a2a826-56f5-47d7-abeb-13e44c8065c0","ios":"levelo://app?vid=06a2a826-56f5-47d7-abeb-13e44c8065c0"},"vehicle_type_id":"4","last_reported":1747638658,"current_range_meters":20400,"station_id":"ce4bhkp2rcd13ifvqgd0","pricing_plan_id":"cebpf4jnsgd1na2vs0mg"},{"bike_id":"31e80b91-12db-45fc-9b2d-bfa94709eee7","system_id":"levelo_inurba_marseille","lat":43.29847,"lon":5.36287,"is_reserved":false,"is_disabled":false,"rental_uris":{"android":"levelo://app?vid=31e80b91-12db-45fc-9b2d-bfa94709eee7","ios":"levelo://app?vid=31e80b91-12db-45fc-9b2d-bfa94709eee7"},"vehicle_type_id":"4","last_reported":1747638658,"current_range_meters":20800,"station_id":"ce4bgpp2rcd13ifvqc3g","pricing_plan_id":"cebpf4jnsgd1na2vs0mg"},{"bike_id":"86a512a0-32c0-41a9-aebe-27abeb40df50","system_id":"levelo_inurba_marseille","lat":43.29841,"lon":5.36268,"is_reserved":false,"is_disabled":false,"rental_uris":{"android":"levelo://app?vid=86a512a0-32c0-41a9-aebe-27abeb40df50","ios":"levelo://app?vid=86a512a0-32c0-41a9-aebe-27abeb40df50"},"vehicle_type_id":"4","last_reported":1747638658,"current_range_meters":20800,"station_id":"ce4bgpp2rcd13ifvqc3g","pricing_plan_id":"cebpf4jnsgd1na2vs0mg"},{"bike_id":"c9debb17-56e6-466d-8802-9d6336413e96","system_id":"levelo_inurba_marseille","lat":43.30551,"lon":5.36548,"is_reserved":false,"is_disabled":false,"rental_uris":{"android":"levelo://app?vid=c9debb17-56e6-466d-8802-9d6336413e96","ios":"levelo://app?vid=c9debb17-56e6-466d-8802-9d6336413e96"},"vehicle_type_id":"4","last_reported":1747638658,"current_range_meters":20800,"station_id":"ce4bgs12rcd13ifvqcag","pricing_plan_id":"cebpf4jnsgd1na2vs0mg"},{"bike_id":"3595b539-6648-48d6-9989-e32f81fe0bfd","system_id":"levelo_inurba_marseille","lat":43.30538,"lon":5.36561,"is_reserved":false,"is_disabled":false,"rental_uris":{"android":"levelo://app?vid=3595b539-6648-48d6-9989-e32f81fe0bfd","ios":"levelo://app?vid=3595b539-6648-48d6-9989-e32f81fe0bfd"},"vehicle_type_id":"4","last_reported":1747638658,"current_range_meters":20800,"station_id":"ce4bgs12rcd13ifvqcag","pricing_plan_id":"cebpf4jnsgd1na2vs0mg"},{"bike_id":"2c73fe5a-56ae-4948-b7f0-e032fc56cd3b","system_id":"levelo_inurba_marseille","lat":43.32288,"lon":5.38275,"is_reserved":false,"is_disabled":false,"rental_uris":{"android":"levelo://app?vid=2c73fe5a-56ae-4948-b7f0-e032fc56cd3b","ios":"levelo://app?vid=2c73fe5a-56ae-4948-b7f0-e032fc56cd3b"},"vehicle_type_id":"4","last_reported":1747638658,"current_range_meters":20800,"station_id":"ce4bhr12rcd13ifvqhqg","pricing_plan_id":"cebpf4jnsgd1na2vs0mg"},{"bike_id":"07cad049-bb8a-49bd-a7c4-8693a4714c17","system_id":"levelo_inurba_marseille","lat":43.30539,"lon":5.36546,"is_reserved":false,"is_disabled":false,"rental_uris":{"android":"levelo://app?vid=07cad049-bb8a-49bd-a7c4-8693a4714c17","ios":"levelo://app?vid=07cad049-bb8a-49bd-a7c4-8693a4714c17"},"vehicle_type_id":"4","last_reported":1747638658,"current_range_meters":21600,"station_id":"","pricing_plan_id":"cebpf4jnsgd1na2vs0mg"},{"bike_id":"18d403fa-0edc-4620-b1d4-2fffa2ba0c45","system_id":"levelo_inurba_marseille","lat":43.30141,"lon":5.37407,"is_reserved":false,"is_disabled":false,"rental_uris":{"android":"levelo://app?vid=18d403fa-0edc-4620-b1d4-2fffa2ba0c45","ios":"levelo://app?vid=18d403fa-0edc-4620-b1d4-2fffa2ba0c45"},"vehicle_type_id":"4","last_reported":1747638658,"current_range_meters":21600,"station_id":"ce4bgs92rcd13ifvqcc0","pricing_plan_id":"cebpf4jnsgd1na2vs0mg"},{"bike_id":"069de666-889d-4266-bd5a-cd488cf6bd2b","system_id":"levelo_inurba_marseille","lat":43.30469,"lon":5.379,"is_reserved":false,"is_disabled":false,"rental_uris":{"android":"levelo://app?vid=069de666-889d-4266-bd5a-cd488cf6bd2b","ios":"levelo://app?vid=069de666-889d-4266-bd5a-cd488cf6bd2b"},"vehicle_type_id":"4","last_reported":1747638658,"current_range_meters":21600,"station_id":"ce4bgup2rcd13ifvqcn0","pricing_plan_id":"cebpf4jnsgd1na2vs0mg"},{"bike_id":"60c32255-27fb-4706-9add-7cd99935a632","system_id":"levelo_inurba_marseille","lat":43.3047,"lon":5.37897,"is_reserved":false,"is_disabled":false,"rental_uris":{"android":"levelo://app?vid=60c32255-27fb-4706-9add-7cd99935a632","ios":"levelo://app?vid=60c32255-27fb-4706-9add-7cd99935a632"},"vehicle_type_id":"4","last_reported":1747638658,"current_range_meters":21600,"station_id":"ce4bgup2rcd13ifvqcn0","pricing_plan_id":"cebpf4jnsgd1na2vs0mg"},{"bike_id":"36eee10a-b73c-49aa-8c0a-6f9742fd5242","system_id":"levelo_inurba_marseille","lat":43.29419,"lon":5.38622,"is_reserved":false,"is_disabled":false,"rental_uris":{"android":"levelo://app?vid=36eee10a-b73c-49aa-8c0a-6f9742fd5242","ios":"levelo://app?vid=36eee10a-b73c-49aa-8c0a-6f9742fd5242"},"vehicle_type_id":"4","last_reported":1747638658,"current_range_meters":21600,"station_id":"ce4bh2h2rcd13ifvqdh0","pricing_plan_id":"cebpf4jnsgd1na2vs0mg"},{"bike_id":"e9383a09-1231-4f8e-813e-88b696fde528","system_id":"levelo_inurba_marseille","lat":43.25932,"lon":5.40902,"is_reserved":false,"is_disabled":false,"rental_uris":{"android":"levelo://app?vid=e9383a09-1231-4f8e-813e-88b696fde528","ios":"levelo://app?vid=e9383a09-1231-4f8e-813e-88b696fde528"},"vehicle_type_id":"4","last_reported":1747638658,"current_range_meters":21600,"station_id":"ce4bhm92rcd13ifvqglg","pricing_plan_id":"cebpf4jnsgd1na2vs0mg"},{"bike_id":"6b30b3ae-69a8-47a0-8c82-3a3f70d8e96a","system_id":"levelo_inurba_marseille","lat":43.274963,"lon":5.42459,"is_reserved":false,"is_disabled":false,"rental_uris":{"android":"levelo://app?vid=6b30b3ae-69a8-47a0-8c82-3a3f70d8e96a","ios":"levelo://app?vid=6b30b3ae-69a8-47a0-8c82-3a3f70d8e96a"},"vehicle_type_id":"4","last_reported":1747638658,"current_range_meters":21600,"station_id":"ce4bhn92rcd13ifvqgrg","pricing_plan_id":"cebpf4jnsgd1na2vs0mg"},{"bike_id":"97a86dc9-cdbb-4884-892e-ffc3c535da38","system_id":"levelo_inurba_marseille","lat":43.24088,"lon":5.38152,"is_reserved":false,"is_disabled":false,"rental_uris":{"android":"levelo://app?vid=97a86dc9-cdbb-4884-892e-ffc3c535da38","ios":"levelo://app?vid=97a86dc9-cdbb-4884-892e-ffc3c535da38"},"vehicle_type_id":"4","last_reported":1747638658,"current_range_meters":22000,"station_id":"","pricing_plan_id":"cebpf4jnsgd1na2vs0mg"},{"bike_id":"adf7d0ec-8010-4bb7-9140-be841b0a6634","system_id":"levelo_inurba_marseille","lat":43.30941,"lon":5.39034,"is_reserved":false,"is_disabled":false,"rental_uris":{"android":"levelo://app?vid=adf7d0ec-8010-4bb7-9140-be841b0a6634","ios":"levelo://app?vid=adf7d0ec-8010-4bb7-9140-be841b0a6634"},"vehicle_type_id":"4","last_reported":1747638658,"current_range_meters":22000,"station_id":"ce4bgup2rcd13ifvqco0","pricing_plan_id":"cebpf4jnsgd1na2vs0mg"},{"bike_id":"9026ea6f-0580-45b2-992a-a2777b4bce1b","system_id":"levelo_inurba_marseille","lat":43.27205,"lon":5.39182,"is_reserved":false,"is_disabled":false,"rental_uris":{"android":"levelo://app?vid=9026ea6f-0580-45b2-992a-a2777b4bce1b","ios":"levelo://app?vid=9026ea6f-0580-45b2-992a-a2777b4bce1b"},