{"last_updated":1739974173,"ttl":60,"version":"2.2","data":{"bikes":[{"bike_id":"f9bd565b-81d2-405b-8a9f-db000f589d8c","system_id":"levelo_inurba_marseille","lat":43.31695,"lon":5.40474,"is_reserved":false,"is_disabled":false,"rental_uris":{"android":"levelo://app?vid=f9bd565b-81d2-405b-8a9f-db000f589d8c","ios":"levelo://app?vid=f9bd565b-81d2-405b-8a9f-db000f589d8c"},"vehicle_type_id":"4","last_reported":1739974174,"current_range_meters":2800,"station_id":"ce4bh012rcd13ifvqd00","pricing_plan_id":"cebpf4jnsgd1na2vs0mg"},{"bike_id":"779b5ae4-8b66-4c4e-aabc-2137adf9d975","system_id":"levelo_inurba_marseille","lat":43.26568,"lon":5.39004,"is_reserved":false,"is_disabled":false,"rental_uris":{"android":"levelo://app?vid=779b5ae4-8b66-4c4e-aabc-2137adf9d975","ios":"levelo://app?vid=779b5ae4-8b66-4c4e-aabc-2137adf9d975"},"vehicle_type_id":"4","last_reported":1739974174,"current_range_meters":2800,"station_id":"","pricing_plan_id":"cebpf4jnsgd1na2vs0mg"},{"bike_id":"781731e8-2668-4d13-aa04-2fe7107529e9","system_id":"levelo_inurba_marseille","lat":43.28942,"lon":5.36635,"is_reserved":false,"is_disabled":false,"rental_uris":{"android":"levelo://app?vid=781731e8-2668-4d13-aa04-2fe7107529e9","ios":"levelo://app?vid=781731e8-2668-4d13-aa04-2fe7107529e9"},"vehicle_type_id":"4","last_reported":1739974174,"current_range_meters":2000,"station_id":"ce4bhap2rcd13ifvqek0","pricing_plan_id":"cebpf4jnsgd1na2vs0mg"},{"bike_id":"f96ffb7e-225b-4942-9148-4a3f812f03a9","system_id":"levelo_inurba_marseille","lat":43.31117,"lon":5.37775,"is_reserved":false,"is_disabled":false,"rental_uris":{"android":"levelo://app?vid=f96ffb7e-225b-4942-9148-4a3f812f03a9","ios":"levelo://app?vid=f96ffb7e-225b-4942-9148-4a3f812f03a9"},"vehicle_type_id":"4","last_reported":1739974174,"current_range_meters":3200,"station_id":"ce4bgt92rcd13ifvqcg0","pricing_plan_id":"cebpf4jnsgd1na2vs0mg"},{"bike_id":"66712ce3-597a-4bf7-bc27-10a8fa805921","system_id":"levelo_inurba_marseille","lat":43.292969,"lon":5.374584,"is_reserved":false,"is_disabled":false,"rental_uris":{"android":"levelo://app?vid=66712ce3-597a-4bf7-bc27-10a8fa805921","ios":"levelo://app?vid=66712ce3-597a-4bf7-bc27-10a8fa805921"},"vehicle_type_id":"4","last_reported":1739974174,"current_range_meters":3200,"station_id":"","pricing_plan_id":"cebpf4jnsgd1na2vs0mg"},{"bike_id":"020f9db3-6048-4a83-8c59-4acc533112c8","system_id":"levelo_inurba_marseille","lat":43.28154,"lon":5.42634,"is_reserved":false,"is_disabled":false,"rental_uris":{"android":"levelo://app?vid=020f9db3-6048-4a83-8c59-4acc533112c8","ios":"levelo://app?vid=020f9db3-6048-4a83-8c59-4acc533112c8"},"vehicle_type_id":"4","last_reported":1739974174,"current_range_meters":3600,"station_id":"ce4bhnh2rcd13ifvqgug","pricing_plan_id":"cebpf4jnsgd1na2vs0mg"},{"bike_id":"c986e122-9b85-4709-aa9a-dd2c5f6b901d","system_id":"levelo_inurba_marseille","lat":43.28427,"lon":5.35016,"is_reserved":false,"is_disabled":true,"rental_uris":{"android":"levelo://app?vid=c986e122-9b85-4709-aa9a-dd2c5f6b901d","ios":"levelo://app?vid=c986e122-9b85-4709-aa9a-dd2c5f6b901d"},"vehicle_type_id":"4","last_reported":1739974174,"current_range_meters":4000,"station_id":"ce4bhbh2rcd13ifvqepg","pricing_plan_id":"cebpf4jnsgd1na2vs0mg"},{"bike_id":"55cd4fb2-5969-4326-8e30-5a90eb5e83d6","system_id":"levelo_inurba_marseille","lat":43.28464,"lon":5.3589,"is_reserved":false,"is_disabled":false,"rental_uris":{"android":"levelo://app?vid=55cd4fb2-5969-4326-8e30-5a90eb5e83d6","ios":"levelo://app?vid=55cd4fb2-5969-4326-8e30-5a90eb5e83d6"},"vehicle_type_id":"4","last_reported":1739974174,"current_range_meters":3200,"station_id":"ce4bhah2rcd13ifvqei0","pricing_plan_id":"cebpf4jnsgd1na2vs0mg"},{"bike_id":"10588449-5ffa-45fc-887c-8523965fc0a8","system_id":"levelo_inurba_marseille","lat":43.25506,"lon":5.37657,"is_reserved":false,"is_disabled":false,"rental_uris":{"android":"levelo://app?vid=10588449-5ffa-45fc-887c-8523965fc0a8","ios":"levelo://app?vid=10588449-5ffa-45fc-887c-8523965fc0a8"},"vehicle_type_id":"4","last_reported":1739974174,"current_range_meters":4400,"station_id":"ce4bhh12rcd13ifvqff0","pricing_plan_id":"cebpf4jnsgd1na2vs0mg"},{"bike_id":"811901b7-6a39-4b98-9209-f363e05c2482","system_id":"levelo_inurba_marseille","lat":43.2815,"lon":5.42642,"is_reserved":false,"is_disabled":false,"rental_uris":{"android":"levelo://app?vid=811901b7-6a39-4b98-9209-f363e05c2482","ios":"levelo://app?vid=811901b7-6a39-4b98-9209-f363e05c2482"},"vehicle_type_id":"4","last_reported":1739974174,"current_range_meters":4400,"station_id":"ce4bhnh2rcd13ifvqgug","pricing_plan_id":"cebpf4jnsgd1na2vs0mg"},{"bike_id":"6238e71f-5995-40d4-add7-167f645aa72e","system_id":"levelo_inurba_marseille","lat":43.29547,"lon":5.42286,"is_reserved":false,"is_disabled":false,"rental_uris":{"android":"levelo://app?vid=6238e71f-5995-40d4-add7-167f645aa72e","ios":"levelo://app?vid=6238e71f-5995-40d4-add7-167f645aa72e"},"vehicle_type_id":"4","last_reported":1739974174,"current_range_meters":4400,"station_id":"","pricing_plan_id":"cebpf4jnsgd1na2vs0mg"},{"bike_id":"6528e792-6c2b-41ab-b102-37d30001a0e7","system_id":"levelo_inurba_marseille","lat":43.27226,"lon":5.40089,"is_reserved":false,"is_disabled":false,"rental_uris":{"android":"levelo://app?vid=6528e792-6c2b-41ab-b102-37d30001a0e7","ios":"levelo://app?vid=6528e792-6c2b-41ab-b102-37d30001a0e7"},"vehicle_type_id":"4","last_reported":1739974174,"current_range_meters":4800,"station_id":"","pricing_plan_id":"cebpf4jnsgd1na2vs0mg"},{"bike_id":"f2337491-f837-4d7d-8468-b0ca3f348248","system_id":"levelo_inurba_marseille","lat":43.30299,"lon":5.39215,"is_reserved":false,"is_disabled":false,"rental_uris":{"android":"levelo://app?vid=f2337491-f837-4d7d-8468-b0ca3f348248","ios":"levelo://app?vid=f2337491-f837-4d7d-8468-b0ca3f348248"},"vehicle_type_id":"4","last_reported":1739974174,"current_range_meters":4800,"station_id":"ce4bgkh2rcd13ifvqbk0","pricing_plan_id":"cebpf4jnsgd1na2vs0mg"},{"bike_id":"a5b40782-7eb4-443b-a802-13fa65491a6f","system_id":"levelo_inurba_marseille","lat":43.29612,"lon":5.37728,"is_reserved":false,"is_disabled":false,"rental_uris":{"android":"levelo://app?vid=a5b40782-7eb4-443b-a802-13fa65491a6f","ios":"levelo://app?vid=a5b40782-7eb4-443b-a802-13fa65491a6f"},"vehicle_type_id":"4","last_reported":1739974174,"current_range_meters":4800,"station_id":"","pricing_plan_id":"cebpf4jnsgd1na2vs0mg"},{"bike_id":"dcaa5d09-ad4d-4077-9a1e-bfb165ed7859","system_id":"levelo_inurba_marseille","lat":43.31216,"lon":5.36853,"is_reserved":false,"is_disabled":false,"rental_uris":{"android":"levelo://app?vid=dcaa5d09-ad4d-4077-9a1e-bfb165ed7859","ios":"levelo://app?vid=dcaa5d09-ad4d-4077-9a1e-bfb165ed7859"},"vehicle_type_id":"4","last_reported":1739974174,"current_range_meters":5600,"station_id":"ce4bgl92rcd13ifvqbq0","pricing_plan_id":"cebpf4jnsgd1na2vs0mg"},{"bike_id":"6738b904-322f-42eb-b2be-f0a674436921","system_id":"levelo_inurba_marseille","lat":43.29038,"lon":5.39966,"is_reserved":false,"is_disabled":false,"rental_uris":{"android":"levelo://app?vid=6738b904-322f-42eb-b2be-f0a674436921","ios":"levelo://app?vid=6738b904-322f-42eb-b2be-f0a674436921"},"vehicle_type_id":"4","last_reported":1739974174,"current_range_meters":8000,"station_id":"ce4bh392rcd13ifvqdm0","pricing_plan_id":"cebpf4jnsgd1na2vs0mg"},{"bike_id":"c109a327-37a9-4436-a7bc-7706e6f9fcb3","system_id":"levelo_inurba_marseille","lat":43.23148,"lon":5.43702,"is_reserved":false,"is_disabled":false,"rental_uris":{"android":"levelo://app?vid=c109a327-37a9-4436-a7bc-7706e6f9fcb3","ios":"levelo://app?vid=c109a327-37a9-4436-a7bc-7706e6f9fcb3"},"vehicle_type_id":"4","last_reported":1739974174,"current_range_meters":5600,"station_id":"ce4bhmp2rcd13ifvqgog","pricing_plan_id":"cebpf4jnsgd1na2vs0mg"},{"bike_id":"707c3d0a-4bda-4f65-a3e7-41cc614e8fdd","system_id":"levelo_inurba_marseille","lat":43.31518,"lon":5.37266,"is_reserved":false,"is_disabled":false,"rental_uris":{"android":"levelo://app?vid=707c3d0a-4bda-4f65-a3e7-41cc614e8fdd","ios":"levelo://app?vid=707c3d0a-4bda-4f65-a3e7-41cc614e8fdd"},"vehicle_type_id":"4","last_reported":1739974174,"current_range_meters":4800,"station_id":"ce4bgt12rcd13ifvqcd0","pricing_plan_id":"cebpf4jnsgd1na2vs0mg"},{"bike_id":"7174b859-40d2-4d93-8784-578ab557e269","system_id":"levelo_inurba_marseille","lat":43.30953,"lon":5.39061,"is_reserved":false,"is_disabled":false,"rental_uris":{"android":"levelo://app?vid=7174b859-40d2-4d93-8784-578ab557e269","ios":"levelo://app?vid=7174b859-40d2-4d93-8784-578ab557e269"},"vehicle_type_id":"4","last_reported":1739974174,"current_range_meters":5600,"station_id":"ce4bgup2rcd13ifvqco0","pricing_plan_id":"cebpf4jnsgd1na2vs0mg"},{"bike_id":"38605c17-bb09-4dc1-a023-dba837c91941","system_id":"levelo_inurba_marseille","lat":43.26569,"lon":5.39062,"is_reserved":false,"is_disabled":false,"rental_uris":{"android":"levelo://app?vid=38605c17-bb09-4dc1-a023-dba837c91941","ios":"levelo://app?vid=38605c17-bb09-4dc1-a023-dba837c91941"},"vehicle_type_id":"4","last_reported":1739974174,"current_range_meters":5600,"station_id":"ce4bhe12rcd13ifvqf30","pricing_plan_id":"cebpf4jnsgd1na2vs0mg"},{"bike_id":"d6321761-05be-45ca-97e3-980574032424","system_id":"levelo_inurba_marseille","lat":43.29883,"lon":5.39076,"is_reserved":false,"is_disabled":false,"rental_uris":{"android":"levelo://app?vid=d6321761-05be-45ca-97e3-980574032424","ios":"levelo://app?vid=d6321761-05be-45ca-97e3-980574032424"},"vehicle_type_id":"4","last_reported":1739974174,"current_range_meters":5600,"station_id":"ce4bgj92rcd13ifvqbd0","pricing_plan_id":"cebpf4jnsgd1na2vs0mg"},{"bike_id":"0e9ae8c5-7a7e-467d-afe2-bb8df6bfeefc","system_id":"levelo_inurba_marseille","lat":43.23343,"lon":5.40328,"is_reserved":false,"is_disabled":false,"rental_uris":{"android":"levelo://app?vid=0e9ae8c5-7a7e-467d-afe2-bb8df6bfeefc","ios":"levelo://app?vid=0e9ae8c5-7a7e-467d-afe2-bb8df6bfeefc"},"vehicle_type_id":"4","last_reported":1739974174,"current_range_meters":6000,"station_id":"","pricing_plan_id":"cebpf4jnsgd1na2vs0mg"},{"bike_id":"f2a79726-78c5-4437-8be7-65c55a35f22e","system_id":"levelo_inurba_marseille","lat":43.30893,"lon":5.3719,"is_reserved":false,"is_disabled":false,"rental_uris":{"android":"levelo://app?vid=f2a79726-78c5-4437-8be7-65c55a35f22e","ios":"levelo://app?vid=f2a79726-78c5-4437-8be7-65c55a35f22e"},"vehicle_type_id":"4","last_reported":1739974174,"current_range_meters":6400,"station_id":"ce4bguh2rcd13ifvqckg","pricing_plan_id":"cebpf4jnsgd1na2vs0mg"},{"bike_id":"989a1c05-c74a-4632-af21-81b3f55f7909","system_id":"levelo_inurba_marseille","lat":43.29251,"lon":5.3607,"is_reserved":false,"is_disabled":true,"rental_uris":{"android":"levelo://app?vid=989a1c05-c74a-4632-af21-81b3f55f7909","ios":"levelo://app?vid=989a1c05-c74a-4632-af21-81b3f55f7909"},"vehicle_type_id":"4","last_reported":1739974174,"current_range_meters":6400,"station_id":"","pricing_plan_id":"cebpf4jnsgd1na2vs0mg"},{"bike_id":"8d83a7d1-3ac4-4eba-a3f4-2d261013d9bc","system_id":"levelo_inurba_marseille","lat":43.31251,"lon":5.36872,"is_reserved":false,"is_disabled":false,"rental_uris":{"android":"levelo://app?vid=8d83a7d1-3ac4-4eba-a3f4-2d261013d9bc","ios":"levelo://app?vid=8d83a7d1-3ac4-4eba-a3f4-2d261013d9bc"},"vehicle_type_id":"4","last_reported":1739974174,"current_range_meters":6400,"station_id":"ce4bgl92rcd13ifvqbq0","pricing_plan_id":"cebpf4jnsgd1na2vs0mg"},{"bike_id":"33937cf4-9b9f-4918-b658-d047debbf96e","system_id":"levelo_inurba_marseille","lat":43.28405,"lon":5.34986,"is_reserved":false,"is_disabled":false,"rental_uris":{"android":"levelo://app?vid=33937cf4-9b9f-4918-b658-d047debbf96e","ios":"levelo://app?vid=33937cf4-9b9f-4918-b658-d047debbf96e"},"vehicle_type_id":"4","last_reported":1739974174,"current_range_meters":6800,"station_id":"ce4bhbh2rcd13ifvqepg","pricing_plan_id":"cebpf4jnsgd1na2vs0mg"},{"bike_id":"0b1bfe28-c920-4efc-a61d-e1bb16307c7d","system_id":"levelo_inurba_marseille","lat":43.27834,"lon":5.39213,"is_reserved":false,"is_disabled":false,"rental_uris":{"android":"levelo://app?vid=0b1bfe28-c920-4efc-a61d-e1bb16307c7d","ios":"levelo://app?vid=0b1bfe28-c920-4efc-a61d-e1bb16307c7d"},"vehicle_type_id":"4","last_reported":1739974174,"current_range_meters":6800,"station_id":"ce4bhjp2rcd13ifvqga0","pricing_plan_id":"cebpf4jnsgd1na2vs0mg"},{"bike_id":"aee71787-09fe-4f35-8315-aaf0e0c79475","system_id":"levelo_inurba_marseille","lat":43.28672,"lon":5.38676,"is_reserved":false,"is_disabled":false,"rental_uris":{"android":"levelo://app?vid=aee71787-09fe-4f35-8315-aaf0e0c79475","ios":"levelo://app?vid=aee71787-09fe-4f35-8315-aaf0e0c79475"},"vehicle_type_id":"4","last_reported":1739974174,"current_range_meters":6800,"station_id":"ce4bh492rcd13ifvqdug","pricing_plan_id":"cebpf4jnsgd1na2vs0mg"},{"bike_id":"56a701b3-d975-41e6-9b72-36eb2d98291c","system_id":"levelo_inurba_marseille","lat":43.26556,"lon":5.37288,"is_reserved":false,"is_disabled":false,"rental_uris":{"android":"levelo://app?vid=56a701b3-d975-41e6-9b72-36eb2d98291c","ios":"levelo://app?vid=56a701b3-d975-41e6-9b72-36eb2d98291c"},"vehicle_type_id":"4","last_reported":1739974174,"current_range_meters":6800,"station_id":"","pricing_plan_id":"cebpf4jnsgd1na2vs0mg"},{"bike_id":"03801d5f-c094-4a19-aa8f-638e3aeeed7d","system_id":"levelo_inurba_marseille","lat":43.30273,"lon":5.37692,"is_reserved":false,"is_disabled":false,"rental_uris":{"android":"levelo://app?vid=03801d5f-c094-4a19-aa8f-638e3aeeed7d","ios":"levelo://app?vid=03801d5f-c094-4a19-aa8f-638e3aeeed7d"},"vehicle_type_id":"4","last_reported":1739974174,"current_range_meters":6400,"station_id":"ce4bguh2rcd13ifvqcj0","pricing_plan_id":"cebpf4jnsgd1na2vs0mg"},{"bike_id":"19a82d90-5fb5-475e-9359-653b37581c65","system_id":"levelo_inurba_marseille","lat":43.24178,"lon":5.39722,"is_reserved":false,"is_disabled":false,"rental_uris":{"android":"levelo://app?vid=19a82d90-5fb5-475e-9359-653b37581c65","ios":"levelo://app?vid=19a82d90-5fb5-475e-9359-653b37581c65"},"vehicle_type_id":"4","last_reported":1739974174,"current_range_meters":7200,"station_id":"ce4bhn12rcd13ifvqgpg","pricing_plan_id":"cebpf4jnsgd1na2vs0mg"},{"bike_id":"0da2d16a-8453-4ed5-b302-5c1616861c3c","system_id":"levelo_inurba_marseille","lat":43.30209,"lon":5.36588,"is_reserved":false,"is_disabled":false,"rental_uris":{"android":"levelo://app?vid=0da2d16a-8453-4ed5-b302-5c1616861c3c","ios":"levelo://app?vid=0da2d16a-8453-4ed5-b302-5c1616861c3c"},"vehicle_type_id":"4","last_reported":1739974174,"current_range_meters":7200,"station_id":"ce4bgrh2rcd13ifvqc8g","pricing_plan_id":"cebpf4jnsgd1na2vs0mg"},{"bike_id":"78d748f9-456c-4a57-aa8b-525609751e06","system_id":"levelo_inurba_marseille","lat":43.28855,"lon":5.35857,"is_reserved":false,"is_disabled":false,"rental_uris":{"android":"levelo://app?vid=78d748f9-456c-4a57-aa8b-525609751e06","ios":"levelo://app?vid=78d748f9-456c-4a57-aa8b-525609751e06"},"vehicle_type_id":"4","last_reported":1739974174,"current_range_meters":7200,"station_id":"ce4bhb12rcd13ifvqem0","pricing_plan_id":"cebpf4jnsgd1na2vs0mg"},{"bike_id":"fa286c73-093b-4853-acc4-ffdf976eab49","system_id":"levelo_inurba_marseille","lat":43.23151,"lon":5.4372,"is_reserved":false,"is_disabled":false,"rental_uris":{"android":"levelo://app?vid=fa286c73-093b-4853-acc4-ffdf976eab49","ios":"levelo://app?vid=fa286c73-093b-4853-acc4-ffdf976eab49"},"vehicle_type_id":"4","last_reported":1739974174,"current_range_meters":7200,"station_id":"","pricing_plan_id":"cebpf4jnsgd1na2vs0mg"},{"bike_id":"88d6fc07-4d86-4bfd-ba4b-adb101c3209b","system_id":"levelo_inurba_marseille","lat":43.26938,"lon":5.38912,"is_reserved":false,"is_disabled":false,"rental_uris":{"android":"levelo://app?vid=88d6fc07-4d86-4bfd-ba4b-adb101c3209b","ios":"levelo://app?vid=88d6fc07-4d86-4bfd-ba4b-adb101c3209b"},"vehicle_type_id":"4","last_reported":1739974174,"current_range_meters":7200,"station_id":"ce4bhhh2rcd13ifvqfl0","pricing_plan_id":"cebpf4jnsgd1na2vs0mg"},{"bike_id":"4407be18-d439-4288-9b2d-a2eae824f889","system_id":"levelo_inurba_marseille","lat":43.29105,"lon":5.35715,"is_reserved":false,"is_disabled":false,"rental_uris":{"android":"levelo://app?vid=4407be18-d439-4288-9b2d-a2eae824f889","ios":"levelo://app?vid=4407be18-d439-4288-9b2d-a2eae824f889"},"vehicle_type_id":"4","last_reported":1739974174,"current_range_meters":7200,"station_id":"","pricing_plan_id":"cebpf4jnsgd1na2vs0mg"},{"bike_id":"3d1477e5-7c6a-4bc1-90b7-36761883464a","system_id":"levelo_inurba_marseille","lat":43.28302,"lon":5.35044,"is_reserved":false,"is_disabled":false,"rental_uris":{"android":"levelo://app?vid=3d1477e5-7c6a-4bc1-90b7-36761883464a","ios":"levelo://app?vid=3d1477e5-7c6a-4bc1-90b7-36761883464a"},"vehicle_type_id":"4","last_reported":1739974174,"current_range_meters":6400,"station_id":"ce4bhbp2rcd13ifvqerg","pricing_plan_id":"cebpf4jnsgd1na2vs0mg"},{"bike_id":"f98f3dd2-f8a9-4529-a2c7-9fdd2cb2b737","system_id":"levelo_inurba_marseille","lat":43.26485,"lon":5.39555,"is_reserved":false,"is_disabled":false,"rental_uris":{"android":"levelo://app?vid=f98f3dd2-f8a9-4529-a2c7-9fdd2cb2b737","ios":"levelo://app?vid=f98f3dd2-f8a9-4529-a2c7-9fdd2cb2b737"},"vehicle_type_id":"4","last_reported":1739974174,"current_range_meters":7200,"station_id":"ce4bhi12rcd13ifvqfq0","pricing_plan_id":"cebpf4jnsgd1na2vs0mg"},{"bike_id":"56834599-2949-4368-8c7c-ea0cffd718b2","system_id":"levelo_inurba_marseille","lat":43.27072,"lon":5.42275,"is_reserved":false,"is_disabled":false,"rental_uris":{"android":"levelo://app?vid=56834599-2949-4368-8c7c-ea0cffd718b2","ios":"levelo://app?vid=56834599-2949-4368-8c7c-ea0cffd718b2"},"vehicle_type_id":"4","last_reported":1739974174,"current_range_meters":8000,"station_id":"ce4bhk92rcd13ifvqgb0","pricing_plan_id":"cebpf4jnsgd1na2vs0mg"},{"bike_id":"a6bd11e2-53ed-49d6-81df-0f14d03660dc","system_id":"levelo_inurba_marseille","lat":43.30547,"lon":5.36548,"is_reserved":false,"is_disabled":false,"rental_uris":{"android":"levelo://app?vid=a6bd11e2-53ed-49d6-81df-0f14d03660dc","ios":"levelo://app?vid=a6bd11e2-53ed-49d6-81df-0f14d03660dc"},"vehicle_type_id":"4","last_reported":1739974174,"current_range_meters":8000,"station_id":"ce4bgs12rcd13ifvqcag","pricing_plan_id":"cebpf4jnsgd1na2vs0mg"},{"bike_id":"5ae0012d-6179-440f-a02a-a607c9208eb9","system_id":"levelo_inurba_marseille","lat":43.24691,"lon":5.38119,"is_reserved":false,"is_disabled":false,"rental_uris":{"android":"levelo://app?vid=5ae0012d-6179-440f-a02a-a607c9208eb9","ios":"levelo://app?vid=5ae0012d-6179-440f-a02a-a607c9208eb9"},"vehicle_type_id":"4","last_reported":1739974174,"current_range_meters":8000,"station_id":"ce4bhih2rcd13ifvqfr0","pricing_plan_id":"cebpf4jnsgd1na2vs0mg"},{"bike_id":"540e95ca-400c-4e26-9428-a0bfd1efc12c","system_id":"levelo_inurba_marseille","lat":43.305459,"lon":5.366323,"is_reserved":false,"is_disabled":false,"rental_uris":{"android":"levelo://app?vid=540e95ca-400c-4e26-9428-a0bfd1efc12c","ios":"levelo://app?vid=540e95ca-400c-4e26-9428-a0bfd1efc12c"},"vehicle_type_id":"4","last_reported":1739974174,"current_range_meters":8000,"station_id":"ce4bgs12rcd13ifvqcag","pricing_plan_id":"cebpf4jnsgd1na2vs0mg"},{"bike_id":"5e6dfee0-7b22-4c50-bb6e-42082f1a9f56","system_id":"levelo_inurba_marseille","lat":43.2869,"lon":5.38678,"is_reserved":false,"is_disabled":false,"rental_uris":{"android":"levelo://app?vid=5e6dfee0-7b22-4c50-bb6e-42082f1a9f56","ios":"levelo://app?vid=5e6dfee0-7b22-4c50-bb6e-42082f1a9f56"},"vehicle_type_id":"4","last_reported":1739974174,"current_range_meters":5600,"station_id":"ce4bh492rcd13ifvqdug","pricing_plan_id":"cebpf4jnsgd1na2vs0mg"},{"bike_id":"98019351-26c8-4584-ab69-ceac69ae8c0f","system_id":"levelo_inurba_marseille","lat":43.28415,"lon":5.34994,"is_reserved":false,"is_disabled":false,"rental_uris":{"android":"levelo://app?vid=98019351-26c8-4584-ab69-ceac69ae8c0f","ios":"levelo://app?vid=98019351-26c8-4584-ab69-ceac69ae8c0f"},"vehicle_type_id":"4","last_reported":1739974174,"current_range_meters":8000,"station_id":"ce4bhbh2rcd13ifvqepg","pricing_plan_id":"cebpf4jnsgd1na2vs0mg"},{"bike_id":"6b425ee7-6445-4dcc-9ef4-8999693e2d8e","system_id":"levelo_inurba_marseille","lat":43.28417,"lon":5.34986,"is_reserved":false,"is_disabled":false,"rental_uris":{"android":"levelo://app?vid=6b425ee7-6445-4dcc-9ef4-8999693e2d8e","ios":"levelo://app?vid=6b425ee7-6445-4dcc-9ef4-8999693e2d8e"},"vehicle_type_id":"4","last_reported":1739974174,"current_range_meters":8400,"station_id":"ce4bhbh2rcd13ifvqepg","pricing_plan_id":"cebpf4jnsgd1na2vs0mg"},{"bike_id":"af3d0f2d-08fa-41db-bc0f-f51de43a9c0e","system_id":"levelo_inurba_marseille","lat":43.25935,"lon":5.40897,"is_reserved":false,"is_disabled":false,"rental_uris":{"android":"levelo://app?vid=af3d0f2d-08fa-41db-bc0f-f51de43a9c0e","ios":"levelo://app?vid=af3d0f2d-08fa-41db-bc0f-f51de43a9c0e"},"vehicle_type_id":"4","last_reported":1739974174,"current_range_meters":8800,"station_id":"ce4bhm92rcd13ifvqglg","pricing_plan_id":"cebpf4jnsgd1na2vs0mg"},{"bike_id":"1ae843e9-d44c-4297-a0fa-6450a999f369","system_id":"levelo_inurba_marseille","lat":43.30278,"lon":5.37693,"is_reserved":false,"is_disabled":false,"rental_uris":{"android":"levelo://app?vid=1ae843e9-d44c-4297-a0fa-6450a999f369","ios":"levelo://app?vid=1ae843e9-d44c-4297-a0fa-6450a999f369"},"vehicle_type_id":"4","last_reported":1739974174,"current_range_meters":8400,"station_id":"ce4bguh2rcd13ifvqcj0","pricing_plan_id":"cebpf4jnsgd1na2vs0mg"},{"bike_id":"e8846895-5caa-4212-9c6a-36a82f9123bf","system_id":"levelo_inurba_marseille","lat":43.28415,"lon":5.37514,"is_reserved":false,"is_disabled":true,"rental_uris":{"android":"levelo://app?vid=e8846895-5caa-4212-9c6a-36a82f9123bf","ios":"levelo://app?vid=e8846895-5caa-4212-9c6a-36a82f9123bf"},"vehicle_type_id":"4","last_reported":1739974174,"current_range_meters":8400,"station_id":"ce4bh412rcd13ifvqds0","pricing_plan_id":"cebpf4jnsgd1na2vs0mg"},{"bike_id":"2c91211b-a8a4-43fa-a7df-1b0142cf1a5d","system_id":"levelo_inurba_marseille","lat":43.29185,"lon":5.35798,"is_reserved":false,"is_disabled":false,"rental_uris":{"android":"levelo://app?vid=2c91211b-a8a4-43fa-a7df-1b0142cf1a5d","ios":"levelo://app?vid=2c91211b-a8a4-43fa-a7df-1b0142cf1a5d"},"vehicle_type_id":"4","last_reported":1739974174,"current_range_meters":8400,"station_id":"","pricing_plan_id":"cebpf4jnsgd1na2vs0mg"},{"bike_id":"3ea0b1ad-f3ea-4211-8e3b-d3f0c9a0f631","system_id":"levelo_inurba_marseille","lat":43.30957,"lon":5.39045,"is_reserved":false,"is_disabled":false,"rental_uris":{"android":"levelo://app?vid=3ea0b1ad-f3ea-4211-8e3b-d3f0c9a0f631","ios":"levelo://app?vid=3ea0b1ad-f3ea-4211-8e3b-d3f0c9a0f631"},"vehicle_type_id":"4","last_reported":1739974174,"current_range_meters":8400,"station_id":"","pricing_plan_id":"cebpf4jnsgd1na2vs0mg"},{"bike_id":"55740427-b7c2-4cf8-89e5-1610e24d11fb","system_id":"levelo_inurba_marseille","lat":43.23963,"lon":5.36627,"is_reserved":false,"is_disabled":false,"rental_uris":{"android":"levelo://app?vid=55740427-b7c2-4cf8-89e5-1610e24d11fb","ios":"levelo://app?vid=55740427-b7c2-4cf8-89e5-1610e24d11fb"},"vehicle_type_id":"4","last_reported":1739974174,"current_range_meters":8400,"station_id":"","pricing_plan_id":"cebpf4jnsgd1na2vs0mg"},{"bike_id":"c7265b9c-676a-4fe7-938c-9ef6c1b3347f","system_id":"levelo_inurba_marseille","lat":43.27994,"lon":5.41664,"is_reserved":false,"is_disabled":false,"rental_uris":{"android":"levelo://app?vid=c7265b9c-676a-4fe7-938c-9ef6c1b3347f","ios":"levelo://app?vid=c7265b9c-676a-4fe7-938c-9ef6c1b3347f"},"vehicle_type_id":"4","last_reported":1739974174,"current_range_meters":8400,"station_id":"","pricing_plan_id":"cebpf4jnsgd1na2vs0mg"},{"bike_id":"4089f1a0-cd12-42d3-a6c3-01d445970a86","system_id":"levelo_inurba_marseille","lat":43.31289,"lon":5.37422,"is_reserved":false,"is_disabled":false,"rental_uris":{"android":"levelo://app?vid=4089f1a0-cd12-42d3-a6c3-01d445970a86","ios":"levelo://app?vid=4089f1a0-cd12-42d3-a6c3-01d445970a86"},"vehicle_type_id":"4","last_reported":1739974174,"current_range_meters":8400,"station_id":"","pricing_plan_id":"cebpf4jnsgd1na2vs0mg"},{"bike_id":"bb852df7-dd74-43f4-8582-0650a376dfcb","system_id":"levelo_inurba_marseille","lat":43.27501,"lon":5.42465,"is_reserved":false,"is_disabled":false,"rental_uris":{"android":"levelo://app?vid=bb852df7-dd74-43f4-8582-0650a376dfcb","ios":"levelo://app?vid=bb852df7-dd74-43f4-8582-0650a376dfcb"},"vehicle_type_id":"4","last_reported":1739974174,"current_range_meters":8400,"station_id":"ce4bhn92rcd13ifvqgrg","pricing_plan_id":"cebpf4jnsgd1na2vs0mg"},{"bike_id":"7264e4c5-3ae1-4c87-87df-9ee7f6df54a3","system_id":"levelo_inurba_marseille","lat":43.25579,"lon":5.38226,"is_reserved":false,"is_disabled":false,"rental_uris":{"android":"levelo://app?vid=7264e4c5-3ae1-4c87-87df-9ee7f6df54a3","ios":"levelo://app?vid=7264e4c5-3ae1-4c87-87df-9ee7f6df54a3"},"vehicle_type_id":"4","last_reported":1739974174,"current_range_meters":8400,"station_id":"","pricing_plan_id":"cebpf4jnsgd1na2vs0mg"},{"bike_id":"e79d1c03-ea93-4ee5-8cb2-ecdeca48b0aa","system_id":"levelo_inurba_marseille","lat":43.23152,"lon":5.43702,"is_reserved":false,"is_disabled":true,"rental_uris":{"android":"levelo://app?vid=e79d1c03-ea93-4ee5-8cb2-ecdeca48b0aa","ios":"levelo://app?vid=e79d1c03-ea93-4ee5-8cb2-ecdeca48b0aa"},"vehicle_type_id":"4","last_reported":1739974174,"current_range_meters":8400,"station_id":"ce4bhmp2rcd13ifvqgog","pricing_plan_id":"cebpf4jnsgd1na2vs0mg"},{"bike_id":"3f4434fb-908c-42f5-bf65-d81de3299319","system_id":"levelo_inurba_marseille","lat":43.25819,"lon":5.39427,"is_reserved":false,"is_disabled":false,"rental_uris":{"android":"levelo://app?vid=3f4434fb-908c-42f5-bf65-d81de3299319","ios":"levelo://app?vid=3f4434fb-908c-42f5-bf65-d81de3299319"},"vehicle_type_id":"4","last_reported":1739974174,"current_range_meters":8800,"station_id":"ce4bhip2rcd13ifvqft0","pricing_plan_id":"cebpf4jnsgd1na2vs0mg"},{"bike_id":"10c134e7-7862-45ed-8103-0b6221fb4b66","system_id":"levelo_inurba_marseille","lat":43.25022,"lon":5.38932,"is_reserved":false,"is_disabled":false,"rental_uris":{"android":"levelo://app?vid=10c134e7-7862-45ed-8103-0b6221fb4b66","ios":"levelo://app?vid=10c134e7-7862-45ed-8103-0b6221fb4b66"},"vehicle_type_id":"4","last_reported":1739974174,"current_range_meters":8800,"station_id":"","pricing_plan_id":"cebpf4jnsgd1na2vs0mg"},{"bike_id":"9b03b96d-2041-4d92-a949-290d7b50f943","system_id":"levelo_inurba_marseille","lat":43.27174,"lon":5.40986,"is_reserved":false,"is_disabled":false,"rental_uris":{"android":"levelo://app?vid=9b03b96d-2041-4d92-a949-290d7b50f943","ios":"levelo://app?vid=9b03b96d-2041-4d92-a949-290d7b50f943"},"vehicle_type_id":"4","last_reported":1739974174,"current_range_meters":8800,"station_id":"","pricing_plan_id":"cebpf4jnsgd1na2vs0mg"},{"bike_id":"9198c6ef-bd5b-45d9-bd7b-e058d791d44b","system_id":"levelo_inurba_marseille","lat":43.24809,"lon":5.37459,"is_reserved":false,"is_disabled":false,"rental_uris":{"android":"levelo://app?vid=9198c6ef-bd5b-45d9-bd7b-e058d791d44b","ios":"levelo://app?vid=9198c6ef-bd5b-45d9-bd7b-e058d791d44b"},"vehicle_type_id":"4","last_reported":1739974174,"current_range_meters":8800,"station_id":"ce4bhgh2rcd13ifvqfb0","pricing_plan_id":"cebpf4jnsgd1na2vs0mg"},{"bike_id":"389b2644-a88d-4cf6-bbb5-767b7ba3694c","system_id":"levelo_inurba_marseille","lat":43.295781,"lon":5.36744,"is_reserved":false,"is_disabled":false,"rental_uris":{"android":"levelo://app?vid=389b2644-a88d-4cf6-bbb5-767b7ba3694c","ios":"levelo://app?vid=389b2644-a88d-4cf6-bbb5-767b7ba3694c"},"vehicle_type_id":"4","last_reported":1739974174,"current_range_meters":9200,"station_id":"ce4bgph2rcd13ifvqc2g","pricing_plan_id":"cebpf4jnsgd1na2vs0mg"},{"bike_id":"f0f61fdf-e262-479f-a259-1997ef9b3f40","system_id":"levelo_inurba_marseille","lat":43.28171,"lon":5.42633,"is_reserved":false,"is_disabled":false,"rental_uris":{"android":"levelo://app?vid=f0f61fdf-e262-479f-a259-1997ef9b3f40","ios":"levelo://app?vid=f0f61fdf-e262-479f-a259-1997ef9b3f40"},"vehicle_type_id":"4","last_reported":1739974174,"current_range_meters":9200,"station_id":"","pricing_plan_id":"cebpf4jnsgd1na2vs0mg"},{"bike_id":"db7f2d58-492d-4297-aa78-ce0ad99a0a74","system_id":"levelo_inurba_marseille","lat":43.27461,"lon":5.41046,"is_reserved":false,"is_disabled":false,"rental_uris":{"android":"levelo://app?vid=db7f2d58-492d-4297-aa78-ce0ad99a0a74","ios":"levelo://app?vid=db7f2d58-492d-4297-aa78-ce0ad99a0a74"},"vehicle_type_id":"4","last_reported":1739974174,"current_range_meters":9600,"station_id":"ce4bhb92rcd13ifvqen0","pricing_plan_id":"cebpf4jnsgd1na2vs0mg"},{"bike_id":"0215c6b1-a53b-4c3f-ad8e-4cbaa59c5dcf","system_id":"levelo_inurba_marseille","lat":43.24167,"lon":5.36401,"is_reserved":false,"is_disabled":false,"rental_uris":{"android":"levelo://app?vid=0215c6b1-a53b-4c3f-ad8e-4cbaa59c5dcf","ios":"levelo://app?vid=0215c6b1-a53b-4c3f-ad8e-4cbaa59c5dcf"},"vehicle_type_id":"4","last_reported":1739974174,"current_range_meters":9600,"station_id":"","pricing_plan_id":"cebpf4jnsgd1na2vs0mg"},{"bike_id":"57502862-d2c3-413a-9d48-b225aebaee0c","system_id":"levelo_inurba_marseille","lat":43.27206,"lon":5.39185,"is_reserved":false,"is_disabled":false,"rental_uris":{"android":"levelo://app?vid=57502862-d2c3-413a-9d48-b225aebaee0c","ios":"levelo://app?vid=57502862-d2c3-413a-9d48-b225aebaee0c"},"vehicle_type_id":"4","last_reported":1739974174,"current_range_meters":9600,"station_id":"ce4bhhp2rcd13ifvqfm0","pricing_plan_id":"cebpf4jnsgd1na2vs0mg"},{"bike_id":"ea1519e7-b5fe-42ac-aa41-a04f66c121d4","system_id":"levelo_inurba_marseille","lat":43.24074,"lon":5.37743,"is_reserved":false,"is_disabled":false,"rental_uris":{"android":"levelo://app?vid=ea1519e7-b5fe-42ac-aa41-a04f66c121d4","ios":"levelo://app?vid=ea1519e7-b5fe-42ac-aa41-a04f66c121d4"},"vehicle_type_id":"4","last_reported":1739974174,"current_range_meters":9600,"station_id":"ce4bhnp2rcd13ifvqgvg","pricing_plan_id":"cebpf4jnsgd1na2vs0mg"},{"bike_id":"f21e4eab-4010-4ae5-a6f3-5e2bfdd054ad","system_id":"levelo_inurba_marseille","lat":43.24401,"lon":5.3705,"is_reserved":false,"is_disabled":false,"rental_uris":{"android":"levelo://app?vid=f21e4eab-4010-4ae5-a6f3-5e2bfdd054ad","ios":"levelo://app?vid=f21e4eab-4010-4ae5-a6f3-5e2bfdd054ad"},"vehicle_type_id":"4","last_reported":1739974174,"current_range_meters":10000,"station_id":"ce4bhhh2rcd13ifvqfk0","pricing_plan_id":"cebpf4jnsgd1na2vs0mg"},{"bike_id":"5bf3b808-e95e-4f10-ba0a-6c8382f003f4","system_id":"levelo_inurba_marseille","lat":43.28722,"lon":5.36091,"is_reserved":false,"is_disabled":false,"rental_uris":{"android":"levelo://app?vid=5bf3b808-e95e-4f10-ba0a-6c8382f003f4","ios":"levelo://app?vid=5bf3b808-e95e-4f10-ba0a-6c8382f003f4"},"vehicle_type_id":"4","last_reported":1739974174,"current_range_meters":10000,"station_id":"cki0cbj6b192h4jlfktg","pricing_plan_id":"cebpf4jnsgd1na2vs0mg"},{"bike_id":"009b5ee7-f82a-48e3-9da6-2f2a84e38b27","system_id":"levelo_inurba_marseille","lat":43.28754,"lon":5.39938,"is_reserved":false,"is_disabled":false,"rental_uris":{"android":"levelo://app?vid=009b5ee7-f82a-48e3-9da6-2f2a84e38b27","ios":"levelo://app?vid=009b5ee7-f82a-48e3-9da6-2f2a84e38b27"},"vehicle_type_id":"4","last_reported":1739974174,"current_range_meters":10000,"station_id":"","pricing_plan_id":"cebpf4jnsgd1na2vs0mg"},{"bike_id":"6defbe51-bc6f-4430-b5ab-60dc5cf67e7b","system_id":"levelo_inurba_marseille","lat":43.24185,"lon":5.39729,"is_reserved":false,"is_disabled":false,"rental_uris":{"android":"levelo://app?vid=6defbe51-bc6f-4430-b5ab-60dc5cf67e7b","ios":"levelo://app?vid=6defbe51-bc6f-4430-b5ab-60dc5cf67e7b"},"vehicle_type_id":"4","last_reported":1739974174,"current_range_meters":10000,"station_id":"ce4bhn12rcd13ifvqgpg","pricing_plan_id":"cebpf4jnsgd1na2vs0mg"},{"bike_id":"f06e9da7-55e1-4f7c-af34-7a7971579920","system_id":"levelo_inurba_marseille","lat":43.26574,"lon":5.37265,"is_reserved":false,"is_disabled":false,"rental_uris":{"android":"levelo://app?vid=f06e9da7-55e1-4f7c-af34-7a7971579920","ios":"levelo://app?vid=f06e9da7-55e1-4f7c-af34-7a7971579920"},"vehicle_type_id":"4","last_reported":1739974174,"current_range_meters":10000,"station_id":"ce4bhg12rcd13ifvqf70","pricing_plan_id":"cebpf4jnsgd1na2vs0mg"},{"bike_id":"f027fe38-3f5d-42fa-b16a-68ca60104c09","system_id":"levelo_inurba_marseille","lat":43.24166,"lon":5.36401,"is_reserved":false,"is_disabled":false,"rental_uris":{"android":"levelo://app?vid=f027fe38-3f5d-42fa-b16a-68ca60104c09","ios":"levelo://app?vid=f027fe38-3f5d-42fa-b16a-68ca60104c09"},"vehicle_type_id":"4","last_reported":1739974174,"current_range_meters":10800,"station_id":"","pricing_plan_id":"cebpf4jnsgd1na2vs0mg"},{"bike_id":"bb1a4c2a-340a-4f5b-b8fd-fd20852a249e","system_id":"levelo_inurba_marseille","lat":43.2762,"lon":5.36111,"is_reserved":false,"is_disabled":false,"rental_uris":{"android":"levelo://app?vid=bb1a4c2a-340a-4f5b-b8fd-fd20852a249e","ios":"levelo://app?vid=bb1a4c2a-340a-4f5b-b8fd-fd20852a249e"},"vehicle_type_id":"4","last_reported":1739974174,"current_range_meters":11200,"station_id":"ce4bgj92rcd13ifvqbe0","pricing_plan_id":"cebpf4jnsgd1na2vs0mg"},{"bike_id":"4959cb53-21b0-40a5-b4cf-0340d2db0f8a","system_id":"levelo_inurba_marseille","lat":43.31525,"lon":5.38038,"is_reserved":false,"is_disabled":false,"rental_uris":{"android":"levelo://app?vid=4959cb53-21b0-40a5-b4cf-0340d2db0f8a","ios":"levelo://app?vid=4959cb53-21b0-40a5-b4cf-0340d2db0f8a"},"vehicle_type_id":"4","last_reported":1739974174,"current_range_meters":14000,"station_id":"ce4bhsp2rcd13ifvqi50","pricing_plan_id":"cebpf4jnsgd1na2vs0mg"},{"bike_id":"741c1d0e-e239-4443-a45f-c66e97696546","system_id":"levelo_inurba_marseille","lat":43.29595,"lon":5.38115,"is_reserved":false,"is_disabled":false,"rental_uris":{"android":"levelo://app?vid=741c1d0e-e239-4443-a45f-c66e97696546","ios":"levelo://app?vid=741c1d0e-e239-4443-a45f-c66e97696546"},"vehicle_type_id":"4","last_reported":1739974174,"current_range_meters":11200,"station_id":"ce4bgl12rcd13ifvqbo0","pricing_plan_id":"cebpf4jnsgd1na2vs0mg"},{"bike_id":"d1dec037-ee4c-4db9-a655-1087d8ee1f4f","system_id":"levelo_inurba_marseille","lat":43.28444,"lon":5.39175,"is_reserved":false,"is_disabled":true,"rental_uris":{"android":"levelo://app?vid=d1dec037-ee4c-4db9-a655-1087d8ee1f4f","ios":"levelo://app?vid=d1dec037-ee4c-4db9-a655-1087d8ee1f4f"},"vehicle_type_id":"4","last_reported":1739974174,"current_range_meters":11200,"station_id":"","pricing_plan_id":"cebpf4jnsgd1na2vs0mg"},{"bike_id":"c186b769-21b0-4010-925d-7e3b55aba84a","system_id":"levelo_inurba_marseille","lat":43.30169,"lon":5.38043,"is_reserved":false,"is_disabled":false,"rental_uris":{"android":"levelo://app?vid=c186b769-21b0-4010-925d-7e3b55aba84a","ios":"levelo://app?vid=c186b769-21b0-4010-925d-7e3b55aba84a"},"vehicle_type_id":"4","last_reported":1739974174,"current_range_meters":11600,"station_id":"ce4bgjp2rcd13ifvqbh0","pricing_plan_id":"cebpf4jnsgd1na2vs0mg"},{"bike_id":"234ab225-fb15-44cb-af0d-63e6ab8ae78f","system_id":"levelo_inurba_marseille","lat":43.3088,"lon":5.39643,"is_reserved":false,"is_disabled":false,"rental_uris":{"android":"levelo://app?vid=234ab225-fb15-44cb-af0d-63e6ab8ae78f","ios":"levelo://app?vid=234ab225-fb15-44cb-af0d-63e6ab8ae78f"},"vehicle_type_id":"4","last_reported":1739974174,"current_range_meters":11600,"station_id":"ce4bh012rcd13ifvqcv0","pricing_plan_id":"cebpf4jnsgd1na2vs0mg"},{"bike_id":"63c4cf47-dbff-4d5e-a88a-080b99df99de","system_id":"levelo_inurba_marseille","lat":43.29535,"lon":5.38857,"is_reserved":false,"is_disabled":true,"rental_uris":{"android":"levelo://app?vid=63c4cf47-dbff-4d5e-a88a-080b99df99de","ios":"levelo://app?vid=63c4cf47-dbff-4d5e-a88a-080b99df99de"},"vehicle_type_id":"4","last_reported":1739974174,"current_range_meters":11600,"station_id":"","pricing_plan_id":"cebpf4jnsgd1na2vs0mg"},{"bike_id":"86e0f2fa-0ecf-409b-a02a-9f1756cded6b","system_id":"levelo_inurba_marseille","lat":43.2762,"lon":5.36108,"is_reserved":false,"is_disabled":false,"rental_uris":{"android":"levelo://app?vid=86e0f2fa-0ecf-409b-a02a-9f1756cded6b","ios":"levelo://app?vid=86e0f2fa-0ecf-409b-a02a-9f1756cded6b"},"vehicle_type_id":"4","last_reported":1739974174,"current_range_meters":11600,"station_id":"ce4bgj92rcd13ifvqbe0","pricing_plan_id":"cebpf4jnsgd1na2vs0mg"},{"bike_id":"1d63a175-89ef-49ff-9ead-dfe9ed6c22cf","system_id":"levelo_inurba_marseille","lat":43.24693,"lon":5.39437,"is_reserved":false,"is_disabled":false,"rental_uris":{"android":"levelo://app?vid=1d63a175-89ef-49ff-9ead-dfe9ed6c22cf","ios":"levelo://app?vid=1d63a175-89ef-49ff-9ead-dfe9ed6c22cf"},"vehicle_type_id":"4","last_reported":1739974174,"current_range_meters":11600,"station_id":"","pricing_plan_id":"cebpf4jnsgd1na2vs0mg"},{"bike_id":"87a627da-e4b0-4a18-8633-fd19bb219ca1","system_id":"levelo_inurba_marseille","lat":43.25024,"lon":5.38892,"is_reserved":false,"is_disabled":false,"rental_uris":{"android":"levelo://app?vid=87a627da-e4b0-4a18-8633-fd19bb219ca1","ios":"levelo://app?vid=87a627da-e4b0-4a18-8633-fd19bb219ca1"},"vehicle_type_id":"4","last_reported":1739974174,"current_range_meters":11600,"station_id":"ce4bhgp2rcd13ifvqfd0","pricing_plan_id":"cebpf4jnsgd1na2vs0mg"},{"bike_id":"f1ef0f2b-aceb-4fe1-8e45-90f1104684ec","system_id":"levelo_inurba_marseille","lat":43.30956,"lon":5.39066,"is_reserved":false,"is_disabled":false,"rental_uris":{"android":"levelo://app?vid=f1ef0f2b-aceb-4fe1-8e45-90f1104684ec","ios":"levelo://app?vid=f1ef0f2b-aceb-4fe1-8e45-90f1104684ec"},"vehicle_type_id":"4","last_reported":1739974174,"current_range_meters":11600,"station_id":"ce4bgup2rcd13ifvqco0","pricing_plan_id":"cebpf4jnsgd1na2vs0mg"},{"bike_id":"a57b9d53-23ee-489f-9298-6e7e91458f5e","system_id":"levelo_inurba_marseille","lat":43.27973,"lon":5.38733,"is_reserved":false,"is_disabled":false,"rental_uris":{"android":"levelo://app?vid=a57b9d53-23ee-489f-9298-6e7e91458f5e","ios":"levelo://app?vid=a57b9d53-23ee-489f-9298-6e7e91458f5e"},"vehicle_type_id":"4","last_reported":1739974174,"current_range_meters":9200,"station_id":"ce4bhg12rcd13ifvqf80","pricing_plan_id":"cebpf4jnsgd1na2vs0mg"},{"bike_id":"cc097def-9c3a-449c-b5c9-b895dd6bcf3c","system_id":"levelo_inurba_marseille","lat":43.30603,"lon":5.37237,"is_reserved":false,"is_disabled":false,"rental_uris":{"android":"levelo://app?vid=cc097def-9c3a-449c-b5c9-b895dd6bcf3c","ios":"levelo://app?vid=cc097def-9c3a-449c-b5c9-b895dd6bcf3c"},"vehicle_type_id":"4","last_reported":1739974174,"current_range_meters":11200,"station_id":"ce4bgqh2rcd13ifvqc4g","pricing_plan_id":"cebpf4jnsgd1na2vs0mg"},{"bike_id":"a00fb5cd-e0d2-4f96-befb-5275c0df0c87","system_id":"levelo_inurba_marseille","lat":43.27992,"lon":5.4167,"is_reserved":false,"is_disabled":false,"rental_uris":{"android":"levelo://app?vid=a00fb5cd-e0d2-4f96-befb-5275c0df0c87","ios":"levelo://app?vid=a00fb5cd-e0d2-4f96-befb-5275c0df0c87"},"vehicle_type_id":"4","last_reported":1739974174,"current_range_meters":12000,"station_id":"ce4bho12rcd13ifvqh1g","pricing_plan_id":"cebpf4jnsgd1na2vs0mg"},{"bike_id":"c67fb496-8441-458a-af2d-8f07c087bdd0","system_id":"levelo_inurba_marseille","lat":43.24176,"lon":5.36402,"is_reserved":false,"is_disabled":true,"rental_uris":{"android":"levelo://app?vid=c67fb496-8441-458a-af2d-8f07c087bdd0","ios":"levelo://app?vid=c67fb496-8441-458a-af2d-8f07c087bdd0"},"vehicle_type_id":"4","last_reported":1739974174,"current_range_meters":12000,"station_id":"","pricing_plan_id":"cebpf4jnsgd1na2vs0mg"},{"bike_id":"daae82dc-3f24-4b5e-8d92-0ba5accd662a","system_id":"levelo_inurba_marseille","lat":43.27555,"lon":5.38424,"is_reserved":false,"is_disabled":false,"rental_uris":{"android":"levelo://app?vid=daae82dc-3f24-4b5e-8d92-0ba5accd662a","ios":"levelo://app?vid=daae82dc-3f24-4b5e-8d92-0ba5accd662a"},"vehicle_type_id":"4","last_reported":1739974174,"current_range_meters":10800,"station_id":"ce4bhh92rcd13ifvqfi0","pricing_plan_id":"cebpf4jnsgd1na2vs0mg"},{"bike_id":"7ca3beb9-0dc8-4a00-bab2-36a82a343955","system_id":"levelo_inurba_marseille","lat":43.298592,"lon":5.362813,"is_reserved":false,"is_disabled":false,"rental_uris":{"android":"levelo://app?vid=7ca3beb9-0dc8-4a00-bab2-36a82a343955","ios":"levelo://app?vid=7ca3beb9-0dc8-4a00-bab2-36a82a343955"},"vehicle_type_id":"4","last_reported":1739974174,"current_range_meters":12400,"station_id":"ce4bhq12rcd13ifvqhig","pricing_plan_id":"cebpf4jnsgd1na2vs0mg"},{"bike_id":"40c7e0af-3148-471a-9efc-8781ba817f28","system_id":"levelo_inurba_marseille","lat":43.31329,"lon":5.39694,"is_reserved":false,"is_disabled":false,"rental_uris":{"android":"levelo://app?vid=40c7e0af-3148-471a-9efc-8781ba817f28","ios":"levelo://app?vid=40c7e0af-3148-471a-9efc-8781ba817f28"},"vehicle_type_id":"4","last_reported":1739974174,"current_range_meters":12000,"station_id":"ce4bgvp2rcd13ifvqcu0","pricing_plan_id":"cebpf4jnsgd1na2vs0mg"},{"bike_id":"c1361488-a68f-4a15-8ea7-1da3a0d50559","system_id":"levelo_inurba_marseille","lat":43.27133,"lon":5.40712,"is_reserved":false,"is_disabled":false,"rental_uris":{"android":"levelo://app?vid=c1361488-a68f-4a15-8ea7-1da3a0d50559","ios":"levelo://app?vid=c1361488-a68f-4a15-8ea7-1da3a0d50559"},"vehicle_type_id":"4","last_reported":1739974174,"current_range_meters":12400,"station_id":"ce4bhk92rcd13ifvqgb0","pricing_plan_id":"cebpf4jnsgd1na2vs0mg"},{"bike_id":"24dd12c1-4d8a-40c0-b521-a98d2d462c41","system_id":"levelo_inurba_marseille","lat":43.24171,"lon":5.36399,"is_reserved":false,"is_disabled":false,"rental_uris":{"android":"levelo://app?vid=24dd12c1-4d8a-40c0-b521-a98d2d462c41","ios":"levelo://app?vid=24dd12c1-4d8a-40c0-b521-a98d2d462c41"},"vehicle_type_id":"4","last_reported":1739974174,"current_range_meters":12400,"station_id":"","pricing_plan_id":"cebpf4jnsgd1na2vs0mg"},{"bike_id":"62613826-4aec-4f29-8a06-e60f5f637ded","system_id":"levelo_inurba_marseille","lat":43.30529,"lon":5.36535,"is_reserved":false,"is_disabled":false,"rental_uris":{"android":"levelo://app?vid=62613826-4aec-4f29-8a06-e60f5f637ded","ios":"levelo://app?vid=62613826-4aec-4f29-8a06-e60f5f637ded"},"vehicle_type_id":"4","last_reported":1739974174,"current_range_meters":12400,"station_id":"ce4bgs12rcd13ifvqcag","pricing_plan_id":"cebpf4jnsgd1na2vs0mg"},{"bike_id":"437bb01f-bd3c-49cd-9e3b-6cb22839a2bb","system_id":"levelo_inurba_marseille","lat":43.30494,"lon":5.36538,"is_reserved":false,"is_disabled":false,"rental_uris":{"android":"levelo://app?vid=437bb01f-bd3c-49cd-9e3b-6cb22839a2bb","ios":"levelo://app?vid=437bb01f-bd3c-49cd-9e3b-6cb22839a2bb"},"vehicle_type_id":"4","last_reported":1739974174,"current_range_meters":12800,"station_id":"ce4bgs12rcd13ifvqcag","pricing_plan_id":"cebpf4jnsgd1na2vs0mg"},{"bike_id":"ba0a4dbe-d370-492e-a789-44c6ef69c02b","system_id":"levelo_inurba_marseille","lat":43.28614,"lon":5.35108,"is_reserved":false,"is_disabled":true,"rental_uris":{"android":"levelo://app?vid=ba0a4dbe-d370-492e-a789-44c6ef69c02b","ios":"levelo://app?vid=ba0a4dbe-d370-492e-a789-44c6ef69c02b"},"vehicle_type_id":"4","last_reported":1739974174,"current_range_meters":12800,"station_id":"","pricing_plan_id":"cebpf4jnsgd1na2vs0mg"},{"bike_id":"34d14ec0-9a1d-4d07-8158-52ff5d0c0371","system_id":"levelo_inurba_marseille","lat":43.29421,"lon":5.38043,"is_reserved":false,"is_disabled":false,"rental_uris":{"android":"levelo://app?vid=34d14ec0-9a1d-4d07-8158-52ff5d0c0371","ios":"levelo://app?vid=34d14ec0-9a1d-4d07-8158-52ff5d0c0371"},"vehicle_type_id":"4","last_reported":1739974174,"current_range_meters":12800,"station_id":"","pricing_plan_id":"cebpf4jnsgd1na2vs0mg"},{"bike_id":"8efd2848-95c4-4edf-b2b0-33f8fb8f8c58","system_id":"levelo_inurba_marseille","lat":43.27494,"lon":5.42451,"is_reserved":false,"is_disabled":false,"rental_uris":{"android":"levelo://app?vid=8efd2848-95c4-4edf-b2b0-33f8fb8f8c58","ios":"levelo://app?vid=8efd2848-95c4-4edf-b2b0-33f8fb8f8c58"},"vehicle_type_id":"4","last_reported":1739974174,"current_range_meters":12400,"station_id":"ce4bhn92rcd13ifvqgrg","pricing_plan_id":"cebpf4jnsgd1na2vs0mg"},{"bike_id":"fc971b16-bef3-4b6d-813c-ffc8ffa48842","system_id":"levelo_inurba_marseille","lat":43.2841,"lon":5.34986,"is_reserved":false,"is_disabled":true,"rental_uris":{"android":"levelo://app?vid=fc971b16-bef3-4b6d-813c-ffc8ffa48842","ios":"levelo://app?vid=fc971b16-bef3-4b6d-813c-ffc8ffa48842"},"vehicle_type_id":"4","last_reported":1739974174,"current_range_meters":12800,"station_id":"","pricing_plan_id":"cebpf4jnsgd1na2vs0mg"},{"bike_id":"ffde1fb2-cb77-4d21-8bd2-96d5bd0615a8","system_id":"levelo_inurba_marseille","lat":43.3028,"lon":5.37701,"is_reserved":false,"is_disabled":false,"rental_uris":{"android":"levelo://app?vid=ffde1fb2-cb77-4d21-8bd2-96d5bd0615a8","ios":"levelo://app?vid=ffde1fb2-cb77-4d21-8bd2-96d5bd0615a8"},"vehicle_type_id":"4","last_reported":1739974174,"current_range_meters":12800,"station_id":"ce4bguh2rcd13ifvqcj0","pricing_plan_id":"cebpf4jnsgd1na2vs0mg"},{"bike_id":"5180f318-4948-4085-aaf1-5f3160b57dbe","system_id":"levelo_inurba_marseille","lat":43.27614,"lon":5.36108,"is_reserved":false,"is_disabled":true,"rental_uris":{"android":"levelo://app?vid=5180f318-4948-4085-aaf1-5f3160b57dbe","ios":"levelo://app?vid=5180f318-4948-4085-aaf1-5f3160b57dbe"},"vehicle_type_id":"4","last_reported":1739974174,"current_range_meters":12800,"station_id":"","pricing_plan_id":"cebpf4jnsgd1na2vs0mg"},{"bike_id":"918a2fa1-4d06-4f78-960c-7bbdcd4143dd","system_id":"levelo_inurba_marseille","lat":43.309509,"lon":5.390221,"is_reserved":false,"is_disabled":false,"rental_uris":{"android":"levelo://app?vid=918a2fa1-4d06-4f78-960c-7bbdcd4143dd","ios":"levelo://app?vid=918a2fa1-4d06-4f78-960c-7bbdcd4143dd"},"vehicle_type_id":"4","last_reported":1739974174,"current_range_meters":13600,"station_id":"ce4bgup2rcd13ifvqco0","pricing_plan_id":"cebpf4jnsgd1na2vs0mg"},{"bike_id":"0b1a3b32-459a-4ff9-a388-d16482304482","system_id":"levelo_inurba_marseille","lat":43.28005,"lon":5.40001,"is_reserved":false,"is_disabled":false,"rental_uris":{"android":"levelo://app?vid=0b1a3b32-459a-4ff9-a388-d16482304482","ios":"levelo://app?vid=0b1a3b32-459a-4ff9-a388-d16482304482"},"vehicle_type_id":"4","last_reported":1739974174,"current_range_meters":13600,"station_id":"","pricing_plan_id":"cebpf4jnsgd1na2vs0mg"},{"bike_id":"e2596add-e568-49b6-a063-b6868f5c61f8","system_id":"levelo_inurba_marseille","lat":43.24823,"lon":5.37459,"is_reserved":false,"is_disabled":false,"rental_uris":{"android":"levelo://app?vid=e2596add-e568-49b6-a063-b6868f5c61f8","ios":"levelo://app?vid=e2596add-e568-49b6-a063-b6868f5c61f8"},"vehicle_type_id":"4","last_reported":1739974174,"current_range_meters":13600,"station_id":"ce4bhgh2rcd13ifvqfb0","pricing_plan_id":"cebpf4jnsgd1na2vs0mg"},{"bike_id":"e3422978-e3d1-4168-a7a6-5ae7ec99e03f","system_id":"levelo_inurba_marseille","lat":43.271774,"lon":5.409877,"is_reserved":false,"is_disabled":false,"rental_uris":{"android":"levelo://app?vid=e3422978-e3d1-4168-a7a6-5ae7ec99e03f","ios":"levelo://app?vid=e3422978-e3d1-4168-a7a6-5ae7ec99e03f"},"vehicle_type_id":"4","last_reported":1739974174,"current_range_meters":13600,"station_id":"","pricing_plan_id":"cebpf4jnsgd1na2vs0mg"},{"bike_id":"9ac2671b-b398-418e-b292-3a883ee5c1ce","system_id":"levelo_inurba_marseille","lat":43.30952,"lon":5.36826,"is_reserved":false,"is_disabled":false,"rental_uris":{"android":"levelo://app?vid=9ac2671b-b398-418e-b292-3a883ee5c1ce","ios":"levelo://app?vid=9ac2671b-b398-418e-b292-3a883ee5c1ce"},"vehicle_type_id":"4","last_reported":1739974174,"current_range_meters":12800,"station_id":"ce4bgn92rcd13ifvqbvg","pricing_plan_id":"cebpf4jnsgd1na2vs0mg"},{"bike_id":"b1fa4353-572e-446a-ae3b-39a2a2be9889","system_id":"levelo_inurba_marseille","lat":43.290143,"lon":5.381138,"is_reserved":false,"is_disabled":false,"rental_uris":{"android":"levelo://app?vid=b1fa4353-572e-446a-ae3b-39a2a2be9889","ios":"levelo://app?vid=b1fa4353-572e-446a-ae3b-39a2a2be9889"},"vehicle_type_id":"4","last_reported":1739974174,"current_range_meters":13600,"station_id":"ce4bh4p2rcd13ifvqe1g","pricing_plan_id":"cebpf4jnsgd1na2vs0mg"},{"bike_id":"b64778c2-2434-4409-b125-e965a1fd469a","system_id":"levelo_inurba_marseille","lat":43.30321,"lon":5.36672,"is_reserved":false,"is_disabled":false,"rental_uris":{"android":"levelo://app?vid=b64778c2-2434-4409-b125-e965a1fd469a","ios":"levelo://app?vid=b64778c2-2434-4409-b125-e965a1fd469a"},"vehicle_type_id":"4","last_reported":1739974174,"current_range_meters":13600,"station_id":"ce4bgs12rcd13ifvqcag","pricing_plan_id":"cebpf4jnsgd1na2vs0mg"},{"bike_id":"5089bb88-a0cd-4434-a1a9-f3d5b67361c6","system_id":"levelo_inurba_marseille","lat":43.24369,"lon":5.38745,"is_reserved":false,"is_disabled":false,"rental_uris":{"android":"levelo://app?vid=5089bb88-a0cd-4434-a1a9-f3d5b67361c6","ios":"levelo://app?vid=5089bb88-a0cd-4434-a1a9-f3d5b67361c6"},"vehicle_type_id":"4","last_reported":1739974174,"current_range_meters":14000,"station_id":"","pricing_plan_id":"cebpf4jnsgd1na2vs0mg"},{"bike_id":"546c0212-55c6-476d-8224-641f51f7c4c5","system_id":"levelo_inurba_marseille","lat":43.28604,"lon":5.37069,"is_reserved":false,"is_disabled":false,"rental_uris":{"android":"levelo://app?vid=546c0212-55c6-476d-8224-641f51f7c4c5","ios":"levelo://app?vid=546c0212-55c6-476d-8224-641f51f7c4c5"},"vehicle_type_id":"4","last_reported":1739974174,"current_range_meters":14000,"station_id":"ce4bht12rcd13ifvqi60","pricing_plan_id":"cebpf4jnsgd1na2vs0mg"},{"bike_id":"79a8de8e-6448-4651-a4fc-e7e896fb3b6a","system_id":"levelo_inurba_marseille","lat":43.25579,"lon":5.38235,"is_reserved":false,"is_disabled":false,"rental_uris":{"android":"levelo://app?vid=79a8de8e-6448-4651-a4fc-e7e896fb3b6a","ios":"levelo://app?vid=79a8de8e-6448-4651-a4fc-e7e896fb3b6a"},"vehicle_type_id":"4","last_reported":1739974174,"current_range_meters":14000,"station_id":"ce4bhih2rcd13ifvqfs0","pricing_plan_id":"cebpf4jnsgd1na2vs0mg"},{"bike_id":"9a20bf4a-2838-4260-9d28-debd745460c0","system_id":"levelo_inurba_marseille","lat":43.30926,"lon":5.37762,"is_reserved":false,"is_disabled":false,"rental_uris":{"android":"levelo://app?vid=9a20bf4a-2838-4260-9d28-debd745460c0","ios":"levelo://app?vid=9a20bf4a-2838-4260-9d28-debd745460c0"},"vehicle_type_id":"4","last_reported":1739974174,"current_range_meters":14000,"station_id":"ce4bgv92rcd13ifvqcq0","pricing_plan_id":"cebpf4jnsgd1na2vs0mg"},{"bike_id":"9fc0862e-fdaa-4007-a370-56b09c93b5ad","system_id":"levelo_inurba_marseille","lat":43.28425,"lon":5.34978,"is_reserved":false,"is_disabled":false,"rental_uris":{"android":"levelo://app?vid=9fc0862e-fdaa-4007-a370-56b09c93b5ad","ios":"levelo://app?vid=9fc0862e-fdaa-4007-a370-56b09c93b5ad"},"vehicle_type_id":"4","last_reported":1739974174,"current_range_meters":14000,"station_id":"","pricing_plan_id":"cebpf4jnsgd1na2vs0mg"},{"bike_id":"301faae0-6662-49e4-b2ed-4e71c6c83f7c","system_id":"levelo_inurba_marseille","lat":43.292432,"lon":5.375078,"is_reserved":false,"is_disabled":false,"rental_uris":{"android":"levelo://app?vid=301faae0-6662-49e4-b2ed-4e71c6c83f7c","ios":"levelo://app?vid=301faae0-6662-49e4-b2ed-4e71c6c83f7c"},"vehicle_type_id":"4","last_reported":1739974174,"current_range_meters":12400,"station_id":"ce4bgi12rcd13ifvqb70","pricing_plan_id":"cebpf4jnsgd1na2vs0mg"},{"bike_id":"d7eee3f0-74f3-418f-924a-112c6f13dec4","system_id":"levelo_inurba_marseille","lat":43.29738,"lon":5.37691,"is_reserved":false,"is_disabled":false,"rental_uris":{"android":"levelo://app?vid=d7eee3f0-74f3-418f-924a-112c6f13dec4","ios":"levelo://app?vid=d7eee3f0-74f3-418f-924a-112c6f13dec4"},"vehicle_type_id":"4","last_reported":1739974174,"current_range_meters":14400,"station_id":"ce4bgkh2rcd13ifvqbl0","pricing_plan_id":"cebpf4jnsgd1na2vs0mg"},{"bike_id":"731b377c-de6a-4eff-a9ce-ac3ffb76b784","system_id":"levelo_inurba_marseille","lat":43.24388,"lon":5.37065,"is_reserved":false,"is_disabled":false,"rental_uris":{"android":"levelo://app?vid=731b377c-de6a-4eff-a9ce-ac3ffb76b784","ios":"levelo://app?vid=731b377c-de6a-4eff-a9ce-ac3ffb76b784"},"vehicle_type_id":"4","last_reported":1739974174,"current_range_meters":14000,"station_id":"ce4bhhh2rcd13ifvqfk0","pricing_plan_id":"cebpf4jnsgd1na2vs0mg"},{"bike_id":"5f9ede52-c720-4107-a864-980fb2608395","system_id":"levelo_inurba_marseille","lat":43.24101,"lon":5.38675,"is_reserved":false,"is_disabled":false,"rental_uris":{"android":"levelo://app?vid=5f9ede52-c720-4107-a864-980fb2608395","ios":"levelo://app?vid=5f9ede52-c720-4107-a864-980fb2608395"},"vehicle_type_id":"4","last_reported":1739974174,"current_range_meters":14800,"station_id":"","pricing_plan_id":"cebpf4jnsgd1na2vs0mg"},{"bike_id":"516bafe0-5ae1-4584-8a28-800d99267cec","system_id":"levelo_inurba_marseille","lat":43.27936,"lon":5.41044,"is_reserved":false,"is_disabled":false,"rental_uris":{"android":"levelo://app?vid=516bafe0-5ae1-4584-8a28-800d99267cec","ios":"levelo://app?vid=516bafe0-5ae1-4584-8a28-800d99267cec"},"vehicle_type_id":"4","last_reported":1739974174,"current_range_meters":14800,"station_id":"ce4bhnp2rcd13ifvqh0g","pricing_plan_id":"cebpf4jnsgd1na2vs0mg"},{"bike_id":"8f945227-2a60-41ad-999a-0619a20053ef","system_id":"levelo_inurba_marseille","lat":43.27566,"lon":5.38422,"is_reserved":false,"is_disabled":false,"rental_uris":{"android":"levelo://app?vid=8f945227-2a60-41ad-999a-0619a20053ef","ios":"levelo://app?vid=8f945227-2a60-41ad-999a-0619a20053ef"},"vehicle_type_id":"4","last_reported":1739974174,"current_range_meters":14400,"station_id":"ce4bhh92rcd13ifvqfi0","pricing_plan_id":"cebpf4jnsgd1na2vs0mg"},{"bike_id":"c835c6b7-91aa-4f5c-95c8-b13cffbebdef","system_id":"levelo_inurba_marseille","lat":43.27169,"lon":5.40995,"is_reserved":false,"is_disabled":false,"rental_uris":{"android":"levelo://app?vid=c835c6b7-91aa-4f5c-95c8-b13cffbebdef","ios":"levelo://app?vid=c835c6b7-91aa-4f5c-95c8-b13cffbebdef"},"vehicle_type_id":"4","last_reported":1739974174,"current_range_meters":14800,"station_id":"","pricing_plan_id":"cebpf4jnsgd1na2vs0mg"},{"bike_id":"de814b09-dd0c-425d-87a0-3011b6d73f3f","system_id":"levelo_inurba_marseille","lat":43.28274,"lon":5.35051,"is_reserved":false,"is_disabled":false,"rental_uris":{"android":"levelo://app?vid=de814b09-dd0c-425d-87a0-3011b6d73f3f","ios":"levelo://app?vid=de814b09-dd0c-425d-87a0-3011b6d73f3f"},"vehicle_type_id":"4","last_reported":1739974174,"current_range_meters":14800,"station_id":"ce4bhbp2rcd13ifvqerg","pricing_plan_id":"cebpf4jnsgd1na2vs0mg"},{"bike_id":"a0af3547-0f5a-4ee7-a39d-23ed992db956","system_id":"levelo_inurba_marseille","lat":43.23418,"lon":5.40452,"is_reserved":false,"is_disabled":false,"rental_uris":{"android":"levelo://app?vid=a0af3547-0f5a-4ee7-a39d-23ed992db956","ios":"levelo://app?vid=a0af3547-0f5a-4ee7-a39d-23ed992db956"},"vehicle_type_id":"4","last_reported":1739974174,"current_range_meters":15200,"station_id":"","pricing_plan_id":"cebpf4jnsgd1na2vs0mg"},{"bike_id":"9cfc4cc3-b27b-4b5a-8200-8f933e7c4ef5","system_id":"levelo_inurba_marseille","lat":43.32365,"lon":5.38884,"is_reserved":false,"is_disabled":false,"rental_uris":{"android":"levelo://app?vid=9cfc4cc3-b27b-4b5a-8200-8f933e7c4ef5","ios":"levelo://app?vid=9cfc4cc3-b27b-4b5a-8200-8f933e7c4ef5"},"vehicle_type_id":"4","last_reported":1739974174,"current_range_meters":15200,"station_id":"ce4bhqp2rcd13ifvqhog","pricing_plan_id":"cebpf4jnsgd1na2vs0mg"},{"bike_id":"ba6293f6-c5a3-4b1d-b111-439b722346cc","system_id":"levelo_inurba_marseille","lat":43.26561,"lon":5.37314,"is_reserved":false,"is_disabled":false,"rental_uris":{"android":"levelo://app?vid=ba6293f6-c5a3-4b1d-b111-439b722346cc","ios":"levelo://app?vid=ba6293f6-c5a3-4b1d-b111-439b722346cc"},"vehicle_type_id":"4","last_reported":1739974174,"current_range_meters":16000,"station_id":"ce4bhg12rcd13ifvqf70","pricing_plan_id":"cebpf4jnsgd1na2vs0mg"},{"bike_id":"b85644ed-f65a-4039-a397-da921e97276e","system_id":"levelo_inurba_marseille","lat":43.23968,"lon":5.36631,"is_reserved":false,"is_disabled":false,"rental_uris":{"android":"levelo://app?vid=b85644ed-f65a-4039-a397-da921e97276e","ios":"levelo://app?vid=b85644ed-f65a-4039-a397-da921e97276e"},"vehicle_type_id":"4","last_reported":1739974174,"current_range_meters":16000,"station_id":"ce4bhi12rcd13ifvqfp0","pricing_plan_id":"cebpf4jnsgd1na2vs0mg"},{"bike_id":"5428c4a6-2268-45c5-aff9-a5f8e308d92b","system_id":"levelo_inurba_marseille","lat":43.3093,"lon":5.37254,"is_reserved":false,"is_disabled":false,"rental_uris":{"android":"levelo://app?vid=5428c4a6-2268-45c5-aff9-a5f8e308d92b","ios":"levelo://app?vid=5428c4a6-2268-45c5-aff9-a5f8e308d92b"},"vehicle_type_id":"4","last_reported":1739974174,"current_range_meters":16000,"station_id":"ce4bguh2rcd13ifvqckg","pricing_plan_id":"cebpf4jnsgd1na2vs0mg"},{"bike_id":"259617e0-e7e9-4a4d-aee7-15927e833679","system_id":"levelo_inurba_marseille","lat":43.26564,"lon":5.39018,"is_reserved":false,"is_disabled":false,"rental_uris":{"android":"levelo://app?vid=259617e0-e7e9-4a4d-aee7-15927e833679","ios":"levelo://app?vid=259617e0-e7e9-4a4d-aee7-15927e833679"},"vehicle_type_id":"4","last_reported":1739974174,"current_range_meters":16000,"station_id":"","pricing_plan_id":"cebpf4jnsgd1na2vs0mg"},{"bike_id":"eea53ece-49bb-4ab5-9642-ef74284e4e2b","system_id":"levelo_inurba_marseille","lat":43.27052,"lon":5.40247,"is_reserved":false,"is_disabled":false,"rental_uris":{"android":"levelo://app?vid=eea53ece-49bb-4ab5-9642-ef74284e4e2b","ios":"levelo://app?vid=eea53ece-49bb-4ab5-9642-ef74284e4e2b"},"vehicle_type_id":"4","last_reported":1739974174,"current_range_meters":16000,"station_id":"ce4bhk92rcd13ifvqgc0","pricing_plan_id":"cebpf4jnsgd1na2vs0mg"},{"bike_id":"b390b788-aa53-49e8-92de-c2b58aa681f2","system_id":"levelo_inurba_marseille","lat":43.29579,"lon":5.37508,"is_reserved":false,"is_disabled":false,"rental_uris":{"android":"levelo://app?vid=b390b788-aa53-49e8-92de-c2b58aa681f2","ios":"levelo://app?vid=b390b788-aa53-49e8-92de-c2b58aa681f2"},"vehicle_type_id":"4","last_reported":1739974174,"current_range_meters":16000,"station_id":"","pricing_plan_id":"cebpf4jnsgd1na2vs0mg"},{"bike_id":"6f2d037a-497e-4ce1-ad69-84316d52ca55","system_id":"levelo_inurba_marseille","lat":43.26942,"lon":5.40264,"is_reserved":false,"is_disabled":false,"rental_uris":{"android":"levelo://app?vid=6f2d037a-497e-4ce1-ad69-84316d52ca55","ios":"levelo://app?vid=6f2d037a-497e-4ce1-ad69-84316d52ca55"},"vehicle_type_id":"4","last_reported":1739974174,"current_range_meters":15200,"station_id":"cjm6bp8fraef2m0cb0m0","pricing_plan_id":"cebpf4jnsgd1na2vs0mg"},{"bike_id":"82de7fdf-fb6e-4296-bdd1-ecdfb5778c65","system_id":"levelo_inurba_marseille","lat":43.2315,"lon":5.43707,"is_reserved":false,"is_disabled":false,"rental_uris":{"android":"levelo://app?vid=82de7fdf-fb6e-4296-bdd1-ecdfb5778c65","ios":"levelo://app?vid=82de7fdf-fb6e-4296-bdd1-ecdfb5778c65"},"vehicle_type_id":"4","last_reported":1739974174,"current_range_meters":16000,"station_id":"ce4bhmp2rcd13ifvqgog","pricing_plan_id":"cebpf4jnsgd1na2vs0mg"},{"bike_id":"eb75e2ac-b61e-4c90-95cb-c16878504d94","system_id":"levelo_inurba_marseille","lat":43.2658,"lon":5.39041,"is_reserved":false,"is_disabled":false,"rental_uris":{"android":"levelo://app?vid=eb75e2ac-b61e-4c90-95cb-c16878504d94","ios":"levelo://app?vid=eb75e2ac-b61e-4c90-95cb-c16878504d94"},"vehicle_type_id":"4","last_reported":1739974174,"current_range_meters":16000,"station_id":"ce4bhe12rcd13ifvqf30","pricing_plan_id":"cebpf4jnsgd1na2vs0mg"},{"bike_id":"20fdb2b1-d777-4cbd-83fa-e89e065090c5","system_id":"levelo_inurba_marseille","lat":43.26557,"lon":5.37317,"is_reserved":false,"is_disabled":false,"rental_uris":{"android":"levelo://app?vid=20fdb2b1-d777-4cbd-83fa-e89e065090c5","ios":"levelo://app?vid=20fdb2b1-d777-4cbd-83fa-e89e065090c5"},"vehicle_type_id":"4","last_reported":1739974174,"current_range_meters":16400,"station_id":"","pricing_plan_id":"cebpf4jnsgd1na2vs0mg"},{"bike_id":"6935e097-67cc-4be5-a740-30089baf750d","system_id":"levelo_inurba_marseille","lat":43.291098,"lon":5.385788,"is_reserved":false,"is_disabled":false,"rental_uris":{"android":"levelo://app?vid=6935e097-67cc-4be5-a740-30089baf750d","ios":"levelo://app?vid=6935e097-67cc-4be5-a740-30089baf750d"},"vehicle_type_id":"4","last_reported":1739974174,"current_range_meters":16000,"station_id":"ce4bhgp2rcd13ifvqfe0","pricing_plan_id":"cebpf4jnsgd1na2vs0mg"},{"bike_id":"50255b81-f556-41bf-82d2-0b207904bf36","system_id":"levelo_inurba_marseille","lat":43.26058,"lon":5.39394,"is_reserved":false,"is_disabled":false,"rental_uris":{"android":"levelo://app?vid=50255b81-f556-41bf-82d2-0b207904bf36","ios":"levelo://app?vid=50255b81-f556-41bf-82d2-0b207904bf36"},"vehicle_type_id":"4","last_reported":1739974174,"current_range_meters":16400,"station_id":"ce4bhh92rcd13ifvqfj0","pricing_plan_id":"cebpf4jnsgd1na2vs0mg"},{"bike_id":"3cf409db-ea1f-40ef-9a60-ba2f1f323925","system_id":"levelo_inurba_marseille","lat":43.24172,"lon":5.39732,"is_reserved":false,"is_disabled":false,"rental_uris":{"android":"levelo://app?vid=3cf409db-ea1f-40ef-9a60-ba2f1f323925","ios":"levelo://app?vid=3cf409db-ea1f-40ef-9a60-ba2f1f323925"},"vehicle_type_id":"4","last_reported":1739974174,"current_range_meters":16400,"station_id":"ce4bhn12rcd13ifvqgpg","pricing_plan_id":"cebpf4jnsgd1na2vs0mg"},{"bike_id":"e5e2ed65-0a50-46fd-af77-1264dac67336","system_id":"levelo_inurba_marseille","lat":43.24161,"lon":5.36403,"is_reserved":false,"is_disabled":false,"rental_uris":{"android":"levelo://app?vid=e5e2ed65-0a50-46fd-af77-1264dac67336","ios":"levelo://app?vid=e5e2ed65-0a50-46fd-af77-1264dac67336"},"vehicle_type_id":"4","last_reported":1739974174,"current_range_meters":16400,"station_id":"","pricing_plan_id":"cebpf4jnsgd1na2vs0mg"},{"bike_id":"6c695163-13d1-4682-b513-311ea8d75027","system_id":"levelo_inurba_marseille","lat":43.31282,"lon":5.36846,"is_reserved":false,"is_disabled":false,"rental_uris":{"android":"levelo://app?vid=6c695163-13d1-4682-b513-311ea8d75027","ios":"levelo://app?vid=6c695163-13d1-4682-b513-311ea8d75027"},"vehicle_type_id":"4","last_reported":1739974174,"current_range_meters":16400,"station_id":"ce4bgl92rcd13ifvqbq0","pricing_plan_id":"cebpf4jnsgd1na2vs0mg"},{"bike_id":"bd354dd3-6006-4e9f-90f1-63f0410f8583","system_id":"levelo_inurba_marseille","lat":43.27377,"lon":5.3626,"is_reserved":false,"is_disabled":false,"rental_uris":{"android":"levelo://app?vid=bd354dd3-6006-4e9f-90f1-63f0410f8583","ios":"levelo://app?vid=bd354dd3-6006-4e9f-90f1-63f0410f8583"},"vehicle_type_id":"4","last_reported":1739974174,"current_range_meters":16000,"station_id":"ce4bhbh2rcd13ifvqeo0","pricing_plan_id":"cebpf4jnsgd1na2vs0mg"},{"bike_id":"4b0def63-34a8-44bf-a4b2-a9e4e6186839","system_id":"levelo_inurba_marseille","lat":43.31483,"lon":5.3731,"is_reserved":false,"is_disabled":false,"rental_uris":{"android":"levelo://app?vid=4b0def63-34a8-44bf-a4b2-a9e4e6186839","ios":"levelo://app?vid=4b0def63-34a8-44bf-a4b2-a9e4e6186839"},"vehicle_type_id":"4","last_reported":1739974174,"current_range_meters":16400,"station_id":"ce4bgt12rcd13ifvqcd0","pricing_plan_id":"cebpf4jnsgd1na2vs0mg"},{"bike_id":"521c07ee-8f56-418c-9167-93791e255dc4","system_id":"levelo_inurba_marseille","lat":43.28698,"lon":5.37928,"is_reserved":false,"is_disabled":false,"rental_uris":{"android":"levelo://app?vid=521c07ee-8f56-418c-9167-93791e255dc4","ios":"levelo://app?vid=521c07ee-8f56-418c-9167-93791e255dc4"},"vehicle_type_id":"4","last_reported":1739974174,"current_range_meters":16400,"station_id":"ce4bh9p2rcd13ifvqec0","pricing_plan_id":"cebpf4jnsgd1na2vs0mg"},{"bike_id":"ba379239-9216-4e46-a96c-a73988d910ff","system_id":"levelo_inurba_marseille","lat":43.26489,"lon":5.37146,"is_reserved":false,"is_disabled":false,"rental_uris":{"android":"levelo://app?vid=ba379239-9216-4e46-a96c-a73988d910ff","ios":"levelo://app?vid=ba379239-9216-4e46-a96c-a73988d910ff"},"vehicle_type_id":"4","last_reported":1739974174,"current_range_meters":16800,"station_id":"","pricing_plan_id":"cebpf4jnsgd1na2vs0mg"},{"bike_id":"d087fcf6-d788-49dd-aa45-ca1f45565a88","system_id":"levelo_inurba_marseille","lat":43.30032,"lon":5.38631,"is_reserved":false,"is_disabled":false,"rental_uris":{"android":"levelo://app?vid=d087fcf6-d788-49dd-aa45-ca1f45565a88","ios":"levelo://app?vid=d087fcf6-d788-49dd-aa45-ca1f45565a88"},"vehicle_type_id":"4","last_reported":1739974174,"current_range_meters":16800,"station_id":"ce4bgqh2rcd13ifvqc4g","pricing_plan_id":"cebpf4jnsgd1na2vs0mg"},{"bike_id":"94ce4c1f-b676-43e1-9e28-ed9f6f6c8e2b","system_id":"levelo_inurba_marseille","lat":43.23622,"lon":5.39155,"is_reserved":false,"is_disabled":false,"rental_uris":{"android":"levelo://app?vid=94ce4c1f-b676-43e1-9e28-ed9f6f6c8e2b","ios":"levelo://app?vid=94ce4c1f-b676-43e1-9e28-ed9f6f6c8e2b"},"vehicle_type_id":"4","last_reported":1739974174,"current_range_meters":16800,"station_id":"","pricing_plan_id":"cebpf4jnsgd1na2vs0mg"},{"bike_id":"f7298b9c-6b06-48b0-8b28-cf7ac59789e1","system_id":"levelo_inurba_marseille","lat":43.30912,"lon":5.36843,"is_reserved":false,"is_disabled":false,"rental_uris":{"android":"levelo://app?vid=f7298b9c-6b06-48b0-8b28-cf7ac59789e1","ios":"levelo://app?vid=f7298b9c-6b06-48b0-8b28-cf7ac59789e1"},"vehicle_type_id":"4","last_reported":1739974174,"current_range_meters":16800,"station_id":"ce4bgn92rcd13ifvqbvg","pricing_plan_id":"cebpf4jnsgd1na2vs0mg"},{"bike_id":"f165ded4-0b1f-4a47-b998-22beb8a2e7b2","system_id":"levelo_inurba_marseille","lat":43.28267,"lon":5.35079,"is_reserved":false,"is_disabled":false,"rental_uris":{"android":"levelo://app?vid=f165ded4-0b1f-4a47-b998-22beb8a2e7b2","ios":"levelo://app?vid=f165ded4-0b1f-4a47-b998-22beb8a2e7b2"},"vehicle_type_id":"4","last_reported":1739974174,"current_range_meters":16800,"station_id":"ce4bhbp2rcd13ifvqerg","pricing_plan_id":"cebpf4jnsgd1na2vs0mg"},{"bike_id":"749511d9-4ffb-4693-b9cb-f6a866337302","system_id":"levelo_inurba_marseille","lat":43.3095,"lon":5.39041,"is_reserved":false,"is_disabled":false,"rental_uris":{"android":"levelo://app?vid=749511d9-4ffb-4693-b9cb-f6a866337302","ios":"levelo://app?vid=749511d9-4ffb-4693-b9cb-f6a866337302"},"vehicle_type_id":"4","last_reported":1739974174,"current_range_meters":16800,"station_id":"","pricing_plan_id":"cebpf4jnsgd1na2vs0mg"},{"bike_id":"78c3c67e-47e9-40e1-b436-a4e1e796b927","system_id":"levelo_inurba_marseille","lat":43.31176,"lon":5.3757,"is_reserved":false,"is_disabled":false,"rental_uris":{"android":"levelo://app?vid=78c3c67e-47e9-40e1-b436-a4e1e796b927","ios":"levelo://app?vid=78c3c67e-47e9-40e1-b436-a4e1e796b927"},"vehicle_type_id":"4","last_reported":1739974174,"current_range_meters":16800,"station_id":"ce4bguh2rcd13ifvqcj0","pricing_plan_id":"cebpf4jnsgd1na2vs0mg"},{"bike_id":"e645b05d-0c39-4cb8-bea8-ed8cefac4a7d","system_id":"levelo_inurba_marseille","lat":43.26573,"lon":5.39044,"is_reserved":false,"is_disabled":false,"rental_uris":{"android":"levelo://app?vid=e645b05d-0c39-4cb8-bea8-ed8cefac4a7d","ios":"levelo://app?vid=e645b05d-0c39-4cb8-bea8-ed8cefac4a7d"},"vehicle_type_id":"4","last_reported":1739974174,"current_range_meters":16800,"station_id":"ce4bhe12rcd13ifvqf30","pricing_plan_id":"cebpf4jnsgd1na2vs0mg"},{"bike_id":"10b0cf0a-8e41-4b4c-b8c4-e78c91fe87e7","system_id":"levelo_inurba_marseille","lat":43.29252,"lon":5.37612,"is_reserved":false,"is_disabled":false,"rental_uris":{"android":"levelo://app?vid=10b0cf0a-8e41-4b4c-b8c4-e78c91fe87e7","ios":"levelo://app?vid=10b0cf0a-8e41-4b4c-b8c4-e78c91fe87e7"},"vehicle_type_id":"4","last_reported":1739974174,"current_range_meters":17200,"station_id":"ce4bgi12rcd13ifvqb80","pricing_plan_id":"cebpf4jnsgd1na2vs0mg"},{"bike_id":"1c53e285-610f-40a5-9de4-bf5444fb9c9d","system_id":"levelo_inurba_marseille","lat":43.27946,"lon":5.41044,"is_reserved":false,"is_disabled":false,"rental_uris":{"android":"levelo://app?vid=1c53e285-610f-40a5-9de4-bf5444fb9c9d","ios":"levelo://app?vid=1c53e285-610f-40a5-9de4-bf5444fb9c9d"},"vehicle_type_id":"4","last_reported":1739974174,"current_range_meters":17200,"station_id":"","pricing_plan_id":"cebpf4jnsgd1na2vs0mg"},{"bike_id":"0615dddc-3a39-4634-810f-b32bf35b5813","system_id":"levelo_inurba_marseille","lat":43.32113,"lon":5.45247,"is_reserved":false,"is_disabled":false,"rental_uris":{"android":"levelo://app?vid=0615dddc-3a39-4634-810f-b32bf35b5813","ios":"levelo://app?vid=0615dddc-3a39-4634-810f-b32bf35b5813"},"vehicle_type_id":"4","last_reported":1739974174,"current_range_meters":17200,"station_id":"","pricing_plan_id":"cebpf4jnsgd1na2vs0mg"},{"bike_id":"6c9c8bd6-ad0f-4b8d-a2bc-9a73d0c24657","system_id":"levelo_inurba_marseille","lat":43.31368,"lon":5.36693,"is_reserved":false,"is_disabled":false,"rental_uris":{"android":"levelo://app?vid=6c9c8bd6-ad0f-4b8d-a2bc-9a73d0c24657","ios":"levelo://app?vid=6c9c8bd6-ad0f-4b8d-a2bc-9a73d0c24657"},"vehicle_type_id":"4","last_reported":1739974174,"current_range_meters":17200,"station_id":"ce4bgt92rcd13ifvqcf0","pricing_plan_id":"cebpf4jnsgd1na2vs0mg"},{"bike_id":"efb58bf1-4403-4b9f-b67d-a8970e8c3a7f","system_id":"levelo_inurba_marseille","lat":43.25009,"lon":5.3891,"is_reserved":false,"is_disabled":false,"rental_uris":{"android":"levelo://app?vid=efb58bf1-4403-4b9f-b67d-a8970e8c3a7f","ios":"levelo://app?vid=efb58bf1-4403-4b9f-b67d-a8970e8c3a7f"},"vehicle_type_id":"4","last_reported":1739974174,"current_range_meters":17200,"station_id":"ce4bhgp2rcd13ifvqfd0","pricing_plan_id":"cebpf4jnsgd1na2vs0mg"},{"bike_id":"477ac2db-8f8c-4cbc-8427-0ab644b57a7a","system_id":"levelo_inurba_marseille","lat":43.25014,"lon":5.38898,"is_reserved":false,"is_disabled":false,"rental_uris":{"android":"levelo://app?vid=477ac2db-8f8c-4cbc-8427-0ab644b57a7a","ios":"levelo://app?vid=477ac2db-8f8c-4cbc-8427-0ab644b57a7a"},"vehicle_type_id":"4","last_reported":1739974174,"current_range_meters":17200,"station_id":"ce4bhgp2rcd13ifvqfd0","pricing_plan_id":"cebpf4jnsgd1na2vs0mg"},{"bike_id":"24422274-89fa-4a71-8136-2471e2d9789a","system_id":"levelo_inurba_marseille","lat":43.30484,"lon":5.37912,"is_reserved":false,"is_disabled":false,"rental_uris":{"android":"levelo://app?vid=24422274-89fa-4a71-8136-2471e2d9789a","ios":"levelo://app?vid=24422274-89fa-4a71-8136-2471e2d9789a"},"vehicle_type_id":"4","last_reported":1739974174,"current_range_meters":17200,"station_id":"ce4bgup2rcd13ifvqcn0","pricing_plan_id":"cebpf4jnsgd1na2vs0mg"},{"bike_id":"d9102e21-6294-472e-8da2-16dfb746ec2b","system_id":"levelo_inurba_marseille","lat":43.28138,"lon":5.4457,"is_reserved":false,"is_disabled":false,"rental_uris":{"android":"levelo://app?vid=d9102e21-6294-472e-8da2-16dfb746ec2b","ios":"levelo://app?vid=d9102e21-6294-472e-8da2-16dfb746ec2b"},"vehicle_type_id":"4","last_reported":1739974174,"current_range_meters":17200,"station_id":"ce4bhnh2rcd13ifvqgtg","pricing_plan_id":"cebpf4jnsgd1na2vs0mg"},{"bike_id":"29ae1802-9d76-4286-a2d6-f211c81954fd","system_id":"levelo_inurba_marseille","lat":43.23162,"lon":5.43712,"is_reserved":false,"is_disabled":false,"rental_uris":{"android":"levelo://app?vid=29ae1802-9d76-4286-a2d6-f211c81954fd","ios":"levelo://app?vid=29ae1802-9d76-4286-a2d6-f211c81954fd"},"vehicle_type_id":"4","last_reported":1739974174,"current_range_meters":17200,"station_id":"ce4bhmp2rcd13ifvqgog","pricing_plan_id":"cebpf4jnsgd1na2vs0mg"},{"bike_id":"8becd64c-893d-4a08-8876-b1598e031c70","system_id":"levelo_inurba_marseille","lat":43.27962,"lon":5.38678,"is_reserved":false,"is_disabled":true,"rental_uris":{"android":"levelo://app?vid=8becd64c-893d-4a08-8876-b1598e031c70","ios":"levelo://app?vid=8becd64c-893d-4a08-8876-b1598e031c70"},"vehicle_type_id":"4","last_reported":1739974174,"current_range_meters":17600,"station_id":"","pricing_plan_id":"cebpf4jnsgd1na2vs0mg"},{"bike_id":"003c44c1-3cd5-48e6-afbd-3e395aa9e710","system_id":"levelo_inurba_marseille","lat":43.29913,"lon":5.43657,"is_reserved":false,"is_disabled":false,"rental_uris":{"android":"levelo://app?vid=003c44c1-3cd5-48e6-afbd-3e395aa9e710","ios":"levelo://app?vid=003c44c1-3cd5-48e6-afbd-3e395aa9e710"},"vehicle_type_id":"4","last_reported":1739974174,"current_range_meters":17600,"station_id":"ce4bhpp2rcd13ifvqhfg","pricing_plan_id":"cebpf4jnsgd1na2vs0mg"},{"bike_id":"bdc412a8-ab57-4942-907d-94e7ad50b3fa","system_id":"levelo_inurba_marseille","lat":43.25931,"lon":5.40894,"is_reserved":false,"is_disabled":false,"rental_uris":{"android":"levelo://app?vid=bdc412a8-ab57-4942-907d-94e7ad50b3fa","ios":"levelo://app?vid=bdc412a8-ab57-4942-907d-94e7ad50b3fa"},"vehicle_type_id":"4","last_reported":1739974174,"current_range_meters":17600,"station_id":"ce4bhm92rcd13ifvqglg","pricing_plan_id":"cebpf4jnsgd1na2vs0mg"},{"bike_id":"014ffc93-64a2-48d7-9e39-bbf14956782c","system_id":"levelo_inurba_marseille","lat":43.27375,"lon":5.36266,"is_reserved":false,"is_disabled":false,"rental_uris":{"android":"levelo://app?vid=014ffc93-64a2-48d7-9e39-bbf14956782c","ios":"levelo://app?vid=014ffc93-64a2-48d7-9e39-bbf14956782c"},"vehicle_type_id":"4","last_reported":1739974174,"current_range_meters":17200,"station_id":"ce4bhbh2rcd13ifvqeo0","pricing_plan_id":"cebpf4jnsgd1na2vs0mg"},{"bike_id":"74343d3e-4f90-4a73-b01f-56712c09941f","system_id":"levelo_inurba_marseille","lat":43.27494,"lon":5.42449,"is_reserved":false,"is_disabled":false,"rental_uris":{"android":"levelo://app?vid=74343d3e-4f90-4a73-b01f-56712c09941f","ios":"levelo://app?vid=74343d3e-4f90-4a73-b01f-56712c09941f"},"vehicle_type_id":"4","last_reported":1739974174,"current_range_meters":16800,"station_id":"ce4bhn92rcd13ifvqgrg","pricing_plan_id":"cebpf4jnsgd1na2vs0mg"},{"bike_id":"6dce2158-50fc-4310-a030-753414e65f3d","system_id":"levelo_inurba_marseille","lat":43.27996,"lon":5.41664,"is_reserved":false,"is_disabled":false,"rental_uris":{"android":"levelo://app?vid=6dce2158-50fc-4310-a030-753414e65f3d","ios":"levelo://app?vid=6dce2158-50fc-4310-a030-753414e65f3d"},"vehicle_type_id":"4","last_reported":1739974174,"current_range_meters":17600,"station_id":"","pricing_plan_id":"cebpf4jnsgd1na2vs0mg"},{"bike_id":"ac70d028-a87b-49ed-8316-9e96e140ed43","system_id":"levelo_inurba_marseille","lat":43.29284,"lon":5.37633,"is_reserved":false,"is_disabled":false,"rental_uris":{"android":"levelo://app?vid=ac70d028-a87b-49ed-8316-9e96e140ed43","ios":"levelo://app?vid=ac70d028-a87b-49ed-8316-9e96e140ed43"},"vehicle_type_id":"4","last_reported":1739974174,"current_range_meters":17600,"station_id":"ce4bgi12rcd13ifvqb80","pricing_plan_id":"cebpf4jnsgd1na2vs0mg"},{"bike_id":"1d2ebd22-a535-4938-8088-12d4f916450d","system_id":"levelo_inurba_marseille","lat":43.29602,"lon":5.37736,"is_reserved":false,"is_disabled":false,"rental_uris":{"android":"levelo://app?vid=1d2ebd22-a535-4938-8088-12d4f916450d","ios":"levelo://app?vid=1d2ebd22-a535-4938-8088-12d4f916450d"},"vehicle_type_id":"4","last_reported":1739974174,"current_range_meters":17600,"station_id":"ce4bgi92rcd13ifvqb90","pricing_plan_id":"cebpf4jnsgd1na2vs0mg"},{"bike_id":"0ebe3bbe-3312-4854-8c5c-e41de3dd3614","system_id":"levelo_inurba_marseille","lat":43.27953,"lon":5.38698,"is_reserved":false,"is_disabled":false,"rental_uris":{"android":"levelo://app?vid=0ebe3bbe-3312-4854-8c5c-e41de3dd3614","ios":"levelo://app?vid=0ebe3bbe-3312-4854-8c5c-e41de3dd3614"},"vehicle_type_id":"4","last_reported":1739974174,"current_range_meters":17600,"station_id":"","pricing_plan_id":"cebpf4jnsgd1na2vs0mg"},{"bike_id":"1dd092e4-408a-41da-8dc4-e5dc4a6228fa","system_id":"levelo_inurba_marseille","lat":43.31072,"lon":5.38358,"is_reserved":false,"is_disabled":false,"rental_uris":{"android":"levelo://app?vid=1dd092e4-408a-41da-8dc4-e5dc4a6228fa","ios":"levelo://app?vid=1dd092e4-408a-41da-8dc4-e5dc4a6228fa"},"vehicle_type_id":"4","last_reported":1739974174,"current_range_meters":17600,"station_id":"ce4bgv92rcd13ifvqcr0","pricing_plan_id":"cebpf4jnsgd1na2vs0mg"},{"bike_id":"2fdc0de3-0b6f-443f-8905-d00ab28583fa","system_id":"levelo_inurba_marseille","lat":43.25912,"lon":5.40905,"is_reserved":false,"is_disabled":false,"rental_uris":{"android":"levelo://app?vid=2fdc0de3-0b6f-443f-8905-d00ab28583fa","ios":"levelo://app?vid=2fdc0de3-0b6f-443f-8905-d00ab28583fa"},"vehicle_type_id":"4","last_reported":1739974174,"current_range_meters":17600,"station_id":"ce4bhm92rcd13ifvqglg","pricing_plan_id":"cebpf4jnsgd1na2vs0mg"},{"bike_id":"c4a3edec-15c0-4661-9e72-60647949fbf3","system_id":"levelo_inurba_marseille","lat":43.30516,"lon":5.36534,"is_reserved":false,"is_disabled":false,"rental_uris":{"android":"levelo://app?vid=c4a3edec-15c0-4661-9e72-60647949fbf3","ios":"levelo://app?vid=c4a3edec-15c0-4661-9e72-60647949fbf3"},"vehicle_type_id":"4","last_reported":1739974174,"current_range_meters":18000,"station_id":"","pricing_plan_id":"cebpf4jnsgd1na2vs0mg"},{"bike_id":"1f3b0a4d-5ba2-4f4d-9a3d-15060d30e720","system_id":"levelo_inurba_marseille","lat":43.2836,"lon":5.38654,"is_reserved":false,"is_disabled":false,"rental_uris":{"android":"levelo://app?vid=1f3b0a4d-5ba2-4f4d-9a3d-15060d30e720","ios":"levelo://app?vid=1f3b0a4d-5ba2-4f4d-9a3d-15060d30e720"},"vehicle_type_id":"4","last_reported":1739974174,"current_range_meters":18800,"station_id":"ce4bh492rcd13ifvqdvg","pricing_plan_id":"cebpf4jnsgd1na2vs0mg"},{"bike_id":"66b5a43e-2798-4c72-8acc-33d23152963b","system_id":"levelo_inurba_marseille","lat":43.2715,"lon":5.41029,"is_reserved":false,"is_disabled":false,"rental_uris":{"android":"levelo://app?vid=66b5a43e-2798-4c72-8acc-33d23152963b","ios":"levelo://app?vid=66b5a43e-2798-4c72-8acc-33d23152963b"},"vehicle_type_id":"4","last_reported":1739974174,"current_range_meters":18000,"station_id":"ce4bhl12rcd13ifvqgf0","pricing_plan_id":"cebpf4jnsgd1na2vs0mg"},{"bike_id":"75673006-1fda-46a1-a573-0e1cfeae28aa","system_id":"levelo_inurba_marseille","lat":43.294918,"lon":5.38282,"is_reserved":false,"is_disabled":false,"rental_uris":{"android":"levelo://app?vid=75673006-1fda-46a1-a573-0e1cfeae28aa","ios":"levelo://app?vid=75673006-1fda-46a1-a573-0e1cfeae28aa"},"vehicle_type_id":"4","last_reported":1739974174,"current_range_meters":18000,"station_id":"","pricing_plan_id":"cebpf4jnsgd1na2vs0mg"},{"bike_id":"b3a013f7-dc34-4955-b4ab-7904906a7997","system_id":"levelo_inurba_marseille","lat":43.2822,"lon":5.42599,"is_reserved":false,"is_disabled":false,"rental_uris":{"android":"levelo://app?vid=b3a013f7-dc34-4955-b4ab-7904906a7997","ios":"levelo://app?vid=b3a013f7-dc34-4955-b4ab-7904906a7997"},"vehicle_type_id":"4","last_reported":1739974174,"current_range_meters":18000,"station_id":"ce4bhnh2rcd13ifvqgug","pricing_plan_id":"cebpf4jnsgd1na2vs0mg"},{"bike_id":"01f0b83d-e91e-48f8-aab5-e43548efbbbd","system_id":"levelo_inurba_marseille","lat":43.25584,"lon":5.3823,"is_reserved":false,"is_disabled":false,"rental_uris":{"android":"levelo://app?vid=01f0b83d-e91e-48f8-aab5-e43548efbbbd","ios":"levelo://app?vid=01f0b83d-e91e-48f8-aab5-e43548efbbbd"},"vehicle_type_id":"4","last_reported":1739974174,"current_range_meters":18000,"station_id":"ce4bhih2rcd13ifvqfs0","pricing_plan_id":"cebpf4jnsgd1na2vs0mg"},{"bike_id":"0f119bb9-42f5-484d-a273-90a601312646","system_id":"levelo_inurba_marseille","lat":43.27072,"lon":5.42302,"is_reserved":false,"is_disabled":false,"rental_uris":{"android":"levelo://app?vid=0f119bb9-42f5-484d-a273-90a601312646","ios":"levelo://app?vid=0f119bb9-42f5-484d-a273-90a601312646"},"vehicle_type_id":"4","last_reported":1739974174,"current_range_meters":18000,"station_id":"ce4bhk92rcd13ifvqgb0","pricing_plan_id":"cebpf4jnsgd1na2vs0mg"},{"bike_id":"84f34643-8421-4dd5-bb15-5d78168d5783","system_id":"levelo_inurba_marseille","lat":43.2815,"lon":5.42631,"is_reserved":false,"is_disabled":false,"rental_uris":{"android":"levelo://app?vid=84f34643-8421-4dd5-bb15-5d78168d5783","ios":"levelo://app?vid=84f34643-8421-4dd5-bb15-5d78168d5783"},"vehicle_type_id":"4","last_reported":1739974174,"current_range_meters":18800,"station_id":"","pricing_plan_id":"cebpf4jnsgd1na2vs0mg"},{"bike_id":"378a21a7-b1ec-4051-850d-b470f3510d96","system_id":"levelo_inurba_marseille","lat":43.26808,"lon":5.40272,"is_reserved":false,"is_disabled":true,"rental_uris":{"android":"levelo://app?vid=378a21a7-b1ec-4051-850d-b470f3510d96","ios":"levelo://app?vid=378a21a7-b1ec-4051-850d-b470f3510d96"},"vehicle_type_id":"4","last_reported":1739974174,"current_range_meters":18800,"station_id":"ce501612rcd8frsf0b60","pricing_plan_id":"cebpf4jnsgd1na2vs0mg"},{"bike_id":"867e49ca-1fcf-4c4a-b641-c20eee771353","system_id":"levelo_inurba_marseille","lat":43.28138,"lon":5.42645,"is_reserved":false,"is_disabled":false,"rental_uris":{"android":"levelo://app?vid=867e49ca-1fcf-4c4a-b641-c20eee771353","ios":"levelo://app?vid=867e49ca-1fcf-4c4a-b641-c20eee771353"},"vehicle_type_id":"4","last_reported":1739974174,"current_range_meters":18800,"station_id":"","pricing_plan_id":"cebpf4jnsgd1na2vs0mg"},{"bike_id":"ba517b64-e253-4f8a-bf9e-f3d1cbb67039","system_id":"levelo_inurba_marseille","lat":43.2811,"lon":5.37835,"is_reserved":false,"is_disabled":false,"rental_uris":{"android":"levelo://app?vid=ba517b64-e253-4f8a-bf9e-f3d1cbb67039","ios":"levelo://app?vid=ba517b64-e253-4f8a-bf9e-f3d1cbb67039"},"vehicle_type_id":"4","last_reported":1739974174,"current_range_meters":16800,"station_id":"ce4bha12rcd13ifvqee0","pricing_plan_id":"cebpf4jnsgd1na2vs0mg"},{"bike_id":"4140501a-5eac-4b5b-98fa-2e9413d20fa1","system_id":"levelo_inurba_marseille","lat":43.3123,"lon":5.36887,"is_reserved":false,"is_disabled":false,"rental_uris":{"android":"levelo://app?vid=4140501a-5eac-4b5b-98fa-2e9413d20fa1","ios":"levelo://app?vid=4140501a-5eac-4b5b-98fa-2e9413d20fa1"},"vehicle_type_id":"4","last_reported":1739974174,"current_range_meters":18800,"station_id":"ce4bgl92rcd13ifvqbq0","pricing_plan_id":"cebpf4jnsgd1na2vs0mg"},{"bike_id":"3addd8d2-327f-4e60-8639-267e28d7c956","system_id":"levelo_inurba_marseille","lat":43.2868,"lon":5.38672,"is_reserved":false,"is_disabled":false,"rental_uris":{"android":"levelo://app?vid=3addd8d2-327f-4e60-8639-267e28d7c956","ios":"levelo://app?vid=3addd8d2-327f-4e60-8639-267e28d7c956"},"vehicle_type_id":"4","last_reported":1739974174,"current_range_meters":18800,"station_id":"","pricing_plan_id":"cebpf4jnsgd1na2vs0mg"},{"bike_id":"24b034ae-81d8-4b0e-9d7b-9309f18a47ae","system_id":"levelo_inurba_marseille","lat":43.29144,"lon":5.37188,"is_reserved":false,"is_disabled":false,"rental_uris":{"android":"levelo://app?vid=24b034ae-81d8-4b0e-9d7b-9309f18a47ae","ios":"levelo://app?vid=24b034ae-81d8-4b0e-9d7b-9309f18a47ae"},"vehicle_type_id":"4","last_reported":1739974174,"current_range_meters":19200,"station_id":"","pricing_plan_id":"cebpf4jnsgd1na2vs0mg"},{"bike_id":"c29eda3a-8490-47c3-aefa-55b194634623","system_id":"levelo_inurba_marseille","lat":43.29377,"lon":5.3786,"is_reserved":false,"is_disabled":false,"rental_uris":{"android":"levelo://app?vid=c29eda3a-8490-47c3-aefa-55b194634623","ios":"levelo://app?vid=c29eda3a-8490-47c3-aefa-55b194634623"},"vehicle_type_id":"4","last_reported":1739974174,"current_range_meters":19200,"station_id":"ce4bgjh2rcd13ifvqbf0","pricing_plan_id":"cebpf4jnsgd1na2vs0mg"},{"bike_id":"635c39ab-003a-4c64-a76e-6cb3abf01d95","system_id":"levelo_inurba_marseille","lat":43.29526,"lon":5.38552,"is_reserved":false,"is_disabled":false,"rental_uris":{"android":"levelo://app?vid=635c39ab-003a-4c64-a76e-6cb3abf01d95","ios":"levelo://app?vid=635c39ab-003a-4c64-a76e-6cb3abf01d95"},"vehicle_type_id":"4","last_reported":1739974174,"current_range_meters":19200,"station_id":"ce4bgih2rcd13ifvqba0","pricing_plan_id":"cebpf4jnsgd1na2vs0mg"},{"bike_id":"c7eb5252-9544-4a9c-adcb-1fcb8bc3da81","system_id":"levelo_inurba_marseille","lat":43.23152,"lon":5.43707,"is_reserved":false,"is_disabled":false,"rental_uris":{"android":"levelo://app?vid=c7eb5252-9544-4a9c-adcb-1fcb8bc3da81","ios":"levelo://app?vid=c7eb5252-9544-4a9c-adcb-1fcb8bc3da81"},"vehicle_type_id":"4","last_reported":1739974174,"current_range_meters":19200,"station_id":"ce4bhmp2rcd13ifvqgog","pricing_plan_id":"cebpf4jnsgd1na2vs0mg"},{"bike_id":"03bb80d2-2d58-477e-8d77-d8a9b94a8f21","system_id":"levelo_inurba_marseille","lat":43.23789,"lon":5.4034,"is_reserved":false,"is_disabled":false,"rental_uris":{"android":"levelo://app?vid=03bb80d2-2d58-477e-8d77-d8a9b94a8f21","ios":"levelo://app?vid=03bb80d2-2d58-477e-8d77-d8a9b94a8f21"},"vehicle_type_id":"4","last_reported":1739974174,"current_range_meters":19200,"station_id":"","pricing_plan_id":"cebpf4jnsgd1na2vs0mg"},{"bike_id":"cef0ea3d-3620-4613-8a98-512ceddb2769","system_id":"levelo_inurba_marseille","lat":43.27211,"lon":5.40958,"is_reserved":false,"is_disabled":false,"rental_uris":{"android":"levelo://app?vid=cef0ea3d-3620-4613-8a98-512ceddb2769","ios":"levelo://app?vid=cef0ea3d-3620-4613-8a98-512ceddb2769"},"vehicle_type_id":"4","last_reported":1739974174,"current_range_meters":19200,"station_id":"ce4bhl12rcd13ifvqgf0","pricing_plan_id":"cebpf4jnsgd1na2vs0mg"},{"bike_id":"1a412dc3-d76d-4575-a0f0-bea5944d9b85","system_id":"levelo_inurba_marseille","lat":43.29899,"lon":5.38693,"is_reserved":false,"is_disabled":false,"rental_uris":{"android":"levelo://app?vid=1a412dc3-d76d-4575-a0f0-bea5944d9b85","ios":"levelo://app?vid=1a412dc3-d76d-4575-a0f0-bea5944d9b85"},"vehicle_type_id":"4","last_reported":1739974174,"current_range_meters":19200,"station_id":"","pricing_plan_id":"cebpf4jnsgd1na2vs0mg"},{"bike_id":"63d3fd56-a06f-4866-837b-543be86ed15c","system_id":"levelo_inurba_marseille","lat":43.30806,"lon":5.36912,"is_reserved":false,"is_disabled":false,"rental_uris":{"android":"levelo://app?vid=63d3fd56-a06f-4866-837b-543be86ed15c","ios":"levelo://app?vid=63d3fd56-a06f-4866-837b-543be86ed15c"},"vehicle_type_id":"4","last_reported":1739974174,"current_range_meters":19600,"station_id":"ce4bgl92rcd13ifvqbq0","pricing_plan_id":"cebpf4jnsgd1na2vs0mg"},{"bike_id":"392baf9c-7079-484c-9a4e-690fae72a2ef","system_id":"levelo_inurba_marseille","lat":43.29617,"lon":5.37717,"is_reserved":false,"is_disabled":false,"rental_uris":{"android":"levelo://app?vid=392baf9c-7079-484c-9a4e-690fae72a2ef","ios":"levelo://app?vid=392baf9c-7079-484c-9a4e-690fae72a2ef"},"vehicle_type_id":"4","last_reported":1739974174,"current_range_meters":19600,"station_id":"ce4bgi92rcd13ifvqb90","pricing_plan_id":"cebpf4jnsgd1na2vs0mg"},{"bike_id":"834704e8-34ed-4ba2-a886-e9cfe5836af3","system_id":"levelo_inurba_marseille","lat":43.28411,"lon":5.34985,"is_reserved":false,"is_disabled":false,"rental_uris":{"android":"levelo://app?vid=834704e8-34ed-4ba2-a886-e9cfe5836af3","ios":"levelo://app?vid=834704e8-34ed-4ba2-a886-e9cfe5836af3"},"vehicle_type_id":"4","last_reported":1739974174,"current_range_meters":19600,"station_id":"ce4bhbh2rcd13ifvqepg","pricing_plan_id":"cebpf4jnsgd1na2vs0mg"},{"bike_id":"0e264fa6-28bd-4e4f-8cac-e65b56c3bac1","system_id":"levelo_inurba_marseille","lat":43.30116,"lon":5.37771,"is_reserved":false,"is_disabled":false,"rental_uris":{"android":"levelo://app?vid=0e264fa6-28bd-4e4f-8cac-e65b56c3bac1","ios":"levelo://app?vid=0e264fa6-28bd-4e4f-8cac-e65b56c3bac1"},"vehicle_type_id":"4","last_reported":1739974174,"current_range_meters":19600,"station_id":"","pricing_plan_id":"cebpf4jnsgd1na2vs0mg"},{"bike_id":"53324156-0b5f-4ee4-beb8-65d71f0308f4","system_id":"levelo_inurba_marseille","lat":43.26548,"lon":5.39073,"is_reserved":false,"is_disabled":true,"rental_uris":{"android":"levelo://app?vid=53324156-0b5f-4ee4-beb8-65d71f0308f4","ios":"levelo://app?vid=53324156-0b5f-4ee4-beb8-65d71f0308f4"},"vehicle_type_id":"4","last_reported":1739974174,"current_range_meters":19600,"station_id":"","pricing_plan_id":"cebpf4jnsgd1na2vs0mg"},{"bike_id":"64170527-eac7-4440-b996-522cbb93c139","system_id":"levelo_inurba_marseille","lat":43.25908,"lon":5.40865,"is_reserved":false,"is_disabled":false,"rental_uris":{"android":"levelo://app?vid=64170527-eac7-4440-b996-522cbb93c139","ios":"levelo://app?vid=64170527-eac7-4440-b996-522cbb93c139"},"vehicle_type_id":"4","last_reported":1739974174,"current_range_meters":19600,"station_id":"ce4bhm92rcd13ifvqglg","pricing_plan_id":"cebpf4jnsgd1na2vs0mg"},{"bike_id":"751d2cf4-fa99-4a3f-9556-3ff54793f80a","system_id":"levelo_inurba_marseille","lat":43.2583,"lon":5.39416,"is_reserved":false,"is_disabled":false,"rental_uris":{"android":"levelo://app?vid=751d2cf4-fa99-4a3f-9556-3ff54793f80a","ios":"levelo://app?vid=751d2cf4-fa99-4a3f-9556-3ff54793f80a"},"vehicle_type_id":"4","last_reported":1739974174,"current_range_meters":19600,"station_id":"ce4bhip2rcd13ifvqft0","pricing_plan_id":"cebpf4jnsgd1na2vs0mg"},{"bike_id":"fd54f99b-dc44-41d7-83a2-3613d6927d60","system_id":"levelo_inurba_marseille","lat":43.286994,"lon":5.399828,"is_reserved":false,"is_disabled":false,"rental_uris":{"android":"levelo://app?vid=fd54f99b-dc44-41d7-83a2-3613d6927d60","ios":"levelo://app?vid=fd54f99b-dc44-41d7-83a2-3613d6927d60"},"vehicle_type_id":"4","last_reported":1739974174,"current_range_meters":19600,"station_id":"","pricing_plan_id":"cebpf4jnsgd1na2vs0mg"},{"bike_id":"6374f48e-ed2b-4fcb-a581-3a5f7cedddb4","system_id":"levelo_inurba_marseille","lat":43.24387,"lon":5.37056,"is_reserved":false,"is_disabled":false,"rental_uris":{"android":"levelo://app?vid=6374f48e-ed2b-4fcb-a581-3a5f7cedddb4","ios":"levelo://app?vid=6374f48e-ed2b-4fcb-a581-3a5f7cedddb4"},"vehicle_type_id":"4","last_reported":1739974174,"current_range_meters":19200,"station_id":"ce4bhhh2rcd13ifvqfk0","pricing_plan_id":"cebpf4jnsgd1na2vs0mg"},{"bike_id":"2b275f44-5ff1-49cc-b700-34b4e6f94962","system_id":"levelo_inurba_marseille","lat":43.29039,"lon":5.39975,"is_reserved":false,"is_disabled":false,"rental_uris":{"android":"levelo://app?vid=2b275f44-5ff1-49cc-b700-34b4e6f94962","ios":"levelo://app?vid=2b275f44-5ff1-49cc-b700-34b4e6f94962"},"vehicle_type_id":"4","last_reported":1739974174,"current_range_meters":17200,"station_id":"ce4bh392rcd13ifvqdm0","pricing_plan_id":"cebpf4jnsgd1na2vs0mg"},{"bike_id":"d51f5e3e-5f60-4df2-94ae-60b240d1edf3","system_id":"levelo_inurba_marseille","lat":43.2317,"lon":5.39991,"is_reserved":false,"is_disabled":false,"rental_uris":{"android":"levelo://app?vid=d51f5e3e-5f60-4df2-94ae-60b240d1edf3","ios":"levelo://app?vid=d51f5e3e-5f60-4df2-94ae-60b240d1edf3"},"vehicle_type_id":"4","last_reported":1739974174,"current_range_meters":19600,"station_id":"ce4bhn12rcd13ifvqgqg","pricing_plan_id":"cebpf4jnsgd1na2vs0mg"},{"bike_id":"7d538134-1a3e-4c6e-ab5b-4d985c54776c","system_id":"levelo_inurba_marseille","lat":43.26053,"lon":5.39382,"is_reserved":false,"is_disabled":false,"rental_uris":{"android":"levelo://app?vid=7d538134-1a3e-4c6e-ab5b-4d985c54776c","ios":"levelo://app?vid=7d538134-1a3e-4c6e-ab5b-4d985c54776c"},"vehicle_type_id":"4","last_reported":1739974174,"current_range_meters":20000,"station_id":"ce4bhh92rcd13ifvqfj0","pricing_plan_id":"cebpf4jnsgd1na2vs0mg"},{"bike_id":"ce0caea6-6d1c-48ef-b0eb-fae6199eb4e1","system_id":"levelo_inurba_marseille","lat":43.23054,"lon":5.355,"is_reserved":false,"is_disabled":false,"rental_uris":{"android":"levelo://app?vid=ce0caea6-6d1c-48ef-b0eb-fae6199eb4e1","ios":"levelo://app?vid=ce0caea6-6d1c-48ef-b0eb-fae6199eb4e1"},"vehicle_type_id":"4","last_reported":1739974174,"current_range_meters":20000,"station_id":"cpo3342slgdg3j2ifvpg","pricing_plan_id":"cebpf4jnsgd1na2vs0mg"},{"bike_id":"c01cec1f-b310-4afb-8ff3-3476afba9d01","system_id":"levelo_inurba_marseille","lat":43.28484,"lon":5.3843,"is_reserved":false,"is_disabled":false,"rental_uris":{"android":"levelo://app?vid=c01cec1f-b310-4afb-8ff3-3476afba9d01","ios":"levelo://app?vid=c01cec1f-b310-4afb-8ff3-3476afba9d01"},"vehicle_type_id":"4","last_reported":1739974174,"current_range_meters":20000,"station_id":"ce4bh512rcd13ifvqe3g","pricing_plan_id":"cebpf4jnsgd1na2vs0mg"},{"bike_id":"c3ddfc24-9280-4a76-a9d2-a56c24fde229","system_id":"levelo_inurba_marseille","lat":43.30301,"lon":5.39211,"is_reserved":false,"is_disabled":false,"rental_uris":{"android":"levelo://app?vid=c3ddfc24-9280-4a76-a9d2-a56c24fde229","ios":"levelo://app?vid=c3ddfc24-9280-4a76-a9d2-a56c24fde229"},"vehicle_type_id":"4","last_reported":1739974174,"current_range_meters":19600,"station_id":"ce4bgkh2rcd13ifvqbk0","pricing_plan_id":"cebpf4jnsgd1na2vs0mg"},{"bike_id":"8a6d524c-5f4e-4817-bc41-a02adf311a2b","system_id":"levelo_inurba_marseille","lat":43.2847,"lon":5.38425,"is_reserved":false,"is_disabled":false,"rental_uris":{"android":"levelo://app?vid=8a6d524c-5f4e-4817-bc41-a02adf311a2b","ios":"levelo://app?vid=8a6d524c-5f4e-4817-bc41-a02adf311a2b"},"vehicle_type_id":"4","last_reported":1739974174,"current_range_meters":20000,"station_id":"ce4bh512rcd13ifvqe3g","pricing_plan_id":"cebpf4jnsgd1na2vs0mg"},{"bike_id":"5a3720b3-5b02-41bc-b70f-704856132667","system_id":"levelo_inurba_marseille","lat":43.30146,"lon":5.38087,"is_reserved":false,"is_disabled":false,"rental_uris":{"android":"levelo://app?vid=5a3720b3-5b02-41bc-b70f-704856132667","ios":"levelo://app?vid=5a3720b3-5b02-41bc-b70f-704856132667"},"vehicle_type_id":"4","last_reported":1739974174,"current_range_meters":20000,"station_id":"ce4bgjp2rcd13ifvqbh0","pricing_plan_id":"cebpf4jnsgd1na2vs0mg"},{"bike_id":"54a598cd-e8d5-4082-8353-5c1914d28d99","system_id":"levelo_inurba_marseille","lat":43.28368,"lon":5.38643,"is_reserved":false,"is_disabled":false,"rental_uris":{"android":"levelo://app?vid=54a598cd-e8d5-4082-8353-5c1914d28d99","ios":"levelo://app?vid=54a598cd-e8d5-4082-8353-5c1914d28d99"},"vehicle_type_id":"4","last_reported":1739974174,"current_range_meters":19600,"station_id":"ce4bh492rcd13ifvqdvg","pricing_plan_id":"cebpf4jnsgd1na2vs0mg"},{"bike_id":"7ab0879d-b722-42c8-b4e6-32d7dc1b9f64","system_id":"levelo_inurba_marseille","lat":43.25928,"lon":5.40907,"is_reserved":false,"is_disabled":false,"rental_uris":{"android":"levelo://app?vid=7ab0879d-b722-42c8-b4e6-32d7dc1b9f64","ios":"levelo://app?vid=7ab0879d-b722-42c8-b4e6-32d7dc1b9f64"},"vehicle_type_id":"4","last_reported":1739974174,"current_range_meters":20400,"station_id":"","pricing_plan_id":"cebpf4jnsgd1na2vs0mg"},{"bike_id":"652108ad-08df-4ea7-ad2a-d828607404d1","system_id":"levelo_inurba_marseille","lat":43.24179,"lon":5.39725,"is_reserved":false,"is_disabled":false,"rental_uris":{"android":"levelo://app?vid=652108ad-08df-4ea7-ad2a-d828607404d1","ios":"levelo://app?vid=652108ad-08df-4ea7-ad2a-d828607404d1"},"vehicle_type_id":"4","last_reported":1739974174,"current_range_meters":20400,"station_id":"ce4bhn12rcd13ifvqgpg","pricing_plan_id":"cebpf4jnsgd1na2vs0mg"},{"bike_id":"96d550f5-f982-4617-b49b-305a0adb41f1","system_id":"levelo_inurba_marseille","lat":43.30144,"lon":5.37422,"is_reserved":false,"is_disabled":false,"rental_uris":{"android":"levelo://app?vid=96d550f5-f982-4617-b49b-305a0adb41f1","ios":"levelo://app?vid=96d550f5-f982-4617-b49b-305a0adb41f1"},"vehicle_type_id":"4","last_reported":1739974174,"current_range_meters":20400,"station_id":"ce4bgs92rcd13ifvqcc0","pricing_plan_id":"cebpf4jnsgd1na2vs0mg"},{"bike_id":"e29afacf-8408-429d-b5d5-432c1a30bb0d","system_id":"levelo_inurba_marseille","lat":43.33854,"lon":5.39064,"is_reserved":false,"is_disabled":false,"rental_uris":{"android":"levelo://app?vid=e29afacf-8408-429d-b5d5-432c1a30bb0d","ios":"levelo://app?vid=e29afacf-8408-429d-b5d5-432c1a30bb0d"},"vehicle_type_id":"4","last_reported":1739974174,"current_range_meters":20400,"station_id":"ce4bhr92rcd13ifvqhsg","pricing_plan_id":"cebpf4jnsgd1na2vs0mg"},{"bike_id":"d5203534-e7df-4d29-8bbd-6538a56df1d8","system_id":"levelo_inurba_marseille","lat":43.25935,"lon":5.40912,"is_reserved":false,"is_disabled":false,"rental_uris":{"android":"levelo://app?vid=d5203534-e7df-4d29-8bbd-6538a56df1d8","ios":"levelo://app?vid=d5203534-e7df-4d29-8bbd-6538a56df1d8"},"vehicle_type_id":"4","last_reported":1739974174,"current_range_meters":20400,"station_id":"ce4bhm92rcd13ifvqglg","pricing_plan_id":"cebpf4jnsgd1na2vs0mg"},{"bike_id":"b06d6e07-ee5b-4c34-968e-cafc36687c95","system_id":"levelo_inurba_marseille","lat":43.30468,"lon":5.37891,"is_reserved":false,"is_disabled":false,"rental_uris":{"android":"levelo://app?vid=b06d6e07-ee5b-4c34-968e-cafc36687c95","ios":"levelo://app?vid=b06d6e07-ee5b-4c34-968e-cafc36687c95"},"vehicle_type_id":"4","last_reported":1739974174,"current_range_meters":20400,"station_id":"ce4bgup2rcd13ifvqcn0","pricing_plan_id":"cebpf4jnsgd1na2vs0mg"},{"bike_id":"ac8a8ce7-eb08-411b-8b45-46ae1db488fb","system_id":"levelo_inurba_marseille","lat":43.30906,"lon":5.36855,"is_reserved":false,"is_disabled":false,"rental_uris":{"android":"levelo://app?vid=ac8a8ce7-eb08-411b-8b45-46ae1db488fb","ios":"levelo://app?vid=ac8a8ce7-eb08-411b-8b45-46ae1db488fb"},"vehicle_type_id":"4","last_reported":1739974174,"current_range_meters":20400,"station_id":"ce4bgn92rcd13ifvqbvg","pricing_plan_id":"cebpf4jnsgd1na2vs0mg"},{"bike_id":"98d2871f-b9f3-4d90-8727-7d9ed16a978a","system_id":"levelo_inurba_marseille","lat":43.30021,"lon":5.38263,"is_reserved":false,"is_disabled":true,"rental_uris":{"android":"levelo://app?vid=98d2871f-b9f3-4d90-8727-7d9ed16a978a","ios":"levelo://app?vid=98d2871f-b9f3-4d90-8727-7d9ed16a978a"},"vehicle_type_id":"4","last_reported":1739974174,"current_range_meters":20400,"station_id":"","pricing_plan_id":"cebpf4jnsgd1na2vs0mg"},{"bike_id":"30985064-a24c-463d-ad50-f76a4f9120e3","system_id":"levelo_inurba_marseille","lat":43.29225,"lon":5.36059,"is_reserved":false,"is_disabled":false,"rental_uris":{"android":"levelo://app?vid=30985064-a24c-463d-ad50-f76a4f9120e3","ios":"levelo://app?vid=30985064-a24c-463d-ad50-f76a4f9120e3"},"vehicle_type_id":"4","last_reported":1739974174,"current_range_meters":20400,"station_id":"ce4bhbh2rcd13ifvqeqg","pricing_plan_id":"cebpf4jnsgd1na2vs0mg"},{"bike_id":"046d2ac3-6bf5-421d-8f26-a2dc49314617","system_id":"levelo_inurba_marseille","lat":43.28073,"lon":5.39653,"is_reserved":false,"is_disabled":false,"rental_uris":{"android":"levelo://app?vid=046d2ac3-6bf5-421d-8f26-a2dc49314617","ios":"levelo://app?vid=046d2ac3-6bf5-421d-8f26-a2dc49314617"},"vehicle_type_id":"4","last_reported":1739974174,"current_range_meters":20800,"station_id":"","pricing_plan_id":"cebpf4jnsgd1na2vs0mg"},{"bike_id":"d079200d-bec2-49c0-b6f5-428a4b910c2a","system_id":"levelo_inurba_marseille","lat":43.29035,"lon":5.37572,"is_reserved":false,"is_disabled":false,"rental_uris":{"android":"levelo://app?vid=d079200d-bec2-49c0-b6f5-428a4b910c2a","ios":"levelo://app?vid=d079200d-bec2-49c0-b6f5-428a4b910c2a"},"vehicle_type_id":"4","last_reported":1739974174,"current_range_meters":20800,"station_id":"ce4bh692rcd13ifvqe90","pricing_plan_id":"cebpf4jnsgd1na2vs0mg"},{"bike_id":"f274f312-68ca-45d0-8230-632bc1110b1a","system_id":"levelo_inurba_marseille","lat":43.30152,"lon":5.38086,"is_reserved":false,"is_disabled":false,"rental_uris":{"android":"levelo://app?vid=f274f312-68ca-45d0-8230-632bc1110b1a","ios":"levelo://app?vid=f274f312-68ca-45d0-8230-632bc1110b1a"},"vehicle_type_id":"4","last_reported":1739974174,"current_range_meters":20400,"station_id":"ce4bgjp2rcd13ifvqbh0","pricing_plan_id":"cebpf4jnsgd1na2vs0mg"},{"bike_id":"cd5f889a-944d-4054-ad52-27c98e35b53e","system_id":"levelo_inurba_marseille","lat":43.31233,"lon":5.36869,"is_reserved":false,"is_disabled":false,"rental_uris":{"android":"levelo://app?vid=cd5f889a-944d-4054-ad52-27c98e35b53e","ios":"levelo://app?vid=cd5f889a-944d-4054-ad52-27c98e35b53e"},"vehicle_type_id":"4","last_reported":1739974174,"current_range_meters":20800,"station_id":"ce4bgl92rcd13ifvqbq0","pricing_plan_id":"cebpf4jnsgd1na2vs0mg"},{"bike_id":"febd7370-4392-443c-b546-719299b27392","system_id":"levelo_inurba_marseille","lat":43.272116,"lon":5.391809,"is_reserved":false,"is_disabled":false,"rental_uris":{"android":"levelo://app?vid=febd7370-4392-443c-b546-719299b27392","ios":"levelo://app?vid=febd7370-4392-443c-b546-719299b27392"},"vehicle_type_id":"4","last_reported":1739974174,"current_range_meters":20800,"station_id":"","pricing_plan_id":"cebpf4jnsgd1na2vs0mg"},{"bike_id":"fce2ab8d-5466-4b1f-ad8c-e0c089a471c1","system_id":"levelo_inurba_marseille","lat":43.31159,"lon":5.38719,"is_reserved":false,"is_disabled":false,"rental_uris":{"android":"levelo://app?vid=fce2ab8d-5466-4b1f-ad8c-e0c089a471c1","ios":"levelo://app?vid=fce2ab8d-5466-4b1f-ad8c-e0c089a471c1"},"vehicle_type_id":"4","last_reported":1739974174,"current_range_meters":20800,"station_id":"ce4bgv12rcd13ifvqcp0","pricing_plan_id":"cebpf4jnsgd1na2vs0mg"},{"bike_id":"fc83fbbe-ea5e-48b9-afd4-fb70b86b578b","system_id":"levelo_inurba_marseille","lat":43.30541,"lon":5.38436,"is_reserved":false,"is_disabled":false,"rental_uris":{"android":"levelo://app?vid=fc83fbbe-ea5e-48b9-afd4-fb70b86b578b","ios":"levelo://app?vid=fc83fbbe-ea5e-48b9-afd4-fb70b86b578b"},