{"last_updated":1750018239,"ttl":60,"version":"2.2","data":{"bikes":[{"bike_id":"b31f0139-170f-4194-984f-4386218a1e9d","system_id":"levelo_inurba_marseille","lat":43.33771,"lon":5.37424,"is_reserved":false,"is_disabled":true,"rental_uris":{"android":"levelo://app?vid=b31f0139-170f-4194-984f-4386218a1e9d","ios":"levelo://app?vid=b31f0139-170f-4194-984f-4386218a1e9d"},"vehicle_type_id":"4","last_reported":1750018239,"current_range_meters":0,"station_id":"","pricing_plan_id":"cebpf4jnsgd1na2vs0mg"},{"bike_id":"1acfb620-cad7-48c0-8901-d7a5b74a5b65","system_id":"levelo_inurba_marseille","lat":43.33751,"lon":5.37456,"is_reserved":false,"is_disabled":true,"rental_uris":{"android":"levelo://app?vid=1acfb620-cad7-48c0-8901-d7a5b74a5b65","ios":"levelo://app?vid=1acfb620-cad7-48c0-8901-d7a5b74a5b65"},"vehicle_type_id":"4","last_reported":1750018239,"current_range_meters":0,"station_id":"","pricing_plan_id":"cebpf4jnsgd1na2vs0mg"},{"bike_id":"bf89d78c-eb96-40d5-beb0-f402ef102cc1","system_id":"levelo_inurba_marseille","lat":43.337444,"lon":5.374475,"is_reserved":false,"is_disabled":true,"rental_uris":{"android":"levelo://app?vid=bf89d78c-eb96-40d5-beb0-f402ef102cc1","ios":"levelo://app?vid=bf89d78c-eb96-40d5-beb0-f402ef102cc1"},"vehicle_type_id":"4","last_reported":1750018239,"current_range_meters":0,"station_id":"","pricing_plan_id":"cebpf4jnsgd1na2vs0mg"},{"bike_id":"3d6ef34c-1ec6-4ed3-88e4-07359f729c42","system_id":"levelo_inurba_marseille","lat":43.27576,"lon":5.43343,"is_reserved":false,"is_disabled":true,"rental_uris":{"android":"levelo://app?vid=3d6ef34c-1ec6-4ed3-88e4-07359f729c42","ios":"levelo://app?vid=3d6ef34c-1ec6-4ed3-88e4-07359f729c42"},"vehicle_type_id":"4","last_reported":1750018239,"current_range_meters":0,"station_id":"","pricing_plan_id":"cebpf4jnsgd1na2vs0mg"},{"bike_id":"5077581b-cebb-46fc-ba69-4fa8272d4810","system_id":"levelo_inurba_marseille","lat":43.2138,"lon":5.3552,"is_reserved":false,"is_disabled":true,"rental_uris":{"android":"levelo://app?vid=5077581b-cebb-46fc-ba69-4fa8272d4810","ios":"levelo://app?vid=5077581b-cebb-46fc-ba69-4fa8272d4810"},"vehicle_type_id":"4","last_reported":1750018239,"current_range_meters":0,"station_id":"","pricing_plan_id":"cebpf4jnsgd1na2vs0mg"},{"bike_id":"97421c04-2630-4fc1-9da9-b17d88602c5f","system_id":"levelo_inurba_marseille","lat":43.337682,"lon":5.374519,"is_reserved":false,"is_disabled":true,"rental_uris":{"android":"levelo://app?vid=97421c04-2630-4fc1-9da9-b17d88602c5f","ios":"levelo://app?vid=97421c04-2630-4fc1-9da9-b17d88602c5f"},"vehicle_type_id":"4","last_reported":1750018239,"current_range_meters":0,"station_id":"","pricing_plan_id":"cebpf4jnsgd1na2vs0mg"},{"bike_id":"ac061617-9a3c-4de6-bd1d-cee5ca15e0fc","system_id":"levelo_inurba_marseille","lat":43.28302,"lon":5.38769,"is_reserved":false,"is_disabled":true,"rental_uris":{"android":"levelo://app?vid=ac061617-9a3c-4de6-bd1d-cee5ca15e0fc","ios":"levelo://app?vid=ac061617-9a3c-4de6-bd1d-cee5ca15e0fc"},"vehicle_type_id":"4","last_reported":1750018239,"current_range_meters":0,"station_id":"","pricing_plan_id":"cebpf4jnsgd1na2vs0mg"},{"bike_id":"9aea8b8c-7d2c-47e6-9e92-fd12236b644f","system_id":"levelo_inurba_marseille","lat":43.21794,"lon":5.34577,"is_reserved":false,"is_disabled":true,"rental_uris":{"android":"levelo://app?vid=9aea8b8c-7d2c-47e6-9e92-fd12236b644f","ios":"levelo://app?vid=9aea8b8c-7d2c-47e6-9e92-fd12236b644f"},"vehicle_type_id":"4","last_reported":1750018239,"current_range_meters":0,"station_id":"","pricing_plan_id":"cebpf4jnsgd1na2vs0mg"},{"bike_id":"ebf89cec-3e1a-4275-9cd0-a3d19d69b5cf","system_id":"levelo_inurba_marseille","lat":43.27991,"lon":5.38481,"is_reserved":false,"is_disabled":true,"rental_uris":{"android":"levelo://app?vid=ebf89cec-3e1a-4275-9cd0-a3d19d69b5cf","ios":"levelo://app?vid=ebf89cec-3e1a-4275-9cd0-a3d19d69b5cf"},"vehicle_type_id":"4","last_reported":1750018239,"current_range_meters":0,"station_id":"","pricing_plan_id":"cebpf4jnsgd1na2vs0mg"},{"bike_id":"8d60347d-541c-40fb-90ca-203bf6bd520a","system_id":"levelo_inurba_marseille","lat":43.271271,"lon":5.363908,"is_reserved":false,"is_disabled":true,"rental_uris":{"android":"levelo://app?vid=8d60347d-541c-40fb-90ca-203bf6bd520a","ios":"levelo://app?vid=8d60347d-541c-40fb-90ca-203bf6bd520a"},"vehicle_type_id":"4","last_reported":1750018239,"current_range_meters":0,"station_id":"","pricing_plan_id":"cebpf4jnsgd1na2vs0mg"},{"bike_id":"98afa141-26c5-45c8-a0a6-15fd54ac73ab","system_id":"levelo_inurba_marseille","lat":43.21544,"lon":5.34739,"is_reserved":false,"is_disabled":true,"rental_uris":{"android":"levelo://app?vid=98afa141-26c5-45c8-a0a6-15fd54ac73ab","ios":"levelo://app?vid=98afa141-26c5-45c8-a0a6-15fd54ac73ab"},"vehicle_type_id":"4","last_reported":1750018239,"current_range_meters":0,"station_id":"","pricing_plan_id":"cebpf4jnsgd1na2vs0mg"},{"bike_id":"492f4bbd-1190-4ef2-b66a-479ffe91b09b","system_id":"levelo_inurba_marseille","lat":43.337444,"lon":5.374475,"is_reserved":false,"is_disabled":true,"rental_uris":{"android":"levelo://app?vid=492f4bbd-1190-4ef2-b66a-479ffe91b09b","ios":"levelo://app?vid=492f4bbd-1190-4ef2-b66a-479ffe91b09b"},"vehicle_type_id":"4","last_reported":1750018239,"current_range_meters":0,"station_id":"","pricing_plan_id":"cebpf4jnsgd1na2vs0mg"},{"bike_id":"a9b6bf99-4070-4437-bb20-72962ae30b90","system_id":"levelo_inurba_marseille","lat":43.27458,"lon":5.36383,"is_reserved":false,"is_disabled":true,"rental_uris":{"android":"levelo://app?vid=a9b6bf99-4070-4437-bb20-72962ae30b90","ios":"levelo://app?vid=a9b6bf99-4070-4437-bb20-72962ae30b90"},"vehicle_type_id":"4","last_reported":1750018239,"current_range_meters":0,"station_id":"","pricing_plan_id":"cebpf4jnsgd1na2vs0mg"},{"bike_id":"3afca21c-ab99-47b0-9158-560fd744265d","system_id":"levelo_inurba_marseille","lat":43.29593,"lon":5.38101,"is_reserved":false,"is_disabled":true,"rental_uris":{"android":"levelo://app?vid=3afca21c-ab99-47b0-9158-560fd744265d","ios":"levelo://app?vid=3afca21c-ab99-47b0-9158-560fd744265d"},"vehicle_type_id":"4","last_reported":1750018239,"current_range_meters":0,"station_id":"ce4bgl12rcd13ifvqbo0","pricing_plan_id":"cebpf4jnsgd1na2vs0mg"},{"bike_id":"1cc72a90-3404-438e-b708-3d31c06db758","system_id":"levelo_inurba_marseille","lat":43.282664,"lon":5.350611,"is_reserved":false,"is_disabled":true,"rental_uris":{"android":"levelo://app?vid=1cc72a90-3404-438e-b708-3d31c06db758","ios":"levelo://app?vid=1cc72a90-3404-438e-b708-3d31c06db758"},"vehicle_type_id":"4","last_reported":1750018239,"current_range_meters":0,"station_id":"ce4bhbp2rcd13ifvqerg","pricing_plan_id":"cebpf4jnsgd1na2vs0mg"},{"bike_id":"168479e5-89ce-4ee2-8c34-467e141e00e1","system_id":"levelo_inurba_marseille","lat":43.26558,"lon":5.37292,"is_reserved":false,"is_disabled":true,"rental_uris":{"android":"levelo://app?vid=168479e5-89ce-4ee2-8c34-467e141e00e1","ios":"levelo://app?vid=168479e5-89ce-4ee2-8c34-467e141e00e1"},"vehicle_type_id":"4","last_reported":1750018239,"current_range_meters":0,"station_id":"ce4bhg12rcd13ifvqf70","pricing_plan_id":"cebpf4jnsgd1na2vs0mg"},{"bike_id":"1a053efc-6835-4fe3-8b2d-e42486c2efbb","system_id":"levelo_inurba_marseille","lat":43.23159,"lon":5.43668,"is_reserved":false,"is_disabled":true,"rental_uris":{"android":"levelo://app?vid=1a053efc-6835-4fe3-8b2d-e42486c2efbb","ios":"levelo://app?vid=1a053efc-6835-4fe3-8b2d-e42486c2efbb"},"vehicle_type_id":"4","last_reported":1750018239,"current_range_meters":0,"station_id":"ce4bhmp2rcd13ifvqgog","pricing_plan_id":"cebpf4jnsgd1na2vs0mg"},{"bike_id":"9e31bc0b-5281-4864-afab-043d50d841a4","system_id":"levelo_inurba_marseille","lat":43.26553,"lon":5.37288,"is_reserved":false,"is_disabled":true,"rental_uris":{"android":"levelo://app?vid=9e31bc0b-5281-4864-afab-043d50d841a4","ios":"levelo://app?vid=9e31bc0b-5281-4864-afab-043d50d841a4"},"vehicle_type_id":"4","last_reported":1750018239,"current_range_meters":400,"station_id":"ce4bhg12rcd13ifvqf70","pricing_plan_id":"cebpf4jnsgd1na2vs0mg"},{"bike_id":"021df968-59b3-4f13-830e-39535fd525ce","system_id":"levelo_inurba_marseille","lat":43.27073,"lon":5.42278,"is_reserved":false,"is_disabled":true,"rental_uris":{"android":"levelo://app?vid=021df968-59b3-4f13-830e-39535fd525ce","ios":"levelo://app?vid=021df968-59b3-4f13-830e-39535fd525ce"},"vehicle_type_id":"4","last_reported":1750018239,"current_range_meters":400,"station_id":"ce4bhk92rcd13ifvqgb0","pricing_plan_id":"cebpf4jnsgd1na2vs0mg"},{"bike_id":"2a83ae2f-a99a-4a3e-9402-1e60d522e115","system_id":"levelo_inurba_marseille","lat":43.21189,"lon":5.35069,"is_reserved":false,"is_disabled":true,"rental_uris":{"android":"levelo://app?vid=2a83ae2f-a99a-4a3e-9402-1e60d522e115","ios":"levelo://app?vid=2a83ae2f-a99a-4a3e-9402-1e60d522e115"},"vehicle_type_id":"4","last_reported":1750018239,"current_range_meters":400,"station_id":"st_cvj6sg6p6f1abm77japg","pricing_plan_id":"cebpf4jnsgd1na2vs0mg"},{"bike_id":"375cf6e2-9084-4098-ab27-8d4a8a4f6660","system_id":"levelo_inurba_marseille","lat":43.224974,"lon":5.347855,"is_reserved":false,"is_disabled":true,"rental_uris":{"android":"levelo://app?vid=375cf6e2-9084-4098-ab27-8d4a8a4f6660","ios":"levelo://app?vid=375cf6e2-9084-4098-ab27-8d4a8a4f6660"},"vehicle_type_id":"4","last_reported":1750018239,"current_range_meters":800,"station_id":"","pricing_plan_id":"cebpf4jnsgd1na2vs0mg"},{"bike_id":"e75c6d0e-b894-4e24-8198-837e7746a6b2","system_id":"levelo_inurba_marseille","lat":43.29519,"lon":5.37513,"is_reserved":false,"is_disabled":true,"rental_uris":{"android":"levelo://app?vid=e75c6d0e-b894-4e24-8198-837e7746a6b2","ios":"levelo://app?vid=e75c6d0e-b894-4e24-8198-837e7746a6b2"},"vehicle_type_id":"4","last_reported":1750018239,"current_range_meters":800,"station_id":"ce4bgkp2rcd13ifvqbmg","pricing_plan_id":"cebpf4jnsgd1na2vs0mg"},{"bike_id":"9a896db4-df92-4de4-8053-1a0220a4aab5","system_id":"levelo_inurba_marseille","lat":43.29866,"lon":5.39728,"is_reserved":false,"is_disabled":true,"rental_uris":{"android":"levelo://app?vid=9a896db4-df92-4de4-8053-1a0220a4aab5","ios":"levelo://app?vid=9a896db4-df92-4de4-8053-1a0220a4aab5"},"vehicle_type_id":"4","last_reported":1750018239,"current_range_meters":800,"station_id":"ce4bh0h2rcd13ifvqd50","pricing_plan_id":"cebpf4jnsgd1na2vs0mg"},{"bike_id":"23446837-a012-4ffe-b176-e1ea3a9ec64a","system_id":"levelo_inurba_marseille","lat":43.30415,"lon":5.4127,"is_reserved":false,"is_disabled":true,"rental_uris":{"android":"levelo://app?vid=23446837-a012-4ffe-b176-e1ea3a9ec64a","ios":"levelo://app?vid=23446837-a012-4ffe-b176-e1ea3a9ec64a"},"vehicle_type_id":"4","last_reported":1750018239,"current_range_meters":800,"station_id":"ce4bhop2rcd13ifvqh8g","pricing_plan_id":"cebpf4jnsgd1na2vs0mg"},{"bike_id":"94ade0d5-ce16-4962-bfe3-0feca93731c4","system_id":"levelo_inurba_marseille","lat":43.30417,"lon":5.41273,"is_reserved":false,"is_disabled":true,"rental_uris":{"android":"levelo://app?vid=94ade0d5-ce16-4962-bfe3-0feca93731c4","ios":"levelo://app?vid=94ade0d5-ce16-4962-bfe3-0feca93731c4"},"vehicle_type_id":"4","last_reported":1750018239,"current_range_meters":1200,"station_id":"ce4bhop2rcd13ifvqh8g","pricing_plan_id":"cebpf4jnsgd1na2vs0mg"},{"bike_id":"b6fad3a8-b675-49ce-945b-0b1137e783fb","system_id":"levelo_inurba_marseille","lat":43.28927,"lon":5.36406,"is_reserved":false,"is_disabled":true,"rental_uris":{"android":"levelo://app?vid=b6fad3a8-b675-49ce-945b-0b1137e783fb","ios":"levelo://app?vid=b6fad3a8-b675-49ce-945b-0b1137e783fb"},"vehicle_type_id":"4","last_reported":1750018239,"current_range_meters":1600,"station_id":"ce4bhc92rcd13ifvqetg","pricing_plan_id":"cebpf4jnsgd1na2vs0mg"},{"bike_id":"0a98c170-e5b7-4996-9304-73a5a87fa7a2","system_id":"levelo_inurba_marseille","lat":43.27576,"lon":5.38423,"is_reserved":false,"is_disabled":true,"rental_uris":{"android":"levelo://app?vid=0a98c170-e5b7-4996-9304-73a5a87fa7a2","ios":"levelo://app?vid=0a98c170-e5b7-4996-9304-73a5a87fa7a2"},"vehicle_type_id":"4","last_reported":1750018239,"current_range_meters":1600,"station_id":"ce4bhh92rcd13ifvqfi0","pricing_plan_id":"cebpf4jnsgd1na2vs0mg"},{"bike_id":"1b7a6af6-50eb-46ef-8d1f-e261604a97a8","system_id":"levelo_inurba_marseille","lat":43.26215,"lon":5.37439,"is_reserved":false,"is_disabled":true,"rental_uris":{"android":"levelo://app?vid=1b7a6af6-50eb-46ef-8d1f-e261604a97a8","ios":"levelo://app?vid=1b7a6af6-50eb-46ef-8d1f-e261604a97a8"},"vehicle_type_id":"4","last_reported":1750018239,"current_range_meters":2000,"station_id":"ce4bhgp2rcd13ifvqfc0","pricing_plan_id":"cebpf4jnsgd1na2vs0mg"},{"bike_id":"39483cbd-4d43-45ed-890a-77f5972ea213","system_id":"levelo_inurba_marseille","lat":43.27487,"lon":5.42465,"is_reserved":false,"is_disabled":true,"rental_uris":{"android":"levelo://app?vid=39483cbd-4d43-45ed-890a-77f5972ea213","ios":"levelo://app?vid=39483cbd-4d43-45ed-890a-77f5972ea213"},"vehicle_type_id":"4","last_reported":1750018239,"current_range_meters":2000,"station_id":"ce4bhn92rcd13ifvqgrg","pricing_plan_id":"cebpf4jnsgd1na2vs0mg"},{"bike_id":"a3314fa1-d8cf-4847-946a-7595d70f87ad","system_id":"levelo_inurba_marseille","lat":43.30784,"lon":5.37639,"is_reserved":false,"is_disabled":false,"rental_uris":{"android":"levelo://app?vid=a3314fa1-d8cf-4847-946a-7595d70f87ad","ios":"levelo://app?vid=a3314fa1-d8cf-4847-946a-7595d70f87ad"},"vehicle_type_id":"4","last_reported":1750018239,"current_range_meters":3200,"station_id":"","pricing_plan_id":"cebpf4jnsgd1na2vs0mg"},{"bike_id":"75167aa1-9f51-464f-8e5c-76ad9f256540","system_id":"levelo_inurba_marseille","lat":43.30325,"lon":5.4043,"is_reserved":false,"is_disabled":false,"rental_uris":{"android":"levelo://app?vid=75167aa1-9f51-464f-8e5c-76ad9f256540","ios":"levelo://app?vid=75167aa1-9f51-464f-8e5c-76ad9f256540"},"vehicle_type_id":"4","last_reported":1750018239,"current_range_meters":3200,"station_id":"ce4bh012rcd13ifvqd10","pricing_plan_id":"cebpf4jnsgd1na2vs0mg"},{"bike_id":"845a9b63-33a9-4754-9b2d-97781a6c71cb","system_id":"levelo_inurba_marseille","lat":43.29573,"lon":5.39972,"is_reserved":false,"is_disabled":false,"rental_uris":{"android":"levelo://app?vid=845a9b63-33a9-4754-9b2d-97781a6c71cb","ios":"levelo://app?vid=845a9b63-33a9-4754-9b2d-97781a6c71cb"},"vehicle_type_id":"4","last_reported":1750018239,"current_range_meters":3200,"station_id":"ce4bh312rcd13ifvqdj0","pricing_plan_id":"cebpf4jnsgd1na2vs0mg"},{"bike_id":"6d31669b-ad0a-4827-94f1-c4e21b80c34b","system_id":"levelo_inurba_marseille","lat":43.28086,"lon":5.39679,"is_reserved":false,"is_disabled":false,"rental_uris":{"android":"levelo://app?vid=6d31669b-ad0a-4827-94f1-c4e21b80c34b","ios":"levelo://app?vid=6d31669b-ad0a-4827-94f1-c4e21b80c34b"},"vehicle_type_id":"4","last_reported":1750018239,"current_range_meters":3200,"station_id":"ce4bho12rcd13ifvqh2g","pricing_plan_id":"cebpf4jnsgd1na2vs0mg"},{"bike_id":"19f36125-5356-4c09-86ba-b894f9e8107a","system_id":"levelo_inurba_marseille","lat":43.29197,"lon":5.37505,"is_reserved":false,"is_disabled":false,"rental_uris":{"android":"levelo://app?vid=19f36125-5356-4c09-86ba-b894f9e8107a","ios":"levelo://app?vid=19f36125-5356-4c09-86ba-b894f9e8107a"},"vehicle_type_id":"4","last_reported":1750018239,"current_range_meters":3600,"station_id":"","pricing_plan_id":"cebpf4jnsgd1na2vs0mg"},{"bike_id":"79c08aa8-85dd-4787-b8c3-2f9f7d5de528","system_id":"levelo_inurba_marseille","lat":43.29529,"lon":5.38546,"is_reserved":false,"is_disabled":false,"rental_uris":{"android":"levelo://app?vid=79c08aa8-85dd-4787-b8c3-2f9f7d5de528","ios":"levelo://app?vid=79c08aa8-85dd-4787-b8c3-2f9f7d5de528"},"vehicle_type_id":"4","last_reported":1750018239,"current_range_meters":3600,"station_id":"ce4bgih2rcd13ifvqba0","pricing_plan_id":"cebpf4jnsgd1na2vs0mg"},{"bike_id":"42219edf-4bae-4a6e-bf4d-b1c4b25c1ebd","system_id":"levelo_inurba_marseille","lat":43.29201,"lon":5.39316,"is_reserved":false,"is_disabled":false,"rental_uris":{"android":"levelo://app?vid=42219edf-4bae-4a6e-bf4d-b1c4b25c1ebd","ios":"levelo://app?vid=42219edf-4bae-4a6e-bf4d-b1c4b25c1ebd"},"vehicle_type_id":"4","last_reported":1750018239,"current_range_meters":3600,"station_id":"ce4bh192rcd13ifvqdd0","pricing_plan_id":"cebpf4jnsgd1na2vs0mg"},{"bike_id":"c778482b-a660-4d1a-a458-451e083d1d18","system_id":"levelo_inurba_marseille","lat":43.25122,"lon":5.40331,"is_reserved":false,"is_disabled":false,"rental_uris":{"android":"levelo://app?vid=c778482b-a660-4d1a-a458-451e083d1d18","ios":"levelo://app?vid=c778482b-a660-4d1a-a458-451e083d1d18"},"vehicle_type_id":"4","last_reported":1750018239,"current_range_meters":3600,"station_id":"ce4bhlh2rcd13ifvqgig","pricing_plan_id":"cebpf4jnsgd1na2vs0mg"},{"bike_id":"2ab31527-f915-4286-b3a0-0beafd2cdd50","system_id":"levelo_inurba_marseille","lat":43.30011,"lon":5.36998,"is_reserved":false,"is_disabled":false,"rental_uris":{"android":"levelo://app?vid=2ab31527-f915-4286-b3a0-0beafd2cdd50","ios":"levelo://app?vid=2ab31527-f915-4286-b3a0-0beafd2cdd50"},"vehicle_type_id":"4","last_reported":1750018239,"current_range_meters":4000,"station_id":"","pricing_plan_id":"cebpf4jnsgd1na2vs0mg"},{"bike_id":"e0e45bb3-92ac-4f89-84fd-44bf032c3cf2","system_id":"levelo_inurba_marseille","lat":43.29933,"lon":5.37468,"is_reserved":false,"is_disabled":false,"rental_uris":{"android":"levelo://app?vid=e0e45bb3-92ac-4f89-84fd-44bf032c3cf2","ios":"levelo://app?vid=e0e45bb3-92ac-4f89-84fd-44bf032c3cf2"},"vehicle_type_id":"4","last_reported":1750018239,"current_range_meters":4000,"station_id":"ce4bgjh2rcd13ifvqbg0","pricing_plan_id":"cebpf4jnsgd1na2vs0mg"},{"bike_id":"aba97bbe-7343-4e5c-afdb-d66466979018","system_id":"levelo_inurba_marseille","lat":43.30557,"lon":5.3655,"is_reserved":false,"is_disabled":false,"rental_uris":{"android":"levelo://app?vid=aba97bbe-7343-4e5c-afdb-d66466979018","ios":"levelo://app?vid=aba97bbe-7343-4e5c-afdb-d66466979018"},"vehicle_type_id":"4","last_reported":1750018239,"current_range_meters":4000,"station_id":"ce4bgs12rcd13ifvqcag","pricing_plan_id":"cebpf4jnsgd1na2vs0mg"},{"bike_id":"398f4140-ef6e-4525-a39f-c274500ba67e","system_id":"levelo_inurba_marseille","lat":43.30216,"lon":5.39472,"is_reserved":false,"is_disabled":false,"rental_uris":{"android":"levelo://app?vid=398f4140-ef6e-4525-a39f-c274500ba67e","ios":"levelo://app?vid=398f4140-ef6e-4525-a39f-c274500ba67e"},"vehicle_type_id":"4","last_reported":1750018239,"current_range_meters":4800,"station_id":"ce4bh0p2rcd13ifvqd70","pricing_plan_id":"cebpf4jnsgd1na2vs0mg"},{"bike_id":"357558f0-8b10-41dc-8e13-5c366ecd37b5","system_id":"levelo_inurba_marseille","lat":43.21193,"lon":5.35068,"is_reserved":false,"is_disabled":false,"rental_uris":{"android":"levelo://app?vid=357558f0-8b10-41dc-8e13-5c366ecd37b5","ios":"levelo://app?vid=357558f0-8b10-41dc-8e13-5c366ecd37b5"},"vehicle_type_id":"4","last_reported":1750018239,"current_range_meters":4800,"station_id":"st_cvj6sg6p6f1abm77japg","pricing_plan_id":"cebpf4jnsgd1na2vs0mg"},{"bike_id":"7f0c8097-12ca-4c82-8823-e5747d9def23","system_id":"levelo_inurba_marseille","lat":43.29534,"lon":5.38543,"is_reserved":false,"is_disabled":false,"rental_uris":{"android":"levelo://app?vid=7f0c8097-12ca-4c82-8823-e5747d9def23","ios":"levelo://app?vid=7f0c8097-12ca-4c82-8823-e5747d9def23"},"vehicle_type_id":"4","last_reported":1750018239,"current_range_meters":5600,"station_id":"ce4bgih2rcd13ifvqba0","pricing_plan_id":"cebpf4jnsgd1na2vs0mg"},{"bike_id":"db80ed70-20b3-4f68-a4ca-d06d318a6e65","system_id":"levelo_inurba_marseille","lat":43.28707,"lon":5.37403,"is_reserved":false,"is_disabled":false,"rental_uris":{"android":"levelo://app?vid=db80ed70-20b3-4f68-a4ca-d06d318a6e65","ios":"levelo://app?vid=db80ed70-20b3-4f68-a4ca-d06d318a6e65"},"vehicle_type_id":"4","last_reported":1750018239,"current_range_meters":6000,"station_id":"ce4bh3p2rcd13ifvqdq0","pricing_plan_id":"cebpf4jnsgd1na2vs0mg"},{"bike_id":"f5d29494-f884-4fec-b779-5857123913a9","system_id":"levelo_inurba_marseille","lat":43.28666,"lon":5.38671,"is_reserved":false,"is_disabled":false,"rental_uris":{"android":"levelo://app?vid=f5d29494-f884-4fec-b779-5857123913a9","ios":"levelo://app?vid=f5d29494-f884-4fec-b779-5857123913a9"},"vehicle_type_id":"4","last_reported":1750018239,"current_range_meters":6000,"station_id":"ce4bh492rcd13ifvqdug","pricing_plan_id":"cebpf4jnsgd1na2vs0mg"},{"bike_id":"9565e26a-bbe1-44a3-b105-b4912656a52c","system_id":"levelo_inurba_marseille","lat":43.30379,"lon":5.42482,"is_reserved":false,"is_disabled":false,"rental_uris":{"android":"levelo://app?vid=9565e26a-bbe1-44a3-b105-b4912656a52c","ios":"levelo://app?vid=9565e26a-bbe1-44a3-b105-b4912656a52c"},"vehicle_type_id":"4","last_reported":1750018239,"current_range_meters":6000,"station_id":"ce4bhoh2rcd13ifvqh6g","pricing_plan_id":"cebpf4jnsgd1na2vs0mg"},{"bike_id":"bd205f51-48ca-498c-bcee-557862349652","system_id":"levelo_inurba_marseille","lat":43.308938,"lon":5.396556,"is_reserved":false,"is_disabled":false,"rental_uris":{"android":"levelo://app?vid=bd205f51-48ca-498c-bcee-557862349652","ios":"levelo://app?vid=bd205f51-48ca-498c-bcee-557862349652"},"vehicle_type_id":"4","last_reported":1750018239,"current_range_meters":6400,"station_id":"ce4bh012rcd13ifvqcv0","pricing_plan_id":"cebpf4jnsgd1na2vs0mg"},{"bike_id":"622da7e0-7deb-43fc-8cba-7ebcd8507286","system_id":"levelo_inurba_marseille","lat":43.26957,"lon":5.38641,"is_reserved":false,"is_disabled":false,"rental_uris":{"android":"levelo://app?vid=622da7e0-7deb-43fc-8cba-7ebcd8507286","ios":"levelo://app?vid=622da7e0-7deb-43fc-8cba-7ebcd8507286"},"vehicle_type_id":"4","last_reported":1750018239,"current_range_meters":6800,"station_id":"ce4bhh92rcd13ifvqfh0","pricing_plan_id":"cebpf4jnsgd1na2vs0mg"},{"bike_id":"89df4545-114d-4c7f-904f-45f44cea6985","system_id":"levelo_inurba_marseille","lat":43.23964,"lon":5.36633,"is_reserved":false,"is_disabled":false,"rental_uris":{"android":"levelo://app?vid=89df4545-114d-4c7f-904f-45f44cea6985","ios":"levelo://app?vid=89df4545-114d-4c7f-904f-45f44cea6985"},"vehicle_type_id":"4","last_reported":1750018239,"current_range_meters":6800,"station_id":"ce4bhi12rcd13ifvqfp0","pricing_plan_id":"cebpf4jnsgd1na2vs0mg"},{"bike_id":"08688a68-1620-475b-a2de-1f4bb20864d9","system_id":"levelo_inurba_marseille","lat":43.25103,"lon":5.40334,"is_reserved":false,"is_disabled":false,"rental_uris":{"android":"levelo://app?vid=08688a68-1620-475b-a2de-1f4bb20864d9","ios":"levelo://app?vid=08688a68-1620-475b-a2de-1f4bb20864d9"},"vehicle_type_id":"4","last_reported":1750018239,"current_range_meters":6800,"station_id":"ce4bhlh2rcd13ifvqgig","pricing_plan_id":"cebpf4jnsgd1na2vs0mg"},{"bike_id":"4f4c5da5-3449-4e46-85a7-d68d3d0e2733","system_id":"levelo_inurba_marseille","lat":43.25115,"lon":5.40323,"is_reserved":false,"is_disabled":false,"rental_uris":{"android":"levelo://app?vid=4f4c5da5-3449-4e46-85a7-d68d3d0e2733","ios":"levelo://app?vid=4f4c5da5-3449-4e46-85a7-d68d3d0e2733"},"vehicle_type_id":"4","last_reported":1750018239,"current_range_meters":6800,"station_id":"ce4bhlh2rcd13ifvqgig","pricing_plan_id":"cebpf4jnsgd1na2vs0mg"},{"bike_id":"bbb05127-3461-411b-b53c-ab75ec6a6a84","system_id":"levelo_inurba_marseille","lat":43.31077,"lon":5.38352,"is_reserved":false,"is_disabled":false,"rental_uris":{"android":"levelo://app?vid=bbb05127-3461-411b-b53c-ab75ec6a6a84","ios":"levelo://app?vid=bbb05127-3461-411b-b53c-ab75ec6a6a84"},"vehicle_type_id":"4","last_reported":1750018239,"current_range_meters":7200,"station_id":"ce4bgv92rcd13ifvqcr0","pricing_plan_id":"cebpf4jnsgd1na2vs0mg"},{"bike_id":"dd96f0f9-4351-4657-857e-5ff5a371f3dc","system_id":"levelo_inurba_marseille","lat":43.30884,"lon":5.39637,"is_reserved":false,"is_disabled":false,"rental_uris":{"android":"levelo://app?vid=dd96f0f9-4351-4657-857e-5ff5a371f3dc","ios":"levelo://app?vid=dd96f0f9-4351-4657-857e-5ff5a371f3dc"},"vehicle_type_id":"4","last_reported":1750018239,"current_range_meters":7200,"station_id":"ce4bh012rcd13ifvqcv0","pricing_plan_id":"cebpf4jnsgd1na2vs0mg"},{"bike_id":"a3540b65-c82a-4b33-b4ad-a9ee7ed91aa6","system_id":"levelo_inurba_marseille","lat":43.23053,"lon":5.3549,"is_reserved":false,"is_disabled":false,"rental_uris":{"android":"levelo://app?vid=a3540b65-c82a-4b33-b4ad-a9ee7ed91aa6","ios":"levelo://app?vid=a3540b65-c82a-4b33-b4ad-a9ee7ed91aa6"},"vehicle_type_id":"4","last_reported":1750018239,"current_range_meters":7200,"station_id":"cpo3342slgdg3j2ifvpg","pricing_plan_id":"cebpf4jnsgd1na2vs0mg"},{"bike_id":"7a75e7b8-799c-44ab-aa17-7247ce0cd799","system_id":"levelo_inurba_marseille","lat":43.2834,"lon":5.38104,"is_reserved":false,"is_disabled":false,"rental_uris":{"android":"levelo://app?vid=7a75e7b8-799c-44ab-aa17-7247ce0cd799","ios":"levelo://app?vid=7a75e7b8-799c-44ab-aa17-7247ce0cd799"},"vehicle_type_id":"4","last_reported":1750018239,"current_range_meters":8400,"station_id":"ce4bh412rcd13ifvqdr0","pricing_plan_id":"cebpf4jnsgd1na2vs0mg"},{"bike_id":"2af203a9-8a5e-4b59-9734-f42c8e28e144","system_id":"levelo_inurba_marseille","lat":43.29086,"lon":5.38156,"is_reserved":false,"is_disabled":false,"rental_uris":{"android":"levelo://app?vid=2af203a9-8a5e-4b59-9734-f42c8e28e144","ios":"levelo://app?vid=2af203a9-8a5e-4b59-9734-f42c8e28e144"},"vehicle_type_id":"4","last_reported":1750018239,"current_range_meters":8400,"station_id":"ce4bh512rcd13ifvqe2g","pricing_plan_id":"cebpf4jnsgd1na2vs0mg"},{"bike_id":"5e7ebee2-521b-43e2-bd03-865320f4c815","system_id":"levelo_inurba_marseille","lat":43.28104,"lon":5.37847,"is_reserved":false,"is_disabled":false,"rental_uris":{"android":"levelo://app?vid=5e7ebee2-521b-43e2-bd03-865320f4c815","ios":"levelo://app?vid=5e7ebee2-521b-43e2-bd03-865320f4c815"},"vehicle_type_id":"4","last_reported":1750018239,"current_range_meters":8400,"station_id":"ce4bha12rcd13ifvqee0","pricing_plan_id":"cebpf4jnsgd1na2vs0mg"},{"bike_id":"55dd7949-783e-4310-8796-3c4768d43289","system_id":"levelo_inurba_marseille","lat":43.27071,"lon":5.42275,"is_reserved":false,"is_disabled":false,"rental_uris":{"android":"levelo://app?vid=55dd7949-783e-4310-8796-3c4768d43289","ios":"levelo://app?vid=55dd7949-783e-4310-8796-3c4768d43289"},"vehicle_type_id":"4","last_reported":1750018239,"current_range_meters":8400,"station_id":"ce4bhk92rcd13ifvqgb0","pricing_plan_id":"cebpf4jnsgd1na2vs0mg"},{"bike_id":"097855c8-9076-49df-b580-0b4ced8de871","system_id":"levelo_inurba_marseille","lat":43.25107,"lon":5.40357,"is_reserved":false,"is_disabled":false,"rental_uris":{"android":"levelo://app?vid=097855c8-9076-49df-b580-0b4ced8de871","ios":"levelo://app?vid=097855c8-9076-49df-b580-0b4ced8de871"},"vehicle_type_id":"4","last_reported":1750018239,"current_range_meters":8400,"station_id":"ce4bhlh2rcd13ifvqgig","pricing_plan_id":"cebpf4jnsgd1na2vs0mg"},{"bike_id":"eee37b92-da8f-4086-9175-f308ed9ddece","system_id":"levelo_inurba_marseille","lat":43.21208,"lon":5.3504,"is_reserved":false,"is_disabled":false,"rental_uris":{"android":"levelo://app?vid=eee37b92-da8f-4086-9175-f308ed9ddece","ios":"levelo://app?vid=eee37b92-da8f-4086-9175-f308ed9ddece"},"vehicle_type_id":"4","last_reported":1750018239,"current_range_meters":8400,"station_id":"st_cvj6sg6p6f1abm77japg","pricing_plan_id":"cebpf4jnsgd1na2vs0mg"},{"bike_id":"8601897a-099d-49b5-aea1-b0ec06744598","system_id":"levelo_inurba_marseille","lat":43.28669,"lon":5.39307,"is_reserved":false,"is_disabled":false,"rental_uris":{"android":"levelo://app?vid=8601897a-099d-49b5-aea1-b0ec06744598","ios":"levelo://app?vid=8601897a-099d-49b5-aea1-b0ec06744598"},"vehicle_type_id":"4","last_reported":1750018239,"current_range_meters":8800,"station_id":"","pricing_plan_id":"cebpf4jnsgd1na2vs0mg"},{"bike_id":"a88333ca-eb72-4e6d-b998-0dbf6b116554","system_id":"levelo_inurba_marseille","lat":43.29624,"lon":5.37173,"is_reserved":false,"is_disabled":false,"rental_uris":{"android":"levelo://app?vid=a88333ca-eb72-4e6d-b998-0dbf6b116554","ios":"levelo://app?vid=a88333ca-eb72-4e6d-b998-0dbf6b116554"},"vehicle_type_id":"4","last_reported":1750018239,"current_range_meters":8800,"station_id":"ce4bgnh2rcd13ifvqc0g","pricing_plan_id":"cebpf4jnsgd1na2vs0mg"},{"bike_id":"d858f2f5-f6e9-4bce-97cc-c084354f9683","system_id":"levelo_inurba_marseille","lat":43.30437,"lon":5.39764,"is_reserved":false,"is_disabled":false,"rental_uris":{"android":"levelo://app?vid=d858f2f5-f6e9-4bce-97cc-c084354f9683","ios":"levelo://app?vid=d858f2f5-f6e9-4bce-97cc-c084354f9683"},"vehicle_type_id":"4","last_reported":1750018239,"current_range_meters":8800,"station_id":"ce4bh092rcd13ifvqd20","pricing_plan_id":"cebpf4jnsgd1na2vs0mg"},{"bike_id":"bd325b43-4bd9-4b24-85a9-335e8a818c23","system_id":"levelo_inurba_marseille","lat":43.25119,"lon":5.40315,"is_reserved":false,"is_disabled":false,"rental_uris":{"android":"levelo://app?vid=bd325b43-4bd9-4b24-85a9-335e8a818c23","ios":"levelo://app?vid=bd325b43-4bd9-4b24-85a9-335e8a818c23"},"vehicle_type_id":"4","last_reported":1750018239,"current_range_meters":8800,"station_id":"ce4bhlh2rcd13ifvqgig","pricing_plan_id":"cebpf4jnsgd1na2vs0mg"},{"bike_id":"387d1fed-118c-437b-bd55-020621253e35","system_id":"levelo_inurba_marseille","lat":43.24101,"lon":5.36829,"is_reserved":false,"is_disabled":false,"rental_uris":{"android":"levelo://app?vid=387d1fed-118c-437b-bd55-020621253e35","ios":"levelo://app?vid=387d1fed-118c-437b-bd55-020621253e35"},"vehicle_type_id":"4","last_reported":1750018239,"current_range_meters":9200,"station_id":"","pricing_plan_id":"cebpf4jnsgd1na2vs0mg"},{"bike_id":"538932b2-e017-4374-9138-75b55790b189","system_id":"levelo_inurba_marseille","lat":43.29968,"lon":5.38499,"is_reserved":false,"is_disabled":false,"rental_uris":{"android":"levelo://app?vid=538932b2-e017-4374-9138-75b55790b189","ios":"levelo://app?vid=538932b2-e017-4374-9138-75b55790b189"},"vehicle_type_id":"4","last_reported":1750018239,"current_range_meters":9200,"station_id":"ce4bgj92rcd13ifvqbd0","pricing_plan_id":"cebpf4jnsgd1na2vs0mg"},{"bike_id":"70da07de-6862-45e4-b5f2-4e05a4d200fe","system_id":"levelo_inurba_marseille","lat":43.25729,"lon":5.41108,"is_reserved":false,"is_disabled":false,"rental_uris":{"android":"levelo://app?vid=70da07de-6862-45e4-b5f2-4e05a4d200fe","ios":"levelo://app?vid=70da07de-6862-45e4-b5f2-4e05a4d200fe"},"vehicle_type_id":"4","last_reported":1750018239,"current_range_meters":9200,"station_id":"ce4bhkp2rcd13ifvqgd0","pricing_plan_id":"cebpf4jnsgd1na2vs0mg"},{"bike_id":"4bc78641-4d17-41ec-8d24-5a883318f70f","system_id":"levelo_inurba_marseille","lat":43.2954,"lon":5.42278,"is_reserved":false,"is_disabled":false,"rental_uris":{"android":"levelo://app?vid=4bc78641-4d17-41ec-8d24-5a883318f70f","ios":"levelo://app?vid=4bc78641-4d17-41ec-8d24-5a883318f70f"},"vehicle_type_id":"4","last_reported":1750018239,"current_range_meters":9200,"station_id":"ce4bhph2rcd13ifvqhdg","pricing_plan_id":"cebpf4jnsgd1na2vs0mg"},{"bike_id":"bac285e7-c068-4764-9660-eb5a5218ed83","system_id":"levelo_inurba_marseille","lat":43.32107,"lon":5.36799,"is_reserved":false,"is_disabled":false,"rental_uris":{"android":"levelo://app?vid=bac285e7-c068-4764-9660-eb5a5218ed83","ios":"levelo://app?vid=bac285e7-c068-4764-9660-eb5a5218ed83"},"vehicle_type_id":"4","last_reported":1750018239,"current_range_meters":9200,"station_id":"ce4bhrh2rcd13ifvqhug","pricing_plan_id":"cebpf4jnsgd1na2vs0mg"},{"bike_id":"ac466850-9a61-464b-b6df-c6eef6e07763","system_id":"levelo_inurba_marseille","lat":43.21736,"lon":5.34618,"is_reserved":false,"is_disabled":true,"rental_uris":{"android":"levelo://app?vid=ac466850-9a61-464b-b6df-c6eef6e07763","ios":"levelo://app?vid=ac466850-9a61-464b-b6df-c6eef6e07763"},"vehicle_type_id":"4","last_reported":1750018239,"current_range_meters":9200,"station_id":"st_cvj6r9ubvosntc0bgbag","pricing_plan_id":"cebpf4jnsgd1na2vs0mg"},{"bike_id":"d97dc030-8405-4eb1-abbf-845730c8e3dc","system_id":"levelo_inurba_marseille","lat":43.2119,"lon":5.35073,"is_reserved":false,"is_disabled":false,"rental_uris":{"android":"levelo://app?vid=d97dc030-8405-4eb1-abbf-845730c8e3dc","ios":"levelo://app?vid=d97dc030-8405-4eb1-abbf-845730c8e3dc"},"vehicle_type_id":"4","last_reported":1750018239,"current_range_meters":9200,"station_id":"st_cvj6sg6p6f1abm77japg","pricing_plan_id":"cebpf4jnsgd1na2vs0mg"},{"bike_id":"de92586a-32c4-4e3b-a3a6-67f0b31fab47","system_id":"levelo_inurba_marseille","lat":43.30429,"lon":5.39744,"is_reserved":false,"is_disabled":false,"rental_uris":{"android":"levelo://app?vid=de92586a-32c4-4e3b-a3a6-67f0b31fab47","ios":"levelo://app?vid=de92586a-32c4-4e3b-a3a6-67f0b31fab47"},"vehicle_type_id":"4","last_reported":1750018239,"current_range_meters":9600,"station_id":"ce4bh092rcd13ifvqd20","pricing_plan_id":"cebpf4jnsgd1na2vs0mg"},{"bike_id":"a112d53b-ad54-4060-8f8e-fad339f5de6e","system_id":"levelo_inurba_marseille","lat":43.21195,"lon":5.35062,"is_reserved":false,"is_disabled":false,"rental_uris":{"android":"levelo://app?vid=a112d53b-ad54-4060-8f8e-fad339f5de6e","ios":"levelo://app?vid=a112d53b-ad54-4060-8f8e-fad339f5de6e"},"vehicle_type_id":"4","last_reported":1750018239,"current_range_meters":9600,"station_id":"st_cvj6sg6p6f1abm77japg","pricing_plan_id":"cebpf4jnsgd1na2vs0mg"},{"bike_id":"d8a4f7b4-052d-4bce-ae83-b9167311e0ea","system_id":"levelo_inurba_marseille","lat":43.21188,"lon":5.3508,"is_reserved":false,"is_disabled":false,"rental_uris":{"android":"levelo://app?vid=d8a4f7b4-052d-4bce-ae83-b9167311e0ea","ios":"levelo://app?vid=d8a4f7b4-052d-4bce-ae83-b9167311e0ea"},"vehicle_type_id":"4","last_reported":1750018239,"current_range_meters":9600,"station_id":"st_cvj6sg6p6f1abm77japg","pricing_plan_id":"cebpf4jnsgd1na2vs0mg"},{"bike_id":"d466030e-288a-4dc6-befe-6e0661cea7cf","system_id":"levelo_inurba_marseille","lat":43.2804,"lon":5.36933,"is_reserved":false,"is_disabled":false,"rental_uris":{"android":"levelo://app?vid=d466030e-288a-4dc6-befe-6e0661cea7cf","ios":"levelo://app?vid=d466030e-288a-4dc6-befe-6e0661cea7cf"},"vehicle_type_id":"4","last_reported":1750018239,"current_range_meters":10000,"station_id":"ce4bha12rcd13ifvqef0","pricing_plan_id":"cebpf4jnsgd1na2vs0mg"},{"bike_id":"bf61062e-31f1-4a6f-8966-c2c74d688473","system_id":"levelo_inurba_marseille","lat":43.26965,"lon":5.3912,"is_reserved":false,"is_disabled":false,"rental_uris":{"android":"levelo://app?vid=bf61062e-31f1-4a6f-8966-c2c74d688473","ios":"levelo://app?vid=bf61062e-31f1-4a6f-8966-c2c74d688473"},"vehicle_type_id":"4","last_reported":1750018239,"current_range_meters":10800,"station_id":"","pricing_plan_id":"cebpf4jnsgd1na2vs0mg"},{"bike_id":"309e0750-a9a6-46ed-970e-ad9fbee08050","system_id":"levelo_inurba_marseille","lat":43.30589,"lon":5.39358,"is_reserved":false,"is_disabled":false,"rental_uris":{"android":"levelo://app?vid=309e0750-a9a6-46ed-970e-ad9fbee08050","ios":"levelo://app?vid=309e0750-a9a6-46ed-970e-ad9fbee08050"},"vehicle_type_id":"4","last_reported":1750018239,"current_range_meters":10800,"station_id":"ce4bh0p2rcd13ifvqd80","pricing_plan_id":"cebpf4jnsgd1na2vs0mg"},{"bike_id":"933b0df4-a017-452d-96ae-796e1600de10","system_id":"levelo_inurba_marseille","lat":43.295281,"lon":5.39028,"is_reserved":false,"is_disabled":false,"rental_uris":{"android":"levelo://app?vid=933b0df4-a017-452d-96ae-796e1600de10","ios":"levelo://app?vid=933b0df4-a017-452d-96ae-796e1600de10"},"vehicle_type_id":"4","last_reported":1750018239,"current_range_meters":10800,"station_id":"ce4bh3p2rcd13ifvqdp0","pricing_plan_id":"cebpf4jnsgd1na2vs0mg"},{"bike_id":"ca6100ec-a9a0-4747-bf38-5f9661c64df7","system_id":"levelo_inurba_marseille","lat":43.30418,"lon":5.41276,"is_reserved":false,"is_disabled":false,"rental_uris":{"android":"levelo://app?vid=ca6100ec-a9a0-4747-bf38-5f9661c64df7","ios":"levelo://app?vid=ca6100ec-a9a0-4747-bf38-5f9661c64df7"},"vehicle_type_id":"4","last_reported":1750018239,"current_range_meters":10800,"station_id":"ce4bhop2rcd13ifvqh8g","pricing_plan_id":"cebpf4jnsgd1na2vs0mg"},{"bike_id":"1146ce27-4738-4544-bb0e-b06b7bae4a3b","system_id":"levelo_inurba_marseille","lat":43.29686,"lon":5.37288,"is_reserved":false,"is_disabled":false,"rental_uris":{"android":"levelo://app?vid=1146ce27-4738-4544-bb0e-b06b7bae4a3b","ios":"levelo://app?vid=1146ce27-4738-4544-bb0e-b06b7bae4a3b"},"vehicle_type_id":"4","last_reported":1750018239,"current_range_meters":11200,"station_id":"ce4bgk12rcd13ifvqbj0","pricing_plan_id":"cebpf4jnsgd1na2vs0mg"},{"bike_id":"9db533b3-1d99-47c4-a986-1208e6757d59","system_id":"levelo_inurba_marseille","lat":43.3088,"lon":5.39625,"is_reserved":false,"is_disabled":false,"rental_uris":{"android":"levelo://app?vid=9db533b3-1d99-47c4-a986-1208e6757d59","ios":"levelo://app?vid=9db533b3-1d99-47c4-a986-1208e6757d59"},"vehicle_type_id":"4","last_reported":1750018239,"current_range_meters":11200,"station_id":"ce4bh012rcd13ifvqcv0","pricing_plan_id":"cebpf4jnsgd1na2vs0mg"},{"bike_id":"e8352dc9-f4df-47e5-823c-8bbe7b51736e","system_id":"levelo_inurba_marseille","lat":43.28677,"lon":5.36341,"is_reserved":false,"is_disabled":false,"rental_uris":{"android":"levelo://app?vid=e8352dc9-f4df-47e5-823c-8bbe7b51736e","ios":"levelo://app?vid=e8352dc9-f4df-47e5-823c-8bbe7b51736e"},"vehicle_type_id":"4","last_reported":1750018239,"current_range_meters":11200,"station_id":"ce4bhah2rcd13ifvqej0","pricing_plan_id":"cebpf4jnsgd1na2vs0mg"},{"bike_id":"6b5de963-a57e-4f78-a3c4-3d898c54c045","system_id":"levelo_inurba_marseille","lat":43.23177,"lon":5.39968,"is_reserved":false,"is_disabled":false,"rental_uris":{"android":"levelo://app?vid=6b5de963-a57e-4f78-a3c4-3d898c54c045","ios":"levelo://app?vid=6b5de963-a57e-4f78-a3c4-3d898c54c045"},"vehicle_type_id":"4","last_reported":1750018239,"current_range_meters":11200,"station_id":"ce4bhn12rcd13ifvqgqg","pricing_plan_id":"cebpf4jnsgd1na2vs0mg"},{"bike_id":"d51f5e0d-b9b0-4b78-beb8-ca6beb08a85c","system_id":"levelo_inurba_marseille","lat":43.28431,"lon":5.39197,"is_reserved":false,"is_disabled":false,"rental_uris":{"android":"levelo://app?vid=d51f5e0d-b9b0-4b78-beb8-ca6beb08a85c","ios":"levelo://app?vid=d51f5e0d-b9b0-4b78-beb8-ca6beb08a85c"},"vehicle_type_id":"4","last_reported":1750018239,"current_range_meters":11200,"station_id":"ce4bhoh2rcd13ifvqh5g","pricing_plan_id":"cebpf4jnsgd1na2vs0mg"},{"bike_id":"3c4d4cd2-050e-46ac-85d6-64baa38305d9","system_id":"levelo_inurba_marseille","lat":43.23193,"lon":5.35524,"is_reserved":false,"is_disabled":false,"rental_uris":{"android":"levelo://app?vid=3c4d4cd2-050e-46ac-85d6-64baa38305d9","ios":"levelo://app?vid=3c4d4cd2-050e-46ac-85d6-64baa38305d9"},"vehicle_type_id":"4","last_reported":1750018239,"current_range_meters":11200,"station_id":"ce4bhu92rcd13ifvqi70","pricing_plan_id":"cebpf4jnsgd1na2vs0mg"},{"bike_id":"73d2bea6-f99d-4671-8954-580edff743bc","system_id":"levelo_inurba_marseille","lat":43.21189,"lon":5.350756,"is_reserved":false,"is_disabled":false,"rental_uris":{"android":"levelo://app?vid=73d2bea6-f99d-4671-8954-580edff743bc","ios":"levelo://app?vid=73d2bea6-f99d-4671-8954-580edff743bc"},"vehicle_type_id":"4","last_reported":1750018239,"current_range_meters":11600,"station_id":"st_cvj6sg6p6f1abm77japg","pricing_plan_id":"cebpf4jnsgd1na2vs0mg"},{"bike_id":"fa6689e2-810e-41a0-bd2d-9dd7ea1c1180","system_id":"levelo_inurba_marseille","lat":43.28349,"lon":5.38106,"is_reserved":false,"is_disabled":false,"rental_uris":{"android":"levelo://app?vid=fa6689e2-810e-41a0-bd2d-9dd7ea1c1180","ios":"levelo://app?vid=fa6689e2-810e-41a0-bd2d-9dd7ea1c1180"},"vehicle_type_id":"4","last_reported":1750018239,"current_range_meters":12000,"station_id":"ce4bh412rcd13ifvqdr0","pricing_plan_id":"cebpf4jnsgd1na2vs0mg"},{"bike_id":"fd04b1f9-883c-469c-9f2c-efb6d36eccd9","system_id":"levelo_inurba_marseille","lat":43.28111,"lon":5.37841,"is_reserved":false,"is_disabled":false,"rental_uris":{"android":"levelo://app?vid=fd04b1f9-883c-469c-9f2c-efb6d36eccd9","ios":"levelo://app?vid=fd04b1f9-883c-469c-9f2c-efb6d36eccd9"},"vehicle_type_id":"4","last_reported":1750018239,"current_range_meters":12000,"station_id":"ce4bha12rcd13ifvqee0","pricing_plan_id":"cebpf4jnsgd1na2vs0mg"},{"bike_id":"2319ce10-a51c-42ad-ad50-827b68e4f300","system_id":"levelo_inurba_marseille","lat":43.29698,"lon":5.38028,"is_reserved":false,"is_disabled":false,"rental_uris":{"android":"levelo://app?vid=2319ce10-a51c-42ad-ad50-827b68e4f300","ios":"levelo://app?vid=2319ce10-a51c-42ad-ad50-827b68e4f300"},"vehicle_type_id":"4","last_reported":1750018239,"current_range_meters":12400,"station_id":"","pricing_plan_id":"cebpf4jnsgd1na2vs0mg"},{"bike_id":"0c212709-f674-4acb-95e5-639243616bcb","system_id":"levelo_inurba_marseille","lat":43.31077,"lon":5.38359,"is_reserved":false,"is_disabled":false,"rental_uris":{"android":"levelo://app?vid=0c212709-f674-4acb-95e5-639243616bcb","ios":"levelo://app?vid=0c212709-f674-4acb-95e5-639243616bcb"},"vehicle_type_id":"4","last_reported":1750018239,"current_range_meters":12400,"station_id":"ce4bgv92rcd13ifvqcr0","pricing_plan_id":"cebpf4jnsgd1na2vs0mg"},{"bike_id":"0898f570-5cf0-4b53-a90b-cd7e76762474","system_id":"levelo_inurba_marseille","lat":43.30253,"lon":5.40048,"is_reserved":false,"is_disabled":false,"rental_uris":{"android":"levelo://app?vid=0898f570-5cf0-4b53-a90b-cd7e76762474","ios":"levelo://app?vid=0898f570-5cf0-4b53-a90b-cd7e76762474"},"vehicle_type_id":"4","last_reported":1750018239,"current_range_meters":12400,"station_id":"ce4bgvh2rcd13ifvqcs0","pricing_plan_id":"cebpf4jnsgd1na2vs0mg"},{"bike_id":"02a109b2-1551-44ad-b318-60fe9406824e","system_id":"levelo_inurba_marseille","lat":43.30121,"lon":5.39866,"is_reserved":false,"is_disabled":false,"rental_uris":{"android":"levelo://app?vid=02a109b2-1551-44ad-b318-60fe9406824e","ios":"levelo://app?vid=02a109b2-1551-44ad-b318-60fe9406824e"},"vehicle_type_id":"4","last_reported":1750018239,"current_range_meters":12400,"station_id":"ce4bh0h2rcd13ifvqd40","pricing_plan_id":"cebpf4jnsgd1na2vs0mg"},{"bike_id":"f4387a22-1a2d-4d4a-a6ea-823f65eac2aa","system_id":"levelo_inurba_marseille","lat":43.29304,"lon":5.37173,"is_reserved":false,"is_disabled":false,"rental_uris":{"android":"levelo://app?vid=f4387a22-1a2d-4d4a-a6ea-823f65eac2aa","ios":"levelo://app?vid=f4387a22-1a2d-4d4a-a6ea-823f65eac2aa"},"vehicle_type_id":"4","last_reported":1750018239,"current_range_meters":12800,"station_id":"ce4bgh92rcd13ifvqb40","pricing_plan_id":"cebpf4jnsgd1na2vs0mg"},{"bike_id":"e92fe341-4a61-4e1e-9816-d83e33e38cd4","system_id":"levelo_inurba_marseille","lat":43.31168,"lon":5.38696,"is_reserved":false,"is_disabled":false,"rental_uris":{"android":"levelo://app?vid=e92fe341-4a61-4e1e-9816-d83e33e38cd4","ios":"levelo://app?vid=e92fe341-4a61-4e1e-9816-d83e33e38cd4"},"vehicle_type_id":"4","last_reported":1750018239,"current_range_meters":12800,"station_id":"ce4bgv12rcd13ifvqcp0","pricing_plan_id":"cebpf4jnsgd1na2vs0mg"},{"bike_id":"323bc9ea-cb3a-4937-974b-e66525be08e1","system_id":"levelo_inurba_marseille","lat":43.29515,"lon":5.39397,"is_reserved":false,"is_disabled":false,"rental_uris":{"android":"levelo://app?vid=323bc9ea-cb3a-4937-974b-e66525be08e1","ios":"levelo://app?vid=323bc9ea-cb3a-4937-974b-e66525be08e1"},"vehicle_type_id":"4","last_reported":1750018239,"current_range_meters":12800,"station_id":"ce4bh292rcd13ifvqdf0","pricing_plan_id":"cebpf4jnsgd1na2vs0mg"},{"bike_id":"060b4b49-1c05-48ba-9f11-13b4737acf8d","system_id":"levelo_inurba_marseille","lat":43.29258,"lon":5.38445,"is_reserved":false,"is_disabled":false,"rental_uris":{"android":"levelo://app?vid=060b4b49-1c05-48ba-9f11-13b4737acf8d","ios":"levelo://app?vid=060b4b49-1c05-48ba-9f11-13b4737acf8d"},"vehicle_type_id":"4","last_reported":1750018239,"current_range_meters":12800,"station_id":"ce4bh692rcd13ifvqea0","pricing_plan_id":"cebpf4jnsgd1na2vs0mg"},{"bike_id":"24b465a2-266d-4306-a5ac-c7dcf3816b91","system_id":"levelo_inurba_marseille","lat":43.29947,"lon":5.36555,"is_reserved":false,"is_disabled":false,"rental_uris":{"android":"levelo://app?vid=24b465a2-266d-4306-a5ac-c7dcf3816b91","ios":"levelo://app?vid=24b465a2-266d-4306-a5ac-c7dcf3816b91"},"vehicle_type_id":"4","last_reported":1750018239,"current_range_meters":13600,"station_id":"ce4bgm92rcd13ifvqbr0","pricing_plan_id":"cebpf4jnsgd1na2vs0mg"},{"bike_id":"a7ce9332-14c7-456e-904b-0ec20dd110c3","system_id":"levelo_inurba_marseille","lat":43.284795,"lon":5.374723,"is_reserved":false,"is_disabled":false,"rental_uris":{"android":"levelo://app?vid=a7ce9332-14c7-456e-904b-0ec20dd110c3","ios":"levelo://app?vid=a7ce9332-14c7-456e-904b-0ec20dd110c3"},"vehicle_type_id":"4","last_reported":1750018239,"current_range_meters":13600,"station_id":"ce4bh3p2rcd13ifvqdq0","pricing_plan_id":"cebpf4jnsgd1na2vs0mg"},{"bike_id":"5bf19c18-d0ad-489b-bd15-9440a1d65b2d","system_id":"levelo_inurba_marseille","lat":43.21192,"lon":5.35069,"is_reserved":false,"is_disabled":false,"rental_uris":{"android":"levelo://app?vid=5bf19c18-d0ad-489b-bd15-9440a1d65b2d","ios":"levelo://app?vid=5bf19c18-d0ad-489b-bd15-9440a1d65b2d"},"vehicle_type_id":"4","last_reported":1750018239,"current_range_meters":13600,"station_id":"st_cvj6sg6p6f1abm77japg","pricing_plan_id":"cebpf4jnsgd1na2vs0mg"},{"bike_id":"507db63f-9f03-4692-a5d6-6aa01b264730","system_id":"levelo_inurba_marseille","lat":43.28942,"lon":5.39634,"is_reserved":false,"is_disabled":false,"rental_uris":{"android":"levelo://app?vid=507db63f-9f03-4692-a5d6-6aa01b264730","ios":"levelo://app?vid=507db63f-9f03-4692-a5d6-6aa01b264730"},"vehicle_type_id":"4","last_reported":1750018239,"current_range_meters":14000,"station_id":"ce4bh3h2rcd13ifvqdn0","pricing_plan_id":"cebpf4jnsgd1na2vs0mg"},{"bike_id":"de46dbfc-47e2-457e-b64d-f8ab24ef74c5","system_id":"levelo_inurba_marseille","lat":43.29546,"lon":5.42288,"is_reserved":false,"is_disabled":false,"rental_uris":{"android":"levelo://app?vid=de46dbfc-47e2-457e-b64d-f8ab24ef74c5","ios":"levelo://app?vid=de46dbfc-47e2-457e-b64d-f8ab24ef74c5"},"vehicle_type_id":"4","last_reported":1750018239,"current_range_meters":14000,"station_id":"ce4bhph2rcd13ifvqhdg","pricing_plan_id":"cebpf4jnsgd1na2vs0mg"},{"bike_id":"0e151c77-87da-4094-a238-db040f2b0c67","system_id":"levelo_inurba_marseille","lat":43.29718,"lon":5.37415,"is_reserved":false,"is_disabled":false,"rental_uris":{"android":"levelo://app?vid=0e151c77-87da-4094-a238-db040f2b0c67","ios":"levelo://app?vid=0e151c77-87da-4094-a238-db040f2b0c67"},"vehicle_type_id":"4","last_reported":1750018239,"current_range_meters":14400,"station_id":"","pricing_plan_id":"cebpf4jnsgd1na2vs0mg"},{"bike_id":"3a7e3a79-723f-4d58-a427-29a82cc4759e","system_id":"levelo_inurba_marseille","lat":43.2957,"lon":5.39982,"is_reserved":false,"is_disabled":false,"rental_uris":{"android":"levelo://app?vid=3a7e3a79-723f-4d58-a427-29a82cc4759e","ios":"levelo://app?vid=3a7e3a79-723f-4d58-a427-29a82cc4759e"},"vehicle_type_id":"4","last_reported":1750018239,"current_range_meters":14400,"station_id":"ce4bh312rcd13ifvqdj0","pricing_plan_id":"cebpf4jnsgd1na2vs0mg"},{"bike_id":"0fe8d47d-0db3-437d-9239-f712b4736eb4","system_id":"levelo_inurba_marseille","lat":43.32094,"lon":5.36754,"is_reserved":false,"is_disabled":false,"rental_uris":{"android":"levelo://app?vid=0fe8d47d-0db3-437d-9239-f712b4736eb4","ios":"levelo://app?vid=0fe8d47d-0db3-437d-9239-f712b4736eb4"},"vehicle_type_id":"4","last_reported":1750018239,"current_range_meters":14400,"station_id":"ce4bhrh2rcd13ifvqhug","pricing_plan_id":"cebpf4jnsgd1na2vs0mg"},{"bike_id":"9a0c3f99-8244-4ee9-a116-a84f3fe33d04","system_id":"levelo_inurba_marseille","lat":43.23201,"lon":5.35551,"is_reserved":false,"is_disabled":false,"rental_uris":{"android":"levelo://app?vid=9a0c3f99-8244-4ee9-a116-a84f3fe33d04","ios":"levelo://app?vid=9a0c3f99-8244-4ee9-a116-a84f3fe33d04"},"vehicle_type_id":"4","last_reported":1750018239,"current_range_meters":14400,"station_id":"ce4bhu92rcd13ifvqi70","pricing_plan_id":"cebpf4jnsgd1na2vs0mg"},{"bike_id":"91753df6-b383-4702-8414-24237e81fab8","system_id":"levelo_inurba_marseille","lat":43.244318,"lon":5.371547,"is_reserved":false,"is_disabled":false,"rental_uris":{"android":"levelo://app?vid=91753df6-b383-4702-8414-24237e81fab8","ios":"levelo://app?vid=91753df6-b383-4702-8414-24237e81fab8"},"vehicle_type_id":"4","last_reported":1750018239,"current_range_meters":14800,"station_id":"","pricing_plan_id":"cebpf4jnsgd1na2vs0mg"},{"bike_id":"11dd9d87-7716-4fa1-ab53-967b3bd7b3cf","system_id":"levelo_inurba_marseille","lat":43.31077,"lon":5.38352,"is_reserved":false,"is_disabled":false,"rental_uris":{"android":"levelo://app?vid=11dd9d87-7716-4fa1-ab53-967b3bd7b3cf","ios":"levelo://app?vid=11dd9d87-7716-4fa1-ab53-967b3bd7b3cf"},"vehicle_type_id":"4","last_reported":1750018239,"current_range_meters":14800,"station_id":"ce4bgv92rcd13ifvqcr0","pricing_plan_id":"cebpf4jnsgd1na2vs0mg"},{"bike_id":"967dbf99-d964-4970-8883-2a7228a93f9f","system_id":"levelo_inurba_marseille","lat":43.32619,"lon":5.38661,"is_reserved":false,"is_disabled":false,"rental_uris":{"android":"levelo://app?vid=967dbf99-d964-4970-8883-2a7228a93f9f","ios":"levelo://app?vid=967dbf99-d964-4970-8883-2a7228a93f9f"},"vehicle_type_id":"4","last_reported":1750018239,"current_range_meters":15200,"station_id":"","pricing_plan_id":"cebpf4jnsgd1na2vs0mg"},{"bike_id":"97f8851e-21a3-4c6a-8d82-1c239c500fcb","system_id":"levelo_inurba_marseille","lat":43.273777,"lon":5.362576,"is_reserved":false,"is_disabled":false,"rental_uris":{"android":"levelo://app?vid=97f8851e-21a3-4c6a-8d82-1c239c500fcb","ios":"levelo://app?vid=97f8851e-21a3-4c6a-8d82-1c239c500fcb"},"vehicle_type_id":"4","last_reported":1750018239,"current_range_meters":15200,"station_id":"","pricing_plan_id":"cebpf4jnsgd1na2vs0mg"},{"bike_id":"38e08ec6-738b-4a04-a092-dec10c6891d3","system_id":"levelo_inurba_marseille","lat":43.26835,"lon":5.40625,"is_reserved":false,"is_disabled":false,"rental_uris":{"android":"levelo://app?vid=38e08ec6-738b-4a04-a092-dec10c6891d3","ios":"levelo://app?vid=38e08ec6-738b-4a04-a092-dec10c6891d3"},"vehicle_type_id":"4","last_reported":1750018239,"current_range_meters":15200,"station_id":"","pricing_plan_id":"cebpf4jnsgd1na2vs0mg"},{"bike_id":"6ab6b5e9-2b2f-476c-861d-e735f21df255","system_id":"levelo_inurba_marseille","lat":43.26234,"lon":5.4045,"is_reserved":false,"is_disabled":false,"rental_uris":{"android":"levelo://app?vid=6ab6b5e9-2b2f-476c-861d-e735f21df255","ios":"levelo://app?vid=6ab6b5e9-2b2f-476c-861d-e735f21df255"},"vehicle_type_id":"4","last_reported":1750018239,"current_range_meters":15200,"station_id":"ce4bhmh2rcd13ifvqgmg","pricing_plan_id":"cebpf4jnsgd1na2vs0mg"},{"bike_id":"ca404674-a7bb-4909-82c7-65fa93f0b6de","system_id":"levelo_inurba_marseille","lat":43.21201,"lon":5.35051,"is_reserved":false,"is_disabled":false,"rental_uris":{"android":"levelo://app?vid=ca404674-a7bb-4909-82c7-65fa93f0b6de","ios":"levelo://app?vid=ca404674-a7bb-4909-82c7-65fa93f0b6de"},"vehicle_type_id":"4","last_reported":1750018239,"current_range_meters":15200,"station_id":"st_cvj6sg6p6f1abm77japg","pricing_plan_id":"cebpf4jnsgd1na2vs0mg"},{"bike_id":"e7d7eb57-81ab-416d-b2ba-0d5817ccb8c0","system_id":"levelo_inurba_marseille","lat":43.30536,"lon":5.36539,"is_reserved":false,"is_disabled":false,"rental_uris":{"android":"levelo://app?vid=e7d7eb57-81ab-416d-b2ba-0d5817ccb8c0","ios":"levelo://app?vid=e7d7eb57-81ab-416d-b2ba-0d5817ccb8c0"},"vehicle_type_id":"4","last_reported":1750018239,"current_range_meters":16000,"station_id":"ce4bgs12rcd13ifvqcag","pricing_plan_id":"cebpf4jnsgd1na2vs0mg"},{"bike_id":"88a18792-1509-4076-95d3-923deceaa968","system_id":"levelo_inurba_marseille","lat":43.29026,"lon":5.38637,"is_reserved":false,"is_disabled":false,"rental_uris":{"android":"levelo://app?vid=88a18792-1509-4076-95d3-923deceaa968","ios":"levelo://app?vid=88a18792-1509-4076-95d3-923deceaa968"},"vehicle_type_id":"4","last_reported":1750018239,"current_range_meters":16000,"station_id":"ce4bh4p2rcd13ifvqe0g","pricing_plan_id":"cebpf4jnsgd1na2vs0mg"},{"bike_id":"83b882ef-55c9-4c2b-87a5-d87615622e30","system_id":"levelo_inurba_marseille","lat":43.32346,"lon":5.40619,"is_reserved":false,"is_disabled":false,"rental_uris":{"android":"levelo://app?vid=83b882ef-55c9-4c2b-87a5-d87615622e30","ios":"levelo://app?vid=83b882ef-55c9-4c2b-87a5-d87615622e30"},"vehicle_type_id":"4","last_reported":1750018239,"current_range_meters":16000,"station_id":"ce4bhq92rcd13ifvqhjg","pricing_plan_id":"cebpf4jnsgd1na2vs0mg"},{"bike_id":"9dfed0a7-6e89-4568-97a9-f1ca3306a490","system_id":"levelo_inurba_marseille","lat":43.254852,"lon":5.409194,"is_reserved":false,"is_disabled":false,"rental_uris":{"android":"levelo://app?vid=9dfed0a7-6e89-4568-97a9-f1ca3306a490","ios":"levelo://app?vid=9dfed0a7-6e89-4568-97a9-f1ca3306a490"},"vehicle_type_id":"4","last_reported":1750018239,"current_range_meters":16000,"station_id":"ce4bhs12rcd13ifvqhvg","pricing_plan_id":"cebpf4jnsgd1na2vs0mg"},{"bike_id":"1d9df16e-4abf-44d7-b6e8-a27dd4aa3ffb","system_id":"levelo_inurba_marseille","lat":43.23201,"lon":5.35546,"is_reserved":false,"is_disabled":false,"rental_uris":{"android":"levelo://app?vid=1d9df16e-4abf-44d7-b6e8-a27dd4aa3ffb","ios":"levelo://app?vid=1d9df16e-4abf-44d7-b6e8-a27dd4aa3ffb"},"vehicle_type_id":"4","last_reported":1750018239,"current_range_meters":16000,"station_id":"ce4bhu92rcd13ifvqi70","pricing_plan_id":"cebpf4jnsgd1na2vs0mg"},{"bike_id":"2d16d2b6-c684-45ab-831f-9a77e91e8afb","system_id":"levelo_inurba_marseille","lat":43.211906,"lon":5.350745,"is_reserved":false,"is_disabled":false,"rental_uris":{"android":"levelo://app?vid=2d16d2b6-c684-45ab-831f-9a77e91e8afb","ios":"levelo://app?vid=2d16d2b6-c684-45ab-831f-9a77e91e8afb"},"vehicle_type_id":"4","last_reported":1750018239,"current_range_meters":16000,"station_id":"st_cvj6sg6p6f1abm77japg","pricing_plan_id":"cebpf4jnsgd1na2vs0mg"},{"bike_id":"b88ca2a4-2c63-466e-9c70-ffc33b515aea","system_id":"levelo_inurba_marseille","lat":43.30436,"lon":5.38907,"is_reserved":false,"is_disabled":false,"rental_uris":{"android":"levelo://app?vid=b88ca2a4-2c63-466e-9c70-ffc33b515aea","ios":"levelo://app?vid=b88ca2a4-2c63-466e-9c70-ffc33b515aea"},"vehicle_type_id":"4","last_reported":1750018239,"current_range_meters":16400,"station_id":"ce4bgk12rcd13ifvqbi0","pricing_plan_id":"cebpf4jnsgd1na2vs0mg"},{"bike_id":"8ca2ea5d-2802-412b-923d-aa08a3bde653","system_id":"levelo_inurba_marseille","lat":43.31075,"lon":5.38351,"is_reserved":false,"is_disabled":false,"rental_uris":{"android":"levelo://app?vid=8ca2ea5d-2802-412b-923d-aa08a3bde653","ios":"levelo://app?vid=8ca2ea5d-2802-412b-923d-aa08a3bde653"},"vehicle_type_id":"4","last_reported":1750018239,"current_range_meters":16400,"station_id":"ce4bgv92rcd13ifvqcr0","pricing_plan_id":"cebpf4jnsgd1na2vs0mg"},{"bike_id":"9f67ff39-2b86-422f-94a3-730fe36fa592","system_id":"levelo_inurba_marseille","lat":43.25093,"lon":5.3949,"is_reserved":false,"is_disabled":false,"rental_uris":{"android":"levelo://app?vid=9f67ff39-2b86-422f-94a3-730fe36fa592","ios":"levelo://app?vid=9f67ff39-2b86-422f-94a3-730fe36fa592"},"vehicle_type_id":"4","last_reported":1750018239,"current_range_meters":16400,"station_id":"ce4bhm12rcd13ifvqgkg","pricing_plan_id":"cebpf4jnsgd1na2vs0mg"},{"bike_id":"edc54948-fc02-418f-9e19-c3255c2228ab","system_id":"levelo_inurba_marseille","lat":43.29275,"lon":5.36841,"is_reserved":false,"is_disabled":false,"rental_uris":{"android":"levelo://app?vid=edc54948-fc02-418f-9e19-c3255c2228ab","ios":"levelo://app?vid=edc54948-fc02-418f-9e19-c3255c2228ab"},"vehicle_type_id":"4","last_reported":1750018239,"current_range_meters":16800,"station_id":"ce4bhbp2rcd13ifvqesg","pricing_plan_id":"cebpf4jnsgd1na2vs0mg"},{"bike_id":"7183bf46-ab0e-45c2-8a6d-5d074d526ac0","system_id":"levelo_inurba_marseille","lat":43.24066,"lon":5.37759,"is_reserved":false,"is_disabled":false,"rental_uris":{"android":"levelo://app?vid=7183bf46-ab0e-45c2-8a6d-5d074d526ac0","ios":"levelo://app?vid=7183bf46-ab0e-45c2-8a6d-5d074d526ac0"},"vehicle_type_id":"4","last_reported":1750018239,"current_range_meters":16800,"station_id":"ce4bhnp2rcd13ifvqgvg","pricing_plan_id":"cebpf4jnsgd1na2vs0mg"},{"bike_id":"c57d4c12-8b5e-4629-b128-0fe75d46526a","system_id":"levelo_inurba_marseille","lat":43.33024,"lon":5.39043,"is_reserved":false,"is_disabled":false,"rental_uris":{"android":"levelo://app?vid=c57d4c12-8b5e-4629-b128-0fe75d46526a","ios":"levelo://app?vid=c57d4c12-8b5e-4629-b128-0fe75d46526a"},"vehicle_type_id":"4","last_reported":1750018239,"current_range_meters":16800,"station_id":"ce4bhr92rcd13ifvqhrg","pricing_plan_id":"cebpf4jnsgd1na2vs0mg"},{"bike_id":"0d51830a-756f-4f39-bdf4-2fe9707991c7","system_id":"levelo_inurba_marseille","lat":43.212,"lon":5.35047,"is_reserved":false,"is_disabled":false,"rental_uris":{"android":"levelo://app?vid=0d51830a-756f-4f39-bdf4-2fe9707991c7","ios":"levelo://app?vid=0d51830a-756f-4f39-bdf4-2fe9707991c7"},"vehicle_type_id":"4","last_reported":1750018239,"current_range_meters":16800,"station_id":"st_cvj6sg6p6f1abm77japg","pricing_plan_id":"cebpf4jnsgd1na2vs0mg"},{"bike_id":"508c6318-2e37-4161-9247-29cc1ffa502e","system_id":"levelo_inurba_marseille","lat":43.32898,"lon":5.40549,"is_reserved":false,"is_disabled":false,"rental_uris":{"android":"levelo://app?vid=508c6318-2e37-4161-9247-29cc1ffa502e","ios":"levelo://app?vid=508c6318-2e37-4161-9247-29cc1ffa502e"},"vehicle_type_id":"4","last_reported":1750018239,"current_range_meters":17200,"station_id":"","pricing_plan_id":"cebpf4jnsgd1na2vs0mg"},{"bike_id":"7b9010cb-65eb-4696-b39f-3538e90a6031","system_id":"levelo_inurba_marseille","lat":43.34184,"lon":5.37436,"is_reserved":false,"is_disabled":false,"rental_uris":{"android":"levelo://app?vid=7b9010cb-65eb-4696-b39f-3538e90a6031","ios":"levelo://app?vid=7b9010cb-65eb-4696-b39f-3538e90a6031"},"vehicle_type_id":"4","last_reported":1750018239,"current_range_meters":17200,"station_id":"","pricing_plan_id":"cebpf4jnsgd1na2vs0mg"},{"bike_id":"2b3a063b-7e2d-4a8f-bd52-184b73e35fb7","system_id":"levelo_inurba_marseille","lat":43.27194,"lon":5.40985,"is_reserved":false,"is_disabled":false,"rental_uris":{"android":"levelo://app?vid=2b3a063b-7e2d-4a8f-bd52-184b73e35fb7","ios":"levelo://app?vid=2b3a063b-7e2d-4a8f-bd52-184b73e35fb7"},"vehicle_type_id":"4","last_reported":1750018239,"current_range_meters":17200,"station_id":"ce4bhl12rcd13ifvqgf0","pricing_plan_id":"cebpf4jnsgd1na2vs0mg"},{"bike_id":"384edf98-156d-4b16-af67-7712319498ad","system_id":"levelo_inurba_marseille","lat":43.29027,"lon":5.38661,"is_reserved":false,"is_disabled":false,"rental_uris":{"android":"levelo://app?vid=384edf98-156d-4b16-af67-7712319498ad","ios":"levelo://app?vid=384edf98-156d-4b16-af67-7712319498ad"},"vehicle_type_id":"4","last_reported":1750018239,"current_range_meters":17600,"station_id":"ce4bh4p2rcd13ifvqe0g","pricing_plan_id":"cebpf4jnsgd1na2vs0mg"},{"bike_id":"05b58eb9-54de-4183-84b9-dccdb2adf49b","system_id":"levelo_inurba_marseille","lat":43.29601,"lon":5.38104,"is_reserved":false,"is_disabled":false,"rental_uris":{"android":"levelo://app?vid=05b58eb9-54de-4183-84b9-dccdb2adf49b","ios":"levelo://app?vid=05b58eb9-54de-4183-84b9-dccdb2adf49b"},"vehicle_type_id":"4","last_reported":1750018239,"current_range_meters":18000,"station_id":"ce4bgl12rcd13ifvqbo0","pricing_plan_id":"cebpf4jnsgd1na2vs0mg"},{"bike_id":"cb59c9e5-9fc3-40ca-bcf8-8f6ee1d13043","system_id":"levelo_inurba_marseille","lat":43.30542,"lon":5.36556,"is_reserved":false,"is_disabled":false,"rental_uris":{"android":"levelo://app?vid=cb59c9e5-9fc3-40ca-bcf8-8f6ee1d13043","ios":"levelo://app?vid=cb59c9e5-9fc3-40ca-bcf8-8f6ee1d13043"},"vehicle_type_id":"4","last_reported":1750018239,"current_range_meters":18000,"station_id":"ce4bgs12rcd13ifvqcag","pricing_plan_id":"cebpf4jnsgd1na2vs0mg"},{"bike_id":"f9de72c2-0951-4ee0-8d52-f0270a2fd45d","system_id":"levelo_inurba_marseille","lat":43.29421,"lon":5.38613,"is_reserved":false,"is_disabled":false,"rental_uris":{"android":"levelo://app?vid=f9de72c2-0951-4ee0-8d52-f0270a2fd45d","ios":"levelo://app?vid=f9de72c2-0951-4ee0-8d52-f0270a2fd45d"},"vehicle_type_id":"4","last_reported":1750018239,"current_range_meters":18000,"station_id":"ce4bh2h2rcd13ifvqdh0","pricing_plan_id":"cebpf4jnsgd1na2vs0mg"},{"bike_id":"28a4af07-b22d-428b-b25a-4422731f0622","system_id":"levelo_inurba_marseille","lat":43.26063,"lon":5.39395,"is_reserved":false,"is_disabled":false,"rental_uris":{"android":"levelo://app?vid=28a4af07-b22d-428b-b25a-4422731f0622","ios":"levelo://app?vid=28a4af07-b22d-428b-b25a-4422731f0622"},"vehicle_type_id":"4","last_reported":1750018239,"current_range_meters":18000,"station_id":"ce4bhh92rcd13ifvqfj0","pricing_plan_id":"cebpf4jnsgd1na2vs0mg"},{"bike_id":"03763c60-3a67-4e39-a9c3-e820a982f1bc","system_id":"levelo_inurba_marseille","lat":43.26225,"lon":5.40446,"is_reserved":false,"is_disabled":false,"rental_uris":{"android":"levelo://app?vid=03763c60-3a67-4e39-a9c3-e820a982f1bc","ios":"levelo://app?vid=03763c60-3a67-4e39-a9c3-e820a982f1bc"},"vehicle_type_id":"4","last_reported":1750018239,"current_range_meters":18000,"station_id":"ce4bhmh2rcd13ifvqgmg","pricing_plan_id":"cebpf4jnsgd1na2vs0mg"},{"bike_id":"98188997-2bb2-4976-9df6-486350f8d8cf","system_id":"levelo_inurba_marseille","lat":43.31721,"lon":5.42397,"is_reserved":false,"is_disabled":false,"rental_uris":{"android":"levelo://app?vid=98188997-2bb2-4976-9df6-486350f8d8cf","ios":"levelo://app?vid=98188997-2bb2-4976-9df6-486350f8d8cf"},"vehicle_type_id":"4","last_reported":1750018239,"current_range_meters":18000,"station_id":"ce4bhp92rcd13ifvqhbg","pricing_plan_id":"cebpf4jnsgd1na2vs0mg"},{"bike_id":"823c3d03-c2fe-4da7-968a-ef6c458adb2a","system_id":"levelo_inurba_marseille","lat":43.2949,"lon":5.38017,"is_reserved":false,"is_disabled":false,"rental_uris":{"android":"levelo://app?vid=823c3d03-c2fe-4da7-968a-ef6c458adb2a","ios":"levelo://app?vid=823c3d03-c2fe-4da7-968a-ef6c458adb2a"},"vehicle_type_id":"4","last_reported":1750018239,"current_range_meters":18800,"station_id":"","pricing_plan_id":"cebpf4jnsgd1na2vs0mg"},{"bike_id":"b31d3165-d5e1-4bc6-a607-ca1a1c981148","system_id":"levelo_inurba_marseille","lat":43.27566,"lon":5.41753,"is_reserved":false,"is_disabled":false,"rental_uris":{"android":"levelo://app?vid=b31d3165-d5e1-4bc6-a607-ca1a1c981148","ios":"levelo://app?vid=b31d3165-d5e1-4bc6-a607-ca1a1c981148"},"vehicle_type_id":"4","last_reported":1750018239,"current_range_meters":18800,"station_id":"","pricing_plan_id":"cebpf4jnsgd1na2vs0mg"},{"bike_id":"254ab0ec-b605-4a9e-bc5c-a3c7e9624ee1","system_id":"levelo_inurba_marseille","lat":43.303081,"lon":5.368973,"is_reserved":false,"is_disabled":false,"rental_uris":{"android":"levelo://app?vid=254ab0ec-b605-4a9e-bc5c-a3c7e9624ee1","ios":"levelo://app?vid=254ab0ec-b605-4a9e-bc5c-a3c7e9624ee1"},"vehicle_type_id":"4","last_reported":1750018239,"current_range_meters":18800,"station_id":"ce4bgqh2rcd13ifvqc5g","pricing_plan_id":"cebpf4jnsgd1na2vs0mg"},{"bike_id":"6ec0f508-3723-47f5-b9fb-b7defb0a19f6","system_id":"levelo_inurba_marseille","lat":43.30426,"lon":5.39743,"is_reserved":false,"is_disabled":false,"rental_uris":{"android":"levelo://app?vid=6ec0f508-3723-47f5-b9fb-b7defb0a19f6","ios":"levelo://app?vid=6ec0f508-3723-47f5-b9fb-b7defb0a19f6"},"vehicle_type_id":"4","last_reported":1750018239,"current_range_meters":18800,"station_id":"ce4bh092rcd13ifvqd20","pricing_plan_id":"cebpf4jnsgd1na2vs0mg"},{"bike_id":"93b6d596-02f2-4db5-97bd-e8489b66eb83","system_id":"levelo_inurba_marseille","lat":43.28928,"lon":5.38386,"is_reserved":false,"is_disabled":false,"rental_uris":{"android":"levelo://app?vid=93b6d596-02f2-4db5-97bd-e8489b66eb83","ios":"levelo://app?vid=93b6d596-02f2-4db5-97bd-e8489b66eb83"},"vehicle_type_id":"4","last_reported":1750018239,"current_range_meters":18800,"station_id":"ce4bh612rcd13ifvqe6g","pricing_plan_id":"cebpf4jnsgd1na2vs0mg"},{"bike_id":"aab17ecf-42c8-412f-a677-95a102eaadc0","system_id":"levelo_inurba_marseille","lat":43.29265,"lon":5.38454,"is_reserved":false,"is_disabled":false,"rental_uris":{"android":"levelo://app?vid=aab17ecf-42c8-412f-a677-95a102eaadc0","ios":"levelo://app?vid=aab17ecf-42c8-412f-a677-95a102eaadc0"},"vehicle_type_id":"4","last_reported":1750018239,"current_range_meters":18800,"station_id":"ce4bh692rcd13ifvqea0","pricing_plan_id":"cebpf4jnsgd1na2vs0mg"},{"bike_id":"21bd7d26-4a2b-4d02-be41-2e47750631aa","system_id":"levelo_inurba_marseille","lat":43.27424,"lon":5.39418,"is_reserved":false,"is_disabled":false,"rental_uris":{"android":"levelo://app?vid=21bd7d26-4a2b-4d02-be41-2e47750631aa","ios":"levelo://app?vid=21bd7d26-4a2b-4d02-be41-2e47750631aa"},"vehicle_type_id":"4","last_reported":1750018239,"current_range_meters":18800,"station_id":"ce4bhdp2rcd13ifvqf20","pricing_plan_id":"cebpf4jnsgd1na2vs0mg"},{"bike_id":"23a94eab-e6f9-4e49-a3ee-157d1c3c865e","system_id":"levelo_inurba_marseille","lat":43.32647,"lon":5.40976,"is_reserved":false,"is_disabled":false,"rental_uris":{"android":"levelo://app?vid=23a94eab-e6f9-4e49-a3ee-157d1c3c865e","ios":"levelo://app?vid=23a94eab-e6f9-4e49-a3ee-157d1c3c865e"},"vehicle_type_id":"4","last_reported":1750018239,"current_range_meters":18800,"station_id":"ce4bhpp2rcd13ifvqhgg","pricing_plan_id":"cebpf4jnsgd1na2vs0mg"},{"bike_id":"c02e6d63-117b-41a8-b8f2-2be56be9329e","system_id":"levelo_inurba_marseille","lat":43.31532,"lon":5.38026,"is_reserved":false,"is_disabled":false,"rental_uris":{"android":"levelo://app?vid=c02e6d63-117b-41a8-b8f2-2be56be9329e","ios":"levelo://app?vid=c02e6d63-117b-41a8-b8f2-2be56be9329e"},"vehicle_type_id":"4","last_reported":1750018239,"current_range_meters":18800,"station_id":"ce4bhsp2rcd13ifvqi50","pricing_plan_id":"cebpf4jnsgd1na2vs0mg"},{"bike_id":"b200674b-2afa-40ff-b238-2359448b6baf","system_id":"levelo_inurba_marseille","lat":43.23208,"lon":5.35543,"is_reserved":false,"is_disabled":false,"rental_uris":{"android":"levelo://app?vid=b200674b-2afa-40ff-b238-2359448b6baf","ios":"levelo://app?vid=b200674b-2afa-40ff-b238-2359448b6baf"},"vehicle_type_id":"4","last_reported":1750018239,"current_range_meters":18800,"station_id":"ce4bhu92rcd13ifvqi70","pricing_plan_id":"cebpf4jnsgd1na2vs0mg"},{"bike_id":"6f904e79-074e-44f7-a4ee-8b0cd00a4a95","system_id":"levelo_inurba_marseille","lat":43.212,"lon":5.350677,"is_reserved":false,"is_disabled":false,"rental_uris":{"android":"levelo://app?vid=6f904e79-074e-44f7-a4ee-8b0cd00a4a95","ios":"levelo://app?vid=6f904e79-074e-44f7-a4ee-8b0cd00a4a95"},"vehicle_type_id":"4","last_reported":1750018239,"current_range_meters":18800,"station_id":"st_cvj6sg6p6f1abm77japg","pricing_plan_id":"cebpf4jnsgd1na2vs0mg"},{"bike_id":"c937b220-d077-480a-817b-887f33f079c0","system_id":"levelo_inurba_marseille","lat":43.317767,"lon":5.37217,"is_reserved":false,"is_disabled":false,"rental_uris":{"android":"levelo://app?vid=c937b220-d077-480a-817b-887f33f079c0","ios":"levelo://app?vid=c937b220-d077-480a-817b-887f33f079c0"},"vehicle_type_id":"4","last_reported":1750018239,"current_range_meters":19200,"station_id":"","pricing_plan_id":"cebpf4jnsgd1na2vs0mg"},{"bike_id":"826f0ca3-e5fc-4cf8-8696-cb1fe62172b3","system_id":"levelo_inurba_marseille","lat":43.21195,"lon":5.35066,"is_reserved":false,"is_disabled":false,"rental_uris":{"android":"levelo://app?vid=826f0ca3-e5fc-4cf8-8696-cb1fe62172b3","ios":"levelo://app?vid=826f0ca3-e5fc-4cf8-8696-cb1fe62172b3"},"vehicle_type_id":"4","last_reported":1750018239,"current_range_meters":19200,"station_id":"","pricing_plan_id":"cebpf4jnsgd1na2vs0mg"},{"bike_id":"9e355c65-dfa1-43fc-8151-2a9ad47e8422","system_id":"levelo_inurba_marseille","lat":43.28852,"lon":5.39311,"is_reserved":false,"is_disabled":false,"rental_uris":{"android":"levelo://app?vid=9e355c65-dfa1-43fc-8151-2a9ad47e8422","ios":"levelo://app?vid=9e355c65-dfa1-43fc-8151-2a9ad47e8422"},"vehicle_type_id":"4","last_reported":1750018239,"current_range_meters":19200,"station_id":"ce4bh2p2rcd13ifvqdi0","pricing_plan_id":"cebpf4jnsgd1na2vs0mg"},{"bike_id":"def6c393-4777-4180-bc47-28ea8cf54bb1","system_id":"levelo_inurba_marseille","lat":43.26195,"lon":5.37452,"is_reserved":false,"is_disabled":false,"rental_uris":{"android":"levelo://app?vid=def6c393-4777-4180-bc47-28ea8cf54bb1","ios":"levelo://app?vid=def6c393-4777-4180-bc47-28ea8cf54bb1"},"vehicle_type_id":"4","last_reported":1750018239,"current_range_meters":19200,"station_id":"ce4bhgp2rcd13ifvqfc0","pricing_plan_id":"cebpf4jnsgd1na2vs0mg"},{"bike_id":"f4960cb7-92f3-48e4-a1cc-a2b8a605a4b3","system_id":"levelo_inurba_marseille","lat":43.337661,"lon":5.37425,"is_reserved":false,"is_disabled":false,"rental_uris":{"android":"levelo://app?vid=f4960cb7-92f3-48e4-a1cc-a2b8a605a4b3","ios":"levelo://app?vid=f4960cb7-92f3-48e4-a1cc-a2b8a605a4b3"},"vehicle_type_id":"4","last_reported":1750018239,"current_range_meters":19600,"station_id":"","pricing_plan_id":"cebpf4jnsgd1na2vs0mg"},{"bike_id":"bd7bc889-0ace-44ba-adc2-5e336bdf27e2","system_id":"levelo_inurba_marseille","lat":43.30992,"lon":5.37481,"is_reserved":false,"is_disabled":false,"rental_uris":{"android":"levelo://app?vid=bd7bc889-0ace-44ba-adc2-5e336bdf27e2","ios":"levelo://app?vid=bd7bc889-0ace-44ba-adc2-5e336bdf27e2"},"vehicle_type_id":"4","last_reported":1750018239,"current_range_meters":19600,"station_id":"","pricing_plan_id":"cebpf4jnsgd1na2vs0mg"},{"bike_id":"555dc4d9-9d60-4fce-8569-2b6826cdee81","system_id":"levelo_inurba_marseille","lat":43.32663,"lon":5.40991,"is_reserved":false,"is_disabled":false,"rental_uris":{"android":"levelo://app?vid=555dc4d9-9d60-4fce-8569-2b6826cdee81","ios":"levelo://app?vid=555dc4d9-9d60-4fce-8569-2b6826cdee81"},"vehicle_type_id":"4","last_reported":1750018239,"current_range_meters":19600,"station_id":"ce4bhpp2rcd13ifvqhgg","pricing_plan_id":"cebpf4jnsgd1na2vs0mg"},{"bike_id":"8bd9dad0-8991-4fa0-98e9-2f126f787104","system_id":"levelo_inurba_marseille","lat":43.30432,"lon":5.3974,"is_reserved":false,"is_disabled":false,"rental_uris":{"android":"levelo://app?vid=8bd9dad0-8991-4fa0-98e9-2f126f787104","ios":"levelo://app?vid=8bd9dad0-8991-4fa0-98e9-2f126f787104"},"vehicle_type_id":"4","last_reported":1750018239,"current_range_meters":20000,"station_id":"ce4bh092rcd13ifvqd20","pricing_plan_id":"cebpf4jnsgd1na2vs0mg"},{"bike_id":"c9413947-cc85-4a96-8ab5-2ff7f2c42362","system_id":"levelo_inurba_marseille","lat":43.29099,"lon":5.38103,"is_reserved":false,"is_disabled":false,"rental_uris":{"android":"levelo://app?vid=c9413947-cc85-4a96-8ab5-2ff7f2c42362","ios":"levelo://app?vid=c9413947-cc85-4a96-8ab5-2ff7f2c42362"},"vehicle_type_id":"4","last_reported":1750018239,"current_range_meters":20000,"station_id":"ce4bh512rcd13ifvqe2g","pricing_plan_id":"cebpf4jnsgd1na2vs0mg"},{"bike_id":"098c5360-1eab-4372-b067-4a9281ebdbe3","system_id":"levelo_inurba_marseille","lat":43.27943,"lon":5.41044,"is_reserved":false,"is_disabled":false,"rental_uris":{"android":"levelo://app?vid=098c5360-1eab-4372-b067-4a9281ebdbe3","ios":"levelo://app?vid=098c5360-1eab-4372-b067-4a9281ebdbe3"},"vehicle_type_id":"4","last_reported":1750018239,"current_range_meters":20000,"station_id":"ce4bhnp2rcd13ifvqh0g","pricing_plan_id":"cebpf4jnsgd1na2vs0mg"},{"bike_id":"4971e09a-6fa0-4d6b-8fcb-78ca44f02791","system_id":"levelo_inurba_marseille","lat":43.30195,"lon":5.45321,"is_reserved":false,"is_disabled":false,"rental_uris":{"android":"levelo://app?vid=4971e09a-6fa0-4d6b-8fcb-78ca44f02791","ios":"levelo://app?vid=4971e09a-6fa0-4d6b-8fcb-78ca44f02791"},"vehicle_type_id":"4","last_reported":1750018239,"current_range_meters":20400,"station_id":"","pricing_plan_id":"cebpf4jnsgd1na2vs0mg"},{"bike_id":"724caf0a-a332-4c79-8ade-ed4cdbc1a79b","system_id":"levelo_inurba_marseille","lat":43.31334,"lon":5.39682,"is_reserved":false,"is_disabled":false,"rental_uris":{"android":"levelo://app?vid=724caf0a-a332-4c79-8ade-ed4cdbc1a79b","ios":"levelo://app?vid=724caf0a-a332-4c79-8ade-ed4cdbc1a79b"},"vehicle_type_id":"4","last_reported":1750018239,"current_range_meters":20400,"station_id":"ce4bgvp2rcd13ifvqcu0","pricing_plan_id":"cebpf4jnsgd1na2vs0mg"},{"bike_id":"be10e7f7-2949-4182-8b80-28303dc661df","system_id":"levelo_inurba_marseille","lat":43.27982,"lon":5.41665,"is_reserved":false,"is_disabled":false,"rental_uris":{"android":"levelo://app?vid=be10e7f7-2949-4182-8b80-28303dc661df","ios":"levelo://app?vid=be10e7f7-2949-4182-8b80-28303dc661df"},"vehicle_type_id":"4","last_reported":1750018239,"current_range_meters":20400,"station_id":"ce4bho12rcd13ifvqh1g","pricing_plan_id":"cebpf4jnsgd1na2vs0mg"},{"bike_id":"35bed12d-6a39-4aeb-8d8a-dc1504df26a5","system_id":"levelo_inurba_marseille","lat":43.25389,"lon":5.41913,"is_reserved":false,"is_disabled":false,"rental_uris":{"android":"levelo://app?vid=35bed12d-6a39-4aeb-8d8a-dc1504df26a5","ios":"levelo://app?vid=35bed12d-6a39-4aeb-8d8a-dc1504df26a5"},"vehicle_type_id":"4","last_reported":1750018239,"current_range_meters":20800,"station_id":"","pricing_plan_id":"cebpf4jnsgd1na2vs0mg"},{"bike_id":"115bc463-25cf-499b-9d0c-1e5446b33067","system_id":"levelo_inurba_marseille","lat":43.29977,"lon":5.38483,"is_reserved":false,"is_disabled":false,"rental_uris":{"android":"levelo://app?vid=115bc463-25cf-499b-9d0c-1e5446b33067","ios":"levelo://app?vid=115bc463-25cf-499b-9d0c-1e5446b33067"},"vehicle_type_id":"4","last_reported":1750018239,"current_range_meters":20800,"station_id":"ce4bgj92rcd13ifvqbd0","pricing_plan_id":"cebpf4jnsgd1na2vs0mg"},{"bike_id":"c9c5a751-3016-4b58-b7bd-484959af8d47","system_id":"levelo_inurba_marseille","lat":43.30443,"lon":5.38892,"is_reserved":false,"is_disabled":false,"rental_uris":{"android":"levelo://app?vid=c9c5a751-3016-4b58-b7bd-484959af8d47","ios":"levelo://app?vid=c9c5a751-3016-4b58-b7bd-484959af8d47"},"vehicle_type_id":"4","last_reported":1750018239,"current_range_meters":20800,"station_id":"ce4bgk12rcd13ifvqbi0","pricing_plan_id":"cebpf4jnsgd1na2vs0mg"},{"bike_id":"24a74edd-9bcb-4a92-85f6-999c778f1627","system_id":"levelo_inurba_marseille","lat":43.29876,"lon":5.39738,"is_reserved":false,"is_disabled":false,"rental_uris":{"android":"levelo://app?vid=24a74edd-9bcb-4a92-85f6-999c778f1627","ios":"levelo://app?vid=24a74edd-9bcb-4a92-85f6-999c778f1627"},"vehicle_type_id":"4","last_reported":1750018239,"current_range_meters":20800,"station_id":"ce4bh0h2rcd13ifvqd50","pricing_plan_id":"cebpf4jnsgd1na2vs0mg"},{"bike_id":"83f06651-8cc7-4287-be4f-4281f5678160","system_id":"levelo_inurba_marseille","lat":43.31771,"lon":5.38988,"is_reserved":false,"is_disabled":false,"rental_uris":{"android":"levelo://app?vid=83f06651-8cc7-4287-be4f-4281f5678160","ios":"levelo://app?vid=83f06651-8cc7-4287-be4f-4281f5678160"},"vehicle_type_id":"4","last_reported":1750018239,"current_range_meters":20800,"station_id":"ce4bhqp2rcd13ifvqhng","pricing_plan_id":"cebpf4jnsgd1na2vs0mg"},{"bike_id":"e612b7a7-3207-4aae-b53e-c8d480fc9283","system_id":"levelo_inurba_marseille","lat":43.23201,"lon":5.35551,"is_reserved":false,"is_disabled":false,"rental_uris":{"android":"levelo://app?vid=e612b7a7-3207-4aae-b53e-c8d480fc9283","ios":"levelo://app?vid=e612b7a7-3207-4aae-b53e-c8d480fc9283"},"vehicle_type_id":"4","last_reported":1750018239,"current_range_meters":20800,"station_id":"ce4bhu92rcd13ifvqi70","pricing_plan_id":"cebpf4jnsgd1na2vs0mg"},{"bike_id":"c20451b8-ea3d-49aa-99f8-dc989295f9b4","system_id":"levelo_inurba_marseille","lat":43.23048,"lon":5.35504,"is_reserved":false,"is_disabled":false,"rental_uris":{"android":"levelo://app?vid=c20451b8-ea3d-49aa-99f8-dc989295f9b4","ios":"levelo://app?vid=c20451b8-ea3d-49aa-99f8-dc989295f9b4"},"vehicle_type_id":"4","last_reported":1750018239,"current_range_meters":20800,"station_id":"cpo3342slgdg3j2ifvpg","pricing_plan_id":"cebpf4jnsgd1na2vs0mg"},{"bike_id":"8670b63d-2124-4e84-b67e-edf5a26d32fb","system_id":"levelo_inurba_marseille","lat":43.30185,"lon":5.36616,"is_reserved":false,"is_disabled":false,"rental_uris":{"android":"levelo://app?vid=8670b63d-2124-4e84-b67e-edf5a26d32fb","ios":"levelo://app?vid=8670b63d-2124-4e84-b67e-edf5a26d32fb"},"vehicle_type_id":"4","last_reported":1750018239,"current_range_meters":21600,"station_id":"ce4bgrh2rcd13ifvqc8g","pricing_plan_id":"cebpf4jnsgd1na2vs0mg"},{"bike_id":"92cdfc67-b53f-4440-961c-2f86ff63b264","system_id":"levelo_inurba_marseille","lat":43.31077,"lon":5.38365,"is_reserved":false,"is_disabled":false,"rental_uris":{"android":"levelo://app?vid=92cdfc67-b53f-4440-961c-2f86ff63b264","ios":"levelo://app?vid=92cdfc67-b53f-4440-961c-2f86ff63b264"},"vehicle_type_id":"4","last_reported":1750018239,"current_range_meters":21600,"station_id":"ce4bgv92rcd13ifvqcr0","pricing_plan_id":"cebpf4jnsgd1na2vs0mg"},{"bike_id":"6bb30ceb-2336-40ee-a1ec-ea529b74493e","system_id":"levelo_inurba_marseille","lat":43.303053,"lon":5.392264,"is_reserved":false,"is_disabled":false,"rental_uris":{"android":"levelo://app?vid=6bb30ceb-2336-40ee-a1ec-ea529b74493e","ios":"levelo://app?vid=6bb30ceb-2336-40ee-a1ec-ea529b74493e"},"vehicle_type_id":"4","last_reported":1750018239,"current_range_meters":21600,"station_id":"ce4bh112rcd13ifvqda0","pricing_plan_id":"cebpf4jnsgd1na2vs0mg"},{"bike_id":"da3760f1-7420-4dec-9444-ff5c1ef3a036","system_id":"levelo_inurba_marseille","lat":43.28688,"lon":5.38665,"is_reserved":false,"is_disabled":false,"rental_uris":{"android":"levelo://app?vid=da3760f1-7420-4dec-9444-ff5c1ef3a036","ios":"levelo://app?vid=da3760f1-7420-4dec-9444-ff5c1ef3a036"},"vehicle_type_id":"4","last_reported":1750018239,"current_range_meters":21600,"station_id":"ce4bh492rcd13ifvqdug","pricing_plan_id":"cebpf4jnsgd1na2vs0mg"},{"bike_id":"22540720-49ff-4c4e-abdd-93af1e9ae5d8","system_id":"levelo_inurba_marseille","lat":43.27056,"lon":5.40253,"is_reserved":false,"is_disabled":false,"rental_uris":{"android":"levelo://app?vid=22540720-49ff-4c4e-abdd-93af1e9ae5d8","ios":"levelo://app?vid=22540720-49ff-4c4e-abdd-93af1e9ae5d8"},"vehicle_type_id":"4","last_reported":1750018239,"current_range_meters":21600,"station_id":"ce4bhk92rcd13ifvqgc0","pricing_plan_id":"cebpf4jnsgd1na2vs0mg"},{"bike_id":"db696f9f-9ecc-4e26-bd9c-bd73bc64204b","system_id":"levelo_inurba_marseille","lat":43.29903,"lon":5.43647,"is_reserved":false,"is_disabled":false,"rental_uris":{"android":"levelo://app?vid=db696f9f-9ecc-4e26-bd9c-bd73bc64204b","ios":"levelo://app?vid=db696f9f-9ecc-4e26-bd9c-bd73bc64204b"},"vehicle_type_id":"4","last_reported":1750018239,"current_range_meters":21600,"station_id":"ce4bhpp2rcd13ifvqhfg","pricing_plan_id":"cebpf4jnsgd1na2vs0mg"},{"bike_id":"1aeff141-ce7f-4b92-a265-5a1e9f23972b","system_id":"levelo_inurba_marseille","lat":43.29803,"lon":5.404,"is_reserved":false,"is_disabled":false,"rental_uris":{"android":"levelo://app?vid=1aeff141-ce7f-4b92-a265-5a1e9f23972b","ios":"levelo://app?vid=1aeff141-ce7f-4b92-a265-5a1e9f23972b"},"vehicle_type_id":"4","last_reported":1750018239,"current_range_meters":22000,"station_id":"ce4bh112rcd13ifvqd90","pricing_plan_id":"cebpf4jnsgd1na2vs0mg"},{"bike_id":"33aded09-63da-4ed8-9a13-756da72e5383","system_id":"levelo_inurba_marseille","lat":43.294207,"lon":5.38607,"is_reserved":false,"is_disabled":false,"rental_uris":{"android":"levelo://app?vid=33aded09-63da-4ed8-9a13-756da72e5383","ios":"levelo://app?vid=33aded09-63da-4ed8-9a13-756da72e5383"},"vehicle_type_id":"4","last_reported":1750018239,"current_range_meters":22000,"station_id":"ce4bh2h2rcd13ifvqdh0","pricing_plan_id":"cebpf4jnsgd1na2vs0mg"},{"bike_id":"dc58d88b-3a92-40ad-879e-e5349f26d4e0","system_id":"levelo_inurba_marseille","lat":43.23179,"lon":5.39989,"is_reserved":false,"is_disabled":false,"rental_uris":{"android":"levelo://app?vid=dc58d88b-3a92-40ad-879e-e5349f26d4e0","ios":"levelo://app?vid=dc58d88b-3a92-40ad-879e-e5349f26d4e0"},"vehicle_type_id":"4","last_reported":1750018239,"current_range_meters":22000,"station_id":"ce4bhn12rcd13ifvqgqg","pricing_plan_id":"cebpf4jnsgd1na2vs0mg"},{"bike_id":"75186291-8cc0-4f7d-8dfe-b097603d973f","system_id":"levelo_inurba_marseille","lat":43.29537,"lon":5.38554,"is_reserved":false,"is_disabled":false,"rental_uris":{"android":"levelo://app?vid=75186291-8cc0-4f7d-8dfe-b097603d973f","ios":"levelo://app?vid=75186291-8cc0-4f7d-8dfe-b097603d973f"},"vehicle_type_id":"4","last_reported":1750018239,"current_range_meters":22400,"station_id":"ce4bgih2rcd13ifvqba0","pricing_plan_id":"cebpf4jnsgd1na2vs0mg"},{"bike_id":"7295d3ae-e171-4c7b-987f-f4c629dfb612","system_id":"levelo_inurba_marseille","lat":43.296007,"lon":5.381047,"is_reserved":false,"is_disabled":false,"rental_uris":{"android":"levelo://app?vid=7295d3ae-e171-4c7b-987f-f4c629dfb612","ios":"levelo://app?vid=7295d3ae-e171-4c7b-987f-f4c629dfb612"},"vehicle_type_id":"4","last_reported":1750018239,"current_range_meters":22400,"station_id":"ce4bgl12rcd13ifvqbo0","pricing_plan_id":"cebpf4jnsgd1na2vs0mg"},{"bike_id":"7ba50793-ca78-46bf-b55e-7e1fa892287b","system_id":"levelo_inurba_marseille","lat":43.30141,"lon":5.39872,"is_reserved":false,"is_disabled":false,"rental_uris":{"android":"levelo://app?vid=7ba50793-ca78-46bf-b55e-7e1fa892287b","ios":"levelo://app?vid=7ba50793-ca78-46bf-b55e-7e1fa892287b"},"vehicle_type_id":"4","last_reported":1750018239,"current_range_meters":22400,"station_id":"ce4bh0h2rcd13ifvqd40","pricing_plan_id":"cebpf4jnsgd1na2vs0mg"},{"bike_id":"70108669-6513-4a88-ae2c-d2ae4f902d2c","system_id":"levelo_inurba_marseille","lat":43.28421,"lon":5.34989,"is_reserved":false,"is_disabled":false,"rental_uris":{"android":"levelo://app?vid=70108669-6513-4a88-ae2c-d2ae4f902d2c","ios":"levelo://app?vid=70108669-6513-4a88-ae2c-d2ae4f902d2c"},"vehicle_type_id":"4","last_reported":1750018239,"current_range_meters":22400,"station_id":"ce4bhbh2rcd13ifvqepg","pricing_plan_id":"cebpf4jnsgd1na2vs0mg"},{"bike_id":"f8f5c739-72f4-49b1-b3d4-90e1f195211d","system_id":"levelo_inurba_marseille","lat":43.21201,"lon":5.35066,"is_reserved":false,"is_disabled":false,"rental_uris":{"android":"levelo://app?vid=f8f5c739-72f4-49b1-b3d4-90e1f195211d","ios":"levelo://app?vid=f8f5c739-72f4-49b1-b3d4-90e1f195211d"},"vehicle_type_id":"4","last_reported":1750018239,"current_range_meters":22400,"station_id":"st_cvj6sg6p6f1abm77japg","pricing_plan_id":"cebpf4jnsgd1na2vs0mg"},{"bike_id":"b38da09b-f621-4f83-85a7-31d404e707f9","system_id":"levelo_inurba_marseille","lat":43.25317,"lon":5.39371,"is_reserved":false,"is_disabled":false,"rental_uris":{"android":"levelo://app?vid=b38da09b-f621-4f83-85a7-31d404e707f9","ios":"levelo://app?vid=b38da09b-f621-4f83-85a7-31d404e707f9"},"vehicle_type_id":"4","last_reported":1750018239,"current_range_meters":22800,"station_id":"","pricing_plan_id":"cebpf4jnsgd1na2vs0mg"},{"bike_id":"64b09297-d200-4ec9-a344-07756f0084ae","system_id":"levelo_inurba_marseille","lat":43.30546,"lon":5.38409,"is_reserved":false,"is_disabled":false,"rental_uris":{"android":"levelo://app?vid=64b09297-d200-4ec9-a344-07756f0084ae","ios":"levelo://app?vid=64b09297-d200-4ec9-a344-07756f0084ae"},"vehicle_type_id":"4","last_reported":1750018239,"current_range_meters":22800,"station_id":"ce4bgg92rcd13ifvqb30","pricing_plan_id":"cebpf4jnsgd1na2vs0mg"},{"bike_id":"113b35ba-4bfc-4653-9981-9c94fd020996","system_id":"levelo_inurba_marseille","lat":43.23192,"lon":5.35541,"is_reserved":false,"is_disabled":false,"rental_uris":{"android":"levelo://app?vid=113b35ba-4bfc-4653-9981-9c94fd020996","ios":"levelo://app?vid=113b35ba-4bfc-4653-9981-9c94fd020996"},"vehicle_type_id":"4","last_reported":1750018239,"current_range_meters":22800,"station_id":"ce4bhu92rcd13ifvqi70","pricing_plan_id":"cebpf4jnsgd1na2vs0mg"},{"bike_id":"a895562e-7b04-44b7-9a5e-95b4c43fd47e","system_id":"levelo_inurba_marseille","lat":43.31836,"lon":5.37398,"is_reserved":false,"is_disabled":false,"rental_uris":{"android":"levelo://app?vid=a895562e-7b04-44b7-9a5e-95b4c43fd47e","ios":"levelo://app?vid=a895562e-7b04-44b7-9a5e-95b4c43fd47e"},"vehicle_type_id":"4","last_reported":1750018239,"current_range_meters":23200,"station_id":"","pricing_plan_id":"cebpf4jnsgd1na2vs0mg"},{"bike_id":"b624d201-2b28-4662-a600-a7cce0c1da03","system_id":"levelo_inurba_marseille","lat":43.30088,"lon":5.3909,"is_reserved":false,"is_disabled":false,"rental_uris":{"android":"levelo://app?vid=b624d201-2b28-4662-a600-a7cce0c1da03","ios":"levelo://app?vid=b624d201-2b28-4662-a600-a7cce0c1da03"},"vehicle_type_id":"4","last_reported":1750018239,"current_range_meters":23200,"station_id":"ce4bh192rcd13ifvqdb0","pricing_plan_id":"cebpf4jnsgd1na2vs0mg"},{"bike_id":"a5605d9c-1d6c-47ae-b81d-6e65cb8eb85c","system_id":"levelo_inurba_marseille","lat":43.2606,"lon":5.39392,"is_reserved":false,"is_disabled":false,"rental_uris":{"android":"levelo://app?vid=a5605d9c-1d6c-47ae-b81d-6e65cb8eb85c","ios":"levelo://app?vid=a5605d9c-1d6c-47ae-b81d-6e65cb8eb85c"},"vehicle_type_id":"4","last_reported":1750018239,"current_range_meters":23200,"station_id":"ce4bhh92rcd13ifvqfj0","pricing_plan_id":"cebpf4jnsgd1na2vs0mg"},{"bike_id":"9a43b84d-6cf1-4a38-beb9-87f8b42f5867","system_id":"levelo_inurba_marseille","lat":43.27182,"lon":5.4099,"is_reserved":false,"is_disabled":false,"rental_uris":{"android":"levelo://app?vid=9a43b84d-6cf1-4a38-beb9-87f8b42f5867","ios":"levelo://app?vid=9a43b84d-6cf1-4a38-beb9-87f8b42f5867"},"vehicle_type_id":"4","last_reported":1750018239,"current_range_meters":23200,"station_id":"ce4bhl12rcd13ifvqgf0","pricing_plan_id":"cebpf4jnsgd1na2vs0mg"},{"bike_id":"1ac79cd5-ec23-43d3-b4f8-ceb61207651b","system_id":"levelo_inurba_marseille","lat":43.321109,"lon":5.367656,"is_reserved":false,"is_disabled":false,"rental_uris":{"android":"levelo://app?vid=1ac79cd5-ec23-43d3-b4f8-ceb61207651b","ios":"levelo://app?vid=1ac79cd5-ec23-43d3-b4f8-ceb61207651b"},"vehicle_type_id":"4","last_reported":1750018239,"current_range_meters":23200,"station_id":"ce4bhrh2rcd13ifvqhug","pricing_plan_id":"cebpf4jnsgd1na2vs0mg"},{"bike_id":"6e109a25-b453-4c60-b595-9be2ab1913b0","system_id":"levelo_inurba_marseille","lat":43.229318,"lon":5.353675,"is_reserved":false,"is_disabled":false,"rental_uris":{"android":"levelo://app?vid=6e109a25-b453-4c60-b595-9be2ab1913b0","ios":"levelo://app?vid=6e109a25-b453-4c60-b595-9be2ab1913b0"},"vehicle_type_id":"4","last_reported":1750018239,"current_range_meters":23200,"station_id":"cpo3532slgdg3j2ikp40","pricing_plan_id":"cebpf4jnsgd1na2vs0mg"},{"bike_id":"fa1edba4-f090-4873-b496-11eff1d6aaa9","system_id":"levelo_inurba_marseille","lat":43.24325,"lon":5.41196,"is_reserved":false,"is_disabled":false,"rental_uris":{"android":"levelo://app?vid=fa1edba4-f090-4873-b496-11eff1d6aaa9","ios":"levelo://app?vid=fa1edba4-f090-4873-b496-11eff1d6aaa9"},"vehicle_type_id":"4","last_reported":1750018239,"current_range_meters":24000,"station_id":"","pricing_plan_id":"cebpf4jnsgd1na2vs0mg"},{"bike_id":"7fe0f700-204b-4aba-a170-98bcaf4e7279","system_id":"levelo_inurba_marseille","lat":43.27422,"lon":5.39416,"is_reserved":false,"is_disabled":false,"rental_uris":{"android":"levelo://app?vid=7fe0f700-204b-4aba-a170-98bcaf4e7279","ios":"levelo://app?vid=7fe0f700-204b-4aba-a170-98bcaf4e7279"},"vehicle_type_id":"4","last_reported":1750018239,"current_range_meters":24000,"station_id":"ce4bhdp2rcd13ifvqf20","pricing_plan_id":"cebpf4jnsgd1na2vs0mg"},{"bike_id":"c8dfb0ea-7452-4653-979a-81a495939d6b","system_id":"levelo_inurba_marseille","lat":43.29897,"lon":5.43675,"is_reserved":false,"is_disabled":false,"rental_uris":{"android":"levelo://app?vid=c8dfb0ea-7452-4653-979a-81a495939d6b","ios":"levelo://app?vid=c8dfb0ea-7452-4653-979a-81a495939d6b"},"vehicle_type_id":"4","last_reported":1750018239,"current_range_meters":24000,"station_id":"ce4bhpp2rcd13ifvqhfg","pricing_plan_id":"cebpf4jnsgd1na2vs0mg"},{"bike_id":"c12de7de-5c91-4232-bff8-bcefa9eb4caf","system_id":"levelo_inurba_marseille","lat":43.26359,"lon":5.39835,"is_reserved":false,"is_disabled":false,"rental_uris":{"android":"levelo://app?vid=c12de7de-5c91-4232-bff8-bcefa9eb4caf","ios":"levelo://app?vid=c12de7de-5c91-4232-bff8-bcefa9eb4caf"},"vehicle_type_id":"4","last_reported":1750018239,"current_range_meters":24400,"station_id":"","pricing_plan_id":"cebpf4jnsgd1na2vs0mg"},{"bike_id":"6eb937ac-56fb-4529-beb5-6fe68138388e","system_id":"levelo_inurba_marseille","lat":43.285397,"lon":5.40548,"is_reserved":false,"is_disabled":false,"rental_uris":{"android":"levelo://app?vid=6eb937ac-56fb-4529-beb5-6fe68138388e","ios":"levelo://app?vid=6eb937ac-56fb-4529-beb5-6fe68138388e"},"vehicle_type_id":"4","last_reported":1750018239,"current_range_meters":24400,"station_id":"","pricing_plan_id":"cebpf4jnsgd1na2vs0mg"},{"bike_id":"39d32260-51d5-455a-ba53-6471389bd255","system_id":"levelo_inurba_marseille","lat":43.31976,"lon":5.37615,"is_reserved":false,"is_disabled":false,"rental_uris":{"android":"levelo://app?vid=39d32260-51d5-455a-ba53-6471389bd255","ios":"levelo://app?vid=39d32260-51d5-455a-ba53-6471389bd255"},"vehicle_type_id":"4","last_reported":1750018239,"current_range_meters":24400,"station_id":"","pricing_plan_id":"cebpf4jnsgd1na2vs0mg"},{"bike_id":"a093f009-fb20-41c9-8562-605aa4f79866","system_id":"levelo_inurba_marseille","lat":43.30413,"lon":5.38892,"is_reserved":false,"is_disabled":false,"rental_uris":{"android":"levelo://app?vid=a093f009-fb20-41c9-8562-605aa4f79866","ios":"levelo://app?vid=a093f009-fb20-41c9-8562-605aa4f79866"},"vehicle_type_id":"4","last_reported":1750018239,"current_range_meters":24400,"station_id":"ce4bgk12rcd13ifvqbi0","pricing_plan_id":"cebpf4jnsgd1na2vs0mg"},{"bike_id":"f65718c2-d67d-4035-b43c-f6a308e55c85","system_id":"levelo_inurba_marseille","lat":43.29629,"lon":5.40595,"is_reserved":false,"is_disabled":false,"rental_uris":{"android":"levelo://app?vid=f65718c2-d67d-4035-b43c-f6a308e55c85","ios":"levelo://app?vid=f65718c2-d67d-4035-b43c-f6a308e55c85"},"vehicle_type_id":"4","last_reported":1750018239,"current_range_meters":24400,"station_id":"ce4bh0h2rcd13ifvqd60","pricing_plan_id":"cebpf4jnsgd1na2vs0mg"},{"bike_id":"28b890c0-b7b2-4d3f-af9c-8f54ca13c3b4","system_id":"levelo_inurba_marseille","lat":43.28422,"lon":5.37513,"is_reserved":false,"is_disabled":false,"rental_uris":{"android":"levelo://app?vid=28b890c0-b7b2-4d3f-af9c-8f54ca13c3b4","ios":"levelo://app?vid=28b890c0-b7b2-4d3f-af9c-8f54ca13c3b4"},"vehicle_type_id":"4","last_reported":1750018239,"current_range_meters":24400,"station_id":"ce4bh412rcd13ifvqds0","pricing_plan_id":"cebpf4jnsgd1na2vs0mg"},{"bike_id":"ba3a1599-8aba-4abc-bfec-73f29d321f50","system_id":"levelo_inurba_marseille","lat":43.29281,"lon":5.38451,"is_reserved":false,"is_disabled":false,"rental_uris":{"android":"levelo://app?vid=ba3a1599-8aba-4abc-bfec-73f29d321f50","ios":"levelo://app?vid=ba3a1599-8aba-4abc-bfec-73f29d321f50"},"vehicle_type_id":"4","last_reported":1750018239,"current_range_meters":24400,"station_id":"ce4bh692rcd13ifvqea0","pricing_plan_id":"cebpf4jnsgd1na2vs0mg"},{"bike_id":"ae2a394f-b39b-4c57-86dc-a8ad2df185e9","system_id":"levelo_inurba_marseille","lat":43.28711,"lon":5.37932,"is_reserved":false,"is_disabled":false,"rental_uris":{"android":"levelo://app?vid=ae2a394f-b39b-4c57-86dc-a8ad2df185e9","ios":"levelo://app?vid=ae2a394f-b39b-4c57-86dc-a8ad2df185e9"},"vehicle_type_id":"4","last_reported":1750018239,"current_range_meters":24400,"station_id":"ce4bh9p2rcd13ifvqec0","pricing_plan_id":"cebpf4jnsgd1na2vs0mg"},{"bike_id":"a79e185f-3bc9-4a99-9c8d-ff647b461417","system_id":"levelo_inurba_marseille","lat":43.25111,"lon":5.40321,"is_reserved":false,"is_disabled":false,"rental_uris":{"android":"levelo://app?vid=a79e185f-3bc9-4a99-9c8d-ff647b461417","ios":"levelo://app?vid=a79e185f-3bc9-4a99-9c8d-ff647b461417"},"vehicle_type_id":"4","last_reported":1750018239,"current_range_meters":24400,"station_id":"ce4bhlh2rcd13ifvqgig","pricing_plan_id":"cebpf4jnsgd1na2vs0mg"},{"bike_id":"49c3b6d6-e42d-4580-820f-c98f62677b4f","system_id":"levelo_inurba_marseille","lat":43.30132,"lon":5.39853,"is_reserved":false,"is_disabled":false,"rental_uris":{"android":"levelo://app?vid=49c3b6d6-e42d-4580-820f-c98f62677b4f","ios":"levelo://app?vid=49c3b6d6-e42d-4580-820f-c98f62677b4f"},"vehicle_type_id":"4","last_reported":1750018239,"current_range_meters":24800,"station_id":"ce4bh0h2rcd13ifvqd40","pricing_plan_id":"cebpf4jnsgd1na2vs0mg"},{"bike_id":"f7ffaabc-4f36-4bf3-a0b2-87bc8e5b3dfb","system_id":"levelo_inurba_marseille","lat":43.28558,"lon":5.39484,"is_reserved":false,"is_disabled":false,"rental_uris":{"android":"levelo://app?vid=f7ffaabc-4f36-4bf3-a0b2-87bc8e5b3dfb","ios":"levelo://app?vid=f7ffaabc-4f36-4bf3-a0b2-87bc8e5b3dfb"},"vehicle_type_id":"4","last_reported":1750018239,"current_range_meters":24800,"station_id":"ce4bh292rcd13ifvqdg0","pricing_plan_id":"cebpf4jnsgd1na2vs0mg"},{"bike_id":"b29ed625-9f01-4f06-a4ba-a2402f884769","system_id":"levelo_inurba_marseille","lat":43.28669,"lon":5.38662,"is_reserved":false,"is_disabled":false,"rental_uris":{"android":"levelo://app?vid=b29ed625-9f01-4f06-a4ba-a2402f884769","ios":"levelo://app?vid=b29ed625-9f01-4f06-a4ba-a2402f884769"},"vehicle_type_id":"4","last_reported":1750018239,"current_range_meters":24800,"station_id":"ce4bh492rcd13ifvqdug","pricing_plan_id":"cebpf4jnsgd1na2vs0mg"},{"bike_id":"5b27f6a3-dfa4-4298-873d-1cde9d444ecd","system_id":"levelo_inurba_marseille","lat":43.32344,"lon":5.40616,"is_reserved":false,"is_disabled":false,"rental_uris":{"android":"levelo://app?vid=5b27f6a3-dfa4-4298-873d-1cde9d444ecd","ios":"levelo://app?vid=5b27f6a3-dfa4-4298-873d-1cde9d444ecd"},"vehicle_type_id":"4","last_reported":1750018239,"current_range_meters":24800,"station_id":"ce4bhq92rcd13ifvqhjg","pricing_plan_id":"cebpf4jnsgd1na2vs0mg"},{"bike_id":"d55c6d2b-5336-46f2-97dd-90834fd3b35e","system_id":"levelo_inurba_marseille","lat":43.211914,"lon":5.350681,"is_reserved":false,"is_disabled":false,"rental_uris":{"android":"levelo://app?vid=d55c6d2b-5336-46f2-97dd-90834fd3b35e","ios":"levelo://app?vid=d55c6d2b-5336-46f2-97dd-90834fd3b35e"},"vehicle_type_id":"4","last_reported":1750018239,"current_range_meters":24800,"station_id":"st_cvj6sg6p6f1abm77japg","pricing_plan_id":"cebpf4jnsgd1na2vs0mg"},{"bike_id":"8e628f81-9b1b-4066-968f-b1af6e1b58a3","system_id":"levelo_inurba_marseille","lat":43.23138,"lon":5.355,"is_reserved":false,"is_disabled":false,"rental_uris":{"android":"levelo://app?vid=8e628f81-9b1b-4066-968f-b1af6e1b58a3","ios":"levelo://app?vid=8e628f81-9b1b-4066-968f-b1af6e1b58a3"},"vehicle_type_id":"4","last_reported":1750018239,"current_range_meters":25200,"station_id":"","pricing_plan_id":"cebpf4jnsgd1na2vs0mg"},{"bike_id":"027ebdbe-5934-4d16-802b-bb813ec55c69","system_id":"levelo_inurba_marseille","lat":43.29805,"lon":5.40404,"is_reserved":false,"is_disabled":false,"rental_uris":{"android":"levelo://app?vid=027ebdbe-5934-4d16-802b-bb813ec55c69","ios":"levelo://app?vid=027ebdbe-5934-4d16-802b-bb813ec55c69"},"vehicle_type_id":"4","last_reported":1750018239,"current_range_meters":25200,"station_id":"ce4bh112rcd13ifvqd90","pricing_plan_id":"cebpf4jnsgd1na2vs0mg"},{"bike_id":"0773853b-b4d3-478c-bdf4-9c5cb722fe23","system_id":"levelo_inurba_marseille","lat":43.32481,"lon":5.3657,"is_reserved":false,"is_disabled":false,"rental_uris":{"android":"levelo://app?vid=0773853b-b4d3-478c-bdf4-9c5cb722fe23","ios":"levelo://app?vid=0773853b-b4d3-478c-bdf4-9c5cb722fe23"},"vehicle_type_id":"4","last_reported":1750018239,"current_range_meters":25200,"station_id":"ce4bhs12rcd13ifvqhvg","pricing_plan_id":"cebpf4jnsgd1na2vs0mg"},{"bike_id":"db012d1b-8ddb-4d21-9e74-561b48aecc91","system_id":"levelo_inurba_marseille","lat":43.32368,"lon":5.36768,"is_reserved":false,"is_disabled":false,"rental_uris":{"android":"levelo://app?vid=db012d1b-8ddb-4d21-9e74-561b48aecc91","ios":"levelo://app?vid=db012d1b-8ddb-4d21-9e74-561b48aecc91"},"vehicle_type_id":"4","last_reported":1750018239,"current_range_meters":25200,"station_id":"ce4bhsh2rcd13ifvqi2g","pricing_plan_id":"cebpf4jnsgd1na2vs0mg"},{"bike_id":"85b4f6a2-7f77-4b74-bb89-62b874044335","system_id":"levelo_inurba_marseille","lat":43.32362,"lon":5.36754,"is_reserved":false,"is_disabled":false,"rental_uris":{"android":"levelo://app?vid=85b4f6a2-7f77-4b74-bb89-62b874044335","ios":"levelo://app?vid=85b4f6a2-7f77-4b74-bb89-62b874044335"},"vehicle_type_id":"4","last_reported":1750018239,"current_range_meters":25200,"station_id":"ce4bhsh2rcd13ifvqi2g","pricing_plan_id":"cebpf4jnsgd1na2vs0mg"},{"bike_id":"6199c2b8-70fa-452d-a366-b0c8fb2b1071","system_id":"levelo_inurba_marseille","lat":43.29526,"lon":5.38537,"is_reserved":false,"is_disabled":false,"rental_uris":{"android":"levelo://app?vid=6199c2b8-70fa-452d-a366-b0c8fb2b1071","ios":"levelo://app?vid=6199c2b8-70fa-452d-a366-b0c8fb2b1071"},"vehicle_type_id":"4","last_reported":1750018239,"current_range_meters":25600,"station_id":"ce4bgih2rcd13ifvqba0","pricing_plan_id":"cebpf4jnsgd1na2vs0mg"},{"bike_id":"2b549a91-77ad-4d9b-b7fb-9caca128de36","system_id":"levelo_inurba_marseille","lat":43.30432,"lon":5.38891,"is_reserved":false,"is_disabled":false,"rental_uris":{"android":"levelo://app?vid=2b549a91-77ad-4d9b-b7fb-9caca128de36","ios":"levelo://app?vid=2b549a91-77ad-4d9b-b7fb-9caca128de36"},"vehicle_type_id":"4","last_reported":1750018239,"current_range_meters":25600,"station_id":"ce4bgk12rcd13ifvqbi0","pricing_plan_id":"cebpf4jnsgd1na2vs0mg"},{"bike_id":"7f366ca8-525b-4d7a-b871-2cb6dce50520","system_id":"levelo_inurba_marseille","lat":43.26064,"lon":5.393927,"is_reserved":false,"is_disabled":false,"rental_uris":{"android":"levelo://app?vid=7f366ca8-525b-4d7a-b871-2cb6dce50520","ios":"levelo://app?vid=7f366ca8-525b-4d7a-b871-2cb6dce50520"},"vehicle_type_id":"4","last_reported":1750018239,"current_range_meters":25600,"station_id":"ce4bhh92rcd13ifvqfj0","pricing_plan_id":"cebpf4jnsgd1na2vs0mg"},{"bike_id":"1c1c7580-6a1a-4c72-8e5e-39cc37b8dfe6","system_id":"levelo_inurba_marseille","lat":43.21185,"lon":5.35076,"is_reserved":false,"is_disabled":false,"rental_uris":{"android":"levelo://app?vid=1c1c7580-6a1a-4c72-8e5e-39cc37b8dfe6","ios":"levelo://app?vid=1c1c7580-6a1a-4c72-8e5e-39cc37b8dfe6"},"vehicle_type_id":"4","last_reported":1750018239,"current_range_meters":25600,"station_id":"st_cvj6sg6p6f1abm77japg","pricing_plan_id":"cebpf4jnsgd1na2vs0mg"},{"bike_id":"349347fe-c947-47c0-87aa-8435b540d417","system_id":"levelo_inurba_marseille","lat":43.295288,"lon":5.385413,"is_reserved":false,"is_disabled":false,"rental_uris":{"android":"levelo://app?vid=349347fe-c947-47c0-87aa-8435b540d417","ios":"levelo://app?vid=349347fe-c947-47c0-87aa-8435b540d417"},"vehicle_type_id":"4","last_reported":1750018239,"current_range_meters":26000,"station_id":"ce4bgih2rcd13ifvqba0","pricing_plan_id":"cebpf4jnsgd1na2vs0mg"},{"bike_id":"9f1ac412-eaf9-48ab-af28-9f8597d6903b","system_id":"levelo_inurba_marseille","lat":43.2927,"lon":5.38435,"is_reserved":false,"is_disabled":false,"rental_uris":{"android":"levelo://app?vid=9f1ac412-eaf9-48ab-af28-9f8597d6903b","ios":"levelo://app?vid=9f1ac412-eaf9-48ab-af28-9f8597d6903b"},"vehicle_type_id":"4","last_reported":1750018239,"current_range_meters":26000,"station_id":"ce4bh692rcd13ifvqea0","pricing_plan_id":"cebpf4jnsgd1na2vs0mg"},{"bike_id":"09afdd42-7fe7-48f4-aa54-808d66dd6e29","system_id":"levelo_inurba_marseille","lat":43.25122,"lon":5.4032,"is_reserved":false,"is_disabled":false,"rental_uris":{"android":"levelo://app?vid=09afdd42-7fe7-48f4-aa54-808d66dd6e29","ios":"levelo://app?vid=09afdd42-7fe7-48f4-aa54-808d66dd6e29"},"vehicle_type_id":"4","last_reported":1750018239,"current_range_meters":26000,"station_id":"ce4bhlh2rcd13ifvqgig","pricing_plan_id":"cebpf4jnsgd1na2vs0mg"},{"bike_id":"f705479a-bc4a-4560-8806-2e5ba3af0a60","system_id":"levelo_inurba_marseille","lat":43.323381,"lon":5.406225,"is_reserved":false,"is_disabled":false,"rental_uris":{"android":"levelo://app?vid=f705479a-bc4a-4560-8806-2e5ba3af0a60","ios":"levelo://app?vid=f705479a-bc4a-4560-8806-2e5ba3af0a60"},"vehicle_type_id":"4","last_reported":1750018239,"current_range_meters":26000,"station_id":"ce4bhq92rcd13ifvqhjg","pricing_plan_id":"cebpf4jnsgd1na2vs0mg"},{"bike_id":"cffe0652-2035-4c3e-83f5-71cbc6289b80","system_id":"levelo_inurba_marseille","lat":43.2447,"lon":5.36973,"is_reserved":false,"is_disabled":false,"rental_uris":{"android":"levelo://app?vid=cffe0652-2035-4c3e-83f5-71cbc6289b80","ios":"levelo://app?vid=cffe0652-2035-4c3e-83f5-71cbc6289b80"},"vehicle_type_id":"4","last_reported":1750018239,"current_range_meters":26800,"station_id":"","pricing_plan_id":"cebpf4jnsgd1na2vs0mg"},{"bike_id":"47238627-539f-41c8-87a2-bee208264ceb","system_id":"levelo_inurba_marseille","lat":43.31699,"lon":5.37777,"is_reserved":false,"is_disabled":false,"rental_uris":{"android":"levelo://app?vid=47238627-539f-41c8-87a2-bee208264ceb","ios":"levelo://app?vid=47238627-539f-41c8-87a2-bee208264ceb"},