{"last_updated":1717603804,"ttl":30,"version":"2.2","data":{"bikes":[{"bike_id":"25a050e4-f04c-4b63-ae6b-cce4b6d66119","system_id":"levelo_inurba_marseille","lat":43.314811,"lon":5.373104,"is_reserved":false,"is_disabled":false,"rental_uris":{"android":"levelo://app?vid=25a050e4-f04c-4b63-ae6b-cce4b6d66119","ios":"levelo://app?vid=25a050e4-f04c-4b63-ae6b-cce4b6d66119"},"vehicle_type_id":"4","last_reported":1717603804,"current_range_meters":27200,"station_id":"ce4bgt12rcd13ifvqcd0","pricing_plan_id":"cebpf4jnsgd1na2vs0mg"},{"bike_id":"ac0ec759-a2c6-4d95-8634-78ef6c55374e","system_id":"levelo_inurba_marseille","lat":43.309034,"lon":5.371783,"is_reserved":false,"is_disabled":false,"rental_uris":{"android":"levelo://app?vid=ac0ec759-a2c6-4d95-8634-78ef6c55374e","ios":"levelo://app?vid=ac0ec759-a2c6-4d95-8634-78ef6c55374e"},"vehicle_type_id":"4","last_reported":1717603804,"current_range_meters":16000,"station_id":"ce4bguh2rcd13ifvqckg","pricing_plan_id":"cebpf4jnsgd1na2vs0mg"},{"bike_id":"bac96751-9319-4c74-8c45-333571f3f614","system_id":"levelo_inurba_marseille","lat":43.30891,"lon":5.37211,"is_reserved":false,"is_disabled":false,"rental_uris":{"android":"levelo://app?vid=bac96751-9319-4c74-8c45-333571f3f614","ios":"levelo://app?vid=bac96751-9319-4c74-8c45-333571f3f614"},"vehicle_type_id":"4","last_reported":1717603804,"current_range_meters":0,"station_id":"ce4bguh2rcd13ifvqckg","pricing_plan_id":"cebpf4jnsgd1na2vs0mg"},{"bike_id":"c50f9ff0-2c78-4c59-bf33-d3b55492d667","system_id":"levelo_inurba_marseille","lat":43.30537,"lon":5.367345,"is_reserved":false,"is_disabled":false,"rental_uris":{"android":"levelo://app?vid=c50f9ff0-2c78-4c59-bf33-d3b55492d667","ios":"levelo://app?vid=c50f9ff0-2c78-4c59-bf33-d3b55492d667"},"vehicle_type_id":"4","last_reported":1717603804,"current_range_meters":0,"station_id":"ce4bgrp2rcd13ifvqc9g","pricing_plan_id":"cebpf4jnsgd1na2vs0mg"},{"bike_id":"92298280-ff28-4244-a01e-d8080ac09a36","system_id":"levelo_inurba_marseille","lat":43.305714,"lon":5.365633,"is_reserved":false,"is_disabled":false,"rental_uris":{"android":"levelo://app?vid=92298280-ff28-4244-a01e-d8080ac09a36","ios":"levelo://app?vid=92298280-ff28-4244-a01e-d8080ac09a36"},"vehicle_type_id":"4","last_reported":1717603804,"current_range_meters":7200,"station_id":"ce4bgs12rcd13ifvqcag","pricing_plan_id":"cebpf4jnsgd1na2vs0mg"},{"bike_id":"0ab00e91-7086-4f16-a868-9af6373b4ec9","system_id":"levelo_inurba_marseille","lat":43.317075,"lon":5.377367,"is_reserved":false,"is_disabled":false,"rental_uris":{"android":"levelo://app?vid=0ab00e91-7086-4f16-a868-9af6373b4ec9","ios":"levelo://app?vid=0ab00e91-7086-4f16-a868-9af6373b4ec9"},"vehicle_type_id":"4","last_reported":1717603804,"current_range_meters":31600,"station_id":"ce4bgth2rcd13ifvqch0","pricing_plan_id":"cebpf4jnsgd1na2vs0mg"},{"bike_id":"0719eab2-3545-42a3-bcc8-d20896274aa5","system_id":"levelo_inurba_marseille","lat":43.315289,"lon":5.380349,"is_reserved":false,"is_disabled":false,"rental_uris":{"android":"levelo://app?vid=0719eab2-3545-42a3-bcc8-d20896274aa5","ios":"levelo://app?vid=0719eab2-3545-42a3-bcc8-d20896274aa5"},"vehicle_type_id":"4","last_reported":1717603804,"current_range_meters":22400,"station_id":"ce4bhsp2rcd13ifvqi50","pricing_plan_id":"cebpf4jnsgd1na2vs0mg"},{"bike_id":"f4c24cbf-ec72-4d80-9441-3592e67c7270","system_id":"levelo_inurba_marseille","lat":43.315289,"lon":5.380349,"is_reserved":false,"is_disabled":false,"rental_uris":{"android":"levelo://app?vid=f4c24cbf-ec72-4d80-9441-3592e67c7270","ios":"levelo://app?vid=f4c24cbf-ec72-4d80-9441-3592e67c7270"},"vehicle_type_id":"4","last_reported":1717603804,"current_range_meters":19200,"station_id":"ce4bhsp2rcd13ifvqi50","pricing_plan_id":"cebpf4jnsgd1na2vs0mg"},{"bike_id":"e89f888f-df05-4da9-bacc-47dc56c6aab0","system_id":"levelo_inurba_marseille","lat":43.315293,"lon":5.380349,"is_reserved":false,"is_disabled":false,"rental_uris":{"android":"levelo://app?vid=e89f888f-df05-4da9-bacc-47dc56c6aab0","ios":"levelo://app?vid=e89f888f-df05-4da9-bacc-47dc56c6aab0"},"vehicle_type_id":"4","last_reported":1717603804,"current_range_meters":2000,"station_id":"ce4bhsp2rcd13ifvqi50","pricing_plan_id":"cebpf4jnsgd1na2vs0mg"},{"bike_id":"d173c04c-3e32-4091-9612-1b573e28b2ca","system_id":"levelo_inurba_marseille","lat":43.301939,"lon":5.366286,"is_reserved":false,"is_disabled":false,"rental_uris":{"android":"levelo://app?vid=d173c04c-3e32-4091-9612-1b573e28b2ca","ios":"levelo://app?vid=d173c04c-3e32-4091-9612-1b573e28b2ca"},"vehicle_type_id":"4","last_reported":1717603804,"current_range_meters":6800,"station_id":"ce4bgrh2rcd13ifvqc8g","pricing_plan_id":"cebpf4jnsgd1na2vs0mg"},{"bike_id":"8476e546-5b9e-47de-9c60-a6aad1a98383","system_id":"levelo_inurba_marseille","lat":43.301939,"lon":5.366286,"is_reserved":false,"is_disabled":false,"rental_uris":{"android":"levelo://app?vid=8476e546-5b9e-47de-9c60-a6aad1a98383","ios":"levelo://app?vid=8476e546-5b9e-47de-9c60-a6aad1a98383"},"vehicle_type_id":"4","last_reported":1717603804,"current_range_meters":8000,"station_id":"ce4bgrh2rcd13ifvqc8g","pricing_plan_id":"cebpf4jnsgd1na2vs0mg"},{"bike_id":"d150ca26-a376-4ba1-be54-ec1e1c65dfd9","system_id":"levelo_inurba_marseille","lat":43.308032,"lon":5.381514,"is_reserved":false,"is_disabled":false,"rental_uris":{"android":"levelo://app?vid=d150ca26-a376-4ba1-be54-ec1e1c65dfd9","ios":"levelo://app?vid=d150ca26-a376-4ba1-be54-ec1e1c65dfd9"},"vehicle_type_id":"4","last_reported":1717603804,"current_range_meters":0,"station_id":"ce4bgt12rcd13ifvqce0","pricing_plan_id":"cebpf4jnsgd1na2vs0mg"},{"bike_id":"af48004e-4b97-49a4-96ad-07d7f5d425bf","system_id":"levelo_inurba_marseille","lat":43.30806,"lon":5.38163,"is_reserved":false,"is_disabled":false,"rental_uris":{"android":"levelo://app?vid=af48004e-4b97-49a4-96ad-07d7f5d425bf","ios":"levelo://app?vid=af48004e-4b97-49a4-96ad-07d7f5d425bf"},"vehicle_type_id":"4","last_reported":1717603804,"current_range_meters":8400,"station_id":"ce4bgt12rcd13ifvqce0","pricing_plan_id":"cebpf4jnsgd1na2vs0mg"},{"bike_id":"ca3ea081-93f4-4f9a-bc17-469caa14c85d","system_id":"levelo_inurba_marseille","lat":43.3047,"lon":5.378937,"is_reserved":false,"is_disabled":false,"rental_uris":{"android":"levelo://app?vid=ca3ea081-93f4-4f9a-bc17-469caa14c85d","ios":"levelo://app?vid=ca3ea081-93f4-4f9a-bc17-469caa14c85d"},"vehicle_type_id":"4","last_reported":1717603804,"current_range_meters":0,"station_id":"","pricing_plan_id":"cebpf4jnsgd1na2vs0mg"},{"bike_id":"90fefb8d-be0a-4baf-92dc-539d7c126457","system_id":"levelo_inurba_marseille","lat":43.30078,"lon":5.36539,"is_reserved":false,"is_disabled":false,"rental_uris":{"android":"levelo://app?vid=90fefb8d-be0a-4baf-92dc-539d7c126457","ios":"levelo://app?vid=90fefb8d-be0a-4baf-92dc-539d7c126457"},"vehicle_type_id":"4","last_reported":1717603804,"current_range_meters":26000,"station_id":"","pricing_plan_id":"cebpf4jnsgd1na2vs0mg"},{"bike_id":"06f846a2-037c-4d27-9a5a-ef709716a5c7","system_id":"levelo_inurba_marseille","lat":43.324771,"lon":5.36557,"is_reserved":false,"is_disabled":false,"rental_uris":{"android":"levelo://app?vid=06f846a2-037c-4d27-9a5a-ef709716a5c7","ios":"levelo://app?vid=06f846a2-037c-4d27-9a5a-ef709716a5c7"},"vehicle_type_id":"4","last_reported":1717603804,"current_range_meters":4800,"station_id":"ce4bhs12rcd13ifvqhvg","pricing_plan_id":"cebpf4jnsgd1na2vs0mg"},{"bike_id":"acbf8e20-3fe3-48c3-b285-0756809f279b","system_id":"levelo_inurba_marseille","lat":43.310804,"lon":5.38359,"is_reserved":false,"is_disabled":false,"rental_uris":{"android":"levelo://app?vid=acbf8e20-3fe3-48c3-b285-0756809f279b","ios":"levelo://app?vid=acbf8e20-3fe3-48c3-b285-0756809f279b"},"vehicle_type_id":"4","last_reported":1717603804,"current_range_meters":0,"station_id":"ce4bgv92rcd13ifvqcr0","pricing_plan_id":"cebpf4jnsgd1na2vs0mg"},{"bike_id":"8829cbe6-e6ce-465a-876a-bfe6fb939560","system_id":"levelo_inurba_marseille","lat":43.302784,"lon":5.377158,"is_reserved":false,"is_disabled":false,"rental_uris":{"android":"levelo://app?vid=8829cbe6-e6ce-465a-876a-bfe6fb939560","ios":"levelo://app?vid=8829cbe6-e6ce-465a-876a-bfe6fb939560"},"vehicle_type_id":"4","last_reported":1717603804,"current_range_meters":18000,"station_id":"ce4bguh2rcd13ifvqcj0","pricing_plan_id":"cebpf4jnsgd1na2vs0mg"},{"bike_id":"5bec86e1-5b54-49e4-a147-20ce3587861e","system_id":"levelo_inurba_marseille","lat":43.310804,"lon":5.38359,"is_reserved":false,"is_disabled":false,"rental_uris":{"android":"levelo://app?vid=5bec86e1-5b54-49e4-a147-20ce3587861e","ios":"levelo://app?vid=5bec86e1-5b54-49e4-a147-20ce3587861e"},"vehicle_type_id":"4","last_reported":1717603804,"current_range_meters":18000,"station_id":"ce4bgv92rcd13ifvqcr0","pricing_plan_id":"cebpf4jnsgd1na2vs0mg"},{"bike_id":"2b17ee5f-957f-412a-8df7-98c904592a7c","system_id":"levelo_inurba_marseille","lat":43.302784,"lon":5.377158,"is_reserved":false,"is_disabled":false,"rental_uris":{"android":"levelo://app?vid=2b17ee5f-957f-412a-8df7-98c904592a7c","ios":"levelo://app?vid=2b17ee5f-957f-412a-8df7-98c904592a7c"},"vehicle_type_id":"4","last_reported":1717603804,"current_range_meters":0,"station_id":"ce4bguh2rcd13ifvqcj0","pricing_plan_id":"cebpf4jnsgd1na2vs0mg"},{"bike_id":"1d4adecd-4dbf-4440-bc99-3eeb7615d342","system_id":"levelo_inurba_marseille","lat":43.308012,"lon":5.381511,"is_reserved":false,"is_disabled":false,"rental_uris":{"android":"levelo://app?vid=1d4adecd-4dbf-4440-bc99-3eeb7615d342","ios":"levelo://app?vid=1d4adecd-4dbf-4440-bc99-3eeb7615d342"},"vehicle_type_id":"4","last_reported":1717603804,"current_range_meters":21200,"station_id":"ce4bgt12rcd13ifvqce0","pricing_plan_id":"cebpf4jnsgd1na2vs0mg"},{"bike_id":"f1962397-b8c3-439d-9f6e-809505f13a24","system_id":"levelo_inurba_marseille","lat":43.301429,"lon":5.37413,"is_reserved":false,"is_disabled":false,"rental_uris":{"android":"levelo://app?vid=f1962397-b8c3-439d-9f6e-809505f13a24","ios":"levelo://app?vid=f1962397-b8c3-439d-9f6e-809505f13a24"},"vehicle_type_id":"4","last_reported":1717603804,"current_range_meters":25200,"station_id":"ce4bgs92rcd13ifvqcc0","pricing_plan_id":"cebpf4jnsgd1na2vs0mg"},{"bike_id":"70cf50d4-4941-4eaa-95f8-30976aec1998","system_id":"levelo_inurba_marseille","lat":43.313571,"lon":5.384829,"is_reserved":false,"is_disabled":false,"rental_uris":{"android":"levelo://app?vid=70cf50d4-4941-4eaa-95f8-30976aec1998","ios":"levelo://app?vid=70cf50d4-4941-4eaa-95f8-30976aec1998"},"vehicle_type_id":"4","last_reported":1717603804,"current_range_meters":28000,"station_id":"ce4bgt92rcd13ifvqcf0","pricing_plan_id":"cebpf4jnsgd1na2vs0mg"},{"bike_id":"f5054a93-fc10-4874-acec-dcc3d83ffa6d","system_id":"levelo_inurba_marseille","lat":43.3138,"lon":5.385,"is_reserved":false,"is_disabled":false,"rental_uris":{"android":"levelo://app?vid=f5054a93-fc10-4874-acec-dcc3d83ffa6d","ios":"levelo://app?vid=f5054a93-fc10-4874-acec-dcc3d83ffa6d"},"vehicle_type_id":"4","last_reported":1717603804,"current_range_meters":9600,"station_id":"ce4bgt92rcd13ifvqcf0","pricing_plan_id":"cebpf4jnsgd1na2vs0mg"},{"bike_id":"7b73fc8a-2b17-4af7-befe-e04f91f43164","system_id":"levelo_inurba_marseille","lat":43.298433,"lon":5.362774,"is_reserved":false,"is_disabled":false,"rental_uris":{"android":"levelo://app?vid=7b73fc8a-2b17-4af7-befe-e04f91f43164","ios":"levelo://app?vid=7b73fc8a-2b17-4af7-befe-e04f91f43164"},"vehicle_type_id":"4","last_reported":1717603804,"current_range_meters":22400,"station_id":"ce4bgpp2rcd13ifvqc3g","pricing_plan_id":"cebpf4jnsgd1na2vs0mg"},{"bike_id":"b64e05e7-d2e8-4e42-ac64-000a5dc1174f","system_id":"levelo_inurba_marseille","lat":43.311722,"lon":5.387247,"is_reserved":false,"is_disabled":false,"rental_uris":{"android":"levelo://app?vid=b64e05e7-d2e8-4e42-ac64-000a5dc1174f","ios":"levelo://app?vid=b64e05e7-d2e8-4e42-ac64-000a5dc1174f"},"vehicle_type_id":"4","last_reported":1717603804,"current_range_meters":800,"station_id":"ce4bgv12rcd13ifvqcp0","pricing_plan_id":"cebpf4jnsgd1na2vs0mg"},{"bike_id":"10632f47-ab5e-4819-ba5b-5dea7a432c90","system_id":"levelo_inurba_marseille","lat":43.297163,"lon":5.365866,"is_reserved":false,"is_disabled":false,"rental_uris":{"android":"levelo://app?vid=10632f47-ab5e-4819-ba5b-5dea7a432c90","ios":"levelo://app?vid=10632f47-ab5e-4819-ba5b-5dea7a432c90"},"vehicle_type_id":"4","last_reported":1717603804,"current_range_meters":17600,"station_id":"ce4bgn12rcd13ifvqbt0","pricing_plan_id":"cebpf4jnsgd1na2vs0mg"},{"bike_id":"0660091a-7a15-4df6-9508-7bd595fdd9f8","system_id":"levelo_inurba_marseille","lat":43.29573,"lon":5.367355,"is_reserved":false,"is_disabled":false,"rental_uris":{"android":"levelo://app?vid=0660091a-7a15-4df6-9508-7bd595fdd9f8","ios":"levelo://app?vid=0660091a-7a15-4df6-9508-7bd595fdd9f8"},"vehicle_type_id":"4","last_reported":1717603804,"current_range_meters":2000,"station_id":"ce4bgph2rcd13ifvqc2g","pricing_plan_id":"cebpf4jnsgd1na2vs0mg"},{"bike_id":"d3d7082f-d346-470f-ac8f-98a1ecdddb40","system_id":"levelo_inurba_marseille","lat":43.296921,"lon":5.376579,"is_reserved":false,"is_disabled":false,"rental_uris":{"android":"levelo://app?vid=d3d7082f-d346-470f-ac8f-98a1ecdddb40","ios":"levelo://app?vid=d3d7082f-d346-470f-ac8f-98a1ecdddb40"},"vehicle_type_id":"4","last_reported":1717603804,"current_range_meters":30400,"station_id":"ce4bgkh2rcd13ifvqbl0","pricing_plan_id":"cebpf4jnsgd1na2vs0mg"},{"bike_id":"1cb4f465-5e40-4299-9f14-7c66449d851f","system_id":"levelo_inurba_marseille","lat":43.296935,"lon":5.376544,"is_reserved":false,"is_disabled":false,"rental_uris":{"android":"levelo://app?vid=1cb4f465-5e40-4299-9f14-7c66449d851f","ios":"levelo://app?vid=1cb4f465-5e40-4299-9f14-7c66449d851f"},"vehicle_type_id":"4","last_reported":1717603804,"current_range_meters":1600,"station_id":"ce4bgkh2rcd13ifvqbl0","pricing_plan_id":"cebpf4jnsgd1na2vs0mg"},{"bike_id":"246eb77f-39d1-4e73-a3d0-1d6b31a1a79a","system_id":"levelo_inurba_marseille","lat":43.29703,"lon":5.37691,"is_reserved":false,"is_disabled":false,"rental_uris":{"android":"levelo://app?vid=246eb77f-39d1-4e73-a3d0-1d6b31a1a79a","ios":"levelo://app?vid=246eb77f-39d1-4e73-a3d0-1d6b31a1a79a"},"vehicle_type_id":"4","last_reported":1717603804,"current_range_meters":14400,"station_id":"ce4bgkh2rcd13ifvqbl0","pricing_plan_id":"cebpf4jnsgd1na2vs0mg"},{"bike_id":"dab43869-b04e-4b1e-8828-72ff948398ae","system_id":"levelo_inurba_marseille","lat":43.30953,"lon":5.39032,"is_reserved":false,"is_disabled":false,"rental_uris":{"android":"levelo://app?vid=dab43869-b04e-4b1e-8828-72ff948398ae","ios":"levelo://app?vid=dab43869-b04e-4b1e-8828-72ff948398ae"},"vehicle_type_id":"4","last_reported":1717603804,"current_range_meters":23600,"station_id":"ce4bgup2rcd13ifvqco0","pricing_plan_id":"cebpf4jnsgd1na2vs0mg"},{"bike_id":"b099c776-d642-49e2-b007-0d1c93656b97","system_id":"levelo_inurba_marseille","lat":43.317557,"lon":5.390173,"is_reserved":false,"is_disabled":false,"rental_uris":{"android":"levelo://app?vid=b099c776-d642-49e2-b007-0d1c93656b97","ios":"levelo://app?vid=b099c776-d642-49e2-b007-0d1c93656b97"},"vehicle_type_id":"4","last_reported":1717603804,"current_range_meters":12800,"station_id":"ce4bhqp2rcd13ifvqhng","pricing_plan_id":"cebpf4jnsgd1na2vs0mg"},{"bike_id":"1303649a-b9d0-480b-9d23-869200162d11","system_id":"levelo_inurba_marseille","lat":43.29693,"lon":5.37759,"is_reserved":false,"is_disabled":false,"rental_uris":{"android":"levelo://app?vid=1303649a-b9d0-480b-9d23-869200162d11","ios":"levelo://app?vid=1303649a-b9d0-480b-9d23-869200162d11"},"vehicle_type_id":"4","last_reported":1717603804,"current_range_meters":0,"station_id":"","pricing_plan_id":"cebpf4jnsgd1na2vs0mg"},{"bike_id":"42a8d46f-2623-4804-b57f-79ceba262a3e","system_id":"levelo_inurba_marseille","lat":43.317557,"lon":5.390173,"is_reserved":false,"is_disabled":false,"rental_uris":{"android":"levelo://app?vid=42a8d46f-2623-4804-b57f-79ceba262a3e","ios":"levelo://app?vid=42a8d46f-2623-4804-b57f-79ceba262a3e"},"vehicle_type_id":"4","last_reported":1717603804,"current_range_meters":11600,"station_id":"ce4bhqp2rcd13ifvqhng","pricing_plan_id":"cebpf4jnsgd1na2vs0mg"},{"bike_id":"0dbab5c9-cb23-4ad3-ac29-f795b752379d","system_id":"levelo_inurba_marseille","lat":43.304278,"lon":5.388868,"is_reserved":false,"is_disabled":false,"rental_uris":{"android":"levelo://app?vid=0dbab5c9-cb23-4ad3-ac29-f795b752379d","ios":"levelo://app?vid=0dbab5c9-cb23-4ad3-ac29-f795b752379d"},"vehicle_type_id":"4","last_reported":1717603804,"current_range_meters":0,"station_id":"ce4bgk12rcd13ifvqbi0","pricing_plan_id":"cebpf4jnsgd1na2vs0mg"},{"bike_id":"fec68565-3ff8-49f3-9feb-ed1826142d3d","system_id":"levelo_inurba_marseille","lat":43.304278,"lon":5.388868,"is_reserved":false,"is_disabled":false,"rental_uris":{"android":"levelo://app?vid=fec68565-3ff8-49f3-9feb-ed1826142d3d","ios":"levelo://app?vid=fec68565-3ff8-49f3-9feb-ed1826142d3d"},"vehicle_type_id":"4","last_reported":1717603804,"current_range_meters":6000,"station_id":"ce4bgk12rcd13ifvqbi0","pricing_plan_id":"cebpf4jnsgd1na2vs0mg"},{"bike_id":"04ba9770-5991-4bce-ad37-9ce22e1d574c","system_id":"levelo_inurba_marseille","lat":43.295982,"lon":5.376332,"is_reserved":false,"is_disabled":false,"rental_uris":{"android":"levelo://app?vid=04ba9770-5991-4bce-ad37-9ce22e1d574c","ios":"levelo://app?vid=04ba9770-5991-4bce-ad37-9ce22e1d574c"},"vehicle_type_id":"4","last_reported":1717603804,"current_range_meters":18800,"station_id":"ce4bgi92rcd13ifvqb90","pricing_plan_id":"cebpf4jnsgd1na2vs0mg"},{"bike_id":"0630808b-b6d9-4138-8f3d-e0a6375eb3c1","system_id":"levelo_inurba_marseille","lat":43.321801,"lon":5.388483,"is_reserved":false,"is_disabled":false,"rental_uris":{"android":"levelo://app?vid=0630808b-b6d9-4138-8f3d-e0a6375eb3c1","ios":"levelo://app?vid=0630808b-b6d9-4138-8f3d-e0a6375eb3c1"},"vehicle_type_id":"4","last_reported":1717603804,"current_range_meters":6800,"station_id":"","pricing_plan_id":"cebpf4jnsgd1na2vs0mg"},{"bike_id":"44506f1b-3a57-45ca-b724-369a7a60dd25","system_id":"levelo_inurba_marseille","lat":43.299028,"lon":5.381509,"is_reserved":false,"is_disabled":false,"rental_uris":{"android":"levelo://app?vid=44506f1b-3a57-45ca-b724-369a7a60dd25","ios":"levelo://app?vid=44506f1b-3a57-45ca-b724-369a7a60dd25"},"vehicle_type_id":"4","last_reported":1717603804,"current_range_meters":0,"station_id":"ce4bgj12rcd13ifvqbc0","pricing_plan_id":"cebpf4jnsgd1na2vs0mg"},{"bike_id":"04764f73-8361-45d7-bd2b-937f0797e264","system_id":"levelo_inurba_marseille","lat":43.295279,"lon":5.375048,"is_reserved":false,"is_disabled":false,"rental_uris":{"android":"levelo://app?vid=04764f73-8361-45d7-bd2b-937f0797e264","ios":"levelo://app?vid=04764f73-8361-45d7-bd2b-937f0797e264"},"vehicle_type_id":"4","last_reported":1717603804,"current_range_meters":1200,"station_id":"ce4bgkp2rcd13ifvqbmg","pricing_plan_id":"cebpf4jnsgd1na2vs0mg"},{"bike_id":"c2d37123-6cfa-4c43-8c5e-2bc5134211f4","system_id":"levelo_inurba_marseille","lat":43.299707,"lon":5.384859,"is_reserved":false,"is_disabled":false,"rental_uris":{"android":"levelo://app?vid=c2d37123-6cfa-4c43-8c5e-2bc5134211f4","ios":"levelo://app?vid=c2d37123-6cfa-4c43-8c5e-2bc5134211f4"},"vehicle_type_id":"4","last_reported":1717603804,"current_range_meters":21600,"station_id":"ce4bgj92rcd13ifvqbd0","pricing_plan_id":"cebpf4jnsgd1na2vs0mg"},{"bike_id":"e7a9064d-a734-4edd-ab82-f21546b39207","system_id":"levelo_inurba_marseille","lat":43.299717,"lon":5.384845,"is_reserved":false,"is_disabled":false,"rental_uris":{"android":"levelo://app?vid=e7a9064d-a734-4edd-ab82-f21546b39207","ios":"levelo://app?vid=e7a9064d-a734-4edd-ab82-f21546b39207"},"vehicle_type_id":"4","last_reported":1717603804,"current_range_meters":2400,"station_id":"ce4bgj92rcd13ifvqbd0","pricing_plan_id":"cebpf4jnsgd1na2vs0mg"},{"bike_id":"c0d10622-adda-4795-ba5a-25beb8fcbde5","system_id":"levelo_inurba_marseille","lat":43.32367,"lon":5.388836,"is_reserved":false,"is_disabled":false,"rental_uris":{"android":"levelo://app?vid=c0d10622-adda-4795-ba5a-25beb8fcbde5","ios":"levelo://app?vid=c0d10622-adda-4795-ba5a-25beb8fcbde5"},"vehicle_type_id":"4","last_reported":1717603804,"current_range_meters":9200,"station_id":"ce4bhqp2rcd13ifvqhog","pricing_plan_id":"cebpf4jnsgd1na2vs0mg"},{"bike_id":"a0241e0c-d7be-4a93-aeb0-f59567ae1f64","system_id":"levelo_inurba_marseille","lat":43.32369,"lon":5.3889,"is_reserved":false,"is_disabled":false,"rental_uris":{"android":"levelo://app?vid=a0241e0c-d7be-4a93-aeb0-f59567ae1f64","ios":"levelo://app?vid=a0241e0c-d7be-4a93-aeb0-f59567ae1f64"},"vehicle_type_id":"4","last_reported":1717603804,"current_range_meters":26000,"station_id":"ce4bhqp2rcd13ifvqhog","pricing_plan_id":"cebpf4jnsgd1na2vs0mg"},{"bike_id":"4aad79c8-bd79-420a-8299-1a3dc2281db3","system_id":"levelo_inurba_marseille","lat":43.299724,"lon":5.384848,"is_reserved":false,"is_disabled":false,"rental_uris":{"android":"levelo://app?vid=4aad79c8-bd79-420a-8299-1a3dc2281db3","ios":"levelo://app?vid=4aad79c8-bd79-420a-8299-1a3dc2281db3"},"vehicle_type_id":"4","last_reported":1717603804,"current_range_meters":7200,"station_id":"ce4bgj92rcd13ifvqbd0","pricing_plan_id":"cebpf4jnsgd1na2vs0mg"},{"bike_id":"ad316eae-7548-4d78-9758-f99a3582ca8a","system_id":"levelo_inurba_marseille","lat":43.29602,"lon":5.381084,"is_reserved":false,"is_disabled":false,"rental_uris":{"android":"levelo://app?vid=ad316eae-7548-4d78-9758-f99a3582ca8a","ios":"levelo://app?vid=ad316eae-7548-4d78-9758-f99a3582ca8a"},"vehicle_type_id":"4","last_reported":1717603804,"current_range_meters":24000,"station_id":"ce4bgl12rcd13ifvqbo0","pricing_plan_id":"cebpf4jnsgd1na2vs0mg"},{"bike_id":"2fb1110b-8422-4d0b-8113-9cf008e26be3","system_id":"levelo_inurba_marseille","lat":43.29602,"lon":5.381084,"is_reserved":false,"is_disabled":false,"rental_uris":{"android":"levelo://app?vid=2fb1110b-8422-4d0b-8113-9cf008e26be3","ios":"levelo://app?vid=2fb1110b-8422-4d0b-8113-9cf008e26be3"},"vehicle_type_id":"4","last_reported":1717603804,"current_range_meters":21200,"station_id":"ce4bgl12rcd13ifvqbo0","pricing_plan_id":"cebpf4jnsgd1na2vs0mg"},{"bike_id":"ba832255-f43b-4abb-8b59-8aac0401a427","system_id":"levelo_inurba_marseille","lat":43.293112,"lon":5.371806,"is_reserved":false,"is_disabled":false,"rental_uris":{"android":"levelo://app?vid=ba832255-f43b-4abb-8b59-8aac0401a427","ios":"levelo://app?vid=ba832255-f43b-4abb-8b59-8aac0401a427"},"vehicle_type_id":"4","last_reported":1717603804,"current_range_meters":16000,"station_id":"","pricing_plan_id":"cebpf4jnsgd1na2vs0mg"},{"bike_id":"da471334-d0a7-4350-a763-de89b8e35807","system_id":"levelo_inurba_marseille","lat":43.29279,"lon":5.36821,"is_reserved":false,"is_disabled":false,"rental_uris":{"android":"levelo://app?vid=da471334-d0a7-4350-a763-de89b8e35807","ios":"levelo://app?vid=da471334-d0a7-4350-a763-de89b8e35807"},"vehicle_type_id":"4","last_reported":1717603804,"current_range_meters":0,"station_id":"ce4bhbp2rcd13ifvqesg","pricing_plan_id":"cebpf4jnsgd1na2vs0mg"},{"bike_id":"af4b43b3-a92c-4eb5-be70-9f6b4101cd70","system_id":"levelo_inurba_marseille","lat":43.292749,"lon":5.368402,"is_reserved":false,"is_disabled":false,"rental_uris":{"android":"levelo://app?vid=af4b43b3-a92c-4eb5-be70-9f6b4101cd70","ios":"levelo://app?vid=af4b43b3-a92c-4eb5-be70-9f6b4101cd70"},"vehicle_type_id":"4","last_reported":1717603804,"current_range_meters":8800,"station_id":"ce4bhbp2rcd13ifvqesg","pricing_plan_id":"cebpf4jnsgd1na2vs0mg"},{"bike_id":"cfb8904e-9934-497f-b3df-2e530426895a","system_id":"levelo_inurba_marseille","lat":43.290319,"lon":5.375732,"is_reserved":false,"is_disabled":false,"rental_uris":{"android":"levelo://app?vid=cfb8904e-9934-497f-b3df-2e530426895a","ios":"levelo://app?vid=cfb8904e-9934-497f-b3df-2e530426895a"},"vehicle_type_id":"4","last_reported":1717603804,"current_range_meters":10800,"station_id":"ce4bh692rcd13ifvqe90","pricing_plan_id":"cebpf4jnsgd1na2vs0mg"},{"bike_id":"b64a32ec-fa59-428d-b39a-f3041336d611","system_id":"levelo_inurba_marseille","lat":43.293009,"lon":5.374584,"is_reserved":false,"is_disabled":false,"rental_uris":{"android":"levelo://app?vid=b64a32ec-fa59-428d-b39a-f3041336d611","ios":"levelo://app?vid=b64a32ec-fa59-428d-b39a-f3041336d611"},"vehicle_type_id":"4","last_reported":1717603804,"current_range_meters":14800,"station_id":"ce4bgi12rcd13ifvqb70","pricing_plan_id":"cebpf4jnsgd1na2vs0mg"},{"bike_id":"753067d6-a0ed-40e7-b91b-d2a13d466a86","system_id":"levelo_inurba_marseille","lat":43.29298,"lon":5.37464,"is_reserved":false,"is_disabled":false,"rental_uris":{"android":"levelo://app?vid=753067d6-a0ed-40e7-b91b-d2a13d466a86","ios":"levelo://app?vid=753067d6-a0ed-40e7-b91b-d2a13d466a86"},"vehicle_type_id":"4","last_reported":1717603804,"current_range_meters":4400,"station_id":"ce4bgi12rcd13ifvqb70","pricing_plan_id":"cebpf4jnsgd1na2vs0mg"},{"bike_id":"246ee821-6adc-4d88-8d16-a338e8fb05fe","system_id":"levelo_inurba_marseille","lat":43.29226,"lon":5.3641,"is_reserved":false,"is_disabled":false,"rental_uris":{"android":"levelo://app?vid=246ee821-6adc-4d88-8d16-a338e8fb05fe","ios":"levelo://app?vid=246ee821-6adc-4d88-8d16-a338e8fb05fe"},"vehicle_type_id":"4","last_reported":1717603804,"current_range_meters":2800,"station_id":"ce4bh3p2rcd13ifvqdp0","pricing_plan_id":"cebpf4jnsgd1na2vs0mg"},{"bike_id":"e31c1555-61e5-4b9c-a474-ca30e7e3bab0","system_id":"levelo_inurba_marseille","lat":43.2936,"lon":5.37835,"is_reserved":false,"is_disabled":false,"rental_uris":{"android":"levelo://app?vid=e31c1555-61e5-4b9c-a474-ca30e7e3bab0","ios":"levelo://app?vid=e31c1555-61e5-4b9c-a474-ca30e7e3bab0"},"vehicle_type_id":"4","last_reported":1717603804,"current_range_meters":0,"station_id":"ce4bgjh2rcd13ifvqbf0","pricing_plan_id":"cebpf4jnsgd1na2vs0mg"},{"bike_id":"0fd71d7f-c07f-4be6-b156-081548c28aeb","system_id":"levelo_inurba_marseille","lat":43.2936,"lon":5.37835,"is_reserved":false,"is_disabled":false,"rental_uris":{"android":"levelo://app?vid=0fd71d7f-c07f-4be6-b156-081548c28aeb","ios":"levelo://app?vid=0fd71d7f-c07f-4be6-b156-081548c28aeb"},"vehicle_type_id":"4","last_reported":1717603804,"current_range_meters":3600,"station_id":"ce4bgjh2rcd13ifvqbf0","pricing_plan_id":"cebpf4jnsgd1na2vs0mg"},{"bike_id":"84489e72-85e8-47cd-8767-bfd3ce74f872","system_id":"levelo_inurba_marseille","lat":43.30337,"lon":5.39252,"is_reserved":false,"is_disabled":false,"rental_uris":{"android":"levelo://app?vid=84489e72-85e8-47cd-8767-bfd3ce74f872","ios":"levelo://app?vid=84489e72-85e8-47cd-8767-bfd3ce74f872"},"vehicle_type_id":"4","last_reported":1717603804,"current_range_meters":1200,"station_id":"","pricing_plan_id":"cebpf4jnsgd1na2vs0mg"},{"bike_id":"737d9841-db46-4133-8675-71638e5416de","system_id":"levelo_inurba_marseille","lat":43.30342,"lon":5.392817,"is_reserved":false,"is_disabled":false,"rental_uris":{"android":"levelo://app?vid=737d9841-db46-4133-8675-71638e5416de","ios":"levelo://app?vid=737d9841-db46-4133-8675-71638e5416de"},"vehicle_type_id":"4","last_reported":1717603804,"current_range_meters":0,"station_id":"","pricing_plan_id":"cebpf4jnsgd1na2vs0mg"},{"bike_id":"f8938e2f-12aa-4836-8a08-69ab88c44885","system_id":"levelo_inurba_marseille","lat":43.291671,"lon":5.371575,"is_reserved":false,"is_disabled":false,"rental_uris":{"android":"levelo://app?vid=f8938e2f-12aa-4836-8a08-69ab88c44885","ios":"levelo://app?vid=f8938e2f-12aa-4836-8a08-69ab88c44885"},"vehicle_type_id":"4","last_reported":1717603804,"current_range_meters":0,"station_id":"ce4bha92rcd13ifvqeh0","pricing_plan_id":"cebpf4jnsgd1na2vs0mg"},{"bike_id":"870ab488-ecfe-4ac9-9c3a-cf77a95c425a","system_id":"levelo_inurba_marseille","lat":43.291675,"lon":5.371583,"is_reserved":false,"is_disabled":false,"rental_uris":{"android":"levelo://app?vid=870ab488-ecfe-4ac9-9c3a-cf77a95c425a","ios":"levelo://app?vid=870ab488-ecfe-4ac9-9c3a-cf77a95c425a"},"vehicle_type_id":"4","last_reported":1717603804,"current_range_meters":12800,"station_id":"ce4bha92rcd13ifvqeh0","pricing_plan_id":"cebpf4jnsgd1na2vs0mg"},{"bike_id":"a257a0a4-0858-4912-b089-672bbc18db98","system_id":"levelo_inurba_marseille","lat":43.29529,"lon":5.385581,"is_reserved":false,"is_disabled":false,"rental_uris":{"android":"levelo://app?vid=a257a0a4-0858-4912-b089-672bbc18db98","ios":"levelo://app?vid=a257a0a4-0858-4912-b089-672bbc18db98"},"vehicle_type_id":"4","last_reported":1717603804,"current_range_meters":7200,"station_id":"ce4bgih2rcd13ifvqba0","pricing_plan_id":"cebpf4jnsgd1na2vs0mg"},{"bike_id":"0b504bf2-6dea-4f65-86a3-8a3eabb69ca0","system_id":"levelo_inurba_marseille","lat":43.312929,"lon":5.396663,"is_reserved":false,"is_disabled":false,"rental_uris":{"android":"levelo://app?vid=0b504bf2-6dea-4f65-86a3-8a3eabb69ca0","ios":"levelo://app?vid=0b504bf2-6dea-4f65-86a3-8a3eabb69ca0"},"vehicle_type_id":"4","last_reported":1717603804,"current_range_meters":0,"station_id":"ce4bgvp2rcd13ifvqcu0","pricing_plan_id":"cebpf4jnsgd1na2vs0mg"},{"bike_id":"dbc8f416-66e4-45be-8969-4b9a1ecb33e5","system_id":"levelo_inurba_marseille","lat":43.29529,"lon":5.385581,"is_reserved":false,"is_disabled":false,"rental_uris":{"android":"levelo://app?vid=dbc8f416-66e4-45be-8969-4b9a1ecb33e5","ios":"levelo://app?vid=dbc8f416-66e4-45be-8969-4b9a1ecb33e5"},"vehicle_type_id":"4","last_reported":1717603804,"current_range_meters":11200,"station_id":"ce4bgih2rcd13ifvqba0","pricing_plan_id":"cebpf4jnsgd1na2vs0mg"},{"bike_id":"4d3c82a3-c6c6-4d5c-a61a-301f82f9bcdc","system_id":"levelo_inurba_marseille","lat":43.313291,"lon":5.396838,"is_reserved":false,"is_disabled":false,"rental_uris":{"android":"levelo://app?vid=4d3c82a3-c6c6-4d5c-a61a-301f82f9bcdc","ios":"levelo://app?vid=4d3c82a3-c6c6-4d5c-a61a-301f82f9bcdc"},"vehicle_type_id":"4","last_reported":1717603804,"current_range_meters":28400,"station_id":"ce4bgvp2rcd13ifvqcu0","pricing_plan_id":"cebpf4jnsgd1na2vs0mg"},{"bike_id":"31212bac-0c33-4387-83f3-4410db84ec93","system_id":"levelo_inurba_marseille","lat":43.313291,"lon":5.396838,"is_reserved":false,"is_disabled":false,"rental_uris":{"android":"levelo://app?vid=31212bac-0c33-4387-83f3-4410db84ec93","ios":"levelo://app?vid=31212bac-0c33-4387-83f3-4410db84ec93"},"vehicle_type_id":"4","last_reported":1717603804,"current_range_meters":11600,"station_id":"ce4bgvp2rcd13ifvqcu0","pricing_plan_id":"cebpf4jnsgd1na2vs0mg"},{"bike_id":"22d30147-1fa8-4ffa-88af-c478688f6bd7","system_id":"levelo_inurba_marseille","lat":43.309038,"lon":5.396546,"is_reserved":false,"is_disabled":false,"rental_uris":{"android":"levelo://app?vid=22d30147-1fa8-4ffa-88af-c478688f6bd7","ios":"levelo://app?vid=22d30147-1fa8-4ffa-88af-c478688f6bd7"},"vehicle_type_id":"4","last_reported":1717603804,"current_range_meters":20400,"station_id":"ce4bh012rcd13ifvqcv0","pricing_plan_id":"cebpf4jnsgd1na2vs0mg"},{"bike_id":"c85d99d6-67f6-4f19-83fb-88a051e7a32e","system_id":"levelo_inurba_marseille","lat":43.29529,"lon":5.385581,"is_reserved":false,"is_disabled":false,"rental_uris":{"android":"levelo://app?vid=c85d99d6-67f6-4f19-83fb-88a051e7a32e","ios":"levelo://app?vid=c85d99d6-67f6-4f19-83fb-88a051e7a32e"},"vehicle_type_id":"4","last_reported":1717603804,"current_range_meters":25600,"station_id":"ce4bgih2rcd13ifvqba0","pricing_plan_id":"cebpf4jnsgd1na2vs0mg"},{"bike_id":"9e9abe59-d6f6-46c9-8eb7-d2ce4fb0cd7a","system_id":"levelo_inurba_marseille","lat":43.295428,"lon":5.385473,"is_reserved":false,"is_disabled":false,"rental_uris":{"android":"levelo://app?vid=9e9abe59-d6f6-46c9-8eb7-d2ce4fb0cd7a","ios":"levelo://app?vid=9e9abe59-d6f6-46c9-8eb7-d2ce4fb0cd7a"},"vehicle_type_id":"4","last_reported":1717603804,"current_range_meters":31200,"station_id":"ce4bgih2rcd13ifvqba0","pricing_plan_id":"cebpf4jnsgd1na2vs0mg"},{"bike_id":"feb2e2cf-3999-482d-b63b-8a67e2e0956b","system_id":"levelo_inurba_marseille","lat":43.29529,"lon":5.385581,"is_reserved":false,"is_disabled":false,"rental_uris":{"android":"levelo://app?vid=feb2e2cf-3999-482d-b63b-8a67e2e0956b","ios":"levelo://app?vid=feb2e2cf-3999-482d-b63b-8a67e2e0956b"},"vehicle_type_id":"4","last_reported":1717603804,"current_range_meters":12800,"station_id":"ce4bgih2rcd13ifvqba0","pricing_plan_id":"cebpf4jnsgd1na2vs0mg"},{"bike_id":"23b349a5-8186-40c0-9e84-6660687ca4ec","system_id":"levelo_inurba_marseille","lat":43.29529,"lon":5.385581,"is_reserved":false,"is_disabled":false,"rental_uris":{"android":"levelo://app?vid=23b349a5-8186-40c0-9e84-6660687ca4ec","ios":"levelo://app?vid=23b349a5-8186-40c0-9e84-6660687ca4ec"},"vehicle_type_id":"4","last_reported":1717603804,"current_range_meters":27200,"station_id":"ce4bgih2rcd13ifvqba0","pricing_plan_id":"cebpf4jnsgd1na2vs0mg"},{"bike_id":"33c71c79-1360-4d1a-98d7-5c97fcbc641e","system_id":"levelo_inurba_marseille","lat":43.29533,"lon":5.38544,"is_reserved":false,"is_disabled":false,"rental_uris":{"android":"levelo://app?vid=33c71c79-1360-4d1a-98d7-5c97fcbc641e","ios":"levelo://app?vid=33c71c79-1360-4d1a-98d7-5c97fcbc641e"},"vehicle_type_id":"4","last_reported":1717603804,"current_range_meters":7600,"station_id":"ce4bgih2rcd13ifvqba0","pricing_plan_id":"cebpf4jnsgd1na2vs0mg"},{"bike_id":"c3af1dc7-c21d-4715-ad67-4f89f158fb62","system_id":"levelo_inurba_marseille","lat":43.29537,"lon":5.385541,"is_reserved":false,"is_disabled":false,"rental_uris":{"android":"levelo://app?vid=c3af1dc7-c21d-4715-ad67-4f89f158fb62","ios":"levelo://app?vid=c3af1dc7-c21d-4715-ad67-4f89f158fb62"},"vehicle_type_id":"4","last_reported":1717603804,"current_range_meters":0,"station_id":"ce4bgih2rcd13ifvqba0","pricing_plan_id":"cebpf4jnsgd1na2vs0mg"},{"bike_id":"5db094ce-f672-408a-8cec-5525fe3d402d","system_id":"levelo_inurba_marseille","lat":43.295333,"lon":5.385499,"is_reserved":false,"is_disabled":false,"rental_uris":{"android":"levelo://app?vid=5db094ce-f672-408a-8cec-5525fe3d402d","ios":"levelo://app?vid=5db094ce-f672-408a-8cec-5525fe3d402d"},"vehicle_type_id":"4","last_reported":1717603804,"current_range_meters":15200,"station_id":"ce4bgih2rcd13ifvqba0","pricing_plan_id":"cebpf4jnsgd1na2vs0mg"},{"bike_id":"5f898187-5fcd-4b48-8fa5-1dc19288b723","system_id":"levelo_inurba_marseille","lat":43.29529,"lon":5.385581,"is_reserved":false,"is_disabled":false,"rental_uris":{"android":"levelo://app?vid=5f898187-5fcd-4b48-8fa5-1dc19288b723","ios":"levelo://app?vid=5f898187-5fcd-4b48-8fa5-1dc19288b723"},"vehicle_type_id":"4","last_reported":1717603804,"current_range_meters":22400,"station_id":"ce4bgih2rcd13ifvqba0","pricing_plan_id":"cebpf4jnsgd1na2vs0mg"},{"bike_id":"e8af3681-663e-4996-9824-76d8dcdc7392","system_id":"levelo_inurba_marseille","lat":43.295343,"lon":5.385731,"is_reserved":false,"is_disabled":false,"rental_uris":{"android":"levelo://app?vid=e8af3681-663e-4996-9824-76d8dcdc7392","ios":"levelo://app?vid=e8af3681-663e-4996-9824-76d8dcdc7392"},"vehicle_type_id":"4","last_reported":1717603804,"current_range_meters":30800,"station_id":"ce4bgih2rcd13ifvqba0","pricing_plan_id":"cebpf4jnsgd1na2vs0mg"},{"bike_id":"8f77814f-a73e-4983-b36e-0434b64e0f08","system_id":"levelo_inurba_marseille","lat":43.29529,"lon":5.385581,"is_reserved":false,"is_disabled":false,"rental_uris":{"android":"levelo://app?vid=8f77814f-a73e-4983-b36e-0434b64e0f08","ios":"levelo://app?vid=8f77814f-a73e-4983-b36e-0434b64e0f08"},"vehicle_type_id":"4","last_reported":1717603804,"current_range_meters":25600,"station_id":"ce4bgih2rcd13ifvqba0","pricing_plan_id":"cebpf4jnsgd1na2vs0mg"},{"bike_id":"bda41e3f-c40b-494e-a65c-c288ccd76538","system_id":"levelo_inurba_marseille","lat":43.290624,"lon":5.359245,"is_reserved":false,"is_disabled":false,"rental_uris":{"android":"levelo://app?vid=bda41e3f-c40b-494e-a65c-c288ccd76538","ios":"levelo://app?vid=bda41e3f-c40b-494e-a65c-c288ccd76538"},"vehicle_type_id":"4","last_reported":1717603804,"current_range_meters":20800,"station_id":"ce4bha92rcd13ifvqeg0","pricing_plan_id":"cebpf4jnsgd1na2vs0mg"},{"bike_id":"1a062abd-bf16-44c6-8d1c-fa686b2a6d9f","system_id":"levelo_inurba_marseille","lat":43.302008,"lon":5.394694,"is_reserved":false,"is_disabled":false,"rental_uris":{"android":"levelo://app?vid=1a062abd-bf16-44c6-8d1c-fa686b2a6d9f","ios":"levelo://app?vid=1a062abd-bf16-44c6-8d1c-fa686b2a6d9f"},"vehicle_type_id":"4","last_reported":1717603804,"current_range_meters":10000,"station_id":"ce4bh0p2rcd13ifvqd70","pricing_plan_id":"cebpf4jnsgd1na2vs0mg"},{"bike_id":"1fdd4a45-6ab8-4c7c-a083-e37be3f91fe9","system_id":"levelo_inurba_marseille","lat":43.302008,"lon":5.394694,"is_reserved":false,"is_disabled":false,"rental_uris":{"android":"levelo://app?vid=1fdd4a45-6ab8-4c7c-a083-e37be3f91fe9","ios":"levelo://app?vid=1fdd4a45-6ab8-4c7c-a083-e37be3f91fe9"},"vehicle_type_id":"4","last_reported":1717603804,"current_range_meters":0,"station_id":"ce4bh0p2rcd13ifvqd70","pricing_plan_id":"cebpf4jnsgd1na2vs0mg"},{"bike_id":"7b7f5992-dc2a-4b77-af34-89c93266ad46","system_id":"levelo_inurba_marseille","lat":43.3021,"lon":5.39464,"is_reserved":false,"is_disabled":false,"rental_uris":{"android":"levelo://app?vid=7b7f5992-dc2a-4b77-af34-89c93266ad46","ios":"levelo://app?vid=7b7f5992-dc2a-4b77-af34-89c93266ad46"},"vehicle_type_id":"4","last_reported":1717603804,"current_range_meters":0,"station_id":"ce4bh0p2rcd13ifvqd70","pricing_plan_id":"cebpf4jnsgd1na2vs0mg"},{"bike_id":"51d5f730-8a05-4e62-b0bf-36d460e2f6f4","system_id":"levelo_inurba_marseille","lat":43.30209,"lon":5.39474,"is_reserved":false,"is_disabled":false,"rental_uris":{"android":"levelo://app?vid=51d5f730-8a05-4e62-b0bf-36d460e2f6f4","ios":"levelo://app?vid=51d5f730-8a05-4e62-b0bf-36d460e2f6f4"},"vehicle_type_id":"4","last_reported":1717603804,"current_range_meters":0,"station_id":"ce4bh0p2rcd13ifvqd70","pricing_plan_id":"cebpf4jnsgd1na2vs0mg"},{"bike_id":"21f3f4b1-8982-44d1-b911-09b546a9ebdb","system_id":"levelo_inurba_marseille","lat":43.28983,"lon":5.36672,"is_reserved":false,"is_disabled":false,"rental_uris":{"android":"levelo://app?vid=21f3f4b1-8982-44d1-b911-09b546a9ebdb","ios":"levelo://app?vid=21f3f4b1-8982-44d1-b911-09b546a9ebdb"},"vehicle_type_id":"4","last_reported":1717603804,"current_range_meters":14400,"station_id":"","pricing_plan_id":"cebpf4jnsgd1na2vs0mg"},{"bike_id":"630b550f-275a-4252-b38f-8f61a6a8169b","system_id":"levelo_inurba_marseille","lat":43.29432,"lon":5.38628,"is_reserved":false,"is_disabled":false,"rental_uris":{"android":"levelo://app?vid=630b550f-275a-4252-b38f-8f61a6a8169b","ios":"levelo://app?vid=630b550f-275a-4252-b38f-8f61a6a8169b"},"vehicle_type_id":"4","last_reported":1717603804,"current_range_meters":5200,"station_id":"ce4bh2h2rcd13ifvqdh0","pricing_plan_id":"cebpf4jnsgd1na2vs0mg"},{"bike_id":"657885d1-38b8-45a1-a93e-5185ea404d2a","system_id":"levelo_inurba_marseille","lat":43.294225,"lon":5.386184,"is_reserved":false,"is_disabled":false,"rental_uris":{"android":"levelo://app?vid=657885d1-38b8-45a1-a93e-5185ea404d2a","ios":"levelo://app?vid=657885d1-38b8-45a1-a93e-5185ea404d2a"},"vehicle_type_id":"4","last_reported":1717603804,"current_range_meters":12400,"station_id":"ce4bh2h2rcd13ifvqdh0","pricing_plan_id":"cebpf4jnsgd1na2vs0mg"},{"bike_id":"21d008a5-99dd-480a-8db3-7c04549af5c4","system_id":"levelo_inurba_marseille","lat":43.294162,"lon":5.386292,"is_reserved":false,"is_disabled":false,"rental_uris":{"android":"levelo://app?vid=21d008a5-99dd-480a-8db3-7c04549af5c4","ios":"levelo://app?vid=21d008a5-99dd-480a-8db3-7c04549af5c4"},"vehicle_type_id":"4","last_reported":1717603804,"current_range_meters":5600,"station_id":"ce4bh2h2rcd13ifvqdh0","pricing_plan_id":"cebpf4jnsgd1na2vs0mg"},{"bike_id":"7fb5ed97-e7fb-4ec2-a4e7-a1ecd92b81e2","system_id":"levelo_inurba_marseille","lat":43.294153,"lon":5.386305,"is_reserved":false,"is_disabled":false,"rental_uris":{"android":"levelo://app?vid=7fb5ed97-e7fb-4ec2-a4e7-a1ecd92b81e2","ios":"levelo://app?vid=7fb5ed97-e7fb-4ec2-a4e7-a1ecd92b81e2"},"vehicle_type_id":"4","last_reported":1717603804,"current_range_meters":0,"station_id":"ce4bh2h2rcd13ifvqdh0","pricing_plan_id":"cebpf4jnsgd1na2vs0mg"},{"bike_id":"9a5726b3-4bf0-45b4-854a-20ee46f08900","system_id":"levelo_inurba_marseille","lat":43.2942,"lon":5.38622,"is_reserved":false,"is_disabled":false,"rental_uris":{"android":"levelo://app?vid=9a5726b3-4bf0-45b4-854a-20ee46f08900","ios":"levelo://app?vid=9a5726b3-4bf0-45b4-854a-20ee46f08900"},"vehicle_type_id":"4","last_reported":1717603804,"current_range_meters":0,"station_id":"ce4bh2h2rcd13ifvqdh0","pricing_plan_id":"cebpf4jnsgd1na2vs0mg"},{"bike_id":"d841ede2-3583-40b4-aa75-29913ec01feb","system_id":"levelo_inurba_marseille","lat":43.2942,"lon":5.38626,"is_reserved":false,"is_disabled":false,"rental_uris":{"android":"levelo://app?vid=d841ede2-3583-40b4-aa75-29913ec01feb","ios":"levelo://app?vid=d841ede2-3583-40b4-aa75-29913ec01feb"},"vehicle_type_id":"4","last_reported":1717603804,"current_range_meters":400,"station_id":"ce4bh2h2rcd13ifvqdh0","pricing_plan_id":"cebpf4jnsgd1na2vs0mg"},{"bike_id":"eb252734-e9ea-4980-8fb5-6169215b1aa9","system_id":"levelo_inurba_marseille","lat":43.294153,"lon":5.386305,"is_reserved":false,"is_disabled":false,"rental_uris":{"android":"levelo://app?vid=eb252734-e9ea-4980-8fb5-6169215b1aa9","ios":"levelo://app?vid=eb252734-e9ea-4980-8fb5-6169215b1aa9"},"vehicle_type_id":"4","last_reported":1717603804,"current_range_meters":0,"station_id":"ce4bh2h2rcd13ifvqdh0","pricing_plan_id":"cebpf4jnsgd1na2vs0mg"},{"bike_id":"21eba10b-45fd-4938-9c85-04f1813f07d9","system_id":"levelo_inurba_marseille","lat":43.294153,"lon":5.386305,"is_reserved":false,"is_disabled":false,"rental_uris":{"android":"levelo://app?vid=21eba10b-45fd-4938-9c85-04f1813f07d9","ios":"levelo://app?vid=21eba10b-45fd-4938-9c85-04f1813f07d9"},"vehicle_type_id":"4","last_reported":1717603804,"current_range_meters":9600,"station_id":"ce4bh2h2rcd13ifvqdh0","pricing_plan_id":"cebpf4jnsgd1na2vs0mg"},{"bike_id":"70757b5d-7762-4de7-9c90-b6bed036d54a","system_id":"levelo_inurba_marseille","lat":43.289184,"lon":5.366408,"is_reserved":false,"is_disabled":false,"rental_uris":{"android":"levelo://app?vid=70757b5d-7762-4de7-9c90-b6bed036d54a","ios":"levelo://app?vid=70757b5d-7762-4de7-9c90-b6bed036d54a"},"vehicle_type_id":"4","last_reported":1717603804,"current_range_meters":3200,"station_id":"ce4bhap2rcd13ifvqek0","pricing_plan_id":"cebpf4jnsgd1na2vs0mg"},{"bike_id":"1896594e-7775-487c-be62-9e77ea4186c4","system_id":"levelo_inurba_marseille","lat":43.289184,"lon":5.366408,"is_reserved":false,"is_disabled":false,"rental_uris":{"android":"levelo://app?vid=1896594e-7775-487c-be62-9e77ea4186c4","ios":"levelo://app?vid=1896594e-7775-487c-be62-9e77ea4186c4"},"vehicle_type_id":"4","last_reported":1717603804,"current_range_meters":26800,"station_id":"ce4bhap2rcd13ifvqek0","pricing_plan_id":"cebpf4jnsgd1na2vs0mg"},{"bike_id":"94857e07-f3af-4f66-a730-2053a2bb6070","system_id":"levelo_inurba_marseille","lat":43.289184,"lon":5.366408,"is_reserved":false,"is_disabled":false,"rental_uris":{"android":"levelo://app?vid=94857e07-f3af-4f66-a730-2053a2bb6070","ios":"levelo://app?vid=94857e07-f3af-4f66-a730-2053a2bb6070"},"vehicle_type_id":"4","last_reported":1717603804,"current_range_meters":29600,"station_id":"ce4bhap2rcd13ifvqek0","pricing_plan_id":"cebpf4jnsgd1na2vs0mg"},{"bike_id":"f3242cd1-1721-4af8-9480-1e2424e5bb31","system_id":"levelo_inurba_marseille","lat":43.289468,"lon":5.363719,"is_reserved":false,"is_disabled":false,"rental_uris":{"android":"levelo://app?vid=f3242cd1-1721-4af8-9480-1e2424e5bb31","ios":"levelo://app?vid=f3242cd1-1721-4af8-9480-1e2424e5bb31"},"vehicle_type_id":"4","last_reported":1717603804,"current_range_meters":21200,"station_id":"ce4bhc92rcd13ifvqetg","pricing_plan_id":"cebpf4jnsgd1na2vs0mg"},{"bike_id":"6f60e0f7-168a-4e0b-823d-a277d27bc528","system_id":"levelo_inurba_marseille","lat":43.28937,"lon":5.3664,"is_reserved":false,"is_disabled":false,"rental_uris":{"android":"levelo://app?vid=6f60e0f7-168a-4e0b-823d-a277d27bc528","ios":"levelo://app?vid=6f60e0f7-168a-4e0b-823d-a277d27bc528"},"vehicle_type_id":"4","last_reported":1717603804,"current_range_meters":0,"station_id":"ce4bhap2rcd13ifvqek0","pricing_plan_id":"cebpf4jnsgd1na2vs0mg"},{"bike_id":"a5c2eb9d-c478-439d-99d6-5b90dba6eef7","system_id":"levelo_inurba_marseille","lat":43.289184,"lon":5.366408,"is_reserved":false,"is_disabled":false,"rental_uris":{"android":"levelo://app?vid=a5c2eb9d-c478-439d-99d6-5b90dba6eef7","ios":"levelo://app?vid=a5c2eb9d-c478-439d-99d6-5b90dba6eef7"},"vehicle_type_id":"4","last_reported":1717603804,"current_range_meters":11600,"station_id":"ce4bhap2rcd13ifvqek0","pricing_plan_id":"cebpf4jnsgd1na2vs0mg"},{"bike_id":"6ad931c4-f4bc-46f2-b010-67d89226b892","system_id":"levelo_inurba_marseille","lat":43.292642,"lon":5.384254,"is_reserved":false,"is_disabled":false,"rental_uris":{"android":"levelo://app?vid=6ad931c4-f4bc-46f2-b010-67d89226b892","ios":"levelo://app?vid=6ad931c4-f4bc-46f2-b010-67d89226b892"},"vehicle_type_id":"4","last_reported":1717603804,"current_range_meters":6800,"station_id":"ce4bh692rcd13ifvqea0","pricing_plan_id":"cebpf4jnsgd1na2vs0mg"},{"bike_id":"66f5c82d-b406-4b67-a528-d22182a135a5","system_id":"levelo_inurba_marseille","lat":43.292644,"lon":5.384257,"is_reserved":false,"is_disabled":false,"rental_uris":{"android":"levelo://app?vid=66f5c82d-b406-4b67-a528-d22182a135a5","ios":"levelo://app?vid=66f5c82d-b406-4b67-a528-d22182a135a5"},"vehicle_type_id":"4","last_reported":1717603804,"current_range_meters":22800,"station_id":"ce4bh692rcd13ifvqea0","pricing_plan_id":"cebpf4jnsgd1na2vs0mg"},{"bike_id":"51ecf6e4-5251-4a55-b086-206e1a0454f4","system_id":"levelo_inurba_marseille","lat":43.290103,"lon":5.356114,"is_reserved":false,"is_disabled":false,"rental_uris":{"android":"levelo://app?vid=51ecf6e4-5251-4a55-b086-206e1a0454f4","ios":"levelo://app?vid=51ecf6e4-5251-4a55-b086-206e1a0454f4"},"vehicle_type_id":"4","last_reported":1717603804,"current_range_meters":26000,"station_id":"ce4bhb92rcd13ifvqen0","pricing_plan_id":"cebpf4jnsgd1na2vs0mg"},{"bike_id":"d309b530-3b86-4d68-8020-efa6315a71fd","system_id":"levelo_inurba_marseille","lat":43.290103,"lon":5.356114,"is_reserved":false,"is_disabled":false,"rental_uris":{"android":"levelo://app?vid=d309b530-3b86-4d68-8020-efa6315a71fd","ios":"levelo://app?vid=d309b530-3b86-4d68-8020-efa6315a71fd"},"vehicle_type_id":"4","last_reported":1717603804,"current_range_meters":800,"station_id":"ce4bhb92rcd13ifvqen0","pricing_plan_id":"cebpf4jnsgd1na2vs0mg"},{"bike_id":"5ade77b7-9944-415d-a301-fe02cbf4c458","system_id":"levelo_inurba_marseille","lat":43.29006,"lon":5.3561,"is_reserved":false,"is_disabled":false,"rental_uris":{"android":"levelo://app?vid=5ade77b7-9944-415d-a301-fe02cbf4c458","ios":"levelo://app?vid=5ade77b7-9944-415d-a301-fe02cbf4c458"},"vehicle_type_id":"4","last_reported":1717603804,"current_range_meters":0,"station_id":"ce4bhb92rcd13ifvqen0","pricing_plan_id":"cebpf4jnsgd1na2vs0mg"},{"bike_id":"4f0b9068-8021-4bbd-b4c8-71c15808761b","system_id":"levelo_inurba_marseille","lat":43.290103,"lon":5.356114,"is_reserved":false,"is_disabled":false,"rental_uris":{"android":"levelo://app?vid=4f0b9068-8021-4bbd-b4c8-71c15808761b","ios":"levelo://app?vid=4f0b9068-8021-4bbd-b4c8-71c15808761b"},"vehicle_type_id":"4","last_reported":1717603804,"current_range_meters":6000,"station_id":"ce4bhb92rcd13ifvqen0","pricing_plan_id":"cebpf4jnsgd1na2vs0mg"},{"bike_id":"d0f58881-b2a8-457c-b449-b9455fd75b71","system_id":"levelo_inurba_marseille","lat":43.29002,"lon":5.35616,"is_reserved":false,"is_disabled":false,"rental_uris":{"android":"levelo://app?vid=d0f58881-b2a8-457c-b449-b9455fd75b71","ios":"levelo://app?vid=d0f58881-b2a8-457c-b449-b9455fd75b71"},"vehicle_type_id":"4","last_reported":1717603804,"current_range_meters":0,"station_id":"ce4bhb92rcd13ifvqen0","pricing_plan_id":"cebpf4jnsgd1na2vs0mg"},{"bike_id":"3f9f5504-7fe2-4f0b-a3a3-49a004b13e71","system_id":"levelo_inurba_marseille","lat":43.290995,"lon":5.381361,"is_reserved":false,"is_disabled":false,"rental_uris":{"android":"levelo://app?vid=3f9f5504-7fe2-4f0b-a3a3-49a004b13e71","ios":"levelo://app?vid=3f9f5504-7fe2-4f0b-a3a3-49a004b13e71"},"vehicle_type_id":"4","last_reported":1717603804,"current_range_meters":0,"station_id":"ce4bh512rcd13ifvqe2g","pricing_plan_id":"cebpf4jnsgd1na2vs0mg"},{"bike_id":"daedec12-62b9-413e-936c-98213e47b17f","system_id":"levelo_inurba_marseille","lat":43.290103,"lon":5.356114,"is_reserved":false,"is_disabled":false,"rental_uris":{"android":"levelo://app?vid=daedec12-62b9-413e-936c-98213e47b17f","ios":"levelo://app?vid=daedec12-62b9-413e-936c-98213e47b17f"},"vehicle_type_id":"4","last_reported":1717603804,"current_range_meters":1600,"station_id":"ce4bhb92rcd13ifvqen0","pricing_plan_id":"cebpf4jnsgd1na2vs0mg"},{"bike_id":"43d73672-a8bb-4fa3-8be2-e0df4a10bef3","system_id":"levelo_inurba_marseille","lat":43.297815,"lon":5.393548,"is_reserved":false,"is_disabled":false,"rental_uris":{"android":"levelo://app?vid=43d73672-a8bb-4fa3-8be2-e0df4a10bef3","ios":"levelo://app?vid=43d73672-a8bb-4fa3-8be2-e0df4a10bef3"},"vehicle_type_id":"4","last_reported":1717603804,"current_range_meters":5600,"station_id":"chh1huq6cuj3fo74tm60","pricing_plan_id":"cebpf4jnsgd1na2vs0mg"},{"bike_id":"dcecd746-21aa-49e5-89f2-71200a78b658","system_id":"levelo_inurba_marseille","lat":43.297815,"lon":5.393548,"is_reserved":false,"is_disabled":false,"rental_uris":{"android":"levelo://app?vid=dcecd746-21aa-49e5-89f2-71200a78b658","ios":"levelo://app?vid=dcecd746-21aa-49e5-89f2-71200a78b658"},"vehicle_type_id":"4","last_reported":1717603804,"current_range_meters":6000,"station_id":"chh1huq6cuj3fo74tm60","pricing_plan_id":"cebpf4jnsgd1na2vs0mg"},{"bike_id":"766d1d96-d110-4cbf-adb2-d4dbc0d4f413","system_id":"levelo_inurba_marseille","lat":43.297651,"lon":5.393259,"is_reserved":false,"is_disabled":false,"rental_uris":{"android":"levelo://app?vid=766d1d96-d110-4cbf-adb2-d4dbc0d4f413","ios":"levelo://app?vid=766d1d96-d110-4cbf-adb2-d4dbc0d4f413"},"vehicle_type_id":"4","last_reported":1717603804,"current_range_meters":5600,"station_id":"chh1huq6cuj3fo74tm60","pricing_plan_id":"cebpf4jnsgd1na2vs0mg"},{"bike_id":"27eebd8e-67a5-4305-b170-46cdc31f2e7b","system_id":"levelo_inurba_marseille","lat":43.290103,"lon":5.356114,"is_reserved":false,"is_disabled":false,"rental_uris":{"android":"levelo://app?vid=27eebd8e-67a5-4305-b170-46cdc31f2e7b","ios":"levelo://app?vid=27eebd8e-67a5-4305-b170-46cdc31f2e7b"},"vehicle_type_id":"4","last_reported":1717603804,"current_range_meters":20400,"station_id":"ce4bhb92rcd13ifvqen0","pricing_plan_id":"cebpf4jnsgd1na2vs0mg"},{"bike_id":"7954ce3f-d7f5-4cc4-a0cb-10f2f42a2e83","system_id":"levelo_inurba_marseille","lat":43.295169,"lon":5.390426,"is_reserved":false,"is_disabled":false,"rental_uris":{"android":"levelo://app?vid=7954ce3f-d7f5-4cc4-a0cb-10f2f42a2e83","ios":"levelo://app?vid=7954ce3f-d7f5-4cc4-a0cb-10f2f42a2e83"},"vehicle_type_id":"4","last_reported":1717603804,"current_range_meters":12400,"station_id":"ce4bh3p2rcd13ifvqdp0","pricing_plan_id":"cebpf4jnsgd1na2vs0mg"},{"bike_id":"180dbd04-f028-4a36-8774-ef27939a56ae","system_id":"levelo_inurba_marseille","lat":43.2901,"lon":5.381269,"is_reserved":false,"is_disabled":false,"rental_uris":{"android":"levelo://app?vid=180dbd04-f028-4a36-8774-ef27939a56ae","ios":"levelo://app?vid=180dbd04-f028-4a36-8774-ef27939a56ae"},"vehicle_type_id":"4","last_reported":1717603804,"current_range_meters":10000,"station_id":"ce4bh4p2rcd13ifvqe1g","pricing_plan_id":"cebpf4jnsgd1na2vs0mg"},{"bike_id":"d4d40c1c-3ab0-4959-a3a0-5b1504485b2d","system_id":"levelo_inurba_marseille","lat":43.28856,"lon":5.358371,"is_reserved":false,"is_disabled":false,"rental_uris":{"android":"levelo://app?vid=d4d40c1c-3ab0-4959-a3a0-5b1504485b2d","ios":"levelo://app?vid=d4d40c1c-3ab0-4959-a3a0-5b1504485b2d"},"vehicle_type_id":"4","last_reported":1717603804,"current_range_meters":12800,"station_id":"ce4bhb12rcd13ifvqem0","pricing_plan_id":"cebpf4jnsgd1na2vs0mg"},{"bike_id":"5118bcdf-cbe3-4969-969e-39f882efb981","system_id":"levelo_inurba_marseille","lat":43.2901,"lon":5.381269,"is_reserved":false,"is_disabled":false,"rental_uris":{"android":"levelo://app?vid=5118bcdf-cbe3-4969-969e-39f882efb981","ios":"levelo://app?vid=5118bcdf-cbe3-4969-969e-39f882efb981"},"vehicle_type_id":"4","last_reported":1717603804,"current_range_meters":30000,"station_id":"ce4bh4p2rcd13ifvqe1g","pricing_plan_id":"cebpf4jnsgd1na2vs0mg"},{"bike_id":"ef91e100-8a3e-4303-ac43-b207381fc5a1","system_id":"levelo_inurba_marseille","lat":43.290094,"lon":5.381264,"is_reserved":false,"is_disabled":false,"rental_uris":{"android":"levelo://app?vid=ef91e100-8a3e-4303-ac43-b207381fc5a1","ios":"levelo://app?vid=ef91e100-8a3e-4303-ac43-b207381fc5a1"},"vehicle_type_id":"4","last_reported":1717603804,"current_range_meters":8800,"station_id":"ce4bh4p2rcd13ifvqe1g","pricing_plan_id":"cebpf4jnsgd1na2vs0mg"},{"bike_id":"4737ceb4-e491-4898-afba-89da1fd8ec29","system_id":"levelo_inurba_marseille","lat":43.337338,"lon":5.374599,"is_reserved":false,"is_disabled":false,"rental_uris":{"android":"levelo://app?vid=4737ceb4-e491-4898-afba-89da1fd8ec29","ios":"levelo://app?vid=4737ceb4-e491-4898-afba-89da1fd8ec29"},"vehicle_type_id":"4","last_reported":1717603804,"current_range_meters":19200,"station_id":"","pricing_plan_id":"cebpf4jnsgd1na2vs0mg"},{"bike_id":"ed10c4e4-d3ba-48d3-9097-538e65a623f5","system_id":"levelo_inurba_marseille","lat":43.33731,"lon":5.37482,"is_reserved":false,"is_disabled":false,"rental_uris":{"android":"levelo://app?vid=ed10c4e4-d3ba-48d3-9097-538e65a623f5","ios":"levelo://app?vid=ed10c4e4-d3ba-48d3-9097-538e65a623f5"},"vehicle_type_id":"4","last_reported":1717603804,"current_range_meters":29200,"station_id":"","pricing_plan_id":"cebpf4jnsgd1na2vs0mg"},{"bike_id":"670571da-73c8-44dd-9322-88279f1b7030","system_id":"levelo_inurba_marseille","lat":43.312609,"lon":5.401662,"is_reserved":false,"is_disabled":false,"rental_uris":{"android":"levelo://app?vid=670571da-73c8-44dd-9322-88279f1b7030","ios":"levelo://app?vid=670571da-73c8-44dd-9322-88279f1b7030"},"vehicle_type_id":"4","last_reported":1717603804,"current_range_meters":4000,"station_id":"ce4bh092rcd13ifvqd30","pricing_plan_id":"cebpf4jnsgd1na2vs0mg"},{"bike_id":"472bf191-d295-4388-8607-d6f8058bd035","system_id":"levelo_inurba_marseille","lat":43.33742,"lon":5.37457,"is_reserved":false,"is_disabled":false,"rental_uris":{"android":"levelo://app?vid=472bf191-d295-4388-8607-d6f8058bd035","ios":"levelo://app?vid=472bf191-d295-4388-8607-d6f8058bd035"},"vehicle_type_id":"4","last_reported":1717603804,"current_range_meters":29600,"station_id":"","pricing_plan_id":"cebpf4jnsgd1na2vs0mg"},{"bike_id":"8fa5a9b8-2cc5-4ab5-9126-4106e10e01d4","system_id":"levelo_inurba_marseille","lat":43.312609,"lon":5.401662,"is_reserved":false,"is_disabled":false,"rental_uris":{"android":"levelo://app?vid=8fa5a9b8-2cc5-4ab5-9126-4106e10e01d4","ios":"levelo://app?vid=8fa5a9b8-2cc5-4ab5-9126-4106e10e01d4"},"vehicle_type_id":"4","last_reported":1717603804,"current_range_meters":0,"station_id":"ce4bh092rcd13ifvqd30","pricing_plan_id":"cebpf4jnsgd1na2vs0mg"},{"bike_id":"dd4257fb-716b-4d31-83a1-be09e9625302","system_id":"levelo_inurba_marseille","lat":43.309371,"lon":5.401449,"is_reserved":false,"is_disabled":false,"rental_uris":{"android":"levelo://app?vid=dd4257fb-716b-4d31-83a1-be09e9625302","ios":"levelo://app?vid=dd4257fb-716b-4d31-83a1-be09e9625302"},"vehicle_type_id":"4","last_reported":1717603804,"current_range_meters":0,"station_id":"ce4bgvp2rcd13ifvqct0","pricing_plan_id":"cebpf4jnsgd1na2vs0mg"},{"bike_id":"2efef50a-e39a-48e7-a8aa-94f92e5efccf","system_id":"levelo_inurba_marseille","lat":43.309242,"lon":5.401475,"is_reserved":false,"is_disabled":false,"rental_uris":{"android":"levelo://app?vid=2efef50a-e39a-48e7-a8aa-94f92e5efccf","ios":"levelo://app?vid=2efef50a-e39a-48e7-a8aa-94f92e5efccf"},"vehicle_type_id":"4","last_reported":1717603804,"current_range_meters":0,"station_id":"ce4bgvp2rcd13ifvqct0","pricing_plan_id":"cebpf4jnsgd1na2vs0mg"},{"bike_id":"2c7b6b28-c029-4170-9dd2-4d16d50d5ecc","system_id":"levelo_inurba_marseille","lat":43.33762,"lon":5.3745,"is_reserved":false,"is_disabled":false,"rental_uris":{"android":"levelo://app?vid=2c7b6b28-c029-4170-9dd2-4d16d50d5ecc","ios":"levelo://app?vid=2c7b6b28-c029-4170-9dd2-4d16d50d5ecc"},"vehicle_type_id":"4","last_reported":1717603804,"current_range_meters":19200,"station_id":"","pricing_plan_id":"cebpf4jnsgd1na2vs0mg"},{"bike_id":"685828a6-6926-4a0b-acc7-ff389062fdbf","system_id":"levelo_inurba_marseille","lat":43.337671,"lon":5.374612,"is_reserved":false,"is_disabled":false,"rental_uris":{"android":"levelo://app?vid=685828a6-6926-4a0b-acc7-ff389062fdbf","ios":"levelo://app?vid=685828a6-6926-4a0b-acc7-ff389062fdbf"},"vehicle_type_id":"4","last_reported":1717603804,"current_range_meters":19600,"station_id":"","pricing_plan_id":"cebpf4jnsgd1na2vs0mg"},{"bike_id":"2bfb7cb0-2097-4066-9b96-6cfadba1666d","system_id":"levelo_inurba_marseille","lat":43.30642,"lon":5.401031,"is_reserved":false,"is_disabled":false,"rental_uris":{"android":"levelo://app?vid=2bfb7cb0-2097-4066-9b96-6cfadba1666d","ios":"levelo://app?vid=2bfb7cb0-2097-4066-9b96-6cfadba1666d"},"vehicle_type_id":"4","last_reported":1717603804,"current_range_meters":1600,"station_id":"ce4bh112rcd13ifvqda0","pricing_plan_id":"cebpf4jnsgd1na2vs0mg"},{"bike_id":"0e8d3d4a-6596-4067-a72d-266cc7467445","system_id":"levelo_inurba_marseille","lat":43.30642,"lon":5.401031,"is_reserved":false,"is_disabled":false,"rental_uris":{"android":"levelo://app?vid=0e8d3d4a-6596-4067-a72d-266cc7467445","ios":"levelo://app?vid=0e8d3d4a-6596-4067-a72d-266cc7467445"},"vehicle_type_id":"4","last_reported":1717603804,"current_range_meters":3600,"station_id":"ce4bh112rcd13ifvqda0","pricing_plan_id":"cebpf4jnsgd1na2vs0mg"},{"bike_id":"652d2777-babf-4cca-939d-7b376c34a1a2","system_id":"levelo_inurba_marseille","lat":43.306412,"lon":5.401035,"is_reserved":false,"is_disabled":false,"rental_uris":{"android":"levelo://app?vid=652d2777-babf-4cca-939d-7b376c34a1a2","ios":"levelo://app?vid=652d2777-babf-4cca-939d-7b376c34a1a2"},"vehicle_type_id":"4","last_reported":1717603804,"current_range_meters":0,"station_id":"ce4bh112rcd13ifvqda0","pricing_plan_id":"cebpf4jnsgd1na2vs0mg"},{"bike_id":"1039b20a-eec1-4258-9564-0c5daea2f27a","system_id":"levelo_inurba_marseille","lat":43.301117,"lon":5.398795,"is_reserved":false,"is_disabled":false,"rental_uris":{"android":"levelo://app?vid=1039b20a-eec1-4258-9564-0c5daea2f27a","ios":"levelo://app?vid=1039b20a-eec1-4258-9564-0c5daea2f27a"},"vehicle_type_id":"4","last_reported":1717603804,"current_range_meters":8000,"station_id":"ce4bh0h2rcd13ifvqd40","pricing_plan_id":"cebpf4jnsgd1na2vs0mg"},{"bike_id":"48ba5f21-07d9-49c1-838a-495a43f9c751","system_id":"levelo_inurba_marseille","lat":43.301117,"lon":5.398795,"is_reserved":false,"is_disabled":false,"rental_uris":{"android":"levelo://app?vid=48ba5f21-07d9-49c1-838a-495a43f9c751","ios":"levelo://app?vid=48ba5f21-07d9-49c1-838a-495a43f9c751"},"vehicle_type_id":"4","last_reported":1717603804,"current_range_meters":15200,"station_id":"ce4bh0h2rcd13ifvqd40","pricing_plan_id":"cebpf4jnsgd1na2vs0mg"},{"bike_id":"29f8fd07-9a63-4d17-a1e2-0667c1f0e718","system_id":"levelo_inurba_marseille","lat":43.301117,"lon":5.398795,"is_reserved":false,"is_disabled":false,"rental_uris":{"android":"levelo://app?vid=29f8fd07-9a63-4d17-a1e2-0667c1f0e718","ios":"levelo://app?vid=29f8fd07-9a63-4d17-a1e2-0667c1f0e718"},"vehicle_type_id":"4","last_reported":1717603804,"current_range_meters":5200,"station_id":"ce4bh0h2rcd13ifvqd40","pricing_plan_id":"cebpf4jnsgd1na2vs0mg"},{"bike_id":"d3a4cabe-942b-4c46-a1fa-37fd10d97b76","system_id":"levelo_inurba_marseille","lat":43.28727,"lon":5.36078,"is_reserved":false,"is_disabled":false,"rental_uris":{"android":"levelo://app?vid=d3a4cabe-942b-4c46-a1fa-37fd10d97b76","ios":"levelo://app?vid=d3a4cabe-942b-4c46-a1fa-37fd10d97b76"},"vehicle_type_id":"4","last_reported":1717603804,"current_range_meters":24800,"station_id":"cki0cbj6b192h4jlfktg","pricing_plan_id":"cebpf4jnsgd1na2vs0mg"},{"bike_id":"a72e732f-4dce-432d-b4e4-78e168b3a6f0","system_id":"levelo_inurba_marseille","lat":43.28727,"lon":5.36078,"is_reserved":false,"is_disabled":false,"rental_uris":{"android":"levelo://app?vid=a72e732f-4dce-432d-b4e4-78e168b3a6f0","ios":"levelo://app?vid=a72e732f-4dce-432d-b4e4-78e168b3a6f0"},"vehicle_type_id":"4","last_reported":1717603804,"current_range_meters":23600,"station_id":"cki0cbj6b192h4jlfktg","pricing_plan_id":"cebpf4jnsgd1na2vs0mg"},{"bike_id":"92b50d28-1266-4c4f-9915-4bb628d86c76","system_id":"levelo_inurba_marseille","lat":43.30144,"lon":5.39907,"is_reserved":false,"is_disabled":false,"rental_uris":{"android":"levelo://app?vid=92b50d28-1266-4c4f-9915-4bb628d86c76","ios":"levelo://app?vid=92b50d28-1266-4c4f-9915-4bb628d86c76"},"vehicle_type_id":"4","last_reported":1717603804,"current_range_meters":2000,"station_id":"ce4bh0h2rcd13ifvqd40","pricing_plan_id":"cebpf4jnsgd1na2vs0mg"},{"bike_id":"a8b3629b-28c5-4ddf-987c-2adf324a85ff","system_id":"levelo_inurba_marseille","lat":43.286774,"lon":5.363641,"is_reserved":false,"is_disabled":false,"rental_uris":{"android":"levelo://app?vid=a8b3629b-28c5-4ddf-987c-2adf324a85ff","ios":"levelo://app?vid=a8b3629b-28c5-4ddf-987c-2adf324a85ff"},"vehicle_type_id":"4","last_reported":1717603804,"current_range_meters":0,"station_id":"ce4bhah2rcd13ifvqej0","pricing_plan_id":"cebpf4jnsgd1na2vs0mg"},{"bike_id":"d09120b3-49a7-469c-b2ab-53832ecd75a1","system_id":"levelo_inurba_marseille","lat":43.29878,"lon":5.39734,"is_reserved":false,"is_disabled":false,"rental_uris":{"android":"levelo://app?vid=d09120b3-49a7-469c-b2ab-53832ecd75a1","ios":"levelo://app?vid=d09120b3-49a7-469c-b2ab-53832ecd75a1"},"vehicle_type_id":"4","last_reported":1717603804,"current_range_meters":6400,"station_id":"ce4bhbp2rcd13ifvqerg","pricing_plan_id":"cebpf4jnsgd1na2vs0mg"},{"bike_id":"8e82f168-a6fd-4359-9a9a-adc3fb006e9a","system_id":"levelo_inurba_marseille","lat":43.298681,"lon":5.397225,"is_reserved":false,"is_disabled":false,"rental_uris":{"android":"levelo://app?vid=8e82f168-a6fd-4359-9a9a-adc3fb006e9a","ios":"levelo://app?vid=8e82f168-a6fd-4359-9a9a-adc3fb006e9a"},"vehicle_type_id":"4","last_reported":1717603804,"current_range_meters":14400,"station_id":"ce4bh0h2rcd13ifvqd50","pricing_plan_id":"cebpf4jnsgd1na2vs0mg"},{"bike_id":"e3367105-2ec1-4726-bcc6-f2cf9fe97408","system_id":"levelo_inurba_marseille","lat":43.298681,"lon":5.397225,"is_reserved":false,"is_disabled":false,"rental_uris":{"android":"levelo://app?vid=e3367105-2ec1-4726-bcc6-f2cf9fe97408","ios":"levelo://app?vid=e3367105-2ec1-4726-bcc6-f2cf9fe97408"},"vehicle_type_id":"4","last_reported":1717603804,"current_range_meters":0,"station_id":"ce4bh0h2rcd13ifvqd50","pricing_plan_id":"cebpf4jnsgd1na2vs0mg"},{"bike_id":"a67ede67-ba2f-4616-8206-5c86b86f80ca","system_id":"levelo_inurba_marseille","lat":43.286593,"lon":5.363346,"is_reserved":false,"is_disabled":false,"rental_uris":{"android":"levelo://app?vid=a67ede67-ba2f-4616-8206-5c86b86f80ca","ios":"levelo://app?vid=a67ede67-ba2f-4616-8206-5c86b86f80ca"},"vehicle_type_id":"4","last_reported":1717603804,"current_range_meters":0,"station_id":"ce4bhah2rcd13ifvqej0","pricing_plan_id":"cebpf4jnsgd1na2vs0mg"},{"bike_id":"6d185b3d-deff-46d5-a096-cff230e056a8","system_id":"levelo_inurba_marseille","lat":43.28698,"lon":5.37386,"is_reserved":false,"is_disabled":false,"rental_uris":{"android":"levelo://app?vid=6d185b3d-deff-46d5-a096-cff230e056a8","ios":"levelo://app?vid=6d185b3d-deff-46d5-a096-cff230e056a8"},"vehicle_type_id":"4","last_reported":1717603804,"current_range_meters":0,"station_id":"ce4bh3p2rcd13ifvqdq0","pricing_plan_id":"cebpf4jnsgd1na2vs0mg"},{"bike_id":"a37e4a8e-8279-420a-bce7-9ecd6f4f2f4e","system_id":"levelo_inurba_marseille","lat":43.2866,"lon":5.36352,"is_reserved":false,"is_disabled":false,"rental_uris":{"android":"levelo://app?vid=a37e4a8e-8279-420a-bce7-9ecd6f4f2f4e","ios":"levelo://app?vid=a37e4a8e-8279-420a-bce7-9ecd6f4f2f4e"},"vehicle_type_id":"4","last_reported":1717603804,"current_range_meters":0,"station_id":"ce4bhah2rcd13ifvqej0","pricing_plan_id":"cebpf4jnsgd1na2vs0mg"},{"bike_id":"1cf0fc53-f2f0-4716-8074-29f1f6d13930","system_id":"levelo_inurba_marseille","lat":43.298681,"lon":5.397225,"is_reserved":false,"is_disabled":false,"rental_uris":{"android":"levelo://app?vid=1cf0fc53-f2f0-4716-8074-29f1f6d13930","ios":"levelo://app?vid=1cf0fc53-f2f0-4716-8074-29f1f6d13930"},"vehicle_type_id":"4","last_reported":1717603804,"current_range_meters":1200,"station_id":"ce4bh0h2rcd13ifvqd50","pricing_plan_id":"cebpf4jnsgd1na2vs0mg"},{"bike_id":"47b5b539-3ac2-4fb1-a4a6-d217d7f29f04","system_id":"levelo_inurba_marseille","lat":43.295196,"lon":5.39397,"is_reserved":false,"is_disabled":false,"rental_uris":{"android":"levelo://app?vid=47b5b539-3ac2-4fb1-a4a6-d217d7f29f04","ios":"levelo://app?vid=47b5b539-3ac2-4fb1-a4a6-d217d7f29f04"},"vehicle_type_id":"4","last_reported":1717603804,"current_range_meters":9200,"station_id":"ce4bh292rcd13ifvqdf0","pricing_plan_id":"cebpf4jnsgd1na2vs0mg"},{"bike_id":"01c5c179-6628-4be9-b043-b6b093a78de1","system_id":"levelo_inurba_marseille","lat":43.302759,"lon":5.400793,"is_reserved":false,"is_disabled":false,"rental_uris":{"android":"levelo://app?vid=01c5c179-6628-4be9-b043-b6b093a78de1","ios":"levelo://app?vid=01c5c179-6628-4be9-b043-b6b093a78de1"},"vehicle_type_id":"4","last_reported":1717603804,"current_range_meters":13200,"station_id":"ce4bgvh2rcd13ifvqcs0","pricing_plan_id":"cebpf4jnsgd1na2vs0mg"},{"bike_id":"814b0c7c-8ddf-48cd-9781-a0c244581994","system_id":"levelo_inurba_marseille","lat":43.302759,"lon":5.400793,"is_reserved":false,"is_disabled":false,"rental_uris":{"android":"levelo://app?vid=814b0c7c-8ddf-48cd-9781-a0c244581994","ios":"levelo://app?vid=814b0c7c-8ddf-48cd-9781-a0c244581994"},"vehicle_type_id":"4","last_reported":1717603804,"current_range_meters":0,"station_id":"ce4bgvh2rcd13ifvqcs0","pricing_plan_id":"cebpf4jnsgd1na2vs0mg"},{"bike_id":"45fbb773-7edf-4be6-a70f-1e866e6f8dd5","system_id":"levelo_inurba_marseille","lat":43.302759,"lon":5.400793,"is_reserved":false,"is_disabled":false,"rental_uris":{"android":"levelo://app?vid=45fbb773-7edf-4be6-a70f-1e866e6f8dd5","ios":"levelo://app?vid=45fbb773-7edf-4be6-a70f-1e866e6f8dd5"},"vehicle_type_id":"4","last_reported":1717603804,"current_range_meters":0,"station_id":"ce4bgvh2rcd13ifvqcs0","pricing_plan_id":"cebpf4jnsgd1na2vs0mg"},{"bike_id":"1bc1a7aa-0740-4da0-884f-2bd34230762a","system_id":"levelo_inurba_marseille","lat":43.302236,"lon":5.400578,"is_reserved":false,"is_disabled":false,"rental_uris":{"android":"levelo://app?vid=1bc1a7aa-0740-4da0-884f-2bd34230762a","ios":"levelo://app?vid=1bc1a7aa-0740-4da0-884f-2bd34230762a"},"vehicle_type_id":"4","last_reported":1717603804,"current_range_meters":0,"station_id":"ce4bgvh2rcd13ifvqcs0","pricing_plan_id":"cebpf4jnsgd1na2vs0mg"},{"bike_id":"2bf7c503-f48a-4e95-bad8-40fe5e0c9e58","system_id":"levelo_inurba_marseille","lat":43.290336,"lon":5.386425,"is_reserved":false,"is_disabled":false,"rental_uris":{"android":"levelo://app?vid=2bf7c503-f48a-4e95-bad8-40fe5e0c9e58","ios":"levelo://app?vid=2bf7c503-f48a-4e95-bad8-40fe5e0c9e58"},"vehicle_type_id":"4","last_reported":1717603804,"current_range_meters":0,"station_id":"ce4bh4p2rcd13ifvqe0g","pricing_plan_id":"cebpf4jnsgd1na2vs0mg"},{"bike_id":"cb775b9f-e1c5-4759-ad76-655d3824e75a","system_id":"levelo_inurba_marseille","lat":43.286039,"lon":5.370681,"is_reserved":false,"is_disabled":false,"rental_uris":{"android":"levelo://app?vid=cb775b9f-e1c5-4759-ad76-655d3824e75a","ios":"levelo://app?vid=cb775b9f-e1c5-4759-ad76-655d3824e75a"},"vehicle_type_id":"4","last_reported":1717603804,"current_range_meters":9200,"station_id":"ce4bht12rcd13ifvqi60","pricing_plan_id":"cebpf4jnsgd1na2vs0mg"},{"bike_id":"ec646f26-fb26-40de-8b81-9549ee1971b9","system_id":"levelo_inurba_marseille","lat":43.286039,"lon":5.370681,"is_reserved":false,"is_disabled":false,"rental_uris":{"android":"levelo://app?vid=ec646f26-fb26-40de-8b81-9549ee1971b9","ios":"levelo://app?vid=ec646f26-fb26-40de-8b81-9549ee1971b9"},"vehicle_type_id":"4","last_reported":1717603804,"current_range_meters":26000,"station_id":"ce4bht12rcd13ifvqi60","pricing_plan_id":"cebpf4jnsgd1na2vs0mg"},{"bike_id":"cea5f649-0280-48d0-8571-4c11e10dacd4","system_id":"levelo_inurba_marseille","lat":43.286039,"lon":5.370679,"is_reserved":false,"is_disabled":false,"rental_uris":{"android":"levelo://app?vid=cea5f649-0280-48d0-8571-4c11e10dacd4","ios":"levelo://app?vid=cea5f649-0280-48d0-8571-4c11e10dacd4"},"vehicle_type_id":"4","last_reported":1717603804,"current_range_meters":14400,"station_id":"ce4bht12rcd13ifvqi60","pricing_plan_id":"cebpf4jnsgd1na2vs0mg"},{"bike_id":"7be926eb-97aa-4c0c-8797-8039e965fd12","system_id":"levelo_inurba_marseille","lat":43.30156,"lon":5.4005,"is_reserved":false,"is_disabled":false,"rental_uris":{"android":"levelo://app?vid=7be926eb-97aa-4c0c-8797-8039e965fd12","ios":"levelo://app?vid=7be926eb-97aa-4c0c-8797-8039e965fd12"},"vehicle_type_id":"4","last_reported":1717603804,"current_range_meters":28400,"station_id":"","pricing_plan_id":"cebpf4jnsgd1na2vs0mg"},{"bike_id":"27765284-fe66-4538-97e0-884f257e3744","system_id":"levelo_inurba_marseille","lat":43.288339,"lon":5.382477,"is_reserved":false,"is_disabled":false,"rental_uris":{"android":"levelo://app?vid=27765284-fe66-4538-97e0-884f257e3744","ios":"levelo://app?vid=27765284-fe66-4538-97e0-884f257e3744"},"vehicle_type_id":"4","last_reported":1717603804,"current_range_meters":3200,"station_id":"","pricing_plan_id":"cebpf4jnsgd1na2vs0mg"},{"bike_id":"31b49606-08d3-4f8f-a9de-e6500ef30ceb","system_id":"levelo_inurba_marseille","lat":43.287184,"lon":5.37937,"is_reserved":false,"is_disabled":false,"rental_uris":{"android":"levelo://app?vid=31b49606-08d3-4f8f-a9de-e6500ef30ceb","ios":"levelo://app?vid=31b49606-08d3-4f8f-a9de-e6500ef30ceb"},"vehicle_type_id":"4","last_reported":1717603804,"current_range_meters":7200,"station_id":"ce4bh9p2rcd13ifvqec0","pricing_plan_id":"cebpf4jnsgd1na2vs0mg"},{"bike_id":"158d9721-e62c-4e74-a03f-a17b2c838c2f","system_id":"levelo_inurba_marseille","lat":43.287185,"lon":5.379373,"is_reserved":false,"is_disabled":false,"rental_uris":{"android":"levelo://app?vid=158d9721-e62c-4e74-a03f-a17b2c838c2f","ios":"levelo://app?vid=158d9721-e62c-4e74-a03f-a17b2c838c2f"},"vehicle_type_id":"4","last_reported":1717603804,"current_range_meters":7600,"station_id":"ce4bh9p2rcd13ifvqec0","pricing_plan_id":"cebpf4jnsgd1na2vs0mg"},{"bike_id":"9fb46a6c-1367-4cc7-b7fa-434f9e61eb0d","system_id":"levelo_inurba_marseille","lat":43.287185,"lon":5.379373,"is_reserved":false,"is_disabled":false,"rental_uris":{"android":"levelo://app?vid=9fb46a6c-1367-4cc7-b7fa-434f9e61eb0d","ios":"levelo://app?vid=9fb46a6c-1367-4cc7-b7fa-434f9e61eb0d"},"vehicle_type_id":"4","last_reported":1717603804,"current_range_meters":800,"station_id":"ce4bh9p2rcd13ifvqec0","pricing_plan_id":"cebpf4jnsgd1na2vs0mg"},{"bike_id":"19d91229-05e7-4e02-ace4-7c7621ecc49c","system_id":"levelo_inurba_marseille","lat":43.312818,"lon":5.404921,"is_reserved":false,"is_disabled":false,"rental_uris":{"android":"levelo://app?vid=19d91229-05e7-4e02-ace4-7c7621ecc49c","ios":"levelo://app?vid=19d91229-05e7-4e02-ace4-7c7621ecc49c"},"vehicle_type_id":"4","last_reported":1717603804,"current_range_meters":6400,"station_id":"","pricing_plan_id":"cebpf4jnsgd1na2vs0mg"},{"bike_id":"34fc2171-803c-4338-969c-bda0f98a87ac","system_id":"levelo_inurba_marseille","lat":43.316857,"lon":5.404755,"is_reserved":false,"is_disabled":false,"rental_uris":{"android":"levelo://app?vid=34fc2171-803c-4338-969c-bda0f98a87ac","ios":"levelo://app?vid=34fc2171-803c-4338-969c-bda0f98a87ac"},"vehicle_type_id":"4","last_reported":1717603804,"current_range_meters":8800,"station_id":"ce4bh012rcd13ifvqd00","pricing_plan_id":"cebpf4jnsgd1na2vs0mg"},{"bike_id":"4a8b6d6b-51b8-430b-b965-e0cc2b00c9b3","system_id":"levelo_inurba_marseille","lat":43.316874,"lon":5.404752,"is_reserved":false,"is_disabled":false,"rental_uris":{"android":"levelo://app?vid=4a8b6d6b-51b8-430b-b965-e0cc2b00c9b3","ios":"levelo://app?vid=4a8b6d6b-51b8-430b-b965-e0cc2b00c9b3"},"vehicle_type_id":"4","last_reported":1717603804,"current_range_meters":18000,"station_id":"","pricing_plan_id":"cebpf4jnsgd1na2vs0mg"},{"bike_id":"5e33e0d3-ab8c-4851-8201-17f5f7f18be1","system_id":"levelo_inurba_marseille","lat":43.316964,"lon":5.404752,"is_reserved":false,"is_disabled":false,"rental_uris":{"android":"levelo://app?vid=5e33e0d3-ab8c-4851-8201-17f5f7f18be1","ios":"levelo://app?vid=5e33e0d3-ab8c-4851-8201-17f5f7f18be1"},"vehicle_type_id":"4","last_reported":1717603804,"current_range_meters":17600,"station_id":"ce4bh012rcd13ifvqd00","pricing_plan_id":"cebpf4jnsgd1na2vs0mg"},{"bike_id":"48f548bf-e4e5-411d-bace-9f9e84e36701","system_id":"levelo_inurba_marseille","lat":43.291994,"lon":5.392907,"is_reserved":false,"is_disabled":false,"rental_uris":{"android":"levelo://app?vid=48f548bf-e4e5-411d-bace-9f9e84e36701","ios":"levelo://app?vid=48f548bf-e4e5-411d-bace-9f9e84e36701"},"vehicle_type_id":"4","last_reported":1717603804,"current_range_meters":17200,"station_id":"ce4bh192rcd13ifvqdd0","pricing_plan_id":"cebpf4jnsgd1na2vs0mg"},{"bike_id":"81db5187-22f9-4229-bdc7-98b1a2c5710f","system_id":"levelo_inurba_marseille","lat":43.291994,"lon":5.392907,"is_reserved":false,"is_disabled":false,"rental_uris":{"android":"levelo://app?vid=81db5187-22f9-4229-bdc7-98b1a2c5710f","ios":"levelo://app?vid=81db5187-22f9-4229-bdc7-98b1a2c5710f"},"vehicle_type_id":"4","last_reported":1717603804,"current_range_meters":9200,"station_id":"ce4bh192rcd13ifvqdd0","pricing_plan_id":"cebpf4jnsgd1na2vs0mg"},{"bike_id":"76fe6c1f-2009-4187-afb3-d0e69702bebe","system_id":"levelo_inurba_marseille","lat":43.291994,"lon":5.392907,"is_reserved":false,"is_disabled":false,"rental_uris":{"android":"levelo://app?vid=76fe6c1f-2009-4187-afb3-d0e69702bebe","ios":"levelo://app?vid=76fe6c1f-2009-4187-afb3-d0e69702bebe"},"vehicle_type_id":"4","last_reported":1717603804,"current_range_meters":12800,"station_id":"ce4bh192rcd13ifvqdd0","pricing_plan_id":"cebpf4jnsgd1na2vs0mg"},{"bike_id":"558823e1-22a8-41dc-ae7c-5c70610098db","system_id":"levelo_inurba_marseille","lat":43.291994,"lon":5.392907,"is_reserved":false,"is_disabled":false,"rental_uris":{"android":"levelo://app?vid=558823e1-22a8-41dc-ae7c-5c70610098db","ios":"levelo://app?vid=558823e1-22a8-41dc-ae7c-5c70610098db"},"vehicle_type_id":"4","last_reported":1717603804,"current_range_meters":0,"station_id":"ce4bh192rcd13ifvqdd0","pricing_plan_id":"cebpf4jnsgd1na2vs0mg"},{"bike_id":"ebbe1b0f-1a70-45d5-a850-cacca5bb4fe7","system_id":"levelo_inurba_marseille","lat":43.287504,"lon":5.38475,"is_reserved":false,"is_disabled":false,"rental_uris":{"android":"levelo://app?vid=ebbe1b0f-1a70-45d5-a850-cacca5bb4fe7","ios":"levelo://app?vid=ebbe1b0f-1a70-45d5-a850-cacca5bb4fe7"},"vehicle_type_id":"4","last_reported":1717603804,"current_range_meters":12000,"station_id":"","pricing_plan_id":"cebpf4jnsgd1na2vs0mg"},{"bike_id":"c03842e5-1a9b-43ce-8fc4-aabbe61937eb","system_id":"levelo_inurba_marseille","lat":43.286434,"lon":5.351318,"is_reserved":false,"is_disabled":false,"rental_uris":{"android":"levelo://app?vid=c03842e5-1a9b-43ce-8fc4-aabbe61937eb","ios":"levelo://app?vid=c03842e5-1a9b-43ce-8fc4-aabbe61937eb"},"vehicle_type_id":"4","last_reported":1717603804,"current_range_meters":0,"station_id":"ce4bhch2rcd13ifvqeug","pricing_plan_id":"cebpf4jnsgd1na2vs0mg"},{"bike_id":"c4e6b17d-9f35-49c9-9d4e-5cfd77d863eb","system_id":"levelo_inurba_marseille","lat":43.285856,"lon":5.350771,"is_reserved":false,"is_disabled":false,"rental_uris":{"android":"levelo://app?vid=c4e6b17d-9f35-49c9-9d4e-5cfd77d863eb","ios":"levelo://app?vid=c4e6b17d-9f35-49c9-9d4e-5cfd77d863eb"},"vehicle_type_id":"4","last_reported":1717603804,"current_range_meters":12000,"station_id":"ce4bhch2rcd13ifvqeug","pricing_plan_id":"cebpf4jnsgd1na2vs0mg"},{"bike_id":"07040d44-f929-41f3-8e11-4e0e11a6b64b","system_id":"levelo_inurba_marseille","lat":43.284534,"lon":5.358662,"is_reserved":false,"is_disabled":false,"rental_uris":{"android":"levelo://app?vid=07040d44-f929-41f3-8e11-4e0e11a6b64b","ios":"levelo://app?vid=07040d44-f929-41f3-8e11-4e0e11a6b64b"},"vehicle_type_id":"4","last_reported":1717603804,"current_range_meters":29600,"station_id":"ce4bhah2rcd13ifvqei0","pricing_plan_id":"cebpf4jnsgd1na2vs0mg"},{"bike_id":"e88dd66f-7bf7-4654-b7a6-5ddcbe8346c4","system_id":"levelo_inurba_marseille","lat":43.286377,"lon":5.351304,"is_reserved":false,"is_disabled":false,"rental_uris":{"android":"levelo://app?vid=e88dd66f-7bf7-4654-b7a6-5ddcbe8346c4","ios":"levelo://app?vid=e88dd66f-7bf7-4654-b7a6-5ddcbe8346c4"},"vehicle_type_id":"4","last_reported":1717603804,"current_range_meters":2000,"station_id":"ce4bhch2rcd13ifvqeug","pricing_plan_id":"cebpf4jnsgd1na2vs0mg"},{"bike_id":"8dc0f9f8-a0e5-41fd-a75c-7ca6557ad4c3","system_id":"levelo_inurba_marseille","lat":43.284538,"lon":5.358657,"is_reserved":false,"is_disabled":false,"rental_uris":{"android":"levelo://app?vid=8dc0f9f8-a0e5-41fd-a75c-7ca6557ad4c3","ios":"levelo://app?vid=8dc0f9f8-a0e5-41fd-a75c-7ca6557ad4c3"},"vehicle_type_id":"4","last_reported":1717603804,"current_range_meters":18800,"station_id":"ce4bhah2rcd13ifvqei0","pricing_plan_id":"cebpf4jnsgd1na2vs0mg"},{"bike_id":"4dd81d28-d5d6-4324-b33c-72a5bdd5cca3","system_id":"levelo_inurba_marseille","lat":43.284538,"lon":5.358657,"is_reserved":false,"is_disabled":false,"rental_uris":{"android":"levelo://app?vid=4dd81d28-d5d6-4324-b33c-72a5bdd5cca3","ios":"levelo://app?vid=4dd81d28-d5d6-4324-b33c-72a5bdd5cca3"},"vehicle_type_id":"4","last_reported":1717603804,"current_range_meters":19200,"station_id":"ce4bhah2rcd13ifvqei0","pricing_plan_id":"cebpf4jnsgd1na2vs0mg"},{"bike_id":"c615ea47-04c7-4c90-952c-dbcf171034ca","system_id":"levelo_inurba_marseille","lat":43.284534,"lon":5.358662,"is_reserved":false,"is_disabled":false,"rental_uris":{"android":"levelo://app?vid=c615ea47-04c7-4c90-952c-dbcf171034ca","ios":"levelo://app?vid=c615ea47-04c7-4c90-952c-dbcf171034ca"},"vehicle_type_id":"4","last_reported":1717603804,"current_range_meters":9200,"station_id":"ce4bhah2rcd13ifvqei0","pricing_plan_id":"cebpf4jnsgd1na2vs0mg"},{"bike_id":"f097b754-d170-473e-9cd5-fbdd9ff1eecd","system_id":"levelo_inurba_marseille","lat":43.284534,"lon":5.358662,"is_reserved":false,"is_disabled":false,"rental_uris":{"android":"levelo://app?vid=f097b754-d170-473e-9cd5-fbdd9ff1eecd","ios":"levelo://app?vid=f097b754-d170-473e-9cd5-fbdd9ff1eecd"},"vehicle_type_id":"4","last_reported":1717603804,"current_range_meters":13200,"station_id":"ce4bhah2rcd13ifvqei0","pricing_plan_id":"cebpf4jnsgd1na2vs0mg"},{"bike_id":"f2621d78-7dcd-43e2-8c3a-3eae59cd7e98","system_id":"levelo_inurba_marseille","lat":43.294314,"lon":5.397498,"is_reserved":false,"is_disabled":false,"rental_uris":{"android":"levelo://app?vid=f2621d78-7dcd-43e2-8c3a-3eae59cd7e98","ios":"levelo://app?vid=f2621d78-7dcd-43e2-8c3a-3eae59cd7e98"},"vehicle_type_id":"4","last_reported":1717603804,"current_range_meters":16800,"station_id":"ce4bh3h2rcd13ifvqdo0","pricing_plan_id":"cebpf4jnsgd1na2vs0mg"},{"bike_id":"50b36b19-ee90-46a5-bd50-a6d81e6aa197","system_id":"levelo_inurba_marseille","lat":43.294314,"lon":5.397498,"is_reserved":false,"is_disabled":false,"rental_uris":{"android":"levelo://app?vid=50b36b19-ee90-46a5-bd50-a6d81e6aa197","ios":"levelo://app?vid=50b36b19-ee90-46a5-bd50-a6d81e6aa197"},"vehicle_type_id":"4","last_reported":1717603804,"current_range_meters":5200,"station_id":"ce4bh3h2rcd13ifvqdo0","pricing_plan_id":"cebpf4jnsgd1na2vs0mg"},{"bike_id":"b110b1db-4de2-49ec-be09-b265374d8525","system_id":"levelo_inurba_marseille","lat":43.286254,"lon":5.351059,"is_reserved":false,"is_disabled":false,"rental_uris":{"android":"levelo://app?vid=b110b1db-4de2-49ec-be09-b265374d8525","ios":"levelo://app?vid=b110b1db-4de2-49ec-be09-b265374d8525"},"vehicle_type_id":"4","last_reported":1717603804,"current_range_meters":6800,"station_id":"ce4bhch2rcd13ifvqeug","pricing_plan_id":"cebpf4jnsgd1na2vs0mg"},{"bike_id":"e79c35fe-2724-4983-97b8-40e6ec05c4b4","system_id":"levelo_inurba_marseille","lat":43.28619,"lon":5.3511,"is_reserved":false,"is_disabled":false,"rental_uris":{"android":"levelo://app?vid=e79c35fe-2724-4983-97b8-40e6ec05c4b4","ios":"levelo://app?vid=e79c35fe-2724-4983-97b8-40e6ec05c4b4"},"vehicle_type_id":"4","last_reported":1717603804,"current_range_meters":5600,"station_id":"ce4bhch2rcd13ifvqeug","pricing_plan_id":"cebpf4jnsgd1na2vs0mg"},{"bike_id":"2ee7fee7-ee4f-4ed4-97ab-2785ea4666f6","system_id":"levelo_inurba_marseille","lat":43.285856,"lon":5.350771,"is_reserved":false,"is_disabled":false,"rental_uris":{"android":"levelo://app?vid=2ee7fee7-ee4f-4ed4-97ab-2785ea4666f6","ios":"levelo://app?vid=2ee7fee7-ee4f-4ed4-97ab-2785ea4666f6"},"vehicle_type_id":"4","last_reported":1717603804,"current_range_meters":8400,"station_id":"ce4bhch2rcd13ifvqeug","pricing_plan_id":"cebpf4jnsgd1na2vs0mg"},{"bike_id":"506b1347-35d8-4430-a05d-0c1c2103649d","system_id":"levelo_inurba_marseille","lat":43.286198,"lon":5.351,"is_reserved":false,"is_disabled":false,"rental_uris":{"android":"levelo://app?vid=506b1347-35d8-4430-a05d-0c1c2103649d","ios":"levelo://app?vid=506b1347-35d8-4430-a05d-0c1c2103649d"},"vehicle_type_id":"4","last_reported":1717603804,"current_range_meters":19200,"station_id":"ce4bhch2rcd13ifvqeug","pricing_plan_id":"cebpf4jnsgd1na2vs0mg"},{"bike_id":"2d30db32-954a-4e9a-b343-de588a868395","system_id":"levelo_inurba_marseille","lat":43.286177,"lon":5.351051,"is_reserved":false,"is_disabled":false,"rental_uris":{"android":"levelo://app?vid=2d30db32-954a-4e9a-b343-de588a868395","ios":"levelo://app?vid=2d30db32-954a-4e9a-b343-de588a868395"},"vehicle_type_id":"4","last_reported":1717603804,"current_range_meters":800,"station_id":"ce4bhch2rcd13ifvqeug","pricing_plan_id":"cebpf4jnsgd1na2vs0mg"},{"bike_id":"ae5f8e65-b1d6-412c-b498-ba70c1614297","system_id":"levelo_inurba_marseille","lat":43.28619,"lon":5.35101,"is_reserved":false,"is_disabled":false,"rental_uris":{"android":"levelo://app?vid=ae5f8e65-b1d6-412c-b498-ba70c1614297","ios":"levelo://app?vid=ae5f8e65-b1d6-412c-b498-ba70c1614297"},"vehicle_type_id":"4","last_reported":1717603804,"current_range_meters":3600,"station_id":"ce4bhch2rcd13ifvqeug","pricing_plan_id":"cebpf4jnsgd1na2vs0mg"},{"bike_id":"a786b11e-53ab-41f5-84fe-3d4ff2db8eb6","system_id":"levelo_inurba_marseille","lat":43.28615,"lon":5.35112,"is_reserved":false,"is_disabled":false,"rental_uris":{"android":"levelo://app?vid=a786b11e-53ab-41f5-84fe-3d4ff2db8eb6","ios":"levelo://app?vid=a786b11e-53ab-41f5-84fe-3d4ff2db8eb6"},"vehicle_type_id":"4","last_reported":1717603804,"current_range_meters":0,"station_id":"ce4bhch2rcd13ifvqeug","pricing_plan_id":"cebpf4jnsgd1na2vs0mg"},{"bike_id":"f4f30a43-6423-4b80-8de4-e54314c40b37","system_id":"levelo_inurba_marseille","lat":43.28617,"lon":5.35104,"is_reserved":false,"is_disabled":false,"rental_uris":{"android":"levelo://app?vid=f4f30a43-6423-4b80-8de4-e54314c40b37","ios":"levelo://app?vid=f4f30a43-6423-4b80-8de4-e54314c40b37"},"vehicle_type_id":"4","last_reported":1717603804,"current_range_meters":7200,"station_id":"ce4bhch2rcd13ifvqeug","pricing_plan_id":"cebpf4jnsgd1na2vs0mg"},{"bike_id":"64e863ee-46d9-4569-a063-b752ee3a47bf","system_id":"levelo_inurba_marseille","lat":43.285848,"lon":5.350787,"is_reserved":false,"is_disabled":false,"rental_uris":{"android":"levelo://app?vid=64e863ee-46d9-4569-a063-b752ee3a47bf","ios":"levelo://app?vid=64e863ee-46d9-4569-a063-b752ee3a47bf"},"vehicle_type_id":"4","last_reported":1717603804,"current_range_meters":1200,"station_id":"ce4bhch2rcd13ifvqeug","pricing_plan_id":"cebpf4jnsgd1na2vs0mg"},{"bike_id":"b773e3f5-0ce9-464c-ae03-bce1355ca443","system_id":"levelo_inurba_marseille","lat":43.286143,"lon":5.351051,"is_reserved":false,"is_disabled":false,"rental_uris":{"android":"levelo://app?vid=b773e3f5-0ce9-464c-ae03-bce1355ca443","ios":"levelo://app?vid=b773e3f5-0ce9-464c-ae03-bce1355ca443"},"vehicle_type_id":"4","last_reported":1717603804,"current_range_meters":10400,"station_id":"ce4bhch2rcd13ifvqeug","pricing_plan_id":"cebpf4jnsgd1na2vs0mg"},{"bike_id":"b6d6bf09-3e0d-4487-ad32-7bd6caddc5c8","system_id":"levelo_inurba_marseille","lat":43.285848,"lon":5.350787,"is_reserved":false,"is_disabled":false,"rental_uris":{"android":"levelo://app?vid=b6d6bf09-3e0d-4487-ad32-7bd6caddc5c8","ios":"levelo://app?vid=b6d6bf09-3e0d-4487-ad32-7bd6caddc5c8"},"vehicle_type_id":"4","last_reported":1717603804,"current_range_meters":11600,"station_id":"ce4bhch2rcd13ifvqeug","pricing_plan_id":"cebpf4jnsgd1na2vs0mg"},{"bike_id":"13601edb-f8cf-4d04-b3e7-1563d0eeecfd","system_id":"levelo_inurba_marseille","lat":43.28614,"lon":5.35098,"is_reserved":false,"is_disabled":false,"rental_uris":{"android":"levelo://app?vid=13601edb-f8cf-4d04-b3e7-1563d0eeecfd","ios":"levelo://app?vid=13601edb-f8cf-4d04-b3e7-1563d0eeecfd"},"vehicle_type_id":"4","last_reported":1717603804,"current_range_meters":25600,"station_id":"ce4bhch2rcd13ifvqeug","pricing_plan_id":"cebpf4jnsgd1na2vs0mg"},{"bike_id":"ed96af69-ebff-48d0-9dbe-9f33325a9d35","system_id":"levelo_inurba_marseille","lat":43.28613,"lon":5.35098,"is_reserved":false,"is_disabled":false,"rental_uris":{"android":"levelo://app?vid=ed96af69-ebff-48d0-9dbe-9f33325a9d35","ios":"levelo://app?vid=ed96af69-ebff-48d0-9dbe-9f33325a9d35"},"vehicle_type_id":"4","last_reported":1717603804,"current_range_meters":20400,"station_id":"ce4bhch2rcd13ifvqeug","pricing_plan_id":"cebpf4jnsgd1na2vs0mg"},{"bike_id":"dda233a1-171c-4f36-8cda-77a649a6b097","system_id":"levelo_inurba_marseille","lat":43.283998,"lon":5.375062,"is_reserved":false,"is_disabled":false,"rental_uris":{"android":"levelo://app?vid=dda233a1-171c-4f36-8cda-77a649a6b097","ios":"levelo://app?vid=dda233a1-171c-4f36-8cda-77a649a6b097"},"vehicle_type_id":"4","last_reported":1717603804,"current_range_meters":0,"station_id":"ce4bh412rcd13ifvqds0","pricing_plan_id":"cebpf4jnsgd1na2vs0mg"},{"bike_id":"df66da15-127f-4bc3-88bc-1c12a7f4f348","system_id":"levelo_inurba_marseille","lat":43.284534,"lon":5.358662,"is_reserved":false,"is_disabled":false,"rental_uris":{"android":"levelo://app?vid=df66da15-127f-4bc3-88bc-1c12a7f4f348","ios":"levelo://app?vid=df66da15-127f-4bc3-88bc-1c12a7f4f348"},"vehicle_type_id":"4","last_reported":1717603804,"current_range_meters":12400,"station_id":"ce4bhah2rcd13ifvqei0","pricing_plan_id":"cebpf4jnsgd1na2vs0mg"},{"bike_id":"2fdb077f-08b3-46ed-aabc-d9bdad30b587","system_id":"levelo_inurba_marseille","lat":43.283998,"lon":5.375062,"is_reserved":false,"is_disabled":false,"rental_uris":{"android":"levelo://app?vid=2fdb077f-08b3-46ed-aabc-d9bdad30b587","ios":"levelo://app?vid=2fdb077f-08b3-46ed-aabc-d9bdad30b587"},"vehicle_type_id":"4","last_reported":1717603804,"current_range_meters":28000,"station_id":"ce4bh412rcd13ifvqds0","pricing_plan_id":"cebpf4jnsgd1na2vs0mg"},{"bike_id":"c1f71af2-a262-4fd2-b9d0-0eff3bb5c2e3","system_id":"levelo_inurba_marseille","lat":43.295713,"lon":5.399639,"is_reserved":false,"is_disabled":false,"rental_uris":{"android":"levelo://app?vid=c1f71af2-a262-4fd2-b9d0-0eff3bb5c2e3","ios":"levelo://app?vid=c1f71af2-a262-4fd2-b9d0-0eff3bb5c2e3"},"vehicle_type_id":"4","last_reported":1717603804,"current_range_meters":0,"station_id":"ce4bh312rcd13ifvqdj0","pricing_plan_id":"cebpf4jnsgd1na2vs0mg"},{"bike_id":"945f4d3b-9820-4513-a95f-7d987ca72d3c","system_id":"levelo_inurba_marseille","lat":43.295713,"lon":5.399639,"is_reserved":false,"is_disabled":false,"rental_uris":{"android":"levelo://app?vid=945f4d3b-9820-4513-a95f-7d987ca72d3c","ios":"levelo://app?vid=945f4d3b-9820-4513-a95f-7d987ca72d3c"},"vehicle_type_id":"4","last_reported":1717603804,"current_range_meters":2800,"station_id":"ce4bh312rcd13ifvqdj0","pricing_plan_id":"cebpf4jnsgd1na2vs0mg"},{"bike_id":"395f1f4f-7d8c-4783-902b-b91544a11db4","system_id":"levelo_inurba_marseille","lat":43.286595,"lon":5.386795,"is_reserved":false,"is_disabled":false,"rental_uris":{"android":"levelo://app?vid=395f1f4f-7d8c-4783-902b-b91544a11db4","ios":"levelo://app?vid=395f1f4f-7d8c-4783-902b-b91544a11db4"},"vehicle_type_id":"4","last_reported":1717603804,"current_range_meters":28400,"station_id":"ce4bh492rcd13ifvqdug","pricing_plan_id":"cebpf4jnsgd1na2vs0mg"},{"bike_id":"6c55c3be-c99e-4ca3-bddb-219b92001164","system_id":"levelo_inurba_marseille","lat":43.296263,"lon":5.40601,"is_reserved":false,"is_disabled":false,"rental_uris":{"android":"levelo://app?vid=6c55c3be-c99e-4ca3-bddb-219b92001164","ios":"levelo://app?vid=6c55c3be-c99e-4ca3-bddb-219b92001164"},"vehicle_type_id":"4","last_reported":1717603804,"current_range_meters":1600,"station_id":"ce4bh0h2rcd13ifvqd60","pricing_plan_id":"cebpf4jnsgd1na2vs0mg"},{"bike_id":"93bf9cd1-4c58-4625-a6bd-f262e27a8c18","system_id":"levelo_inurba_marseille","lat":43.318945,"lon":5.407483,"is_reserved":false,"is_disabled":false,"rental_uris":{"android":"levelo://app?vid=93bf9cd1-4c58-4625-a6bd-f262e27a8c18","ios":"levelo://app?vid=93bf9cd1-4c58-4625-a6bd-f262e27a8c18"},"vehicle_type_id":"4","last_reported":1717603804,"current_range_meters":0,"station_id":"ce4bhq12rcd13ifvqhig","pricing_plan_id":"cebpf4jnsgd1na2vs0mg"},{"bike_id":"dc49c870-938d-4078-9363-bd36302c79ec","system_id":"levelo_inurba_marseille","lat":43.323464,"lon":5.406297,"is_reserved":false,"is_disabled":false,"rental_uris":{"android":"levelo://app?vid=dc49c870-938d-4078-9363-bd36302c79ec","ios":"levelo://app?vid=dc49c870-938d-4078-9363-bd36302c79ec"},"vehicle_type_id":"4","last_reported":1717603804,"current_range_meters":8800,"station_id":"ce4bhq92rcd13ifvqhjg","pricing_plan_id":"cebpf4jnsgd1na2vs0mg"},{"bike_id":"cd96529c-9689-470c-83be-3698ab582134","system_id":"levelo_inurba_marseille","lat":43.323419,"lon":5.406197,"is_reserved":false,"is_disabled":false,"rental_uris":{"android":"levelo://app?vid=cd96529c-9689-470c-83be-3698ab582134","ios":"levelo://app?vid=cd96529c-9689-470c-83be-3698ab582134"},"vehicle_type_id":"4","last_reported":1717603804,"current_range_meters":0,"station_id":"ce4bhq92rcd13ifvqhjg","pricing_plan_id":"cebpf4jnsgd1na2vs0mg"},{"bike_id":"2c8c449b-ef76-47af-bacc-9b665e6f812a","system_id":"levelo_inurba_marseille","lat":43.284761,"lon":5.384153,"is_reserved":false,"is_disabled":false,"rental_uris":{"android":"levelo://app?vid=2c8c449b-ef76-47af-bacc-9b665e6f812a","ios":"levelo://app?vid=2c8c449b-ef76-47af-bacc-9b665e6f812a"},"vehicle_type_id":"4","last_reported":1717603804,"current_range_meters":0,"station_id":"ce4bh512rcd13ifvqe3g","pricing_plan_id":"cebpf4jnsgd1na2vs0mg"},{"bike_id":"2e01cbaa-7802-42d5-a987-9240e0ff33c8","system_id":"levelo_inurba_marseille","lat":43.284787,"lon":5.384116,"is_reserved":false,"is_disabled":false,"rental_uris":{"android":"levelo://app?vid=2e01cbaa-7802-42d5-a987-9240e0ff33c8","ios":"levelo://app?vid=2e01cbaa-7802-42d5-a987-9240e0ff33c8"},"vehicle_type_id":"4","last_reported":1717603804,"current_range_meters":9200,"station_id":"ce4bh512rcd13ifvqe3g","pricing_plan_id":"cebpf4jnsgd1na2vs0mg"},{"bike_id":"f507b243-2d62-4426-8233-884b50858572","system_id":"levelo_inurba_marseille","lat":43.284787,"lon":5.384116,"is_reserved":false,"is_disabled":false,"rental_uris":{"android":"levelo://app?vid=f507b243-2d62-4426-8233-884b50858572","ios":"levelo://app?vid=f507b243-2d62-4426-8233-884b50858572"},"vehicle_type_id":"4","last_reported":1717603804,"current_range_meters":800,"station_id":"ce4bh512rcd13ifvqe3g","pricing_plan_id":"cebpf4jnsgd1na2vs0mg"},{"bike_id":"e750a475-1161-4da2-857c-a94d561bd8a0","system_id":"levelo_inurba_marseille","lat":43.284787,"lon":5.384116,"is_reserved":false,"is_disabled":false,"rental_uris":{"android":"levelo://app?vid=e750a475-1161-4da2-857c-a94d561bd8a0","ios":"levelo://app?vid=e750a475-1161-4da2-857c-a94d561bd8a0"},"vehicle_type_id":"4","last_reported":1717603804,"current_range_meters":13600,"station_id":"ce4bh512rcd13ifvqe3g","pricing_plan_id":"cebpf4jnsgd1na2vs0mg"},{"bike_id":"b60a3d52-eff8-45bf-a0ca-be940b43611e","system_id":"levelo_inurba_marseille","lat":43.33717,"lon":5.391857,"is_reserved":false,"is_disabled":false,"rental_uris":{"android":"levelo://app?vid=b60a3d52-eff8-45bf-a0ca-be940b43611e","ios":"levelo://app?vid=b60a3d52-eff8-45bf-a0ca-be940b43611e"},"vehicle_type_id":"4","last_reported":1717603804,"current_range_meters":23600,"station_id":"ce4bhr92rcd13ifvqhsg","pricing_plan_id":"cebpf4jnsgd1na2vs0mg"},{"bike_id":"5919f814-0e78-4fdf-ae0d-6bbe4bd9f793","system_id":"levelo_inurba_marseille","lat":43.284793,"lon":5.384119,"is_reserved":false,"is_disabled":false,"rental_uris":{"android":"levelo://app?vid=5919f814-0e78-4fdf-ae0d-6bbe4bd9f793","ios":"levelo://app?vid=5919f814-0e78-4fdf-ae0d-6bbe4bd9f793"},"vehicle_type_id":"4","last_reported":1717603804,"current_range_meters":18000,"station_id":"ce4bh512rcd13ifvqe3g","pricing_plan_id":"cebpf4jnsgd1na2vs0mg"},{"bike_id":"c39aa82a-4de0-42a6-a236-06cebd2f1266","system_id":"levelo_inurba_marseille","lat":43.288501,"lon":5.393087,"is_reserved":false,"is_disabled":false,"rental_uris":{"android":"levelo://app?vid=c39aa82a-4de0-42a6-a236-06cebd2f1266","ios":"levelo://app?vid=c39aa82a-4de0-42a6-a236-06cebd2f1266"},"vehicle_type_id":"4","last_reported":1717603804,"current_range_meters":0,"station_id":"ce4bh2p2rcd13ifvqdi0","pricing_plan_id":"cebpf4jnsgd1na2vs0mg"},{"bike_id":"bb688884-36a5-405a-bef3-06553d04ed99","system_id":"levelo_inurba_marseille","lat":43.284793,"lon":5.384119,"is_reserved":false,"is_disabled":false,"rental_uris":{"android":"levelo://app?vid=bb688884-36a5-405a-bef3-06553d04ed99","ios":"levelo://app?vid=bb688884-36a5-405a-bef3-06553d04ed99"},"vehicle_type_id":"4","last_reported":1717603804,"current_range_meters":2000,"station_id":"ce4bh512rcd13ifvqe3g","pricing_plan_id":"cebpf4jnsgd1na2vs0mg"},{"bike_id":"8d0227d8-2c3d-4ee2-9712-a3d72ccb5cf1","system_id":"levelo_inurba_marseille","lat":43.288497,"lon":5.393089,"is_reserved":false,"is_disabled":false,"rental_uris":{"android":"levelo://app?vid=8d0227d8-2c3d-4ee2-9712-a3d72ccb5cf1","ios":"levelo://app?vid=8d0227d8-2c3d-4ee2-9712-a3d72ccb5cf1"},"vehicle_type_id":"4","last_reported":1717603804,"current_range_meters":0,"station_id":"ce4bh2p2rcd13ifvqdi0","pricing_plan_id":"cebpf4jnsgd1na2vs0mg"},{"bike_id":"90ba74c0-c2e1-4866-8ab7-faa3a2bc701a","system_id":"levelo_inurba_marseille","lat":43.275625,"lon":5.384392,"is_reserved":false,"is_disabled":false,"rental_uris":{"android":"levelo://app?vid=90ba74c0-c2e1-4866-8ab7-faa3a2bc701a","ios":"levelo://app?vid=90ba74c0-c2e1-4866-8ab7-faa3a2bc701a"},"vehicle_type_id":"4","last_reported":1717603804,"current_range_meters":7600,"station_id":"ce4bhh92rcd13ifvqfi0","pricing_plan_id":"cebpf4jnsgd1na2vs0mg"},{"bike_id":"53aa52dd-b059-4f7c-bb72-83007331b716","system_id":"levelo_inurba_marseille","lat":43.284776,"lon":5.385603,"is_reserved":false,"is_disabled":false,"rental_uris":{"android":"levelo://app?vid=53aa52dd-b059-4f7c-bb72-83007331b716","ios":"levelo://app?vid=53aa52dd-b059-4f7c-bb72-83007331b716"},"vehicle_type_id":"4","last_reported":1717603804,"current_range_meters":0,"station_id":"ce4bh8p2rcd13ifvqeb0","pricing_plan_id":"cebpf4jnsgd1na2vs0mg"},{"bike_id":"166fc43a-02e2-4068-9ed9-f4bdc60e1e7a","system_id":"levelo_inurba_marseille","lat":43.283494,"lon":5.380945,"is_reserved":false,"is_disabled":false,"rental_uris":{"android":"levelo://app?vid=166fc43a-02e2-4068-9ed9-f4bdc60e1e7a","ios":"levelo://app?vid=166fc43a-02e2-4068-9ed9-f4bdc60e1e7a"},"vehicle_type_id":"4","last_reported":1717603804,"current_range_meters":30000,"station_id":"ce4bh412rcd13ifvqdr0","pricing_plan_id":"cebpf4jnsgd1na2vs0mg"},{"bike_id":"31a40b9e-768f-45ba-bd03-a7537a62d404","system_id":"levelo_inurba_marseille","lat":43.2843,"lon":5.35002,"is_reserved":false,"is_disabled":false,"rental_uris":{"android":"levelo://app?vid=31a40b9e-768f-45ba-bd03-a7537a62d404","ios":"levelo://app?vid=31a40b9e-768f-45ba-bd03-a7537a62d404"},"vehicle_type_id":"4","last_reported":1717603804,"current_range_meters":11200,"station_id":"ce4bhbh2rcd13ifvqepg","pricing_plan_id":"cebpf4jnsgd1na2vs0mg"},{"bike_id":"2b468ffd-0a76-4e6c-b75c-be758de2392e","system_id":"levelo_inurba_marseille","lat":43.28432,"lon":5.34986,"is_reserved":false,"is_disabled":false,"rental_uris":{"android":"levelo://app?vid=2b468ffd-0a76-4e6c-b75c-be758de2392e","ios":"levelo://app?vid=2b468ffd-0a76-4e6c-b75c-be758de2392e"},"vehicle_type_id":"4","last_reported":1717603804,"current_range_meters":30800,"station_id":"ce4bhbh2rcd13ifvqepg","pricing_plan_id":"cebpf4jnsgd1na2vs0mg"},{"bike_id":"2d76bb1e-efbc-444a-a26f-afe498f75be9","system_id":"levelo_inurba_marseille","lat":43.2843,"lon":5.34988,"is_reserved":false,"is_disabled":false,"rental_uris":{"android":"levelo://app?vid=2d76bb1e-efbc-444a-a26f-afe498f75be9","ios":"levelo://app?vid=2d76bb1e-efbc-444a-a26f-afe498f75be9"},"vehicle_type_id":"4","last_reported":1717603804,"current_range_meters":16400,"station_id":"ce4bhbh2rcd13ifvqepg","pricing_plan_id":"cebpf4jnsgd1na2vs0mg"},{"bike_id":"bab4a312-35b8-41aa-9fc9-75304fde5e11","system_id":"levelo_inurba_marseille","lat":43.284243,"lon":5.350048,"is_reserved":false,"is_disabled":false,"rental_uris":{"android":"levelo://app?vid=bab4a312-35b8-41aa-9fc9-75304fde5e11","ios":"levelo://app?vid=bab4a312-35b8-41aa-9fc9-75304fde5e11"},"vehicle_type_id":"4","last_reported":1717603804,"current_range_meters":11600,"station_id":"ce4bhbh2rcd13ifvqepg","pricing_plan_id":"cebpf4jnsgd1na2vs0mg"},{"bike_id":"601984a5-7321-4910-abae-14e4ad305025","system_id":"levelo_inurba_marseille","lat":43.283443,"lon":5.381036,"is_reserved":false,"is_disabled":false,"rental_uris":{"android":"levelo://app?vid=601984a5-7321-4910-abae-14e4ad305025","ios":"levelo://app?vid=601984a5-7321-4910-abae-14e4ad305025"},"vehicle_type_id":"4","last_reported":1717603804,"current_range_meters":0,"station_id":"ce4bh412rcd13ifvqdr0","pricing_plan_id":"cebpf4jnsgd1na2vs0mg"},{"bike_id":"e86aaffa-82c2-4691-9dbb-7f5d9069bb8b","system_id":"levelo_inurba_marseille","lat":43.28428,"lon":5.34987,"is_reserved":false,"is_disabled":false,"rental_uris":{"android":"levelo://app?vid=e86aaffa-82c2-4691-9dbb-7f5d9069bb8b","ios":"levelo://app?vid=e86aaffa-82c2-4691-9dbb-7f5d9069bb8b"},"vehicle_type_id":"4","last_reported":1717603804,"current_range_meters":10000,"station_id":"ce4bhbh2rcd13ifvqepg","pricing_plan_id":"cebpf4jnsgd1na2vs0mg"},{"bike_id":"3d8fcaf8-1ef8-4f28-84d4-7098d0b0d4e6","system_id":"levelo_inurba_marseille","lat":43.28429,"lon":5.34983,"is_reserved":false,"is_disabled":false,"rental_uris":{"android":"levelo://app?vid=3d8fcaf8-1ef8-4f28-84d4-7098d0b0d4e6","ios":"levelo://app?vid=3d8fcaf8-1ef8-4f28-84d4-7098d0b0d4e6"},"vehicle_type_id":"4","last_reported":1717603804,"current_range_meters":1600,"station_id":"ce4bhbh2rcd13ifvqepg","pricing_plan_id":"cebpf4jnsgd1na2vs0mg"},{"bike_id":"77c661c1-d01e-4f02-be16-2c0c9c23bb00","system_id":"levelo_inurba_marseille","lat":43.28427,"lon":5.349885,"is_reserved":false,"is_disabled":false,"rental_uris":{"android":"levelo://app?vid=77c661c1-d01e-4f02-be16-2c0c9c23bb00","ios":"levelo://app?vid=77c661c1-d01e-4f02-be16-2c0c9c23bb00"},"vehicle_type_id":"4","last_reported":1717603804,"current_range_meters":20800,"station_id":"ce4bhbh2rcd13ifvqepg","pricing_plan_id":"cebpf4jnsgd1na2vs0mg"},{"bike_id":"ffe64993-b8a2-4dee-91a1-08c630a5f02e","system_id":"levelo_inurba_marseille","lat":43.28426,"lon":5.34985,"is_reserved":false,"is_disabled":false,"rental_uris":{"android":"levelo://app?vid=ffe64993-b8a2-4dee-91a1-08c630a5f02e","ios":"levelo://app?vid=ffe64993-b8a2-4dee-91a1-08c630a5f02e"},"vehicle_type_id":"4","last_reported":1717603804,"current_range_meters":30800,"station_id":"ce4bhbh2rcd13ifvqepg","pricing_plan_id":"cebpf4jnsgd1na2vs0mg"},{"bike_id":"f7c711aa-31b1-4c98-be96-bbb8692224cb","system_id":"levelo_inurba_marseille","lat":43.284228,"lon":5.349923,"is_reserved":false,"is_disabled":false,"rental_uris":{"android":"levelo://app?vid=f7c711aa-31b1-4c98-be96-bbb8692224cb","ios":"levelo://app?vid=f7c711aa-31b1-4c98-be96-bbb8692224cb"},"vehicle_type_id":"4","last_reported":1717603804,"current_range_meters":20800,"station_id":"ce4bhbh2rcd13ifvqepg","pricing_plan_id":"cebpf4jnsgd1na2vs0mg"},