{"last_updated":1771486858,"ttl":60,"version":"2.2","data":{"bikes":[{"bike_id":"f172b5b3-c333-47ea-9d5e-14a1e1c1e1bd","system_id":"levelo_inurba_marseille","lat":43.26496,"lon":5.39556,"is_reserved":false,"is_disabled":false,"rental_uris":{"android":"levelo://app?vid=f172b5b3-c333-47ea-9d5e-14a1e1c1e1bd","ios":"levelo://app?vid=f172b5b3-c333-47ea-9d5e-14a1e1c1e1bd"},"vehicle_type_id":"4","last_reported":1771486859,"current_range_meters":29600,"station_id":"ce4bhi12rcd13ifvqfq0","pricing_plan_id":"cebpf4jnsgd1na2vs0mg"},{"bike_id":"082c18e4-001a-495d-847f-c5ad36f2a9ff","system_id":"levelo_inurba_marseille","lat":43.25101,"lon":5.40378,"is_reserved":false,"is_disabled":false,"rental_uris":{"android":"levelo://app?vid=082c18e4-001a-495d-847f-c5ad36f2a9ff","ios":"levelo://app?vid=082c18e4-001a-495d-847f-c5ad36f2a9ff"},"vehicle_type_id":"4","last_reported":1771486859,"current_range_meters":8400,"station_id":"ce4bhlh2rcd13ifvqgig","pricing_plan_id":"cebpf4jnsgd1na2vs0mg"},{"bike_id":"d2556e92-2ca9-4a78-9f71-9255354e5fd9","system_id":"levelo_inurba_marseille","lat":43.28858,"lon":5.39312,"is_reserved":false,"is_disabled":true,"rental_uris":{"android":"levelo://app?vid=d2556e92-2ca9-4a78-9f71-9255354e5fd9","ios":"levelo://app?vid=d2556e92-2ca9-4a78-9f71-9255354e5fd9"},"vehicle_type_id":"4","last_reported":1771486859,"current_range_meters":30000,"station_id":"ce4bh2p2rcd13ifvqdi0","pricing_plan_id":"cebpf4jnsgd1na2vs0mg"},{"bike_id":"d65886a3-3de6-48a9-839a-10d10268a16e","system_id":"levelo_inurba_marseille","lat":43.29258,"lon":5.40891,"is_reserved":false,"is_disabled":true,"rental_uris":{"android":"levelo://app?vid=d65886a3-3de6-48a9-839a-10d10268a16e","ios":"levelo://app?vid=d65886a3-3de6-48a9-839a-10d10268a16e"},"vehicle_type_id":"4","last_reported":1771486859,"current_range_meters":400,"station_id":"ce4bh192rcd13ifvqdc0","pricing_plan_id":"cebpf4jnsgd1na2vs0mg"},{"bike_id":"d8078990-2633-4921-9e81-c73d420fcb12","system_id":"levelo_inurba_marseille","lat":43.28414,"lon":5.37543,"is_reserved":false,"is_disabled":true,"rental_uris":{"android":"levelo://app?vid=d8078990-2633-4921-9e81-c73d420fcb12","ios":"levelo://app?vid=d8078990-2633-4921-9e81-c73d420fcb12"},"vehicle_type_id":"4","last_reported":1771486859,"current_range_meters":19600,"station_id":"ce4bh412rcd13ifvqds0","pricing_plan_id":"cebpf4jnsgd1na2vs0mg"},{"bike_id":"f56469d6-156e-4dc9-9c3e-3416ed76c4ba","system_id":"levelo_inurba_marseille","lat":43.33154,"lon":5.37694,"is_reserved":false,"is_disabled":false,"rental_uris":{"android":"levelo://app?vid=f56469d6-156e-4dc9-9c3e-3416ed76c4ba","ios":"levelo://app?vid=f56469d6-156e-4dc9-9c3e-3416ed76c4ba"},"vehicle_type_id":"4","last_reported":1771486859,"current_range_meters":23200,"station_id":"st_d46cu089ee8s73dldbu0","pricing_plan_id":"cebpf4jnsgd1na2vs0mg"},{"bike_id":"dc672bbc-e8e0-4270-8b4d-a25daca74390","system_id":"levelo_inurba_marseille","lat":43.30657,"lon":5.40104,"is_reserved":false,"is_disabled":false,"rental_uris":{"android":"levelo://app?vid=dc672bbc-e8e0-4270-8b4d-a25daca74390","ios":"levelo://app?vid=dc672bbc-e8e0-4270-8b4d-a25daca74390"},"vehicle_type_id":"4","last_reported":1771486859,"current_range_meters":32400,"station_id":"ce4bh112rcd13ifvqda0","pricing_plan_id":"cebpf4jnsgd1na2vs0mg"},{"bike_id":"370c5f65-eab7-4c67-ad70-918bd5c7aaf2","system_id":"levelo_inurba_marseille","lat":43.25111,"lon":5.40331,"is_reserved":false,"is_disabled":false,"rental_uris":{"android":"levelo://app?vid=370c5f65-eab7-4c67-ad70-918bd5c7aaf2","ios":"levelo://app?vid=370c5f65-eab7-4c67-ad70-918bd5c7aaf2"},"vehicle_type_id":"4","last_reported":1771486859,"current_range_meters":36400,"station_id":"ce4bhlh2rcd13ifvqgig","pricing_plan_id":"cebpf4jnsgd1na2vs0mg"},{"bike_id":"ec3c2263-3477-484f-b296-a0baddece9fc","system_id":"levelo_inurba_marseille","lat":43.31702,"lon":5.40439,"is_reserved":false,"is_disabled":false,"rental_uris":{"android":"levelo://app?vid=ec3c2263-3477-484f-b296-a0baddece9fc","ios":"levelo://app?vid=ec3c2263-3477-484f-b296-a0baddece9fc"},"vehicle_type_id":"4","last_reported":1771486859,"current_range_meters":39200,"station_id":"ce4bh012rcd13ifvqd00","pricing_plan_id":"cebpf4jnsgd1na2vs0mg"},{"bike_id":"1d13cd77-d7b2-41db-9ccc-f0852a66c40e","system_id":"levelo_inurba_marseille","lat":43.2783,"lon":5.3921,"is_reserved":false,"is_disabled":false,"rental_uris":{"android":"levelo://app?vid=1d13cd77-d7b2-41db-9ccc-f0852a66c40e","ios":"levelo://app?vid=1d13cd77-d7b2-41db-9ccc-f0852a66c40e"},"vehicle_type_id":"4","last_reported":1771486859,"current_range_meters":32800,"station_id":"ce4bhjp2rcd13ifvqga0","pricing_plan_id":"cebpf4jnsgd1na2vs0mg"},{"bike_id":"37b7f341-16d7-4eb9-9d63-c0dc411fcc94","system_id":"levelo_inurba_marseille","lat":43.2415,"lon":5.39711,"is_reserved":false,"is_disabled":false,"rental_uris":{"android":"levelo://app?vid=37b7f341-16d7-4eb9-9d63-c0dc411fcc94","ios":"levelo://app?vid=37b7f341-16d7-4eb9-9d63-c0dc411fcc94"},"vehicle_type_id":"4","last_reported":1771486859,"current_range_meters":19200,"station_id":"ce4bhn12rcd13ifvqgpg","pricing_plan_id":"cebpf4jnsgd1na2vs0mg"},{"bike_id":"d2bb17c7-6558-4b9c-ae8a-0d2292552853","system_id":"levelo_inurba_marseille","lat":43.28464,"lon":5.4841,"is_reserved":false,"is_disabled":false,"rental_uris":{"android":"levelo://app?vid=d2bb17c7-6558-4b9c-ae8a-0d2292552853","ios":"levelo://app?vid=d2bb17c7-6558-4b9c-ae8a-0d2292552853"},"vehicle_type_id":"4","last_reported":1771486859,"current_range_meters":35600,"station_id":"","pricing_plan_id":"cebpf4jnsgd1na2vs0mg"},{"bike_id":"da4093a5-6673-43a8-b7ee-b4859a45cac4","system_id":"levelo_inurba_marseille","lat":43.24397,"lon":5.37075,"is_reserved":false,"is_disabled":false,"rental_uris":{"android":"levelo://app?vid=da4093a5-6673-43a8-b7ee-b4859a45cac4","ios":"levelo://app?vid=da4093a5-6673-43a8-b7ee-b4859a45cac4"},"vehicle_type_id":"4","last_reported":1771486859,"current_range_meters":7200,"station_id":"ce4bhhh2rcd13ifvqfk0","pricing_plan_id":"cebpf4jnsgd1na2vs0mg"},{"bike_id":"d0efee54-ca3b-413f-be50-86575cf0614e","system_id":"levelo_inurba_marseille","lat":43.302806,"lon":5.400674,"is_reserved":false,"is_disabled":true,"rental_uris":{"android":"levelo://app?vid=d0efee54-ca3b-413f-be50-86575cf0614e","ios":"levelo://app?vid=d0efee54-ca3b-413f-be50-86575cf0614e"},"vehicle_type_id":"4","last_reported":1771486859,"current_range_meters":7200,"station_id":"ce4bgvh2rcd13ifvqcs0","pricing_plan_id":"cebpf4jnsgd1na2vs0mg"},{"bike_id":"7cc7ae6d-fe1b-4556-aa28-0dd3a5e0cb66","system_id":"levelo_inurba_marseille","lat":43.287286,"lon":5.360932,"is_reserved":false,"is_disabled":false,"rental_uris":{"android":"levelo://app?vid=7cc7ae6d-fe1b-4556-aa28-0dd3a5e0cb66","ios":"levelo://app?vid=7cc7ae6d-fe1b-4556-aa28-0dd3a5e0cb66"},"vehicle_type_id":"4","last_reported":1771486859,"current_range_meters":37600,"station_id":"cki0cbj6b192h4jlfktg","pricing_plan_id":"cebpf4jnsgd1na2vs0mg"},{"bike_id":"e6c1de9c-2deb-4b67-aa84-2176530c24d5","system_id":"levelo_inurba_marseille","lat":43.28849,"lon":5.39321,"is_reserved":false,"is_disabled":false,"rental_uris":{"android":"levelo://app?vid=e6c1de9c-2deb-4b67-aa84-2176530c24d5","ios":"levelo://app?vid=e6c1de9c-2deb-4b67-aa84-2176530c24d5"},"vehicle_type_id":"4","last_reported":1771486859,"current_range_meters":38000,"station_id":"ce4bh2p2rcd13ifvqdi0","pricing_plan_id":"cebpf4jnsgd1na2vs0mg"},{"bike_id":"c751c98a-f041-4d81-bbe6-64dfd69e1e30","system_id":"levelo_inurba_marseille","lat":43.27206,"lon":5.39193,"is_reserved":false,"is_disabled":false,"rental_uris":{"android":"levelo://app?vid=c751c98a-f041-4d81-bbe6-64dfd69e1e30","ios":"levelo://app?vid=c751c98a-f041-4d81-bbe6-64dfd69e1e30"},"vehicle_type_id":"4","last_reported":1771486859,"current_range_meters":30800,"station_id":"ce4bhhp2rcd13ifvqfm0","pricing_plan_id":"cebpf4jnsgd1na2vs0mg"},{"bike_id":"0755867f-5640-414a-b41f-a3c933ce811e","system_id":"levelo_inurba_marseille","lat":43.29026,"lon":5.3812,"is_reserved":false,"is_disabled":false,"rental_uris":{"android":"levelo://app?vid=0755867f-5640-414a-b41f-a3c933ce811e","ios":"levelo://app?vid=0755867f-5640-414a-b41f-a3c933ce811e"},"vehicle_type_id":"4","last_reported":1771486859,"current_range_meters":33600,"station_id":"ce4bh4p2rcd13ifvqe1g","pricing_plan_id":"cebpf4jnsgd1na2vs0mg"},{"bike_id":"351bcd66-96e5-4e62-ae12-2c87a2f81846","system_id":"levelo_inurba_marseille","lat":43.27559,"lon":5.38431,"is_reserved":false,"is_disabled":false,"rental_uris":{"android":"levelo://app?vid=351bcd66-96e5-4e62-ae12-2c87a2f81846","ios":"levelo://app?vid=351bcd66-96e5-4e62-ae12-2c87a2f81846"},"vehicle_type_id":"4","last_reported":1771486859,"current_range_meters":39200,"station_id":"ce4bhh92rcd13ifvqfi0","pricing_plan_id":"cebpf4jnsgd1na2vs0mg"},{"bike_id":"1c09d9bd-54fb-4be8-81ee-d9e761e8a40a","system_id":"levelo_inurba_marseille","lat":43.32447,"lon":5.40453,"is_reserved":false,"is_disabled":false,"rental_uris":{"android":"levelo://app?vid=1c09d9bd-54fb-4be8-81ee-d9e761e8a40a","ios":"levelo://app?vid=1c09d9bd-54fb-4be8-81ee-d9e761e8a40a"},"vehicle_type_id":"4","last_reported":1771486859,"current_range_meters":28800,"station_id":"","pricing_plan_id":"cebpf4jnsgd1na2vs0mg"},{"bike_id":"995dd4aa-d943-4547-aee8-c3325bdb05ae","system_id":"levelo_inurba_marseille","lat":43.31284,"lon":5.40132,"is_reserved":false,"is_disabled":true,"rental_uris":{"android":"levelo://app?vid=995dd4aa-d943-4547-aee8-c3325bdb05ae","ios":"levelo://app?vid=995dd4aa-d943-4547-aee8-c3325bdb05ae"},"vehicle_type_id":"4","last_reported":1771486859,"current_range_meters":22400,"station_id":"ce4bh092rcd13ifvqd30","pricing_plan_id":"cebpf4jnsgd1na2vs0mg"},{"bike_id":"0d556e9f-0611-4f3c-8a2c-f68279a59dec","system_id":"levelo_inurba_marseille","lat":43.2861,"lon":5.3511,"is_reserved":false,"is_disabled":false,"rental_uris":{"android":"levelo://app?vid=0d556e9f-0611-4f3c-8a2c-f68279a59dec","ios":"levelo://app?vid=0d556e9f-0611-4f3c-8a2c-f68279a59dec"},"vehicle_type_id":"4","last_reported":1771486859,"current_range_meters":29600,"station_id":"ce4bhch2rcd13ifvqeug","pricing_plan_id":"cebpf4jnsgd1na2vs0mg"},{"bike_id":"2bc11330-0c0c-49bb-9a81-5405a305d1d2","system_id":"levelo_inurba_marseille","lat":43.28469,"lon":5.38428,"is_reserved":false,"is_disabled":false,"rental_uris":{"android":"levelo://app?vid=2bc11330-0c0c-49bb-9a81-5405a305d1d2","ios":"levelo://app?vid=2bc11330-0c0c-49bb-9a81-5405a305d1d2"},"vehicle_type_id":"4","last_reported":1771486859,"current_range_meters":39200,"station_id":"ce4bh512rcd13ifvqe3g","pricing_plan_id":"cebpf4jnsgd1na2vs0mg"},{"bike_id":"97e5b8bb-9ce2-4a3e-b4a9-8b7acc5a9dcc","system_id":"levelo_inurba_marseille","lat":43.29214,"lon":5.3609,"is_reserved":false,"is_disabled":false,"rental_uris":{"android":"levelo://app?vid=97e5b8bb-9ce2-4a3e-b4a9-8b7acc5a9dcc","ios":"levelo://app?vid=97e5b8bb-9ce2-4a3e-b4a9-8b7acc5a9dcc"},"vehicle_type_id":"4","last_reported":1771486859,"current_range_meters":38800,"station_id":"ce4bhbh2rcd13ifvqeqg","pricing_plan_id":"cebpf4jnsgd1na2vs0mg"},{"bike_id":"420c5861-db94-4f0d-a547-0e7febfa4863","system_id":"levelo_inurba_marseille","lat":43.29548,"lon":5.38529,"is_reserved":false,"is_disabled":false,"rental_uris":{"android":"levelo://app?vid=420c5861-db94-4f0d-a547-0e7febfa4863","ios":"levelo://app?vid=420c5861-db94-4f0d-a547-0e7febfa4863"},"vehicle_type_id":"4","last_reported":1771486859,"current_range_meters":20000,"station_id":"ce4bgih2rcd13ifvqba0","pricing_plan_id":"cebpf4jnsgd1na2vs0mg"},{"bike_id":"0c56def1-6f99-4c0b-8e96-276ff395e269","system_id":"levelo_inurba_marseille","lat":43.292,"lon":5.39315,"is_reserved":false,"is_disabled":false,"rental_uris":{"android":"levelo://app?vid=0c56def1-6f99-4c0b-8e96-276ff395e269","ios":"levelo://app?vid=0c56def1-6f99-4c0b-8e96-276ff395e269"},"vehicle_type_id":"4","last_reported":1771486859,"current_range_meters":36000,"station_id":"ce4bh192rcd13ifvqdd0","pricing_plan_id":"cebpf4jnsgd1na2vs0mg"},{"bike_id":"9daa25c7-d524-46ae-8d41-0a3c36c8c2a4","system_id":"levelo_inurba_marseille","lat":43.29024,"lon":5.40005,"is_reserved":false,"is_disabled":false,"rental_uris":{"android":"levelo://app?vid=9daa25c7-d524-46ae-8d41-0a3c36c8c2a4","ios":"levelo://app?vid=9daa25c7-d524-46ae-8d41-0a3c36c8c2a4"},"vehicle_type_id":"4","last_reported":1771486859,"current_range_meters":16800,"station_id":"ce4bh392rcd13ifvqdm0","pricing_plan_id":"cebpf4jnsgd1na2vs0mg"},{"bike_id":"748e0f94-1d84-4e99-a2d8-3ed4f6188416","system_id":"levelo_inurba_marseille","lat":43.25087,"lon":5.40357,"is_reserved":false,"is_disabled":false,"rental_uris":{"android":"levelo://app?vid=748e0f94-1d84-4e99-a2d8-3ed4f6188416","ios":"levelo://app?vid=748e0f94-1d84-4e99-a2d8-3ed4f6188416"},"vehicle_type_id":"4","last_reported":1771486859,"current_range_meters":33200,"station_id":"ce4bhlh2rcd13ifvqgig","pricing_plan_id":"cebpf4jnsgd1na2vs0mg"},{"bike_id":"27ff9886-ae8f-4983-bb6a-dbb7908dc149","system_id":"levelo_inurba_marseille","lat":43.31242,"lon":5.40208,"is_reserved":false,"is_disabled":false,"rental_uris":{"android":"levelo://app?vid=27ff9886-ae8f-4983-bb6a-dbb7908dc149","ios":"levelo://app?vid=27ff9886-ae8f-4983-bb6a-dbb7908dc149"},"vehicle_type_id":"4","last_reported":1771486859,"current_range_meters":35600,"station_id":"ce4bh092rcd13ifvqd30","pricing_plan_id":"cebpf4jnsgd1na2vs0mg"},{"bike_id":"2738c3bf-3292-418f-9c60-ee3edd706454","system_id":"levelo_inurba_marseille","lat":43.2792,"lon":5.39587,"is_reserved":false,"is_disabled":false,"rental_uris":{"android":"levelo://app?vid=2738c3bf-3292-418f-9c60-ee3edd706454","ios":"levelo://app?vid=2738c3bf-3292-418f-9c60-ee3edd706454"},"vehicle_type_id":"4","last_reported":1771486859,"current_range_meters":28800,"station_id":"ce4bhf92rcd13ifvqf40","pricing_plan_id":"cebpf4jnsgd1na2vs0mg"},{"bike_id":"f2d30de6-4c83-468b-9ea0-b4022ee843f0","system_id":"levelo_inurba_marseille","lat":43.32365,"lon":5.36727,"is_reserved":false,"is_disabled":false,"rental_uris":{"android":"levelo://app?vid=f2d30de6-4c83-468b-9ea0-b4022ee843f0","ios":"levelo://app?vid=f2d30de6-4c83-468b-9ea0-b4022ee843f0"},"vehicle_type_id":"4","last_reported":1771486859,"current_range_meters":26000,"station_id":"ce4bhsh2rcd13ifvqi2g","pricing_plan_id":"cebpf4jnsgd1na2vs0mg"},{"bike_id":"96d49a0a-bcf2-4d4e-a356-0435ffbd5d97","system_id":"levelo_inurba_marseille","lat":43.3248,"lon":5.38305,"is_reserved":false,"is_disabled":false,"rental_uris":{"android":"levelo://app?vid=96d49a0a-bcf2-4d4e-a356-0435ffbd5d97","ios":"levelo://app?vid=96d49a0a-bcf2-4d4e-a356-0435ffbd5d97"},"vehicle_type_id":"4","last_reported":1771486859,"current_range_meters":28400,"station_id":"st_d4asgbiv49dc73anf9m0","pricing_plan_id":"cebpf4jnsgd1na2vs0mg"},{"bike_id":"d603907d-36d6-4239-ba61-7fa0e01e0adf","system_id":"levelo_inurba_marseille","lat":43.30922,"lon":5.36836,"is_reserved":false,"is_disabled":false,"rental_uris":{"android":"levelo://app?vid=d603907d-36d6-4239-ba61-7fa0e01e0adf","ios":"levelo://app?vid=d603907d-36d6-4239-ba61-7fa0e01e0adf"},"vehicle_type_id":"4","last_reported":1771486859,"current_range_meters":20400,"station_id":"ce4bgn92rcd13ifvqbvg","pricing_plan_id":"cebpf4jnsgd1na2vs0mg"},{"bike_id":"e071cb6b-00dd-46cc-bbae-0c336769674f","system_id":"levelo_inurba_marseille","lat":43.26481,"lon":5.39549,"is_reserved":false,"is_disabled":false,"rental_uris":{"android":"levelo://app?vid=e071cb6b-00dd-46cc-bbae-0c336769674f","ios":"levelo://app?vid=e071cb6b-00dd-46cc-bbae-0c336769674f"},"vehicle_type_id":"4","last_reported":1771486859,"current_range_meters":30000,"station_id":"ce4bhi12rcd13ifvqfq0","pricing_plan_id":"cebpf4jnsgd1na2vs0mg"},{"bike_id":"01c62984-a2ae-4489-84a9-6a173aa3a0f3","system_id":"levelo_inurba_marseille","lat":43.31212,"lon":5.36889,"is_reserved":false,"is_disabled":true,"rental_uris":{"android":"levelo://app?vid=01c62984-a2ae-4489-84a9-6a173aa3a0f3","ios":"levelo://app?vid=01c62984-a2ae-4489-84a9-6a173aa3a0f3"},"vehicle_type_id":"4","last_reported":1771486859,"current_range_meters":26800,"station_id":"ce4bgl92rcd13ifvqbq0","pricing_plan_id":"cebpf4jnsgd1na2vs0mg"},{"bike_id":"0f10428a-bdc4-429e-8e33-e4cb0dd1ce62","system_id":"levelo_inurba_marseille","lat":43.2798,"lon":5.3877,"is_reserved":false,"is_disabled":false,"rental_uris":{"android":"levelo://app?vid=0f10428a-bdc4-429e-8e33-e4cb0dd1ce62","ios":"levelo://app?vid=0f10428a-bdc4-429e-8e33-e4cb0dd1ce62"},"vehicle_type_id":"4","last_reported":1771486859,"current_range_meters":39200,"station_id":"ce4bhg12rcd13ifvqf80","pricing_plan_id":"cebpf4jnsgd1na2vs0mg"},{"bike_id":"e9c8c195-4938-4494-9005-66aa872cbce1","system_id":"levelo_inurba_marseille","lat":43.312259,"lon":5.368702,"is_reserved":false,"is_disabled":false,"rental_uris":{"android":"levelo://app?vid=e9c8c195-4938-4494-9005-66aa872cbce1","ios":"levelo://app?vid=e9c8c195-4938-4494-9005-66aa872cbce1"},"vehicle_type_id":"4","last_reported":1771486859,"current_range_meters":18000,"station_id":"ce4bgl92rcd13ifvqbq0","pricing_plan_id":"cebpf4jnsgd1na2vs0mg"},{"bike_id":"e4ed0b5d-881b-4b60-82dc-fcefb5f5d430","system_id":"levelo_inurba_marseille","lat":43.29553,"lon":5.42275,"is_reserved":false,"is_disabled":false,"rental_uris":{"android":"levelo://app?vid=e4ed0b5d-881b-4b60-82dc-fcefb5f5d430","ios":"levelo://app?vid=e4ed0b5d-881b-4b60-82dc-fcefb5f5d430"},"vehicle_type_id":"4","last_reported":1771486859,"current_range_meters":38800,"station_id":"ce4bhph2rcd13ifvqhdg","pricing_plan_id":"cebpf4jnsgd1na2vs0mg"},{"bike_id":"ffec1bfe-aab9-40f7-9784-2a3d69fcf5ba","system_id":"levelo_inurba_marseille","lat":43.29575,"lon":5.37493,"is_reserved":false,"is_disabled":false,"rental_uris":{"android":"levelo://app?vid=ffec1bfe-aab9-40f7-9784-2a3d69fcf5ba","ios":"levelo://app?vid=ffec1bfe-aab9-40f7-9784-2a3d69fcf5ba"},"vehicle_type_id":"4","last_reported":1771486859,"current_range_meters":36000,"station_id":"ce4bgh92rcd13ifvqb50","pricing_plan_id":"cebpf4jnsgd1na2vs0mg"},{"bike_id":"a2aac6db-ff2a-410f-9224-52b6b4391027","system_id":"levelo_inurba_marseille","lat":43.24986,"lon":5.40474,"is_reserved":false,"is_disabled":false,"rental_uris":{"android":"levelo://app?vid=a2aac6db-ff2a-410f-9224-52b6b4391027","ios":"levelo://app?vid=a2aac6db-ff2a-410f-9224-52b6b4391027"},"vehicle_type_id":"4","last_reported":1771486859,"current_range_meters":25200,"station_id":"st_d2ngiaodas8pm72gd1h0","pricing_plan_id":"cebpf4jnsgd1na2vs0mg"},{"bike_id":"81d0320a-a61a-4244-81e4-d2e5c4269b7c","system_id":"levelo_inurba_marseille","lat":43.25577,"lon":5.38241,"is_reserved":false,"is_disabled":false,"rental_uris":{"android":"levelo://app?vid=81d0320a-a61a-4244-81e4-d2e5c4269b7c","ios":"levelo://app?vid=81d0320a-a61a-4244-81e4-d2e5c4269b7c"},"vehicle_type_id":"4","last_reported":1771486859,"current_range_meters":10800,"station_id":"ce4bhih2rcd13ifvqfs0","pricing_plan_id":"cebpf4jnsgd1na2vs0mg"},{"bike_id":"06df2014-e9a7-4eea-a10c-90e91f6aa7ca","system_id":"levelo_inurba_marseille","lat":43.2649,"lon":5.39554,"is_reserved":false,"is_disabled":false,"rental_uris":{"android":"levelo://app?vid=06df2014-e9a7-4eea-a10c-90e91f6aa7ca","ios":"levelo://app?vid=06df2014-e9a7-4eea-a10c-90e91f6aa7ca"},"vehicle_type_id":"4","last_reported":1771486859,"current_range_meters":28400,"station_id":"ce4bhi12rcd13ifvqfq0","pricing_plan_id":"cebpf4jnsgd1na2vs0mg"},{"bike_id":"d2fb2733-88e8-46aa-a903-dc7e062bbe51","system_id":"levelo_inurba_marseille","lat":43.2606,"lon":5.39397,"is_reserved":false,"is_disabled":true,"rental_uris":{"android":"levelo://app?vid=d2fb2733-88e8-46aa-a903-dc7e062bbe51","ios":"levelo://app?vid=d2fb2733-88e8-46aa-a903-dc7e062bbe51"},"vehicle_type_id":"4","last_reported":1771486859,"current_range_meters":2800,"station_id":"ce4bhh92rcd13ifvqfj0","pricing_plan_id":"cebpf4jnsgd1na2vs0mg"},{"bike_id":"091f7dbf-a446-496b-9e4a-a29b4a835f56","system_id":"levelo_inurba_marseille","lat":43.27572,"lon":5.39103,"is_reserved":false,"is_disabled":true,"rental_uris":{"android":"levelo://app?vid=091f7dbf-a446-496b-9e4a-a29b4a835f56","ios":"levelo://app?vid=091f7dbf-a446-496b-9e4a-a29b4a835f56"},"vehicle_type_id":"4","last_reported":1771486859,"current_range_meters":10000,"station_id":"","pricing_plan_id":"cebpf4jnsgd1na2vs0mg"},{"bike_id":"659923c1-de2a-425b-b089-253fcf51c04f","system_id":"levelo_inurba_marseille","lat":43.24176,"lon":5.36391,"is_reserved":false,"is_disabled":false,"rental_uris":{"android":"levelo://app?vid=659923c1-de2a-425b-b089-253fcf51c04f","ios":"levelo://app?vid=659923c1-de2a-425b-b089-253fcf51c04f"},"vehicle_type_id":"4","last_reported":1771486859,"current_range_meters":25200,"station_id":"cpo36qri1sfpv3e86is0","pricing_plan_id":"cebpf4jnsgd1na2vs0mg"},{"bike_id":"388b1bc2-2ad3-42a2-a7e4-94066aa5b495","system_id":"levelo_inurba_marseille","lat":43.29967,"lon":5.38491,"is_reserved":false,"is_disabled":true,"rental_uris":{"android":"levelo://app?vid=388b1bc2-2ad3-42a2-a7e4-94066aa5b495","ios":"levelo://app?vid=388b1bc2-2ad3-42a2-a7e4-94066aa5b495"},"vehicle_type_id":"4","last_reported":1771486859,"current_range_meters":38400,"station_id":"ce4bgj92rcd13ifvqbd0","pricing_plan_id":"cebpf4jnsgd1na2vs0mg"},{"bike_id":"74c885ab-64ab-448e-99c0-d2dd694de67f","system_id":"levelo_inurba_marseille","lat":43.28182,"lon":5.42651,"is_reserved":false,"is_disabled":false,"rental_uris":{"android":"levelo://app?vid=74c885ab-64ab-448e-99c0-d2dd694de67f","ios":"levelo://app?vid=74c885ab-64ab-448e-99c0-d2dd694de67f"},"vehicle_type_id":"4","last_reported":1771486859,"current_range_meters":14400,"station_id":"ce4bhnh2rcd13ifvqgug","pricing_plan_id":"cebpf4jnsgd1na2vs0mg"},{"bike_id":"7a15b882-a18b-490f-bd79-31c4f4320458","system_id":"levelo_inurba_marseille","lat":43.30548,"lon":5.37266,"is_reserved":false,"is_disabled":false,"rental_uris":{"android":"levelo://app?vid=7a15b882-a18b-490f-bd79-31c4f4320458","ios":"levelo://app?vid=7a15b882-a18b-490f-bd79-31c4f4320458"},"vehicle_type_id":"4","last_reported":1771486859,"current_range_meters":28400,"station_id":"","pricing_plan_id":"cebpf4jnsgd1na2vs0mg"},{"bike_id":"19d3787d-1c8e-4249-902d-f5e776447478","system_id":"levelo_inurba_marseille","lat":43.25518,"lon":5.3767,"is_reserved":false,"is_disabled":false,"rental_uris":{"android":"levelo://app?vid=19d3787d-1c8e-4249-902d-f5e776447478","ios":"levelo://app?vid=19d3787d-1c8e-4249-902d-f5e776447478"},"vehicle_type_id":"4","last_reported":1771486859,"current_range_meters":28400,"station_id":"ce4bhh12rcd13ifvqff0","pricing_plan_id":"cebpf4jnsgd1na2vs0mg"},{"bike_id":"5c0952e3-3469-48d1-b0ac-88596b084e30","system_id":"levelo_inurba_marseille","lat":43.33757,"lon":5.37498,"is_reserved":false,"is_disabled":false,"rental_uris":{"android":"levelo://app?vid=5c0952e3-3469-48d1-b0ac-88596b084e30","ios":"levelo://app?vid=5c0952e3-3469-48d1-b0ac-88596b084e30"},"vehicle_type_id":"4","last_reported":1771486859,"current_range_meters":38400,"station_id":"","pricing_plan_id":"cebpf4jnsgd1na2vs0mg"},{"bike_id":"3e519729-731e-4802-89f2-ee8668e3d7db","system_id":"levelo_inurba_marseille","lat":43.29915,"lon":5.38177,"is_reserved":false,"is_disabled":false,"rental_uris":{"android":"levelo://app?vid=3e519729-731e-4802-89f2-ee8668e3d7db","ios":"levelo://app?vid=3e519729-731e-4802-89f2-ee8668e3d7db"},"vehicle_type_id":"4","last_reported":1771486859,"current_range_meters":37600,"station_id":"ce4bgj12rcd13ifvqbc0","pricing_plan_id":"cebpf4jnsgd1na2vs0mg"},{"bike_id":"0d3daa30-3ce2-4060-84bc-06344c4adf07","system_id":"levelo_inurba_marseille","lat":43.29038,"lon":5.37566,"is_reserved":false,"is_disabled":false,"rental_uris":{"android":"levelo://app?vid=0d3daa30-3ce2-4060-84bc-06344c4adf07","ios":"levelo://app?vid=0d3daa30-3ce2-4060-84bc-06344c4adf07"},"vehicle_type_id":"4","last_reported":1771486859,"current_range_meters":14400,"station_id":"ce4bh692rcd13ifvqe90","pricing_plan_id":"cebpf4jnsgd1na2vs0mg"},{"bike_id":"fb88335b-6930-4438-a3ac-11dea9610ee4","system_id":"levelo_inurba_marseille","lat":43.28087,"lon":5.42861,"is_reserved":false,"is_disabled":false,"rental_uris":{"android":"levelo://app?vid=fb88335b-6930-4438-a3ac-11dea9610ee4","ios":"levelo://app?vid=fb88335b-6930-4438-a3ac-11dea9610ee4"},"vehicle_type_id":"4","last_reported":1771486859,"current_range_meters":17600,"station_id":"","pricing_plan_id":"cebpf4jnsgd1na2vs0mg"},{"bike_id":"166e35c4-ba58-48ae-81a6-945bb5d753ca","system_id":"levelo_inurba_marseille","lat":43.24627,"lon":5.38929,"is_reserved":false,"is_disabled":false,"rental_uris":{"android":"levelo://app?vid=166e35c4-ba58-48ae-81a6-945bb5d753ca","ios":"levelo://app?vid=166e35c4-ba58-48ae-81a6-945bb5d753ca"},"vehicle_type_id":"4","last_reported":1771486859,"current_range_meters":20000,"station_id":"ce4bhg12rcd13ifvqf60","pricing_plan_id":"cebpf4jnsgd1na2vs0mg"},{"bike_id":"e52969ea-e41a-4b4f-8b3e-e0a9baa48bf6","system_id":"levelo_inurba_marseille","lat":43.294883,"lon":5.43312,"is_reserved":false,"is_disabled":true,"rental_uris":{"android":"levelo://app?vid=e52969ea-e41a-4b4f-8b3e-e0a9baa48bf6","ios":"levelo://app?vid=e52969ea-e41a-4b4f-8b3e-e0a9baa48bf6"},"vehicle_type_id":"4","last_reported":1771486859,"current_range_meters":38000,"station_id":"st_d3j5ugp08ojc73fj9d10","pricing_plan_id":"cebpf4jnsgd1na2vs0mg"},{"bike_id":"1e69471d-55ba-4e91-81c1-2c61c1be7739","system_id":"levelo_inurba_marseille","lat":43.26383,"lon":5.41049,"is_reserved":false,"is_disabled":false,"rental_uris":{"android":"levelo://app?vid=1e69471d-55ba-4e91-81c1-2c61c1be7739","ios":"levelo://app?vid=1e69471d-55ba-4e91-81c1-2c61c1be7739"},"vehicle_type_id":"4","last_reported":1771486859,"current_range_meters":36400,"station_id":"st_d4e5ca6na9uc73bfl5fg","pricing_plan_id":"cebpf4jnsgd1na2vs0mg"},{"bike_id":"2cbbc2f5-92a3-4c38-a0e2-181ee10ae410","system_id":"levelo_inurba_marseille","lat":43.27474,"lon":5.42458,"is_reserved":false,"is_disabled":false,"rental_uris":{"android":"levelo://app?vid=2cbbc2f5-92a3-4c38-a0e2-181ee10ae410","ios":"levelo://app?vid=2cbbc2f5-92a3-4c38-a0e2-181ee10ae410"},"vehicle_type_id":"4","last_reported":1771486859,"current_range_meters":36000,"station_id":"ce4bhn92rcd13ifvqgrg","pricing_plan_id":"cebpf4jnsgd1na2vs0mg"},{"bike_id":"77c84e28-a226-4c9d-bcc9-76b7f8c0d11c","system_id":"levelo_inurba_marseille","lat":43.24576,"lon":5.3954,"is_reserved":false,"is_disabled":true,"rental_uris":{"android":"levelo://app?vid=77c84e28-a226-4c9d-bcc9-76b7f8c0d11c","ios":"levelo://app?vid=77c84e28-a226-4c9d-bcc9-76b7f8c0d11c"},"vehicle_type_id":"4","last_reported":1771486859,"current_range_meters":36000,"station_id":"ce4bhlp2rcd13ifvqgjg","pricing_plan_id":"cebpf4jnsgd1na2vs0mg"},{"bike_id":"c9b743d2-ea19-486c-9150-6905c9d98a27","system_id":"levelo_inurba_marseille","lat":43.26553,"lon":5.40331,"is_reserved":false,"is_disabled":false,"rental_uris":{"android":"levelo://app?vid=c9b743d2-ea19-486c-9150-6905c9d98a27","ios":"levelo://app?vid=c9b743d2-ea19-486c-9150-6905c9d98a27"},"vehicle_type_id":"4","last_reported":1771486859,"current_range_meters":23200,"station_id":"ce4bhmp2rcd13ifvqgng","pricing_plan_id":"cebpf4jnsgd1na2vs0mg"},{"bike_id":"55e798b8-c3a1-4483-a648-b2dc68f4f4d3","system_id":"levelo_inurba_marseille","lat":43.24695,"lon":5.38137,"is_reserved":false,"is_disabled":false,"rental_uris":{"android":"levelo://app?vid=55e798b8-c3a1-4483-a648-b2dc68f4f4d3","ios":"levelo://app?vid=55e798b8-c3a1-4483-a648-b2dc68f4f4d3"},"vehicle_type_id":"4","last_reported":1771486859,"current_range_meters":10000,"station_id":"ce4bhih2rcd13ifvqfr0","pricing_plan_id":"cebpf4jnsgd1na2vs0mg"},{"bike_id":"fc1aa6b8-6e5e-467f-92e9-aae02099ae9d","system_id":"levelo_inurba_marseille","lat":43.24628,"lon":5.43173,"is_reserved":false,"is_disabled":false,"rental_uris":{"android":"levelo://app?vid=fc1aa6b8-6e5e-467f-92e9-aae02099ae9d","ios":"levelo://app?vid=fc1aa6b8-6e5e-467f-92e9-aae02099ae9d"},"vehicle_type_id":"4","last_reported":1771486859,"current_range_meters":8000,"station_id":"st_d2m6c4gdas8pm72e190g","pricing_plan_id":"cebpf4jnsgd1na2vs0mg"},{"bike_id":"67285332-5652-4c2b-b8be-d99c6194277d","system_id":"levelo_inurba_marseille","lat":43.26056,"lon":5.39413,"is_reserved":false,"is_disabled":false,"rental_uris":{"android":"levelo://app?vid=67285332-5652-4c2b-b8be-d99c6194277d","ios":"levelo://app?vid=67285332-5652-4c2b-b8be-d99c6194277d"},"vehicle_type_id":"4","last_reported":1771486859,"current_range_meters":24800,"station_id":"ce4bhh92rcd13ifvqfj0","pricing_plan_id":"cebpf4jnsgd1na2vs0mg"},{"bike_id":"247929ef-06db-4867-a845-71bf576c71e1","system_id":"levelo_inurba_marseille","lat":43.28854,"lon":5.42513,"is_reserved":false,"is_disabled":false,"rental_uris":{"android":"levelo://app?vid=247929ef-06db-4867-a845-71bf576c71e1","ios":"levelo://app?vid=247929ef-06db-4867-a845-71bf576c71e1"},"vehicle_type_id":"4","last_reported":1771486859,"current_range_meters":37600,"station_id":"st_d3b462108ojc7389ooeg","pricing_plan_id":"cebpf4jnsgd1na2vs0mg"},{"bike_id":"4585df67-5569-4771-aa03-6e87fdd568df","system_id":"levelo_inurba_marseille","lat":43.23149,"lon":5.43706,"is_reserved":false,"is_disabled":false,"rental_uris":{"android":"levelo://app?vid=4585df67-5569-4771-aa03-6e87fdd568df","ios":"levelo://app?vid=4585df67-5569-4771-aa03-6e87fdd568df"},"vehicle_type_id":"4","last_reported":1771486859,"current_range_meters":27600,"station_id":"ce4bhmp2rcd13ifvqgog","pricing_plan_id":"cebpf4jnsgd1na2vs0mg"},{"bike_id":"1bdf262b-5b53-4108-b666-339efbe4431c","system_id":"levelo_inurba_marseille","lat":43.2899,"lon":5.38142,"is_reserved":false,"is_disabled":true,"rental_uris":{"android":"levelo://app?vid=1bdf262b-5b53-4108-b666-339efbe4431c","ios":"levelo://app?vid=1bdf262b-5b53-4108-b666-339efbe4431c"},"vehicle_type_id":"4","last_reported":1771486859,"current_range_meters":34800,"station_id":"ce4bh4p2rcd13ifvqe1g","pricing_plan_id":"cebpf4jnsgd1na2vs0mg"},{"bike_id":"57723f7a-061e-46b7-a0ae-b6210e118d77","system_id":"levelo_inurba_marseille","lat":43.30927,"lon":5.36817,"is_reserved":false,"is_disabled":false,"rental_uris":{"android":"levelo://app?vid=57723f7a-061e-46b7-a0ae-b6210e118d77","ios":"levelo://app?vid=57723f7a-061e-46b7-a0ae-b6210e118d77"},"vehicle_type_id":"4","last_reported":1771486859,"current_range_meters":30800,"station_id":"ce4bgn92rcd13ifvqbvg","pricing_plan_id":"cebpf4jnsgd1na2vs0mg"},{"bike_id":"c1b26ae8-8837-4bd2-b0e2-b890b8516fff","system_id":"levelo_inurba_marseille","lat":43.31235,"lon":5.36872,"is_reserved":false,"is_disabled":false,"rental_uris":{"android":"levelo://app?vid=c1b26ae8-8837-4bd2-b0e2-b890b8516fff","ios":"levelo://app?vid=c1b26ae8-8837-4bd2-b0e2-b890b8516fff"},"vehicle_type_id":"4","last_reported":1771486859,"current_range_meters":38000,"station_id":"ce4bgl92rcd13ifvqbq0","pricing_plan_id":"cebpf4jnsgd1na2vs0mg"},{"bike_id":"10ea0070-e613-4a91-aafc-71c23d5bafe1","system_id":"levelo_inurba_marseille","lat":43.31213,"lon":5.36864,"is_reserved":false,"is_disabled":false,"rental_uris":{"android":"levelo://app?vid=10ea0070-e613-4a91-aafc-71c23d5bafe1","ios":"levelo://app?vid=10ea0070-e613-4a91-aafc-71c23d5bafe1"},"vehicle_type_id":"4","last_reported":1771486859,"current_range_meters":28800,"station_id":"ce4bgl92rcd13ifvqbq0","pricing_plan_id":"cebpf4jnsgd1na2vs0mg"},{"bike_id":"f4b72c32-b078-47bf-bd6e-2a4cf9260d45","system_id":"levelo_inurba_marseille","lat":43.28687,"lon":5.35508,"is_reserved":false,"is_disabled":true,"rental_uris":{"android":"levelo://app?vid=f4b72c32-b078-47bf-bd6e-2a4cf9260d45","ios":"levelo://app?vid=f4b72c32-b078-47bf-bd6e-2a4cf9260d45"},"vehicle_type_id":"4","last_reported":1771486859,"current_range_meters":32400,"station_id":"","pricing_plan_id":"cebpf4jnsgd1na2vs0mg"},{"bike_id":"786db946-01e6-401d-825a-5be2365421b8","system_id":"levelo_inurba_marseille","lat":43.2558,"lon":5.38252,"is_reserved":false,"is_disabled":false,"rental_uris":{"android":"levelo://app?vid=786db946-01e6-401d-825a-5be2365421b8","ios":"levelo://app?vid=786db946-01e6-401d-825a-5be2365421b8"},"vehicle_type_id":"4","last_reported":1771486859,"current_range_meters":18000,"station_id":"ce4bhih2rcd13ifvqfs0","pricing_plan_id":"cebpf4jnsgd1na2vs0mg"},{"bike_id":"cdc99c23-84d2-4e46-9c6b-c07a65ce86fb","system_id":"levelo_inurba_marseille","lat":43.27406,"lon":5.39406,"is_reserved":false,"is_disabled":false,"rental_uris":{"android":"levelo://app?vid=cdc99c23-84d2-4e46-9c6b-c07a65ce86fb","ios":"levelo://app?vid=cdc99c23-84d2-4e46-9c6b-c07a65ce86fb"},"vehicle_type_id":"4","last_reported":1771486859,"current_range_meters":12400,"station_id":"ce4bhdp2rcd13ifvqf20","pricing_plan_id":"cebpf4jnsgd1na2vs0mg"},{"bike_id":"f5d22547-d06e-4fad-85c6-2cbbdcd29ad4","system_id":"levelo_inurba_marseille","lat":43.29143,"lon":5.37253,"is_reserved":false,"is_disabled":false,"rental_uris":{"android":"levelo://app?vid=f5d22547-d06e-4fad-85c6-2cbbdcd29ad4","ios":"levelo://app?vid=f5d22547-d06e-4fad-85c6-2cbbdcd29ad4"},"vehicle_type_id":"4","last_reported":1771486859,"current_range_meters":28800,"station_id":"","pricing_plan_id":"cebpf4jnsgd1na2vs0mg"},{"bike_id":"b7832889-4ff5-4ee2-9a8d-e7dc3953a51e","system_id":"levelo_inurba_marseille","lat":43.24809,"lon":5.37441,"is_reserved":false,"is_disabled":false,"rental_uris":{"android":"levelo://app?vid=b7832889-4ff5-4ee2-9a8d-e7dc3953a51e","ios":"levelo://app?vid=b7832889-4ff5-4ee2-9a8d-e7dc3953a51e"},"vehicle_type_id":"4","last_reported":1771486859,"current_range_meters":20000,"station_id":"ce4bhgh2rcd13ifvqfb0","pricing_plan_id":"cebpf4jnsgd1na2vs0mg"},{"bike_id":"6946a672-f062-4471-84f8-45eb3b2d6e19","system_id":"levelo_inurba_marseille","lat":43.27463,"lon":5.42432,"is_reserved":false,"is_disabled":false,"rental_uris":{"android":"levelo://app?vid=6946a672-f062-4471-84f8-45eb3b2d6e19","ios":"levelo://app?vid=6946a672-f062-4471-84f8-45eb3b2d6e19"},"vehicle_type_id":"4","last_reported":1771486859,"current_range_meters":4400,"station_id":"ce4bhn92rcd13ifvqgrg","pricing_plan_id":"cebpf4jnsgd1na2vs0mg"},{"bike_id":"207cc079-ea04-402c-b4a5-126924b6429c","system_id":"levelo_inurba_marseille","lat":43.31277,"lon":5.40157,"is_reserved":false,"is_disabled":false,"rental_uris":{"android":"levelo://app?vid=207cc079-ea04-402c-b4a5-126924b6429c","ios":"levelo://app?vid=207cc079-ea04-402c-b4a5-126924b6429c"},"vehicle_type_id":"4","last_reported":1771486859,"current_range_meters":39200,"station_id":"ce4bh092rcd13ifvqd30","pricing_plan_id":"cebpf4jnsgd1na2vs0mg"},{"bike_id":"becfc6a0-43e9-4656-918f-689d3f6fdabf","system_id":"levelo_inurba_marseille","lat":43.28999,"lon":5.35603,"is_reserved":false,"is_disabled":false,"rental_uris":{"android":"levelo://app?vid=becfc6a0-43e9-4656-918f-689d3f6fdabf","ios":"levelo://app?vid=becfc6a0-43e9-4656-918f-689d3f6fdabf"},"vehicle_type_id":"4","last_reported":1771486859,"current_range_meters":39200,"station_id":"ce4bhb92rcd13ifvqen0","pricing_plan_id":"cebpf4jnsgd1na2vs0mg"},{"bike_id":"a2b17400-8e5c-4ea2-af80-074b6e160bbc","system_id":"levelo_inurba_marseille","lat":43.31475,"lon":5.37303,"is_reserved":false,"is_disabled":false,"rental_uris":{"android":"levelo://app?vid=a2b17400-8e5c-4ea2-af80-074b6e160bbc","ios":"levelo://app?vid=a2b17400-8e5c-4ea2-af80-074b6e160bbc"},"vehicle_type_id":"4","last_reported":1771486859,"current_range_meters":36400,"station_id":"ce4bgt12rcd13ifvqcd0","pricing_plan_id":"cebpf4jnsgd1na2vs0mg"},{"bike_id":"a3badfd2-e294-48f5-aca1-3aa5e2d516be","system_id":"levelo_inurba_marseille","lat":43.27831,"lon":5.39206,"is_reserved":false,"is_disabled":false,"rental_uris":{"android":"levelo://app?vid=a3badfd2-e294-48f5-aca1-3aa5e2d516be","ios":"levelo://app?vid=a3badfd2-e294-48f5-aca1-3aa5e2d516be"},"vehicle_type_id":"4","last_reported":1771486859,"current_range_meters":15200,"station_id":"ce4bhjp2rcd13ifvqga0","pricing_plan_id":"cebpf4jnsgd1na2vs0mg"},{"bike_id":"8e88b741-7fc5-4239-947a-128f1d311f8c","system_id":"levelo_inurba_marseille","lat":43.29933,"lon":5.36581,"is_reserved":false,"is_disabled":false,"rental_uris":{"android":"levelo://app?vid=8e88b741-7fc5-4239-947a-128f1d311f8c","ios":"levelo://app?vid=8e88b741-7fc5-4239-947a-128f1d311f8c"},"vehicle_type_id":"4","last_reported":1771486859,"current_range_meters":37600,"station_id":"ce4bgm92rcd13ifvqbr0","pricing_plan_id":"cebpf4jnsgd1na2vs0mg"},{"bike_id":"cdcd8c42-d26a-4e42-9873-59170e37aa87","system_id":"levelo_inurba_marseille","lat":43.23061,"lon":5.35493,"is_reserved":false,"is_disabled":false,"rental_uris":{"android":"levelo://app?vid=cdcd8c42-d26a-4e42-9873-59170e37aa87","ios":"levelo://app?vid=cdcd8c42-d26a-4e42-9873-59170e37aa87"},"vehicle_type_id":"4","last_reported":1771486859,"current_range_meters":40000,"station_id":"cpo3342slgdg3j2ifvpg","pricing_plan_id":"cebpf4jnsgd1na2vs0mg"},{"bike_id":"74f93e91-fd1e-46a3-af86-8c59b80fc809","system_id":"levelo_inurba_marseille","lat":43.26234,"lon":5.40464,"is_reserved":false,"is_disabled":false,"rental_uris":{"android":"levelo://app?vid=74f93e91-fd1e-46a3-af86-8c59b80fc809","ios":"levelo://app?vid=74f93e91-fd1e-46a3-af86-8c59b80fc809"},"vehicle_type_id":"4","last_reported":1771486859,"current_range_meters":28000,"station_id":"ce4bhmh2rcd13ifvqgmg","pricing_plan_id":"cebpf4jnsgd1na2vs0mg"},{"bike_id":"1f253e4b-dee3-46d2-a7df-441486233365","system_id":"levelo_inurba_marseille","lat":43.28813,"lon":5.35921,"is_reserved":false,"is_disabled":false,"rental_uris":{"android":"levelo://app?vid=1f253e4b-dee3-46d2-a7df-441486233365","ios":"levelo://app?vid=1f253e4b-dee3-46d2-a7df-441486233365"},"vehicle_type_id":"4","last_reported":1771486859,"current_range_meters":8400,"station_id":"","pricing_plan_id":"cebpf4jnsgd1na2vs0mg"},{"bike_id":"0a2abdfd-1446-492e-8615-96268a59206e","system_id":"levelo_inurba_marseille","lat":43.2593,"lon":5.4088,"is_reserved":false,"is_disabled":false,"rental_uris":{"android":"levelo://app?vid=0a2abdfd-1446-492e-8615-96268a59206e","ios":"levelo://app?vid=0a2abdfd-1446-492e-8615-96268a59206e"},"vehicle_type_id":"4","last_reported":1771486859,"current_range_meters":6400,"station_id":"ce4bhm92rcd13ifvqglg","pricing_plan_id":"cebpf4jnsgd1na2vs0mg"},{"bike_id":"91f95071-cb44-4294-8d05-12a1be58ba9d","system_id":"levelo_inurba_marseille","lat":43.25113,"lon":5.4032,"is_reserved":false,"is_disabled":false,"rental_uris":{"android":"levelo://app?vid=91f95071-cb44-4294-8d05-12a1be58ba9d","ios":"levelo://app?vid=91f95071-cb44-4294-8d05-12a1be58ba9d"},"vehicle_type_id":"4","last_reported":1771486859,"current_range_meters":35200,"station_id":"ce4bhlh2rcd13ifvqgig","pricing_plan_id":"cebpf4jnsgd1na2vs0mg"},{"bike_id":"ed62a73a-4bd7-49f5-ba79-79b7cfcd0252","system_id":"levelo_inurba_marseille","lat":43.28414,"lon":5.34996,"is_reserved":false,"is_disabled":true,"rental_uris":{"android":"levelo://app?vid=ed62a73a-4bd7-49f5-ba79-79b7cfcd0252","ios":"levelo://app?vid=ed62a73a-4bd7-49f5-ba79-79b7cfcd0252"},"vehicle_type_id":"4","last_reported":1771486859,"current_range_meters":27600,"station_id":"ce4bhbh2rcd13ifvqepg","pricing_plan_id":"cebpf4jnsgd1na2vs0mg"},{"bike_id":"42b6100a-41f2-4d60-944d-8dd96a15e3d1","system_id":"levelo_inurba_marseille","lat":43.314289,"lon":5.3735,"is_reserved":false,"is_disabled":false,"rental_uris":{"android":"levelo://app?vid=42b6100a-41f2-4d60-944d-8dd96a15e3d1","ios":"levelo://app?vid=42b6100a-41f2-4d60-944d-8dd96a15e3d1"},"vehicle_type_id":"4","last_reported":1771486859,"current_range_meters":36400,"station_id":"","pricing_plan_id":"cebpf4jnsgd1na2vs0mg"},{"bike_id":"11c6bfff-c339-43fd-bdd1-865eec75b1f4","system_id":"levelo_inurba_marseille","lat":43.24947,"lon":5.405,"is_reserved":false,"is_disabled":false,"rental_uris":{"android":"levelo://app?vid=11c6bfff-c339-43fd-bdd1-865eec75b1f4","ios":"levelo://app?vid=11c6bfff-c339-43fd-bdd1-865eec75b1f4"},"vehicle_type_id":"4","last_reported":1771486859,"current_range_meters":30000,"station_id":"st_d2ngiaodas8pm72gd1h0","pricing_plan_id":"cebpf4jnsgd1na2vs0mg"},{"bike_id":"99b21152-e766-4b5f-b9a3-a676677d8462","system_id":"levelo_inurba_marseille","lat":43.24327,"lon":5.37089,"is_reserved":false,"is_disabled":false,"rental_uris":{"android":"levelo://app?vid=99b21152-e766-4b5f-b9a3-a676677d8462","ios":"levelo://app?vid=99b21152-e766-4b5f-b9a3-a676677d8462"},"vehicle_type_id":"4","last_reported":1771486859,"current_range_meters":26800,"station_id":"","pricing_plan_id":"cebpf4jnsgd1na2vs0mg"},{"bike_id":"ed801aba-6299-4abc-846c-98c2ac128308","system_id":"levelo_inurba_marseille","lat":43.24404,"lon":5.37053,"is_reserved":false,"is_disabled":false,"rental_uris":{"android":"levelo://app?vid=ed801aba-6299-4abc-846c-98c2ac128308","ios":"levelo://app?vid=ed801aba-6299-4abc-846c-98c2ac128308"},"vehicle_type_id":"4","last_reported":1771486859,"current_range_meters":20400,"station_id":"ce4bhhh2rcd13ifvqfk0","pricing_plan_id":"cebpf4jnsgd1na2vs0mg"},{"bike_id":"d20da009-1bfd-4a38-9258-3d8903d8d30b","system_id":"levelo_inurba_marseille","lat":43.30461,"lon":5.37923,"is_reserved":false,"is_disabled":false,"rental_uris":{"android":"levelo://app?vid=d20da009-1bfd-4a38-9258-3d8903d8d30b","ios":"levelo://app?vid=d20da009-1bfd-4a38-9258-3d8903d8d30b"},"vehicle_type_id":"4","last_reported":1771486859,"current_range_meters":19200,"station_id":"ce4bgup2rcd13ifvqcn0","pricing_plan_id":"cebpf4jnsgd1na2vs0mg"},{"bike_id":"28aec728-99a3-4550-b591-e5f70c11fc16","system_id":"levelo_inurba_marseille","lat":43.286953,"lon":5.399848,"is_reserved":false,"is_disabled":false,"rental_uris":{"android":"levelo://app?vid=28aec728-99a3-4550-b591-e5f70c11fc16","ios":"levelo://app?vid=28aec728-99a3-4550-b591-e5f70c11fc16"},"vehicle_type_id":"4","last_reported":1771486859,"current_range_meters":38400,"station_id":"ce4bho92rcd13ifvqh3g","pricing_plan_id":"cebpf4jnsgd1na2vs0mg"},{"bike_id":"bcb5c2f0-34f3-4d59-a83f-d2e5fc0fddae","system_id":"levelo_inurba_marseille","lat":43.240537,"lon":5.377487,"is_reserved":false,"is_disabled":false,"rental_uris":{"android":"levelo://app?vid=bcb5c2f0-34f3-4d59-a83f-d2e5fc0fddae","ios":"levelo://app?vid=bcb5c2f0-34f3-4d59-a83f-d2e5fc0fddae"},"vehicle_type_id":"4","last_reported":1771486859,"current_range_meters":36800,"station_id":"ce4bhnp2rcd13ifvqgvg","pricing_plan_id":"cebpf4jnsgd1na2vs0mg"},{"bike_id":"e59f665b-ca8e-40ab-a2ed-9455369e7fbf","system_id":"levelo_inurba_marseille","lat":43.28464,"lon":5.48417,"is_reserved":false,"is_disabled":false,"rental_uris":{"android":"levelo://app?vid=e59f665b-ca8e-40ab-a2ed-9455369e7fbf","ios":"levelo://app?vid=e59f665b-ca8e-40ab-a2ed-9455369e7fbf"},"vehicle_type_id":"4","last_reported":1771486859,"current_range_meters":26000,"station_id":"","pricing_plan_id":"cebpf4jnsgd1na2vs0mg"},{"bike_id":"c2f7603f-62b4-4a9b-9088-a52a3dabc7aa","system_id":"levelo_inurba_marseille","lat":43.25478,"lon":5.37697,"is_reserved":false,"is_disabled":false,"rental_uris":{"android":"levelo://app?vid=c2f7603f-62b4-4a9b-9088-a52a3dabc7aa","ios":"levelo://app?vid=c2f7603f-62b4-4a9b-9088-a52a3dabc7aa"},"vehicle_type_id":"4","last_reported":1771486859,"current_range_meters":38400,"station_id":"ce4bhh12rcd13ifvqff0","pricing_plan_id":"cebpf4jnsgd1na2vs0mg"},{"bike_id":"7b8c7193-f1f2-43c9-91a4-a4cc93269862","system_id":"levelo_inurba_marseille","lat":43.29535,"lon":5.42289,"is_reserved":false,"is_disabled":false,"rental_uris":{"android":"levelo://app?vid=7b8c7193-f1f2-43c9-91a4-a4cc93269862","ios":"levelo://app?vid=7b8c7193-f1f2-43c9-91a4-a4cc93269862"},"vehicle_type_id":"4","last_reported":1771486859,"current_range_meters":39200,"station_id":"ce4bhph2rcd13ifvqhdg","pricing_plan_id":"cebpf4jnsgd1na2vs0mg"},{"bike_id":"b0008639-ff90-4492-beeb-42210ff9b3c5","system_id":"levelo_inurba_marseille","lat":43.27991,"lon":5.40009,"is_reserved":false,"is_disabled":false,"rental_uris":{"android":"levelo://app?vid=b0008639-ff90-4492-beeb-42210ff9b3c5","ios":"levelo://app?vid=b0008639-ff90-4492-beeb-42210ff9b3c5"},"vehicle_type_id":"4","last_reported":1771486859,"current_range_meters":35600,"station_id":"ce4bho92rcd13ifvqh4g","pricing_plan_id":"cebpf4jnsgd1na2vs0mg"},{"bike_id":"ae1526ac-94c0-4471-b06e-92c0bff1ac42","system_id":"levelo_inurba_marseille","lat":43.28076,"lon":5.39666,"is_reserved":false,"is_disabled":false,"rental_uris":{"android":"levelo://app?vid=ae1526ac-94c0-4471-b06e-92c0bff1ac42","ios":"levelo://app?vid=ae1526ac-94c0-4471-b06e-92c0bff1ac42"},"vehicle_type_id":"4","last_reported":1771486859,"current_range_meters":22800,"station_id":"ce4bho12rcd13ifvqh2g","pricing_plan_id":"cebpf4jnsgd1na2vs0mg"},{"bike_id":"14a17353-bb50-4bd9-8cc0-7441881f4266","system_id":"levelo_inurba_marseille","lat":43.29254,"lon":5.40153,"is_reserved":false,"is_disabled":false,"rental_uris":{"android":"levelo://app?vid=14a17353-bb50-4bd9-8cc0-7441881f4266","ios":"levelo://app?vid=14a17353-bb50-4bd9-8cc0-7441881f4266"},"vehicle_type_id":"4","last_reported":1771486859,"current_range_meters":16800,"station_id":"ce4bh312rcd13ifvqdk0","pricing_plan_id":"cebpf4jnsgd1na2vs0mg"},{"bike_id":"6a073e53-b7ba-45d5-a82b-20ab8b7b8e96","system_id":"levelo_inurba_marseille","lat":43.33533,"lon":5.37495,"is_reserved":false,"is_disabled":false,"rental_uris":{"android":"levelo://app?vid=6a073e53-b7ba-45d5-a82b-20ab8b7b8e96","ios":"levelo://app?vid=6a073e53-b7ba-45d5-a82b-20ab8b7b8e96"},"vehicle_type_id":"4","last_reported":1771486859,"current_range_meters":18800,"station_id":"st_d46tts09ee8s73dlu43g","pricing_plan_id":"cebpf4jnsgd1na2vs0mg"},{"bike_id":"26102047-b65b-42a3-844a-c690a7086e50","system_id":"levelo_inurba_marseille","lat":43.28952,"lon":5.3784,"is_reserved":false,"is_disabled":false,"rental_uris":{"android":"levelo://app?vid=26102047-b65b-42a3-844a-c690a7086e50","ios":"levelo://app?vid=26102047-b65b-42a3-844a-c690a7086e50"},"vehicle_type_id":"4","last_reported":1771486859,"current_range_meters":38000,"station_id":"ce4bh9p2rcd13ifvqed0","pricing_plan_id":"cebpf4jnsgd1na2vs0mg"},{"bike_id":"27586e15-78a0-41b9-981d-e5de2751a5b3","system_id":"levelo_inurba_marseille","lat":43.30306,"lon":5.36886,"is_reserved":false,"is_disabled":false,"rental_uris":{"android":"levelo://app?vid=27586e15-78a0-41b9-981d-e5de2751a5b3","ios":"levelo://app?vid=27586e15-78a0-41b9-981d-e5de2751a5b3"},"vehicle_type_id":"4","last_reported":1771486859,"current_range_meters":16000,"station_id":"ce4bgqh2rcd13ifvqc5g","pricing_plan_id":"cebpf4jnsgd1na2vs0mg"},{"bike_id":"4e6ae03e-50eb-4e46-ad3a-b607c4b7ae2f","system_id":"levelo_inurba_marseille","lat":43.26944,"lon":5.40262,"is_reserved":false,"is_disabled":false,"rental_uris":{"android":"levelo://app?vid=4e6ae03e-50eb-4e46-ad3a-b607c4b7ae2f","ios":"levelo://app?vid=4e6ae03e-50eb-4e46-ad3a-b607c4b7ae2f"},"vehicle_type_id":"4","last_reported":1771486859,"current_range_meters":38400,"station_id":"cjm6bp8fraef2m0cb0m0","pricing_plan_id":"cebpf4jnsgd1na2vs0mg"},{"bike_id":"3ccb6134-eac1-45ce-be50-f0bf3ac2efba","system_id":"levelo_inurba_marseille","lat":43.28684,"lon":5.37928,"is_reserved":false,"is_disabled":false,"rental_uris":{"android":"levelo://app?vid=3ccb6134-eac1-45ce-be50-f0bf3ac2efba","ios":"levelo://app?vid=3ccb6134-eac1-45ce-be50-f0bf3ac2efba"},"vehicle_type_id":"4","last_reported":1771486859,"current_range_meters":35600,"station_id":"ce4bh9p2rcd13ifvqec0","pricing_plan_id":"cebpf4jnsgd1na2vs0mg"},{"bike_id":"13f19fd6-a0d1-4054-9f38-916998844fdb","system_id":"levelo_inurba_marseille","lat":43.273735,"lon":5.362646,"is_reserved":false,"is_disabled":true,"rental_uris":{"android":"levelo://app?vid=13f19fd6-a0d1-4054-9f38-916998844fdb","ios":"levelo://app?vid=13f19fd6-a0d1-4054-9f38-916998844fdb"},"vehicle_type_id":"4","last_reported":1771486859,"current_range_meters":17200,"station_id":"ce4bgj92rcd13ifvqbe0","pricing_plan_id":"cebpf4jnsgd1na2vs0mg"},{"bike_id":"0ebc98c8-f07d-4c48-bf72-81f2f635fa85","system_id":"levelo_inurba_marseille","lat":43.30348,"lon":5.40402,"is_reserved":false,"is_disabled":false,"rental_uris":{"android":"levelo://app?vid=0ebc98c8-f07d-4c48-bf72-81f2f635fa85","ios":"levelo://app?vid=0ebc98c8-f07d-4c48-bf72-81f2f635fa85"},"vehicle_type_id":"4","last_reported":1771486859,"current_range_meters":22000,"station_id":"ce4bh012rcd13ifvqd10","pricing_plan_id":"cebpf4jnsgd1na2vs0mg"},{"bike_id":"cdedfe68-8f81-48b1-a1d4-83bdd88645c6","system_id":"levelo_inurba_marseille","lat":43.22926,"lon":5.35392,"is_reserved":false,"is_disabled":false,"rental_uris":{"android":"levelo://app?vid=cdedfe68-8f81-48b1-a1d4-83bdd88645c6","ios":"levelo://app?vid=cdedfe68-8f81-48b1-a1d4-83bdd88645c6"},"vehicle_type_id":"4","last_reported":1771486859,"current_range_meters":29600,"station_id":"cpo3532slgdg3j2ikp40","pricing_plan_id":"cebpf4jnsgd1na2vs0mg"},{"bike_id":"b0a43be9-afb9-4be8-b03b-db24129c3960","system_id":"levelo_inurba_marseille","lat":43.29956,"lon":5.36548,"is_reserved":false,"is_disabled":false,"rental_uris":{"android":"levelo://app?vid=b0a43be9-afb9-4be8-b03b-db24129c3960","ios":"levelo://app?vid=b0a43be9-afb9-4be8-b03b-db24129c3960"},"vehicle_type_id":"4","last_reported":1771486859,"current_range_meters":36800,"station_id":"ce4bgm92rcd13ifvqbr0","pricing_plan_id":"cebpf4jnsgd1na2vs0mg"},{"bike_id":"ff683388-df4a-4ccb-820c-cd909e4395d0","system_id":"levelo_inurba_marseille","lat":43.28431,"lon":5.39182,"is_reserved":false,"is_disabled":false,"rental_uris":{"android":"levelo://app?vid=ff683388-df4a-4ccb-820c-cd909e4395d0","ios":"levelo://app?vid=ff683388-df4a-4ccb-820c-cd909e4395d0"},"vehicle_type_id":"4","last_reported":1771486859,"current_range_meters":10800,"station_id":"ce4bhoh2rcd13ifvqh5g","pricing_plan_id":"cebpf4jnsgd1na2vs0mg"},{"bike_id":"baf8fe1b-1a50-459b-b3d6-7e1439165198","system_id":"levelo_inurba_marseille","lat":43.29277,"lon":5.40167,"is_reserved":false,"is_disabled":false,"rental_uris":{"android":"levelo://app?vid=baf8fe1b-1a50-459b-b3d6-7e1439165198","ios":"levelo://app?vid=baf8fe1b-1a50-459b-b3d6-7e1439165198"},"vehicle_type_id":"4","last_reported":1771486859,"current_range_meters":30400,"station_id":"ce4bh312rcd13ifvqdk0","pricing_plan_id":"cebpf4jnsgd1na2vs0mg"},{"bike_id":"f517654c-a6a9-4555-8fea-acf0cc86afa5","system_id":"levelo_inurba_marseille","lat":43.30774,"lon":5.37659,"is_reserved":false,"is_disabled":false,"rental_uris":{"android":"levelo://app?vid=f517654c-a6a9-4555-8fea-acf0cc86afa5","ios":"levelo://app?vid=f517654c-a6a9-4555-8fea-acf0cc86afa5"},"vehicle_type_id":"4","last_reported":1771486859,"current_range_meters":19600,"station_id":"ce4bgv92rcd13ifvqcq0","pricing_plan_id":"cebpf4jnsgd1na2vs0mg"},{"bike_id":"12673977-5b25-450a-8cdc-00ac951258dd","system_id":"levelo_inurba_marseille","lat":43.3106,"lon":5.37188,"is_reserved":false,"is_disabled":true,"rental_uris":{"android":"levelo://app?vid=12673977-5b25-450a-8cdc-00ac951258dd","ios":"levelo://app?vid=12673977-5b25-450a-8cdc-00ac951258dd"},"vehicle_type_id":"4","last_reported":1771486859,"current_range_meters":33600,"station_id":"st_d4kl2rp97mjs73e7tdfg","pricing_plan_id":"cebpf4jnsgd1na2vs0mg"},{"bike_id":"c3b83cd0-cb15-4df1-a612-db6baab524fe","system_id":"levelo_inurba_marseille","lat":43.27991,"lon":5.40025,"is_reserved":false,"is_disabled":false,"rental_uris":{"android":"levelo://app?vid=c3b83cd0-cb15-4df1-a612-db6baab524fe","ios":"levelo://app?vid=c3b83cd0-cb15-4df1-a612-db6baab524fe"},"vehicle_type_id":"4","last_reported":1771486859,"current_range_meters":39200,"station_id":"ce4bho92rcd13ifvqh4g","pricing_plan_id":"cebpf4jnsgd1na2vs0mg"},{"bike_id":"c1305435-7ac9-4c1c-bdb9-e901200687d8","system_id":"levelo_inurba_marseille","lat":43.29253,"lon":5.38304,"is_reserved":false,"is_disabled":false,"rental_uris":{"android":"levelo://app?vid=c1305435-7ac9-4c1c-bdb9-e901200687d8","ios":"levelo://app?vid=c1305435-7ac9-4c1c-bdb9-e901200687d8"},"vehicle_type_id":"4","last_reported":1771486859,"current_range_meters":20800,"station_id":"","pricing_plan_id":"cebpf4jnsgd1na2vs0mg"},{"bike_id":"201ca36c-c632-433f-8e63-028103426023","system_id":"levelo_inurba_marseille","lat":43.284798,"lon":5.484004,"is_reserved":false,"is_disabled":false,"rental_uris":{"android":"levelo://app?vid=201ca36c-c632-433f-8e63-028103426023","ios":"levelo://app?vid=201ca36c-c632-433f-8e63-028103426023"},"vehicle_type_id":"4","last_reported":1771486859,"current_range_meters":11200,"station_id":"","pricing_plan_id":"cebpf4jnsgd1na2vs0mg"},{"bike_id":"ef70ce12-fd44-42a0-88ed-3b2ca489b7fa","system_id":"levelo_inurba_marseille","lat":43.28875,"lon":5.42534,"is_reserved":false,"is_disabled":false,"rental_uris":{"android":"levelo://app?vid=ef70ce12-fd44-42a0-88ed-3b2ca489b7fa","ios":"levelo://app?vid=ef70ce12-fd44-42a0-88ed-3b2ca489b7fa"},"vehicle_type_id":"4","last_reported":1771486859,"current_range_meters":36800,"station_id":"st_d3b462108ojc7389ooeg","pricing_plan_id":"cebpf4jnsgd1na2vs0mg"},{"bike_id":"ec6770e7-ed64-4495-878f-8ee65c0e3087","system_id":"levelo_inurba_marseille","lat":43.27889,"lon":5.38013,"is_reserved":false,"is_disabled":true,"rental_uris":{"android":"levelo://app?vid=ec6770e7-ed64-4495-878f-8ee65c0e3087","ios":"levelo://app?vid=ec6770e7-ed64-4495-878f-8ee65c0e3087"},"vehicle_type_id":"4","last_reported":1771486859,"current_range_meters":400,"station_id":"ce4bhf92rcd13ifvqf50","pricing_plan_id":"cebpf4jnsgd1na2vs0mg"},{"bike_id":"402fb316-de29-4c6c-b0e2-48c631932a53","system_id":"levelo_inurba_marseille","lat":43.24685,"lon":5.38138,"is_reserved":false,"is_disabled":false,"rental_uris":{"android":"levelo://app?vid=402fb316-de29-4c6c-b0e2-48c631932a53","ios":"levelo://app?vid=402fb316-de29-4c6c-b0e2-48c631932a53"},"vehicle_type_id":"4","last_reported":1771486859,"current_range_meters":18000,"station_id":"ce4bhih2rcd13ifvqfr0","pricing_plan_id":"cebpf4jnsgd1na2vs0mg"},{"bike_id":"0a19b8ea-5646-43e3-9c33-b9ffd92b9fe4","system_id":"levelo_inurba_marseille","lat":43.28481,"lon":5.38406,"is_reserved":false,"is_disabled":true,"rental_uris":{"android":"levelo://app?vid=0a19b8ea-5646-43e3-9c33-b9ffd92b9fe4","ios":"levelo://app?vid=0a19b8ea-5646-43e3-9c33-b9ffd92b9fe4"},"vehicle_type_id":"4","last_reported":1771486859,"current_range_meters":18000,"station_id":"ce4bh512rcd13ifvqe3g","pricing_plan_id":"cebpf4jnsgd1na2vs0mg"},{"bike_id":"d0abb789-81b8-4337-b2d5-c5035ae1dd42","system_id":"levelo_inurba_marseille","lat":43.29714,"lon":5.36573,"is_reserved":false,"is_disabled":false,"rental_uris":{"android":"levelo://app?vid=d0abb789-81b8-4337-b2d5-c5035ae1dd42","ios":"levelo://app?vid=d0abb789-81b8-4337-b2d5-c5035ae1dd42"},"vehicle_type_id":"4","last_reported":1771486859,"current_range_meters":18800,"station_id":"ce4bgn12rcd13ifvqbt0","pricing_plan_id":"cebpf4jnsgd1na2vs0mg"},{"bike_id":"2869ecff-d536-4cb2-8e34-6173355891f6","system_id":"levelo_inurba_marseille","lat":43.31158,"lon":5.36963,"is_reserved":false,"is_disabled":false,"rental_uris":{"android":"levelo://app?vid=2869ecff-d536-4cb2-8e34-6173355891f6","ios":"levelo://app?vid=2869ecff-d536-4cb2-8e34-6173355891f6"},"vehicle_type_id":"4","last_reported":1771486859,"current_range_meters":20400,"station_id":"ce4bgl92rcd13ifvqbq0","pricing_plan_id":"cebpf4jnsgd1na2vs0mg"},{"bike_id":"e6dcc18a-88f9-4a06-a9ba-f44311cce2a6","system_id":"levelo_inurba_marseille","lat":43.26753,"lon":5.40318,"is_reserved":false,"is_disabled":false,"rental_uris":{"android":"levelo://app?vid=e6dcc18a-88f9-4a06-a9ba-f44311cce2a6","ios":"levelo://app?vid=e6dcc18a-88f9-4a06-a9ba-f44311cce2a6"},"vehicle_type_id":"4","last_reported":1771486859,"current_range_meters":38400,"station_id":"ce501612rcd8frsf0b60","pricing_plan_id":"cebpf4jnsgd1na2vs0mg"},{"bike_id":"5b012de4-7e8b-4538-86be-6640a0946719","system_id":"levelo_inurba_marseille","lat":43.24154,"lon":5.36453,"is_reserved":false,"is_disabled":true,"rental_uris":{"android":"levelo://app?vid=5b012de4-7e8b-4538-86be-6640a0946719","ios":"levelo://app?vid=5b012de4-7e8b-4538-86be-6640a0946719"},"vehicle_type_id":"4","last_reported":1771486859,"current_range_meters":12000,"station_id":"","pricing_plan_id":"cebpf4jnsgd1na2vs0mg"},{"bike_id":"73a0f084-2b1d-4d97-97da-f814106cb099","system_id":"levelo_inurba_marseille","lat":43.24668,"lon":5.38928,"is_reserved":false,"is_disabled":false,"rental_uris":{"android":"levelo://app?vid=73a0f084-2b1d-4d97-97da-f814106cb099","ios":"levelo://app?vid=73a0f084-2b1d-4d97-97da-f814106cb099"},"vehicle_type_id":"4","last_reported":1771486859,"current_range_meters":39200,"station_id":"ce4bhg12rcd13ifvqf60","pricing_plan_id":"cebpf4jnsgd1na2vs0mg"},{"bike_id":"4455645d-a31e-4811-bd5e-9830c8ef57b4","system_id":"levelo_inurba_marseille","lat":43.30532,"lon":5.36542,"is_reserved":false,"is_disabled":false,"rental_uris":{"android":"levelo://app?vid=4455645d-a31e-4811-bd5e-9830c8ef57b4","ios":"levelo://app?vid=4455645d-a31e-4811-bd5e-9830c8ef57b4"},"vehicle_type_id":"4","last_reported":1771486859,"current_range_meters":38400,"station_id":"ce4bgs12rcd13ifvqcag","pricing_plan_id":"cebpf4jnsgd1na2vs0mg"},{"bike_id":"e1ecfb97-6fd8-4299-87fb-43ecbd52f574","system_id":"levelo_inurba_marseille","lat":43.28257,"lon":5.35066,"is_reserved":false,"is_disabled":false,"rental_uris":{"android":"levelo://app?vid=e1ecfb97-6fd8-4299-87fb-43ecbd52f574","ios":"levelo://app?vid=e1ecfb97-6fd8-4299-87fb-43ecbd52f574"},"vehicle_type_id":"4","last_reported":1771486859,"current_range_meters":23200,"station_id":"ce4bhbp2rcd13ifvqerg","pricing_plan_id":"cebpf4jnsgd1na2vs0mg"},{"bike_id":"46a41969-eea7-42a6-85eb-509b667e3cd9","system_id":"levelo_inurba_marseille","lat":43.30321,"lon":5.40443,"is_reserved":false,"is_disabled":false,"rental_uris":{"android":"levelo://app?vid=46a41969-eea7-42a6-85eb-509b667e3cd9","ios":"levelo://app?vid=46a41969-eea7-42a6-85eb-509b667e3cd9"},"vehicle_type_id":"4","last_reported":1771486859,"current_range_meters":14000,"station_id":"ce4bh012rcd13ifvqd10","pricing_plan_id":"cebpf4jnsgd1na2vs0mg"},{"bike_id":"96438059-8ec7-4cad-b18f-887d9f3a4374","system_id":"levelo_inurba_marseille","lat":43.31503,"lon":5.37313,"is_reserved":false,"is_disabled":false,"rental_uris":{"android":"levelo://app?vid=96438059-8ec7-4cad-b18f-887d9f3a4374","ios":"levelo://app?vid=96438059-8ec7-4cad-b18f-887d9f3a4374"},"vehicle_type_id":"4","last_reported":1771486859,"current_range_meters":33600,"station_id":"ce4bgt12rcd13ifvqcd0","pricing_plan_id":"cebpf4jnsgd1na2vs0mg"},{"bike_id":"65b90786-eaff-4bba-b947-7726467f0166","system_id":"levelo_inurba_marseille","lat":43.28109,"lon":5.37845,"is_reserved":false,"is_disabled":false,"rental_uris":{"android":"levelo://app?vid=65b90786-eaff-4bba-b947-7726467f0166","ios":"levelo://app?vid=65b90786-eaff-4bba-b947-7726467f0166"},"vehicle_type_id":"4","last_reported":1771486859,"current_range_meters":18000,"station_id":"ce4bha12rcd13ifvqee0","pricing_plan_id":"cebpf4jnsgd1na2vs0mg"},{"bike_id":"ba43fe86-105f-4d57-9b53-a869ad7ae289","system_id":"levelo_inurba_marseille","lat":43.29022,"lon":5.38649,"is_reserved":false,"is_disabled":false,"rental_uris":{"android":"levelo://app?vid=ba43fe86-105f-4d57-9b53-a869ad7ae289","ios":"levelo://app?vid=ba43fe86-105f-4d57-9b53-a869ad7ae289"},"vehicle_type_id":"4","last_reported":1771486859,"current_range_meters":19600,"station_id":"ce4bh4p2rcd13ifvqe0g","pricing_plan_id":"cebpf4jnsgd1na2vs0mg"},{"bike_id":"5d548b5a-d083-456a-b004-5924aa531bf8","system_id":"levelo_inurba_marseille","lat":43.29712,"lon":5.37698,"is_reserved":false,"is_disabled":false,"rental_uris":{"android":"levelo://app?vid=5d548b5a-d083-456a-b004-5924aa531bf8","ios":"levelo://app?vid=5d548b5a-d083-456a-b004-5924aa531bf8"},"vehicle_type_id":"4","last_reported":1771486859,"current_range_meters":39200,"station_id":"ce4bgkh2rcd13ifvqbl0","pricing_plan_id":"cebpf4jnsgd1na2vs0mg"},{"bike_id":"60d19533-d916-46e5-9e83-963557cfb5f0","system_id":"levelo_inurba_marseille","lat":43.30909,"lon":5.36848,"is_reserved":false,"is_disabled":false,"rental_uris":{"android":"levelo://app?vid=60d19533-d916-46e5-9e83-963557cfb5f0","ios":"levelo://app?vid=60d19533-d916-46e5-9e83-963557cfb5f0"},"vehicle_type_id":"4","last_reported":1771486859,"current_range_meters":33600,"station_id":"ce4bgn92rcd13ifvqbvg","pricing_plan_id":"cebpf4jnsgd1na2vs0mg"},{"bike_id":"200f07f2-6ab6-46ed-9f22-639cf1d5ab95","system_id":"levelo_inurba_marseille","lat":43.27062,"lon":5.42305,"is_reserved":false,"is_disabled":false,"rental_uris":{"android":"levelo://app?vid=200f07f2-6ab6-46ed-9f22-639cf1d5ab95","ios":"levelo://app?vid=200f07f2-6ab6-46ed-9f22-639cf1d5ab95"},"vehicle_type_id":"4","last_reported":1771486859,"current_range_meters":30800,"station_id":"ce4bhk92rcd13ifvqgb0","pricing_plan_id":"cebpf4jnsgd1na2vs0mg"},{"bike_id":"d6ae4b4e-88c3-4b32-ba8f-12817761038b","system_id":"levelo_inurba_marseille","lat":43.31323,"lon":5.36744,"is_reserved":false,"is_disabled":true,"rental_uris":{"android":"levelo://app?vid=d6ae4b4e-88c3-4b32-ba8f-12817761038b","ios":"levelo://app?vid=d6ae4b4e-88c3-4b32-ba8f-12817761038b"},"vehicle_type_id":"4","last_reported":1771486859,"current_range_meters":0,"station_id":"ce4bgr92rcd13ifvqc6g","pricing_plan_id":"cebpf4jnsgd1na2vs0mg"},{"bike_id":"a8c134fb-7dd4-48bb-8009-86b393d03db7","system_id":"levelo_inurba_marseille","lat":43.28069,"lon":5.37923,"is_reserved":false,"is_disabled":false,"rental_uris":{"android":"levelo://app?vid=a8c134fb-7dd4-48bb-8009-86b393d03db7","ios":"levelo://app?vid=a8c134fb-7dd4-48bb-8009-86b393d03db7"},"vehicle_type_id":"4","last_reported":1771486859,"current_range_meters":26800,"station_id":"","pricing_plan_id":"cebpf4jnsgd1na2vs0mg"},{"bike_id":"7dbed4a4-6963-4ee2-855d-a74bfee58ad8","system_id":"levelo_inurba_marseille","lat":43.30899,"lon":5.40222,"is_reserved":false,"is_disabled":false,"rental_uris":{"android":"levelo://app?vid=7dbed4a4-6963-4ee2-855d-a74bfee58ad8","ios":"levelo://app?vid=7dbed4a4-6963-4ee2-855d-a74bfee58ad8"},"vehicle_type_id":"4","last_reported":1771486859,"current_range_meters":32000,"station_id":"ce4bgvp2rcd13ifvqct0","pricing_plan_id":"cebpf4jnsgd1na2vs0mg"},{"bike_id":"8dcab344-b709-4bc9-a1f4-a0dbcd17618b","system_id":"levelo_inurba_marseille","lat":43.33746,"lon":5.37465,"is_reserved":false,"is_disabled":false,"rental_uris":{"android":"levelo://app?vid=8dcab344-b709-4bc9-a1f4-a0dbcd17618b","ios":"levelo://app?vid=8dcab344-b709-4bc9-a1f4-a0dbcd17618b"},"vehicle_type_id":"4","last_reported":1771486859,"current_range_meters":38800,"station_id":"","pricing_plan_id":"cebpf4jnsgd1na2vs0mg"},{"bike_id":"004e9efc-41b9-4ccd-9660-b4076f684882","system_id":"levelo_inurba_marseille","lat":43.28597,"lon":5.37081,"is_reserved":false,"is_disabled":false,"rental_uris":{"android":"levelo://app?vid=004e9efc-41b9-4ccd-9660-b4076f684882","ios":"levelo://app?vid=004e9efc-41b9-4ccd-9660-b4076f684882"},"vehicle_type_id":"4","last_reported":1771486859,"current_range_meters":26000,"station_id":"ce4bht12rcd13ifvqi60","pricing_plan_id":"cebpf4jnsgd1na2vs0mg"},{"bike_id":"f6041667-a189-4c35-8328-024fab0e230c","system_id":"levelo_inurba_marseille","lat":43.26487,"lon":5.39572,"is_reserved":false,"is_disabled":false,"rental_uris":{"android":"levelo://app?vid=f6041667-a189-4c35-8328-024fab0e230c","ios":"levelo://app?vid=f6041667-a189-4c35-8328-024fab0e230c"},"vehicle_type_id":"4","last_reported":1771486859,"current_range_meters":10800,"station_id":"ce4bhi12rcd13ifvqfq0","pricing_plan_id":"cebpf4jnsgd1na2vs0mg"},{"bike_id":"c7d2b54a-d383-408d-9a81-b600a9105a37","system_id":"levelo_inurba_marseille","lat":43.33536,"lon":5.37476,"is_reserved":false,"is_disabled":false,"rental_uris":{"android":"levelo://app?vid=c7d2b54a-d383-408d-9a81-b600a9105a37","ios":"levelo://app?vid=c7d2b54a-d383-408d-9a81-b600a9105a37"},"vehicle_type_id":"4","last_reported":1771486859,"current_range_meters":20800,"station_id":"st_d46tts09ee8s73dlu43g","pricing_plan_id":"cebpf4jnsgd1na2vs0mg"},{"bike_id":"73d0170e-f6fe-4467-a0f3-e54fb14b4066","system_id":"levelo_inurba_marseille","lat":43.30158,"lon":5.38095,"is_reserved":false,"is_disabled":false,"rental_uris":{"android":"levelo://app?vid=73d0170e-f6fe-4467-a0f3-e54fb14b4066","ios":"levelo://app?vid=73d0170e-f6fe-4467-a0f3-e54fb14b4066"},"vehicle_type_id":"4","last_reported":1771486859,"current_range_meters":36000,"station_id":"ce4bgjp2rcd13ifvqbh0","pricing_plan_id":"cebpf4jnsgd1na2vs0mg"},{"bike_id":"653fefb1-91ea-420b-b248-bbec1ccc7e05","system_id":"levelo_inurba_marseille","lat":43.24473,"lon":5.42561,"is_reserved":false,"is_disabled":false,"rental_uris":{"android":"levelo://app?vid=653fefb1-91ea-420b-b248-bbec1ccc7e05","ios":"levelo://app?vid=653fefb1-91ea-420b-b248-bbec1ccc7e05"},"vehicle_type_id":"4","last_reported":1771486859,"current_range_meters":20400,"station_id":"st_d4a3vfp97mjs738cd8kg","pricing_plan_id":"cebpf4jnsgd1na2vs0mg"},{"bike_id":"435dcea6-6b0b-4966-b7dc-7de8bf556c3d","system_id":"levelo_inurba_marseille","lat":43.29867,"lon":5.38905,"is_reserved":false,"is_disabled":false,"rental_uris":{"android":"levelo://app?vid=435dcea6-6b0b-4966-b7dc-7de8bf556c3d","ios":"levelo://app?vid=435dcea6-6b0b-4966-b7dc-7de8bf556c3d"},"vehicle_type_id":"4","last_reported":1771486859,"current_range_meters":22800,"station_id":"ce4bh392rcd13ifvqdl0","pricing_plan_id":"cebpf4jnsgd1na2vs0mg"},{"bike_id":"bc33fc08-f85a-4f32-84fb-8b24d5daa10d","system_id":"levelo_inurba_marseille","lat":43.27996,"lon":5.41686,"is_reserved":false,"is_disabled":false,"rental_uris":{"android":"levelo://app?vid=bc33fc08-f85a-4f32-84fb-8b24d5daa10d","ios":"levelo://app?vid=bc33fc08-f85a-4f32-84fb-8b24d5daa10d"},"vehicle_type_id":"4","last_reported":1771486859,"current_range_meters":32000,"station_id":"ce4bho12rcd13ifvqh1g","pricing_plan_id":"cebpf4jnsgd1na2vs0mg"},{"bike_id":"b3cf5ea4-eb34-4354-b354-57c747f0480d","system_id":"levelo_inurba_marseille","lat":43.28867,"lon":5.3584,"is_reserved":false,"is_disabled":true,"rental_uris":{"android":"levelo://app?vid=b3cf5ea4-eb34-4354-b354-57c747f0480d","ios":"levelo://app?vid=b3cf5ea4-eb34-4354-b354-57c747f0480d"},"vehicle_type_id":"4","last_reported":1771486859,"current_range_meters":0,"station_id":"ce4bhb12rcd13ifvqem0","pricing_plan_id":"cebpf4jnsgd1na2vs0mg"},{"bike_id":"b56380f9-a759-4bad-ae97-ee9b0c34fdbe","system_id":"levelo_inurba_marseille","lat":43.33539,"lon":5.37476,"is_reserved":false,"is_disabled":false,"rental_uris":{"android":"levelo://app?vid=b56380f9-a759-4bad-ae97-ee9b0c34fdbe","ios":"levelo://app?vid=b56380f9-a759-4bad-ae97-ee9b0c34fdbe"},"vehicle_type_id":"4","last_reported":1771486859,"current_range_meters":22000,"station_id":"st_d46tts09ee8s73dlu43g","pricing_plan_id":"cebpf4jnsgd1na2vs0mg"},{"bike_id":"e4f15f52-9f9b-46f0-9586-df31c8479f98","system_id":"levelo_inurba_marseille","lat":43.29044,"lon":5.39955,"is_reserved":false,"is_disabled":false,"rental_uris":{"android":"levelo://app?vid=e4f15f52-9f9b-46f0-9586-df31c8479f98","ios":"levelo://app?vid=e4f15f52-9f9b-46f0-9586-df31c8479f98"},"vehicle_type_id":"4","last_reported":1771486859,"current_range_meters":12800,"station_id":"ce4bh392rcd13ifvqdm0","pricing_plan_id":"cebpf4jnsgd1na2vs0mg"},{"bike_id":"e5c37de4-5b20-40fe-851e-2d0c03d75c93","system_id":"levelo_inurba_marseille","lat":43.33125,"lon":5.39271,"is_reserved":false,"is_disabled":false,"rental_uris":{"android":"levelo://app?vid=e5c37de4-5b20-40fe-851e-2d0c03d75c93","ios":"levelo://app?vid=e5c37de4-5b20-40fe-851e-2d0c03d75c93"},"vehicle_type_id":"4","last_reported":1771486859,"current_range_meters":12800,"station_id":"","pricing_plan_id":"cebpf4jnsgd1na2vs0mg"},{"bike_id":"07b0f432-5e82-4f8c-81ee-67d93dfdf4d8","system_id":"levelo_inurba_marseille","lat":43.28609,"lon":5.35114,"is_reserved":false,"is_disabled":false,"rental_uris":{"android":"levelo://app?vid=07b0f432-5e82-4f8c-81ee-67d93dfdf4d8","ios":"levelo://app?vid=07b0f432-5e82-4f8c-81ee-67d93dfdf4d8"},"vehicle_type_id":"4","last_reported":1771486859,"current_range_meters":6800,"station_id":"ce4bhch2rcd13ifvqeug","pricing_plan_id":"cebpf4jnsgd1na2vs0mg"},{"bike_id":"127677c5-4cab-4685-9cfe-a1e546a48838","system_id":"levelo_inurba_marseille","lat":43.32062,"lon":5.36816,"is_reserved":false,"is_disabled":false,"rental_uris":{"android":"levelo://app?vid=127677c5-4cab-4685-9cfe-a1e546a48838","ios":"levelo://app?vid=127677c5-4cab-4685-9cfe-a1e546a48838"},"vehicle_type_id":"4","last_reported":1771486859,"current_range_meters":16800,"station_id":"","pricing_plan_id":"cebpf4jnsgd1na2vs0mg"},{"bike_id":"dcd0cf55-ffb3-4ae8-85bc-3fda68997124","system_id":"levelo_inurba_marseille","lat":43.26949,"lon":5.38615,"is_reserved":false,"is_disabled":true,"rental_uris":{"android":"levelo://app?vid=dcd0cf55-ffb3-4ae8-85bc-3fda68997124","ios":"levelo://app?vid=dcd0cf55-ffb3-4ae8-85bc-3fda68997124"},"vehicle_type_id":"4","last_reported":1771486859,"current_range_meters":8000,"station_id":"ce4bhh92rcd13ifvqfh0","pricing_plan_id":"cebpf4jnsgd1na2vs0mg"},{"bike_id":"d1682903-23d0-41b7-b77c-699ad608165c","system_id":"levelo_inurba_marseille","lat":43.2872,"lon":5.3609,"is_reserved":false,"is_disabled":false,"rental_uris":{"android":"levelo://app?vid=d1682903-23d0-41b7-b77c-699ad608165c","ios":"levelo://app?vid=d1682903-23d0-41b7-b77c-699ad608165c"},"vehicle_type_id":"4","last_reported":1771486859,"current_range_meters":14800,"station_id":"cki0cbj6b192h4jlfktg","pricing_plan_id":"cebpf4jnsgd1na2vs0mg"},{"bike_id":"2b5f883f-0bb8-4808-97c3-e9d5a5ddb872","system_id":"levelo_inurba_marseille","lat":43.30647,"lon":5.40106,"is_reserved":false,"is_disabled":false,"rental_uris":{"android":"levelo://app?vid=2b5f883f-0bb8-4808-97c3-e9d5a5ddb872","ios":"levelo://app?vid=2b5f883f-0bb8-4808-97c3-e9d5a5ddb872"},"vehicle_type_id":"4","last_reported":1771486859,"current_range_meters":33600,"station_id":"ce4bh112rcd13ifvqda0","pricing_plan_id":"cebpf4jnsgd1na2vs0mg"},{"bike_id":"47788a9b-3d71-4615-adaa-2c88572889ac","system_id":"levelo_inurba_marseille","lat":43.31436,"lon":5.37399,"is_reserved":false,"is_disabled":false,"rental_uris":{"android":"levelo://app?vid=47788a9b-3d71-4615-adaa-2c88572889ac","ios":"levelo://app?vid=47788a9b-3d71-4615-adaa-2c88572889ac"},"vehicle_type_id":"4","last_reported":1771486859,"current_range_meters":32000,"station_id":"","pricing_plan_id":"cebpf4jnsgd1na2vs0mg"},{"bike_id":"fb4c81e1-59ab-4a96-ad75-2e8d74c036e5","system_id":"levelo_inurba_marseille","lat":43.3115,"lon":5.38602,"is_reserved":false,"is_disabled":false,"rental_uris":{"android":"levelo://app?vid=fb4c81e1-59ab-4a96-ad75-2e8d74c036e5","ios":"levelo://app?vid=fb4c81e1-59ab-4a96-ad75-2e8d74c036e5"},"vehicle_type_id":"4","last_reported":1771486859,"current_range_meters":11200,"station_id":"","pricing_plan_id":"cebpf4jnsgd1na2vs0mg"},{"bike_id":"fe61620a-8630-4808-bdbe-e17dd1aaecfb","system_id":"levelo_inurba_marseille","lat":43.24399,"lon":5.3707,"is_reserved":false,"is_disabled":false,"rental_uris":{"android":"levelo://app?vid=fe61620a-8630-4808-bdbe-e17dd1aaecfb","ios":"levelo://app?vid=fe61620a-8630-4808-bdbe-e17dd1aaecfb"},"vehicle_type_id":"4","last_reported":1771486859,"current_range_meters":35600,"station_id":"","pricing_plan_id":"cebpf4jnsgd1na2vs0mg"},{"bike_id":"3cf17d3c-847b-4e36-946e-46ab84562c9a","system_id":"levelo_inurba_marseille","lat":43.25101,"lon":5.39535,"is_reserved":false,"is_disabled":true,"rental_uris":{"android":"levelo://app?vid=3cf17d3c-847b-4e36-946e-46ab84562c9a","ios":"levelo://app?vid=3cf17d3c-847b-4e36-946e-46ab84562c9a"},"vehicle_type_id":"4","last_reported":1771486859,"current_range_meters":0,"station_id":"ce4bhm12rcd13ifvqgkg","pricing_plan_id":"cebpf4jnsgd1na2vs0mg"},{"bike_id":"1dfc9df6-efc3-44e1-bfa7-eabdccc695a9","system_id":"levelo_inurba_marseille","lat":43.33539,"lon":5.37466,"is_reserved":false,"is_disabled":false,"rental_uris":{"android":"levelo://app?vid=1dfc9df6-efc3-44e1-bfa7-eabdccc695a9","ios":"levelo://app?vid=1dfc9df6-efc3-44e1-bfa7-eabdccc695a9"},"vehicle_type_id":"4","last_reported":1771486859,"current_range_meters":10800,"station_id":"st_d46tts09ee8s73dlu43g","pricing_plan_id":"cebpf4jnsgd1na2vs0mg"},{"bike_id":"16fc34bf-65ec-4c81-ba21-ad880e0c1ac1","system_id":"levelo_inurba_marseille","lat":43.29855,"lon":5.36296,"is_reserved":false,"is_disabled":true,"rental_uris":{"android":"levelo://app?vid=16fc34bf-65ec-4c81-ba21-ad880e0c1ac1","ios":"levelo://app?vid=16fc34bf-65ec-4c81-ba21-ad880e0c1ac1"},"vehicle_type_id":"4","last_reported":1771486859,"current_range_meters":6000,"station_id":"ce4bgpp2rcd13ifvqc3g","pricing_plan_id":"cebpf4jnsgd1na2vs0mg"},{"bike_id":"feddf533-e694-4295-8a00-2ac5034dd517","system_id":"levelo_inurba_marseille","lat":43.2695,"lon":5.40256,"is_reserved":false,"is_disabled":false,"rental_uris":{"android":"levelo://app?vid=feddf533-e694-4295-8a00-2ac5034dd517","ios":"levelo://app?vid=feddf533-e694-4295-8a00-2ac5034dd517"},"vehicle_type_id":"4","last_reported":1771486859,"current_range_meters":38000,"station_id":"cjm6bp8fraef2m0cb0m0","pricing_plan_id":"cebpf4jnsgd1na2vs0mg"},{"bike_id":"14867868-6aed-41c1-9296-5792e4f862f8","system_id":"levelo_inurba_marseille","lat":43.25332,"lon":5.42167,"is_reserved":false,"is_disabled":false,"rental_uris":{"android":"levelo://app?vid=14867868-6aed-41c1-9296-5792e4f862f8","ios":"levelo://app?vid=14867868-6aed-41c1-9296-5792e4f862f8"},"vehicle_type_id":"4","last_reported":1771486859,"current_range_meters":25600,"station_id":"st_d2m65c5bi1j21697t3ng","pricing_plan_id":"cebpf4jnsgd1na2vs0mg"},{"bike_id":"2f84c6f6-1af1-4f12-9943-f4b364371f34","system_id":"levelo_inurba_marseille","lat":43.305502,"lon":5.365259,"is_reserved":false,"is_disabled":false,"rental_uris":{"android":"levelo://app?vid=2f84c6f6-1af1-4f12-9943-f4b364371f34","ios":"levelo://app?vid=2f84c6f6-1af1-4f12-9943-f4b364371f34"},"vehicle_type_id":"4","last_reported":1771486859,"current_range_meters":14000,"station_id":"ce4bgs12rcd13ifvqcag","pricing_plan_id":"cebpf4jnsgd1na2vs0mg"},{"bike_id":"baf5634a-458e-4f5a-a6f0-61ff3624b257","system_id":"levelo_inurba_marseille","lat":43.275655,"lon":5.384139,"is_reserved":false,"is_disabled":false,"rental_uris":{"android":"levelo://app?vid=baf5634a-458e-4f5a-a6f0-61ff3624b257","ios":"levelo://app?vid=baf5634a-458e-4f5a-a6f0-61ff3624b257"},"vehicle_type_id":"4","last_reported":1771486859,"current_range_meters":33200,"station_id":"ce4bhh92rcd13ifvqfi0","pricing_plan_id":"cebpf4jnsgd1na2vs0mg"},{"bike_id":"e5ddf298-59a6-48a6-9f22-1ea1820e4aeb","system_id":"levelo_inurba_marseille","lat":43.28084,"lon":5.39643,"is_reserved":false,"is_disabled":false,"rental_uris":{"android":"levelo://app?vid=e5ddf298-59a6-48a6-9f22-1ea1820e4aeb","ios":"levelo://app?vid=e5ddf298-59a6-48a6-9f22-1ea1820e4aeb"},"vehicle_type_id":"4","last_reported":1771486859,"current_range_meters":38000,"station_id":"ce4bho12rcd13ifvqh2g","pricing_plan_id":"cebpf4jnsgd1na2vs0mg"},{"bike_id":"a064d16f-bc47-4f73-afc0-71fb9fcd9d35","system_id":"levelo_inurba_marseille","lat":43.25114,"lon":5.40451,"is_reserved":false,"is_disabled":false,"rental_uris":{"android":"levelo://app?vid=a064d16f-bc47-4f73-afc0-71fb9fcd9d35","ios":"levelo://app?vid=a064d16f-bc47-4f73-afc0-71fb9fcd9d35"},"vehicle_type_id":"4","last_reported":1771486859,"current_range_meters":38400,"station_id":"ce4bhlh2rcd13ifvqgig","pricing_plan_id":"cebpf4jnsgd1na2vs0mg"},{"bike_id":"7874f1f9-e545-4dd5-834e-ebed784af39f","system_id":"levelo_inurba_marseille","lat":43.276691,"lon":5.388716,"is_reserved":false,"is_disabled":false,"rental_uris":{"android":"levelo://app?vid=7874f1f9-e545-4dd5-834e-ebed784af39f","ios":"levelo://app?vid=7874f1f9-e545-4dd5-834e-ebed784af39f"},"vehicle_type_id":"4","last_reported":1771486859,"current_range_meters":24400,"station_id":"ce4bhi12rcd13ifvqfo0","pricing_plan_id":"cebpf4jnsgd1na2vs0mg"},{"bike_id":"0a9805da-4766-4522-9e65-e3830b56acec","system_id":"levelo_inurba_marseille","lat":43.24674,"lon":5.38146,"is_reserved":false,"is_disabled":false,"rental_uris":{"android":"levelo://app?vid=0a9805da-4766-4522-9e65-e3830b56acec","ios":"levelo://app?vid=0a9805da-4766-4522-9e65-e3830b56acec"},"vehicle_type_id":"4","last_reported":1771486859,"current_range_meters":37600,"station_id":"ce4bhih2rcd13ifvqfr0","pricing_plan_id":"cebpf4jnsgd1na2vs0mg"},{"bike_id":"e33b8697-55e7-43d6-b3d0-b51a51b70e9f","system_id":"levelo_inurba_marseille","lat":43.30246,"lon":5.40057,"is_reserved":false,"is_disabled":false,"rental_uris":{"android":"levelo://app?vid=e33b8697-55e7-43d6-b3d0-b51a51b70e9f","ios":"levelo://app?vid=e33b8697-55e7-43d6-b3d0-b51a51b70e9f"},"vehicle_type_id":"4","last_reported":1771486859,"current_range_meters":28800,"station_id":"ce4bgvh2rcd13ifvqcs0","pricing_plan_id":"cebpf4jnsgd1na2vs0mg"},{"bike_id":"a390b538-2807-40e2-95f9-4ed175e72a0b","system_id":"levelo_inurba_marseille","lat":43.24922,"lon":5.40531,"is_reserved":false,"is_disabled":false,"rental_uris":{"android":"levelo://app?vid=a390b538-2807-40e2-95f9-4ed175e72a0b","ios":"levelo://app?vid=a390b538-2807-40e2-95f9-4ed175e72a0b"},"vehicle_type_id":"4","last_reported":1771486859,"current_range_meters":23200,"station_id":"","pricing_plan_id":"cebpf4jnsgd1na2vs0mg"},{"bike_id":"822a37e9-cc86-4db6-b810-29ef8016af0b","system_id":"levelo_inurba_marseille","lat":43.2981,"lon":5.44076,"is_reserved":false,"is_disabled":false,"rental_uris":{"android":"levelo://app?vid=822a37e9-cc86-4db6-b810-29ef8016af0b","ios":"levelo://app?vid=822a37e9-cc86-4db6-b810-29ef8016af0b"},"vehicle_type_id":"4","last_reported":1771486859,"current_range_meters":20800,"station_id":"st_d3jp68qikq2c7381ktn0","pricing_plan_id":"cebpf4jnsgd1na2vs0mg"},{"bike_id":"3886e246-de3b-4bd8-9bb1-b4fd43c2effc","system_id":"levelo_inurba_marseille","lat":43.30571,"lon":5.37254,"is_reserved":false,"is_disabled":false,"rental_uris":{"android":"levelo://app?vid=3886e246-de3b-4bd8-9bb1-b4fd43c2effc","ios":"levelo://app?vid=3886e246-de3b-4bd8-9bb1-b4fd43c2effc"},"vehicle_type_id":"4","last_reported":1771486859,"current_range_meters":38000,"station_id":"ce4bgqh2rcd13ifvqc4g","pricing_plan_id":"cebpf4jnsgd1na2vs0mg"},{"bike_id":"03aee3db-9f4f-47df-b3ec-8d0bacddcdbc","system_id":"levelo_inurba_marseille","lat":43.27171,"lon":5.40993,"is_reserved":false,"is_disabled":false,"rental_uris":{"android":"levelo://app?vid=03aee3db-9f4f-47df-b3ec-8d0bacddcdbc","ios":"levelo://app?vid=03aee3db-9f4f-47df-b3ec-8d0bacddcdbc"},"vehicle_type_id":"4","last_reported":1771486859,"current_range_meters":35200,"station_id":"ce4bhl12rcd13ifvqgf0","pricing_plan_id":"cebpf4jnsgd1na2vs0mg"},{"bike_id":"55eb0aad-f6b5-4ef8-8c2b-ee220d251165","system_id":"levelo_inurba_marseille","lat":43.26931,"lon":5.4027,"is_reserved":false,"is_disabled":false,"rental_uris":{"android":"levelo://app?vid=55eb0aad-f6b5-4ef8-8c2b-ee220d251165","ios":"levelo://app?vid=55eb0aad-f6b5-4ef8-8c2b-ee220d251165"},"vehicle_type_id":"4","last_reported":1771486859,"current_range_meters":29600,"station_id":"cjm6bp8fraef2m0cb0m0","pricing_plan_id":"cebpf4jnsgd1na2vs0mg"},{"bike_id":"59aabee3-6211-4f8a-9630-29cde1e1b3d7","system_id":"levelo_inurba_marseille","lat":43.29541,"lon":5.37488,"is_reserved":false,"is_disabled":false,"rental_uris":{"android":"levelo://app?vid=59aabee3-6211-4f8a-9630-29cde1e1b3d7","ios":"levelo://app?vid=59aabee3-6211-4f8a-9630-29cde1e1b3d7"},"vehicle_type_id":"4","last_reported":1771486859,"current_range_meters":17200,"station_id":"ce4bgkp2rcd13ifvqbmg","pricing_plan_id":"cebpf4jnsgd1na2vs0mg"},{"bike_id":"89b3e01c-4867-4ddb-b4c3-f53bd946fe77","system_id":"levelo_inurba_marseille","lat":43.29192,"lon":5.36072,"is_reserved":false,"is_disabled":false,"rental_uris":{"android":"levelo://app?vid=89b3e01c-4867-4ddb-b4c3-f53bd946fe77","ios":"levelo://app?vid=89b3e01c-4867-4ddb-b4c3-f53bd946fe77"},"vehicle_type_id":"4","last_reported":1771486859,"current_range_meters":11200,"station_id":"ce4bhbh2rcd13ifvqeqg","pricing_plan_id":"cebpf4jnsgd1na2vs0mg"},{"bike_id":"012436c7-b0d2-44f6-9f1e-20d7a40c23a6","system_id":"levelo_inurba_marseille","lat":43.26221,"lon":5.40378,"is_reserved":false,"is_disabled":false,"rental_uris":{"android":"levelo://app?vid=012436c7-b0d2-44f6-9f1e-20d7a40c23a6","ios":"levelo://app?vid=012436c7-b0d2-44f6-9f1e-20d7a40c23a6"},"vehicle_type_id":"4","last_reported":1771486859,"current_range_meters":36400,"station_id":"","pricing_plan_id":"cebpf4jnsgd1na2vs0mg"},{"bike_id":"ddb35e99-7580-4184-b1a3-39dee08fd05d","system_id":"levelo_inurba_marseille","lat":43.29559,"lon":5.43917,"is_reserved":false,"is_disabled":false,"rental_uris":{"android":"levelo://app?vid=ddb35e99-7580-4184-b1a3-39dee08fd05d","ios":"levelo://app?vid=ddb35e99-7580-4184-b1a3-39dee08fd05d"},"vehicle_type_id":"4","last_reported":1771486859,"current_range_meters":11600,"station_id":"","pricing_plan_id":"cebpf4jnsgd1na2vs0mg"},{"bike_id":"4d976bf5-f813-4b36-99cd-ae82b3487f1d","system_id":"levelo_inurba_marseille","lat":43.27989,"lon":5.41667,"is_reserved":false,"is_disabled":false,"rental_uris":{"android":"levelo://app?vid=4d976bf5-f813-4b36-99cd-ae82b3487f1d","ios":"levelo://app?vid=4d976bf5-f813-4b36-99cd-ae82b3487f1d"},"vehicle_type_id":"4","last_reported":1771486859,"current_range_meters":8000,"station_id":"ce4bho12rcd13ifvqh1g","pricing_plan_id":"cebpf4jnsgd1na2vs0mg"},{"bike_id":"827af7a8-8b57-41eb-99ae-02b02347eaab","system_id":"levelo_inurba_marseille","lat":43.29247,"lon":5.38437,"is_reserved":false,"is_disabled":false,"rental_uris":{"android":"levelo://app?vid=827af7a8-8b57-41eb-99ae-02b02347eaab","ios":"levelo://app?vid=827af7a8-8b57-41eb-99ae-02b02347eaab"},"vehicle_type_id":"4","last_reported":1771486859,"current_range_meters":28400,"station_id":"ce4bh692rcd13ifvqea0","pricing_plan_id":"cebpf4jnsgd1na2vs0mg"},{"bike_id":"9f3630eb-dbc9-48cb-9dc8-34da35d113eb","system_id":"levelo_inurba_marseille","lat":43.28616,"lon":5.35105,"is_reserved":false,"is_disabled":false,"rental_uris":{"android":"levelo://app?vid=9f3630eb-dbc9-48cb-9dc8-34da35d113eb","ios":"levelo://app?vid=9f3630eb-dbc9-48cb-9dc8-34da35d113eb"},"vehicle_type_id":"4","last_reported":1771486859,"current_range_meters":29600,"station_id":"ce4bhch2rcd13ifvqeug","pricing_plan_id":"cebpf4jnsgd1na2vs0mg"},{"bike_id":"e19b4889-414f-4d16-9c91-8c493508af85","system_id":"levelo_inurba_marseille","lat":43.25929,"lon":5.40903,"is_reserved":false,"is_disabled":false,"rental_uris":{"android":"levelo://app?vid=e19b4889-414f-4d16-9c91-8c493508af85","ios":"levelo://app?vid=e19b4889-414f-4d16-9c91-8c493508af85"},"vehicle_type_id":"4","last_reported":1771486859,"current_range_meters":30000,"station_id":"ce4bhm92rcd13ifvqglg","pricing_plan_id":"cebpf4jnsgd1na2vs0mg"},{"bike_id":"e20c4760-3d10-4402-8539-0046b00120e2","system_id":"levelo_inurba_marseille","lat":43.25719,"lon":5.41108,"is_reserved":false,"is_disabled":false,"rental_uris":{"android":"levelo://app?vid=e20c4760-3d10-4402-8539-0046b00120e2","ios":"levelo://app?vid=e20c4760-3d10-4402-8539-0046b00120e2"},"vehicle_type_id":"4","last_reported":1771486859,"current_range_meters":38800,"station_id":"ce4bhkp2rcd13ifvqgd0","pricing_plan_id":"cebpf4jnsgd1na2vs0mg"},{"bike_id":"7c12a7a0-d571-4b14-a374-66210b2e0664","system_id":"levelo_inurba_marseille","lat":43.31477,"lon":5.37282,"is_reserved":false,"is_disabled":false,"rental_uris":{"android":"levelo://app?vid=7c12a7a0-d571-4b14-a374-66210b2e0664","ios":"levelo://app?vid=7c12a7a0-d571-4b14-a374-66210b2e0664"},"vehicle_type_id":"4","last_reported":1771486859,"current_range_meters":31200,"station_id":"ce4bgt12rcd13ifvqcd0","pricing_plan_id":"cebpf4jnsgd1na2vs0mg"},{"bike_id":"a99f4834-6397-4852-872f-80cdc766c1ad","system_id":"levelo_inurba_marseille","lat":43.2682,"lon":5.39393,"is_reserved":false,"is_disabled":true,"rental_uris":{"android":"levelo://app?vid=a99f4834-6397-4852-872f-80cdc766c1ad","ios":"levelo://app?vid=a99f4834-6397-4852-872f-80cdc766c1ad"},"vehicle_type_id":"4","last_reported":1771486859,"current_range_meters":38400,"station_id":"ce4bhh12rcd13ifvqfg0","pricing_plan_id":"cebpf4jnsgd1na2vs0mg"},{"bike_id":"b8924c52-cf6e-4bd9-a905-f270e5bf4932","system_id":"levelo_inurba_marseille","lat":43.30126,"lon":5.39868,"is_reserved":false,"is_disabled":false,"rental_uris":{"android":"levelo://app?vid=b8924c52-cf6e-4bd9-a905-f270e5bf4932","ios":"levelo://app?vid=b8924c52-cf6e-4bd9-a905-f270e5bf4932"},"vehicle_type_id":"4","last_reported":1771486859,"current_range_meters":3600,"station_id":"ce4bh0h2rcd13ifvqd40","pricing_plan_id":"cebpf4jnsgd1na2vs0mg"},{"bike_id":"fe6f5b89-f23b-49b2-9ff6-1649351eda2e","system_id":"levelo_inurba_marseille","lat":43.28546,"lon":5.39498,"is_reserved":false,"is_disabled":false,"rental_uris":{"android":"levelo://app?vid=fe6f5b89-f23b-49b2-9ff6-1649351eda2e","ios":"levelo://app?vid=fe6f5b89-f23b-49b2-9ff6-1649351eda2e"},"vehicle_type_id":"4","last_reported":1771486859,"current_range_meters":24000,"station_id":"ce4bh292rcd13ifvqdg0","pricing_plan_id":"cebpf4jnsgd1na2vs0mg"},{"bike_id":"9971219d-0a3d-4a1e-b734-3277b1a94a28","system_id":"levelo_inurba_marseille","lat":43.29272,"lon":5.38443,"is_reserved":false,"is_disabled":false,"rental_uris":{"android":"levelo://app?vid=9971219d-0a3d-4a1e-b734-3277b1a94a28","ios":"levelo://app?vid=9971219d-0a3d-4a1e-b734-3277b1a94a28"},"vehicle_type_id":"4","last_reported":1771486859,"current_range_meters":8400,"station_id":"ce4bh692rcd13ifvqea0","pricing_plan_id":"cebpf4jnsgd1na2vs0mg"},{"bike_id":"38e495d8-5a5e-48d0-96cb-ae45ae824053","system_id":"levelo_inurba_marseille","lat":43.30113,"lon":5.38163,"is_reserved":false,"is_disabled":false,"rental_uris":{"android":"levelo://app?vid=38e495d8-5a5e-48d0-96cb-ae45ae824053","ios":"levelo://app?vid=38e495d8-5a5e-48d0-96cb-ae45ae824053"},"vehicle_type_id":"4","last_reported":1771486859,"current_range_meters":4800,"station_id":"","pricing_plan_id":"cebpf4jnsgd1na2vs0mg"},{"bike_id":"759f0a09-9669-46dc-9822-7ecc825b93de","system_id":"levelo_inurba_marseille","lat":43.30549,"lon":5.36558,"is_reserved":false,"is_disabled":false,"rental_uris":{"android":"levelo://app?vid=759f0a09-9669-46dc-9822-7ecc825b93de","ios":"levelo://app?vid=759f0a09-9669-46dc-9822-7ecc825b93de"},"vehicle_type_id":"4","last_reported":1771486859,"current_range_meters":36400,"station_id":"ce4bgs12rcd13ifvqcag","pricing_plan_id":"cebpf4jnsgd1na2vs0mg"},{"bike_id":"32ffec6a-477b-42f8-9e4b-439374552554","system_id":"levelo_inurba_marseille","lat":43.29316,"lon":5.37441,"is_reserved":false,"is_disabled":false,"rental_uris":{"android":"levelo://app?vid=32ffec6a-477b-42f8-9e4b-439374552554","ios":"levelo://app?vid=32ffec6a-477b-42f8-9e4b-439374552554"},"vehicle_type_id":"4","last_reported":1771486859,"current_range_meters":34800,"station_id":"ce4bgi12rcd13ifvqb70","pricing_plan_id":"cebpf4jnsgd1na2vs0mg"},{"bike_id":"52f61550-53ac-43ca-b4ac-25520a40692b","system_id":"levelo_inurba_marseille","lat":43.26222,"lon":5.40453,"is_reserved":false,"is_disabled":false,"rental_uris":{"android":"levelo://app?vid=52f61550-53ac-43ca-b4ac-25520a40692b","ios":"levelo://app?vid=52f61550-53ac-43ca-b4ac-25520a40692b"},"vehicle_type_id":"4","last_reported":1771486859,"current_range_meters":10800,"station_id":"ce4bhmh2rcd13ifvqgmg","pricing_plan_id":"cebpf4jnsgd1na2vs0mg"},{"bike_id":"3a873bc2-b7d0-4d1b-9923-a0ee1c01ea72","system_id":"levelo_inurba_marseille","lat":43.30842,"lon":5.38118,"is_reserved":false,"is_disabled":true,"rental_uris":{"android":"levelo://app?vid=3a873bc2-b7d0-4d1b-9923-a0ee1c01ea72","ios":"levelo://app?vid=3a873bc2-b7d0-4d1b-9923-a0ee1c01ea72"},"vehicle_type_id":"4","last_reported":1771486859,"current_range_meters":37600,"station_id":"ce4bgt12rcd13ifvqce0","pricing_plan_id":"cebpf4jnsgd1na2vs0mg"},{"bike_id":"1f736713-40bb-4417-989e-c059341c3cc8","system_id":"levelo_inurba_marseille","lat":43.29814,"lon":5.44082,"is_reserved":false,"is_disabled":true,"rental_uris":{"android":"levelo://app?vid=1f736713-40bb-4417-989e-c059341c3cc8","ios":"levelo://app?vid=1f736713-40bb-4417-989e-c059341c3cc8"},"vehicle_type_id":"4","last_reported":1771486859,"current_range_meters":800,"station_id":"st_d3jp68qikq2c7381ktn0","pricing_plan_id":"cebpf4jnsgd1na2vs0mg"},{"bike_id":"84b0b670-200d-4214-99d4-bfcf30c671d6","system_id":"levelo_inurba_marseille","lat":43.27929,"lon":5.41065,"is_reserved":false,"is_disabled":false,"rental_uris":{"android":"levelo://app?vid=84b0b670-200d-4214-99d4-bfcf30c671d6","ios":"levelo://app?vid=84b0b670-200d-4214-99d4-bfcf30c671d6"},"vehicle_type_id":"4","last_reported":1771486859,"current_range_meters":14800,"station_id":"ce4bhnp2rcd13ifvqh0g","pricing_plan_id":"cebpf4jnsgd1na2vs0mg"},{"bike_id":"17f7ca05-9ff1-4847-81f4-6f637ce906bc","system_id":"levelo_inurba_marseille","lat":43.25333,"lon":5.42161,"is_reserved":false,"is_disabled":true,"rental_uris":{"android":"levelo://app?vid=17f7ca05-9ff1-4847-81f4-6f637ce906bc","ios":"levelo://app?vid=17f7ca05-9ff1-4847-81f4-6f637ce906bc"},"vehicle_type_id":"4","last_reported":1771486859,"current_range_meters":0,"station_id":"st_d2m65c5bi1j21697t3ng","pricing_plan_id":"cebpf4jnsgd1na2vs0mg"},{"bike_id":"2878521b-d6c1-4b3c-ba46-d42287228df6","system_id":"levelo_inurba_marseille","lat":43.30893,"lon":5.39674,"is_reserved":false,"is_disabled":false,"rental_uris":{"android":"levelo://app?vid=2878521b-d6c1-4b3c-ba46-d42287228df6","ios":"levelo://app?vid=2878521b-d6c1-4b3c-ba46-d42287228df6"},"vehicle_type_id":"4","last_reported":1771486859,"current_range_meters":3200,"station_id":"ce4bh012rcd13ifvqcv0","pricing_plan_id":"cebpf4jnsgd1na2vs0mg"},{"bike_id":"90746c53-a95b-4578-9b4a-6533394b9d7d","system_id":"levelo_inurba_marseille","lat":43.30171,"lon":5.36602,"is_reserved":false,"is_disabled":false,"rental_uris":{"android":"levelo://app?vid=90746c53-a95b-4578-9b4a-6533394b9d7d","ios":"levelo://app?vid=90746c53-a95b-4578-9b4a-6533394b9d7d"},"vehicle_type_id":"4","last_reported":1771486859,"current_range_meters":26000,"station_id":"ce4bgrh2rcd13ifvqc8g","pricing_plan_id":"cebpf4jnsgd1na2vs0mg"},{"bike_id":"3618f2db-4f56-4b38-bbb3-8ff578c5adb7","system_id":"levelo_inurba_marseille","lat":43.25822,"lon":5.39441,"is_reserved":false,"is_disabled":false,"rental_uris":{"android":"levelo://app?vid=3618f2db-4f56-4b38-bbb3-8ff578c5adb7","ios":"levelo://app?vid=3618f2db-4f56-4b38-bbb3-8ff578c5adb7"},"vehicle_type_id":"4","last_reported":1771486859,"current_range_meters":36800,"station_id":"ce4bhip2rcd13ifvqft0","pricing_plan_id":"cebpf4jnsgd1na2vs0mg"},{"bike_id":"783b5e66-d78c-4ae3-9d04-cbcffaa3b0ab","system_id":"levelo_inurba_marseille","lat":43.2436,"lon":5.37092,"is_reserved":false,"is_disabled":false,"rental_uris":{"android":"levelo://app?vid=783b5e66-d78c-4ae3-9d04-cbcffaa3b0ab","ios":"levelo://app?vid=783b5e66-d78c-4ae3-9d04-cbcffaa3b0ab"},"vehicle_type_id":"4","last_reported":1771486859,"current_range_meters":12400,"station_id":"ce4bhhh2rcd13ifvqfk0","pricing_plan_id":"cebpf4jnsgd1na2vs0mg"},{"bike_id":"d784bea9-82a5-430c-9ec4-f5350b864266","system_id":"levelo_inurba_marseille","lat":43.24063,"lon":5.37788,"is_reserved":false,"is_disabled":false,"rental_uris":{"android":"levelo://app?vid=d784bea9-82a5-430c-9ec4-f5350b864266","ios":"levelo://app?vid=d784bea9-82a5-430c-9ec4-f5350b864266"},"vehicle_type_id":"4","last_reported":1771486859,"current_range_meters":9600,"station_id":"ce4bhnp2rcd13ifvqgvg","pricing_plan_id":"cebpf4jnsgd1na2vs0mg"},{"bike_id":"6210ea03-011f-43b5-979c-84b688209c14","system_id":"levelo_inurba_marseille","lat":43.25895,"lon":5.40884,"is_reserved":false,"is_disabled":false,"rental_uris":{"android":"levelo://app?vid=6210ea03-011f-43b5-979c-84b688209c14","ios":"levelo://app?vid=6210ea03-011f-43b5-979c-84b688209c14"},"vehicle_type_id":"4","last_reported":1771486859,"current_range_meters":22400,"station_id":"ce4bhm92rcd13ifvqglg","pricing_plan_id":"cebpf4jnsgd1na2vs0mg"},{"bike_id":"ff7c6076-03ef-481d-ba9a-a74982616a5f","system_id":"levelo_inurba_marseille","lat":43.28703,"lon":5.37978,"is_reserved":false,"is_disabled":false,"rental_uris":{"android":"levelo://app?vid=ff7c6076-03ef-481d-ba9a-a74982616a5f","ios":"levelo://app?vid=ff7c6076-03ef-481d-ba9a-a74982616a5f"},"vehicle_type_id":"4","last_reported":1771486859,"current_range_meters":39200,"station_id":"ce4bh9p2rcd13ifvqec0","pricing_plan_id":"cebpf4jnsgd1na2vs0mg"},{"bike_id":"883ef81b-2398-40c3-8b0c-1943ff78bd3f","system_id":"levelo_inurba_marseille","lat":43.2466,"lon":5.38183,"is_reserved":false,"is_disabled":true,"rental_uris":{"android":"levelo://app?vid=883ef81b-2398-40c3-8b0c-1943ff78bd3f","ios":"levelo://app?vid=883ef81b-2398-40c3-8b0c-1943ff78bd3f"},"vehicle_type_id":"4","last_reported":1771486859,"current_range_meters":38400,"station_id":"ce4bhih2rcd13ifvqfr0","pricing_plan_id":"cebpf4jnsgd1na2vs0mg"},{"bike_id":"6490eec2-c2e9-42ad-aca0-95d82ccfc451","system_id":"levelo_inurba_marseille","lat":43.292337,"lon":5.360595,"is_reserved":false,"is_disabled":false,"rental_uris":{"android":"levelo://app?vid=6490eec2-c2e9-42ad-aca0-95d82ccfc451","ios":"levelo://app?vid=6490eec2-c2e9-42ad-aca0-95d82ccfc451"},"vehicle_type_id":"4","last_reported":1771486859,"current_range_meters":9600,"station_id":"ce4bhbh2rcd13ifvqeqg","pricing_plan_id":"cebpf4jnsgd1na2vs0mg"},{"bike_id":"fac37d59-7173-486d-84e4-f215994ed327","system_id":"levelo_inurba_marseille","lat":43.26211,"lon":5.37939,"is_reserved":false,"is_disabled":false,"rental_uris":{"android":"levelo://app?vid=fac37d59-7173-486d-84e4-f215994ed327","ios":"levelo://app?vid=fac37d59-7173-486d-84e4-f215994ed327"},"vehicle_type_id":"4","last_reported":1771486859,"current_range_meters":22400,"station_id":"ce4bhjp2rcd13ifvqg90","pricing_plan_id":"cebpf4jnsgd1na2vs0mg"},{"bike_id":"10a2dea5-76af-489d-bde2-bf96f99e6687","system_id":"levelo_inurba_marseille","lat":43.29565,"lon":5.39975,"is_reserved":false,"is_disabled":true,"rental_uris":{"android":"levelo://app?vid=10a2dea5-76af-489d-bde2-bf96f99e6687","ios":"levelo://app?vid=10a2dea5-76af-489d-bde2-bf96f99e6687"},"vehicle_type_id":"4","last_reported":1771486859,"current_range_meters":36800,"station_id":"ce4bh312rcd13ifvqdj0","pricing_plan_id":"cebpf4jnsgd1na2vs0mg"},{"bike_id":"10578348-9301-4a48-b882-b725d14729e6","system_id":"levelo_inurba_marseille","lat":43.30973,"lon":5.40165,"is_reserved":false,"is_disabled":false,"rental_uris":{"android":"levelo://app?vid=10578348-9301-4a48-b882-b725d14729e6","ios":"levelo://app?vid=10578348-9301-4a48-b882-b725d14729e6"},"vehicle_type_id":"4","last_reported":1771486859,"current_range_meters":12800,"station_id":"ce4bgvp2rcd13ifvqct0","pricing_plan_id":"cebpf4jnsgd1na2vs0mg"},{"bike_id":"2f23e05b-5173-4376-83e2-eba7b9bdc046","system_id":"levelo_inurba_marseille","lat":43.29817,"lon":5.44083,"is_reserved":false,"is_disabled":false,"rental_uris":{"android":"levelo://app?vid=2f23e05b-5173-4376-83e2-eba7b9bdc046","ios":"levelo://app?vid=2f23e05b-5173-4376-83e2-eba7b9bdc046"},"vehicle_type_id":"4","last_reported":1771486859,"current_range_meters":24400,"station_id":"st_d3jp68qikq2c7381ktn0","pricing_plan_id":"cebpf4jnsgd1na2vs0mg"},{"bike_id":"f5a83828-f353-4692-b521-be18cc9b6b45","system_id":"levelo_inurba_marseille","lat":43.28969,"lon":5.35608,"is_reserved":false,"is_disabled":false,"rental_uris":{"android":"levelo://app?vid=f5a83828-f353-4692-b521-be18cc9b6b45","ios":"levelo://app?vid=f5a83828-f353-4692-b521-be18cc9b6b45"},"vehicle_type_id":"4","last_reported":1771486859,"current_range_meters":21600,"station_id":"ce4bhb92rcd13ifvqen0","pricing_plan_id":"cebpf4jnsgd1na2vs0mg"},{"bike_id":"247b3ee7-3431-4f78-a874-d985911dee32","system_id":"levelo_inurba_marseille","lat":43.29802,"lon":5.40403,"is_reserved":false,"is_disabled":false,"rental_uris":{"android":"levelo://app?vid=247b3ee7-3431-4f78-a874-d985911dee32","ios":"levelo://app?vid=247b3ee7-3431-4f78-a874-d985911dee32"},"vehicle_type_id":"4","last_reported":1771486859,"current_range_meters":38400,"station_id":"ce4bh112rcd13ifvqd90","pricing_plan_id":"cebpf4jnsgd1na2vs0mg"},{"bike_id":"effcabf8-7167-4bc3-9f77-4c6283c842bb","system_id":"levelo_inurba_marseille","lat":43.31128,"lon":5.37768,"is_reserved":false,"is_disabled":false,"rental_uris":{"android":"levelo://app?vid=effcabf8-7167-4bc3-9f77-4c6283c842bb","ios":"levelo://app?vid=effcabf8-7167-4bc3-9f77-4c6283c842bb"},"vehicle_type_id":"4","last_reported":1771486859,"current_range_meters":39200,"station_id":"ce4bgt92rcd13ifvqcg0","pricing_plan_id":"cebpf4jnsgd1na2vs0mg"},{"bike_id":"80a80716-6c7c-46f5-97c7-371ec2ebac7a","system_id":"levelo_inurba_marseille","lat":43.30917,"lon":5.40175,"is_reserved":false,"is_disabled":false,"rental_uris":{"android":"levelo://app?vid=80a80716-6c7c-46f5-97c7-371ec2ebac7a","ios":"levelo://app?vid=80a80716-6c7c-46f5-97c7-371ec2ebac7a"},"vehicle_type_id":"4","last_reported":1771486859,"current_range_meters":24800,"station_id":"ce4bgvp2rcd13ifvqct0","pricing_plan_id":"cebpf4jnsgd1na2vs0mg"},{"bike_id":"aa2207b7-265c-4ad3-bf19-8d2f813f1c3e","system_id":"levelo_inurba_marseille","lat":43.2455,"lon":5.39525,"is_reserved":false,"is_disabled":true,"rental_uris":{"android":"levelo://app?vid=aa2207b7-265c-4ad3-bf19-8d2f813f1c3e","ios":"levelo://app?vid=aa2207b7-265c-4ad3-bf19-8d2f813f1c3e"},"vehicle_type_id":"4","last_reported":1771486859,"current_range_meters":27200,"station_id":"ce4bhlp2rcd13ifvqgjg","pricing_plan_id":"cebpf4jnsgd1na2vs0mg"},{"bike_id":"73bf502a-28e1-47b3-aaa9-7c0f62e718cb","system_id":"levelo_inurba_marseille","lat":43.298717,"lon":5.397746,"is_reserved":false,"is_disabled":false,"rental_uris":{"android":"levelo://app?vid=73bf502a-28e1-47b3-aaa9-7c0f62e718cb","ios":"levelo://app?vid=73bf502a-28e1-47b3-aaa9-7c0f62e718cb"},"vehicle_type_id":"4","last_reported":1771486859,"current_range_meters":4000,"station_id":"ce4bh0h2rcd13ifvqd50","pricing_plan_id":"cebpf4jnsgd1na2vs0mg"},{"bike_id":"b04c83c8-c470-4cfc-888e-36dd483ca59e","system_id":"levelo_inurba_marseille","lat":43.25579,"lon":5.3824,"is_reserved":false,"is_disabled":false,"rental_uris":{"android":"levelo://app?vid=b04c83c8-c470-4cfc-888e-36dd483ca59e","ios":"levelo://app?vid=b04c83c8-c470-4cfc-888e-36dd483ca59e"},"vehicle_type_id":"4","last_reported":1771486859,"current_range_meters":33200,"station_id":"ce4bhih2rcd13ifvqfs0","pricing_plan_id":"cebpf4jnsgd1na2vs0mg"},{"bike_id":"def38e2c-7a4d-499b-bfbc-57e448ac5383","system_id":"levelo_inurba_marseille","lat":43.29244,"lon":5.40175,"is_reserved":false,"is_disabled":false,"rental_uris":{"android":"levelo://app?vid=def38e2c-7a4d-499b-bfbc-57e448ac5383","ios":"levelo://app?vid=def38e2c-7a4d-499b-bfbc-57e448ac5383"},"vehicle_type_id":"4","last_reported":1771486859,"current_range_meters":36000,"station_id":"","pricing_plan_id":"cebpf4jnsgd1na2vs0mg"},{"bike_id":"f8df57cb-120a-4af2-869d-3dd7ec6f3729","system_id":"levelo_inurba_marseille","lat":43.298046,"lon":5.380092,"is_reserved":false,"is_disabled":false,"rental_uris":{"android":"levelo://app?vid=f8df57cb-120a-4af2-869d-3dd7ec6f3729","ios":"levelo://app?vid=f8df57cb-120a-4af2-869d-3dd7ec6f3729"},"vehicle_type_id":"4","last_reported":1771486859,"current_range_meters":26000,"station_id":"","pricing_plan_id":"cebpf4jnsgd1na2vs0mg"},{"bike_id":"c1b93aaa-3851-4141-a3a2-469a9b9eac56","system_id":"levelo_inurba_marseille","lat":43.31159,"lon":5.36839,"is_reserved":false,"is_disabled":false,"rental_uris":{"android":"levelo://app?vid=c1b93aaa-3851-4141-a3a2-469a9b9eac56","ios":"levelo://app?vid=c1b93aaa-3851-4141-a3a2-469a9b9eac56"},"vehicle_type_id":"4","last_reported":1771486859,"current_range_meters":38400,"station_id":"","pricing_plan_id":"cebpf4jnsgd1na2vs0mg"},{"bike_id":"2c2661ae-ead4-40d4-991b-9fc93c540ace","system_id":"levelo_inurba_marseille","lat":43.27514,"lon":5.4247,"is_reserved":false,"is_disabled":false,"rental_uris":{"android":"levelo://app?vid=2c2661ae-ead4-40d4-991b-9fc93c540ace","ios":"levelo://app?vid=2c2661ae-ead4-40d4-991b-9fc93c540ace"},"vehicle_type_id":"4","last_reported":1771486859,"current_range_meters":20000,"station_id":"ce4bhn92rcd13ifvqgrg","pricing_plan_id":"cebpf4jnsgd1na2vs0mg"},{"bike_id":"0d5346b9-e7e9-4a37-8294-bc47276bfc5b","system_id":"levelo_inurba_marseille","lat":43.30615,"lon":5.37255,"is_reserved":false,"is_disabled":false,"rental_uris":{"android":"levelo://app?vid=0d5346b9-e7e9-4a37-8294-bc47276bfc5b","ios":"levelo://app?vid=0d5346b9-e7e9-4a37-8294-bc47276bfc5b"},"vehicle_type_id":"4","last_reported":1771486859,"current_range_meters":38400,"station_id":"ce4bgqh2rcd13ifvqc4g","pricing_plan_id":"cebpf4jnsgd1na2vs0mg"},{"bike_id":"b4310c99-a712-4ef3-a6ad-c2642579f46f","system_id":"levelo_inurba_marseille","lat":43.24684,"lon":5.38154,"is_reserved":false,"is_disabled":false,"rental_uris":{"android":"levelo://app?vid=b4310c99-a712-4ef3-a6ad-c2642579f46f","ios":"levelo://app?vid=b4310c99-a712-4ef3-a6ad-c2642579f46f"},