{"last_updated":1742148743,"ttl":60,"version":"2.2","data":{"bikes":[{"bike_id":"76e922d4-42a2-4d77-970f-288fe021ff92","system_id":"levelo_inurba_marseille","lat":43.28613,"lon":5.3509,"is_reserved":false,"is_disabled":false,"rental_uris":{"android":"levelo://app?vid=76e922d4-42a2-4d77-970f-288fe021ff92","ios":"levelo://app?vid=76e922d4-42a2-4d77-970f-288fe021ff92"},"vehicle_type_id":"4","last_reported":1742148743,"current_range_meters":2800,"station_id":"ce4bhch2rcd13ifvqeug","pricing_plan_id":"cebpf4jnsgd1na2vs0mg"},{"bike_id":"52bf401c-325a-45fd-867d-5dfbf20396bb","system_id":"levelo_inurba_marseille","lat":43.25111,"lon":5.40334,"is_reserved":false,"is_disabled":false,"rental_uris":{"android":"levelo://app?vid=52bf401c-325a-45fd-867d-5dfbf20396bb","ios":"levelo://app?vid=52bf401c-325a-45fd-867d-5dfbf20396bb"},"vehicle_type_id":"4","last_reported":1742148743,"current_range_meters":2800,"station_id":"ce4bhlh2rcd13ifvqgig","pricing_plan_id":"cebpf4jnsgd1na2vs0mg"},{"bike_id":"b5567a47-45bc-401c-b9dd-7a1206b480f1","system_id":"levelo_inurba_marseille","lat":43.28622,"lon":5.35114,"is_reserved":false,"is_disabled":false,"rental_uris":{"android":"levelo://app?vid=b5567a47-45bc-401c-b9dd-7a1206b480f1","ios":"levelo://app?vid=b5567a47-45bc-401c-b9dd-7a1206b480f1"},"vehicle_type_id":"4","last_reported":1742148743,"current_range_meters":2800,"station_id":"ce4bhch2rcd13ifvqeug","pricing_plan_id":"cebpf4jnsgd1na2vs0mg"},{"bike_id":"88c2ec9c-c2ee-474d-a6aa-dbb7a53fc0ca","system_id":"levelo_inurba_marseille","lat":43.24174,"lon":5.39737,"is_reserved":false,"is_disabled":true,"rental_uris":{"android":"levelo://app?vid=88c2ec9c-c2ee-474d-a6aa-dbb7a53fc0ca","ios":"levelo://app?vid=88c2ec9c-c2ee-474d-a6aa-dbb7a53fc0ca"},"vehicle_type_id":"4","last_reported":1742148743,"current_range_meters":2800,"station_id":"ce4bhn12rcd13ifvqgpg","pricing_plan_id":"cebpf4jnsgd1na2vs0mg"},{"bike_id":"2e5ce93a-841a-402d-9ce9-7f2ba0f1658f","system_id":"levelo_inurba_marseille","lat":43.28422,"lon":5.37509,"is_reserved":false,"is_disabled":false,"rental_uris":{"android":"levelo://app?vid=2e5ce93a-841a-402d-9ce9-7f2ba0f1658f","ios":"levelo://app?vid=2e5ce93a-841a-402d-9ce9-7f2ba0f1658f"},"vehicle_type_id":"4","last_reported":1742148743,"current_range_meters":2800,"station_id":"ce4bh412rcd13ifvqds0","pricing_plan_id":"cebpf4jnsgd1na2vs0mg"},{"bike_id":"623aaf6d-6edc-485d-9f20-681f6cdbe814","system_id":"levelo_inurba_marseille","lat":43.26491,"lon":5.39579,"is_reserved":false,"is_disabled":false,"rental_uris":{"android":"levelo://app?vid=623aaf6d-6edc-485d-9f20-681f6cdbe814","ios":"levelo://app?vid=623aaf6d-6edc-485d-9f20-681f6cdbe814"},"vehicle_type_id":"4","last_reported":1742148743,"current_range_meters":2800,"station_id":"ce4bhi12rcd13ifvqfq0","pricing_plan_id":"cebpf4jnsgd1na2vs0mg"},{"bike_id":"a1712832-b1a0-4d0c-be03-16184430a885","system_id":"levelo_inurba_marseille","lat":43.29051,"lon":5.38189,"is_reserved":false,"is_disabled":true,"rental_uris":{"android":"levelo://app?vid=a1712832-b1a0-4d0c-be03-16184430a885","ios":"levelo://app?vid=a1712832-b1a0-4d0c-be03-16184430a885"},"vehicle_type_id":"4","last_reported":1742148743,"current_range_meters":2800,"station_id":"","pricing_plan_id":"cebpf4jnsgd1na2vs0mg"},{"bike_id":"6d4df12d-01d2-40f2-9daf-f5d65382b96d","system_id":"levelo_inurba_marseille","lat":43.25729,"lon":5.4111,"is_reserved":false,"is_disabled":false,"rental_uris":{"android":"levelo://app?vid=6d4df12d-01d2-40f2-9daf-f5d65382b96d","ios":"levelo://app?vid=6d4df12d-01d2-40f2-9daf-f5d65382b96d"},"vehicle_type_id":"4","last_reported":1742148743,"current_range_meters":2800,"station_id":"ce4bhkp2rcd13ifvqgd0","pricing_plan_id":"cebpf4jnsgd1na2vs0mg"},{"bike_id":"8ca1ec8b-b275-4c52-b06d-62edf3419828","system_id":"levelo_inurba_marseille","lat":43.30321,"lon":5.36897,"is_reserved":false,"is_disabled":false,"rental_uris":{"android":"levelo://app?vid=8ca1ec8b-b275-4c52-b06d-62edf3419828","ios":"levelo://app?vid=8ca1ec8b-b275-4c52-b06d-62edf3419828"},"vehicle_type_id":"4","last_reported":1742148743,"current_range_meters":2800,"station_id":"ce4bgqh2rcd13ifvqc5g","pricing_plan_id":"cebpf4jnsgd1na2vs0mg"},{"bike_id":"d9c3d499-57ab-4834-a325-5e83b28028ea","system_id":"levelo_inurba_marseille","lat":43.30332,"lon":5.40432,"is_reserved":false,"is_disabled":false,"rental_uris":{"android":"levelo://app?vid=d9c3d499-57ab-4834-a325-5e83b28028ea","ios":"levelo://app?vid=d9c3d499-57ab-4834-a325-5e83b28028ea"},"vehicle_type_id":"4","last_reported":1742148743,"current_range_meters":2800,"station_id":"ce4bh012rcd13ifvqd10","pricing_plan_id":"cebpf4jnsgd1na2vs0mg"},{"bike_id":"ef0420cd-62d9-46e6-bc23-a8b7c01978bb","system_id":"levelo_inurba_marseille","lat":43.29784,"lon":5.38128,"is_reserved":false,"is_disabled":true,"rental_uris":{"android":"levelo://app?vid=ef0420cd-62d9-46e6-bc23-a8b7c01978bb","ios":"levelo://app?vid=ef0420cd-62d9-46e6-bc23-a8b7c01978bb"},"vehicle_type_id":"4","last_reported":1742148743,"current_range_meters":2800,"station_id":"ce4bgip2rcd13ifvqbb0","pricing_plan_id":"cebpf4jnsgd1na2vs0mg"},{"bike_id":"8edc5ab0-1af0-4fee-8eff-75f20f26be0a","system_id":"levelo_inurba_marseille","lat":43.2844,"lon":5.3919,"is_reserved":false,"is_disabled":false,"rental_uris":{"android":"levelo://app?vid=8edc5ab0-1af0-4fee-8eff-75f20f26be0a","ios":"levelo://app?vid=8edc5ab0-1af0-4fee-8eff-75f20f26be0a"},"vehicle_type_id":"4","last_reported":1742148743,"current_range_meters":3200,"station_id":"ce4bhoh2rcd13ifvqh5g","pricing_plan_id":"cebpf4jnsgd1na2vs0mg"},{"bike_id":"ccc37bd6-9d9d-4b27-b736-482ec88e52df","system_id":"levelo_inurba_marseille","lat":43.30137,"lon":5.38806,"is_reserved":false,"is_disabled":false,"rental_uris":{"android":"levelo://app?vid=ccc37bd6-9d9d-4b27-b736-482ec88e52df","ios":"levelo://app?vid=ccc37bd6-9d9d-4b27-b736-482ec88e52df"},"vehicle_type_id":"4","last_reported":1742148743,"current_range_meters":3200,"station_id":"ce4bghh2rcd13ifvqb60","pricing_plan_id":"cebpf4jnsgd1na2vs0mg"},{"bike_id":"0a3e512f-a9c9-48a1-998f-f98a0422d925","system_id":"levelo_inurba_marseille","lat":43.29381,"lon":5.37866,"is_reserved":false,"is_disabled":false,"rental_uris":{"android":"levelo://app?vid=0a3e512f-a9c9-48a1-998f-f98a0422d925","ios":"levelo://app?vid=0a3e512f-a9c9-48a1-998f-f98a0422d925"},"vehicle_type_id":"4","last_reported":1742148743,"current_range_meters":3200,"station_id":"ce4bgjh2rcd13ifvqbf0","pricing_plan_id":"cebpf4jnsgd1na2vs0mg"},{"bike_id":"deb88d66-f622-4a31-8569-ba6497ae8538","system_id":"levelo_inurba_marseille","lat":43.27071,"lon":5.42289,"is_reserved":false,"is_disabled":false,"rental_uris":{"android":"levelo://app?vid=deb88d66-f622-4a31-8569-ba6497ae8538","ios":"levelo://app?vid=deb88d66-f622-4a31-8569-ba6497ae8538"},"vehicle_type_id":"4","last_reported":1742148743,"current_range_meters":3200,"station_id":"ce4bhk92rcd13ifvqgb0","pricing_plan_id":"cebpf4jnsgd1na2vs0mg"},{"bike_id":"48906ba6-a08b-4c5e-9745-d556b40270a7","system_id":"levelo_inurba_marseille","lat":43.29002,"lon":5.38666,"is_reserved":false,"is_disabled":false,"rental_uris":{"android":"levelo://app?vid=48906ba6-a08b-4c5e-9745-d556b40270a7","ios":"levelo://app?vid=48906ba6-a08b-4c5e-9745-d556b40270a7"},"vehicle_type_id":"4","last_reported":1742148743,"current_range_meters":3200,"station_id":"ce4bh4p2rcd13ifvqe0g","pricing_plan_id":"cebpf4jnsgd1na2vs0mg"},{"bike_id":"fe50e661-8649-43b8-baec-05e401fbab78","system_id":"levelo_inurba_marseille","lat":43.28573,"lon":5.39495,"is_reserved":false,"is_disabled":false,"rental_uris":{"android":"levelo://app?vid=fe50e661-8649-43b8-baec-05e401fbab78","ios":"levelo://app?vid=fe50e661-8649-43b8-baec-05e401fbab78"},"vehicle_type_id":"4","last_reported":1742148743,"current_range_meters":3200,"station_id":"ce4bh292rcd13ifvqdg0","pricing_plan_id":"cebpf4jnsgd1na2vs0mg"},{"bike_id":"4e12691a-07ff-4c49-894d-e054de7652ca","system_id":"levelo_inurba_marseille","lat":43.29599,"lon":5.381036,"is_reserved":false,"is_disabled":false,"rental_uris":{"android":"levelo://app?vid=4e12691a-07ff-4c49-894d-e054de7652ca","ios":"levelo://app?vid=4e12691a-07ff-4c49-894d-e054de7652ca"},"vehicle_type_id":"4","last_reported":1742148743,"current_range_meters":3600,"station_id":"ce4bgvh2rcd13ifvqcs0","pricing_plan_id":"cebpf4jnsgd1na2vs0mg"},{"bike_id":"11d63af0-6f0e-403d-bb40-fcf9136dc827","system_id":"levelo_inurba_marseille","lat":43.28421,"lon":5.37523,"is_reserved":false,"is_disabled":false,"rental_uris":{"android":"levelo://app?vid=11d63af0-6f0e-403d-bb40-fcf9136dc827","ios":"levelo://app?vid=11d63af0-6f0e-403d-bb40-fcf9136dc827"},"vehicle_type_id":"4","last_reported":1742148743,"current_range_meters":3600,"station_id":"ce4bh412rcd13ifvqds0","pricing_plan_id":"cebpf4jnsgd1na2vs0mg"},{"bike_id":"e428ab23-7fe4-4066-9953-e6f96a4e6220","system_id":"levelo_inurba_marseille","lat":43.27998,"lon":5.40026,"is_reserved":false,"is_disabled":false,"rental_uris":{"android":"levelo://app?vid=e428ab23-7fe4-4066-9953-e6f96a4e6220","ios":"levelo://app?vid=e428ab23-7fe4-4066-9953-e6f96a4e6220"},"vehicle_type_id":"4","last_reported":1742148743,"current_range_meters":3600,"station_id":"ce4bho92rcd13ifvqh4g","pricing_plan_id":"cebpf4jnsgd1na2vs0mg"},{"bike_id":"3098645a-3d4d-457b-bf46-c3d5957f4b14","system_id":"levelo_inurba_marseille","lat":43.31485,"lon":5.37291,"is_reserved":false,"is_disabled":false,"rental_uris":{"android":"levelo://app?vid=3098645a-3d4d-457b-bf46-c3d5957f4b14","ios":"levelo://app?vid=3098645a-3d4d-457b-bf46-c3d5957f4b14"},"vehicle_type_id":"4","last_reported":1742148743,"current_range_meters":3600,"station_id":"ce4bgt12rcd13ifvqcd0","pricing_plan_id":"cebpf4jnsgd1na2vs0mg"},{"bike_id":"12349ae3-7409-45c1-bc76-a9002585bdeb","system_id":"levelo_inurba_marseille","lat":43.24095,"lon":5.37757,"is_reserved":false,"is_disabled":false,"rental_uris":{"android":"levelo://app?vid=12349ae3-7409-45c1-bc76-a9002585bdeb","ios":"levelo://app?vid=12349ae3-7409-45c1-bc76-a9002585bdeb"},"vehicle_type_id":"4","last_reported":1742148743,"current_range_meters":3600,"station_id":"ce4bhnp2rcd13ifvqgvg","pricing_plan_id":"cebpf4jnsgd1na2vs0mg"},{"bike_id":"08fbf4c3-d024-4248-8e95-d5d510837b3c","system_id":"levelo_inurba_marseille","lat":43.29055,"lon":5.38691,"is_reserved":false,"is_disabled":false,"rental_uris":{"android":"levelo://app?vid=08fbf4c3-d024-4248-8e95-d5d510837b3c","ios":"levelo://app?vid=08fbf4c3-d024-4248-8e95-d5d510837b3c"},"vehicle_type_id":"4","last_reported":1742148743,"current_range_meters":4000,"station_id":"ce4bh4p2rcd13ifvqe0g","pricing_plan_id":"cebpf4jnsgd1na2vs0mg"},{"bike_id":"0cb47034-7ffe-4bd3-ab2a-70c476c0737b","system_id":"levelo_inurba_marseille","lat":43.2805,"lon":5.36953,"is_reserved":false,"is_disabled":false,"rental_uris":{"android":"levelo://app?vid=0cb47034-7ffe-4bd3-ab2a-70c476c0737b","ios":"levelo://app?vid=0cb47034-7ffe-4bd3-ab2a-70c476c0737b"},"vehicle_type_id":"4","last_reported":1742148743,"current_range_meters":4000,"station_id":"ce4bha12rcd13ifvqef0","pricing_plan_id":"cebpf4jnsgd1na2vs0mg"},{"bike_id":"081f5a22-01f9-4f6a-8e6b-b5185b865757","system_id":"levelo_inurba_marseille","lat":43.29804,"lon":5.38087,"is_reserved":false,"is_disabled":false,"rental_uris":{"android":"levelo://app?vid=081f5a22-01f9-4f6a-8e6b-b5185b865757","ios":"levelo://app?vid=081f5a22-01f9-4f6a-8e6b-b5185b865757"},"vehicle_type_id":"4","last_reported":1742148743,"current_range_meters":4000,"station_id":"ce4bgip2rcd13ifvqbb0","pricing_plan_id":"cebpf4jnsgd1na2vs0mg"},{"bike_id":"d4e24dda-99f4-4115-8c9a-9ba00b9c9f3c","system_id":"levelo_inurba_marseille","lat":43.31126,"lon":5.37777,"is_reserved":false,"is_disabled":false,"rental_uris":{"android":"levelo://app?vid=d4e24dda-99f4-4115-8c9a-9ba00b9c9f3c","ios":"levelo://app?vid=d4e24dda-99f4-4115-8c9a-9ba00b9c9f3c"},"vehicle_type_id":"4","last_reported":1742148743,"current_range_meters":4000,"station_id":"ce4bgt92rcd13ifvqcg0","pricing_plan_id":"cebpf4jnsgd1na2vs0mg"},{"bike_id":"edd2fa11-7b39-430e-a40a-042abf7a2557","system_id":"levelo_inurba_marseille","lat":43.31324,"lon":5.39697,"is_reserved":false,"is_disabled":false,"rental_uris":{"android":"levelo://app?vid=edd2fa11-7b39-430e-a40a-042abf7a2557","ios":"levelo://app?vid=edd2fa11-7b39-430e-a40a-042abf7a2557"},"vehicle_type_id":"4","last_reported":1742148743,"current_range_meters":4000,"station_id":"ce4bgvp2rcd13ifvqcu0","pricing_plan_id":"cebpf4jnsgd1na2vs0mg"},{"bike_id":"832d4ee6-23fb-4c75-9bc5-6a2d919c8c55","system_id":"levelo_inurba_marseille","lat":43.25973,"lon":5.40909,"is_reserved":false,"is_disabled":false,"rental_uris":{"android":"levelo://app?vid=832d4ee6-23fb-4c75-9bc5-6a2d919c8c55","ios":"levelo://app?vid=832d4ee6-23fb-4c75-9bc5-6a2d919c8c55"},"vehicle_type_id":"4","last_reported":1742148743,"current_range_meters":4000,"station_id":"ce4bhm92rcd13ifvqglg","pricing_plan_id":"cebpf4jnsgd1na2vs0mg"},{"bike_id":"76b415aa-d90d-4b4c-9954-2e46fdae4260","system_id":"levelo_inurba_marseille","lat":43.29003,"lon":5.35608,"is_reserved":false,"is_disabled":true,"rental_uris":{"android":"levelo://app?vid=76b415aa-d90d-4b4c-9954-2e46fdae4260","ios":"levelo://app?vid=76b415aa-d90d-4b4c-9954-2e46fdae4260"},"vehicle_type_id":"4","last_reported":1742148743,"current_range_meters":4400,"station_id":"ce4bhb92rcd13ifvqen0","pricing_plan_id":"cebpf4jnsgd1na2vs0mg"},{"bike_id":"21cfacd0-8fc8-454a-8a3f-d36bcdb61b05","system_id":"levelo_inurba_marseille","lat":43.27985,"lon":5.38766,"is_reserved":false,"is_disabled":true,"rental_uris":{"android":"levelo://app?vid=21cfacd0-8fc8-454a-8a3f-d36bcdb61b05","ios":"levelo://app?vid=21cfacd0-8fc8-454a-8a3f-d36bcdb61b05"},"vehicle_type_id":"4","last_reported":1742148743,"current_range_meters":4400,"station_id":"ce4bhg12rcd13ifvqf80","pricing_plan_id":"cebpf4jnsgd1na2vs0mg"},{"bike_id":"aa795381-5174-4265-abe3-ddbff84516c8","system_id":"levelo_inurba_marseille","lat":43.301404,"lon":5.374105,"is_reserved":false,"is_disabled":true,"rental_uris":{"android":"levelo://app?vid=aa795381-5174-4265-abe3-ddbff84516c8","ios":"levelo://app?vid=aa795381-5174-4265-abe3-ddbff84516c8"},"vehicle_type_id":"4","last_reported":1742148743,"current_range_meters":4400,"station_id":"ce4bgs92rcd13ifvqcc0","pricing_plan_id":"cebpf4jnsgd1na2vs0mg"},{"bike_id":"4c8de1ff-df9f-4e6d-be88-dd4efa282e7c","system_id":"levelo_inurba_marseille","lat":43.25821,"lon":5.38901,"is_reserved":false,"is_disabled":false,"rental_uris":{"android":"levelo://app?vid=4c8de1ff-df9f-4e6d-be88-dd4efa282e7c","ios":"levelo://app?vid=4c8de1ff-df9f-4e6d-be88-dd4efa282e7c"},"vehicle_type_id":"4","last_reported":1742148743,"current_range_meters":4400,"station_id":"","pricing_plan_id":"cebpf4jnsgd1na2vs0mg"},{"bike_id":"1fe863be-7d01-4696-b062-47f2f663bca9","system_id":"levelo_inurba_marseille","lat":43.27211,"lon":5.39203,"is_reserved":false,"is_disabled":false,"rental_uris":{"android":"levelo://app?vid=1fe863be-7d01-4696-b062-47f2f663bca9","ios":"levelo://app?vid=1fe863be-7d01-4696-b062-47f2f663bca9"},"vehicle_type_id":"4","last_reported":1742148743,"current_range_meters":4400,"station_id":"ce4bhhp2rcd13ifvqfm0","pricing_plan_id":"cebpf4jnsgd1na2vs0mg"},{"bike_id":"bf1dcd3f-6c6c-4132-bd89-dd7a93f1f7a4","system_id":"levelo_inurba_marseille","lat":43.26801,"lon":5.40248,"is_reserved":false,"is_disabled":false,"rental_uris":{"android":"levelo://app?vid=bf1dcd3f-6c6c-4132-bd89-dd7a93f1f7a4","ios":"levelo://app?vid=bf1dcd3f-6c6c-4132-bd89-dd7a93f1f7a4"},"vehicle_type_id":"4","last_reported":1742148743,"current_range_meters":4400,"station_id":"ce501612rcd8frsf0b60","pricing_plan_id":"cebpf4jnsgd1na2vs0mg"},{"bike_id":"385ae15c-2c3c-4490-a507-5eb20fb883a5","system_id":"levelo_inurba_marseille","lat":43.2594,"lon":5.40865,"is_reserved":false,"is_disabled":false,"rental_uris":{"android":"levelo://app?vid=385ae15c-2c3c-4490-a507-5eb20fb883a5","ios":"levelo://app?vid=385ae15c-2c3c-4490-a507-5eb20fb883a5"},"vehicle_type_id":"4","last_reported":1742148743,"current_range_meters":4400,"station_id":"ce4bhm92rcd13ifvqglg","pricing_plan_id":"cebpf4jnsgd1na2vs0mg"},{"bike_id":"7c17871b-4556-4e04-997c-6912dda9ff26","system_id":"levelo_inurba_marseille","lat":43.30961,"lon":5.39034,"is_reserved":false,"is_disabled":false,"rental_uris":{"android":"levelo://app?vid=7c17871b-4556-4e04-997c-6912dda9ff26","ios":"levelo://app?vid=7c17871b-4556-4e04-997c-6912dda9ff26"},"vehicle_type_id":"4","last_reported":1742148743,"current_range_meters":4400,"station_id":"ce4bgup2rcd13ifvqco0","pricing_plan_id":"cebpf4jnsgd1na2vs0mg"},{"bike_id":"6f143c5b-933e-4a51-97d8-72a3705988b8","system_id":"levelo_inurba_marseille","lat":43.32234,"lon":5.37956,"is_reserved":false,"is_disabled":false,"rental_uris":{"android":"levelo://app?vid=6f143c5b-933e-4a51-97d8-72a3705988b8","ios":"levelo://app?vid=6f143c5b-933e-4a51-97d8-72a3705988b8"},"vehicle_type_id":"4","last_reported":1742148743,"current_range_meters":4400,"station_id":"","pricing_plan_id":"cebpf4jnsgd1na2vs0mg"},{"bike_id":"50fe4c04-b0f9-447e-89b6-f9096d4961fb","system_id":"levelo_inurba_marseille","lat":43.29607,"lon":5.37732,"is_reserved":false,"is_disabled":false,"rental_uris":{"android":"levelo://app?vid=50fe4c04-b0f9-447e-89b6-f9096d4961fb","ios":"levelo://app?vid=50fe4c04-b0f9-447e-89b6-f9096d4961fb"},"vehicle_type_id":"4","last_reported":1742148743,"current_range_meters":4400,"station_id":"ce4bhqh2rcd13ifvqhmg","pricing_plan_id":"cebpf4jnsgd1na2vs0mg"},{"bike_id":"136c2305-f294-46ee-b98a-0d1ee3e07d76","system_id":"levelo_inurba_marseille","lat":43.26217,"lon":5.37438,"is_reserved":false,"is_disabled":false,"rental_uris":{"android":"levelo://app?vid=136c2305-f294-46ee-b98a-0d1ee3e07d76","ios":"levelo://app?vid=136c2305-f294-46ee-b98a-0d1ee3e07d76"},"vehicle_type_id":"4","last_reported":1742148743,"current_range_meters":4800,"station_id":"ce4bhgp2rcd13ifvqfc0","pricing_plan_id":"cebpf4jnsgd1na2vs0mg"},{"bike_id":"55c79c18-3051-431a-8aaa-7901be4aa408","system_id":"levelo_inurba_marseille","lat":43.29629,"lon":5.37709,"is_reserved":false,"is_disabled":false,"rental_uris":{"android":"levelo://app?vid=55c79c18-3051-431a-8aaa-7901be4aa408","ios":"levelo://app?vid=55c79c18-3051-431a-8aaa-7901be4aa408"},"vehicle_type_id":"4","last_reported":1742148743,"current_range_meters":4800,"station_id":"ce4bgi92rcd13ifvqb90","pricing_plan_id":"cebpf4jnsgd1na2vs0mg"},{"bike_id":"9c66c244-4d77-4fe4-a5c9-0505dcc4abfd","system_id":"levelo_inurba_marseille","lat":43.29529,"lon":5.39064,"is_reserved":false,"is_disabled":false,"rental_uris":{"android":"levelo://app?vid=9c66c244-4d77-4fe4-a5c9-0505dcc4abfd","ios":"levelo://app?vid=9c66c244-4d77-4fe4-a5c9-0505dcc4abfd"},"vehicle_type_id":"4","last_reported":1742148743,"current_range_meters":4800,"station_id":"ce4bh3p2rcd13ifvqdp0","pricing_plan_id":"cebpf4jnsgd1na2vs0mg"},{"bike_id":"43cc4cbe-b4e9-43c7-b7df-3921c563db2e","system_id":"levelo_inurba_marseille","lat":43.2737,"lon":5.36253,"is_reserved":false,"is_disabled":false,"rental_uris":{"android":"levelo://app?vid=43cc4cbe-b4e9-43c7-b7df-3921c563db2e","ios":"levelo://app?vid=43cc4cbe-b4e9-43c7-b7df-3921c563db2e"},"vehicle_type_id":"4","last_reported":1742148743,"current_range_meters":4800,"station_id":"ce4bhbh2rcd13ifvqeo0","pricing_plan_id":"cebpf4jnsgd1na2vs0mg"},{"bike_id":"a0077075-129c-41b6-a008-934f22aa9c2b","system_id":"levelo_inurba_marseille","lat":43.26191,"lon":5.37446,"is_reserved":false,"is_disabled":true,"rental_uris":{"android":"levelo://app?vid=a0077075-129c-41b6-a008-934f22aa9c2b","ios":"levelo://app?vid=a0077075-129c-41b6-a008-934f22aa9c2b"},"vehicle_type_id":"4","last_reported":1742148743,"current_range_meters":4800,"station_id":"ce4bhgp2rcd13ifvqfc0","pricing_plan_id":"cebpf4jnsgd1na2vs0mg"},{"bike_id":"a5381a7d-904a-4183-bae3-754a5bbe688b","system_id":"levelo_inurba_marseille","lat":43.24546,"lon":5.39521,"is_reserved":false,"is_disabled":false,"rental_uris":{"android":"levelo://app?vid=a5381a7d-904a-4183-bae3-754a5bbe688b","ios":"levelo://app?vid=a5381a7d-904a-4183-bae3-754a5bbe688b"},"vehicle_type_id":"4","last_reported":1742148743,"current_range_meters":4800,"station_id":"ce4bhlp2rcd13ifvqgjg","pricing_plan_id":"cebpf4jnsgd1na2vs0mg"},{"bike_id":"bdb4bfb1-14a4-46ff-b216-5b3cb0ddf95f","system_id":"levelo_inurba_marseille","lat":43.29527,"lon":5.39993,"is_reserved":false,"is_disabled":true,"rental_uris":{"android":"levelo://app?vid=bdb4bfb1-14a4-46ff-b216-5b3cb0ddf95f","ios":"levelo://app?vid=bdb4bfb1-14a4-46ff-b216-5b3cb0ddf95f"},"vehicle_type_id":"4","last_reported":1742148743,"current_range_meters":4800,"station_id":"","pricing_plan_id":"cebpf4jnsgd1na2vs0mg"},{"bike_id":"1999cecf-f38c-4961-9580-ef6a50d3e0be","system_id":"levelo_inurba_marseille","lat":43.24183,"lon":5.36388,"is_reserved":false,"is_disabled":false,"rental_uris":{"android":"levelo://app?vid=1999cecf-f38c-4961-9580-ef6a50d3e0be","ios":"levelo://app?vid=1999cecf-f38c-4961-9580-ef6a50d3e0be"},"vehicle_type_id":"4","last_reported":1742148743,"current_range_meters":4800,"station_id":"cpo36qri1sfpv3e86is0","pricing_plan_id":"cebpf4jnsgd1na2vs0mg"},{"bike_id":"34456623-a67f-4e4a-842b-533cd6e33517","system_id":"levelo_inurba_marseille","lat":43.27618,"lon":5.36112,"is_reserved":false,"is_disabled":false,"rental_uris":{"android":"levelo://app?vid=34456623-a67f-4e4a-842b-533cd6e33517","ios":"levelo://app?vid=34456623-a67f-4e4a-842b-533cd6e33517"},"vehicle_type_id":"4","last_reported":1742148743,"current_range_meters":4800,"station_id":"ce4bgj92rcd13ifvqbe0","pricing_plan_id":"cebpf4jnsgd1na2vs0mg"},{"bike_id":"c2b46955-baec-439d-bb15-de5d3076463c","system_id":"levelo_inurba_marseille","lat":43.29091,"lon":5.38118,"is_reserved":false,"is_disabled":false,"rental_uris":{"android":"levelo://app?vid=c2b46955-baec-439d-bb15-de5d3076463c","ios":"levelo://app?vid=c2b46955-baec-439d-bb15-de5d3076463c"},"vehicle_type_id":"4","last_reported":1742148743,"current_range_meters":4800,"station_id":"ce4bh512rcd13ifvqe2g","pricing_plan_id":"cebpf4jnsgd1na2vs0mg"},{"bike_id":"4bb9ea68-d27a-44b4-a228-cdf31cc9e8d5","system_id":"levelo_inurba_marseille","lat":43.28413,"lon":5.3751,"is_reserved":false,"is_disabled":false,"rental_uris":{"android":"levelo://app?vid=4bb9ea68-d27a-44b4-a228-cdf31cc9e8d5","ios":"levelo://app?vid=4bb9ea68-d27a-44b4-a228-cdf31cc9e8d5"},"vehicle_type_id":"4","last_reported":1742148743,"current_range_meters":4800,"station_id":"ce4bh412rcd13ifvqds0","pricing_plan_id":"cebpf4jnsgd1na2vs0mg"},{"bike_id":"aceb0911-b5ff-48bc-98ab-04782151c85c","system_id":"levelo_inurba_marseille","lat":43.29707,"lon":5.37692,"is_reserved":false,"is_disabled":false,"rental_uris":{"android":"levelo://app?vid=aceb0911-b5ff-48bc-98ab-04782151c85c","ios":"levelo://app?vid=aceb0911-b5ff-48bc-98ab-04782151c85c"},"vehicle_type_id":"4","last_reported":1742148743,"current_range_meters":5600,"station_id":"ce4bgkh2rcd13ifvqbl0","pricing_plan_id":"cebpf4jnsgd1na2vs0mg"},{"bike_id":"a51e83ee-53b4-4965-b5bb-694ae883e860","system_id":"levelo_inurba_marseille","lat":43.26219,"lon":5.37445,"is_reserved":false,"is_disabled":true,"rental_uris":{"android":"levelo://app?vid=a51e83ee-53b4-4965-b5bb-694ae883e860","ios":"levelo://app?vid=a51e83ee-53b4-4965-b5bb-694ae883e860"},"vehicle_type_id":"4","last_reported":1742148743,"current_range_meters":5600,"station_id":"ce4bhgp2rcd13ifvqfc0","pricing_plan_id":"cebpf4jnsgd1na2vs0mg"},{"bike_id":"f5b2c125-f6fd-4b14-83a9-5f162150ae58","system_id":"levelo_inurba_marseille","lat":43.30301,"lon":5.39226,"is_reserved":false,"is_disabled":false,"rental_uris":{"android":"levelo://app?vid=f5b2c125-f6fd-4b14-83a9-5f162150ae58","ios":"levelo://app?vid=f5b2c125-f6fd-4b14-83a9-5f162150ae58"},"vehicle_type_id":"4","last_reported":1742148743,"current_range_meters":5600,"station_id":"ce4bgkh2rcd13ifvqbk0","pricing_plan_id":"cebpf4jnsgd1na2vs0mg"},{"bike_id":"c4c002d3-8c70-4b36-8c7f-5d4af5808201","system_id":"levelo_inurba_marseille","lat":43.29204,"lon":5.39312,"is_reserved":false,"is_disabled":true,"rental_uris":{"android":"levelo://app?vid=c4c002d3-8c70-4b36-8c7f-5d4af5808201","ios":"levelo://app?vid=c4c002d3-8c70-4b36-8c7f-5d4af5808201"},"vehicle_type_id":"4","last_reported":1742148743,"current_range_meters":5600,"station_id":"ce4bh192rcd13ifvqdd0","pricing_plan_id":"cebpf4jnsgd1na2vs0mg"},{"bike_id":"37926ab0-69be-46e6-b16f-c5d780830775","system_id":"levelo_inurba_marseille","lat":43.30998,"lon":5.37723,"is_reserved":false,"is_disabled":false,"rental_uris":{"android":"levelo://app?vid=37926ab0-69be-46e6-b16f-c5d780830775","ios":"levelo://app?vid=37926ab0-69be-46e6-b16f-c5d780830775"},"vehicle_type_id":"4","last_reported":1742148743,"current_range_meters":5600,"station_id":"","pricing_plan_id":"cebpf4jnsgd1na2vs0mg"},{"bike_id":"22f1ff18-0132-4946-a97a-a47e6f70a6ed","system_id":"levelo_inurba_marseille","lat":43.22928,"lon":5.35384,"is_reserved":false,"is_disabled":false,"rental_uris":{"android":"levelo://app?vid=22f1ff18-0132-4946-a97a-a47e6f70a6ed","ios":"levelo://app?vid=22f1ff18-0132-4946-a97a-a47e6f70a6ed"},"vehicle_type_id":"4","last_reported":1742148743,"current_range_meters":5600,"station_id":"cpo3532slgdg3j2ikp40","pricing_plan_id":"cebpf4jnsgd1na2vs0mg"},{"bike_id":"de58dd31-693f-47f2-989e-fb410b10fcad","system_id":"levelo_inurba_marseille","lat":43.2319,"lon":5.39986,"is_reserved":false,"is_disabled":false,"rental_uris":{"android":"levelo://app?vid=de58dd31-693f-47f2-989e-fb410b10fcad","ios":"levelo://app?vid=de58dd31-693f-47f2-989e-fb410b10fcad"},"vehicle_type_id":"4","last_reported":1742148743,"current_range_meters":5600,"station_id":"ce4bhn12rcd13ifvqgqg","pricing_plan_id":"cebpf4jnsgd1na2vs0mg"},{"bike_id":"5355b79a-14ac-4e82-ac15-f4e136bd9933","system_id":"levelo_inurba_marseille","lat":43.295288,"lon":5.374869,"is_reserved":false,"is_disabled":false,"rental_uris":{"android":"levelo://app?vid=5355b79a-14ac-4e82-ac15-f4e136bd9933","ios":"levelo://app?vid=5355b79a-14ac-4e82-ac15-f4e136bd9933"},"vehicle_type_id":"4","last_reported":1742148743,"current_range_meters":5600,"station_id":"ce4bgph2rcd13ifvqc2g","pricing_plan_id":"cebpf4jnsgd1na2vs0mg"},{"bike_id":"8ac36ff0-95fa-4664-8e37-a03afd0a16e1","system_id":"levelo_inurba_marseille","lat":43.28963,"lon":5.37818,"is_reserved":false,"is_disabled":true,"rental_uris":{"android":"levelo://app?vid=8ac36ff0-95fa-4664-8e37-a03afd0a16e1","ios":"levelo://app?vid=8ac36ff0-95fa-4664-8e37-a03afd0a16e1"},"vehicle_type_id":"4","last_reported":1742148743,"current_range_meters":5600,"station_id":"","pricing_plan_id":"cebpf4jnsgd1na2vs0mg"},{"bike_id":"e0834956-e6d7-4bc3-862d-e76e3f887cbb","system_id":"levelo_inurba_marseille","lat":43.23056,"lon":5.35486,"is_reserved":false,"is_disabled":false,"rental_uris":{"android":"levelo://app?vid=e0834956-e6d7-4bc3-862d-e76e3f887cbb","ios":"levelo://app?vid=e0834956-e6d7-4bc3-862d-e76e3f887cbb"},"vehicle_type_id":"4","last_reported":1742148743,"current_range_meters":5600,"station_id":"cpo3342slgdg3j2ifvpg","pricing_plan_id":"cebpf4jnsgd1na2vs0mg"},{"bike_id":"bcdf70d1-98e2-46b2-86dd-446d83cd787c","system_id":"levelo_inurba_marseille","lat":43.26557,"lon":5.39068,"is_reserved":false,"is_disabled":false,"rental_uris":{"android":"levelo://app?vid=bcdf70d1-98e2-46b2-86dd-446d83cd787c","ios":"levelo://app?vid=bcdf70d1-98e2-46b2-86dd-446d83cd787c"},"vehicle_type_id":"4","last_reported":1742148743,"current_range_meters":5600,"station_id":"ce4bhe12rcd13ifvqf30","pricing_plan_id":"cebpf4jnsgd1na2vs0mg"},{"bike_id":"db021787-e39e-4e0b-a9f2-628a9938fcea","system_id":"levelo_inurba_marseille","lat":43.30154,"lon":5.39866,"is_reserved":false,"is_disabled":false,"rental_uris":{"android":"levelo://app?vid=db021787-e39e-4e0b-a9f2-628a9938fcea","ios":"levelo://app?vid=db021787-e39e-4e0b-a9f2-628a9938fcea"},"vehicle_type_id":"4","last_reported":1742148743,"current_range_meters":5600,"station_id":"ce4bh0h2rcd13ifvqd40","pricing_plan_id":"cebpf4jnsgd1na2vs0mg"},{"bike_id":"b2162390-2557-4253-8653-e2e8f83a9469","system_id":"levelo_inurba_marseille","lat":43.30926,"lon":5.40154,"is_reserved":false,"is_disabled":false,"rental_uris":{"android":"levelo://app?vid=b2162390-2557-4253-8653-e2e8f83a9469","ios":"levelo://app?vid=b2162390-2557-4253-8653-e2e8f83a9469"},"vehicle_type_id":"4","last_reported":1742148743,"current_range_meters":6000,"station_id":"ce4bgvp2rcd13ifvqct0","pricing_plan_id":"cebpf4jnsgd1na2vs0mg"},{"bike_id":"93b25774-360c-4172-8115-c211c035424b","system_id":"levelo_inurba_marseille","lat":43.292823,"lon":5.401233,"is_reserved":false,"is_disabled":false,"rental_uris":{"android":"levelo://app?vid=93b25774-360c-4172-8115-c211c035424b","ios":"levelo://app?vid=93b25774-360c-4172-8115-c211c035424b"},"vehicle_type_id":"4","last_reported":1742148743,"current_range_meters":6000,"station_id":"ce4bh312rcd13ifvqdk0","pricing_plan_id":"cebpf4jnsgd1na2vs0mg"},{"bike_id":"e82aa7a0-ceb0-4ca6-ba80-1c125c8501d9","system_id":"levelo_inurba_marseille","lat":43.26923,"lon":5.40285,"is_reserved":false,"is_disabled":false,"rental_uris":{"android":"levelo://app?vid=e82aa7a0-ceb0-4ca6-ba80-1c125c8501d9","ios":"levelo://app?vid=e82aa7a0-ceb0-4ca6-ba80-1c125c8501d9"},"vehicle_type_id":"4","last_reported":1742148743,"current_range_meters":6000,"station_id":"cjm6bp8fraef2m0cb0m0","pricing_plan_id":"cebpf4jnsgd1na2vs0mg"},{"bike_id":"b7032d54-acb2-4146-a727-5663dbeb4009","system_id":"levelo_inurba_marseille","lat":43.23188,"lon":5.39979,"is_reserved":false,"is_disabled":false,"rental_uris":{"android":"levelo://app?vid=b7032d54-acb2-4146-a727-5663dbeb4009","ios":"levelo://app?vid=b7032d54-acb2-4146-a727-5663dbeb4009"},"vehicle_type_id":"4","last_reported":1742148743,"current_range_meters":6000,"station_id":"ce4bhn12rcd13ifvqgqg","pricing_plan_id":"cebpf4jnsgd1na2vs0mg"},{"bike_id":"f12b1f65-f134-4043-85c8-ad0d6519ccec","system_id":"levelo_inurba_marseille","lat":43.27946,"lon":5.41043,"is_reserved":false,"is_disabled":false,"rental_uris":{"android":"levelo://app?vid=f12b1f65-f134-4043-85c8-ad0d6519ccec","ios":"levelo://app?vid=f12b1f65-f134-4043-85c8-ad0d6519ccec"},"vehicle_type_id":"4","last_reported":1742148743,"current_range_meters":6000,"station_id":"ce4bhnp2rcd13ifvqh0g","pricing_plan_id":"cebpf4jnsgd1na2vs0mg"},{"bike_id":"b614f100-11d7-4ef9-8f84-7c5dea0b786b","system_id":"levelo_inurba_marseille","lat":43.26945,"lon":5.40288,"is_reserved":false,"is_disabled":false,"rental_uris":{"android":"levelo://app?vid=b614f100-11d7-4ef9-8f84-7c5dea0b786b","ios":"levelo://app?vid=b614f100-11d7-4ef9-8f84-7c5dea0b786b"},"vehicle_type_id":"4","last_reported":1742148743,"current_range_meters":6000,"station_id":"cjm6bp8fraef2m0cb0m0","pricing_plan_id":"cebpf4jnsgd1na2vs0mg"},{"bike_id":"6c001d2e-b208-4ff5-a256-643169f0701b","system_id":"levelo_inurba_marseille","lat":43.23076,"lon":5.35497,"is_reserved":false,"is_disabled":false,"rental_uris":{"android":"levelo://app?vid=6c001d2e-b208-4ff5-a256-643169f0701b","ios":"levelo://app?vid=6c001d2e-b208-4ff5-a256-643169f0701b"},"vehicle_type_id":"4","last_reported":1742148743,"current_range_meters":6000,"station_id":"cpo3342slgdg3j2ifvpg","pricing_plan_id":"cebpf4jnsgd1na2vs0mg"},{"bike_id":"1ac0ebad-6828-4242-99b2-14a9f8209f79","system_id":"levelo_inurba_marseille","lat":43.23196,"lon":5.35557,"is_reserved":false,"is_disabled":false,"rental_uris":{"android":"levelo://app?vid=1ac0ebad-6828-4242-99b2-14a9f8209f79","ios":"levelo://app?vid=1ac0ebad-6828-4242-99b2-14a9f8209f79"},"vehicle_type_id":"4","last_reported":1742148743,"current_range_meters":6400,"station_id":"ce4bhu92rcd13ifvqi70","pricing_plan_id":"cebpf4jnsgd1na2vs0mg"},{"bike_id":"07d20569-353e-4eaa-a99c-477c4e53db2e","system_id":"levelo_inurba_marseille","lat":43.33023,"lon":5.39039,"is_reserved":false,"is_disabled":false,"rental_uris":{"android":"levelo://app?vid=07d20569-353e-4eaa-a99c-477c4e53db2e","ios":"levelo://app?vid=07d20569-353e-4eaa-a99c-477c4e53db2e"},"vehicle_type_id":"4","last_reported":1742148743,"current_range_meters":6400,"station_id":"ce4bhr92rcd13ifvqhrg","pricing_plan_id":"cebpf4jnsgd1na2vs0mg"},{"bike_id":"82465aa7-55ed-4055-9cc8-5fdee15ebdd8","system_id":"levelo_inurba_marseille","lat":43.27627,"lon":5.41913,"is_reserved":false,"is_disabled":false,"rental_uris":{"android":"levelo://app?vid=82465aa7-55ed-4055-9cc8-5fdee15ebdd8","ios":"levelo://app?vid=82465aa7-55ed-4055-9cc8-5fdee15ebdd8"},"vehicle_type_id":"4","last_reported":1742148743,"current_range_meters":6400,"station_id":"","pricing_plan_id":"cebpf4jnsgd1na2vs0mg"},{"bike_id":"e2390b7f-a45d-4bc4-b222-e5d9daefb7d1","system_id":"levelo_inurba_marseille","lat":43.29093,"lon":5.38155,"is_reserved":false,"is_disabled":false,"rental_uris":{"android":"levelo://app?vid=e2390b7f-a45d-4bc4-b222-e5d9daefb7d1","ios":"levelo://app?vid=e2390b7f-a45d-4bc4-b222-e5d9daefb7d1"},"vehicle_type_id":"4","last_reported":1742148743,"current_range_meters":6400,"station_id":"ce4bh512rcd13ifvqe2g","pricing_plan_id":"cebpf4jnsgd1na2vs0mg"},{"bike_id":"b97030d4-bf77-46b2-89be-636284a7bf16","system_id":"levelo_inurba_marseille","lat":43.31121,"lon":5.37763,"is_reserved":false,"is_disabled":false,"rental_uris":{"android":"levelo://app?vid=b97030d4-bf77-46b2-89be-636284a7bf16","ios":"levelo://app?vid=b97030d4-bf77-46b2-89be-636284a7bf16"},"vehicle_type_id":"4","last_reported":1742148743,"current_range_meters":6400,"station_id":"ce4bgt92rcd13ifvqcg0","pricing_plan_id":"cebpf4jnsgd1na2vs0mg"},{"bike_id":"9616bb7d-2e2f-41e6-abd7-2b8dd38dcca7","system_id":"levelo_inurba_marseille","lat":43.24814,"lon":5.37462,"is_reserved":false,"is_disabled":false,"rental_uris":{"android":"levelo://app?vid=9616bb7d-2e2f-41e6-abd7-2b8dd38dcca7","ios":"levelo://app?vid=9616bb7d-2e2f-41e6-abd7-2b8dd38dcca7"},"vehicle_type_id":"4","last_reported":1742148743,"current_range_meters":6400,"station_id":"ce4bhgh2rcd13ifvqfb0","pricing_plan_id":"cebpf4jnsgd1na2vs0mg"},{"bike_id":"efb53dda-871b-483c-8dec-e716116f9234","system_id":"levelo_inurba_marseille","lat":43.31131,"lon":5.36778,"is_reserved":false,"is_disabled":false,"rental_uris":{"android":"levelo://app?vid=efb53dda-871b-483c-8dec-e716116f9234","ios":"levelo://app?vid=efb53dda-871b-483c-8dec-e716116f9234"},"vehicle_type_id":"4","last_reported":1742148743,"current_range_meters":6400,"station_id":"","pricing_plan_id":"cebpf4jnsgd1na2vs0mg"},{"bike_id":"26ec45d2-b991-464c-99b8-c3029ea5c960","system_id":"levelo_inurba_marseille","lat":43.28477,"lon":5.3844,"is_reserved":false,"is_disabled":true,"rental_uris":{"android":"levelo://app?vid=26ec45d2-b991-464c-99b8-c3029ea5c960","ios":"levelo://app?vid=26ec45d2-b991-464c-99b8-c3029ea5c960"},"vehicle_type_id":"4","last_reported":1742148743,"current_range_meters":6400,"station_id":"ce4bh512rcd13ifvqe3g","pricing_plan_id":"cebpf4jnsgd1na2vs0mg"},{"bike_id":"6cff3099-fc62-4212-a5e6-1cc54ed7cc41","system_id":"levelo_inurba_marseille","lat":43.25063,"lon":5.38968,"is_reserved":false,"is_disabled":false,"rental_uris":{"android":"levelo://app?vid=6cff3099-fc62-4212-a5e6-1cc54ed7cc41","ios":"levelo://app?vid=6cff3099-fc62-4212-a5e6-1cc54ed7cc41"},"vehicle_type_id":"4","last_reported":1742148743,"current_range_meters":6800,"station_id":"","pricing_plan_id":"cebpf4jnsgd1na2vs0mg"},{"bike_id":"df0fd6a4-d586-41d5-bcd7-a06480a7af83","system_id":"levelo_inurba_marseille","lat":43.23196,"lon":5.39987,"is_reserved":false,"is_disabled":false,"rental_uris":{"android":"levelo://app?vid=df0fd6a4-d586-41d5-bcd7-a06480a7af83","ios":"levelo://app?vid=df0fd6a4-d586-41d5-bcd7-a06480a7af83"},"vehicle_type_id":"4","last_reported":1742148743,"current_range_meters":6800,"station_id":"ce4bhn12rcd13ifvqgqg","pricing_plan_id":"cebpf4jnsgd1na2vs0mg"},{"bike_id":"676e66c6-8e50-404c-b512-5f94c7d6a8fc","system_id":"levelo_inurba_marseille","lat":43.24164,"lon":5.36409,"is_reserved":false,"is_disabled":false,"rental_uris":{"android":"levelo://app?vid=676e66c6-8e50-404c-b512-5f94c7d6a8fc","ios":"levelo://app?vid=676e66c6-8e50-404c-b512-5f94c7d6a8fc"},"vehicle_type_id":"4","last_reported":1742148743,"current_range_meters":6800,"station_id":"cpo36qri1sfpv3e86is0","pricing_plan_id":"cebpf4jnsgd1na2vs0mg"},{"bike_id":"897cfbea-5d3b-4b99-b142-c84dc180122a","system_id":"levelo_inurba_marseille","lat":43.23203,"lon":5.35552,"is_reserved":false,"is_disabled":false,"rental_uris":{"android":"levelo://app?vid=897cfbea-5d3b-4b99-b142-c84dc180122a","ios":"levelo://app?vid=897cfbea-5d3b-4b99-b142-c84dc180122a"},"vehicle_type_id":"4","last_reported":1742148743,"current_range_meters":6800,"station_id":"ce4bhu92rcd13ifvqi70","pricing_plan_id":"cebpf4jnsgd1na2vs0mg"},{"bike_id":"457851a0-fcba-485d-9727-230994d987ce","system_id":"levelo_inurba_marseille","lat":43.29524,"lon":5.39418,"is_reserved":false,"is_disabled":true,"rental_uris":{"android":"levelo://app?vid=457851a0-fcba-485d-9727-230994d987ce","ios":"levelo://app?vid=457851a0-fcba-485d-9727-230994d987ce"},"vehicle_type_id":"4","last_reported":1742148743,"current_range_meters":6800,"station_id":"ce4bh292rcd13ifvqdf0","pricing_plan_id":"cebpf4jnsgd1na2vs0mg"},{"bike_id":"0876ea79-61b2-4a75-8d7f-5e709681d7a3","system_id":"levelo_inurba_marseille","lat":43.30904,"lon":5.39613,"is_reserved":false,"is_disabled":false,"rental_uris":{"android":"levelo://app?vid=0876ea79-61b2-4a75-8d7f-5e709681d7a3","ios":"levelo://app?vid=0876ea79-61b2-4a75-8d7f-5e709681d7a3"},"vehicle_type_id":"4","last_reported":1742148743,"current_range_meters":6800,"station_id":"ce4bh012rcd13ifvqcv0","pricing_plan_id":"cebpf4jnsgd1na2vs0mg"},{"bike_id":"0b7bfdb8-fd03-4687-9225-8085184f929c","system_id":"levelo_inurba_marseille","lat":43.32357,"lon":5.36752,"is_reserved":false,"is_disabled":false,"rental_uris":{"android":"levelo://app?vid=0b7bfdb8-fd03-4687-9225-8085184f929c","ios":"levelo://app?vid=0b7bfdb8-fd03-4687-9225-8085184f929c"},"vehicle_type_id":"4","last_reported":1742148743,"current_range_meters":6800,"station_id":"ce4bhsh2rcd13ifvqi2g","pricing_plan_id":"cebpf4jnsgd1na2vs0mg"},{"bike_id":"ae25fe52-db37-435e-90b0-0d9ecc4e1c43","system_id":"levelo_inurba_marseille","lat":43.27829,"lon":5.39209,"is_reserved":false,"is_disabled":false,"rental_uris":{"android":"levelo://app?vid=ae25fe52-db37-435e-90b0-0d9ecc4e1c43","ios":"levelo://app?vid=ae25fe52-db37-435e-90b0-0d9ecc4e1c43"},"vehicle_type_id":"4","last_reported":1742148743,"current_range_meters":6800,"station_id":"ce4bhjp2rcd13ifvqga0","pricing_plan_id":"cebpf4jnsgd1na2vs0mg"},{"bike_id":"e52b41b5-52df-4c67-a85c-3cebb3bf7504","system_id":"levelo_inurba_marseille","lat":43.32352,"lon":5.36658,"is_reserved":false,"is_disabled":false,"rental_uris":{"android":"levelo://app?vid=e52b41b5-52df-4c67-a85c-3cebb3bf7504","ios":"levelo://app?vid=e52b41b5-52df-4c67-a85c-3cebb3bf7504"},"vehicle_type_id":"4","last_reported":1742148743,"current_range_meters":6800,"station_id":"","pricing_plan_id":"cebpf4jnsgd1na2vs0mg"},{"bike_id":"8ddd42b9-729c-42ab-9baf-1371ab374db4","system_id":"levelo_inurba_marseille","lat":43.29129,"lon":5.38151,"is_reserved":false,"is_disabled":false,"rental_uris":{"android":"levelo://app?vid=8ddd42b9-729c-42ab-9baf-1371ab374db4","ios":"levelo://app?vid=8ddd42b9-729c-42ab-9baf-1371ab374db4"},"vehicle_type_id":"4","last_reported":1742148743,"current_range_meters":6800,"station_id":"ce4bh512rcd13ifvqe2g","pricing_plan_id":"cebpf4jnsgd1na2vs0mg"},{"bike_id":"7dd769be-a96c-41b3-8a44-6973fc831e5b","system_id":"levelo_inurba_marseille","lat":43.2549,"lon":5.37658,"is_reserved":false,"is_disabled":true,"rental_uris":{"android":"levelo://app?vid=7dd769be-a96c-41b3-8a44-6973fc831e5b","ios":"levelo://app?vid=7dd769be-a96c-41b3-8a44-6973fc831e5b"},"vehicle_type_id":"4","last_reported":1742148743,"current_range_meters":6800,"station_id":"ce4bhh12rcd13ifvqff0","pricing_plan_id":"cebpf4jnsgd1na2vs0mg"},{"bike_id":"71d6b220-48b3-44b0-9feb-d7bbfca6b232","system_id":"levelo_inurba_marseille","lat":43.25509,"lon":5.37657,"is_reserved":false,"is_disabled":true,"rental_uris":{"android":"levelo://app?vid=71d6b220-48b3-44b0-9feb-d7bbfca6b232","ios":"levelo://app?vid=71d6b220-48b3-44b0-9feb-d7bbfca6b232"},"vehicle_type_id":"4","last_reported":1742148743,"current_range_meters":6800,"station_id":"ce4bhh12rcd13ifvqff0","pricing_plan_id":"cebpf4jnsgd1na2vs0mg"},{"bike_id":"1ba3f37e-0729-4b3c-95fc-bcd679a2ddcd","system_id":"levelo_inurba_marseille","lat":43.2871,"lon":5.37387,"is_reserved":false,"is_disabled":false,"rental_uris":{"android":"levelo://app?vid=1ba3f37e-0729-4b3c-95fc-bcd679a2ddcd","ios":"levelo://app?vid=1ba3f37e-0729-4b3c-95fc-bcd679a2ddcd"},"vehicle_type_id":"4","last_reported":1742148743,"current_range_meters":6800,"station_id":"ce4bh3p2rcd13ifvqdq0","pricing_plan_id":"cebpf4jnsgd1na2vs0mg"},{"bike_id":"7df90f1a-4a9b-4957-86b0-d350f51aa6e9","system_id":"levelo_inurba_marseille","lat":43.27626,"lon":5.36112,"is_reserved":false,"is_disabled":false,"rental_uris":{"android":"levelo://app?vid=7df90f1a-4a9b-4957-86b0-d350f51aa6e9","ios":"levelo://app?vid=7df90f1a-4a9b-4957-86b0-d350f51aa6e9"},"vehicle_type_id":"4","last_reported":1742148743,"current_range_meters":6800,"station_id":"ce4bgj92rcd13ifvqbe0","pricing_plan_id":"cebpf4jnsgd1na2vs0mg"},{"bike_id":"7e647e22-45b0-47fe-b007-3f6ac94d2885","system_id":"levelo_inurba_marseille","lat":43.28465,"lon":5.35883,"is_reserved":false,"is_disabled":false,"rental_uris":{"android":"levelo://app?vid=7e647e22-45b0-47fe-b007-3f6ac94d2885","ios":"levelo://app?vid=7e647e22-45b0-47fe-b007-3f6ac94d2885"},"vehicle_type_id":"4","last_reported":1742148743,"current_range_meters":6800,"station_id":"ce4bhah2rcd13ifvqei0","pricing_plan_id":"cebpf4jnsgd1na2vs0mg"},{"bike_id":"be5919eb-7ab5-4a86-8b60-4fa590fe1b50","system_id":"levelo_inurba_marseille","lat":43.2736,"lon":5.36252,"is_reserved":false,"is_disabled":false,"rental_uris":{"android":"levelo://app?vid=be5919eb-7ab5-4a86-8b60-4fa590fe1b50","ios":"levelo://app?vid=be5919eb-7ab5-4a86-8b60-4fa590fe1b50"},"vehicle_type_id":"4","last_reported":1742148743,"current_range_meters":7200,"station_id":"ce4bhbh2rcd13ifvqeo0","pricing_plan_id":"cebpf4jnsgd1na2vs0mg"},{"bike_id":"410de9fa-4e99-469f-b775-267922ac4929","system_id":"levelo_inurba_marseille","lat":43.29637,"lon":5.40597,"is_reserved":false,"is_disabled":false,"rental_uris":{"android":"levelo://app?vid=410de9fa-4e99-469f-b775-267922ac4929","ios":"levelo://app?vid=410de9fa-4e99-469f-b775-267922ac4929"},"vehicle_type_id":"4","last_reported":1742148743,"current_range_meters":7200,"station_id":"ce4bh0h2rcd13ifvqd60","pricing_plan_id":"cebpf4jnsgd1na2vs0mg"},{"bike_id":"77a0d41c-a1df-4ff3-8723-dadd7fa3b31d","system_id":"levelo_inurba_marseille","lat":43.29282,"lon":5.40118,"is_reserved":false,"is_disabled":false,"rental_uris":{"android":"levelo://app?vid=77a0d41c-a1df-4ff3-8723-dadd7fa3b31d","ios":"levelo://app?vid=77a0d41c-a1df-4ff3-8723-dadd7fa3b31d"},"vehicle_type_id":"4","last_reported":1742148743,"current_range_meters":7200,"station_id":"ce4bh312rcd13ifvqdk0","pricing_plan_id":"cebpf4jnsgd1na2vs0mg"},{"bike_id":"3b4a1c8f-eea3-4c26-be69-27c86a01f730","system_id":"levelo_inurba_marseille","lat":43.28479,"lon":5.38404,"is_reserved":false,"is_disabled":false,"rental_uris":{"android":"levelo://app?vid=3b4a1c8f-eea3-4c26-be69-27c86a01f730","ios":"levelo://app?vid=3b4a1c8f-eea3-4c26-be69-27c86a01f730"},"vehicle_type_id":"4","last_reported":1742148743,"current_range_meters":7200,"station_id":"ce4bh512rcd13ifvqe3g","pricing_plan_id":"cebpf4jnsgd1na2vs0mg"},{"bike_id":"d378659a-b095-4d28-a820-d3bacca7d8f8","system_id":"levelo_inurba_marseille","lat":43.27615,"lon":5.36124,"is_reserved":false,"is_disabled":false,"rental_uris":{"android":"levelo://app?vid=d378659a-b095-4d28-a820-d3bacca7d8f8","ios":"levelo://app?vid=d378659a-b095-4d28-a820-d3bacca7d8f8"},"vehicle_type_id":"4","last_reported":1742148743,"current_range_meters":7200,"station_id":"ce4bgj92rcd13ifvqbe0","pricing_plan_id":"cebpf4jnsgd1na2vs0mg"},{"bike_id":"2127c283-3bf3-4081-9791-ba201cf5a542","system_id":"levelo_inurba_marseille","lat":43.30491,"lon":5.37376,"is_reserved":false,"is_disabled":true,"rental_uris":{"android":"levelo://app?vid=2127c283-3bf3-4081-9791-ba201cf5a542","ios":"levelo://app?vid=2127c283-3bf3-4081-9791-ba201cf5a542"},"vehicle_type_id":"4","last_reported":1742148743,"current_range_meters":7200,"station_id":"","pricing_plan_id":"cebpf4jnsgd1na2vs0mg"},{"bike_id":"9625f194-a853-4767-bda8-0eedb08b2cb3","system_id":"levelo_inurba_marseille","lat":43.28718,"lon":5.40006,"is_reserved":false,"is_disabled":true,"rental_uris":{"android":"levelo://app?vid=9625f194-a853-4767-bda8-0eedb08b2cb3","ios":"levelo://app?vid=9625f194-a853-4767-bda8-0eedb08b2cb3"},"vehicle_type_id":"4","last_reported":1742148743,"current_range_meters":7200,"station_id":"ce4bho92rcd13ifvqh3g","pricing_plan_id":"cebpf4jnsgd1na2vs0mg"},{"bike_id":"f2b7b04e-8089-4d6c-9db8-5e21bca75c26","system_id":"levelo_inurba_marseille","lat":43.27837,"lon":5.39207,"is_reserved":false,"is_disabled":true,"rental_uris":{"android":"levelo://app?vid=f2b7b04e-8089-4d6c-9db8-5e21bca75c26","ios":"levelo://app?vid=f2b7b04e-8089-4d6c-9db8-5e21bca75c26"},"vehicle_type_id":"4","last_reported":1742148743,"current_range_meters":7200,"station_id":"ce4bhjp2rcd13ifvqga0","pricing_plan_id":"cebpf4jnsgd1na2vs0mg"},{"bike_id":"edf8a4c6-0038-44ba-8f28-bc8441085f87","system_id":"levelo_inurba_marseille","lat":43.28157,"lon":5.42649,"is_reserved":false,"is_disabled":false,"rental_uris":{"android":"levelo://app?vid=edf8a4c6-0038-44ba-8f28-bc8441085f87","ios":"levelo://app?vid=edf8a4c6-0038-44ba-8f28-bc8441085f87"},"vehicle_type_id":"4","last_reported":1742148743,"current_range_meters":7200,"station_id":"ce4bhnh2rcd13ifvqgug","pricing_plan_id":"cebpf4jnsgd1na2vs0mg"},{"bike_id":"44b049af-41f4-4aa1-bc3d-1cdbe50ea005","system_id":"levelo_inurba_marseille","lat":43.26502,"lon":5.3953,"is_reserved":false,"is_disabled":false,"rental_uris":{"android":"levelo://app?vid=44b049af-41f4-4aa1-bc3d-1cdbe50ea005","ios":"levelo://app?vid=44b049af-41f4-4aa1-bc3d-1cdbe50ea005"},"vehicle_type_id":"4","last_reported":1742148743,"current_range_meters":7200,"station_id":"ce4bhi12rcd13ifvqfq0","pricing_plan_id":"cebpf4jnsgd1na2vs0mg"},{"bike_id":"0102a975-ca16-4d1e-8694-d919e87a2584","system_id":"levelo_inurba_marseille","lat":43.29562,"lon":5.42273,"is_reserved":false,"is_disabled":false,"rental_uris":{"android":"levelo://app?vid=0102a975-ca16-4d1e-8694-d919e87a2584","ios":"levelo://app?vid=0102a975-ca16-4d1e-8694-d919e87a2584"},"vehicle_type_id":"4","last_reported":1742148743,"current_range_meters":8000,"station_id":"ce4bhph2rcd13ifvqhdg","pricing_plan_id":"cebpf4jnsgd1na2vs0mg"},{"bike_id":"70e40c08-4e8e-488a-abd5-409689465472","system_id":"levelo_inurba_marseille","lat":43.23182,"lon":5.39983,"is_reserved":false,"is_disabled":false,"rental_uris":{"android":"levelo://app?vid=70e40c08-4e8e-488a-abd5-409689465472","ios":"levelo://app?vid=70e40c08-4e8e-488a-abd5-409689465472"},"vehicle_type_id":"4","last_reported":1742148743,"current_range_meters":8000,"station_id":"ce4bhn12rcd13ifvqgqg","pricing_plan_id":"cebpf4jnsgd1na2vs0mg"},{"bike_id":"40d0eacf-9894-4124-823e-679c86ff7231","system_id":"levelo_inurba_marseille","lat":43.29207,"lon":5.373194,"is_reserved":false,"is_disabled":false,"rental_uris":{"android":"levelo://app?vid=40d0eacf-9894-4124-823e-679c86ff7231","ios":"levelo://app?vid=40d0eacf-9894-4124-823e-679c86ff7231"},"vehicle_type_id":"4","last_reported":1742148743,"current_range_meters":8000,"station_id":"ce4bha92rcd13ifvqeh0","pricing_plan_id":"cebpf4jnsgd1na2vs0mg"},{"bike_id":"593c5e23-dcc1-4f98-a31f-5cf5609a6f84","system_id":"levelo_inurba_marseille","lat":43.27628,"lon":5.36122,"is_reserved":false,"is_disabled":false,"rental_uris":{"android":"levelo://app?vid=593c5e23-dcc1-4f98-a31f-5cf5609a6f84","ios":"levelo://app?vid=593c5e23-dcc1-4f98-a31f-5cf5609a6f84"},"vehicle_type_id":"4","last_reported":1742148743,"current_range_meters":8000,"station_id":"ce4bgj92rcd13ifvqbe0","pricing_plan_id":"cebpf4jnsgd1na2vs0mg"},{"bike_id":"e3acbff3-15e0-47b5-80be-e0b4d7c85f89","system_id":"levelo_inurba_marseille","lat":43.23959,"lon":5.3663,"is_reserved":false,"is_disabled":false,"rental_uris":{"android":"levelo://app?vid=e3acbff3-15e0-47b5-80be-e0b4d7c85f89","ios":"levelo://app?vid=e3acbff3-15e0-47b5-80be-e0b4d7c85f89"},"vehicle_type_id":"4","last_reported":1742148743,"current_range_meters":8000,"station_id":"ce4bhi12rcd13ifvqfp0","pricing_plan_id":"cebpf4jnsgd1na2vs0mg"},{"bike_id":"e28ff5df-59fc-4a9e-b133-e51d322b5876","system_id":"levelo_inurba_marseille","lat":43.28928,"lon":5.38408,"is_reserved":false,"is_disabled":false,"rental_uris":{"android":"levelo://app?vid=e28ff5df-59fc-4a9e-b133-e51d322b5876","ios":"levelo://app?vid=e28ff5df-59fc-4a9e-b133-e51d322b5876"},"vehicle_type_id":"4","last_reported":1742148743,"current_range_meters":8000,"station_id":"ce4bh612rcd13ifvqe6g","pricing_plan_id":"cebpf4jnsgd1na2vs0mg"},{"bike_id":"743c9fbf-42df-4986-bc8c-9b4a2bc386be","system_id":"levelo_inurba_marseille","lat":43.24087,"lon":5.37766,"is_reserved":false,"is_disabled":false,"rental_uris":{"android":"levelo://app?vid=743c9fbf-42df-4986-bc8c-9b4a2bc386be","ios":"levelo://app?vid=743c9fbf-42df-4986-bc8c-9b4a2bc386be"},"vehicle_type_id":"4","last_reported":1742148743,"current_range_meters":8000,"station_id":"ce4bhnp2rcd13ifvqgvg","pricing_plan_id":"cebpf4jnsgd1na2vs0mg"},{"bike_id":"5bb74d95-490a-49b1-8c24-21c2656a6f94","system_id":"levelo_inurba_marseille","lat":43.29611,"lon":5.38094,"is_reserved":false,"is_disabled":false,"rental_uris":{"android":"levelo://app?vid=5bb74d95-490a-49b1-8c24-21c2656a6f94","ios":"levelo://app?vid=5bb74d95-490a-49b1-8c24-21c2656a6f94"},"vehicle_type_id":"4","last_reported":1742148743,"current_range_meters":8000,"station_id":"ce4bgl12rcd13ifvqbo0","pricing_plan_id":"cebpf4jnsgd1na2vs0mg"},{"bike_id":"82e4859a-e942-44b1-82e8-bca3ed8730b3","system_id":"levelo_inurba_marseille","lat":43.24823,"lon":5.37437,"is_reserved":false,"is_disabled":false,"rental_uris":{"android":"levelo://app?vid=82e4859a-e942-44b1-82e8-bca3ed8730b3","ios":"levelo://app?vid=82e4859a-e942-44b1-82e8-bca3ed8730b3"},"vehicle_type_id":"4","last_reported":1742148743,"current_range_meters":8000,"station_id":"ce4bhgh2rcd13ifvqfb0","pricing_plan_id":"cebpf4jnsgd1na2vs0mg"},{"bike_id":"3a766561-d5df-4bb1-accb-85c347f27a70","system_id":"levelo_inurba_marseille","lat":43.33761,"lon":5.39188,"is_reserved":false,"is_disabled":false,"rental_uris":{"android":"levelo://app?vid=3a766561-d5df-4bb1-accb-85c347f27a70","ios":"levelo://app?vid=3a766561-d5df-4bb1-accb-85c347f27a70"},"vehicle_type_id":"4","last_reported":1742148743,"current_range_meters":8000,"station_id":"ce4bhr92rcd13ifvqhsg","pricing_plan_id":"cebpf4jnsgd1na2vs0mg"},{"bike_id":"c1ccf9ca-98f0-4eaf-9c83-bb7b5133d125","system_id":"levelo_inurba_marseille","lat":43.32153,"lon":5.3674,"is_reserved":false,"is_disabled":false,"rental_uris":{"android":"levelo://app?vid=c1ccf9ca-98f0-4eaf-9c83-bb7b5133d125","ios":"levelo://app?vid=c1ccf9ca-98f0-4eaf-9c83-bb7b5133d125"},"vehicle_type_id":"4","last_reported":1742148743,"current_range_meters":8000,"station_id":"","pricing_plan_id":"cebpf4jnsgd1na2vs0mg"},{"bike_id":"5c9e95f9-8d99-49cd-b7a5-d18f104da9a8","system_id":"levelo_inurba_marseille","lat":43.26568,"lon":5.39002,"is_reserved":false,"is_disabled":false,"rental_uris":{"android":"levelo://app?vid=5c9e95f9-8d99-49cd-b7a5-d18f104da9a8","ios":"levelo://app?vid=5c9e95f9-8d99-49cd-b7a5-d18f104da9a8"},"vehicle_type_id":"4","last_reported":1742148743,"current_range_meters":8000,"station_id":"ce4bhe12rcd13ifvqf30","pricing_plan_id":"cebpf4jnsgd1na2vs0mg"},{"bike_id":"fa3655b2-4055-474e-8392-a5b5cb658294","system_id":"levelo_inurba_marseille","lat":43.23184,"lon":5.39981,"is_reserved":false,"is_disabled":false,"rental_uris":{"android":"levelo://app?vid=fa3655b2-4055-474e-8392-a5b5cb658294","ios":"levelo://app?vid=fa3655b2-4055-474e-8392-a5b5cb658294"},"vehicle_type_id":"4","last_reported":1742148743,"current_range_meters":8000,"station_id":"ce4bhn12rcd13ifvqgqg","pricing_plan_id":"cebpf4jnsgd1na2vs0mg"},{"bike_id":"d3bd0ca2-58e0-4f19-bd33-980724ab7a39","system_id":"levelo_inurba_marseille","lat":43.30898,"lon":5.39641,"is_reserved":false,"is_disabled":true,"rental_uris":{"android":"levelo://app?vid=d3bd0ca2-58e0-4f19-bd33-980724ab7a39","ios":"levelo://app?vid=d3bd0ca2-58e0-4f19-bd33-980724ab7a39"},"vehicle_type_id":"4","last_reported":1742148743,"current_range_meters":8000,"station_id":"ce4bh012rcd13ifvqcv0","pricing_plan_id":"cebpf4jnsgd1na2vs0mg"},{"bike_id":"5f813939-abd0-4724-aebe-15fd911368cc","system_id":"levelo_inurba_marseille","lat":43.23214,"lon":5.35561,"is_reserved":false,"is_disabled":false,"rental_uris":{"android":"levelo://app?vid=5f813939-abd0-4724-aebe-15fd911368cc","ios":"levelo://app?vid=5f813939-abd0-4724-aebe-15fd911368cc"},"vehicle_type_id":"4","last_reported":1742148743,"current_range_meters":8000,"station_id":"ce4bhu92rcd13ifvqi70","pricing_plan_id":"cebpf4jnsgd1na2vs0mg"},{"bike_id":"31710fca-ccfa-43a5-ac6f-5ec923018ebf","system_id":"levelo_inurba_marseille","lat":43.27396,"lon":5.42045,"is_reserved":false,"is_disabled":false,"rental_uris":{"android":"levelo://app?vid=31710fca-ccfa-43a5-ac6f-5ec923018ebf","ios":"levelo://app?vid=31710fca-ccfa-43a5-ac6f-5ec923018ebf"},"vehicle_type_id":"4","last_reported":1742148743,"current_range_meters":8000,"station_id":"","pricing_plan_id":"cebpf4jnsgd1na2vs0mg"},{"bike_id":"68f3bcfe-e20f-4ad8-9579-f569150feb8a","system_id":"levelo_inurba_marseille","lat":43.27619,"lon":5.36111,"is_reserved":false,"is_disabled":false,"rental_uris":{"android":"levelo://app?vid=68f3bcfe-e20f-4ad8-9579-f569150feb8a","ios":"levelo://app?vid=68f3bcfe-e20f-4ad8-9579-f569150feb8a"},"vehicle_type_id":"4","last_reported":1742148743,"current_range_meters":8400,"station_id":"ce4bgj92rcd13ifvqbe0","pricing_plan_id":"cebpf4jnsgd1na2vs0mg"},{"bike_id":"d1b43707-f6b9-4ce1-8f98-f7f83a08cff6","system_id":"levelo_inurba_marseille","lat":43.29615,"lon":5.38071,"is_reserved":false,"is_disabled":false,"rental_uris":{"android":"levelo://app?vid=d1b43707-f6b9-4ce1-8f98-f7f83a08cff6","ios":"levelo://app?vid=d1b43707-f6b9-4ce1-8f98-f7f83a08cff6"},"vehicle_type_id":"4","last_reported":1742148743,"current_range_meters":8400,"station_id":"ce4bgl12rcd13ifvqbo0","pricing_plan_id":"cebpf4jnsgd1na2vs0mg"},{"bike_id":"031e832d-5bb7-40f7-8762-339a6335f1c6","system_id":"levelo_inurba_marseille","lat":43.28928,"lon":5.38383,"is_reserved":false,"is_disabled":false,"rental_uris":{"android":"levelo://app?vid=031e832d-5bb7-40f7-8762-339a6335f1c6","ios":"levelo://app?vid=031e832d-5bb7-40f7-8762-339a6335f1c6"},"vehicle_type_id":"4","last_reported":1742148743,"current_range_meters":8400,"station_id":"ce4bh612rcd13ifvqe6g","pricing_plan_id":"cebpf4jnsgd1na2vs0mg"},{"bike_id":"655fb8db-bbd7-484e-8e1c-eb5bbdd011e4","system_id":"levelo_inurba_marseille","lat":43.30913,"lon":5.36857,"is_reserved":false,"is_disabled":false,"rental_uris":{"android":"levelo://app?vid=655fb8db-bbd7-484e-8e1c-eb5bbdd011e4","ios":"levelo://app?vid=655fb8db-bbd7-484e-8e1c-eb5bbdd011e4"},"vehicle_type_id":"4","last_reported":1742148743,"current_range_meters":8400,"station_id":"ce4bgn92rcd13ifvqbvg","pricing_plan_id":"cebpf4jnsgd1na2vs0mg"},{"bike_id":"6582e7c2-5aa5-4e6a-abc5-fa241e74aeb6","system_id":"levelo_inurba_marseille","lat":43.29878,"lon":5.43678,"is_reserved":false,"is_disabled":false,"rental_uris":{"android":"levelo://app?vid=6582e7c2-5aa5-4e6a-abc5-fa241e74aeb6","ios":"levelo://app?vid=6582e7c2-5aa5-4e6a-abc5-fa241e74aeb6"},"vehicle_type_id":"4","last_reported":1742148743,"current_range_meters":8400,"station_id":"ce4bhpp2rcd13ifvqhfg","pricing_plan_id":"cebpf4jnsgd1na2vs0mg"},{"bike_id":"621ee7b1-50fc-4eb2-a366-f7d9697554ec","system_id":"levelo_inurba_marseille","lat":43.2857,"lon":5.39495,"is_reserved":false,"is_disabled":false,"rental_uris":{"android":"levelo://app?vid=621ee7b1-50fc-4eb2-a366-f7d9697554ec","ios":"levelo://app?vid=621ee7b1-50fc-4eb2-a366-f7d9697554ec"},"vehicle_type_id":"4","last_reported":1742148743,"current_range_meters":8400,"station_id":"ce4bh292rcd13ifvqdg0","pricing_plan_id":"cebpf4jnsgd1na2vs0mg"},{"bike_id":"7cddb25f-435f-456d-9e06-c5d5fe2022b1","system_id":"levelo_inurba_marseille","lat":43.28956,"lon":5.36396,"is_reserved":false,"is_disabled":false,"rental_uris":{"android":"levelo://app?vid=7cddb25f-435f-456d-9e06-c5d5fe2022b1","ios":"levelo://app?vid=7cddb25f-435f-456d-9e06-c5d5fe2022b1"},"vehicle_type_id":"4","last_reported":1742148743,"current_range_meters":8400,"station_id":"ce4bhc92rcd13ifvqetg","pricing_plan_id":"cebpf4jnsgd1na2vs0mg"},{"bike_id":"a17866dc-3074-49fc-9a89-48869866e9d8","system_id":"levelo_inurba_marseille","lat":43.27217,"lon":5.39192,"is_reserved":false,"is_disabled":true,"rental_uris":{"android":"levelo://app?vid=a17866dc-3074-49fc-9a89-48869866e9d8","ios":"levelo://app?vid=a17866dc-3074-49fc-9a89-48869866e9d8"},"vehicle_type_id":"4","last_reported":1742148743,"current_range_meters":8400,"station_id":"ce4bhhp2rcd13ifvqfm0","pricing_plan_id":"cebpf4jnsgd1na2vs0mg"},{"bike_id":"356c03cb-1555-496c-8b74-a6edbdc52296","system_id":"levelo_inurba_marseille","lat":43.29041,"lon":5.39964,"is_reserved":false,"is_disabled":false,"rental_uris":{"android":"levelo://app?vid=356c03cb-1555-496c-8b74-a6edbdc52296","ios":"levelo://app?vid=356c03cb-1555-496c-8b74-a6edbdc52296"},"vehicle_type_id":"4","last_reported":1742148743,"current_range_meters":8400,"station_id":"ce4bh392rcd13ifvqdm0","pricing_plan_id":"cebpf4jnsgd1na2vs0mg"},{"bike_id":"ed258cb7-9851-491c-a0b2-e327c4e7bc83","system_id":"levelo_inurba_marseille","lat":43.28941,"lon":5.38397,"is_reserved":false,"is_disabled":false,"rental_uris":{"android":"levelo://app?vid=ed258cb7-9851-491c-a0b2-e327c4e7bc83","ios":"levelo://app?vid=ed258cb7-9851-491c-a0b2-e327c4e7bc83"},"vehicle_type_id":"4","last_reported":1742148743,"current_range_meters":8400,"station_id":"ce4bh612rcd13ifvqe6g","pricing_plan_id":"cebpf4jnsgd1na2vs0mg"},{"bike_id":"27150d1c-4a8d-4de9-acd6-e84f5fee7697","system_id":"levelo_inurba_marseille","lat":43.25728,"lon":5.41111,"is_reserved":false,"is_disabled":false,"rental_uris":{"android":"levelo://app?vid=27150d1c-4a8d-4de9-acd6-e84f5fee7697","ios":"levelo://app?vid=27150d1c-4a8d-4de9-acd6-e84f5fee7697"},"vehicle_type_id":"4","last_reported":1742148743,"current_range_meters":8400,"station_id":"ce4bhkp2rcd13ifvqgd0","pricing_plan_id":"cebpf4jnsgd1na2vs0mg"},{"bike_id":"2d8002fa-53fa-4109-bfe0-2f86286bdc53","system_id":"levelo_inurba_marseille","lat":43.29091,"lon":5.38152,"is_reserved":false,"is_disabled":false,"rental_uris":{"android":"levelo://app?vid=2d8002fa-53fa-4109-bfe0-2f86286bdc53","ios":"levelo://app?vid=2d8002fa-53fa-4109-bfe0-2f86286bdc53"},"vehicle_type_id":"4","last_reported":1742148743,"current_range_meters":8400,"station_id":"ce4bh512rcd13ifvqe2g","pricing_plan_id":"cebpf4jnsgd1na2vs0mg"},{"bike_id":"12b8ab39-c9e6-44f5-ac71-d4bd45b06824","system_id":"levelo_inurba_marseille","lat":43.31491,"lon":5.37317,"is_reserved":false,"is_disabled":false,"rental_uris":{"android":"levelo://app?vid=12b8ab39-c9e6-44f5-ac71-d4bd45b06824","ios":"levelo://app?vid=12b8ab39-c9e6-44f5-ac71-d4bd45b06824"},"vehicle_type_id":"4","last_reported":1742148743,"current_range_meters":8800,"station_id":"ce4bgt12rcd13ifvqcd0","pricing_plan_id":"cebpf4jnsgd1na2vs0mg"},{"bike_id":"aed293a6-67b2-45eb-8773-6df93a27408c","system_id":"levelo_inurba_marseille","lat":43.2732,"lon":5.39072,"is_reserved":false,"is_disabled":false,"rental_uris":{"android":"levelo://app?vid=aed293a6-67b2-45eb-8773-6df93a27408c","ios":"levelo://app?vid=aed293a6-67b2-45eb-8773-6df93a27408c"},"vehicle_type_id":"4","last_reported":1742148743,"current_range_meters":8800,"station_id":"ce4bhgp2rcd13ifvqfe0","pricing_plan_id":"cebpf4jnsgd1na2vs0mg"},{"bike_id":"71b342b8-694b-40d5-99e8-310baf77a970","system_id":"levelo_inurba_marseille","lat":43.23057,"lon":5.35497,"is_reserved":false,"is_disabled":false,"rental_uris":{"android":"levelo://app?vid=71b342b8-694b-40d5-99e8-310baf77a970","ios":"levelo://app?vid=71b342b8-694b-40d5-99e8-310baf77a970"},"vehicle_type_id":"4","last_reported":1742148743,"current_range_meters":8800,"station_id":"cpo3342slgdg3j2ifvpg","pricing_plan_id":"cebpf4jnsgd1na2vs0mg"},{"bike_id":"f4806f6b-90cc-4357-8538-1ba6d4b0b5e4","system_id":"levelo_inurba_marseille","lat":43.23206,"lon":5.35556,"is_reserved":false,"is_disabled":false,"rental_uris":{"android":"levelo://app?vid=f4806f6b-90cc-4357-8538-1ba6d4b0b5e4","ios":"levelo://app?vid=f4806f6b-90cc-4357-8538-1ba6d4b0b5e4"},"vehicle_type_id":"4","last_reported":1742148743,"current_range_meters":8800,"station_id":"ce4bhu92rcd13ifvqi70","pricing_plan_id":"cebpf4jnsgd1na2vs0mg"},{"bike_id":"fc071de1-2cc0-488a-a43e-f8037a5a9a49","system_id":"levelo_inurba_marseille","lat":43.230702,"lon":5.354864,"is_reserved":false,"is_disabled":false,"rental_uris":{"android":"levelo://app?vid=fc071de1-2cc0-488a-a43e-f8037a5a9a49","ios":"levelo://app?vid=fc071de1-2cc0-488a-a43e-f8037a5a9a49"},"vehicle_type_id":"4","last_reported":1742148743,"current_range_meters":8800,"station_id":"cpo3342slgdg3j2ifvpg","pricing_plan_id":"cebpf4jnsgd1na2vs0mg"},{"bike_id":"8daaf0cf-4c34-45e0-a7b1-f359c37bf89e","system_id":"levelo_inurba_marseille","lat":43.28944,"lon":5.36643,"is_reserved":false,"is_disabled":false,"rental_uris":{"android":"levelo://app?vid=8daaf0cf-4c34-45e0-a7b1-f359c37bf89e","ios":"levelo://app?vid=8daaf0cf-4c34-45e0-a7b1-f359c37bf89e"},"vehicle_type_id":"4","last_reported":1742148743,"current_range_meters":8800,"station_id":"ce4bhap2rcd13ifvqek0","pricing_plan_id":"cebpf4jnsgd1na2vs0mg"},{"bike_id":"9f623e2f-db0f-4326-85de-5e6481e02495","system_id":"levelo_inurba_marseille","lat":43.29613,"lon":5.38101,"is_reserved":false,"is_disabled":false,"rental_uris":{"android":"levelo://app?vid=9f623e2f-db0f-4326-85de-5e6481e02495","ios":"levelo://app?vid=9f623e2f-db0f-4326-85de-5e6481e02495"},"vehicle_type_id":"4","last_reported":1742148743,"current_range_meters":8800,"station_id":"ce4bgl12rcd13ifvqbo0","pricing_plan_id":"cebpf4jnsgd1na2vs0mg"},{"bike_id":"174c9c66-b172-484e-b7f9-5752aa18aabf","system_id":"levelo_inurba_marseille","lat":43.23089,"lon":5.35512,"is_reserved":false,"is_disabled":false,"rental_uris":{"android":"levelo://app?vid=174c9c66-b172-484e-b7f9-5752aa18aabf","ios":"levelo://app?vid=174c9c66-b172-484e-b7f9-5752aa18aabf"},"vehicle_type_id":"4","last_reported":1742148743,"current_range_meters":8800,"station_id":"cpo3342slgdg3j2ifvpg","pricing_plan_id":"cebpf4jnsgd1na2vs0mg"},{"bike_id":"2a08debe-2cae-4c6d-ae29-c0a8636a8ce0","system_id":"levelo_inurba_marseille","lat":43.26965,"lon":5.3863,"is_reserved":false,"is_disabled":false,"rental_uris":{"android":"levelo://app?vid=2a08debe-2cae-4c6d-ae29-c0a8636a8ce0","ios":"levelo://app?vid=2a08debe-2cae-4c6d-ae29-c0a8636a8ce0"},"vehicle_type_id":"4","last_reported":1742148743,"current_range_meters":8800,"station_id":"ce4bhh92rcd13ifvqfh0","pricing_plan_id":"cebpf4jnsgd1na2vs0mg"},{"bike_id":"1e0a82c6-b441-4ee1-92f0-8f157a0553ef","system_id":"levelo_inurba_marseille","lat":43.27309,"lon":5.39094,"is_reserved":false,"is_disabled":false,"rental_uris":{"android":"levelo://app?vid=1e0a82c6-b441-4ee1-92f0-8f157a0553ef","ios":"levelo://app?vid=1e0a82c6-b441-4ee1-92f0-8f157a0553ef"},"vehicle_type_id":"4","last_reported":1742148743,"current_range_meters":8800,"station_id":"ce4bhgp2rcd13ifvqfe0","pricing_plan_id":"cebpf4jnsgd1na2vs0mg"},{"bike_id":"a1ba25c8-5d41-4592-8afa-cdf7e3d4b2ab","system_id":"levelo_inurba_marseille","lat":43.29013,"lon":5.38122,"is_reserved":false,"is_disabled":false,"rental_uris":{"android":"levelo://app?vid=a1ba25c8-5d41-4592-8afa-cdf7e3d4b2ab","ios":"levelo://app?vid=a1ba25c8-5d41-4592-8afa-cdf7e3d4b2ab"},"vehicle_type_id":"4","last_reported":1742148743,"current_range_meters":8800,"station_id":"ce4bh4p2rcd13ifvqe1g","pricing_plan_id":"cebpf4jnsgd1na2vs0mg"},{"bike_id":"e7fb229b-7d64-45c5-9629-78e89e7dc80c","system_id":"levelo_inurba_marseille","lat":43.29186,"lon":5.39327,"is_reserved":false,"is_disabled":false,"rental_uris":{"android":"levelo://app?vid=e7fb229b-7d64-45c5-9629-78e89e7dc80c","ios":"levelo://app?vid=e7fb229b-7d64-45c5-9629-78e89e7dc80c"},"vehicle_type_id":"4","last_reported":1742148743,"current_range_meters":8800,"station_id":"ce4bh192rcd13ifvqdd0","pricing_plan_id":"cebpf4jnsgd1na2vs0mg"},{"bike_id":"64f84548-897e-44ef-a710-96606ea31d5e","system_id":"levelo_inurba_marseille","lat":43.31494,"lon":5.3731,"is_reserved":false,"is_disabled":false,"rental_uris":{"android":"levelo://app?vid=64f84548-897e-44ef-a710-96606ea31d5e","ios":"levelo://app?vid=64f84548-897e-44ef-a710-96606ea31d5e"},"vehicle_type_id":"4","last_reported":1742148743,"current_range_meters":8800,"station_id":"ce4bgt12rcd13ifvqcd0","pricing_plan_id":"cebpf4jnsgd1na2vs0mg"},{"bike_id":"587671df-6143-48e8-ad33-cc4589d0e591","system_id":"levelo_inurba_marseille","lat":43.2893,"lon":5.38408,"is_reserved":false,"is_disabled":false,"rental_uris":{"android":"levelo://app?vid=587671df-6143-48e8-ad33-cc4589d0e591","ios":"levelo://app?vid=587671df-6143-48e8-ad33-cc4589d0e591"},"vehicle_type_id":"4","last_reported":1742148743,"current_range_meters":8800,"station_id":"ce4bh612rcd13ifvqe6g","pricing_plan_id":"cebpf4jnsgd1na2vs0mg"},{"bike_id":"8c10568d-836a-48ea-8674-4f42dacedcdf","system_id":"levelo_inurba_marseille","lat":43.29187,"lon":5.39347,"is_reserved":false,"is_disabled":false,"rental_uris":{"android":"levelo://app?vid=8c10568d-836a-48ea-8674-4f42dacedcdf","ios":"levelo://app?vid=8c10568d-836a-48ea-8674-4f42dacedcdf"},"vehicle_type_id":"4","last_reported":1742148743,"current_range_meters":9200,"station_id":"ce4bh192rcd13ifvqdd0","pricing_plan_id":"cebpf4jnsgd1na2vs0mg"},{"bike_id":"f876773a-fec2-4503-8f9a-c65b00603ae5","system_id":"levelo_inurba_marseille","lat":43.24098,"lon":5.37753,"is_reserved":false,"is_disabled":false,"rental_uris":{"android":"levelo://app?vid=f876773a-fec2-4503-8f9a-c65b00603ae5","ios":"levelo://app?vid=f876773a-fec2-4503-8f9a-c65b00603ae5"},"vehicle_type_id":"4","last_reported":1742148743,"current_range_meters":9200,"station_id":"ce4bhnp2rcd13ifvqgvg","pricing_plan_id":"cebpf4jnsgd1na2vs0mg"},{"bike_id":"92d2dfa7-4f02-4f5c-ab4c-d14ec3d3e640","system_id":"levelo_inurba_marseille","lat":43.28078,"lon":5.39661,"is_reserved":false,"is_disabled":false,"rental_uris":{"android":"levelo://app?vid=92d2dfa7-4f02-4f5c-ab4c-d14ec3d3e640","ios":"levelo://app?vid=92d2dfa7-4f02-4f5c-ab4c-d14ec3d3e640"},"vehicle_type_id":"4","last_reported":1742148743,"current_range_meters":9200,"station_id":"ce4bho12rcd13ifvqh2g","pricing_plan_id":"cebpf4jnsgd1na2vs0mg"},{"bike_id":"8bf2e89b-2ebd-4f34-a419-e5c65583077b","system_id":"levelo_inurba_marseille","lat":43.28119,"lon":5.4459,"is_reserved":false,"is_disabled":false,"rental_uris":{"android":"levelo://app?vid=8bf2e89b-2ebd-4f34-a419-e5c65583077b","ios":"levelo://app?vid=8bf2e89b-2ebd-4f34-a419-e5c65583077b"},"vehicle_type_id":"4","last_reported":1742148743,"current_range_meters":9200,"station_id":"","pricing_plan_id":"cebpf4jnsgd1na2vs0mg"},{"bike_id":"30a3f5aa-8adb-417a-a2c9-dedb0fb285b3","system_id":"levelo_inurba_marseille","lat":43.289834,"lon":5.378406,"is_reserved":false,"is_disabled":true,"rental_uris":{"android":"levelo://app?vid=30a3f5aa-8adb-417a-a2c9-dedb0fb285b3","ios":"levelo://app?vid=30a3f5aa-8adb-417a-a2c9-dedb0fb285b3"},"vehicle_type_id":"4","last_reported":1742148743,"current_range_meters":9200,"station_id":"ce4bh9p2rcd13ifvqed0","pricing_plan_id":"cebpf4jnsgd1na2vs0mg"},{"bike_id":"86a47bb9-e838-47df-93b5-b0b82b75e6c0","system_id":"levelo_inurba_marseille","lat":43.3236,"lon":5.3889,"is_reserved":false,"is_disabled":false,"rental_uris":{"android":"levelo://app?vid=86a47bb9-e838-47df-93b5-b0b82b75e6c0","ios":"levelo://app?vid=86a47bb9-e838-47df-93b5-b0b82b75e6c0"},"vehicle_type_id":"4","last_reported":1742148743,"current_range_meters":9200,"station_id":"ce4bhqp2rcd13ifvqhog","pricing_plan_id":"cebpf4jnsgd1na2vs0mg"},{"bike_id":"1dff2b4f-b882-4080-9329-03a9450bdb0b","system_id":"levelo_inurba_marseille","lat":43.31261,"lon":5.40176,"is_reserved":false,"is_disabled":false,"rental_uris":{"android":"levelo://app?vid=1dff2b4f-b882-4080-9329-03a9450bdb0b","ios":"levelo://app?vid=1dff2b4f-b882-4080-9329-03a9450bdb0b"},"vehicle_type_id":"4","last_reported":1742148743,"current_range_meters":9200,"station_id":"ce4bh092rcd13ifvqd30","pricing_plan_id":"cebpf4jnsgd1na2vs0mg"},{"bike_id":"61510157-0c60-4f96-84f2-29e922341c8c","system_id":"levelo_inurba_marseille","lat":43.24184,"lon":5.39727,"is_reserved":false,"is_disabled":false,"rental_uris":{"android":"levelo://app?vid=61510157-0c60-4f96-84f2-29e922341c8c","ios":"levelo://app?vid=61510157-0c60-4f96-84f2-29e922341c8c"},"vehicle_type_id":"4","last_reported":1742148743,"current_range_meters":9200,"station_id":"ce4bhn12rcd13ifvqgpg","pricing_plan_id":"cebpf4jnsgd1na2vs0mg"},{"bike_id":"63ccaa1b-7302-45e3-82a8-d904a69351b6","system_id":"levelo_inurba_marseille","lat":43.23952,"lon":5.36645,"is_reserved":false,"is_disabled":true,"rental_uris":{"android":"levelo://app?vid=63ccaa1b-7302-45e3-82a8-d904a69351b6","ios":"levelo://app?vid=63ccaa1b-7302-45e3-82a8-d904a69351b6"},"vehicle_type_id":"4","last_reported":1742148743,"current_range_meters":9200,"station_id":"ce4bhi12rcd13ifvqfp0","pricing_plan_id":"cebpf4jnsgd1na2vs0mg"},{"bike_id":"38de9398-607b-4e38-b181-28a0e85a0172","system_id":"levelo_inurba_marseille","lat":43.290161,"lon":5.386331,"is_reserved":false,"is_disabled":true,"rental_uris":{"android":"levelo://app?vid=38de9398-607b-4e38-b181-28a0e85a0172","ios":"levelo://app?vid=38de9398-607b-4e38-b181-28a0e85a0172"},"vehicle_type_id":"4","last_reported":1742148743,"current_range_meters":9200,"station_id":"ce4bh4p2rcd13ifvqe0g","pricing_plan_id":"cebpf4jnsgd1na2vs0mg"},{"bike_id":"3f3e844d-8056-4826-a519-e24eec72528f","system_id":"levelo_inurba_marseille","lat":43.30658,"lon":5.36596,"is_reserved":false,"is_disabled":false,"rental_uris":{"android":"levelo://app?vid=3f3e844d-8056-4826-a519-e24eec72528f","ios":"levelo://app?vid=3f3e844d-8056-4826-a519-e24eec72528f"},"vehicle_type_id":"4","last_reported":1742148743,"current_range_meters":9200,"station_id":"","pricing_plan_id":"cebpf4jnsgd1na2vs0mg"},{"bike_id":"03aa2ac5-4675-49fd-bbbd-bbe4740c6557","system_id":"levelo_inurba_marseille","lat":43.30246,"lon":5.40062,"is_reserved":false,"is_disabled":false,"rental_uris":{"android":"levelo://app?vid=03aa2ac5-4675-49fd-bbbd-bbe4740c6557","ios":"levelo://app?vid=03aa2ac5-4675-49fd-bbbd-bbe4740c6557"},"vehicle_type_id":"4","last_reported":1742148743,"current_range_meters":9200,"station_id":"ce4bgvh2rcd13ifvqcs0","pricing_plan_id":"cebpf4jnsgd1na2vs0mg"},{"bike_id":"abf040de-7f14-462e-b59f-7226f14781e5","system_id":"levelo_inurba_marseille","lat":43.29877,"lon":5.39734,"is_reserved":false,"is_disabled":false,"rental_uris":{"android":"levelo://app?vid=abf040de-7f14-462e-b59f-7226f14781e5","ios":"levelo://app?vid=abf040de-7f14-462e-b59f-7226f14781e5"},"vehicle_type_id":"4","last_reported":1742148743,"current_range_meters":9200,"station_id":"ce4bh0h2rcd13ifvqd50","pricing_plan_id":"cebpf4jnsgd1na2vs0mg"},{"bike_id":"95470bdf-1288-42f8-b5d1-ca55dfddbad3","system_id":"levelo_inurba_marseille","lat":43.29597,"lon":5.38099,"is_reserved":false,"is_disabled":false,"rental_uris":{"android":"levelo://app?vid=95470bdf-1288-42f8-b5d1-ca55dfddbad3","ios":"levelo://app?vid=95470bdf-1288-42f8-b5d1-ca55dfddbad3"},"vehicle_type_id":"4","last_reported":1742148743,"current_range_meters":9200,"station_id":"ce4bgl12rcd13ifvqbo0","pricing_plan_id":"cebpf4jnsgd1na2vs0mg"},{"bike_id":"3a6d84ee-e958-4f91-84af-46ee45b44fec","system_id":"levelo_inurba_marseille","lat":43.26558,"lon":5.39003,"is_reserved":false,"is_disabled":false,"rental_uris":{"android":"levelo://app?vid=3a6d84ee-e958-4f91-84af-46ee45b44fec","ios":"levelo://app?vid=3a6d84ee-e958-4f91-84af-46ee45b44fec"},"vehicle_type_id":"4","last_reported":1742148743,"current_range_meters":9200,"station_id":"ce4bhe12rcd13ifvqf30","pricing_plan_id":"cebpf4jnsgd1na2vs0mg"},{"bike_id":"a7d7a9d8-08cf-4e37-a4f4-17a83bd6f6b1","system_id":"levelo_inurba_marseille","lat":43.29266,"lon":5.38397,"is_reserved":false,"is_disabled":false,"rental_uris":{"android":"levelo://app?vid=a7d7a9d8-08cf-4e37-a4f4-17a83bd6f6b1","ios":"levelo://app?vid=a7d7a9d8-08cf-4e37-a4f4-17a83bd6f6b1"},"vehicle_type_id":"4","last_reported":1742148743,"current_range_meters":9600,"station_id":"","pricing_plan_id":"cebpf4jnsgd1na2vs0mg"},{"bike_id":"e7031ad8-ff40-4390-8eb5-655887fc4159","system_id":"levelo_inurba_marseille","lat":43.29186,"lon":5.39313,"is_reserved":false,"is_disabled":false,"rental_uris":{"android":"levelo://app?vid=e7031ad8-ff40-4390-8eb5-655887fc4159","ios":"levelo://app?vid=e7031ad8-ff40-4390-8eb5-655887fc4159"},"vehicle_type_id":"4","last_reported":1742148743,"current_range_meters":9600,"station_id":"ce4bh192rcd13ifvqdd0","pricing_plan_id":"cebpf4jnsgd1na2vs0mg"},{"bike_id":"97c131d9-98a1-4d0b-aeac-841b3db6abc0","system_id":"levelo_inurba_marseille","lat":43.27972,"lon":5.38746,"is_reserved":false,"is_disabled":false,"rental_uris":{"android":"levelo://app?vid=97c131d9-98a1-4d0b-aeac-841b3db6abc0","ios":"levelo://app?vid=97c131d9-98a1-4d0b-aeac-841b3db6abc0"},"vehicle_type_id":"4","last_reported":1742148743,"current_range_meters":9600,"station_id":"ce4bhg12rcd13ifvqf80","pricing_plan_id":"cebpf4jnsgd1na2vs0mg"},{"bike_id":"9e6dd499-ef79-469a-9c98-e4d20013679e","system_id":"levelo_inurba_marseille","lat":43.26803,"lon":5.40264,"is_reserved":false,"is_disabled":false,"rental_uris":{"android":"levelo://app?vid=9e6dd499-ef79-469a-9c98-e4d20013679e","ios":"levelo://app?vid=9e6dd499-ef79-469a-9c98-e4d20013679e"},"vehicle_type_id":"4","last_reported":1742148743,"current_range_meters":9600,"station_id":"ce501612rcd8frsf0b60","pricing_plan_id":"cebpf4jnsgd1na2vs0mg"},{"bike_id":"ec4c8fc9-399f-4f5a-b345-e19e03d811c3","system_id":"levelo_inurba_marseille","lat":43.27202,"lon":5.41,"is_reserved":false,"is_disabled":true,"rental_uris":{"android":"levelo://app?vid=ec4c8fc9-399f-4f5a-b345-e19e03d811c3","ios":"levelo://app?vid=ec4c8fc9-399f-4f5a-b345-e19e03d811c3"},"vehicle_type_id":"4","last_reported":1742148743,"current_range_meters":9600,"station_id":"ce4bhl12rcd13ifvqgf0","pricing_plan_id":"cebpf4jnsgd1na2vs0mg"},{"bike_id":"9d8efe52-4253-46af-b40f-bf8652412f63","system_id":"levelo_inurba_marseille","lat":43.29528,"lon":5.39441,"is_reserved":false,"is_disabled":true,"rental_uris":{"android":"levelo://app?vid=9d8efe52-4253-46af-b40f-bf8652412f63","ios":"levelo://app?vid=9d8efe52-4253-46af-b40f-bf8652412f63"},"vehicle_type_id":"4","last_reported":1742148743,"current_range_meters":9600,"station_id":"ce4bh292rcd13ifvqdf0","pricing_plan_id":"cebpf4jnsgd1na2vs0mg"},{"bike_id":"c83a113a-94c6-4acb-869b-3dd97f78c1f9","system_id":"levelo_inurba_marseille","lat":43.31223,"lon":5.3685,"is_reserved":false,"is_disabled":false,"rental_uris":{"android":"levelo://app?vid=c83a113a-94c6-4acb-869b-3dd97f78c1f9","ios":"levelo://app?vid=c83a113a-94c6-4acb-869b-3dd97f78c1f9"},"vehicle_type_id":"4","last_reported":1742148743,"current_range_meters":9600,"station_id":"ce4bgl92rcd13ifvqbq0","pricing_plan_id":"cebpf4jnsgd1na2vs0mg"},{"bike_id":"02903d83-44bb-40cf-a804-6798606e7bc6","system_id":"levelo_inurba_marseille","lat":43.24817,"lon":5.37466,"is_reserved":false,"is_disabled":false,"rental_uris":{"android":"levelo://app?vid=02903d83-44bb-40cf-a804-6798606e7bc6","ios":"levelo://app?vid=02903d83-44bb-40cf-a804-6798606e7bc6"},"vehicle_type_id":"4","last_reported":1742148743,"current_range_meters":9600,"station_id":"ce4bhgh2rcd13ifvqfb0","pricing_plan_id":"cebpf4jnsgd1na2vs0mg"},{"bike_id":"7099c38a-2986-4dc9-9398-307b562f7d30","system_id":"levelo_inurba_marseille","lat":43.25947,"lon":5.40928,"is_reserved":false,"is_disabled":false,"rental_uris":{"android":"levelo://app?vid=7099c38a-2986-4dc9-9398-307b562f7d30","ios":"levelo://app?vid=7099c38a-2986-4dc9-9398-307b562f7d30"},"vehicle_type_id":"4","last_reported":1742148743,"current_range_meters":9600,"station_id":"ce4bhm92rcd13ifvqglg","pricing_plan_id":"cebpf4jnsgd1na2vs0mg"},{"bike_id":"b2663c35-e062-47c3-bb7f-fa4732a111f8","system_id":"levelo_inurba_marseille","lat":43.2972,"lon":5.3662,"is_reserved":false,"is_disabled":false,"rental_uris":{"android":"levelo://app?vid=b2663c35-e062-47c3-bb7f-fa4732a111f8","ios":"levelo://app?vid=b2663c35-e062-47c3-bb7f-fa4732a111f8"},"vehicle_type_id":"4","last_reported":1742148743,"current_range_meters":9600,"station_id":"ce4bgn12rcd13ifvqbt0","pricing_plan_id":"cebpf4jnsgd1na2vs0mg"},{"bike_id":"9fbd07b4-f8ec-47c8-8b77-af3d624fa697","system_id":"levelo_inurba_marseille","lat":43.299,"lon":5.43644,"is_reserved":false,"is_disabled":false,"rental_uris":{"android":"levelo://app?vid=9fbd07b4-f8ec-47c8-8b77-af3d624fa697","ios":"levelo://app?vid=9fbd07b4-f8ec-47c8-8b77-af3d624fa697"},"vehicle_type_id":"4","last_reported":1742148743,"current_range_meters":9600,"station_id":"ce4bhpp2rcd13ifvqhfg","pricing_plan_id":"cebpf4jnsgd1na2vs0mg"},{"bike_id":"d78a64ce-13c2-48bf-808e-e90b3704ad19","system_id":"levelo_inurba_marseille","lat":43.26928,"lon":5.40257,"is_reserved":false,"is_disabled":false,"rental_uris":{"android":"levelo://app?vid=d78a64ce-13c2-48bf-808e-e90b3704ad19","ios":"levelo://app?vid=d78a64ce-13c2-48bf-808e-e90b3704ad19"},"vehicle_type_id":"4","last_reported":1742148743,"current_range_meters":9600,"station_id":"cjm6bp8fraef2m0cb0m0","pricing_plan_id":"cebpf4jnsgd1na2vs0mg"},{"bike_id":"dd98f38e-cdd6-4a77-a161-2adc7415e16c","system_id":"levelo_inurba_marseille","lat":43.28287,"lon":5.43129,"is_reserved":false,"is_disabled":false,"rental_uris":{"android":"levelo://app?vid=dd98f38e-cdd6-4a77-a161-2adc7415e16c","ios":"levelo://app?vid=dd98f38e-cdd6-4a77-a161-2adc7415e16c"},"vehicle_type_id":"4","last_reported":1742148743,"current_range_meters":9600,"station_id":"","pricing_plan_id":"cebpf4jnsgd1na2vs0mg"},{"bike_id":"0ab3ace2-53b5-463c-b234-c0bfc0872b16","system_id":"levelo_inurba_marseille","lat":43.29612,"lon":5.381,"is_reserved":false,"is_disabled":false,"rental_uris":{"android":"levelo://app?vid=0ab3ace2-53b5-463c-b234-c0bfc0872b16","ios":"levelo://app?vid=0ab3ace2-53b5-463c-b234-c0bfc0872b16"},"vehicle_type_id":"4","last_reported":1742148743,"current_range_meters":9600,"station_id":"ce4bgl12rcd13ifvqbo0","pricing_plan_id":"cebpf4jnsgd1na2vs0mg"},{"bike_id":"70562219-619e-419e-8e6f-1f78ec085d95","system_id":"levelo_inurba_marseille","lat":43.299016,"lon":5.381502,"is_reserved":false,"is_disabled":false,"rental_uris":{"android":"levelo://app?vid=70562219-619e-419e-8e6f-1f78ec085d95","ios":"levelo://app?vid=70562219-619e-419e-8e6f-1f78ec085d95"},"vehicle_type_id":"4","last_reported":1742148743,"current_range_meters":9600,"station_id":"ce4bh2p2rcd13ifvqdi0","pricing_plan_id":"cebpf4jnsgd1na2vs0mg"},{"bike_id":"ed15a68e-4769-40f3-8177-31d602f9d4e3","system_id":"levelo_inurba_marseille","lat":43.2956,"lon":5.42295,"is_reserved":false,"is_disabled":false,"rental_uris":{"android":"levelo://app?vid=ed15a68e-4769-40f3-8177-31d602f9d4e3","ios":"levelo://app?vid=ed15a68e-4769-40f3-8177-31d602f9d4e3"},"vehicle_type_id":"4","last_reported":1742148743,"current_range_meters":9600,"station_id":"ce4bhph2rcd13ifvqhdg","pricing_plan_id":"cebpf4jnsgd1na2vs0mg"},{"bike_id":"798e4424-938e-4a81-9e7c-4246567321c5","system_id":"levelo_inurba_marseille","lat":43.24748,"lon":5.41135,"is_reserved":false,"is_disabled":false,"rental_uris":{"android":"levelo://app?vid=798e4424-938e-4a81-9e7c-4246567321c5","ios":"levelo://app?vid=798e4424-938e-4a81-9e7c-4246567321c5"},"vehicle_type_id":"4","last_reported":1742148743,"current_range_meters":9600,"station_id":"","pricing_plan_id":"cebpf4jnsgd1na2vs0mg"},{"bike_id":"bd673838-619c-471a-8294-8c5b105d327e","system_id":"levelo_inurba_marseille","lat":43.316831,"lon":5.404747,"is_reserved":false,"is_disabled":false,"rental_uris":{"android":"levelo://app?vid=bd673838-619c-471a-8294-8c5b105d327e","ios":"levelo://app?vid=bd673838-619c-471a-8294-8c5b105d327e"},"vehicle_type_id":"4","last_reported":1742148743,"current_range_meters":9600,"station_id":"ce4bhr12rcd13ifvqhpg","pricing_plan_id":"cebpf4jnsgd1na2vs0mg"},{"bike_id":"ba2e1d5d-83ef-49d9-9fd6-4799cd9abe31","system_id":"levelo_inurba_marseille","lat":43.31686,"lon":5.40423,"is_reserved":false,"is_disabled":false,"rental_uris":{"android":"levelo://app?vid=ba2e1d5d-83ef-49d9-9fd6-4799cd9abe31","ios":"levelo://app?vid=ba2e1d5d-83ef-49d9-9fd6-4799cd9abe31"},"vehicle_type_id":"4","last_reported":1742148743,"current_range_meters":9600,"station_id":"ce4bh012rcd13ifvqd00","pricing_plan_id":"cebpf4jnsgd1na2vs0mg"},{"bike_id":"d2140e8e-fc46-4fb8-a675-866428dbf6bb","system_id":"levelo_inurba_marseille","lat":43.23059,"lon":5.35516,"is_reserved":false,"is_disabled":false,"rental_uris":{"android":"levelo://app?vid=d2140e8e-fc46-4fb8-a675-866428dbf6bb","ios":"levelo://app?vid=d2140e8e-fc46-4fb8-a675-866428dbf6bb"},"vehicle_type_id":"4","last_reported":1742148743,"current_range_meters":9600,"station_id":"cpo3342slgdg3j2ifvpg","pricing_plan_id":"cebpf4jnsgd1na2vs0mg"},{"bike_id":"1e9f3f53-e48b-47c9-8a7a-3842fe9d86ab","system_id":"levelo_inurba_marseille","lat":43.28716,"lon":5.39999,"is_reserved":false,"is_disabled":true,"rental_uris":{"android":"levelo://app?vid=1e9f3f53-e48b-47c9-8a7a-3842fe9d86ab","ios":"levelo://app?vid=1e9f3f53-e48b-47c9-8a7a-3842fe9d86ab"},"vehicle_type_id":"4","last_reported":1742148743,"current_range_meters":9600,"station_id":"ce4bho92rcd13ifvqh3g","pricing_plan_id":"cebpf4jnsgd1na2vs0mg"},{"bike_id":"ad0d8123-fc2d-4824-a005-07e17f420ab9","system_id":"levelo_inurba_marseille","lat":43.30255,"lon":5.40065,"is_reserved":false,"is_disabled":false,"rental_uris":{"android":"levelo://app?vid=ad0d8123-fc2d-4824-a005-07e17f420ab9","ios":"levelo://app?vid=ad0d8123-fc2d-4824-a005-07e17f420ab9"},"vehicle_type_id":"4","last_reported":1742148743,"current_range_meters":10000,"station_id":"ce4bgvh2rcd13ifvqcs0","pricing_plan_id":"cebpf4jnsgd1na2vs0mg"},{"bike_id":"098d86fc-c5a2-4828-aa74-3e07d06ddbf5","system_id":"levelo_inurba_marseille","lat":43.28861,"lon":5.35818,"is_reserved":false,"is_disabled":true,"rental_uris":{"android":"levelo://app?vid=098d86fc-c5a2-4828-aa74-3e07d06ddbf5","ios":"levelo://app?vid=098d86fc-c5a2-4828-aa74-3e07d06ddbf5"},"vehicle_type_id":"4","last_reported":1742148743,"current_range_meters":10000,"station_id":"ce4bhb12rcd13ifvqem0","pricing_plan_id":"cebpf4jnsgd1na2vs0mg"},{"bike_id":"10a5dfbf-3aa3-4cf3-ac17-cd4d12fd6782","system_id":"levelo_inurba_marseille","lat":43.32372,"lon":5.36781,"is_reserved":false,"is_disabled":false,"rental_uris":{"android":"levelo://app?vid=10a5dfbf-3aa3-4cf3-ac17-cd4d12fd6782","ios":"levelo://app?vid=10a5dfbf-3aa3-4cf3-ac17-cd4d12fd6782"},"vehicle_type_id":"4","last_reported":1742148743,"current_range_meters":10000,"station_id":"ce4bhsh2rcd13ifvqi2g","pricing_plan_id":"cebpf4jnsgd1na2vs0mg"},{"bike_id":"4b1426cb-648f-45df-a095-ae89ed465b04","system_id":"levelo_inurba_marseille","lat":43.25016,"lon":5.38923,"is_reserved":false,"is_disabled":false,"rental_uris":{"android":"levelo://app?vid=4b1426cb-648f-45df-a095-ae89ed465b04","ios":"levelo://app?vid=4b1426cb-648f-45df-a095-ae89ed465b04"},"vehicle_type_id":"4","last_reported":1742148743,"current_range_meters":10000,"station_id":"ce4bhgp2rcd13ifvqfd0","pricing_plan_id":"cebpf4jnsgd1na2vs0mg"},{"bike_id":"82c7300e-bb77-45cc-8280-9182d6db3735","system_id":"levelo_inurba_marseille","lat":43.3043,"lon":5.3889,"is_reserved":false,"is_disabled":false,"rental_uris":{"android":"levelo://app?vid=82c7300e-bb77-45cc-8280-9182d6db3735","ios":"levelo://app?vid=82c7300e-bb77-45cc-8280-9182d6db3735"},"vehicle_type_id":"4","last_reported":1742148743,"current_range_meters":10000,"station_id":"ce4bgk12rcd13ifvqbi0","pricing_plan_id":"cebpf4jnsgd1na2vs0mg"},{"bike_id":"34ce1bdd-3695-4f5b-9029-1b939d4fac7a","system_id":"levelo_inurba_marseille","lat":43.29636,"lon":5.40592,"is_reserved":false,"is_disabled":false,"rental_uris":{"android":"levelo://app?vid=34ce1bdd-3695-4f5b-9029-1b939d4fac7a","ios":"levelo://app?vid=34ce1bdd-3695-4f5b-9029-1b939d4fac7a"},"vehicle_type_id":"4","last_reported":1742148743,"current_range_meters":10000,"station_id":"ce4bh0h2rcd13ifvqd60","pricing_plan_id":"cebpf4jnsgd1na2vs0mg"},{"bike_id":"18f33ae7-3acb-407d-a5a7-4c104a302f2a","system_id":"levelo_inurba_marseille","lat":43.27618,"lon":5.36149,"is_reserved":false,"is_disabled":false,"rental_uris":{"android":"levelo://app?vid=18f33ae7-3acb-407d-a5a7-4c104a302f2a","ios":"levelo://app?vid=18f33ae7-3acb-407d-a5a7-4c104a302f2a"},"vehicle_type_id":"4","last_reported":1742148743,"current_range_meters":10000,"station_id":"ce4bgj92rcd13ifvqbe0","pricing_plan_id":"cebpf4jnsgd1na2vs0mg"},{"bike_id":"b881a216-a8e0-47ad-9c6d-ce879391627c","system_id":"levelo_inurba_marseille","lat":43.29984,"lon":5.36558,"is_reserved":false,"is_disabled":true,"rental_uris":{"android":"levelo://app?vid=b881a216-a8e0-47ad-9c6d-ce879391627c","ios":"levelo://app?vid=b881a216-a8e0-47ad-9c6d-ce879391627c"},"vehicle_type_id":"4","last_reported":1742148743,"current_range_meters":10800,"station_id":"","pricing_plan_id":"cebpf4jnsgd1na2vs0mg"},{"bike_id":"66458dbb-fb0f-468d-a836-2c507b57bd87","system_id":"levelo_inurba_marseille","lat":43.28619,"lon":5.35106,"is_reserved":false,"is_disabled":false,"rental_uris":{"android":"levelo://app?vid=66458dbb-fb0f-468d-a836-2c507b57bd87","ios":"levelo://app?vid=66458dbb-fb0f-468d-a836-2c507b57bd87"},"vehicle_type_id":"4","last_reported":1742148743,"current_range_meters":10800,"station_id":"ce4bhch2rcd13ifvqeug","pricing_plan_id":"cebpf4jnsgd1na2vs0mg"},{"bike_id":"54556cf2-31f7-469c-bee8-e1cf802d5d6b","system_id":"levelo_inurba_marseille","lat":43.28097,"lon":5.39849,"is_reserved":false,"is_disabled":false,"rental_uris":{"android":"levelo://app?vid=54556cf2-31f7-469c-bee8-e1cf802d5d6b","ios":"levelo://app?vid=54556cf2-31f7-469c-bee8-e1cf802d5d6b"},"vehicle_type_id":"4","last_reported":1742148743,"current_range_meters":10800,"station_id":"","pricing_plan_id":"cebpf4jnsgd1na2vs0mg"},{"bike_id":"d6cd0df4-ca0d-407c-ac60-8420479f0dd1","system_id":"levelo_inurba_marseille","lat":43.23075,"lon":5.35482,"is_reserved":false,"is_disabled":false,"rental_uris":{"android":"levelo://app?vid=d6cd0df4-ca0d-407c-ac60-8420479f0dd1","ios":"levelo://app?vid=d6cd0df4-ca0d-407c-ac60-8420479f0dd1"},"vehicle_type_id":"4","last_reported":1742148743,"current_range_meters":10800,"station_id":"cpo3342slgdg3j2ifvpg","pricing_plan_id":"cebpf4jnsgd1na2vs0mg"},{"bike_id":"2e6c3038-6eb8-46ce-bd43-53f0733e5db9","system_id":"levelo_inurba_marseille","lat":43.32102,"lon":5.36821,"is_reserved":false,"is_disabled":false,"rental_uris":{"android":"levelo://app?vid=2e6c3038-6eb8-46ce-bd43-53f0733e5db9","ios":"levelo://app?vid=2e6c3038-6eb8-46ce-bd43-53f0733e5db9"},"vehicle_type_id":"4","last_reported":1742148743,"current_range_meters":10800,"station_id":"ce4bhrh2rcd13ifvqhug","pricing_plan_id":"cebpf4jnsgd1na2vs0mg"},{"bike_id":"761351a1-8385-476b-a1a2-e79666e9463b","system_id":"levelo_inurba_marseille","lat":43.30328,"lon":5.40442,"is_reserved":false,"is_disabled":false,"rental_uris":{"android":"levelo://app?vid=761351a1-8385-476b-a1a2-e79666e9463b","ios":"levelo://app?vid=761351a1-8385-476b-a1a2-e79666e9463b"},"vehicle_type_id":"4","last_reported":1742148743,"current_range_meters":10800,"station_id":"ce4bh012rcd13ifvqd10","pricing_plan_id":"cebpf4jnsgd1na2vs0mg"},{"bike_id":"4a945509-81de-4386-a3ec-0c963fa0f055","system_id":"levelo_inurba_marseille","lat":43.2892,"lon":5.38424,"is_reserved":false,"is_disabled":false,"rental_uris":{"android":"levelo://app?vid=4a945509-81de-4386-a3ec-0c963fa0f055","ios":"levelo://app?vid=4a945509-81de-4386-a3ec-0c963fa0f055"},"vehicle_type_id":"4","last_reported":1742148743,"current_range_meters":10800,"station_id":"ce4bh612rcd13ifvqe6g","pricing_plan_id":"cebpf4jnsgd1na2vs0mg"},{"bike_id":"084e5042-5851-4c51-a14d-abd3aeab05d5","system_id":"levelo_inurba_marseille","lat":43.28715,"lon":5.37441,"is_reserved":false,"is_disabled":false,"rental_uris":{"android":"levelo://app?vid=084e5042-5851-4c51-a14d-abd3aeab05d5","ios":"levelo://app?vid=084e5042-5851-4c51-a14d-abd3aeab05d5"},"vehicle_type_id":"4","last_reported":1742148743,"current_range_meters":10800,"station_id":"","pricing_plan_id":"cebpf4jnsgd1na2vs0mg"},{"bike_id":"c0d14a55-0953-4c59-b0cd-c76953277ffe","system_id":"levelo_inurba_marseille","lat":43.29759,"lon":5.44738,"is_reserved":false,"is_disabled":false,"rental_uris":{"android":"levelo://app?vid=c0d14a55-0953-4c59-b0cd-c76953277ffe","ios":"levelo://app?vid=c0d14a55-0953-4c59-b0cd-c76953277ffe"},"vehicle_type_id":"4","last_reported":1742148743,"current_range_meters":10800,"station_id":"","pricing_plan_id":"cebpf4jnsgd1na2vs0mg"},{"bike_id":"25918a15-4b94-4c69-aaa3-b5f5e1c56790","system_id":"levelo_inurba_marseille","lat":43.25016,"lon":5.38909,"is_reserved":false,"is_disabled":false,"rental_uris":{"android":"levelo://app?vid=25918a15-4b94-4c69-aaa3-b5f5e1c56790","ios":"levelo://app?vid=25918a15-4b94-4c69-aaa3-b5f5e1c56790"},"vehicle_type_id":"4","last_reported":1742148743,"current_range_meters":10800,"station_id":"ce4bhgp2rcd13ifvqfd0","pricing_plan_id":"cebpf4jnsgd1na2vs0mg"},{"bike_id":"48464515-ed00-4752-a54a-e2ef86c98058","system_id":"levelo_inurba_marseille","lat":43.29542,"lon":5.39391,"is_reserved":false,"is_disabled":false,"rental_uris":{"android":"levelo://app?vid=48464515-ed00-4752-a54a-e2ef86c98058","ios":"levelo://app?vid=48464515-ed00-4752-a54a-e2ef86c98058"},"vehicle_type_id":"4","last_reported":1742148743,"current_range_meters":10800,"station_id":"ce4bh292rcd13ifvqdf0","pricing_plan_id":"cebpf4jnsgd1na2vs0mg"},{"bike_id":"4a80e346-e9af-4c14-9dc6-c1ade6c794ed","system_id":"levelo_inurba_marseille","lat":43.29099,"lon":5.38166,"is_reserved":false,"is_disabled":false,"rental_uris":{"android":"levelo://app?vid=4a80e346-e9af-4c14-9dc6-c1ade6c794ed","ios":"levelo://app?vid=4a80e346-e9af-4c14-9dc6-c1ade6c794ed"},"vehicle_type_id":"4","last_reported":1742148743,"current_range_meters":10800,"station_id":"ce4bh512rcd13ifvqe2g","pricing_plan_id":"cebpf4jnsgd1na2vs0mg"},{"bike_id":"fb92ce7f-273f-42f9-843b-fa211bfbdea0","system_id":"levelo_inurba_marseille","lat":43.28936,"lon":5.38418,"is_reserved":false,"is_disabled":false,"rental_uris":{"android":"levelo://app?vid=fb92ce7f-273f-42f9-843b-fa211bfbdea0","ios":"levelo://app?vid=fb92ce7f-273f-42f9-843b-fa211bfbdea0"},"vehicle_type_id":"4","last_reported":1742148743,"current_range_meters":10800,"station_id":"ce4bh612rcd13ifvqe6g","pricing_plan_id":"cebpf4jnsgd1na2vs0mg"},{"bike_id":"1f9a9668-f20a-4b32-9dce-dfb024996834","system_id":"levelo_inurba_marseille","lat":43.29036,"lon":5.38702,"is_reserved":false,"is_disabled":true,"rental_uris":{"android":"levelo://app?vid=1f9a9668-f20a-4b32-9dce-dfb024996834","ios":"levelo://app?vid=1f9a9668-f20a-4b32-9dce-dfb024996834"},"vehicle_type_id":"4","last_reported":1742148743,"current_range_meters":10800,"station_id":"ce4bh4p2rcd13ifvqe0g","pricing_plan_id":"cebpf4jnsgd1na2vs0mg"},{"bike_id":"5347502d-92da-4d7b-94b1-1aa2f08ecf79","system_id":"levelo_inurba_marseille","lat":43.29036,"lon":5.38663,"is_reserved":false,"is_disabled":false,"rental_uris":{"android":"levelo://app?vid=5347502d-92da-4d7b-94b1-1aa2f08ecf79","ios":"levelo://app?vid=5347502d-92da-4d7b-94b1-1aa2f08ecf79"},"vehicle_type_id":"4","last_reported":1742148743,"current_range_meters":10800,"station_id":"ce4bh4p2rcd13ifvqe0g","pricing_plan_id":"cebpf4jnsgd1na2vs0mg"},{"bike_id":"49fea2c2-9361-4fb5-954f-b44bbf354e43","system_id":"levelo_inurba_marseille","lat":43.32367,"lon":5.36745,"is_reserved":false,"is_disabled":false,"rental_uris":{"android":"levelo://app?vid=49fea2c2-9361-4fb5-954f-b44bbf354e43","ios":"levelo://app?vid=49fea2c2-9361-4fb5-954f-b44bbf354e43"},"vehicle_type_id":"4","last_reported":1742148743,"current_range_meters":10800,"station_id":"ce4bhsh2rcd13ifvqi2g","pricing_plan_id":"cebpf4jnsgd1na2vs0mg"},{"bike_id":"06b854a5-c92d-4517-9335-3158ef26e7be","system_id":"levelo_inurba_marseille","lat":43.32051,"lon":5.41541,"is_reserved":false,"is_disabled":false,"rental_uris":{"android":"levelo://app?vid=06b854a5-c92d-4517-9335-3158ef26e7be","ios":"levelo://app?vid=06b854a5-c92d-4517-9335-3158ef26e7be"},"vehicle_type_id":"4","last_reported":1742148743,"current_range_meters":10800,"station_id":"ce4bhq92rcd13ifvqhkg","pricing_plan_id":"cebpf4jnsgd1na2vs0mg"},{"bike_id":"b0d2cd6b-a9b2-49f5-b582-3051ba923f33","system_id":"levelo_inurba_marseille","lat":43.25089,"lon":5.39525,"is_reserved":false,"is_disabled":false,"rental_uris":{"android":"levelo://app?vid=b0d2cd6b-a9b2-49f5-b582-3051ba923f33","ios":"levelo://app?vid=b0d2cd6b-a9b2-49f5-b582-3051ba923f33"},"vehicle_type_id":"4","last_reported":1742148743,"current_range_meters":11200,"station_id":"ce4bhm12rcd13ifvqgkg","pricing_plan_id":"cebpf4jnsgd1na2vs0mg"},{"bike_id":"ec5e31e2-9c84-4091-b656-01fe473797ba","system_id":"levelo_inurba_marseille","lat":43.27998,"lon":5.40018,"is_reserved":false,"is_disabled":false,"rental_uris":{"android":"levelo://app?vid=ec5e31e2-9c84-4091-b656-01fe473797ba","ios":"levelo://app?vid=ec5e31e2-9c84-4091-b656-01fe473797ba"},"vehicle_type_id":"4","last_reported":1742148743,"current_range_meters":11200,"station_id":"ce4bho92rcd13ifvqh4g","pricing_plan_id":"cebpf4jnsgd1na2vs0mg"},{"bike_id":"5a61a616-683f-484d-83ae-d7f61143d634","system_id":"levelo_inurba_marseille","lat":43.29519,"lon":5.42497,"is_reserved":false,"is_disabled":false,"rental_uris":{"android":"levelo://app?vid=5a61a616-683f-484d-83ae-d7f61143d634","ios":"levelo://app?vid=5a61a616-683f-484d-83ae-d7f61143d634"},"vehicle_type_id":"4","last_reported":1742148743,"current_range_meters":11200,"station_id":"","pricing_plan_id":"cebpf4jnsgd1na2vs0mg"},{"bike_id":"ce157c99-2b38-44c1-b6a5-db708ae225d5","system_id":"levelo_inurba_marseille","lat":43.24084,"lon":5.37796,"is_reserved":false,"is_disabled":false,"rental_uris":{"android":"levelo://app?vid=ce157c99-2b38-44c1-b6a5-db708ae225d5","ios":"levelo://app?vid=ce157c99-2b38-44c1-b6a5-db708ae225d5"},"vehicle_type_id":"4","last_reported":1742148743,"current_range_meters":11200,"station_id":"ce4bhnp2rcd13ifvqgvg","pricing_plan_id":"cebpf4jnsgd1na2vs0mg"},{"bike_id":"f3d52fc3-f026-4bf6-ac24-bb570fe64651","system_id":"levelo_inurba_marseille","lat":43.30144,"lon":5.38087,"is_reserved":false,"is_disabled":false,"rental_uris":{"android":"levelo://app?vid=f3d52fc3-f026-4bf6-ac24-bb570fe64651","ios":"levelo://app?vid=f3d52fc3-f026-4bf6-ac24-bb570fe64651"},"vehicle_type_id":"4","last_reported":1742148743,"current_range_meters":11200,"station_id":"ce4bgv12rcd13ifvqcp0","pricing_plan_id":"cebpf4jnsgd1na2vs0mg"},{"bike_id":"6fd8daf0-65ad-4624-b769-49c0e8425010","system_id":"levelo_inurba_marseille","lat":43.29606,"lon":5.3812,"is_reserved":false,"is_disabled":false,"rental_uris":{"android":"levelo://app?vid=6fd8daf0-65ad-4624-b769-49c0e8425010","ios":"levelo://app?vid=6fd8daf0-65ad-4624-b769-49c0e8425010"},"vehicle_type_id":"4","last_reported":1742148743,"current_range_meters":11200,"station_id":"ce4bgl12rcd13ifvqbo0","pricing_plan_id":"cebpf4jnsgd1na2vs0mg"},{"bike_id":"659cfc6c-f2ba-4758-b6de-6943e7c2dc48","system_id":"levelo_inurba_marseille","lat":43.28698,"lon":5.37386,"is_reserved":false,"is_disabled":true,"rental_uris":{"android":"levelo://app?vid=659cfc6c-f2ba-4758-b6de-6943e7c2dc48","ios":"levelo://app?vid=659cfc6c-f2ba-4758-b6de-6943e7c2dc48"},"vehicle_type_id":"4","last_reported":1742148743,"current_range_meters":11200,"station_id":"ce4bh3p2rcd13ifvqdq0","pricing_plan_id":"cebpf4jnsgd1na2vs0mg"},{"bike_id":"8fa7ea8d-156d-42f2-95b3-ae3567fc37ee","system_id":"levelo_inurba_marseille","lat":43.23196,"lon":5.39991,"is_reserved":false,"is_disabled":false,"rental_uris":{"android":"levelo://app?vid=8fa7ea8d-156d-42f2-95b3-ae3567fc37ee","ios":"levelo://app?vid=8fa7ea8d-156d-42f2-95b3-ae3567fc37ee"},"vehicle_type_id":"4","last_reported":1742148743,"current_range_meters":11200,"station_id":"ce4bhn12rcd13ifvqgqg","pricing_plan_id":"cebpf4jnsgd1na2vs0mg"},{"bike_id":"84064385-3d5a-4653-8a21-923beeceff6e","system_id":"levelo_inurba_marseille","lat":43.2468,"lon":5.38186,"is_reserved":false,"is_disabled":false,"rental_uris":{"android":"levelo://app?vid=84064385-3d5a-4653-8a21-923beeceff6e","ios":"levelo://app?vid=84064385-3d5a-4653-8a21-923beeceff6e"},"vehicle_type_id":"4","last_reported":1742148743,"current_range_meters":11200,"station_id":"ce4bhih2rcd13ifvqfr0","pricing_plan_id":"cebpf4jnsgd1na2vs0mg"},{"bike_id":"760b38d2-79b4-4c3c-b4bb-02586e46e837","system_id":"levelo_inurba_marseille","lat":43.30819,"lon":5.38124,"is_reserved":false,"is_disabled":true,"rental_uris":{"android":"levelo://app?vid=760b38d2-79b4-4c3c-b4bb-02586e46e837","ios":"levelo://app?vid=760b38d2-79b4-4c3c-b4bb-02586e46e837"},"vehicle_type_id":"4","last_reported":1742148743,"current_range_meters":11200,"station_id":"ce4bgt12rcd13ifvqce0","pricing_plan_id":"cebpf4jnsgd1na2vs0mg"},{"bike_id":"790e0373-8ce6-4dd6-8a72-d3a23d4dda60","system_id":"levelo_inurba_marseille","lat":43.2902,"lon":5.38126,"is_reserved":false,"is_disabled":false,"rental_uris":{"android":"levelo://app?vid=790e0373-8ce6-4dd6-8a72-d3a23d4dda60","ios":"levelo://app?vid=790e0373-8ce6-4dd6-8a72-d3a23d4dda60"},"vehicle_type_id":"4","last_reported":1742148743,"current_range_meters":11200,"station_id":"ce4bh4p2rcd13ifvqe1g","pricing_plan_id":"cebpf4jnsgd1na2vs0mg"},{"bike_id":"3f7c20ee-b1eb-4a38-9449-01c6e07f17dc","system_id":"levelo_inurba_marseille","lat":43.27818,"lon":5.40699,"is_reserved":false,"is_disabled":false,"rental_uris":{"android":"levelo://app?vid=3f7c20ee-b1eb-4a38-9449-01c6e07f17dc","ios":"levelo://app?vid=3f7c20ee-b1eb-4a38-9449-01c6e07f17dc"},"vehicle_type_id":"4","last_reported":1742148743,"current_range_meters":10800,"station_id":"ce4bhnh2rcd13ifvqgtg","pricing_plan_id":"cebpf4jnsgd1na2vs0mg"},{"bike_id":"bdd9f3a0-c235-42f2-9f3f-d32a8e7e5cd3","system_id":"levelo_inurba_marseille","lat":43.28086,"lon":5.3965,"is_reserved":false,"is_disabled":false,"rental_uris":{"android":"levelo://app?vid=bdd9f3a0-c235-42f2-9f3f-d32a8e7e5cd3","ios":"levelo://app?vid=bdd9f3a0-c235-42f2-9f3f-d32a8e7e5cd3"},"vehicle_type_id":"4","last_reported":1742148743,"current_range_meters":11600,"station_id":"ce4bho12rcd13ifvqh2g","pricing_plan_id":"cebpf4jnsgd1na2vs0mg"},{"bike_id":"4227b7ed-5a39-455d-91d9-1cfe8db7a0f3","system_id":"levelo_inurba_marseille","lat":43.28491,"lon":5.38415,"is_reserved":false,"is_disabled":false,"rental_uris":{"android":"levelo://app?vid=4227b7ed-5a39-455d-91d9-1cfe8db7a0f3","ios":"levelo://app?vid=4227b7ed-5a39-455d-91d9-1cfe8db7a0f3"},"vehicle_type_id":"4","last_reported":1742148743,"current_range_meters":11600,"station_id":"ce4bh512rcd13ifvqe3g","pricing_plan_id":"cebpf4jnsgd1na2vs0mg"},{"bike_id":"f13cb805-5e8b-468c-97a5-da60b9b8c554","system_id":"levelo_inurba_marseille","lat":43.24395,"lon":5.37062,"is_reserved":false,"is_disabled":false,"rental_uris":{"android":"levelo://app?vid=f13cb805-5e8b-468c-97a5-da60b9b8c554","ios":"levelo://app?vid=f13cb805-5e8b-468c-97a5-da60b9b8c554"},"vehicle_type_id":"4","last_reported":1742148743,"current_range_meters":11600,"station_id":"ce4bhhh2rcd13ifvqfk0","pricing_plan_id":"cebpf4jnsgd1na2vs0mg"},{"bike_id":"b2a9b540-5556-439b-ae8d-6d46b27b801c","system_id":"levelo_inurba_marseille","lat":43.28353,"lon":5.38127,"is_reserved":false,"is_disabled":true,"rental_uris":{"android":"levelo://app?vid=b2a9b540-5556-439b-ae8d-6d46b27b801c","ios":"levelo://app?vid=b2a9b540-5556-439b-ae8d-6d46b27b801c"},"vehicle_type_id":"4","last_reported":1742148743,"current_range_meters":11600,"station_id":"ce4bh412rcd13ifvqdr0","pricing_plan_id":"cebpf4jnsgd1na2vs0mg"},{"bike_id":"68e6256a-1bce-4a44-add6-9982aa64c186","system_id":"levelo_inurba_marseille","lat":43.28604,"lon":5.37416,"is_reserved":false,"is_disabled":false,"rental_uris":{"android":"levelo://app?vid=68e6256a-1bce-4a44-add6-9982aa64c186","ios":"levelo://app?vid=68e6256a-1bce-4a44-add6-9982aa64c186"},"vehicle_type_id":"4","last_reported":1742148743,"current_range_meters":11600,"station_id":"ce4bh4p2rcd13ifvqe0g","pricing_plan_id":"cebpf4jnsgd1na2vs0mg"},