{"last_updated":1751994605,"ttl":60,"version":"2.2","data":{"bikes":[{"bike_id":"cd20cfea-2f2f-444d-a882-a49b6cf370eb","system_id":"levelo_inurba_marseille","lat":43.337444,"lon":5.374475,"is_reserved":false,"is_disabled":true,"rental_uris":{"android":"levelo://app?vid=cd20cfea-2f2f-444d-a882-a49b6cf370eb","ios":"levelo://app?vid=cd20cfea-2f2f-444d-a882-a49b6cf370eb"},"vehicle_type_id":"4","last_reported":1751994605,"current_range_meters":0,"station_id":"","pricing_plan_id":"cebpf4jnsgd1na2vs0mg"},{"bike_id":"3da29fb8-fc97-44c6-b9ac-31dd456b2fd4","system_id":"levelo_inurba_marseille","lat":43.33771,"lon":5.37424,"is_reserved":false,"is_disabled":true,"rental_uris":{"android":"levelo://app?vid=3da29fb8-fc97-44c6-b9ac-31dd456b2fd4","ios":"levelo://app?vid=3da29fb8-fc97-44c6-b9ac-31dd456b2fd4"},"vehicle_type_id":"4","last_reported":1751994605,"current_range_meters":0,"station_id":"","pricing_plan_id":"cebpf4jnsgd1na2vs0mg"},{"bike_id":"01861ad8-a8d7-4be6-816e-651927c87584","system_id":"levelo_inurba_marseille","lat":43.33751,"lon":5.37456,"is_reserved":false,"is_disabled":true,"rental_uris":{"android":"levelo://app?vid=01861ad8-a8d7-4be6-816e-651927c87584","ios":"levelo://app?vid=01861ad8-a8d7-4be6-816e-651927c87584"},"vehicle_type_id":"4","last_reported":1751994605,"current_range_meters":0,"station_id":"","pricing_plan_id":"cebpf4jnsgd1na2vs0mg"},{"bike_id":"3d508917-55ee-42b6-894b-89c2a444dc06","system_id":"levelo_inurba_marseille","lat":43.33792,"lon":5.3747,"is_reserved":false,"is_disabled":true,"rental_uris":{"android":"levelo://app?vid=3d508917-55ee-42b6-894b-89c2a444dc06","ios":"levelo://app?vid=3d508917-55ee-42b6-894b-89c2a444dc06"},"vehicle_type_id":"4","last_reported":1751994605,"current_range_meters":0,"station_id":"","pricing_plan_id":"cebpf4jnsgd1na2vs0mg"},{"bike_id":"f7b157b4-b163-4cb0-afc4-3fb6c79d5a10","system_id":"levelo_inurba_marseille","lat":43.30308,"lon":5.39209,"is_reserved":false,"is_disabled":true,"rental_uris":{"android":"levelo://app?vid=f7b157b4-b163-4cb0-afc4-3fb6c79d5a10","ios":"levelo://app?vid=f7b157b4-b163-4cb0-afc4-3fb6c79d5a10"},"vehicle_type_id":"4","last_reported":1751994605,"current_range_meters":0,"station_id":"ce4bgkh2rcd13ifvqbk0","pricing_plan_id":"cebpf4jnsgd1na2vs0mg"},{"bike_id":"70c1df73-264e-4ffe-b901-452f1ae2a6e5","system_id":"levelo_inurba_marseille","lat":43.30931,"lon":5.4014,"is_reserved":false,"is_disabled":true,"rental_uris":{"android":"levelo://app?vid=70c1df73-264e-4ffe-b901-452f1ae2a6e5","ios":"levelo://app?vid=70c1df73-264e-4ffe-b901-452f1ae2a6e5"},"vehicle_type_id":"4","last_reported":1751994605,"current_range_meters":0,"station_id":"ce4bgvp2rcd13ifvqct0","pricing_plan_id":"cebpf4jnsgd1na2vs0mg"},{"bike_id":"e3171607-ede4-4404-b4d1-05cb5426ffbb","system_id":"levelo_inurba_marseille","lat":43.29537,"lon":5.39408,"is_reserved":false,"is_disabled":true,"rental_uris":{"android":"levelo://app?vid=e3171607-ede4-4404-b4d1-05cb5426ffbb","ios":"levelo://app?vid=e3171607-ede4-4404-b4d1-05cb5426ffbb"},"vehicle_type_id":"4","last_reported":1751994605,"current_range_meters":0,"station_id":"ce4bh292rcd13ifvqdf0","pricing_plan_id":"cebpf4jnsgd1na2vs0mg"},{"bike_id":"6d2da5a0-a347-426b-a923-e9655ac4bdeb","system_id":"levelo_inurba_marseille","lat":43.28421,"lon":5.3751,"is_reserved":false,"is_disabled":true,"rental_uris":{"android":"levelo://app?vid=6d2da5a0-a347-426b-a923-e9655ac4bdeb","ios":"levelo://app?vid=6d2da5a0-a347-426b-a923-e9655ac4bdeb"},"vehicle_type_id":"4","last_reported":1751994605,"current_range_meters":0,"station_id":"ce4bh412rcd13ifvqds0","pricing_plan_id":"cebpf4jnsgd1na2vs0mg"},{"bike_id":"73108a0b-415f-4cfc-b5e9-0ce3825958b2","system_id":"levelo_inurba_marseille","lat":43.28677,"lon":5.38678,"is_reserved":false,"is_disabled":true,"rental_uris":{"android":"levelo://app?vid=73108a0b-415f-4cfc-b5e9-0ce3825958b2","ios":"levelo://app?vid=73108a0b-415f-4cfc-b5e9-0ce3825958b2"},"vehicle_type_id":"4","last_reported":1751994605,"current_range_meters":0,"station_id":"ce4bh492rcd13ifvqdug","pricing_plan_id":"cebpf4jnsgd1na2vs0mg"},{"bike_id":"d42d7a68-d0bd-475f-a8bb-670d65f53682","system_id":"levelo_inurba_marseille","lat":43.28492,"lon":5.38422,"is_reserved":false,"is_disabled":true,"rental_uris":{"android":"levelo://app?vid=d42d7a68-d0bd-475f-a8bb-670d65f53682","ios":"levelo://app?vid=d42d7a68-d0bd-475f-a8bb-670d65f53682"},"vehicle_type_id":"4","last_reported":1751994605,"current_range_meters":0,"station_id":"ce4bh512rcd13ifvqe3g","pricing_plan_id":"cebpf4jnsgd1na2vs0mg"},{"bike_id":"bdb8196d-05f4-4aba-9128-f9da23c34d17","system_id":"levelo_inurba_marseille","lat":43.29017,"lon":5.35605,"is_reserved":false,"is_disabled":true,"rental_uris":{"android":"levelo://app?vid=bdb8196d-05f4-4aba-9128-f9da23c34d17","ios":"levelo://app?vid=bdb8196d-05f4-4aba-9128-f9da23c34d17"},"vehicle_type_id":"4","last_reported":1751994605,"current_range_meters":0,"station_id":"ce4bhb92rcd13ifvqen0","pricing_plan_id":"cebpf4jnsgd1na2vs0mg"},{"bike_id":"f0b37aed-3000-4195-840b-8f7dae2d44cd","system_id":"levelo_inurba_marseille","lat":43.282791,"lon":5.350547,"is_reserved":false,"is_disabled":true,"rental_uris":{"android":"levelo://app?vid=f0b37aed-3000-4195-840b-8f7dae2d44cd","ios":"levelo://app?vid=f0b37aed-3000-4195-840b-8f7dae2d44cd"},"vehicle_type_id":"4","last_reported":1751994605,"current_range_meters":0,"station_id":"ce4bhbp2rcd13ifvqerg","pricing_plan_id":"cebpf4jnsgd1na2vs0mg"},{"bike_id":"07776292-a328-471d-a8be-92d2382b012f","system_id":"levelo_inurba_marseille","lat":43.28156,"lon":5.42617,"is_reserved":false,"is_disabled":true,"rental_uris":{"android":"levelo://app?vid=07776292-a328-471d-a8be-92d2382b012f","ios":"levelo://app?vid=07776292-a328-471d-a8be-92d2382b012f"},"vehicle_type_id":"4","last_reported":1751994605,"current_range_meters":0,"station_id":"ce4bhnh2rcd13ifvqgug","pricing_plan_id":"cebpf4jnsgd1na2vs0mg"},{"bike_id":"fa665402-139d-4d6f-b9f9-cb79b8aa2644","system_id":"levelo_inurba_marseille","lat":43.23965,"lon":5.36633,"is_reserved":false,"is_disabled":true,"rental_uris":{"android":"levelo://app?vid=fa665402-139d-4d6f-b9f9-cb79b8aa2644","ios":"levelo://app?vid=fa665402-139d-4d6f-b9f9-cb79b8aa2644"},"vehicle_type_id":"4","last_reported":1751994605,"current_range_meters":400,"station_id":"ce4bhi12rcd13ifvqfp0","pricing_plan_id":"cebpf4jnsgd1na2vs0mg"},{"bike_id":"620d0a6e-507b-4272-bb8d-4f2da8c5409c","system_id":"levelo_inurba_marseille","lat":43.31113,"lon":5.37775,"is_reserved":false,"is_disabled":true,"rental_uris":{"android":"levelo://app?vid=620d0a6e-507b-4272-bb8d-4f2da8c5409c","ios":"levelo://app?vid=620d0a6e-507b-4272-bb8d-4f2da8c5409c"},"vehicle_type_id":"4","last_reported":1751994605,"current_range_meters":800,"station_id":"ce4bgt92rcd13ifvqcg0","pricing_plan_id":"cebpf4jnsgd1na2vs0mg"},{"bike_id":"5f635402-999f-4ba8-b162-12a4fe205117","system_id":"levelo_inurba_marseille","lat":43.30223,"lon":5.39473,"is_reserved":false,"is_disabled":true,"rental_uris":{"android":"levelo://app?vid=5f635402-999f-4ba8-b162-12a4fe205117","ios":"levelo://app?vid=5f635402-999f-4ba8-b162-12a4fe205117"},"vehicle_type_id":"4","last_reported":1751994605,"current_range_meters":800,"station_id":"ce4bh0p2rcd13ifvqd70","pricing_plan_id":"cebpf4jnsgd1na2vs0mg"},{"bike_id":"ed290504-6948-4f69-8584-2e2b0286febf","system_id":"levelo_inurba_marseille","lat":43.21195,"lon":5.35086,"is_reserved":false,"is_disabled":true,"rental_uris":{"android":"levelo://app?vid=ed290504-6948-4f69-8584-2e2b0286febf","ios":"levelo://app?vid=ed290504-6948-4f69-8584-2e2b0286febf"},"vehicle_type_id":"4","last_reported":1751994605,"current_range_meters":800,"station_id":"st_cvj6sg6p6f1abm77japg","pricing_plan_id":"cebpf4jnsgd1na2vs0mg"},{"bike_id":"f019955e-f7a1-4a35-8f42-1fdf08ee12bc","system_id":"levelo_inurba_marseille","lat":43.29719,"lon":5.37826,"is_reserved":false,"is_disabled":true,"rental_uris":{"android":"levelo://app?vid=f019955e-f7a1-4a35-8f42-1fdf08ee12bc","ios":"levelo://app?vid=f019955e-f7a1-4a35-8f42-1fdf08ee12bc"},"vehicle_type_id":"4","last_reported":1751994605,"current_range_meters":1200,"station_id":"","pricing_plan_id":"cebpf4jnsgd1na2vs0mg"},{"bike_id":"ddf69991-3cf3-4ee4-98b2-316eaa35807a","system_id":"levelo_inurba_marseille","lat":43.30787,"lon":5.38153,"is_reserved":false,"is_disabled":true,"rental_uris":{"android":"levelo://app?vid=ddf69991-3cf3-4ee4-98b2-316eaa35807a","ios":"levelo://app?vid=ddf69991-3cf3-4ee4-98b2-316eaa35807a"},"vehicle_type_id":"4","last_reported":1751994605,"current_range_meters":1200,"station_id":"ce4bgt12rcd13ifvqce0","pricing_plan_id":"cebpf4jnsgd1na2vs0mg"},{"bike_id":"08d79daf-fc25-4c1e-80c7-33dc5197c688","system_id":"levelo_inurba_marseille","lat":43.30787,"lon":5.38156,"is_reserved":false,"is_disabled":true,"rental_uris":{"android":"levelo://app?vid=08d79daf-fc25-4c1e-80c7-33dc5197c688","ios":"levelo://app?vid=08d79daf-fc25-4c1e-80c7-33dc5197c688"},"vehicle_type_id":"4","last_reported":1751994605,"current_range_meters":1200,"station_id":"ce4bgt12rcd13ifvqce0","pricing_plan_id":"cebpf4jnsgd1na2vs0mg"},{"bike_id":"a6837310-8c56-4b9b-ae74-0d724ea2b5cf","system_id":"levelo_inurba_marseille","lat":43.29018,"lon":5.39997,"is_reserved":false,"is_disabled":true,"rental_uris":{"android":"levelo://app?vid=a6837310-8c56-4b9b-ae74-0d724ea2b5cf","ios":"levelo://app?vid=a6837310-8c56-4b9b-ae74-0d724ea2b5cf"},"vehicle_type_id":"4","last_reported":1751994605,"current_range_meters":1200,"station_id":"ce4bh392rcd13ifvqdm0","pricing_plan_id":"cebpf4jnsgd1na2vs0mg"},{"bike_id":"3b6ffa2a-53b1-4d07-9c9f-f5678ea8d8e0","system_id":"levelo_inurba_marseille","lat":43.27369,"lon":5.36249,"is_reserved":false,"is_disabled":true,"rental_uris":{"android":"levelo://app?vid=3b6ffa2a-53b1-4d07-9c9f-f5678ea8d8e0","ios":"levelo://app?vid=3b6ffa2a-53b1-4d07-9c9f-f5678ea8d8e0"},"vehicle_type_id":"4","last_reported":1751994605,"current_range_meters":1200,"station_id":"ce4bhbh2rcd13ifvqeo0","pricing_plan_id":"cebpf4jnsgd1na2vs0mg"},{"bike_id":"966ffc4b-b0e6-46c6-9cb0-ea3b737d3623","system_id":"levelo_inurba_marseille","lat":43.27058,"lon":5.40253,"is_reserved":false,"is_disabled":true,"rental_uris":{"android":"levelo://app?vid=966ffc4b-b0e6-46c6-9cb0-ea3b737d3623","ios":"levelo://app?vid=966ffc4b-b0e6-46c6-9cb0-ea3b737d3623"},"vehicle_type_id":"4","last_reported":1751994605,"current_range_meters":1200,"station_id":"ce4bhk92rcd13ifvqgc0","pricing_plan_id":"cebpf4jnsgd1na2vs0mg"},{"bike_id":"0be22155-a5fa-44ef-b4e0-3c8410f891c6","system_id":"levelo_inurba_marseille","lat":43.27814,"lon":5.40718,"is_reserved":false,"is_disabled":true,"rental_uris":{"android":"levelo://app?vid=0be22155-a5fa-44ef-b4e0-3c8410f891c6","ios":"levelo://app?vid=0be22155-a5fa-44ef-b4e0-3c8410f891c6"},"vehicle_type_id":"4","last_reported":1751994605,"current_range_meters":1200,"station_id":"ce4bhnh2rcd13ifvqgtg","pricing_plan_id":"cebpf4jnsgd1na2vs0mg"},{"bike_id":"6661cbd2-6ba2-4b46-b15e-1188df0f29d7","system_id":"levelo_inurba_marseille","lat":43.21202,"lon":5.35092,"is_reserved":false,"is_disabled":true,"rental_uris":{"android":"levelo://app?vid=6661cbd2-6ba2-4b46-b15e-1188df0f29d7","ios":"levelo://app?vid=6661cbd2-6ba2-4b46-b15e-1188df0f29d7"},"vehicle_type_id":"4","last_reported":1751994605,"current_range_meters":1200,"station_id":"st_cvj6sg6p6f1abm77japg","pricing_plan_id":"cebpf4jnsgd1na2vs0mg"},{"bike_id":"b4118255-9bbf-42ff-be64-933cc50ebb55","system_id":"levelo_inurba_marseille","lat":43.30117,"lon":5.39829,"is_reserved":false,"is_disabled":true,"rental_uris":{"android":"levelo://app?vid=b4118255-9bbf-42ff-be64-933cc50ebb55","ios":"levelo://app?vid=b4118255-9bbf-42ff-be64-933cc50ebb55"},"vehicle_type_id":"4","last_reported":1751994605,"current_range_meters":1600,"station_id":"ce4bh0h2rcd13ifvqd40","pricing_plan_id":"cebpf4jnsgd1na2vs0mg"},{"bike_id":"3abcb81b-f085-4fa3-a7d5-4bda89c6d113","system_id":"levelo_inurba_marseille","lat":43.28422,"lon":5.34986,"is_reserved":false,"is_disabled":true,"rental_uris":{"android":"levelo://app?vid=3abcb81b-f085-4fa3-a7d5-4bda89c6d113","ios":"levelo://app?vid=3abcb81b-f085-4fa3-a7d5-4bda89c6d113"},"vehicle_type_id":"4","last_reported":1751994605,"current_range_meters":1600,"station_id":"ce4bhbh2rcd13ifvqepg","pricing_plan_id":"cebpf4jnsgd1na2vs0mg"},{"bike_id":"47cc12e9-1f9d-4b29-b948-db655857089a","system_id":"levelo_inurba_marseille","lat":43.22557,"lon":5.34761,"is_reserved":false,"is_disabled":true,"rental_uris":{"android":"levelo://app?vid=47cc12e9-1f9d-4b29-b948-db655857089a","ios":"levelo://app?vid=47cc12e9-1f9d-4b29-b948-db655857089a"},"vehicle_type_id":"4","last_reported":1751994605,"current_range_meters":2000,"station_id":"","pricing_plan_id":"cebpf4jnsgd1na2vs0mg"},{"bike_id":"a9942099-b7af-4adc-a731-a263fed105df","system_id":"levelo_inurba_marseille","lat":43.2886,"lon":5.39311,"is_reserved":false,"is_disabled":true,"rental_uris":{"android":"levelo://app?vid=a9942099-b7af-4adc-a731-a263fed105df","ios":"levelo://app?vid=a9942099-b7af-4adc-a731-a263fed105df"},"vehicle_type_id":"4","last_reported":1751994605,"current_range_meters":2000,"station_id":"ce4bh2p2rcd13ifvqdi0","pricing_plan_id":"cebpf4jnsgd1na2vs0mg"},{"bike_id":"a4b4167c-c11a-4d07-8699-08a01707bcf2","system_id":"levelo_inurba_marseille","lat":43.29036,"lon":5.38634,"is_reserved":false,"is_disabled":true,"rental_uris":{"android":"levelo://app?vid=a4b4167c-c11a-4d07-8699-08a01707bcf2","ios":"levelo://app?vid=a4b4167c-c11a-4d07-8699-08a01707bcf2"},"vehicle_type_id":"4","last_reported":1751994605,"current_range_meters":2000,"station_id":"ce4bh4p2rcd13ifvqe0g","pricing_plan_id":"cebpf4jnsgd1na2vs0mg"},{"bike_id":"bb29e41f-3292-49b1-a9fc-f6c4198e0b85","system_id":"levelo_inurba_marseille","lat":43.31086,"lon":5.42429,"is_reserved":false,"is_disabled":true,"rental_uris":{"android":"levelo://app?vid=bb29e41f-3292-49b1-a9fc-f6c4198e0b85","ios":"levelo://app?vid=bb29e41f-3292-49b1-a9fc-f6c4198e0b85"},"vehicle_type_id":"4","last_reported":1751994605,"current_range_meters":2000,"station_id":"ce4bhp92rcd13ifvqhag","pricing_plan_id":"cebpf4jnsgd1na2vs0mg"},{"bike_id":"a6251c21-93a7-4fe5-8350-ebd3e0739bcb","system_id":"levelo_inurba_marseille","lat":43.30249,"lon":5.400748,"is_reserved":false,"is_disabled":false,"rental_uris":{"android":"levelo://app?vid=a6251c21-93a7-4fe5-8350-ebd3e0739bcb","ios":"levelo://app?vid=a6251c21-93a7-4fe5-8350-ebd3e0739bcb"},"vehicle_type_id":"4","last_reported":1751994605,"current_range_meters":2800,"station_id":"ce4bgvh2rcd13ifvqcs0","pricing_plan_id":"cebpf4jnsgd1na2vs0mg"},{"bike_id":"2878b31a-182c-44e1-a436-b4546cb6897c","system_id":"levelo_inurba_marseille","lat":43.28036,"lon":5.36946,"is_reserved":false,"is_disabled":false,"rental_uris":{"android":"levelo://app?vid=2878b31a-182c-44e1-a436-b4546cb6897c","ios":"levelo://app?vid=2878b31a-182c-44e1-a436-b4546cb6897c"},"vehicle_type_id":"4","last_reported":1751994605,"current_range_meters":2800,"station_id":"ce4bha12rcd13ifvqef0","pricing_plan_id":"cebpf4jnsgd1na2vs0mg"},{"bike_id":"1e2ef738-9317-48e1-8abc-b33e791bc016","system_id":"levelo_inurba_marseille","lat":43.28614,"lon":5.35111,"is_reserved":false,"is_disabled":false,"rental_uris":{"android":"levelo://app?vid=1e2ef738-9317-48e1-8abc-b33e791bc016","ios":"levelo://app?vid=1e2ef738-9317-48e1-8abc-b33e791bc016"},"vehicle_type_id":"4","last_reported":1751994605,"current_range_meters":2800,"station_id":"ce4bhch2rcd13ifvqeug","pricing_plan_id":"cebpf4jnsgd1na2vs0mg"},{"bike_id":"4b6922bb-7289-4be2-9ad7-2c0e8ae61c82","system_id":"levelo_inurba_marseille","lat":43.260326,"lon":5.375473,"is_reserved":false,"is_disabled":false,"rental_uris":{"android":"levelo://app?vid=4b6922bb-7289-4be2-9ad7-2c0e8ae61c82","ios":"levelo://app?vid=4b6922bb-7289-4be2-9ad7-2c0e8ae61c82"},"vehicle_type_id":"4","last_reported":1751994605,"current_range_meters":2800,"station_id":"ce4bhgh2rcd13ifvqfa0","pricing_plan_id":"cebpf4jnsgd1na2vs0mg"},{"bike_id":"ff6969fc-5512-4edf-a61d-6936ccb9a278","system_id":"levelo_inurba_marseille","lat":43.330142,"lon":5.36378,"is_reserved":false,"is_disabled":false,"rental_uris":{"android":"levelo://app?vid=ff6969fc-5512-4edf-a61d-6936ccb9a278","ios":"levelo://app?vid=ff6969fc-5512-4edf-a61d-6936ccb9a278"},"vehicle_type_id":"4","last_reported":1751994605,"current_range_meters":3200,"station_id":"","pricing_plan_id":"cebpf4jnsgd1na2vs0mg"},{"bike_id":"4a5cd613-7706-43c2-ac27-6f4ceaa505c3","system_id":"levelo_inurba_marseille","lat":43.31489,"lon":5.37307,"is_reserved":false,"is_disabled":false,"rental_uris":{"android":"levelo://app?vid=4a5cd613-7706-43c2-ac27-6f4ceaa505c3","ios":"levelo://app?vid=4a5cd613-7706-43c2-ac27-6f4ceaa505c3"},"vehicle_type_id":"4","last_reported":1751994605,"current_range_meters":3200,"station_id":"ce4bgt12rcd13ifvqcd0","pricing_plan_id":"cebpf4jnsgd1na2vs0mg"},{"bike_id":"0c6ef98a-9c33-4d2f-b188-1690f070350c","system_id":"levelo_inurba_marseille","lat":43.28706,"lon":5.37385,"is_reserved":false,"is_disabled":false,"rental_uris":{"android":"levelo://app?vid=0c6ef98a-9c33-4d2f-b188-1690f070350c","ios":"levelo://app?vid=0c6ef98a-9c33-4d2f-b188-1690f070350c"},"vehicle_type_id":"4","last_reported":1751994605,"current_range_meters":3600,"station_id":"ce4bh3p2rcd13ifvqdq0","pricing_plan_id":"cebpf4jnsgd1na2vs0mg"},{"bike_id":"575501eb-5bc3-4088-9610-52dfbacf7f1e","system_id":"levelo_inurba_marseille","lat":43.27376,"lon":5.36256,"is_reserved":false,"is_disabled":false,"rental_uris":{"android":"levelo://app?vid=575501eb-5bc3-4088-9610-52dfbacf7f1e","ios":"levelo://app?vid=575501eb-5bc3-4088-9610-52dfbacf7f1e"},"vehicle_type_id":"4","last_reported":1751994605,"current_range_meters":3600,"station_id":"ce4bhbh2rcd13ifvqeo0","pricing_plan_id":"cebpf4jnsgd1na2vs0mg"},{"bike_id":"e562ad4e-a577-4b7b-a74e-7e00b9c0f52f","system_id":"levelo_inurba_marseille","lat":43.22504,"lon":5.3478,"is_reserved":false,"is_disabled":false,"rental_uris":{"android":"levelo://app?vid=e562ad4e-a577-4b7b-a74e-7e00b9c0f52f","ios":"levelo://app?vid=e562ad4e-a577-4b7b-a74e-7e00b9c0f52f"},"vehicle_type_id":"4","last_reported":1751994605,"current_range_meters":3600,"station_id":"st_cvj5dfep6f1abm77gieg","pricing_plan_id":"cebpf4jnsgd1na2vs0mg"},{"bike_id":"2b54da0a-6853-4fb6-b9b4-86e3ed30afc3","system_id":"levelo_inurba_marseille","lat":43.30545,"lon":5.3655,"is_reserved":false,"is_disabled":true,"rental_uris":{"android":"levelo://app?vid=2b54da0a-6853-4fb6-b9b4-86e3ed30afc3","ios":"levelo://app?vid=2b54da0a-6853-4fb6-b9b4-86e3ed30afc3"},"vehicle_type_id":"4","last_reported":1751994605,"current_range_meters":4000,"station_id":"ce4bgs12rcd13ifvqcag","pricing_plan_id":"cebpf4jnsgd1na2vs0mg"},{"bike_id":"4d09bb06-7280-4ce7-8102-2ff3ab7e5143","system_id":"levelo_inurba_marseille","lat":43.25001,"lon":5.38924,"is_reserved":false,"is_disabled":false,"rental_uris":{"android":"levelo://app?vid=4d09bb06-7280-4ce7-8102-2ff3ab7e5143","ios":"levelo://app?vid=4d09bb06-7280-4ce7-8102-2ff3ab7e5143"},"vehicle_type_id":"4","last_reported":1751994605,"current_range_meters":4000,"station_id":"ce4bhgp2rcd13ifvqfd0","pricing_plan_id":"cebpf4jnsgd1na2vs0mg"},{"bike_id":"279a9538-16a6-4aa4-a25c-63ffa95b28f5","system_id":"levelo_inurba_marseille","lat":43.2417,"lon":5.36395,"is_reserved":false,"is_disabled":false,"rental_uris":{"android":"levelo://app?vid=279a9538-16a6-4aa4-a25c-63ffa95b28f5","ios":"levelo://app?vid=279a9538-16a6-4aa4-a25c-63ffa95b28f5"},"vehicle_type_id":"4","last_reported":1751994605,"current_range_meters":4000,"station_id":"cpo36qri1sfpv3e86is0","pricing_plan_id":"cebpf4jnsgd1na2vs0mg"},{"bike_id":"30991dcd-de50-4d35-88b3-0fb1bebef76e","system_id":"levelo_inurba_marseille","lat":43.314927,"lon":5.373091,"is_reserved":false,"is_disabled":false,"rental_uris":{"android":"levelo://app?vid=30991dcd-de50-4d35-88b3-0fb1bebef76e","ios":"levelo://app?vid=30991dcd-de50-4d35-88b3-0fb1bebef76e"},"vehicle_type_id":"4","last_reported":1751994605,"current_range_meters":4400,"station_id":"ce4bgt12rcd13ifvqcd0","pricing_plan_id":"cebpf4jnsgd1na2vs0mg"},{"bike_id":"4345251a-4dcb-4e32-b485-cd043899b959","system_id":"levelo_inurba_marseille","lat":43.29861,"lon":5.3974,"is_reserved":false,"is_disabled":false,"rental_uris":{"android":"levelo://app?vid=4345251a-4dcb-4e32-b485-cd043899b959","ios":"levelo://app?vid=4345251a-4dcb-4e32-b485-cd043899b959"},"vehicle_type_id":"4","last_reported":1751994605,"current_range_meters":4800,"station_id":"ce4bh0h2rcd13ifvqd50","pricing_plan_id":"cebpf4jnsgd1na2vs0mg"},{"bike_id":"563175c5-af36-457f-b953-203eee842c0d","system_id":"levelo_inurba_marseille","lat":43.24652,"lon":5.3889,"is_reserved":false,"is_disabled":false,"rental_uris":{"android":"levelo://app?vid=563175c5-af36-457f-b953-203eee842c0d","ios":"levelo://app?vid=563175c5-af36-457f-b953-203eee842c0d"},"vehicle_type_id":"4","last_reported":1751994605,"current_range_meters":4800,"station_id":"ce4bhg12rcd13ifvqf60","pricing_plan_id":"cebpf4jnsgd1na2vs0mg"},{"bike_id":"7867a23a-3bdf-4fa1-9c73-ab4e74e4bcf9","system_id":"levelo_inurba_marseille","lat":43.310834,"lon":5.424242,"is_reserved":false,"is_disabled":false,"rental_uris":{"android":"levelo://app?vid=7867a23a-3bdf-4fa1-9c73-ab4e74e4bcf9","ios":"levelo://app?vid=7867a23a-3bdf-4fa1-9c73-ab4e74e4bcf9"},"vehicle_type_id":"4","last_reported":1751994605,"current_range_meters":4800,"station_id":"ce4bhp92rcd13ifvqhag","pricing_plan_id":"cebpf4jnsgd1na2vs0mg"},{"bike_id":"7b527f00-f6ea-4963-b59d-8da04a2feedb","system_id":"levelo_inurba_marseille","lat":43.32091,"lon":5.40109,"is_reserved":false,"is_disabled":false,"rental_uris":{"android":"levelo://app?vid=7b527f00-f6ea-4963-b59d-8da04a2feedb","ios":"levelo://app?vid=7b527f00-f6ea-4963-b59d-8da04a2feedb"},"vehicle_type_id":"4","last_reported":1751994605,"current_range_meters":5600,"station_id":"","pricing_plan_id":"cebpf4jnsgd1na2vs0mg"},{"bike_id":"b35737b3-81b8-41c4-8e91-c7ae555f8897","system_id":"levelo_inurba_marseille","lat":43.296,"lon":5.38095,"is_reserved":false,"is_disabled":false,"rental_uris":{"android":"levelo://app?vid=b35737b3-81b8-41c4-8e91-c7ae555f8897","ios":"levelo://app?vid=b35737b3-81b8-41c4-8e91-c7ae555f8897"},"vehicle_type_id":"4","last_reported":1751994605,"current_range_meters":5600,"station_id":"ce4bgl12rcd13ifvqbo0","pricing_plan_id":"cebpf4jnsgd1na2vs0mg"},{"bike_id":"5a8c00a2-83a5-43c5-aa8c-663903443205","system_id":"levelo_inurba_marseille","lat":43.23181,"lon":5.3999,"is_reserved":false,"is_disabled":false,"rental_uris":{"android":"levelo://app?vid=5a8c00a2-83a5-43c5-aa8c-663903443205","ios":"levelo://app?vid=5a8c00a2-83a5-43c5-aa8c-663903443205"},"vehicle_type_id":"4","last_reported":1751994605,"current_range_meters":5600,"station_id":"ce4bhn12rcd13ifvqgqg","pricing_plan_id":"cebpf4jnsgd1na2vs0mg"},{"bike_id":"b625550a-6329-4132-b2c1-17c2aedef42c","system_id":"levelo_inurba_marseille","lat":43.32289,"lon":5.38268,"is_reserved":false,"is_disabled":false,"rental_uris":{"android":"levelo://app?vid=b625550a-6329-4132-b2c1-17c2aedef42c","ios":"levelo://app?vid=b625550a-6329-4132-b2c1-17c2aedef42c"},"vehicle_type_id":"4","last_reported":1751994605,"current_range_meters":5600,"station_id":"ce4bhr12rcd13ifvqhqg","pricing_plan_id":"cebpf4jnsgd1na2vs0mg"},{"bike_id":"e97ee5c0-87e5-403c-92ed-929b14d6ff8f","system_id":"levelo_inurba_marseille","lat":43.28326,"lon":5.38528,"is_reserved":false,"is_disabled":false,"rental_uris":{"android":"levelo://app?vid=e97ee5c0-87e5-403c-92ed-929b14d6ff8f","ios":"levelo://app?vid=e97ee5c0-87e5-403c-92ed-929b14d6ff8f"},"vehicle_type_id":"4","last_reported":1751994605,"current_range_meters":6000,"station_id":"","pricing_plan_id":"cebpf4jnsgd1na2vs0mg"},{"bike_id":"fd59635e-773e-44e3-83b4-e4dac5d8cec4","system_id":"levelo_inurba_marseille","lat":43.295187,"lon":5.394017,"is_reserved":false,"is_disabled":false,"rental_uris":{"android":"levelo://app?vid=fd59635e-773e-44e3-83b4-e4dac5d8cec4","ios":"levelo://app?vid=fd59635e-773e-44e3-83b4-e4dac5d8cec4"},"vehicle_type_id":"4","last_reported":1751994605,"current_range_meters":6000,"station_id":"ce4bh292rcd13ifvqdf0","pricing_plan_id":"cebpf4jnsgd1na2vs0mg"},{"bike_id":"f4ea27f2-1d2a-44ea-91ae-a37fbf2fe035","system_id":"levelo_inurba_marseille","lat":43.29263,"lon":5.38435,"is_reserved":false,"is_disabled":false,"rental_uris":{"android":"levelo://app?vid=f4ea27f2-1d2a-44ea-91ae-a37fbf2fe035","ios":"levelo://app?vid=f4ea27f2-1d2a-44ea-91ae-a37fbf2fe035"},"vehicle_type_id":"4","last_reported":1751994605,"current_range_meters":6000,"station_id":"ce4bh692rcd13ifvqea0","pricing_plan_id":"cebpf4jnsgd1na2vs0mg"},{"bike_id":"7d38dc3f-4361-4d45-91ac-12393fdf16fd","system_id":"levelo_inurba_marseille","lat":43.25821,"lon":5.39437,"is_reserved":false,"is_disabled":false,"rental_uris":{"android":"levelo://app?vid=7d38dc3f-4361-4d45-91ac-12393fdf16fd","ios":"levelo://app?vid=7d38dc3f-4361-4d45-91ac-12393fdf16fd"},"vehicle_type_id":"4","last_reported":1751994605,"current_range_meters":6000,"station_id":"ce4bhip2rcd13ifvqft0","pricing_plan_id":"cebpf4jnsgd1na2vs0mg"},{"bike_id":"3b22f952-d0bc-4c00-8fd3-7e27b88aea23","system_id":"levelo_inurba_marseille","lat":43.29659,"lon":5.36245,"is_reserved":false,"is_disabled":false,"rental_uris":{"android":"levelo://app?vid=3b22f952-d0bc-4c00-8fd3-7e27b88aea23","ios":"levelo://app?vid=3b22f952-d0bc-4c00-8fd3-7e27b88aea23"},"vehicle_type_id":"4","last_reported":1751994605,"current_range_meters":6400,"station_id":"","pricing_plan_id":"cebpf4jnsgd1na2vs0mg"},{"bike_id":"88ea42cb-cf0f-4e4a-8442-732645bc4ba5","system_id":"levelo_inurba_marseille","lat":43.31085,"lon":5.36691,"is_reserved":false,"is_disabled":false,"rental_uris":{"android":"levelo://app?vid=88ea42cb-cf0f-4e4a-8442-732645bc4ba5","ios":"levelo://app?vid=88ea42cb-cf0f-4e4a-8442-732645bc4ba5"},"vehicle_type_id":"4","last_reported":1751994605,"current_range_meters":6400,"station_id":"","pricing_plan_id":"cebpf4jnsgd1na2vs0mg"},{"bike_id":"41896ea3-b31a-42a3-9981-c2270648b93e","system_id":"levelo_inurba_marseille","lat":43.28847,"lon":5.39332,"is_reserved":false,"is_disabled":false,"rental_uris":{"android":"levelo://app?vid=41896ea3-b31a-42a3-9981-c2270648b93e","ios":"levelo://app?vid=41896ea3-b31a-42a3-9981-c2270648b93e"},"vehicle_type_id":"4","last_reported":1751994605,"current_range_meters":6800,"station_id":"ce4bh2p2rcd13ifvqdi0","pricing_plan_id":"cebpf4jnsgd1na2vs0mg"},{"bike_id":"d632ab22-9bbc-4a59-a551-dc7edfe1a649","system_id":"levelo_inurba_marseille","lat":43.28422,"lon":5.37515,"is_reserved":false,"is_disabled":false,"rental_uris":{"android":"levelo://app?vid=d632ab22-9bbc-4a59-a551-dc7edfe1a649","ios":"levelo://app?vid=d632ab22-9bbc-4a59-a551-dc7edfe1a649"},"vehicle_type_id":"4","last_reported":1751994605,"current_range_meters":6800,"station_id":"ce4bh412rcd13ifvqds0","pricing_plan_id":"cebpf4jnsgd1na2vs0mg"},{"bike_id":"eae824be-3cc3-4329-b6f0-f25cc214b184","system_id":"levelo_inurba_marseille","lat":43.29095,"lon":5.38134,"is_reserved":false,"is_disabled":false,"rental_uris":{"android":"levelo://app?vid=eae824be-3cc3-4329-b6f0-f25cc214b184","ios":"levelo://app?vid=eae824be-3cc3-4329-b6f0-f25cc214b184"},"vehicle_type_id":"4","last_reported":1751994605,"current_range_meters":6800,"station_id":"ce4bh512rcd13ifvqe2g","pricing_plan_id":"cebpf4jnsgd1na2vs0mg"},{"bike_id":"cec92054-297e-4b29-9c58-210d3431539f","system_id":"levelo_inurba_marseille","lat":43.27494,"lon":5.42449,"is_reserved":false,"is_disabled":false,"rental_uris":{"android":"levelo://app?vid=cec92054-297e-4b29-9c58-210d3431539f","ios":"levelo://app?vid=cec92054-297e-4b29-9c58-210d3431539f"},"vehicle_type_id":"4","last_reported":1751994605,"current_range_meters":6800,"station_id":"ce4bhn92rcd13ifvqgrg","pricing_plan_id":"cebpf4jnsgd1na2vs0mg"},{"bike_id":"4c7dbf51-e6cf-44dd-894d-87dbe36ec8ed","system_id":"levelo_inurba_marseille","lat":43.297822,"lon":5.393425,"is_reserved":false,"is_disabled":false,"rental_uris":{"android":"levelo://app?vid=4c7dbf51-e6cf-44dd-894d-87dbe36ec8ed","ios":"levelo://app?vid=4c7dbf51-e6cf-44dd-894d-87dbe36ec8ed"},"vehicle_type_id":"4","last_reported":1751994605,"current_range_meters":6800,"station_id":"chh1huq6cuj3fo74tm60","pricing_plan_id":"cebpf4jnsgd1na2vs0mg"},{"bike_id":"37f2becd-23f9-4f13-a711-38b8024eeec7","system_id":"levelo_inurba_marseille","lat":43.33768,"lon":5.37516,"is_reserved":false,"is_disabled":false,"rental_uris":{"android":"levelo://app?vid=37f2becd-23f9-4f13-a711-38b8024eeec7","ios":"levelo://app?vid=37f2becd-23f9-4f13-a711-38b8024eeec7"},"vehicle_type_id":"4","last_reported":1751994605,"current_range_meters":7200,"station_id":"","pricing_plan_id":"cebpf4jnsgd1na2vs0mg"},{"bike_id":"e13391c8-2cbc-4aff-8de6-f46e0e7735f0","system_id":"levelo_inurba_marseille","lat":43.29507,"lon":5.39398,"is_reserved":false,"is_disabled":false,"rental_uris":{"android":"levelo://app?vid=e13391c8-2cbc-4aff-8de6-f46e0e7735f0","ios":"levelo://app?vid=e13391c8-2cbc-4aff-8de6-f46e0e7735f0"},"vehicle_type_id":"4","last_reported":1751994605,"current_range_meters":7200,"station_id":"ce4bh292rcd13ifvqdf0","pricing_plan_id":"cebpf4jnsgd1na2vs0mg"},{"bike_id":"15eda11c-1de5-4de8-ad98-8a359e91e82b","system_id":"levelo_inurba_marseille","lat":43.28568,"lon":5.39499,"is_reserved":false,"is_disabled":false,"rental_uris":{"android":"levelo://app?vid=15eda11c-1de5-4de8-ad98-8a359e91e82b","ios":"levelo://app?vid=15eda11c-1de5-4de8-ad98-8a359e91e82b"},"vehicle_type_id":"4","last_reported":1751994605,"current_range_meters":7200,"station_id":"ce4bh292rcd13ifvqdg0","pricing_plan_id":"cebpf4jnsgd1na2vs0mg"},{"bike_id":"3b56f4e8-0fca-4567-976c-69f416a840ac","system_id":"levelo_inurba_marseille","lat":43.243903,"lon":5.370478,"is_reserved":false,"is_disabled":false,"rental_uris":{"android":"levelo://app?vid=3b56f4e8-0fca-4567-976c-69f416a840ac","ios":"levelo://app?vid=3b56f4e8-0fca-4567-976c-69f416a840ac"},"vehicle_type_id":"4","last_reported":1751994605,"current_range_meters":7200,"station_id":"ce4bhhh2rcd13ifvqfk0","pricing_plan_id":"cebpf4jnsgd1na2vs0mg"},{"bike_id":"491f200e-13c9-4b0a-8834-b214412b86b5","system_id":"levelo_inurba_marseille","lat":43.30247,"lon":5.40046,"is_reserved":false,"is_disabled":false,"rental_uris":{"android":"levelo://app?vid=491f200e-13c9-4b0a-8834-b214412b86b5","ios":"levelo://app?vid=491f200e-13c9-4b0a-8834-b214412b86b5"},"vehicle_type_id":"4","last_reported":1751994605,"current_range_meters":8000,"station_id":"ce4bgvh2rcd13ifvqcs0","pricing_plan_id":"cebpf4jnsgd1na2vs0mg"},{"bike_id":"96c20207-967f-41ec-bdb9-3aac3bd7bfce","system_id":"levelo_inurba_marseille","lat":43.29416,"lon":5.38588,"is_reserved":false,"is_disabled":false,"rental_uris":{"android":"levelo://app?vid=96c20207-967f-41ec-bdb9-3aac3bd7bfce","ios":"levelo://app?vid=96c20207-967f-41ec-bdb9-3aac3bd7bfce"},"vehicle_type_id":"4","last_reported":1751994605,"current_range_meters":8000,"station_id":"ce4bh2h2rcd13ifvqdh0","pricing_plan_id":"cebpf4jnsgd1na2vs0mg"},{"bike_id":"f8c12fdf-aaa7-4064-9d95-845a7c35b7db","system_id":"levelo_inurba_marseille","lat":43.28362,"lon":5.3862,"is_reserved":false,"is_disabled":false,"rental_uris":{"android":"levelo://app?vid=f8c12fdf-aaa7-4064-9d95-845a7c35b7db","ios":"levelo://app?vid=f8c12fdf-aaa7-4064-9d95-845a7c35b7db"},"vehicle_type_id":"4","last_reported":1751994605,"current_range_meters":8000,"station_id":"ce4bh492rcd13ifvqdvg","pricing_plan_id":"cebpf4jnsgd1na2vs0mg"},{"bike_id":"2ede7031-d0dc-4ee9-ba1e-4797115e89e0","system_id":"levelo_inurba_marseille","lat":43.31718,"lon":5.43703,"is_reserved":false,"is_disabled":false,"rental_uris":{"android":"levelo://app?vid=2ede7031-d0dc-4ee9-ba1e-4797115e89e0","ios":"levelo://app?vid=2ede7031-d0dc-4ee9-ba1e-4797115e89e0"},"vehicle_type_id":"4","last_reported":1751994605,"current_range_meters":8000,"station_id":"ce4bhp92rcd13ifvqhcg","pricing_plan_id":"cebpf4jnsgd1na2vs0mg"},{"bike_id":"2c423baa-ecca-420a-87d7-ad0b7e0b9ebb","system_id":"levelo_inurba_marseille","lat":43.280397,"lon":5.353598,"is_reserved":false,"is_disabled":false,"rental_uris":{"android":"levelo://app?vid=2c423baa-ecca-420a-87d7-ad0b7e0b9ebb","ios":"levelo://app?vid=2c423baa-ecca-420a-87d7-ad0b7e0b9ebb"},"vehicle_type_id":"4","last_reported":1751994605,"current_range_meters":8400,"station_id":"","pricing_plan_id":"cebpf4jnsgd1na2vs0mg"},{"bike_id":"aff7d342-d343-4a3c-ade0-48508d9232f7","system_id":"levelo_inurba_marseille","lat":43.29682,"lon":5.37284,"is_reserved":false,"is_disabled":false,"rental_uris":{"android":"levelo://app?vid=aff7d342-d343-4a3c-ade0-48508d9232f7","ios":"levelo://app?vid=aff7d342-d343-4a3c-ade0-48508d9232f7"},"vehicle_type_id":"4","last_reported":1751994605,"current_range_meters":8400,"station_id":"ce4bgk12rcd13ifvqbj0","pricing_plan_id":"cebpf4jnsgd1na2vs0mg"},{"bike_id":"9f04cb26-fe36-4c3e-a28e-caf132f36e3c","system_id":"levelo_inurba_marseille","lat":43.31482,"lon":5.37306,"is_reserved":false,"is_disabled":false,"rental_uris":{"android":"levelo://app?vid=9f04cb26-fe36-4c3e-a28e-caf132f36e3c","ios":"levelo://app?vid=9f04cb26-fe36-4c3e-a28e-caf132f36e3c"},"vehicle_type_id":"4","last_reported":1751994605,"current_range_meters":8400,"station_id":"ce4bgt12rcd13ifvqcd0","pricing_plan_id":"cebpf4jnsgd1na2vs0mg"},{"bike_id":"b5349466-bf8b-41a0-85f1-0b091430d295","system_id":"levelo_inurba_marseille","lat":43.31707,"lon":5.37732,"is_reserved":false,"is_disabled":false,"rental_uris":{"android":"levelo://app?vid=b5349466-bf8b-41a0-85f1-0b091430d295","ios":"levelo://app?vid=b5349466-bf8b-41a0-85f1-0b091430d295"},"vehicle_type_id":"4","last_reported":1751994605,"current_range_meters":8400,"station_id":"ce4bgth2rcd13ifvqch0","pricing_plan_id":"cebpf4jnsgd1na2vs0mg"},{"bike_id":"9db18564-c1da-458d-a498-3410e6a36fe8","system_id":"levelo_inurba_marseille","lat":43.28729,"lon":5.37941,"is_reserved":false,"is_disabled":false,"rental_uris":{"android":"levelo://app?vid=9db18564-c1da-458d-a498-3410e6a36fe8","ios":"levelo://app?vid=9db18564-c1da-458d-a498-3410e6a36fe8"},"vehicle_type_id":"4","last_reported":1751994605,"current_range_meters":8400,"station_id":"ce4bh9p2rcd13ifvqec0","pricing_plan_id":"cebpf4jnsgd1na2vs0mg"},{"bike_id":"35d56b62-111e-4e61-ac6a-723433287768","system_id":"levelo_inurba_marseille","lat":43.31889,"lon":5.40717,"is_reserved":false,"is_disabled":false,"rental_uris":{"android":"levelo://app?vid=35d56b62-111e-4e61-ac6a-723433287768","ios":"levelo://app?vid=35d56b62-111e-4e61-ac6a-723433287768"},"vehicle_type_id":"4","last_reported":1751994605,"current_range_meters":8400,"station_id":"ce4bhq12rcd13ifvqhig","pricing_plan_id":"cebpf4jnsgd1na2vs0mg"},{"bike_id":"1dcf3d5d-fc1f-4113-a1fd-a8e1d78b8b8e","system_id":"levelo_inurba_marseille","lat":43.284172,"lon":5.34976,"is_reserved":false,"is_disabled":false,"rental_uris":{"android":"levelo://app?vid=1dcf3d5d-fc1f-4113-a1fd-a8e1d78b8b8e","ios":"levelo://app?vid=1dcf3d5d-fc1f-4113-a1fd-a8e1d78b8b8e"},"vehicle_type_id":"4","last_reported":1751994605,"current_range_meters":8800,"station_id":"ce4bhbh2rcd13ifvqepg","pricing_plan_id":"cebpf4jnsgd1na2vs0mg"},{"bike_id":"dc8606a7-e57a-45de-9bb9-8e9ae2d13c2e","system_id":"levelo_inurba_marseille","lat":43.30379,"lon":5.42488,"is_reserved":false,"is_disabled":false,"rental_uris":{"android":"levelo://app?vid=dc8606a7-e57a-45de-9bb9-8e9ae2d13c2e","ios":"levelo://app?vid=dc8606a7-e57a-45de-9bb9-8e9ae2d13c2e"},"vehicle_type_id":"4","last_reported":1751994605,"current_range_meters":8800,"station_id":"ce4bhoh2rcd13ifvqh6g","pricing_plan_id":"cebpf4jnsgd1na2vs0mg"},{"bike_id":"a70cfab5-f447-4d61-b80a-343a49825360","system_id":"levelo_inurba_marseille","lat":43.31963,"lon":5.37984,"is_reserved":false,"is_disabled":false,"rental_uris":{"android":"levelo://app?vid=a70cfab5-f447-4d61-b80a-343a49825360","ios":"levelo://app?vid=a70cfab5-f447-4d61-b80a-343a49825360"},"vehicle_type_id":"4","last_reported":1751994605,"current_range_meters":9200,"station_id":"","pricing_plan_id":"cebpf4jnsgd1na2vs0mg"},{"bike_id":"681d2c45-8a35-4b97-b91d-783f49090aff","system_id":"levelo_inurba_marseille","lat":43.30305,"lon":5.39213,"is_reserved":false,"is_disabled":false,"rental_uris":{"android":"levelo://app?vid=681d2c45-8a35-4b97-b91d-783f49090aff","ios":"levelo://app?vid=681d2c45-8a35-4b97-b91d-783f49090aff"},"vehicle_type_id":"4","last_reported":1751994605,"current_range_meters":9200,"station_id":"ce4bgkh2rcd13ifvqbk0","pricing_plan_id":"cebpf4jnsgd1na2vs0mg"},{"bike_id":"2872f804-702f-478f-a416-1e077272149d","system_id":"levelo_inurba_marseille","lat":43.313284,"lon":5.397007,"is_reserved":false,"is_disabled":false,"rental_uris":{"android":"levelo://app?vid=2872f804-702f-478f-a416-1e077272149d","ios":"levelo://app?vid=2872f804-702f-478f-a416-1e077272149d"},"vehicle_type_id":"4","last_reported":1751994605,"current_range_meters":9200,"station_id":"ce4bgvp2rcd13ifvqcu0","pricing_plan_id":"cebpf4jnsgd1na2vs0mg"},{"bike_id":"4e6c48fb-4e03-4428-98f6-c763cf43902a","system_id":"levelo_inurba_marseille","lat":43.29007,"lon":5.35609,"is_reserved":false,"is_disabled":false,"rental_uris":{"android":"levelo://app?vid=4e6c48fb-4e03-4428-98f6-c763cf43902a","ios":"levelo://app?vid=4e6c48fb-4e03-4428-98f6-c763cf43902a"},"vehicle_type_id":"4","last_reported":1751994605,"current_range_meters":9200,"station_id":"ce4bhb92rcd13ifvqen0","pricing_plan_id":"cebpf4jnsgd1na2vs0mg"},{"bike_id":"132bd5af-2f54-481e-9eb6-0ada54773ef8","system_id":"levelo_inurba_marseille","lat":43.28268,"lon":5.35065,"is_reserved":false,"is_disabled":false,"rental_uris":{"android":"levelo://app?vid=132bd5af-2f54-481e-9eb6-0ada54773ef8","ios":"levelo://app?vid=132bd5af-2f54-481e-9eb6-0ada54773ef8"},"vehicle_type_id":"4","last_reported":1751994605,"current_range_meters":9200,"station_id":"ce4bhbp2rcd13ifvqerg","pricing_plan_id":"cebpf4jnsgd1na2vs0mg"},{"bike_id":"2338ff24-979b-4b08-8454-9c665c7bfb89","system_id":"levelo_inurba_marseille","lat":43.28606,"lon":5.35101,"is_reserved":false,"is_disabled":false,"rental_uris":{"android":"levelo://app?vid=2338ff24-979b-4b08-8454-9c665c7bfb89","ios":"levelo://app?vid=2338ff24-979b-4b08-8454-9c665c7bfb89"},"vehicle_type_id":"4","last_reported":1751994605,"current_range_meters":9200,"station_id":"ce4bhch2rcd13ifvqeug","pricing_plan_id":"cebpf4jnsgd1na2vs0mg"},{"bike_id":"3c94d2c6-2996-41de-9e54-fa8af7df6912","system_id":"levelo_inurba_marseille","lat":43.21758,"lon":5.34592,"is_reserved":false,"is_disabled":false,"rental_uris":{"android":"levelo://app?vid=3c94d2c6-2996-41de-9e54-fa8af7df6912","ios":"levelo://app?vid=3c94d2c6-2996-41de-9e54-fa8af7df6912"},"vehicle_type_id":"4","last_reported":1751994605,"current_range_meters":9200,"station_id":"st_cvj6r9ubvosntc0bgbag","pricing_plan_id":"cebpf4jnsgd1na2vs0mg"},{"bike_id":"3d7f61bd-97f4-4122-b2f9-6ec0754d85f6","system_id":"levelo_inurba_marseille","lat":43.29909,"lon":5.38145,"is_reserved":false,"is_disabled":false,"rental_uris":{"android":"levelo://app?vid=3d7f61bd-97f4-4122-b2f9-6ec0754d85f6","ios":"levelo://app?vid=3d7f61bd-97f4-4122-b2f9-6ec0754d85f6"},"vehicle_type_id":"4","last_reported":1751994605,"current_range_meters":9600,"station_id":"ce4bgj12rcd13ifvqbc0","pricing_plan_id":"cebpf4jnsgd1na2vs0mg"},{"bike_id":"58e2e9dc-edaa-40a0-b5d0-d03f43dde35d","system_id":"levelo_inurba_marseille","lat":43.28155,"lon":5.42641,"is_reserved":false,"is_disabled":false,"rental_uris":{"android":"levelo://app?vid=58e2e9dc-edaa-40a0-b5d0-d03f43dde35d","ios":"levelo://app?vid=58e2e9dc-edaa-40a0-b5d0-d03f43dde35d"},"vehicle_type_id":"4","last_reported":1751994605,"current_range_meters":9600,"station_id":"ce4bhnh2rcd13ifvqgug","pricing_plan_id":"cebpf4jnsgd1na2vs0mg"},{"bike_id":"4ff29f89-779a-41cb-ae11-659b00447d74","system_id":"levelo_inurba_marseille","lat":43.2293,"lon":5.35382,"is_reserved":false,"is_disabled":false,"rental_uris":{"android":"levelo://app?vid=4ff29f89-779a-41cb-ae11-659b00447d74","ios":"levelo://app?vid=4ff29f89-779a-41cb-ae11-659b00447d74"},"vehicle_type_id":"4","last_reported":1751994605,"current_range_meters":9600,"station_id":"cpo3532slgdg3j2ikp40","pricing_plan_id":"cebpf4jnsgd1na2vs0mg"},{"bike_id":"daf5ce00-ca69-472e-868d-c2c9c9d0f4d0","system_id":"levelo_inurba_marseille","lat":43.29598,"lon":5.38102,"is_reserved":false,"is_disabled":false,"rental_uris":{"android":"levelo://app?vid=daf5ce00-ca69-472e-868d-c2c9c9d0f4d0","ios":"levelo://app?vid=daf5ce00-ca69-472e-868d-c2c9c9d0f4d0"},"vehicle_type_id":"4","last_reported":1751994605,"current_range_meters":10000,"station_id":"ce4bgl12rcd13ifvqbo0","pricing_plan_id":"cebpf4jnsgd1na2vs0mg"},{"bike_id":"dbf1a8fc-eda8-4eee-aca2-1569d479c654","system_id":"levelo_inurba_marseille","lat":43.28046,"lon":5.36937,"is_reserved":false,"is_disabled":false,"rental_uris":{"android":"levelo://app?vid=dbf1a8fc-eda8-4eee-aca2-1569d479c654","ios":"levelo://app?vid=dbf1a8fc-eda8-4eee-aca2-1569d479c654"},"vehicle_type_id":"4","last_reported":1751994605,"current_range_meters":10000,"station_id":"ce4bha12rcd13ifvqef0","pricing_plan_id":"cebpf4jnsgd1na2vs0mg"},{"bike_id":"1dfe2a62-5151-4cd4-bb1b-c713bf0a102e","system_id":"levelo_inurba_marseille","lat":43.2845,"lon":5.35894,"is_reserved":false,"is_disabled":false,"rental_uris":{"android":"levelo://app?vid=1dfe2a62-5151-4cd4-bb1b-c713bf0a102e","ios":"levelo://app?vid=1dfe2a62-5151-4cd4-bb1b-c713bf0a102e"},"vehicle_type_id":"4","last_reported":1751994605,"current_range_meters":10000,"station_id":"ce4bhah2rcd13ifvqei0","pricing_plan_id":"cebpf4jnsgd1na2vs0mg"},{"bike_id":"793e3684-6325-4e87-abfb-f21383e9da13","system_id":"levelo_inurba_marseille","lat":43.240762,"lon":5.377519,"is_reserved":false,"is_disabled":false,"rental_uris":{"android":"levelo://app?vid=793e3684-6325-4e87-abfb-f21383e9da13","ios":"levelo://app?vid=793e3684-6325-4e87-abfb-f21383e9da13"},"vehicle_type_id":"4","last_reported":1751994605,"current_range_meters":10000,"station_id":"ce4bhnp2rcd13ifvqgvg","pricing_plan_id":"cebpf4jnsgd1na2vs0mg"},{"bike_id":"373f7154-05e4-4923-8d21-eb4b99691656","system_id":"levelo_inurba_marseille","lat":43.315393,"lon":5.386728,"is_reserved":false,"is_disabled":false,"rental_uris":{"android":"levelo://app?vid=373f7154-05e4-4923-8d21-eb4b99691656","ios":"levelo://app?vid=373f7154-05e4-4923-8d21-eb4b99691656"},"vehicle_type_id":"4","last_reported":1751994605,"current_range_meters":10800,"station_id":"","pricing_plan_id":"cebpf4jnsgd1na2vs0mg"},{"bike_id":"11dc8b43-f54f-4590-97e9-8fc26656f4c7","system_id":"levelo_inurba_marseille","lat":43.30522,"lon":5.38436,"is_reserved":false,"is_disabled":false,"rental_uris":{"android":"levelo://app?vid=11dc8b43-f54f-4590-97e9-8fc26656f4c7","ios":"levelo://app?vid=11dc8b43-f54f-4590-97e9-8fc26656f4c7"},"vehicle_type_id":"4","last_reported":1751994605,"current_range_meters":10800,"station_id":"ce4bgg92rcd13ifvqb30","pricing_plan_id":"cebpf4jnsgd1na2vs0mg"},{"bike_id":"b44afc99-cf61-4cd2-8156-81e395872b10","system_id":"levelo_inurba_marseille","lat":43.29534,"lon":5.38532,"is_reserved":false,"is_disabled":false,"rental_uris":{"android":"levelo://app?vid=b44afc99-cf61-4cd2-8156-81e395872b10","ios":"levelo://app?vid=b44afc99-cf61-4cd2-8156-81e395872b10"},"vehicle_type_id":"4","last_reported":1751994605,"current_range_meters":10800,"station_id":"ce4bgih2rcd13ifvqba0","pricing_plan_id":"cebpf4jnsgd1na2vs0mg"},{"bike_id":"29b4772a-8a1a-49c3-849d-9dff98b6dc90","system_id":"levelo_inurba_marseille","lat":43.29528,"lon":5.39036,"is_reserved":false,"is_disabled":false,"rental_uris":{"android":"levelo://app?vid=29b4772a-8a1a-49c3-849d-9dff98b6dc90","ios":"levelo://app?vid=29b4772a-8a1a-49c3-849d-9dff98b6dc90"},"vehicle_type_id":"4","last_reported":1751994605,"current_range_meters":10800,"station_id":"ce4bh3p2rcd13ifvqdp0","pricing_plan_id":"cebpf4jnsgd1na2vs0mg"},{"bike_id":"33bc700c-eab2-4fb9-9687-65a569f47a11","system_id":"levelo_inurba_marseille","lat":43.24814,"lon":5.37449,"is_reserved":false,"is_disabled":false,"rental_uris":{"android":"levelo://app?vid=33bc700c-eab2-4fb9-9687-65a569f47a11","ios":"levelo://app?vid=33bc700c-eab2-4fb9-9687-65a569f47a11"},"vehicle_type_id":"4","last_reported":1751994605,"current_range_meters":10800,"station_id":"ce4bhgh2rcd13ifvqfb0","pricing_plan_id":"cebpf4jnsgd1na2vs0mg"},{"bike_id":"7dca372b-d367-4777-b1b5-ae03ce30f23a","system_id":"levelo_inurba_marseille","lat":43.24407,"lon":5.37058,"is_reserved":false,"is_disabled":false,"rental_uris":{"android":"levelo://app?vid=7dca372b-d367-4777-b1b5-ae03ce30f23a","ios":"levelo://app?vid=7dca372b-d367-4777-b1b5-ae03ce30f23a"},"vehicle_type_id":"4","last_reported":1751994605,"current_range_meters":10800,"station_id":"ce4bhhh2rcd13ifvqfk0","pricing_plan_id":"cebpf4jnsgd1na2vs0mg"},{"bike_id":"98f46642-8fdc-43be-8379-a5bf33d8441b","system_id":"levelo_inurba_marseille","lat":43.21214,"lon":5.35051,"is_reserved":false,"is_disabled":false,"rental_uris":{"android":"levelo://app?vid=98f46642-8fdc-43be-8379-a5bf33d8441b","ios":"levelo://app?vid=98f46642-8fdc-43be-8379-a5bf33d8441b"},"vehicle_type_id":"4","last_reported":1751994605,"current_range_meters":10800,"station_id":"st_cvj6sg6p6f1abm77japg","pricing_plan_id":"cebpf4jnsgd1na2vs0mg"},{"bike_id":"c2ee7d66-374b-44cd-b9d7-9ad64301293b","system_id":"levelo_inurba_marseille","lat":43.33802,"lon":5.37466,"is_reserved":false,"is_disabled":false,"rental_uris":{"android":"levelo://app?vid=c2ee7d66-374b-44cd-b9d7-9ad64301293b","ios":"levelo://app?vid=c2ee7d66-374b-44cd-b9d7-9ad64301293b"},"vehicle_type_id":"4","last_reported":1751994605,"current_range_meters":11200,"station_id":"","pricing_plan_id":"cebpf4jnsgd1na2vs0mg"},{"bike_id":"e4faf8a2-230e-4a0f-a036-2d153c69aa99","system_id":"levelo_inurba_marseille","lat":43.30291,"lon":5.36895,"is_reserved":false,"is_disabled":false,"rental_uris":{"android":"levelo://app?vid=e4faf8a2-230e-4a0f-a036-2d153c69aa99","ios":"levelo://app?vid=e4faf8a2-230e-4a0f-a036-2d153c69aa99"},"vehicle_type_id":"4","last_reported":1751994605,"current_range_meters":11200,"station_id":"ce4bgqh2rcd13ifvqc5g","pricing_plan_id":"cebpf4jnsgd1na2vs0mg"},{"bike_id":"1782826b-fa7b-474c-a955-855090c7cda3","system_id":"levelo_inurba_marseille","lat":43.292694,"lon":5.384335,"is_reserved":false,"is_disabled":false,"rental_uris":{"android":"levelo://app?vid=1782826b-fa7b-474c-a955-855090c7cda3","ios":"levelo://app?vid=1782826b-fa7b-474c-a955-855090c7cda3"},"vehicle_type_id":"4","last_reported":1751994605,"current_range_meters":11200,"station_id":"ce4bh692rcd13ifvqea0","pricing_plan_id":"cebpf4jnsgd1na2vs0mg"},{"bike_id":"ef37d4e2-0ac0-46be-951e-4995a78ba684","system_id":"levelo_inurba_marseille","lat":43.25516,"lon":5.37647,"is_reserved":false,"is_disabled":false,"rental_uris":{"android":"levelo://app?vid=ef37d4e2-0ac0-46be-951e-4995a78ba684","ios":"levelo://app?vid=ef37d4e2-0ac0-46be-951e-4995a78ba684"},"vehicle_type_id":"4","last_reported":1751994605,"current_range_meters":11200,"station_id":"ce4bhh12rcd13ifvqff0","pricing_plan_id":"cebpf4jnsgd1na2vs0mg"},{"bike_id":"5505ba36-628f-49f1-91b7-fcf6013c9381","system_id":"levelo_inurba_marseille","lat":43.28444,"lon":5.39198,"is_reserved":false,"is_disabled":false,"rental_uris":{"android":"levelo://app?vid=5505ba36-628f-49f1-91b7-fcf6013c9381","ios":"levelo://app?vid=5505ba36-628f-49f1-91b7-fcf6013c9381"},"vehicle_type_id":"4","last_reported":1751994605,"current_range_meters":11200,"station_id":"ce4bhoh2rcd13ifvqh5g","pricing_plan_id":"cebpf4jnsgd1na2vs0mg"},{"bike_id":"03ab66a3-f440-4c4a-ab9c-1577cf48eda7","system_id":"levelo_inurba_marseille","lat":43.232,"lon":5.35552,"is_reserved":false,"is_disabled":false,"rental_uris":{"android":"levelo://app?vid=03ab66a3-f440-4c4a-ab9c-1577cf48eda7","ios":"levelo://app?vid=03ab66a3-f440-4c4a-ab9c-1577cf48eda7"},"vehicle_type_id":"4","last_reported":1751994605,"current_range_meters":11200,"station_id":"ce4bhu92rcd13ifvqi70","pricing_plan_id":"cebpf4jnsgd1na2vs0mg"},{"bike_id":"e54a69bc-634c-4579-91a1-2ea1e7521c68","system_id":"levelo_inurba_marseille","lat":43.30129,"lon":5.37219,"is_reserved":false,"is_disabled":false,"rental_uris":{"android":"levelo://app?vid=e54a69bc-634c-4579-91a1-2ea1e7521c68","ios":"levelo://app?vid=e54a69bc-634c-4579-91a1-2ea1e7521c68"},"vehicle_type_id":"4","last_reported":1751994605,"current_range_meters":11600,"station_id":"","pricing_plan_id":"cebpf4jnsgd1na2vs0mg"},{"bike_id":"6ffc31bf-be63-440b-8353-4ff83386083b","system_id":"levelo_inurba_marseille","lat":43.29839,"lon":5.36413,"is_reserved":false,"is_disabled":false,"rental_uris":{"android":"levelo://app?vid=6ffc31bf-be63-440b-8353-4ff83386083b","ios":"levelo://app?vid=6ffc31bf-be63-440b-8353-4ff83386083b"},"vehicle_type_id":"4","last_reported":1751994605,"current_range_meters":11600,"station_id":"","pricing_plan_id":"cebpf4jnsgd1na2vs0mg"},{"bike_id":"888522e3-39b6-4ff3-ad74-ff6c6f771157","system_id":"levelo_inurba_marseille","lat":43.29508,"lon":5.40243,"is_reserved":false,"is_disabled":false,"rental_uris":{"android":"levelo://app?vid=888522e3-39b6-4ff3-ad74-ff6c6f771157","ios":"levelo://app?vid=888522e3-39b6-4ff3-ad74-ff6c6f771157"},"vehicle_type_id":"4","last_reported":1751994605,"current_range_meters":11600,"station_id":"","pricing_plan_id":"cebpf4jnsgd1na2vs0mg"},{"bike_id":"a22f7332-c4b2-4a55-987e-4091bd3cbac4","system_id":"levelo_inurba_marseille","lat":43.2971,"lon":5.37688,"is_reserved":false,"is_disabled":false,"rental_uris":{"android":"levelo://app?vid=a22f7332-c4b2-4a55-987e-4091bd3cbac4","ios":"levelo://app?vid=a22f7332-c4b2-4a55-987e-4091bd3cbac4"},"vehicle_type_id":"4","last_reported":1751994605,"current_range_meters":11600,"station_id":"ce4bgkh2rcd13ifvqbl0","pricing_plan_id":"cebpf4jnsgd1na2vs0mg"},{"bike_id":"a42b1a15-27ca-4116-9546-428f41439e4e","system_id":"levelo_inurba_marseille","lat":43.30215,"lon":5.39464,"is_reserved":false,"is_disabled":false,"rental_uris":{"android":"levelo://app?vid=a42b1a15-27ca-4116-9546-428f41439e4e","ios":"levelo://app?vid=a42b1a15-27ca-4116-9546-428f41439e4e"},"vehicle_type_id":"4","last_reported":1751994605,"current_range_meters":11600,"station_id":"ce4bh0p2rcd13ifvqd70","pricing_plan_id":"cebpf4jnsgd1na2vs0mg"},{"bike_id":"3ee25abe-a7af-4f3d-9d65-1af64c74895f","system_id":"levelo_inurba_marseille","lat":43.30375,"lon":5.42482,"is_reserved":false,"is_disabled":false,"rental_uris":{"android":"levelo://app?vid=3ee25abe-a7af-4f3d-9d65-1af64c74895f","ios":"levelo://app?vid=3ee25abe-a7af-4f3d-9d65-1af64c74895f"},"vehicle_type_id":"4","last_reported":1751994605,"current_range_meters":11600,"station_id":"ce4bhoh2rcd13ifvqh6g","pricing_plan_id":"cebpf4jnsgd1na2vs0mg"},{"bike_id":"538e1b05-e2a4-4a42-9bc7-7ddbe3e776fc","system_id":"levelo_inurba_marseille","lat":43.307815,"lon":5.376447,"is_reserved":false,"is_disabled":false,"rental_uris":{"android":"levelo://app?vid=538e1b05-e2a4-4a42-9bc7-7ddbe3e776fc","ios":"levelo://app?vid=538e1b05-e2a4-4a42-9bc7-7ddbe3e776fc"},"vehicle_type_id":"4","last_reported":1751994605,"current_range_meters":12000,"station_id":"ce4bgv92rcd13ifvqcq0","pricing_plan_id":"cebpf4jnsgd1na2vs0mg"},{"bike_id":"a593a86b-385a-485a-a185-9885dfc57aac","system_id":"levelo_inurba_marseille","lat":43.30933,"lon":5.40139,"is_reserved":false,"is_disabled":false,"rental_uris":{"android":"levelo://app?vid=a593a86b-385a-485a-a185-9885dfc57aac","ios":"levelo://app?vid=a593a86b-385a-485a-a185-9885dfc57aac"},"vehicle_type_id":"4","last_reported":1751994605,"current_range_meters":12000,"station_id":"ce4bgvp2rcd13ifvqct0","pricing_plan_id":"cebpf4jnsgd1na2vs0mg"},{"bike_id":"69575b5f-fcff-448f-882b-795b66413514","system_id":"levelo_inurba_marseille","lat":43.290307,"lon":5.386403,"is_reserved":false,"is_disabled":false,"rental_uris":{"android":"levelo://app?vid=69575b5f-fcff-448f-882b-795b66413514","ios":"levelo://app?vid=69575b5f-fcff-448f-882b-795b66413514"},"vehicle_type_id":"4","last_reported":1751994605,"current_range_meters":12000,"station_id":"ce4bh4p2rcd13ifvqe0g","pricing_plan_id":"cebpf4jnsgd1na2vs0mg"},{"bike_id":"031f7e82-e7b6-406c-a352-98202df6919e","system_id":"levelo_inurba_marseille","lat":43.28415,"lon":5.3751,"is_reserved":false,"is_disabled":false,"rental_uris":{"android":"levelo://app?vid=031f7e82-e7b6-406c-a352-98202df6919e","ios":"levelo://app?vid=031f7e82-e7b6-406c-a352-98202df6919e"},"vehicle_type_id":"4","last_reported":1751994605,"current_range_meters":12400,"station_id":"ce4bh412rcd13ifvqds0","pricing_plan_id":"cebpf4jnsgd1na2vs0mg"},{"bike_id":"84632a2e-a1ab-4ebd-88f3-988ef81582e9","system_id":"levelo_inurba_marseille","lat":43.28854,"lon":5.35844,"is_reserved":false,"is_disabled":false,"rental_uris":{"android":"levelo://app?vid=84632a2e-a1ab-4ebd-88f3-988ef81582e9","ios":"levelo://app?vid=84632a2e-a1ab-4ebd-88f3-988ef81582e9"},"vehicle_type_id":"4","last_reported":1751994605,"current_range_meters":12400,"station_id":"ce4bhb12rcd13ifvqem0","pricing_plan_id":"cebpf4jnsgd1na2vs0mg"},{"bike_id":"cbeafced-4b32-42ce-bf15-c9038f0105ef","system_id":"levelo_inurba_marseille","lat":43.26026,"lon":5.37548,"is_reserved":false,"is_disabled":false,"rental_uris":{"android":"levelo://app?vid=cbeafced-4b32-42ce-bf15-c9038f0105ef","ios":"levelo://app?vid=cbeafced-4b32-42ce-bf15-c9038f0105ef"},"vehicle_type_id":"4","last_reported":1751994605,"current_range_meters":12400,"station_id":"ce4bhgh2rcd13ifvqfa0","pricing_plan_id":"cebpf4jnsgd1na2vs0mg"},{"bike_id":"b287377f-3d0b-47ac-86fe-9e0dfc1563de","system_id":"levelo_inurba_marseille","lat":43.225018,"lon":5.347769,"is_reserved":false,"is_disabled":false,"rental_uris":{"android":"levelo://app?vid=b287377f-3d0b-47ac-86fe-9e0dfc1563de","ios":"levelo://app?vid=b287377f-3d0b-47ac-86fe-9e0dfc1563de"},"vehicle_type_id":"4","last_reported":1751994605,"current_range_meters":12400,"station_id":"st_cvj5dfep6f1abm77gieg","pricing_plan_id":"cebpf4jnsgd1na2vs0mg"},{"bike_id":"2a7d25e5-223e-4042-b5fb-213400ff3e9c","system_id":"levelo_inurba_marseille","lat":43.30259,"lon":5.40062,"is_reserved":false,"is_disabled":false,"rental_uris":{"android":"levelo://app?vid=2a7d25e5-223e-4042-b5fb-213400ff3e9c","ios":"levelo://app?vid=2a7d25e5-223e-4042-b5fb-213400ff3e9c"},"vehicle_type_id":"4","last_reported":1751994605,"current_range_meters":12800,"station_id":"ce4bgvh2rcd13ifvqcs0","pricing_plan_id":"cebpf4jnsgd1na2vs0mg"},{"bike_id":"95150053-c77f-49ce-8976-03fbf21e7971","system_id":"levelo_inurba_marseille","lat":43.30203,"lon":5.39502,"is_reserved":false,"is_disabled":false,"rental_uris":{"android":"levelo://app?vid=95150053-c77f-49ce-8976-03fbf21e7971","ios":"levelo://app?vid=95150053-c77f-49ce-8976-03fbf21e7971"},"vehicle_type_id":"4","last_reported":1751994605,"current_range_meters":12800,"station_id":"ce4bh0p2rcd13ifvqd70","pricing_plan_id":"cebpf4jnsgd1na2vs0mg"},{"bike_id":"77c63ecf-8ec4-46ab-b695-3fed0ff0fb70","system_id":"levelo_inurba_marseille","lat":43.299032,"lon":5.436778,"is_reserved":false,"is_disabled":false,"rental_uris":{"android":"levelo://app?vid=77c63ecf-8ec4-46ab-b695-3fed0ff0fb70","ios":"levelo://app?vid=77c63ecf-8ec4-46ab-b695-3fed0ff0fb70"},"vehicle_type_id":"4","last_reported":1751994605,"current_range_meters":12800,"station_id":"ce4bhpp2rcd13ifvqhfg","pricing_plan_id":"cebpf4jnsgd1na2vs0mg"},{"bike_id":"d5ef770d-9759-47e3-b3a5-7d2785ef76db","system_id":"levelo_inurba_marseille","lat":43.32929,"lon":5.39031,"is_reserved":false,"is_disabled":false,"rental_uris":{"android":"levelo://app?vid=d5ef770d-9759-47e3-b3a5-7d2785ef76db","ios":"levelo://app?vid=d5ef770d-9759-47e3-b3a5-7d2785ef76db"},"vehicle_type_id":"4","last_reported":1751994605,"current_range_meters":13600,"station_id":"","pricing_plan_id":"cebpf4jnsgd1na2vs0mg"},{"bike_id":"3030cb07-c041-4d87-a253-8c849c24aa85","system_id":"levelo_inurba_marseille","lat":43.32635,"lon":5.36224,"is_reserved":false,"is_disabled":false,"rental_uris":{"android":"levelo://app?vid=3030cb07-c041-4d87-a253-8c849c24aa85","ios":"levelo://app?vid=3030cb07-c041-4d87-a253-8c849c24aa85"},"vehicle_type_id":"4","last_reported":1751994605,"current_range_meters":13600,"station_id":"","pricing_plan_id":"cebpf4jnsgd1na2vs0mg"},{"bike_id":"d8b9128c-265b-4532-bf43-3252b0c44a63","system_id":"levelo_inurba_marseille","lat":43.29965,"lon":5.38498,"is_reserved":false,"is_disabled":false,"rental_uris":{"android":"levelo://app?vid=d8b9128c-265b-4532-bf43-3252b0c44a63","ios":"levelo://app?vid=d8b9128c-265b-4532-bf43-3252b0c44a63"},"vehicle_type_id":"4","last_reported":1751994605,"current_range_meters":13600,"station_id":"ce4bgj92rcd13ifvqbd0","pricing_plan_id":"cebpf4jnsgd1na2vs0mg"},{"bike_id":"3b55c76c-c626-49fb-bfc8-e8207a5faba2","system_id":"levelo_inurba_marseille","lat":43.28273,"lon":5.3506,"is_reserved":false,"is_disabled":false,"rental_uris":{"android":"levelo://app?vid=3b55c76c-c626-49fb-bfc8-e8207a5faba2","ios":"levelo://app?vid=3b55c76c-c626-49fb-bfc8-e8207a5faba2"},"vehicle_type_id":"4","last_reported":1751994605,"current_range_meters":13600,"station_id":"ce4bhbp2rcd13ifvqerg","pricing_plan_id":"cebpf4jnsgd1na2vs0mg"},{"bike_id":"82f40aca-214c-480a-99d7-4df294448107","system_id":"levelo_inurba_marseille","lat":43.254895,"lon":5.376448,"is_reserved":false,"is_disabled":false,"rental_uris":{"android":"levelo://app?vid=82f40aca-214c-480a-99d7-4df294448107","ios":"levelo://app?vid=82f40aca-214c-480a-99d7-4df294448107"},"vehicle_type_id":"4","last_reported":1751994605,"current_range_meters":13600,"station_id":"ce4bhh12rcd13ifvqff0","pricing_plan_id":"cebpf4jnsgd1na2vs0mg"},{"bike_id":"f5c5d48c-b7cf-48a8-84f0-a80044871d04","system_id":"levelo_inurba_marseille","lat":43.264907,"lon":5.395394,"is_reserved":false,"is_disabled":false,"rental_uris":{"android":"levelo://app?vid=f5c5d48c-b7cf-48a8-84f0-a80044871d04","ios":"levelo://app?vid=f5c5d48c-b7cf-48a8-84f0-a80044871d04"},"vehicle_type_id":"4","last_reported":1751994605,"current_range_meters":14000,"station_id":"","pricing_plan_id":"cebpf4jnsgd1na2vs0mg"},{"bike_id":"5df65f1b-b41b-406f-a51e-4ff4d4072825","system_id":"levelo_inurba_marseille","lat":43.29312,"lon":5.37428,"is_reserved":false,"is_disabled":false,"rental_uris":{"android":"levelo://app?vid=5df65f1b-b41b-406f-a51e-4ff4d4072825","ios":"levelo://app?vid=5df65f1b-b41b-406f-a51e-4ff4d4072825"},"vehicle_type_id":"4","last_reported":1751994605,"current_range_meters":14000,"station_id":"ce4bgi12rcd13ifvqb70","pricing_plan_id":"cebpf4jnsgd1na2vs0mg"},{"bike_id":"40f26f6a-3527-42b6-92eb-5c233cee6632","system_id":"levelo_inurba_marseille","lat":43.30891,"lon":5.39644,"is_reserved":false,"is_disabled":false,"rental_uris":{"android":"levelo://app?vid=40f26f6a-3527-42b6-92eb-5c233cee6632","ios":"levelo://app?vid=40f26f6a-3527-42b6-92eb-5c233cee6632"},"vehicle_type_id":"4","last_reported":1751994605,"current_range_meters":14000,"station_id":"ce4bh012rcd13ifvqcv0","pricing_plan_id":"cebpf4jnsgd1na2vs0mg"},{"bike_id":"adfd1c7c-0dd4-43f3-abbd-5d8433a59018","system_id":"levelo_inurba_marseille","lat":43.29527,"lon":5.39042,"is_reserved":false,"is_disabled":false,"rental_uris":{"android":"levelo://app?vid=adfd1c7c-0dd4-43f3-abbd-5d8433a59018","ios":"levelo://app?vid=adfd1c7c-0dd4-43f3-abbd-5d8433a59018"},"vehicle_type_id":"4","last_reported":1751994605,"current_range_meters":14000,"station_id":"ce4bh3p2rcd13ifvqdp0","pricing_plan_id":"cebpf4jnsgd1na2vs0mg"},{"bike_id":"0f1794a0-d27a-483a-a2d8-0c1e5247dca3","system_id":"levelo_inurba_marseille","lat":43.2816,"lon":5.42646,"is_reserved":false,"is_disabled":false,"rental_uris":{"android":"levelo://app?vid=0f1794a0-d27a-483a-a2d8-0c1e5247dca3","ios":"levelo://app?vid=0f1794a0-d27a-483a-a2d8-0c1e5247dca3"},"vehicle_type_id":"4","last_reported":1751994605,"current_range_meters":14000,"station_id":"ce4bhnh2rcd13ifvqgug","pricing_plan_id":"cebpf4jnsgd1na2vs0mg"},{"bike_id":"88db2fba-19fb-4c01-a7a6-ac50889c4875","system_id":"levelo_inurba_marseille","lat":43.240824,"lon":5.377498,"is_reserved":false,"is_disabled":false,"rental_uris":{"android":"levelo://app?vid=88db2fba-19fb-4c01-a7a6-ac50889c4875","ios":"levelo://app?vid=88db2fba-19fb-4c01-a7a6-ac50889c4875"},"vehicle_type_id":"4","last_reported":1751994605,"current_range_meters":14000,"station_id":"ce4bhnp2rcd13ifvqgvg","pricing_plan_id":"cebpf4jnsgd1na2vs0mg"},{"bike_id":"c8ce9d2a-09f4-447e-8f29-f510d52c4f58","system_id":"levelo_inurba_marseille","lat":43.30367,"lon":5.41874,"is_reserved":false,"is_disabled":false,"rental_uris":{"android":"levelo://app?vid=c8ce9d2a-09f4-447e-8f29-f510d52c4f58","ios":"levelo://app?vid=c8ce9d2a-09f4-447e-8f29-f510d52c4f58"},"vehicle_type_id":"4","last_reported":1751994605,"current_range_meters":14000,"station_id":"ce4bhop2rcd13ifvqh7g","pricing_plan_id":"cebpf4jnsgd1na2vs0mg"},{"bike_id":"142092c3-f392-44a3-b902-2cf19043ff93","system_id":"levelo_inurba_marseille","lat":43.23065,"lon":5.35491,"is_reserved":false,"is_disabled":false,"rental_uris":{"android":"levelo://app?vid=142092c3-f392-44a3-b902-2cf19043ff93","ios":"levelo://app?vid=142092c3-f392-44a3-b902-2cf19043ff93"},"vehicle_type_id":"4","last_reported":1751994605,"current_range_meters":14000,"station_id":"cpo3342slgdg3j2ifvpg","pricing_plan_id":"cebpf4jnsgd1na2vs0mg"},{"bike_id":"87c2d236-4978-4760-be77-27d7f5a212e4","system_id":"levelo_inurba_marseille","lat":43.29644,"lon":5.36205,"is_reserved":false,"is_disabled":false,"rental_uris":{"android":"levelo://app?vid=87c2d236-4978-4760-be77-27d7f5a212e4","ios":"levelo://app?vid=87c2d236-4978-4760-be77-27d7f5a212e4"},"vehicle_type_id":"4","last_reported":1751994605,"current_range_meters":14400,"station_id":"","pricing_plan_id":"cebpf4jnsgd1na2vs0mg"},{"bike_id":"67beb1fb-359d-44a8-b1a5-eb5db9b9a26e","system_id":"levelo_inurba_marseille","lat":43.30246,"lon":5.400427,"is_reserved":false,"is_disabled":false,"rental_uris":{"android":"levelo://app?vid=67beb1fb-359d-44a8-b1a5-eb5db9b9a26e","ios":"levelo://app?vid=67beb1fb-359d-44a8-b1a5-eb5db9b9a26e"},"vehicle_type_id":"4","last_reported":1751994605,"current_range_meters":14400,"station_id":"ce4bgvh2rcd13ifvqcs0","pricing_plan_id":"cebpf4jnsgd1na2vs0mg"},{"bike_id":"a907014f-6fe1-42b6-a510-68459973e341","system_id":"levelo_inurba_marseille","lat":43.30307,"lon":5.40446,"is_reserved":false,"is_disabled":false,"rental_uris":{"android":"levelo://app?vid=a907014f-6fe1-42b6-a510-68459973e341","ios":"levelo://app?vid=a907014f-6fe1-42b6-a510-68459973e341"},"vehicle_type_id":"4","last_reported":1751994605,"current_range_meters":14400,"station_id":"ce4bh012rcd13ifvqd10","pricing_plan_id":"cebpf4jnsgd1na2vs0mg"},{"bike_id":"36e649fc-7b0b-4ae6-aa2f-0849ff821119","system_id":"levelo_inurba_marseille","lat":43.281578,"lon":5.426392,"is_reserved":false,"is_disabled":false,"rental_uris":{"android":"levelo://app?vid=36e649fc-7b0b-4ae6-aa2f-0849ff821119","ios":"levelo://app?vid=36e649fc-7b0b-4ae6-aa2f-0849ff821119"},"vehicle_type_id":"4","last_reported":1751994605,"current_range_meters":14400,"station_id":"ce4bhnh2rcd13ifvqgug","pricing_plan_id":"cebpf4jnsgd1na2vs0mg"},{"bike_id":"1eda6c63-77c1-4647-a72d-11a16343735f","system_id":"levelo_inurba_marseille","lat":43.30413,"lon":5.41294,"is_reserved":false,"is_disabled":false,"rental_uris":{"android":"levelo://app?vid=1eda6c63-77c1-4647-a72d-11a16343735f","ios":"levelo://app?vid=1eda6c63-77c1-4647-a72d-11a16343735f"},"vehicle_type_id":"4","last_reported":1751994605,"current_range_meters":14400,"station_id":"ce4bhop2rcd13ifvqh8g","pricing_plan_id":"cebpf4jnsgd1na2vs0mg"},{"bike_id":"5728bb99-771b-48d6-9cc2-d28f172b998c","system_id":"levelo_inurba_marseille","lat":43.31756,"lon":5.390145,"is_reserved":false,"is_disabled":false,"rental_uris":{"android":"levelo://app?vid=5728bb99-771b-48d6-9cc2-d28f172b998c","ios":"levelo://app?vid=5728bb99-771b-48d6-9cc2-d28f172b998c"},"vehicle_type_id":"4","last_reported":1751994605,"current_range_meters":14400,"station_id":"ce4bhqp2rcd13ifvqhng","pricing_plan_id":"cebpf4jnsgd1na2vs0mg"},{"bike_id":"30085fdf-b0f2-4792-a78c-7230c67c5362","system_id":"levelo_inurba_marseille","lat":43.29632,"lon":5.40595,"is_reserved":false,"is_disabled":false,"rental_uris":{"android":"levelo://app?vid=30085fdf-b0f2-4792-a78c-7230c67c5362","ios":"levelo://app?vid=30085fdf-b0f2-4792-a78c-7230c67c5362"},"vehicle_type_id":"4","last_reported":1751994605,"current_range_meters":14800,"station_id":"ce4bh0h2rcd13ifvqd60","pricing_plan_id":"cebpf4jnsgd1na2vs0mg"},{"bike_id":"1f73b59e-5554-4ca1-9f41-c7c5b22c8b62","system_id":"levelo_inurba_marseille","lat":43.28464,"lon":5.35886,"is_reserved":false,"is_disabled":false,"rental_uris":{"android":"levelo://app?vid=1f73b59e-5554-4ca1-9f41-c7c5b22c8b62","ios":"levelo://app?vid=1f73b59e-5554-4ca1-9f41-c7c5b22c8b62"},"vehicle_type_id":"4","last_reported":1751994605,"current_range_meters":14800,"station_id":"ce4bhah2rcd13ifvqei0","pricing_plan_id":"cebpf4jnsgd1na2vs0mg"},{"bike_id":"aa84c30c-7c9c-49bb-b086-1f78593d075f","system_id":"levelo_inurba_marseille","lat":43.34142,"lon":5.40899,"is_reserved":false,"is_disabled":false,"rental_uris":{"android":"levelo://app?vid=aa84c30c-7c9c-49bb-b086-1f78593d075f","ios":"levelo://app?vid=aa84c30c-7c9c-49bb-b086-1f78593d075f"},"vehicle_type_id":"4","last_reported":1751994605,"current_range_meters":14800,"station_id":"ce4bhqh2rcd13ifvqhlg","pricing_plan_id":"cebpf4jnsgd1na2vs0mg"},{"bike_id":"38751f77-06ee-487e-91b1-9945230ca139","system_id":"levelo_inurba_marseille","lat":43.23186,"lon":5.39984,"is_reserved":false,"is_disabled":false,"rental_uris":{"android":"levelo://app?vid=38751f77-06ee-487e-91b1-9945230ca139","ios":"levelo://app?vid=38751f77-06ee-487e-91b1-9945230ca139"},"vehicle_type_id":"4","last_reported":1751994605,"current_range_meters":15200,"station_id":"ce4bhn12rcd13ifvqgqg","pricing_plan_id":"cebpf4jnsgd1na2vs0mg"},{"bike_id":"b1a6e3b3-fe34-4cec-8082-dfe042dd1679","system_id":"levelo_inurba_marseille","lat":43.28153,"lon":5.42645,"is_reserved":false,"is_disabled":false,"rental_uris":{"android":"levelo://app?vid=b1a6e3b3-fe34-4cec-8082-dfe042dd1679","ios":"levelo://app?vid=b1a6e3b3-fe34-4cec-8082-dfe042dd1679"},"vehicle_type_id":"4","last_reported":1751994605,"current_range_meters":15200,"station_id":"ce4bhnh2rcd13ifvqgug","pricing_plan_id":"cebpf4jnsgd1na2vs0mg"},{"bike_id":"3c78f3be-0595-4cde-ab3a-21eba194a66a","system_id":"levelo_inurba_marseille","lat":43.21753,"lon":5.34614,"is_reserved":false,"is_disabled":false,"rental_uris":{"android":"levelo://app?vid=3c78f3be-0595-4cde-ab3a-21eba194a66a","ios":"levelo://app?vid=3c78f3be-0595-4cde-ab3a-21eba194a66a"},"vehicle_type_id":"4","last_reported":1751994605,"current_range_meters":16000,"station_id":"","pricing_plan_id":"cebpf4jnsgd1na2vs0mg"},{"bike_id":"13c84df3-55fc-4465-b582-17389625d267","system_id":"levelo_inurba_marseille","lat":43.26023,"lon":5.41754,"is_reserved":false,"is_disabled":false,"rental_uris":{"android":"levelo://app?vid=13c84df3-55fc-4465-b582-17389625d267","ios":"levelo://app?vid=13c84df3-55fc-4465-b582-17389625d267"},"vehicle_type_id":"4","last_reported":1751994605,"current_range_meters":16000,"station_id":"","pricing_plan_id":"cebpf4jnsgd1na2vs0mg"},{"bike_id":"4697ed2f-802e-4ac7-bb18-418b5f5de637","system_id":"levelo_inurba_marseille","lat":43.30545,"lon":5.38416,"is_reserved":false,"is_disabled":false,"rental_uris":{"android":"levelo://app?vid=4697ed2f-802e-4ac7-bb18-418b5f5de637","ios":"levelo://app?vid=4697ed2f-802e-4ac7-bb18-418b5f5de637"},"vehicle_type_id":"4","last_reported":1751994605,"current_range_meters":16000,"station_id":"ce4bgg92rcd13ifvqb30","pricing_plan_id":"cebpf4jnsgd1na2vs0mg"},{"bike_id":"e07099cc-ccdf-4511-aa53-76cc8d902771","system_id":"levelo_inurba_marseille","lat":43.29004,"lon":5.35627,"is_reserved":false,"is_disabled":false,"rental_uris":{"android":"levelo://app?vid=e07099cc-ccdf-4511-aa53-76cc8d902771","ios":"levelo://app?vid=e07099cc-ccdf-4511-aa53-76cc8d902771"},"vehicle_type_id":"4","last_reported":1751994605,"current_range_meters":16000,"station_id":"ce4bhb92rcd13ifvqen0","pricing_plan_id":"cebpf4jnsgd1na2vs0mg"},{"bike_id":"732db02c-a2e8-435f-b9d7-f4a12e26dc4a","system_id":"levelo_inurba_marseille","lat":43.28411,"lon":5.34974,"is_reserved":false,"is_disabled":false,"rental_uris":{"android":"levelo://app?vid=732db02c-a2e8-435f-b9d7-f4a12e26dc4a","ios":"levelo://app?vid=732db02c-a2e8-435f-b9d7-f4a12e26dc4a"},"vehicle_type_id":"4","last_reported":1751994605,"current_range_meters":16000,"station_id":"ce4bhbh2rcd13ifvqepg","pricing_plan_id":"cebpf4jnsgd1na2vs0mg"},{"bike_id":"8935e67e-e377-4f20-b30d-fbcbd3d43af7","system_id":"levelo_inurba_marseille","lat":43.28614,"lon":5.351,"is_reserved":false,"is_disabled":false,"rental_uris":{"android":"levelo://app?vid=8935e67e-e377-4f20-b30d-fbcbd3d43af7","ios":"levelo://app?vid=8935e67e-e377-4f20-b30d-fbcbd3d43af7"},"vehicle_type_id":"4","last_reported":1751994605,"current_range_meters":16000,"station_id":"ce4bhch2rcd13ifvqeug","pricing_plan_id":"cebpf4jnsgd1na2vs0mg"},{"bike_id":"dfed5170-dd30-4c34-b10d-0827cb5726cb","system_id":"levelo_inurba_marseille","lat":43.23206,"lon":5.39992,"is_reserved":false,"is_disabled":false,"rental_uris":{"android":"levelo://app?vid=dfed5170-dd30-4c34-b10d-0827cb5726cb","ios":"levelo://app?vid=dfed5170-dd30-4c34-b10d-0827cb5726cb"},"vehicle_type_id":"4","last_reported":1751994605,"current_range_meters":16000,"station_id":"ce4bhn12rcd13ifvqgqg","pricing_plan_id":"cebpf4jnsgd1na2vs0mg"},{"bike_id":"ea7df389-5dc0-4c58-88fe-80a5af035925","system_id":"levelo_inurba_marseille","lat":43.298088,"lon":5.364216,"is_reserved":false,"is_disabled":false,"rental_uris":{"android":"levelo://app?vid=ea7df389-5dc0-4c58-88fe-80a5af035925","ios":"levelo://app?vid=ea7df389-5dc0-4c58-88fe-80a5af035925"},"vehicle_type_id":"4","last_reported":1751994605,"current_range_meters":16400,"station_id":"","pricing_plan_id":"cebpf4jnsgd1na2vs0mg"},{"bike_id":"779db5a8-3e0e-4021-8526-c5c7aa48b0cd","system_id":"levelo_inurba_marseille","lat":43.29687,"lon":5.37282,"is_reserved":false,"is_disabled":false,"rental_uris":{"android":"levelo://app?vid=779db5a8-3e0e-4021-8526-c5c7aa48b0cd","ios":"levelo://app?vid=779db5a8-3e0e-4021-8526-c5c7aa48b0cd"},"vehicle_type_id":"4","last_reported":1751994605,"current_range_meters":16400,"station_id":"ce4bgk12rcd13ifvqbj0","pricing_plan_id":"cebpf4jnsgd1na2vs0mg"},{"bike_id":"da9e0cc6-b739-410b-895b-cad8f90bf164","system_id":"levelo_inurba_marseille","lat":43.261942,"lon":5.379324,"is_reserved":false,"is_disabled":false,"rental_uris":{"android":"levelo://app?vid=da9e0cc6-b739-410b-895b-cad8f90bf164","ios":"levelo://app?vid=da9e0cc6-b739-410b-895b-cad8f90bf164"},"vehicle_type_id":"4","last_reported":1751994605,"current_range_meters":16400,"station_id":"ce4bhjp2rcd13ifvqg90","pricing_plan_id":"cebpf4jnsgd1na2vs0mg"},{"bike_id":"c40ed671-900f-4659-a864-0f4b69876afe","system_id":"levelo_inurba_marseille","lat":43.31725,"lon":5.42395,"is_reserved":false,"is_disabled":false,"rental_uris":{"android":"levelo://app?vid=c40ed671-900f-4659-a864-0f4b69876afe","ios":"levelo://app?vid=c40ed671-900f-4659-a864-0f4b69876afe"},"vehicle_type_id":"4","last_reported":1751994605,"current_range_meters":16400,"station_id":"ce4bhp92rcd13ifvqhbg","pricing_plan_id":"cebpf4jnsgd1na2vs0mg"},{"bike_id":"a74d1421-7a37-499b-b1c4-5e1394842b7e","system_id":"levelo_inurba_marseille","lat":43.3373,"lon":5.39175,"is_reserved":false,"is_disabled":false,"rental_uris":{"android":"levelo://app?vid=a74d1421-7a37-499b-b1c4-5e1394842b7e","ios":"levelo://app?vid=a74d1421-7a37-499b-b1c4-5e1394842b7e"},"vehicle_type_id":"4","last_reported":1751994605,"current_range_meters":16400,"station_id":"ce4bhr92rcd13ifvqhsg","pricing_plan_id":"cebpf4jnsgd1na2vs0mg"},{"bike_id":"1e112a52-32ff-42af-8077-893c4a6d3611","system_id":"levelo_inurba_marseille","lat":43.28407,"lon":5.3496,"is_reserved":false,"is_disabled":false,"rental_uris":{"android":"levelo://app?vid=1e112a52-32ff-42af-8077-893c4a6d3611","ios":"levelo://app?vid=1e112a52-32ff-42af-8077-893c4a6d3611"},"vehicle_type_id":"4","last_reported":1751994605,"current_range_meters":16800,"station_id":"ce4bhbh2rcd13ifvqepg","pricing_plan_id":"cebpf4jnsgd1na2vs0mg"},{"bike_id":"9959d7fa-4898-43a5-a1ec-b9fed544cad3","system_id":"levelo_inurba_marseille","lat":43.28414,"lon":5.35001,"is_reserved":false,"is_disabled":false,"rental_uris":{"android":"levelo://app?vid=9959d7fa-4898-43a5-a1ec-b9fed544cad3","ios":"levelo://app?vid=9959d7fa-4898-43a5-a1ec-b9fed544cad3"},"vehicle_type_id":"4","last_reported":1751994605,"current_range_meters":16800,"station_id":"ce4bhbh2rcd13ifvqepg","pricing_plan_id":"cebpf4jnsgd1na2vs0mg"},{"bike_id":"c766992d-0497-460c-ad44-ac95e3150347","system_id":"levelo_inurba_marseille","lat":43.29532,"lon":5.38539,"is_reserved":false,"is_disabled":false,"rental_uris":{"android":"levelo://app?vid=c766992d-0497-460c-ad44-ac95e3150347","ios":"levelo://app?vid=c766992d-0497-460c-ad44-ac95e3150347"},"vehicle_type_id":"4","last_reported":1751994605,"current_range_meters":17200,"station_id":"ce4bgih2rcd13ifvqba0","pricing_plan_id":"cebpf4jnsgd1na2vs0mg"},{"bike_id":"ca109c61-c87c-4b1a-9854-b3690f81c010","system_id":"levelo_inurba_marseille","lat":43.3042,"lon":5.39755,"is_reserved":false,"is_disabled":false,"rental_uris":{"android":"levelo://app?vid=ca109c61-c87c-4b1a-9854-b3690f81c010","ios":"levelo://app?vid=ca109c61-c87c-4b1a-9854-b3690f81c010"},"vehicle_type_id":"4","last_reported":1751994605,"current_range_meters":17200,"station_id":"ce4bh092rcd13ifvqd20","pricing_plan_id":"cebpf4jnsgd1na2vs0mg"},{"bike_id":"b6252658-f6a1-43dc-9738-9cf102d61823","system_id":"levelo_inurba_marseille","lat":43.28483,"lon":5.38419,"is_reserved":false,"is_disabled":false,"rental_uris":{"android":"levelo://app?vid=b6252658-f6a1-43dc-9738-9cf102d61823","ios":"levelo://app?vid=b6252658-f6a1-43dc-9738-9cf102d61823"},"vehicle_type_id":"4","last_reported":1751994605,"current_range_meters":17200,"station_id":"ce4bh512rcd13ifvqe3g","pricing_plan_id":"cebpf4jnsgd1na2vs0mg"},{"bike_id":"43c051ed-332d-4650-9c2b-822cbd370d9a","system_id":"levelo_inurba_marseille","lat":43.29256,"lon":5.38443,"is_reserved":false,"is_disabled":false,"rental_uris":{"android":"levelo://app?vid=43c051ed-332d-4650-9c2b-822cbd370d9a","ios":"levelo://app?vid=43c051ed-332d-4650-9c2b-822cbd370d9a"},"vehicle_type_id":"4","last_reported":1751994605,"current_range_meters":17200,"station_id":"ce4bh692rcd13ifvqea0","pricing_plan_id":"cebpf4jnsgd1na2vs0mg"},{"bike_id":"ff2bed52-cebe-4bfc-8729-1dfbc52a19af","system_id":"levelo_inurba_marseille","lat":43.28609,"lon":5.35114,"is_reserved":false,"is_disabled":false,"rental_uris":{"android":"levelo://app?vid=ff2bed52-cebe-4bfc-8729-1dfbc52a19af","ios":"levelo://app?vid=ff2bed52-cebe-4bfc-8729-1dfbc52a19af"},"vehicle_type_id":"4","last_reported":1751994605,"current_range_meters":17200,"station_id":"ce4bhch2rcd13ifvqeug","pricing_plan_id":"cebpf4jnsgd1na2vs0mg"},{"bike_id":"eca4cce0-095e-4609-88a5-468eaf06d0ea","system_id":"levelo_inurba_marseille","lat":43.26059,"lon":5.39399,"is_reserved":false,"is_disabled":false,"rental_uris":{"android":"levelo://app?vid=eca4cce0-095e-4609-88a5-468eaf06d0ea","ios":"levelo://app?vid=eca4cce0-095e-4609-88a5-468eaf06d0ea"},"vehicle_type_id":"4","last_reported":1751994605,"current_range_meters":17200,"station_id":"ce4bhh92rcd13ifvqfj0","pricing_plan_id":"cebpf4jnsgd1na2vs0mg"},{"bike_id":"5bed0d45-631d-4b51-bf21-315438cd51cd","system_id":"levelo_inurba_marseille","lat":43.28165,"lon":5.42653,"is_reserved":false,"is_disabled":false,"rental_uris":{"android":"levelo://app?vid=5bed0d45-631d-4b51-bf21-315438cd51cd","ios":"levelo://app?vid=5bed0d45-631d-4b51-bf21-315438cd51cd"},"vehicle_type_id":"4","last_reported":1751994605,"current_range_meters":17200,"station_id":"ce4bhnh2rcd13ifvqgug","pricing_plan_id":"cebpf4jnsgd1na2vs0mg"},{"bike_id":"d6063153-613a-41d5-a62a-a943c9b6d592","system_id":"levelo_inurba_marseille","lat":43.3015,"lon":5.38106,"is_reserved":false,"is_disabled":false,"rental_uris":{"android":"levelo://app?vid=d6063153-613a-41d5-a62a-a943c9b6d592","ios":"levelo://app?vid=d6063153-613a-41d5-a62a-a943c9b6d592"},"vehicle_type_id":"4","last_reported":1751994605,"current_range_meters":17600,"station_id":"ce4bgjp2rcd13ifvqbh0","pricing_plan_id":"cebpf4jnsgd1na2vs0mg"},{"bike_id":"b1638a90-6015-47e1-96f3-6feac3afe66a","system_id":"levelo_inurba_marseille","lat":43.312368,"lon":5.368884,"is_reserved":false,"is_disabled":false,"rental_uris":{"android":"levelo://app?vid=b1638a90-6015-47e1-96f3-6feac3afe66a","ios":"levelo://app?vid=b1638a90-6015-47e1-96f3-6feac3afe66a"},"vehicle_type_id":"4","last_reported":1751994605,"current_range_meters":17600,"station_id":"ce4bgl92rcd13ifvqbq0","pricing_plan_id":"cebpf4jnsgd1na2vs0mg"},{"bike_id":"c2b72fe0-bae6-4c7b-ad48-9e771b203dc8","system_id":"levelo_inurba_marseille","lat":43.31361,"lon":5.38457,"is_reserved":false,"is_disabled":false,"rental_uris":{"android":"levelo://app?vid=c2b72fe0-bae6-4c7b-ad48-9e771b203dc8","ios":"levelo://app?vid=c2b72fe0-bae6-4c7b-ad48-9e771b203dc8"},"vehicle_type_id":"4","last_reported":1751994605,"current_range_meters":17600,"station_id":"ce4bgt92rcd13ifvqcf0","pricing_plan_id":"cebpf4jnsgd1na2vs0mg"},{"bike_id":"1fa20b0b-52a0-43eb-af59-89f627ca11db","system_id":"levelo_inurba_marseille","lat":43.29412,"lon":5.38621,"is_reserved":false,"is_disabled":false,"rental_uris":{"android":"levelo://app?vid=1fa20b0b-52a0-43eb-af59-89f627ca11db","ios":"levelo://app?vid=1fa20b0b-52a0-43eb-af59-89f627ca11db"},"vehicle_type_id":"4","last_reported":1751994605,"current_range_meters":17600,"station_id":"ce4bh2h2rcd13ifvqdh0","pricing_plan_id":"cebpf4jnsgd1na2vs0mg"},{"bike_id":"f3034f51-b860-4625-af21-602d90e6c6fb","system_id":"levelo_inurba_marseille","lat":43.28687,"lon":5.38648,"is_reserved":false,"is_disabled":false,"rental_uris":{"android":"levelo://app?vid=f3034f51-b860-4625-af21-602d90e6c6fb","ios":"levelo://app?vid=f3034f51-b860-4625-af21-602d90e6c6fb"},"vehicle_type_id":"4","last_reported":1751994605,"current_range_meters":17600,"station_id":"ce4bh492rcd13ifvqdug","pricing_plan_id":"cebpf4jnsgd1na2vs0mg"},{"bike_id":"f187bca7-730c-495f-b36c-b985f85f6d76","system_id":"levelo_inurba_marseille","lat":43.28648,"lon":5.35075,"is_reserved":false,"is_disabled":false,"rental_uris":{"android":"levelo://app?vid=f187bca7-730c-495f-b36c-b985f85f6d76","ios":"levelo://app?vid=f187bca7-730c-495f-b36c-b985f85f6d76"},"vehicle_type_id":"4","last_reported":1751994605,"current_range_meters":17600,"station_id":"ce4bhch2rcd13ifvqeug","pricing_plan_id":"cebpf4jnsgd1na2vs0mg"},{"bike_id":"d6543ad0-16d4-4793-8970-3736097362b9","system_id":"levelo_inurba_marseille","lat":43.28625,"lon":5.35109,"is_reserved":false,"is_disabled":false,"rental_uris":{"android":"levelo://app?vid=d6543ad0-16d4-4793-8970-3736097362b9","ios":"levelo://app?vid=d6543ad0-16d4-4793-8970-3736097362b9"},"vehicle_type_id":"4","last_reported":1751994605,"current_range_meters":17600,"station_id":"ce4bhch2rcd13ifvqeug","pricing_plan_id":"cebpf4jnsgd1na2vs0mg"},{"bike_id":"cd812f06-3254-4dc4-bdab-94ecd7361d33","system_id":"levelo_inurba_marseille","lat":43.21747,"lon":5.34607,"is_reserved":false,"is_disabled":false,"rental_uris":{"android":"levelo://app?vid=cd812f06-3254-4dc4-bdab-94ecd7361d33","ios":"levelo://app?vid=cd812f06-3254-4dc4-bdab-94ecd7361d33"},"vehicle_type_id":"4","last_reported":1751994605,"current_range_meters":17600,"station_id":"st_cvj6r9ubvosntc0bgbag","pricing_plan_id":"cebpf4jnsgd1na2vs0mg"},{"bike_id":"d0f90c24-dd03-411b-9731-55305f76b7c8","system_id":"levelo_inurba_marseille","lat":43.21205,"lon":5.35072,"is_reserved":false,"is_disabled":false,"rental_uris":{"android":"levelo://app?vid=d0f90c24-dd03-411b-9731-55305f76b7c8","ios":"levelo://app?vid=d0f90c24-dd03-411b-9731-55305f76b7c8"},"vehicle_type_id":"4","last_reported":1751994605,"current_range_meters":17600,"station_id":"st_cvj6sg6p6f1abm77japg","pricing_plan_id":"cebpf4jnsgd1na2vs0mg"},{"bike_id":"19c552da-55bc-46d8-97cb-d1fbabdad01a","system_id":"levelo_inurba_marseille","lat":43.21194,"lon":5.350706,"is_reserved":false,"is_disabled":false,"rental_uris":{"android":"levelo://app?vid=19c552da-55bc-46d8-97cb-d1fbabdad01a","ios":"levelo://app?vid=19c552da-55bc-46d8-97cb-d1fbabdad01a"},"vehicle_type_id":"4","last_reported":1751994605,"current_range_meters":17600,"station_id":"st_cvj6sg6p6f1abm77japg","pricing_plan_id":"cebpf4jnsgd1na2vs0mg"},{"bike_id":"4975b22d-8c48-452f-bd19-7a9d3ed7c378","system_id":"levelo_inurba_marseille","lat":43.29676,"lon":5.37424,"is_reserved":false,"is_disabled":false,"rental_uris":{"android":"levelo://app?vid=4975b22d-8c48-452f-bd19-7a9d3ed7c378","ios":"levelo://app?vid=4975b22d-8c48-452f-bd19-7a9d3ed7c378"},"vehicle_type_id":"4","last_reported":1751994605,"current_range_meters":18000,"station_id":"","pricing_plan_id":"cebpf4jnsgd1na2vs0mg"},{"bike_id":"9c04eeba-c517-42cf-b48b-02012b5bcc31","system_id":"levelo_inurba_marseille","lat":43.305478,"lon":5.384224,"is_reserved":false,"is_disabled":false,"rental_uris":{"android":"levelo://app?vid=9c04eeba-c517-42cf-b48b-02012b5bcc31","ios":"levelo://app?vid=9c04eeba-c517-42cf-b48b-02012b5bcc31"},"vehicle_type_id":"4","last_reported":1751994605,"current_range_meters":18000,"station_id":"ce4bgg92rcd13ifvqb30","pricing_plan_id":"cebpf4jnsgd1na2vs0mg"},{"bike_id":"066c2591-433b-4517-8174-ad8cdce41caf","system_id":"levelo_inurba_marseille","lat":43.2953,"lon":5.38542,"is_reserved":false,"is_disabled":false,"rental_uris":{"android":"levelo://app?vid=066c2591-433b-4517-8174-ad8cdce41caf","ios":"levelo://app?vid=066c2591-433b-4517-8174-ad8cdce41caf"},"vehicle_type_id":"4","last_reported":1751994605,"current_range_meters":18000,"station_id":"ce4bgih2rcd13ifvqba0","pricing_plan_id":"cebpf4jnsgd1na2vs0mg"},{"bike_id":"a7f0466c-6e00-4f6c-9f12-af59e8219af7","system_id":"levelo_inurba_marseille","lat":43.30307,"lon":5.39207,"is_reserved":false,"is_disabled":false,"rental_uris":{"android":"levelo://app?vid=a7f0466c-6e00-4f6c-9f12-af59e8219af7","ios":"levelo://app?vid=a7f0466c-6e00-4f6c-9f12-af59e8219af7"},"vehicle_type_id":"4","last_reported":1751994605,"current_range_meters":18000,"station_id":"ce4bgkh2rcd13ifvqbk0","pricing_plan_id":"cebpf4jnsgd1na2vs0mg"},{"bike_id":"f06ad9c1-4d2d-477f-9cf5-8a8b31168797","system_id":"levelo_inurba_marseille","lat":43.287011,"lon":5.373932,"is_reserved":false,"is_disabled":false,"rental_uris":{"android":"levelo://app?vid=f06ad9c1-4d2d-477f-9cf5-8a8b31168797","ios":"levelo://app?vid=f06ad9c1-4d2d-477f-9cf5-8a8b31168797"},"vehicle_type_id":"4","last_reported":1751994605,"current_range_meters":18000,"station_id":"ce4bh3p2rcd13ifvqdq0","pricing_plan_id":"cebpf4jnsgd1na2vs0mg"},{"bike_id":"7cc0c640-1c62-4f9a-a5f2-a00524463fb4","system_id":"levelo_inurba_marseille","lat":43.27917,"lon":5.39577,"is_reserved":false,"is_disabled":false,"rental_uris":{"android":"levelo://app?vid=7cc0c640-1c62-4f9a-a5f2-a00524463fb4","ios":"levelo://app?vid=7cc0c640-1c62-4f9a-a5f2-a00524463fb4"},"vehicle_type_id":"4","last_reported":1751994605,"current_range_meters":18000,"station_id":"ce4bhf92rcd13ifvqf40","pricing_plan_id":"cebpf4jnsgd1na2vs0mg"},{"bike_id":"f5c16f07-bc6f-4121-91a7-5ad90eec4f34","system_id":"levelo_inurba_marseille","lat":43.31196,"lon":5.37321,"is_reserved":false,"is_disabled":false,"rental_uris":{"android":"levelo://app?vid=f5c16f07-bc6f-4121-91a7-5ad90eec4f34","ios":"levelo://app?vid=f5c16f07-bc6f-4121-91a7-5ad90eec4f34"},"vehicle_type_id":"4","last_reported":1751994605,"current_range_meters":18800,"station_id":"","pricing_plan_id":"cebpf4jnsgd1na2vs0mg"},{"bike_id":"bbaa4f3e-695f-4081-99dd-0610d1d4761c","system_id":"levelo_inurba_marseille","lat":43.30143,"lon":5.38058,"is_reserved":false,"is_disabled":false,"rental_uris":{"android":"levelo://app?vid=bbaa4f3e-695f-4081-99dd-0610d1d4761c","ios":"levelo://app?vid=bbaa4f3e-695f-4081-99dd-0610d1d4761c"},"vehicle_type_id":"4","last_reported":1751994605,"current_range_meters":18800,"station_id":"ce4bgjp2rcd13ifvqbh0","pricing_plan_id":"cebpf4jnsgd1na2vs0mg"},{"bike_id":"d120797c-bf68-470c-aaa3-87531478c66e","system_id":"levelo_inurba_marseille","lat":43.30187,"lon":5.36626,"is_reserved":false,"is_disabled":false,"rental_uris":{"android":"levelo://app?vid=d120797c-bf68-470c-aaa3-87531478c66e","ios":"levelo://app?vid=d120797c-bf68-470c-aaa3-87531478c66e"},"vehicle_type_id":"4","last_reported":1751994605,"current_range_meters":18800,"station_id":"ce4bgrh2rcd13ifvqc8g","pricing_plan_id":"cebpf4jnsgd1na2vs0mg"},{"bike_id":"2e789c53-eff9-4e4c-a24d-a948e81a3fdf","system_id":"levelo_inurba_marseille","lat":43.303,"lon":5.37742,"is_reserved":false,"is_disabled":false,"rental_uris":{"android":"levelo://app?vid=2e789c53-eff9-4e4c-a24d-a948e81a3fdf","ios":"levelo://app?vid=2e789c53-eff9-4e4c-a24d-a948e81a3fdf"},"vehicle_type_id":"4","last_reported":1751994605,"current_range_meters":18800,"station_id":"ce4bguh2rcd13ifvqcj0","pricing_plan_id":"cebpf4jnsgd1na2vs0mg"},{"bike_id":"69026ebc-9554-4dd6-8025-50bfb913770d","system_id":"levelo_inurba_marseille","lat":43.28727,"lon":5.3795,"is_reserved":false,"is_disabled":false,"rental_uris":{"android":"levelo://app?vid=69026ebc-9554-4dd6-8025-50bfb913770d","ios":"levelo://app?vid=69026ebc-9554-4dd6-8025-50bfb913770d"},"vehicle_type_id":"4","last_reported":1751994605,"current_range_meters":18800,"station_id":"ce4bh9p2rcd13ifvqec0","pricing_plan_id":"cebpf4jnsgd1na2vs0mg"},{"bike_id":"66ec7d57-b8ee-46e3-8c1f-eb1e1607e010","system_id":"levelo_inurba_marseille","lat":43.29,"lon":5.366192,"is_reserved":false,"is_disabled":false,"rental_uris":{"android":"levelo://app?vid=66ec7d57-b8ee-46e3-8c1f-eb1e1607e010","ios":"levelo://app?vid=66ec7d57-b8ee-46e3-8c1f-eb1e1607e010"},"vehicle_type_id":"4","last_reported":1751994605,"current_range_meters":18800,"station_id":"ce4bhap2rcd13ifvqek0","pricing_plan_id":"cebpf4jnsgd1na2vs0mg"},{"bike_id":"d2575931-1129-42a9-9419-76a73d622658","system_id":"levelo_inurba_marseille","lat":43.27212,"lon":5.39176,"is_reserved":false,"is_disabled":false,"rental_uris":{"android":"levelo://app?vid=d2575931-1129-42a9-9419-76a73d622658","ios":"levelo://app?vid=d2575931-1129-42a9-9419-76a73d622658"},"vehicle_type_id":"4","last_reported":1751994605,"current_range_meters":18800,"station_id":"ce4bhhp2rcd13ifvqfm0","pricing_plan_id":"cebpf4jnsgd1na2vs0mg"},{"bike_id":"56eb3fdf-ea87-4fcf-85df-3680fa66363e","system_id":"levelo_inurba_marseille","lat":43.22509,"lon":5.34758,"is_reserved":false,"is_disabled":false,"rental_uris":{"android":"levelo://app?vid=56eb3fdf-ea87-4fcf-85df-3680fa66363e","ios":"levelo://app?vid=56eb3fdf-ea87-4fcf-85df-3680fa66363e"},"vehicle_type_id":"4","last_reported":1751994605,"current_range_meters":18800,"station_id":"st_cvj5dfep6f1abm77gieg","pricing_plan_id":"cebpf4jnsgd1na2vs0mg"},{"bike_id":"b757ffbb-2b71-4330-9f60-5f8a9d46d16e","system_id":"levelo_inurba_marseille","lat":43.29664,"lon":5.37127,"is_reserved":false,"is_disabled":false,"rental_uris":{"android":"levelo://app?vid=b757ffbb-2b71-4330-9f60-5f8a9d46d16e","ios":"levelo://app?vid=b757ffbb-2b71-4330-9f60-5f8a9d46d16e"},"vehicle_type_id":"4","last_reported":1751994605,"current_range_meters":19200,"station_id":"","pricing_plan_id":"cebpf4jnsgd1na2vs0mg"},{"bike_id":"b2caa530-bb19-4cc6-a6bd-61e3e1d7432e","system_id":"levelo_inurba_marseille","lat":43.33763,"lon":5.37461,"is_reserved":false,"is_disabled":false,"rental_uris":{"android":"levelo://app?vid=b2caa530-bb19-4cc6-a6bd-61e3e1d7432e","ios":"levelo://app?vid=b2caa530-bb19-4cc6-a6bd-61e3e1d7432e"},"vehicle_type_id":"4","last_reported":1751994605,"current_range_meters":19200,"station_id":"","pricing_plan_id":"cebpf4jnsgd1na2vs0mg"},{"bike_id":"611061b1-5584-4d44-9ef4-c48249efad9e","system_id":"levelo_inurba_marseille","lat":43.3043,"lon":5.38897,"is_reserved":false,"is_disabled":false,"rental_uris":{"android":"levelo://app?vid=611061b1-5584-4d44-9ef4-c48249efad9e","ios":"levelo://app?vid=611061b1-5584-4d44-9ef4-c48249efad9e"},"vehicle_type_id":"4","last_reported":1751994605,"current_range_meters":19200,"station_id":"ce4bgk12rcd13ifvqbi0","pricing_plan_id":"cebpf4jnsgd1na2vs0mg"},{"bike_id":"603c5f26-b95d-45e4-82a9-6c91a8c29f76","system_id":"levelo_inurba_marseille","lat":43.31492,"lon":5.37317,"is_reserved":false,"is_disabled":false,"rental_uris":{"android":"levelo://app?vid=603c5f26-b95d-45e4-82a9-6c91a8c29f76","ios":"levelo://app?vid=603c5f26-b95d-45e4-82a9-6c91a8c29f76"},"vehicle_type_id":"4","last_reported":1751994605,"current_range_meters":19200,"station_id":"ce4bgt12rcd13ifvqcd0","pricing_plan_id":"cebpf4jnsgd1na2vs0mg"},{"bike_id":"cc71998d-4f86-4354-a649-2a2ff1c5abc6","system_id":"levelo_inurba_marseille","lat":43.28265,"lon":5.35059,"is_reserved":false,"is_disabled":false,"rental_uris":{"android":"levelo://app?vid=cc71998d-4f86-4354-a649-2a2ff1c5abc6","ios":"levelo://app?vid=cc71998d-4f86-4354-a649-2a2ff1c5abc6"},"vehicle_type_id":"4","last_reported":1751994605,"current_range_meters":19200,"station_id":"ce4bhbp2rcd13ifvqerg","pricing_plan_id":"cebpf4jnsgd1na2vs0mg"},{"bike_id":"697d5fc4-b988-4a4e-8323-c1ce5ed61a61","system_id":"levelo_inurba_marseille","lat":43.21179,"lon":5.35064,"is_reserved":false,"is_disabled":false,"rental_uris":{"android":"levelo://app?vid=697d5fc4-b988-4a4e-8323-c1ce5ed61a61","ios":"levelo://app?vid=697d5fc4-b988-4a4e-8323-c1ce5ed61a61"},"vehicle_type_id":"4","last_reported":1751994605,"current_range_meters":19200,"station_id":"st_cvj6sg6p6f1abm77japg","pricing_plan_id":"cebpf4jnsgd1na2vs0mg"},{"bike_id":"b6d9b946-f66a-4c6f-96e5-5d23e176360c","system_id":"levelo_inurba_marseille","lat":43.31315,"lon":5.38172,"is_reserved":false,"is_disabled":false,"rental_uris":{"android":"levelo://app?vid=b6d9b946-f66a-4c6f-96e5-5d23e176360c","ios":"levelo://app?vid=b6d9b946-f66a-4c6f-96e5-5d23e176360c"},"vehicle_type_id":"4","last_reported":1751994605,"current_range_meters":19600,"station_id":"","pricing_plan_id":"cebpf4jnsgd1na2vs0mg"},{"bike_id":"adb4acb0-9f9f-4801-b3fa-444321509f1d","system_id":"levelo_inurba_marseille","lat":43.30324,"lon":5.40439,"is_reserved":false,"is_disabled":false,"rental_uris":{"android":"levelo://app?vid=adb4acb0-9f9f-4801-b3fa-444321509f1d","ios":"levelo://app?vid=adb4acb0-9f9f-4801-b3fa-444321509f1d"},"vehicle_type_id":"4","last_reported":1751994605,"current_range_meters":19600,"station_id":"ce4bh012rcd13ifvqd10","pricing_plan_id":"cebpf4jnsgd1na2vs0mg"},{"bike_id":"40829e95-68ce-4017-b576-23273eb4b132","system_id":"levelo_inurba_marseille","lat":43.28614,"lon":5.35101,"is_reserved":false,"is_disabled":false,"rental_uris":{"android":"levelo://app?vid=40829e95-68ce-4017-b576-23273eb4b132","ios":"levelo://app?vid=40829e95-68ce-4017-b576-23273eb4b132"},"vehicle_type_id":"4","last_reported":1751994605,"current_range_meters":19600,"station_id":"ce4bhch2rcd13ifvqeug","pricing_plan_id":"cebpf4jnsgd1na2vs0mg"},{"bike_id":"deeacd00-31db-4a01-9f62-5fc2f176c044","system_id":"levelo_inurba_marseille","lat":43.24818,"lon":5.37438,"is_reserved":false,"is_disabled":false,"rental_uris":{"android":"levelo://app?vid=deeacd00-31db-4a01-9f62-5fc2f176c044","ios":"levelo://app?vid=deeacd00-31db-4a01-9f62-5fc2f176c044"},"vehicle_type_id":"4","last_reported":1751994605,"current_range_meters":19600,"station_id":"ce4bhgh2rcd13ifvqfb0","pricing_plan_id":"cebpf4jnsgd1na2vs0mg"},{"bike_id":"6e5c2657-ccb8-4153-8b94-2143bc427a03","system_id":"levelo_inurba_marseille","lat":43.22508,"lon":5.34775,"is_reserved":false,"is_disabled":false,"rental_uris":{"android":"levelo://app?vid=6e5c2657-ccb8-4153-8b94-2143bc427a03","ios":"levelo://app?vid=6e5c2657-ccb8-4153-8b94-2143bc427a03"},"vehicle_type_id":"4","last_reported":1751994605,"current_range_meters":19600,"station_id":"st_cvj5dfep6f1abm77gieg","pricing_plan_id":"cebpf4jnsgd1na2vs0mg"},{"bike_id":"b28aa0a0-791c-4a08-9a16-c7bf6ea0ed5a","system_id":"levelo_inurba_marseille","lat":43.22506,"lon":5.34791,"is_reserved":false,"is_disabled":false,"rental_uris":{"android":"levelo://app?vid=b28aa0a0-791c-4a08-9a16-c7bf6ea0ed5a","ios":"levelo://app?vid=b28aa0a0-791c-4a08-9a16-c7bf6ea0ed5a"},"vehicle_type_id":"4","last_reported":1751994605,"current_range_meters":19600,"station_id":"st_cvj5dfep6f1abm77gieg","pricing_plan_id":"cebpf4jnsgd1na2vs0mg"},{"bike_id":"1be39311-cfa5-4cbb-b93d-fb0870d6e611","system_id":"levelo_inurba_marseille","lat":43.21199,"lon":5.35079,"is_reserved":false,"is_disabled":false,"rental_uris":{"android":"levelo://app?vid=1be39311-cfa5-4cbb-b93d-fb0870d6e611","ios":"levelo://app?vid=1be39311-cfa5-4cbb-b93d-fb0870d6e611"},"vehicle_type_id":"4","last_reported":1751994605,"current_range_meters":19600,"station_id":"st_cvj6sg6p6f1abm77japg","pricing_plan_id":"cebpf4jnsgd1na2vs0mg"},{"bike_id":"320f2a33-deaa-4e0a-a3d5-c39ce8ad680a","system_id":"levelo_inurba_marseille","lat":43.31559,"lon":5.37445,"is_reserved":false,"is_disabled":false,"rental_uris":{"android":"levelo://app?vid=320f2a33-deaa-4e0a-a3d5-c39ce8ad680a","ios":"levelo://app?vid=320f2a33-deaa-4e0a-a3d5-c39ce8ad680a"},"vehicle_type_id":"4","last_reported":1751994605,"current_range_meters":20000,"station_id":"","pricing_plan_id":"cebpf4jnsgd1na2vs0mg"},{"bike_id":"5af688d1-aec3-4903-8161-7a1adffc076f","system_id":"levelo_inurba_marseille","lat":43.305335,"lon":5.384258,"is_reserved":false,"is_disabled":false,"rental_uris":{"android":"levelo://app?vid=5af688d1-aec3-4903-8161-7a1adffc076f","ios":"levelo://app?vid=5af688d1-aec3-4903-8161-7a1adffc076f"},"vehicle_type_id":"4","last_reported":1751994605,"current_range_meters":20000,"station_id":"ce4bgg92rcd13ifvqb30","pricing_plan_id":"cebpf4jnsgd1na2vs0mg"},{"bike_id":"0ed1d933-050c-4673-b65e-b5be6554e15f","system_id":"levelo_inurba_marseille","lat":43.30256,"lon":5.40092,"is_reserved":false,"is_disabled":false,"rental_uris":{"android":"levelo://app?vid=0ed1d933-050c-4673-b65e-b5be6554e15f","ios":"levelo://app?vid=0ed1d933-050c-4673-b65e-b5be6554e15f"},"vehicle_type_id":"4","last_reported":1751994605,"current_range_meters":20000,"station_id":"ce4bgvh2rcd13ifvqcs0","pricing_plan_id":"cebpf4jnsgd1na2vs0mg"},{"bike_id":"8cb7b6f3-61fe-40e1-b30e-14451b68683c","system_id":"levelo_inurba_marseille","lat":43.28846,"lon":5.35848,"is_reserved":false,"is_disabled":false,"rental_uris":{"android":"levelo://app?vid=8cb7b6f3-61fe-40e1-b30e-14451b68683c","ios":"levelo://app?vid=8cb7b6f3-61fe-40e1-b30e-14451b68683c"},"vehicle_type_id":"4","last_reported":1751994605,"current_range_meters":20000,"station_id":"ce4bhb12rcd13ifvqem0","pricing_plan_id":"cebpf4jnsgd1na2vs0mg"},{"bike_id":"fd7d08d0-d8e9-446a-9f54-3e0aa7641460","system_id":"levelo_inurba_marseille","lat":43.24384,"lon":5.37056,"is_reserved":false,"is_disabled":false,"rental_uris":{"android":"levelo://app?vid=fd7d08d0-d8e9-446a-9f54-3e0aa7641460","ios":"levelo://app?vid=fd7d08d0-d8e9-446a-9f54-3e0aa7641460"},"vehicle_type_id":"4","last_reported":1751994605,"current_range_meters":20000,"station_id":"ce4bhhh2rcd13ifvqfk0","pricing_plan_id":"cebpf4jnsgd1na2vs0mg"},{"bike_id":"a28a5dc0-5efa-4011-abaa-78b371a86d6b","system_id":"levelo_inurba_marseille","lat":43.26198,"lon":5.37935,"is_reserved":false,"is_disabled":false,"rental_uris":{"android":"levelo://app?vid=a28a5dc0-5efa-4011-abaa-78b371a86d6b","ios":"levelo://app?vid=a28a5dc0-5efa-4011-abaa-78b371a86d6b"},"vehicle_type_id":"4","last_reported":1751994605,"current_range_meters":20000,"station_id":"ce4bhjp2rcd13ifvqg90","pricing_plan_id":"cebpf4jnsgd1na2vs0mg"},{"bike_id":"b5bc4be7-0ded-4890-a33e-a1962aa0c066","system_id":"levelo_inurba_marseille","lat":43.30416,"lon":5.41282,"is_reserved":false,"is_disabled":false,"rental_uris":{"android":"levelo://app?vid=b5bc4be7-0ded-4890-a33e-a1962aa0c066","ios":"levelo://app?vid=b5bc4be7-0ded-4890-a33e-a1962aa0c066"},"vehicle_type_id":"4","last_reported":1751994605,"current_range_meters":20000,"station_id":"ce4bhop2rcd13ifvqh8g","pricing_plan_id":"cebpf4jnsgd1na2vs0mg"},{"bike_id":"306ce1a6-757b-4897-8796-d879ee9a33eb","system_id":"levelo_inurba_marseille","lat":43.29739,"lon":5.40094,"is_reserved":false,"is_disabled":false,"rental_uris":{"android":"levelo://app?vid=306ce1a6-757b-4897-8796-d879ee9a33eb","ios":"levelo://app?vid=306ce1a6-757b-4897-8796-d879ee9a33eb"},"vehicle_type_id":"4","last_reported":1751994605,"current_range_meters":20400,"station_id":"","pricing_plan_id":"cebpf4jnsgd1na2vs0mg"},{"bike_id":"f275fe5c-de89-44a1-9066-8e74979931a3","system_id":"levelo_inurba_marseille","lat":43.3059,"lon":5.3935,"is_reserved":false,"is_disabled":false,"rental_uris":{"android":"levelo://app?vid=f275fe5c-de89-44a1-9066-8e74979931a3","ios":"levelo://app?vid=f275fe5c-de89-44a1-9066-8e74979931a3"},"vehicle_type_id":"4","last_reported":1751994605,"current_range_meters":20400,"station_id":"ce4bh0p2rcd13ifvqd80","pricing_plan_id":"cebpf4jnsgd1na2vs0mg"},{"bike_id":"1235cd41-4e42-450b-bf7d-75921c5dcf93","system_id":"levelo_inurba_marseille","lat":43.31329,"lon":5.39691,"is_reserved":false,"is_disabled":false,"rental_uris":{"android":"levelo://app?vid=1235cd41-4e42-450b-bf7d-75921c5dcf93","ios":"levelo://app?vid=1235cd41-4e42-450b-bf7d-75921c5dcf93"},"vehicle_type_id":"4","last_reported":1751994605,"current_range_meters":20800,"station_id":"ce4bgvp2rcd13ifvqcu0","pricing_plan_id":"cebpf4jnsgd1na2vs0mg"},{"bike_id":"6f34d2ee-2e18-49b2-811d-7ce1367a094b","system_id":"levelo_inurba_marseille","lat":43.30134,"lon":5.39856,"is_reserved":false,"is_disabled":false,"rental_uris":{"android":"levelo://app?vid=6f34d2ee-2e18-49b2-811d-7ce1367a094b","ios":"levelo://app?vid=6f34d2ee-2e18-49b2-811d-7ce1367a094b"},"vehicle_type_id":"4","last_reported":1751994605,"current_range_meters":20800,"station_id":"ce4bh0h2rcd13ifvqd40","pricing_plan_id":"cebpf4jnsgd1na2vs0mg"},{"bike_id":"efc022ed-2fe4-4962-a63f-ad09dc890a25","system_id":"levelo_inurba_marseille","lat":43.292735,"lon":5.384413,"is_reserved":false,"is_disabled":false,"rental_uris":{"android":"levelo://app?vid=efc022ed-2fe4-4962-a63f-ad09dc890a25","ios":"levelo://app?vid=efc022ed-2fe4-4962-a63f-ad09dc890a25"},"vehicle_type_id":"4","last_reported":1751994605,"current_range_meters":20800,"station_id":"ce4bh692rcd13ifvqea0","pricing_plan_id":"cebpf4jnsgd1na2vs0mg"},{"bike_id":"d0f7282a-3e02-4420-8f10-c4fc690cba38","system_id":"levelo_inurba_marseille","lat":43.274231,"lon":5.394061,"is_reserved":false,"is_disabled":false,"rental_uris":{"android":"levelo://app?vid=d0f7282a-3e02-4420-8f10-c4fc690cba38","ios":"levelo://app?vid=d0f7282a-3e02-4420-8f10-c4fc690cba38"},"vehicle_type_id":"4","last_reported":1751994605,"current_range_meters":20800,"station_id":"ce4bhdp2rcd13ifvqf20","pricing_plan_id":"cebpf4jnsgd1na2vs0mg"},{"bike_id":"a6ed2b37-4163-4365-92de-c61c2c397bd9","system_id":"levelo_inurba_marseille","lat":43.24648,"lon":5.38883,"is_reserved":false,"is_disabled":false,"rental_uris":{"android":"levelo://app?vid=a6ed2b37-4163-4365-92de-c61c2c397bd9","ios":"levelo://app?vid=a6ed2b37-4163-4365-92de-c61c2c397bd9"},"vehicle_type_id":"4","last_reported":1751994605,"current_range_meters":20800,"station_id":"ce4bhg12rcd13ifvqf60","pricing_plan_id":"cebpf4jnsgd1na2vs0mg"},{"bike_id":"1b31d685-b1b3-4346-9d69-b3d8d66951eb","system_id":"levelo_inurba_marseille","lat":43.26674,"lon":5.38268,"is_reserved":false,"is_disabled":false,"rental_uris":{"android":"levelo://app?vid=1b31d685-b1b3-4346-9d69-b3d8d66951eb","ios":"levelo://app?vid=1b31d685-b1b3-4346-9d69-b3d8d66951eb"},"vehicle_type_id":"4","last_reported":1751994605,"current_range_meters":20800,"station_id":"ce4bhg92rcd13ifvqf90","pricing_plan_id":"cebpf4jnsgd1na2vs0mg"},{"bike_id":"08ca170f-eec4-4e9e-bf8b-6a827a230fe5","system_id":"levelo_inurba_marseille","lat":43.270602,"lon":5.402539,"is_reserved":false,"is_disabled":false,"rental_uris":{"android":"levelo://app?vid=08ca170f-eec4-4e9e-bf8b-6a827a230fe5","ios":"levelo://app?vid=08ca170f-eec4-4e9e-bf8b-6a827a230fe5"},"vehicle_type_id":"4","last_reported":1751994605,"current_range_meters":20800,"station_id":"ce4bhk92rcd13ifvqgc0","pricing_plan_id":"cebpf4jnsgd1na2vs0mg"},{"bike_id":"40fa92fc-f934-431e-b290-17833f63b829","system_id":"levelo_inurba_marseille","lat":43.23206,"lon":5.35559,"is_reserved":false,"is_disabled":false,"rental_uris":{"android":"levelo://app?vid=40fa92fc-f934-431e-b290-17833f63b829","ios":"levelo://app?vid=40fa92fc-f934-431e-b290-17833f63b829"},"vehicle_type_id":"4","last_reported":1751994605,"current_range_meters":20800,"station_id":"ce4bhu92rcd13ifvqi70","pricing_plan_id":"cebpf4jnsgd1na2vs0mg"},