{"last_updated":1739369317,"ttl":60,"version":"2.2","data":{"bikes":[{"bike_id":"9ae4959d-6de9-4c98-bb63-3a430a52595d","system_id":"levelo_inurba_marseille","lat":43.31343,"lon":5.36747,"is_reserved":false,"is_disabled":false,"rental_uris":{"android":"levelo://app?vid=9ae4959d-6de9-4c98-bb63-3a430a52595d","ios":"levelo://app?vid=9ae4959d-6de9-4c98-bb63-3a430a52595d"},"vehicle_type_id":"4","last_reported":1739369318,"current_range_meters":17200,"station_id":"ce4bgr92rcd13ifvqc6g","pricing_plan_id":"cebpf4jnsgd1na2vs0mg"},{"bike_id":"7803dd1a-a242-4883-848b-e4cbfccf197b","system_id":"levelo_inurba_marseille","lat":43.31378,"lon":5.36664,"is_reserved":false,"is_disabled":false,"rental_uris":{"android":"levelo://app?vid=7803dd1a-a242-4883-848b-e4cbfccf197b","ios":"levelo://app?vid=7803dd1a-a242-4883-848b-e4cbfccf197b"},"vehicle_type_id":"4","last_reported":1739369318,"current_range_meters":8400,"station_id":"","pricing_plan_id":"cebpf4jnsgd1na2vs0mg"},{"bike_id":"526c1e66-3da0-4d65-a5a4-c950b8102e25","system_id":"levelo_inurba_marseille","lat":43.28432,"lon":5.39181,"is_reserved":false,"is_disabled":false,"rental_uris":{"android":"levelo://app?vid=526c1e66-3da0-4d65-a5a4-c950b8102e25","ios":"levelo://app?vid=526c1e66-3da0-4d65-a5a4-c950b8102e25"},"vehicle_type_id":"4","last_reported":1739369318,"current_range_meters":33600,"station_id":"ce4bhoh2rcd13ifvqh5g","pricing_plan_id":"cebpf4jnsgd1na2vs0mg"},{"bike_id":"24558755-1336-45d1-a261-5814eb73f63e","system_id":"levelo_inurba_marseille","lat":43.278351,"lon":5.392121,"is_reserved":false,"is_disabled":false,"rental_uris":{"android":"levelo://app?vid=24558755-1336-45d1-a261-5814eb73f63e","ios":"levelo://app?vid=24558755-1336-45d1-a261-5814eb73f63e"},"vehicle_type_id":"4","last_reported":1739369318,"current_range_meters":22000,"station_id":"ce4bhjp2rcd13ifvqga0","pricing_plan_id":"cebpf4jnsgd1na2vs0mg"},{"bike_id":"9c9e6dfa-122e-4154-8057-4016db8e7671","system_id":"levelo_inurba_marseille","lat":43.33721,"lon":5.3918,"is_reserved":false,"is_disabled":false,"rental_uris":{"android":"levelo://app?vid=9c9e6dfa-122e-4154-8057-4016db8e7671","ios":"levelo://app?vid=9c9e6dfa-122e-4154-8057-4016db8e7671"},"vehicle_type_id":"4","last_reported":1739369318,"current_range_meters":38000,"station_id":"ce4bhr92rcd13ifvqhsg","pricing_plan_id":"cebpf4jnsgd1na2vs0mg"},{"bike_id":"39b3ea8e-0558-45d3-b805-8f78ff2d5ed5","system_id":"levelo_inurba_marseille","lat":43.29615,"lon":5.37713,"is_reserved":false,"is_disabled":false,"rental_uris":{"android":"levelo://app?vid=39b3ea8e-0558-45d3-b805-8f78ff2d5ed5","ios":"levelo://app?vid=39b3ea8e-0558-45d3-b805-8f78ff2d5ed5"},"vehicle_type_id":"4","last_reported":1739369318,"current_range_meters":36800,"station_id":"ce4bgi92rcd13ifvqb90","pricing_plan_id":"cebpf4jnsgd1na2vs0mg"},{"bike_id":"1d4165b9-e8af-42e7-8e88-54a0f84b4f26","system_id":"levelo_inurba_marseille","lat":43.23183,"lon":5.39977,"is_reserved":false,"is_disabled":false,"rental_uris":{"android":"levelo://app?vid=1d4165b9-e8af-42e7-8e88-54a0f84b4f26","ios":"levelo://app?vid=1d4165b9-e8af-42e7-8e88-54a0f84b4f26"},"vehicle_type_id":"4","last_reported":1739369318,"current_range_meters":38400,"station_id":"ce4bhn12rcd13ifvqgqg","pricing_plan_id":"cebpf4jnsgd1na2vs0mg"},{"bike_id":"f6ef4f9a-c914-4d4b-a06e-00485b64285e","system_id":"levelo_inurba_marseille","lat":43.32479,"lon":5.36563,"is_reserved":false,"is_disabled":false,"rental_uris":{"android":"levelo://app?vid=f6ef4f9a-c914-4d4b-a06e-00485b64285e","ios":"levelo://app?vid=f6ef4f9a-c914-4d4b-a06e-00485b64285e"},"vehicle_type_id":"4","last_reported":1739369318,"current_range_meters":38800,"station_id":"ce4bhs12rcd13ifvqhvg","pricing_plan_id":"cebpf4jnsgd1na2vs0mg"},{"bike_id":"154c3d10-560a-48c8-8975-f28b510614e3","system_id":"levelo_inurba_marseille","lat":43.30284,"lon":5.3772,"is_reserved":false,"is_disabled":false,"rental_uris":{"android":"levelo://app?vid=154c3d10-560a-48c8-8975-f28b510614e3","ios":"levelo://app?vid=154c3d10-560a-48c8-8975-f28b510614e3"},"vehicle_type_id":"4","last_reported":1739369318,"current_range_meters":28400,"station_id":"ce4bguh2rcd13ifvqcj0","pricing_plan_id":"cebpf4jnsgd1na2vs0mg"},{"bike_id":"8b1c9bed-283d-4644-9673-1058c0737c9c","system_id":"levelo_inurba_marseille","lat":43.30456,"lon":5.37904,"is_reserved":false,"is_disabled":false,"rental_uris":{"android":"levelo://app?vid=8b1c9bed-283d-4644-9673-1058c0737c9c","ios":"levelo://app?vid=8b1c9bed-283d-4644-9673-1058c0737c9c"},"vehicle_type_id":"4","last_reported":1739369318,"current_range_meters":38800,"station_id":"ce4bgup2rcd13ifvqcn0","pricing_plan_id":"cebpf4jnsgd1na2vs0mg"},{"bike_id":"4c4891db-fb43-4fcc-aed3-6542b2bf0dbf","system_id":"levelo_inurba_marseille","lat":43.27445,"lon":5.41039,"is_reserved":false,"is_disabled":false,"rental_uris":{"android":"levelo://app?vid=4c4891db-fb43-4fcc-aed3-6542b2bf0dbf","ios":"levelo://app?vid=4c4891db-fb43-4fcc-aed3-6542b2bf0dbf"},"vehicle_type_id":"4","last_reported":1739369318,"current_range_meters":30400,"station_id":"","pricing_plan_id":"cebpf4jnsgd1na2vs0mg"},{"bike_id":"2e10781f-7d7d-4f5f-803e-d317223bbc09","system_id":"levelo_inurba_marseille","lat":43.2949,"lon":5.38626,"is_reserved":false,"is_disabled":false,"rental_uris":{"android":"levelo://app?vid=2e10781f-7d7d-4f5f-803e-d317223bbc09","ios":"levelo://app?vid=2e10781f-7d7d-4f5f-803e-d317223bbc09"},"vehicle_type_id":"4","last_reported":1739369318,"current_range_meters":16800,"station_id":"ce4bgih2rcd13ifvqba0","pricing_plan_id":"cebpf4jnsgd1na2vs0mg"},{"bike_id":"b7e5ed26-b327-48d1-b3da-d61a2e48fa80","system_id":"levelo_inurba_marseille","lat":43.31251,"lon":5.4015,"is_reserved":false,"is_disabled":false,"rental_uris":{"android":"levelo://app?vid=b7e5ed26-b327-48d1-b3da-d61a2e48fa80","ios":"levelo://app?vid=b7e5ed26-b327-48d1-b3da-d61a2e48fa80"},"vehicle_type_id":"4","last_reported":1739369318,"current_range_meters":33200,"station_id":"ce4bh092rcd13ifvqd30","pricing_plan_id":"cebpf4jnsgd1na2vs0mg"},{"bike_id":"9e4564f0-0519-46c9-beea-73f529a3ce6a","system_id":"levelo_inurba_marseille","lat":43.24812,"lon":5.37457,"is_reserved":false,"is_disabled":false,"rental_uris":{"android":"levelo://app?vid=9e4564f0-0519-46c9-beea-73f529a3ce6a","ios":"levelo://app?vid=9e4564f0-0519-46c9-beea-73f529a3ce6a"},"vehicle_type_id":"4","last_reported":1739369318,"current_range_meters":28000,"station_id":"ce4bhgh2rcd13ifvqfb0","pricing_plan_id":"cebpf4jnsgd1na2vs0mg"},{"bike_id":"e8b98b7c-5d68-4a57-8bb7-0cc04267f30a","system_id":"levelo_inurba_marseille","lat":43.27996,"lon":5.40005,"is_reserved":false,"is_disabled":false,"rental_uris":{"android":"levelo://app?vid=e8b98b7c-5d68-4a57-8bb7-0cc04267f30a","ios":"levelo://app?vid=e8b98b7c-5d68-4a57-8bb7-0cc04267f30a"},"vehicle_type_id":"4","last_reported":1739369318,"current_range_meters":24000,"station_id":"ce4bho92rcd13ifvqh4g","pricing_plan_id":"cebpf4jnsgd1na2vs0mg"},{"bike_id":"a94d2018-f678-4713-bf2d-5da0b28f3e59","system_id":"levelo_inurba_marseille","lat":43.29774,"lon":5.37105,"is_reserved":false,"is_disabled":false,"rental_uris":{"android":"levelo://app?vid=a94d2018-f678-4713-bf2d-5da0b28f3e59","ios":"levelo://app?vid=a94d2018-f678-4713-bf2d-5da0b28f3e59"},"vehicle_type_id":"4","last_reported":1739369318,"current_range_meters":33600,"station_id":"ce4bgop2rcd13ifvqc1g","pricing_plan_id":"cebpf4jnsgd1na2vs0mg"},{"bike_id":"3df3041b-27b7-4def-8d60-99d6191bfdce","system_id":"levelo_inurba_marseille","lat":43.27493,"lon":5.42458,"is_reserved":false,"is_disabled":false,"rental_uris":{"android":"levelo://app?vid=3df3041b-27b7-4def-8d60-99d6191bfdce","ios":"levelo://app?vid=3df3041b-27b7-4def-8d60-99d6191bfdce"},"vehicle_type_id":"4","last_reported":1739369318,"current_range_meters":38800,"station_id":"ce4bhn92rcd13ifvqgrg","pricing_plan_id":"cebpf4jnsgd1na2vs0mg"},{"bike_id":"726fa3ac-39e2-4551-aaf2-b3969e2b8981","system_id":"levelo_inurba_marseille","lat":43.30152,"lon":5.38077,"is_reserved":false,"is_disabled":false,"rental_uris":{"android":"levelo://app?vid=726fa3ac-39e2-4551-aaf2-b3969e2b8981","ios":"levelo://app?vid=726fa3ac-39e2-4551-aaf2-b3969e2b8981"},"vehicle_type_id":"4","last_reported":1739369318,"current_range_meters":6400,"station_id":"ce4bgjp2rcd13ifvqbh0","pricing_plan_id":"cebpf4jnsgd1na2vs0mg"},{"bike_id":"f255be7c-ceba-481c-b44b-c7a9c3eb4436","system_id":"levelo_inurba_marseille","lat":43.29262,"lon":5.38445,"is_reserved":false,"is_disabled":false,"rental_uris":{"android":"levelo://app?vid=f255be7c-ceba-481c-b44b-c7a9c3eb4436","ios":"levelo://app?vid=f255be7c-ceba-481c-b44b-c7a9c3eb4436"},"vehicle_type_id":"4","last_reported":1739369318,"current_range_meters":28800,"station_id":"ce4bh692rcd13ifvqea0","pricing_plan_id":"cebpf4jnsgd1na2vs0mg"},{"bike_id":"032f2126-a92e-44bf-b80b-eb65ada51560","system_id":"levelo_inurba_marseille","lat":43.31756,"lon":5.39016,"is_reserved":false,"is_disabled":false,"rental_uris":{"android":"levelo://app?vid=032f2126-a92e-44bf-b80b-eb65ada51560","ios":"levelo://app?vid=032f2126-a92e-44bf-b80b-eb65ada51560"},"vehicle_type_id":"4","last_reported":1739369318,"current_range_meters":10000,"station_id":"ce4bhqp2rcd13ifvqhng","pricing_plan_id":"cebpf4jnsgd1na2vs0mg"},{"bike_id":"56d2a634-11e1-431b-b5eb-3008eaf8fa38","system_id":"levelo_inurba_marseille","lat":43.29045,"lon":5.35909,"is_reserved":false,"is_disabled":false,"rental_uris":{"android":"levelo://app?vid=56d2a634-11e1-431b-b5eb-3008eaf8fa38","ios":"levelo://app?vid=56d2a634-11e1-431b-b5eb-3008eaf8fa38"},"vehicle_type_id":"4","last_reported":1739369318,"current_range_meters":39200,"station_id":"ce4bha92rcd13ifvqeg0","pricing_plan_id":"cebpf4jnsgd1na2vs0mg"},{"bike_id":"26c79ef5-6f5f-49d9-b4aa-17fb6a7df4bb","system_id":"levelo_inurba_marseille","lat":43.29849,"lon":5.36279,"is_reserved":false,"is_disabled":false,"rental_uris":{"android":"levelo://app?vid=26c79ef5-6f5f-49d9-b4aa-17fb6a7df4bb","ios":"levelo://app?vid=26c79ef5-6f5f-49d9-b4aa-17fb6a7df4bb"},"vehicle_type_id":"4","last_reported":1739369318,"current_range_meters":38400,"station_id":"ce4bgpp2rcd13ifvqc3g","pricing_plan_id":"cebpf4jnsgd1na2vs0mg"},{"bike_id":"39e55a90-fe76-4904-bf9c-9841fe168f13","system_id":"levelo_inurba_marseille","lat":43.33721,"lon":5.39193,"is_reserved":false,"is_disabled":false,"rental_uris":{"android":"levelo://app?vid=39e55a90-fe76-4904-bf9c-9841fe168f13","ios":"levelo://app?vid=39e55a90-fe76-4904-bf9c-9841fe168f13"},"vehicle_type_id":"4","last_reported":1739369318,"current_range_meters":38800,"station_id":"ce4bhr92rcd13ifvqhsg","pricing_plan_id":"cebpf4jnsgd1na2vs0mg"},{"bike_id":"95204eb9-0c10-4a15-844a-042d368fa026","system_id":"levelo_inurba_marseille","lat":43.26055,"lon":5.39814,"is_reserved":false,"is_disabled":false,"rental_uris":{"android":"levelo://app?vid=95204eb9-0c10-4a15-844a-042d368fa026","ios":"levelo://app?vid=95204eb9-0c10-4a15-844a-042d368fa026"},"vehicle_type_id":"4","last_reported":1739369318,"current_range_meters":23200,"station_id":"","pricing_plan_id":"cebpf4jnsgd1na2vs0mg"},{"bike_id":"db6373d2-ffa6-4649-9c46-a9186ec0e126","system_id":"levelo_inurba_marseille","lat":43.30878,"lon":5.37174,"is_reserved":false,"is_disabled":false,"rental_uris":{"android":"levelo://app?vid=db6373d2-ffa6-4649-9c46-a9186ec0e126","ios":"levelo://app?vid=db6373d2-ffa6-4649-9c46-a9186ec0e126"},"vehicle_type_id":"4","last_reported":1739369318,"current_range_meters":23200,"station_id":"ce4bguh2rcd13ifvqckg","pricing_plan_id":"cebpf4jnsgd1na2vs0mg"},{"bike_id":"64465a38-18a1-42c1-9767-7904cfa1ad28","system_id":"levelo_inurba_marseille","lat":43.30533,"lon":5.36684,"is_reserved":false,"is_disabled":false,"rental_uris":{"android":"levelo://app?vid=64465a38-18a1-42c1-9767-7904cfa1ad28","ios":"levelo://app?vid=64465a38-18a1-42c1-9767-7904cfa1ad28"},"vehicle_type_id":"4","last_reported":1739369318,"current_range_meters":30000,"station_id":"ce4bgrp2rcd13ifvqc9g","pricing_plan_id":"cebpf4jnsgd1na2vs0mg"},{"bike_id":"731da6c6-f7ca-4a26-90c2-82e3497d26ff","system_id":"levelo_inurba_marseille","lat":43.31347,"lon":5.36717,"is_reserved":false,"is_disabled":false,"rental_uris":{"android":"levelo://app?vid=731da6c6-f7ca-4a26-90c2-82e3497d26ff","ios":"levelo://app?vid=731da6c6-f7ca-4a26-90c2-82e3497d26ff"},"vehicle_type_id":"4","last_reported":1739369318,"current_range_meters":30000,"station_id":"ce4bgr92rcd13ifvqc6g","pricing_plan_id":"cebpf4jnsgd1na2vs0mg"},{"bike_id":"909847a0-4d26-47aa-8e9a-c8012c26b27b","system_id":"levelo_inurba_marseille","lat":43.3064,"lon":5.40098,"is_reserved":false,"is_disabled":false,"rental_uris":{"android":"levelo://app?vid=909847a0-4d26-47aa-8e9a-c8012c26b27b","ios":"levelo://app?vid=909847a0-4d26-47aa-8e9a-c8012c26b27b"},"vehicle_type_id":"4","last_reported":1739369318,"current_range_meters":11200,"station_id":"ce4bh112rcd13ifvqda0","pricing_plan_id":"cebpf4jnsgd1na2vs0mg"},{"bike_id":"bf8cd02e-ccdc-4523-894a-3fce83d782e3","system_id":"levelo_inurba_marseille","lat":43.33725,"lon":5.39181,"is_reserved":false,"is_disabled":false,"rental_uris":{"android":"levelo://app?vid=bf8cd02e-ccdc-4523-894a-3fce83d782e3","ios":"levelo://app?vid=bf8cd02e-ccdc-4523-894a-3fce83d782e3"},"vehicle_type_id":"4","last_reported":1739369318,"current_range_meters":38800,"station_id":"ce4bhr92rcd13ifvqhsg","pricing_plan_id":"cebpf4jnsgd1na2vs0mg"},{"bike_id":"b737ae82-c86e-4ede-80b2-31fc6f755e14","system_id":"levelo_inurba_marseille","lat":43.29527,"lon":5.38547,"is_reserved":false,"is_disabled":true,"rental_uris":{"android":"levelo://app?vid=b737ae82-c86e-4ede-80b2-31fc6f755e14","ios":"levelo://app?vid=b737ae82-c86e-4ede-80b2-31fc6f755e14"},"vehicle_type_id":"4","last_reported":1739369318,"current_range_meters":38800,"station_id":"ce4bgih2rcd13ifvqba0","pricing_plan_id":"cebpf4jnsgd1na2vs0mg"},{"bike_id":"9c48e55f-a6eb-482b-9a1e-2a9d5f093e98","system_id":"levelo_inurba_marseille","lat":43.2959,"lon":5.38107,"is_reserved":false,"is_disabled":false,"rental_uris":{"android":"levelo://app?vid=9c48e55f-a6eb-482b-9a1e-2a9d5f093e98","ios":"levelo://app?vid=9c48e55f-a6eb-482b-9a1e-2a9d5f093e98"},"vehicle_type_id":"4","last_reported":1739369318,"current_range_meters":30400,"station_id":"ce4bgl12rcd13ifvqbo0","pricing_plan_id":"cebpf4jnsgd1na2vs0mg"},{"bike_id":"20cff2ea-df40-43e9-9e60-e9c41ce0ec64","system_id":"levelo_inurba_marseille","lat":43.23139,"lon":5.43682,"is_reserved":false,"is_disabled":false,"rental_uris":{"android":"levelo://app?vid=20cff2ea-df40-43e9-9e60-e9c41ce0ec64","ios":"levelo://app?vid=20cff2ea-df40-43e9-9e60-e9c41ce0ec64"},"vehicle_type_id":"4","last_reported":1739369318,"current_range_meters":39200,"station_id":"ce4bhmp2rcd13ifvqgog","pricing_plan_id":"cebpf4jnsgd1na2vs0mg"},{"bike_id":"169778dd-1e1c-4c15-bf81-396a8485b053","system_id":"levelo_inurba_marseille","lat":43.28922,"lon":5.38408,"is_reserved":false,"is_disabled":false,"rental_uris":{"android":"levelo://app?vid=169778dd-1e1c-4c15-bf81-396a8485b053","ios":"levelo://app?vid=169778dd-1e1c-4c15-bf81-396a8485b053"},"vehicle_type_id":"4","last_reported":1739369318,"current_range_meters":37600,"station_id":"ce4bh612rcd13ifvqe6g","pricing_plan_id":"cebpf4jnsgd1na2vs0mg"},{"bike_id":"c179f179-1614-4d6a-9586-627695823c73","system_id":"levelo_inurba_marseille","lat":43.26797,"lon":5.40248,"is_reserved":false,"is_disabled":false,"rental_uris":{"android":"levelo://app?vid=c179f179-1614-4d6a-9586-627695823c73","ios":"levelo://app?vid=c179f179-1614-4d6a-9586-627695823c73"},"vehicle_type_id":"4","last_reported":1739369318,"current_range_meters":26000,"station_id":"ce501612rcd8frsf0b60","pricing_plan_id":"cebpf4jnsgd1na2vs0mg"},{"bike_id":"679b51a7-0864-4c79-a75b-8b937ab8b8fc","system_id":"levelo_inurba_marseille","lat":43.245471,"lon":5.395254,"is_reserved":false,"is_disabled":false,"rental_uris":{"android":"levelo://app?vid=679b51a7-0864-4c79-a75b-8b937ab8b8fc","ios":"levelo://app?vid=679b51a7-0864-4c79-a75b-8b937ab8b8fc"},"vehicle_type_id":"4","last_reported":1739369318,"current_range_meters":25600,"station_id":"ce4bhlp2rcd13ifvqgjg","pricing_plan_id":"cebpf4jnsgd1na2vs0mg"},{"bike_id":"34336859-b941-4777-a7fe-56d01a220fb2","system_id":"levelo_inurba_marseille","lat":43.2971,"lon":5.36609,"is_reserved":false,"is_disabled":false,"rental_uris":{"android":"levelo://app?vid=34336859-b941-4777-a7fe-56d01a220fb2","ios":"levelo://app?vid=34336859-b941-4777-a7fe-56d01a220fb2"},"vehicle_type_id":"4","last_reported":1739369318,"current_range_meters":38400,"station_id":"ce4bgn12rcd13ifvqbt0","pricing_plan_id":"cebpf4jnsgd1na2vs0mg"},{"bike_id":"93ea3abf-5134-4be3-be52-8c9c9748f4f7","system_id":"levelo_inurba_marseille","lat":43.28963,"lon":5.36535,"is_reserved":false,"is_disabled":false,"rental_uris":{"android":"levelo://app?vid=93ea3abf-5134-4be3-be52-8c9c9748f4f7","ios":"levelo://app?vid=93ea3abf-5134-4be3-be52-8c9c9748f4f7"},"vehicle_type_id":"4","last_reported":1739369318,"current_range_meters":30000,"station_id":"ce4bhap2rcd13ifvqek0","pricing_plan_id":"cebpf4jnsgd1na2vs0mg"},{"bike_id":"28cc4894-1c83-4aec-82ad-a1a6ac301061","system_id":"levelo_inurba_marseille","lat":43.26701,"lon":5.38243,"is_reserved":false,"is_disabled":false,"rental_uris":{"android":"levelo://app?vid=28cc4894-1c83-4aec-82ad-a1a6ac301061","ios":"levelo://app?vid=28cc4894-1c83-4aec-82ad-a1a6ac301061"},"vehicle_type_id":"4","last_reported":1739369318,"current_range_meters":30000,"station_id":"ce4bhg92rcd13ifvqf90","pricing_plan_id":"cebpf4jnsgd1na2vs0mg"},{"bike_id":"4b674fed-a680-4df3-ab7b-271cc22686ae","system_id":"levelo_inurba_marseille","lat":43.30879,"lon":5.39649,"is_reserved":false,"is_disabled":false,"rental_uris":{"android":"levelo://app?vid=4b674fed-a680-4df3-ab7b-271cc22686ae","ios":"levelo://app?vid=4b674fed-a680-4df3-ab7b-271cc22686ae"},"vehicle_type_id":"4","last_reported":1739369318,"current_range_meters":38800,"station_id":"ce4bh012rcd13ifvqcv0","pricing_plan_id":"cebpf4jnsgd1na2vs0mg"},{"bike_id":"91894ada-8c36-4bdd-adb3-32b17d04a4aa","system_id":"levelo_inurba_marseille","lat":43.29025,"lon":5.38646,"is_reserved":false,"is_disabled":false,"rental_uris":{"android":"levelo://app?vid=91894ada-8c36-4bdd-adb3-32b17d04a4aa","ios":"levelo://app?vid=91894ada-8c36-4bdd-adb3-32b17d04a4aa"},"vehicle_type_id":"4","last_reported":1739369318,"current_range_meters":29600,"station_id":"ce4bh4p2rcd13ifvqe0g","pricing_plan_id":"cebpf4jnsgd1na2vs0mg"},{"bike_id":"c6e92d4a-a6e9-460b-8819-941185c2b087","system_id":"levelo_inurba_marseille","lat":43.30167,"lon":5.38079,"is_reserved":false,"is_disabled":false,"rental_uris":{"android":"levelo://app?vid=c6e92d4a-a6e9-460b-8819-941185c2b087","ios":"levelo://app?vid=c6e92d4a-a6e9-460b-8819-941185c2b087"},"vehicle_type_id":"4","last_reported":1739369318,"current_range_meters":36000,"station_id":"ce4bgjp2rcd13ifvqbh0","pricing_plan_id":"cebpf4jnsgd1na2vs0mg"},{"bike_id":"0f898702-5a7a-46b3-acd9-f0d77c965d23","system_id":"levelo_inurba_marseille","lat":43.28847,"lon":5.35851,"is_reserved":false,"is_disabled":true,"rental_uris":{"android":"levelo://app?vid=0f898702-5a7a-46b3-acd9-f0d77c965d23","ios":"levelo://app?vid=0f898702-5a7a-46b3-acd9-f0d77c965d23"},"vehicle_type_id":"4","last_reported":1739369318,"current_range_meters":1200,"station_id":"ce4bhb12rcd13ifvqem0","pricing_plan_id":"cebpf4jnsgd1na2vs0mg"},{"bike_id":"704ec19d-e7c0-4858-a423-dcfa560220a5","system_id":"levelo_inurba_marseille","lat":43.23187,"lon":5.39987,"is_reserved":false,"is_disabled":false,"rental_uris":{"android":"levelo://app?vid=704ec19d-e7c0-4858-a423-dcfa560220a5","ios":"levelo://app?vid=704ec19d-e7c0-4858-a423-dcfa560220a5"},"vehicle_type_id":"4","last_reported":1739369318,"current_range_meters":38800,"station_id":"ce4bhn12rcd13ifvqgqg","pricing_plan_id":"cebpf4jnsgd1na2vs0mg"},{"bike_id":"5ec5dad3-2aa4-4468-abda-cdb85c06529e","system_id":"levelo_inurba_marseille","lat":43.29976,"lon":5.37135,"is_reserved":false,"is_disabled":false,"rental_uris":{"android":"levelo://app?vid=5ec5dad3-2aa4-4468-abda-cdb85c06529e","ios":"levelo://app?vid=5ec5dad3-2aa4-4468-abda-cdb85c06529e"},"vehicle_type_id":"4","last_reported":1739369318,"current_range_meters":38800,"station_id":"ce4bgr92rcd13ifvqc7g","pricing_plan_id":"cebpf4jnsgd1na2vs0mg"},{"bike_id":"f0725ab4-3016-4ce5-974f-6701497da3f0","system_id":"levelo_inurba_marseille","lat":43.27492,"lon":5.4244,"is_reserved":false,"is_disabled":false,"rental_uris":{"android":"levelo://app?vid=f0725ab4-3016-4ce5-974f-6701497da3f0","ios":"levelo://app?vid=f0725ab4-3016-4ce5-974f-6701497da3f0"},"vehicle_type_id":"4","last_reported":1739369318,"current_range_meters":28000,"station_id":"ce4bhn92rcd13ifvqgrg","pricing_plan_id":"cebpf4jnsgd1na2vs0mg"},{"bike_id":"e05ebc29-c9b7-4266-83f3-ce932e008f60","system_id":"levelo_inurba_marseille","lat":43.30425,"lon":5.39739,"is_reserved":false,"is_disabled":false,"rental_uris":{"android":"levelo://app?vid=e05ebc29-c9b7-4266-83f3-ce932e008f60","ios":"levelo://app?vid=e05ebc29-c9b7-4266-83f3-ce932e008f60"},"vehicle_type_id":"4","last_reported":1739369318,"current_range_meters":23200,"station_id":"ce4bh092rcd13ifvqd20","pricing_plan_id":"cebpf4jnsgd1na2vs0mg"},{"bike_id":"1abe2258-cb0f-4672-9569-519c505ed71d","system_id":"levelo_inurba_marseille","lat":43.31294,"lon":5.40141,"is_reserved":false,"is_disabled":false,"rental_uris":{"android":"levelo://app?vid=1abe2258-cb0f-4672-9569-519c505ed71d","ios":"levelo://app?vid=1abe2258-cb0f-4672-9569-519c505ed71d"},"vehicle_type_id":"4","last_reported":1739369318,"current_range_meters":38800,"station_id":"ce4bh092rcd13ifvqd30","pricing_plan_id":"cebpf4jnsgd1na2vs0mg"},{"bike_id":"ed0dd0cc-51d6-43b0-8e01-ea491bd62832","system_id":"levelo_inurba_marseille","lat":43.30787,"lon":5.3764,"is_reserved":false,"is_disabled":false,"rental_uris":{"android":"levelo://app?vid=ed0dd0cc-51d6-43b0-8e01-ea491bd62832","ios":"levelo://app?vid=ed0dd0cc-51d6-43b0-8e01-ea491bd62832"},"vehicle_type_id":"4","last_reported":1739369318,"current_range_meters":20000,"station_id":"ce4bgv92rcd13ifvqcq0","pricing_plan_id":"cebpf4jnsgd1na2vs0mg"},{"bike_id":"641ac591-57ea-414b-b64d-5d6c99c4788d","system_id":"levelo_inurba_marseille","lat":43.26932,"lon":5.38911,"is_reserved":false,"is_disabled":false,"rental_uris":{"android":"levelo://app?vid=641ac591-57ea-414b-b64d-5d6c99c4788d","ios":"levelo://app?vid=641ac591-57ea-414b-b64d-5d6c99c4788d"},"vehicle_type_id":"4","last_reported":1739369318,"current_range_meters":38400,"station_id":"ce4bhhh2rcd13ifvqfl0","pricing_plan_id":"cebpf4jnsgd1na2vs0mg"},{"bike_id":"f61f0289-db11-4f78-af36-f70fd4404161","system_id":"levelo_inurba_marseille","lat":43.290051,"lon":5.356176,"is_reserved":false,"is_disabled":true,"rental_uris":{"android":"levelo://app?vid=f61f0289-db11-4f78-af36-f70fd4404161","ios":"levelo://app?vid=f61f0289-db11-4f78-af36-f70fd4404161"},"vehicle_type_id":"4","last_reported":1739369318,"current_range_meters":34000,"station_id":"","pricing_plan_id":"cebpf4jnsgd1na2vs0mg"},{"bike_id":"39a640ed-fd8c-4b56-84e0-fe67663afd2d","system_id":"levelo_inurba_marseille","lat":43.23153,"lon":5.43709,"is_reserved":false,"is_disabled":false,"rental_uris":{"android":"levelo://app?vid=39a640ed-fd8c-4b56-84e0-fe67663afd2d","ios":"levelo://app?vid=39a640ed-fd8c-4b56-84e0-fe67663afd2d"},"vehicle_type_id":"4","last_reported":1739369318,"current_range_meters":27600,"station_id":"ce4bhmp2rcd13ifvqgog","pricing_plan_id":"cebpf4jnsgd1na2vs0mg"},{"bike_id":"c7c7410d-3f64-4cf8-b741-70566dea1938","system_id":"levelo_inurba_marseille","lat":43.30359,"lon":5.41883,"is_reserved":false,"is_disabled":true,"rental_uris":{"android":"levelo://app?vid=c7c7410d-3f64-4cf8-b741-70566dea1938","ios":"levelo://app?vid=c7c7410d-3f64-4cf8-b741-70566dea1938"},"vehicle_type_id":"4","last_reported":1739369318,"current_range_meters":1600,"station_id":"ce4bhop2rcd13ifvqh7g","pricing_plan_id":"cebpf4jnsgd1na2vs0mg"},{"bike_id":"b03c6d48-9fd6-4bf2-bc41-8e49175a4e58","system_id":"levelo_inurba_marseille","lat":43.32653,"lon":5.40983,"is_reserved":false,"is_disabled":false,"rental_uris":{"android":"levelo://app?vid=b03c6d48-9fd6-4bf2-bc41-8e49175a4e58","ios":"levelo://app?vid=b03c6d48-9fd6-4bf2-bc41-8e49175a4e58"},"vehicle_type_id":"4","last_reported":1739369318,"current_range_meters":38000,"station_id":"ce4bhpp2rcd13ifvqhgg","pricing_plan_id":"cebpf4jnsgd1na2vs0mg"},{"bike_id":"76ebc75d-2fe5-45e0-9f44-dea2f5f86814","system_id":"levelo_inurba_marseille","lat":43.24391,"lon":5.37053,"is_reserved":false,"is_disabled":false,"rental_uris":{"android":"levelo://app?vid=76ebc75d-2fe5-45e0-9f44-dea2f5f86814","ios":"levelo://app?vid=76ebc75d-2fe5-45e0-9f44-dea2f5f86814"},"vehicle_type_id":"4","last_reported":1739369318,"current_range_meters":28000,"station_id":"ce4bhhh2rcd13ifvqfk0","pricing_plan_id":"cebpf4jnsgd1na2vs0mg"},{"bike_id":"7e4baaff-43df-45ac-ba99-60d4ee3b5a14","system_id":"levelo_inurba_marseille","lat":43.32488,"lon":5.36565,"is_reserved":false,"is_disabled":false,"rental_uris":{"android":"levelo://app?vid=7e4baaff-43df-45ac-ba99-60d4ee3b5a14","ios":"levelo://app?vid=7e4baaff-43df-45ac-ba99-60d4ee3b5a14"},"vehicle_type_id":"4","last_reported":1739369318,"current_range_meters":8000,"station_id":"ce4bhs12rcd13ifvqhvg","pricing_plan_id":"cebpf4jnsgd1na2vs0mg"},{"bike_id":"76305925-afef-4e0d-9960-6de968abbadf","system_id":"levelo_inurba_marseille","lat":43.248137,"lon":5.374603,"is_reserved":false,"is_disabled":false,"rental_uris":{"android":"levelo://app?vid=76305925-afef-4e0d-9960-6de968abbadf","ios":"levelo://app?vid=76305925-afef-4e0d-9960-6de968abbadf"},"vehicle_type_id":"4","last_reported":1739369318,"current_range_meters":34800,"station_id":"ce4bhgh2rcd13ifvqfb0","pricing_plan_id":"cebpf4jnsgd1na2vs0mg"},{"bike_id":"80b55b9b-3311-4f84-bd1e-e3b2f430b33c","system_id":"levelo_inurba_marseille","lat":43.30544,"lon":5.36702,"is_reserved":false,"is_disabled":false,"rental_uris":{"android":"levelo://app?vid=80b55b9b-3311-4f84-bd1e-e3b2f430b33c","ios":"levelo://app?vid=80b55b9b-3311-4f84-bd1e-e3b2f430b33c"},"vehicle_type_id":"4","last_reported":1739369318,"current_range_meters":38800,"station_id":"ce4bgrp2rcd13ifvqc9g","pricing_plan_id":"cebpf4jnsgd1na2vs0mg"},{"bike_id":"51ab7186-5043-4bed-baca-73708608a302","system_id":"levelo_inurba_marseille","lat":43.29584,"lon":5.37026,"is_reserved":false,"is_disabled":true,"rental_uris":{"android":"levelo://app?vid=51ab7186-5043-4bed-baca-73708608a302","ios":"levelo://app?vid=51ab7186-5043-4bed-baca-73708608a302"},"vehicle_type_id":"4","last_reported":1739369318,"current_range_meters":2800,"station_id":"","pricing_plan_id":"cebpf4jnsgd1na2vs0mg"},{"bike_id":"50088e93-5803-4364-92d7-3190d4649e3b","system_id":"levelo_inurba_marseille","lat":43.27944,"lon":5.41035,"is_reserved":false,"is_disabled":false,"rental_uris":{"android":"levelo://app?vid=50088e93-5803-4364-92d7-3190d4649e3b","ios":"levelo://app?vid=50088e93-5803-4364-92d7-3190d4649e3b"},"vehicle_type_id":"4","last_reported":1739369318,"current_range_meters":38800,"station_id":"ce4bhnp2rcd13ifvqh0g","pricing_plan_id":"cebpf4jnsgd1na2vs0mg"},{"bike_id":"edded2dc-62ce-4b2b-8d55-f4aab112a8aa","system_id":"levelo_inurba_marseille","lat":43.26943,"lon":5.38629,"is_reserved":false,"is_disabled":false,"rental_uris":{"android":"levelo://app?vid=edded2dc-62ce-4b2b-8d55-f4aab112a8aa","ios":"levelo://app?vid=edded2dc-62ce-4b2b-8d55-f4aab112a8aa"},"vehicle_type_id":"4","last_reported":1739369318,"current_range_meters":33200,"station_id":"ce4bhh92rcd13ifvqfh0","pricing_plan_id":"cebpf4jnsgd1na2vs0mg"},{"bike_id":"ad75e63f-c19c-4cb4-bda5-6e52b7082eb8","system_id":"levelo_inurba_marseille","lat":43.30283,"lon":5.37709,"is_reserved":false,"is_disabled":false,"rental_uris":{"android":"levelo://app?vid=ad75e63f-c19c-4cb4-bda5-6e52b7082eb8","ios":"levelo://app?vid=ad75e63f-c19c-4cb4-bda5-6e52b7082eb8"},"vehicle_type_id":"4","last_reported":1739369318,"current_range_meters":16400,"station_id":"ce4bguh2rcd13ifvqcj0","pricing_plan_id":"cebpf4jnsgd1na2vs0mg"},{"bike_id":"4a64ece0-ade0-4398-bd9a-7915c991c761","system_id":"levelo_inurba_marseille","lat":43.32478,"lon":5.36568,"is_reserved":false,"is_disabled":false,"rental_uris":{"android":"levelo://app?vid=4a64ece0-ade0-4398-bd9a-7915c991c761","ios":"levelo://app?vid=4a64ece0-ade0-4398-bd9a-7915c991c761"},"vehicle_type_id":"4","last_reported":1739369318,"current_range_meters":10800,"station_id":"ce4bhs12rcd13ifvqhvg","pricing_plan_id":"cebpf4jnsgd1na2vs0mg"},{"bike_id":"688a21d4-2340-46aa-a227-32d11776c431","system_id":"levelo_inurba_marseille","lat":43.29273,"lon":5.3844,"is_reserved":false,"is_disabled":false,"rental_uris":{"android":"levelo://app?vid=688a21d4-2340-46aa-a227-32d11776c431","ios":"levelo://app?vid=688a21d4-2340-46aa-a227-32d11776c431"},"vehicle_type_id":"4","last_reported":1739369318,"current_range_meters":33600,"station_id":"ce4bh692rcd13ifvqea0","pricing_plan_id":"cebpf4jnsgd1na2vs0mg"},{"bike_id":"3022a390-1c44-4221-b627-b981bb6953c7","system_id":"levelo_inurba_marseille","lat":43.28002,"lon":5.40013,"is_reserved":false,"is_disabled":false,"rental_uris":{"android":"levelo://app?vid=3022a390-1c44-4221-b627-b981bb6953c7","ios":"levelo://app?vid=3022a390-1c44-4221-b627-b981bb6953c7"},"vehicle_type_id":"4","last_reported":1739369318,"current_range_meters":24400,"station_id":"ce4bho92rcd13ifvqh4g","pricing_plan_id":"cebpf4jnsgd1na2vs0mg"},{"bike_id":"f7cd2f79-78bc-4162-a0ec-72719ede3443","system_id":"levelo_inurba_marseille","lat":43.28712,"lon":5.39988,"is_reserved":false,"is_disabled":false,"rental_uris":{"android":"levelo://app?vid=f7cd2f79-78bc-4162-a0ec-72719ede3443","ios":"levelo://app?vid=f7cd2f79-78bc-4162-a0ec-72719ede3443"},"vehicle_type_id":"4","last_reported":1739369318,"current_range_meters":24400,"station_id":"ce4bho92rcd13ifvqh3g","pricing_plan_id":"cebpf4jnsgd1na2vs0mg"},{"bike_id":"d1e173a7-7a13-459d-aa61-e912781d87f3","system_id":"levelo_inurba_marseille","lat":43.27322,"lon":5.39097,"is_reserved":false,"is_disabled":false,"rental_uris":{"android":"levelo://app?vid=d1e173a7-7a13-459d-aa61-e912781d87f3","ios":"levelo://app?vid=d1e173a7-7a13-459d-aa61-e912781d87f3"},"vehicle_type_id":"4","last_reported":1739369318,"current_range_meters":27600,"station_id":"ce4bhgp2rcd13ifvqfe0","pricing_plan_id":"cebpf4jnsgd1na2vs0mg"},{"bike_id":"10dce821-bd6f-48b5-a755-f2a3c840842c","system_id":"levelo_inurba_marseille","lat":43.23146,"lon":5.43732,"is_reserved":false,"is_disabled":true,"rental_uris":{"android":"levelo://app?vid=10dce821-bd6f-48b5-a755-f2a3c840842c","ios":"levelo://app?vid=10dce821-bd6f-48b5-a755-f2a3c840842c"},"vehicle_type_id":"4","last_reported":1739369318,"current_range_meters":0,"station_id":"ce4bhmp2rcd13ifvqgog","pricing_plan_id":"cebpf4jnsgd1na2vs0mg"},{"bike_id":"7f079bfc-fb15-482f-bf2d-50674c1286fa","system_id":"levelo_inurba_marseille","lat":43.28703,"lon":5.37395,"is_reserved":false,"is_disabled":false,"rental_uris":{"android":"levelo://app?vid=7f079bfc-fb15-482f-bf2d-50674c1286fa","ios":"levelo://app?vid=7f079bfc-fb15-482f-bf2d-50674c1286fa"},"vehicle_type_id":"4","last_reported":1739369318,"current_range_meters":24800,"station_id":"ce4bh3p2rcd13ifvqdq0","pricing_plan_id":"cebpf4jnsgd1na2vs0mg"},{"bike_id":"de77abfa-6f74-40e9-8131-b7884eda37eb","system_id":"levelo_inurba_marseille","lat":43.29938,"lon":5.39407,"is_reserved":false,"is_disabled":false,"rental_uris":{"android":"levelo://app?vid=de77abfa-6f74-40e9-8131-b7884eda37eb","ios":"levelo://app?vid=de77abfa-6f74-40e9-8131-b7884eda37eb"},"vehicle_type_id":"4","last_reported":1739369318,"current_range_meters":25600,"station_id":"","pricing_plan_id":"cebpf4jnsgd1na2vs0mg"},{"bike_id":"6536fdfe-60f2-4069-9713-9a9d729a0c4e","system_id":"levelo_inurba_marseille","lat":43.28,"lon":5.40008,"is_reserved":false,"is_disabled":false,"rental_uris":{"android":"levelo://app?vid=6536fdfe-60f2-4069-9713-9a9d729a0c4e","ios":"levelo://app?vid=6536fdfe-60f2-4069-9713-9a9d729a0c4e"},"vehicle_type_id":"4","last_reported":1739369318,"current_range_meters":37600,"station_id":"ce4bho92rcd13ifvqh4g","pricing_plan_id":"cebpf4jnsgd1na2vs0mg"},{"bike_id":"aa081435-b5f9-4834-b16c-7f35c836b33a","system_id":"levelo_inurba_marseille","lat":43.30118,"lon":5.37441,"is_reserved":false,"is_disabled":false,"rental_uris":{"android":"levelo://app?vid=aa081435-b5f9-4834-b16c-7f35c836b33a","ios":"levelo://app?vid=aa081435-b5f9-4834-b16c-7f35c836b33a"},"vehicle_type_id":"4","last_reported":1739369318,"current_range_meters":36800,"station_id":"ce4bgs92rcd13ifvqcc0","pricing_plan_id":"cebpf4jnsgd1na2vs0mg"},{"bike_id":"ee079ffa-4416-4a91-bc98-3bd665acea3b","system_id":"levelo_inurba_marseille","lat":43.33731,"lon":5.39174,"is_reserved":false,"is_disabled":false,"rental_uris":{"android":"levelo://app?vid=ee079ffa-4416-4a91-bc98-3bd665acea3b","ios":"levelo://app?vid=ee079ffa-4416-4a91-bc98-3bd665acea3b"},"vehicle_type_id":"4","last_reported":1739369318,"current_range_meters":38800,"station_id":"ce4bhr92rcd13ifvqhsg","pricing_plan_id":"cebpf4jnsgd1na2vs0mg"},{"bike_id":"1fa82dc6-47d4-4356-bbca-393bf4461726","system_id":"levelo_inurba_marseille","lat":43.23963,"lon":5.36629,"is_reserved":false,"is_disabled":false,"rental_uris":{"android":"levelo://app?vid=1fa82dc6-47d4-4356-bbca-393bf4461726","ios":"levelo://app?vid=1fa82dc6-47d4-4356-bbca-393bf4461726"},"vehicle_type_id":"4","last_reported":1739369318,"current_range_meters":12800,"station_id":"ce4bhi12rcd13ifvqfp0","pricing_plan_id":"cebpf4jnsgd1na2vs0mg"},{"bike_id":"5619d8cb-1470-4f34-b601-3725ed3721d6","system_id":"levelo_inurba_marseille","lat":43.31707,"lon":5.37762,"is_reserved":false,"is_disabled":false,"rental_uris":{"android":"levelo://app?vid=5619d8cb-1470-4f34-b601-3725ed3721d6","ios":"levelo://app?vid=5619d8cb-1470-4f34-b601-3725ed3721d6"},"vehicle_type_id":"4","last_reported":1739369318,"current_range_meters":27600,"station_id":"ce4bgth2rcd13ifvqch0","pricing_plan_id":"cebpf4jnsgd1na2vs0mg"},{"bike_id":"42d75ddc-d462-40bc-a7f3-a489a173066f","system_id":"levelo_inurba_marseille","lat":43.28728,"lon":5.36094,"is_reserved":false,"is_disabled":false,"rental_uris":{"android":"levelo://app?vid=42d75ddc-d462-40bc-a7f3-a489a173066f","ios":"levelo://app?vid=42d75ddc-d462-40bc-a7f3-a489a173066f"},"vehicle_type_id":"4","last_reported":1739369318,"current_range_meters":25600,"station_id":"cki0cbj6b192h4jlfktg","pricing_plan_id":"cebpf4jnsgd1na2vs0mg"},{"bike_id":"e903e33f-f5a5-499e-a34c-22eb3cafde37","system_id":"levelo_inurba_marseille","lat":43.29897,"lon":5.43665,"is_reserved":false,"is_disabled":false,"rental_uris":{"android":"levelo://app?vid=e903e33f-f5a5-499e-a34c-22eb3cafde37","ios":"levelo://app?vid=e903e33f-f5a5-499e-a34c-22eb3cafde37"},"vehicle_type_id":"4","last_reported":1739369318,"current_range_meters":10800,"station_id":"ce4bhpp2rcd13ifvqhfg","pricing_plan_id":"cebpf4jnsgd1na2vs0mg"},{"bike_id":"23d748fe-d2fd-4357-8c0a-18133dabd7ec","system_id":"levelo_inurba_marseille","lat":43.32478,"lon":5.36569,"is_reserved":false,"is_disabled":false,"rental_uris":{"android":"levelo://app?vid=23d748fe-d2fd-4357-8c0a-18133dabd7ec","ios":"levelo://app?vid=23d748fe-d2fd-4357-8c0a-18133dabd7ec"},"vehicle_type_id":"4","last_reported":1739369318,"current_range_meters":39200,"station_id":"ce4bhs12rcd13ifvqhvg","pricing_plan_id":"cebpf4jnsgd1na2vs0mg"},{"bike_id":"bc9b283e-d1e3-4ecc-baae-e649ca388761","system_id":"levelo_inurba_marseille","lat":43.30134,"lon":5.37421,"is_reserved":false,"is_disabled":false,"rental_uris":{"android":"levelo://app?vid=bc9b283e-d1e3-4ecc-baae-e649ca388761","ios":"levelo://app?vid=bc9b283e-d1e3-4ecc-baae-e649ca388761"},"vehicle_type_id":"4","last_reported":1739369318,"current_range_meters":36000,"station_id":"ce4bgs92rcd13ifvqcc0","pricing_plan_id":"cebpf4jnsgd1na2vs0mg"},{"bike_id":"3adb6699-f719-4456-92ab-1968693e97fb","system_id":"levelo_inurba_marseille","lat":43.24168,"lon":5.36385,"is_reserved":false,"is_disabled":false,"rental_uris":{"android":"levelo://app?vid=3adb6699-f719-4456-92ab-1968693e97fb","ios":"levelo://app?vid=3adb6699-f719-4456-92ab-1968693e97fb"},"vehicle_type_id":"4","last_reported":1739369318,"current_range_meters":27200,"station_id":"cpo36qri1sfpv3e86is0","pricing_plan_id":"cebpf4jnsgd1na2vs0mg"},{"bike_id":"496fa2ad-a547-4095-b8b9-a29f1a78ab4b","system_id":"levelo_inurba_marseille","lat":43.27811,"lon":5.4072,"is_reserved":false,"is_disabled":false,"rental_uris":{"android":"levelo://app?vid=496fa2ad-a547-4095-b8b9-a29f1a78ab4b","ios":"levelo://app?vid=496fa2ad-a547-4095-b8b9-a29f1a78ab4b"},"vehicle_type_id":"4","last_reported":1739369318,"current_range_meters":32400,"station_id":"ce4bhnh2rcd13ifvqgtg","pricing_plan_id":"cebpf4jnsgd1na2vs0mg"},{"bike_id":"2d708f40-fafd-4352-afb2-83f671d6d30f","system_id":"levelo_inurba_marseille","lat":43.2961,"lon":5.37725,"is_reserved":false,"is_disabled":false,"rental_uris":{"android":"levelo://app?vid=2d708f40-fafd-4352-afb2-83f671d6d30f","ios":"levelo://app?vid=2d708f40-fafd-4352-afb2-83f671d6d30f"},"vehicle_type_id":"4","last_reported":1739369318,"current_range_meters":17600,"station_id":"ce4bgi92rcd13ifvqb90","pricing_plan_id":"cebpf4jnsgd1na2vs0mg"},{"bike_id":"149626b9-1ac5-4f2c-ad21-b13aaef1dba9","system_id":"levelo_inurba_marseille","lat":43.28602,"lon":5.37065,"is_reserved":false,"is_disabled":false,"rental_uris":{"android":"levelo://app?vid=149626b9-1ac5-4f2c-ad21-b13aaef1dba9","ios":"levelo://app?vid=149626b9-1ac5-4f2c-ad21-b13aaef1dba9"},"vehicle_type_id":"4","last_reported":1739369318,"current_range_meters":33200,"station_id":"ce4bht12rcd13ifvqi60","pricing_plan_id":"cebpf4jnsgd1na2vs0mg"},{"bike_id":"de5a77db-8e65-4f0c-8fc5-691971b52a7d","system_id":"levelo_inurba_marseille","lat":43.29619,"lon":5.37152,"is_reserved":false,"is_disabled":true,"rental_uris":{"android":"levelo://app?vid=de5a77db-8e65-4f0c-8fc5-691971b52a7d","ios":"levelo://app?vid=de5a77db-8e65-4f0c-8fc5-691971b52a7d"},"vehicle_type_id":"4","last_reported":1739369318,"current_range_meters":0,"station_id":"ce4bgnh2rcd13ifvqc0g","pricing_plan_id":"cebpf4jnsgd1na2vs0mg"},{"bike_id":"45c5718d-4e45-4fa7-9422-612adbf02fc3","system_id":"levelo_inurba_marseille","lat":43.29551,"lon":5.42276,"is_reserved":false,"is_disabled":false,"rental_uris":{"android":"levelo://app?vid=45c5718d-4e45-4fa7-9422-612adbf02fc3","ios":"levelo://app?vid=45c5718d-4e45-4fa7-9422-612adbf02fc3"},"vehicle_type_id":"4","last_reported":1739369318,"current_range_meters":24800,"station_id":"ce4bhph2rcd13ifvqhdg","pricing_plan_id":"cebpf4jnsgd1na2vs0mg"},{"bike_id":"693269d9-6ed0-4fb9-817f-d49481e23c48","system_id":"levelo_inurba_marseille","lat":43.29557,"lon":5.42288,"is_reserved":false,"is_disabled":false,"rental_uris":{"android":"levelo://app?vid=693269d9-6ed0-4fb9-817f-d49481e23c48","ios":"levelo://app?vid=693269d9-6ed0-4fb9-817f-d49481e23c48"},"vehicle_type_id":"4","last_reported":1739369318,"current_range_meters":36000,"station_id":"ce4bhph2rcd13ifvqhdg","pricing_plan_id":"cebpf4jnsgd1na2vs0mg"},{"bike_id":"3d01ee57-be5d-4165-815d-c5b06c8be331","system_id":"levelo_inurba_marseille","lat":43.24999,"lon":5.39055,"is_reserved":false,"is_disabled":false,"rental_uris":{"android":"levelo://app?vid=3d01ee57-be5d-4165-815d-c5b06c8be331","ios":"levelo://app?vid=3d01ee57-be5d-4165-815d-c5b06c8be331"},"vehicle_type_id":"4","last_reported":1739369318,"current_range_meters":38800,"station_id":"ce4bhgp2rcd13ifvqfd0","pricing_plan_id":"cebpf4jnsgd1na2vs0mg"},{"bike_id":"59f51b0b-c93f-449c-9a31-f8517def2e72","system_id":"levelo_inurba_marseille","lat":43.30536,"lon":5.3653,"is_reserved":false,"is_disabled":false,"rental_uris":{"android":"levelo://app?vid=59f51b0b-c93f-449c-9a31-f8517def2e72","ios":"levelo://app?vid=59f51b0b-c93f-449c-9a31-f8517def2e72"},"vehicle_type_id":"4","last_reported":1739369318,"current_range_meters":33600,"station_id":"ce4bgs12rcd13ifvqcag","pricing_plan_id":"cebpf4jnsgd1na2vs0mg"},{"bike_id":"c07ffd3b-1b45-4f4f-af96-2b31373f9d65","system_id":"levelo_inurba_marseille","lat":43.24168,"lon":5.36404,"is_reserved":false,"is_disabled":false,"rental_uris":{"android":"levelo://app?vid=c07ffd3b-1b45-4f4f-af96-2b31373f9d65","ios":"levelo://app?vid=c07ffd3b-1b45-4f4f-af96-2b31373f9d65"},"vehicle_type_id":"4","last_reported":1739369318,"current_range_meters":27600,"station_id":"cpo36qri1sfpv3e86is0","pricing_plan_id":"cebpf4jnsgd1na2vs0mg"},{"bike_id":"76ed4e97-7fa9-4836-bcd3-e52753ef31b4","system_id":"levelo_inurba_marseille","lat":43.29852,"lon":5.3626,"is_reserved":false,"is_disabled":false,"rental_uris":{"android":"levelo://app?vid=76ed4e97-7fa9-4836-bcd3-e52753ef31b4","ios":"levelo://app?vid=76ed4e97-7fa9-4836-bcd3-e52753ef31b4"},"vehicle_type_id":"4","last_reported":1739369318,"current_range_meters":38400,"station_id":"ce4bgpp2rcd13ifvqc3g","pricing_plan_id":"cebpf4jnsgd1na2vs0mg"},{"bike_id":"c7bc6c29-4428-4776-8887-40cdf4ffea56","system_id":"levelo_inurba_marseille","lat":43.31481,"lon":5.37305,"is_reserved":false,"is_disabled":false,"rental_uris":{"android":"levelo://app?vid=c7bc6c29-4428-4776-8887-40cdf4ffea56","ios":"levelo://app?vid=c7bc6c29-4428-4776-8887-40cdf4ffea56"},"vehicle_type_id":"4","last_reported":1739369318,"current_range_meters":36800,"station_id":"ce4bgt12rcd13ifvqcd0","pricing_plan_id":"cebpf4jnsgd1na2vs0mg"},{"bike_id":"d32849cf-4c14-4032-9063-172d06d3f04f","system_id":"levelo_inurba_marseille","lat":43.23193,"lon":5.35566,"is_reserved":false,"is_disabled":false,"rental_uris":{"android":"levelo://app?vid=d32849cf-4c14-4032-9063-172d06d3f04f","ios":"levelo://app?vid=d32849cf-4c14-4032-9063-172d06d3f04f"},"vehicle_type_id":"4","last_reported":1739369318,"current_range_meters":30800,"station_id":"ce4bhu92rcd13ifvqi70","pricing_plan_id":"cebpf4jnsgd1na2vs0mg"},{"bike_id":"2ff86c0c-69fd-4294-8842-114f3593748f","system_id":"levelo_inurba_marseille","lat":43.313639,"lon":5.367288,"is_reserved":false,"is_disabled":false,"rental_uris":{"android":"levelo://app?vid=2ff86c0c-69fd-4294-8842-114f3593748f","ios":"levelo://app?vid=2ff86c0c-69fd-4294-8842-114f3593748f"},"vehicle_type_id":"4","last_reported":1739369318,"current_range_meters":36800,"station_id":"ce4bgr92rcd13ifvqc6g","pricing_plan_id":"cebpf4jnsgd1na2vs0mg"},{"bike_id":"c6339eaf-56e8-4560-a790-bdb55b253869","system_id":"levelo_inurba_marseille","lat":43.2925,"lon":5.38432,"is_reserved":false,"is_disabled":false,"rental_uris":{"android":"levelo://app?vid=c6339eaf-56e8-4560-a790-bdb55b253869","ios":"levelo://app?vid=c6339eaf-56e8-4560-a790-bdb55b253869"},"vehicle_type_id":"4","last_reported":1739369318,"current_range_meters":30000,"station_id":"ce4bh692rcd13ifvqea0","pricing_plan_id":"cebpf4jnsgd1na2vs0mg"},{"bike_id":"35d5b8a1-581e-4efc-9ed2-ca710b07f409","system_id":"levelo_inurba_marseille","lat":43.29578,"lon":5.37508,"is_reserved":false,"is_disabled":false,"rental_uris":{"android":"levelo://app?vid=35d5b8a1-581e-4efc-9ed2-ca710b07f409","ios":"levelo://app?vid=35d5b8a1-581e-4efc-9ed2-ca710b07f409"},"vehicle_type_id":"4","last_reported":1739369318,"current_range_meters":38800,"station_id":"ce4bgh92rcd13ifvqb50","pricing_plan_id":"cebpf4jnsgd1na2vs0mg"},{"bike_id":"536366d2-282b-48e8-9268-35b7ee369088","system_id":"levelo_inurba_marseille","lat":43.25004,"lon":5.38948,"is_reserved":false,"is_disabled":false,"rental_uris":{"android":"levelo://app?vid=536366d2-282b-48e8-9268-35b7ee369088","ios":"levelo://app?vid=536366d2-282b-48e8-9268-35b7ee369088"},"vehicle_type_id":"4","last_reported":1739369318,"current_range_meters":30000,"station_id":"ce4bhgp2rcd13ifvqfd0","pricing_plan_id":"cebpf4jnsgd1na2vs0mg"},{"bike_id":"09a31e22-31a3-4a8b-a8f3-c6b84a9cc357","system_id":"levelo_inurba_marseille","lat":43.27549,"lon":5.38421,"is_reserved":false,"is_disabled":false,"rental_uris":{"android":"levelo://app?vid=09a31e22-31a3-4a8b-a8f3-c6b84a9cc357","ios":"levelo://app?vid=09a31e22-31a3-4a8b-a8f3-c6b84a9cc357"},"vehicle_type_id":"4","last_reported":1739369318,"current_range_meters":24000,"station_id":"ce4bhh92rcd13ifvqfi0","pricing_plan_id":"cebpf4jnsgd1na2vs0mg"},{"bike_id":"b7cfafc0-fba3-47fa-8c3d-d96c6bee1f7a","system_id":"levelo_inurba_marseille","lat":43.2439,"lon":5.370596,"is_reserved":false,"is_disabled":false,"rental_uris":{"android":"levelo://app?vid=b7cfafc0-fba3-47fa-8c3d-d96c6bee1f7a","ios":"levelo://app?vid=b7cfafc0-fba3-47fa-8c3d-d96c6bee1f7a"},"vehicle_type_id":"4","last_reported":1739369318,"current_range_meters":30000,"station_id":"ce4bhhh2rcd13ifvqfk0","pricing_plan_id":"cebpf4jnsgd1na2vs0mg"},{"bike_id":"9ba133ba-7b58-4607-8737-7fb5bce66e58","system_id":"levelo_inurba_marseille","lat":43.24408,"lon":5.37038,"is_reserved":false,"is_disabled":false,"rental_uris":{"android":"levelo://app?vid=9ba133ba-7b58-4607-8737-7fb5bce66e58","ios":"levelo://app?vid=9ba133ba-7b58-4607-8737-7fb5bce66e58"},"vehicle_type_id":"4","last_reported":1739369318,"current_range_meters":12400,"station_id":"ce4bhhh2rcd13ifvqfk0","pricing_plan_id":"cebpf4jnsgd1na2vs0mg"},{"bike_id":"24d2a29b-fa24-4c85-a726-541b11d56bc0","system_id":"levelo_inurba_marseille","lat":43.31332,"lon":5.36704,"is_reserved":false,"is_disabled":false,"rental_uris":{"android":"levelo://app?vid=24d2a29b-fa24-4c85-a726-541b11d56bc0","ios":"levelo://app?vid=24d2a29b-fa24-4c85-a726-541b11d56bc0"},"vehicle_type_id":"4","last_reported":1739369318,"current_range_meters":13600,"station_id":"ce4bgr92rcd13ifvqc6g","pricing_plan_id":"cebpf4jnsgd1na2vs0mg"},{"bike_id":"3e05173f-c640-4ed3-a2ba-c06426ae393a","system_id":"levelo_inurba_marseille","lat":43.299,"lon":5.39733,"is_reserved":false,"is_disabled":false,"rental_uris":{"android":"levelo://app?vid=3e05173f-c640-4ed3-a2ba-c06426ae393a","ios":"levelo://app?vid=3e05173f-c640-4ed3-a2ba-c06426ae393a"},"vehicle_type_id":"4","last_reported":1739369318,"current_range_meters":39200,"station_id":"ce4bh0h2rcd13ifvqd50","pricing_plan_id":"cebpf4jnsgd1na2vs0mg"},{"bike_id":"8ec577f3-8ca3-449b-97e8-b869a3caa09d","system_id":"levelo_inurba_marseille","lat":43.295643,"lon":5.375117,"is_reserved":false,"is_disabled":false,"rental_uris":{"android":"levelo://app?vid=8ec577f3-8ca3-449b-97e8-b869a3caa09d","ios":"levelo://app?vid=8ec577f3-8ca3-449b-97e8-b869a3caa09d"},"vehicle_type_id":"4","last_reported":1739369318,"current_range_meters":21600,"station_id":"ce4bgh92rcd13ifvqb50","pricing_plan_id":"cebpf4jnsgd1na2vs0mg"},{"bike_id":"34c1fb65-c4de-4ac6-b6c5-fd41b5df44e2","system_id":"levelo_inurba_marseille","lat":43.30884,"lon":5.37176,"is_reserved":false,"is_disabled":false,"rental_uris":{"android":"levelo://app?vid=34c1fb65-c4de-4ac6-b6c5-fd41b5df44e2","ios":"levelo://app?vid=34c1fb65-c4de-4ac6-b6c5-fd41b5df44e2"},"vehicle_type_id":"4","last_reported":1739369318,"current_range_meters":32400,"station_id":"ce4bguh2rcd13ifvqckg","pricing_plan_id":"cebpf4jnsgd1na2vs0mg"},{"bike_id":"14b2070b-6ddc-42e3-b1e8-9c0cbc081f72","system_id":"levelo_inurba_marseille","lat":43.33727,"lon":5.39184,"is_reserved":false,"is_disabled":false,"rental_uris":{"android":"levelo://app?vid=14b2070b-6ddc-42e3-b1e8-9c0cbc081f72","ios":"levelo://app?vid=14b2070b-6ddc-42e3-b1e8-9c0cbc081f72"},"vehicle_type_id":"4","last_reported":1739369318,"current_range_meters":38800,"station_id":"ce4bhr92rcd13ifvqhsg","pricing_plan_id":"cebpf4jnsgd1na2vs0mg"},{"bike_id":"4bbcedc6-dcb6-4c54-8729-7dfa03c3fd3c","system_id":"levelo_inurba_marseille","lat":43.30458,"lon":5.37911,"is_reserved":false,"is_disabled":false,"rental_uris":{"android":"levelo://app?vid=4bbcedc6-dcb6-4c54-8729-7dfa03c3fd3c","ios":"levelo://app?vid=4bbcedc6-dcb6-4c54-8729-7dfa03c3fd3c"},"vehicle_type_id":"4","last_reported":1739369318,"current_range_meters":3600,"station_id":"ce4bgup2rcd13ifvqcn0","pricing_plan_id":"cebpf4jnsgd1na2vs0mg"},{"bike_id":"8bd6ca36-73a4-4e93-8710-0833574e1c13","system_id":"levelo_inurba_marseille","lat":43.28421,"lon":5.34982,"is_reserved":false,"is_disabled":false,"rental_uris":{"android":"levelo://app?vid=8bd6ca36-73a4-4e93-8710-0833574e1c13","ios":"levelo://app?vid=8bd6ca36-73a4-4e93-8710-0833574e1c13"},"vehicle_type_id":"4","last_reported":1739369318,"current_range_meters":16800,"station_id":"ce4bhbh2rcd13ifvqepg","pricing_plan_id":"cebpf4jnsgd1na2vs0mg"},{"bike_id":"6faed4ab-747b-4d16-ab2c-7f8fe8600acf","system_id":"levelo_inurba_marseille","lat":43.28155,"lon":5.42644,"is_reserved":false,"is_disabled":false,"rental_uris":{"android":"levelo://app?vid=6faed4ab-747b-4d16-ab2c-7f8fe8600acf","ios":"levelo://app?vid=6faed4ab-747b-4d16-ab2c-7f8fe8600acf"},"vehicle_type_id":"4","last_reported":1739369318,"current_range_meters":11200,"station_id":"ce4bhnh2rcd13ifvqgug","pricing_plan_id":"cebpf4jnsgd1na2vs0mg"},{"bike_id":"679672e6-2052-4088-a59e-97b09e4b2e39","system_id":"levelo_inurba_marseille","lat":43.27997,"lon":5.40029,"is_reserved":false,"is_disabled":false,"rental_uris":{"android":"levelo://app?vid=679672e6-2052-4088-a59e-97b09e4b2e39","ios":"levelo://app?vid=679672e6-2052-4088-a59e-97b09e4b2e39"},"vehicle_type_id":"4","last_reported":1739369318,"current_range_meters":28000,"station_id":"ce4bho92rcd13ifvqh4g","pricing_plan_id":"cebpf4jnsgd1na2vs0mg"},{"bike_id":"eb859956-8a0c-427e-ad1a-241d5b73c8c3","system_id":"levelo_inurba_marseille","lat":43.27052,"lon":5.40261,"is_reserved":false,"is_disabled":false,"rental_uris":{"android":"levelo://app?vid=eb859956-8a0c-427e-ad1a-241d5b73c8c3","ios":"levelo://app?vid=eb859956-8a0c-427e-ad1a-241d5b73c8c3"},"vehicle_type_id":"4","last_reported":1739369318,"current_range_meters":25600,"station_id":"ce4bhk92rcd13ifvqgc0","pricing_plan_id":"cebpf4jnsgd1na2vs0mg"},{"bike_id":"446e537a-5ffc-4541-92a1-522566e79d97","system_id":"levelo_inurba_marseille","lat":43.30644,"lon":5.40101,"is_reserved":false,"is_disabled":false,"rental_uris":{"android":"levelo://app?vid=446e537a-5ffc-4541-92a1-522566e79d97","ios":"levelo://app?vid=446e537a-5ffc-4541-92a1-522566e79d97"},"vehicle_type_id":"4","last_reported":1739369318,"current_range_meters":22400,"station_id":"ce4bh112rcd13ifvqda0","pricing_plan_id":"cebpf4jnsgd1na2vs0mg"},{"bike_id":"c6db21d7-d9e3-4a71-aaf3-94276ad01457","system_id":"levelo_inurba_marseille","lat":43.32914,"lon":5.3603,"is_reserved":false,"is_disabled":false,"rental_uris":{"android":"levelo://app?vid=c6db21d7-d9e3-4a71-aaf3-94276ad01457","ios":"levelo://app?vid=c6db21d7-d9e3-4a71-aaf3-94276ad01457"},"vehicle_type_id":"4","last_reported":1739369318,"current_range_meters":36800,"station_id":"","pricing_plan_id":"cebpf4jnsgd1na2vs0mg"},{"bike_id":"9c83f15d-2605-4f7f-87d6-d924311bf01d","system_id":"levelo_inurba_marseille","lat":43.30158,"lon":5.38072,"is_reserved":false,"is_disabled":false,"rental_uris":{"android":"levelo://app?vid=9c83f15d-2605-4f7f-87d6-d924311bf01d","ios":"levelo://app?vid=9c83f15d-2605-4f7f-87d6-d924311bf01d"},"vehicle_type_id":"4","last_reported":1739369318,"current_range_meters":16800,"station_id":"ce4bgjp2rcd13ifvqbh0","pricing_plan_id":"cebpf4jnsgd1na2vs0mg"},{"bike_id":"acd088e7-dc82-4cb8-8e19-47754c61567c","system_id":"levelo_inurba_marseille","lat":43.31339,"lon":5.36735,"is_reserved":false,"is_disabled":false,"rental_uris":{"android":"levelo://app?vid=acd088e7-dc82-4cb8-8e19-47754c61567c","ios":"levelo://app?vid=acd088e7-dc82-4cb8-8e19-47754c61567c"},"vehicle_type_id":"4","last_reported":1739369318,"current_range_meters":34000,"station_id":"ce4bgr92rcd13ifvqc6g","pricing_plan_id":"cebpf4jnsgd1na2vs0mg"},{"bike_id":"37fee8de-7920-4095-90fd-dbb82aabca95","system_id":"levelo_inurba_marseille","lat":43.31347,"lon":5.36738,"is_reserved":false,"is_disabled":false,"rental_uris":{"android":"levelo://app?vid=37fee8de-7920-4095-90fd-dbb82aabca95","ios":"levelo://app?vid=37fee8de-7920-4095-90fd-dbb82aabca95"},"vehicle_type_id":"4","last_reported":1739369318,"current_range_meters":28000,"station_id":"ce4bgr92rcd13ifvqc6g","pricing_plan_id":"cebpf4jnsgd1na2vs0mg"},{"bike_id":"201b14f4-65c7-45ff-8010-fe136e6675ac","system_id":"levelo_inurba_marseille","lat":43.24178,"lon":5.39737,"is_reserved":false,"is_disabled":false,"rental_uris":{"android":"levelo://app?vid=201b14f4-65c7-45ff-8010-fe136e6675ac","ios":"levelo://app?vid=201b14f4-65c7-45ff-8010-fe136e6675ac"},"vehicle_type_id":"4","last_reported":1739369318,"current_range_meters":20400,"station_id":"ce4bhn12rcd13ifvqgpg","pricing_plan_id":"cebpf4jnsgd1na2vs0mg"},{"bike_id":"39cd8cf8-9ed2-44d6-ba57-f98d3537b98a","system_id":"levelo_inurba_marseille","lat":43.31499,"lon":5.37302,"is_reserved":false,"is_disabled":false,"rental_uris":{"android":"levelo://app?vid=39cd8cf8-9ed2-44d6-ba57-f98d3537b98a","ios":"levelo://app?vid=39cd8cf8-9ed2-44d6-ba57-f98d3537b98a"},"vehicle_type_id":"4","last_reported":1739369318,"current_range_meters":38800,"station_id":"ce4bgt12rcd13ifvqcd0","pricing_plan_id":"cebpf4jnsgd1na2vs0mg"},{"bike_id":"633ee410-a622-4f2b-b14d-b5ba920c9e3f","system_id":"levelo_inurba_marseille","lat":43.28855,"lon":5.39321,"is_reserved":false,"is_disabled":false,"rental_uris":{"android":"levelo://app?vid=633ee410-a622-4f2b-b14d-b5ba920c9e3f","ios":"levelo://app?vid=633ee410-a622-4f2b-b14d-b5ba920c9e3f"},"vehicle_type_id":"4","last_reported":1739369318,"current_range_meters":38400,"station_id":"ce4bh2p2rcd13ifvqdi0","pricing_plan_id":"cebpf4jnsgd1na2vs0mg"},{"bike_id":"d621c70c-2587-4929-b5ff-d7c8758fd1f2","system_id":"levelo_inurba_marseille","lat":43.27051,"lon":5.40266,"is_reserved":false,"is_disabled":false,"rental_uris":{"android":"levelo://app?vid=d621c70c-2587-4929-b5ff-d7c8758fd1f2","ios":"levelo://app?vid=d621c70c-2587-4929-b5ff-d7c8758fd1f2"},"vehicle_type_id":"4","last_reported":1739369318,"current_range_meters":2800,"station_id":"ce4bhk92rcd13ifvqgc0","pricing_plan_id":"cebpf4jnsgd1na2vs0mg"},{"bike_id":"6e7d3d9b-4a1e-44cb-a74d-08fc3df39ea4","system_id":"levelo_inurba_marseille","lat":43.25724,"lon":5.4111,"is_reserved":false,"is_disabled":false,"rental_uris":{"android":"levelo://app?vid=6e7d3d9b-4a1e-44cb-a74d-08fc3df39ea4","ios":"levelo://app?vid=6e7d3d9b-4a1e-44cb-a74d-08fc3df39ea4"},"vehicle_type_id":"4","last_reported":1739369318,"current_range_meters":24000,"station_id":"ce4bhkp2rcd13ifvqgd0","pricing_plan_id":"cebpf4jnsgd1na2vs0mg"},{"bike_id":"ebf0bb9b-0acb-450a-9cd0-fdb054435e9c","system_id":"levelo_inurba_marseille","lat":43.31158,"lon":5.38717,"is_reserved":false,"is_disabled":false,"rental_uris":{"android":"levelo://app?vid=ebf0bb9b-0acb-450a-9cd0-fdb054435e9c","ios":"levelo://app?vid=ebf0bb9b-0acb-450a-9cd0-fdb054435e9c"},"vehicle_type_id":"4","last_reported":1739369318,"current_range_meters":17200,"station_id":"ce4bgv12rcd13ifvqcp0","pricing_plan_id":"cebpf4jnsgd1na2vs0mg"},{"bike_id":"ddbfc913-16cf-4d9f-a892-35d08e1e6767","system_id":"levelo_inurba_marseille","lat":43.29612,"lon":5.36732,"is_reserved":false,"is_disabled":false,"rental_uris":{"android":"levelo://app?vid=ddbfc913-16cf-4d9f-a892-35d08e1e6767","ios":"levelo://app?vid=ddbfc913-16cf-4d9f-a892-35d08e1e6767"},"vehicle_type_id":"4","last_reported":1739369318,"current_range_meters":10800,"station_id":"ce4bgph2rcd13ifvqc2g","pricing_plan_id":"cebpf4jnsgd1na2vs0mg"},{"bike_id":"0a77f424-9d7d-4010-bd33-1687a2ffd57e","system_id":"levelo_inurba_marseille","lat":43.24799,"lon":5.37452,"is_reserved":false,"is_disabled":false,"rental_uris":{"android":"levelo://app?vid=0a77f424-9d7d-4010-bd33-1687a2ffd57e","ios":"levelo://app?vid=0a77f424-9d7d-4010-bd33-1687a2ffd57e"},"vehicle_type_id":"4","last_reported":1739369318,"current_range_meters":9600,"station_id":"ce4bhgh2rcd13ifvqfb0","pricing_plan_id":"cebpf4jnsgd1na2vs0mg"},{"bike_id":"7ceeb2e5-8673-48b0-9f08-9e1430bd1bc6","system_id":"levelo_inurba_marseille","lat":43.28415,"lon":5.38431,"is_reserved":false,"is_disabled":false,"rental_uris":{"android":"levelo://app?vid=7ceeb2e5-8673-48b0-9f08-9e1430bd1bc6","ios":"levelo://app?vid=7ceeb2e5-8673-48b0-9f08-9e1430bd1bc6"},"vehicle_type_id":"4","last_reported":1739369318,"current_range_meters":38800,"station_id":"","pricing_plan_id":"cebpf4jnsgd1na2vs0mg"},{"bike_id":"c2250f20-2283-4e17-b7ce-382f2f740aa1","system_id":"levelo_inurba_marseille","lat":43.24797,"lon":5.37465,"is_reserved":false,"is_disabled":false,"rental_uris":{"android":"levelo://app?vid=c2250f20-2283-4e17-b7ce-382f2f740aa1","ios":"levelo://app?vid=c2250f20-2283-4e17-b7ce-382f2f740aa1"},"vehicle_type_id":"4","last_reported":1739369318,"current_range_meters":38800,"station_id":"ce4bhgh2rcd13ifvqfb0","pricing_plan_id":"cebpf4jnsgd1na2vs0mg"},{"bike_id":"0199fbd8-d59d-42ac-a445-d05a8f60ab5d","system_id":"levelo_inurba_marseille","lat":43.24804,"lon":5.37454,"is_reserved":false,"is_disabled":false,"rental_uris":{"android":"levelo://app?vid=0199fbd8-d59d-42ac-a445-d05a8f60ab5d","ios":"levelo://app?vid=0199fbd8-d59d-42ac-a445-d05a8f60ab5d"},"vehicle_type_id":"4","last_reported":1739369318,"current_range_meters":33200,"station_id":"ce4bhgh2rcd13ifvqfb0","pricing_plan_id":"cebpf4jnsgd1na2vs0mg"},{"bike_id":"d52467fa-3015-4742-aee2-f7ab48c12d28","system_id":"levelo_inurba_marseille","lat":43.30311,"lon":5.36892,"is_reserved":false,"is_disabled":false,"rental_uris":{"android":"levelo://app?vid=d52467fa-3015-4742-aee2-f7ab48c12d28","ios":"levelo://app?vid=d52467fa-3015-4742-aee2-f7ab48c12d28"},"vehicle_type_id":"4","last_reported":1739369318,"current_range_meters":14800,"station_id":"ce4bgqh2rcd13ifvqc5g","pricing_plan_id":"cebpf4jnsgd1na2vs0mg"},{"bike_id":"64cf455a-ecc8-403c-bf04-31784242b18d","system_id":"levelo_inurba_marseille","lat":43.29367,"lon":5.37839,"is_reserved":false,"is_disabled":false,"rental_uris":{"android":"levelo://app?vid=64cf455a-ecc8-403c-bf04-31784242b18d","ios":"levelo://app?vid=64cf455a-ecc8-403c-bf04-31784242b18d"},"vehicle_type_id":"4","last_reported":1739369318,"current_range_meters":39200,"station_id":"ce4bgjh2rcd13ifvqbf0","pricing_plan_id":"cebpf4jnsgd1na2vs0mg"},{"bike_id":"fe3424e3-a348-48e5-9e41-be02e3e2afed","system_id":"levelo_inurba_marseille","lat":43.27451,"lon":5.41039,"is_reserved":false,"is_disabled":false,"rental_uris":{"android":"levelo://app?vid=fe3424e3-a348-48e5-9e41-be02e3e2afed","ios":"levelo://app?vid=fe3424e3-a348-48e5-9e41-be02e3e2afed"},"vehicle_type_id":"4","last_reported":1739369318,"current_range_meters":21600,"station_id":"","pricing_plan_id":"cebpf4jnsgd1na2vs0mg"},{"bike_id":"c6ab2079-aa0d-4c6d-8608-a1cea0571a2d","system_id":"levelo_inurba_marseille","lat":43.31709,"lon":5.43674,"is_reserved":false,"is_disabled":false,"rental_uris":{"android":"levelo://app?vid=c6ab2079-aa0d-4c6d-8608-a1cea0571a2d","ios":"levelo://app?vid=c6ab2079-aa0d-4c6d-8608-a1cea0571a2d"},"vehicle_type_id":"4","last_reported":1739369318,"current_range_meters":27600,"station_id":"","pricing_plan_id":"cebpf4jnsgd1na2vs0mg"},{"bike_id":"d3b58dda-3b0c-4227-b0cb-8890146ef189","system_id":"levelo_inurba_marseille","lat":43.30532,"lon":5.36543,"is_reserved":false,"is_disabled":false,"rental_uris":{"android":"levelo://app?vid=d3b58dda-3b0c-4227-b0cb-8890146ef189","ios":"levelo://app?vid=d3b58dda-3b0c-4227-b0cb-8890146ef189"},"vehicle_type_id":"4","last_reported":1739369318,"current_range_meters":38800,"station_id":"ce4bgs12rcd13ifvqcag","pricing_plan_id":"cebpf4jnsgd1na2vs0mg"},{"bike_id":"30b76049-e41b-4adb-862f-755fe2524e05","system_id":"levelo_inurba_marseille","lat":43.288513,"lon":5.393247,"is_reserved":false,"is_disabled":true,"rental_uris":{"android":"levelo://app?vid=30b76049-e41b-4adb-862f-755fe2524e05","ios":"levelo://app?vid=30b76049-e41b-4adb-862f-755fe2524e05"},"vehicle_type_id":"4","last_reported":1739369318,"current_range_meters":36000,"station_id":"","pricing_plan_id":"cebpf4jnsgd1na2vs0mg"},{"bike_id":"ad8b4abb-fa0b-4c1f-abe0-3431ebeb0f61","system_id":"levelo_inurba_marseille","lat":43.26689,"lon":5.38259,"is_reserved":false,"is_disabled":false,"rental_uris":{"android":"levelo://app?vid=ad8b4abb-fa0b-4c1f-abe0-3431ebeb0f61","ios":"levelo://app?vid=ad8b4abb-fa0b-4c1f-abe0-3431ebeb0f61"},"vehicle_type_id":"4","last_reported":1739369318,"current_range_meters":36800,"station_id":"ce4bhg92rcd13ifvqf90","pricing_plan_id":"cebpf4jnsgd1na2vs0mg"},{"bike_id":"084550d1-0260-4e97-97a5-5804dceb22a6","system_id":"levelo_inurba_marseille","lat":43.30889,"lon":5.39647,"is_reserved":false,"is_disabled":false,"rental_uris":{"android":"levelo://app?vid=084550d1-0260-4e97-97a5-5804dceb22a6","ios":"levelo://app?vid=084550d1-0260-4e97-97a5-5804dceb22a6"},"vehicle_type_id":"4","last_reported":1739369318,"current_range_meters":28400,"station_id":"ce4bh012rcd13ifvqcv0","pricing_plan_id":"cebpf4jnsgd1na2vs0mg"},{"bike_id":"bad093d3-dd24-4624-9b06-ef2fd59df429","system_id":"levelo_inurba_marseille","lat":43.29908,"lon":5.3815,"is_reserved":false,"is_disabled":false,"rental_uris":{"android":"levelo://app?vid=bad093d3-dd24-4624-9b06-ef2fd59df429","ios":"levelo://app?vid=bad093d3-dd24-4624-9b06-ef2fd59df429"},"vehicle_type_id":"4","last_reported":1739369318,"current_range_meters":36400,"station_id":"ce4bgj12rcd13ifvqbc0","pricing_plan_id":"cebpf4jnsgd1na2vs0mg"},{"bike_id":"b5c6d8e3-df4e-4921-be7d-a4e22b9e9116","system_id":"levelo_inurba_marseille","lat":43.30554,"lon":5.36721,"is_reserved":false,"is_disabled":false,"rental_uris":{"android":"levelo://app?vid=b5c6d8e3-df4e-4921-be7d-a4e22b9e9116","ios":"levelo://app?vid=b5c6d8e3-df4e-4921-be7d-a4e22b9e9116"},"vehicle_type_id":"4","last_reported":1739369318,"current_range_meters":20000,"station_id":"ce4bgrp2rcd13ifvqc9g","pricing_plan_id":"cebpf4jnsgd1na2vs0mg"},{"bike_id":"ad735933-5b39-445a-9a96-a925f4d265a6","system_id":"levelo_inurba_marseille","lat":43.31755,"lon":5.39014,"is_reserved":false,"is_disabled":false,"rental_uris":{"android":"levelo://app?vid=ad735933-5b39-445a-9a96-a925f4d265a6","ios":"levelo://app?vid=ad735933-5b39-445a-9a96-a925f4d265a6"},"vehicle_type_id":"4","last_reported":1739369318,"current_range_meters":24000,"station_id":"ce4bhqp2rcd13ifvqhng","pricing_plan_id":"cebpf4jnsgd1na2vs0mg"},{"bike_id":"dd77d9b1-3fcc-489f-ae09-be267a74a694","system_id":"levelo_inurba_marseille","lat":43.29681,"lon":5.37288,"is_reserved":false,"is_disabled":false,"rental_uris":{"android":"levelo://app?vid=dd77d9b1-3fcc-489f-ae09-be267a74a694","ios":"levelo://app?vid=dd77d9b1-3fcc-489f-ae09-be267a74a694"},"vehicle_type_id":"4","last_reported":1739369318,"current_range_meters":38800,"station_id":"ce4bgk12rcd13ifvqbj0","pricing_plan_id":"cebpf4jnsgd1na2vs0mg"},{"bike_id":"fc43fbfb-7efa-4ceb-9e46-f2a2801eec5f","system_id":"levelo_inurba_marseille","lat":43.24164,"lon":5.36399,"is_reserved":false,"is_disabled":false,"rental_uris":{"android":"levelo://app?vid=fc43fbfb-7efa-4ceb-9e46-f2a2801eec5f","ios":"levelo://app?vid=fc43fbfb-7efa-4ceb-9e46-f2a2801eec5f"},"vehicle_type_id":"4","last_reported":1739369318,"current_range_meters":27600,"station_id":"cpo36qri1sfpv3e86is0","pricing_plan_id":"cebpf4jnsgd1na2vs0mg"},{"bike_id":"d7816594-0da5-4fca-9af5-15af181c0af5","system_id":"levelo_inurba_marseille","lat":43.25556,"lon":5.38227,"is_reserved":false,"is_disabled":true,"rental_uris":{"android":"levelo://app?vid=d7816594-0da5-4fca-9af5-15af181c0af5","ios":"levelo://app?vid=d7816594-0da5-4fca-9af5-15af181c0af5"},"vehicle_type_id":"4","last_reported":1739369318,"current_range_meters":800,"station_id":"ce4bhih2rcd13ifvqfs0","pricing_plan_id":"cebpf4jnsgd1na2vs0mg"},{"bike_id":"f9f30f0b-1a80-4d54-bb89-d92dcc515c4e","system_id":"levelo_inurba_marseille","lat":43.26925,"lon":5.38919,"is_reserved":false,"is_disabled":false,"rental_uris":{"android":"levelo://app?vid=f9f30f0b-1a80-4d54-bb89-d92dcc515c4e","ios":"levelo://app?vid=f9f30f0b-1a80-4d54-bb89-d92dcc515c4e"},"vehicle_type_id":"4","last_reported":1739369318,"current_range_meters":37600,"station_id":"ce4bhhh2rcd13ifvqfl0","pricing_plan_id":"cebpf4jnsgd1na2vs0mg"},{"bike_id":"78d54cec-e701-4caa-af4d-5bc00d2c196f","system_id":"levelo_inurba_marseille","lat":43.289197,"lon":5.384027,"is_reserved":false,"is_disabled":false,"rental_uris":{"android":"levelo://app?vid=78d54cec-e701-4caa-af4d-5bc00d2c196f","ios":"levelo://app?vid=78d54cec-e701-4caa-af4d-5bc00d2c196f"},"vehicle_type_id":"4","last_reported":1739369318,"current_range_meters":34800,"station_id":"ce4bh612rcd13ifvqe6g","pricing_plan_id":"cebpf4jnsgd1na2vs0mg"},{"bike_id":"6f6dba09-9ceb-4ec0-a4eb-10d8b83b36e7","system_id":"levelo_inurba_marseille","lat":43.295227,"lon":5.390535,"is_reserved":false,"is_disabled":false,"rental_uris":{"android":"levelo://app?vid=6f6dba09-9ceb-4ec0-a4eb-10d8b83b36e7","ios":"levelo://app?vid=6f6dba09-9ceb-4ec0-a4eb-10d8b83b36e7"},"vehicle_type_id":"4","last_reported":1739369318,"current_range_meters":34000,"station_id":"ce4bh3p2rcd13ifvqdp0","pricing_plan_id":"cebpf4jnsgd1na2vs0mg"},{"bike_id":"6cadfead-d63c-4af0-87f9-b7019c165398","system_id":"levelo_inurba_marseille","lat":43.2848,"lon":5.38558,"is_reserved":false,"is_disabled":false,"rental_uris":{"android":"levelo://app?vid=6cadfead-d63c-4af0-87f9-b7019c165398","ios":"levelo://app?vid=6cadfead-d63c-4af0-87f9-b7019c165398"},"vehicle_type_id":"4","last_reported":1739369318,"current_range_meters":27200,"station_id":"ce4bh8p2rcd13ifvqeb0","pricing_plan_id":"cebpf4jnsgd1na2vs0mg"},{"bike_id":"aab14831-3b33-42f6-845b-dcf3319ef343","system_id":"levelo_inurba_marseille","lat":43.28356,"lon":5.38626,"is_reserved":false,"is_disabled":false,"rental_uris":{"android":"levelo://app?vid=aab14831-3b33-42f6-845b-dcf3319ef343","ios":"levelo://app?vid=aab14831-3b33-42f6-845b-dcf3319ef343"},"vehicle_type_id":"4","last_reported":1739369318,"current_range_meters":32000,"station_id":"ce4bh492rcd13ifvqdvg","pricing_plan_id":"cebpf4jnsgd1na2vs0mg"},{"bike_id":"017c7154-481b-45a2-ab83-d5a473f21711","system_id":"levelo_inurba_marseille","lat":43.28727,"lon":5.36082,"is_reserved":false,"is_disabled":false,"rental_uris":{"android":"levelo://app?vid=017c7154-481b-45a2-ab83-d5a473f21711","ios":"levelo://app?vid=017c7154-481b-45a2-ab83-d5a473f21711"},"vehicle_type_id":"4","last_reported":1739369318,"current_range_meters":39200,"station_id":"cki0cbj6b192h4jlfktg","pricing_plan_id":"cebpf4jnsgd1na2vs0mg"},{"bike_id":"e7317b5b-173d-4060-8e4e-467fa10d516f","system_id":"levelo_inurba_marseille","lat":43.3025,"lon":5.40041,"is_reserved":false,"is_disabled":true,"rental_uris":{"android":"levelo://app?vid=e7317b5b-173d-4060-8e4e-467fa10d516f","ios":"levelo://app?vid=e7317b5b-173d-4060-8e4e-467fa10d516f"},"vehicle_type_id":"4","last_reported":1739369318,"current_range_meters":8000,"station_id":"ce4bgvh2rcd13ifvqcs0","pricing_plan_id":"cebpf4jnsgd1na2vs0mg"},{"bike_id":"83930399-1738-4435-81c0-df3ce39f48fe","system_id":"levelo_inurba_marseille","lat":43.29007,"lon":5.3561,"is_reserved":false,"is_disabled":false,"rental_uris":{"android":"levelo://app?vid=83930399-1738-4435-81c0-df3ce39f48fe","ios":"levelo://app?vid=83930399-1738-4435-81c0-df3ce39f48fe"},"vehicle_type_id":"4","last_reported":1739369318,"current_range_meters":38000,"station_id":"ce4bhb92rcd13ifvqen0","pricing_plan_id":"cebpf4jnsgd1na2vs0mg"},{"bike_id":"51dda588-8c28-41e9-a1aa-415b2ff7fae5","system_id":"levelo_inurba_marseille","lat":43.31228,"lon":5.36848,"is_reserved":false,"is_disabled":false,"rental_uris":{"android":"levelo://app?vid=51dda588-8c28-41e9-a1aa-415b2ff7fae5","ios":"levelo://app?vid=51dda588-8c28-41e9-a1aa-415b2ff7fae5"},"vehicle_type_id":"4","last_reported":1739369318,"current_range_meters":22400,"station_id":"ce4bgl92rcd13ifvqbq0","pricing_plan_id":"cebpf4jnsgd1na2vs0mg"},{"bike_id":"04d4b8ab-1d4d-44ab-9d49-e10f569c0553","system_id":"levelo_inurba_marseille","lat":43.29849,"lon":5.36266,"is_reserved":false,"is_disabled":false,"rental_uris":{"android":"levelo://app?vid=04d4b8ab-1d4d-44ab-9d49-e10f569c0553","ios":"levelo://app?vid=04d4b8ab-1d4d-44ab-9d49-e10f569c0553"},"vehicle_type_id":"4","last_reported":1739369318,"current_range_meters":32800,"station_id":"ce4bgpp2rcd13ifvqc3g","pricing_plan_id":"cebpf4jnsgd1na2vs0mg"},{"bike_id":"1e27a57f-c848-41af-a2d3-5d053a440eb3","system_id":"levelo_inurba_marseille","lat":43.31712,"lon":5.43707,"is_reserved":false,"is_disabled":false,"rental_uris":{"android":"levelo://app?vid=1e27a57f-c848-41af-a2d3-5d053a440eb3","ios":"levelo://app?vid=1e27a57f-c848-41af-a2d3-5d053a440eb3"},"vehicle_type_id":"4","last_reported":1739369318,"current_range_meters":23200,"station_id":"ce4bhp92rcd13ifvqhcg","pricing_plan_id":"cebpf4jnsgd1na2vs0mg"},{"bike_id":"824f363c-2d8a-40ee-81b0-f02844ac9fa3","system_id":"levelo_inurba_marseille","lat":43.30144,"lon":5.38077,"is_reserved":false,"is_disabled":false,"rental_uris":{"android":"levelo://app?vid=824f363c-2d8a-40ee-81b0-f02844ac9fa3","ios":"levelo://app?vid=824f363c-2d8a-40ee-81b0-f02844ac9fa3"},"vehicle_type_id":"4","last_reported":1739369318,"current_range_meters":32000,"station_id":"ce4bgjp2rcd13ifvqbh0","pricing_plan_id":"cebpf4jnsgd1na2vs0mg"},{"bike_id":"60b283a1-229b-4adb-83f1-d1d7d9987d23","system_id":"levelo_inurba_marseille","lat":43.29045,"lon":5.35901,"is_reserved":false,"is_disabled":false,"rental_uris":{"android":"levelo://app?vid=60b283a1-229b-4adb-83f1-d1d7d9987d23","ios":"levelo://app?vid=60b283a1-229b-4adb-83f1-d1d7d9987d23"},"vehicle_type_id":"4","last_reported":1739369318,"current_range_meters":26000,"station_id":"ce4bha92rcd13ifvqeg0","pricing_plan_id":"cebpf4jnsgd1na2vs0mg"},{"bike_id":"c4813b27-4250-43ea-8be5-ccd7321d2af3","system_id":"levelo_inurba_marseille","lat":43.28217,"lon":5.36989,"is_reserved":false,"is_disabled":false,"rental_uris":{"android":"levelo://app?vid=c4813b27-4250-43ea-8be5-ccd7321d2af3","ios":"levelo://app?vid=c4813b27-4250-43ea-8be5-ccd7321d2af3"},"vehicle_type_id":"4","last_reported":1739369318,"current_range_meters":17600,"station_id":"","pricing_plan_id":"cebpf4jnsgd1na2vs0mg"},{"bike_id":"2f6ca5c9-7339-425d-96d9-1012c8a7d24d","system_id":"levelo_inurba_marseille","lat":43.23142,"lon":5.43723,"is_reserved":false,"is_disabled":false,"rental_uris":{"android":"levelo://app?vid=2f6ca5c9-7339-425d-96d9-1012c8a7d24d","ios":"levelo://app?vid=2f6ca5c9-7339-425d-96d9-1012c8a7d24d"},"vehicle_type_id":"4","last_reported":1739369318,"current_range_meters":19600,"station_id":"ce4bhmp2rcd13ifvqgog","pricing_plan_id":"cebpf4jnsgd1na2vs0mg"},{"bike_id":"90975316-fec8-4bde-b726-8ec2d974d1c3","system_id":"levelo_inurba_marseille","lat":43.33599,"lon":5.41031,"is_reserved":false,"is_disabled":false,"rental_uris":{"android":"levelo://app?vid=90975316-fec8-4bde-b726-8ec2d974d1c3","ios":"levelo://app?vid=90975316-fec8-4bde-b726-8ec2d974d1c3"},"vehicle_type_id":"4","last_reported":1739369318,"current_range_meters":7200,"station_id":"ce4bhqh2rcd13ifvqhmg","pricing_plan_id":"cebpf4jnsgd1na2vs0mg"},{"bike_id":"a1b08e0c-e075-4aef-abc3-0a8b1227ccfb","system_id":"levelo_inurba_marseille","lat":43.293,"lon":5.37166,"is_reserved":false,"is_disabled":false,"rental_uris":{"android":"levelo://app?vid=a1b08e0c-e075-4aef-abc3-0a8b1227ccfb","ios":"levelo://app?vid=a1b08e0c-e075-4aef-abc3-0a8b1227ccfb"},"vehicle_type_id":"4","last_reported":1739369318,"current_range_meters":34800,"station_id":"ce4bgh92rcd13ifvqb40","pricing_plan_id":"cebpf4jnsgd1na2vs0mg"},{"bike_id":"36ff92ad-ebc1-4fd8-8dd7-e924b8bea389","system_id":"levelo_inurba_marseille","lat":43.30462,"lon":5.37896,"is_reserved":false,"is_disabled":true,"rental_uris":{"android":"levelo://app?vid=36ff92ad-ebc1-4fd8-8dd7-e924b8bea389","ios":"levelo://app?vid=36ff92ad-ebc1-4fd8-8dd7-e924b8bea389"},"vehicle_type_id":"4","last_reported":1739369318,"current_range_meters":17600,"station_id":"ce4bho92rcd13ifvqh3g","pricing_plan_id":"cebpf4jnsgd1na2vs0mg"},{"bike_id":"7399132f-cac0-47dd-97c2-a8a020c2c9ec","system_id":"levelo_inurba_marseille","lat":43.25918,"lon":5.40882,"is_reserved":false,"is_disabled":false,"rental_uris":{"android":"levelo://app?vid=7399132f-cac0-47dd-97c2-a8a020c2c9ec","ios":"levelo://app?vid=7399132f-cac0-47dd-97c2-a8a020c2c9ec"},"vehicle_type_id":"4","last_reported":1739369318,"current_range_meters":30000,"station_id":"ce4bhm92rcd13ifvqglg","pricing_plan_id":"cebpf4jnsgd1na2vs0mg"},{"bike_id":"2c27f1df-0c75-4df0-8fa2-7fffe3fbcebe","system_id":"levelo_inurba_marseille","lat":43.30152,"lon":5.3808,"is_reserved":false,"is_disabled":false,"rental_uris":{"android":"levelo://app?vid=2c27f1df-0c75-4df0-8fa2-7fffe3fbcebe","ios":"levelo://app?vid=2c27f1df-0c75-4df0-8fa2-7fffe3fbcebe"},"vehicle_type_id":"4","last_reported":1739369318,"current_range_meters":39200,"station_id":"ce4bgjp2rcd13ifvqbh0","pricing_plan_id":"cebpf4jnsgd1na2vs0mg"},{"bike_id":"ca8a5279-544b-4153-bef1-c9511e7c0ee9","system_id":"levelo_inurba_marseille","lat":43.23159,"lon":5.43697,"is_reserved":false,"is_disabled":false,"rental_uris":{"android":"levelo://app?vid=ca8a5279-544b-4153-bef1-c9511e7c0ee9","ios":"levelo://app?vid=ca8a5279-544b-4153-bef1-c9511e7c0ee9"},"vehicle_type_id":"4","last_reported":1739369318,"current_range_meters":12400,"station_id":"ce4bhmp2rcd13ifvqgog","pricing_plan_id":"cebpf4jnsgd1na2vs0mg"},{"bike_id":"26f80c00-3d4b-4208-bb33-78f67b211efa","system_id":"levelo_inurba_marseille","lat":43.27063,"lon":5.40253,"is_reserved":false,"is_disabled":false,"rental_uris":{"android":"levelo://app?vid=26f80c00-3d4b-4208-bb33-78f67b211efa","ios":"levelo://app?vid=26f80c00-3d4b-4208-bb33-78f67b211efa"},"vehicle_type_id":"4","last_reported":1739369318,"current_range_meters":34000,"station_id":"ce4bhk92rcd13ifvqgc0","pricing_plan_id":"cebpf4jnsgd1na2vs0mg"},{"bike_id":"ed524d48-7f6e-4ed6-b5a4-217506bf7015","system_id":"levelo_inurba_marseille","lat":43.2558,"lon":5.38238,"is_reserved":false,"is_disabled":false,"rental_uris":{"android":"levelo://app?vid=ed524d48-7f6e-4ed6-b5a4-217506bf7015","ios":"levelo://app?vid=ed524d48-7f6e-4ed6-b5a4-217506bf7015"},"vehicle_type_id":"4","last_reported":1739369318,"current_range_meters":38800,"station_id":"ce4bhih2rcd13ifvqfs0","pricing_plan_id":"cebpf4jnsgd1na2vs0mg"},{"bike_id":"ee2e1f34-7a57-4fc7-881f-b33a3e6cdadf","system_id":"levelo_inurba_marseille","lat":43.29635,"lon":5.37167,"is_reserved":false,"is_disabled":false,"rental_uris":{"android":"levelo://app?vid=ee2e1f34-7a57-4fc7-881f-b33a3e6cdadf","ios":"levelo://app?vid=ee2e1f34-7a57-4fc7-881f-b33a3e6cdadf"},"vehicle_type_id":"4","last_reported":1739369318,"current_range_meters":35600,"station_id":"ce4bgnh2rcd13ifvqc0g","pricing_plan_id":"cebpf4jnsgd1na2vs0mg"},{"bike_id":"528555a5-745a-4765-b31f-4007294540e4","system_id":"levelo_inurba_marseille","lat":43.30097,"lon":5.39083,"is_reserved":false,"is_disabled":false,"rental_uris":{"android":"levelo://app?vid=528555a5-745a-4765-b31f-4007294540e4","ios":"levelo://app?vid=528555a5-745a-4765-b31f-4007294540e4"},"vehicle_type_id":"4","last_reported":1739369318,"current_range_meters":27600,"station_id":"ce4bh192rcd13ifvqdb0","pricing_plan_id":"cebpf4jnsgd1na2vs0mg"},{"bike_id":"8d2d4012-ff69-4800-927a-45caff6cd054","system_id":"levelo_inurba_marseille","lat":43.2315,"lon":5.43693,"is_reserved":false,"is_disabled":false,"rental_uris":{"android":"levelo://app?vid=8d2d4012-ff69-4800-927a-45caff6cd054","ios":"levelo://app?vid=8d2d4012-ff69-4800-927a-45caff6cd054"},"vehicle_type_id":"4","last_reported":1739369318,"current_range_meters":16000,"station_id":"ce4bhmp2rcd13ifvqgog","pricing_plan_id":"cebpf4jnsgd1na2vs0mg"},{"bike_id":"1ec14052-2d33-4aa1-9ab8-58cc71db74d1","system_id":"levelo_inurba_marseille","lat":43.2417,"lon":5.36398,"is_reserved":false,"is_disabled":false,"rental_uris":{"android":"levelo://app?vid=1ec14052-2d33-4aa1-9ab8-58cc71db74d1","ios":"levelo://app?vid=1ec14052-2d33-4aa1-9ab8-58cc71db74d1"},"vehicle_type_id":"4","last_reported":1739369318,"current_range_meters":9600,"station_id":"cpo36qri1sfpv3e86is0","pricing_plan_id":"cebpf4jnsgd1na2vs0mg"},{"bike_id":"6e58a69c-2a4e-4c49-840d-6e728a603acb","system_id":"levelo_inurba_marseille","lat":43.23067,"lon":5.35498,"is_reserved":false,"is_disabled":false,"rental_uris":{"android":"levelo://app?vid=6e58a69c-2a4e-4c49-840d-6e728a603acb","ios":"levelo://app?vid=6e58a69c-2a4e-4c49-840d-6e728a603acb"},"vehicle_type_id":"4","last_reported":1739369318,"current_range_meters":9200,"station_id":"cpo3342slgdg3j2ifvpg","pricing_plan_id":"cebpf4jnsgd1na2vs0mg"},{"bike_id":"ecf93d8c-535e-4cce-bfbf-78133e71d24e","system_id":"levelo_inurba_marseille","lat":43.2919,"lon":5.3932,"is_reserved":false,"is_disabled":false,"rental_uris":{"android":"levelo://app?vid=ecf93d8c-535e-4cce-bfbf-78133e71d24e","ios":"levelo://app?vid=ecf93d8c-535e-4cce-bfbf-78133e71d24e"},"vehicle_type_id":"4","last_reported":1739369318,"current_range_meters":36400,"station_id":"ce4bh192rcd13ifvqdd0","pricing_plan_id":"cebpf4jnsgd1na2vs0mg"},{"bike_id":"f94040f9-28ae-4bd8-908b-dd7d3707f4e8","system_id":"levelo_inurba_marseille","lat":43.2315,"lon":5.43716,"is_reserved":false,"is_disabled":false,"rental_uris":{"android":"levelo://app?vid=f94040f9-28ae-4bd8-908b-dd7d3707f4e8","ios":"levelo://app?vid=f94040f9-28ae-4bd8-908b-dd7d3707f4e8"},"vehicle_type_id":"4","last_reported":1739369318,"current_range_meters":2800,"station_id":"ce4bhmp2rcd13ifvqgog","pricing_plan_id":"cebpf4jnsgd1na2vs0mg"},{"bike_id":"7cecf3c4-87c7-4621-92bc-6e1af56c511f","system_id":"levelo_inurba_marseille","lat":43.27566,"lon":5.38423,"is_reserved":false,"is_disabled":false,"rental_uris":{"android":"levelo://app?vid=7cecf3c4-87c7-4621-92bc-6e1af56c511f","ios":"levelo://app?vid=7cecf3c4-87c7-4621-92bc-6e1af56c511f"},"vehicle_type_id":"4","last_reported":1739369318,"current_range_meters":37600,"station_id":"ce4bhh92rcd13ifvqfi0","pricing_plan_id":"cebpf4jnsgd1na2vs0mg"},{"bike_id":"6d3495b4-e9b7-44ba-90d1-92fb4b51e922","system_id":"levelo_inurba_marseille","lat":43.336,"lon":5.41022,"is_reserved":false,"is_disabled":false,"rental_uris":{"android":"levelo://app?vid=6d3495b4-e9b7-44ba-90d1-92fb4b51e922","ios":"levelo://app?vid=6d3495b4-e9b7-44ba-90d1-92fb4b51e922"},"vehicle_type_id":"4","last_reported":1739369318,"current_range_meters":7200,"station_id":"ce4bhqh2rcd13ifvqhmg","pricing_plan_id":"cebpf4jnsgd1na2vs0mg"},{"bike_id":"0616aaf0-2fa3-4bf9-a4ad-f63f8e6d87ec","system_id":"levelo_inurba_marseille","lat":43.27901,"lon":5.38026,"is_reserved":false,"is_disabled":false,"rental_uris":{"android":"levelo://app?vid=0616aaf0-2fa3-4bf9-a4ad-f63f8e6d87ec","ios":"levelo://app?vid=0616aaf0-2fa3-4bf9-a4ad-f63f8e6d87ec"},"vehicle_type_id":"4","last_reported":1739369318,"current_range_meters":24400,"station_id":"ce4bhf92rcd13ifvqf50","pricing_plan_id":"cebpf4jnsgd1na2vs0mg"},{"bike_id":"e2545b51-7d58-47aa-b382-1d3ba5ba7cd7","system_id":"levelo_inurba_marseille","lat":43.29251,"lon":5.38445,"is_reserved":false,"is_disabled":false,"rental_uris":{"android":"levelo://app?vid=e2545b51-7d58-47aa-b382-1d3ba5ba7cd7","ios":"levelo://app?vid=e2545b51-7d58-47aa-b382-1d3ba5ba7cd7"},"vehicle_type_id":"4","last_reported":1739369318,"current_range_meters":39200,"station_id":"ce4bh692rcd13ifvqea0","pricing_plan_id":"cebpf4jnsgd1na2vs0mg"},{"bike_id":"fc855d4e-cf92-48ad-b751-57eb2469a89a","system_id":"levelo_inurba_marseille","lat":43.324666,"lon":5.365751,"is_reserved":false,"is_disabled":false,"rental_uris":{"android":"levelo://app?vid=fc855d4e-cf92-48ad-b751-57eb2469a89a","ios":"levelo://app?vid=fc855d4e-cf92-48ad-b751-57eb2469a89a"},"vehicle_type_id":"4","last_reported":1739369318,"current_range_meters":39200,"station_id":"ce4bhs12rcd13ifvqhvg","pricing_plan_id":"cebpf4jnsgd1na2vs0mg"},{"bike_id":"79df8d93-a019-4f4d-ad9b-607d770a7910","system_id":"levelo_inurba_marseille","lat":43.29405,"lon":5.3889,"is_reserved":false,"is_disabled":false,"rental_uris":{"android":"levelo://app?vid=79df8d93-a019-4f4d-ad9b-607d770a7910","ios":"levelo://app?vid=79df8d93-a019-4f4d-ad9b-607d770a7910"},"vehicle_type_id":"4","last_reported":1739369318,"current_range_meters":21600,"station_id":"","pricing_plan_id":"cebpf4jnsgd1na2vs0mg"},{"bike_id":"a84f7e47-4d7f-435e-9980-db6855380cd6","system_id":"levelo_inurba_marseille","lat":43.27685,"lon":5.38867,"is_reserved":false,"is_disabled":false,"rental_uris":{"android":"levelo://app?vid=a84f7e47-4d7f-435e-9980-db6855380cd6","ios":"levelo://app?vid=a84f7e47-4d7f-435e-9980-db6855380cd6"},"vehicle_type_id":"4","last_reported":1739369318,"current_range_meters":29600,"station_id":"ce4bhi12rcd13ifvqfo0","pricing_plan_id":"cebpf4jnsgd1na2vs0mg"},{"bike_id":"21414c14-4b39-44d3-8fad-9e7204749271","system_id":"levelo_inurba_marseille","lat":43.299743,"lon":5.384917,"is_reserved":false,"is_disabled":false,"rental_uris":{"android":"levelo://app?vid=21414c14-4b39-44d3-8fad-9e7204749271","ios":"levelo://app?vid=21414c14-4b39-44d3-8fad-9e7204749271"},"vehicle_type_id":"4","last_reported":1739369318,"current_range_meters":38000,"station_id":"ce4bgj92rcd13ifvqbd0","pricing_plan_id":"cebpf4jnsgd1na2vs0mg"},{"bike_id":"04e79b02-26b7-408e-8d07-a04361b8a27a","system_id":"levelo_inurba_marseille","lat":43.23178,"lon":5.39992,"is_reserved":false,"is_disabled":false,"rental_uris":{"android":"levelo://app?vid=04e79b02-26b7-408e-8d07-a04361b8a27a","ios":"levelo://app?vid=04e79b02-26b7-408e-8d07-a04361b8a27a"},"vehicle_type_id":"4","last_reported":1739369318,"current_range_meters":32400,"station_id":"ce4bhn12rcd13ifvqgqg","pricing_plan_id":"cebpf4jnsgd1na2vs0mg"},{"bike_id":"1b5dbca0-42bd-4f01-85b6-48194d55ea12","system_id":"levelo_inurba_marseille","lat":43.292883,"lon":5.374838,"is_reserved":false,"is_disabled":false,"rental_uris":{"android":"levelo://app?vid=1b5dbca0-42bd-4f01-85b6-48194d55ea12","ios":"levelo://app?vid=1b5dbca0-42bd-4f01-85b6-48194d55ea12"},"vehicle_type_id":"4","last_reported":1739369318,"current_range_meters":16400,"station_id":"ce4bgi12rcd13ifvqb70","pricing_plan_id":"cebpf4jnsgd1na2vs0mg"},{"bike_id":"1fbb52e9-3e7e-4c06-b178-cd8144c98d9e","system_id":"levelo_inurba_marseille","lat":43.28355,"lon":5.38625,"is_reserved":false,"is_disabled":false,"rental_uris":{"android":"levelo://app?vid=1fbb52e9-3e7e-4c06-b178-cd8144c98d9e","ios":"levelo://app?vid=1fbb52e9-3e7e-4c06-b178-cd8144c98d9e"},"vehicle_type_id":"4","last_reported":1739369318,"current_range_meters":32000,"station_id":"ce4bh492rcd13ifvqdvg","pricing_plan_id":"cebpf4jnsgd1na2vs0mg"},{"bike_id":"cbcad4cc-9299-426e-9033-b04e4740a25c","system_id":"levelo_inurba_marseille","lat":43.2958,"lon":5.36739,"is_reserved":false,"is_disabled":false,"rental_uris":{"android":"levelo://app?vid=cbcad4cc-9299-426e-9033-b04e4740a25c","ios":"levelo://app?vid=cbcad4cc-9299-426e-9033-b04e4740a25c"},"vehicle_type_id":"4","last_reported":1739369318,"current_range_meters":29600,"station_id":"ce4bgph2rcd13ifvqc2g","pricing_plan_id":"cebpf4jnsgd1na2vs0mg"},{"bike_id":"9b2f27b9-cc53-4a28-88cb-f588fa596c80","system_id":"levelo_inurba_marseille","lat":43.29964,"lon":5.3718,"is_reserved":false,"is_disabled":false,"rental_uris":{"android":"levelo://app?vid=9b2f27b9-cc53-4a28-88cb-f588fa596c80","ios":"levelo://app?vid=9b2f27b9-cc53-4a28-88cb-f588fa596c80"},"vehicle_type_id":"4","last_reported":1739369318,"current_range_meters":39200,"station_id":"ce4bgr92rcd13ifvqc7g","pricing_plan_id":"cebpf4jnsgd1na2vs0mg"},{"bike_id":"379c924c-cef2-4e13-b11b-f70575b4a88c","system_id":"levelo_inurba_marseille","lat":43.27939,"lon":5.4104,"is_reserved":false,"is_disabled":false,"rental_uris":{"android":"levelo://app?vid=379c924c-cef2-4e13-b11b-f70575b4a88c","ios":"levelo://app?vid=379c924c-cef2-4e13-b11b-f70575b4a88c"},"vehicle_type_id":"4","last_reported":1739369318,"current_range_meters":30400,"station_id":"ce4bhnp2rcd13ifvqh0g","pricing_plan_id":"cebpf4jnsgd1na2vs0mg"},{"bike_id":"9e959baa-c12c-421b-ae7e-498336eaac08","system_id":"levelo_inurba_marseille","lat":43.24992,"lon":5.38936,"is_reserved":false,"is_disabled":false,"rental_uris":{"android":"levelo://app?vid=9e959baa-c12c-421b-ae7e-498336eaac08","ios":"levelo://app?vid=9e959baa-c12c-421b-ae7e-498336eaac08"},"vehicle_type_id":"4","last_reported":1739369318,"current_range_meters":30400,"station_id":"ce4bhgp2rcd13ifvqfd0","pricing_plan_id":"cebpf4jnsgd1na2vs0mg"},{"bike_id":"95238438-aee1-472d-8c03-6f5da0f062d1","system_id":"levelo_inurba_marseille","lat":43.31353,"lon":5.36666,"is_reserved":false,"is_disabled":false,"rental_uris":{"android":"levelo://app?vid=95238438-aee1-472d-8c03-6f5da0f062d1","ios":"levelo://app?vid=95238438-aee1-472d-8c03-6f5da0f062d1"},"vehicle_type_id":"4","last_reported":1739369318,"current_range_meters":16000,"station_id":"ce4bgr92rcd13ifvqc6g","pricing_plan_id":"cebpf4jnsgd1na2vs0mg"},{"bike_id":"389fc6c3-1933-4d85-9cf6-62dda0ad19ff","system_id":"levelo_inurba_marseille","lat":43.29785,"lon":5.38099,"is_reserved":false,"is_disabled":false,"rental_uris":{"android":"levelo://app?vid=389fc6c3-1933-4d85-9cf6-62dda0ad19ff","ios":"levelo://app?vid=389fc6c3-1933-4d85-9cf6-62dda0ad19ff"},"vehicle_type_id":"4","last_reported":1739369318,"current_range_meters":4000,"station_id":"ce4bgip2rcd13ifvqbb0","pricing_plan_id":"cebpf4jnsgd1na2vs0mg"},{"bike_id":"b1898baf-b8a9-4a30-b162-de94b403ca66","system_id":"levelo_inurba_marseille","lat":43.30452,"lon":5.37935,"is_reserved":false,"is_disabled":false,"rental_uris":{"android":"levelo://app?vid=b1898baf-b8a9-4a30-b162-de94b403ca66","ios":"levelo://app?vid=b1898baf-b8a9-4a30-b162-de94b403ca66"},"vehicle_type_id":"4","last_reported":1739369318,"current_range_meters":37600,"station_id":"ce4bgup2rcd13ifvqcn0","pricing_plan_id":"cebpf4jnsgd1na2vs0mg"},{"bike_id":"b0b937cb-3ada-41b7-9bd4-0b703be0c2a5","system_id":"levelo_inurba_marseille","lat":43.2314,"lon":5.43722,"is_reserved":false,"is_disabled":false,"rental_uris":{"android":"levelo://app?vid=b0b937cb-3ada-41b7-9bd4-0b703be0c2a5","ios":"levelo://app?vid=b0b937cb-3ada-41b7-9bd4-0b703be0c2a5"},"vehicle_type_id":"4","last_reported":1739369318,"current_range_meters":10800,"station_id":"ce4bhmp2rcd13ifvqgog","pricing_plan_id":"cebpf4jnsgd1na2vs0mg"},{"bike_id":"dd7e4e2f-f2db-4c41-9b95-8e20b6da1267","system_id":"levelo_inurba_marseille","lat":43.32475,"lon":5.36597,"is_reserved":false,"is_disabled":false,"rental_uris":{"android":"levelo://app?vid=dd7e4e2f-f2db-4c41-9b95-8e20b6da1267","ios":"levelo://app?vid=dd7e4e2f-f2db-4c41-9b95-8e20b6da1267"},"vehicle_type_id":"4","last_reported":1739369318,"current_range_meters":12000,"station_id":"ce4bhs12rcd13ifvqhvg","pricing_plan_id":"cebpf4jnsgd1na2vs0mg"},{"bike_id":"70f46c06-8a80-4f6d-b377-11dbd2391577","system_id":"levelo_inurba_marseille","lat":43.30526,"lon":5.36535,"is_reserved":false,"is_disabled":false,"rental_uris":{"android":"levelo://app?vid=70f46c06-8a80-4f6d-b377-11dbd2391577","ios":"levelo://app?vid=70f46c06-8a80-4f6d-b377-11dbd2391577"},"vehicle_type_id":"4","last_reported":1739369318,"current_range_meters":26000,"station_id":"ce4bgs12rcd13ifvqcag","pricing_plan_id":"cebpf4jnsgd1na2vs0mg"},{"bike_id":"dad6eda5-21a3-483b-bf5d-1360d5b1eb1c","system_id":"levelo_inurba_marseille","lat":43.30908,"lon":5.36869,"is_reserved":false,"is_disabled":false,"rental_uris":{"android":"levelo://app?vid=dad6eda5-21a3-483b-bf5d-1360d5b1eb1c","ios":"levelo://app?vid=dad6eda5-21a3-483b-bf5d-1360d5b1eb1c"},"vehicle_type_id":"4","last_reported":1739369318,"current_range_meters":30400,"station_id":"ce4bgn92rcd13ifvqbvg","pricing_plan_id":"cebpf4jnsgd1na2vs0mg"},{"bike_id":"f57cceca-9a4a-4a1a-b3d2-cb87764c1267","system_id":"levelo_inurba_marseille","lat":43.33021,"lon":5.39038,"is_reserved":false,"is_disabled":false,"rental_uris":{"android":"levelo://app?vid=f57cceca-9a4a-4a1a-b3d2-cb87764c1267","ios":"levelo://app?vid=f57cceca-9a4a-4a1a-b3d2-cb87764c1267"},"vehicle_type_id":"4","last_reported":1739369318,"current_range_meters":11200,"station_id":"ce4bhr92rcd13ifvqhrg","pricing_plan_id":"cebpf4jnsgd1na2vs0mg"},{"bike_id":"0a7d28ac-16e5-459a-9e3d-51b36dee94ec","system_id":"levelo_inurba_marseille","lat":43.30557,"lon":5.36555,"is_reserved":false,"is_disabled":false,"rental_uris":{"android":"levelo://app?vid=0a7d28ac-16e5-459a-9e3d-51b36dee94ec","ios":"levelo://app?vid=0a7d28ac-16e5-459a-9e3d-51b36dee94ec"},"vehicle_type_id":"4","last_reported":1739369318,"current_range_meters":24800,"station_id":"ce4bgs12rcd13ifvqcag","pricing_plan_id":"cebpf4jnsgd1na2vs0mg"},{"bike_id":"15ee7139-10dc-4fac-a480-f569a3ba5357","system_id":"levelo_inurba_marseille","lat":43.30169,"lon":5.381,"is_reserved":false,"is_disabled":false,"rental_uris":{"android":"levelo://app?vid=15ee7139-10dc-4fac-a480-f569a3ba5357","ios":"levelo://app?vid=15ee7139-10dc-4fac-a480-f569a3ba5357"},"vehicle_type_id":"4","last_reported":1739369318,"current_range_meters":38800,"station_id":"ce4bgjp2rcd13ifvqbh0","pricing_plan_id":"cebpf4jnsgd1na2vs0mg"},{"bike_id":"91efa81f-bcfa-46f6-bc90-09ce14e94cb8","system_id":"levelo_inurba_marseille","lat":43.29784,"lon":5.38093,"is_reserved":false,"is_disabled":false,"rental_uris":{"android":"levelo://app?vid=91efa81f-bcfa-46f6-bc90-09ce14e94cb8","ios":"levelo://app?vid=91efa81f-bcfa-46f6-bc90-09ce14e94cb8"},"vehicle_type_id":"4","last_reported":1739369318,"current_range_meters":39200,"station_id":"ce4bgip2rcd13ifvqbb0","pricing_plan_id":"cebpf4jnsgd1na2vs0mg"},{"bike_id":"ab909ba3-48d2-452b-b4b4-0bfd6be14168","system_id":"levelo_inurba_marseille","lat":43.33599,"lon":5.41018,"is_reserved":false,"is_disabled":false,"rental_uris":{"android":"levelo://app?vid=ab909ba3-48d2-452b-b4b4-0bfd6be14168","ios":"levelo://app?vid=ab909ba3-48d2-452b-b4b4-0bfd6be14168"},"vehicle_type_id":"4","last_reported":1739369318,"current_range_meters":38800,"station_id":"ce4bhqh2rcd13ifvqhmg","pricing_plan_id":"cebpf4jnsgd1na2vs0mg"},{"bike_id":"beac2093-e3f1-4a43-875b-f5700b6484b8","system_id":"levelo_inurba_marseille","lat":43.32537,"lon":5.41443,"is_reserved":false,"is_disabled":false,"rental_uris":{"android":"levelo://app?vid=beac2093-e3f1-4a43-875b-f5700b6484b8","ios":"levelo://app?vid=beac2093-e3f1-4a43-875b-f5700b6484b8"},"vehicle_type_id":"4","last_reported":1739369318,"current_range_meters":32400,"station_id":"ce4bhq12rcd13ifvqhhg","pricing_plan_id":"cebpf4jnsgd1na2vs0mg"},{"bike_id":"0fb30756-cd50-4cd1-ba06-1ebd026d9274","system_id":"levelo_inurba_marseille","lat":43.25002,"lon":5.38917,"is_reserved":false,"is_disabled":false,"rental_uris":{"android":"levelo://app?vid=0fb30756-cd50-4cd1-ba06-1ebd026d9274","ios":"levelo://app?vid=0fb30756-cd50-4cd1-ba06-1ebd026d9274"},"vehicle_type_id":"4","last_reported":1739369318,"current_range_meters":27200,"station_id":"ce4bhgp2rcd13ifvqfd0","pricing_plan_id":"cebpf4jnsgd1na2vs0mg"},{"bike_id":"c3e70ac6-c957-435c-9332-228defae339e","system_id":"levelo_inurba_marseille","lat":43.33605,"lon":5.41008,"is_reserved":false,"is_disabled":false,"rental_uris":{"android":"levelo://app?vid=c3e70ac6-c957-435c-9332-228defae339e","ios":"levelo://app?vid=c3e70ac6-c957-435c-9332-228defae339e"},"vehicle_type_id":"4","last_reported":1739369318,"current_range_meters":33200,"station_id":"ce4bhqh2rcd13ifvqhmg","pricing_plan_id":"cebpf4jnsgd1na2vs0mg"},{"bike_id":"dc1aebb1-cc32-4200-8343-eed2e11e7183","system_id":"levelo_inurba_marseille","lat":43.30461,"lon":5.37913,"is_reserved":false,"is_disabled":false,"rental_uris":{"android":"levelo://app?vid=dc1aebb1-cc32-4200-8343-eed2e11e7183","ios":"levelo://app?vid=dc1aebb1-cc32-4200-8343-eed2e11e7183"},"vehicle_type_id":"4","last_reported":1739369318,"current_range_meters":13600,"station_id":"ce4bgup2rcd13ifvqcn0","pricing_plan_id":"cebpf4jnsgd1na2vs0mg"},{"bike_id":"b0f70249-6360-4dc3-a83a-fd73a6b534c8","system_id":"levelo_inurba_marseille","lat":43.32147,"lon":5.38453,"is_reserved":false,"is_disabled":false,"rental_uris":{"android":"levelo://app?vid=b0f70249-6360-4dc3-a83a-fd73a6b534c8","ios":"levelo://app?vid=b0f70249-6360-4dc3-a83a-fd73a6b534c8"},"vehicle_type_id":"4","last_reported":1739369318,"current_range_meters":33600,"station_id":"","pricing_plan_id":"cebpf4jnsgd1na2vs0mg"},{"bike_id":"54ce597b-1ca1-4d62-923d-d4b29eec04b3","system_id":"levelo_inurba_marseille","lat":43.31131,"lon":5.38261,"is_reserved":false,"is_disabled":false,"rental_uris":{"android":"levelo://app?vid=54ce597b-1ca1-4d62-923d-d4b29eec04b3","ios":"levelo://app?vid=54ce597b-1ca1-4d62-923d-d4b29eec04b3"},"vehicle_type_id":"4","last_reported":1739369318,"current_range_meters":15200,"station_id":"","pricing_plan_id":"cebpf4jnsgd1na2vs0mg"},{"bike_id":"7c0b6dad-6811-4e5b-951d-59b914288aee","system_id":"levelo_inurba_marseille","lat":43.27933,"lon":5.41039,"is_reserved":false,"is_disabled":false,"rental_uris":{"android":"levelo://app?vid=7c0b6dad-6811-4e5b-951d-59b914288aee","ios":"levelo://app?vid=7c0b6dad-6811-4e5b-951d-59b914288aee"},"vehicle_type_id":"4","last_reported":1739369318,"current_range_meters":16000,"station_id":"ce4bhnp2rcd13ifvqh0g","pricing_plan_id":"cebpf4jnsgd1na2vs0mg"},{"bike_id":"2bf72135-0cb4-4518-bdee-20a5d180edcf","system_id":"levelo_inurba_marseille","lat":43.27982,"lon":5.38689,"is_reserved":false,"is_disabled":false,"rental_uris":{"android":"levelo://app?vid=2bf72135-0cb4-4518-bdee-20a5d180edcf","ios":"levelo://app?vid=2bf72135-0cb4-4518-bdee-20a5d180edcf"},"vehicle_type_id":"4","last_reported":1739369318,"current_range_meters":4000,"station_id":"ce4bhg12rcd13ifvqf80","pricing_plan_id":"cebpf4jnsgd1na2vs0mg"},{"bike_id":"9d6c6a2c-f4a8-4f2e-9a51-0f83be3f4454","system_id":"levelo_inurba_marseille","lat":43.25013,"lon":5.38901,"is_reserved":false,"is_disabled":false,"rental_uris":{"android":"levelo://app?vid=9d6c6a2c-f4a8-4f2e-9a51-0f83be3f4454","ios":"levelo://app?vid=9d6c6a2c-f4a8-4f2e-9a51-0f83be3f4454"},"vehicle_type_id":"4","last_reported":1739369318,"current_range_meters":32000,"station_id":"ce4bhgp2rcd13ifvqfd0","pricing_plan_id":"cebpf4jnsgd1na2vs0mg"},{"bike_id":"71ae8788-ed57-4df6-805f-27ca1e8f5e3c","system_id":"levelo_inurba_marseille","lat":43.29207,"lon":5.35801,"is_reserved":false,"is_disabled":false,"rental_uris":{"android":"levelo://app?vid=71ae8788-ed57-4df6-805f-27ca1e8f5e3c","ios":"levelo://app?vid=71ae8788-ed57-4df6-805f-27ca1e8f5e3c"},"vehicle_type_id":"4","last_reported":1739369318,"current_range_meters":28800,"station_id":"ce4bhb12rcd13ifvqel0","pricing_plan_id":"cebpf4jnsgd1na2vs0mg"},{"bike_id":"1d9180f4-dd9a-4517-8680-4ebe76ddb04b","system_id":"levelo_inurba_marseille","lat":43.29198,"lon":5.35804,"is_reserved":false,"is_disabled":false,"rental_uris":{"android":"levelo://app?vid=1d9180f4-dd9a-4517-8680-4ebe76ddb04b","ios":"levelo://app?vid=1d9180f4-dd9a-4517-8680-4ebe76ddb04b"},"vehicle_type_id":"4","last_reported":1739369318,"current_range_meters":24800,"station_id":"ce4bhb12rcd13ifvqel0","pricing_plan_id":"cebpf4jnsgd1na2vs0mg"},{"bike_id":"4985f4e8-357c-45d1-92f1-5e51b059536f","system_id":"levelo_inurba_marseille","lat":43.30553,"lon":5.36589,"is_reserved":false,"is_disabled":false,"rental_uris":{"android":"levelo://app?vid=4985f4e8-357c-45d1-92f1-5e51b059536f","ios":"levelo://app?vid=4985f4e8-357c-45d1-92f1-5e51b059536f"},"vehicle_type_id":"4","last_reported":1739369318,"current_range_meters":10800,"station_id":"ce4bgs12rcd13ifvqcag","pricing_plan_id":"cebpf4jnsgd1na2vs0mg"},{"bike_id":"afaa6ff3-f958-448e-bb22-0cf576b24c3a","system_id":"levelo_inurba_marseille","lat":43.26698,"lon":5.38246,"is_reserved":false,"is_disabled":true,"rental_uris":{"android":"levelo://app?vid=afaa6ff3-f958-448e-bb22-0cf576b24c3a","ios":"levelo://app?vid=afaa6ff3-f958-448e-bb22-0cf576b24c3a"},"vehicle_type_id":"4","last_reported":1739369318,"current_range_meters":2000,"station_id":"ce4bhg92rcd13ifvqf90","pricing_plan_id":"cebpf4jnsgd1na2vs0mg"},{"bike_id":"58a923a1-50e5-4bcc-a5c7-59fd5ea18680","system_id":"levelo_inurba_marseille","lat":43.23157,"lon":5.43708,"is_reserved":false,"is_disabled":false,"rental_uris":{"android":"levelo://app?vid=58a923a1-50e5-4bcc-a5c7-59fd5ea18680","ios":"levelo://app?vid=58a923a1-50e5-4bcc-a5c7-59fd5ea18680"},"vehicle_type_id":"4","last_reported":1739369318,"current_range_meters":19600,"station_id":"ce4bhmp2rcd13ifvqgog","pricing_plan_id":"cebpf4jnsgd1na2vs0mg"},{"bike_id":"2257f41f-36ce-4e86-8174-03cba3e19f38","system_id":"levelo_inurba_marseille","lat":43.29906,"lon":5.38152,"is_reserved":false,"is_disabled":false,"rental_uris":{"android":"levelo://app?vid=2257f41f-36ce-4e86-8174-03cba3e19f38","ios":"levelo://app?vid=2257f41f-36ce-4e86-8174-03cba3e19f38"},"vehicle_type_id":"4","last_reported":1739369318,"current_range_meters":36000,"station_id":"ce4bgj12rcd13ifvqbc0","pricing_plan_id":"cebpf4jnsgd1na2vs0mg"},{"bike_id":"eabbe0e8-ba2b-4c18-88bf-ff169bb45c2c","system_id":"levelo_inurba_marseille","lat":43.29875,"lon":5.39735,"is_reserved":false,"is_disabled":false,"rental_uris":{"android":"levelo://app?vid=eabbe0e8-ba2b-4c18-88bf-ff169bb45c2c","ios":"levelo://app?vid=eabbe0e8-ba2b-4c18-88bf-ff169bb45c2c"},"vehicle_type_id":"4","last_reported":1739369318,"current_range_meters":24800,"station_id":"ce4bh0h2rcd13ifvqd50","pricing_plan_id":"cebpf4jnsgd1na2vs0mg"},{"bike_id":"51d770a2-dd16-4796-a058-ebfc42d09fdc","system_id":"levelo_inurba_marseille","lat":43.29908,"lon":5.37476,"is_reserved":false,"is_disabled":false,"rental_uris":{"android":"levelo://app?vid=51d770a2-dd16-4796-a058-ebfc42d09fdc","ios":"levelo://app?vid=51d770a2-dd16-4796-a058-ebfc42d09fdc"},"vehicle_type_id":"4","last_reported":1739369318,"current_range_meters":38400,"station_id":"ce4bgjh2rcd13ifvqbg0","pricing_plan_id":"cebpf4jnsgd1na2vs0mg"},{"bike_id":"d20e281b-4bbf-440b-b3e5-085faded4017","system_id":"levelo_inurba_marseille","lat":43.31501,"lon":5.37308,"is_reserved":false,"is_disabled":false,"rental_uris":{"android":"levelo://app?vid=d20e281b-4bbf-440b-b3e5-085faded4017","ios":"levelo://app?vid=d20e281b-4bbf-440b-b3e5-085faded4017"},"vehicle_type_id":"4","last_reported":1739369318,"current_range_meters":20800,"station_id":"ce4bgt12rcd13ifvqcd0","pricing_plan_id":"cebpf4jnsgd1na2vs0mg"},{"bike_id":"9fcdab55-6d1d-456d-84cd-a4b15d39fdcf","system_id":"levelo_inurba_marseille","lat":43.249895,"lon":5.38931,"is_reserved":false,"is_disabled":false,"rental_uris":{"android":"levelo://app?vid=9fcdab55-6d1d-456d-84cd-a4b15d39fdcf","ios":"levelo://app?vid=9fcdab55-6d1d-456d-84cd-a4b15d39fdcf"},"vehicle_type_id":"4","last_reported":1739369318,"current_range_meters":7200,"station_id":"ce4bhgp2rcd13ifvqfd0","pricing_plan_id":"cebpf4jnsgd1na2vs0mg"},{"bike_id":"197121bd-ad8f-4f49-a198-3c8983bddf84","system_id":"levelo_inurba_marseille","lat":43.30213,"lon":5.39476,"is_reserved":false,"is_disabled":false,"rental_uris":{"android":"levelo://app?vid=197121bd-ad8f-4f49-a198-3c8983bddf84","ios":"levelo://app?vid=197121bd-ad8f-4f49-a198-3c8983bddf84"},"vehicle_type_id":"4","last_reported":1739369318,"current_range_meters":16400,"station_id":"ce4bh0p2rcd13ifvqd70","pricing_plan_id":"cebpf4jnsgd1na2vs0mg"},{"bike_id":"49ecb4e3-a3aa-4bde-a0b7-ccb68752d08b","system_id":"levelo_inurba_marseille","lat":43.27368,"lon":5.36257,"is_reserved":false,"is_disabled":false,"rental_uris":{"android":"levelo://app?vid=49ecb4e3-a3aa-4bde-a0b7-ccb68752d08b","ios":"levelo://app?vid=49ecb4e3-a3aa-4bde-a0b7-ccb68752d08b"},"vehicle_type_id":"4","last_reported":1739369318,"current_range_meters":20000,"station_id":"ce4bhbh2rcd13ifvqeo0","pricing_plan_id":"cebpf4jnsgd1na2vs0mg"},{"bike_id":"296fcee4-79c3-49a9-a7c9-6e22cb6314c5","system_id":"levelo_inurba_marseille","lat":43.30102,"lon":5.39086,"is_reserved":false,"is_disabled":false,"rental_uris":{"android":"levelo://app?vid=296fcee4-79c3-49a9-a7c9-6e22cb6314c5","ios":"levelo://app?vid=296fcee4-79c3-49a9-a7c9-6e22cb6314c5"},"vehicle_type_id":"4","last_reported":1739369318,"current_range_meters":37600,"station_id":"ce4bh192rcd13ifvqdb0","pricing_plan_id":"cebpf4jnsgd1na2vs0mg"},{"bike_id":"3227462f-afc0-48de-8f4d-4b21ffc2230a","system_id":"levelo_inurba_marseille","lat":43.30133,"lon":5.37398,"is_reserved":false,"is_disabled":false,"rental_uris":{"android":"levelo://app?vid=3227462f-afc0-48de-8f4d-4b21ffc2230a","ios":"levelo://app?vid=3227462f-afc0-48de-8f4d-4b21ffc2230a"},"vehicle_type_id":"4","last_reported":1739369318,"current_range_meters":36000,"station_id":"ce4bgs92rcd13ifvqcc0","pricing_plan_id":"cebpf4jnsgd1na2vs0mg"},{"bike_id":"aa2a2975-b7ac-443c-9404-5c5e1b57efc0","system_id":"levelo_inurba_marseille","lat":43.2397,"lon":5.36615,"is_reserved":false,"is_disabled":false,"rental_uris":{"android":"levelo://app?vid=aa2a2975-b7ac-443c-9404-5c5e1b57efc0","ios":"levelo://app?vid=aa2a2975-b7ac-443c-9404-5c5e1b57efc0"},"vehicle_type_id":"4","last_reported":1739369318,"current_range_meters":7200,"station_id":"ce4bhi12rcd13ifvqfp0","pricing_plan_id":"cebpf4jnsgd1na2vs0mg"},