{"last_updated":1770626217,"ttl":60,"version":"2.2","data":{"bikes":[{"bike_id":"032e4285-4f54-4db9-9f34-37f26a7184a1","system_id":"levelo_inurba_marseille","lat":43.308772,"lon":5.396139,"is_reserved":false,"is_disabled":false,"rental_uris":{"android":"levelo://app?vid=032e4285-4f54-4db9-9f34-37f26a7184a1","ios":"levelo://app?vid=032e4285-4f54-4db9-9f34-37f26a7184a1"},"vehicle_type_id":"4","last_reported":1770626218,"current_range_meters":2800,"station_id":"","pricing_plan_id":"cebpf4jnsgd1na2vs0mg"},{"bike_id":"50392622-d121-45c3-b80c-8335da065efb","system_id":"levelo_inurba_marseille","lat":43.30018,"lon":5.39138,"is_reserved":false,"is_disabled":false,"rental_uris":{"android":"levelo://app?vid=50392622-d121-45c3-b80c-8335da065efb","ios":"levelo://app?vid=50392622-d121-45c3-b80c-8335da065efb"},"vehicle_type_id":"4","last_reported":1770626218,"current_range_meters":2800,"station_id":"","pricing_plan_id":"cebpf4jnsgd1na2vs0mg"},{"bike_id":"058f88c5-b6a2-4480-90bf-75f3f4077964","system_id":"levelo_inurba_marseille","lat":43.2915,"lon":5.37164,"is_reserved":false,"is_disabled":false,"rental_uris":{"android":"levelo://app?vid=058f88c5-b6a2-4480-90bf-75f3f4077964","ios":"levelo://app?vid=058f88c5-b6a2-4480-90bf-75f3f4077964"},"vehicle_type_id":"4","last_reported":1770626218,"current_range_meters":2800,"station_id":"ce4bha92rcd13ifvqeh0","pricing_plan_id":"cebpf4jnsgd1na2vs0mg"},{"bike_id":"a93a3f3a-fc89-4e32-a1fb-c7685626cbdd","system_id":"levelo_inurba_marseille","lat":43.31135,"lon":5.38577,"is_reserved":false,"is_disabled":false,"rental_uris":{"android":"levelo://app?vid=a93a3f3a-fc89-4e32-a1fb-c7685626cbdd","ios":"levelo://app?vid=a93a3f3a-fc89-4e32-a1fb-c7685626cbdd"},"vehicle_type_id":"4","last_reported":1770626218,"current_range_meters":2800,"station_id":"","pricing_plan_id":"cebpf4jnsgd1na2vs0mg"},{"bike_id":"d14bc58f-d52a-42e4-befd-2606c2492ac1","system_id":"levelo_inurba_marseille","lat":43.25127,"lon":5.40325,"is_reserved":false,"is_disabled":false,"rental_uris":{"android":"levelo://app?vid=d14bc58f-d52a-42e4-befd-2606c2492ac1","ios":"levelo://app?vid=d14bc58f-d52a-42e4-befd-2606c2492ac1"},"vehicle_type_id":"4","last_reported":1770626218,"current_range_meters":2800,"station_id":"ce4bhlh2rcd13ifvqgig","pricing_plan_id":"cebpf4jnsgd1na2vs0mg"},{"bike_id":"e350c36b-03b1-4db6-840d-dbc614b5af0a","system_id":"levelo_inurba_marseille","lat":43.26772,"lon":5.39433,"is_reserved":false,"is_disabled":false,"rental_uris":{"android":"levelo://app?vid=e350c36b-03b1-4db6-840d-dbc614b5af0a","ios":"levelo://app?vid=e350c36b-03b1-4db6-840d-dbc614b5af0a"},"vehicle_type_id":"4","last_reported":1770626218,"current_range_meters":2800,"station_id":"ce4bhh12rcd13ifvqfg0","pricing_plan_id":"cebpf4jnsgd1na2vs0mg"},{"bike_id":"040712db-da87-4216-8b60-512bc593c1e5","system_id":"levelo_inurba_marseille","lat":43.30224,"lon":5.39465,"is_reserved":false,"is_disabled":false,"rental_uris":{"android":"levelo://app?vid=040712db-da87-4216-8b60-512bc593c1e5","ios":"levelo://app?vid=040712db-da87-4216-8b60-512bc593c1e5"},"vehicle_type_id":"4","last_reported":1770626218,"current_range_meters":2800,"station_id":"ce4bh0p2rcd13ifvqd70","pricing_plan_id":"cebpf4jnsgd1na2vs0mg"},{"bike_id":"28ea6fbe-b592-43e0-b4f1-22356d5bc8f9","system_id":"levelo_inurba_marseille","lat":43.33537,"lon":5.3746,"is_reserved":false,"is_disabled":false,"rental_uris":{"android":"levelo://app?vid=28ea6fbe-b592-43e0-b4f1-22356d5bc8f9","ios":"levelo://app?vid=28ea6fbe-b592-43e0-b4f1-22356d5bc8f9"},"vehicle_type_id":"4","last_reported":1770626218,"current_range_meters":2800,"station_id":"st_d46tts09ee8s73dlu43g","pricing_plan_id":"cebpf4jnsgd1na2vs0mg"},{"bike_id":"b0e7feeb-1416-4406-b174-1e7f94d3553f","system_id":"levelo_inurba_marseille","lat":43.33543,"lon":5.37478,"is_reserved":false,"is_disabled":false,"rental_uris":{"android":"levelo://app?vid=b0e7feeb-1416-4406-b174-1e7f94d3553f","ios":"levelo://app?vid=b0e7feeb-1416-4406-b174-1e7f94d3553f"},"vehicle_type_id":"4","last_reported":1770626218,"current_range_meters":3200,"station_id":"","pricing_plan_id":"cebpf4jnsgd1na2vs0mg"},{"bike_id":"6b6b3044-dd0e-4787-8945-aab93fdd08a2","system_id":"levelo_inurba_marseille","lat":43.29766,"lon":5.37378,"is_reserved":false,"is_disabled":false,"rental_uris":{"android":"levelo://app?vid=6b6b3044-dd0e-4787-8945-aab93fdd08a2","ios":"levelo://app?vid=6b6b3044-dd0e-4787-8945-aab93fdd08a2"},"vehicle_type_id":"4","last_reported":1770626218,"current_range_meters":3200,"station_id":"","pricing_plan_id":"cebpf4jnsgd1na2vs0mg"},{"bike_id":"5937c983-2ec0-4b31-be5a-bd463e5d6cd3","system_id":"levelo_inurba_marseille","lat":43.23372,"lon":5.41261,"is_reserved":false,"is_disabled":false,"rental_uris":{"android":"levelo://app?vid=5937c983-2ec0-4b31-be5a-bd463e5d6cd3","ios":"levelo://app?vid=5937c983-2ec0-4b31-be5a-bd463e5d6cd3"},"vehicle_type_id":"4","last_reported":1770626218,"current_range_meters":3200,"station_id":"","pricing_plan_id":"cebpf4jnsgd1na2vs0mg"},{"bike_id":"8138c7ab-272e-47d5-82e8-142e12d30a9b","system_id":"levelo_inurba_marseille","lat":43.32051,"lon":5.3683,"is_reserved":false,"is_disabled":false,"rental_uris":{"android":"levelo://app?vid=8138c7ab-272e-47d5-82e8-142e12d30a9b","ios":"levelo://app?vid=8138c7ab-272e-47d5-82e8-142e12d30a9b"},"vehicle_type_id":"4","last_reported":1770626218,"current_range_meters":3200,"station_id":"","pricing_plan_id":"cebpf4jnsgd1na2vs0mg"},{"bike_id":"ebefa774-7cfa-43bf-a5d1-efbbcb70c9ba","system_id":"levelo_inurba_marseille","lat":43.24048,"lon":5.37771,"is_reserved":false,"is_disabled":false,"rental_uris":{"android":"levelo://app?vid=ebefa774-7cfa-43bf-a5d1-efbbcb70c9ba","ios":"levelo://app?vid=ebefa774-7cfa-43bf-a5d1-efbbcb70c9ba"},"vehicle_type_id":"4","last_reported":1770626218,"current_range_meters":3200,"station_id":"ce4bhnp2rcd13ifvqgvg","pricing_plan_id":"cebpf4jnsgd1na2vs0mg"},{"bike_id":"2c3b3f76-ecd6-40b1-a16e-2dbf71d4e2dc","system_id":"levelo_inurba_marseille","lat":43.25914,"lon":5.409,"is_reserved":false,"is_disabled":false,"rental_uris":{"android":"levelo://app?vid=2c3b3f76-ecd6-40b1-a16e-2dbf71d4e2dc","ios":"levelo://app?vid=2c3b3f76-ecd6-40b1-a16e-2dbf71d4e2dc"},"vehicle_type_id":"4","last_reported":1770626218,"current_range_meters":3200,"station_id":"ce4bhm92rcd13ifvqglg","pricing_plan_id":"cebpf4jnsgd1na2vs0mg"},{"bike_id":"44df0d6d-61a2-46ab-9bf9-ae3cec90cb8f","system_id":"levelo_inurba_marseille","lat":43.250061,"lon":5.389268,"is_reserved":false,"is_disabled":true,"rental_uris":{"android":"levelo://app?vid=44df0d6d-61a2-46ab-9bf9-ae3cec90cb8f","ios":"levelo://app?vid=44df0d6d-61a2-46ab-9bf9-ae3cec90cb8f"},"vehicle_type_id":"4","last_reported":1770626218,"current_range_meters":3200,"station_id":"ce4bhgp2rcd13ifvqfd0","pricing_plan_id":"cebpf4jnsgd1na2vs0mg"},{"bike_id":"7a2c796a-2c27-403d-a799-411424496833","system_id":"levelo_inurba_marseille","lat":43.26567,"lon":5.40323,"is_reserved":false,"is_disabled":false,"rental_uris":{"android":"levelo://app?vid=7a2c796a-2c27-403d-a799-411424496833","ios":"levelo://app?vid=7a2c796a-2c27-403d-a799-411424496833"},"vehicle_type_id":"4","last_reported":1770626218,"current_range_meters":3600,"station_id":"ce4bhmp2rcd13ifvqgng","pricing_plan_id":"cebpf4jnsgd1na2vs0mg"},{"bike_id":"c4a2b413-fe66-4a33-abb2-6a7e8a35c7e4","system_id":"levelo_inurba_marseille","lat":43.301404,"lon":5.387689,"is_reserved":false,"is_disabled":true,"rental_uris":{"android":"levelo://app?vid=c4a2b413-fe66-4a33-abb2-6a7e8a35c7e4","ios":"levelo://app?vid=c4a2b413-fe66-4a33-abb2-6a7e8a35c7e4"},"vehicle_type_id":"4","last_reported":1770626218,"current_range_meters":3600,"station_id":"ce4bgkh2rcd13ifvqbk0","pricing_plan_id":"cebpf4jnsgd1na2vs0mg"},{"bike_id":"bc52dfa3-e272-4fc9-96b0-e6451d582049","system_id":"levelo_inurba_marseille","lat":43.24922,"lon":5.40261,"is_reserved":false,"is_disabled":false,"rental_uris":{"android":"levelo://app?vid=bc52dfa3-e272-4fc9-96b0-e6451d582049","ios":"levelo://app?vid=bc52dfa3-e272-4fc9-96b0-e6451d582049"},"vehicle_type_id":"4","last_reported":1770626218,"current_range_meters":3600,"station_id":"","pricing_plan_id":"cebpf4jnsgd1na2vs0mg"},{"bike_id":"fc7e4b88-1656-4ea3-ac70-db935a568e8d","system_id":"levelo_inurba_marseille","lat":43.33146,"lon":5.37717,"is_reserved":false,"is_disabled":false,"rental_uris":{"android":"levelo://app?vid=fc7e4b88-1656-4ea3-ac70-db935a568e8d","ios":"levelo://app?vid=fc7e4b88-1656-4ea3-ac70-db935a568e8d"},"vehicle_type_id":"4","last_reported":1770626218,"current_range_meters":3600,"station_id":"st_d46cu089ee8s73dldbu0","pricing_plan_id":"cebpf4jnsgd1na2vs0mg"},{"bike_id":"f1384210-d0d9-4ece-b6e0-db114eb4909f","system_id":"levelo_inurba_marseille","lat":43.26582,"lon":5.3902,"is_reserved":false,"is_disabled":false,"rental_uris":{"android":"levelo://app?vid=f1384210-d0d9-4ece-b6e0-db114eb4909f","ios":"levelo://app?vid=f1384210-d0d9-4ece-b6e0-db114eb4909f"},"vehicle_type_id":"4","last_reported":1770626218,"current_range_meters":3600,"station_id":"ce4bhe12rcd13ifvqf30","pricing_plan_id":"cebpf4jnsgd1na2vs0mg"},{"bike_id":"66f61838-99ce-449f-9957-4eada4297346","system_id":"levelo_inurba_marseille","lat":43.28347,"lon":5.38093,"is_reserved":false,"is_disabled":true,"rental_uris":{"android":"levelo://app?vid=66f61838-99ce-449f-9957-4eada4297346","ios":"levelo://app?vid=66f61838-99ce-449f-9957-4eada4297346"},"vehicle_type_id":"4","last_reported":1770626218,"current_range_meters":3600,"station_id":"ce4bh412rcd13ifvqdr0","pricing_plan_id":"cebpf4jnsgd1na2vs0mg"},{"bike_id":"e8457bb3-f99d-40e0-aa19-6d3fdf1a5998","system_id":"levelo_inurba_marseille","lat":43.28113,"lon":5.42633,"is_reserved":false,"is_disabled":false,"rental_uris":{"android":"levelo://app?vid=e8457bb3-f99d-40e0-aa19-6d3fdf1a5998","ios":"levelo://app?vid=e8457bb3-f99d-40e0-aa19-6d3fdf1a5998"},"vehicle_type_id":"4","last_reported":1770626218,"current_range_meters":3600,"station_id":"ce4bhnh2rcd13ifvqgug","pricing_plan_id":"cebpf4jnsgd1na2vs0mg"},{"bike_id":"f46014af-a80e-4832-8fb8-fcc006daae6a","system_id":"levelo_inurba_marseille","lat":43.305288,"lon":5.365288,"is_reserved":false,"is_disabled":false,"rental_uris":{"android":"levelo://app?vid=f46014af-a80e-4832-8fb8-fcc006daae6a","ios":"levelo://app?vid=f46014af-a80e-4832-8fb8-fcc006daae6a"},"vehicle_type_id":"4","last_reported":1770626218,"current_range_meters":3600,"station_id":"","pricing_plan_id":"cebpf4jnsgd1na2vs0mg"},{"bike_id":"d82d39c1-35da-42fd-83f8-05dc22af2b9b","system_id":"levelo_inurba_marseille","lat":43.31338,"lon":5.36729,"is_reserved":false,"is_disabled":false,"rental_uris":{"android":"levelo://app?vid=d82d39c1-35da-42fd-83f8-05dc22af2b9b","ios":"levelo://app?vid=d82d39c1-35da-42fd-83f8-05dc22af2b9b"},"vehicle_type_id":"4","last_reported":1770626218,"current_range_meters":3600,"station_id":"ce4bgr92rcd13ifvqc6g","pricing_plan_id":"cebpf4jnsgd1na2vs0mg"},{"bike_id":"6e9831b2-93cf-4a0b-82b9-aea9b6d8c339","system_id":"levelo_inurba_marseille","lat":43.3123,"lon":5.3683,"is_reserved":false,"is_disabled":false,"rental_uris":{"android":"levelo://app?vid=6e9831b2-93cf-4a0b-82b9-aea9b6d8c339","ios":"levelo://app?vid=6e9831b2-93cf-4a0b-82b9-aea9b6d8c339"},"vehicle_type_id":"4","last_reported":1770626218,"current_range_meters":4000,"station_id":"ce4bgl92rcd13ifvqbq0","pricing_plan_id":"cebpf4jnsgd1na2vs0mg"},{"bike_id":"32577ebd-ed06-4347-93dc-05d682fb3828","system_id":"levelo_inurba_marseille","lat":43.24482,"lon":5.42535,"is_reserved":false,"is_disabled":false,"rental_uris":{"android":"levelo://app?vid=32577ebd-ed06-4347-93dc-05d682fb3828","ios":"levelo://app?vid=32577ebd-ed06-4347-93dc-05d682fb3828"},"vehicle_type_id":"4","last_reported":1770626218,"current_range_meters":4000,"station_id":"st_d4a3vfp97mjs738cd8kg","pricing_plan_id":"cebpf4jnsgd1na2vs0mg"},{"bike_id":"150fa605-1342-42d0-b038-c87938e3cafd","system_id":"levelo_inurba_marseille","lat":43.26209,"lon":5.37913,"is_reserved":false,"is_disabled":false,"rental_uris":{"android":"levelo://app?vid=150fa605-1342-42d0-b038-c87938e3cafd","ios":"levelo://app?vid=150fa605-1342-42d0-b038-c87938e3cafd"},"vehicle_type_id":"4","last_reported":1770626218,"current_range_meters":4000,"station_id":"ce4bhjp2rcd13ifvqg90","pricing_plan_id":"cebpf4jnsgd1na2vs0mg"},{"bike_id":"ec530521-2795-4ff9-af45-352d2124398c","system_id":"levelo_inurba_marseille","lat":43.3136,"lon":5.36703,"is_reserved":false,"is_disabled":true,"rental_uris":{"android":"levelo://app?vid=ec530521-2795-4ff9-af45-352d2124398c","ios":"levelo://app?vid=ec530521-2795-4ff9-af45-352d2124398c"},"vehicle_type_id":"4","last_reported":1770626218,"current_range_meters":4000,"station_id":"ce4bgr92rcd13ifvqc6g","pricing_plan_id":"cebpf4jnsgd1na2vs0mg"},{"bike_id":"2ec8dfc1-6364-4f8d-b3dd-d63bc7efaa91","system_id":"levelo_inurba_marseille","lat":43.32052,"lon":5.36767,"is_reserved":false,"is_disabled":false,"rental_uris":{"android":"levelo://app?vid=2ec8dfc1-6364-4f8d-b3dd-d63bc7efaa91","ios":"levelo://app?vid=2ec8dfc1-6364-4f8d-b3dd-d63bc7efaa91"},"vehicle_type_id":"4","last_reported":1770626218,"current_range_meters":4000,"station_id":"ce4bhrh2rcd13ifvqhug","pricing_plan_id":"cebpf4jnsgd1na2vs0mg"},{"bike_id":"1018f8f5-5430-414a-8a76-976467389ad4","system_id":"levelo_inurba_marseille","lat":43.29318,"lon":5.37152,"is_reserved":false,"is_disabled":true,"rental_uris":{"android":"levelo://app?vid=1018f8f5-5430-414a-8a76-976467389ad4","ios":"levelo://app?vid=1018f8f5-5430-414a-8a76-976467389ad4"},"vehicle_type_id":"4","last_reported":1770626218,"current_range_meters":4000,"station_id":"ce4bgh92rcd13ifvqb40","pricing_plan_id":"cebpf4jnsgd1na2vs0mg"},{"bike_id":"fbd8c4f9-3856-46a2-b291-e190e6907420","system_id":"levelo_inurba_marseille","lat":43.25003,"lon":5.38928,"is_reserved":false,"is_disabled":false,"rental_uris":{"android":"levelo://app?vid=fbd8c4f9-3856-46a2-b291-e190e6907420","ios":"levelo://app?vid=fbd8c4f9-3856-46a2-b291-e190e6907420"},"vehicle_type_id":"4","last_reported":1770626218,"current_range_meters":4000,"station_id":"ce4bhgp2rcd13ifvqfd0","pricing_plan_id":"cebpf4jnsgd1na2vs0mg"},{"bike_id":"1a1d969f-bada-4aaa-a461-ec3f4a01601c","system_id":"levelo_inurba_marseille","lat":43.33538,"lon":5.37479,"is_reserved":false,"is_disabled":false,"rental_uris":{"android":"levelo://app?vid=1a1d969f-bada-4aaa-a461-ec3f4a01601c","ios":"levelo://app?vid=1a1d969f-bada-4aaa-a461-ec3f4a01601c"},"vehicle_type_id":"4","last_reported":1770626218,"current_range_meters":4000,"station_id":"","pricing_plan_id":"cebpf4jnsgd1na2vs0mg"},{"bike_id":"6efb4e53-30be-47b9-a3ad-38e5a582a760","system_id":"levelo_inurba_marseille","lat":43.2708,"lon":5.42274,"is_reserved":false,"is_disabled":false,"rental_uris":{"android":"levelo://app?vid=6efb4e53-30be-47b9-a3ad-38e5a582a760","ios":"levelo://app?vid=6efb4e53-30be-47b9-a3ad-38e5a582a760"},"vehicle_type_id":"4","last_reported":1770626218,"current_range_meters":4000,"station_id":"ce4bhk92rcd13ifvqgb0","pricing_plan_id":"cebpf4jnsgd1na2vs0mg"},{"bike_id":"155a788c-3210-4e6a-b211-01617931334a","system_id":"levelo_inurba_marseille","lat":43.337444,"lon":5.374475,"is_reserved":false,"is_disabled":false,"rental_uris":{"android":"levelo://app?vid=155a788c-3210-4e6a-b211-01617931334a","ios":"levelo://app?vid=155a788c-3210-4e6a-b211-01617931334a"},"vehicle_type_id":"4","last_reported":1770626218,"current_range_meters":4400,"station_id":"","pricing_plan_id":"cebpf4jnsgd1na2vs0mg"},{"bike_id":"c1c15dd8-d5f4-419a-b7d9-76b9cd0f2968","system_id":"levelo_inurba_marseille","lat":43.28275,"lon":5.35072,"is_reserved":false,"is_disabled":false,"rental_uris":{"android":"levelo://app?vid=c1c15dd8-d5f4-419a-b7d9-76b9cd0f2968","ios":"levelo://app?vid=c1c15dd8-d5f4-419a-b7d9-76b9cd0f2968"},"vehicle_type_id":"4","last_reported":1770626218,"current_range_meters":4400,"station_id":"ce4bhbp2rcd13ifvqerg","pricing_plan_id":"cebpf4jnsgd1na2vs0mg"},{"bike_id":"c56d43dd-e9d1-4799-b54b-fccfe3e24e0f","system_id":"levelo_inurba_marseille","lat":43.24999,"lon":5.38951,"is_reserved":false,"is_disabled":false,"rental_uris":{"android":"levelo://app?vid=c56d43dd-e9d1-4799-b54b-fccfe3e24e0f","ios":"levelo://app?vid=c56d43dd-e9d1-4799-b54b-fccfe3e24e0f"},"vehicle_type_id":"4","last_reported":1770626218,"current_range_meters":4400,"station_id":"ce4bhgp2rcd13ifvqfd0","pricing_plan_id":"cebpf4jnsgd1na2vs0mg"},{"bike_id":"5f9bd2ca-91e3-4fbe-a1bb-af05a97d2ea2","system_id":"levelo_inurba_marseille","lat":43.31461,"lon":5.45383,"is_reserved":false,"is_disabled":false,"rental_uris":{"android":"levelo://app?vid=5f9bd2ca-91e3-4fbe-a1bb-af05a97d2ea2","ios":"levelo://app?vid=5f9bd2ca-91e3-4fbe-a1bb-af05a97d2ea2"},"vehicle_type_id":"4","last_reported":1770626218,"current_range_meters":4400,"station_id":"","pricing_plan_id":"cebpf4jnsgd1na2vs0mg"},{"bike_id":"cfb9f90a-8bba-4df6-b769-b6924ddbf8e2","system_id":"levelo_inurba_marseille","lat":43.26187,"lon":5.37936,"is_reserved":false,"is_disabled":false,"rental_uris":{"android":"levelo://app?vid=cfb9f90a-8bba-4df6-b769-b6924ddbf8e2","ios":"levelo://app?vid=cfb9f90a-8bba-4df6-b769-b6924ddbf8e2"},"vehicle_type_id":"4","last_reported":1770626218,"current_range_meters":4400,"station_id":"ce4bhjp2rcd13ifvqg90","pricing_plan_id":"cebpf4jnsgd1na2vs0mg"},{"bike_id":"1df53cd8-1274-4a22-9367-1830f55326c1","system_id":"levelo_inurba_marseille","lat":43.29101,"lon":5.38123,"is_reserved":false,"is_disabled":false,"rental_uris":{"android":"levelo://app?vid=1df53cd8-1274-4a22-9367-1830f55326c1","ios":"levelo://app?vid=1df53cd8-1274-4a22-9367-1830f55326c1"},"vehicle_type_id":"4","last_reported":1770626218,"current_range_meters":4400,"station_id":"ce4bh512rcd13ifvqe2g","pricing_plan_id":"cebpf4jnsgd1na2vs0mg"},{"bike_id":"fabfd8e2-2a3c-4644-9e86-06a3438954fc","system_id":"levelo_inurba_marseille","lat":43.31222,"lon":5.36864,"is_reserved":false,"is_disabled":false,"rental_uris":{"android":"levelo://app?vid=fabfd8e2-2a3c-4644-9e86-06a3438954fc","ios":"levelo://app?vid=fabfd8e2-2a3c-4644-9e86-06a3438954fc"},"vehicle_type_id":"4","last_reported":1770626218,"current_range_meters":4400,"station_id":"ce4bgl92rcd13ifvqbq0","pricing_plan_id":"cebpf4jnsgd1na2vs0mg"},{"bike_id":"0b84e61d-62ba-4706-80f1-3a72823c8089","system_id":"levelo_inurba_marseille","lat":43.25927,"lon":5.40914,"is_reserved":false,"is_disabled":false,"rental_uris":{"android":"levelo://app?vid=0b84e61d-62ba-4706-80f1-3a72823c8089","ios":"levelo://app?vid=0b84e61d-62ba-4706-80f1-3a72823c8089"},"vehicle_type_id":"4","last_reported":1770626218,"current_range_meters":4800,"station_id":"ce4bhm92rcd13ifvqglg","pricing_plan_id":"cebpf4jnsgd1na2vs0mg"},{"bike_id":"867458d9-c09f-4165-b1af-e2013b3a197e","system_id":"levelo_inurba_marseille","lat":43.24637,"lon":5.38913,"is_reserved":false,"is_disabled":false,"rental_uris":{"android":"levelo://app?vid=867458d9-c09f-4165-b1af-e2013b3a197e","ios":"levelo://app?vid=867458d9-c09f-4165-b1af-e2013b3a197e"},"vehicle_type_id":"4","last_reported":1770626218,"current_range_meters":4800,"station_id":"ce4bhg12rcd13ifvqf60","pricing_plan_id":"cebpf4jnsgd1na2vs0mg"},{"bike_id":"0c2c272e-d223-43a8-9f2f-3e8aef87ad89","system_id":"levelo_inurba_marseille","lat":43.275629,"lon":5.384192,"is_reserved":false,"is_disabled":false,"rental_uris":{"android":"levelo://app?vid=0c2c272e-d223-43a8-9f2f-3e8aef87ad89","ios":"levelo://app?vid=0c2c272e-d223-43a8-9f2f-3e8aef87ad89"},"vehicle_type_id":"4","last_reported":1770626218,"current_range_meters":4800,"station_id":"ce4bh0h2rcd13ifvqd60","pricing_plan_id":"cebpf4jnsgd1na2vs0mg"},{"bike_id":"c05c8adc-0246-4ef1-a513-6e4ec15e7f07","system_id":"levelo_inurba_marseille","lat":43.30901,"lon":5.36843,"is_reserved":false,"is_disabled":false,"rental_uris":{"android":"levelo://app?vid=c05c8adc-0246-4ef1-a513-6e4ec15e7f07","ios":"levelo://app?vid=c05c8adc-0246-4ef1-a513-6e4ec15e7f07"},"vehicle_type_id":"4","last_reported":1770626218,"current_range_meters":4800,"station_id":"ce4bgn92rcd13ifvqbvg","pricing_plan_id":"cebpf4jnsgd1na2vs0mg"},{"bike_id":"364ea28f-7e20-4ad8-9bf1-69b2e8dad65e","system_id":"levelo_inurba_marseille","lat":43.28624,"lon":5.44337,"is_reserved":false,"is_disabled":false,"rental_uris":{"android":"levelo://app?vid=364ea28f-7e20-4ad8-9bf1-69b2e8dad65e","ios":"levelo://app?vid=364ea28f-7e20-4ad8-9bf1-69b2e8dad65e"},"vehicle_type_id":"4","last_reported":1770626218,"current_range_meters":4800,"station_id":"","pricing_plan_id":"cebpf4jnsgd1na2vs0mg"},{"bike_id":"4414a71f-328e-433c-ae9b-b1fe012b70ff","system_id":"levelo_inurba_marseille","lat":43.30297,"lon":5.37709,"is_reserved":false,"is_disabled":false,"rental_uris":{"android":"levelo://app?vid=4414a71f-328e-433c-ae9b-b1fe012b70ff","ios":"levelo://app?vid=4414a71f-328e-433c-ae9b-b1fe012b70ff"},"vehicle_type_id":"4","last_reported":1770626218,"current_range_meters":4800,"station_id":"ce4bguh2rcd13ifvqcj0","pricing_plan_id":"cebpf4jnsgd1na2vs0mg"},{"bike_id":"f297235e-fb58-4e68-823d-22cda39c7118","system_id":"levelo_inurba_marseille","lat":43.29776,"lon":5.37116,"is_reserved":false,"is_disabled":false,"rental_uris":{"android":"levelo://app?vid=f297235e-fb58-4e68-823d-22cda39c7118","ios":"levelo://app?vid=f297235e-fb58-4e68-823d-22cda39c7118"},"vehicle_type_id":"4","last_reported":1770626218,"current_range_meters":4800,"station_id":"ce4bgop2rcd13ifvqc1g","pricing_plan_id":"cebpf4jnsgd1na2vs0mg"},{"bike_id":"72cd670e-f13f-48a4-b191-8f7d845b9179","system_id":"levelo_inurba_marseille","lat":43.251068,"lon":5.40325,"is_reserved":false,"is_disabled":false,"rental_uris":{"android":"levelo://app?vid=72cd670e-f13f-48a4-b191-8f7d845b9179","ios":"levelo://app?vid=72cd670e-f13f-48a4-b191-8f7d845b9179"},"vehicle_type_id":"4","last_reported":1770626218,"current_range_meters":4800,"station_id":"ce4bhlh2rcd13ifvqgig","pricing_plan_id":"cebpf4jnsgd1na2vs0mg"},{"bike_id":"4b9bbde0-30cc-4c3d-973e-6947c0246c0b","system_id":"levelo_inurba_marseille","lat":43.26556,"lon":5.3728,"is_reserved":false,"is_disabled":false,"rental_uris":{"android":"levelo://app?vid=4b9bbde0-30cc-4c3d-973e-6947c0246c0b","ios":"levelo://app?vid=4b9bbde0-30cc-4c3d-973e-6947c0246c0b"},"vehicle_type_id":"4","last_reported":1770626218,"current_range_meters":5600,"station_id":"ce4bhg12rcd13ifvqf70","pricing_plan_id":"cebpf4jnsgd1na2vs0mg"},{"bike_id":"98e61b74-3ca5-466f-b460-5e4ff3753470","system_id":"levelo_inurba_marseille","lat":43.288459,"lon":5.358409,"is_reserved":false,"is_disabled":false,"rental_uris":{"android":"levelo://app?vid=98e61b74-3ca5-466f-b460-5e4ff3753470","ios":"levelo://app?vid=98e61b74-3ca5-466f-b460-5e4ff3753470"},"vehicle_type_id":"4","last_reported":1770626218,"current_range_meters":5600,"station_id":"ce4bhb12rcd13ifvqem0","pricing_plan_id":"cebpf4jnsgd1na2vs0mg"},{"bike_id":"93d2f206-3fcb-4c57-9f72-142295498e9f","system_id":"levelo_inurba_marseille","lat":43.30888,"lon":5.37176,"is_reserved":false,"is_disabled":false,"rental_uris":{"android":"levelo://app?vid=93d2f206-3fcb-4c57-9f72-142295498e9f","ios":"levelo://app?vid=93d2f206-3fcb-4c57-9f72-142295498e9f"},"vehicle_type_id":"4","last_reported":1770626218,"current_range_meters":5600,"station_id":"ce4bguh2rcd13ifvqckg","pricing_plan_id":"cebpf4jnsgd1na2vs0mg"},{"bike_id":"79271155-1aff-4de8-a753-6006b8197aa8","system_id":"levelo_inurba_marseille","lat":43.240718,"lon":5.377534,"is_reserved":false,"is_disabled":false,"rental_uris":{"android":"levelo://app?vid=79271155-1aff-4de8-a753-6006b8197aa8","ios":"levelo://app?vid=79271155-1aff-4de8-a753-6006b8197aa8"},"vehicle_type_id":"4","last_reported":1770626218,"current_range_meters":5600,"station_id":"ce4bhnp2rcd13ifvqgvg","pricing_plan_id":"cebpf4jnsgd1na2vs0mg"},{"bike_id":"be5ee9c8-83a0-47f1-aa70-8349319881b3","system_id":"levelo_inurba_marseille","lat":43.29805,"lon":5.4406,"is_reserved":false,"is_disabled":false,"rental_uris":{"android":"levelo://app?vid=be5ee9c8-83a0-47f1-aa70-8349319881b3","ios":"levelo://app?vid=be5ee9c8-83a0-47f1-aa70-8349319881b3"},"vehicle_type_id":"4","last_reported":1770626218,"current_range_meters":5600,"station_id":"st_d3jp68qikq2c7381ktn0","pricing_plan_id":"cebpf4jnsgd1na2vs0mg"},{"bike_id":"131c8bc6-588e-4f5d-851b-303b7978f745","system_id":"levelo_inurba_marseille","lat":43.25951,"lon":5.40892,"is_reserved":false,"is_disabled":false,"rental_uris":{"android":"levelo://app?vid=131c8bc6-588e-4f5d-851b-303b7978f745","ios":"levelo://app?vid=131c8bc6-588e-4f5d-851b-303b7978f745"},"vehicle_type_id":"4","last_reported":1770626218,"current_range_meters":5600,"station_id":"ce4bhm92rcd13ifvqglg","pricing_plan_id":"cebpf4jnsgd1na2vs0mg"},{"bike_id":"edc9c679-e0d1-4084-a3db-3f6b1a28aa12","system_id":"levelo_inurba_marseille","lat":43.28522,"lon":5.44088,"is_reserved":false,"is_disabled":false,"rental_uris":{"android":"levelo://app?vid=edc9c679-e0d1-4084-a3db-3f6b1a28aa12","ios":"levelo://app?vid=edc9c679-e0d1-4084-a3db-3f6b1a28aa12"},"vehicle_type_id":"4","last_reported":1770626218,"current_range_meters":5600,"station_id":"st_d3j3df2ikq2c7380ej80","pricing_plan_id":"cebpf4jnsgd1na2vs0mg"},{"bike_id":"381b0aff-39c2-47a2-a112-f1518c5106b4","system_id":"levelo_inurba_marseille","lat":43.28495,"lon":5.38413,"is_reserved":false,"is_disabled":false,"rental_uris":{"android":"levelo://app?vid=381b0aff-39c2-47a2-a112-f1518c5106b4","ios":"levelo://app?vid=381b0aff-39c2-47a2-a112-f1518c5106b4"},"vehicle_type_id":"4","last_reported":1770626218,"current_range_meters":5600,"station_id":"ce4bh512rcd13ifvqe3g","pricing_plan_id":"cebpf4jnsgd1na2vs0mg"},{"bike_id":"b28cbfe7-8468-477d-96e8-07c7189d7526","system_id":"levelo_inurba_marseille","lat":43.24073,"lon":5.37752,"is_reserved":false,"is_disabled":false,"rental_uris":{"android":"levelo://app?vid=b28cbfe7-8468-477d-96e8-07c7189d7526","ios":"levelo://app?vid=b28cbfe7-8468-477d-96e8-07c7189d7526"},"vehicle_type_id":"4","last_reported":1770626218,"current_range_meters":5600,"station_id":"ce4bhnp2rcd13ifvqgvg","pricing_plan_id":"cebpf4jnsgd1na2vs0mg"},{"bike_id":"17968de5-defb-4ea9-8f1f-a7e689a3072b","system_id":"levelo_inurba_marseille","lat":43.28104,"lon":5.37832,"is_reserved":false,"is_disabled":false,"rental_uris":{"android":"levelo://app?vid=17968de5-defb-4ea9-8f1f-a7e689a3072b","ios":"levelo://app?vid=17968de5-defb-4ea9-8f1f-a7e689a3072b"},"vehicle_type_id":"4","last_reported":1770626218,"current_range_meters":5600,"station_id":"ce4bha12rcd13ifvqee0","pricing_plan_id":"cebpf4jnsgd1na2vs0mg"},{"bike_id":"7860383d-3a06-4805-acb0-c7c85d2c34f9","system_id":"levelo_inurba_marseille","lat":43.2736,"lon":5.39058,"is_reserved":false,"is_disabled":false,"rental_uris":{"android":"levelo://app?vid=7860383d-3a06-4805-acb0-c7c85d2c34f9","ios":"levelo://app?vid=7860383d-3a06-4805-acb0-c7c85d2c34f9"},"vehicle_type_id":"4","last_reported":1770626218,"current_range_meters":6000,"station_id":"ce4bhgp2rcd13ifvqfe0","pricing_plan_id":"cebpf4jnsgd1na2vs0mg"},{"bike_id":"e02d2b38-58ae-453d-9693-7a6a850a6521","system_id":"levelo_inurba_marseille","lat":43.26196,"lon":5.37496,"is_reserved":false,"is_disabled":false,"rental_uris":{"android":"levelo://app?vid=e02d2b38-58ae-453d-9693-7a6a850a6521","ios":"levelo://app?vid=e02d2b38-58ae-453d-9693-7a6a850a6521"},"vehicle_type_id":"4","last_reported":1770626218,"current_range_meters":6000,"station_id":"ce4bhgp2rcd13ifvqfc0","pricing_plan_id":"cebpf4jnsgd1na2vs0mg"},{"bike_id":"d6e8fe06-b550-42ce-961e-da1d44b232c1","system_id":"levelo_inurba_marseille","lat":43.29177,"lon":5.37134,"is_reserved":false,"is_disabled":false,"rental_uris":{"android":"levelo://app?vid=d6e8fe06-b550-42ce-961e-da1d44b232c1","ios":"levelo://app?vid=d6e8fe06-b550-42ce-961e-da1d44b232c1"},"vehicle_type_id":"4","last_reported":1770626218,"current_range_meters":6000,"station_id":"ce4bha92rcd13ifvqeh0","pricing_plan_id":"cebpf4jnsgd1na2vs0mg"},{"bike_id":"0f697d4a-cc0c-4feb-a89b-8d49871eb355","system_id":"levelo_inurba_marseille","lat":43.30901,"lon":5.37194,"is_reserved":false,"is_disabled":false,"rental_uris":{"android":"levelo://app?vid=0f697d4a-cc0c-4feb-a89b-8d49871eb355","ios":"levelo://app?vid=0f697d4a-cc0c-4feb-a89b-8d49871eb355"},"vehicle_type_id":"4","last_reported":1770626218,"current_range_meters":6000,"station_id":"ce4bguh2rcd13ifvqckg","pricing_plan_id":"cebpf4jnsgd1na2vs0mg"},{"bike_id":"223e7f19-3b42-4c08-9fa5-b2b15a1c6dd0","system_id":"levelo_inurba_marseille","lat":43.28955,"lon":5.39626,"is_reserved":false,"is_disabled":false,"rental_uris":{"android":"levelo://app?vid=223e7f19-3b42-4c08-9fa5-b2b15a1c6dd0","ios":"levelo://app?vid=223e7f19-3b42-4c08-9fa5-b2b15a1c6dd0"},"vehicle_type_id":"4","last_reported":1770626218,"current_range_meters":6000,"station_id":"ce4bh3h2rcd13ifvqdn0","pricing_plan_id":"cebpf4jnsgd1na2vs0mg"},{"bike_id":"e78275eb-3967-43e3-847b-4f8f52237aae","system_id":"levelo_inurba_marseille","lat":43.30434,"lon":5.388941,"is_reserved":false,"is_disabled":false,"rental_uris":{"android":"levelo://app?vid=e78275eb-3967-43e3-847b-4f8f52237aae","ios":"levelo://app?vid=e78275eb-3967-43e3-847b-4f8f52237aae"},"vehicle_type_id":"4","last_reported":1770626218,"current_range_meters":6000,"station_id":"","pricing_plan_id":"cebpf4jnsgd1na2vs0mg"},{"bike_id":"55afc012-7d9e-494f-8ec6-1fffacfb0da4","system_id":"levelo_inurba_marseille","lat":43.26549,"lon":5.40327,"is_reserved":false,"is_disabled":false,"rental_uris":{"android":"levelo://app?vid=55afc012-7d9e-494f-8ec6-1fffacfb0da4","ios":"levelo://app?vid=55afc012-7d9e-494f-8ec6-1fffacfb0da4"},"vehicle_type_id":"4","last_reported":1770626218,"current_range_meters":6000,"station_id":"ce4bhmp2rcd13ifvqgng","pricing_plan_id":"cebpf4jnsgd1na2vs0mg"},{"bike_id":"315cf66a-d85d-4420-b0f7-0067dbd4c398","system_id":"levelo_inurba_marseille","lat":43.26189,"lon":5.37948,"is_reserved":false,"is_disabled":false,"rental_uris":{"android":"levelo://app?vid=315cf66a-d85d-4420-b0f7-0067dbd4c398","ios":"levelo://app?vid=315cf66a-d85d-4420-b0f7-0067dbd4c398"},"vehicle_type_id":"4","last_reported":1770626218,"current_range_meters":6000,"station_id":"ce4bhjp2rcd13ifvqg90","pricing_plan_id":"cebpf4jnsgd1na2vs0mg"},{"bike_id":"4be3d6c4-8ec4-4e65-9be4-96011800ad11","system_id":"levelo_inurba_marseille","lat":43.26667,"lon":5.38264,"is_reserved":false,"is_disabled":false,"rental_uris":{"android":"levelo://app?vid=4be3d6c4-8ec4-4e65-9be4-96011800ad11","ios":"levelo://app?vid=4be3d6c4-8ec4-4e65-9be4-96011800ad11"},"vehicle_type_id":"4","last_reported":1770626218,"current_range_meters":6000,"station_id":"ce4bhg92rcd13ifvqf90","pricing_plan_id":"cebpf4jnsgd1na2vs0mg"},{"bike_id":"317dad32-e91b-4bc3-9480-60cfd5be8e82","system_id":"levelo_inurba_marseille","lat":43.24671,"lon":5.38157,"is_reserved":false,"is_disabled":false,"rental_uris":{"android":"levelo://app?vid=317dad32-e91b-4bc3-9480-60cfd5be8e82","ios":"levelo://app?vid=317dad32-e91b-4bc3-9480-60cfd5be8e82"},"vehicle_type_id":"4","last_reported":1770626218,"current_range_meters":6000,"station_id":"ce4bhih2rcd13ifvqfr0","pricing_plan_id":"cebpf4jnsgd1na2vs0mg"},{"bike_id":"75498cc1-bc7b-4283-a164-ce3118e847b8","system_id":"levelo_inurba_marseille","lat":43.25958,"lon":5.40897,"is_reserved":false,"is_disabled":false,"rental_uris":{"android":"levelo://app?vid=75498cc1-bc7b-4283-a164-ce3118e847b8","ios":"levelo://app?vid=75498cc1-bc7b-4283-a164-ce3118e847b8"},"vehicle_type_id":"4","last_reported":1770626218,"current_range_meters":6400,"station_id":"ce4bhm92rcd13ifvqglg","pricing_plan_id":"cebpf4jnsgd1na2vs0mg"},{"bike_id":"fe378c8a-af6f-4a60-a77b-ec7632678b42","system_id":"levelo_inurba_marseille","lat":43.29267,"lon":5.36859,"is_reserved":false,"is_disabled":false,"rental_uris":{"android":"levelo://app?vid=fe378c8a-af6f-4a60-a77b-ec7632678b42","ios":"levelo://app?vid=fe378c8a-af6f-4a60-a77b-ec7632678b42"},"vehicle_type_id":"4","last_reported":1770626218,"current_range_meters":6400,"station_id":"ce4bhbp2rcd13ifvqesg","pricing_plan_id":"cebpf4jnsgd1na2vs0mg"},{"bike_id":"502b6ee6-be77-4632-84c8-9f5a75ca035f","system_id":"levelo_inurba_marseille","lat":43.25827,"lon":5.40953,"is_reserved":false,"is_disabled":false,"rental_uris":{"android":"levelo://app?vid=502b6ee6-be77-4632-84c8-9f5a75ca035f","ios":"levelo://app?vid=502b6ee6-be77-4632-84c8-9f5a75ca035f"},"vehicle_type_id":"4","last_reported":1770626218,"current_range_meters":6400,"station_id":"","pricing_plan_id":"cebpf4jnsgd1na2vs0mg"},{"bike_id":"e6efdf96-235f-43d9-bd09-55cbebf52e6a","system_id":"levelo_inurba_marseille","lat":43.25936,"lon":5.40901,"is_reserved":false,"is_disabled":false,"rental_uris":{"android":"levelo://app?vid=e6efdf96-235f-43d9-bd09-55cbebf52e6a","ios":"levelo://app?vid=e6efdf96-235f-43d9-bd09-55cbebf52e6a"},"vehicle_type_id":"4","last_reported":1770626218,"current_range_meters":6400,"station_id":"ce4bhm92rcd13ifvqglg","pricing_plan_id":"cebpf4jnsgd1na2vs0mg"},{"bike_id":"bedce069-4d28-48b5-b3fa-ff3f22262cbf","system_id":"levelo_inurba_marseille","lat":43.33609,"lon":5.41006,"is_reserved":false,"is_disabled":false,"rental_uris":{"android":"levelo://app?vid=bedce069-4d28-48b5-b3fa-ff3f22262cbf","ios":"levelo://app?vid=bedce069-4d28-48b5-b3fa-ff3f22262cbf"},"vehicle_type_id":"4","last_reported":1770626218,"current_range_meters":6400,"station_id":"ce4bhqh2rcd13ifvqhmg","pricing_plan_id":"cebpf4jnsgd1na2vs0mg"},{"bike_id":"a69c6d46-0f4b-4ef5-9649-768f405cc714","system_id":"levelo_inurba_marseille","lat":43.270634,"lon":5.383006,"is_reserved":false,"is_disabled":false,"rental_uris":{"android":"levelo://app?vid=a69c6d46-0f4b-4ef5-9649-768f405cc714","ios":"levelo://app?vid=a69c6d46-0f4b-4ef5-9649-768f405cc714"},"vehicle_type_id":"4","last_reported":1770626218,"current_range_meters":6400,"station_id":"st_d3n2fo6cfp8s73cte1j0","pricing_plan_id":"cebpf4jnsgd1na2vs0mg"},{"bike_id":"10af736b-2c76-400f-93fc-8d2219df21c2","system_id":"levelo_inurba_marseille","lat":43.27665,"lon":5.38893,"is_reserved":false,"is_disabled":false,"rental_uris":{"android":"levelo://app?vid=10af736b-2c76-400f-93fc-8d2219df21c2","ios":"levelo://app?vid=10af736b-2c76-400f-93fc-8d2219df21c2"},"vehicle_type_id":"4","last_reported":1770626218,"current_range_meters":6400,"station_id":"ce4bhi12rcd13ifvqfo0","pricing_plan_id":"cebpf4jnsgd1na2vs0mg"},{"bike_id":"bbf851d3-26de-42f6-8410-9814f4dc9ec8","system_id":"levelo_inurba_marseille","lat":43.24943,"lon":5.40498,"is_reserved":false,"is_disabled":false,"rental_uris":{"android":"levelo://app?vid=bbf851d3-26de-42f6-8410-9814f4dc9ec8","ios":"levelo://app?vid=bbf851d3-26de-42f6-8410-9814f4dc9ec8"},"vehicle_type_id":"4","last_reported":1770626218,"current_range_meters":6400,"station_id":"st_d2ngiaodas8pm72gd1h0","pricing_plan_id":"cebpf4jnsgd1na2vs0mg"},{"bike_id":"509ca6a2-7d5c-45bb-856a-bb1223664c37","system_id":"levelo_inurba_marseille","lat":43.2656,"lon":5.39022,"is_reserved":false,"is_disabled":false,"rental_uris":{"android":"levelo://app?vid=509ca6a2-7d5c-45bb-856a-bb1223664c37","ios":"levelo://app?vid=509ca6a2-7d5c-45bb-856a-bb1223664c37"},"vehicle_type_id":"4","last_reported":1770626218,"current_range_meters":6400,"station_id":"ce4bhe12rcd13ifvqf30","pricing_plan_id":"cebpf4jnsgd1na2vs0mg"},{"bike_id":"aa491c89-57cc-4f20-8776-a2df30b3f75d","system_id":"levelo_inurba_marseille","lat":43.23186,"lon":5.39987,"is_reserved":false,"is_disabled":false,"rental_uris":{"android":"levelo://app?vid=aa491c89-57cc-4f20-8776-a2df30b3f75d","ios":"levelo://app?vid=aa491c89-57cc-4f20-8776-a2df30b3f75d"},"vehicle_type_id":"4","last_reported":1770626218,"current_range_meters":6400,"station_id":"ce4bhn12rcd13ifvqgqg","pricing_plan_id":"cebpf4jnsgd1na2vs0mg"},{"bike_id":"254ebd45-4b35-4531-86e8-1a286257fdff","system_id":"levelo_inurba_marseille","lat":43.27565,"lon":5.384,"is_reserved":false,"is_disabled":false,"rental_uris":{"android":"levelo://app?vid=254ebd45-4b35-4531-86e8-1a286257fdff","ios":"levelo://app?vid=254ebd45-4b35-4531-86e8-1a286257fdff"},"vehicle_type_id":"4","last_reported":1770626218,"current_range_meters":6400,"station_id":"ce4bhh92rcd13ifvqfi0","pricing_plan_id":"cebpf4jnsgd1na2vs0mg"},{"bike_id":"53ffd820-7dfe-4416-9f1c-41399f6d763d","system_id":"levelo_inurba_marseille","lat":43.26557,"lon":5.37283,"is_reserved":false,"is_disabled":false,"rental_uris":{"android":"levelo://app?vid=53ffd820-7dfe-4416-9f1c-41399f6d763d","ios":"levelo://app?vid=53ffd820-7dfe-4416-9f1c-41399f6d763d"},"vehicle_type_id":"4","last_reported":1770626218,"current_range_meters":6400,"station_id":"ce4bhg12rcd13ifvqf70","pricing_plan_id":"cebpf4jnsgd1na2vs0mg"},{"bike_id":"f49ad388-e94c-454c-8938-25fc3ecd61e0","system_id":"levelo_inurba_marseille","lat":43.29541,"lon":5.37504,"is_reserved":false,"is_disabled":false,"rental_uris":{"android":"levelo://app?vid=f49ad388-e94c-454c-8938-25fc3ecd61e0","ios":"levelo://app?vid=f49ad388-e94c-454c-8938-25fc3ecd61e0"},"vehicle_type_id":"4","last_reported":1770626218,"current_range_meters":6800,"station_id":"ce4bgkp2rcd13ifvqbmg","pricing_plan_id":"cebpf4jnsgd1na2vs0mg"},{"bike_id":"ed3eb101-3fee-4107-bd88-18cd152f2b08","system_id":"levelo_inurba_marseille","lat":43.27207,"lon":5.39169,"is_reserved":false,"is_disabled":false,"rental_uris":{"android":"levelo://app?vid=ed3eb101-3fee-4107-bd88-18cd152f2b08","ios":"levelo://app?vid=ed3eb101-3fee-4107-bd88-18cd152f2b08"},"vehicle_type_id":"4","last_reported":1770626218,"current_range_meters":6800,"station_id":"ce4bhhp2rcd13ifvqfm0","pricing_plan_id":"cebpf4jnsgd1na2vs0mg"},{"bike_id":"996a510f-70dd-4518-939f-228af375066f","system_id":"levelo_inurba_marseille","lat":43.298139,"lon":5.440629,"is_reserved":false,"is_disabled":false,"rental_uris":{"android":"levelo://app?vid=996a510f-70dd-4518-939f-228af375066f","ios":"levelo://app?vid=996a510f-70dd-4518-939f-228af375066f"},"vehicle_type_id":"4","last_reported":1770626218,"current_range_meters":6800,"station_id":"st_d3jp68qikq2c7381ktn0","pricing_plan_id":"cebpf4jnsgd1na2vs0mg"},{"bike_id":"5d1de9d4-2e99-430a-8dcb-f579bf7e4cec","system_id":"levelo_inurba_marseille","lat":43.335454,"lon":5.374645,"is_reserved":false,"is_disabled":false,"rental_uris":{"android":"levelo://app?vid=5d1de9d4-2e99-430a-8dcb-f579bf7e4cec","ios":"levelo://app?vid=5d1de9d4-2e99-430a-8dcb-f579bf7e4cec"},"vehicle_type_id":"4","last_reported":1770626218,"current_range_meters":6800,"station_id":"st_d46tts09ee8s73dlu43g","pricing_plan_id":"cebpf4jnsgd1na2vs0mg"},{"bike_id":"18193969-f4a0-4413-8fe1-fadaf0e35a4a","system_id":"levelo_inurba_marseille","lat":43.335407,"lon":5.374611,"is_reserved":false,"is_disabled":false,"rental_uris":{"android":"levelo://app?vid=18193969-f4a0-4413-8fe1-fadaf0e35a4a","ios":"levelo://app?vid=18193969-f4a0-4413-8fe1-fadaf0e35a4a"},"vehicle_type_id":"4","last_reported":1770626218,"current_range_meters":6800,"station_id":"st_d46tts09ee8s73dlu43g","pricing_plan_id":"cebpf4jnsgd1na2vs0mg"},{"bike_id":"f172d56e-ff75-477b-80a9-7f64bf923fd2","system_id":"levelo_inurba_marseille","lat":43.27187,"lon":5.40991,"is_reserved":false,"is_disabled":false,"rental_uris":{"android":"levelo://app?vid=f172d56e-ff75-477b-80a9-7f64bf923fd2","ios":"levelo://app?vid=f172d56e-ff75-477b-80a9-7f64bf923fd2"},"vehicle_type_id":"4","last_reported":1770626218,"current_range_meters":6800,"station_id":"ce4bhl12rcd13ifvqgf0","pricing_plan_id":"cebpf4jnsgd1na2vs0mg"},{"bike_id":"32c81d30-7e50-4879-9652-ae67c4d9e9a7","system_id":"levelo_inurba_marseille","lat":43.30731,"lon":5.42444,"is_reserved":false,"is_disabled":false,"rental_uris":{"android":"levelo://app?vid=32c81d30-7e50-4879-9652-ae67c4d9e9a7","ios":"levelo://app?vid=32c81d30-7e50-4879-9652-ae67c4d9e9a7"},"vehicle_type_id":"4","last_reported":1770626218,"current_range_meters":6800,"station_id":"st_cvj6ca6bvosntc0bfgr0","pricing_plan_id":"cebpf4jnsgd1na2vs0mg"},{"bike_id":"a7f6781e-f169-4536-be09-2e1d45fca1f3","system_id":"levelo_inurba_marseille","lat":43.26681,"lon":5.38273,"is_reserved":false,"is_disabled":false,"rental_uris":{"android":"levelo://app?vid=a7f6781e-f169-4536-be09-2e1d45fca1f3","ios":"levelo://app?vid=a7f6781e-f169-4536-be09-2e1d45fca1f3"},"vehicle_type_id":"4","last_reported":1770626218,"current_range_meters":6800,"station_id":"ce4bhg92rcd13ifvqf90","pricing_plan_id":"cebpf4jnsgd1na2vs0mg"},{"bike_id":"d8ba07be-4909-4867-9013-61baab37ba2e","system_id":"levelo_inurba_marseille","lat":43.22571,"lon":5.41623,"is_reserved":false,"is_disabled":false,"rental_uris":{"android":"levelo://app?vid=d8ba07be-4909-4867-9013-61baab37ba2e","ios":"levelo://app?vid=d8ba07be-4909-4867-9013-61baab37ba2e"},"vehicle_type_id":"4","last_reported":1770626218,"current_range_meters":6800,"station_id":"st_d2o4gvlbi1j2169b742g","pricing_plan_id":"cebpf4jnsgd1na2vs0mg"},{"bike_id":"d053c7f3-bbdf-4778-a5c0-9e3a9276e10c","system_id":"levelo_inurba_marseille","lat":43.26953,"lon":5.38633,"is_reserved":false,"is_disabled":false,"rental_uris":{"android":"levelo://app?vid=d053c7f3-bbdf-4778-a5c0-9e3a9276e10c","ios":"levelo://app?vid=d053c7f3-bbdf-4778-a5c0-9e3a9276e10c"},"vehicle_type_id":"4","last_reported":1770626218,"current_range_meters":6800,"station_id":"ce4bhh92rcd13ifvqfh0","pricing_plan_id":"cebpf4jnsgd1na2vs0mg"},{"bike_id":"3045fa36-8af2-484c-8446-799c7e150898","system_id":"levelo_inurba_marseille","lat":43.21186,"lon":5.35073,"is_reserved":false,"is_disabled":false,"rental_uris":{"android":"levelo://app?vid=3045fa36-8af2-484c-8446-799c7e150898","ios":"levelo://app?vid=3045fa36-8af2-484c-8446-799c7e150898"},"vehicle_type_id":"4","last_reported":1770626218,"current_range_meters":6800,"station_id":"st_cvj6sg6p6f1abm77japg","pricing_plan_id":"cebpf4jnsgd1na2vs0mg"},{"bike_id":"f66f77ca-8e30-4250-91f1-d5277ae6b4a1","system_id":"levelo_inurba_marseille","lat":43.24646,"lon":5.38881,"is_reserved":false,"is_disabled":false,"rental_uris":{"android":"levelo://app?vid=f66f77ca-8e30-4250-91f1-d5277ae6b4a1","ios":"levelo://app?vid=f66f77ca-8e30-4250-91f1-d5277ae6b4a1"},"vehicle_type_id":"4","last_reported":1770626218,"current_range_meters":6800,"station_id":"ce4bhg12rcd13ifvqf60","pricing_plan_id":"cebpf4jnsgd1na2vs0mg"},{"bike_id":"47f289b7-ae25-4402-9f33-06df0ff8137d","system_id":"levelo_inurba_marseille","lat":43.28483,"lon":5.38429,"is_reserved":false,"is_disabled":false,"rental_uris":{"android":"levelo://app?vid=47f289b7-ae25-4402-9f33-06df0ff8137d","ios":"levelo://app?vid=47f289b7-ae25-4402-9f33-06df0ff8137d"},"vehicle_type_id":"4","last_reported":1770626218,"current_range_meters":6800,"station_id":"ce4bh512rcd13ifvqe3g","pricing_plan_id":"cebpf4jnsgd1na2vs0mg"},{"bike_id":"4cb41873-94b3-45a8-943f-68b155989d6d","system_id":"levelo_inurba_marseille","lat":43.29842,"lon":5.36303,"is_reserved":false,"is_disabled":false,"rental_uris":{"android":"levelo://app?vid=4cb41873-94b3-45a8-943f-68b155989d6d","ios":"levelo://app?vid=4cb41873-94b3-45a8-943f-68b155989d6d"},"vehicle_type_id":"4","last_reported":1770626218,"current_range_meters":7200,"station_id":"ce4bgpp2rcd13ifvqc3g","pricing_plan_id":"cebpf4jnsgd1na2vs0mg"},{"bike_id":"6718c760-57b4-4f5f-9c07-cadeec237be7","system_id":"levelo_inurba_marseille","lat":43.28145,"lon":5.4267,"is_reserved":false,"is_disabled":true,"rental_uris":{"android":"levelo://app?vid=6718c760-57b4-4f5f-9c07-cadeec237be7","ios":"levelo://app?vid=6718c760-57b4-4f5f-9c07-cadeec237be7"},"vehicle_type_id":"4","last_reported":1770626218,"current_range_meters":7200,"station_id":"ce4bhnh2rcd13ifvqgug","pricing_plan_id":"cebpf4jnsgd1na2vs0mg"},{"bike_id":"5ef6ce00-1da8-4f35-b102-c6f89b410d36","system_id":"levelo_inurba_marseille","lat":43.26816,"lon":5.40235,"is_reserved":false,"is_disabled":false,"rental_uris":{"android":"levelo://app?vid=5ef6ce00-1da8-4f35-b102-c6f89b410d36","ios":"levelo://app?vid=5ef6ce00-1da8-4f35-b102-c6f89b410d36"},"vehicle_type_id":"4","last_reported":1770626218,"current_range_meters":7200,"station_id":"ce501612rcd8frsf0b60","pricing_plan_id":"cebpf4jnsgd1na2vs0mg"},{"bike_id":"d7b7c118-575b-4f69-a01a-1a37afc992ca","system_id":"levelo_inurba_marseille","lat":43.32341,"lon":5.38885,"is_reserved":false,"is_disabled":false,"rental_uris":{"android":"levelo://app?vid=d7b7c118-575b-4f69-a01a-1a37afc992ca","ios":"levelo://app?vid=d7b7c118-575b-4f69-a01a-1a37afc992ca"},"vehicle_type_id":"4","last_reported":1770626218,"current_range_meters":7200,"station_id":"ce4bhqp2rcd13ifvqhog","pricing_plan_id":"cebpf4jnsgd1na2vs0mg"},{"bike_id":"59ee5f7d-ad97-4c4d-bf47-920683c932a5","system_id":"levelo_inurba_marseille","lat":43.25935,"lon":5.40867,"is_reserved":false,"is_disabled":false,"rental_uris":{"android":"levelo://app?vid=59ee5f7d-ad97-4c4d-bf47-920683c932a5","ios":"levelo://app?vid=59ee5f7d-ad97-4c4d-bf47-920683c932a5"},"vehicle_type_id":"4","last_reported":1770626218,"current_range_meters":7200,"station_id":"ce4bhm92rcd13ifvqglg","pricing_plan_id":"cebpf4jnsgd1na2vs0mg"},{"bike_id":"48946eaf-704b-4e3b-814c-b7608810ac4d","system_id":"levelo_inurba_marseille","lat":43.26957,"lon":5.38617,"is_reserved":false,"is_disabled":false,"rental_uris":{"android":"levelo://app?vid=48946eaf-704b-4e3b-814c-b7608810ac4d","ios":"levelo://app?vid=48946eaf-704b-4e3b-814c-b7608810ac4d"},"vehicle_type_id":"4","last_reported":1770626218,"current_range_meters":7200,"station_id":"ce4bhh92rcd13ifvqfh0","pricing_plan_id":"cebpf4jnsgd1na2vs0mg"},{"bike_id":"f1aff942-1bee-44e9-89a3-7c96054e76e7","system_id":"levelo_inurba_marseille","lat":43.28084,"lon":5.37868,"is_reserved":false,"is_disabled":true,"rental_uris":{"android":"levelo://app?vid=f1aff942-1bee-44e9-89a3-7c96054e76e7","ios":"levelo://app?vid=f1aff942-1bee-44e9-89a3-7c96054e76e7"},"vehicle_type_id":"4","last_reported":1770626218,"current_range_meters":7200,"station_id":"ce4bha12rcd13ifvqee0","pricing_plan_id":"cebpf4jnsgd1na2vs0mg"},{"bike_id":"108cacc1-b8a4-4821-af70-cda2b300bc82","system_id":"levelo_inurba_marseille","lat":43.24628,"lon":5.43149,"is_reserved":false,"is_disabled":false,"rental_uris":{"android":"levelo://app?vid=108cacc1-b8a4-4821-af70-cda2b300bc82","ios":"levelo://app?vid=108cacc1-b8a4-4821-af70-cda2b300bc82"},"vehicle_type_id":"4","last_reported":1770626218,"current_range_meters":7200,"station_id":"st_d2m6c4gdas8pm72e190g","pricing_plan_id":"cebpf4jnsgd1na2vs0mg"},{"bike_id":"ee09b4f0-fe8c-4826-b1da-c90b7c41496b","system_id":"levelo_inurba_marseille","lat":43.29286,"lon":5.36838,"is_reserved":false,"is_disabled":false,"rental_uris":{"android":"levelo://app?vid=ee09b4f0-fe8c-4826-b1da-c90b7c41496b","ios":"levelo://app?vid=ee09b4f0-fe8c-4826-b1da-c90b7c41496b"},"vehicle_type_id":"4","last_reported":1770626218,"current_range_meters":7200,"station_id":"ce4bhbp2rcd13ifvqesg","pricing_plan_id":"cebpf4jnsgd1na2vs0mg"},{"bike_id":"e57def88-bd31-4a22-8984-178400b968d2","system_id":"levelo_inurba_marseille","lat":43.29279,"lon":5.40889,"is_reserved":false,"is_disabled":false,"rental_uris":{"android":"levelo://app?vid=e57def88-bd31-4a22-8984-178400b968d2","ios":"levelo://app?vid=e57def88-bd31-4a22-8984-178400b968d2"},"vehicle_type_id":"4","last_reported":1770626218,"current_range_meters":7200,"station_id":"ce4bh192rcd13ifvqdc0","pricing_plan_id":"cebpf4jnsgd1na2vs0mg"},{"bike_id":"b01c988b-6d0a-4ee4-a9bb-fd4c13dbed5a","system_id":"levelo_inurba_marseille","lat":43.29864,"lon":5.37533,"is_reserved":false,"is_disabled":false,"rental_uris":{"android":"levelo://app?vid=b01c988b-6d0a-4ee4-a9bb-fd4c13dbed5a","ios":"levelo://app?vid=b01c988b-6d0a-4ee4-a9bb-fd4c13dbed5a"},"vehicle_type_id":"4","last_reported":1770626218,"current_range_meters":7200,"station_id":"","pricing_plan_id":"cebpf4jnsgd1na2vs0mg"},{"bike_id":"ebe66944-9212-4cde-990d-8456e0e7f094","system_id":"levelo_inurba_marseille","lat":43.26081,"lon":5.39395,"is_reserved":false,"is_disabled":false,"rental_uris":{"android":"levelo://app?vid=ebe66944-9212-4cde-990d-8456e0e7f094","ios":"levelo://app?vid=ebe66944-9212-4cde-990d-8456e0e7f094"},"vehicle_type_id":"4","last_reported":1770626218,"current_range_meters":7200,"station_id":"ce4bhh92rcd13ifvqfj0","pricing_plan_id":"cebpf4jnsgd1na2vs0mg"},{"bike_id":"d96fa321-cc43-4d28-a99e-b49794bf7b3a","system_id":"levelo_inurba_marseille","lat":43.25938,"lon":5.40908,"is_reserved":false,"is_disabled":false,"rental_uris":{"android":"levelo://app?vid=d96fa321-cc43-4d28-a99e-b49794bf7b3a","ios":"levelo://app?vid=d96fa321-cc43-4d28-a99e-b49794bf7b3a"},"vehicle_type_id":"4","last_reported":1770626218,"current_range_meters":7200,"station_id":"ce4bhm92rcd13ifvqglg","pricing_plan_id":"cebpf4jnsgd1na2vs0mg"},{"bike_id":"5db8210b-fea5-4e7d-8212-139d2c0358d5","system_id":"levelo_inurba_marseille","lat":43.29849,"lon":5.36297,"is_reserved":false,"is_disabled":true,"rental_uris":{"android":"levelo://app?vid=5db8210b-fea5-4e7d-8212-139d2c0358d5","ios":"levelo://app?vid=5db8210b-fea5-4e7d-8212-139d2c0358d5"},"vehicle_type_id":"4","last_reported":1770626218,"current_range_meters":8000,"station_id":"ce4bgpp2rcd13ifvqc3g","pricing_plan_id":"cebpf4jnsgd1na2vs0mg"},{"bike_id":"f5ea6c6e-71c3-41d3-b896-07d0184f72ba","system_id":"levelo_inurba_marseille","lat":43.27521,"lon":5.42417,"is_reserved":false,"is_disabled":false,"rental_uris":{"android":"levelo://app?vid=f5ea6c6e-71c3-41d3-b896-07d0184f72ba","ios":"levelo://app?vid=f5ea6c6e-71c3-41d3-b896-07d0184f72ba"},"vehicle_type_id":"4","last_reported":1770626218,"current_range_meters":8000,"station_id":"ce4bhn92rcd13ifvqgrg","pricing_plan_id":"cebpf4jnsgd1na2vs0mg"},{"bike_id":"cc2e70b1-9418-450c-8618-294ac8da0925","system_id":"levelo_inurba_marseille","lat":43.29903,"lon":5.38609,"is_reserved":false,"is_disabled":false,"rental_uris":{"android":"levelo://app?vid=cc2e70b1-9418-450c-8618-294ac8da0925","ios":"levelo://app?vid=cc2e70b1-9418-450c-8618-294ac8da0925"},"vehicle_type_id":"4","last_reported":1770626218,"current_range_meters":8000,"station_id":"","pricing_plan_id":"cebpf4jnsgd1na2vs0mg"},{"bike_id":"2a2e7824-3cdf-4155-b2b9-cd5c94f8108e","system_id":"levelo_inurba_marseille","lat":43.27549,"lon":5.38411,"is_reserved":false,"is_disabled":false,"rental_uris":{"android":"levelo://app?vid=2a2e7824-3cdf-4155-b2b9-cd5c94f8108e","ios":"levelo://app?vid=2a2e7824-3cdf-4155-b2b9-cd5c94f8108e"},"vehicle_type_id":"4","last_reported":1770626218,"current_range_meters":8000,"station_id":"ce4bhh92rcd13ifvqfi0","pricing_plan_id":"cebpf4jnsgd1na2vs0mg"},{"bike_id":"c4dcda3b-1c82-43b4-902f-e3819632981e","system_id":"levelo_inurba_marseille","lat":43.29271,"lon":5.38451,"is_reserved":false,"is_disabled":false,"rental_uris":{"android":"levelo://app?vid=c4dcda3b-1c82-43b4-902f-e3819632981e","ios":"levelo://app?vid=c4dcda3b-1c82-43b4-902f-e3819632981e"},"vehicle_type_id":"4","last_reported":1770626218,"current_range_meters":8000,"station_id":"ce4bh692rcd13ifvqea0","pricing_plan_id":"cebpf4jnsgd1na2vs0mg"},{"bike_id":"6e3dd12b-d632-4cb6-99f5-4a3f38b83215","system_id":"levelo_inurba_marseille","lat":43.29033,"lon":5.3592,"is_reserved":false,"is_disabled":false,"rental_uris":{"android":"levelo://app?vid=6e3dd12b-d632-4cb6-99f5-4a3f38b83215","ios":"levelo://app?vid=6e3dd12b-d632-4cb6-99f5-4a3f38b83215"},"vehicle_type_id":"4","last_reported":1770626218,"current_range_meters":8000,"station_id":"ce4bha92rcd13ifvqeg0","pricing_plan_id":"cebpf4jnsgd1na2vs0mg"},{"bike_id":"640e334d-8313-48a0-af1d-a998a2e715e1","system_id":"levelo_inurba_marseille","lat":43.28672,"lon":5.38665,"is_reserved":false,"is_disabled":true,"rental_uris":{"android":"levelo://app?vid=640e334d-8313-48a0-af1d-a998a2e715e1","ios":"levelo://app?vid=640e334d-8313-48a0-af1d-a998a2e715e1"},"vehicle_type_id":"4","last_reported":1770626218,"current_range_meters":8000,"station_id":"ce4bh492rcd13ifvqdug","pricing_plan_id":"cebpf4jnsgd1na2vs0mg"},{"bike_id":"505c0388-808a-43fc-b871-774655d1eeb8","system_id":"levelo_inurba_marseille","lat":43.22554,"lon":5.41628,"is_reserved":false,"is_disabled":false,"rental_uris":{"android":"levelo://app?vid=505c0388-808a-43fc-b871-774655d1eeb8","ios":"levelo://app?vid=505c0388-808a-43fc-b871-774655d1eeb8"},"vehicle_type_id":"4","last_reported":1770626218,"current_range_meters":8000,"station_id":"st_d2o4gvlbi1j2169b742g","pricing_plan_id":"cebpf4jnsgd1na2vs0mg"},{"bike_id":"05fd8c6a-71b3-4a87-876c-baf65515e3cd","system_id":"levelo_inurba_marseille","lat":43.31366,"lon":5.36696,"is_reserved":false,"is_disabled":false,"rental_uris":{"android":"levelo://app?vid=05fd8c6a-71b3-4a87-876c-baf65515e3cd","ios":"levelo://app?vid=05fd8c6a-71b3-4a87-876c-baf65515e3cd"},"vehicle_type_id":"4","last_reported":1770626218,"current_range_meters":8000,"station_id":"ce4bgr92rcd13ifvqc6g","pricing_plan_id":"cebpf4jnsgd1na2vs0mg"},{"bike_id":"f5da9401-db7e-426f-9a0f-2330a30b8658","system_id":"levelo_inurba_marseille","lat":43.24396,"lon":5.3707,"is_reserved":false,"is_disabled":true,"rental_uris":{"android":"levelo://app?vid=f5da9401-db7e-426f-9a0f-2330a30b8658","ios":"levelo://app?vid=f5da9401-db7e-426f-9a0f-2330a30b8658"},"vehicle_type_id":"4","last_reported":1770626218,"current_range_meters":8000,"station_id":"ce4bhhh2rcd13ifvqfk0","pricing_plan_id":"cebpf4jnsgd1na2vs0mg"},{"bike_id":"d9881866-8d8d-40b9-953d-bed8d3c31af8","system_id":"levelo_inurba_marseille","lat":43.24961,"lon":5.40527,"is_reserved":false,"is_disabled":false,"rental_uris":{"android":"levelo://app?vid=d9881866-8d8d-40b9-953d-bed8d3c31af8","ios":"levelo://app?vid=d9881866-8d8d-40b9-953d-bed8d3c31af8"},"vehicle_type_id":"4","last_reported":1770626218,"current_range_meters":8000,"station_id":"st_d2ngiaodas8pm72gd1h0","pricing_plan_id":"cebpf4jnsgd1na2vs0mg"},{"bike_id":"d3811857-7bb2-4b7e-b60e-dd48ca53ec23","system_id":"levelo_inurba_marseille","lat":43.27494,"lon":5.42454,"is_reserved":false,"is_disabled":false,"rental_uris":{"android":"levelo://app?vid=d3811857-7bb2-4b7e-b60e-dd48ca53ec23","ios":"levelo://app?vid=d3811857-7bb2-4b7e-b60e-dd48ca53ec23"},"vehicle_type_id":"4","last_reported":1770626218,"current_range_meters":8000,"station_id":"ce4bhn92rcd13ifvqgrg","pricing_plan_id":"cebpf4jnsgd1na2vs0mg"},{"bike_id":"87a03171-e274-42c9-8301-2123e9d6174f","system_id":"levelo_inurba_marseille","lat":43.24628,"lon":5.43148,"is_reserved":false,"is_disabled":false,"rental_uris":{"android":"levelo://app?vid=87a03171-e274-42c9-8301-2123e9d6174f","ios":"levelo://app?vid=87a03171-e274-42c9-8301-2123e9d6174f"},"vehicle_type_id":"4","last_reported":1770626218,"current_range_meters":8000,"station_id":"st_d2m6c4gdas8pm72e190g","pricing_plan_id":"cebpf4jnsgd1na2vs0mg"},{"bike_id":"d4c60cfc-6569-475a-a999-90023dab6245","system_id":"levelo_inurba_marseille","lat":43.33544,"lon":5.37459,"is_reserved":false,"is_disabled":false,"rental_uris":{"android":"levelo://app?vid=d4c60cfc-6569-475a-a999-90023dab6245","ios":"levelo://app?vid=d4c60cfc-6569-475a-a999-90023dab6245"},"vehicle_type_id":"4","last_reported":1770626218,"current_range_meters":8000,"station_id":"st_d46tts09ee8s73dlu43g","pricing_plan_id":"cebpf4jnsgd1na2vs0mg"},{"bike_id":"fc26a967-85a6-46c6-82b5-b861cc6bf4e7","system_id":"levelo_inurba_marseille","lat":43.26538,"lon":5.41905,"is_reserved":false,"is_disabled":false,"rental_uris":{"android":"levelo://app?vid=fc26a967-85a6-46c6-82b5-b861cc6bf4e7","ios":"levelo://app?vid=fc26a967-85a6-46c6-82b5-b861cc6bf4e7"},"vehicle_type_id":"4","last_reported":1770626218,"current_range_meters":8000,"station_id":"","pricing_plan_id":"cebpf4jnsgd1na2vs0mg"},{"bike_id":"397e4117-c8c6-4338-b1b9-2f2a88f81c1e","system_id":"levelo_inurba_marseille","lat":43.25585,"lon":5.3821,"is_reserved":false,"is_disabled":false,"rental_uris":{"android":"levelo://app?vid=397e4117-c8c6-4338-b1b9-2f2a88f81c1e","ios":"levelo://app?vid=397e4117-c8c6-4338-b1b9-2f2a88f81c1e"},"vehicle_type_id":"4","last_reported":1770626218,"current_range_meters":8000,"station_id":"ce4bhih2rcd13ifvqfs0","pricing_plan_id":"cebpf4jnsgd1na2vs0mg"},{"bike_id":"21f8036e-d89b-4cdd-a5b0-14ca51e41d7d","system_id":"levelo_inurba_marseille","lat":43.270639,"lon":5.383077,"is_reserved":false,"is_disabled":false,"rental_uris":{"android":"levelo://app?vid=21f8036e-d89b-4cdd-a5b0-14ca51e41d7d","ios":"levelo://app?vid=21f8036e-d89b-4cdd-a5b0-14ca51e41d7d"},"vehicle_type_id":"4","last_reported":1770626218,"current_range_meters":8000,"station_id":"st_d3n2fo6cfp8s73cte1j0","pricing_plan_id":"cebpf4jnsgd1na2vs0mg"},{"bike_id":"1a9850e1-5d2c-4438-9e2f-49d6634f0424","system_id":"levelo_inurba_marseille","lat":43.26564,"lon":5.40318,"is_reserved":false,"is_disabled":false,"rental_uris":{"android":"levelo://app?vid=1a9850e1-5d2c-4438-9e2f-49d6634f0424","ios":"levelo://app?vid=1a9850e1-5d2c-4438-9e2f-49d6634f0424"},"vehicle_type_id":"4","last_reported":1770626218,"current_range_meters":8000,"station_id":"ce4bhmp2rcd13ifvqgng","pricing_plan_id":"cebpf4jnsgd1na2vs0mg"},{"bike_id":"ad5114fa-f043-4109-b5f1-04d369a722ee","system_id":"levelo_inurba_marseille","lat":43.3132,"lon":5.3674,"is_reserved":false,"is_disabled":false,"rental_uris":{"android":"levelo://app?vid=ad5114fa-f043-4109-b5f1-04d369a722ee","ios":"levelo://app?vid=ad5114fa-f043-4109-b5f1-04d369a722ee"},"vehicle_type_id":"4","last_reported":1770626218,"current_range_meters":8000,"station_id":"ce4bgr92rcd13ifvqc6g","pricing_plan_id":"cebpf4jnsgd1na2vs0mg"},{"bike_id":"801ad909-18b3-4ab0-977b-525cc98af4a6","system_id":"levelo_inurba_marseille","lat":43.25855,"lon":5.39957,"is_reserved":false,"is_disabled":false,"rental_uris":{"android":"levelo://app?vid=801ad909-18b3-4ab0-977b-525cc98af4a6","ios":"levelo://app?vid=801ad909-18b3-4ab0-977b-525cc98af4a6"},"vehicle_type_id":"4","last_reported":1770626218,"current_range_meters":8400,"station_id":"","pricing_plan_id":"cebpf4jnsgd1na2vs0mg"},{"bike_id":"974e422b-a714-484c-9e6c-85efcd4a32f8","system_id":"levelo_inurba_marseille","lat":43.27574,"lon":5.38406,"is_reserved":false,"is_disabled":false,"rental_uris":{"android":"levelo://app?vid=974e422b-a714-484c-9e6c-85efcd4a32f8","ios":"levelo://app?vid=974e422b-a714-484c-9e6c-85efcd4a32f8"},"vehicle_type_id":"4","last_reported":1770626218,"current_range_meters":8400,"station_id":"ce4bhh92rcd13ifvqfi0","pricing_plan_id":"cebpf4jnsgd1na2vs0mg"},{"bike_id":"bdb7011c-1855-4ca2-b703-fed3083b275f","system_id":"levelo_inurba_marseille","lat":43.25917,"lon":5.4086,"is_reserved":false,"is_disabled":false,"rental_uris":{"android":"levelo://app?vid=bdb7011c-1855-4ca2-b703-fed3083b275f","ios":"levelo://app?vid=bdb7011c-1855-4ca2-b703-fed3083b275f"},"vehicle_type_id":"4","last_reported":1770626218,"current_range_meters":8400,"station_id":"ce4bhm92rcd13ifvqglg","pricing_plan_id":"cebpf4jnsgd1na2vs0mg"},{"bike_id":"a234b1e8-aa48-4506-a47a-890ecb54626b","system_id":"levelo_inurba_marseille","lat":43.243933,"lon":5.370749,"is_reserved":false,"is_disabled":false,"rental_uris":{"android":"levelo://app?vid=a234b1e8-aa48-4506-a47a-890ecb54626b","ios":"levelo://app?vid=a234b1e8-aa48-4506-a47a-890ecb54626b"},"vehicle_type_id":"4","last_reported":1770626218,"current_range_meters":8400,"station_id":"ce4bhhh2rcd13ifvqfk0","pricing_plan_id":"cebpf4jnsgd1na2vs0mg"},{"bike_id":"cf60a1e7-4444-43d6-b2c1-199a230bd3c8","system_id":"levelo_inurba_marseille","lat":43.28499,"lon":5.38422,"is_reserved":false,"is_disabled":false,"rental_uris":{"android":"levelo://app?vid=cf60a1e7-4444-43d6-b2c1-199a230bd3c8","ios":"levelo://app?vid=cf60a1e7-4444-43d6-b2c1-199a230bd3c8"},"vehicle_type_id":"4","last_reported":1770626218,"current_range_meters":8400,"station_id":"ce4bh512rcd13ifvqe3g","pricing_plan_id":"cebpf4jnsgd1na2vs0mg"},{"bike_id":"d75d181c-97ed-4a21-95f7-f78c66ae671f","system_id":"levelo_inurba_marseille","lat":43.2407,"lon":5.37745,"is_reserved":false,"is_disabled":false,"rental_uris":{"android":"levelo://app?vid=d75d181c-97ed-4a21-95f7-f78c66ae671f","ios":"levelo://app?vid=d75d181c-97ed-4a21-95f7-f78c66ae671f"},"vehicle_type_id":"4","last_reported":1770626218,"current_range_meters":8400,"station_id":"ce4bhnp2rcd13ifvqgvg","pricing_plan_id":"cebpf4jnsgd1na2vs0mg"},{"bike_id":"2f0911a3-9f69-468d-8fd3-8b4cd50fbb9b","system_id":"levelo_inurba_marseille","lat":43.25328,"lon":5.42185,"is_reserved":false,"is_disabled":false,"rental_uris":{"android":"levelo://app?vid=2f0911a3-9f69-468d-8fd3-8b4cd50fbb9b","ios":"levelo://app?vid=2f0911a3-9f69-468d-8fd3-8b4cd50fbb9b"},"vehicle_type_id":"4","last_reported":1770626218,"current_range_meters":8400,"station_id":"st_d2m65c5bi1j21697t3ng","pricing_plan_id":"cebpf4jnsgd1na2vs0mg"},{"bike_id":"70e158b9-7073-4a37-8910-3b0641f7267d","system_id":"levelo_inurba_marseille","lat":43.29975,"lon":5.41292,"is_reserved":false,"is_disabled":false,"rental_uris":{"android":"levelo://app?vid=70e158b9-7073-4a37-8910-3b0641f7267d","ios":"levelo://app?vid=70e158b9-7073-4a37-8910-3b0641f7267d"},"vehicle_type_id":"4","last_reported":1770626218,"current_range_meters":8400,"station_id":"ce4bhp12rcd13ifvqh9g","pricing_plan_id":"cebpf4jnsgd1na2vs0mg"},{"bike_id":"538c7e0d-dc0f-4815-a686-bd305e7c22f3","system_id":"levelo_inurba_marseille","lat":43.25316,"lon":5.42156,"is_reserved":false,"is_disabled":false,"rental_uris":{"android":"levelo://app?vid=538c7e0d-dc0f-4815-a686-bd305e7c22f3","ios":"levelo://app?vid=538c7e0d-dc0f-4815-a686-bd305e7c22f3"},"vehicle_type_id":"4","last_reported":1770626218,"current_range_meters":8400,"station_id":"st_d2m65c5bi1j21697t3ng","pricing_plan_id":"cebpf4jnsgd1na2vs0mg"},{"bike_id":"c5fe4207-93eb-4828-b184-1c6452346618","system_id":"levelo_inurba_marseille","lat":43.253328,"lon":5.421695,"is_reserved":false,"is_disabled":false,"rental_uris":{"android":"levelo://app?vid=c5fe4207-93eb-4828-b184-1c6452346618","ios":"levelo://app?vid=c5fe4207-93eb-4828-b184-1c6452346618"},"vehicle_type_id":"4","last_reported":1770626218,"current_range_meters":8400,"station_id":"st_d2m65c5bi1j21697t3ng","pricing_plan_id":"cebpf4jnsgd1na2vs0mg"},{"bike_id":"4c9a1947-c399-4f0d-a2a5-3c1b34eab4cb","system_id":"levelo_inurba_marseille","lat":43.286083,"lon":5.370635,"is_reserved":false,"is_disabled":false,"rental_uris":{"android":"levelo://app?vid=4c9a1947-c399-4f0d-a2a5-3c1b34eab4cb","ios":"levelo://app?vid=4c9a1947-c399-4f0d-a2a5-3c1b34eab4cb"},"vehicle_type_id":"4","last_reported":1770626218,"current_range_meters":8400,"station_id":"ce4bht12rcd13ifvqi60","pricing_plan_id":"cebpf4jnsgd1na2vs0mg"},{"bike_id":"2089e1d9-314f-4676-8364-32b5760ca1a1","system_id":"levelo_inurba_marseille","lat":43.284881,"lon":5.483937,"is_reserved":false,"is_disabled":false,"rental_uris":{"android":"levelo://app?vid=2089e1d9-314f-4676-8364-32b5760ca1a1","ios":"levelo://app?vid=2089e1d9-314f-4676-8364-32b5760ca1a1"},"vehicle_type_id":"4","last_reported":1770626218,"current_range_meters":8400,"station_id":"st_d3svhcjqgbts73a3dn0g","pricing_plan_id":"cebpf4jnsgd1na2vs0mg"},{"bike_id":"029ba993-6e5b-462a-a880-cdb083ac545c","system_id":"levelo_inurba_marseille","lat":43.289296,"lon":5.396279,"is_reserved":false,"is_disabled":false,"rental_uris":{"android":"levelo://app?vid=029ba993-6e5b-462a-a880-cdb083ac545c","ios":"levelo://app?vid=029ba993-6e5b-462a-a880-cdb083ac545c"},"vehicle_type_id":"4","last_reported":1770626218,"current_range_meters":8400,"station_id":"","pricing_plan_id":"cebpf4jnsgd1na2vs0mg"},{"bike_id":"907cc77c-1ea7-4fc8-a045-7fdf6fe488e4","system_id":"levelo_inurba_marseille","lat":43.2795,"lon":5.38698,"is_reserved":false,"is_disabled":false,"rental_uris":{"android":"levelo://app?vid=907cc77c-1ea7-4fc8-a045-7fdf6fe488e4","ios":"levelo://app?vid=907cc77c-1ea7-4fc8-a045-7fdf6fe488e4"},"vehicle_type_id":"4","last_reported":1770626218,"current_range_meters":8400,"station_id":"ce4bhg12rcd13ifvqf80","pricing_plan_id":"cebpf4jnsgd1na2vs0mg"},{"bike_id":"7fb77262-90b3-4d6c-938e-9eda296ba1ff","system_id":"levelo_inurba_marseille","lat":43.23366,"lon":5.41248,"is_reserved":false,"is_disabled":false,"rental_uris":{"android":"levelo://app?vid=7fb77262-90b3-4d6c-938e-9eda296ba1ff","ios":"levelo://app?vid=7fb77262-90b3-4d6c-938e-9eda296ba1ff"},"vehicle_type_id":"4","last_reported":1770626218,"current_range_meters":8400,"station_id":"","pricing_plan_id":"cebpf4jnsgd1na2vs0mg"},{"bike_id":"c383832c-f801-4ea2-afff-0353b46aa87e","system_id":"levelo_inurba_marseille","lat":43.25017,"lon":5.38908,"is_reserved":false,"is_disabled":false,"rental_uris":{"android":"levelo://app?vid=c383832c-f801-4ea2-afff-0353b46aa87e","ios":"levelo://app?vid=c383832c-f801-4ea2-afff-0353b46aa87e"},"vehicle_type_id":"4","last_reported":1770626218,"current_range_meters":8400,"station_id":"ce4bhgp2rcd13ifvqfd0","pricing_plan_id":"cebpf4jnsgd1na2vs0mg"},{"bike_id":"c89fc745-e314-444c-b63e-8a25d581c03c","system_id":"levelo_inurba_marseille","lat":43.26987,"lon":5.39882,"is_reserved":false,"is_disabled":false,"rental_uris":{"android":"levelo://app?vid=c89fc745-e314-444c-b63e-8a25d581c03c","ios":"levelo://app?vid=c89fc745-e314-444c-b63e-8a25d581c03c"},"vehicle_type_id":"4","last_reported":1770626218,"current_range_meters":8400,"station_id":"","pricing_plan_id":"cebpf4jnsgd1na2vs0mg"},{"bike_id":"68344a54-110b-4619-938e-db8d4af619b3","system_id":"levelo_inurba_marseille","lat":43.32489,"lon":5.38294,"is_reserved":false,"is_disabled":false,"rental_uris":{"android":"levelo://app?vid=68344a54-110b-4619-938e-db8d4af619b3","ios":"levelo://app?vid=68344a54-110b-4619-938e-db8d4af619b3"},"vehicle_type_id":"4","last_reported":1770626218,"current_range_meters":8400,"station_id":"st_d4asgbiv49dc73anf9m0","pricing_plan_id":"cebpf4jnsgd1na2vs0mg"},{"bike_id":"ee0a6677-5059-4e6b-9cc8-a58f1076531a","system_id":"levelo_inurba_marseille","lat":43.27998,"lon":5.40005,"is_reserved":false,"is_disabled":false,"rental_uris":{"android":"levelo://app?vid=ee0a6677-5059-4e6b-9cc8-a58f1076531a","ios":"levelo://app?vid=ee0a6677-5059-4e6b-9cc8-a58f1076531a"},"vehicle_type_id":"4","last_reported":1770626218,"current_range_meters":8800,"station_id":"ce4bho92rcd13ifvqh4g","pricing_plan_id":"cebpf4jnsgd1na2vs0mg"},{"bike_id":"2dadb8d4-e2d3-44c8-9b85-15536fc18601","system_id":"levelo_inurba_marseille","lat":43.262271,"lon":5.404631,"is_reserved":false,"is_disabled":true,"rental_uris":{"android":"levelo://app?vid=2dadb8d4-e2d3-44c8-9b85-15536fc18601","ios":"levelo://app?vid=2dadb8d4-e2d3-44c8-9b85-15536fc18601"},"vehicle_type_id":"4","last_reported":1770626218,"current_range_meters":8800,"station_id":"ce4bhmh2rcd13ifvqgmg","pricing_plan_id":"cebpf4jnsgd1na2vs0mg"},{"bike_id":"500991f7-90d4-4d9d-a350-94fda438f748","system_id":"levelo_inurba_marseille","lat":43.30124,"lon":5.38781,"is_reserved":false,"is_disabled":false,"rental_uris":{"android":"levelo://app?vid=500991f7-90d4-4d9d-a350-94fda438f748","ios":"levelo://app?vid=500991f7-90d4-4d9d-a350-94fda438f748"},"vehicle_type_id":"4","last_reported":1770626218,"current_range_meters":8800,"station_id":"ce4bghh2rcd13ifvqb60","pricing_plan_id":"cebpf4jnsgd1na2vs0mg"},{"bike_id":"39871b1f-3657-4d13-b576-77b55dd18f6b","system_id":"levelo_inurba_marseille","lat":43.30323,"lon":5.36876,"is_reserved":false,"is_disabled":true,"rental_uris":{"android":"levelo://app?vid=39871b1f-3657-4d13-b576-77b55dd18f6b","ios":"levelo://app?vid=39871b1f-3657-4d13-b576-77b55dd18f6b"},"vehicle_type_id":"4","last_reported":1770626218,"current_range_meters":8800,"station_id":"ce4bgqh2rcd13ifvqc5g","pricing_plan_id":"cebpf4jnsgd1na2vs0mg"},{"bike_id":"a71868ac-a6dc-4811-8e48-04e50c8cb490","system_id":"levelo_inurba_marseille","lat":43.2256,"lon":5.41645,"is_reserved":false,"is_disabled":false,"rental_uris":{"android":"levelo://app?vid=a71868ac-a6dc-4811-8e48-04e50c8cb490","ios":"levelo://app?vid=a71868ac-a6dc-4811-8e48-04e50c8cb490"},"vehicle_type_id":"4","last_reported":1770626218,"current_range_meters":8800,"station_id":"st_d2o4gvlbi1j2169b742g","pricing_plan_id":"cebpf4jnsgd1na2vs0mg"},{"bike_id":"bd2d69ad-e9d0-438a-bf41-be7cd80f763d","system_id":"levelo_inurba_marseille","lat":43.24135,"lon":5.36412,"is_reserved":false,"is_disabled":false,"rental_uris":{"android":"levelo://app?vid=bd2d69ad-e9d0-438a-bf41-be7cd80f763d","ios":"levelo://app?vid=bd2d69ad-e9d0-438a-bf41-be7cd80f763d"},"vehicle_type_id":"4","last_reported":1770626218,"current_range_meters":8800,"station_id":"cpo36qri1sfpv3e86is0","pricing_plan_id":"cebpf4jnsgd1na2vs0mg"},{"bike_id":"118efdfa-fcd1-4aa4-b836-b300d0519548","system_id":"levelo_inurba_marseille","lat":43.29656,"lon":5.3772,"is_reserved":false,"is_disabled":true,"rental_uris":{"android":"levelo://app?vid=118efdfa-fcd1-4aa4-b836-b300d0519548","ios":"levelo://app?vid=118efdfa-fcd1-4aa4-b836-b300d0519548"},"vehicle_type_id":"4","last_reported":1770626218,"current_range_meters":8800,"station_id":"ce4bgi92rcd13ifvqb90","pricing_plan_id":"cebpf4jnsgd1na2vs0mg"},{"bike_id":"c4bb5843-fcf2-4576-8596-9632335ee395","system_id":"levelo_inurba_marseille","lat":43.28491,"lon":5.38427,"is_reserved":false,"is_disabled":false,"rental_uris":{"android":"levelo://app?vid=c4bb5843-fcf2-4576-8596-9632335ee395","ios":"levelo://app?vid=c4bb5843-fcf2-4576-8596-9632335ee395"},"vehicle_type_id":"4","last_reported":1770626218,"current_range_meters":8800,"station_id":"ce4bh512rcd13ifvqe3g","pricing_plan_id":"cebpf4jnsgd1na2vs0mg"},{"bike_id":"8baebf81-3ea0-4e26-86a4-d7b2b2c9332b","system_id":"levelo_inurba_marseille","lat":43.23149,"lon":5.43728,"is_reserved":false,"is_disabled":false,"rental_uris":{"android":"levelo://app?vid=8baebf81-3ea0-4e26-86a4-d7b2b2c9332b","ios":"levelo://app?vid=8baebf81-3ea0-4e26-86a4-d7b2b2c9332b"},"vehicle_type_id":"4","last_reported":1770626218,"current_range_meters":8800,"station_id":"ce4bhmp2rcd13ifvqgog","pricing_plan_id":"cebpf4jnsgd1na2vs0mg"},{"bike_id":"d9d882bd-1a28-48fd-b84c-a86e8f84ab0c","system_id":"levelo_inurba_marseille","lat":43.24632,"lon":5.43126,"is_reserved":false,"is_disabled":false,"rental_uris":{"android":"levelo://app?vid=d9d882bd-1a28-48fd-b84c-a86e8f84ab0c","ios":"levelo://app?vid=d9d882bd-1a28-48fd-b84c-a86e8f84ab0c"},"vehicle_type_id":"4","last_reported":1770626218,"current_range_meters":8800,"station_id":"st_d2m6c4gdas8pm72e190g","pricing_plan_id":"cebpf4jnsgd1na2vs0mg"},{"bike_id":"bca86a1c-1fc3-45f1-8c70-0ae6c3920830","system_id":"levelo_inurba_marseille","lat":43.29909,"lon":5.43666,"is_reserved":false,"is_disabled":false,"rental_uris":{"android":"levelo://app?vid=bca86a1c-1fc3-45f1-8c70-0ae6c3920830","ios":"levelo://app?vid=bca86a1c-1fc3-45f1-8c70-0ae6c3920830"},"vehicle_type_id":"4","last_reported":1770626218,"current_range_meters":8800,"station_id":"ce4bhpp2rcd13ifvqhfg","pricing_plan_id":"cebpf4jnsgd1na2vs0mg"},{"bike_id":"517e7cd2-3b1c-4a8d-ad31-4c4c0ec778c5","system_id":"levelo_inurba_marseille","lat":43.3414,"lon":5.40922,"is_reserved":false,"is_disabled":false,"rental_uris":{"android":"levelo://app?vid=517e7cd2-3b1c-4a8d-ad31-4c4c0ec778c5","ios":"levelo://app?vid=517e7cd2-3b1c-4a8d-ad31-4c4c0ec778c5"},"vehicle_type_id":"4","last_reported":1770626218,"current_range_meters":8800,"station_id":"ce4bhqh2rcd13ifvqhlg","pricing_plan_id":"cebpf4jnsgd1na2vs0mg"},{"bike_id":"13145e50-ce77-46a0-90ec-0df376759518","system_id":"levelo_inurba_marseille","lat":43.25569,"lon":5.38235,"is_reserved":false,"is_disabled":false,"rental_uris":{"android":"levelo://app?vid=13145e50-ce77-46a0-90ec-0df376759518","ios":"levelo://app?vid=13145e50-ce77-46a0-90ec-0df376759518"},"vehicle_type_id":"4","last_reported":1770626218,"current_range_meters":8800,"station_id":"ce4bhih2rcd13ifvqfs0","pricing_plan_id":"cebpf4jnsgd1na2vs0mg"},{"bike_id":"9cae2485-0afe-41f4-82ed-b4c440c27f3e","system_id":"levelo_inurba_marseille","lat":43.28567,"lon":5.39489,"is_reserved":false,"is_disabled":true,"rental_uris":{"android":"levelo://app?vid=9cae2485-0afe-41f4-82ed-b4c440c27f3e","ios":"levelo://app?vid=9cae2485-0afe-41f4-82ed-b4c440c27f3e"},"vehicle_type_id":"4","last_reported":1770626218,"current_range_meters":8800,"station_id":"ce4bh292rcd13ifvqdg0","pricing_plan_id":"cebpf4jnsgd1na2vs0mg"},{"bike_id":"f6bf0d6e-1a7e-4ef0-903f-6f58a177298e","system_id":"levelo_inurba_marseille","lat":43.24174,"lon":5.36393,"is_reserved":false,"is_disabled":false,"rental_uris":{"android":"levelo://app?vid=f6bf0d6e-1a7e-4ef0-903f-6f58a177298e","ios":"levelo://app?vid=f6bf0d6e-1a7e-4ef0-903f-6f58a177298e"},"vehicle_type_id":"4","last_reported":1770626218,"current_range_meters":8800,"station_id":"cpo36qri1sfpv3e86is0","pricing_plan_id":"cebpf4jnsgd1na2vs0mg"},{"bike_id":"8a18d61b-7f0b-45c9-9f14-74e2d4d73759","system_id":"levelo_inurba_marseille","lat":43.29793,"lon":5.38101,"is_reserved":false,"is_disabled":false,"rental_uris":{"android":"levelo://app?vid=8a18d61b-7f0b-45c9-9f14-74e2d4d73759","ios":"levelo://app?vid=8a18d61b-7f0b-45c9-9f14-74e2d4d73759"},"vehicle_type_id":"4","last_reported":1770626218,"current_range_meters":8800,"station_id":"ce4bgip2rcd13ifvqbb0","pricing_plan_id":"cebpf4jnsgd1na2vs0mg"},{"bike_id":"9b9f6127-b0b2-4e5d-88d2-e7c7ad333831","system_id":"levelo_inurba_marseille","lat":43.28452,"lon":5.40992,"is_reserved":false,"is_disabled":false,"rental_uris":{"android":"levelo://app?vid=9b9f6127-b0b2-4e5d-88d2-e7c7ad333831","ios":"levelo://app?vid=9b9f6127-b0b2-4e5d-88d2-e7c7ad333831"},"vehicle_type_id":"4","last_reported":1770626218,"current_range_meters":8800,"station_id":"","pricing_plan_id":"cebpf4jnsgd1na2vs0mg"},{"bike_id":"67345b9a-519c-4bda-abf7-5c74e3abc821","system_id":"levelo_inurba_marseille","lat":43.25571,"lon":5.38235,"is_reserved":false,"is_disabled":false,"rental_uris":{"android":"levelo://app?vid=67345b9a-519c-4bda-abf7-5c74e3abc821","ios":"levelo://app?vid=67345b9a-519c-4bda-abf7-5c74e3abc821"},"vehicle_type_id":"4","last_reported":1770626218,"current_range_meters":8800,"station_id":"ce4bhih2rcd13ifvqfs0","pricing_plan_id":"cebpf4jnsgd1na2vs0mg"},{"bike_id":"94b0330b-018e-419b-aee1-434310fca707","system_id":"levelo_inurba_marseille","lat":43.29899,"lon":5.436654,"is_reserved":false,"is_disabled":false,"rental_uris":{"android":"levelo://app?vid=94b0330b-018e-419b-aee1-434310fca707","ios":"levelo://app?vid=94b0330b-018e-419b-aee1-434310fca707"},"vehicle_type_id":"4","last_reported":1770626218,"current_range_meters":8800,"station_id":"ce4bhpp2rcd13ifvqhfg","pricing_plan_id":"cebpf4jnsgd1na2vs0mg"},{"bike_id":"5b572cb8-b75a-4cf5-9aa0-92e0a5c8d598","system_id":"levelo_inurba_marseille","lat":43.2988,"lon":5.43685,"is_reserved":false,"is_disabled":false,"rental_uris":{"android":"levelo://app?vid=5b572cb8-b75a-4cf5-9aa0-92e0a5c8d598","ios":"levelo://app?vid=5b572cb8-b75a-4cf5-9aa0-92e0a5c8d598"},"vehicle_type_id":"4","last_reported":1770626218,"current_range_meters":8800,"station_id":"ce4bhpp2rcd13ifvqhfg","pricing_plan_id":"cebpf4jnsgd1na2vs0mg"},{"bike_id":"541c953e-82b6-4ba3-beb3-112f183b03f4","system_id":"levelo_inurba_marseille","lat":43.27808,"lon":5.40722,"is_reserved":false,"is_disabled":false,"rental_uris":{"android":"levelo://app?vid=541c953e-82b6-4ba3-beb3-112f183b03f4","ios":"levelo://app?vid=541c953e-82b6-4ba3-beb3-112f183b03f4"},"vehicle_type_id":"4","last_reported":1770626218,"current_range_meters":8800,"station_id":"ce4bhnh2rcd13ifvqgtg","pricing_plan_id":"cebpf4jnsgd1na2vs0mg"},{"bike_id":"2096e8df-596d-4407-9a52-54d23701e5d2","system_id":"levelo_inurba_marseille","lat":43.22569,"lon":5.4162,"is_reserved":false,"is_disabled":false,"rental_uris":{"android":"levelo://app?vid=2096e8df-596d-4407-9a52-54d23701e5d2","ios":"levelo://app?vid=2096e8df-596d-4407-9a52-54d23701e5d2"},"vehicle_type_id":"4","last_reported":1770626218,"current_range_meters":9200,"station_id":"st_d2o4gvlbi1j2169b742g","pricing_plan_id":"cebpf4jnsgd1na2vs0mg"},{"bike_id":"38c8a8ee-bd1e-4cf5-9fab-2467d2b31526","system_id":"levelo_inurba_marseille","lat":43.23173,"lon":5.35555,"is_reserved":false,"is_disabled":true,"rental_uris":{"android":"levelo://app?vid=38c8a8ee-bd1e-4cf5-9fab-2467d2b31526","ios":"levelo://app?vid=38c8a8ee-bd1e-4cf5-9fab-2467d2b31526"},"vehicle_type_id":"4","last_reported":1770626218,"current_range_meters":9200,"station_id":"ce4bhu92rcd13ifvqi70","pricing_plan_id":"cebpf4jnsgd1na2vs0mg"},{"bike_id":"d5addb83-4219-438b-b60b-764fcc4ac895","system_id":"levelo_inurba_marseille","lat":43.29598,"lon":5.36732,"is_reserved":false,"is_disabled":false,"rental_uris":{"android":"levelo://app?vid=d5addb83-4219-438b-b60b-764fcc4ac895","ios":"levelo://app?vid=d5addb83-4219-438b-b60b-764fcc4ac895"},"vehicle_type_id":"4","last_reported":1770626218,"current_range_meters":9200,"station_id":"ce4bgph2rcd13ifvqc2g","pricing_plan_id":"cebpf4jnsgd1na2vs0mg"},{"bike_id":"12aa31e9-457e-4e4c-b978-be8c1c2326e0","system_id":"levelo_inurba_marseille","lat":43.28607,"lon":5.39871,"is_reserved":false,"is_disabled":false,"rental_uris":{"android":"levelo://app?vid=12aa31e9-457e-4e4c-b978-be8c1c2326e0","ios":"levelo://app?vid=12aa31e9-457e-4e4c-b978-be8c1c2326e0"},"vehicle_type_id":"4","last_reported":1770626218,"current_range_meters":9200,"station_id":"","pricing_plan_id":"cebpf4jnsgd1na2vs0mg"},{"bike_id":"c502c37d-235d-43c0-9a17-5eede4eadde3","system_id":"levelo_inurba_marseille","lat":43.243925,"lon":5.370684,"is_reserved":false,"is_disabled":false,"rental_uris":{"android":"levelo://app?vid=c502c37d-235d-43c0-9a17-5eede4eadde3","ios":"levelo://app?vid=c502c37d-235d-43c0-9a17-5eede4eadde3"},"vehicle_type_id":"4","last_reported":1770626218,"current_range_meters":9200,"station_id":"ce4bhhh2rcd13ifvqfk0","pricing_plan_id":"cebpf4jnsgd1na2vs0mg"},{"bike_id":"d7258967-f209-43e3-821d-4faa391a0e12","system_id":"levelo_inurba_marseille","lat":43.22561,"lon":5.41632,"is_reserved":false,"is_disabled":false,"rental_uris":{"android":"levelo://app?vid=d7258967-f209-43e3-821d-4faa391a0e12","ios":"levelo://app?vid=d7258967-f209-43e3-821d-4faa391a0e12"},"vehicle_type_id":"4","last_reported":1770626218,"current_range_meters":9200,"station_id":"st_d2o4gvlbi1j2169b742g","pricing_plan_id":"cebpf4jnsgd1na2vs0mg"},{"bike_id":"e8fc607c-781d-4737-9795-21676c8ca4f7","system_id":"levelo_inurba_marseille","lat":43.33149,"lon":5.37696,"is_reserved":false,"is_disabled":false,"rental_uris":{"android":"levelo://app?vid=e8fc607c-781d-4737-9795-21676c8ca4f7","ios":"levelo://app?vid=e8fc607c-781d-4737-9795-21676c8ca4f7"},"vehicle_type_id":"4","last_reported":1770626218,"current_range_meters":9200,"station_id":"st_d46cu089ee8s73dldbu0","pricing_plan_id":"cebpf4jnsgd1na2vs0mg"},{"bike_id":"cb1a37bb-f72b-4d0f-8322-c67bce751582","system_id":"levelo_inurba_marseille","lat":43.32089,"lon":5.36792,"is_reserved":false,"is_disabled":false,"rental_uris":{"android":"levelo://app?vid=cb1a37bb-f72b-4d0f-8322-c67bce751582","ios":"levelo://app?vid=cb1a37bb-f72b-4d0f-8322-c67bce751582"},"vehicle_type_id":"4","last_reported":1770626218,"current_range_meters":9200,"station_id":"ce4bhrh2rcd13ifvqhug","pricing_plan_id":"cebpf4jnsgd1na2vs0mg"},{"bike_id":"11c8ea29-af7f-4d85-ab7d-7c79f8e41d52","system_id":"levelo_inurba_marseille","lat":43.29207,"lon":5.39297,"is_reserved":false,"is_disabled":false,"rental_uris":{"android":"levelo://app?vid=11c8ea29-af7f-4d85-ab7d-7c79f8e41d52","ios":"levelo://app?vid=11c8ea29-af7f-4d85-ab7d-7c79f8e41d52"},"vehicle_type_id":"4","last_reported":1770626218,"current_range_meters":9200,"station_id":"ce4bh192rcd13ifvqdd0","pricing_plan_id":"cebpf4jnsgd1na2vs0mg"},{"bike_id":"7e908ad5-dad5-4c8e-a1f4-16bb52f7b5bb","system_id":"levelo_inurba_marseille","lat":43.30477,"lon":5.36597,"is_reserved":false,"is_disabled":false,"rental_uris":{"android":"levelo://app?vid=7e908ad5-dad5-4c8e-a1f4-16bb52f7b5bb","ios":"levelo://app?vid=7e908ad5-dad5-4c8e-a1f4-16bb52f7b5bb"},"vehicle_type_id":"4","last_reported":1770626218,"current_range_meters":9200,"station_id":"","pricing_plan_id":"cebpf4jnsgd1na2vs0mg"},{"bike_id":"715c157e-8f20-4e5e-bff8-2217f9027828","system_id":"levelo_inurba_marseille","lat":43.28863,"lon":5.35849,"is_reserved":false,"is_disabled":false,"rental_uris":{"android":"levelo://app?vid=715c157e-8f20-4e5e-bff8-2217f9027828","ios":"levelo://app?vid=715c157e-8f20-4e5e-bff8-2217f9027828"},"vehicle_type_id":"4","last_reported":1770626218,"current_range_meters":9200,"station_id":"ce4bhb12rcd13ifvqem0","pricing_plan_id":"cebpf4jnsgd1na2vs0mg"},{"bike_id":"58382d36-7cb5-4d9a-81cf-d54827ddd44f","system_id":"levelo_inurba_marseille","lat":43.25612,"lon":5.3821,"is_reserved":false,"is_disabled":false,"rental_uris":{"android":"levelo://app?vid=58382d36-7cb5-4d9a-81cf-d54827ddd44f","ios":"levelo://app?vid=58382d36-7cb5-4d9a-81cf-d54827ddd44f"},"vehicle_type_id":"4","last_reported":1770626218,"current_range_meters":9200,"station_id":"ce4bhih2rcd13ifvqfs0","pricing_plan_id":"cebpf4jnsgd1na2vs0mg"},{"bike_id":"2d88529b-2738-49de-8b6c-1904fec54030","system_id":"levelo_inurba_marseille","lat":43.25718,"lon":5.41115,"is_reserved":false,"is_disabled":false,"rental_uris":{"android":"levelo://app?vid=2d88529b-2738-49de-8b6c-1904fec54030","ios":"levelo://app?vid=2d88529b-2738-49de-8b6c-1904fec54030"},"vehicle_type_id":"4","last_reported":1770626218,"current_range_meters":9200,"station_id":"ce4bhkp2rcd13ifvqgd0","pricing_plan_id":"cebpf4jnsgd1na2vs0mg"},{"bike_id":"d653ed3a-f8af-441f-ad2d-cdc633785da3","system_id":"levelo_inurba_marseille","lat":43.255795,"lon":5.382238,"is_reserved":false,"is_disabled":false,"rental_uris":{"android":"levelo://app?vid=d653ed3a-f8af-441f-ad2d-cdc633785da3","ios":"levelo://app?vid=d653ed3a-f8af-441f-ad2d-cdc633785da3"},"vehicle_type_id":"4","last_reported":1770626218,"current_range_meters":9200,"station_id":"ce4bhih2rcd13ifvqfs0","pricing_plan_id":"cebpf4jnsgd1na2vs0mg"},{"bike_id":"c0384ce6-c7c3-43dc-a57c-67e72a7958f1","system_id":"levelo_inurba_marseille","lat":43.244341,"lon":5.425783,"is_reserved":false,"is_disabled":false,"rental_uris":{"android":"levelo://app?vid=c0384ce6-c7c3-43dc-a57c-67e72a7958f1","ios":"levelo://app?vid=c0384ce6-c7c3-43dc-a57c-67e72a7958f1"},"vehicle_type_id":"4","last_reported":1770626218,"current_range_meters":9200,"station_id":"st_d4a3vfp97mjs738cd8kg","pricing_plan_id":"cebpf4jnsgd1na2vs0mg"},{"bike_id":"6c3ad4f6-be12-485e-877d-ece58a8a78ca","system_id":"levelo_inurba_marseille","lat":43.317196,"lon":5.423964,"is_reserved":false,"is_disabled":false,"rental_uris":{"android":"levelo://app?vid=6c3ad4f6-be12-485e-877d-ece58a8a78ca","ios":"levelo://app?vid=6c3ad4f6-be12-485e-877d-ece58a8a78ca"},"vehicle_type_id":"4","last_reported":1770626218,"current_range_meters":9200,"station_id":"ce4bhp92rcd13ifvqhbg","pricing_plan_id":"cebpf4jnsgd1na2vs0mg"},{"bike_id":"2670674c-f818-4de0-8996-ccd0d21a64a7","system_id":"levelo_inurba_marseille","lat":43.3084,"lon":5.37381,"is_reserved":false,"is_disabled":false,"rental_uris":{"android":"levelo://app?vid=2670674c-f818-4de0-8996-ccd0d21a64a7","ios":"levelo://app?vid=2670674c-f818-4de0-8996-ccd0d21a64a7"},"vehicle_type_id":"4","last_reported":1770626218,"current_range_meters":9200,"station_id":"","pricing_plan_id":"cebpf4jnsgd1na2vs0mg"},{"bike_id":"9122abc4-5cbb-4ad9-8770-8000e00647ef","system_id":"levelo_inurba_marseille","lat":43.25554,"lon":5.38265,"is_reserved":false,"is_disabled":false,"rental_uris":{"android":"levelo://app?vid=9122abc4-5cbb-4ad9-8770-8000e00647ef","ios":"levelo://app?vid=9122abc4-5cbb-4ad9-8770-8000e00647ef"},"vehicle_type_id":"4","last_reported":1770626218,"current_range_meters":9600,"station_id":"ce4bhih2rcd13ifvqfs0","pricing_plan_id":"cebpf4jnsgd1na2vs0mg"},{"bike_id":"fbcaaab7-3b02-4e7b-a76f-ed14649831ec","system_id":"levelo_inurba_marseille","lat":43.25107,"lon":5.40322,"is_reserved":false,"is_disabled":false,"rental_uris":{"android":"levelo://app?vid=fbcaaab7-3b02-4e7b-a76f-ed14649831ec","ios":"levelo://app?vid=fbcaaab7-3b02-4e7b-a76f-ed14649831ec"},"vehicle_type_id":"4","last_reported":1770626218,"current_range_meters":9600,"station_id":"ce4bhlh2rcd13ifvqgig","pricing_plan_id":"cebpf4jnsgd1na2vs0mg"},{"bike_id":"b1fd6b0a-2ef4-4c94-991e-64b57546e7b4","system_id":"levelo_inurba_marseille","lat":43.26786,"lon":5.39411,"is_reserved":false,"is_disabled":false,"rental_uris":{"android":"levelo://app?vid=b1fd6b0a-2ef4-4c94-991e-64b57546e7b4","ios":"levelo://app?vid=b1fd6b0a-2ef4-4c94-991e-64b57546e7b4"},"vehicle_type_id":"4","last_reported":1770626218,"current_range_meters":9600,"station_id":"ce4bhh12rcd13ifvqfg0","pricing_plan_id":"cebpf4jnsgd1na2vs0mg"},{"bike_id":"ba6b089d-9a00-4d48-83fe-09b47e84bc29","system_id":"levelo_inurba_marseille","lat":43.284707,"lon":5.484305,"is_reserved":false,"is_disabled":false,"rental_uris":{"android":"levelo://app?vid=ba6b089d-9a00-4d48-83fe-09b47e84bc29","ios":"levelo://app?vid=ba6b089d-9a00-4d48-83fe-09b47e84bc29"},"vehicle_type_id":"4","last_reported":1770626218,"current_range_meters":9600,"station_id":"st_d3svhcjqgbts73a3dn0g","pricing_plan_id":"cebpf4jnsgd1na2vs0mg"},{"bike_id":"72fdee31-7ef9-4263-baa9-9ead1762da63","system_id":"levelo_inurba_marseille","lat":43.28939,"lon":5.39642,"is_reserved":false,"is_disabled":false,"rental_uris":{"android":"levelo://app?vid=72fdee31-7ef9-4263-baa9-9ead1762da63","ios":"levelo://app?vid=72fdee31-7ef9-4263-baa9-9ead1762da63"},"vehicle_type_id":"4","last_reported":1770626218,"current_range_meters":9600,"station_id":"ce4bh3h2rcd13ifvqdn0","pricing_plan_id":"cebpf4jnsgd1na2vs0mg"},{"bike_id":"9d4b2039-b93f-45ac-8b71-efef24924bec","system_id":"levelo_inurba_marseille","lat":43.31045,"lon":5.37465,"is_reserved":false,"is_disabled":true,"rental_uris":{"android":"levelo://app?vid=9d4b2039-b93f-45ac-8b71-efef24924bec","ios":"levelo://app?vid=9d4b2039-b93f-45ac-8b71-efef24924bec"},"vehicle_type_id":"4","last_reported":1770626218,"current_range_meters":9600,"station_id":"","pricing_plan_id":"cebpf4jnsgd1na2vs0mg"},{"bike_id":"e7756379-012e-486b-90c4-ca8121afe0c7","system_id":"levelo_inurba_marseille","lat":43.292284,"lon":5.36064,"is_reserved":false,"is_disabled":false,"rental_uris":{"android":"levelo://app?vid=e7756379-012e-486b-90c4-ca8121afe0c7","ios":"levelo://app?vid=e7756379-012e-486b-90c4-ca8121afe0c7"},"vehicle_type_id":"4","last_reported":1770626218,"current_range_meters":9600,"station_id":"ce4bhbh2rcd13ifvqeqg","pricing_plan_id":"cebpf4jnsgd1na2vs0mg"},{"bike_id":"cd899397-3de3-4535-8d04-d973ada4589e","system_id":"levelo_inurba_marseille","lat":43.28477,"lon":5.48396,"is_reserved":false,"is_disabled":false,"rental_uris":{"android":"levelo://app?vid=cd899397-3de3-4535-8d04-d973ada4589e","ios":"levelo://app?vid=cd899397-3de3-4535-8d04-d973ada4589e"},"vehicle_type_id":"4","last_reported":1770626218,"current_range_meters":9600,"station_id":"","pricing_plan_id":"cebpf4jnsgd1na2vs0mg"},{"bike_id":"94cf0130-5684-4348-a8a8-893f0d7540e7","system_id":"levelo_inurba_marseille","lat":43.23147,"lon":5.43712,"is_reserved":false,"is_disabled":false,"rental_uris":{"android":"levelo://app?vid=94cf0130-5684-4348-a8a8-893f0d7540e7","ios":"levelo://app?vid=94cf0130-5684-4348-a8a8-893f0d7540e7"},"vehicle_type_id":"4","last_reported":1770626218,"current_range_meters":9600,"station_id":"ce4bhmp2rcd13ifvqgog","pricing_plan_id":"cebpf4jnsgd1na2vs0mg"},{"bike_id":"b1f332c7-5636-4771-b1b9-0c1d3c5bdc3b","system_id":"levelo_inurba_marseille","lat":43.31713,"lon":5.42411,"is_reserved":false,"is_disabled":false,"rental_uris":{"android":"levelo://app?vid=b1f332c7-5636-4771-b1b9-0c1d3c5bdc3b","ios":"levelo://app?vid=b1f332c7-5636-4771-b1b9-0c1d3c5bdc3b"},"vehicle_type_id":"4","last_reported":1770626218,"current_range_meters":9600,"station_id":"ce4bhp92rcd13ifvqhbg","pricing_plan_id":"cebpf4jnsgd1na2vs0mg"},{"bike_id":"19e9ca2b-5c30-46c4-b2b7-32963beb252b","system_id":"levelo_inurba_marseille","lat":43.30154,"lon":5.380981,"is_reserved":false,"is_disabled":false,"rental_uris":{"android":"levelo://app?vid=19e9ca2b-5c30-46c4-b2b7-32963beb252b","ios":"levelo://app?vid=19e9ca2b-5c30-46c4-b2b7-32963beb252b"},"vehicle_type_id":"4","last_reported":1770626218,"current_range_meters":9600,"station_id":"ce4bgjp2rcd13ifvqbh0","pricing_plan_id":"cebpf4jnsgd1na2vs0mg"},{"bike_id":"d78c5275-a079-45c4-9ae1-fc3831abcbf7","system_id":"levelo_inurba_marseille","lat":43.246326,"lon":5.431441,"is_reserved":false,"is_disabled":false,"rental_uris":{"android":"levelo://app?vid=d78c5275-a079-45c4-9ae1-fc3831abcbf7","ios":"levelo://app?vid=d78c5275-a079-45c4-9ae1-fc3831abcbf7"},"vehicle_type_id":"4","last_reported":1770626218,"current_range_meters":9600,"station_id":"st_d2m6c4gdas8pm72e190g","pricing_plan_id":"cebpf4jnsgd1na2vs0mg"},{"bike_id":"e9077c46-b39a-4a40-998e-842f0385514a","system_id":"levelo_inurba_marseille","lat":43.2717,"lon":5.41014,"is_reserved":false,"is_disabled":false,"rental_uris":{"android":"levelo://app?vid=e9077c46-b39a-4a40-998e-842f0385514a","ios":"levelo://app?vid=e9077c46-b39a-4a40-998e-842f0385514a"},"vehicle_type_id":"4","last_reported":1770626218,"current_range_meters":9600,"station_id":"ce4bhl12rcd13ifvqgf0","pricing_plan_id":"cebpf4jnsgd1na2vs0mg"},{"bike_id":"8f217ec9-d820-421b-9b21-1f72622fa47f","system_id":"levelo_inurba_marseille","lat":43.27051,"lon":5.40288,"is_reserved":false,"is_disabled":false,"rental_uris":{"android":"levelo://app?vid=8f217ec9-d820-421b-9b21-1f72622fa47f","ios":"levelo://app?vid=8f217ec9-d820-421b-9b21-1f72622fa47f"},"vehicle_type_id":"4","last_reported":1770626218,"current_range_meters":9600,"station_id":"ce4bhk92rcd13ifvqgc0","pricing_plan_id":"cebpf4jnsgd1na2vs0mg"},{"bike_id":"d16a7a13-7da2-49a5-a319-af5a11696340","system_id":"levelo_inurba_marseille","lat":43.26567,"lon":5.40345,"is_reserved":false,"is_disabled":false,"rental_uris":{"android":"levelo://app?vid=d16a7a13-7da2-49a5-a319-af5a11696340","ios":"levelo://app?vid=d16a7a13-7da2-49a5-a319-af5a11696340"},"vehicle_type_id":"4","last_reported":1770626218,"current_range_meters":9600,"station_id":"ce4bhmp2rcd13ifvqgng","pricing_plan_id":"cebpf4jnsgd1na2vs0mg"},{"bike_id":"981d394e-fddf-4d15-832f-83a66d0fa05a","system_id":"levelo_inurba_marseille","lat":43.2928,"lon":5.40873,"is_reserved":false,"is_disabled":false,"rental_uris":{"android":"levelo://app?vid=981d394e-fddf-4d15-832f-83a66d0fa05a","ios":"levelo://app?vid=981d394e-fddf-4d15-832f-83a66d0fa05a"},"vehicle_type_id":"4","last_reported":1770626218,"current_range_meters":9600,"station_id":"ce4bh192rcd13ifvqdc0","pricing_plan_id":"cebpf4jnsgd1na2vs0mg"},{"bike_id":"cdcd7614-f932-49c9-8159-6ecefea33f44","system_id":"levelo_inurba_marseille","lat":43.31352,"lon":5.36714,"is_reserved":false,"is_disabled":false,"rental_uris":{"android":"levelo://app?vid=cdcd7614-f932-49c9-8159-6ecefea33f44","ios":"levelo://app?vid=cdcd7614-f932-49c9-8159-6ecefea33f44"},"vehicle_type_id":"4","last_reported":1770626218,"current_range_meters":9600,"station_id":"ce4bgr92rcd13ifvqc6g","pricing_plan_id":"cebpf4jnsgd1na2vs0mg"},{"bike_id":"41166160-6d84-4b59-b9a6-a65e6c8174c4","system_id":"levelo_inurba_marseille","lat":43.28494,"lon":5.48403,"is_reserved":false,"is_disabled":false,"rental_uris":{"android":"levelo://app?vid=41166160-6d84-4b59-b9a6-a65e6c8174c4","ios":"levelo://app?vid=41166160-6d84-4b59-b9a6-a65e6c8174c4"},"vehicle_type_id":"4","last_reported":1770626218,"current_range_meters":9600,"station_id":"st_d3svhcjqgbts73a3dn0g","pricing_plan_id":"cebpf4jnsgd1na2vs0mg"},{"bike_id":"85924ffa-0eaf-4dcf-82fc-60f45d35d5cd","system_id":"levelo_inurba_marseille","lat":43.28244,"lon":5.40537,"is_reserved":false,"is_disabled":false,"rental_uris":{"android":"levelo://app?vid=85924ffa-0eaf-4dcf-82fc-60f45d35d5cd","ios":"levelo://app?vid=85924ffa-0eaf-4dcf-82fc-60f45d35d5cd"},"vehicle_type_id":"4","last_reported":1770626218,"current_range_meters":9600,"station_id":"","pricing_plan_id":"cebpf4jnsgd1na2vs0mg"},{"bike_id":"729b8527-2b39-458f-8ce2-1c840543f5fb","system_id":"levelo_inurba_marseille","lat":43.30786,"lon":5.37635,"is_reserved":false,"is_disabled":false,"rental_uris":{"android":"levelo://app?vid=729b8527-2b39-458f-8ce2-1c840543f5fb","ios":"levelo://app?vid=729b8527-2b39-458f-8ce2-1c840543f5fb"},"vehicle_type_id":"4","last_reported":1770626218,"current_range_meters":9600,"station_id":"ce4bgv92rcd13ifvqcq0","pricing_plan_id":"cebpf4jnsgd1na2vs0mg"},{"bike_id":"00020242-f75d-4e86-970f-053c5377086a","system_id":"levelo_inurba_marseille","lat":43.30299,"lon":5.37694,"is_reserved":false,"is_disabled":true,"rental_uris":{"android":"levelo://app?vid=00020242-f75d-4e86-970f-053c5377086a","ios":"levelo://app?vid=00020242-f75d-4e86-970f-053c5377086a"},"vehicle_type_id":"4","last_reported":1770626218,"current_range_meters":10000,"station_id":"ce4bguh2rcd13ifvqcj0","pricing_plan_id":"cebpf4jnsgd1na2vs0mg"},{"bike_id":"2c57c959-e40e-442a-a0f3-49fa57151a04","system_id":"levelo_inurba_marseille","lat":43.26952,"lon":5.3863,"is_reserved":false,"is_disabled":false,"rental_uris":{"android":"levelo://app?vid=2c57c959-e40e-442a-a0f3-49fa57151a04","ios":"levelo://app?vid=2c57c959-e40e-442a-a0f3-49fa57151a04"},"vehicle_type_id":"4","last_reported":1770626218,"current_range_meters":10000,"station_id":"ce4bhh92rcd13ifvqfh0","pricing_plan_id":"cebpf4jnsgd1na2vs0mg"},{"bike_id":"67949cb0-ad73-42aa-8494-c2a7d6735f87","system_id":"levelo_inurba_marseille","lat":43.31289,"lon":5.36814,"is_reserved":false,"is_disabled":false,"rental_uris":{"android":"levelo://app?vid=67949cb0-ad73-42aa-8494-c2a7d6735f87","ios":"levelo://app?vid=67949cb0-ad73-42aa-8494-c2a7d6735f87"},"vehicle_type_id":"4","last_reported":1770626218,"current_range_meters":10000,"station_id":"","pricing_plan_id":"cebpf4jnsgd1na2vs0mg"},{"bike_id":"ee53a491-47f0-4361-84f0-4818093b62a0","system_id":"levelo_inurba_marseille","lat":43.29964,"lon":5.38498,"is_reserved":false,"is_disabled":false,"rental_uris":{"android":"levelo://app?vid=ee53a491-47f0-4361-84f0-4818093b62a0","ios":"levelo://app?vid=ee53a491-47f0-4361-84f0-4818093b62a0"},"vehicle_type_id":"4","last_reported":1770626218,"current_range_meters":10000,"station_id":"ce4bgj92rcd13ifvqbd0","pricing_plan_id":"cebpf4jnsgd1na2vs0mg"},{"bike_id":"6a0ec98e-c5c3-4b20-b087-a56827653381","system_id":"levelo_inurba_marseille","lat":43.29622,"lon":5.37732,"is_reserved":false,"is_disabled":false,"rental_uris":{"android":"levelo://app?vid=6a0ec98e-c5c3-4b20-b087-a56827653381","ios":"levelo://app?vid=6a0ec98e-c5c3-4b20-b087-a56827653381"},"vehicle_type_id":"4","last_reported":1770626218,"current_range_meters":10000,"station_id":"ce4bgi92rcd13ifvqb90","pricing_plan_id":"cebpf4jnsgd1na2vs0mg"},{"bike_id":"63334bdf-5730-41aa-8ba6-777933f4f522","system_id":"levelo_inurba_marseille","lat":43.24165,"lon":5.36404,"is_reserved":false,"is_disabled":false,"rental_uris":{"android":"levelo://app?vid=63334bdf-5730-41aa-8ba6-777933f4f522","ios":"levelo://app?vid=63334bdf-5730-41aa-8ba6-777933f4f522"},"vehicle_type_id":"4","last_reported":1770626218,"current_range_meters":10000,"station_id":"cpo36qri1sfpv3e86is0","pricing_plan_id":"cebpf4jnsgd1na2vs0mg"},{"bike_id":"6ab7136e-4145-47c4-8902-d61d669e4dae","system_id":"levelo_inurba_marseille","lat":43.22936,"lon":5.35376,"is_reserved":false,"is_disabled":false,"rental_uris":{"android":"levelo://app?vid=6ab7136e-4145-47c4-8902-d61d669e4dae","ios":"levelo://app?vid=6ab7136e-4145-47c4-8902-d61d669e4dae"},"vehicle_type_id":"4","last_reported":1770626218,"current_range_meters":10000,"station_id":"cpo3532slgdg3j2ikp40","pricing_plan_id":"cebpf4jnsgd1na2vs0mg"},{"bike_id":"5a07bf94-09a9-40da-9fb4-7d6140fa296d","system_id":"levelo_inurba_marseille","lat":43.29544,"lon":5.37495,"is_reserved":false,"is_disabled":false,"rental_uris":{"android":"levelo://app?vid=5a07bf94-09a9-40da-9fb4-7d6140fa296d","ios":"levelo://app?vid=5a07bf94-09a9-40da-9fb4-7d6140fa296d"},"vehicle_type_id":"4","last_reported":1770626218,"current_range_meters":10000,"station_id":"ce4bgkp2rcd13ifvqbmg","pricing_plan_id":"cebpf4jnsgd1na2vs0mg"},{"bike_id":"18d61e57-fc55-40d9-818e-8aeee38f8ac1","system_id":"levelo_inurba_marseille","lat":43.2315,"lon":5.43695,"is_reserved":false,"is_disabled":false,"rental_uris":{"android":"levelo://app?vid=18d61e57-fc55-40d9-818e-8aeee38f8ac1","ios":"levelo://app?vid=18d61e57-fc55-40d9-818e-8aeee38f8ac1"},"vehicle_type_id":"4","last_reported":1770626218,"current_range_meters":10000,"station_id":"ce4bhmp2rcd13ifvqgog","pricing_plan_id":"cebpf4jnsgd1na2vs0mg"},{"bike_id":"c591994d-5d51-421f-a6a7-c6a419cc1136","system_id":"levelo_inurba_marseille","lat":43.27215,"lon":5.3918,"is_reserved":false,"is_disabled":false,"rental_uris":{"android":"levelo://app?vid=c591994d-5d51-421f-a6a7-c6a419cc1136","ios":"levelo://app?vid=c591994d-5d51-421f-a6a7-c6a419cc1136"},"vehicle_type_id":"4","last_reported":1770626218,"current_range_meters":10000,"station_id":"ce4bhhp2rcd13ifvqfm0","pricing_plan_id":"cebpf4jnsgd1na2vs0mg"},{"bike_id":"64c96719-92d1-49f1-ac77-b347d1784e75","system_id":"levelo_inurba_marseille","lat":43.29183,"lon":5.37155,"is_reserved":false,"is_disabled":false,"rental_uris":{"android":"levelo://app?vid=64c96719-92d1-49f1-ac77-b347d1784e75","ios":"levelo://app?vid=64c96719-92d1-49f1-ac77-b347d1784e75"},"vehicle_type_id":"4","last_reported":1770626218,"current_range_meters":10000,"station_id":"ce4bha92rcd13ifvqeh0","pricing_plan_id":"cebpf4jnsgd1na2vs0mg"},{"bike_id":"b6a516a9-03c7-4dcc-a91e-d3b3427ebc79","system_id":"levelo_inurba_marseille","lat":43.26688,"lon":5.3827,"is_reserved":false,"is_disabled":false,"rental_uris":{"android":"levelo://app?vid=b6a516a9-03c7-4dcc-a91e-d3b3427ebc79","ios":"levelo://app?vid=b6a516a9-03c7-4dcc-a91e-d3b3427ebc79"},"vehicle_type_id":"4","last_reported":1770626218,"current_range_meters":10000,"station_id":"ce4bhg92rcd13ifvqf90","pricing_plan_id":"cebpf4jnsgd1na2vs0mg"},{"bike_id":"4398c145-e1d1-4ea2-b651-ad884f507bf8","system_id":"levelo_inurba_marseille","lat":43.33577,"lon":5.37429,"is_reserved":false,"is_disabled":false,"rental_uris":{"android":"levelo://app?vid=4398c145-e1d1-4ea2-b651-ad884f507bf8","ios":"levelo://app?vid=4398c145-e1d1-4ea2-b651-ad884f507bf8"},"vehicle_type_id":"4","last_reported":1770626218,"current_range_meters":10000,"station_id":"st_d46tts09ee8s73dlu43g","pricing_plan_id":"cebpf4jnsgd1na2vs0mg"},{"bike_id":"d513b1c1-7b62-4145-b42f-a6f15f46d2ca","system_id":"levelo_inurba_marseille","lat":43.2942,"lon":5.41327,"is_reserved":false,"is_disabled":false,"rental_uris":{"android":"levelo://app?vid=d513b1c1-7b62-4145-b42f-a6f15f46d2ca","ios":"levelo://app?vid=d513b1c1-7b62-4145-b42f-a6f15f46d2ca"},"vehicle_type_id":"4","last_reported":1770626218,"current_range_meters":10000,"station_id":"","pricing_plan_id":"cebpf4jnsgd1na2vs0mg"},{"bike_id":"448e9cc7-1dc4-4500-89cb-be0d6dc09ece","system_id":"levelo_inurba_marseille","lat":43.30626,"lon":5.37658,"is_reserved":false,"is_disabled":false,"rental_uris":{"android":"levelo://app?vid=448e9cc7-1dc4-4500-89cb-be0d6dc09ece","ios":"levelo://app?vid=448e9cc7-1dc4-4500-89cb-be0d6dc09ece"},"vehicle_type_id":"4","last_reported":1770626218,"current_range_meters":10000,"station_id":"","pricing_plan_id":"cebpf4jnsgd1na2vs0mg"},{"bike_id":"102dddc9-906e-44b5-8a10-a3f6b8ff0ffa","system_id":"levelo_inurba_marseille","lat":43.30134,"lon":5.43134,"is_reserved":false,"is_disabled":false,"rental_uris":{"android":"levelo://app?vid=102dddc9-906e-44b5-8a10-a3f6b8ff0ffa","ios":"levelo://app?vid=102dddc9-906e-44b5-8a10-a3f6b8ff0ffa"},"vehicle_type_id":"4","last_reported":1770626218,"current_range_meters":10800,"station_id":"st_d3js3co5814s73ftftug","pricing_plan_id":"cebpf4jnsgd1na2vs0mg"},{"bike_id":"f84eed4a-1026-4c5a-8c2b-36011e38ed5f","system_id":"levelo_inurba_marseille","lat":43.31753,"lon":5.39014,"is_reserved":false,"is_disabled":false,"rental_uris":{"android":"levelo://app?vid=f84eed4a-1026-4c5a-8c2b-36011e38ed5f","ios":"levelo://app?vid=f84eed4a-1026-4c5a-8c2b-36011e38ed5f"},"vehicle_type_id":"4","last_reported":1770626218,"current_range_meters":10800,"station_id":"ce4bhqp2rcd13ifvqhng","pricing_plan_id":"cebpf4jnsgd1na2vs0mg"},{"bike_id":"4baf41c1-51a8-4e5f-a42b-f8cffb0e9b07","system_id":"levelo_inurba_marseille","lat":43.31335,"lon":5.36721,"is_reserved":false,"is_disabled":false,"rental_uris":{"android":"levelo://app?vid=4baf41c1-51a8-4e5f-a42b-f8cffb0e9b07","ios":"levelo://app?vid=4baf41c1-51a8-4e5f-a42b-f8cffb0e9b07"},"vehicle_type_id":"4","last_reported":1770626218,"current_range_meters":10800,"station_id":"ce4bgr92rcd13ifvqc6g","pricing_plan_id":"cebpf4jnsgd1na2vs0mg"},{"bike_id":"775fdb18-00c9-47a4-8c36-27290482f5ad","system_id":"levelo_inurba_marseille","lat":43.24956,"lon":5.4048,"is_reserved":false,"is_disabled":false,"rental_uris":{"android":"levelo://app?vid=775fdb18-00c9-47a4-8c36-27290482f5ad","ios":"levelo://app?vid=775fdb18-00c9-47a4-8c36-27290482f5ad"},"vehicle_type_id":"4","last_reported":1770626218,"current_range_meters":10800,"station_id":"st_d2ngiaodas8pm72gd1h0","pricing_plan_id":"cebpf4jnsgd1na2vs0mg"},