{"last_updated":1739272048,"ttl":60,"version":"2.2","data":{"bikes":[{"bike_id":"5cda301b-bce8-41d3-abea-2e981f99524e","system_id":"levelo_inurba_marseille","lat":43.29861,"lon":5.36289,"is_reserved":false,"is_disabled":false,"rental_uris":{"android":"levelo://app?vid=5cda301b-bce8-41d3-abea-2e981f99524e","ios":"levelo://app?vid=5cda301b-bce8-41d3-abea-2e981f99524e"},"vehicle_type_id":"4","last_reported":1739272049,"current_range_meters":25600,"station_id":"ce4bgpp2rcd13ifvqc3g","pricing_plan_id":"cebpf4jnsgd1na2vs0mg"},{"bike_id":"9d866449-644d-4990-b79a-792d50872bfd","system_id":"levelo_inurba_marseille","lat":43.31231,"lon":5.3687,"is_reserved":false,"is_disabled":false,"rental_uris":{"android":"levelo://app?vid=9d866449-644d-4990-b79a-792d50872bfd","ios":"levelo://app?vid=9d866449-644d-4990-b79a-792d50872bfd"},"vehicle_type_id":"4","last_reported":1739272049,"current_range_meters":27200,"station_id":"ce4bgl92rcd13ifvqbq0","pricing_plan_id":"cebpf4jnsgd1na2vs0mg"},{"bike_id":"bf0f6929-284e-4dd3-a327-d426f968dbf9","system_id":"levelo_inurba_marseille","lat":43.29624,"lon":5.37723,"is_reserved":false,"is_disabled":false,"rental_uris":{"android":"levelo://app?vid=bf0f6929-284e-4dd3-a327-d426f968dbf9","ios":"levelo://app?vid=bf0f6929-284e-4dd3-a327-d426f968dbf9"},"vehicle_type_id":"4","last_reported":1739272049,"current_range_meters":28800,"station_id":"ce4bgi92rcd13ifvqb90","pricing_plan_id":"cebpf4jnsgd1na2vs0mg"},{"bike_id":"b068362a-3288-489d-9388-78d1aec4149d","system_id":"levelo_inurba_marseille","lat":43.2657,"lon":5.39033,"is_reserved":false,"is_disabled":false,"rental_uris":{"android":"levelo://app?vid=b068362a-3288-489d-9388-78d1aec4149d","ios":"levelo://app?vid=b068362a-3288-489d-9388-78d1aec4149d"},"vehicle_type_id":"4","last_reported":1739272049,"current_range_meters":37600,"station_id":"ce4bhe12rcd13ifvqf30","pricing_plan_id":"cebpf4jnsgd1na2vs0mg"},{"bike_id":"1be74a3a-a056-43be-8509-9013b95273a7","system_id":"levelo_inurba_marseille","lat":43.30481,"lon":5.39871,"is_reserved":false,"is_disabled":false,"rental_uris":{"android":"levelo://app?vid=1be74a3a-a056-43be-8509-9013b95273a7","ios":"levelo://app?vid=1be74a3a-a056-43be-8509-9013b95273a7"},"vehicle_type_id":"4","last_reported":1739272049,"current_range_meters":38800,"station_id":"","pricing_plan_id":"cebpf4jnsgd1na2vs0mg"},{"bike_id":"136b5c0d-93f1-4dad-a246-13f0c6b86b2e","system_id":"levelo_inurba_marseille","lat":43.28493,"lon":5.38551,"is_reserved":false,"is_disabled":false,"rental_uris":{"android":"levelo://app?vid=136b5c0d-93f1-4dad-a246-13f0c6b86b2e","ios":"levelo://app?vid=136b5c0d-93f1-4dad-a246-13f0c6b86b2e"},"vehicle_type_id":"4","last_reported":1739272049,"current_range_meters":30000,"station_id":"ce4bh8p2rcd13ifvqeb0","pricing_plan_id":"cebpf4jnsgd1na2vs0mg"},{"bike_id":"0507fea5-a8e4-4320-bc79-8b34cb93a21e","system_id":"levelo_inurba_marseille","lat":43.29904,"lon":5.36556,"is_reserved":false,"is_disabled":false,"rental_uris":{"android":"levelo://app?vid=0507fea5-a8e4-4320-bc79-8b34cb93a21e","ios":"levelo://app?vid=0507fea5-a8e4-4320-bc79-8b34cb93a21e"},"vehicle_type_id":"4","last_reported":1739272049,"current_range_meters":30400,"station_id":"ce4bgm92rcd13ifvqbr0","pricing_plan_id":"cebpf4jnsgd1na2vs0mg"},{"bike_id":"c42ec01e-6613-4f8e-a4db-7cb2a8549b13","system_id":"levelo_inurba_marseille","lat":43.26687,"lon":5.38265,"is_reserved":false,"is_disabled":false,"rental_uris":{"android":"levelo://app?vid=c42ec01e-6613-4f8e-a4db-7cb2a8549b13","ios":"levelo://app?vid=c42ec01e-6613-4f8e-a4db-7cb2a8549b13"},"vehicle_type_id":"4","last_reported":1739272049,"current_range_meters":24800,"station_id":"ce4bhg92rcd13ifvqf90","pricing_plan_id":"cebpf4jnsgd1na2vs0mg"},{"bike_id":"9efc1b0e-4b57-4037-939b-26261a3d20f8","system_id":"levelo_inurba_marseille","lat":43.29562,"lon":5.37524,"is_reserved":false,"is_disabled":false,"rental_uris":{"android":"levelo://app?vid=9efc1b0e-4b57-4037-939b-26261a3d20f8","ios":"levelo://app?vid=9efc1b0e-4b57-4037-939b-26261a3d20f8"},"vehicle_type_id":"4","last_reported":1739272049,"current_range_meters":28800,"station_id":"ce4bgh92rcd13ifvqb50","pricing_plan_id":"cebpf4jnsgd1na2vs0mg"},{"bike_id":"6ad12fed-a7c3-4ded-a0c5-213958e34b8e","system_id":"levelo_inurba_marseille","lat":43.32503,"lon":5.36573,"is_reserved":false,"is_disabled":false,"rental_uris":{"android":"levelo://app?vid=6ad12fed-a7c3-4ded-a0c5-213958e34b8e","ios":"levelo://app?vid=6ad12fed-a7c3-4ded-a0c5-213958e34b8e"},"vehicle_type_id":"4","last_reported":1739272049,"current_range_meters":38800,"station_id":"ce4bhs12rcd13ifvqhvg","pricing_plan_id":"cebpf4jnsgd1na2vs0mg"},{"bike_id":"4a4cd57a-4bd3-475e-b49b-f4b6b7aeacf0","system_id":"levelo_inurba_marseille","lat":43.26775,"lon":5.39414,"is_reserved":false,"is_disabled":false,"rental_uris":{"android":"levelo://app?vid=4a4cd57a-4bd3-475e-b49b-f4b6b7aeacf0","ios":"levelo://app?vid=4a4cd57a-4bd3-475e-b49b-f4b6b7aeacf0"},"vehicle_type_id":"4","last_reported":1739272049,"current_range_meters":22000,"station_id":"ce4bhh12rcd13ifvqfg0","pricing_plan_id":"cebpf4jnsgd1na2vs0mg"},{"bike_id":"070ded19-db45-4133-9e69-a50aacceab14","system_id":"levelo_inurba_marseille","lat":43.26808,"lon":5.40263,"is_reserved":false,"is_disabled":false,"rental_uris":{"android":"levelo://app?vid=070ded19-db45-4133-9e69-a50aacceab14","ios":"levelo://app?vid=070ded19-db45-4133-9e69-a50aacceab14"},"vehicle_type_id":"4","last_reported":1739272049,"current_range_meters":38800,"station_id":"ce501612rcd8frsf0b60","pricing_plan_id":"cebpf4jnsgd1na2vs0mg"},{"bike_id":"f759837a-69cc-4770-96c2-faf60f712aca","system_id":"levelo_inurba_marseille","lat":43.30545,"lon":5.3654,"is_reserved":false,"is_disabled":false,"rental_uris":{"android":"levelo://app?vid=f759837a-69cc-4770-96c2-faf60f712aca","ios":"levelo://app?vid=f759837a-69cc-4770-96c2-faf60f712aca"},"vehicle_type_id":"4","last_reported":1739272049,"current_range_meters":11200,"station_id":"ce4bgs12rcd13ifvqcag","pricing_plan_id":"cebpf4jnsgd1na2vs0mg"},{"bike_id":"9cebbfac-f2bd-4a25-81be-e499c5a5f4c8","system_id":"levelo_inurba_marseille","lat":43.30268,"lon":5.37719,"is_reserved":false,"is_disabled":false,"rental_uris":{"android":"levelo://app?vid=9cebbfac-f2bd-4a25-81be-e499c5a5f4c8","ios":"levelo://app?vid=9cebbfac-f2bd-4a25-81be-e499c5a5f4c8"},"vehicle_type_id":"4","last_reported":1739272049,"current_range_meters":38800,"station_id":"ce4bguh2rcd13ifvqcj0","pricing_plan_id":"cebpf4jnsgd1na2vs0mg"},{"bike_id":"fc63d1c6-39db-42fc-a5f0-8ec761e9b064","system_id":"levelo_inurba_marseille","lat":43.31691,"lon":5.4047,"is_reserved":false,"is_disabled":false,"rental_uris":{"android":"levelo://app?vid=fc63d1c6-39db-42fc-a5f0-8ec761e9b064","ios":"levelo://app?vid=fc63d1c6-39db-42fc-a5f0-8ec761e9b064"},"vehicle_type_id":"4","last_reported":1739272049,"current_range_meters":38800,"station_id":"ce4bh012rcd13ifvqd00","pricing_plan_id":"cebpf4jnsgd1na2vs0mg"},{"bike_id":"9e4564f0-0519-46c9-beea-73f529a3ce6a","system_id":"levelo_inurba_marseille","lat":43.24825,"lon":5.37465,"is_reserved":false,"is_disabled":false,"rental_uris":{"android":"levelo://app?vid=9e4564f0-0519-46c9-beea-73f529a3ce6a","ios":"levelo://app?vid=9e4564f0-0519-46c9-beea-73f529a3ce6a"},"vehicle_type_id":"4","last_reported":1739272049,"current_range_meters":33200,"station_id":"ce4bhgh2rcd13ifvqfb0","pricing_plan_id":"cebpf4jnsgd1na2vs0mg"},{"bike_id":"46e433ac-b519-4d59-9231-189aeeb0c3a5","system_id":"levelo_inurba_marseille","lat":43.30564,"lon":5.37207,"is_reserved":false,"is_disabled":false,"rental_uris":{"android":"levelo://app?vid=46e433ac-b519-4d59-9231-189aeeb0c3a5","ios":"levelo://app?vid=46e433ac-b519-4d59-9231-189aeeb0c3a5"},"vehicle_type_id":"4","last_reported":1739272049,"current_range_meters":35600,"station_id":"ce4bgqh2rcd13ifvqc4g","pricing_plan_id":"cebpf4jnsgd1na2vs0mg"},{"bike_id":"a94d2018-f678-4713-bf2d-5da0b28f3e59","system_id":"levelo_inurba_marseille","lat":43.29791,"lon":5.37114,"is_reserved":false,"is_disabled":false,"rental_uris":{"android":"levelo://app?vid=a94d2018-f678-4713-bf2d-5da0b28f3e59","ios":"levelo://app?vid=a94d2018-f678-4713-bf2d-5da0b28f3e59"},"vehicle_type_id":"4","last_reported":1739272049,"current_range_meters":37600,"station_id":"ce4bgop2rcd13ifvqc1g","pricing_plan_id":"cebpf4jnsgd1na2vs0mg"},{"bike_id":"6e1261de-61ca-45f3-8263-50cd9c374486","system_id":"levelo_inurba_marseille","lat":43.29622,"lon":5.37737,"is_reserved":false,"is_disabled":false,"rental_uris":{"android":"levelo://app?vid=6e1261de-61ca-45f3-8263-50cd9c374486","ios":"levelo://app?vid=6e1261de-61ca-45f3-8263-50cd9c374486"},"vehicle_type_id":"4","last_reported":1739272049,"current_range_meters":36800,"station_id":"ce4bgi92rcd13ifvqb90","pricing_plan_id":"cebpf4jnsgd1na2vs0mg"},{"bike_id":"3df3041b-27b7-4def-8d60-99d6191bfdce","system_id":"levelo_inurba_marseille","lat":43.27509,"lon":5.42451,"is_reserved":false,"is_disabled":false,"rental_uris":{"android":"levelo://app?vid=3df3041b-27b7-4def-8d60-99d6191bfdce","ios":"levelo://app?vid=3df3041b-27b7-4def-8d60-99d6191bfdce"},"vehicle_type_id":"4","last_reported":1739272049,"current_range_meters":38400,"station_id":"ce4bhn92rcd13ifvqgrg","pricing_plan_id":"cebpf4jnsgd1na2vs0mg"},{"bike_id":"e1b7c5bc-ba1c-42b9-a842-0b329d2cd64c","system_id":"levelo_inurba_marseille","lat":43.2903,"lon":5.43251,"is_reserved":false,"is_disabled":false,"rental_uris":{"android":"levelo://app?vid=e1b7c5bc-ba1c-42b9-a842-0b329d2cd64c","ios":"levelo://app?vid=e1b7c5bc-ba1c-42b9-a842-0b329d2cd64c"},"vehicle_type_id":"4","last_reported":1739272049,"current_range_meters":32800,"station_id":"","pricing_plan_id":"cebpf4jnsgd1na2vs0mg"},{"bike_id":"99a390ba-5475-4249-87bf-6fc6de607743","system_id":"levelo_inurba_marseille","lat":43.29981,"lon":5.38498,"is_reserved":false,"is_disabled":false,"rental_uris":{"android":"levelo://app?vid=99a390ba-5475-4249-87bf-6fc6de607743","ios":"levelo://app?vid=99a390ba-5475-4249-87bf-6fc6de607743"},"vehicle_type_id":"4","last_reported":1739272049,"current_range_meters":16400,"station_id":"ce4bgj92rcd13ifvqbd0","pricing_plan_id":"cebpf4jnsgd1na2vs0mg"},{"bike_id":"03e763eb-2ea5-4191-8380-138ad06f19b1","system_id":"levelo_inurba_marseille","lat":43.32458,"lon":5.36587,"is_reserved":false,"is_disabled":false,"rental_uris":{"android":"levelo://app?vid=03e763eb-2ea5-4191-8380-138ad06f19b1","ios":"levelo://app?vid=03e763eb-2ea5-4191-8380-138ad06f19b1"},"vehicle_type_id":"4","last_reported":1739272049,"current_range_meters":30400,"station_id":"ce4bhs12rcd13ifvqhvg","pricing_plan_id":"cebpf4jnsgd1na2vs0mg"},{"bike_id":"6803ddfa-d502-42a2-ad93-8e0a9a783768","system_id":"levelo_inurba_marseille","lat":43.26035,"lon":5.37559,"is_reserved":false,"is_disabled":false,"rental_uris":{"android":"levelo://app?vid=6803ddfa-d502-42a2-ad93-8e0a9a783768","ios":"levelo://app?vid=6803ddfa-d502-42a2-ad93-8e0a9a783768"},"vehicle_type_id":"4","last_reported":1739272049,"current_range_meters":20400,"station_id":"ce4bhgh2rcd13ifvqfa0","pricing_plan_id":"cebpf4jnsgd1na2vs0mg"},{"bike_id":"894c1cd6-ced2-4b41-b576-bff0b1d4b045","system_id":"levelo_inurba_marseille","lat":43.30327,"lon":5.36929,"is_reserved":false,"is_disabled":false,"rental_uris":{"android":"levelo://app?vid=894c1cd6-ced2-4b41-b576-bff0b1d4b045","ios":"levelo://app?vid=894c1cd6-ced2-4b41-b576-bff0b1d4b045"},"vehicle_type_id":"4","last_reported":1739272049,"current_range_meters":38800,"station_id":"ce4bgqh2rcd13ifvqc5g","pricing_plan_id":"cebpf4jnsgd1na2vs0mg"},{"bike_id":"43084b6e-1c1f-4ca9-b7f4-cbd6d50e8dc1","system_id":"levelo_inurba_marseille","lat":43.30794,"lon":5.37639,"is_reserved":false,"is_disabled":false,"rental_uris":{"android":"levelo://app?vid=43084b6e-1c1f-4ca9-b7f4-cbd6d50e8dc1","ios":"levelo://app?vid=43084b6e-1c1f-4ca9-b7f4-cbd6d50e8dc1"},"vehicle_type_id":"4","last_reported":1739272049,"current_range_meters":8000,"station_id":"ce4bgv92rcd13ifvqcq0","pricing_plan_id":"cebpf4jnsgd1na2vs0mg"},{"bike_id":"f798cbc4-a869-471f-bce8-f64397eebe81","system_id":"levelo_inurba_marseille","lat":43.23956,"lon":5.36632,"is_reserved":false,"is_disabled":false,"rental_uris":{"android":"levelo://app?vid=f798cbc4-a869-471f-bce8-f64397eebe81","ios":"levelo://app?vid=f798cbc4-a869-471f-bce8-f64397eebe81"},"vehicle_type_id":"4","last_reported":1739272049,"current_range_meters":22800,"station_id":"ce4bhi12rcd13ifvqfp0","pricing_plan_id":"cebpf4jnsgd1na2vs0mg"},{"bike_id":"70f8b8f3-c647-46aa-87a6-806fb665fa37","system_id":"levelo_inurba_marseille","lat":43.28038,"lon":5.36954,"is_reserved":false,"is_disabled":false,"rental_uris":{"android":"levelo://app?vid=70f8b8f3-c647-46aa-87a6-806fb665fa37","ios":"levelo://app?vid=70f8b8f3-c647-46aa-87a6-806fb665fa37"},"vehicle_type_id":"4","last_reported":1739272049,"current_range_meters":16400,"station_id":"ce4bha12rcd13ifvqef0","pricing_plan_id":"cebpf4jnsgd1na2vs0mg"},{"bike_id":"54e74514-9d57-4ad2-918e-243453ce2a24","system_id":"levelo_inurba_marseille","lat":43.30464,"lon":5.37911,"is_reserved":false,"is_disabled":false,"rental_uris":{"android":"levelo://app?vid=54e74514-9d57-4ad2-918e-243453ce2a24","ios":"levelo://app?vid=54e74514-9d57-4ad2-918e-243453ce2a24"},"vehicle_type_id":"4","last_reported":1739272049,"current_range_meters":17600,"station_id":"ce4bgup2rcd13ifvqcn0","pricing_plan_id":"cebpf4jnsgd1na2vs0mg"},{"bike_id":"dbc9e315-ac49-428a-8bf8-eebb4dfa7cf6","system_id":"levelo_inurba_marseille","lat":43.30594,"lon":5.37214,"is_reserved":false,"is_disabled":false,"rental_uris":{"android":"levelo://app?vid=dbc9e315-ac49-428a-8bf8-eebb4dfa7cf6","ios":"levelo://app?vid=dbc9e315-ac49-428a-8bf8-eebb4dfa7cf6"},"vehicle_type_id":"4","last_reported":1739272049,"current_range_meters":38800,"station_id":"ce4bgqh2rcd13ifvqc4g","pricing_plan_id":"cebpf4jnsgd1na2vs0mg"},{"bike_id":"bf8cd02e-ccdc-4523-894a-3fce83d782e3","system_id":"levelo_inurba_marseille","lat":43.33705,"lon":5.39215,"is_reserved":false,"is_disabled":false,"rental_uris":{"android":"levelo://app?vid=bf8cd02e-ccdc-4523-894a-3fce83d782e3","ios":"levelo://app?vid=bf8cd02e-ccdc-4523-894a-3fce83d782e3"},"vehicle_type_id":"4","last_reported":1739272049,"current_range_meters":37600,"station_id":"ce4bhr92rcd13ifvqhsg","pricing_plan_id":"cebpf4jnsgd1na2vs0mg"},{"bike_id":"44250f9a-32b8-422c-ac24-5176fa2a88b0","system_id":"levelo_inurba_marseille","lat":43.29382,"lon":5.37854,"is_reserved":false,"is_disabled":false,"rental_uris":{"android":"levelo://app?vid=44250f9a-32b8-422c-ac24-5176fa2a88b0","ios":"levelo://app?vid=44250f9a-32b8-422c-ac24-5176fa2a88b0"},"vehicle_type_id":"4","last_reported":1739272049,"current_range_meters":32800,"station_id":"ce4bgjh2rcd13ifvqbf0","pricing_plan_id":"cebpf4jnsgd1na2vs0mg"},{"bike_id":"7d0c7731-5d11-4159-9f7f-b49d4cd6d12a","system_id":"levelo_inurba_marseille","lat":43.29004,"lon":5.35613,"is_reserved":false,"is_disabled":false,"rental_uris":{"android":"levelo://app?vid=7d0c7731-5d11-4159-9f7f-b49d4cd6d12a","ios":"levelo://app?vid=7d0c7731-5d11-4159-9f7f-b49d4cd6d12a"},"vehicle_type_id":"4","last_reported":1739272049,"current_range_meters":38800,"station_id":"ce4bhb92rcd13ifvqen0","pricing_plan_id":"cebpf4jnsgd1na2vs0mg"},{"bike_id":"759b8086-bffb-4165-a1de-ba5d459f50d6","system_id":"levelo_inurba_marseille","lat":43.30333,"lon":5.36909,"is_reserved":false,"is_disabled":false,"rental_uris":{"android":"levelo://app?vid=759b8086-bffb-4165-a1de-ba5d459f50d6","ios":"levelo://app?vid=759b8086-bffb-4165-a1de-ba5d459f50d6"},"vehicle_type_id":"4","last_reported":1739272049,"current_range_meters":23200,"station_id":"ce4bgqh2rcd13ifvqc5g","pricing_plan_id":"cebpf4jnsgd1na2vs0mg"},{"bike_id":"7363b34c-f4e3-4a4d-a370-ef3739411451","system_id":"levelo_inurba_marseille","lat":43.26815,"lon":5.4026,"is_reserved":false,"is_disabled":false,"rental_uris":{"android":"levelo://app?vid=7363b34c-f4e3-4a4d-a370-ef3739411451","ios":"levelo://app?vid=7363b34c-f4e3-4a4d-a370-ef3739411451"},"vehicle_type_id":"4","last_reported":1739272049,"current_range_meters":15200,"station_id":"ce501612rcd8frsf0b60","pricing_plan_id":"cebpf4jnsgd1na2vs0mg"},{"bike_id":"c179f179-1614-4d6a-9586-627695823c73","system_id":"levelo_inurba_marseille","lat":43.26818,"lon":5.40262,"is_reserved":false,"is_disabled":false,"rental_uris":{"android":"levelo://app?vid=c179f179-1614-4d6a-9586-627695823c73","ios":"levelo://app?vid=c179f179-1614-4d6a-9586-627695823c73"},"vehicle_type_id":"4","last_reported":1739272049,"current_range_meters":30000,"station_id":"ce501612rcd8frsf0b60","pricing_plan_id":"cebpf4jnsgd1na2vs0mg"},{"bike_id":"c573048d-b0bb-4a11-b456-07d3f804372d","system_id":"levelo_inurba_marseille","lat":43.28865,"lon":5.3935,"is_reserved":false,"is_disabled":false,"rental_uris":{"android":"levelo://app?vid=c573048d-b0bb-4a11-b456-07d3f804372d","ios":"levelo://app?vid=c573048d-b0bb-4a11-b456-07d3f804372d"},"vehicle_type_id":"4","last_reported":1739272049,"current_range_meters":34800,"station_id":"ce4bh2p2rcd13ifvqdi0","pricing_plan_id":"cebpf4jnsgd1na2vs0mg"},{"bike_id":"542c162a-2c01-4221-88ba-bc0cf2c81047","system_id":"levelo_inurba_marseille","lat":43.268116,"lon":5.402542,"is_reserved":false,"is_disabled":false,"rental_uris":{"android":"levelo://app?vid=542c162a-2c01-4221-88ba-bc0cf2c81047","ios":"levelo://app?vid=542c162a-2c01-4221-88ba-bc0cf2c81047"},"vehicle_type_id":"4","last_reported":1739272049,"current_range_meters":38800,"station_id":"ce501612rcd8frsf0b60","pricing_plan_id":"cebpf4jnsgd1na2vs0mg"},{"bike_id":"61c9bb3e-746c-4070-86dd-a2142a790c66","system_id":"levelo_inurba_marseille","lat":43.28414,"lon":5.34994,"is_reserved":false,"is_disabled":true,"rental_uris":{"android":"levelo://app?vid=61c9bb3e-746c-4070-86dd-a2142a790c66","ios":"levelo://app?vid=61c9bb3e-746c-4070-86dd-a2142a790c66"},"vehicle_type_id":"4","last_reported":1739272049,"current_range_meters":25200,"station_id":"ce4bhbh2rcd13ifvqepg","pricing_plan_id":"cebpf4jnsgd1na2vs0mg"},{"bike_id":"224b27d8-fe58-4c58-aafb-79183ae4c8df","system_id":"levelo_inurba_marseille","lat":43.26571,"lon":5.39002,"is_reserved":false,"is_disabled":false,"rental_uris":{"android":"levelo://app?vid=224b27d8-fe58-4c58-aafb-79183ae4c8df","ios":"levelo://app?vid=224b27d8-fe58-4c58-aafb-79183ae4c8df"},"vehicle_type_id":"4","last_reported":1739272049,"current_range_meters":24000,"station_id":"ce4bhe12rcd13ifvqf30","pricing_plan_id":"cebpf4jnsgd1na2vs0mg"},{"bike_id":"0731cf5b-1ce8-4039-a9ec-7721b1ddc098","system_id":"levelo_inurba_marseille","lat":43.30937,"lon":5.40147,"is_reserved":false,"is_disabled":true,"rental_uris":{"android":"levelo://app?vid=0731cf5b-1ce8-4039-a9ec-7721b1ddc098","ios":"levelo://app?vid=0731cf5b-1ce8-4039-a9ec-7721b1ddc098"},"vehicle_type_id":"4","last_reported":1739272049,"current_range_meters":400,"station_id":"ce4bgvp2rcd13ifvqct0","pricing_plan_id":"cebpf4jnsgd1na2vs0mg"},{"bike_id":"16925759-8ba0-4dd3-9ad2-27f6220f2a1d","system_id":"levelo_inurba_marseille","lat":43.30535,"lon":5.36726,"is_reserved":false,"is_disabled":false,"rental_uris":{"android":"levelo://app?vid=16925759-8ba0-4dd3-9ad2-27f6220f2a1d","ios":"levelo://app?vid=16925759-8ba0-4dd3-9ad2-27f6220f2a1d"},"vehicle_type_id":"4","last_reported":1739272049,"current_range_meters":34800,"station_id":"ce4bgrp2rcd13ifvqc9g","pricing_plan_id":"cebpf4jnsgd1na2vs0mg"},{"bike_id":"9836b973-7234-4581-b5b7-19d8b751167e","system_id":"levelo_inurba_marseille","lat":43.24181,"lon":5.3973,"is_reserved":false,"is_disabled":false,"rental_uris":{"android":"levelo://app?vid=9836b973-7234-4581-b5b7-19d8b751167e","ios":"levelo://app?vid=9836b973-7234-4581-b5b7-19d8b751167e"},"vehicle_type_id":"4","last_reported":1739272049,"current_range_meters":38800,"station_id":"ce4bhn12rcd13ifvqgpg","pricing_plan_id":"cebpf4jnsgd1na2vs0mg"},{"bike_id":"1b03c788-6d4e-48ba-ab8f-6fe0f93fea38","system_id":"levelo_inurba_marseille","lat":43.30209,"lon":5.39468,"is_reserved":false,"is_disabled":false,"rental_uris":{"android":"levelo://app?vid=1b03c788-6d4e-48ba-ab8f-6fe0f93fea38","ios":"levelo://app?vid=1b03c788-6d4e-48ba-ab8f-6fe0f93fea38"},"vehicle_type_id":"4","last_reported":1739272049,"current_range_meters":28000,"station_id":"ce4bh0p2rcd13ifvqd70","pricing_plan_id":"cebpf4jnsgd1na2vs0mg"},{"bike_id":"9e1ac9de-59ea-4f7e-83fe-dcef1b491839","system_id":"levelo_inurba_marseille","lat":43.27191,"lon":5.39153,"is_reserved":false,"is_disabled":false,"rental_uris":{"android":"levelo://app?vid=9e1ac9de-59ea-4f7e-83fe-dcef1b491839","ios":"levelo://app?vid=9e1ac9de-59ea-4f7e-83fe-dcef1b491839"},"vehicle_type_id":"4","last_reported":1739272049,"current_range_meters":38800,"station_id":"ce4bhhp2rcd13ifvqfm0","pricing_plan_id":"cebpf4jnsgd1na2vs0mg"},{"bike_id":"3441c74a-282b-45aa-b329-9e43a88c8a80","system_id":"levelo_inurba_marseille","lat":43.24846,"lon":5.37492,"is_reserved":false,"is_disabled":true,"rental_uris":{"android":"levelo://app?vid=3441c74a-282b-45aa-b329-9e43a88c8a80","ios":"levelo://app?vid=3441c74a-282b-45aa-b329-9e43a88c8a80"},"vehicle_type_id":"4","last_reported":1739272049,"current_range_meters":16400,"station_id":"","pricing_plan_id":"cebpf4jnsgd1na2vs0mg"},{"bike_id":"82d07d61-3a0e-48f1-afd3-ceffdad3e8b0","system_id":"levelo_inurba_marseille","lat":43.29042,"lon":5.35911,"is_reserved":false,"is_disabled":false,"rental_uris":{"android":"levelo://app?vid=82d07d61-3a0e-48f1-afd3-ceffdad3e8b0","ios":"levelo://app?vid=82d07d61-3a0e-48f1-afd3-ceffdad3e8b0"},"vehicle_type_id":"4","last_reported":1739272049,"current_range_meters":38000,"station_id":"ce4bha92rcd13ifvqeg0","pricing_plan_id":"cebpf4jnsgd1na2vs0mg"},{"bike_id":"e2e271a9-fb6f-4e3e-8dfe-4e74ee96d35c","system_id":"levelo_inurba_marseille","lat":43.26932,"lon":5.38917,"is_reserved":false,"is_disabled":false,"rental_uris":{"android":"levelo://app?vid=e2e271a9-fb6f-4e3e-8dfe-4e74ee96d35c","ios":"levelo://app?vid=e2e271a9-fb6f-4e3e-8dfe-4e74ee96d35c"},"vehicle_type_id":"4","last_reported":1739272049,"current_range_meters":28800,"station_id":"ce4bhhh2rcd13ifvqfl0","pricing_plan_id":"cebpf4jnsgd1na2vs0mg"},{"bike_id":"005e70c0-aed8-45a2-a61a-229fca7b8b25","system_id":"levelo_inurba_marseille","lat":43.29271,"lon":5.40122,"is_reserved":false,"is_disabled":true,"rental_uris":{"android":"levelo://app?vid=005e70c0-aed8-45a2-a61a-229fca7b8b25","ios":"levelo://app?vid=005e70c0-aed8-45a2-a61a-229fca7b8b25"},"vehicle_type_id":"4","last_reported":1739272049,"current_range_meters":10800,"station_id":"ce4bh312rcd13ifvqdk0","pricing_plan_id":"cebpf4jnsgd1na2vs0mg"},{"bike_id":"6e1b6112-cd26-421f-b157-6ac716f542d7","system_id":"levelo_inurba_marseille","lat":43.271814,"lon":5.409851,"is_reserved":false,"is_disabled":false,"rental_uris":{"android":"levelo://app?vid=6e1b6112-cd26-421f-b157-6ac716f542d7","ios":"levelo://app?vid=6e1b6112-cd26-421f-b157-6ac716f542d7"},"vehicle_type_id":"4","last_reported":1739272049,"current_range_meters":34800,"station_id":"ce4bhl12rcd13ifvqgf0","pricing_plan_id":"cebpf4jnsgd1na2vs0mg"},{"bike_id":"e169a236-33c1-4557-8a4d-0eca73ad1806","system_id":"levelo_inurba_marseille","lat":43.27998,"lon":5.40016,"is_reserved":false,"is_disabled":false,"rental_uris":{"android":"levelo://app?vid=e169a236-33c1-4557-8a4d-0eca73ad1806","ios":"levelo://app?vid=e169a236-33c1-4557-8a4d-0eca73ad1806"},"vehicle_type_id":"4","last_reported":1739272049,"current_range_meters":26800,"station_id":"ce4bho92rcd13ifvqh4g","pricing_plan_id":"cebpf4jnsgd1na2vs0mg"},{"bike_id":"b41d8475-1b61-4022-b648-2777adae10ea","system_id":"levelo_inurba_marseille","lat":43.24172,"lon":5.3639,"is_reserved":false,"is_disabled":false,"rental_uris":{"android":"levelo://app?vid=b41d8475-1b61-4022-b648-2777adae10ea","ios":"levelo://app?vid=b41d8475-1b61-4022-b648-2777adae10ea"},"vehicle_type_id":"4","last_reported":1739272049,"current_range_meters":26800,"station_id":"cpo36qri1sfpv3e86is0","pricing_plan_id":"cebpf4jnsgd1na2vs0mg"},{"bike_id":"f96d9290-7566-4c01-a4f3-765d931e8a38","system_id":"levelo_inurba_marseille","lat":43.29798,"lon":5.38105,"is_reserved":false,"is_disabled":false,"rental_uris":{"android":"levelo://app?vid=f96d9290-7566-4c01-a4f3-765d931e8a38","ios":"levelo://app?vid=f96d9290-7566-4c01-a4f3-765d931e8a38"},"vehicle_type_id":"4","last_reported":1739272049,"current_range_meters":27600,"station_id":"ce4bgip2rcd13ifvqbb0","pricing_plan_id":"cebpf4jnsgd1na2vs0mg"},{"bike_id":"3b3275f6-005e-466d-a091-71f91326b576","system_id":"levelo_inurba_marseille","lat":43.33616,"lon":5.41022,"is_reserved":false,"is_disabled":false,"rental_uris":{"android":"levelo://app?vid=3b3275f6-005e-466d-a091-71f91326b576","ios":"levelo://app?vid=3b3275f6-005e-466d-a091-71f91326b576"},"vehicle_type_id":"4","last_reported":1739272049,"current_range_meters":38800,"station_id":"ce4bhqh2rcd13ifvqhmg","pricing_plan_id":"cebpf4jnsgd1na2vs0mg"},{"bike_id":"76ebc75d-2fe5-45e0-9f44-dea2f5f86814","system_id":"levelo_inurba_marseille","lat":43.24396,"lon":5.37046,"is_reserved":false,"is_disabled":false,"rental_uris":{"android":"levelo://app?vid=76ebc75d-2fe5-45e0-9f44-dea2f5f86814","ios":"levelo://app?vid=76ebc75d-2fe5-45e0-9f44-dea2f5f86814"},"vehicle_type_id":"4","last_reported":1739272049,"current_range_meters":33200,"station_id":"ce4bhhh2rcd13ifvqfk0","pricing_plan_id":"cebpf4jnsgd1na2vs0mg"},{"bike_id":"2456ad92-40ed-4dfb-8140-f9047f94ede0","system_id":"levelo_inurba_marseille","lat":43.29974,"lon":5.38505,"is_reserved":false,"is_disabled":false,"rental_uris":{"android":"levelo://app?vid=2456ad92-40ed-4dfb-8140-f9047f94ede0","ios":"levelo://app?vid=2456ad92-40ed-4dfb-8140-f9047f94ede0"},"vehicle_type_id":"4","last_reported":1739272049,"current_range_meters":35600,"station_id":"ce4bgj92rcd13ifvqbd0","pricing_plan_id":"cebpf4jnsgd1na2vs0mg"},{"bike_id":"5cc1c40c-0cfa-47bf-8c35-a147fbb523c6","system_id":"levelo_inurba_marseille","lat":43.33028,"lon":5.39245,"is_reserved":false,"is_disabled":false,"rental_uris":{"android":"levelo://app?vid=5cc1c40c-0cfa-47bf-8c35-a147fbb523c6","ios":"levelo://app?vid=5cc1c40c-0cfa-47bf-8c35-a147fbb523c6"},"vehicle_type_id":"4","last_reported":1739272049,"current_range_meters":36400,"station_id":"","pricing_plan_id":"cebpf4jnsgd1na2vs0mg"},{"bike_id":"51ab7186-5043-4bed-baca-73708608a302","system_id":"levelo_inurba_marseille","lat":43.29584,"lon":5.37026,"is_reserved":false,"is_disabled":true,"rental_uris":{"android":"levelo://app?vid=51ab7186-5043-4bed-baca-73708608a302","ios":"levelo://app?vid=51ab7186-5043-4bed-baca-73708608a302"},"vehicle_type_id":"4","last_reported":1739272049,"current_range_meters":8000,"station_id":"","pricing_plan_id":"cebpf4jnsgd1na2vs0mg"},{"bike_id":"eedca0d3-f3d4-4eed-8ddb-556f44af9741","system_id":"levelo_inurba_marseille","lat":43.2848,"lon":5.38422,"is_reserved":false,"is_disabled":false,"rental_uris":{"android":"levelo://app?vid=eedca0d3-f3d4-4eed-8ddb-556f44af9741","ios":"levelo://app?vid=eedca0d3-f3d4-4eed-8ddb-556f44af9741"},"vehicle_type_id":"4","last_reported":1739272049,"current_range_meters":38000,"station_id":"ce4bh512rcd13ifvqe3g","pricing_plan_id":"cebpf4jnsgd1na2vs0mg"},{"bike_id":"cbcc5ab0-2725-4dbd-bc30-80aae2934308","system_id":"levelo_inurba_marseille","lat":43.30165,"lon":5.37411,"is_reserved":false,"is_disabled":false,"rental_uris":{"android":"levelo://app?vid=cbcc5ab0-2725-4dbd-bc30-80aae2934308","ios":"levelo://app?vid=cbcc5ab0-2725-4dbd-bc30-80aae2934308"},"vehicle_type_id":"4","last_reported":1739272049,"current_range_meters":19200,"station_id":"ce4bgs92rcd13ifvqcc0","pricing_plan_id":"cebpf4jnsgd1na2vs0mg"},{"bike_id":"33c084eb-8a60-409c-a4f8-e8bbe30c4f7b","system_id":"levelo_inurba_marseille","lat":43.30949,"lon":5.39027,"is_reserved":false,"is_disabled":true,"rental_uris":{"android":"levelo://app?vid=33c084eb-8a60-409c-a4f8-e8bbe30c4f7b","ios":"levelo://app?vid=33c084eb-8a60-409c-a4f8-e8bbe30c4f7b"},"vehicle_type_id":"4","last_reported":1739272049,"current_range_meters":34800,"station_id":"","pricing_plan_id":"cebpf4jnsgd1na2vs0mg"},{"bike_id":"b854f3d7-eb90-4cc1-b69e-909047f83037","system_id":"levelo_inurba_marseille","lat":43.30556,"lon":5.36718,"is_reserved":false,"is_disabled":false,"rental_uris":{"android":"levelo://app?vid=b854f3d7-eb90-4cc1-b69e-909047f83037","ios":"levelo://app?vid=b854f3d7-eb90-4cc1-b69e-909047f83037"},"vehicle_type_id":"4","last_reported":1739272049,"current_range_meters":38000,"station_id":"ce4bgrp2rcd13ifvqc9g","pricing_plan_id":"cebpf4jnsgd1na2vs0mg"},{"bike_id":"6720dbb9-c039-4df0-97de-f151fe94e580","system_id":"levelo_inurba_marseille","lat":43.30952,"lon":5.39033,"is_reserved":false,"is_disabled":false,"rental_uris":{"android":"levelo://app?vid=6720dbb9-c039-4df0-97de-f151fe94e580","ios":"levelo://app?vid=6720dbb9-c039-4df0-97de-f151fe94e580"},"vehicle_type_id":"4","last_reported":1739272049,"current_range_meters":4400,"station_id":"","pricing_plan_id":"cebpf4jnsgd1na2vs0mg"},{"bike_id":"79009f4e-d6ab-4421-b79f-aa84067c324b","system_id":"levelo_inurba_marseille","lat":43.24164,"lon":5.39735,"is_reserved":false,"is_disabled":false,"rental_uris":{"android":"levelo://app?vid=79009f4e-d6ab-4421-b79f-aa84067c324b","ios":"levelo://app?vid=79009f4e-d6ab-4421-b79f-aa84067c324b"},"vehicle_type_id":"4","last_reported":1739272049,"current_range_meters":27600,"station_id":"ce4bhn12rcd13ifvqgpg","pricing_plan_id":"cebpf4jnsgd1na2vs0mg"},{"bike_id":"0cdcc8f7-f674-43f1-9b73-0f1949650402","system_id":"levelo_inurba_marseille","lat":43.23956,"lon":5.36631,"is_reserved":false,"is_disabled":false,"rental_uris":{"android":"levelo://app?vid=0cdcc8f7-f674-43f1-9b73-0f1949650402","ios":"levelo://app?vid=0cdcc8f7-f674-43f1-9b73-0f1949650402"},"vehicle_type_id":"4","last_reported":1739272049,"current_range_meters":36000,"station_id":"ce4bhi12rcd13ifvqfp0","pricing_plan_id":"cebpf4jnsgd1na2vs0mg"},{"bike_id":"d5869c17-5b8b-41a1-b409-a2400118fc7a","system_id":"levelo_inurba_marseille","lat":43.30295,"lon":5.37714,"is_reserved":false,"is_disabled":false,"rental_uris":{"android":"levelo://app?vid=d5869c17-5b8b-41a1-b409-a2400118fc7a","ios":"levelo://app?vid=d5869c17-5b8b-41a1-b409-a2400118fc7a"},"vehicle_type_id":"4","last_reported":1739272049,"current_range_meters":31200,"station_id":"ce4bguh2rcd13ifvqcj0","pricing_plan_id":"cebpf4jnsgd1na2vs0mg"},{"bike_id":"de77abfa-6f74-40e9-8131-b7884eda37eb","system_id":"levelo_inurba_marseille","lat":43.29982,"lon":5.39402,"is_reserved":false,"is_disabled":false,"rental_uris":{"android":"levelo://app?vid=de77abfa-6f74-40e9-8131-b7884eda37eb","ios":"levelo://app?vid=de77abfa-6f74-40e9-8131-b7884eda37eb"},"vehicle_type_id":"4","last_reported":1739272049,"current_range_meters":28800,"station_id":"","pricing_plan_id":"cebpf4jnsgd1na2vs0mg"},{"bike_id":"83951a85-bc3f-4b4f-ac45-61da34b90d33","system_id":"levelo_inurba_marseille","lat":43.305373,"lon":5.367058,"is_reserved":false,"is_disabled":false,"rental_uris":{"android":"levelo://app?vid=83951a85-bc3f-4b4f-ac45-61da34b90d33","ios":"levelo://app?vid=83951a85-bc3f-4b4f-ac45-61da34b90d33"},"vehicle_type_id":"4","last_reported":1739272049,"current_range_meters":38400,"station_id":"ce4bgrp2rcd13ifvqc9g","pricing_plan_id":"cebpf4jnsgd1na2vs0mg"},{"bike_id":"c275a277-c8fc-4f3b-b3ec-a42a4ead8956","system_id":"levelo_inurba_marseille","lat":43.30133,"lon":5.37436,"is_reserved":false,"is_disabled":false,"rental_uris":{"android":"levelo://app?vid=c275a277-c8fc-4f3b-b3ec-a42a4ead8956","ios":"levelo://app?vid=c275a277-c8fc-4f3b-b3ec-a42a4ead8956"},"vehicle_type_id":"4","last_reported":1739272049,"current_range_meters":38800,"station_id":"ce4bgs92rcd13ifvqcc0","pricing_plan_id":"cebpf4jnsgd1na2vs0mg"},{"bike_id":"ee079ffa-4416-4a91-bc98-3bd665acea3b","system_id":"levelo_inurba_marseille","lat":43.33749,"lon":5.39167,"is_reserved":false,"is_disabled":false,"rental_uris":{"android":"levelo://app?vid=ee079ffa-4416-4a91-bc98-3bd665acea3b","ios":"levelo://app?vid=ee079ffa-4416-4a91-bc98-3bd665acea3b"},"vehicle_type_id":"4","last_reported":1739272049,"current_range_meters":38800,"station_id":"ce4bhr92rcd13ifvqhsg","pricing_plan_id":"cebpf4jnsgd1na2vs0mg"},{"bike_id":"1fa82dc6-47d4-4356-bbca-393bf4461726","system_id":"levelo_inurba_marseille","lat":43.239579,"lon":5.366292,"is_reserved":false,"is_disabled":false,"rental_uris":{"android":"levelo://app?vid=1fa82dc6-47d4-4356-bbca-393bf4461726","ios":"levelo://app?vid=1fa82dc6-47d4-4356-bbca-393bf4461726"},"vehicle_type_id":"4","last_reported":1739272049,"current_range_meters":18800,"station_id":"ce4bhi12rcd13ifvqfp0","pricing_plan_id":"cebpf4jnsgd1na2vs0mg"},{"bike_id":"8f27805b-e45e-482f-800b-3745204b0141","system_id":"levelo_inurba_marseille","lat":43.24659,"lon":5.38163,"is_reserved":false,"is_disabled":false,"rental_uris":{"android":"levelo://app?vid=8f27805b-e45e-482f-800b-3745204b0141","ios":"levelo://app?vid=8f27805b-e45e-482f-800b-3745204b0141"},"vehicle_type_id":"4","last_reported":1739272049,"current_range_meters":28400,"station_id":"ce4bhih2rcd13ifvqfr0","pricing_plan_id":"cebpf4jnsgd1na2vs0mg"},{"bike_id":"997a2233-7986-4d48-a6d1-760e23ecc678","system_id":"levelo_inurba_marseille","lat":43.30546,"lon":5.36695,"is_reserved":false,"is_disabled":false,"rental_uris":{"android":"levelo://app?vid=997a2233-7986-4d48-a6d1-760e23ecc678","ios":"levelo://app?vid=997a2233-7986-4d48-a6d1-760e23ecc678"},"vehicle_type_id":"4","last_reported":1739272049,"current_range_meters":38800,"station_id":"ce4bgrp2rcd13ifvqc9g","pricing_plan_id":"cebpf4jnsgd1na2vs0mg"},{"bike_id":"43d9c899-b698-4010-980b-b17004dc2d7c","system_id":"levelo_inurba_marseille","lat":43.29956,"lon":5.37171,"is_reserved":false,"is_disabled":false,"rental_uris":{"android":"levelo://app?vid=43d9c899-b698-4010-980b-b17004dc2d7c","ios":"levelo://app?vid=43d9c899-b698-4010-980b-b17004dc2d7c"},"vehicle_type_id":"4","last_reported":1739272049,"current_range_meters":39200,"station_id":"ce4bgr92rcd13ifvqc7g","pricing_plan_id":"cebpf4jnsgd1na2vs0mg"},{"bike_id":"67c77a93-95e0-4dde-b030-1b6a0f65cf9a","system_id":"levelo_inurba_marseille","lat":43.27174,"lon":5.40991,"is_reserved":false,"is_disabled":false,"rental_uris":{"android":"levelo://app?vid=67c77a93-95e0-4dde-b030-1b6a0f65cf9a","ios":"levelo://app?vid=67c77a93-95e0-4dde-b030-1b6a0f65cf9a"},"vehicle_type_id":"4","last_reported":1739272049,"current_range_meters":8800,"station_id":"ce4bhl12rcd13ifvqgf0","pricing_plan_id":"cebpf4jnsgd1na2vs0mg"},{"bike_id":"78850cd1-3f23-4e2d-b033-f72c6653650a","system_id":"levelo_inurba_marseille","lat":43.26932,"lon":5.38925,"is_reserved":false,"is_disabled":false,"rental_uris":{"android":"levelo://app?vid=78850cd1-3f23-4e2d-b033-f72c6653650a","ios":"levelo://app?vid=78850cd1-3f23-4e2d-b033-f72c6653650a"},"vehicle_type_id":"4","last_reported":1739272049,"current_range_meters":38800,"station_id":"ce4bhhh2rcd13ifvqfl0","pricing_plan_id":"cebpf4jnsgd1na2vs0mg"},{"bike_id":"d4cc9099-d6fa-474e-ae72-0973f57da119","system_id":"levelo_inurba_marseille","lat":43.30276,"lon":5.37718,"is_reserved":false,"is_disabled":false,"rental_uris":{"android":"levelo://app?vid=d4cc9099-d6fa-474e-ae72-0973f57da119","ios":"levelo://app?vid=d4cc9099-d6fa-474e-ae72-0973f57da119"},"vehicle_type_id":"4","last_reported":1739272049,"current_range_meters":39200,"station_id":"ce4bguh2rcd13ifvqcj0","pricing_plan_id":"cebpf4jnsgd1na2vs0mg"},{"bike_id":"496fa2ad-a547-4095-b8b9-a29f1a78ab4b","system_id":"levelo_inurba_marseille","lat":43.27829,"lon":5.40716,"is_reserved":false,"is_disabled":false,"rental_uris":{"android":"levelo://app?vid=496fa2ad-a547-4095-b8b9-a29f1a78ab4b","ios":"levelo://app?vid=496fa2ad-a547-4095-b8b9-a29f1a78ab4b"},"vehicle_type_id":"4","last_reported":1739272049,"current_range_meters":36800,"station_id":"ce4bhnh2rcd13ifvqgtg","pricing_plan_id":"cebpf4jnsgd1na2vs0mg"},{"bike_id":"75d80e4d-7f8e-4044-969a-f39ce5a84fed","system_id":"levelo_inurba_marseille","lat":43.27067,"lon":5.40281,"is_reserved":false,"is_disabled":false,"rental_uris":{"android":"levelo://app?vid=75d80e4d-7f8e-4044-969a-f39ce5a84fed","ios":"levelo://app?vid=75d80e4d-7f8e-4044-969a-f39ce5a84fed"},"vehicle_type_id":"4","last_reported":1739272049,"current_range_meters":18000,"station_id":"ce4bhk92rcd13ifvqgc0","pricing_plan_id":"cebpf4jnsgd1na2vs0mg"},{"bike_id":"3db29e58-0383-464f-82dd-fb2e9d4db242","system_id":"levelo_inurba_marseille","lat":43.28091,"lon":5.37844,"is_reserved":false,"is_disabled":false,"rental_uris":{"android":"levelo://app?vid=3db29e58-0383-464f-82dd-fb2e9d4db242","ios":"levelo://app?vid=3db29e58-0383-464f-82dd-fb2e9d4db242"},"vehicle_type_id":"4","last_reported":1739272049,"current_range_meters":36400,"station_id":"ce4bha12rcd13ifvqee0","pricing_plan_id":"cebpf4jnsgd1na2vs0mg"},{"bike_id":"05f6ac8f-0127-4e39-bd11-d53a74225ef8","system_id":"levelo_inurba_marseille","lat":43.27874,"lon":5.40597,"is_reserved":false,"is_disabled":true,"rental_uris":{"android":"levelo://app?vid=05f6ac8f-0127-4e39-bd11-d53a74225ef8","ios":"levelo://app?vid=05f6ac8f-0127-4e39-bd11-d53a74225ef8"},"vehicle_type_id":"4","last_reported":1739272049,"current_range_meters":0,"station_id":"","pricing_plan_id":"cebpf4jnsgd1na2vs0mg"},{"bike_id":"9b374ae2-ee2c-4179-b471-3dc70bdb54d6","system_id":"levelo_inurba_marseille","lat":43.27969,"lon":5.3871,"is_reserved":false,"is_disabled":false,"rental_uris":{"android":"levelo://app?vid=9b374ae2-ee2c-4179-b471-3dc70bdb54d6","ios":"levelo://app?vid=9b374ae2-ee2c-4179-b471-3dc70bdb54d6"},"vehicle_type_id":"4","last_reported":1739272049,"current_range_meters":38800,"station_id":"ce4bhg12rcd13ifvqf80","pricing_plan_id":"cebpf4jnsgd1na2vs0mg"},{"bike_id":"a3d2302b-9b93-49df-85ba-bce6080207a0","system_id":"levelo_inurba_marseille","lat":43.23148,"lon":5.43727,"is_reserved":false,"is_disabled":false,"rental_uris":{"android":"levelo://app?vid=a3d2302b-9b93-49df-85ba-bce6080207a0","ios":"levelo://app?vid=a3d2302b-9b93-49df-85ba-bce6080207a0"},"vehicle_type_id":"4","last_reported":1739272049,"current_range_meters":5600,"station_id":"ce4bhmp2rcd13ifvqgog","pricing_plan_id":"cebpf4jnsgd1na2vs0mg"},{"bike_id":"1ec39080-1b56-488e-b874-18ff0fb413c3","system_id":"levelo_inurba_marseille","lat":43.29967,"lon":5.37179,"is_reserved":false,"is_disabled":false,"rental_uris":{"android":"levelo://app?vid=1ec39080-1b56-488e-b874-18ff0fb413c3","ios":"levelo://app?vid=1ec39080-1b56-488e-b874-18ff0fb413c3"},"vehicle_type_id":"4","last_reported":1739272049,"current_range_meters":25200,"station_id":"ce4bgr92rcd13ifvqc7g","pricing_plan_id":"cebpf4jnsgd1na2vs0mg"},{"bike_id":"0b521d2a-0459-4e0e-b793-71d6dc8c032e","system_id":"levelo_inurba_marseille","lat":43.26557,"lon":5.37303,"is_reserved":false,"is_disabled":false,"rental_uris":{"android":"levelo://app?vid=0b521d2a-0459-4e0e-b793-71d6dc8c032e","ios":"levelo://app?vid=0b521d2a-0459-4e0e-b793-71d6dc8c032e"},"vehicle_type_id":"4","last_reported":1739272049,"current_range_meters":38800,"station_id":"ce4bhg12rcd13ifvqf70","pricing_plan_id":"cebpf4jnsgd1na2vs0mg"},{"bike_id":"1e95da32-a077-435b-a9d6-d6657909273d","system_id":"levelo_inurba_marseille","lat":43.25017,"lon":5.38914,"is_reserved":false,"is_disabled":false,"rental_uris":{"android":"levelo://app?vid=1e95da32-a077-435b-a9d6-d6657909273d","ios":"levelo://app?vid=1e95da32-a077-435b-a9d6-d6657909273d"},"vehicle_type_id":"4","last_reported":1739272049,"current_range_meters":26800,"station_id":"ce4bhgp2rcd13ifvqfd0","pricing_plan_id":"cebpf4jnsgd1na2vs0mg"},{"bike_id":"3d01ee57-be5d-4165-815d-c5b06c8be331","system_id":"levelo_inurba_marseille","lat":43.25022,"lon":5.38922,"is_reserved":false,"is_disabled":false,"rental_uris":{"android":"levelo://app?vid=3d01ee57-be5d-4165-815d-c5b06c8be331","ios":"levelo://app?vid=3d01ee57-be5d-4165-815d-c5b06c8be331"},"vehicle_type_id":"4","last_reported":1739272049,"current_range_meters":38800,"station_id":"ce4bhgp2rcd13ifvqfd0","pricing_plan_id":"cebpf4jnsgd1na2vs0mg"},{"bike_id":"60f1cb2d-3665-4953-b704-c16f4997861c","system_id":"levelo_inurba_marseille","lat":43.30468,"lon":5.37911,"is_reserved":false,"is_disabled":false,"rental_uris":{"android":"levelo://app?vid=60f1cb2d-3665-4953-b704-c16f4997861c","ios":"levelo://app?vid=60f1cb2d-3665-4953-b704-c16f4997861c"},"vehicle_type_id":"4","last_reported":1739272049,"current_range_meters":22800,"station_id":"ce4bgup2rcd13ifvqcn0","pricing_plan_id":"cebpf4jnsgd1na2vs0mg"},{"bike_id":"d1a0abf6-5e0a-441d-807b-613fa51927c8","system_id":"levelo_inurba_marseille","lat":43.26791,"lon":5.39419,"is_reserved":false,"is_disabled":false,"rental_uris":{"android":"levelo://app?vid=d1a0abf6-5e0a-441d-807b-613fa51927c8","ios":"levelo://app?vid=d1a0abf6-5e0a-441d-807b-613fa51927c8"},"vehicle_type_id":"4","last_reported":1739272049,"current_range_meters":26000,"station_id":"ce4bhh12rcd13ifvqfg0","pricing_plan_id":"cebpf4jnsgd1na2vs0mg"},{"bike_id":"721f5fb6-7349-49b7-a109-77ff84c72bdd","system_id":"levelo_inurba_marseille","lat":43.3021,"lon":5.39473,"is_reserved":false,"is_disabled":false,"rental_uris":{"android":"levelo://app?vid=721f5fb6-7349-49b7-a109-77ff84c72bdd","ios":"levelo://app?vid=721f5fb6-7349-49b7-a109-77ff84c72bdd"},"vehicle_type_id":"4","last_reported":1739272049,"current_range_meters":39200,"station_id":"ce4bh0p2rcd13ifvqd70","pricing_plan_id":"cebpf4jnsgd1na2vs0mg"},{"bike_id":"76ed4e97-7fa9-4836-bcd3-e52753ef31b4","system_id":"levelo_inurba_marseille","lat":43.29842,"lon":5.36276,"is_reserved":false,"is_disabled":false,"rental_uris":{"android":"levelo://app?vid=76ed4e97-7fa9-4836-bcd3-e52753ef31b4","ios":"levelo://app?vid=76ed4e97-7fa9-4836-bcd3-e52753ef31b4"},"vehicle_type_id":"4","last_reported":1739272049,"current_range_meters":38800,"station_id":"ce4bgpp2rcd13ifvqc3g","pricing_plan_id":"cebpf4jnsgd1na2vs0mg"},{"bike_id":"fd7cd6eb-8023-4160-9061-39fa556cf25c","system_id":"levelo_inurba_marseille","lat":43.30317,"lon":5.40435,"is_reserved":false,"is_disabled":true,"rental_uris":{"android":"levelo://app?vid=fd7cd6eb-8023-4160-9061-39fa556cf25c","ios":"levelo://app?vid=fd7cd6eb-8023-4160-9061-39fa556cf25c"},"vehicle_type_id":"4","last_reported":1739272049,"current_range_meters":28800,"station_id":"ce4bh012rcd13ifvqd10","pricing_plan_id":"cebpf4jnsgd1na2vs0mg"},{"bike_id":"e4e9f784-4a8b-4a3f-9f73-d7bbf81c2870","system_id":"levelo_inurba_marseille","lat":43.29043,"lon":5.39986,"is_reserved":false,"is_disabled":false,"rental_uris":{"android":"levelo://app?vid=e4e9f784-4a8b-4a3f-9f73-d7bbf81c2870","ios":"levelo://app?vid=e4e9f784-4a8b-4a3f-9f73-d7bbf81c2870"},"vehicle_type_id":"4","last_reported":1739272049,"current_range_meters":38400,"station_id":"ce4bh392rcd13ifvqdm0","pricing_plan_id":"cebpf4jnsgd1na2vs0mg"},{"bike_id":"d32849cf-4c14-4032-9063-172d06d3f04f","system_id":"levelo_inurba_marseille","lat":43.23199,"lon":5.35569,"is_reserved":false,"is_disabled":false,"rental_uris":{"android":"levelo://app?vid=d32849cf-4c14-4032-9063-172d06d3f04f","ios":"levelo://app?vid=d32849cf-4c14-4032-9063-172d06d3f04f"},"vehicle_type_id":"4","last_reported":1739272049,"current_range_meters":35600,"station_id":"ce4bhu92rcd13ifvqi70","pricing_plan_id":"cebpf4jnsgd1na2vs0mg"},{"bike_id":"aa5fecc6-53dd-4d69-88f2-fa8a28aa30ab","system_id":"levelo_inurba_marseille","lat":43.30957,"lon":5.39035,"is_reserved":false,"is_disabled":false,"rental_uris":{"android":"levelo://app?vid=aa5fecc6-53dd-4d69-88f2-fa8a28aa30ab","ios":"levelo://app?vid=aa5fecc6-53dd-4d69-88f2-fa8a28aa30ab"},"vehicle_type_id":"4","last_reported":1739272049,"current_range_meters":32800,"station_id":"","pricing_plan_id":"cebpf4jnsgd1na2vs0mg"},{"bike_id":"09a31e22-31a3-4a8b-a8f3-c6b84a9cc357","system_id":"levelo_inurba_marseille","lat":43.27567,"lon":5.38448,"is_reserved":false,"is_disabled":false,"rental_uris":{"android":"levelo://app?vid=09a31e22-31a3-4a8b-a8f3-c6b84a9cc357","ios":"levelo://app?vid=09a31e22-31a3-4a8b-a8f3-c6b84a9cc357"},"vehicle_type_id":"4","last_reported":1739272049,"current_range_meters":28000,"station_id":"ce4bhh92rcd13ifvqfi0","pricing_plan_id":"cebpf4jnsgd1na2vs0mg"},{"bike_id":"b7cfafc0-fba3-47fa-8c3d-d96c6bee1f7a","system_id":"levelo_inurba_marseille","lat":43.2439,"lon":5.37065,"is_reserved":false,"is_disabled":false,"rental_uris":{"android":"levelo://app?vid=b7cfafc0-fba3-47fa-8c3d-d96c6bee1f7a","ios":"levelo://app?vid=b7cfafc0-fba3-47fa-8c3d-d96c6bee1f7a"},"vehicle_type_id":"4","last_reported":1739272049,"current_range_meters":33600,"station_id":"ce4bhhh2rcd13ifvqfk0","pricing_plan_id":"cebpf4jnsgd1na2vs0mg"},{"bike_id":"9ba133ba-7b58-4607-8737-7fb5bce66e58","system_id":"levelo_inurba_marseille","lat":43.24409,"lon":5.37058,"is_reserved":false,"is_disabled":false,"rental_uris":{"android":"levelo://app?vid=9ba133ba-7b58-4607-8737-7fb5bce66e58","ios":"levelo://app?vid=9ba133ba-7b58-4607-8737-7fb5bce66e58"},"vehicle_type_id":"4","last_reported":1739272049,"current_range_meters":38800,"station_id":"ce4bhhh2rcd13ifvqfk0","pricing_plan_id":"cebpf4jnsgd1na2vs0mg"},{"bike_id":"ecdfe505-0b95-40f1-b982-8e170cccca5d","system_id":"levelo_inurba_marseille","lat":43.32682,"lon":5.40989,"is_reserved":false,"is_disabled":false,"rental_uris":{"android":"levelo://app?vid=ecdfe505-0b95-40f1-b982-8e170cccca5d","ios":"levelo://app?vid=ecdfe505-0b95-40f1-b982-8e170cccca5d"},"vehicle_type_id":"4","last_reported":1739272049,"current_range_meters":15200,"station_id":"ce4bhpp2rcd13ifvqhgg","pricing_plan_id":"cebpf4jnsgd1na2vs0mg"},{"bike_id":"8008ff65-2546-4a6c-be32-725bd4baf944","system_id":"levelo_inurba_marseille","lat":43.27369,"lon":5.36243,"is_reserved":false,"is_disabled":false,"rental_uris":{"android":"levelo://app?vid=8008ff65-2546-4a6c-be32-725bd4baf944","ios":"levelo://app?vid=8008ff65-2546-4a6c-be32-725bd4baf944"},"vehicle_type_id":"4","last_reported":1739272049,"current_range_meters":38800,"station_id":"ce4bhbh2rcd13ifvqeo0","pricing_plan_id":"cebpf4jnsgd1na2vs0mg"},{"bike_id":"4b88b1fc-5271-41c6-b55b-fa4704ea4d7c","system_id":"levelo_inurba_marseille","lat":43.23956,"lon":5.36635,"is_reserved":false,"is_disabled":false,"rental_uris":{"android":"levelo://app?vid=4b88b1fc-5271-41c6-b55b-fa4704ea4d7c","ios":"levelo://app?vid=4b88b1fc-5271-41c6-b55b-fa4704ea4d7c"},"vehicle_type_id":"4","last_reported":1739272049,"current_range_meters":10800,"station_id":"ce4bhi12rcd13ifvqfp0","pricing_plan_id":"cebpf4jnsgd1na2vs0mg"},{"bike_id":"40e67531-a66e-44e7-9468-eaa5d6adefc8","system_id":"levelo_inurba_marseille","lat":43.29041,"lon":5.39964,"is_reserved":false,"is_disabled":false,"rental_uris":{"android":"levelo://app?vid=40e67531-a66e-44e7-9468-eaa5d6adefc8","ios":"levelo://app?vid=40e67531-a66e-44e7-9468-eaa5d6adefc8"},"vehicle_type_id":"4","last_reported":1739272049,"current_range_meters":28800,"station_id":"ce4bh392rcd13ifvqdm0","pricing_plan_id":"cebpf4jnsgd1na2vs0mg"},{"bike_id":"14b2070b-6ddc-42e3-b1e8-9c0cbc081f72","system_id":"levelo_inurba_marseille","lat":43.33732,"lon":5.39189,"is_reserved":false,"is_disabled":false,"rental_uris":{"android":"levelo://app?vid=14b2070b-6ddc-42e3-b1e8-9c0cbc081f72","ios":"levelo://app?vid=14b2070b-6ddc-42e3-b1e8-9c0cbc081f72"},"vehicle_type_id":"4","last_reported":1739272049,"current_range_meters":37600,"station_id":"ce4bhr92rcd13ifvqhsg","pricing_plan_id":"cebpf4jnsgd1na2vs0mg"},{"bike_id":"3ad78980-d954-4439-b88d-56e0dcfe7b89","system_id":"levelo_inurba_marseille","lat":43.23972,"lon":5.36617,"is_reserved":false,"is_disabled":false,"rental_uris":{"android":"levelo://app?vid=3ad78980-d954-4439-b88d-56e0dcfe7b89","ios":"levelo://app?vid=3ad78980-d954-4439-b88d-56e0dcfe7b89"},"vehicle_type_id":"4","last_reported":1739272049,"current_range_meters":10000,"station_id":"ce4bhi12rcd13ifvqfp0","pricing_plan_id":"cebpf4jnsgd1na2vs0mg"},{"bike_id":"f654d2d3-817a-4c55-8ebd-8025694bc89f","system_id":"levelo_inurba_marseille","lat":43.30177,"lon":5.38092,"is_reserved":false,"is_disabled":false,"rental_uris":{"android":"levelo://app?vid=f654d2d3-817a-4c55-8ebd-8025694bc89f","ios":"levelo://app?vid=f654d2d3-817a-4c55-8ebd-8025694bc89f"},"vehicle_type_id":"4","last_reported":1739272049,"current_range_meters":27600,"station_id":"ce4bgjp2rcd13ifvqbh0","pricing_plan_id":"cebpf4jnsgd1na2vs0mg"},{"bike_id":"608dbdf7-c0c8-4426-8b87-b0558e10ec0f","system_id":"levelo_inurba_marseille","lat":43.27214,"lon":5.39179,"is_reserved":false,"is_disabled":false,"rental_uris":{"android":"levelo://app?vid=608dbdf7-c0c8-4426-8b87-b0558e10ec0f","ios":"levelo://app?vid=608dbdf7-c0c8-4426-8b87-b0558e10ec0f"},"vehicle_type_id":"4","last_reported":1739272049,"current_range_meters":26800,"station_id":"ce4bhhp2rcd13ifvqfm0","pricing_plan_id":"cebpf4jnsgd1na2vs0mg"},{"bike_id":"f69cd6be-4142-4fae-b32e-2ad56ba1af59","system_id":"levelo_inurba_marseille","lat":43.31683,"lon":5.40492,"is_reserved":false,"is_disabled":false,"rental_uris":{"android":"levelo://app?vid=f69cd6be-4142-4fae-b32e-2ad56ba1af59","ios":"levelo://app?vid=f69cd6be-4142-4fae-b32e-2ad56ba1af59"},"vehicle_type_id":"4","last_reported":1739272049,"current_range_meters":36400,"station_id":"ce4bh012rcd13ifvqd00","pricing_plan_id":"cebpf4jnsgd1na2vs0mg"},{"bike_id":"eab9785c-7b0a-4ed7-be93-0f15c9008f69","system_id":"levelo_inurba_marseille","lat":43.28429,"lon":5.37504,"is_reserved":false,"is_disabled":false,"rental_uris":{"android":"levelo://app?vid=eab9785c-7b0a-4ed7-be93-0f15c9008f69","ios":"levelo://app?vid=eab9785c-7b0a-4ed7-be93-0f15c9008f69"},"vehicle_type_id":"4","last_reported":1739272049,"current_range_meters":31200,"station_id":"","pricing_plan_id":"cebpf4jnsgd1na2vs0mg"},{"bike_id":"128d5dbf-26f1-49ea-9d41-a068fa5bdb60","system_id":"levelo_inurba_marseille","lat":43.27941,"lon":5.387,"is_reserved":false,"is_disabled":false,"rental_uris":{"android":"levelo://app?vid=128d5dbf-26f1-49ea-9d41-a068fa5bdb60","ios":"levelo://app?vid=128d5dbf-26f1-49ea-9d41-a068fa5bdb60"},"vehicle_type_id":"4","last_reported":1739272049,"current_range_meters":16000,"station_id":"","pricing_plan_id":"cebpf4jnsgd1na2vs0mg"},{"bike_id":"2f9fa20d-f7ac-4209-b2dc-c07725e33917","system_id":"levelo_inurba_marseille","lat":43.31719,"lon":5.37773,"is_reserved":false,"is_disabled":false,"rental_uris":{"android":"levelo://app?vid=2f9fa20d-f7ac-4209-b2dc-c07725e33917","ios":"levelo://app?vid=2f9fa20d-f7ac-4209-b2dc-c07725e33917"},"vehicle_type_id":"4","last_reported":1739272049,"current_range_meters":39200,"station_id":"ce4bgth2rcd13ifvqch0","pricing_plan_id":"cebpf4jnsgd1na2vs0mg"},{"bike_id":"23667c4d-d336-40c5-a10c-a3723b0d0e5c","system_id":"levelo_inurba_marseille","lat":43.3026,"lon":5.37722,"is_reserved":false,"is_disabled":false,"rental_uris":{"android":"levelo://app?vid=23667c4d-d336-40c5-a10c-a3723b0d0e5c","ios":"levelo://app?vid=23667c4d-d336-40c5-a10c-a3723b0d0e5c"},"vehicle_type_id":"4","last_reported":1739272049,"current_range_meters":39200,"station_id":"ce4bguh2rcd13ifvqcj0","pricing_plan_id":"cebpf4jnsgd1na2vs0mg"},{"bike_id":"a59b1799-366c-4f90-b175-fea2f17ac49c","system_id":"levelo_inurba_marseille","lat":43.30644,"lon":5.36692,"is_reserved":false,"is_disabled":false,"rental_uris":{"android":"levelo://app?vid=a59b1799-366c-4f90-b175-fea2f17ac49c","ios":"levelo://app?vid=a59b1799-366c-4f90-b175-fea2f17ac49c"},"vehicle_type_id":"4","last_reported":1739272049,"current_range_meters":36800,"station_id":"ce4bgrp2rcd13ifvqc9g","pricing_plan_id":"cebpf4jnsgd1na2vs0mg"},{"bike_id":"201b14f4-65c7-45ff-8010-fe136e6675ac","system_id":"levelo_inurba_marseille","lat":43.24164,"lon":5.39739,"is_reserved":false,"is_disabled":false,"rental_uris":{"android":"levelo://app?vid=201b14f4-65c7-45ff-8010-fe136e6675ac","ios":"levelo://app?vid=201b14f4-65c7-45ff-8010-fe136e6675ac"},"vehicle_type_id":"4","last_reported":1739272049,"current_range_meters":25600,"station_id":"ce4bhn12rcd13ifvqgpg","pricing_plan_id":"cebpf4jnsgd1na2vs0mg"},{"bike_id":"9207b0f3-9707-4707-b4f6-b2339a5ec8ff","system_id":"levelo_inurba_marseille","lat":43.2816,"lon":5.42662,"is_reserved":false,"is_disabled":false,"rental_uris":{"android":"levelo://app?vid=9207b0f3-9707-4707-b4f6-b2339a5ec8ff","ios":"levelo://app?vid=9207b0f3-9707-4707-b4f6-b2339a5ec8ff"},"vehicle_type_id":"4","last_reported":1739272049,"current_range_meters":36800,"station_id":"ce4bhnh2rcd13ifvqgug","pricing_plan_id":"cebpf4jnsgd1na2vs0mg"},{"bike_id":"634df202-b153-4322-acbb-25ab08db069e","system_id":"levelo_inurba_marseille","lat":43.26574,"lon":5.39009,"is_reserved":false,"is_disabled":false,"rental_uris":{"android":"levelo://app?vid=634df202-b153-4322-acbb-25ab08db069e","ios":"levelo://app?vid=634df202-b153-4322-acbb-25ab08db069e"},"vehicle_type_id":"4","last_reported":1739272049,"current_range_meters":16800,"station_id":"ce4bhe12rcd13ifvqf30","pricing_plan_id":"cebpf4jnsgd1na2vs0mg"},{"bike_id":"56533ae9-01e0-4fbd-a2eb-8ec6e6269a75","system_id":"levelo_inurba_marseille","lat":43.27068,"lon":5.40275,"is_reserved":false,"is_disabled":false,"rental_uris":{"android":"levelo://app?vid=56533ae9-01e0-4fbd-a2eb-8ec6e6269a75","ios":"levelo://app?vid=56533ae9-01e0-4fbd-a2eb-8ec6e6269a75"},"vehicle_type_id":"4","last_reported":1739272049,"current_range_meters":26800,"station_id":"ce4bhk92rcd13ifvqgc0","pricing_plan_id":"cebpf4jnsgd1na2vs0mg"},{"bike_id":"ddbfc913-16cf-4d9f-a892-35d08e1e6767","system_id":"levelo_inurba_marseille","lat":43.29599,"lon":5.36733,"is_reserved":false,"is_disabled":false,"rental_uris":{"android":"levelo://app?vid=ddbfc913-16cf-4d9f-a892-35d08e1e6767","ios":"levelo://app?vid=ddbfc913-16cf-4d9f-a892-35d08e1e6767"},"vehicle_type_id":"4","last_reported":1739272049,"current_range_meters":16800,"station_id":"ce4bgph2rcd13ifvqc2g","pricing_plan_id":"cebpf4jnsgd1na2vs0mg"},{"bike_id":"c03e3e74-2231-4470-8600-8fa32748c474","system_id":"levelo_inurba_marseille","lat":43.24812,"lon":5.37458,"is_reserved":false,"is_disabled":true,"rental_uris":{"android":"levelo://app?vid=c03e3e74-2231-4470-8600-8fa32748c474","ios":"levelo://app?vid=c03e3e74-2231-4470-8600-8fa32748c474"},"vehicle_type_id":"4","last_reported":1739272049,"current_range_meters":35600,"station_id":"ce4bhgh2rcd13ifvqfb0","pricing_plan_id":"cebpf4jnsgd1na2vs0mg"},{"bike_id":"9f840397-b1a0-4d6e-8c51-6ce367a90158","system_id":"levelo_inurba_marseille","lat":43.28466,"lon":5.38429,"is_reserved":false,"is_disabled":false,"rental_uris":{"android":"levelo://app?vid=9f840397-b1a0-4d6e-8c51-6ce367a90158","ios":"levelo://app?vid=9f840397-b1a0-4d6e-8c51-6ce367a90158"},"vehicle_type_id":"4","last_reported":1739272049,"current_range_meters":38800,"station_id":"ce4bh512rcd13ifvqe3g","pricing_plan_id":"cebpf4jnsgd1na2vs0mg"},{"bike_id":"df45244c-f2c6-44d5-96c5-891010366686","system_id":"levelo_inurba_marseille","lat":43.26803,"lon":5.40267,"is_reserved":false,"is_disabled":false,"rental_uris":{"android":"levelo://app?vid=df45244c-f2c6-44d5-96c5-891010366686","ios":"levelo://app?vid=df45244c-f2c6-44d5-96c5-891010366686"},"vehicle_type_id":"4","last_reported":1739272049,"current_range_meters":17200,"station_id":"ce501612rcd8frsf0b60","pricing_plan_id":"cebpf4jnsgd1na2vs0mg"},{"bike_id":"c2250f20-2283-4e17-b7ce-382f2f740aa1","system_id":"levelo_inurba_marseille","lat":43.2481,"lon":5.37455,"is_reserved":false,"is_disabled":false,"rental_uris":{"android":"levelo://app?vid=c2250f20-2283-4e17-b7ce-382f2f740aa1","ios":"levelo://app?vid=c2250f20-2283-4e17-b7ce-382f2f740aa1"},"vehicle_type_id":"4","last_reported":1739272049,"current_range_meters":38800,"station_id":"ce4bhgh2rcd13ifvqfb0","pricing_plan_id":"cebpf4jnsgd1na2vs0mg"},{"bike_id":"d7a6c8b0-8e96-48ab-8b35-830497bce220","system_id":"levelo_inurba_marseille","lat":43.27214,"lon":5.39184,"is_reserved":false,"is_disabled":false,"rental_uris":{"android":"levelo://app?vid=d7a6c8b0-8e96-48ab-8b35-830497bce220","ios":"levelo://app?vid=d7a6c8b0-8e96-48ab-8b35-830497bce220"},"vehicle_type_id":"4","last_reported":1739272049,"current_range_meters":37600,"station_id":"ce4bhhp2rcd13ifvqfm0","pricing_plan_id":"cebpf4jnsgd1na2vs0mg"},{"bike_id":"a7553041-8337-41cf-859f-54b65f7556fc","system_id":"levelo_inurba_marseille","lat":43.26817,"lon":5.40255,"is_reserved":false,"is_disabled":false,"rental_uris":{"android":"levelo://app?vid=a7553041-8337-41cf-859f-54b65f7556fc","ios":"levelo://app?vid=a7553041-8337-41cf-859f-54b65f7556fc"},"vehicle_type_id":"4","last_reported":1739272049,"current_range_meters":28800,"station_id":"ce501612rcd8frsf0b60","pricing_plan_id":"cebpf4jnsgd1na2vs0mg"},{"bike_id":"b02787c6-1773-463a-b894-5d28034066fe","system_id":"levelo_inurba_marseille","lat":43.27423,"lon":5.39414,"is_reserved":false,"is_disabled":false,"rental_uris":{"android":"levelo://app?vid=b02787c6-1773-463a-b894-5d28034066fe","ios":"levelo://app?vid=b02787c6-1773-463a-b894-5d28034066fe"},"vehicle_type_id":"4","last_reported":1739272049,"current_range_meters":28400,"station_id":"ce4bhdp2rcd13ifvqf20","pricing_plan_id":"cebpf4jnsgd1na2vs0mg"},{"bike_id":"3a46e6af-4441-4eb5-9ea7-9d3a275672cd","system_id":"levelo_inurba_marseille","lat":43.2767,"lon":5.38884,"is_reserved":false,"is_disabled":false,"rental_uris":{"android":"levelo://app?vid=3a46e6af-4441-4eb5-9ea7-9d3a275672cd","ios":"levelo://app?vid=3a46e6af-4441-4eb5-9ea7-9d3a275672cd"},"vehicle_type_id":"4","last_reported":1739272049,"current_range_meters":38400,"station_id":"ce4bhi12rcd13ifvqfo0","pricing_plan_id":"cebpf4jnsgd1na2vs0mg"},{"bike_id":"441756a0-4bd6-444f-844a-706673d06d5d","system_id":"levelo_inurba_marseille","lat":43.28122,"lon":5.39851,"is_reserved":false,"is_disabled":false,"rental_uris":{"android":"levelo://app?vid=441756a0-4bd6-444f-844a-706673d06d5d","ios":"levelo://app?vid=441756a0-4bd6-444f-844a-706673d06d5d"},"vehicle_type_id":"4","last_reported":1739272049,"current_range_meters":8800,"station_id":"","pricing_plan_id":"cebpf4jnsgd1na2vs0mg"},{"bike_id":"17f93049-824d-4858-baba-35715db42193","system_id":"levelo_inurba_marseille","lat":43.30488,"lon":5.37898,"is_reserved":false,"is_disabled":false,"rental_uris":{"android":"levelo://app?vid=17f93049-824d-4858-baba-35715db42193","ios":"levelo://app?vid=17f93049-824d-4858-baba-35715db42193"},"vehicle_type_id":"4","last_reported":1739272049,"current_range_meters":17200,"station_id":"ce4bgup2rcd13ifvqcn0","pricing_plan_id":"cebpf4jnsgd1na2vs0mg"},{"bike_id":"35a15fce-0bc5-47ea-985a-488653db9c19","system_id":"levelo_inurba_marseille","lat":43.33607,"lon":5.41029,"is_reserved":false,"is_disabled":false,"rental_uris":{"android":"levelo://app?vid=35a15fce-0bc5-47ea-985a-488653db9c19","ios":"levelo://app?vid=35a15fce-0bc5-47ea-985a-488653db9c19"},"vehicle_type_id":"4","last_reported":1739272049,"current_range_meters":38800,"station_id":"ce4bhqh2rcd13ifvqhmg","pricing_plan_id":"cebpf4jnsgd1na2vs0mg"},{"bike_id":"c80327a9-0d42-419d-be21-c1b0fbbda3b8","system_id":"levelo_inurba_marseille","lat":43.28984,"lon":5.37841,"is_reserved":false,"is_disabled":false,"rental_uris":{"android":"levelo://app?vid=c80327a9-0d42-419d-be21-c1b0fbbda3b8","ios":"levelo://app?vid=c80327a9-0d42-419d-be21-c1b0fbbda3b8"},"vehicle_type_id":"4","last_reported":1739272049,"current_range_meters":38800,"station_id":"ce4bh9p2rcd13ifvqed0","pricing_plan_id":"cebpf4jnsgd1na2vs0mg"},{"bike_id":"7a89fc44-6bab-45b6-a96e-33e726dd37d4","system_id":"levelo_inurba_marseille","lat":43.30302,"lon":5.39229,"is_reserved":false,"is_disabled":false,"rental_uris":{"android":"levelo://app?vid=7a89fc44-6bab-45b6-a96e-33e726dd37d4","ios":"levelo://app?vid=7a89fc44-6bab-45b6-a96e-33e726dd37d4"},"vehicle_type_id":"4","last_reported":1739272049,"current_range_meters":31200,"station_id":"ce4bgkh2rcd13ifvqbk0","pricing_plan_id":"cebpf4jnsgd1na2vs0mg"},{"bike_id":"882be2d9-83f1-4f8c-bbbd-d744734438ec","system_id":"levelo_inurba_marseille","lat":43.30157,"lon":5.3809,"is_reserved":false,"is_disabled":false,"rental_uris":{"android":"levelo://app?vid=882be2d9-83f1-4f8c-bbbd-d744734438ec","ios":"levelo://app?vid=882be2d9-83f1-4f8c-bbbd-d744734438ec"},"vehicle_type_id":"4","last_reported":1739272049,"current_range_meters":24000,"station_id":"ce4bgjp2rcd13ifvqbh0","pricing_plan_id":"cebpf4jnsgd1na2vs0mg"},{"bike_id":"b72810cd-d42f-47ce-9d78-3c17cc889b3e","system_id":"levelo_inurba_marseille","lat":43.30952,"lon":5.39048,"is_reserved":false,"is_disabled":false,"rental_uris":{"android":"levelo://app?vid=b72810cd-d42f-47ce-9d78-3c17cc889b3e","ios":"levelo://app?vid=b72810cd-d42f-47ce-9d78-3c17cc889b3e"},"vehicle_type_id":"4","last_reported":1739272049,"current_range_meters":28800,"station_id":"","pricing_plan_id":"cebpf4jnsgd1na2vs0mg"},{"bike_id":"be237c27-17d7-4433-b8f3-4abb352b8af0","system_id":"levelo_inurba_marseille","lat":43.30531,"lon":5.36704,"is_reserved":false,"is_disabled":false,"rental_uris":{"android":"levelo://app?vid=be237c27-17d7-4433-b8f3-4abb352b8af0","ios":"levelo://app?vid=be237c27-17d7-4433-b8f3-4abb352b8af0"},"vehicle_type_id":"4","last_reported":1739272049,"current_range_meters":26800,"station_id":"ce4bgrp2rcd13ifvqc9g","pricing_plan_id":"cebpf4jnsgd1na2vs0mg"},{"bike_id":"90992f30-e68b-4954-868a-2a864329bfcf","system_id":"levelo_inurba_marseille","lat":43.29037,"lon":5.40004,"is_reserved":false,"is_disabled":false,"rental_uris":{"android":"levelo://app?vid=90992f30-e68b-4954-868a-2a864329bfcf","ios":"levelo://app?vid=90992f30-e68b-4954-868a-2a864329bfcf"},"vehicle_type_id":"4","last_reported":1739272049,"current_range_meters":28400,"station_id":"ce4bh392rcd13ifvqdm0","pricing_plan_id":"cebpf4jnsgd1na2vs0mg"},{"bike_id":"ac3db915-85ff-460a-b948-c32ecd7db728","system_id":"levelo_inurba_marseille","lat":43.30143,"lon":5.38094,"is_reserved":false,"is_disabled":false,"rental_uris":{"android":"levelo://app?vid=ac3db915-85ff-460a-b948-c32ecd7db728","ios":"levelo://app?vid=ac3db915-85ff-460a-b948-c32ecd7db728"},"vehicle_type_id":"4","last_reported":1739272049,"current_range_meters":38400,"station_id":"ce4bgjp2rcd13ifvqbh0","pricing_plan_id":"cebpf4jnsgd1na2vs0mg"},{"bike_id":"29da08aa-d631-4732-ad37-1e1d9d8e3c6c","system_id":"levelo_inurba_marseille","lat":43.29929,"lon":5.36545,"is_reserved":false,"is_disabled":true,"rental_uris":{"android":"levelo://app?vid=29da08aa-d631-4732-ad37-1e1d9d8e3c6c","ios":"levelo://app?vid=29da08aa-d631-4732-ad37-1e1d9d8e3c6c"},"vehicle_type_id":"4","last_reported":1739272049,"current_range_meters":0,"station_id":"ce4bgm92rcd13ifvqbr0","pricing_plan_id":"cebpf4jnsgd1na2vs0mg"},{"bike_id":"1d2000e3-6e82-4c8d-9a0a-5d8181e36eb3","system_id":"levelo_inurba_marseille","lat":43.25002,"lon":5.38912,"is_reserved":false,"is_disabled":false,"rental_uris":{"android":"levelo://app?vid=1d2000e3-6e82-4c8d-9a0a-5d8181e36eb3","ios":"levelo://app?vid=1d2000e3-6e82-4c8d-9a0a-5d8181e36eb3"},"vehicle_type_id":"4","last_reported":1739272049,"current_range_meters":38800,"station_id":"ce4bhgp2rcd13ifvqfd0","pricing_plan_id":"cebpf4jnsgd1na2vs0mg"},{"bike_id":"e751fec8-ce90-4689-8321-cb99c419f236","system_id":"levelo_inurba_marseille","lat":43.30314,"lon":5.36897,"is_reserved":false,"is_disabled":false,"rental_uris":{"android":"levelo://app?vid=e751fec8-ce90-4689-8321-cb99c419f236","ios":"levelo://app?vid=e751fec8-ce90-4689-8321-cb99c419f236"},"vehicle_type_id":"4","last_reported":1739272049,"current_range_meters":6400,"station_id":"ce4bgqh2rcd13ifvqc5g","pricing_plan_id":"cebpf4jnsgd1na2vs0mg"},{"bike_id":"5eb0fdca-08d7-4af9-b428-dd04954b7989","system_id":"levelo_inurba_marseille","lat":43.284953,"lon":5.385798,"is_reserved":false,"is_disabled":false,"rental_uris":{"android":"levelo://app?vid=5eb0fdca-08d7-4af9-b428-dd04954b7989","ios":"levelo://app?vid=5eb0fdca-08d7-4af9-b428-dd04954b7989"},"vehicle_type_id":"4","last_reported":1739272049,"current_range_meters":36000,"station_id":"ce4bh8p2rcd13ifvqeb0","pricing_plan_id":"cebpf4jnsgd1na2vs0mg"},{"bike_id":"1ecb6694-20ff-4bc8-ac28-3228262fb33f","system_id":"levelo_inurba_marseille","lat":43.24073,"lon":5.37756,"is_reserved":false,"is_disabled":false,"rental_uris":{"android":"levelo://app?vid=1ecb6694-20ff-4bc8-ac28-3228262fb33f","ios":"levelo://app?vid=1ecb6694-20ff-4bc8-ac28-3228262fb33f"},"vehicle_type_id":"4","last_reported":1739272049,"current_range_meters":38800,"station_id":"ce4bhnp2rcd13ifvqgvg","pricing_plan_id":"cebpf4jnsgd1na2vs0mg"},{"bike_id":"e673b253-bd7c-45ce-a06f-ff88a62a7e4e","system_id":"levelo_inurba_marseille","lat":43.30164,"lon":5.38092,"is_reserved":false,"is_disabled":false,"rental_uris":{"android":"levelo://app?vid=e673b253-bd7c-45ce-a06f-ff88a62a7e4e","ios":"levelo://app?vid=e673b253-bd7c-45ce-a06f-ff88a62a7e4e"},"vehicle_type_id":"4","last_reported":1739272049,"current_range_meters":38800,"station_id":"ce4bgjp2rcd13ifvqbh0","pricing_plan_id":"cebpf4jnsgd1na2vs0mg"},{"bike_id":"114230f1-fda9-4a9e-962b-4f7a3ae198a2","system_id":"levelo_inurba_marseille","lat":43.27408,"lon":5.39402,"is_reserved":false,"is_disabled":false,"rental_uris":{"android":"levelo://app?vid=114230f1-fda9-4a9e-962b-4f7a3ae198a2","ios":"levelo://app?vid=114230f1-fda9-4a9e-962b-4f7a3ae198a2"},"vehicle_type_id":"4","last_reported":1739272049,"current_range_meters":39200,"station_id":"ce4bhdp2rcd13ifvqf20","pricing_plan_id":"cebpf4jnsgd1na2vs0mg"},{"bike_id":"a76c7d73-686f-4a71-a421-b010005502c6","system_id":"levelo_inurba_marseille","lat":43.2993,"lon":5.38135,"is_reserved":false,"is_disabled":false,"rental_uris":{"android":"levelo://app?vid=a76c7d73-686f-4a71-a421-b010005502c6","ios":"levelo://app?vid=a76c7d73-686f-4a71-a421-b010005502c6"},"vehicle_type_id":"4","last_reported":1739272049,"current_range_meters":33200,"station_id":"ce4bgj12rcd13ifvqbc0","pricing_plan_id":"cebpf4jnsgd1na2vs0mg"},{"bike_id":"c7aed1a3-1c95-4768-ac53-1d32154cf955","system_id":"levelo_inurba_marseille","lat":43.29043,"lon":5.39992,"is_reserved":false,"is_disabled":false,"rental_uris":{"android":"levelo://app?vid=c7aed1a3-1c95-4768-ac53-1d32154cf955","ios":"levelo://app?vid=c7aed1a3-1c95-4768-ac53-1d32154cf955"},"vehicle_type_id":"4","last_reported":1739272049,"current_range_meters":37600,"station_id":"ce4bh392rcd13ifvqdm0","pricing_plan_id":"cebpf4jnsgd1na2vs0mg"},{"bike_id":"d5a37605-4e0b-406c-a924-7ca9f964c4e0","system_id":"levelo_inurba_marseille","lat":43.24799,"lon":5.37458,"is_reserved":false,"is_disabled":false,"rental_uris":{"android":"levelo://app?vid=d5a37605-4e0b-406c-a924-7ca9f964c4e0","ios":"levelo://app?vid=d5a37605-4e0b-406c-a924-7ca9f964c4e0"},"vehicle_type_id":"4","last_reported":1739272049,"current_range_meters":33600,"station_id":"ce4bhgh2rcd13ifvqfb0","pricing_plan_id":"cebpf4jnsgd1na2vs0mg"},{"bike_id":"0c628780-2679-4e4f-a640-ad02e11598a3","system_id":"levelo_inurba_marseille","lat":43.30919,"lon":5.36869,"is_reserved":false,"is_disabled":false,"rental_uris":{"android":"levelo://app?vid=0c628780-2679-4e4f-a640-ad02e11598a3","ios":"levelo://app?vid=0c628780-2679-4e4f-a640-ad02e11598a3"},"vehicle_type_id":"4","last_reported":1739272049,"current_range_meters":12400,"station_id":"ce4bgn92rcd13ifvqbvg","pricing_plan_id":"cebpf4jnsgd1na2vs0mg"},{"bike_id":"04d4b8ab-1d4d-44ab-9d49-e10f569c0553","system_id":"levelo_inurba_marseille","lat":43.29847,"lon":5.36256,"is_reserved":false,"is_disabled":false,"rental_uris":{"android":"levelo://app?vid=04d4b8ab-1d4d-44ab-9d49-e10f569c0553","ios":"levelo://app?vid=04d4b8ab-1d4d-44ab-9d49-e10f569c0553"},"vehicle_type_id":"4","last_reported":1739272049,"current_range_meters":38800,"station_id":"ce4bgpp2rcd13ifvqc3g","pricing_plan_id":"cebpf4jnsgd1na2vs0mg"},{"bike_id":"d47325a2-5960-4cc3-b992-75bee492f580","system_id":"levelo_inurba_marseille","lat":43.29435,"lon":5.38648,"is_reserved":false,"is_disabled":false,"rental_uris":{"android":"levelo://app?vid=d47325a2-5960-4cc3-b992-75bee492f580","ios":"levelo://app?vid=d47325a2-5960-4cc3-b992-75bee492f580"},"vehicle_type_id":"4","last_reported":1739272049,"current_range_meters":33200,"station_id":"ce4bh2h2rcd13ifvqdh0","pricing_plan_id":"cebpf4jnsgd1na2vs0mg"},{"bike_id":"b965b493-8ca8-44e5-a19e-6ca9c8cd5cf0","system_id":"levelo_inurba_marseille","lat":43.26813,"lon":5.40259,"is_reserved":false,"is_disabled":false,"rental_uris":{"android":"levelo://app?vid=b965b493-8ca8-44e5-a19e-6ca9c8cd5cf0","ios":"levelo://app?vid=b965b493-8ca8-44e5-a19e-6ca9c8cd5cf0"},"vehicle_type_id":"4","last_reported":1739272049,"current_range_meters":2800,"station_id":"ce501612rcd8frsf0b60","pricing_plan_id":"cebpf4jnsgd1na2vs0mg"},{"bike_id":"43f04ac6-ceb2-4485-a3ec-1eb06afcdf11","system_id":"levelo_inurba_marseille","lat":43.34136,"lon":5.40909,"is_reserved":false,"is_disabled":false,"rental_uris":{"android":"levelo://app?vid=43f04ac6-ceb2-4485-a3ec-1eb06afcdf11","ios":"levelo://app?vid=43f04ac6-ceb2-4485-a3ec-1eb06afcdf11"},"vehicle_type_id":"4","last_reported":1739272049,"current_range_meters":33200,"station_id":"ce4bhqh2rcd13ifvqhlg","pricing_plan_id":"cebpf4jnsgd1na2vs0mg"},{"bike_id":"c4813b27-4250-43ea-8be5-ccd7321d2af3","system_id":"levelo_inurba_marseille","lat":43.28212,"lon":5.36989,"is_reserved":false,"is_disabled":false,"rental_uris":{"android":"levelo://app?vid=c4813b27-4250-43ea-8be5-ccd7321d2af3","ios":"levelo://app?vid=c4813b27-4250-43ea-8be5-ccd7321d2af3"},"vehicle_type_id":"4","last_reported":1739272049,"current_range_meters":22400,"station_id":"","pricing_plan_id":"cebpf4jnsgd1na2vs0mg"},{"bike_id":"93bc07c8-c5e8-4508-b353-1c2773c131f8","system_id":"levelo_inurba_marseille","lat":43.33606,"lon":5.41035,"is_reserved":false,"is_disabled":false,"rental_uris":{"android":"levelo://app?vid=93bc07c8-c5e8-4508-b353-1c2773c131f8","ios":"levelo://app?vid=93bc07c8-c5e8-4508-b353-1c2773c131f8"},"vehicle_type_id":"4","last_reported":1739272049,"current_range_meters":38800,"station_id":"ce4bhqh2rcd13ifvqhmg","pricing_plan_id":"cebpf4jnsgd1na2vs0mg"},{"bike_id":"122d7d43-3c44-4d47-b6da-626f8774caf6","system_id":"levelo_inurba_marseille","lat":43.27943,"lon":5.41038,"is_reserved":false,"is_disabled":false,"rental_uris":{"android":"levelo://app?vid=122d7d43-3c44-4d47-b6da-626f8774caf6","ios":"levelo://app?vid=122d7d43-3c44-4d47-b6da-626f8774caf6"},"vehicle_type_id":"4","last_reported":1739272049,"current_range_meters":24000,"station_id":"ce4bhnp2rcd13ifvqh0g","pricing_plan_id":"cebpf4jnsgd1na2vs0mg"},{"bike_id":"30040434-0ce6-4639-9cfb-4b7e126d7c60","system_id":"levelo_inurba_marseille","lat":43.27515,"lon":5.42461,"is_reserved":false,"is_disabled":false,"rental_uris":{"android":"levelo://app?vid=30040434-0ce6-4639-9cfb-4b7e126d7c60","ios":"levelo://app?vid=30040434-0ce6-4639-9cfb-4b7e126d7c60"},"vehicle_type_id":"4","last_reported":1739272049,"current_range_meters":37600,"station_id":"ce4bhn92rcd13ifvqgrg","pricing_plan_id":"cebpf4jnsgd1na2vs0mg"},{"bike_id":"3f69c81b-67dd-4d0d-91be-e8c8a656df75","system_id":"levelo_inurba_marseille","lat":43.30493,"lon":5.37888,"is_reserved":false,"is_disabled":true,"rental_uris":{"android":"levelo://app?vid=3f69c81b-67dd-4d0d-91be-e8c8a656df75","ios":"levelo://app?vid=3f69c81b-67dd-4d0d-91be-e8c8a656df75"},"vehicle_type_id":"4","last_reported":1739272049,"current_range_meters":24000,"station_id":"ce4bho92rcd13ifvqh3g","pricing_plan_id":"cebpf4jnsgd1na2vs0mg"},{"bike_id":"b67d0500-a2a9-480e-97b8-c0c618addbd3","system_id":"levelo_inurba_marseille","lat":43.33613,"lon":5.41011,"is_reserved":false,"is_disabled":false,"rental_uris":{"android":"levelo://app?vid=b67d0500-a2a9-480e-97b8-c0c618addbd3","ios":"levelo://app?vid=b67d0500-a2a9-480e-97b8-c0c618addbd3"},"vehicle_type_id":"4","last_reported":1739272049,"current_range_meters":24000,"station_id":"ce4bhqh2rcd13ifvqhmg","pricing_plan_id":"cebpf4jnsgd1na2vs0mg"},{"bike_id":"144bcdc3-64f2-44a7-931d-705e2e854ccc","system_id":"levelo_inurba_marseille","lat":43.337444,"lon":5.374475,"is_reserved":false,"is_disabled":false,"rental_uris":{"android":"levelo://app?vid=144bcdc3-64f2-44a7-931d-705e2e854ccc","ios":"levelo://app?vid=144bcdc3-64f2-44a7-931d-705e2e854ccc"},"vehicle_type_id":"4","last_reported":1739272049,"current_range_meters":6800,"station_id":"","pricing_plan_id":"cebpf4jnsgd1na2vs0mg"},{"bike_id":"260e9838-2399-4eb1-b0ca-e79e7c0785e4","system_id":"levelo_inurba_marseille","lat":43.29862,"lon":5.36316,"is_reserved":false,"is_disabled":false,"rental_uris":{"android":"levelo://app?vid=260e9838-2399-4eb1-b0ca-e79e7c0785e4","ios":"levelo://app?vid=260e9838-2399-4eb1-b0ca-e79e7c0785e4"},"vehicle_type_id":"4","last_reported":1739272049,"current_range_meters":15200,"station_id":"ce4bgpp2rcd13ifvqc3g","pricing_plan_id":"cebpf4jnsgd1na2vs0mg"},{"bike_id":"cb4639f2-88a9-4e21-9c47-519405025441","system_id":"levelo_inurba_marseille","lat":43.2407,"lon":5.37749,"is_reserved":false,"is_disabled":false,"rental_uris":{"android":"levelo://app?vid=cb4639f2-88a9-4e21-9c47-519405025441","ios":"levelo://app?vid=cb4639f2-88a9-4e21-9c47-519405025441"},"vehicle_type_id":"4","last_reported":1739272049,"current_range_meters":38800,"station_id":"ce4bhnp2rcd13ifvqgvg","pricing_plan_id":"cebpf4jnsgd1na2vs0mg"},{"bike_id":"841e0f04-b00a-44de-83b7-b9b92c40d93b","system_id":"levelo_inurba_marseille","lat":43.28167,"lon":5.42683,"is_reserved":false,"is_disabled":false,"rental_uris":{"android":"levelo://app?vid=841e0f04-b00a-44de-83b7-b9b92c40d93b","ios":"levelo://app?vid=841e0f04-b00a-44de-83b7-b9b92c40d93b"},"vehicle_type_id":"4","last_reported":1739272049,"current_range_meters":14400,"station_id":"ce4bhnh2rcd13ifvqgug","pricing_plan_id":"cebpf4jnsgd1na2vs0mg"},{"bike_id":"9d929c25-31ef-4ddf-9bc1-90766736a3ed","system_id":"levelo_inurba_marseille","lat":43.29534,"lon":5.38542,"is_reserved":false,"is_disabled":false,"rental_uris":{"android":"levelo://app?vid=9d929c25-31ef-4ddf-9bc1-90766736a3ed","ios":"levelo://app?vid=9d929c25-31ef-4ddf-9bc1-90766736a3ed"},"vehicle_type_id":"4","last_reported":1739272049,"current_range_meters":34000,"station_id":"ce4bgih2rcd13ifvqba0","pricing_plan_id":"cebpf4jnsgd1na2vs0mg"},{"bike_id":"88379eaf-5a6d-4117-a07a-21ee5231369a","system_id":"levelo_inurba_marseille","lat":43.3155,"lon":5.38064,"is_reserved":false,"is_disabled":false,"rental_uris":{"android":"levelo://app?vid=88379eaf-5a6d-4117-a07a-21ee5231369a","ios":"levelo://app?vid=88379eaf-5a6d-4117-a07a-21ee5231369a"},"vehicle_type_id":"4","last_reported":1739272049,"current_range_meters":38800,"station_id":"ce4bhsp2rcd13ifvqi50","pricing_plan_id":"cebpf4jnsgd1na2vs0mg"},{"bike_id":"7225a2b8-ff08-4dd6-a04c-4d05cfa6308c","system_id":"levelo_inurba_marseille","lat":43.32656,"lon":5.40994,"is_reserved":false,"is_disabled":false,"rental_uris":{"android":"levelo://app?vid=7225a2b8-ff08-4dd6-a04c-4d05cfa6308c","ios":"levelo://app?vid=7225a2b8-ff08-4dd6-a04c-4d05cfa6308c"},"vehicle_type_id":"4","last_reported":1739272049,"current_range_meters":32800,"station_id":"ce4bhpp2rcd13ifvqhgg","pricing_plan_id":"cebpf4jnsgd1na2vs0mg"},{"bike_id":"d672dfd1-eb49-41bd-98e9-cf0079bce74f","system_id":"levelo_inurba_marseille","lat":43.31217,"lon":5.36896,"is_reserved":false,"is_disabled":false,"rental_uris":{"android":"levelo://app?vid=d672dfd1-eb49-41bd-98e9-cf0079bce74f","ios":"levelo://app?vid=d672dfd1-eb49-41bd-98e9-cf0079bce74f"},"vehicle_type_id":"4","last_reported":1739272049,"current_range_meters":38800,"station_id":"ce4bgl92rcd13ifvqbq0","pricing_plan_id":"cebpf4jnsgd1na2vs0mg"},{"bike_id":"d32bc138-b248-4cf7-b985-ba46be6bfdf5","system_id":"levelo_inurba_marseille","lat":43.29569,"lon":5.37496,"is_reserved":false,"is_disabled":false,"rental_uris":{"android":"levelo://app?vid=d32bc138-b248-4cf7-b985-ba46be6bfdf5","ios":"levelo://app?vid=d32bc138-b248-4cf7-b985-ba46be6bfdf5"},"vehicle_type_id":"4","last_reported":1739272049,"current_range_meters":24400,"station_id":"ce4bgh92rcd13ifvqb50","pricing_plan_id":"cebpf4jnsgd1na2vs0mg"},{"bike_id":"1ec14052-2d33-4aa1-9ab8-58cc71db74d1","system_id":"levelo_inurba_marseille","lat":43.24185,"lon":5.36391,"is_reserved":false,"is_disabled":false,"rental_uris":{"android":"levelo://app?vid=1ec14052-2d33-4aa1-9ab8-58cc71db74d1","ios":"levelo://app?vid=1ec14052-2d33-4aa1-9ab8-58cc71db74d1"},"vehicle_type_id":"4","last_reported":1739272049,"current_range_meters":15200,"station_id":"cpo36qri1sfpv3e86is0","pricing_plan_id":"cebpf4jnsgd1na2vs0mg"},{"bike_id":"cd42001a-370f-49cf-a4b8-c1f6610d0139","system_id":"levelo_inurba_marseille","lat":43.3057,"lon":5.36517,"is_reserved":false,"is_disabled":false,"rental_uris":{"android":"levelo://app?vid=cd42001a-370f-49cf-a4b8-c1f6610d0139","ios":"levelo://app?vid=cd42001a-370f-49cf-a4b8-c1f6610d0139"},"vehicle_type_id":"4","last_reported":1739272049,"current_range_meters":33200,"station_id":"ce4bgs12rcd13ifvqcag","pricing_plan_id":"cebpf4jnsgd1na2vs0mg"},{"bike_id":"b3b45130-4456-4f49-a726-9923bcb61db7","system_id":"levelo_inurba_marseille","lat":43.26962,"lon":5.38641,"is_reserved":false,"is_disabled":false,"rental_uris":{"android":"levelo://app?vid=b3b45130-4456-4f49-a726-9923bcb61db7","ios":"levelo://app?vid=b3b45130-4456-4f49-a726-9923bcb61db7"},"vehicle_type_id":"4","last_reported":1739272049,"current_range_meters":38800,"station_id":"ce4bhh92rcd13ifvqfh0","pricing_plan_id":"cebpf4jnsgd1na2vs0mg"},{"bike_id":"182dbad9-f6ad-4708-9382-4bb6ac79db76","system_id":"levelo_inurba_marseille","lat":43.28703,"lon":5.37391,"is_reserved":false,"is_disabled":false,"rental_uris":{"android":"levelo://app?vid=182dbad9-f6ad-4708-9382-4bb6ac79db76","ios":"levelo://app?vid=182dbad9-f6ad-4708-9382-4bb6ac79db76"},"vehicle_type_id":"4","last_reported":1739272049,"current_range_meters":35200,"station_id":"ce4bh3p2rcd13ifvqdq0","pricing_plan_id":"cebpf4jnsgd1na2vs0mg"},{"bike_id":"605182cb-1623-4c1f-bb48-a7e822f9d2c7","system_id":"levelo_inurba_marseille","lat":43.33617,"lon":5.41034,"is_reserved":false,"is_disabled":false,"rental_uris":{"android":"levelo://app?vid=605182cb-1623-4c1f-bb48-a7e822f9d2c7","ios":"levelo://app?vid=605182cb-1623-4c1f-bb48-a7e822f9d2c7"},"vehicle_type_id":"4","last_reported":1739272049,"current_range_meters":23200,"station_id":"ce4bhqh2rcd13ifvqhmg","pricing_plan_id":"cebpf4jnsgd1na2vs0mg"},{"bike_id":"01b43d68-0c7a-43ea-983b-9394a5f33dc6","system_id":"levelo_inurba_marseille","lat":43.30421,"lon":5.41298,"is_reserved":false,"is_disabled":false,"rental_uris":{"android":"levelo://app?vid=01b43d68-0c7a-43ea-983b-9394a5f33dc6","ios":"levelo://app?vid=01b43d68-0c7a-43ea-983b-9394a5f33dc6"},"vehicle_type_id":"4","last_reported":1739272049,"current_range_meters":39200,"station_id":"ce4bhop2rcd13ifvqh8g","pricing_plan_id":"cebpf4jnsgd1na2vs0mg"},{"bike_id":"79df8d93-a019-4f4d-ad9b-607d770a7910","system_id":"levelo_inurba_marseille","lat":43.29423,"lon":5.38879,"is_reserved":false,"is_disabled":false,"rental_uris":{"android":"levelo://app?vid=79df8d93-a019-4f4d-ad9b-607d770a7910","ios":"levelo://app?vid=79df8d93-a019-4f4d-ad9b-607d770a7910"},"vehicle_type_id":"4","last_reported":1739272049,"current_range_meters":26800,"station_id":"","pricing_plan_id":"cebpf4jnsgd1na2vs0mg"},{"bike_id":"fbb98623-bd6f-4427-9463-8f7fc3b3bd20","system_id":"levelo_inurba_marseille","lat":43.28038,"lon":5.36938,"is_reserved":false,"is_disabled":false,"rental_uris":{"android":"levelo://app?vid=fbb98623-bd6f-4427-9463-8f7fc3b3bd20","ios":"levelo://app?vid=fbb98623-bd6f-4427-9463-8f7fc3b3bd20"},"vehicle_type_id":"4","last_reported":1739272049,"current_range_meters":28800,"station_id":"ce4bha12rcd13ifvqef0","pricing_plan_id":"cebpf4jnsgd1na2vs0mg"},{"bike_id":"063d5bc7-8028-4d69-94c8-38381dc4a88e","system_id":"levelo_inurba_marseille","lat":43.29932,"lon":5.37469,"is_reserved":false,"is_disabled":false,"rental_uris":{"android":"levelo://app?vid=063d5bc7-8028-4d69-94c8-38381dc4a88e","ios":"levelo://app?vid=063d5bc7-8028-4d69-94c8-38381dc4a88e"},"vehicle_type_id":"4","last_reported":1739272049,"current_range_meters":8800,"station_id":"ce4bgjh2rcd13ifvqbg0","pricing_plan_id":"cebpf4jnsgd1na2vs0mg"},{"bike_id":"854805d2-36c9-4a45-8e66-d1c1896f7875","system_id":"levelo_inurba_marseille","lat":43.27172,"lon":5.40992,"is_reserved":false,"is_disabled":false,"rental_uris":{"android":"levelo://app?vid=854805d2-36c9-4a45-8e66-d1c1896f7875","ios":"levelo://app?vid=854805d2-36c9-4a45-8e66-d1c1896f7875"},"vehicle_type_id":"4","last_reported":1739272049,"current_range_meters":38000,"station_id":"ce4bhl12rcd13ifvqgf0","pricing_plan_id":"cebpf4jnsgd1na2vs0mg"},{"bike_id":"e91cc092-a630-4129-985b-fa7fc3ce488f","system_id":"levelo_inurba_marseille","lat":43.30557,"lon":5.36507,"is_reserved":false,"is_disabled":false,"rental_uris":{"android":"levelo://app?vid=e91cc092-a630-4129-985b-fa7fc3ce488f","ios":"levelo://app?vid=e91cc092-a630-4129-985b-fa7fc3ce488f"},"vehicle_type_id":"4","last_reported":1739272049,"current_range_meters":30800,"station_id":"ce4bgs12rcd13ifvqcag","pricing_plan_id":"cebpf4jnsgd1na2vs0mg"},{"bike_id":"3918df01-57d3-4c8a-a1f1-47d39a328b33","system_id":"levelo_inurba_marseille","lat":43.30604,"lon":5.37229,"is_reserved":false,"is_disabled":false,"rental_uris":{"android":"levelo://app?vid=3918df01-57d3-4c8a-a1f1-47d39a328b33","ios":"levelo://app?vid=3918df01-57d3-4c8a-a1f1-47d39a328b33"},"vehicle_type_id":"4","last_reported":1739272049,"current_range_meters":38800,"station_id":"ce4bgqh2rcd13ifvqc4g","pricing_plan_id":"cebpf4jnsgd1na2vs0mg"},{"bike_id":"1422ac00-8049-44ec-9828-90c7e2ba7cd0","system_id":"levelo_inurba_marseille","lat":43.30606,"lon":5.37231,"is_reserved":false,"is_disabled":false,"rental_uris":{"android":"levelo://app?vid=1422ac00-8049-44ec-9828-90c7e2ba7cd0","ios":"levelo://app?vid=1422ac00-8049-44ec-9828-90c7e2ba7cd0"},"vehicle_type_id":"4","last_reported":1739272049,"current_range_meters":38400,"station_id":"ce4bgqh2rcd13ifvqc4g","pricing_plan_id":"cebpf4jnsgd1na2vs0mg"},{"bike_id":"e74edd37-0ec7-4f56-b77f-e7249fd01314","system_id":"levelo_inurba_marseille","lat":43.30556,"lon":5.36532,"is_reserved":false,"is_disabled":false,"rental_uris":{"android":"levelo://app?vid=e74edd37-0ec7-4f56-b77f-e7249fd01314","ios":"levelo://app?vid=e74edd37-0ec7-4f56-b77f-e7249fd01314"},"vehicle_type_id":"4","last_reported":1739272049,"current_range_meters":13600,"station_id":"ce4bgs12rcd13ifvqcag","pricing_plan_id":"cebpf4jnsgd1na2vs0mg"},{"bike_id":"fa55914f-96a1-4fa2-9ccb-a6cf23d5b031","system_id":"levelo_inurba_marseille","lat":43.29928,"lon":5.37464,"is_reserved":false,"is_disabled":false,"rental_uris":{"android":"levelo://app?vid=fa55914f-96a1-4fa2-9ccb-a6cf23d5b031","ios":"levelo://app?vid=fa55914f-96a1-4fa2-9ccb-a6cf23d5b031"},"vehicle_type_id":"4","last_reported":1739272049,"current_range_meters":39200,"station_id":"ce4bgjh2rcd13ifvqbg0","pricing_plan_id":"cebpf4jnsgd1na2vs0mg"},{"bike_id":"06d6ff22-1c53-40c5-b6dc-dd605f998fbb","system_id":"levelo_inurba_marseille","lat":43.30272,"lon":5.37728,"is_reserved":false,"is_disabled":false,"rental_uris":{"android":"levelo://app?vid=06d6ff22-1c53-40c5-b6dc-dd605f998fbb","ios":"levelo://app?vid=06d6ff22-1c53-40c5-b6dc-dd605f998fbb"},"vehicle_type_id":"4","last_reported":1739272049,"current_range_meters":28400,"station_id":"ce4bguh2rcd13ifvqcj0","pricing_plan_id":"cebpf4jnsgd1na2vs0mg"},{"bike_id":"ca63d75f-d551-49cb-bec7-e060cadddd73","system_id":"levelo_inurba_marseille","lat":43.28115,"lon":5.4419,"is_reserved":false,"is_disabled":false,"rental_uris":{"android":"levelo://app?vid=ca63d75f-d551-49cb-bec7-e060cadddd73","ios":"levelo://app?vid=ca63d75f-d551-49cb-bec7-e060cadddd73"},"vehicle_type_id":"4","last_reported":1739272049,"current_range_meters":14800,"station_id":"","pricing_plan_id":"cebpf4jnsgd1na2vs0mg"},{"bike_id":"d671c209-eb2a-4253-9022-284224ee7ee7","system_id":"levelo_inurba_marseille","lat":43.30457,"lon":5.37904,"is_reserved":false,"is_disabled":false,"rental_uris":{"android":"levelo://app?vid=d671c209-eb2a-4253-9022-284224ee7ee7","ios":"levelo://app?vid=d671c209-eb2a-4253-9022-284224ee7ee7"},"vehicle_type_id":"4","last_reported":1739272049,"current_range_meters":30000,"station_id":"ce4bgup2rcd13ifvqcn0","pricing_plan_id":"cebpf4jnsgd1na2vs0mg"},{"bike_id":"f5192e58-2178-4d17-a82e-b63f16cde088","system_id":"levelo_inurba_marseille","lat":43.30328,"lon":5.36893,"is_reserved":false,"is_disabled":false,"rental_uris":{"android":"levelo://app?vid=f5192e58-2178-4d17-a82e-b63f16cde088","ios":"levelo://app?vid=f5192e58-2178-4d17-a82e-b63f16cde088"},"vehicle_type_id":"4","last_reported":1739272049,"current_range_meters":27200,"station_id":"ce4bgqh2rcd13ifvqc5g","pricing_plan_id":"cebpf4jnsgd1na2vs0mg"},{"bike_id":"dc24ca0d-2d77-41de-9cfc-c7bf72d43bdf","system_id":"levelo_inurba_marseille","lat":43.2943,"lon":5.38632,"is_reserved":false,"is_disabled":false,"rental_uris":{"android":"levelo://app?vid=dc24ca0d-2d77-41de-9cfc-c7bf72d43bdf","ios":"levelo://app?vid=dc24ca0d-2d77-41de-9cfc-c7bf72d43bdf"},"vehicle_type_id":"4","last_reported":1739272049,"current_range_meters":17600,"station_id":"ce4bgkh2rcd13ifvqbl0","pricing_plan_id":"cebpf4jnsgd1na2vs0mg"},{"bike_id":"5baf39dd-07ca-4c36-b84d-55d91f868a26","system_id":"levelo_inurba_marseille","lat":43.29565,"lon":5.38287,"is_reserved":false,"is_disabled":true,"rental_uris":{"android":"levelo://app?vid=5baf39dd-07ca-4c36-b84d-55d91f868a26","ios":"levelo://app?vid=5baf39dd-07ca-4c36-b84d-55d91f868a26"},"vehicle_type_id":"4","last_reported":1739272049,"current_range_meters":33200,"station_id":"","pricing_plan_id":"cebpf4jnsgd1na2vs0mg"},{"bike_id":"c03df2b3-0aca-47ff-ad25-a32cc6ae8d36","system_id":"levelo_inurba_marseille","lat":43.298545,"lon":5.371231,"is_reserved":false,"is_disabled":false,"rental_uris":{"android":"levelo://app?vid=c03df2b3-0aca-47ff-ad25-a32cc6ae8d36","ios":"levelo://app?vid=c03df2b3-0aca-47ff-ad25-a32cc6ae8d36"},"vehicle_type_id":"4","last_reported":1739272049,"current_range_meters":32000,"station_id":"ce4bgop2rcd13ifvqc1g","pricing_plan_id":"cebpf4jnsgd1na2vs0mg"},{"bike_id":"a570e60b-f184-48c9-9a42-7bd7296843bb","system_id":"levelo_inurba_marseille","lat":43.29784,"lon":5.39346,"is_reserved":false,"is_disabled":false,"rental_uris":{"android":"levelo://app?vid=a570e60b-f184-48c9-9a42-7bd7296843bb","ios":"levelo://app?vid=a570e60b-f184-48c9-9a42-7bd7296843bb"},"vehicle_type_id":"4","last_reported":1739272049,"current_range_meters":38800,"station_id":"chh1huq6cuj3fo74tm60","pricing_plan_id":"cebpf4jnsgd1na2vs0mg"},{"bike_id":"9b8abd08-e44c-4856-b389-4f5ff2f6b096","system_id":"levelo_inurba_marseille","lat":43.29171,"lon":5.37554,"is_reserved":false,"is_disabled":false,"rental_uris":{"android":"levelo://app?vid=9b8abd08-e44c-4856-b389-4f5ff2f6b096","ios":"levelo://app?vid=9b8abd08-e44c-4856-b389-4f5ff2f6b096"},"vehicle_type_id":"4","last_reported":1739272049,"current_range_meters":11600,"station_id":"","pricing_plan_id":"cebpf4jnsgd1na2vs0mg"},{"bike_id":"4dc030ee-c4f5-4821-84e8-cc928c50366c","system_id":"levelo_inurba_marseille","lat":43.29068,"lon":5.37163,"is_reserved":false,"is_disabled":false,"rental_uris":{"android":"levelo://app?vid=4dc030ee-c4f5-4821-84e8-cc928c50366c","ios":"levelo://app?vid=4dc030ee-c4f5-4821-84e8-cc928c50366c"},"vehicle_type_id":"4","last_reported":1739272049,"current_range_meters":28000,"station_id":"ce4bh5p2rcd13ifvqe4g","pricing_plan_id":"cebpf4jnsgd1na2vs0mg"},{"bike_id":"118acaa8-c377-4759-a8f9-c3303973ef34","system_id":"levelo_inurba_marseille","lat":43.29875,"lon":5.3891,"is_reserved":false,"is_disabled":false,"rental_uris":{"android":"levelo://app?vid=118acaa8-c377-4759-a8f9-c3303973ef34","ios":"levelo://app?vid=118acaa8-c377-4759-a8f9-c3303973ef34"},"vehicle_type_id":"4","last_reported":1739272049,"current_range_meters":25200,"station_id":"ce4bh392rcd13ifvqdl0","pricing_plan_id":"cebpf4jnsgd1na2vs0mg"},{"bike_id":"fbd03bc5-eeec-43a8-9a4b-c9d5079b4f48","system_id":"levelo_inurba_marseille","lat":43.2593,"lon":5.40922,"is_reserved":false,"is_disabled":false,"rental_uris":{"android":"levelo://app?vid=fbd03bc5-eeec-43a8-9a4b-c9d5079b4f48","ios":"levelo://app?vid=fbd03bc5-eeec-43a8-9a4b-c9d5079b4f48"},"vehicle_type_id":"4","last_reported":1739272049,"current_range_meters":24000,"station_id":"ce4bhm92rcd13ifvqglg","pricing_plan_id":"cebpf4jnsgd1na2vs0mg"},{"bike_id":"9b3164c6-f339-47f0-abba-b2135d94d36f","system_id":"levelo_inurba_marseille","lat":43.27229,"lon":5.39198,"is_reserved":false,"is_disabled":false,"rental_uris":{"android":"levelo://app?vid=9b3164c6-f339-47f0-abba-b2135d94d36f","ios":"levelo://app?vid=9b3164c6-f339-47f0-abba-b2135d94d36f"},"vehicle_type_id":"4","last_reported":1739272049,"current_range_meters":29600,"station_id":"ce4bhhp2rcd13ifvqfm0","pricing_plan_id":"cebpf4jnsgd1na2vs0mg"},{"bike_id":"8e4a1bfa-cffb-4104-8241-5f2c62d3067b","system_id":"levelo_inurba_marseille","lat":43.2834,"lon":5.38108,"is_reserved":false,"is_disabled":false,"rental_uris":{"android":"levelo://app?vid=8e4a1bfa-cffb-4104-8241-5f2c62d3067b","ios":"levelo://app?vid=8e4a1bfa-cffb-4104-8241-5f2c62d3067b"},"vehicle_type_id":"4","last_reported":1739272049,"current_range_meters":28800,"station_id":"ce4bh412rcd13ifvqdr0","pricing_plan_id":"cebpf4jnsgd1na2vs0mg"},{"bike_id":"71729715-a0e6-4615-ae37-074e053a04bc","system_id":"levelo_inurba_marseille","lat":43.24176,"lon":5.39727,"is_reserved":false,"is_disabled":false,"rental_uris":{"android":"levelo://app?vid=71729715-a0e6-4615-ae37-074e053a04bc","ios":"levelo://app?vid=71729715-a0e6-4615-ae37-074e053a04bc"},"vehicle_type_id":"4","last_reported":1739272049,"current_range_meters":28000,"station_id":"ce4bhn12rcd13ifvqgpg","pricing_plan_id":"cebpf4jnsgd1na2vs0mg"},{"bike_id":"e476b422-69b1-4f74-9e6f-2e8608063c5f","system_id":"levelo_inurba_marseille","lat":43.3054,"lon":5.36554,"is_reserved":false,"is_disabled":false,"rental_uris":{"android":"levelo://app?vid=e476b422-69b1-4f74-9e6f-2e8608063c5f","ios":"levelo://app?vid=e476b422-69b1-4f74-9e6f-2e8608063c5f"},"vehicle_type_id":"4","last_reported":1739272049,"current_range_meters":18800,"station_id":"ce4bgs12rcd13ifvqcag","pricing_plan_id":"cebpf4jnsgd1na2vs0mg"},{"bike_id":"bb2c3666-e655-4322-865e-a1fcfe1f8a0c","system_id":"levelo_inurba_marseille","lat":43.301544,"lon":5.380903,"is_reserved":false,"is_disabled":false,"rental_uris":{"android":"levelo://app?vid=bb2c3666-e655-4322-865e-a1fcfe1f8a0c","ios":"levelo://app?vid=bb2c3666-e655-4322-865e-a1fcfe1f8a0c"},"vehicle_type_id":"4","last_reported":1739272049,"current_range_meters":32800,"station_id":"ce4bgjp2rcd13ifvqbh0","pricing_plan_id":"cebpf4jnsgd1na2vs0mg"},{"bike_id":"54ce597b-1ca1-4d62-923d-d4b29eec04b3","system_id":"levelo_inurba_marseille","lat":43.31131,"lon":5.38261,"is_reserved":false,"is_disabled":false,"rental_uris":{"android":"levelo://app?vid=54ce597b-1ca1-4d62-923d-d4b29eec04b3","ios":"levelo://app?vid=54ce597b-1ca1-4d62-923d-d4b29eec04b3"},"vehicle_type_id":"4","last_reported":1739272049,"current_range_meters":20800,"station_id":"","pricing_plan_id":"cebpf4jnsgd1na2vs0mg"},{"bike_id":"b4765ae2-b7fb-4718-bf68-ce7ba2c817f9","system_id":"levelo_inurba_marseille","lat":43.27066,"lon":5.42288,"is_reserved":false,"is_disabled":false,"rental_uris":{"android":"levelo://app?vid=b4765ae2-b7fb-4718-bf68-ce7ba2c817f9","ios":"levelo://app?vid=b4765ae2-b7fb-4718-bf68-ce7ba2c817f9"},"vehicle_type_id":"4","last_reported":1739272049,"current_range_meters":24400,"station_id":"ce4bhk92rcd13ifvqgb0","pricing_plan_id":"cebpf4jnsgd1na2vs0mg"},{"bike_id":"ace7c7c4-55ef-471c-935e-108dd26488b5","system_id":"levelo_inurba_marseille","lat":43.24537,"lon":5.39525,"is_reserved":false,"is_disabled":false,"rental_uris":{"android":"levelo://app?vid=ace7c7c4-55ef-471c-935e-108dd26488b5","ios":"levelo://app?vid=ace7c7c4-55ef-471c-935e-108dd26488b5"},"vehicle_type_id":"4","last_reported":1739272049,"current_range_meters":31200,"station_id":"ce4bhlp2rcd13ifvqgjg","pricing_plan_id":"cebpf4jnsgd1na2vs0mg"},{"bike_id":"8f5334ea-9cc6-4b0b-b8e9-99f92a06d7ac","system_id":"levelo_inurba_marseille","lat":43.30161,"lon":5.38096,"is_reserved":false,"is_disabled":true,"rental_uris":{"android":"levelo://app?vid=8f5334ea-9cc6-4b0b-b8e9-99f92a06d7ac","ios":"levelo://app?vid=8f5334ea-9cc6-4b0b-b8e9-99f92a06d7ac"},"vehicle_type_id":"4","last_reported":1739272049,"current_range_meters":38800,"station_id":"ce4bgjp2rcd13ifvqbh0","pricing_plan_id":"cebpf4jnsgd1na2vs0mg"},{"bike_id":"ec670ee5-ec68-4784-935c-203a78cbc136","system_id":"levelo_inurba_marseille","lat":43.32988,"lon":5.39087,"is_reserved":false,"is_disabled":false,"rental_uris":{"android":"levelo://app?vid=ec670ee5-ec68-4784-935c-203a78cbc136","ios":"levelo://app?vid=ec670ee5-ec68-4784-935c-203a78cbc136"},"vehicle_type_id":"4","last_reported":1739272049,"current_range_meters":38400,"station_id":"ce4bhr92rcd13ifvqhrg","pricing_plan_id":"cebpf4jnsgd1na2vs0mg"},{"bike_id":"a37dc7f0-b740-42be-882d-d2a3862129b9","system_id":"levelo_inurba_marseille","lat":43.27222,"lon":5.39191,"is_reserved":false,"is_disabled":false,"rental_uris":{"android":"levelo://app?vid=a37dc7f0-b740-42be-882d-d2a3862129b9","ios":"levelo://app?vid=a37dc7f0-b740-42be-882d-d2a3862129b9"},"vehicle_type_id":"4","last_reported":1739272049,"current_range_meters":38800,"station_id":"ce4bhhp2rcd13ifvqfm0","pricing_plan_id":"cebpf4jnsgd1na2vs0mg"},{"bike_id":"5fcc18a4-b033-425f-956c-ba9cc3756f71","system_id":"levelo_inurba_marseille","lat":43.28613,"lon":5.35099,"is_reserved":false,"is_disabled":false,"rental_uris":{"android":"levelo://app?vid=5fcc18a4-b033-425f-956c-ba9cc3756f71","ios":"levelo://app?vid=5fcc18a4-b033-425f-956c-ba9cc3756f71"},"vehicle_type_id":"4","last_reported":1739272049,"current_range_meters":26000,"station_id":"ce4bhch2rcd13ifvqeug","pricing_plan_id":"cebpf4jnsgd1na2vs0mg"},{"bike_id":"16426ddd-1b47-4d7f-b07d-a9a7387a04c9","system_id":"levelo_inurba_marseille","lat":43.31124,"lon":5.37786,"is_reserved":false,"is_disabled":false,"rental_uris":{"android":"levelo://app?vid=16426ddd-1b47-4d7f-b07d-a9a7387a04c9","ios":"levelo://app?vid=16426ddd-1b47-4d7f-b07d-a9a7387a04c9"},"vehicle_type_id":"4","last_reported":1739272049,"current_range_meters":23200,"station_id":"ce4bgt92rcd13ifvqcg0","pricing_plan_id":"cebpf4jnsgd1na2vs0mg"},{"bike_id":"9ef7c1f9-ef3f-434e-b65a-009b47ff8d13","system_id":"levelo_inurba_marseille","lat":43.29959,"lon":5.37456,"is_reserved":false,"is_disabled":false,"rental_uris":{"android":"levelo://app?vid=9ef7c1f9-ef3f-434e-b65a-009b47ff8d13","ios":"levelo://app?vid=9ef7c1f9-ef3f-434e-b65a-009b47ff8d13"},"vehicle_type_id":"4","last_reported":1739272049,"current_range_meters":39200,"station_id":"ce4bgjh2rcd13ifvqbg0","pricing_plan_id":"cebpf4jnsgd1na2vs0mg"},{"bike_id":"e7f23fe1-8da6-4823-a0d7-04e51096bfc3","system_id":"levelo_inurba_marseille","lat":43.26558,"lon":5.37289,"is_reserved":false,"is_disabled":false,"rental_uris":{"android":"levelo://app?vid=e7f23fe1-8da6-4823-a0d7-04e51096bfc3","ios":"levelo://app?vid=e7f23fe1-8da6-4823-a0d7-04e51096bfc3"},"vehicle_type_id":"4","last_reported":1739272049,"current_range_meters":28400,"station_id":"ce4bhg12rcd13ifvqf70","pricing_plan_id":"cebpf4jnsgd1na2vs0mg"},{"bike_id":"aab4804f-5aed-4d66-91a7-87685a4c27c3","system_id":"levelo_inurba_marseille","lat":43.29528,"lon":5.3752,"is_reserved":false,"is_disabled":false,"rental_uris":{"android":"levelo://app?vid=aab4804f-5aed-4d66-91a7-87685a4c27c3","ios":"levelo://app?vid=aab4804f-5aed-4d66-91a7-87685a4c27c3"},"vehicle_type_id":"4","last_reported":1739272049,"current_range_meters":38800,"station_id":"ce4bgkp2rcd13ifvqbmg","pricing_plan_id":"cebpf4jnsgd1na2vs0mg"},{"bike_id":"4549964f-89eb-4c3f-ac10-53fb6e990b17","system_id":"levelo_inurba_marseille","lat":43.336065,"lon":5.410369,"is_reserved":false,"is_disabled":false,"rental_uris":{"android":"levelo://app?vid=4549964f-89eb-4c3f-ac10-53fb6e990b17","ios":"levelo://app?vid=4549964f-89eb-4c3f-ac10-53fb6e990b17"},"vehicle_type_id":"4","last_reported":1739272049,"current_range_meters":28400,"station_id":"ce4bhqh2rcd13ifvqhmg","pricing_plan_id":"cebpf4jnsgd1na2vs0mg"},{"bike_id":"b598f689-547e-42c2-b72d-682aa8876477","system_id":"levelo_inurba_marseille","lat":43.30461,"lon":5.37903,"is_reserved":false,"is_disabled":false,"rental_uris":{"android":"levelo://app?vid=b598f689-547e-42c2-b72d-682aa8876477","ios":"levelo://app?vid=b598f689-547e-42c2-b72d-682aa8876477"},"vehicle_type_id":"4","last_reported":1739272049,"current_range_meters":13600,"station_id":"ce4bgup2rcd13ifvqcn0","pricing_plan_id":"cebpf4jnsgd1na2vs0mg"},{"bike_id":"8ddc1439-1e14-40c5-bb62-c293b4a8b025","system_id":"levelo_inurba_marseille","lat":43.30589,"lon":5.37223,"is_reserved":false,"is_disabled":false,"rental_uris":{"android":"levelo://app?vid=8ddc1439-1e14-40c5-bb62-c293b4a8b025","ios":"levelo://app?vid=8ddc1439-1e14-40c5-bb62-c293b4a8b025"},"vehicle_type_id":"4","last_reported":1739272049,"current_range_meters":38400,"station_id":"ce4bgqh2rcd13ifvqc4g","pricing_plan_id":"cebpf4jnsgd1na2vs0mg"},{"bike_id":"49e9d985-ed08-4871-b429-7eba37a2e633","system_id":"levelo_inurba_marseille","lat":43.24086,"lon":5.37777,"is_reserved":false,"is_disabled":false,"rental_uris":{"android":"levelo://app?vid=49e9d985-ed08-4871-b429-7eba37a2e633","ios":"levelo://app?vid=49e9d985-ed08-4871-b429-7eba37a2e633"},"vehicle_type_id":"4","last_reported":1739272049,"current_range_meters":22000,"station_id":"ce4bhnp2rcd13ifvqgvg","pricing_plan_id":"cebpf4jnsgd1na2vs0mg"},{"bike_id":"7b37eb36-5784-4f91-a2b1-df3773c900b7","system_id":"levelo_inurba_marseille","lat":43.27975,"lon":5.40033,"is_reserved":false,"is_disabled":false,"rental_uris":{"android":"levelo://app?vid=7b37eb36-5784-4f91-a2b1-df3773c900b7","ios":"levelo://app?vid=7b37eb36-5784-4f91-a2b1-df3773c900b7"},"vehicle_type_id":"4","last_reported":1739272049,"current_range_meters":35200,"station_id":"ce4bho92rcd13ifvqh4g","pricing_plan_id":"cebpf4jnsgd1na2vs0mg"},{"bike_id":"49d58dfc-a9e0-4db5-92e7-e21c76380f47","system_id":"levelo_inurba_marseille","lat":43.30179,"lon":5.36631,"is_reserved":false,"is_disabled":false,"rental_uris":{"android":"levelo://app?vid=49d58dfc-a9e0-4db5-92e7-e21c76380f47","ios":"levelo://app?vid=49d58dfc-a9e0-4db5-92e7-e21c76380f47"},"vehicle_type_id":"4","last_reported":1739272049,"current_range_meters":33600,"station_id":"ce4bgrh2rcd13ifvqc8g","pricing_plan_id":"cebpf4jnsgd1na2vs0mg"},{"bike_id":"81dc18dc-3bdd-4dec-8d6e-5cbe0dfce1ab","system_id":"levelo_inurba_marseille","lat":43.30525,"lon":5.3654,"is_reserved":false,"is_disabled":false,"rental_uris":{"android":"levelo://app?vid=81dc18dc-3bdd-4dec-8d6e-5cbe0dfce1ab","ios":"levelo://app?vid=81dc18dc-3bdd-4dec-8d6e-5cbe0dfce1ab"},"vehicle_type_id":"4","last_reported":1739272049,"current_range_meters":27200,"station_id":"ce4bgs12rcd13ifvqcag","pricing_plan_id":"cebpf4jnsgd1na2vs0mg"},{"bike_id":"aa73f3e1-5d29-48cf-86fc-acab720e3734","system_id":"levelo_inurba_marseille","lat":43.23963,"lon":5.36623,"is_reserved":false,"is_disabled":false,"rental_uris":{"android":"levelo://app?vid=aa73f3e1-5d29-48cf-86fc-acab720e3734","ios":"levelo://app?vid=aa73f3e1-5d29-48cf-86fc-acab720e3734"},"vehicle_type_id":"4","last_reported":1739272049,"current_range_meters":11200,"station_id":"ce4bhi12rcd13ifvqfp0","pricing_plan_id":"cebpf4jnsgd1na2vs0mg"},{"bike_id":"f17f084e-b6c7-45c8-92c0-b718ab2f3029","system_id":"levelo_inurba_marseille","lat":43.24395,"lon":5.37061,"is_reserved":false,"is_disabled":false,"rental_uris":{"android":"levelo://app?vid=f17f084e-b6c7-45c8-92c0-b718ab2f3029","ios":"levelo://app?vid=f17f084e-b6c7-45c8-92c0-b718ab2f3029"},"vehicle_type_id":"4","last_reported":1739272049,"current_range_meters":37600,"station_id":"ce4bhhh2rcd13ifvqfk0","pricing_plan_id":"cebpf4jnsgd1na2vs0mg"},{"bike_id":"75e0cfac-b762-4576-9b28-f5e082cdfb22","system_id":"levelo_inurba_marseille","lat":43.34147,"lon":5.40901,"is_reserved":false,"is_disabled":false,"rental_uris":{"android":"levelo://app?vid=75e0cfac-b762-4576-9b28-f5e082cdfb22","ios":"levelo://app?vid=75e0cfac-b762-4576-9b28-f5e082cdfb22"},"vehicle_type_id":"4","last_reported":1739272049,"current_range_meters":39200,"station_id":"ce4bhqh2rcd13ifvqhlg","pricing_plan_id":"cebpf4jnsgd1na2vs0mg"},{"bike_id":"89b3fe4a-7f8b-4e8c-8fe3-6714aa510d69","system_id":"levelo_inurba_marseille","lat":43.28671,"lon":5.38677,"is_reserved":false,"is_disabled":false,"rental_uris":{"android":"levelo://app?vid=89b3fe4a-7f8b-4e8c-8fe3-6714aa510d69","ios":"levelo://app?vid=89b3fe4a-7f8b-4e8c-8fe3-6714aa510d69"},"vehicle_type_id":"4","last_reported":1739272049,"current_range_meters":35600,"station_id":"ce4bh492rcd13ifvqdug","pricing_plan_id":"cebpf4jnsgd1na2vs0mg"},{"bike_id":"27f2d8b1-79be-4fb4-b997-1120d54be4d4","system_id":"levelo_inurba_marseille","lat":43.27723,"lon":5.42356,"is_reserved":false,"is_disabled":false,"rental_uris":{"android":"levelo://app?vid=27f2d8b1-79be-4fb4-b997-1120d54be4d4","ios":"levelo://app?vid=27f2d8b1-79be-4fb4-b997-1120d54be4d4"},