{"last_updated":1727381352,"ttl":60,"version":"2.2","data":{"bikes":[{"bike_id":"3a4b7c08-65ca-4313-bebb-f59e32789f50","system_id":"levelo_inurba_marseille","lat":43.29107,"lon":5.38134,"is_reserved":false,"is_disabled":false,"rental_uris":{"android":"levelo://app?vid=3a4b7c08-65ca-4313-bebb-f59e32789f50","ios":"levelo://app?vid=3a4b7c08-65ca-4313-bebb-f59e32789f50"},"vehicle_type_id":"4","last_reported":1727381352,"current_range_meters":37600,"station_id":"ce4bh512rcd13ifvqe2g","pricing_plan_id":"cebpf4jnsgd1na2vs0mg"},{"bike_id":"1949bde6-d10c-40a9-8005-655941700167","system_id":"levelo_inurba_marseille","lat":43.30808,"lon":5.43524,"is_reserved":false,"is_disabled":false,"rental_uris":{"android":"levelo://app?vid=1949bde6-d10c-40a9-8005-655941700167","ios":"levelo://app?vid=1949bde6-d10c-40a9-8005-655941700167"},"vehicle_type_id":"4","last_reported":1727381352,"current_range_meters":8000,"station_id":"ce4bhph2rcd13ifvqheg","pricing_plan_id":"cebpf4jnsgd1na2vs0mg"},{"bike_id":"81dbb0ed-79b3-41ef-9e55-2856c58c2866","system_id":"levelo_inurba_marseille","lat":43.30853,"lon":5.39634,"is_reserved":false,"is_disabled":false,"rental_uris":{"android":"levelo://app?vid=81dbb0ed-79b3-41ef-9e55-2856c58c2866","ios":"levelo://app?vid=81dbb0ed-79b3-41ef-9e55-2856c58c2866"},"vehicle_type_id":"4","last_reported":1727381352,"current_range_meters":30400,"station_id":"","pricing_plan_id":"cebpf4jnsgd1na2vs0mg"},{"bike_id":"e88292f4-3d21-46d6-8086-0e5282f1890f","system_id":"levelo_inurba_marseille","lat":43.28367,"lon":5.381,"is_reserved":false,"is_disabled":false,"rental_uris":{"android":"levelo://app?vid=e88292f4-3d21-46d6-8086-0e5282f1890f","ios":"levelo://app?vid=e88292f4-3d21-46d6-8086-0e5282f1890f"},"vehicle_type_id":"4","last_reported":1727381352,"current_range_meters":33200,"station_id":"ce4bh412rcd13ifvqdr0","pricing_plan_id":"cebpf4jnsgd1na2vs0mg"},{"bike_id":"aa5b9995-8499-4ae9-bb9f-84ab129c588f","system_id":"levelo_inurba_marseille","lat":43.30163,"lon":5.3809,"is_reserved":false,"is_disabled":false,"rental_uris":{"android":"levelo://app?vid=aa5b9995-8499-4ae9-bb9f-84ab129c588f","ios":"levelo://app?vid=aa5b9995-8499-4ae9-bb9f-84ab129c588f"},"vehicle_type_id":"4","last_reported":1727381352,"current_range_meters":30000,"station_id":"ce4bgjp2rcd13ifvqbh0","pricing_plan_id":"cebpf4jnsgd1na2vs0mg"},{"bike_id":"53cb4e6e-8c79-4f4c-9baf-7db4ae235db3","system_id":"levelo_inurba_marseille","lat":43.29528,"lon":5.38552,"is_reserved":false,"is_disabled":false,"rental_uris":{"android":"levelo://app?vid=53cb4e6e-8c79-4f4c-9baf-7db4ae235db3","ios":"levelo://app?vid=53cb4e6e-8c79-4f4c-9baf-7db4ae235db3"},"vehicle_type_id":"4","last_reported":1727381352,"current_range_meters":39200,"station_id":"ce4bgih2rcd13ifvqba0","pricing_plan_id":"cebpf4jnsgd1na2vs0mg"},{"bike_id":"9a593db0-19bc-4883-bc8e-f35d82d51490","system_id":"levelo_inurba_marseille","lat":43.31083,"lon":5.42431,"is_reserved":false,"is_disabled":false,"rental_uris":{"android":"levelo://app?vid=9a593db0-19bc-4883-bc8e-f35d82d51490","ios":"levelo://app?vid=9a593db0-19bc-4883-bc8e-f35d82d51490"},"vehicle_type_id":"4","last_reported":1727381352,"current_range_meters":6800,"station_id":"ce4bhp92rcd13ifvqhag","pricing_plan_id":"cebpf4jnsgd1na2vs0mg"},{"bike_id":"86d1752f-e19f-46c4-a415-a8c0a0912a14","system_id":"levelo_inurba_marseille","lat":43.299105,"lon":5.376062,"is_reserved":false,"is_disabled":false,"rental_uris":{"android":"levelo://app?vid=86d1752f-e19f-46c4-a415-a8c0a0912a14","ios":"levelo://app?vid=86d1752f-e19f-46c4-a415-a8c0a0912a14"},"vehicle_type_id":"4","last_reported":1727381352,"current_range_meters":25200,"station_id":"ce4bgt12rcd13ifvqcd0","pricing_plan_id":"cebpf4jnsgd1na2vs0mg"},{"bike_id":"a9669d3a-c989-4bbf-988b-b787f6909497","system_id":"levelo_inurba_marseille","lat":43.32662,"lon":5.4099,"is_reserved":false,"is_disabled":false,"rental_uris":{"android":"levelo://app?vid=a9669d3a-c989-4bbf-988b-b787f6909497","ios":"levelo://app?vid=a9669d3a-c989-4bbf-988b-b787f6909497"},"vehicle_type_id":"4","last_reported":1727381352,"current_range_meters":38000,"station_id":"ce4bhpp2rcd13ifvqhgg","pricing_plan_id":"cebpf4jnsgd1na2vs0mg"},{"bike_id":"9d22a46c-7421-45b7-a510-326a2aa08b40","system_id":"levelo_inurba_marseille","lat":43.288086,"lon":5.392076,"is_reserved":false,"is_disabled":false,"rental_uris":{"android":"levelo://app?vid=9d22a46c-7421-45b7-a510-326a2aa08b40","ios":"levelo://app?vid=9d22a46c-7421-45b7-a510-326a2aa08b40"},"vehicle_type_id":"4","last_reported":1727381352,"current_range_meters":6800,"station_id":"ce4bh2p2rcd13ifvqdi0","pricing_plan_id":"cebpf4jnsgd1na2vs0mg"},{"bike_id":"a17cc833-34e0-49cd-aed6-aafc54d2e30a","system_id":"levelo_inurba_marseille","lat":43.28931,"lon":5.36391,"is_reserved":false,"is_disabled":false,"rental_uris":{"android":"levelo://app?vid=a17cc833-34e0-49cd-aed6-aafc54d2e30a","ios":"levelo://app?vid=a17cc833-34e0-49cd-aed6-aafc54d2e30a"},"vehicle_type_id":"4","last_reported":1727381352,"current_range_meters":28000,"station_id":"ce4bhc92rcd13ifvqetg","pricing_plan_id":"cebpf4jnsgd1na2vs0mg"},{"bike_id":"55f4f50b-d6dd-4e12-86b3-1486da4af7d9","system_id":"levelo_inurba_marseille","lat":43.22933,"lon":5.35372,"is_reserved":false,"is_disabled":false,"rental_uris":{"android":"levelo://app?vid=55f4f50b-d6dd-4e12-86b3-1486da4af7d9","ios":"levelo://app?vid=55f4f50b-d6dd-4e12-86b3-1486da4af7d9"},"vehicle_type_id":"4","last_reported":1727381352,"current_range_meters":38800,"station_id":"cpo3532slgdg3j2ikp40","pricing_plan_id":"cebpf4jnsgd1na2vs0mg"},{"bike_id":"72b7498f-9b36-4d75-a21e-26c7f8f1ce16","system_id":"levelo_inurba_marseille","lat":43.2952,"lon":5.39029,"is_reserved":false,"is_disabled":false,"rental_uris":{"android":"levelo://app?vid=72b7498f-9b36-4d75-a21e-26c7f8f1ce16","ios":"levelo://app?vid=72b7498f-9b36-4d75-a21e-26c7f8f1ce16"},"vehicle_type_id":"4","last_reported":1727381352,"current_range_meters":38400,"station_id":"ce4bh3p2rcd13ifvqdp0","pricing_plan_id":"cebpf4jnsgd1na2vs0mg"},{"bike_id":"46518533-a3f0-468c-a3d9-f7b8392f6bb8","system_id":"levelo_inurba_marseille","lat":43.28667,"lon":5.36356,"is_reserved":false,"is_disabled":false,"rental_uris":{"android":"levelo://app?vid=46518533-a3f0-468c-a3d9-f7b8392f6bb8","ios":"levelo://app?vid=46518533-a3f0-468c-a3d9-f7b8392f6bb8"},"vehicle_type_id":"4","last_reported":1727381352,"current_range_meters":38800,"station_id":"ce4bhah2rcd13ifvqej0","pricing_plan_id":"cebpf4jnsgd1na2vs0mg"},{"bike_id":"fb03f466-f4f6-4c35-aae7-01f35455322d","system_id":"levelo_inurba_marseille","lat":43.24386,"lon":5.37065,"is_reserved":false,"is_disabled":false,"rental_uris":{"android":"levelo://app?vid=fb03f466-f4f6-4c35-aae7-01f35455322d","ios":"levelo://app?vid=fb03f466-f4f6-4c35-aae7-01f35455322d"},"vehicle_type_id":"4","last_reported":1727381352,"current_range_meters":29600,"station_id":"ce4bhhh2rcd13ifvqfk0","pricing_plan_id":"cebpf4jnsgd1na2vs0mg"},{"bike_id":"5bbc05df-e752-4adb-ab91-31c5181b953a","system_id":"levelo_inurba_marseille","lat":43.30646,"lon":5.400842,"is_reserved":false,"is_disabled":false,"rental_uris":{"android":"levelo://app?vid=5bbc05df-e752-4adb-ab91-31c5181b953a","ios":"levelo://app?vid=5bbc05df-e752-4adb-ab91-31c5181b953a"},"vehicle_type_id":"4","last_reported":1727381352,"current_range_meters":30800,"station_id":"ce4bh112rcd13ifvqda0","pricing_plan_id":"cebpf4jnsgd1na2vs0mg"},{"bike_id":"3150806f-1e87-436f-8d31-00d2d9bd9596","system_id":"levelo_inurba_marseille","lat":43.27816,"lon":5.40704,"is_reserved":false,"is_disabled":false,"rental_uris":{"android":"levelo://app?vid=3150806f-1e87-436f-8d31-00d2d9bd9596","ios":"levelo://app?vid=3150806f-1e87-436f-8d31-00d2d9bd9596"},"vehicle_type_id":"4","last_reported":1727381352,"current_range_meters":38800,"station_id":"ce4bhnh2rcd13ifvqgtg","pricing_plan_id":"cebpf4jnsgd1na2vs0mg"},{"bike_id":"475c416e-e3c5-4768-8966-95e64202a3d2","system_id":"levelo_inurba_marseille","lat":43.25495,"lon":5.37652,"is_reserved":false,"is_disabled":false,"rental_uris":{"android":"levelo://app?vid=475c416e-e3c5-4768-8966-95e64202a3d2","ios":"levelo://app?vid=475c416e-e3c5-4768-8966-95e64202a3d2"},"vehicle_type_id":"4","last_reported":1727381352,"current_range_meters":20000,"station_id":"ce4bhh12rcd13ifvqff0","pricing_plan_id":"cebpf4jnsgd1na2vs0mg"},{"bike_id":"161f50c7-3de2-4116-a91e-3d856209631f","system_id":"levelo_inurba_marseille","lat":43.2846,"lon":5.35889,"is_reserved":false,"is_disabled":false,"rental_uris":{"android":"levelo://app?vid=161f50c7-3de2-4116-a91e-3d856209631f","ios":"levelo://app?vid=161f50c7-3de2-4116-a91e-3d856209631f"},"vehicle_type_id":"4","last_reported":1727381352,"current_range_meters":40000,"station_id":"ce4bhah2rcd13ifvqei0","pricing_plan_id":"cebpf4jnsgd1na2vs0mg"},{"bike_id":"7737b815-6daf-41f0-8354-4b28ba75917f","system_id":"levelo_inurba_marseille","lat":43.30191,"lon":5.39827,"is_reserved":false,"is_disabled":false,"rental_uris":{"android":"levelo://app?vid=7737b815-6daf-41f0-8354-4b28ba75917f","ios":"levelo://app?vid=7737b815-6daf-41f0-8354-4b28ba75917f"},"vehicle_type_id":"4","last_reported":1727381352,"current_range_meters":10000,"station_id":"ce4bgvp2rcd13ifvqct0","pricing_plan_id":"cebpf4jnsgd1na2vs0mg"},{"bike_id":"a77aa4ba-5b1d-4096-97f2-96622cdc912d","system_id":"levelo_inurba_marseille","lat":43.29093,"lon":5.38133,"is_reserved":false,"is_disabled":false,"rental_uris":{"android":"levelo://app?vid=a77aa4ba-5b1d-4096-97f2-96622cdc912d","ios":"levelo://app?vid=a77aa4ba-5b1d-4096-97f2-96622cdc912d"},"vehicle_type_id":"4","last_reported":1727381352,"current_range_meters":2800,"station_id":"ce4bh512rcd13ifvqe2g","pricing_plan_id":"cebpf4jnsgd1na2vs0mg"},{"bike_id":"b335ca42-7350-4c4c-856e-f46e906ad72e","system_id":"levelo_inurba_marseille","lat":43.29796,"lon":5.40398,"is_reserved":false,"is_disabled":false,"rental_uris":{"android":"levelo://app?vid=b335ca42-7350-4c4c-856e-f46e906ad72e","ios":"levelo://app?vid=b335ca42-7350-4c4c-856e-f46e906ad72e"},"vehicle_type_id":"4","last_reported":1727381352,"current_range_meters":14400,"station_id":"ce4bhr12rcd13ifvqhqg","pricing_plan_id":"cebpf4jnsgd1na2vs0mg"},{"bike_id":"88d037fc-0915-471f-96c9-f90498a9e1f6","system_id":"levelo_inurba_marseille","lat":43.27952,"lon":5.41045,"is_reserved":false,"is_disabled":false,"rental_uris":{"android":"levelo://app?vid=88d037fc-0915-471f-96c9-f90498a9e1f6","ios":"levelo://app?vid=88d037fc-0915-471f-96c9-f90498a9e1f6"},"vehicle_type_id":"4","last_reported":1727381352,"current_range_meters":6400,"station_id":"ce4bhnp2rcd13ifvqh0g","pricing_plan_id":"cebpf4jnsgd1na2vs0mg"},{"bike_id":"05e327c9-1c5c-4040-a72b-eb363239afb1","system_id":"levelo_inurba_marseille","lat":43.29967,"lon":5.37165,"is_reserved":false,"is_disabled":false,"rental_uris":{"android":"levelo://app?vid=05e327c9-1c5c-4040-a72b-eb363239afb1","ios":"levelo://app?vid=05e327c9-1c5c-4040-a72b-eb363239afb1"},"vehicle_type_id":"4","last_reported":1727381352,"current_range_meters":16400,"station_id":"ce4bgr92rcd13ifvqc7g","pricing_plan_id":"cebpf4jnsgd1na2vs0mg"},{"bike_id":"4a4903c7-ffbe-40b4-8008-c3ffec982396","system_id":"levelo_inurba_marseille","lat":43.31534,"lon":5.38028,"is_reserved":false,"is_disabled":false,"rental_uris":{"android":"levelo://app?vid=4a4903c7-ffbe-40b4-8008-c3ffec982396","ios":"levelo://app?vid=4a4903c7-ffbe-40b4-8008-c3ffec982396"},"vehicle_type_id":"4","last_reported":1727381352,"current_range_meters":22000,"station_id":"ce4bhsp2rcd13ifvqi50","pricing_plan_id":"cebpf4jnsgd1na2vs0mg"},{"bike_id":"bea6db5e-059c-49ef-9ccc-86c0e3423fd7","system_id":"levelo_inurba_marseille","lat":43.28101,"lon":5.3784,"is_reserved":false,"is_disabled":false,"rental_uris":{"android":"levelo://app?vid=bea6db5e-059c-49ef-9ccc-86c0e3423fd7","ios":"levelo://app?vid=bea6db5e-059c-49ef-9ccc-86c0e3423fd7"},"vehicle_type_id":"4","last_reported":1727381352,"current_range_meters":38800,"station_id":"ce4bha12rcd13ifvqee0","pricing_plan_id":"cebpf4jnsgd1na2vs0mg"},{"bike_id":"6b18d179-f0b4-41fe-ac47-f38619f1fe44","system_id":"levelo_inurba_marseille","lat":43.27944,"lon":5.41047,"is_reserved":false,"is_disabled":false,"rental_uris":{"android":"levelo://app?vid=6b18d179-f0b4-41fe-ac47-f38619f1fe44","ios":"levelo://app?vid=6b18d179-f0b4-41fe-ac47-f38619f1fe44"},"vehicle_type_id":"4","last_reported":1727381352,"current_range_meters":36400,"station_id":"ce4bhnp2rcd13ifvqh0g","pricing_plan_id":"cebpf4jnsgd1na2vs0mg"},{"bike_id":"b6daf4df-7c90-4c5e-b397-06a87d15013f","system_id":"levelo_inurba_marseille","lat":43.33752,"lon":5.37361,"is_reserved":false,"is_disabled":false,"rental_uris":{"android":"levelo://app?vid=b6daf4df-7c90-4c5e-b397-06a87d15013f","ios":"levelo://app?vid=b6daf4df-7c90-4c5e-b397-06a87d15013f"},"vehicle_type_id":"4","last_reported":1727381352,"current_range_meters":30000,"station_id":"","pricing_plan_id":"cebpf4jnsgd1na2vs0mg"},{"bike_id":"6f4d9edd-1ec7-4e22-95c2-c90fdfe14e83","system_id":"levelo_inurba_marseille","lat":43.29417,"lon":5.3863,"is_reserved":false,"is_disabled":false,"rental_uris":{"android":"levelo://app?vid=6f4d9edd-1ec7-4e22-95c2-c90fdfe14e83","ios":"levelo://app?vid=6f4d9edd-1ec7-4e22-95c2-c90fdfe14e83"},"vehicle_type_id":"4","last_reported":1727381352,"current_range_meters":38800,"station_id":"ce4bh2h2rcd13ifvqdh0","pricing_plan_id":"cebpf4jnsgd1na2vs0mg"},{"bike_id":"d0359957-af2a-4165-98d2-72a519c3add3","system_id":"levelo_inurba_marseille","lat":43.2954,"lon":5.39051,"is_reserved":false,"is_disabled":false,"rental_uris":{"android":"levelo://app?vid=d0359957-af2a-4165-98d2-72a519c3add3","ios":"levelo://app?vid=d0359957-af2a-4165-98d2-72a519c3add3"},"vehicle_type_id":"4","last_reported":1727381352,"current_range_meters":25200,"station_id":"ce4bh3p2rcd13ifvqdp0","pricing_plan_id":"cebpf4jnsgd1na2vs0mg"},{"bike_id":"2208f2d2-78c3-4a52-93a8-ed448f176cb6","system_id":"levelo_inurba_marseille","lat":43.27996,"lon":5.40014,"is_reserved":false,"is_disabled":false,"rental_uris":{"android":"levelo://app?vid=2208f2d2-78c3-4a52-93a8-ed448f176cb6","ios":"levelo://app?vid=2208f2d2-78c3-4a52-93a8-ed448f176cb6"},"vehicle_type_id":"4","last_reported":1727381352,"current_range_meters":39200,"station_id":"ce4bho92rcd13ifvqh4g","pricing_plan_id":"cebpf4jnsgd1na2vs0mg"},{"bike_id":"39203616-5c4d-4645-9968-f1da8a486178","system_id":"levelo_inurba_marseille","lat":43.31081,"lon":5.42432,"is_reserved":false,"is_disabled":false,"rental_uris":{"android":"levelo://app?vid=39203616-5c4d-4645-9968-f1da8a486178","ios":"levelo://app?vid=39203616-5c4d-4645-9968-f1da8a486178"},"vehicle_type_id":"4","last_reported":1727381352,"current_range_meters":9600,"station_id":"ce4bhp92rcd13ifvqhag","pricing_plan_id":"cebpf4jnsgd1na2vs0mg"},{"bike_id":"05400206-38d1-4843-bbc7-ccbf25b7fca7","system_id":"levelo_inurba_marseille","lat":43.29782,"lon":5.39343,"is_reserved":false,"is_disabled":false,"rental_uris":{"android":"levelo://app?vid=05400206-38d1-4843-bbc7-ccbf25b7fca7","ios":"levelo://app?vid=05400206-38d1-4843-bbc7-ccbf25b7fca7"},"vehicle_type_id":"4","last_reported":1727381352,"current_range_meters":30400,"station_id":"chh1huq6cuj3fo74tm60","pricing_plan_id":"cebpf4jnsgd1na2vs0mg"},{"bike_id":"e3c5fbbf-73cf-4f2d-b2d6-f67ffdb80c53","system_id":"levelo_inurba_marseille","lat":43.33021,"lon":5.39039,"is_reserved":false,"is_disabled":false,"rental_uris":{"android":"levelo://app?vid=e3c5fbbf-73cf-4f2d-b2d6-f67ffdb80c53","ios":"levelo://app?vid=e3c5fbbf-73cf-4f2d-b2d6-f67ffdb80c53"},"vehicle_type_id":"4","last_reported":1727381352,"current_range_meters":28000,"station_id":"ce4bhr92rcd13ifvqhrg","pricing_plan_id":"cebpf4jnsgd1na2vs0mg"},{"bike_id":"072de840-456b-4fa2-baa5-bc8fea002d9f","system_id":"levelo_inurba_marseille","lat":43.30314,"lon":5.36903,"is_reserved":false,"is_disabled":false,"rental_uris":{"android":"levelo://app?vid=072de840-456b-4fa2-baa5-bc8fea002d9f","ios":"levelo://app?vid=072de840-456b-4fa2-baa5-bc8fea002d9f"},"vehicle_type_id":"4","last_reported":1727381352,"current_range_meters":7200,"station_id":"ce4bgqh2rcd13ifvqc5g","pricing_plan_id":"cebpf4jnsgd1na2vs0mg"},{"bike_id":"57bc1e84-e83e-4198-85b5-3e7f9c3f0b0b","system_id":"levelo_inurba_marseille","lat":43.24167,"lon":5.36392,"is_reserved":false,"is_disabled":false,"rental_uris":{"android":"levelo://app?vid=57bc1e84-e83e-4198-85b5-3e7f9c3f0b0b","ios":"levelo://app?vid=57bc1e84-e83e-4198-85b5-3e7f9c3f0b0b"},"vehicle_type_id":"4","last_reported":1727381352,"current_range_meters":26000,"station_id":"cpo36qri1sfpv3e86is0","pricing_plan_id":"cebpf4jnsgd1na2vs0mg"},{"bike_id":"7a8458d5-44ac-4f2e-abef-3f01eb31f7ca","system_id":"levelo_inurba_marseille","lat":43.337444,"lon":5.374475,"is_reserved":false,"is_disabled":false,"rental_uris":{"android":"levelo://app?vid=7a8458d5-44ac-4f2e-abef-3f01eb31f7ca","ios":"levelo://app?vid=7a8458d5-44ac-4f2e-abef-3f01eb31f7ca"},"vehicle_type_id":"4","last_reported":1727381352,"current_range_meters":19600,"station_id":"","pricing_plan_id":"cebpf4jnsgd1na2vs0mg"},{"bike_id":"245322ad-98ce-4a03-920e-f8861ea4255a","system_id":"levelo_inurba_marseille","lat":43.2306,"lon":5.35498,"is_reserved":false,"is_disabled":false,"rental_uris":{"android":"levelo://app?vid=245322ad-98ce-4a03-920e-f8861ea4255a","ios":"levelo://app?vid=245322ad-98ce-4a03-920e-f8861ea4255a"},"vehicle_type_id":"4","last_reported":1727381352,"current_range_meters":38800,"station_id":"cpo3342slgdg3j2ifvpg","pricing_plan_id":"cebpf4jnsgd1na2vs0mg"},{"bike_id":"14753c26-020c-4fdf-a910-6bbc6904ea08","system_id":"levelo_inurba_marseille","lat":43.30887,"lon":5.39637,"is_reserved":false,"is_disabled":false,"rental_uris":{"android":"levelo://app?vid=14753c26-020c-4fdf-a910-6bbc6904ea08","ios":"levelo://app?vid=14753c26-020c-4fdf-a910-6bbc6904ea08"},"vehicle_type_id":"4","last_reported":1727381352,"current_range_meters":38800,"station_id":"ce4bh012rcd13ifvqcv0","pricing_plan_id":"cebpf4jnsgd1na2vs0mg"},{"bike_id":"0a4d8f7d-0721-4d62-8eee-660d53a737ff","system_id":"levelo_inurba_marseille","lat":43.29804,"lon":5.40408,"is_reserved":false,"is_disabled":false,"rental_uris":{"android":"levelo://app?vid=0a4d8f7d-0721-4d62-8eee-660d53a737ff","ios":"levelo://app?vid=0a4d8f7d-0721-4d62-8eee-660d53a737ff"},"vehicle_type_id":"4","last_reported":1727381352,"current_range_meters":34800,"station_id":"ce4bh112rcd13ifvqd90","pricing_plan_id":"cebpf4jnsgd1na2vs0mg"},{"bike_id":"cbc39022-057a-4eca-bf59-ff0f10c845ee","system_id":"levelo_inurba_marseille","lat":43.29604,"lon":5.38108,"is_reserved":false,"is_disabled":false,"rental_uris":{"android":"levelo://app?vid=cbc39022-057a-4eca-bf59-ff0f10c845ee","ios":"levelo://app?vid=cbc39022-057a-4eca-bf59-ff0f10c845ee"},"vehicle_type_id":"4","last_reported":1727381352,"current_range_meters":36800,"station_id":"ce4bgl12rcd13ifvqbo0","pricing_plan_id":"cebpf4jnsgd1na2vs0mg"},{"bike_id":"e7dda3a1-01d6-44cd-a598-0858b2812c33","system_id":"levelo_inurba_marseille","lat":43.31881,"lon":5.40737,"is_reserved":false,"is_disabled":false,"rental_uris":{"android":"levelo://app?vid=e7dda3a1-01d6-44cd-a598-0858b2812c33","ios":"levelo://app?vid=e7dda3a1-01d6-44cd-a598-0858b2812c33"},"vehicle_type_id":"4","last_reported":1727381352,"current_range_meters":6000,"station_id":"ce4bhq12rcd13ifvqhig","pricing_plan_id":"cebpf4jnsgd1na2vs0mg"},{"bike_id":"dfcecf59-0ff2-4ae4-a646-4b133ae29c1f","system_id":"levelo_inurba_marseille","lat":43.24545,"lon":5.3953,"is_reserved":false,"is_disabled":false,"rental_uris":{"android":"levelo://app?vid=dfcecf59-0ff2-4ae4-a646-4b133ae29c1f","ios":"levelo://app?vid=dfcecf59-0ff2-4ae4-a646-4b133ae29c1f"},"vehicle_type_id":"4","last_reported":1727381352,"current_range_meters":28400,"station_id":"ce4bhlp2rcd13ifvqgjg","pricing_plan_id":"cebpf4jnsgd1na2vs0mg"},{"bike_id":"50d4ec58-a42a-4450-844b-4e946465e51d","system_id":"levelo_inurba_marseille","lat":43.30801,"lon":5.43528,"is_reserved":false,"is_disabled":false,"rental_uris":{"android":"levelo://app?vid=50d4ec58-a42a-4450-844b-4e946465e51d","ios":"levelo://app?vid=50d4ec58-a42a-4450-844b-4e946465e51d"},"vehicle_type_id":"4","last_reported":1727381352,"current_range_meters":38000,"station_id":"ce4bhph2rcd13ifvqheg","pricing_plan_id":"cebpf4jnsgd1na2vs0mg"},{"bike_id":"8d17f10b-cb18-4a62-9a7c-043318106e2d","system_id":"levelo_inurba_marseille","lat":43.30246,"lon":5.36636,"is_reserved":false,"is_disabled":false,"rental_uris":{"android":"levelo://app?vid=8d17f10b-cb18-4a62-9a7c-043318106e2d","ios":"levelo://app?vid=8d17f10b-cb18-4a62-9a7c-043318106e2d"},"vehicle_type_id":"4","last_reported":1727381352,"current_range_meters":6400,"station_id":"","pricing_plan_id":"cebpf4jnsgd1na2vs0mg"},{"bike_id":"790588e4-e173-42a4-84fc-bcca8ef506d6","system_id":"levelo_inurba_marseille","lat":43.28035,"lon":5.36951,"is_reserved":false,"is_disabled":false,"rental_uris":{"android":"levelo://app?vid=790588e4-e173-42a4-84fc-bcca8ef506d6","ios":"levelo://app?vid=790588e4-e173-42a4-84fc-bcca8ef506d6"},"vehicle_type_id":"4","last_reported":1727381352,"current_range_meters":10800,"station_id":"ce4bha12rcd13ifvqef0","pricing_plan_id":"cebpf4jnsgd1na2vs0mg"},{"bike_id":"9e447e14-76dc-4b8a-a4f8-67888d1051f1","system_id":"levelo_inurba_marseille","lat":43.30085,"lon":5.39087,"is_reserved":false,"is_disabled":false,"rental_uris":{"android":"levelo://app?vid=9e447e14-76dc-4b8a-a4f8-67888d1051f1","ios":"levelo://app?vid=9e447e14-76dc-4b8a-a4f8-67888d1051f1"},"vehicle_type_id":"4","last_reported":1727381352,"current_range_meters":8000,"station_id":"ce4bh192rcd13ifvqdb0","pricing_plan_id":"cebpf4jnsgd1na2vs0mg"},{"bike_id":"ef333548-5b42-4805-a9c0-dab49a7bfdc3","system_id":"levelo_inurba_marseille","lat":43.32478,"lon":5.36565,"is_reserved":false,"is_disabled":false,"rental_uris":{"android":"levelo://app?vid=ef333548-5b42-4805-a9c0-dab49a7bfdc3","ios":"levelo://app?vid=ef333548-5b42-4805-a9c0-dab49a7bfdc3"},"vehicle_type_id":"4","last_reported":1727381352,"current_range_meters":33200,"station_id":"ce4bhs12rcd13ifvqhvg","pricing_plan_id":"cebpf4jnsgd1na2vs0mg"},{"bike_id":"783c8a70-2c1a-4092-a5dc-19654f2dfca0","system_id":"levelo_inurba_marseille","lat":43.3116,"lon":5.38726,"is_reserved":false,"is_disabled":false,"rental_uris":{"android":"levelo://app?vid=783c8a70-2c1a-4092-a5dc-19654f2dfca0","ios":"levelo://app?vid=783c8a70-2c1a-4092-a5dc-19654f2dfca0"},"vehicle_type_id":"4","last_reported":1727381352,"current_range_meters":36000,"station_id":"ce4bgv12rcd13ifvqcp0","pricing_plan_id":"cebpf4jnsgd1na2vs0mg"},{"bike_id":"875c2740-75ad-4355-a457-7bdcf5e2451d","system_id":"levelo_inurba_marseille","lat":43.308,"lon":5.43527,"is_reserved":false,"is_disabled":false,"rental_uris":{"android":"levelo://app?vid=875c2740-75ad-4355-a457-7bdcf5e2451d","ios":"levelo://app?vid=875c2740-75ad-4355-a457-7bdcf5e2451d"},"vehicle_type_id":"4","last_reported":1727381352,"current_range_meters":30000,"station_id":"ce4bhph2rcd13ifvqheg","pricing_plan_id":"cebpf4jnsgd1na2vs0mg"},{"bike_id":"3c6afdf7-67ea-4d82-aceb-813b791a20f5","system_id":"levelo_inurba_marseille","lat":43.29192,"lon":5.35807,"is_reserved":false,"is_disabled":false,"rental_uris":{"android":"levelo://app?vid=3c6afdf7-67ea-4d82-aceb-813b791a20f5","ios":"levelo://app?vid=3c6afdf7-67ea-4d82-aceb-813b791a20f5"},"vehicle_type_id":"4","last_reported":1727381352,"current_range_meters":34000,"station_id":"ce4bhb12rcd13ifvqel0","pricing_plan_id":"cebpf4jnsgd1na2vs0mg"},{"bike_id":"142c61c9-4063-40d3-8fe4-42c7c5816356","system_id":"levelo_inurba_marseille","lat":43.29792,"lon":5.3935,"is_reserved":false,"is_disabled":false,"rental_uris":{"android":"levelo://app?vid=142c61c9-4063-40d3-8fe4-42c7c5816356","ios":"levelo://app?vid=142c61c9-4063-40d3-8fe4-42c7c5816356"},"vehicle_type_id":"4","last_reported":1727381352,"current_range_meters":34000,"station_id":"chh1huq6cuj3fo74tm60","pricing_plan_id":"cebpf4jnsgd1na2vs0mg"},{"bike_id":"ef011b75-ab45-45e9-abc2-e0ba76c75be7","system_id":"levelo_inurba_marseille","lat":43.30788,"lon":5.38149,"is_reserved":false,"is_disabled":false,"rental_uris":{"android":"levelo://app?vid=ef011b75-ab45-45e9-abc2-e0ba76c75be7","ios":"levelo://app?vid=ef011b75-ab45-45e9-abc2-e0ba76c75be7"},"vehicle_type_id":"4","last_reported":1727381352,"current_range_meters":4400,"station_id":"ce4bgt12rcd13ifvqce0","pricing_plan_id":"cebpf4jnsgd1na2vs0mg"},{"bike_id":"d5bbef54-0e76-4d64-bc8a-a1819238d1a7","system_id":"levelo_inurba_marseille","lat":43.23954,"lon":5.3663,"is_reserved":false,"is_disabled":false,"rental_uris":{"android":"levelo://app?vid=d5bbef54-0e76-4d64-bc8a-a1819238d1a7","ios":"levelo://app?vid=d5bbef54-0e76-4d64-bc8a-a1819238d1a7"},"vehicle_type_id":"4","last_reported":1727381352,"current_range_meters":38800,"station_id":"ce4bhi12rcd13ifvqfp0","pricing_plan_id":"cebpf4jnsgd1na2vs0mg"},{"bike_id":"f1195457-8e6e-43a9-b0d4-b55045aaf9cf","system_id":"levelo_inurba_marseille","lat":43.28928,"lon":5.36402,"is_reserved":false,"is_disabled":false,"rental_uris":{"android":"levelo://app?vid=f1195457-8e6e-43a9-b0d4-b55045aaf9cf","ios":"levelo://app?vid=f1195457-8e6e-43a9-b0d4-b55045aaf9cf"},"vehicle_type_id":"4","last_reported":1727381352,"current_range_meters":17200,"station_id":"ce4bhc92rcd13ifvqetg","pricing_plan_id":"cebpf4jnsgd1na2vs0mg"},{"bike_id":"79a05bb1-ccec-47f0-8ebd-1f95854549f8","system_id":"levelo_inurba_marseille","lat":43.31282,"lon":5.380327,"is_reserved":false,"is_disabled":false,"rental_uris":{"android":"levelo://app?vid=79a05bb1-ccec-47f0-8ebd-1f95854549f8","ios":"levelo://app?vid=79a05bb1-ccec-47f0-8ebd-1f95854549f8"},"vehicle_type_id":"4","last_reported":1727381352,"current_range_meters":6000,"station_id":"","pricing_plan_id":"cebpf4jnsgd1na2vs0mg"},{"bike_id":"861ba51c-6a6b-46a6-947c-51f003818291","system_id":"levelo_inurba_marseille","lat":43.32204,"lon":5.38576,"is_reserved":false,"is_disabled":false,"rental_uris":{"android":"levelo://app?vid=861ba51c-6a6b-46a6-947c-51f003818291","ios":"levelo://app?vid=861ba51c-6a6b-46a6-947c-51f003818291"},"vehicle_type_id":"4","last_reported":1727381352,"current_range_meters":10800,"station_id":"","pricing_plan_id":"cebpf4jnsgd1na2vs0mg"},{"bike_id":"761aa52a-9138-4b97-85bc-1796df08ee07","system_id":"levelo_inurba_marseille","lat":43.31758,"lon":5.3902,"is_reserved":false,"is_disabled":false,"rental_uris":{"android":"levelo://app?vid=761aa52a-9138-4b97-85bc-1796df08ee07","ios":"levelo://app?vid=761aa52a-9138-4b97-85bc-1796df08ee07"},"vehicle_type_id":"4","last_reported":1727381352,"current_range_meters":16800,"station_id":"ce4bhqp2rcd13ifvqhng","pricing_plan_id":"cebpf4jnsgd1na2vs0mg"},{"bike_id":"d97fae54-02b5-4551-8f57-d0fe95267e0a","system_id":"levelo_inurba_marseille","lat":43.29797,"lon":5.38098,"is_reserved":false,"is_disabled":false,"rental_uris":{"android":"levelo://app?vid=d97fae54-02b5-4551-8f57-d0fe95267e0a","ios":"levelo://app?vid=d97fae54-02b5-4551-8f57-d0fe95267e0a"},"vehicle_type_id":"4","last_reported":1727381352,"current_range_meters":5600,"station_id":"ce4bgip2rcd13ifvqbb0","pricing_plan_id":"cebpf4jnsgd1na2vs0mg"},{"bike_id":"25c0cae3-0d97-411f-8458-53e10d5c2c92","system_id":"levelo_inurba_marseille","lat":43.29515,"lon":5.39043,"is_reserved":false,"is_disabled":false,"rental_uris":{"android":"levelo://app?vid=25c0cae3-0d97-411f-8458-53e10d5c2c92","ios":"levelo://app?vid=25c0cae3-0d97-411f-8458-53e10d5c2c92"},"vehicle_type_id":"4","last_reported":1727381352,"current_range_meters":9600,"station_id":"ce4bh3p2rcd13ifvqdp0","pricing_plan_id":"cebpf4jnsgd1na2vs0mg"},{"bike_id":"0282177c-4987-4507-8917-7ac400886d26","system_id":"levelo_inurba_marseille","lat":43.29418,"lon":5.38624,"is_reserved":false,"is_disabled":false,"rental_uris":{"android":"levelo://app?vid=0282177c-4987-4507-8917-7ac400886d26","ios":"levelo://app?vid=0282177c-4987-4507-8917-7ac400886d26"},"vehicle_type_id":"4","last_reported":1727381352,"current_range_meters":36400,"station_id":"ce4bh2h2rcd13ifvqdh0","pricing_plan_id":"cebpf4jnsgd1na2vs0mg"},{"bike_id":"a49c9dc3-d8c0-47c3-96bb-45b69d9f632a","system_id":"levelo_inurba_marseille","lat":43.31169,"lon":5.3872,"is_reserved":false,"is_disabled":false,"rental_uris":{"android":"levelo://app?vid=a49c9dc3-d8c0-47c3-96bb-45b69d9f632a","ios":"levelo://app?vid=a49c9dc3-d8c0-47c3-96bb-45b69d9f632a"},"vehicle_type_id":"4","last_reported":1727381352,"current_range_meters":30000,"station_id":"ce4bgv12rcd13ifvqcp0","pricing_plan_id":"cebpf4jnsgd1na2vs0mg"},{"bike_id":"8b8bc4ef-69bf-4b84-aa37-5bbfca53e4ac","system_id":"levelo_inurba_marseille","lat":43.323166,"lon":5.40636,"is_reserved":false,"is_disabled":false,"rental_uris":{"android":"levelo://app?vid=8b8bc4ef-69bf-4b84-aa37-5bbfca53e4ac","ios":"levelo://app?vid=8b8bc4ef-69bf-4b84-aa37-5bbfca53e4ac"},"vehicle_type_id":"4","last_reported":1727381352,"current_range_meters":38800,"station_id":"ce4bhq92rcd13ifvqhjg","pricing_plan_id":"cebpf4jnsgd1na2vs0mg"},{"bike_id":"7e0a9007-8012-421e-aaa3-d3a33f6f9e33","system_id":"levelo_inurba_marseille","lat":43.29566,"lon":5.37532,"is_reserved":false,"is_disabled":false,"rental_uris":{"android":"levelo://app?vid=7e0a9007-8012-421e-aaa3-d3a33f6f9e33","ios":"levelo://app?vid=7e0a9007-8012-421e-aaa3-d3a33f6f9e33"},"vehicle_type_id":"4","last_reported":1727381352,"current_range_meters":6000,"station_id":"ce4bgh92rcd13ifvqb50","pricing_plan_id":"cebpf4jnsgd1na2vs0mg"},{"bike_id":"b3988534-48b4-4085-8577-a04cc8fa7a7b","system_id":"levelo_inurba_marseille","lat":43.2952,"lon":5.39043,"is_reserved":false,"is_disabled":false,"rental_uris":{"android":"levelo://app?vid=b3988534-48b4-4085-8577-a04cc8fa7a7b","ios":"levelo://app?vid=b3988534-48b4-4085-8577-a04cc8fa7a7b"},"vehicle_type_id":"4","last_reported":1727381352,"current_range_meters":39200,"station_id":"ce4bh3p2rcd13ifvqdp0","pricing_plan_id":"cebpf4jnsgd1na2vs0mg"},{"bike_id":"71e28440-7eed-40e6-a853-c14e2d419bc0","system_id":"levelo_inurba_marseille","lat":43.27827,"lon":5.39204,"is_reserved":false,"is_disabled":false,"rental_uris":{"android":"levelo://app?vid=71e28440-7eed-40e6-a853-c14e2d419bc0","ios":"levelo://app?vid=71e28440-7eed-40e6-a853-c14e2d419bc0"},"vehicle_type_id":"4","last_reported":1727381352,"current_range_meters":34000,"station_id":"ce4bhjp2rcd13ifvqga0","pricing_plan_id":"cebpf4jnsgd1na2vs0mg"},{"bike_id":"3a2e2f3b-dc35-4a59-a736-8c191770979e","system_id":"levelo_inurba_marseille","lat":43.25102,"lon":5.40331,"is_reserved":false,"is_disabled":false,"rental_uris":{"android":"levelo://app?vid=3a2e2f3b-dc35-4a59-a736-8c191770979e","ios":"levelo://app?vid=3a2e2f3b-dc35-4a59-a736-8c191770979e"},"vehicle_type_id":"4","last_reported":1727381352,"current_range_meters":37600,"station_id":"ce4bhlh2rcd13ifvqgig","pricing_plan_id":"cebpf4jnsgd1na2vs0mg"},{"bike_id":"7b4c950b-0348-4d3c-802c-870d3fe9c924","system_id":"levelo_inurba_marseille","lat":43.2857,"lon":5.39501,"is_reserved":false,"is_disabled":false,"rental_uris":{"android":"levelo://app?vid=7b4c950b-0348-4d3c-802c-870d3fe9c924","ios":"levelo://app?vid=7b4c950b-0348-4d3c-802c-870d3fe9c924"},"vehicle_type_id":"4","last_reported":1727381352,"current_range_meters":10000,"station_id":"ce4bh292rcd13ifvqdg0","pricing_plan_id":"cebpf4jnsgd1na2vs0mg"},{"bike_id":"6bc299b2-193e-4165-846e-773f89b368a6","system_id":"levelo_inurba_marseille","lat":43.28699,"lon":5.39987,"is_reserved":false,"is_disabled":false,"rental_uris":{"android":"levelo://app?vid=6bc299b2-193e-4165-846e-773f89b368a6","ios":"levelo://app?vid=6bc299b2-193e-4165-846e-773f89b368a6"},"vehicle_type_id":"4","last_reported":1727381352,"current_range_meters":30800,"station_id":"ce4bho92rcd13ifvqh3g","pricing_plan_id":"cebpf4jnsgd1na2vs0mg"},{"bike_id":"f94b22c3-c9c2-49bf-92c5-06c4a88322e5","system_id":"levelo_inurba_marseille","lat":43.29294,"lon":5.374648,"is_reserved":false,"is_disabled":false,"rental_uris":{"android":"levelo://app?vid=f94b22c3-c9c2-49bf-92c5-06c4a88322e5","ios":"levelo://app?vid=f94b22c3-c9c2-49bf-92c5-06c4a88322e5"},"vehicle_type_id":"4","last_reported":1727381352,"current_range_meters":33600,"station_id":"ce4bgi12rcd13ifvqb70","pricing_plan_id":"cebpf4jnsgd1na2vs0mg"},{"bike_id":"8ea19e1d-542e-4c36-8ef4-1214facb9816","system_id":"levelo_inurba_marseille","lat":43.23959,"lon":5.36633,"is_reserved":false,"is_disabled":false,"rental_uris":{"android":"levelo://app?vid=8ea19e1d-542e-4c36-8ef4-1214facb9816","ios":"levelo://app?vid=8ea19e1d-542e-4c36-8ef4-1214facb9816"},"vehicle_type_id":"4","last_reported":1727381352,"current_range_meters":38800,"station_id":"ce4bhi12rcd13ifvqfp0","pricing_plan_id":"cebpf4jnsgd1na2vs0mg"},{"bike_id":"7f1370df-f39e-4ee4-8a1b-57e7005ec530","system_id":"levelo_inurba_marseille","lat":43.27912,"lon":5.39584,"is_reserved":false,"is_disabled":false,"rental_uris":{"android":"levelo://app?vid=7f1370df-f39e-4ee4-8a1b-57e7005ec530","ios":"levelo://app?vid=7f1370df-f39e-4ee4-8a1b-57e7005ec530"},"vehicle_type_id":"4","last_reported":1727381352,"current_range_meters":34000,"station_id":"ce4bhf92rcd13ifvqf40","pricing_plan_id":"cebpf4jnsgd1na2vs0mg"},{"bike_id":"ef2985a4-45df-474f-9ca1-5820caae9549","system_id":"levelo_inurba_marseille","lat":43.28102,"lon":5.37841,"is_reserved":false,"is_disabled":false,"rental_uris":{"android":"levelo://app?vid=ef2985a4-45df-474f-9ca1-5820caae9549","ios":"levelo://app?vid=ef2985a4-45df-474f-9ca1-5820caae9549"},"vehicle_type_id":"4","last_reported":1727381352,"current_range_meters":38800,"station_id":"ce4bha12rcd13ifvqee0","pricing_plan_id":"cebpf4jnsgd1na2vs0mg"},{"bike_id":"79ab7e98-f1a8-4338-adae-1597d492bbd6","system_id":"levelo_inurba_marseille","lat":43.29529,"lon":5.38549,"is_reserved":false,"is_disabled":false,"rental_uris":{"android":"levelo://app?vid=79ab7e98-f1a8-4338-adae-1597d492bbd6","ios":"levelo://app?vid=79ab7e98-f1a8-4338-adae-1597d492bbd6"},"vehicle_type_id":"4","last_reported":1727381352,"current_range_meters":22800,"station_id":"ce4bgih2rcd13ifvqba0","pricing_plan_id":"cebpf4jnsgd1na2vs0mg"},{"bike_id":"f3bf7448-e739-4978-bd33-4a56cc415f41","system_id":"levelo_inurba_marseille","lat":43.37244,"lon":5.36785,"is_reserved":false,"is_disabled":false,"rental_uris":{"android":"levelo://app?vid=f3bf7448-e739-4978-bd33-4a56cc415f41","ios":"levelo://app?vid=f3bf7448-e739-4978-bd33-4a56cc415f41"},"vehicle_type_id":"4","last_reported":1727381352,"current_range_meters":23200,"station_id":"","pricing_plan_id":"cebpf4jnsgd1na2vs0mg"},{"bike_id":"a0b4e1dc-b2d5-4e1d-a6e2-2b1fa04ed91c","system_id":"levelo_inurba_marseille","lat":43.28033,"lon":5.36947,"is_reserved":false,"is_disabled":false,"rental_uris":{"android":"levelo://app?vid=a0b4e1dc-b2d5-4e1d-a6e2-2b1fa04ed91c","ios":"levelo://app?vid=a0b4e1dc-b2d5-4e1d-a6e2-2b1fa04ed91c"},"vehicle_type_id":"4","last_reported":1727381352,"current_range_meters":36400,"station_id":"ce4bha12rcd13ifvqef0","pricing_plan_id":"cebpf4jnsgd1na2vs0mg"},{"bike_id":"72d84b55-dafb-479b-a105-86e3c32cdd18","system_id":"levelo_inurba_marseille","lat":43.30895,"lon":5.39643,"is_reserved":false,"is_disabled":false,"rental_uris":{"android":"levelo://app?vid=72d84b55-dafb-479b-a105-86e3c32cdd18","ios":"levelo://app?vid=72d84b55-dafb-479b-a105-86e3c32cdd18"},"vehicle_type_id":"4","last_reported":1727381352,"current_range_meters":35600,"station_id":"ce4bh012rcd13ifvqcv0","pricing_plan_id":"cebpf4jnsgd1na2vs0mg"},{"bike_id":"6f5b9933-4f25-4b2a-91d0-7fb9c1161cb7","system_id":"levelo_inurba_marseille","lat":43.25086,"lon":5.39527,"is_reserved":false,"is_disabled":false,"rental_uris":{"android":"levelo://app?vid=6f5b9933-4f25-4b2a-91d0-7fb9c1161cb7","ios":"levelo://app?vid=6f5b9933-4f25-4b2a-91d0-7fb9c1161cb7"},"vehicle_type_id":"4","last_reported":1727381352,"current_range_meters":32000,"station_id":"ce4bhm12rcd13ifvqgkg","pricing_plan_id":"cebpf4jnsgd1na2vs0mg"},{"bike_id":"4911c1c3-3646-4459-9b19-a460081760ab","system_id":"levelo_inurba_marseille","lat":43.29597,"lon":5.38109,"is_reserved":false,"is_disabled":false,"rental_uris":{"android":"levelo://app?vid=4911c1c3-3646-4459-9b19-a460081760ab","ios":"levelo://app?vid=4911c1c3-3646-4459-9b19-a460081760ab"},"vehicle_type_id":"4","last_reported":1727381352,"current_range_meters":9600,"station_id":"ce4bgl12rcd13ifvqbo0","pricing_plan_id":"cebpf4jnsgd1na2vs0mg"},{"bike_id":"99f19225-6a8b-42bf-95a4-a800fe81202c","system_id":"levelo_inurba_marseille","lat":43.31079,"lon":5.42429,"is_reserved":false,"is_disabled":false,"rental_uris":{"android":"levelo://app?vid=99f19225-6a8b-42bf-95a4-a800fe81202c","ios":"levelo://app?vid=99f19225-6a8b-42bf-95a4-a800fe81202c"},"vehicle_type_id":"4","last_reported":1727381352,"current_range_meters":17600,"station_id":"ce4bhp92rcd13ifvqhag","pricing_plan_id":"cebpf4jnsgd1na2vs0mg"},{"bike_id":"49d333ae-18b7-434f-a99d-4a3f637da9f5","system_id":"levelo_inurba_marseille","lat":43.28041,"lon":5.36951,"is_reserved":false,"is_disabled":false,"rental_uris":{"android":"levelo://app?vid=49d333ae-18b7-434f-a99d-4a3f637da9f5","ios":"levelo://app?vid=49d333ae-18b7-434f-a99d-4a3f637da9f5"},"vehicle_type_id":"4","last_reported":1727381352,"current_range_meters":16400,"station_id":"ce4bha12rcd13ifvqef0","pricing_plan_id":"cebpf4jnsgd1na2vs0mg"},{"bike_id":"39fa4c55-ba59-4795-b216-bdba84781c79","system_id":"levelo_inurba_marseille","lat":43.28461,"lon":5.35887,"is_reserved":false,"is_disabled":false,"rental_uris":{"android":"levelo://app?vid=39fa4c55-ba59-4795-b216-bdba84781c79","ios":"levelo://app?vid=39fa4c55-ba59-4795-b216-bdba84781c79"},"vehicle_type_id":"4","last_reported":1727381352,"current_range_meters":7200,"station_id":"ce4bhah2rcd13ifvqei0","pricing_plan_id":"cebpf4jnsgd1na2vs0mg"},{"bike_id":"b59f21eb-eec1-4035-b55e-7017d2289d0f","system_id":"levelo_inurba_marseille","lat":43.32334,"lon":5.4062,"is_reserved":false,"is_disabled":false,"rental_uris":{"android":"levelo://app?vid=b59f21eb-eec1-4035-b55e-7017d2289d0f","ios":"levelo://app?vid=b59f21eb-eec1-4035-b55e-7017d2289d0f"},"vehicle_type_id":"4","last_reported":1727381352,"current_range_meters":23200,"station_id":"ce4bhq92rcd13ifvqhjg","pricing_plan_id":"cebpf4jnsgd1na2vs0mg"},{"bike_id":"70acd5c0-9696-40e2-886a-cd10e0aba86d","system_id":"levelo_inurba_marseille","lat":43.25869,"lon":5.39895,"is_reserved":false,"is_disabled":false,"rental_uris":{"android":"levelo://app?vid=70acd5c0-9696-40e2-886a-cd10e0aba86d","ios":"levelo://app?vid=70acd5c0-9696-40e2-886a-cd10e0aba86d"},"vehicle_type_id":"4","last_reported":1727381352,"current_range_meters":10800,"station_id":"ce4bhl92rcd13ifvqghg","pricing_plan_id":"cebpf4jnsgd1na2vs0mg"},{"bike_id":"4815afab-f1b4-4152-90e3-b9fc5c00bd49","system_id":"levelo_inurba_marseille","lat":43.25002,"lon":5.38914,"is_reserved":false,"is_disabled":false,"rental_uris":{"android":"levelo://app?vid=4815afab-f1b4-4152-90e3-b9fc5c00bd49","ios":"levelo://app?vid=4815afab-f1b4-4152-90e3-b9fc5c00bd49"},"vehicle_type_id":"4","last_reported":1727381352,"current_range_meters":38400,"station_id":"ce4bhgp2rcd13ifvqfd0","pricing_plan_id":"cebpf4jnsgd1na2vs0mg"},{"bike_id":"7019cc62-e926-4458-9d07-ded9133cb481","system_id":"levelo_inurba_marseille","lat":43.23185,"lon":5.39985,"is_reserved":false,"is_disabled":false,"rental_uris":{"android":"levelo://app?vid=7019cc62-e926-4458-9d07-ded9133cb481","ios":"levelo://app?vid=7019cc62-e926-4458-9d07-ded9133cb481"},"vehicle_type_id":"4","last_reported":1727381352,"current_range_meters":38000,"station_id":"ce4bhn12rcd13ifvqgqg","pricing_plan_id":"cebpf4jnsgd1na2vs0mg"},{"bike_id":"a051b9ab-2421-48f5-87d8-ad6c6aeb57fe","system_id":"levelo_inurba_marseille","lat":43.2808,"lon":5.39662,"is_reserved":false,"is_disabled":false,"rental_uris":{"android":"levelo://app?vid=a051b9ab-2421-48f5-87d8-ad6c6aeb57fe","ios":"levelo://app?vid=a051b9ab-2421-48f5-87d8-ad6c6aeb57fe"},"vehicle_type_id":"4","last_reported":1727381352,"current_range_meters":17600,"station_id":"","pricing_plan_id":"cebpf4jnsgd1na2vs0mg"},{"bike_id":"5d4d9331-0521-46e6-984d-80fe60aacede","system_id":"levelo_inurba_marseille","lat":43.29793,"lon":5.38103,"is_reserved":false,"is_disabled":false,"rental_uris":{"android":"levelo://app?vid=5d4d9331-0521-46e6-984d-80fe60aacede","ios":"levelo://app?vid=5d4d9331-0521-46e6-984d-80fe60aacede"},"vehicle_type_id":"4","last_reported":1727381352,"current_range_meters":8800,"station_id":"ce4bgip2rcd13ifvqbb0","pricing_plan_id":"cebpf4jnsgd1na2vs0mg"},{"bike_id":"d4c76aee-094b-4e67-93eb-876e3e7161ba","system_id":"levelo_inurba_marseille","lat":43.2293,"lon":5.35376,"is_reserved":false,"is_disabled":false,"rental_uris":{"android":"levelo://app?vid=d4c76aee-094b-4e67-93eb-876e3e7161ba","ios":"levelo://app?vid=d4c76aee-094b-4e67-93eb-876e3e7161ba"},"vehicle_type_id":"4","last_reported":1727381352,"current_range_meters":16000,"station_id":"cpo3532slgdg3j2ikp40","pricing_plan_id":"cebpf4jnsgd1na2vs0mg"},{"bike_id":"8b04f04a-6ffd-430f-9c18-f3246b841ea7","system_id":"levelo_inurba_marseille","lat":43.30487,"lon":5.37895,"is_reserved":false,"is_disabled":false,"rental_uris":{"android":"levelo://app?vid=8b04f04a-6ffd-430f-9c18-f3246b841ea7","ios":"levelo://app?vid=8b04f04a-6ffd-430f-9c18-f3246b841ea7"},"vehicle_type_id":"4","last_reported":1727381352,"current_range_meters":38800,"station_id":"ce4bgup2rcd13ifvqcn0","pricing_plan_id":"cebpf4jnsgd1na2vs0mg"},{"bike_id":"84370e09-0017-4c8b-9c58-8c7e88a8d174","system_id":"levelo_inurba_marseille","lat":43.30931,"lon":5.40148,"is_reserved":false,"is_disabled":false,"rental_uris":{"android":"levelo://app?vid=84370e09-0017-4c8b-9c58-8c7e88a8d174","ios":"levelo://app?vid=84370e09-0017-4c8b-9c58-8c7e88a8d174"},"vehicle_type_id":"4","last_reported":1727381352,"current_range_meters":16800,"station_id":"ce4bgvp2rcd13ifvqct0","pricing_plan_id":"cebpf4jnsgd1na2vs0mg"},{"bike_id":"400094b1-46e6-4f2a-aa5a-b06392acb64a","system_id":"levelo_inurba_marseille","lat":43.3135,"lon":5.38497,"is_reserved":false,"is_disabled":false,"rental_uris":{"android":"levelo://app?vid=400094b1-46e6-4f2a-aa5a-b06392acb64a","ios":"levelo://app?vid=400094b1-46e6-4f2a-aa5a-b06392acb64a"},"vehicle_type_id":"4","last_reported":1727381352,"current_range_meters":12800,"station_id":"ce4bgvp2rcd13ifvqct0","pricing_plan_id":"cebpf4jnsgd1na2vs0mg"},{"bike_id":"dd24f31c-4320-4b08-ae4c-23a293095d46","system_id":"levelo_inurba_marseille","lat":43.28407,"lon":5.37511,"is_reserved":false,"is_disabled":false,"rental_uris":{"android":"levelo://app?vid=dd24f31c-4320-4b08-ae4c-23a293095d46","ios":"levelo://app?vid=dd24f31c-4320-4b08-ae4c-23a293095d46"},"vehicle_type_id":"4","last_reported":1727381352,"current_range_meters":33600,"station_id":"ce4bh412rcd13ifvqds0","pricing_plan_id":"cebpf4jnsgd1na2vs0mg"},{"bike_id":"12bb2fa0-def4-44f9-9009-061dd94ed221","system_id":"levelo_inurba_marseille","lat":43.24161,"lon":5.36396,"is_reserved":false,"is_disabled":false,"rental_uris":{"android":"levelo://app?vid=12bb2fa0-def4-44f9-9009-061dd94ed221","ios":"levelo://app?vid=12bb2fa0-def4-44f9-9009-061dd94ed221"},"vehicle_type_id":"4","last_reported":1727381352,"current_range_meters":6800,"station_id":"cpo36qri1sfpv3e86is0","pricing_plan_id":"cebpf4jnsgd1na2vs0mg"},{"bike_id":"482d2ccb-541e-4986-9b9e-ad76907d837e","system_id":"levelo_inurba_marseille","lat":43.30928,"lon":5.40139,"is_reserved":false,"is_disabled":false,"rental_uris":{"android":"levelo://app?vid=482d2ccb-541e-4986-9b9e-ad76907d837e","ios":"levelo://app?vid=482d2ccb-541e-4986-9b9e-ad76907d837e"},"vehicle_type_id":"4","last_reported":1727381352,"current_range_meters":24000,"station_id":"ce4bgvp2rcd13ifvqct0","pricing_plan_id":"cebpf4jnsgd1na2vs0mg"},{"bike_id":"726925fe-f680-4251-a8e7-69f3b4503bfa","system_id":"levelo_inurba_marseille","lat":43.26679,"lon":5.38274,"is_reserved":false,"is_disabled":false,"rental_uris":{"android":"levelo://app?vid=726925fe-f680-4251-a8e7-69f3b4503bfa","ios":"levelo://app?vid=726925fe-f680-4251-a8e7-69f3b4503bfa"},"vehicle_type_id":"4","last_reported":1727381352,"current_range_meters":38800,"station_id":"ce4bhg92rcd13ifvqf90","pricing_plan_id":"cebpf4jnsgd1na2vs0mg"},{"bike_id":"1963a3a8-a24d-4561-9cd5-81c47c89ed6f","system_id":"levelo_inurba_marseille","lat":43.30934,"lon":5.4015,"is_reserved":false,"is_disabled":false,"rental_uris":{"android":"levelo://app?vid=1963a3a8-a24d-4561-9cd5-81c47c89ed6f","ios":"levelo://app?vid=1963a3a8-a24d-4561-9cd5-81c47c89ed6f"},"vehicle_type_id":"4","last_reported":1727381352,"current_range_meters":38800,"station_id":"ce4bgvp2rcd13ifvqct0","pricing_plan_id":"cebpf4jnsgd1na2vs0mg"},{"bike_id":"2fa4e863-f391-4c61-8cc8-b40030af54e9","system_id":"levelo_inurba_marseille","lat":43.29534,"lon":5.38545,"is_reserved":false,"is_disabled":false,"rental_uris":{"android":"levelo://app?vid=2fa4e863-f391-4c61-8cc8-b40030af54e9","ios":"levelo://app?vid=2fa4e863-f391-4c61-8cc8-b40030af54e9"},"vehicle_type_id":"4","last_reported":1727381352,"current_range_meters":28800,"station_id":"ce4bgih2rcd13ifvqba0","pricing_plan_id":"cebpf4jnsgd1na2vs0mg"},{"bike_id":"6638bfbc-e341-409c-94ed-cb6318eaee99","system_id":"levelo_inurba_marseille","lat":43.27184,"lon":5.40996,"is_reserved":false,"is_disabled":false,"rental_uris":{"android":"levelo://app?vid=6638bfbc-e341-409c-94ed-cb6318eaee99","ios":"levelo://app?vid=6638bfbc-e341-409c-94ed-cb6318eaee99"},"vehicle_type_id":"4","last_reported":1727381352,"current_range_meters":8800,"station_id":"ce4bhl12rcd13ifvqgf0","pricing_plan_id":"cebpf4jnsgd1na2vs0mg"},{"bike_id":"637beff3-55bd-4f15-99c0-4cb53d5dddb9","system_id":"levelo_inurba_marseille","lat":43.30661,"lon":5.39542,"is_reserved":false,"is_disabled":false,"rental_uris":{"android":"levelo://app?vid=637beff3-55bd-4f15-99c0-4cb53d5dddb9","ios":"levelo://app?vid=637beff3-55bd-4f15-99c0-4cb53d5dddb9"},"vehicle_type_id":"4","last_reported":1727381352,"current_range_meters":36000,"station_id":"","pricing_plan_id":"cebpf4jnsgd1na2vs0mg"},{"bike_id":"166d3025-903c-4128-9393-b436a9d6906e","system_id":"levelo_inurba_marseille","lat":43.28469,"lon":5.35887,"is_reserved":false,"is_disabled":false,"rental_uris":{"android":"levelo://app?vid=166d3025-903c-4128-9393-b436a9d6906e","ios":"levelo://app?vid=166d3025-903c-4128-9393-b436a9d6906e"},"vehicle_type_id":"4","last_reported":1727381352,"current_range_meters":38800,"station_id":"","pricing_plan_id":"cebpf4jnsgd1na2vs0mg"},{"bike_id":"b29c589a-eff5-4e9f-831e-3270baa75953","system_id":"levelo_inurba_marseille","lat":43.269483,"lon":5.402539,"is_reserved":false,"is_disabled":false,"rental_uris":{"android":"levelo://app?vid=b29c589a-eff5-4e9f-831e-3270baa75953","ios":"levelo://app?vid=b29c589a-eff5-4e9f-831e-3270baa75953"},"vehicle_type_id":"4","last_reported":1727381352,"current_range_meters":38800,"station_id":"cjm6bp8fraef2m0cb0m0","pricing_plan_id":"cebpf4jnsgd1na2vs0mg"},{"bike_id":"168b71d5-c913-4524-bffd-d0f42d904aff","system_id":"levelo_inurba_marseille","lat":43.31688,"lon":5.40474,"is_reserved":false,"is_disabled":false,"rental_uris":{"android":"levelo://app?vid=168b71d5-c913-4524-bffd-d0f42d904aff","ios":"levelo://app?vid=168b71d5-c913-4524-bffd-d0f42d904aff"},"vehicle_type_id":"4","last_reported":1727381352,"current_range_meters":6400,"station_id":"ce4bh012rcd13ifvqd00","pricing_plan_id":"cebpf4jnsgd1na2vs0mg"},{"bike_id":"e8a05d63-976c-40d4-a83d-e166ed282b6b","system_id":"levelo_inurba_marseille","lat":43.29528,"lon":5.38551,"is_reserved":false,"is_disabled":false,"rental_uris":{"android":"levelo://app?vid=e8a05d63-976c-40d4-a83d-e166ed282b6b","ios":"levelo://app?vid=e8a05d63-976c-40d4-a83d-e166ed282b6b"},"vehicle_type_id":"4","last_reported":1727381352,"current_range_meters":17600,"station_id":"ce4bgih2rcd13ifvqba0","pricing_plan_id":"cebpf4jnsgd1na2vs0mg"},{"bike_id":"4fec9103-b71a-46de-8574-fb61a5235fc9","system_id":"levelo_inurba_marseille","lat":43.28934,"lon":5.36398,"is_reserved":false,"is_disabled":false,"rental_uris":{"android":"levelo://app?vid=4fec9103-b71a-46de-8574-fb61a5235fc9","ios":"levelo://app?vid=4fec9103-b71a-46de-8574-fb61a5235fc9"},"vehicle_type_id":"4","last_reported":1727381352,"current_range_meters":38800,"station_id":"ce4bhc92rcd13ifvqetg","pricing_plan_id":"cebpf4jnsgd1na2vs0mg"},{"bike_id":"bea8c30d-04c5-4d13-9f73-d7954cd03f95","system_id":"levelo_inurba_marseille","lat":43.30129,"lon":5.39859,"is_reserved":false,"is_disabled":false,"rental_uris":{"android":"levelo://app?vid=bea8c30d-04c5-4d13-9f73-d7954cd03f95","ios":"levelo://app?vid=bea8c30d-04c5-4d13-9f73-d7954cd03f95"},"vehicle_type_id":"4","last_reported":1727381352,"current_range_meters":38800,"station_id":"ce4bh012rcd13ifvqd00","pricing_plan_id":"cebpf4jnsgd1na2vs0mg"},{"bike_id":"303bc237-67af-41c9-af29-05f39f506a1f","system_id":"levelo_inurba_marseille","lat":43.28039,"lon":5.36942,"is_reserved":false,"is_disabled":false,"rental_uris":{"android":"levelo://app?vid=303bc237-67af-41c9-af29-05f39f506a1f","ios":"levelo://app?vid=303bc237-67af-41c9-af29-05f39f506a1f"},"vehicle_type_id":"4","last_reported":1727381352,"current_range_meters":38000,"station_id":"ce4bha12rcd13ifvqef0","pricing_plan_id":"cebpf4jnsgd1na2vs0mg"},{"bike_id":"bff25a0d-8a8c-4efb-8bcc-4c346ba48ffa","system_id":"levelo_inurba_marseille","lat":43.29707,"lon":5.37944,"is_reserved":false,"is_disabled":false,"rental_uris":{"android":"levelo://app?vid=bff25a0d-8a8c-4efb-8bcc-4c346ba48ffa","ios":"levelo://app?vid=bff25a0d-8a8c-4efb-8bcc-4c346ba48ffa"},"vehicle_type_id":"4","last_reported":1727381352,"current_range_meters":12400,"station_id":"","pricing_plan_id":"cebpf4jnsgd1na2vs0mg"},{"bike_id":"bbc14a55-4124-4b7f-89e7-83ab6d28e45f","system_id":"levelo_inurba_marseille","lat":43.2926,"lon":5.40905,"is_reserved":false,"is_disabled":false,"rental_uris":{"android":"levelo://app?vid=bbc14a55-4124-4b7f-89e7-83ab6d28e45f","ios":"levelo://app?vid=bbc14a55-4124-4b7f-89e7-83ab6d28e45f"},"vehicle_type_id":"4","last_reported":1727381352,"current_range_meters":38800,"station_id":"ce4bh192rcd13ifvqdc0","pricing_plan_id":"cebpf4jnsgd1na2vs0mg"},{"bike_id":"08b6fc69-0806-4fde-bdca-f408f7dad4d4","system_id":"levelo_inurba_marseille","lat":43.29875,"lon":5.38906,"is_reserved":false,"is_disabled":false,"rental_uris":{"android":"levelo://app?vid=08b6fc69-0806-4fde-bdca-f408f7dad4d4","ios":"levelo://app?vid=08b6fc69-0806-4fde-bdca-f408f7dad4d4"},"vehicle_type_id":"4","last_reported":1727381352,"current_range_meters":39200,"station_id":"ce4bh392rcd13ifvqdl0","pricing_plan_id":"cebpf4jnsgd1na2vs0mg"},{"bike_id":"c15e49a9-34e1-4797-9230-3d0f12892c9d","system_id":"levelo_inurba_marseille","lat":43.26403,"lon":5.393008,"is_reserved":false,"is_disabled":false,"rental_uris":{"android":"levelo://app?vid=c15e49a9-34e1-4797-9230-3d0f12892c9d","ios":"levelo://app?vid=c15e49a9-34e1-4797-9230-3d0f12892c9d"},"vehicle_type_id":"4","last_reported":1727381352,"current_range_meters":8000,"station_id":"ce4bhm12rcd13ifvqgkg","pricing_plan_id":"cebpf4jnsgd1na2vs0mg"},{"bike_id":"f10a5035-903d-4479-8d74-c50f84ef5843","system_id":"levelo_inurba_marseille","lat":43.30743,"lon":5.39509,"is_reserved":false,"is_disabled":false,"rental_uris":{"android":"levelo://app?vid=f10a5035-903d-4479-8d74-c50f84ef5843","ios":"levelo://app?vid=f10a5035-903d-4479-8d74-c50f84ef5843"},"vehicle_type_id":"4","last_reported":1727381352,"current_range_meters":8000,"station_id":"ce4bh012rcd13ifvqcv0","pricing_plan_id":"cebpf4jnsgd1na2vs0mg"},{"bike_id":"33f3bfe3-2aa8-4125-9d14-1152b08ac862","system_id":"levelo_inurba_marseille","lat":43.31711,"lon":5.37761,"is_reserved":false,"is_disabled":false,"rental_uris":{"android":"levelo://app?vid=33f3bfe3-2aa8-4125-9d14-1152b08ac862","ios":"levelo://app?vid=33f3bfe3-2aa8-4125-9d14-1152b08ac862"},"vehicle_type_id":"4","last_reported":1727381352,"current_range_meters":28800,"station_id":"ce4bgth2rcd13ifvqch0","pricing_plan_id":"cebpf4jnsgd1na2vs0mg"},{"bike_id":"af13fa07-e491-4b91-bfbc-8092fe31d7ef","system_id":"levelo_inurba_marseille","lat":43.28696,"lon":5.37388,"is_reserved":false,"is_disabled":false,"rental_uris":{"android":"levelo://app?vid=af13fa07-e491-4b91-bfbc-8092fe31d7ef","ios":"levelo://app?vid=af13fa07-e491-4b91-bfbc-8092fe31d7ef"},"vehicle_type_id":"4","last_reported":1727381352,"current_range_meters":28800,"station_id":"ce4bh3p2rcd13ifvqdq0","pricing_plan_id":"cebpf4jnsgd1na2vs0mg"},{"bike_id":"c3f0ad9d-cf46-41d3-96b2-5b940afe9c37","system_id":"levelo_inurba_marseille","lat":43.28856,"lon":5.3585,"is_reserved":false,"is_disabled":false,"rental_uris":{"android":"levelo://app?vid=c3f0ad9d-cf46-41d3-96b2-5b940afe9c37","ios":"levelo://app?vid=c3f0ad9d-cf46-41d3-96b2-5b940afe9c37"},"vehicle_type_id":"4","last_reported":1727381352,"current_range_meters":10000,"station_id":"ce4bhb12rcd13ifvqem0","pricing_plan_id":"cebpf4jnsgd1na2vs0mg"},{"bike_id":"aae4f977-38a1-41b5-8422-639b50017108","system_id":"levelo_inurba_marseille","lat":43.29716,"lon":5.36616,"is_reserved":false,"is_disabled":false,"rental_uris":{"android":"levelo://app?vid=aae4f977-38a1-41b5-8422-639b50017108","ios":"levelo://app?vid=aae4f977-38a1-41b5-8422-639b50017108"},"vehicle_type_id":"4","last_reported":1727381352,"current_range_meters":24800,"station_id":"ce4bgn12rcd13ifvqbt0","pricing_plan_id":"cebpf4jnsgd1na2vs0mg"},{"bike_id":"51363d7b-c8d8-48c3-aca5-57a8922e1c2c","system_id":"levelo_inurba_marseille","lat":43.24995,"lon":5.38935,"is_reserved":false,"is_disabled":false,"rental_uris":{"android":"levelo://app?vid=51363d7b-c8d8-48c3-aca5-57a8922e1c2c","ios":"levelo://app?vid=51363d7b-c8d8-48c3-aca5-57a8922e1c2c"},"vehicle_type_id":"4","last_reported":1727381352,"current_range_meters":24400,"station_id":"ce4bhgp2rcd13ifvqfd0","pricing_plan_id":"cebpf4jnsgd1na2vs0mg"},{"bike_id":"2afe1e35-e1da-46f4-b324-24f3f1a05644","system_id":"levelo_inurba_marseille","lat":43.29416,"lon":5.38632,"is_reserved":false,"is_disabled":false,"rental_uris":{"android":"levelo://app?vid=2afe1e35-e1da-46f4-b324-24f3f1a05644","ios":"levelo://app?vid=2afe1e35-e1da-46f4-b324-24f3f1a05644"},"vehicle_type_id":"4","last_reported":1727381352,"current_range_meters":38800,"station_id":"ce4bh2h2rcd13ifvqdh0","pricing_plan_id":"cebpf4jnsgd1na2vs0mg"},{"bike_id":"c419f4e8-fc0c-4376-be4e-721093a43fae","system_id":"levelo_inurba_marseille","lat":43.2869,"lon":5.37402,"is_reserved":false,"is_disabled":false,"rental_uris":{"android":"levelo://app?vid=c419f4e8-fc0c-4376-be4e-721093a43fae","ios":"levelo://app?vid=c419f4e8-fc0c-4376-be4e-721093a43fae"},"vehicle_type_id":"4","last_reported":1727381352,"current_range_meters":11200,"station_id":"ce4bh3p2rcd13ifvqdq0","pricing_plan_id":"cebpf4jnsgd1na2vs0mg"},{"bike_id":"e3d2c058-0a8c-483b-9905-3ea199de1b2a","system_id":"levelo_inurba_marseille","lat":43.29279,"lon":5.40119,"is_reserved":false,"is_disabled":false,"rental_uris":{"android":"levelo://app?vid=e3d2c058-0a8c-483b-9905-3ea199de1b2a","ios":"levelo://app?vid=e3d2c058-0a8c-483b-9905-3ea199de1b2a"},"vehicle_type_id":"4","last_reported":1727381352,"current_range_meters":5600,"station_id":"ce4bh312rcd13ifvqdk0","pricing_plan_id":"cebpf4jnsgd1na2vs0mg"},{"bike_id":"a41f7486-3dc5-46b3-b695-44170138137f","system_id":"levelo_inurba_marseille","lat":43.29284,"lon":5.40124,"is_reserved":false,"is_disabled":false,"rental_uris":{"android":"levelo://app?vid=a41f7486-3dc5-46b3-b695-44170138137f","ios":"levelo://app?vid=a41f7486-3dc5-46b3-b695-44170138137f"},"vehicle_type_id":"4","last_reported":1727381352,"current_range_meters":26800,"station_id":"ce4bh312rcd13ifvqdk0","pricing_plan_id":"cebpf4jnsgd1na2vs0mg"},{"bike_id":"93bfcfed-836b-472e-9323-c10053d4ad1c","system_id":"levelo_inurba_marseille","lat":43.2971,"lon":5.36621,"is_reserved":false,"is_disabled":false,"rental_uris":{"android":"levelo://app?vid=93bfcfed-836b-472e-9323-c10053d4ad1c","ios":"levelo://app?vid=93bfcfed-836b-472e-9323-c10053d4ad1c"},"vehicle_type_id":"4","last_reported":1727381352,"current_range_meters":26000,"station_id":"ce4bgn12rcd13ifvqbt0","pricing_plan_id":"cebpf4jnsgd1na2vs0mg"},{"bike_id":"3db0ea48-7185-4466-8077-05e0b8fb4ef2","system_id":"levelo_inurba_marseille","lat":43.29413,"lon":5.38626,"is_reserved":false,"is_disabled":false,"rental_uris":{"android":"levelo://app?vid=3db0ea48-7185-4466-8077-05e0b8fb4ef2","ios":"levelo://app?vid=3db0ea48-7185-4466-8077-05e0b8fb4ef2"},"vehicle_type_id":"4","last_reported":1727381352,"current_range_meters":26800,"station_id":"ce4bh2h2rcd13ifvqdh0","pricing_plan_id":"cebpf4jnsgd1na2vs0mg"},{"bike_id":"7c49b807-133c-46de-8193-d55c57d208f6","system_id":"levelo_inurba_marseille","lat":43.30315,"lon":5.40443,"is_reserved":false,"is_disabled":false,"rental_uris":{"android":"levelo://app?vid=7c49b807-133c-46de-8193-d55c57d208f6","ios":"levelo://app?vid=7c49b807-133c-46de-8193-d55c57d208f6"},"vehicle_type_id":"4","last_reported":1727381352,"current_range_meters":25600,"station_id":"ce4bh012rcd13ifvqd10","pricing_plan_id":"cebpf4jnsgd1na2vs0mg"},{"bike_id":"9f8b9e58-e8da-46e4-8e09-654dd3b908c8","system_id":"levelo_inurba_marseille","lat":43.29415,"lon":5.38621,"is_reserved":false,"is_disabled":false,"rental_uris":{"android":"levelo://app?vid=9f8b9e58-e8da-46e4-8e09-654dd3b908c8","ios":"levelo://app?vid=9f8b9e58-e8da-46e4-8e09-654dd3b908c8"},"vehicle_type_id":"4","last_reported":1727381352,"current_range_meters":10800,"station_id":"ce4bh2h2rcd13ifvqdh0","pricing_plan_id":"cebpf4jnsgd1na2vs0mg"},{"bike_id":"7970af53-fdd7-4fef-ac67-e0c5dcf0afaa","system_id":"levelo_inurba_marseille","lat":43.28692,"lon":5.37402,"is_reserved":false,"is_disabled":false,"rental_uris":{"android":"levelo://app?vid=7970af53-fdd7-4fef-ac67-e0c5dcf0afaa","ios":"levelo://app?vid=7970af53-fdd7-4fef-ac67-e0c5dcf0afaa"},"vehicle_type_id":"4","last_reported":1727381352,"current_range_meters":9200,"station_id":"ce4bh3p2rcd13ifvqdq0","pricing_plan_id":"cebpf4jnsgd1na2vs0mg"},{"bike_id":"0ba24a94-9f5c-4913-8e96-76cc55a173a8","system_id":"levelo_inurba_marseille","lat":43.28753,"lon":5.39016,"is_reserved":false,"is_disabled":false,"rental_uris":{"android":"levelo://app?vid=0ba24a94-9f5c-4913-8e96-76cc55a173a8","ios":"levelo://app?vid=0ba24a94-9f5c-4913-8e96-76cc55a173a8"},"vehicle_type_id":"4","last_reported":1727381352,"current_range_meters":12400,"station_id":"ce4bho92rcd13ifvqh3g","pricing_plan_id":"cebpf4jnsgd1na2vs0mg"},{"bike_id":"5860d86a-5e03-4913-8798-da25baeb21be","system_id":"levelo_inurba_marseille","lat":43.27814,"lon":5.40713,"is_reserved":false,"is_disabled":false,"rental_uris":{"android":"levelo://app?vid=5860d86a-5e03-4913-8798-da25baeb21be","ios":"levelo://app?vid=5860d86a-5e03-4913-8798-da25baeb21be"},"vehicle_type_id":"4","last_reported":1727381352,"current_range_meters":38400,"station_id":"ce4bhnh2rcd13ifvqgtg","pricing_plan_id":"cebpf4jnsgd1na2vs0mg"},{"bike_id":"5d6c707b-bd6b-4880-9f49-0c552ae705a6","system_id":"levelo_inurba_marseille","lat":43.28566,"lon":5.39506,"is_reserved":false,"is_disabled":false,"rental_uris":{"android":"levelo://app?vid=5d6c707b-bd6b-4880-9f49-0c552ae705a6","ios":"levelo://app?vid=5d6c707b-bd6b-4880-9f49-0c552ae705a6"},"vehicle_type_id":"4","last_reported":1727381352,"current_range_meters":35600,"station_id":"ce4bh292rcd13ifvqdg0","pricing_plan_id":"cebpf4jnsgd1na2vs0mg"},{"bike_id":"88520022-dcb9-470a-815c-397d3bbf4936","system_id":"levelo_inurba_marseille","lat":43.28095,"lon":5.37839,"is_reserved":false,"is_disabled":false,"rental_uris":{"android":"levelo://app?vid=88520022-dcb9-470a-815c-397d3bbf4936","ios":"levelo://app?vid=88520022-dcb9-470a-815c-397d3bbf4936"},"vehicle_type_id":"4","last_reported":1727381352,"current_range_meters":4000,"station_id":"ce4bha12rcd13ifvqee0","pricing_plan_id":"cebpf4jnsgd1na2vs0mg"},{"bike_id":"495ee292-2e3e-4419-a8b8-4e193b520454","system_id":"levelo_inurba_marseille","lat":43.27177,"lon":5.40999,"is_reserved":false,"is_disabled":false,"rental_uris":{"android":"levelo://app?vid=495ee292-2e3e-4419-a8b8-4e193b520454","ios":"levelo://app?vid=495ee292-2e3e-4419-a8b8-4e193b520454"},"vehicle_type_id":"4","last_reported":1727381352,"current_range_meters":22400,"station_id":"ce4bhl12rcd13ifvqgf0","pricing_plan_id":"cebpf4jnsgd1na2vs0mg"},{"bike_id":"f6bd6781-7a07-4d5d-a7b5-fc004a05f1ba","system_id":"levelo_inurba_marseille","lat":43.30647,"lon":5.40101,"is_reserved":false,"is_disabled":false,"rental_uris":{"android":"levelo://app?vid=f6bd6781-7a07-4d5d-a7b5-fc004a05f1ba","ios":"levelo://app?vid=f6bd6781-7a07-4d5d-a7b5-fc004a05f1ba"},"vehicle_type_id":"4","last_reported":1727381352,"current_range_meters":14800,"station_id":"ce4bh112rcd13ifvqda0","pricing_plan_id":"cebpf4jnsgd1na2vs0mg"},{"bike_id":"1a8cbed4-128b-4a29-ba95-08db7784e51f","system_id":"levelo_inurba_marseille","lat":43.25825,"lon":5.39439,"is_reserved":false,"is_disabled":false,"rental_uris":{"android":"levelo://app?vid=1a8cbed4-128b-4a29-ba95-08db7784e51f","ios":"levelo://app?vid=1a8cbed4-128b-4a29-ba95-08db7784e51f"},"vehicle_type_id":"4","last_reported":1727381352,"current_range_meters":38400,"station_id":"ce4bhip2rcd13ifvqft0","pricing_plan_id":"cebpf4jnsgd1na2vs0mg"},{"bike_id":"2d397476-7b8a-4c89-aae1-ee71b1dec884","system_id":"levelo_inurba_marseille","lat":43.29259,"lon":5.38439,"is_reserved":false,"is_disabled":false,"rental_uris":{"android":"levelo://app?vid=2d397476-7b8a-4c89-aae1-ee71b1dec884","ios":"levelo://app?vid=2d397476-7b8a-4c89-aae1-ee71b1dec884"},"vehicle_type_id":"4","last_reported":1727381352,"current_range_meters":34800,"station_id":"ce4bh692rcd13ifvqea0","pricing_plan_id":"cebpf4jnsgd1na2vs0mg"},{"bike_id":"460d3f00-92b2-4bef-a5f5-60083aa77ed9","system_id":"levelo_inurba_marseille","lat":43.28938,"lon":5.36634,"is_reserved":false,"is_disabled":false,"rental_uris":{"android":"levelo://app?vid=460d3f00-92b2-4bef-a5f5-60083aa77ed9","ios":"levelo://app?vid=460d3f00-92b2-4bef-a5f5-60083aa77ed9"},"vehicle_type_id":"4","last_reported":1727381352,"current_range_meters":17200,"station_id":"ce4bhap2rcd13ifvqek0","pricing_plan_id":"cebpf4jnsgd1na2vs0mg"},{"bike_id":"7a221aff-a308-4e51-bd6c-3606a6928c42","system_id":"levelo_inurba_marseille","lat":43.28497,"lon":5.38975,"is_reserved":false,"is_disabled":false,"rental_uris":{"android":"levelo://app?vid=7a221aff-a308-4e51-bd6c-3606a6928c42","ios":"levelo://app?vid=7a221aff-a308-4e51-bd6c-3606a6928c42"},"vehicle_type_id":"4","last_reported":1727381352,"current_range_meters":38800,"station_id":"","pricing_plan_id":"cebpf4jnsgd1na2vs0mg"},{"bike_id":"78c3162a-e855-479e-9a94-ed55aed7b10e","system_id":"levelo_inurba_marseille","lat":43.30905,"lon":5.3685,"is_reserved":false,"is_disabled":false,"rental_uris":{"android":"levelo://app?vid=78c3162a-e855-479e-9a94-ed55aed7b10e","ios":"levelo://app?vid=78c3162a-e855-479e-9a94-ed55aed7b10e"},"vehicle_type_id":"4","last_reported":1727381352,"current_range_meters":12000,"station_id":"ce4bgn92rcd13ifvqbvg","pricing_plan_id":"cebpf4jnsgd1na2vs0mg"},{"bike_id":"c77c91f6-96f8-482d-b20f-c36ca3fc312b","system_id":"levelo_inurba_marseille","lat":43.32003,"lon":5.38154,"is_reserved":false,"is_disabled":false,"rental_uris":{"android":"levelo://app?vid=c77c91f6-96f8-482d-b20f-c36ca3fc312b","ios":"levelo://app?vid=c77c91f6-96f8-482d-b20f-c36ca3fc312b"},"vehicle_type_id":"4","last_reported":1727381352,"current_range_meters":8400,"station_id":"ce4bhr12rcd13ifvqhpg","pricing_plan_id":"cebpf4jnsgd1na2vs0mg"},{"bike_id":"35ea8c68-3337-46ca-b3e6-aa61667870c7","system_id":"levelo_inurba_marseille","lat":43.28074,"lon":5.39653,"is_reserved":false,"is_disabled":false,"rental_uris":{"android":"levelo://app?vid=35ea8c68-3337-46ca-b3e6-aa61667870c7","ios":"levelo://app?vid=35ea8c68-3337-46ca-b3e6-aa61667870c7"},"vehicle_type_id":"4","last_reported":1727381352,"current_range_meters":31200,"station_id":"ce4bho12rcd13ifvqh2g","pricing_plan_id":"cebpf4jnsgd1na2vs0mg"},{"bike_id":"54e85d56-5f39-4b6c-8563-e143ba891087","system_id":"levelo_inurba_marseille","lat":43.29343,"lon":5.38367,"is_reserved":false,"is_disabled":false,"rental_uris":{"android":"levelo://app?vid=54e85d56-5f39-4b6c-8563-e143ba891087","ios":"levelo://app?vid=54e85d56-5f39-4b6c-8563-e143ba891087"},"vehicle_type_id":"4","last_reported":1727381352,"current_range_meters":7200,"station_id":"","pricing_plan_id":"cebpf4jnsgd1na2vs0mg"},{"bike_id":"53762a81-a734-4d5e-a158-d83c3f880daa","system_id":"levelo_inurba_marseille","lat":43.32478,"lon":5.36573,"is_reserved":false,"is_disabled":false,"rental_uris":{"android":"levelo://app?vid=53762a81-a734-4d5e-a158-d83c3f880daa","ios":"levelo://app?vid=53762a81-a734-4d5e-a158-d83c3f880daa"},"vehicle_type_id":"4","last_reported":1727381352,"current_range_meters":29600,"station_id":"ce4bhs12rcd13ifvqhvg","pricing_plan_id":"cebpf4jnsgd1na2vs0mg"},{"bike_id":"c2e5a81e-6912-4cb0-98ad-5f3df477fa43","system_id":"levelo_inurba_marseille","lat":43.28994,"lon":5.37586,"is_reserved":false,"is_disabled":false,"rental_uris":{"android":"levelo://app?vid=c2e5a81e-6912-4cb0-98ad-5f3df477fa43","ios":"levelo://app?vid=c2e5a81e-6912-4cb0-98ad-5f3df477fa43"},"vehicle_type_id":"4","last_reported":1727381352,"current_range_meters":36800,"station_id":"ce4bh692rcd13ifvqe90","pricing_plan_id":"cebpf4jnsgd1na2vs0mg"},{"bike_id":"eeb6dc1e-7585-4a4b-bc85-3f5b3525fe3b","system_id":"levelo_inurba_marseille","lat":43.24075,"lon":5.37759,"is_reserved":false,"is_disabled":false,"rental_uris":{"android":"levelo://app?vid=eeb6dc1e-7585-4a4b-bc85-3f5b3525fe3b","ios":"levelo://app?vid=eeb6dc1e-7585-4a4b-bc85-3f5b3525fe3b"},"vehicle_type_id":"4","last_reported":1727381352,"current_range_meters":25200,"station_id":"ce4bhnp2rcd13ifvqgvg","pricing_plan_id":"cebpf4jnsgd1na2vs0mg"},{"bike_id":"8c09a2d9-c870-44a7-bcfb-3a50d3f396ae","system_id":"levelo_inurba_marseille","lat":43.28932,"lon":5.38399,"is_reserved":false,"is_disabled":false,"rental_uris":{"android":"levelo://app?vid=8c09a2d9-c870-44a7-bcfb-3a50d3f396ae","ios":"levelo://app?vid=8c09a2d9-c870-44a7-bcfb-3a50d3f396ae"},"vehicle_type_id":"4","last_reported":1727381352,"current_range_meters":4800,"station_id":"ce4bh612rcd13ifvqe6g","pricing_plan_id":"cebpf4jnsgd1na2vs0mg"},{"bike_id":"beb2b48a-7c60-4faf-a8ab-ab0546d0ef67","system_id":"levelo_inurba_marseille","lat":43.31754,"lon":5.39024,"is_reserved":false,"is_disabled":false,"rental_uris":{"android":"levelo://app?vid=beb2b48a-7c60-4faf-a8ab-ab0546d0ef67","ios":"levelo://app?vid=beb2b48a-7c60-4faf-a8ab-ab0546d0ef67"},"vehicle_type_id":"4","last_reported":1727381352,"current_range_meters":38800,"station_id":"ce4bhqp2rcd13ifvqhng","pricing_plan_id":"cebpf4jnsgd1na2vs0mg"},{"bike_id":"bf2d05c7-e426-428a-9deb-d9f9e1c3ffe4","system_id":"levelo_inurba_marseille","lat":43.30805,"lon":5.43522,"is_reserved":false,"is_disabled":false,"rental_uris":{"android":"levelo://app?vid=bf2d05c7-e426-428a-9deb-d9f9e1c3ffe4","ios":"levelo://app?vid=bf2d05c7-e426-428a-9deb-d9f9e1c3ffe4"},"vehicle_type_id":"4","last_reported":1727381352,"current_range_meters":8000,"station_id":"ce4bhph2rcd13ifvqheg","pricing_plan_id":"cebpf4jnsgd1na2vs0mg"},{"bike_id":"e68f2da7-da03-4d5a-812e-a4d0efdc0c84","system_id":"levelo_inurba_marseille","lat":43.30604,"lon":5.37234,"is_reserved":false,"is_disabled":false,"rental_uris":{"android":"levelo://app?vid=e68f2da7-da03-4d5a-812e-a4d0efdc0c84","ios":"levelo://app?vid=e68f2da7-da03-4d5a-812e-a4d0efdc0c84"},"vehicle_type_id":"4","last_reported":1727381352,"current_range_meters":38800,"station_id":"ce4bgqh2rcd13ifvqc4g","pricing_plan_id":"cebpf4jnsgd1na2vs0mg"},{"bike_id":"8c5dbd6a-cc9d-4021-b132-d5751493cf55","system_id":"levelo_inurba_marseille","lat":43.28038,"lon":5.36951,"is_reserved":false,"is_disabled":false,"rental_uris":{"android":"levelo://app?vid=8c5dbd6a-cc9d-4021-b132-d5751493cf55","ios":"levelo://app?vid=8c5dbd6a-cc9d-4021-b132-d5751493cf55"},"vehicle_type_id":"4","last_reported":1727381352,"current_range_meters":22400,"station_id":"ce4bha12rcd13ifvqef0","pricing_plan_id":"cebpf4jnsgd1na2vs0mg"},{"bike_id":"d89a6b44-b264-4a99-8b3c-f07b95bc3cb9","system_id":"levelo_inurba_marseille","lat":43.32285,"lon":5.38279,"is_reserved":false,"is_disabled":false,"rental_uris":{"android":"levelo://app?vid=d89a6b44-b264-4a99-8b3c-f07b95bc3cb9","ios":"levelo://app?vid=d89a6b44-b264-4a99-8b3c-f07b95bc3cb9"},"vehicle_type_id":"4","last_reported":1727381352,"current_range_meters":33200,"station_id":"ce4bhr12rcd13ifvqhqg","pricing_plan_id":"cebpf4jnsgd1na2vs0mg"},{"bike_id":"ccbf4dda-e8ab-4695-a815-d3de1ad7009b","system_id":"levelo_inurba_marseille","lat":43.28461,"lon":5.37424,"is_reserved":false,"is_disabled":false,"rental_uris":{"android":"levelo://app?vid=ccbf4dda-e8ab-4695-a815-d3de1ad7009b","ios":"levelo://app?vid=ccbf4dda-e8ab-4695-a815-d3de1ad7009b"},"vehicle_type_id":"4","last_reported":1727381352,"current_range_meters":36000,"station_id":"ce4bh412rcd13ifvqds0","pricing_plan_id":"cebpf4jnsgd1na2vs0mg"},{"bike_id":"f04655e8-67eb-41ed-aa8c-6fff4fad2e0e","system_id":"levelo_inurba_marseille","lat":43.29168,"lon":5.37158,"is_reserved":false,"is_disabled":false,"rental_uris":{"android":"levelo://app?vid=f04655e8-67eb-41ed-aa8c-6fff4fad2e0e","ios":"levelo://app?vid=f04655e8-67eb-41ed-aa8c-6fff4fad2e0e"},"vehicle_type_id":"4","last_reported":1727381352,"current_range_meters":32000,"station_id":"ce4bha92rcd13ifvqeh0","pricing_plan_id":"cebpf4jnsgd1na2vs0mg"},{"bike_id":"1dd1232a-b83e-4382-b557-c7961002ab89","system_id":"levelo_inurba_marseille","lat":43.23183,"lon":5.39982,"is_reserved":false,"is_disabled":false,"rental_uris":{"android":"levelo://app?vid=1dd1232a-b83e-4382-b557-c7961002ab89","ios":"levelo://app?vid=1dd1232a-b83e-4382-b557-c7961002ab89"},"vehicle_type_id":"4","last_reported":1727381352,"current_range_meters":32000,"station_id":"ce4bhn12rcd13ifvqgqg","pricing_plan_id":"cebpf4jnsgd1na2vs0mg"},{"bike_id":"a7bca3df-0344-4204-86d7-b742d4769839","system_id":"levelo_inurba_marseille","lat":43.30863,"lon":5.3685,"is_reserved":false,"is_disabled":false,"rental_uris":{"android":"levelo://app?vid=a7bca3df-0344-4204-86d7-b742d4769839","ios":"levelo://app?vid=a7bca3df-0344-4204-86d7-b742d4769839"},"vehicle_type_id":"4","last_reported":1727381352,"current_range_meters":20800,"station_id":"ce4bgn92rcd13ifvqbvg","pricing_plan_id":"cebpf4jnsgd1na2vs0mg"},{"bike_id":"189a8e17-dc06-4f85-bbde-5afa18abad81","system_id":"levelo_inurba_marseille","lat":43.31749,"lon":5.39027,"is_reserved":false,"is_disabled":false,"rental_uris":{"android":"levelo://app?vid=189a8e17-dc06-4f85-bbde-5afa18abad81","ios":"levelo://app?vid=189a8e17-dc06-4f85-bbde-5afa18abad81"},"vehicle_type_id":"4","last_reported":1727381352,"current_range_meters":8400,"station_id":"ce4bhqp2rcd13ifvqhng","pricing_plan_id":"cebpf4jnsgd1na2vs0mg"},{"bike_id":"3c25da4a-8679-4bb1-9dab-62cae1920da8","system_id":"levelo_inurba_marseille","lat":43.33022,"lon":5.39038,"is_reserved":false,"is_disabled":false,"rental_uris":{"android":"levelo://app?vid=3c25da4a-8679-4bb1-9dab-62cae1920da8","ios":"levelo://app?vid=3c25da4a-8679-4bb1-9dab-62cae1920da8"},"vehicle_type_id":"4","last_reported":1727381352,"current_range_meters":12800,"station_id":"ce4bhr92rcd13ifvqhrg","pricing_plan_id":"cebpf4jnsgd1na2vs0mg"},{"bike_id":"f02957f0-eeef-4f62-a0e4-a22ac891c4e6","system_id":"levelo_inurba_marseille","lat":43.29193,"lon":5.3932,"is_reserved":false,"is_disabled":false,"rental_uris":{"android":"levelo://app?vid=f02957f0-eeef-4f62-a0e4-a22ac891c4e6","ios":"levelo://app?vid=f02957f0-eeef-4f62-a0e4-a22ac891c4e6"},"vehicle_type_id":"4","last_reported":1727381352,"current_range_meters":19200,"station_id":"ce4bh192rcd13ifvqdd0","pricing_plan_id":"cebpf4jnsgd1na2vs0mg"},{"bike_id":"cd993e98-ab1d-49b3-a81f-d12b73e5d532","system_id":"levelo_inurba_marseille","lat":43.26199,"lon":5.37931,"is_reserved":false,"is_disabled":false,"rental_uris":{"android":"levelo://app?vid=cd993e98-ab1d-49b3-a81f-d12b73e5d532","ios":"levelo://app?vid=cd993e98-ab1d-49b3-a81f-d12b73e5d532"},"vehicle_type_id":"4","last_reported":1727381352,"current_range_meters":23200,"station_id":"ce4bhjp2rcd13ifvqg90","pricing_plan_id":"cebpf4jnsgd1na2vs0mg"},{"bike_id":"c38d2019-7e97-4eb9-9cee-088dee4d1414","system_id":"levelo_inurba_marseille","lat":43.27619,"lon":5.36109,"is_reserved":false,"is_disabled":false,"rental_uris":{"android":"levelo://app?vid=c38d2019-7e97-4eb9-9cee-088dee4d1414","ios":"levelo://app?vid=c38d2019-7e97-4eb9-9cee-088dee4d1414"},"vehicle_type_id":"4","last_reported":1727381352,"current_range_meters":6400,"station_id":"ce4bgj92rcd13ifvqbe0","pricing_plan_id":"cebpf4jnsgd1na2vs0mg"},{"bike_id":"a6addce0-6b53-4ddf-bf9c-d50a96dd9e51","system_id":"levelo_inurba_marseille","lat":43.22936,"lon":5.35379,"is_reserved":false,"is_disabled":false,"rental_uris":{"android":"levelo://app?vid=a6addce0-6b53-4ddf-bf9c-d50a96dd9e51","ios":"levelo://app?vid=a6addce0-6b53-4ddf-bf9c-d50a96dd9e51"},"vehicle_type_id":"4","last_reported":1727381352,"current_range_meters":6800,"station_id":"cpo3532slgdg3j2ikp40","pricing_plan_id":"cebpf4jnsgd1na2vs0mg"},{"bike_id":"c43bf600-564c-4211-a38f-389cc2a0691e","system_id":"levelo_inurba_marseille","lat":43.29842,"lon":5.3627,"is_reserved":false,"is_disabled":false,"rental_uris":{"android":"levelo://app?vid=c43bf600-564c-4211-a38f-389cc2a0691e","ios":"levelo://app?vid=c43bf600-564c-4211-a38f-389cc2a0691e"},"vehicle_type_id":"4","last_reported":1727381352,"current_range_meters":32800,"station_id":"ce4bgpp2rcd13ifvqc3g","pricing_plan_id":"cebpf4jnsgd1na2vs0mg"},{"bike_id":"bbc00e19-a1bd-4c6d-9f1b-b91795b34296","system_id":"levelo_inurba_marseille","lat":43.3095,"lon":5.39034,"is_reserved":false,"is_disabled":false,"rental_uris":{"android":"levelo://app?vid=bbc00e19-a1bd-4c6d-9f1b-b91795b34296","ios":"levelo://app?vid=bbc00e19-a1bd-4c6d-9f1b-b91795b34296"},"vehicle_type_id":"4","last_reported":1727381352,"current_range_meters":30000,"station_id":"ce4bgup2rcd13ifvqco0","pricing_plan_id":"cebpf4jnsgd1na2vs0mg"},{"bike_id":"7eccbabb-ea86-4972-bad5-379ee10ae8ec","system_id":"levelo_inurba_marseille","lat":43.29594,"lon":5.38108,"is_reserved":false,"is_disabled":false,"rental_uris":{"android":"levelo://app?vid=7eccbabb-ea86-4972-bad5-379ee10ae8ec","ios":"levelo://app?vid=7eccbabb-ea86-4972-bad5-379ee10ae8ec"},"vehicle_type_id":"4","last_reported":1727381352,"current_range_meters":33200,"station_id":"ce4bgl12rcd13ifvqbo0","pricing_plan_id":"cebpf4jnsgd1na2vs0mg"},{"bike_id":"4a4bfd88-bdfc-4802-b3a8-e798e4274727","system_id":"levelo_inurba_marseille","lat":43.32289,"lon":5.38262,"is_reserved":false,"is_disabled":false,"rental_uris":{"android":"levelo://app?vid=4a4bfd88-bdfc-4802-b3a8-e798e4274727","ios":"levelo://app?vid=4a4bfd88-bdfc-4802-b3a8-e798e4274727"},"vehicle_type_id":"4","last_reported":1727381352,"current_range_meters":22800,"station_id":"ce4bhr12rcd13ifvqhqg","pricing_plan_id":"cebpf4jnsgd1na2vs0mg"},{"bike_id":"303e8f5e-8abb-4ccd-bc87-13da2c5a39f6","system_id":"levelo_inurba_marseille","lat":43.29271,"lon":5.36842,"is_reserved":false,"is_disabled":false,"rental_uris":{"android":"levelo://app?vid=303e8f5e-8abb-4ccd-bc87-13da2c5a39f6","ios":"levelo://app?vid=303e8f5e-8abb-4ccd-bc87-13da2c5a39f6"},"vehicle_type_id":"4","last_reported":1727381352,"current_range_meters":19600,"station_id":"ce4bhbp2rcd13ifvqesg","pricing_plan_id":"cebpf4jnsgd1na2vs0mg"},{"bike_id":"2ba09575-244f-487f-8743-7cdef664b4d1","system_id":"levelo_inurba_marseille","lat":43.29895,"lon":5.43677,"is_reserved":false,"is_disabled":false,"rental_uris":{"android":"levelo://app?vid=2ba09575-244f-487f-8743-7cdef664b4d1","ios":"levelo://app?vid=2ba09575-244f-487f-8743-7cdef664b4d1"},"vehicle_type_id":"4","last_reported":1727381352,"current_range_meters":16400,"station_id":"ce4bhpp2rcd13ifvqhfg","pricing_plan_id":"cebpf4jnsgd1na2vs0mg"},{"bike_id":"bb73ba4d-c7df-4cdc-a516-50b5f6789a17","system_id":"levelo_inurba_marseille","lat":43.28693,"lon":5.37402,"is_reserved":false,"is_disabled":false,"rental_uris":{"android":"levelo://app?vid=bb73ba4d-c7df-4cdc-a516-50b5f6789a17","ios":"levelo://app?vid=bb73ba4d-c7df-4cdc-a516-50b5f6789a17"},"vehicle_type_id":"4","last_reported":1727381352,"current_range_meters":5600,"station_id":"ce4bh3p2rcd13ifvqdq0","pricing_plan_id":"cebpf4jnsgd1na2vs0mg"},{"bike_id":"412f5ca5-7184-492c-bbe3-a2334a5eaee6","system_id":"levelo_inurba_marseille","lat":43.30184,"lon":5.36608,"is_reserved":false,"is_disabled":false,"rental_uris":{"android":"levelo://app?vid=412f5ca5-7184-492c-bbe3-a2334a5eaee6","ios":"levelo://app?vid=412f5ca5-7184-492c-bbe3-a2334a5eaee6"},"vehicle_type_id":"4","last_reported":1727381352,"current_range_meters":36800,"station_id":"ce4bgrh2rcd13ifvqc8g","pricing_plan_id":"cebpf4jnsgd1na2vs0mg"},{"bike_id":"b8d4cfe5-fa00-4798-bb3b-a5cd96b0fee5","system_id":"levelo_inurba_marseille","lat":43.24216,"lon":5.38438,"is_reserved":false,"is_disabled":false,"rental_uris":{"android":"levelo://app?vid=b8d4cfe5-fa00-4798-bb3b-a5cd96b0fee5","ios":"levelo://app?vid=b8d4cfe5-fa00-4798-bb3b-a5cd96b0fee5"},"vehicle_type_id":"4","last_reported":1727381352,"current_range_meters":6800,"station_id":"","pricing_plan_id":"cebpf4jnsgd1na2vs0mg"},{"bike_id":"5f2e23f8-0301-4f09-8dff-114731e38bb3","system_id":"levelo_inurba_marseille","lat":43.29418,"lon":5.38627,"is_reserved":false,"is_disabled":false,"rental_uris":{"android":"levelo://app?vid=5f2e23f8-0301-4f09-8dff-114731e38bb3","ios":"levelo://app?vid=5f2e23f8-0301-4f09-8dff-114731e38bb3"},"vehicle_type_id":"4","last_reported":1727381352,"current_range_meters":37600,"station_id":"ce4bh2h2rcd13ifvqdh0","pricing_plan_id":"cebpf4jnsgd1na2vs0mg"},{"bike_id":"19f852cb-7fa0-477a-91ec-9c88d066b56c","system_id":"levelo_inurba_marseille","lat":43.28154,"lon":5.42639,"is_reserved":false,"is_disabled":false,"rental_uris":{"android":"levelo://app?vid=19f852cb-7fa0-477a-91ec-9c88d066b56c","ios":"levelo://app?vid=19f852cb-7fa0-477a-91ec-9c88d066b56c"},"vehicle_type_id":"4","last_reported":1727381352,"current_range_meters":20000,"station_id":"ce4bhnh2rcd13ifvqgug","pricing_plan_id":"cebpf4jnsgd1na2vs0mg"},{"bike_id":"7be7c110-613e-418c-9775-8a467e455553","system_id":"levelo_inurba_marseille","lat":43.28464,"lon":5.35883,"is_reserved":false,"is_disabled":false,"rental_uris":{"android":"levelo://app?vid=7be7c110-613e-418c-9775-8a467e455553","ios":"levelo://app?vid=7be7c110-613e-418c-9775-8a467e455553"},"vehicle_type_id":"4","last_reported":1727381352,"current_range_meters":38800,"station_id":"ce4bhah2rcd13ifvqei0","pricing_plan_id":"cebpf4jnsgd1na2vs0mg"},{"bike_id":"36045d32-d4d6-4965-9a18-92c356881faa","system_id":"levelo_inurba_marseille","lat":43.32285,"lon":5.38275,"is_reserved":false,"is_disabled":false,"rental_uris":{"android":"levelo://app?vid=36045d32-d4d6-4965-9a18-92c356881faa","ios":"levelo://app?vid=36045d32-d4d6-4965-9a18-92c356881faa"},"vehicle_type_id":"4","last_reported":1727381352,"current_range_meters":37600,"station_id":"ce4bhr12rcd13ifvqhqg","pricing_plan_id":"cebpf4jnsgd1na2vs0mg"},{"bike_id":"8e2f9f91-044d-4a2a-9a53-6e1eafa94751","system_id":"levelo_inurba_marseille","lat":43.31719,"lon":5.42399,"is_reserved":false,"is_disabled":false,"rental_uris":{"android":"levelo://app?vid=8e2f9f91-044d-4a2a-9a53-6e1eafa94751","ios":"levelo://app?vid=8e2f9f91-044d-4a2a-9a53-6e1eafa94751"},"vehicle_type_id":"4","last_reported":1727381352,"current_range_meters":10000,"station_id":"ce4bhp92rcd13ifvqhbg","pricing_plan_id":"cebpf4jnsgd1na2vs0mg"},{"bike_id":"35238de0-19d4-438e-8230-116518da94eb","system_id":"levelo_inurba_marseille","lat":43.29556,"lon":5.39389,"is_reserved":false,"is_disabled":false,"rental_uris":{"android":"levelo://app?vid=35238de0-19d4-438e-8230-116518da94eb","ios":"levelo://app?vid=35238de0-19d4-438e-8230-116518da94eb"},"vehicle_type_id":"4","last_reported":1727381352,"current_range_meters":6000,"station_id":"ce4bh292rcd13ifvqdf0","pricing_plan_id":"cebpf4jnsgd1na2vs0mg"},{"bike_id":"aeb05550-f878-4143-be2c-115d32951d7a","system_id":"levelo_inurba_marseille","lat":43.23153,"lon":5.43702,"is_reserved":false,"is_disabled":false,"rental_uris":{"android":"levelo://app?vid=aeb05550-f878-4143-be2c-115d32951d7a","ios":"levelo://app?vid=aeb05550-f878-4143-be2c-115d32951d7a"},"vehicle_type_id":"4","last_reported":1727381352,"current_range_meters":38400,"station_id":"ce4bhmp2rcd13ifvqgog","pricing_plan_id":"cebpf4jnsgd1na2vs0mg"},{"bike_id":"e203078f-6f54-4e87-9ad7-55d493b2de0e","system_id":"levelo_inurba_marseille","lat":43.29839,"lon":5.36269,"is_reserved":false,"is_disabled":false,"rental_uris":{"android":"levelo://app?vid=e203078f-6f54-4e87-9ad7-55d493b2de0e","ios":"levelo://app?vid=e203078f-6f54-4e87-9ad7-55d493b2de0e"},"vehicle_type_id":"4","last_reported":1727381352,"current_range_meters":25200,"station_id":"ce4bgpp2rcd13ifvqc3g","pricing_plan_id":"cebpf4jnsgd1na2vs0mg"},{"bike_id":"aafb247f-d74e-406a-a4b7-6c5025d15efd","system_id":"levelo_inurba_marseille","lat":43.29409,"lon":5.38629,"is_reserved":false,"is_disabled":false,"rental_uris":{"android":"levelo://app?vid=aafb247f-d74e-406a-a4b7-6c5025d15efd","ios":"levelo://app?vid=aafb247f-d74e-406a-a4b7-6c5025d15efd"},"vehicle_type_id":"4","last_reported":1727381352,"current_range_meters":10000,"station_id":"ce4bh2h2rcd13ifvqdh0","pricing_plan_id":"cebpf4jnsgd1na2vs0mg"},{"bike_id":"6746e421-2318-4cb2-b7b2-21ec885af87c","system_id":"levelo_inurba_marseille","lat":43.3266,"lon":5.40994,"is_reserved":false,"is_disabled":false,"rental_uris":{"android":"levelo://app?vid=6746e421-2318-4cb2-b7b2-21ec885af87c","ios":"levelo://app?vid=6746e421-2318-4cb2-b7b2-21ec885af87c"},"vehicle_type_id":"4","last_reported":1727381352,"current_range_meters":7200,"station_id":"ce4bhpp2rcd13ifvqhgg","pricing_plan_id":"cebpf4jnsgd1na2vs0mg"},{"bike_id":"545788d9-969d-4f32-8db0-be7f6122f5e9","system_id":"levelo_inurba_marseille","lat":43.28461,"lon":5.35888,"is_reserved":false,"is_disabled":false,"rental_uris":{"android":"levelo://app?vid=545788d9-969d-4f32-8db0-be7f6122f5e9","ios":"levelo://app?vid=545788d9-969d-4f32-8db0-be7f6122f5e9"},"vehicle_type_id":"4","last_reported":1727381352,"current_range_meters":38800,"station_id":"ce4bhah2rcd13ifvqei0","pricing_plan_id":"cebpf4jnsgd1na2vs0mg"},{"bike_id":"46b72fd0-d68e-43a8-8fd5-d183d0ac830c","system_id":"levelo_inurba_marseille","lat":43.23963,"lon":5.36631,"is_reserved":false,"is_disabled":false,"rental_uris":{"android":"levelo://app?vid=46b72fd0-d68e-43a8-8fd5-d183d0ac830c","ios":"levelo://app?vid=46b72fd0-d68e-43a8-8fd5-d183d0ac830c"},"vehicle_type_id":"4","last_reported":1727381352,"current_range_meters":25600,"station_id":"ce4bhi12rcd13ifvqfp0","pricing_plan_id":"cebpf4jnsgd1na2vs0mg"},{"bike_id":"731e5de5-82f9-497f-b849-a10d54442818","system_id":"levelo_inurba_marseille","lat":43.30791,"lon":5.38155,"is_reserved":false,"is_disabled":false,"rental_uris":{"android":"levelo://app?vid=731e5de5-82f9-497f-b849-a10d54442818","ios":"levelo://app?vid=731e5de5-82f9-497f-b849-a10d54442818"},"vehicle_type_id":"4","last_reported":1727381352,"current_range_meters":38800,"station_id":"ce4bgt12rcd13ifvqce0","pricing_plan_id":"cebpf4jnsgd1na2vs0mg"},{"bike_id":"30ff597b-4112-446a-aa7a-1252b9fc2d70","system_id":"levelo_inurba_marseille","lat":43.25085,"lon":5.39519,"is_reserved":false,"is_disabled":false,"rental_uris":{"android":"levelo://app?vid=30ff597b-4112-446a-aa7a-1252b9fc2d70","ios":"levelo://app?vid=30ff597b-4112-446a-aa7a-1252b9fc2d70"},"vehicle_type_id":"4","last_reported":1727381352,"current_range_meters":35200,"station_id":"ce4bhm12rcd13ifvqgkg","pricing_plan_id":"cebpf4jnsgd1na2vs0mg"},{"bike_id":"c4e5d598-21ee-4f06-b64f-3b324f72cd20","system_id":"levelo_inurba_marseille","lat":43.293028,"lon":5.374528,"is_reserved":false,"is_disabled":false,"rental_uris":{"android":"levelo://app?vid=c4e5d598-21ee-4f06-b64f-3b324f72cd20","ios":"levelo://app?vid=c4e5d598-21ee-4f06-b64f-3b324f72cd20"},"vehicle_type_id":"4","last_reported":1727381352,"current_range_meters":9600,"station_id":"ce4bgi12rcd13ifvqb70","pricing_plan_id":"cebpf4jnsgd1na2vs0mg"},{"bike_id":"d5ae613b-f99e-47c2-91a4-e1274094bbb6","system_id":"levelo_inurba_marseille","lat":43.27962,"lon":5.38716,"is_reserved":false,"is_disabled":false,"rental_uris":{"android":"levelo://app?vid=d5ae613b-f99e-47c2-91a4-e1274094bbb6","ios":"levelo://app?vid=d5ae613b-f99e-47c2-91a4-e1274094bbb6"},"vehicle_type_id":"4","last_reported":1727381352,"current_range_meters":1600,"station_id":"ce4bhg12rcd13ifvqf80","pricing_plan_id":"cebpf4jnsgd1na2vs0mg"},{"bike_id":"283e1c66-51c3-465c-a967-dadba8ca4734","system_id":"levelo_inurba_marseille","lat":43.29021,"lon":5.38647,"is_reserved":false,"is_disabled":false,"rental_uris":{"android":"levelo://app?vid=283e1c66-51c3-465c-a967-dadba8ca4734","ios":"levelo://app?vid=283e1c66-51c3-465c-a967-dadba8ca4734"},"vehicle_type_id":"4","last_reported":1727381352,"current_range_meters":31200,"station_id":"ce4bh4p2rcd13ifvqe0g","pricing_plan_id":"cebpf4jnsgd1na2vs0mg"},{"bike_id":"eee6d266-d969-459e-9def-2c03bdad6f10","system_id":"levelo_inurba_marseille","lat":43.31759,"lon":5.39016,"is_reserved":false,"is_disabled":false,"rental_uris":{"android":"levelo://app?vid=eee6d266-d969-459e-9def-2c03bdad6f10","ios":"levelo://app?vid=eee6d266-d969-459e-9def-2c03bdad6f10"},"vehicle_type_id":"4","last_reported":1727381352,"current_range_meters":27200,"station_id":"ce4bhqp2rcd13ifvqhng","pricing_plan_id":"cebpf4jnsgd1na2vs0mg"},{"bike_id":"cb4e260d-22a9-4a82-b430-aa9550f9bcfa","system_id":"levelo_inurba_marseille","lat":43.29259,"lon":5.38448,"is_reserved":false,"is_disabled":false,"rental_uris":{"android":"levelo://app?vid=cb4e260d-22a9-4a82-b430-aa9550f9bcfa","ios":"levelo://app?vid=cb4e260d-22a9-4a82-b430-aa9550f9bcfa"},"vehicle_type_id":"4","last_reported":1727381352,"current_range_meters":4400,"station_id":"ce4bh692rcd13ifvqea0","pricing_plan_id":"cebpf4jnsgd1na2vs0mg"},{"bike_id":"07f20d2d-a2c4-47be-bc70-852eb27f9c7b","system_id":"levelo_inurba_marseille","lat":43.30552,"lon":5.36553,"is_reserved":false,"is_disabled":false,"rental_uris":{"android":"levelo://app?vid=07f20d2d-a2c4-47be-bc70-852eb27f9c7b","ios":"levelo://app?vid=07f20d2d-a2c4-47be-bc70-852eb27f9c7b"},"vehicle_type_id":"4","last_reported":1727381352,"current_range_meters":10800,"station_id":"ce4bgs12rcd13ifvqcag","pricing_plan_id":"cebpf4jnsgd1na2vs0mg"},{"bike_id":"2cb35dd4-5c52-49d8-b47f-4fd5f6521239","system_id":"levelo_inurba_marseille","lat":43.24068,"lon":5.37768,"is_reserved":false,"is_disabled":false,"rental_uris":{"android":"levelo://app?vid=2cb35dd4-5c52-49d8-b47f-4fd5f6521239","ios":"levelo://app?vid=2cb35dd4-5c52-49d8-b47f-4fd5f6521239"},"vehicle_type_id":"4","last_reported":1727381352,"current_range_meters":30400,"station_id":"ce4bhnp2rcd13ifvqgvg","pricing_plan_id":"cebpf4jnsgd1na2vs0mg"},{"bike_id":"fb9c9900-e88e-4767-8f6a-085518e1a0a4","system_id":"levelo_inurba_marseille","lat":43.30322,"lon":5.40447,"is_reserved":false,"is_disabled":false,"rental_uris":{"android":"levelo://app?vid=fb9c9900-e88e-4767-8f6a-085518e1a0a4","ios":"levelo://app?vid=fb9c9900-e88e-4767-8f6a-085518e1a0a4"},"vehicle_type_id":"4","last_reported":1727381352,"current_range_meters":24000,"station_id":"ce4bh012rcd13ifvqd10","pricing_plan_id":"cebpf4jnsgd1na2vs0mg"},{"bike_id":"6c1fda78-a27a-41ea-9d99-03a440f5f874","system_id":"levelo_inurba_marseille","lat":43.23064,"lon":5.35495,"is_reserved":false,"is_disabled":false,"rental_uris":{"android":"levelo://app?vid=6c1fda78-a27a-41ea-9d99-03a440f5f874","ios":"levelo://app?vid=6c1fda78-a27a-41ea-9d99-03a440f5f874"},"vehicle_type_id":"4","last_reported":1727381352,"current_range_meters":38400,"station_id":"cpo3342slgdg3j2ifvpg","pricing_plan_id":"cebpf4jnsgd1na2vs0mg"},{"bike_id":"9560daa0-c4e3-4ff9-8735-b7bf5fec25a2","system_id":"levelo_inurba_marseille","lat":43.3377,"lon":5.37479,"is_reserved":false,"is_disabled":false,"rental_uris":{"android":"levelo://app?vid=9560daa0-c4e3-4ff9-8735-b7bf5fec25a2","ios":"levelo://app?vid=9560daa0-c4e3-4ff9-8735-b7bf5fec25a2"},"vehicle_type_id":"4","last_reported":1727381352,"current_range_meters":7200,"station_id":"ce4bhg12rcd13ifvqf80","pricing_plan_id":"cebpf4jnsgd1na2vs0mg"},{"bike_id":"8af564d3-2d9a-457a-8923-339dc4619ac1","system_id":"levelo_inurba_marseille","lat":43.295089,"lon":5.39407,"is_reserved":false,"is_disabled":false,"rental_uris":{"android":"levelo://app?vid=8af564d3-2d9a-457a-8923-339dc4619ac1","ios":"levelo://app?vid=8af564d3-2d9a-457a-8923-339dc4619ac1"},"vehicle_type_id":"4","last_reported":1727381352,"current_range_meters":38800,"station_id":"ce4bh292rcd13ifvqdf0","pricing_plan_id":"cebpf4jnsgd1na2vs0mg"},{"bike_id":"90b1ec35-a7cd-442d-9d41-23a41b786be0","system_id":"levelo_inurba_marseille","lat":43.31536,"lon":5.380208,"is_reserved":false,"is_disabled":false,"rental_uris":{"android":"levelo://app?vid=90b1ec35-a7cd-442d-9d41-23a41b786be0","ios":"levelo://app?vid=90b1ec35-a7cd-442d-9d41-23a41b786be0"},"vehicle_type_id":"4","last_reported":1727381352,"current_range_meters":30800,"station_id":"ce4bhsp2rcd13ifvqi50","pricing_plan_id":"cebpf4jnsgd1na2vs0mg"},{"bike_id":"c5580f76-b67a-49bf-8729-4907b7926976","system_id":"levelo_inurba_marseille","lat":43.29518,"lon":5.394,"is_reserved":false,"is_disabled":false,"rental_uris":{"android":"levelo://app?vid=c5580f76-b67a-49bf-8729-4907b7926976","ios":"levelo://app?vid=c5580f76-b67a-49bf-8729-4907b7926976"},"vehicle_type_id":"4","last_reported":1727381352,"current_range_meters":27200,"station_id":"ce4bh292rcd13ifvqdf0","pricing_plan_id":"cebpf4jnsgd1na2vs0mg"},{"bike_id":"2eed2101-4115-49ff-a347-60750f67468c","system_id":"levelo_inurba_marseille","lat":43.314889,"lon":5.373,"is_reserved":false,"is_disabled":false,"rental_uris":{"android":"levelo://app?vid=2eed2101-4115-49ff-a347-60750f67468c","ios":"levelo://app?vid=2eed2101-4115-49ff-a347-60750f67468c"},"vehicle_type_id":"4","last_reported":1727381352,"current_range_meters":1200,"station_id":"ce4bgt12rcd13ifvqcd0","pricing_plan_id":"cebpf4jnsgd1na2vs0mg"},{"bike_id":"6703077d-bf06-4fe2-bdac-610d7f925cfd","system_id":"levelo_inurba_marseille","lat":43.29269,"lon":5.38451,"is_reserved":false,"is_disabled":false,"rental_uris":{"android":"levelo://app?vid=6703077d-bf06-4fe2-bdac-610d7f925cfd","ios":"levelo://app?vid=6703077d-bf06-4fe2-bdac-610d7f925cfd"},"vehicle_type_id":"4","last_reported":1727381352,"current_range_meters":33600,"station_id":"ce4bh692rcd13ifvqea0","pricing_plan_id":"cebpf4jnsgd1na2vs0mg"},{"bike_id":"264f5e1a-910c-402c-8387-641549ff797c","system_id":"levelo_inurba_marseille","lat":43.28455,"lon":5.35886,"is_reserved":false,"is_disabled":false,"rental_uris":{"android":"levelo://app?vid=264f5e1a-910c-402c-8387-641549ff797c","ios":"levelo://app?vid=264f5e1a-910c-402c-8387-641549ff797c"},"vehicle_type_id":"4","last_reported":1727381352,"current_range_meters":38800,"station_id":"ce4bhah2rcd13ifvqei0","pricing_plan_id":"cebpf4jnsgd1na2vs0mg"},{"bike_id":"9f8f13a3-d7e0-41ab-acd5-42d499c2354e","system_id":"levelo_inurba_marseille","lat":43.23805,"lon":5.36435,"is_reserved":false,"is_disabled":false,"rental_uris":{"android":"levelo://app?vid=9f8f13a3-d7e0-41ab-acd5-42d499c2354e","ios":"levelo://app?vid=9f8f13a3-d7e0-41ab-acd5-42d499c2354e"},"vehicle_type_id":"4","last_reported":1727381352,"current_range_meters":16400,"station_id":"","pricing_plan_id":"cebpf4jnsgd1na2vs0mg"},{"bike_id":"32f5d795-1947-4c07-98f4-0231b388b065","system_id":"levelo_inurba_marseille","lat":43.29087,"lon":5.38154,"is_reserved":false,"is_disabled":false,"rental_uris":{"android":"levelo://app?vid=32f5d795-1947-4c07-98f4-0231b388b065","ios":"levelo://app?vid=32f5d795-1947-4c07-98f4-0231b388b065"},"vehicle_type_id":"4","last_reported":1727381352,"current_range_meters":1200,"station_id":"ce4bh512rcd13ifvqe2g","pricing_plan_id":"cebpf4jnsgd1na2vs0mg"},{"bike_id":"55256b62-4341-430e-8f00-efb29410cfb2","system_id":"levelo_inurba_marseille","lat":43.28927,"lon":5.39622,"is_reserved":false,"is_disabled":false,"rental_uris":{"android":"levelo://app?vid=55256b62-4341-430e-8f00-efb29410cfb2","ios":"levelo://app?vid=55256b62-4341-430e-8f00-efb29410cfb2"},"vehicle_type_id":"4","last_reported":1727381352,"current_range_meters":14800,"station_id":"ce4bh3h2rcd13ifvqdn0","pricing_plan_id":"cebpf4jnsgd1na2vs0mg"},{"bike_id":"c68e840b-d16f-4079-a3ba-c01803682b83","system_id":"levelo_inurba_marseille","lat":43.28436,"lon":5.39199,"is_reserved":false,"is_disabled":false,"rental_uris":{"android":"levelo://app?vid=c68e840b-d16f-4079-a3ba-c01803682b83","ios":"levelo://app?vid=c68e840b-d16f-4079-a3ba-c01803682b83"},"vehicle_type_id":"4","last_reported":1727381352,"current_range_meters":17600,"station_id":"ce4bhoh2rcd13ifvqh5g","pricing_plan_id":"cebpf4jnsgd1na2vs0mg"},{"bike_id":"d8a972d6-d818-4eb8-ae2e-0ffe5cf63438","system_id":"levelo_inurba_marseille","lat":43.32344,"lon":5.40622,"is_reserved":false,"is_disabled":false,"rental_uris":{"android":"levelo://app?vid=d8a972d6-d818-4eb8-ae2e-0ffe5cf63438","ios":"levelo://app?vid=d8a972d6-d818-4eb8-ae2e-0ffe5cf63438"},"vehicle_type_id":"4","last_reported":1727381352,"current_range_meters":4800,"station_id":"ce4bhq92rcd13ifvqhjg","pricing_plan_id":"cebpf4jnsgd1na2vs0mg"},{"bike_id":"b618595c-1263-4598-89ff-9c206c586246","system_id":"levelo_inurba_marseille","lat":43.29447,"lon":5.39754,"is_reserved":false,"is_disabled":false,"rental_uris":{"android":"levelo://app?vid=b618595c-1263-4598-89ff-9c206c586246","ios":"levelo://app?vid=b618595c-1263-4598-89ff-9c206c586246"},"vehicle_type_id":"4","last_reported":1727381352,"current_range_meters":11600,"station_id":"ce4bh3h2rcd13ifvqdo0","pricing_plan_id":"cebpf4jnsgd1na2vs0mg"},{"bike_id":"d6e0c4a3-9804-46b9-a295-0df9259f4e20","system_id":"levelo_inurba_marseille","lat":43.30792,"lon":5.37327,"is_reserved":false,"is_disabled":false,"rental_uris":{"android":"levelo://app?vid=d6e0c4a3-9804-46b9-a295-0df9259f4e20","ios":"levelo://app?vid=d6e0c4a3-9804-46b9-a295-0df9259f4e20"},"vehicle_type_id":"4","last_reported":1727381352,"current_range_meters":30400,"station_id":"","pricing_plan_id":"cebpf4jnsgd1na2vs0mg"},{"bike_id":"33e0a827-7824-44cf-becb-f8a9d658e6f0","system_id":"levelo_inurba_marseille","lat":43.27824,"lon":5.39214,"is_reserved":false,"is_disabled":false,"rental_uris":{"android":"levelo://app?vid=33e0a827-7824-44cf-becb-f8a9d658e6f0","ios":"levelo://app?vid=33e0a827-7824-44cf-becb-f8a9d658e6f0"},"vehicle_type_id":"4","last_reported":1727381352,"current_range_meters":38800,"station_id":"ce4bhjp2rcd13ifvqga0","pricing_plan_id":"cebpf4jnsgd1na2vs0mg"},{"bike_id":"6f0fd928-ae09-45de-b050-22e5b982a7f2","system_id":"levelo_inurba_marseille","lat":43.25732,"lon":5.41107,"is_reserved":false,"is_disabled":false,"rental_uris":{"android":"levelo://app?vid=6f0fd928-ae09-45de-b050-22e5b982a7f2","ios":"levelo://app?vid=6f0fd928-ae09-45de-b050-22e5b982a7f2"},"vehicle_type_id":"4","last_reported":1727381352,"current_range_meters":39200,"station_id":"ce4bhkp2rcd13ifvqgd0","pricing_plan_id":"cebpf4jnsgd1na2vs0mg"},{"bike_id":"2a5af907-7559-46cd-a77c-b07f0ffb335f","system_id":"levelo_inurba_marseille","lat":43.28459,"lon":5.35883,"is_reserved":false,"is_disabled":false,"rental_uris":{"android":"levelo://app?vid=2a5af907-7559-46cd-a77c-b07f0ffb335f","ios":"levelo://app?vid=2a5af907-7559-46cd-a77c-b07f0ffb335f"},"vehicle_type_id":"4","last_reported":1727381352,"current_range_meters":38800,"station_id":"ce4bhah2rcd13ifvqei0","pricing_plan_id":"cebpf4jnsgd1na2vs0mg"},{"bike_id":"91be5db2-aa00-40b1-9e07-1886ba1523e2","system_id":"levelo_inurba_marseille","lat":43.32655,"lon":5.40993,"is_reserved":false,"is_disabled":false,"rental_uris":{"android":"levelo://app?vid=91be5db2-aa00-40b1-9e07-1886ba1523e2","ios":"levelo://app?vid=91be5db2-aa00-40b1-9e07-1886ba1523e2"},"vehicle_type_id":"4","last_reported":1727381352,"current_range_meters":38400,"station_id":"ce4bhpp2rcd13ifvqhgg","pricing_plan_id":"cebpf4jnsgd1na2vs0mg"},{"bike_id":"29802541-fa0b-4fb3-a7ae-c6e77d85e6d2","system_id":"levelo_inurba_marseille","lat":43.30884,"lon":5.39641,"is_reserved":false,"is_disabled":false,"rental_uris":{"android":"levelo://app?vid=29802541-fa0b-4fb3-a7ae-c6e77d85e6d2","ios":"levelo://app?vid=29802541-fa0b-4fb3-a7ae-c6e77d85e6d2"},"vehicle_type_id":"4","last_reported":1727381352,"current_range_meters":38800,"station_id":"ce4bh012rcd13ifvqcv0","pricing_plan_id":"cebpf4jnsgd1na2vs0mg"},{"bike_id":"6af0c378-ba78-4c23-b453-3c114bed4a3b","system_id":"levelo_inurba_marseille","lat":43.30155,"lon":5.38086,"is_reserved":false,"is_disabled":false,"rental_uris":{"android":"levelo://app?vid=6af0c378-ba78-4c23-b453-3c114bed4a3b","ios":"levelo://app?vid=6af0c378-ba78-4c23-b453-3c114bed4a3b"},"vehicle_type_id":"4","last_reported":1727381352,"current_range_meters":34000,"station_id":"ce4bgjp2rcd13ifvqbh0","pricing_plan_id":"cebpf4jnsgd1na2vs0mg"},{"bike_id":"2bfa613d-41f7-4aa2-aea0-117d0ba5b9ce","system_id":"levelo_inurba_marseille","lat":43.29843,"lon":5.36276,"is_reserved":false,"is_disabled":false,"rental_uris":{"android":"levelo://app?vid=2bfa613d-41f7-4aa2-aea0-117d0ba5b9ce","ios":"levelo://app?vid=2bfa613d-41f7-4aa2-aea0-117d0ba5b9ce"},"vehicle_type_id":"4","last_reported":1727381352,"current_range_meters":10000,"station_id":"ce4bgpp2rcd13ifvqc3g","pricing_plan_id":"cebpf4jnsgd1na2vs0mg"},{"bike_id":"848352c7-d63a-483d-a6b8-1a14ab603743","system_id":"levelo_inurba_marseille","lat":43.26211,"lon":5.37438,"is_reserved":false,"is_disabled":false,"rental_uris":{"android":"levelo://app?vid=848352c7-d63a-483d-a6b8-1a14ab603743","ios":"levelo://app?vid=848352c7-d63a-483d-a6b8-1a14ab603743"},"vehicle_type_id":"4","last_reported":1727381352,"current_range_meters":12400,"station_id":"ce4bhn12rcd13ifvqgpg","pricing_plan_id":"cebpf4jnsgd1na2vs0mg"},{"bike_id":"0f26644f-fa08-4f19-9791-4fb2fcaa8537","system_id":"levelo_inurba_marseille","lat":43.30317,"lon":5.40439,"is_reserved":false,"is_disabled":false,"rental_uris":{"android":"levelo://app?vid=0f26644f-fa08-4f19-9791-4fb2fcaa8537","ios":"levelo://app?vid=0f26644f-fa08-4f19-9791-4fb2fcaa8537"},"vehicle_type_id":"4","last_reported":1727381352,"current_range_meters":38800,"station_id":"ce4bh012rcd13ifvqd10","pricing_plan_id":"cebpf4jnsgd1na2vs0mg"},{"bike_id":"ee782f47-20d5-477a-88f7-f9eebcaf671f","system_id":"levelo_inurba_marseille","lat":43.24547,"lon":5.39524,"is_reserved":false,"is_disabled":false,"rental_uris":{"android":"levelo://app?vid=ee782f47-20d5-477a-88f7-f9eebcaf671f","ios":"levelo://app?vid=ee782f47-20d5-477a-88f7-f9eebcaf671f"},"vehicle_type_id":"4","last_reported":1727381352,"current_range_meters":38000,"station_id":"ce4bhlp2rcd13ifvqgjg","pricing_plan_id":"cebpf4jnsgd1na2vs0mg"},{"bike_id":"d2a963ac-bed4-43f7-b810-da119d03552a","system_id":"levelo_inurba_marseille","lat":43.31268,"lon":5.40175,"is_reserved":false,"is_disabled":false,"rental_uris":{"android":"levelo://app?vid=d2a963ac-bed4-43f7-b810-da119d03552a","ios":"levelo://app?vid=d2a963ac-bed4-43f7-b810-da119d03552a"},"vehicle_type_id":"4","last_reported":1727381352,"current_range_meters":37600,"station_id":"ce4bh092rcd13ifvqd30","pricing_plan_id":"cebpf4jnsgd1na2vs0mg"},{"bike_id":"ee7e7d9f-9bee-4e5d-93f2-1dacb89a4e6e","system_id":"levelo_inurba_marseille","lat":43.29885,"lon":5.38898,"is_reserved":false,"is_disabled":false,"rental_uris":{"android":"levelo://app?vid=ee7e7d9f-9bee-4e5d-93f2-1dacb89a4e6e","ios":"levelo://app?vid=ee7e7d9f-9bee-4e5d-93f2-1dacb89a4e6e"},"vehicle_type_id":"4","last_reported":1727381352,"current_range_meters":17200,"station_id":"ce4bh392rcd13ifvqdl0","pricing_plan_id":"cebpf4jnsgd1na2vs0mg"},{"bike_id":"e95ad7d4-46fc-4a72-9279-91a367052550","system_id":"levelo_inurba_marseille","lat":43.24384,"lon":5.37061,"is_reserved":false,"is_disabled":false,"rental_uris":{"android":"levelo://app?vid=e95ad7d4-46fc-4a72-9279-91a367052550","ios":"levelo://app?vid=e95ad7d4-46fc-4a72-9279-91a367052550"},"vehicle_type_id":"4","last_reported":1727381352,"current_range_meters":36400,"station_id":"ce4bhhh2rcd13ifvqfk0","pricing_plan_id":"cebpf4jnsgd1na2vs0mg"},{"bike_id":"14d1f6da-058e-4567-b9de-d048f8c33fe6","system_id":"levelo_inurba_marseille","lat":43.310575,"lon":5.401449,"is_reserved":false,"is_disabled":false,"rental_uris":{"android":"levelo://app?vid=14d1f6da-058e-4567-b9de-d048f8c33fe6","ios":"levelo://app?vid=14d1f6da-058e-4567-b9de-d048f8c33fe6"},"vehicle_type_id":"4","last_reported":1727381352,"current_range_meters":38800,"station_id":"ce4bh092rcd13ifvqd30","pricing_plan_id":"cebpf4jnsgd1na2vs0mg"},