{"last_updated":1750169470,"ttl":60,"version":"2.2","data":{"bikes":[{"bike_id":"3da29fb8-fc97-44c6-b9ac-31dd456b2fd4","system_id":"levelo_inurba_marseille","lat":43.33771,"lon":5.37424,"is_reserved":false,"is_disabled":true,"rental_uris":{"android":"levelo://app?vid=3da29fb8-fc97-44c6-b9ac-31dd456b2fd4","ios":"levelo://app?vid=3da29fb8-fc97-44c6-b9ac-31dd456b2fd4"},"vehicle_type_id":"4","last_reported":1750169470,"current_range_meters":0,"station_id":"","pricing_plan_id":"cebpf4jnsgd1na2vs0mg"},{"bike_id":"01861ad8-a8d7-4be6-816e-651927c87584","system_id":"levelo_inurba_marseille","lat":43.33751,"lon":5.37456,"is_reserved":false,"is_disabled":true,"rental_uris":{"android":"levelo://app?vid=01861ad8-a8d7-4be6-816e-651927c87584","ios":"levelo://app?vid=01861ad8-a8d7-4be6-816e-651927c87584"},"vehicle_type_id":"4","last_reported":1750169470,"current_range_meters":0,"station_id":"","pricing_plan_id":"cebpf4jnsgd1na2vs0mg"},{"bike_id":"b81ba2bd-624d-43c3-b702-6c0cdad38ab2","system_id":"levelo_inurba_marseille","lat":43.31119,"lon":5.39334,"is_reserved":false,"is_disabled":true,"rental_uris":{"android":"levelo://app?vid=b81ba2bd-624d-43c3-b702-6c0cdad38ab2","ios":"levelo://app?vid=b81ba2bd-624d-43c3-b702-6c0cdad38ab2"},"vehicle_type_id":"4","last_reported":1750169470,"current_range_meters":0,"station_id":"","pricing_plan_id":"cebpf4jnsgd1na2vs0mg"},{"bike_id":"d2bd57c8-6b64-48db-ad24-5398eb3fd9d6","system_id":"levelo_inurba_marseille","lat":43.337444,"lon":5.374475,"is_reserved":false,"is_disabled":true,"rental_uris":{"android":"levelo://app?vid=d2bd57c8-6b64-48db-ad24-5398eb3fd9d6","ios":"levelo://app?vid=d2bd57c8-6b64-48db-ad24-5398eb3fd9d6"},"vehicle_type_id":"4","last_reported":1750169470,"current_range_meters":0,"station_id":"","pricing_plan_id":"cebpf4jnsgd1na2vs0mg"},{"bike_id":"62a493c7-4534-4419-ad43-0582de34a72a","system_id":"levelo_inurba_marseille","lat":43.21366,"lon":5.355183,"is_reserved":false,"is_disabled":true,"rental_uris":{"android":"levelo://app?vid=62a493c7-4534-4419-ad43-0582de34a72a","ios":"levelo://app?vid=62a493c7-4534-4419-ad43-0582de34a72a"},"vehicle_type_id":"4","last_reported":1750169470,"current_range_meters":0,"station_id":"","pricing_plan_id":"cebpf4jnsgd1na2vs0mg"},{"bike_id":"93af304b-67b5-47b8-a3fd-e0775f7cde8c","system_id":"levelo_inurba_marseille","lat":43.2157,"lon":5.34757,"is_reserved":false,"is_disabled":true,"rental_uris":{"android":"levelo://app?vid=93af304b-67b5-47b8-a3fd-e0775f7cde8c","ios":"levelo://app?vid=93af304b-67b5-47b8-a3fd-e0775f7cde8c"},"vehicle_type_id":"4","last_reported":1750169470,"current_range_meters":0,"station_id":"","pricing_plan_id":"cebpf4jnsgd1na2vs0mg"},{"bike_id":"d6609b4f-333b-43c1-9ebe-8726f5e76e88","system_id":"levelo_inurba_marseille","lat":43.337444,"lon":5.374475,"is_reserved":false,"is_disabled":true,"rental_uris":{"android":"levelo://app?vid=d6609b4f-333b-43c1-9ebe-8726f5e76e88","ios":"levelo://app?vid=d6609b4f-333b-43c1-9ebe-8726f5e76e88"},"vehicle_type_id":"4","last_reported":1750169470,"current_range_meters":0,"station_id":"","pricing_plan_id":"cebpf4jnsgd1na2vs0mg"},{"bike_id":"57c83ce1-960e-466a-b6c5-d93bc130c53a","system_id":"levelo_inurba_marseille","lat":43.24888,"lon":5.3897,"is_reserved":false,"is_disabled":true,"rental_uris":{"android":"levelo://app?vid=57c83ce1-960e-466a-b6c5-d93bc130c53a","ios":"levelo://app?vid=57c83ce1-960e-466a-b6c5-d93bc130c53a"},"vehicle_type_id":"4","last_reported":1750169470,"current_range_meters":0,"station_id":"","pricing_plan_id":"cebpf4jnsgd1na2vs0mg"},{"bike_id":"6d25d62b-066d-4dda-9876-2eb9c7d39a68","system_id":"levelo_inurba_marseille","lat":43.26125,"lon":5.39372,"is_reserved":false,"is_disabled":true,"rental_uris":{"android":"levelo://app?vid=6d25d62b-066d-4dda-9876-2eb9c7d39a68","ios":"levelo://app?vid=6d25d62b-066d-4dda-9876-2eb9c7d39a68"},"vehicle_type_id":"4","last_reported":1750169470,"current_range_meters":0,"station_id":"","pricing_plan_id":"cebpf4jnsgd1na2vs0mg"},{"bike_id":"be22a8cb-9ca0-42ce-b5c9-4a38a1e0876a","system_id":"levelo_inurba_marseille","lat":43.298487,"lon":5.362884,"is_reserved":false,"is_disabled":true,"rental_uris":{"android":"levelo://app?vid=be22a8cb-9ca0-42ce-b5c9-4a38a1e0876a","ios":"levelo://app?vid=be22a8cb-9ca0-42ce-b5c9-4a38a1e0876a"},"vehicle_type_id":"4","last_reported":1750169470,"current_range_meters":0,"station_id":"ce4bgpp2rcd13ifvqc3g","pricing_plan_id":"cebpf4jnsgd1na2vs0mg"},{"bike_id":"11ea277f-e80d-4d08-b5a8-0b3c3342c4e2","system_id":"levelo_inurba_marseille","lat":43.30649,"lon":5.40077,"is_reserved":false,"is_disabled":true,"rental_uris":{"android":"levelo://app?vid=11ea277f-e80d-4d08-b5a8-0b3c3342c4e2","ios":"levelo://app?vid=11ea277f-e80d-4d08-b5a8-0b3c3342c4e2"},"vehicle_type_id":"4","last_reported":1750169470,"current_range_meters":0,"station_id":"ce4bh112rcd13ifvqda0","pricing_plan_id":"cebpf4jnsgd1na2vs0mg"},{"bike_id":"73fd97e7-5a47-4fd9-95d7-ebb5b687bc21","system_id":"levelo_inurba_marseille","lat":43.28377,"lon":5.38642,"is_reserved":false,"is_disabled":true,"rental_uris":{"android":"levelo://app?vid=73fd97e7-5a47-4fd9-95d7-ebb5b687bc21","ios":"levelo://app?vid=73fd97e7-5a47-4fd9-95d7-ebb5b687bc21"},"vehicle_type_id":"4","last_reported":1750169470,"current_range_meters":0,"station_id":"ce4bh492rcd13ifvqdvg","pricing_plan_id":"cebpf4jnsgd1na2vs0mg"},{"bike_id":"648a1f10-bdc5-4219-8e9e-3b8fc78dc035","system_id":"levelo_inurba_marseille","lat":43.28861,"lon":5.35858,"is_reserved":false,"is_disabled":true,"rental_uris":{"android":"levelo://app?vid=648a1f10-bdc5-4219-8e9e-3b8fc78dc035","ios":"levelo://app?vid=648a1f10-bdc5-4219-8e9e-3b8fc78dc035"},"vehicle_type_id":"4","last_reported":1750169470,"current_range_meters":0,"station_id":"ce4bhb12rcd13ifvqem0","pricing_plan_id":"cebpf4jnsgd1na2vs0mg"},{"bike_id":"826c6f17-2fee-42bb-b83c-814efbc9801f","system_id":"levelo_inurba_marseille","lat":43.29005,"lon":5.35611,"is_reserved":false,"is_disabled":true,"rental_uris":{"android":"levelo://app?vid=826c6f17-2fee-42bb-b83c-814efbc9801f","ios":"levelo://app?vid=826c6f17-2fee-42bb-b83c-814efbc9801f"},"vehicle_type_id":"4","last_reported":1750169470,"current_range_meters":0,"station_id":"ce4bhb92rcd13ifvqen0","pricing_plan_id":"cebpf4jnsgd1na2vs0mg"},{"bike_id":"5cec8e37-4cef-43e7-8bac-fe33b16807f5","system_id":"levelo_inurba_marseille","lat":43.28416,"lon":5.34976,"is_reserved":false,"is_disabled":true,"rental_uris":{"android":"levelo://app?vid=5cec8e37-4cef-43e7-8bac-fe33b16807f5","ios":"levelo://app?vid=5cec8e37-4cef-43e7-8bac-fe33b16807f5"},"vehicle_type_id":"4","last_reported":1750169470,"current_range_meters":0,"station_id":"ce4bhbh2rcd13ifvqepg","pricing_plan_id":"cebpf4jnsgd1na2vs0mg"},{"bike_id":"16ff64da-77bb-4f5a-9681-d4bb414fe829","system_id":"levelo_inurba_marseille","lat":43.23147,"lon":5.43745,"is_reserved":false,"is_disabled":true,"rental_uris":{"android":"levelo://app?vid=16ff64da-77bb-4f5a-9681-d4bb414fe829","ios":"levelo://app?vid=16ff64da-77bb-4f5a-9681-d4bb414fe829"},"vehicle_type_id":"4","last_reported":1750169470,"current_range_meters":0,"station_id":"ce4bhmp2rcd13ifvqgog","pricing_plan_id":"cebpf4jnsgd1na2vs0mg"},{"bike_id":"dbfce7a3-3423-4296-b193-a177dea644ac","system_id":"levelo_inurba_marseille","lat":43.27285,"lon":5.41655,"is_reserved":false,"is_disabled":true,"rental_uris":{"android":"levelo://app?vid=dbfce7a3-3423-4296-b193-a177dea644ac","ios":"levelo://app?vid=dbfce7a3-3423-4296-b193-a177dea644ac"},"vehicle_type_id":"4","last_reported":1750169470,"current_range_meters":400,"station_id":"","pricing_plan_id":"cebpf4jnsgd1na2vs0mg"},{"bike_id":"1896078b-0a13-4be8-9930-a4deb736bce1","system_id":"levelo_inurba_marseille","lat":43.29862,"lon":5.36272,"is_reserved":false,"is_disabled":true,"rental_uris":{"android":"levelo://app?vid=1896078b-0a13-4be8-9930-a4deb736bce1","ios":"levelo://app?vid=1896078b-0a13-4be8-9930-a4deb736bce1"},"vehicle_type_id":"4","last_reported":1750169470,"current_range_meters":400,"station_id":"ce4bgpp2rcd13ifvqc3g","pricing_plan_id":"cebpf4jnsgd1na2vs0mg"},{"bike_id":"f66fe015-9947-4505-a4a8-a88e464c2d77","system_id":"levelo_inurba_marseille","lat":43.29638,"lon":5.40603,"is_reserved":false,"is_disabled":true,"rental_uris":{"android":"levelo://app?vid=f66fe015-9947-4505-a4a8-a88e464c2d77","ios":"levelo://app?vid=f66fe015-9947-4505-a4a8-a88e464c2d77"},"vehicle_type_id":"4","last_reported":1750169470,"current_range_meters":400,"station_id":"ce4bh0h2rcd13ifvqd60","pricing_plan_id":"cebpf4jnsgd1na2vs0mg"},{"bike_id":"be90c99f-2a74-42bf-9ad6-0ca77fd911e1","system_id":"levelo_inurba_marseille","lat":43.27672,"lon":5.38902,"is_reserved":false,"is_disabled":true,"rental_uris":{"android":"levelo://app?vid=be90c99f-2a74-42bf-9ad6-0ca77fd911e1","ios":"levelo://app?vid=be90c99f-2a74-42bf-9ad6-0ca77fd911e1"},"vehicle_type_id":"4","last_reported":1750169470,"current_range_meters":400,"station_id":"ce4bhi12rcd13ifvqfo0","pricing_plan_id":"cebpf4jnsgd1na2vs0mg"},{"bike_id":"aac0fc11-191e-42ff-91e6-143cca72b34b","system_id":"levelo_inurba_marseille","lat":43.23194,"lon":5.35548,"is_reserved":false,"is_disabled":true,"rental_uris":{"android":"levelo://app?vid=aac0fc11-191e-42ff-91e6-143cca72b34b","ios":"levelo://app?vid=aac0fc11-191e-42ff-91e6-143cca72b34b"},"vehicle_type_id":"4","last_reported":1750169470,"current_range_meters":400,"station_id":"ce4bhu92rcd13ifvqi70","pricing_plan_id":"cebpf4jnsgd1na2vs0mg"},{"bike_id":"da2cfb7b-5d50-4a5a-b56d-658e4580c821","system_id":"levelo_inurba_marseille","lat":43.29423,"lon":5.38614,"is_reserved":false,"is_disabled":true,"rental_uris":{"android":"levelo://app?vid=da2cfb7b-5d50-4a5a-b56d-658e4580c821","ios":"levelo://app?vid=da2cfb7b-5d50-4a5a-b56d-658e4580c821"},"vehicle_type_id":"4","last_reported":1750169470,"current_range_meters":800,"station_id":"ce4bh2h2rcd13ifvqdh0","pricing_plan_id":"cebpf4jnsgd1na2vs0mg"},{"bike_id":"3508e573-ed6f-42cb-92af-86dd8b0d0cf6","system_id":"levelo_inurba_marseille","lat":43.29035,"lon":5.38655,"is_reserved":false,"is_disabled":true,"rental_uris":{"android":"levelo://app?vid=3508e573-ed6f-42cb-92af-86dd8b0d0cf6","ios":"levelo://app?vid=3508e573-ed6f-42cb-92af-86dd8b0d0cf6"},"vehicle_type_id":"4","last_reported":1750169470,"current_range_meters":800,"station_id":"ce4bh4p2rcd13ifvqe0g","pricing_plan_id":"cebpf4jnsgd1na2vs0mg"},{"bike_id":"7fb66110-465a-4237-ab4c-cfc374bf1192","system_id":"levelo_inurba_marseille","lat":43.26783,"lon":5.39418,"is_reserved":false,"is_disabled":true,"rental_uris":{"android":"levelo://app?vid=7fb66110-465a-4237-ab4c-cfc374bf1192","ios":"levelo://app?vid=7fb66110-465a-4237-ab4c-cfc374bf1192"},"vehicle_type_id":"4","last_reported":1750169470,"current_range_meters":800,"station_id":"ce4bhh12rcd13ifvqfg0","pricing_plan_id":"cebpf4jnsgd1na2vs0mg"},{"bike_id":"96dd46f9-423e-4ec4-bd23-285933fee203","system_id":"levelo_inurba_marseille","lat":43.2938,"lon":5.37843,"is_reserved":false,"is_disabled":true,"rental_uris":{"android":"levelo://app?vid=96dd46f9-423e-4ec4-bd23-285933fee203","ios":"levelo://app?vid=96dd46f9-423e-4ec4-bd23-285933fee203"},"vehicle_type_id":"4","last_reported":1750169470,"current_range_meters":1200,"station_id":"ce4bgjh2rcd13ifvqbf0","pricing_plan_id":"cebpf4jnsgd1na2vs0mg"},{"bike_id":"fea55674-c2ee-468f-8384-ec15a076e63d","system_id":"levelo_inurba_marseille","lat":43.28853,"lon":5.35853,"is_reserved":false,"is_disabled":true,"rental_uris":{"android":"levelo://app?vid=fea55674-c2ee-468f-8384-ec15a076e63d","ios":"levelo://app?vid=fea55674-c2ee-468f-8384-ec15a076e63d"},"vehicle_type_id":"4","last_reported":1750169470,"current_range_meters":1200,"station_id":"ce4bhb12rcd13ifvqem0","pricing_plan_id":"cebpf4jnsgd1na2vs0mg"},{"bike_id":"b9e37238-9abe-4b8b-b932-edaee33a7e59","system_id":"levelo_inurba_marseille","lat":43.27507,"lon":5.39037,"is_reserved":false,"is_disabled":true,"rental_uris":{"android":"levelo://app?vid=b9e37238-9abe-4b8b-b932-edaee33a7e59","ios":"levelo://app?vid=b9e37238-9abe-4b8b-b932-edaee33a7e59"},"vehicle_type_id":"4","last_reported":1750169470,"current_range_meters":1600,"station_id":"","pricing_plan_id":"cebpf4jnsgd1na2vs0mg"},{"bike_id":"9e04d4a1-cbac-4d91-aa65-6e476ad819d4","system_id":"levelo_inurba_marseille","lat":43.28851,"lon":5.35863,"is_reserved":false,"is_disabled":true,"rental_uris":{"android":"levelo://app?vid=9e04d4a1-cbac-4d91-aa65-6e476ad819d4","ios":"levelo://app?vid=9e04d4a1-cbac-4d91-aa65-6e476ad819d4"},"vehicle_type_id":"4","last_reported":1750169470,"current_range_meters":1600,"station_id":"ce4bhb12rcd13ifvqem0","pricing_plan_id":"cebpf4jnsgd1na2vs0mg"},{"bike_id":"f011ad0d-6563-427c-b322-b8b1a27ac442","system_id":"levelo_inurba_marseille","lat":43.29521,"lon":5.39396,"is_reserved":false,"is_disabled":true,"rental_uris":{"android":"levelo://app?vid=f011ad0d-6563-427c-b322-b8b1a27ac442","ios":"levelo://app?vid=f011ad0d-6563-427c-b322-b8b1a27ac442"},"vehicle_type_id":"4","last_reported":1750169470,"current_range_meters":2000,"station_id":"ce4bh292rcd13ifvqdf0","pricing_plan_id":"cebpf4jnsgd1na2vs0mg"},{"bike_id":"5964e61d-17ef-4356-b20c-cd744579f90b","system_id":"levelo_inurba_marseille","lat":43.24073,"lon":5.37765,"is_reserved":false,"is_disabled":true,"rental_uris":{"android":"levelo://app?vid=5964e61d-17ef-4356-b20c-cd744579f90b","ios":"levelo://app?vid=5964e61d-17ef-4356-b20c-cd744579f90b"},"vehicle_type_id":"4","last_reported":1750169470,"current_range_meters":2000,"station_id":"ce4bhnp2rcd13ifvqgvg","pricing_plan_id":"cebpf4jnsgd1na2vs0mg"},{"bike_id":"dd4876dd-90cc-48be-b2b6-82aded788b07","system_id":"levelo_inurba_marseille","lat":43.30208,"lon":5.39477,"is_reserved":false,"is_disabled":false,"rental_uris":{"android":"levelo://app?vid=dd4876dd-90cc-48be-b2b6-82aded788b07","ios":"levelo://app?vid=dd4876dd-90cc-48be-b2b6-82aded788b07"},"vehicle_type_id":"4","last_reported":1750169470,"current_range_meters":2800,"station_id":"ce4bh0p2rcd13ifvqd70","pricing_plan_id":"cebpf4jnsgd1na2vs0mg"},{"bike_id":"dbd2090c-d501-4741-bcf5-1f975822132f","system_id":"levelo_inurba_marseille","lat":43.240834,"lon":5.377513,"is_reserved":false,"is_disabled":false,"rental_uris":{"android":"levelo://app?vid=dbd2090c-d501-4741-bcf5-1f975822132f","ios":"levelo://app?vid=dbd2090c-d501-4741-bcf5-1f975822132f"},"vehicle_type_id":"4","last_reported":1750169470,"current_range_meters":2800,"station_id":"ce4bhnp2rcd13ifvqgvg","pricing_plan_id":"cebpf4jnsgd1na2vs0mg"},{"bike_id":"8d297b38-f666-4a46-9dee-0132f800019c","system_id":"levelo_inurba_marseille","lat":43.32199,"lon":5.38608,"is_reserved":false,"is_disabled":false,"rental_uris":{"android":"levelo://app?vid=8d297b38-f666-4a46-9dee-0132f800019c","ios":"levelo://app?vid=8d297b38-f666-4a46-9dee-0132f800019c"},"vehicle_type_id":"4","last_reported":1750169470,"current_range_meters":3200,"station_id":"","pricing_plan_id":"cebpf4jnsgd1na2vs0mg"},{"bike_id":"4faccb8f-0588-4742-b8a5-866e56aedad4","system_id":"levelo_inurba_marseille","lat":43.28619,"lon":5.35108,"is_reserved":false,"is_disabled":false,"rental_uris":{"android":"levelo://app?vid=4faccb8f-0588-4742-b8a5-866e56aedad4","ios":"levelo://app?vid=4faccb8f-0588-4742-b8a5-866e56aedad4"},"vehicle_type_id":"4","last_reported":1750169470,"current_range_meters":3200,"station_id":"ce4bhch2rcd13ifvqeug","pricing_plan_id":"cebpf4jnsgd1na2vs0mg"},{"bike_id":"e8208d99-eaa0-49f3-8388-e7f040bc9af7","system_id":"levelo_inurba_marseille","lat":43.30892,"lon":5.39653,"is_reserved":false,"is_disabled":false,"rental_uris":{"android":"levelo://app?vid=e8208d99-eaa0-49f3-8388-e7f040bc9af7","ios":"levelo://app?vid=e8208d99-eaa0-49f3-8388-e7f040bc9af7"},"vehicle_type_id":"4","last_reported":1750169470,"current_range_meters":3600,"station_id":"ce4bh012rcd13ifvqcv0","pricing_plan_id":"cebpf4jnsgd1na2vs0mg"},{"bike_id":"9a75983c-c680-4889-8442-796c9512490f","system_id":"levelo_inurba_marseille","lat":43.29308,"lon":5.37172,"is_reserved":false,"is_disabled":false,"rental_uris":{"android":"levelo://app?vid=9a75983c-c680-4889-8442-796c9512490f","ios":"levelo://app?vid=9a75983c-c680-4889-8442-796c9512490f"},"vehicle_type_id":"4","last_reported":1750169470,"current_range_meters":4000,"station_id":"ce4bgh92rcd13ifvqb40","pricing_plan_id":"cebpf4jnsgd1na2vs0mg"},{"bike_id":"b9c0337c-f335-4b50-aee3-1c7754255899","system_id":"levelo_inurba_marseille","lat":43.31222,"lon":5.36872,"is_reserved":false,"is_disabled":false,"rental_uris":{"android":"levelo://app?vid=b9c0337c-f335-4b50-aee3-1c7754255899","ios":"levelo://app?vid=b9c0337c-f335-4b50-aee3-1c7754255899"},"vehicle_type_id":"4","last_reported":1750169470,"current_range_meters":4000,"station_id":"ce4bgl92rcd13ifvqbq0","pricing_plan_id":"cebpf4jnsgd1na2vs0mg"},{"bike_id":"ef6c537d-31e0-439d-b808-cc27f6ec70cf","system_id":"levelo_inurba_marseille","lat":43.28693,"lon":5.37386,"is_reserved":false,"is_disabled":false,"rental_uris":{"android":"levelo://app?vid=ef6c537d-31e0-439d-b808-cc27f6ec70cf","ios":"levelo://app?vid=ef6c537d-31e0-439d-b808-cc27f6ec70cf"},"vehicle_type_id":"4","last_reported":1750169470,"current_range_meters":4000,"station_id":"ce4bh3p2rcd13ifvqdq0","pricing_plan_id":"cebpf4jnsgd1na2vs0mg"},{"bike_id":"69af7404-5ec1-4810-9e8f-2b24aa559381","system_id":"levelo_inurba_marseille","lat":43.29325,"lon":5.38368,"is_reserved":false,"is_disabled":false,"rental_uris":{"android":"levelo://app?vid=69af7404-5ec1-4810-9e8f-2b24aa559381","ios":"levelo://app?vid=69af7404-5ec1-4810-9e8f-2b24aa559381"},"vehicle_type_id":"4","last_reported":1750169470,"current_range_meters":4400,"station_id":"","pricing_plan_id":"cebpf4jnsgd1na2vs0mg"},{"bike_id":"e0caac74-1074-4bba-bcf5-f8f3a3d3ea12","system_id":"levelo_inurba_marseille","lat":43.28937,"lon":5.36635,"is_reserved":false,"is_disabled":false,"rental_uris":{"android":"levelo://app?vid=e0caac74-1074-4bba-bcf5-f8f3a3d3ea12","ios":"levelo://app?vid=e0caac74-1074-4bba-bcf5-f8f3a3d3ea12"},"vehicle_type_id":"4","last_reported":1750169470,"current_range_meters":4400,"station_id":"ce4bhap2rcd13ifvqek0","pricing_plan_id":"cebpf4jnsgd1na2vs0mg"},{"bike_id":"7e146663-dce5-461a-9f94-5daf76a911ca","system_id":"levelo_inurba_marseille","lat":43.2827,"lon":5.350754,"is_reserved":false,"is_disabled":false,"rental_uris":{"android":"levelo://app?vid=7e146663-dce5-461a-9f94-5daf76a911ca","ios":"levelo://app?vid=7e146663-dce5-461a-9f94-5daf76a911ca"},"vehicle_type_id":"4","last_reported":1750169470,"current_range_meters":4400,"station_id":"ce4bhbp2rcd13ifvqerg","pricing_plan_id":"cebpf4jnsgd1na2vs0mg"},{"bike_id":"a73d5d4c-0697-456c-86c0-d856e065bad6","system_id":"levelo_inurba_marseille","lat":43.28441,"lon":5.39207,"is_reserved":false,"is_disabled":false,"rental_uris":{"android":"levelo://app?vid=a73d5d4c-0697-456c-86c0-d856e065bad6","ios":"levelo://app?vid=a73d5d4c-0697-456c-86c0-d856e065bad6"},"vehicle_type_id":"4","last_reported":1750169470,"current_range_meters":4400,"station_id":"ce4bhoh2rcd13ifvqh5g","pricing_plan_id":"cebpf4jnsgd1na2vs0mg"},{"bike_id":"c1af69c2-bfc8-450c-b68d-bf8f26e672b8","system_id":"levelo_inurba_marseille","lat":43.29785,"lon":5.37177,"is_reserved":false,"is_disabled":false,"rental_uris":{"android":"levelo://app?vid=c1af69c2-bfc8-450c-b68d-bf8f26e672b8","ios":"levelo://app?vid=c1af69c2-bfc8-450c-b68d-bf8f26e672b8"},"vehicle_type_id":"4","last_reported":1750169470,"current_range_meters":4800,"station_id":"ce4bgn12rcd13ifvqbt0","pricing_plan_id":"cebpf4jnsgd1na2vs0mg"},{"bike_id":"cc954312-3bfa-408c-a68b-e78ee5999a19","system_id":"levelo_inurba_marseille","lat":43.217403,"lon":5.345974,"is_reserved":false,"is_disabled":false,"rental_uris":{"android":"levelo://app?vid=cc954312-3bfa-408c-a68b-e78ee5999a19","ios":"levelo://app?vid=cc954312-3bfa-408c-a68b-e78ee5999a19"},"vehicle_type_id":"4","last_reported":1750169470,"current_range_meters":4800,"station_id":"ce4bgup2rcd13ifvqco0","pricing_plan_id":"cebpf4jnsgd1na2vs0mg"},{"bike_id":"c03c3b97-f680-4f6a-a7cf-8f8918b04de7","system_id":"levelo_inurba_marseille","lat":43.31069,"lon":5.38369,"is_reserved":false,"is_disabled":false,"rental_uris":{"android":"levelo://app?vid=c03c3b97-f680-4f6a-a7cf-8f8918b04de7","ios":"levelo://app?vid=c03c3b97-f680-4f6a-a7cf-8f8918b04de7"},"vehicle_type_id":"4","last_reported":1750169470,"current_range_meters":4800,"station_id":"ce4bgv92rcd13ifvqcr0","pricing_plan_id":"cebpf4jnsgd1na2vs0mg"},{"bike_id":"73294cbb-e49f-4888-9bc6-38d0b23b1964","system_id":"levelo_inurba_marseille","lat":43.28721,"lon":5.37931,"is_reserved":false,"is_disabled":false,"rental_uris":{"android":"levelo://app?vid=73294cbb-e49f-4888-9bc6-38d0b23b1964","ios":"levelo://app?vid=73294cbb-e49f-4888-9bc6-38d0b23b1964"},"vehicle_type_id":"4","last_reported":1750169470,"current_range_meters":4800,"station_id":"ce4bh9p2rcd13ifvqec0","pricing_plan_id":"cebpf4jnsgd1na2vs0mg"},{"bike_id":"fcf7057e-34b5-4b02-a2dd-e09279ce39bc","system_id":"levelo_inurba_marseille","lat":43.24167,"lon":5.36395,"is_reserved":false,"is_disabled":false,"rental_uris":{"android":"levelo://app?vid=fcf7057e-34b5-4b02-a2dd-e09279ce39bc","ios":"levelo://app?vid=fcf7057e-34b5-4b02-a2dd-e09279ce39bc"},"vehicle_type_id":"4","last_reported":1750169470,"current_range_meters":4800,"station_id":"cpo36qri1sfpv3e86is0","pricing_plan_id":"cebpf4jnsgd1na2vs0mg"},{"bike_id":"324d8fd5-3127-4b76-8b3e-69b3721bcbf9","system_id":"levelo_inurba_marseille","lat":43.28673,"lon":5.38662,"is_reserved":false,"is_disabled":false,"rental_uris":{"android":"levelo://app?vid=324d8fd5-3127-4b76-8b3e-69b3721bcbf9","ios":"levelo://app?vid=324d8fd5-3127-4b76-8b3e-69b3721bcbf9"},"vehicle_type_id":"4","last_reported":1750169470,"current_range_meters":5600,"station_id":"ce4bh492rcd13ifvqdug","pricing_plan_id":"cebpf4jnsgd1na2vs0mg"},{"bike_id":"dcb87a9a-18f8-41c6-9134-949f31e21b42","system_id":"levelo_inurba_marseille","lat":43.269991,"lon":5.399769,"is_reserved":false,"is_disabled":false,"rental_uris":{"android":"levelo://app?vid=dcb87a9a-18f8-41c6-9134-949f31e21b42","ios":"levelo://app?vid=dcb87a9a-18f8-41c6-9134-949f31e21b42"},"vehicle_type_id":"4","last_reported":1750169470,"current_range_meters":6000,"station_id":"","pricing_plan_id":"cebpf4jnsgd1na2vs0mg"},{"bike_id":"afa8b995-77ce-49b9-8c46-80d017206d7d","system_id":"levelo_inurba_marseille","lat":43.284156,"lon":5.349756,"is_reserved":false,"is_disabled":false,"rental_uris":{"android":"levelo://app?vid=afa8b995-77ce-49b9-8c46-80d017206d7d","ios":"levelo://app?vid=afa8b995-77ce-49b9-8c46-80d017206d7d"},"vehicle_type_id":"4","last_reported":1750169470,"current_range_meters":6400,"station_id":"ce4bhbh2rcd13ifvqepg","pricing_plan_id":"cebpf4jnsgd1na2vs0mg"},{"bike_id":"32177a84-d2c2-4f67-bfb0-00962d9da9f4","system_id":"levelo_inurba_marseille","lat":43.24815,"lon":5.37451,"is_reserved":false,"is_disabled":false,"rental_uris":{"android":"levelo://app?vid=32177a84-d2c2-4f67-bfb0-00962d9da9f4","ios":"levelo://app?vid=32177a84-d2c2-4f67-bfb0-00962d9da9f4"},"vehicle_type_id":"4","last_reported":1750169470,"current_range_meters":6400,"station_id":"ce4bhgh2rcd13ifvqfb0","pricing_plan_id":"cebpf4jnsgd1na2vs0mg"},{"bike_id":"3e33feef-b6f8-4066-af06-cc34a6dbbcc3","system_id":"levelo_inurba_marseille","lat":43.24071,"lon":5.37766,"is_reserved":false,"is_disabled":false,"rental_uris":{"android":"levelo://app?vid=3e33feef-b6f8-4066-af06-cc34a6dbbcc3","ios":"levelo://app?vid=3e33feef-b6f8-4066-af06-cc34a6dbbcc3"},"vehicle_type_id":"4","last_reported":1750169470,"current_range_meters":6400,"station_id":"ce4bhnp2rcd13ifvqgvg","pricing_plan_id":"cebpf4jnsgd1na2vs0mg"},{"bike_id":"b94ad41f-3cd1-4a81-9863-922080040a44","system_id":"levelo_inurba_marseille","lat":43.22509,"lon":5.34783,"is_reserved":false,"is_disabled":false,"rental_uris":{"android":"levelo://app?vid=b94ad41f-3cd1-4a81-9863-922080040a44","ios":"levelo://app?vid=b94ad41f-3cd1-4a81-9863-922080040a44"},"vehicle_type_id":"4","last_reported":1750169470,"current_range_meters":6800,"station_id":"","pricing_plan_id":"cebpf4jnsgd1na2vs0mg"},{"bike_id":"a517ee29-c1fa-4713-a92b-73ee13be1371","system_id":"levelo_inurba_marseille","lat":43.3013,"lon":5.39875,"is_reserved":false,"is_disabled":false,"rental_uris":{"android":"levelo://app?vid=a517ee29-c1fa-4713-a92b-73ee13be1371","ios":"levelo://app?vid=a517ee29-c1fa-4713-a92b-73ee13be1371"},"vehicle_type_id":"4","last_reported":1750169470,"current_range_meters":6800,"station_id":"ce4bh0h2rcd13ifvqd40","pricing_plan_id":"cebpf4jnsgd1na2vs0mg"},{"bike_id":"0a750e4e-1031-4666-9af8-f05f583aa86f","system_id":"levelo_inurba_marseille","lat":43.29033,"lon":5.37577,"is_reserved":false,"is_disabled":false,"rental_uris":{"android":"levelo://app?vid=0a750e4e-1031-4666-9af8-f05f583aa86f","ios":"levelo://app?vid=0a750e4e-1031-4666-9af8-f05f583aa86f"},"vehicle_type_id":"4","last_reported":1750169470,"current_range_meters":6800,"station_id":"ce4bh692rcd13ifvqe90","pricing_plan_id":"cebpf4jnsgd1na2vs0mg"},{"bike_id":"8faf5e54-a4b6-460d-9676-761987fb1cf5","system_id":"levelo_inurba_marseille","lat":43.28463,"lon":5.35891,"is_reserved":false,"is_disabled":false,"rental_uris":{"android":"levelo://app?vid=8faf5e54-a4b6-460d-9676-761987fb1cf5","ios":"levelo://app?vid=8faf5e54-a4b6-460d-9676-761987fb1cf5"},"vehicle_type_id":"4","last_reported":1750169470,"current_range_meters":6800,"station_id":"ce4bhah2rcd13ifvqei0","pricing_plan_id":"cebpf4jnsgd1na2vs0mg"},{"bike_id":"9297915f-e920-4789-b8cf-b3dce9d57e51","system_id":"levelo_inurba_marseille","lat":43.28251,"lon":5.35103,"is_reserved":false,"is_disabled":false,"rental_uris":{"android":"levelo://app?vid=9297915f-e920-4789-b8cf-b3dce9d57e51","ios":"levelo://app?vid=9297915f-e920-4789-b8cf-b3dce9d57e51"},"vehicle_type_id":"4","last_reported":1750169470,"current_range_meters":6800,"station_id":"ce4bhbp2rcd13ifvqerg","pricing_plan_id":"cebpf4jnsgd1na2vs0mg"},{"bike_id":"b519ae5b-0b89-4515-8c33-7df77434803f","system_id":"levelo_inurba_marseille","lat":43.23154,"lon":5.43716,"is_reserved":false,"is_disabled":false,"rental_uris":{"android":"levelo://app?vid=b519ae5b-0b89-4515-8c33-7df77434803f","ios":"levelo://app?vid=b519ae5b-0b89-4515-8c33-7df77434803f"},"vehicle_type_id":"4","last_reported":1750169470,"current_range_meters":6800,"station_id":"ce4bhmp2rcd13ifvqgog","pricing_plan_id":"cebpf4jnsgd1na2vs0mg"},{"bike_id":"419ede4a-c4bb-47e9-971b-35f6de5802e1","system_id":"levelo_inurba_marseille","lat":43.23179,"lon":5.39992,"is_reserved":false,"is_disabled":false,"rental_uris":{"android":"levelo://app?vid=419ede4a-c4bb-47e9-971b-35f6de5802e1","ios":"levelo://app?vid=419ede4a-c4bb-47e9-971b-35f6de5802e1"},"vehicle_type_id":"4","last_reported":1750169470,"current_range_meters":6800,"station_id":"ce4bhn12rcd13ifvqgqg","pricing_plan_id":"cebpf4jnsgd1na2vs0mg"},{"bike_id":"a773811c-b13e-4e1f-b984-f128fa7ce247","system_id":"levelo_inurba_marseille","lat":43.29622,"lon":5.37731,"is_reserved":false,"is_disabled":false,"rental_uris":{"android":"levelo://app?vid=a773811c-b13e-4e1f-b984-f128fa7ce247","ios":"levelo://app?vid=a773811c-b13e-4e1f-b984-f128fa7ce247"},"vehicle_type_id":"4","last_reported":1750169470,"current_range_meters":7200,"station_id":"ce4bgi92rcd13ifvqb90","pricing_plan_id":"cebpf4jnsgd1na2vs0mg"},{"bike_id":"1b5f2e19-7682-430f-9ee8-aa19d85e3d30","system_id":"levelo_inurba_marseille","lat":43.28916,"lon":5.38392,"is_reserved":false,"is_disabled":false,"rental_uris":{"android":"levelo://app?vid=1b5f2e19-7682-430f-9ee8-aa19d85e3d30","ios":"levelo://app?vid=1b5f2e19-7682-430f-9ee8-aa19d85e3d30"},"vehicle_type_id":"4","last_reported":1750169470,"current_range_meters":7200,"station_id":"ce4bh612rcd13ifvqe6g","pricing_plan_id":"cebpf4jnsgd1na2vs0mg"},{"bike_id":"cfa166c8-f9b6-4ff9-8245-4a07df1922fe","system_id":"levelo_inurba_marseille","lat":43.28456,"lon":5.3589,"is_reserved":false,"is_disabled":false,"rental_uris":{"android":"levelo://app?vid=cfa166c8-f9b6-4ff9-8245-4a07df1922fe","ios":"levelo://app?vid=cfa166c8-f9b6-4ff9-8245-4a07df1922fe"},"vehicle_type_id":"4","last_reported":1750169470,"current_range_meters":7200,"station_id":"ce4bhah2rcd13ifvqei0","pricing_plan_id":"cebpf4jnsgd1na2vs0mg"},{"bike_id":"41eed221-4952-46d6-b5dc-611a2e59898e","system_id":"levelo_inurba_marseille","lat":43.28462,"lon":5.35886,"is_reserved":false,"is_disabled":false,"rental_uris":{"android":"levelo://app?vid=41eed221-4952-46d6-b5dc-611a2e59898e","ios":"levelo://app?vid=41eed221-4952-46d6-b5dc-611a2e59898e"},"vehicle_type_id":"4","last_reported":1750169470,"current_range_meters":7200,"station_id":"ce4bhah2rcd13ifvqei0","pricing_plan_id":"cebpf4jnsgd1na2vs0mg"},{"bike_id":"e81f5f20-bd7f-4e33-a133-d32c270f1228","system_id":"levelo_inurba_marseille","lat":43.28929,"lon":5.36625,"is_reserved":false,"is_disabled":false,"rental_uris":{"android":"levelo://app?vid=e81f5f20-bd7f-4e33-a133-d32c270f1228","ios":"levelo://app?vid=e81f5f20-bd7f-4e33-a133-d32c270f1228"},"vehicle_type_id":"4","last_reported":1750169470,"current_range_meters":7200,"station_id":"ce4bhap2rcd13ifvqek0","pricing_plan_id":"cebpf4jnsgd1na2vs0mg"},{"bike_id":"bd8403e4-7fe3-428a-a625-baa656fbb284","system_id":"levelo_inurba_marseille","lat":43.23162,"lon":5.43696,"is_reserved":false,"is_disabled":false,"rental_uris":{"android":"levelo://app?vid=bd8403e4-7fe3-428a-a625-baa656fbb284","ios":"levelo://app?vid=bd8403e4-7fe3-428a-a625-baa656fbb284"},"vehicle_type_id":"4","last_reported":1750169470,"current_range_meters":7200,"station_id":"ce4bhmp2rcd13ifvqgog","pricing_plan_id":"cebpf4jnsgd1na2vs0mg"},{"bike_id":"6afc644c-08c3-42de-8619-3f94e2ba41cd","system_id":"levelo_inurba_marseille","lat":43.29916,"lon":5.436514,"is_reserved":false,"is_disabled":false,"rental_uris":{"android":"levelo://app?vid=6afc644c-08c3-42de-8619-3f94e2ba41cd","ios":"levelo://app?vid=6afc644c-08c3-42de-8619-3f94e2ba41cd"},"vehicle_type_id":"4","last_reported":1750169470,"current_range_meters":7200,"station_id":"ce4bhpp2rcd13ifvqhfg","pricing_plan_id":"cebpf4jnsgd1na2vs0mg"},{"bike_id":"8ad9234e-001a-4549-8bba-9baf2ef98804","system_id":"levelo_inurba_marseille","lat":43.27186,"lon":5.40006,"is_reserved":false,"is_disabled":false,"rental_uris":{"android":"levelo://app?vid=8ad9234e-001a-4549-8bba-9baf2ef98804","ios":"levelo://app?vid=8ad9234e-001a-4549-8bba-9baf2ef98804"},"vehicle_type_id":"4","last_reported":1750169470,"current_range_meters":8000,"station_id":"","pricing_plan_id":"cebpf4jnsgd1na2vs0mg"},{"bike_id":"032feac8-f566-4924-b0a9-49cf829f8ba6","system_id":"levelo_inurba_marseille","lat":43.31065,"lon":5.38379,"is_reserved":false,"is_disabled":false,"rental_uris":{"android":"levelo://app?vid=032feac8-f566-4924-b0a9-49cf829f8ba6","ios":"levelo://app?vid=032feac8-f566-4924-b0a9-49cf829f8ba6"},"vehicle_type_id":"4","last_reported":1750169470,"current_range_meters":8000,"station_id":"ce4bgv92rcd13ifvqcr0","pricing_plan_id":"cebpf4jnsgd1na2vs0mg"},{"bike_id":"e29d0b83-9727-4c52-ab1f-436b5db7843c","system_id":"levelo_inurba_marseille","lat":43.30316,"lon":5.40431,"is_reserved":false,"is_disabled":false,"rental_uris":{"android":"levelo://app?vid=e29d0b83-9727-4c52-ab1f-436b5db7843c","ios":"levelo://app?vid=e29d0b83-9727-4c52-ab1f-436b5db7843c"},"vehicle_type_id":"4","last_reported":1750169470,"current_range_meters":8000,"station_id":"ce4bh012rcd13ifvqd10","pricing_plan_id":"cebpf4jnsgd1na2vs0mg"},{"bike_id":"922ffdbb-fb68-4867-a8e1-dbcd785af29c","system_id":"levelo_inurba_marseille","lat":43.291963,"lon":5.35798,"is_reserved":false,"is_disabled":false,"rental_uris":{"android":"levelo://app?vid=922ffdbb-fb68-4867-a8e1-dbcd785af29c","ios":"levelo://app?vid=922ffdbb-fb68-4867-a8e1-dbcd785af29c"},"vehicle_type_id":"4","last_reported":1750169470,"current_range_meters":8000,"station_id":"ce4bhb12rcd13ifvqel0","pricing_plan_id":"cebpf4jnsgd1na2vs0mg"},{"bike_id":"6363698c-dffd-4d17-b380-3c73877904d7","system_id":"levelo_inurba_marseille","lat":43.28426,"lon":5.39176,"is_reserved":false,"is_disabled":false,"rental_uris":{"android":"levelo://app?vid=6363698c-dffd-4d17-b380-3c73877904d7","ios":"levelo://app?vid=6363698c-dffd-4d17-b380-3c73877904d7"},"vehicle_type_id":"4","last_reported":1750169470,"current_range_meters":8400,"station_id":"ce4bhoh2rcd13ifvqh5g","pricing_plan_id":"cebpf4jnsgd1na2vs0mg"},{"bike_id":"ee996a5b-7af2-4689-bf66-c6ef45af994d","system_id":"levelo_inurba_marseille","lat":43.28827,"lon":5.35947,"is_reserved":false,"is_disabled":false,"rental_uris":{"android":"levelo://app?vid=ee996a5b-7af2-4689-bf66-c6ef45af994d","ios":"levelo://app?vid=ee996a5b-7af2-4689-bf66-c6ef45af994d"},"vehicle_type_id":"4","last_reported":1750169470,"current_range_meters":8800,"station_id":"","pricing_plan_id":"cebpf4jnsgd1na2vs0mg"},{"bike_id":"64c6d212-acc6-47e3-9e04-fbaf04a7ed4e","system_id":"levelo_inurba_marseille","lat":43.27028,"lon":5.38791,"is_reserved":false,"is_disabled":false,"rental_uris":{"android":"levelo://app?vid=64c6d212-acc6-47e3-9e04-fbaf04a7ed4e","ios":"levelo://app?vid=64c6d212-acc6-47e3-9e04-fbaf04a7ed4e"},"vehicle_type_id":"4","last_reported":1750169470,"current_range_meters":8800,"station_id":"","pricing_plan_id":"cebpf4jnsgd1na2vs0mg"},{"bike_id":"2ea25e2d-8862-4546-935b-8ab2e39901ce","system_id":"levelo_inurba_marseille","lat":43.2702,"lon":5.388556,"is_reserved":false,"is_disabled":false,"rental_uris":{"android":"levelo://app?vid=2ea25e2d-8862-4546-935b-8ab2e39901ce","ios":"levelo://app?vid=2ea25e2d-8862-4546-935b-8ab2e39901ce"},"vehicle_type_id":"4","last_reported":1750169470,"current_range_meters":8800,"station_id":"ce4bhgp2rcd13ifvqfe0","pricing_plan_id":"cebpf4jnsgd1na2vs0mg"},{"bike_id":"8c26cbe9-ec4a-47b0-a3c2-563d10eef78c","system_id":"levelo_inurba_marseille","lat":43.29554,"lon":5.42295,"is_reserved":false,"is_disabled":false,"rental_uris":{"android":"levelo://app?vid=8c26cbe9-ec4a-47b0-a3c2-563d10eef78c","ios":"levelo://app?vid=8c26cbe9-ec4a-47b0-a3c2-563d10eef78c"},"vehicle_type_id":"4","last_reported":1750169470,"current_range_meters":8800,"station_id":"ce4bhph2rcd13ifvqhdg","pricing_plan_id":"cebpf4jnsgd1na2vs0mg"},{"bike_id":"da3e1724-606c-4f9a-9130-d56dd48e22e0","system_id":"levelo_inurba_marseille","lat":43.32975,"lon":5.40604,"is_reserved":false,"is_disabled":false,"rental_uris":{"android":"levelo://app?vid=da3e1724-606c-4f9a-9130-d56dd48e22e0","ios":"levelo://app?vid=da3e1724-606c-4f9a-9130-d56dd48e22e0"},"vehicle_type_id":"4","last_reported":1750169470,"current_range_meters":9200,"station_id":"","pricing_plan_id":"cebpf4jnsgd1na2vs0mg"},{"bike_id":"b86dff87-b6e8-4a22-b120-c506c0a6289f","system_id":"levelo_inurba_marseille","lat":43.22501,"lon":5.34783,"is_reserved":false,"is_disabled":false,"rental_uris":{"android":"levelo://app?vid=b86dff87-b6e8-4a22-b120-c506c0a6289f","ios":"levelo://app?vid=b86dff87-b6e8-4a22-b120-c506c0a6289f"},"vehicle_type_id":"4","last_reported":1750169470,"current_range_meters":9200,"station_id":"","pricing_plan_id":"cebpf4jnsgd1na2vs0mg"},{"bike_id":"69444e7c-750f-4733-8301-771316404f57","system_id":"levelo_inurba_marseille","lat":43.301865,"lon":5.397775,"is_reserved":false,"is_disabled":false,"rental_uris":{"android":"levelo://app?vid=69444e7c-750f-4733-8301-771316404f57","ios":"levelo://app?vid=69444e7c-750f-4733-8301-771316404f57"},"vehicle_type_id":"4","last_reported":1750169470,"current_range_meters":9200,"station_id":"ce4bh0h2rcd13ifvqd40","pricing_plan_id":"cebpf4jnsgd1na2vs0mg"},{"bike_id":"043a28b5-f5ad-48f6-84fa-9577ec582f17","system_id":"levelo_inurba_marseille","lat":43.26212,"lon":5.37443,"is_reserved":false,"is_disabled":false,"rental_uris":{"android":"levelo://app?vid=043a28b5-f5ad-48f6-84fa-9577ec582f17","ios":"levelo://app?vid=043a28b5-f5ad-48f6-84fa-9577ec582f17"},"vehicle_type_id":"4","last_reported":1750169470,"current_range_meters":9200,"station_id":"ce4bhgp2rcd13ifvqfc0","pricing_plan_id":"cebpf4jnsgd1na2vs0mg"},{"bike_id":"356258c8-0ad6-493b-b5a4-77e865070f65","system_id":"levelo_inurba_marseille","lat":43.326,"lon":5.41973,"is_reserved":false,"is_disabled":false,"rental_uris":{"android":"levelo://app?vid=356258c8-0ad6-493b-b5a4-77e865070f65","ios":"levelo://app?vid=356258c8-0ad6-493b-b5a4-77e865070f65"},"vehicle_type_id":"4","last_reported":1750169470,"current_range_meters":9600,"station_id":"","pricing_plan_id":"cebpf4jnsgd1na2vs0mg"},{"bike_id":"deb38999-c91b-4f43-b22c-fd1462ee153d","system_id":"levelo_inurba_marseille","lat":43.279046,"lon":5.396066,"is_reserved":false,"is_disabled":false,"rental_uris":{"android":"levelo://app?vid=deb38999-c91b-4f43-b22c-fd1462ee153d","ios":"levelo://app?vid=deb38999-c91b-4f43-b22c-fd1462ee153d"},"vehicle_type_id":"4","last_reported":1750169470,"current_range_meters":10000,"station_id":"ce4bhjp2rcd13ifvqga0","pricing_plan_id":"cebpf4jnsgd1na2vs0mg"},{"bike_id":"3b136301-d892-4bf1-aa15-695ec30464ca","system_id":"levelo_inurba_marseille","lat":43.32097,"lon":5.36784,"is_reserved":false,"is_disabled":false,"rental_uris":{"android":"levelo://app?vid=3b136301-d892-4bf1-aa15-695ec30464ca","ios":"levelo://app?vid=3b136301-d892-4bf1-aa15-695ec30464ca"},"vehicle_type_id":"4","last_reported":1750169470,"current_range_meters":10000,"station_id":"ce4bhrh2rcd13ifvqhug","pricing_plan_id":"cebpf4jnsgd1na2vs0mg"},{"bike_id":"25960fd9-8509-4555-9b23-fa4fae1e21d0","system_id":"levelo_inurba_marseille","lat":43.29015,"lon":5.38208,"is_reserved":false,"is_disabled":false,"rental_uris":{"android":"levelo://app?vid=25960fd9-8509-4555-9b23-fa4fae1e21d0","ios":"levelo://app?vid=25960fd9-8509-4555-9b23-fa4fae1e21d0"},"vehicle_type_id":"4","last_reported":1750169470,"current_range_meters":10800,"station_id":"","pricing_plan_id":"cebpf4jnsgd1na2vs0mg"},{"bike_id":"b16e8e6a-0287-499c-ab11-a45768e0e2ec","system_id":"levelo_inurba_marseille","lat":43.24809,"lon":5.3746,"is_reserved":false,"is_disabled":false,"rental_uris":{"android":"levelo://app?vid=b16e8e6a-0287-499c-ab11-a45768e0e2ec","ios":"levelo://app?vid=b16e8e6a-0287-499c-ab11-a45768e0e2ec"},"vehicle_type_id":"4","last_reported":1750169470,"current_range_meters":10800,"station_id":"ce4bhgh2rcd13ifvqfb0","pricing_plan_id":"cebpf4jnsgd1na2vs0mg"},{"bike_id":"de984505-74c1-4076-9a29-c0f8b4e3a098","system_id":"levelo_inurba_marseille","lat":43.30143,"lon":5.37389,"is_reserved":false,"is_disabled":false,"rental_uris":{"android":"levelo://app?vid=de984505-74c1-4076-9a29-c0f8b4e3a098","ios":"levelo://app?vid=de984505-74c1-4076-9a29-c0f8b4e3a098"},"vehicle_type_id":"4","last_reported":1750169470,"current_range_meters":11200,"station_id":"ce4bgs92rcd13ifvqcc0","pricing_plan_id":"cebpf4jnsgd1na2vs0mg"},{"bike_id":"0ea844ae-3db1-4632-bada-0d72841e5ff0","system_id":"levelo_inurba_marseille","lat":43.28263,"lon":5.35061,"is_reserved":false,"is_disabled":false,"rental_uris":{"android":"levelo://app?vid=0ea844ae-3db1-4632-bada-0d72841e5ff0","ios":"levelo://app?vid=0ea844ae-3db1-4632-bada-0d72841e5ff0"},"vehicle_type_id":"4","last_reported":1750169470,"current_range_meters":11200,"station_id":"ce4bhbp2rcd13ifvqerg","pricing_plan_id":"cebpf4jnsgd1na2vs0mg"},{"bike_id":"222abc74-91c7-44a6-88b6-c71afabef20f","system_id":"levelo_inurba_marseille","lat":43.32474,"lon":5.36584,"is_reserved":false,"is_disabled":false,"rental_uris":{"android":"levelo://app?vid=222abc74-91c7-44a6-88b6-c71afabef20f","ios":"levelo://app?vid=222abc74-91c7-44a6-88b6-c71afabef20f"},"vehicle_type_id":"4","last_reported":1750169470,"current_range_meters":11200,"station_id":"ce4bhs12rcd13ifvqhvg","pricing_plan_id":"cebpf4jnsgd1na2vs0mg"},{"bike_id":"29291b3e-d0d9-452a-92c6-f7d592134821","system_id":"levelo_inurba_marseille","lat":43.21762,"lon":5.34594,"is_reserved":false,"is_disabled":false,"rental_uris":{"android":"levelo://app?vid=29291b3e-d0d9-452a-92c6-f7d592134821","ios":"levelo://app?vid=29291b3e-d0d9-452a-92c6-f7d592134821"},"vehicle_type_id":"4","last_reported":1750169470,"current_range_meters":11600,"station_id":"","pricing_plan_id":"cebpf4jnsgd1na2vs0mg"},{"bike_id":"d15e97b3-501f-458f-810d-aadce744705f","system_id":"levelo_inurba_marseille","lat":43.31208,"lon":5.36881,"is_reserved":false,"is_disabled":false,"rental_uris":{"android":"levelo://app?vid=d15e97b3-501f-458f-810d-aadce744705f","ios":"levelo://app?vid=d15e97b3-501f-458f-810d-aadce744705f"},"vehicle_type_id":"4","last_reported":1750169470,"current_range_meters":11600,"station_id":"ce4bgl92rcd13ifvqbq0","pricing_plan_id":"cebpf4jnsgd1na2vs0mg"},{"bike_id":"186a9269-6eb4-40e4-aa01-e44453bc6f48","system_id":"levelo_inurba_marseille","lat":43.3019,"lon":5.36599,"is_reserved":false,"is_disabled":false,"rental_uris":{"android":"levelo://app?vid=186a9269-6eb4-40e4-aa01-e44453bc6f48","ios":"levelo://app?vid=186a9269-6eb4-40e4-aa01-e44453bc6f48"},"vehicle_type_id":"4","last_reported":1750169470,"current_range_meters":11600,"station_id":"ce4bgrh2rcd13ifvqc8g","pricing_plan_id":"cebpf4jnsgd1na2vs0mg"},{"bike_id":"703a4970-fa4f-4e55-8576-1598896dbe72","system_id":"levelo_inurba_marseille","lat":43.27377,"lon":5.36264,"is_reserved":false,"is_disabled":false,"rental_uris":{"android":"levelo://app?vid=703a4970-fa4f-4e55-8576-1598896dbe72","ios":"levelo://app?vid=703a4970-fa4f-4e55-8576-1598896dbe72"},"vehicle_type_id":"4","last_reported":1750169470,"current_range_meters":11600,"station_id":"ce4bhbh2rcd13ifvqeo0","pricing_plan_id":"cebpf4jnsgd1na2vs0mg"},{"bike_id":"3c39302c-d542-44ea-aaeb-4e66b9ce995a","system_id":"levelo_inurba_marseille","lat":43.26025,"lon":5.37548,"is_reserved":false,"is_disabled":false,"rental_uris":{"android":"levelo://app?vid=3c39302c-d542-44ea-aaeb-4e66b9ce995a","ios":"levelo://app?vid=3c39302c-d542-44ea-aaeb-4e66b9ce995a"},"vehicle_type_id":"4","last_reported":1750169470,"current_range_meters":11600,"station_id":"ce4bhgh2rcd13ifvqfa0","pricing_plan_id":"cebpf4jnsgd1na2vs0mg"},{"bike_id":"90f6986c-16e3-4eb6-8f80-acf5c75eda02","system_id":"levelo_inurba_marseille","lat":43.24387,"lon":5.37054,"is_reserved":false,"is_disabled":false,"rental_uris":{"android":"levelo://app?vid=90f6986c-16e3-4eb6-8f80-acf5c75eda02","ios":"levelo://app?vid=90f6986c-16e3-4eb6-8f80-acf5c75eda02"},"vehicle_type_id":"4","last_reported":1750169470,"current_range_meters":11600,"station_id":"ce4bhhh2rcd13ifvqfk0","pricing_plan_id":"cebpf4jnsgd1na2vs0mg"},{"bike_id":"5aecd506-2140-4b5b-b2d7-a7220caa1805","system_id":"levelo_inurba_marseille","lat":43.24076,"lon":5.37759,"is_reserved":false,"is_disabled":false,"rental_uris":{"android":"levelo://app?vid=5aecd506-2140-4b5b-b2d7-a7220caa1805","ios":"levelo://app?vid=5aecd506-2140-4b5b-b2d7-a7220caa1805"},"vehicle_type_id":"4","last_reported":1750169470,"current_range_meters":11600,"station_id":"ce4bhnp2rcd13ifvqgvg","pricing_plan_id":"cebpf4jnsgd1na2vs0mg"},{"bike_id":"c7a06562-cd0a-4ce3-9c99-6876f6925b3f","system_id":"levelo_inurba_marseille","lat":43.24093,"lon":5.37757,"is_reserved":false,"is_disabled":false,"rental_uris":{"android":"levelo://app?vid=c7a06562-cd0a-4ce3-9c99-6876f6925b3f","ios":"levelo://app?vid=c7a06562-cd0a-4ce3-9c99-6876f6925b3f"},"vehicle_type_id":"4","last_reported":1750169470,"current_range_meters":11600,"station_id":"ce4bhnp2rcd13ifvqgvg","pricing_plan_id":"cebpf4jnsgd1na2vs0mg"},{"bike_id":"1e373418-986e-4d3c-9ff7-c37dd7c7a214","system_id":"levelo_inurba_marseille","lat":43.299002,"lon":5.436671,"is_reserved":false,"is_disabled":false,"rental_uris":{"android":"levelo://app?vid=1e373418-986e-4d3c-9ff7-c37dd7c7a214","ios":"levelo://app?vid=1e373418-986e-4d3c-9ff7-c37dd7c7a214"},"vehicle_type_id":"4","last_reported":1750169470,"current_range_meters":11600,"station_id":"ce4bhpp2rcd13ifvqhfg","pricing_plan_id":"cebpf4jnsgd1na2vs0mg"},{"bike_id":"21db6be8-f2e2-48de-81b0-b885d32bca75","system_id":"levelo_inurba_marseille","lat":43.30604,"lon":5.372023,"is_reserved":false,"is_disabled":false,"rental_uris":{"android":"levelo://app?vid=21db6be8-f2e2-48de-81b0-b885d32bca75","ios":"levelo://app?vid=21db6be8-f2e2-48de-81b0-b885d32bca75"},"vehicle_type_id":"4","last_reported":1750169470,"current_range_meters":12000,"station_id":"ce4bgqh2rcd13ifvqc4g","pricing_plan_id":"cebpf4jnsgd1na2vs0mg"},{"bike_id":"7200450d-0e85-463f-ac18-1833998b4d86","system_id":"levelo_inurba_marseille","lat":43.29035,"lon":5.37563,"is_reserved":false,"is_disabled":false,"rental_uris":{"android":"levelo://app?vid=7200450d-0e85-463f-ac18-1833998b4d86","ios":"levelo://app?vid=7200450d-0e85-463f-ac18-1833998b4d86"},"vehicle_type_id":"4","last_reported":1750169470,"current_range_meters":12000,"station_id":"ce4bh692rcd13ifvqe90","pricing_plan_id":"cebpf4jnsgd1na2vs0mg"},{"bike_id":"5d1a3ed1-70f0-4deb-899c-75c1b0d6c2fe","system_id":"levelo_inurba_marseille","lat":43.24376,"lon":5.37078,"is_reserved":false,"is_disabled":false,"rental_uris":{"android":"levelo://app?vid=5d1a3ed1-70f0-4deb-899c-75c1b0d6c2fe","ios":"levelo://app?vid=5d1a3ed1-70f0-4deb-899c-75c1b0d6c2fe"},"vehicle_type_id":"4","last_reported":1750169470,"current_range_meters":12000,"station_id":"ce4bhhh2rcd13ifvqfk0","pricing_plan_id":"cebpf4jnsgd1na2vs0mg"},{"bike_id":"c8e7a0a3-899e-43d4-9788-9b1b07c48f2f","system_id":"levelo_inurba_marseille","lat":43.21196,"lon":5.35115,"is_reserved":false,"is_disabled":false,"rental_uris":{"android":"levelo://app?vid=c8e7a0a3-899e-43d4-9788-9b1b07c48f2f","ios":"levelo://app?vid=c8e7a0a3-899e-43d4-9788-9b1b07c48f2f"},"vehicle_type_id":"4","last_reported":1750169470,"current_range_meters":12000,"station_id":"st_cvj6sg6p6f1abm77japg","pricing_plan_id":"cebpf4jnsgd1na2vs0mg"},{"bike_id":"0e27dafc-21df-4fb1-bd36-2450a7866702","system_id":"levelo_inurba_marseille","lat":43.27145,"lon":5.39979,"is_reserved":false,"is_disabled":false,"rental_uris":{"android":"levelo://app?vid=0e27dafc-21df-4fb1-bd36-2450a7866702","ios":"levelo://app?vid=0e27dafc-21df-4fb1-bd36-2450a7866702"},"vehicle_type_id":"4","last_reported":1750169470,"current_range_meters":12400,"station_id":"","pricing_plan_id":"cebpf4jnsgd1na2vs0mg"},{"bike_id":"37ae53ad-087e-4c40-892b-8b52c67a901f","system_id":"levelo_inurba_marseille","lat":43.31073,"lon":5.38353,"is_reserved":false,"is_disabled":false,"rental_uris":{"android":"levelo://app?vid=37ae53ad-087e-4c40-892b-8b52c67a901f","ios":"levelo://app?vid=37ae53ad-087e-4c40-892b-8b52c67a901f"},"vehicle_type_id":"4","last_reported":1750169470,"current_range_meters":12400,"station_id":"ce4bgv92rcd13ifvqcr0","pricing_plan_id":"cebpf4jnsgd1na2vs0mg"},{"bike_id":"aea96368-06fe-4d87-bc4d-fc776cc9df25","system_id":"levelo_inurba_marseille","lat":43.27497,"lon":5.42448,"is_reserved":false,"is_disabled":false,"rental_uris":{"android":"levelo://app?vid=aea96368-06fe-4d87-bc4d-fc776cc9df25","ios":"levelo://app?vid=aea96368-06fe-4d87-bc4d-fc776cc9df25"},"vehicle_type_id":"4","last_reported":1750169470,"current_range_meters":12400,"station_id":"ce4bhn92rcd13ifvqgrg","pricing_plan_id":"cebpf4jnsgd1na2vs0mg"},{"bike_id":"18d442a3-6bb6-4e39-934b-12612d9bfaaf","system_id":"levelo_inurba_marseille","lat":43.27373,"lon":5.36259,"is_reserved":false,"is_disabled":false,"rental_uris":{"android":"levelo://app?vid=18d442a3-6bb6-4e39-934b-12612d9bfaaf","ios":"levelo://app?vid=18d442a3-6bb6-4e39-934b-12612d9bfaaf"},"vehicle_type_id":"4","last_reported":1750169470,"current_range_meters":12800,"station_id":"ce4bhbh2rcd13ifvqeo0","pricing_plan_id":"cebpf4jnsgd1na2vs0mg"},{"bike_id":"67014cb0-84bd-4d02-937c-ed6ffa96f69e","system_id":"levelo_inurba_marseille","lat":43.27377,"lon":5.36258,"is_reserved":false,"is_disabled":false,"rental_uris":{"android":"levelo://app?vid=67014cb0-84bd-4d02-937c-ed6ffa96f69e","ios":"levelo://app?vid=67014cb0-84bd-4d02-937c-ed6ffa96f69e"},"vehicle_type_id":"4","last_reported":1750169470,"current_range_meters":12800,"station_id":"ce4bhbh2rcd13ifvqeo0","pricing_plan_id":"cebpf4jnsgd1na2vs0mg"},{"bike_id":"9dd0a0dd-0ecf-4698-ac01-c67aee410a02","system_id":"levelo_inurba_marseille","lat":43.28709,"lon":5.39991,"is_reserved":false,"is_disabled":false,"rental_uris":{"android":"levelo://app?vid=9dd0a0dd-0ecf-4698-ac01-c67aee410a02","ios":"levelo://app?vid=9dd0a0dd-0ecf-4698-ac01-c67aee410a02"},"vehicle_type_id":"4","last_reported":1750169470,"current_range_meters":12800,"station_id":"ce4bho92rcd13ifvqh3g","pricing_plan_id":"cebpf4jnsgd1na2vs0mg"},{"bike_id":"eca25bd6-1b44-4388-a7b0-074a85a4f502","system_id":"levelo_inurba_marseille","lat":43.310964,"lon":5.397385,"is_reserved":false,"is_disabled":false,"rental_uris":{"android":"levelo://app?vid=eca25bd6-1b44-4388-a7b0-074a85a4f502","ios":"levelo://app?vid=eca25bd6-1b44-4388-a7b0-074a85a4f502"},"vehicle_type_id":"4","last_reported":1750169470,"current_range_meters":13600,"station_id":"","pricing_plan_id":"cebpf4jnsgd1na2vs0mg"},{"bike_id":"71d613e5-c8e5-4562-8757-91be4f843ebf","system_id":"levelo_inurba_marseille","lat":43.2937,"lon":5.37823,"is_reserved":false,"is_disabled":false,"rental_uris":{"android":"levelo://app?vid=71d613e5-c8e5-4562-8757-91be4f843ebf","ios":"levelo://app?vid=71d613e5-c8e5-4562-8757-91be4f843ebf"},"vehicle_type_id":"4","last_reported":1750169470,"current_range_meters":13600,"station_id":"ce4bgjh2rcd13ifvqbf0","pricing_plan_id":"cebpf4jnsgd1na2vs0mg"},{"bike_id":"ce1796c7-4724-4615-98b7-c788952f45f8","system_id":"levelo_inurba_marseille","lat":43.28261,"lon":5.35076,"is_reserved":false,"is_disabled":false,"rental_uris":{"android":"levelo://app?vid=ce1796c7-4724-4615-98b7-c788952f45f8","ios":"levelo://app?vid=ce1796c7-4724-4615-98b7-c788952f45f8"},"vehicle_type_id":"4","last_reported":1750169470,"current_range_meters":13600,"station_id":"ce4bhbp2rcd13ifvqerg","pricing_plan_id":"cebpf4jnsgd1na2vs0mg"},{"bike_id":"745d1736-3ecf-47b6-8f75-d0f27f9acb44","system_id":"levelo_inurba_marseille","lat":43.27834,"lon":5.39209,"is_reserved":false,"is_disabled":false,"rental_uris":{"android":"levelo://app?vid=745d1736-3ecf-47b6-8f75-d0f27f9acb44","ios":"levelo://app?vid=745d1736-3ecf-47b6-8f75-d0f27f9acb44"},"vehicle_type_id":"4","last_reported":1750169470,"current_range_meters":13600,"station_id":"ce4bhjp2rcd13ifvqga0","pricing_plan_id":"cebpf4jnsgd1na2vs0mg"},{"bike_id":"6d392914-420e-49a0-9a62-e1c19d840639","system_id":"levelo_inurba_marseille","lat":43.3038,"lon":5.42504,"is_reserved":false,"is_disabled":false,"rental_uris":{"android":"levelo://app?vid=6d392914-420e-49a0-9a62-e1c19d840639","ios":"levelo://app?vid=6d392914-420e-49a0-9a62-e1c19d840639"},"vehicle_type_id":"4","last_reported":1750169470,"current_range_meters":13600,"station_id":"ce4bhoh2rcd13ifvqh6g","pricing_plan_id":"cebpf4jnsgd1na2vs0mg"},{"bike_id":"94556628-72cd-4618-b5b6-25b5cfa4141b","system_id":"levelo_inurba_marseille","lat":43.21222,"lon":5.35097,"is_reserved":false,"is_disabled":false,"rental_uris":{"android":"levelo://app?vid=94556628-72cd-4618-b5b6-25b5cfa4141b","ios":"levelo://app?vid=94556628-72cd-4618-b5b6-25b5cfa4141b"},"vehicle_type_id":"4","last_reported":1750169470,"current_range_meters":13600,"station_id":"st_cvj6sg6p6f1abm77japg","pricing_plan_id":"cebpf4jnsgd1na2vs0mg"},{"bike_id":"83cfee7d-980d-496a-98c8-745c7e44c68d","system_id":"levelo_inurba_marseille","lat":43.328791,"lon":5.390896,"is_reserved":false,"is_disabled":false,"rental_uris":{"android":"levelo://app?vid=83cfee7d-980d-496a-98c8-745c7e44c68d","ios":"levelo://app?vid=83cfee7d-980d-496a-98c8-745c7e44c68d"},"vehicle_type_id":"4","last_reported":1750169470,"current_range_meters":14000,"station_id":"","pricing_plan_id":"cebpf4jnsgd1na2vs0mg"},{"bike_id":"77596610-7ba6-4a7d-b0b0-ffdbf40ce272","system_id":"levelo_inurba_marseille","lat":43.263193,"lon":5.376423,"is_reserved":false,"is_disabled":false,"rental_uris":{"android":"levelo://app?vid=77596610-7ba6-4a7d-b0b0-ffdbf40ce272","ios":"levelo://app?vid=77596610-7ba6-4a7d-b0b0-ffdbf40ce272"},"vehicle_type_id":"4","last_reported":1750169470,"current_range_meters":14000,"station_id":"ce4bh412rcd13ifvqdr0","pricing_plan_id":"cebpf4jnsgd1na2vs0mg"},{"bike_id":"a885d2c7-8471-4bf8-867e-a8021f6b5178","system_id":"levelo_inurba_marseille","lat":43.28035,"lon":5.36943,"is_reserved":false,"is_disabled":false,"rental_uris":{"android":"levelo://app?vid=a885d2c7-8471-4bf8-867e-a8021f6b5178","ios":"levelo://app?vid=a885d2c7-8471-4bf8-867e-a8021f6b5178"},"vehicle_type_id":"4","last_reported":1750169470,"current_range_meters":14000,"station_id":"ce4bha12rcd13ifvqef0","pricing_plan_id":"cebpf4jnsgd1na2vs0mg"},{"bike_id":"7c5d0588-82b8-4608-9bdc-83ca6f35ab3a","system_id":"levelo_inurba_marseille","lat":43.324891,"lon":5.365768,"is_reserved":false,"is_disabled":false,"rental_uris":{"android":"levelo://app?vid=7c5d0588-82b8-4608-9bdc-83ca6f35ab3a","ios":"levelo://app?vid=7c5d0588-82b8-4608-9bdc-83ca6f35ab3a"},"vehicle_type_id":"4","last_reported":1750169470,"current_range_meters":14000,"station_id":"ce4bhs12rcd13ifvqhvg","pricing_plan_id":"cebpf4jnsgd1na2vs0mg"},{"bike_id":"7d421ff8-33e6-402f-b8cb-5f8e4a526a55","system_id":"levelo_inurba_marseille","lat":43.29581,"lon":5.36738,"is_reserved":false,"is_disabled":false,"rental_uris":{"android":"levelo://app?vid=7d421ff8-33e6-402f-b8cb-5f8e4a526a55","ios":"levelo://app?vid=7d421ff8-33e6-402f-b8cb-5f8e4a526a55"},"vehicle_type_id":"4","last_reported":1750169470,"current_range_meters":14400,"station_id":"ce4bgph2rcd13ifvqc2g","pricing_plan_id":"cebpf4jnsgd1na2vs0mg"},{"bike_id":"17292c3d-c1c3-43f3-b939-859b09613c29","system_id":"levelo_inurba_marseille","lat":43.28929,"lon":5.36634,"is_reserved":false,"is_disabled":false,"rental_uris":{"android":"levelo://app?vid=17292c3d-c1c3-43f3-b939-859b09613c29","ios":"levelo://app?vid=17292c3d-c1c3-43f3-b939-859b09613c29"},"vehicle_type_id":"4","last_reported":1750169470,"current_range_meters":14400,"station_id":"ce4bhap2rcd13ifvqek0","pricing_plan_id":"cebpf4jnsgd1na2vs0mg"},{"bike_id":"c43bc47b-a41e-493c-846e-c200bc5e09ab","system_id":"levelo_inurba_marseille","lat":43.24805,"lon":5.37453,"is_reserved":false,"is_disabled":false,"rental_uris":{"android":"levelo://app?vid=c43bc47b-a41e-493c-846e-c200bc5e09ab","ios":"levelo://app?vid=c43bc47b-a41e-493c-846e-c200bc5e09ab"},"vehicle_type_id":"4","last_reported":1750169470,"current_range_meters":14400,"station_id":"ce4bhgh2rcd13ifvqfb0","pricing_plan_id":"cebpf4jnsgd1na2vs0mg"},{"bike_id":"0c4a988b-d617-4a75-b0db-7028aea1889b","system_id":"levelo_inurba_marseille","lat":43.24051,"lon":5.3775,"is_reserved":false,"is_disabled":false,"rental_uris":{"android":"levelo://app?vid=0c4a988b-d617-4a75-b0db-7028aea1889b","ios":"levelo://app?vid=0c4a988b-d617-4a75-b0db-7028aea1889b"},"vehicle_type_id":"4","last_reported":1750169470,"current_range_meters":14400,"station_id":"ce4bhnp2rcd13ifvqgvg","pricing_plan_id":"cebpf4jnsgd1na2vs0mg"},{"bike_id":"f43f2d4b-7022-47e7-9d02-0f666a989515","system_id":"levelo_inurba_marseille","lat":43.23189,"lon":5.35553,"is_reserved":false,"is_disabled":false,"rental_uris":{"android":"levelo://app?vid=f43f2d4b-7022-47e7-9d02-0f666a989515","ios":"levelo://app?vid=f43f2d4b-7022-47e7-9d02-0f666a989515"},"vehicle_type_id":"4","last_reported":1750169470,"current_range_meters":14400,"station_id":"ce4bhu92rcd13ifvqi70","pricing_plan_id":"cebpf4jnsgd1na2vs0mg"},{"bike_id":"c40c156e-bf73-4375-a81d-8f7bb9af5bdc","system_id":"levelo_inurba_marseille","lat":43.30601,"lon":5.37216,"is_reserved":false,"is_disabled":false,"rental_uris":{"android":"levelo://app?vid=c40c156e-bf73-4375-a81d-8f7bb9af5bdc","ios":"levelo://app?vid=c40c156e-bf73-4375-a81d-8f7bb9af5bdc"},"vehicle_type_id":"4","last_reported":1750169470,"current_range_meters":14800,"station_id":"ce4bgqh2rcd13ifvqc4g","pricing_plan_id":"cebpf4jnsgd1na2vs0mg"},{"bike_id":"4826448e-ec1f-4f94-ae6e-9b00f8341f8b","system_id":"levelo_inurba_marseille","lat":43.30327,"lon":5.40433,"is_reserved":false,"is_disabled":false,"rental_uris":{"android":"levelo://app?vid=4826448e-ec1f-4f94-ae6e-9b00f8341f8b","ios":"levelo://app?vid=4826448e-ec1f-4f94-ae6e-9b00f8341f8b"},"vehicle_type_id":"4","last_reported":1750169470,"current_range_meters":14800,"station_id":"ce4bh012rcd13ifvqd10","pricing_plan_id":"cebpf4jnsgd1na2vs0mg"},{"bike_id":"60cac881-7a96-4bbb-a86a-78a157c6008d","system_id":"levelo_inurba_marseille","lat":43.28467,"lon":5.35884,"is_reserved":false,"is_disabled":false,"rental_uris":{"android":"levelo://app?vid=60cac881-7a96-4bbb-a86a-78a157c6008d","ios":"levelo://app?vid=60cac881-7a96-4bbb-a86a-78a157c6008d"},"vehicle_type_id":"4","last_reported":1750169470,"current_range_meters":14800,"station_id":"ce4bhah2rcd13ifvqei0","pricing_plan_id":"cebpf4jnsgd1na2vs0mg"},{"bike_id":"2697f673-c30b-47cf-9427-3adfb8b07b01","system_id":"levelo_inurba_marseille","lat":43.29197,"lon":5.35806,"is_reserved":false,"is_disabled":false,"rental_uris":{"android":"levelo://app?vid=2697f673-c30b-47cf-9427-3adfb8b07b01","ios":"levelo://app?vid=2697f673-c30b-47cf-9427-3adfb8b07b01"},"vehicle_type_id":"4","last_reported":1750169470,"current_range_meters":14800,"station_id":"ce4bhb12rcd13ifvqel0","pricing_plan_id":"cebpf4jnsgd1na2vs0mg"},{"bike_id":"c5f2f299-7e0f-4ea2-abcd-aaa65ae3837f","system_id":"levelo_inurba_marseille","lat":43.3043,"lon":5.413,"is_reserved":false,"is_disabled":false,"rental_uris":{"android":"levelo://app?vid=c5f2f299-7e0f-4ea2-abcd-aaa65ae3837f","ios":"levelo://app?vid=c5f2f299-7e0f-4ea2-abcd-aaa65ae3837f"},"vehicle_type_id":"4","last_reported":1750169470,"current_range_meters":14800,"station_id":"ce4bhop2rcd13ifvqh8g","pricing_plan_id":"cebpf4jnsgd1na2vs0mg"},{"bike_id":"656cc6a7-7ff6-4445-8ef1-486686c0ec1e","system_id":"levelo_inurba_marseille","lat":43.29809,"lon":5.38103,"is_reserved":false,"is_disabled":false,"rental_uris":{"android":"levelo://app?vid=656cc6a7-7ff6-4445-8ef1-486686c0ec1e","ios":"levelo://app?vid=656cc6a7-7ff6-4445-8ef1-486686c0ec1e"},"vehicle_type_id":"4","last_reported":1750169470,"current_range_meters":15200,"station_id":"ce4bgip2rcd13ifvqbb0","pricing_plan_id":"cebpf4jnsgd1na2vs0mg"},{"bike_id":"0de04601-c06d-4dc5-b07f-614c3aaf71b8","system_id":"levelo_inurba_marseille","lat":43.28267,"lon":5.35056,"is_reserved":false,"is_disabled":false,"rental_uris":{"android":"levelo://app?vid=0de04601-c06d-4dc5-b07f-614c3aaf71b8","ios":"levelo://app?vid=0de04601-c06d-4dc5-b07f-614c3aaf71b8"},"vehicle_type_id":"4","last_reported":1750169470,"current_range_meters":15200,"station_id":"ce4bhbp2rcd13ifvqerg","pricing_plan_id":"cebpf4jnsgd1na2vs0mg"},{"bike_id":"2ac35887-9359-49e7-b478-ac439bcaae49","system_id":"levelo_inurba_marseille","lat":43.24663,"lon":5.3817,"is_reserved":false,"is_disabled":false,"rental_uris":{"android":"levelo://app?vid=2ac35887-9359-49e7-b478-ac439bcaae49","ios":"levelo://app?vid=2ac35887-9359-49e7-b478-ac439bcaae49"},"vehicle_type_id":"4","last_reported":1750169470,"current_range_meters":15200,"station_id":"ce4bhih2rcd13ifvqfr0","pricing_plan_id":"cebpf4jnsgd1na2vs0mg"},{"bike_id":"2090556a-ebe6-4fcd-b60b-df67d7c8e4f7","system_id":"levelo_inurba_marseille","lat":43.299029,"lon":5.436683,"is_reserved":false,"is_disabled":false,"rental_uris":{"android":"levelo://app?vid=2090556a-ebe6-4fcd-b60b-df67d7c8e4f7","ios":"levelo://app?vid=2090556a-ebe6-4fcd-b60b-df67d7c8e4f7"},"vehicle_type_id":"4","last_reported":1750169470,"current_range_meters":15200,"station_id":"ce4bhpp2rcd13ifvqhfg","pricing_plan_id":"cebpf4jnsgd1na2vs0mg"},{"bike_id":"4f67373b-3851-4cc0-8b3a-f7b0bab7da89","system_id":"levelo_inurba_marseille","lat":43.30253,"lon":5.40073,"is_reserved":false,"is_disabled":false,"rental_uris":{"android":"levelo://app?vid=4f67373b-3851-4cc0-8b3a-f7b0bab7da89","ios":"levelo://app?vid=4f67373b-3851-4cc0-8b3a-f7b0bab7da89"},"vehicle_type_id":"4","last_reported":1750169470,"current_range_meters":16000,"station_id":"ce4bgvh2rcd13ifvqcs0","pricing_plan_id":"cebpf4jnsgd1na2vs0mg"},{"bike_id":"1c51f8be-0313-4c40-888d-b0fd10ce1781","system_id":"levelo_inurba_marseille","lat":43.23389,"lon":5.39979,"is_reserved":false,"is_disabled":false,"rental_uris":{"android":"levelo://app?vid=1c51f8be-0313-4c40-888d-b0fd10ce1781","ios":"levelo://app?vid=1c51f8be-0313-4c40-888d-b0fd10ce1781"},"vehicle_type_id":"4","last_reported":1750169470,"current_range_meters":16000,"station_id":"ce4bhn12rcd13ifvqgqg","pricing_plan_id":"cebpf4jnsgd1na2vs0mg"},{"bike_id":"8294296b-2596-40bf-ac83-56912bf5277b","system_id":"levelo_inurba_marseille","lat":43.24071,"lon":5.37754,"is_reserved":false,"is_disabled":false,"rental_uris":{"android":"levelo://app?vid=8294296b-2596-40bf-ac83-56912bf5277b","ios":"levelo://app?vid=8294296b-2596-40bf-ac83-56912bf5277b"},"vehicle_type_id":"4","last_reported":1750169470,"current_range_meters":16000,"station_id":"ce4bhnp2rcd13ifvqgvg","pricing_plan_id":"cebpf4jnsgd1na2vs0mg"},{"bike_id":"4a66c4d4-63d6-40ee-b1c4-f00ecf2c7feb","system_id":"levelo_inurba_marseille","lat":43.27996,"lon":5.40022,"is_reserved":false,"is_disabled":false,"rental_uris":{"android":"levelo://app?vid=4a66c4d4-63d6-40ee-b1c4-f00ecf2c7feb","ios":"levelo://app?vid=4a66c4d4-63d6-40ee-b1c4-f00ecf2c7feb"},"vehicle_type_id":"4","last_reported":1750169470,"current_range_meters":16000,"station_id":"ce4bho92rcd13ifvqh4g","pricing_plan_id":"cebpf4jnsgd1na2vs0mg"},{"bike_id":"dbcf450a-3582-4fab-998f-448a0146af37","system_id":"levelo_inurba_marseille","lat":43.31712,"lon":5.43706,"is_reserved":false,"is_disabled":false,"rental_uris":{"android":"levelo://app?vid=dbcf450a-3582-4fab-998f-448a0146af37","ios":"levelo://app?vid=dbcf450a-3582-4fab-998f-448a0146af37"},"vehicle_type_id":"4","last_reported":1750169470,"current_range_meters":16000,"station_id":"ce4bhp92rcd13ifvqhcg","pricing_plan_id":"cebpf4jnsgd1na2vs0mg"},{"bike_id":"77a9a812-731c-4a1a-807e-660c31f7fec1","system_id":"levelo_inurba_marseille","lat":43.30889,"lon":5.37197,"is_reserved":false,"is_disabled":false,"rental_uris":{"android":"levelo://app?vid=77a9a812-731c-4a1a-807e-660c31f7fec1","ios":"levelo://app?vid=77a9a812-731c-4a1a-807e-660c31f7fec1"},"vehicle_type_id":"4","last_reported":1750169470,"current_range_meters":16400,"station_id":"ce4bguh2rcd13ifvqckg","pricing_plan_id":"cebpf4jnsgd1na2vs0mg"},{"bike_id":"c80f9544-912b-4dd6-91fd-abe4c1acfd9c","system_id":"levelo_inurba_marseille","lat":43.28668,"lon":5.36367,"is_reserved":false,"is_disabled":false,"rental_uris":{"android":"levelo://app?vid=c80f9544-912b-4dd6-91fd-abe4c1acfd9c","ios":"levelo://app?vid=c80f9544-912b-4dd6-91fd-abe4c1acfd9c"},"vehicle_type_id":"4","last_reported":1750169470,"current_range_meters":16400,"station_id":"ce4bhah2rcd13ifvqej0","pricing_plan_id":"cebpf4jnsgd1na2vs0mg"},{"bike_id":"1dca189b-e58d-407e-91a0-5d0b482c7bd9","system_id":"levelo_inurba_marseille","lat":43.28267,"lon":5.35093,"is_reserved":false,"is_disabled":false,"rental_uris":{"android":"levelo://app?vid=1dca189b-e58d-407e-91a0-5d0b482c7bd9","ios":"levelo://app?vid=1dca189b-e58d-407e-91a0-5d0b482c7bd9"},"vehicle_type_id":"4","last_reported":1750169470,"current_range_meters":16400,"station_id":"ce4bhbp2rcd13ifvqerg","pricing_plan_id":"cebpf4jnsgd1na2vs0mg"},{"bike_id":"c2bf09cd-b75a-4610-98ab-fa3dfca7c82c","system_id":"levelo_inurba_marseille","lat":43.27059,"lon":5.4026,"is_reserved":false,"is_disabled":false,"rental_uris":{"android":"levelo://app?vid=c2bf09cd-b75a-4610-98ab-fa3dfca7c82c","ios":"levelo://app?vid=c2bf09cd-b75a-4610-98ab-fa3dfca7c82c"},"vehicle_type_id":"4","last_reported":1750169470,"current_range_meters":16400,"station_id":"ce4bhk92rcd13ifvqgc0","pricing_plan_id":"cebpf4jnsgd1na2vs0mg"},{"bike_id":"dab6fb6d-3e6d-412b-a0e1-f672326dbd00","system_id":"levelo_inurba_marseille","lat":43.241859,"lon":5.397324,"is_reserved":false,"is_disabled":false,"rental_uris":{"android":"levelo://app?vid=dab6fb6d-3e6d-412b-a0e1-f672326dbd00","ios":"levelo://app?vid=dab6fb6d-3e6d-412b-a0e1-f672326dbd00"},"vehicle_type_id":"4","last_reported":1750169470,"current_range_meters":16400,"station_id":"ce4bhn12rcd13ifvqgpg","pricing_plan_id":"cebpf4jnsgd1na2vs0mg"},{"bike_id":"f6f31aa3-e91d-4bf1-9fdd-d2b77a513e1c","system_id":"levelo_inurba_marseille","lat":43.24065,"lon":5.3775,"is_reserved":false,"is_disabled":false,"rental_uris":{"android":"levelo://app?vid=f6f31aa3-e91d-4bf1-9fdd-d2b77a513e1c","ios":"levelo://app?vid=f6f31aa3-e91d-4bf1-9fdd-d2b77a513e1c"},"vehicle_type_id":"4","last_reported":1750169470,"current_range_meters":16400,"station_id":"ce4bhnp2rcd13ifvqgvg","pricing_plan_id":"cebpf4jnsgd1na2vs0mg"},{"bike_id":"3518210a-6d90-482f-a11b-11cb7c94acd1","system_id":"levelo_inurba_marseille","lat":43.264684,"lon":5.392143,"is_reserved":false,"is_disabled":false,"rental_uris":{"android":"levelo://app?vid=3518210a-6d90-482f-a11b-11cb7c94acd1","ios":"levelo://app?vid=3518210a-6d90-482f-a11b-11cb7c94acd1"},"vehicle_type_id":"4","last_reported":1750169470,"current_range_meters":16800,"station_id":"","pricing_plan_id":"cebpf4jnsgd1na2vs0mg"},{"bike_id":"de0f7c2b-5974-4035-a240-8ed367c0e3f3","system_id":"levelo_inurba_marseille","lat":43.319747,"lon":5.376161,"is_reserved":false,"is_disabled":false,"rental_uris":{"android":"levelo://app?vid=de0f7c2b-5974-4035-a240-8ed367c0e3f3","ios":"levelo://app?vid=de0f7c2b-5974-4035-a240-8ed367c0e3f3"},"vehicle_type_id":"4","last_reported":1750169470,"current_range_meters":16800,"station_id":"","pricing_plan_id":"cebpf4jnsgd1na2vs0mg"},{"bike_id":"baf64c31-4f1a-4275-b51a-b84e4310f740","system_id":"levelo_inurba_marseille","lat":43.3088,"lon":5.396518,"is_reserved":false,"is_disabled":false,"rental_uris":{"android":"levelo://app?vid=baf64c31-4f1a-4275-b51a-b84e4310f740","ios":"levelo://app?vid=baf64c31-4f1a-4275-b51a-b84e4310f740"},"vehicle_type_id":"4","last_reported":1750169470,"current_range_meters":16800,"station_id":"ce4bh012rcd13ifvqcv0","pricing_plan_id":"cebpf4jnsgd1na2vs0mg"},{"bike_id":"f2d7187c-2c35-4e1f-a438-d4f498ebcbd2","system_id":"levelo_inurba_marseille","lat":43.29043,"lon":5.38658,"is_reserved":false,"is_disabled":false,"rental_uris":{"android":"levelo://app?vid=f2d7187c-2c35-4e1f-a438-d4f498ebcbd2","ios":"levelo://app?vid=f2d7187c-2c35-4e1f-a438-d4f498ebcbd2"},"vehicle_type_id":"4","last_reported":1750169470,"current_range_meters":16800,"station_id":"ce4bh4p2rcd13ifvqe0g","pricing_plan_id":"cebpf4jnsgd1na2vs0mg"},{"bike_id":"f5515de9-fceb-4de0-90d7-ea8e14e75e89","system_id":"levelo_inurba_marseille","lat":43.26681,"lon":5.38272,"is_reserved":false,"is_disabled":false,"rental_uris":{"android":"levelo://app?vid=f5515de9-fceb-4de0-90d7-ea8e14e75e89","ios":"levelo://app?vid=f5515de9-fceb-4de0-90d7-ea8e14e75e89"},"vehicle_type_id":"4","last_reported":1750169470,"current_range_meters":16800,"station_id":"ce4bhg92rcd13ifvqf90","pricing_plan_id":"cebpf4jnsgd1na2vs0mg"},{"bike_id":"56ba8e33-3f02-45f0-81ff-094558302f09","system_id":"levelo_inurba_marseille","lat":43.27309,"lon":5.39095,"is_reserved":false,"is_disabled":false,"rental_uris":{"android":"levelo://app?vid=56ba8e33-3f02-45f0-81ff-094558302f09","ios":"levelo://app?vid=56ba8e33-3f02-45f0-81ff-094558302f09"},"vehicle_type_id":"4","last_reported":1750169470,"current_range_meters":16800,"station_id":"ce4bhgp2rcd13ifvqfe0","pricing_plan_id":"cebpf4jnsgd1na2vs0mg"},{"bike_id":"2f0f7865-53e4-4955-8eb9-1bb98bf95595","system_id":"levelo_inurba_marseille","lat":43.31747,"lon":5.37584,"is_reserved":false,"is_disabled":false,"rental_uris":{"android":"levelo://app?vid=2f0f7865-53e4-4955-8eb9-1bb98bf95595","ios":"levelo://app?vid=2f0f7865-53e4-4955-8eb9-1bb98bf95595"},"vehicle_type_id":"4","last_reported":1750169470,"current_range_meters":17200,"station_id":"","pricing_plan_id":"cebpf4jnsgd1na2vs0mg"},{"bike_id":"de0bda34-41a6-4231-8ed4-c93e07fc3176","system_id":"levelo_inurba_marseille","lat":43.326342,"lon":5.375202,"is_reserved":false,"is_disabled":false,"rental_uris":{"android":"levelo://app?vid=de0bda34-41a6-4231-8ed4-c93e07fc3176","ios":"levelo://app?vid=de0bda34-41a6-4231-8ed4-c93e07fc3176"},"vehicle_type_id":"4","last_reported":1750169470,"current_range_meters":17200,"station_id":"","pricing_plan_id":"cebpf4jnsgd1na2vs0mg"},{"bike_id":"bb448a52-ed97-4551-b9bc-c436e30fbe47","system_id":"levelo_inurba_marseille","lat":43.2737,"lon":5.36252,"is_reserved":false,"is_disabled":false,"rental_uris":{"android":"levelo://app?vid=bb448a52-ed97-4551-b9bc-c436e30fbe47","ios":"levelo://app?vid=bb448a52-ed97-4551-b9bc-c436e30fbe47"},"vehicle_type_id":"4","last_reported":1750169470,"current_range_meters":17200,"station_id":"ce4bhbh2rcd13ifvqeo0","pricing_plan_id":"cebpf4jnsgd1na2vs0mg"},{"bike_id":"99e77f60-a771-44ec-bd4c-544b62356f64","system_id":"levelo_inurba_marseille","lat":43.24086,"lon":5.37747,"is_reserved":false,"is_disabled":false,"rental_uris":{"android":"levelo://app?vid=99e77f60-a771-44ec-bd4c-544b62356f64","ios":"levelo://app?vid=99e77f60-a771-44ec-bd4c-544b62356f64"},"vehicle_type_id":"4","last_reported":1750169470,"current_range_meters":17200,"station_id":"ce4bhnp2rcd13ifvqgvg","pricing_plan_id":"cebpf4jnsgd1na2vs0mg"},{"bike_id":"e144f1ac-c236-4904-9497-d062668c777e","system_id":"levelo_inurba_marseille","lat":43.28662,"lon":5.36365,"is_reserved":false,"is_disabled":false,"rental_uris":{"android":"levelo://app?vid=e144f1ac-c236-4904-9497-d062668c777e","ios":"levelo://app?vid=e144f1ac-c236-4904-9497-d062668c777e"},"vehicle_type_id":"4","last_reported":1750169470,"current_range_meters":17600,"station_id":"ce4bhah2rcd13ifvqej0","pricing_plan_id":"cebpf4jnsgd1na2vs0mg"},{"bike_id":"da140461-c921-4923-b913-47e48d9880fd","system_id":"levelo_inurba_marseille","lat":43.28077,"lon":5.39663,"is_reserved":false,"is_disabled":false,"rental_uris":{"android":"levelo://app?vid=da140461-c921-4923-b913-47e48d9880fd","ios":"levelo://app?vid=da140461-c921-4923-b913-47e48d9880fd"},"vehicle_type_id":"4","last_reported":1750169470,"current_range_meters":17600,"station_id":"ce4bho12rcd13ifvqh2g","pricing_plan_id":"cebpf4jnsgd1na2vs0mg"},{"bike_id":"fc92ae8d-a5b2-4850-9499-cd1110fbd8b4","system_id":"levelo_inurba_marseille","lat":43.32367,"lon":5.38884,"is_reserved":false,"is_disabled":false,"rental_uris":{"android":"levelo://app?vid=fc92ae8d-a5b2-4850-9499-cd1110fbd8b4","ios":"levelo://app?vid=fc92ae8d-a5b2-4850-9499-cd1110fbd8b4"},"vehicle_type_id":"4","last_reported":1750169470,"current_range_meters":17600,"station_id":"ce4bhqp2rcd13ifvqhog","pricing_plan_id":"cebpf4jnsgd1na2vs0mg"},{"bike_id":"cc8086c3-023b-4662-b7ba-91199240f1a1","system_id":"levelo_inurba_marseille","lat":43.23052,"lon":5.35498,"is_reserved":false,"is_disabled":false,"rental_uris":{"android":"levelo://app?vid=cc8086c3-023b-4662-b7ba-91199240f1a1","ios":"levelo://app?vid=cc8086c3-023b-4662-b7ba-91199240f1a1"},"vehicle_type_id":"4","last_reported":1750169470,"current_range_meters":17600,"station_id":"cpo3342slgdg3j2ifvpg","pricing_plan_id":"cebpf4jnsgd1na2vs0mg"},{"bike_id":"4cda9327-46c6-426e-87dd-c291d5dc5ff7","system_id":"levelo_inurba_marseille","lat":43.211906,"lon":5.350753,"is_reserved":false,"is_disabled":false,"rental_uris":{"android":"levelo://app?vid=4cda9327-46c6-426e-87dd-c291d5dc5ff7","ios":"levelo://app?vid=4cda9327-46c6-426e-87dd-c291d5dc5ff7"},"vehicle_type_id":"4","last_reported":1750169470,"current_range_meters":17600,"station_id":"st_cvj6sg6p6f1abm77japg","pricing_plan_id":"cebpf4jnsgd1na2vs0mg"},{"bike_id":"4b8da722-ee9e-48a4-a5e5-3a8a10364708","system_id":"levelo_inurba_marseille","lat":43.31215,"lon":5.37813,"is_reserved":false,"is_disabled":false,"rental_uris":{"android":"levelo://app?vid=4b8da722-ee9e-48a4-a5e5-3a8a10364708","ios":"levelo://app?vid=4b8da722-ee9e-48a4-a5e5-3a8a10364708"},"vehicle_type_id":"4","last_reported":1750169470,"current_range_meters":18000,"station_id":"","pricing_plan_id":"cebpf4jnsgd1na2vs0mg"},{"bike_id":"4ce5b165-f22d-40cf-abd3-1cb294861955","system_id":"levelo_inurba_marseille","lat":43.211991,"lon":5.350817,"is_reserved":false,"is_disabled":false,"rental_uris":{"android":"levelo://app?vid=4ce5b165-f22d-40cf-abd3-1cb294861955","ios":"levelo://app?vid=4ce5b165-f22d-40cf-abd3-1cb294861955"},"vehicle_type_id":"4","last_reported":1750169470,"current_range_meters":18000,"station_id":"","pricing_plan_id":"cebpf4jnsgd1na2vs0mg"},{"bike_id":"4044121f-8112-4080-985e-ba2a383fbd39","system_id":"levelo_inurba_marseille","lat":43.31196,"lon":5.36872,"is_reserved":false,"is_disabled":false,"rental_uris":{"android":"levelo://app?vid=4044121f-8112-4080-985e-ba2a383fbd39","ios":"levelo://app?vid=4044121f-8112-4080-985e-ba2a383fbd39"},"vehicle_type_id":"4","last_reported":1750169470,"current_range_meters":18000,"station_id":"ce4bgl92rcd13ifvqbq0","pricing_plan_id":"cebpf4jnsgd1na2vs0mg"},{"bike_id":"1a30f111-6901-4dc3-b64c-894d4aa3d30f","system_id":"levelo_inurba_marseille","lat":43.30919,"lon":5.40138,"is_reserved":false,"is_disabled":false,"rental_uris":{"android":"levelo://app?vid=1a30f111-6901-4dc3-b64c-894d4aa3d30f","ios":"levelo://app?vid=1a30f111-6901-4dc3-b64c-894d4aa3d30f"},"vehicle_type_id":"4","last_reported":1750169470,"current_range_meters":18000,"station_id":"ce4bgvp2rcd13ifvqct0","pricing_plan_id":"cebpf4jnsgd1na2vs0mg"},{"bike_id":"d248f594-7966-4481-a8ec-9948cea93662","system_id":"levelo_inurba_marseille","lat":43.29004,"lon":5.3561,"is_reserved":false,"is_disabled":false,"rental_uris":{"android":"levelo://app?vid=d248f594-7966-4481-a8ec-9948cea93662","ios":"levelo://app?vid=d248f594-7966-4481-a8ec-9948cea93662"},"vehicle_type_id":"4","last_reported":1750169470,"current_range_meters":18000,"station_id":"ce4bhb92rcd13ifvqen0","pricing_plan_id":"cebpf4jnsgd1na2vs0mg"},{"bike_id":"5cbdd979-131e-4b0a-a5c9-96ef156802c9","system_id":"levelo_inurba_marseille","lat":43.28418,"lon":5.3921,"is_reserved":false,"is_disabled":false,"rental_uris":{"android":"levelo://app?vid=5cbdd979-131e-4b0a-a5c9-96ef156802c9","ios":"levelo://app?vid=5cbdd979-131e-4b0a-a5c9-96ef156802c9"},"vehicle_type_id":"4","last_reported":1750169470,"current_range_meters":18000,"station_id":"ce4bhoh2rcd13ifvqh5g","pricing_plan_id":"cebpf4jnsgd1na2vs0mg"},{"bike_id":"10feba3d-3b01-42eb-a141-3a940f811a82","system_id":"levelo_inurba_marseille","lat":43.24166,"lon":5.36395,"is_reserved":false,"is_disabled":false,"rental_uris":{"android":"levelo://app?vid=10feba3d-3b01-42eb-a141-3a940f811a82","ios":"levelo://app?vid=10feba3d-3b01-42eb-a141-3a940f811a82"},"vehicle_type_id":"4","last_reported":1750169470,"current_range_meters":18000,"station_id":"cpo36qri1sfpv3e86is0","pricing_plan_id":"cebpf4jnsgd1na2vs0mg"},{"bike_id":"0fdc182e-0b16-455d-a406-68b7efeb0a33","system_id":"levelo_inurba_marseille","lat":43.21741,"lon":5.3461,"is_reserved":false,"is_disabled":false,"rental_uris":{"android":"levelo://app?vid=0fdc182e-0b16-455d-a406-68b7efeb0a33","ios":"levelo://app?vid=0fdc182e-0b16-455d-a406-68b7efeb0a33"},"vehicle_type_id":"4","last_reported":1750169470,"current_range_meters":18000,"station_id":"st_cvj6r9ubvosntc0bgbag","pricing_plan_id":"cebpf4jnsgd1na2vs0mg"},{"bike_id":"653a05d9-205d-420f-b0c9-a638667f0917","system_id":"levelo_inurba_marseille","lat":43.21186,"lon":5.35051,"is_reserved":false,"is_disabled":false,"rental_uris":{"android":"levelo://app?vid=653a05d9-205d-420f-b0c9-a638667f0917","ios":"levelo://app?vid=653a05d9-205d-420f-b0c9-a638667f0917"},"vehicle_type_id":"4","last_reported":1750169470,"current_range_meters":18000,"station_id":"st_cvj6sg6p6f1abm77japg","pricing_plan_id":"cebpf4jnsgd1na2vs0mg"},{"bike_id":"3a556026-c701-4f37-9192-c33892476639","system_id":"levelo_inurba_marseille","lat":43.21751,"lon":5.34609,"is_reserved":false,"is_disabled":false,"rental_uris":{"android":"levelo://app?vid=3a556026-c701-4f37-9192-c33892476639","ios":"levelo://app?vid=3a556026-c701-4f37-9192-c33892476639"},"vehicle_type_id":"4","last_reported":1750169470,"current_range_meters":18800,"station_id":"","pricing_plan_id":"cebpf4jnsgd1na2vs0mg"},{"bike_id":"15c8ae02-8e99-4704-aa0b-0b411ebbfdc4","system_id":"levelo_inurba_marseille","lat":43.30557,"lon":5.36537,"is_reserved":false,"is_disabled":false,"rental_uris":{"android":"levelo://app?vid=15c8ae02-8e99-4704-aa0b-0b411ebbfdc4","ios":"levelo://app?vid=15c8ae02-8e99-4704-aa0b-0b411ebbfdc4"},"vehicle_type_id":"4","last_reported":1750169470,"current_range_meters":18800,"station_id":"ce4bgs12rcd13ifvqcag","pricing_plan_id":"cebpf4jnsgd1na2vs0mg"},{"bike_id":"3a2be020-e706-4423-ada2-6da2017d31d1","system_id":"levelo_inurba_marseille","lat":43.31164,"lon":5.38709,"is_reserved":false,"is_disabled":false,"rental_uris":{"android":"levelo://app?vid=3a2be020-e706-4423-ada2-6da2017d31d1","ios":"levelo://app?vid=3a2be020-e706-4423-ada2-6da2017d31d1"},"vehicle_type_id":"4","last_reported":1750169470,"current_range_meters":18800,"station_id":"ce4bgv12rcd13ifvqcp0","pricing_plan_id":"cebpf4jnsgd1na2vs0mg"},{"bike_id":"57117bae-ce6f-4cbe-9145-73f11ab5ce45","system_id":"levelo_inurba_marseille","lat":43.31064,"lon":5.38356,"is_reserved":false,"is_disabled":false,"rental_uris":{"android":"levelo://app?vid=57117bae-ce6f-4cbe-9145-73f11ab5ce45","ios":"levelo://app?vid=57117bae-ce6f-4cbe-9145-73f11ab5ce45"},"vehicle_type_id":"4","last_reported":1750169470,"current_range_meters":18800,"station_id":"ce4bgv92rcd13ifvqcr0","pricing_plan_id":"cebpf4jnsgd1na2vs0mg"},{"bike_id":"8b8e3452-c32b-408e-938b-44cc98f0f857","system_id":"levelo_inurba_marseille","lat":43.28418,"lon":5.34978,"is_reserved":false,"is_disabled":false,"rental_uris":{"android":"levelo://app?vid=8b8e3452-c32b-408e-938b-44cc98f0f857","ios":"levelo://app?vid=8b8e3452-c32b-408e-938b-44cc98f0f857"},"vehicle_type_id":"4","last_reported":1750169470,"current_range_meters":18800,"station_id":"ce4bhbh2rcd13ifvqepg","pricing_plan_id":"cebpf4jnsgd1na2vs0mg"},{"bike_id":"8d8672f5-a668-4c19-82b4-1aa3c6e3959d","system_id":"levelo_inurba_marseille","lat":43.28407,"lon":5.34996,"is_reserved":false,"is_disabled":false,"rental_uris":{"android":"levelo://app?vid=8d8672f5-a668-4c19-82b4-1aa3c6e3959d","ios":"levelo://app?vid=8d8672f5-a668-4c19-82b4-1aa3c6e3959d"},"vehicle_type_id":"4","last_reported":1750169470,"current_range_meters":18800,"station_id":"ce4bhbh2rcd13ifvqepg","pricing_plan_id":"cebpf4jnsgd1na2vs0mg"},{"bike_id":"2a977167-669d-4e13-bcb2-d7bdb4c33fc6","system_id":"levelo_inurba_marseille","lat":43.244096,"lon":5.370655,"is_reserved":false,"is_disabled":false,"rental_uris":{"android":"levelo://app?vid=2a977167-669d-4e13-bcb2-d7bdb4c33fc6","ios":"levelo://app?vid=2a977167-669d-4e13-bcb2-d7bdb4c33fc6"},"vehicle_type_id":"4","last_reported":1750169470,"current_range_meters":18800,"station_id":"ce4bhhh2rcd13ifvqfk0","pricing_plan_id":"cebpf4jnsgd1na2vs0mg"},{"bike_id":"b5df771f-0292-4acc-afde-88c7e4fb1865","system_id":"levelo_inurba_marseille","lat":43.24168,"lon":5.39763,"is_reserved":false,"is_disabled":false,"rental_uris":{"android":"levelo://app?vid=b5df771f-0292-4acc-afde-88c7e4fb1865","ios":"levelo://app?vid=b5df771f-0292-4acc-afde-88c7e4fb1865"},"vehicle_type_id":"4","last_reported":1750169470,"current_range_meters":18800,"station_id":"ce4bhn12rcd13ifvqgpg","pricing_plan_id":"cebpf4jnsgd1na2vs0mg"},{"bike_id":"43c9ec49-f42d-4b26-bd27-97128f401b71","system_id":"levelo_inurba_marseille","lat":43.24084,"lon":5.37752,"is_reserved":false,"is_disabled":false,"rental_uris":{"android":"levelo://app?vid=43c9ec49-f42d-4b26-bd27-97128f401b71","ios":"levelo://app?vid=43c9ec49-f42d-4b26-bd27-97128f401b71"},"vehicle_type_id":"4","last_reported":1750169470,"current_range_meters":18800,"station_id":"ce4bhnp2rcd13ifvqgvg","pricing_plan_id":"cebpf4jnsgd1na2vs0mg"},{"bike_id":"8196fa73-344f-42fc-9223-ebf7722c68b9","system_id":"levelo_inurba_marseille","lat":43.2407,"lon":5.37756,"is_reserved":false,"is_disabled":false,"rental_uris":{"android":"levelo://app?vid=8196fa73-344f-42fc-9223-ebf7722c68b9","ios":"levelo://app?vid=8196fa73-344f-42fc-9223-ebf7722c68b9"},"vehicle_type_id":"4","last_reported":1750169470,"current_range_meters":18800,"station_id":"ce4bhnp2rcd13ifvqgvg","pricing_plan_id":"cebpf4jnsgd1na2vs0mg"},{"bike_id":"f9722adf-2faf-40e3-ad50-c0c10985c29a","system_id":"levelo_inurba_marseille","lat":43.27991,"lon":5.40027,"is_reserved":false,"is_disabled":false,"rental_uris":{"android":"levelo://app?vid=f9722adf-2faf-40e3-ad50-c0c10985c29a","ios":"levelo://app?vid=f9722adf-2faf-40e3-ad50-c0c10985c29a"},"vehicle_type_id":"4","last_reported":1750169470,"current_range_meters":18800,"station_id":"ce4bho92rcd13ifvqh4g","pricing_plan_id":"cebpf4jnsgd1na2vs0mg"},{"bike_id":"95d73ec8-1995-4e53-bcd3-94df36e9714b","system_id":"levelo_inurba_marseille","lat":43.3259,"lon":5.3776,"is_reserved":false,"is_disabled":false,"rental_uris":{"android":"levelo://app?vid=95d73ec8-1995-4e53-bcd3-94df36e9714b","ios":"levelo://app?vid=95d73ec8-1995-4e53-bcd3-94df36e9714b"},"vehicle_type_id":"4","last_reported":1750169470,"current_range_meters":19200,"station_id":"","pricing_plan_id":"cebpf4jnsgd1na2vs0mg"},{"bike_id":"69391ca7-3f01-4e51-a628-257cf9ff7306","system_id":"levelo_inurba_marseille","lat":43.33771,"lon":5.37433,"is_reserved":false,"is_disabled":false,"rental_uris":{"android":"levelo://app?vid=69391ca7-3f01-4e51-a628-257cf9ff7306","ios":"levelo://app?vid=69391ca7-3f01-4e51-a628-257cf9ff7306"},"vehicle_type_id":"4","last_reported":1750169470,"current_range_meters":19200,"station_id":"","pricing_plan_id":"cebpf4jnsgd1na2vs0mg"},{"bike_id":"268aafb4-1331-426c-97bc-a7d6564caeb6","system_id":"levelo_inurba_marseille","lat":43.329108,"lon":5.379326,"is_reserved":false,"is_disabled":false,"rental_uris":{"android":"levelo://app?vid=268aafb4-1331-426c-97bc-a7d6564caeb6","ios":"levelo://app?vid=268aafb4-1331-426c-97bc-a7d6564caeb6"},"vehicle_type_id":"4","last_reported":1750169470,"current_range_meters":19200,"station_id":"","pricing_plan_id":"cebpf4jnsgd1na2vs0mg"},{"bike_id":"7d637ca4-a634-42d1-9b45-120b1ec61cc1","system_id":"levelo_inurba_marseille","lat":43.3122,"lon":5.36866,"is_reserved":false,"is_disabled":false,"rental_uris":{"android":"levelo://app?vid=7d637ca4-a634-42d1-9b45-120b1ec61cc1","ios":"levelo://app?vid=7d637ca4-a634-42d1-9b45-120b1ec61cc1"},"vehicle_type_id":"4","last_reported":1750169470,"current_range_meters":19200,"station_id":"ce4bgl92rcd13ifvqbq0","pricing_plan_id":"cebpf4jnsgd1na2vs0mg"},{"bike_id":"32ffe485-1d24-4492-b49f-5dc60a270ad9","system_id":"levelo_inurba_marseille","lat":43.30893,"lon":5.39664,"is_reserved":false,"is_disabled":false,"rental_uris":{"android":"levelo://app?vid=32ffe485-1d24-4492-b49f-5dc60a270ad9","ios":"levelo://app?vid=32ffe485-1d24-4492-b49f-5dc60a270ad9"},"vehicle_type_id":"4","last_reported":1750169470,"current_range_meters":19200,"station_id":"ce4bh012rcd13ifvqcv0","pricing_plan_id":"cebpf4jnsgd1na2vs0mg"},{"bike_id":"d781838d-bbf5-445a-b6c5-2dc37458052b","system_id":"levelo_inurba_marseille","lat":43.28945,"lon":5.3663,"is_reserved":false,"is_disabled":false,"rental_uris":{"android":"levelo://app?vid=d781838d-bbf5-445a-b6c5-2dc37458052b","ios":"levelo://app?vid=d781838d-bbf5-445a-b6c5-2dc37458052b"},"vehicle_type_id":"4","last_reported":1750169470,"current_range_meters":19200,"station_id":"ce4bhap2rcd13ifvqek0","pricing_plan_id":"cebpf4jnsgd1na2vs0mg"},{"bike_id":"cda6d52c-65ad-44d3-947b-fde68995222b","system_id":"levelo_inurba_marseille","lat":43.28841,"lon":5.35861,"is_reserved":false,"is_disabled":false,"rental_uris":{"android":"levelo://app?vid=cda6d52c-65ad-44d3-947b-fde68995222b","ios":"levelo://app?vid=cda6d52c-65ad-44d3-947b-fde68995222b"},"vehicle_type_id":"4","last_reported":1750169470,"current_range_meters":19200,"station_id":"ce4bhb12rcd13ifvqem0","pricing_plan_id":"cebpf4jnsgd1na2vs0mg"},{"bike_id":"f8fea649-09ad-48e3-991a-3bf06272e63b","system_id":"levelo_inurba_marseille","lat":43.2826,"lon":5.35062,"is_reserved":false,"is_disabled":false,"rental_uris":{"android":"levelo://app?vid=f8fea649-09ad-48e3-991a-3bf06272e63b","ios":"levelo://app?vid=f8fea649-09ad-48e3-991a-3bf06272e63b"},"vehicle_type_id":"4","last_reported":1750169470,"current_range_meters":19200,"station_id":"ce4bhbp2rcd13ifvqerg","pricing_plan_id":"cebpf4jnsgd1na2vs0mg"},{"bike_id":"34011965-7337-4c76-bc6d-833dad6810be","system_id":"levelo_inurba_marseille","lat":43.2619,"lon":5.3746,"is_reserved":false,"is_disabled":false,"rental_uris":{"android":"levelo://app?vid=34011965-7337-4c76-bc6d-833dad6810be","ios":"levelo://app?vid=34011965-7337-4c76-bc6d-833dad6810be"},"vehicle_type_id":"4","last_reported":1750169470,"current_range_meters":19200,"station_id":"ce4bhgp2rcd13ifvqfc0","pricing_plan_id":"cebpf4jnsgd1na2vs0mg"},{"bike_id":"887037fb-facc-477a-bbcf-d551a11da462","system_id":"levelo_inurba_marseille","lat":43.25119,"lon":5.40318,"is_reserved":false,"is_disabled":false,"rental_uris":{"android":"levelo://app?vid=887037fb-facc-477a-bbcf-d551a11da462","ios":"levelo://app?vid=887037fb-facc-477a-bbcf-d551a11da462"},"vehicle_type_id":"4","last_reported":1750169470,"current_range_meters":19200,"station_id":"ce4bhlh2rcd13ifvqgig","pricing_plan_id":"cebpf4jnsgd1na2vs0mg"},{"bike_id":"84572544-f4dd-4a42-b6da-0c73609fe888","system_id":"levelo_inurba_marseille","lat":43.24083,"lon":5.37749,"is_reserved":false,"is_disabled":false,"rental_uris":{"android":"levelo://app?vid=84572544-f4dd-4a42-b6da-0c73609fe888","ios":"levelo://app?vid=84572544-f4dd-4a42-b6da-0c73609fe888"},"vehicle_type_id":"4","last_reported":1750169470,"current_range_meters":19200,"station_id":"ce4bhnp2rcd13ifvqgvg","pricing_plan_id":"cebpf4jnsgd1na2vs0mg"},{"bike_id":"ad7c45b4-ea82-47a7-8ab6-48240eb3728d","system_id":"levelo_inurba_marseille","lat":43.32038,"lon":5.41573,"is_reserved":false,"is_disabled":false,"rental_uris":{"android":"levelo://app?vid=ad7c45b4-ea82-47a7-8ab6-48240eb3728d","ios":"levelo://app?vid=ad7c45b4-ea82-47a7-8ab6-48240eb3728d"},"vehicle_type_id":"4","last_reported":1750169470,"current_range_meters":19200,"station_id":"ce4bhq92rcd13ifvqhkg","pricing_plan_id":"cebpf4jnsgd1na2vs0mg"},{"bike_id":"3556a47d-bdf3-4d01-a839-926e276e4d02","system_id":"levelo_inurba_marseille","lat":43.32038,"lon":5.41571,"is_reserved":false,"is_disabled":false,"rental_uris":{"android":"levelo://app?vid=3556a47d-bdf3-4d01-a839-926e276e4d02","ios":"levelo://app?vid=3556a47d-bdf3-4d01-a839-926e276e4d02"},"vehicle_type_id":"4","last_reported":1750169470,"current_range_meters":19200,"station_id":"ce4bhq92rcd13ifvqhkg","pricing_plan_id":"cebpf4jnsgd1na2vs0mg"},{"bike_id":"38ae097c-0c99-4bca-937a-6a8d62c6692b","system_id":"levelo_inurba_marseille","lat":43.28222,"lon":5.349,"is_reserved":false,"is_disabled":false,"rental_uris":{"android":"levelo://app?vid=38ae097c-0c99-4bca-937a-6a8d62c6692b","ios":"levelo://app?vid=38ae097c-0c99-4bca-937a-6a8d62c6692b"},"vehicle_type_id":"4","last_reported":1750169470,"current_range_meters":19600,"station_id":"","pricing_plan_id":"cebpf4jnsgd1na2vs0mg"},{"bike_id":"3e3351f4-94bb-4f60-abb6-697d57c2baec","system_id":"levelo_inurba_marseille","lat":43.29798,"lon":5.38108,"is_reserved":false,"is_disabled":false,"rental_uris":{"android":"levelo://app?vid=3e3351f4-94bb-4f60-abb6-697d57c2baec","ios":"levelo://app?vid=3e3351f4-94bb-4f60-abb6-697d57c2baec"},"vehicle_type_id":"4","last_reported":1750169470,"current_range_meters":19600,"station_id":"ce4bgip2rcd13ifvqbb0","pricing_plan_id":"cebpf4jnsgd1na2vs0mg"},{"bike_id":"bea5595f-dc4e-4787-a000-3ba86a97e39d","system_id":"levelo_inurba_marseille","lat":43.31358,"lon":5.36745,"is_reserved":false,"is_disabled":false,"rental_uris":{"android":"levelo://app?vid=bea5595f-dc4e-4787-a000-3ba86a97e39d","ios":"levelo://app?vid=bea5595f-dc4e-4787-a000-3ba86a97e39d"},"vehicle_type_id":"4","last_reported":1750169470,"current_range_meters":19600,"station_id":"ce4bgr92rcd13ifvqc6g","pricing_plan_id":"cebpf4jnsgd1na2vs0mg"},{"bike_id":"aed43b2e-60b0-4751-9599-70de03e4ab40","system_id":"levelo_inurba_marseille","lat":43.27376,"lon":5.36258,"is_reserved":false,"is_disabled":false,"rental_uris":{"android":"levelo://app?vid=aed43b2e-60b0-4751-9599-70de03e4ab40","ios":"levelo://app?vid=aed43b2e-60b0-4751-9599-70de03e4ab40"},"vehicle_type_id":"4","last_reported":1750169470,"current_range_meters":19600,"station_id":"ce4bhbh2rcd13ifvqeo0","pricing_plan_id":"cebpf4jnsgd1na2vs0mg"},{"bike_id":"36bfb65b-8d91-43a9-9384-420e7d5a9c9b","system_id":"levelo_inurba_marseille","lat":43.25085,"lon":5.3952,"is_reserved":false,"is_disabled":false,"rental_uris":{"android":"levelo://app?vid=36bfb65b-8d91-43a9-9384-420e7d5a9c9b","ios":"levelo://app?vid=36bfb65b-8d91-43a9-9384-420e7d5a9c9b"},"vehicle_type_id":"4","last_reported":1750169470,"current_range_meters":19600,"station_id":"ce4bhm12rcd13ifvqgkg","pricing_plan_id":"cebpf4jnsgd1na2vs0mg"},{"bike_id":"a42bea11-7204-4721-bc75-a9d0581d59cf","system_id":"levelo_inurba_marseille","lat":43.2409,"lon":5.37767,"is_reserved":false,"is_disabled":false,"rental_uris":{"android":"levelo://app?vid=a42bea11-7204-4721-bc75-a9d0581d59cf","ios":"levelo://app?vid=a42bea11-7204-4721-bc75-a9d0581d59cf"},"vehicle_type_id":"4","last_reported":1750169470,"current_range_meters":19600,"station_id":"ce4bhnp2rcd13ifvqgvg","pricing_plan_id":"cebpf4jnsgd1na2vs0mg"},{"bike_id":"582d2949-cdd2-4ae6-9e23-a38ec134cdda","system_id":"levelo_inurba_marseille","lat":43.30731,"lon":5.4245,"is_reserved":false,"is_disabled":false,"rental_uris":{"android":"levelo://app?vid=582d2949-cdd2-4ae6-9e23-a38ec134cdda","ios":"levelo://app?vid=582d2949-cdd2-4ae6-9e23-a38ec134cdda"},"vehicle_type_id":"4","last_reported":1750169470,"current_range_meters":19600,"station_id":"st_cvj6ca6bvosntc0bfgr0","pricing_plan_id":"cebpf4jnsgd1na2vs0mg"},{"bike_id":"456e3e01-d483-4af3-ad8c-fac20db5c110","system_id":"levelo_inurba_marseille","lat":43.24188,"lon":5.39725,"is_reserved":false,"is_disabled":false,"rental_uris":{"android":"levelo://app?vid=456e3e01-d483-4af3-ad8c-fac20db5c110","ios":"levelo://app?vid=456e3e01-d483-4af3-ad8c-fac20db5c110"},"vehicle_type_id":"4","last_reported":1750169470,"current_range_meters":20000,"station_id":"ce4bhn12rcd13ifvqgpg","pricing_plan_id":"cebpf4jnsgd1na2vs0mg"},{"bike_id":"28701354-04db-4ccd-965d-529bbc82fcd5","system_id":"levelo_inurba_marseille","lat":43.211897,"lon":5.350597,"is_reserved":false,"is_disabled":false,"rental_uris":{"android":"levelo://app?vid=28701354-04db-4ccd-965d-529bbc82fcd5","ios":"levelo://app?vid=28701354-04db-4ccd-965d-529bbc82fcd5"},"vehicle_type_id":"4","last_reported":1750169470,"current_range_meters":20000,"station_id":"st_cvj6sg6p6f1abm77japg","pricing_plan_id":"cebpf4jnsgd1na2vs0mg"},{"bike_id":"54cebbad-17db-4f40-8141-8eedac83be3f","system_id":"levelo_inurba_marseille","lat":43.337444,"lon":5.374475,"is_reserved":false,"is_disabled":false,"rental_uris":{"android":"levelo://app?vid=54cebbad-17db-4f40-8141-8eedac83be3f","ios":"levelo://app?vid=54cebbad-17db-4f40-8141-8eedac83be3f"},"vehicle_type_id":"4","last_reported":1750169470,"current_range_meters":20400,"station_id":"","pricing_plan_id":"cebpf4jnsgd1na2vs0mg"},{"bike_id":"744cf4fa-bb14-4576-929f-2f6effc633c9","system_id":"levelo_inurba_marseille","lat":43.294343,"lon":5.432667,"is_reserved":false,"is_disabled":false,"rental_uris":{"android":"levelo://app?vid=744cf4fa-bb14-4576-929f-2f6effc633c9","ios":"levelo://app?vid=744cf4fa-bb14-4576-929f-2f6effc633c9"},"vehicle_type_id":"4","last_reported":1750169470,"current_range_meters":20400,"station_id":"","pricing_plan_id":"cebpf4jnsgd1na2vs0mg"},{"bike_id":"a43a7d1a-1f2c-41fb-b10a-4ddad585cf37","system_id":"levelo_inurba_marseille","lat":43.30432,"lon":5.38904,"is_reserved":false,"is_disabled":false,"rental_uris":{"android":"levelo://app?vid=a43a7d1a-1f2c-41fb-b10a-4ddad585cf37","ios":"levelo://app?vid=a43a7d1a-1f2c-41fb-b10a-4ddad585cf37"},"vehicle_type_id":"4","last_reported":1750169470,"current_range_meters":20400,"station_id":"ce4bgk12rcd13ifvqbi0","pricing_plan_id":"cebpf4jnsgd1na2vs0mg"},{"bike_id":"f5447d56-fa14-4d34-9ac7-b0bbb035ba52","system_id":"levelo_inurba_marseille","lat":43.27377,"lon":5.36262,"is_reserved":false,"is_disabled":false,"rental_uris":{"android":"levelo://app?vid=f5447d56-fa14-4d34-9ac7-b0bbb035ba52","ios":"levelo://app?vid=f5447d56-fa14-4d34-9ac7-b0bbb035ba52"},"vehicle_type_id":"4","last_reported":1750169470,"current_range_meters":20400,"station_id":"ce4bhbh2rcd13ifvqeo0","pricing_plan_id":"cebpf4jnsgd1na2vs0mg"},{"bike_id":"c1f010d4-2315-444e-bea5-8917443da6cd","system_id":"levelo_inurba_marseille","lat":43.28434,"lon":5.3502,"is_reserved":false,"is_disabled":false,"rental_uris":{"android":"levelo://app?vid=c1f010d4-2315-444e-bea5-8917443da6cd","ios":"levelo://app?vid=c1f010d4-2315-444e-bea5-8917443da6cd"},"vehicle_type_id":"4","last_reported":1750169470,"current_range_meters":20400,"station_id":"ce4bhbh2rcd13ifvqepg","pricing_plan_id":"cebpf4jnsgd1na2vs0mg"},{"bike_id":"602403b9-1744-46a4-b724-d374d1daca6c","system_id":"levelo_inurba_marseille","lat":43.27811,"lon":5.40714,"is_reserved":false,"is_disabled":false,"rental_uris":{"android":"levelo://app?vid=602403b9-1744-46a4-b724-d374d1daca6c","ios":"levelo://app?vid=602403b9-1744-46a4-b724-d374d1daca6c"},"vehicle_type_id":"4","last_reported":1750169470,"current_range_meters":20400,"station_id":"ce4bhnh2rcd13ifvqgtg","pricing_plan_id":"cebpf4jnsgd1na2vs0mg"},{"bike_id":"61185e51-def2-4557-89b9-f06c340ff2e2","system_id":"levelo_inurba_marseille","lat":43.21203,"lon":5.35081,"is_reserved":false,"is_disabled":false,"rental_uris":{"android":"levelo://app?vid=61185e51-def2-4557-89b9-f06c340ff2e2","ios":"levelo://app?vid=61185e51-def2-4557-89b9-f06c340ff2e2"},"vehicle_type_id":"4","last_reported":1750169470,"current_range_meters":20400,"station_id":"st_cvj6sg6p6f1abm77japg","pricing_plan_id":"cebpf4jnsgd1na2vs0mg"},{"bike_id":"16ce4843-629b-4a05-8d02-92a72a0aba3d","system_id":"levelo_inurba_marseille","lat":43.29788,"lon":5.38109,"is_reserved":false,"is_disabled":false,"rental_uris":{"android":"levelo://app?vid=16ce4843-629b-4a05-8d02-92a72a0aba3d","ios":"levelo://app?vid=16ce4843-629b-4a05-8d02-92a72a0aba3d"},"vehicle_type_id":"4","last_reported":1750169470,"current_range_meters":20800,"station_id":"ce4bgip2rcd13ifvqbb0","pricing_plan_id":"cebpf4jnsgd1na2vs0mg"},{"bike_id":"f0423936-7533-4011-aa4c-f23f62cb9dc1","system_id":"levelo_inurba_marseille","lat":43.28998,"lon":5.35616,"is_reserved":false,"is_disabled":false,"rental_uris":{"android":"levelo://app?vid=f0423936-7533-4011-aa4c-f23f62cb9dc1","ios":"levelo://app?vid=f0423936-7533-4011-aa4c-f23f62cb9dc1"},"vehicle_type_id":"4","last_reported":1750169470,"current_range_meters":20800,"station_id":"ce4bhb92rcd13ifvqen0","pricing_plan_id":"cebpf4jnsgd1na2vs0mg"},{"bike_id":"329fa638-5cae-4d80-84a0-f7375cb03d86","system_id":"levelo_inurba_marseille","lat":43.28419,"lon":5.34997,"is_reserved":false,"is_disabled":false,"rental_uris":{"android":"levelo://app?vid=329fa638-5cae-4d80-84a0-f7375cb03d86","ios":"levelo://app?vid=329fa638-5cae-4d80-84a0-f7375cb03d86"},"vehicle_type_id":"4","last_reported":1750169470,"current_range_meters":20800,"station_id":"ce4bhbh2rcd13ifvqepg","pricing_plan_id":"cebpf4jnsgd1na2vs0mg"},{"bike_id":"6de41aea-1c3f-4359-a8c5-027bf6729eaf","system_id":"levelo_inurba_marseille","lat":43.24389,"lon":5.37059,"is_reserved":false,"is_disabled":false,"rental_uris":{"android":"levelo://app?vid=6de41aea-1c3f-4359-a8c5-027bf6729eaf","ios":"levelo://app?vid=6de41aea-1c3f-4359-a8c5-027bf6729eaf"},"vehicle_type_id":"4","last_reported":1750169470,"current_range_meters":20800,"station_id":"ce4bhhh2rcd13ifvqfk0","pricing_plan_id":"cebpf4jnsgd1na2vs0mg"},{"bike_id":"56407828-05aa-43d4-87bc-077558dbeb9c","system_id":"levelo_inurba_marseille","lat":43.26241,"lon":5.4045,"is_reserved":false,"is_disabled":false,"rental_uris":{"android":"levelo://app?vid=56407828-05aa-43d4-87bc-077558dbeb9c","ios":"levelo://app?vid=56407828-05aa-43d4-87bc-077558dbeb9c"},"vehicle_type_id":"4","last_reported":1750169470,"current_range_meters":20800,"station_id":"ce4bhmh2rcd13ifvqgmg","pricing_plan_id":"cebpf4jnsgd1na2vs0mg"},{"bike_id":"9eedb966-ed93-45f8-85ec-d3285e8b6316","system_id":"levelo_inurba_marseille","lat":43.23159,"lon":5.4373,"is_reserved":false,"is_disabled":false,"rental_uris":{"android":"levelo://app?vid=9eedb966-ed93-45f8-85ec-d3285e8b6316","ios":"levelo://app?vid=9eedb966-ed93-45f8-85ec-d3285e8b6316"},"vehicle_type_id":"4","last_reported":1750169470,"current_range_meters":20800,"station_id":"ce4bhmp2rcd13ifvqgog","pricing_plan_id":"cebpf4jnsgd1na2vs0mg"},{"bike_id":"42080250-3d27-4808-a584-72a6515b8c16","system_id":"levelo_inurba_marseille","lat":43.30333,"lon":5.39454,"is_reserved":false,"is_disabled":false,"rental_uris":{"android":"levelo://app?vid=42080250-3d27-4808-a584-72a6515b8c16","ios":"levelo://app?vid=42080250-3d27-4808-a584-72a6515b8c16"},"vehicle_type_id":"4","last_reported":1750169470,"current_range_meters":21600,"station_id":"","pricing_plan_id":"cebpf4jnsgd1na2vs0mg"},{"bike_id":"360e4938-df86-4f85-afff-e7056630a4e1","system_id":"levelo_inurba_marseille","lat":43.30268,"lon":5.37721,"is_reserved":false,"is_disabled":false,"rental_uris":{"android":"levelo://app?vid=360e4938-df86-4f85-afff-e7056630a4e1","ios":"levelo://app?vid=360e4938-df86-4f85-afff-e7056630a4e1"},"vehicle_type_id":"4","last_reported":1750169470,"current_range_meters":21600,"station_id":"ce4bguh2rcd13ifvqcj0","pricing_plan_id":"cebpf4jnsgd1na2vs0mg"},{"bike_id":"ab441150-186c-4e1b-8122-702d76c85399","system_id":"levelo_inurba_marseille","lat":43.31073,"lon":5.38351,"is_reserved":false,"is_disabled":false,"rental_uris":{"android":"levelo://app?vid=ab441150-186c-4e1b-8122-702d76c85399","ios":"levelo://app?vid=ab441150-186c-4e1b-8122-702d76c85399"},"vehicle_type_id":"4","last_reported":1750169470,"current_range_meters":21600,"station_id":"ce4bgv92rcd13ifvqcr0","pricing_plan_id":"cebpf4jnsgd1na2vs0mg"},{"bike_id":"7d323fe3-a48f-41da-8026-436298dd6903","system_id":"levelo_inurba_marseille","lat":43.28416,"lon":5.34979,"is_reserved":false,"is_disabled":false,"rental_uris":{"android":"levelo://app?vid=7d323fe3-a48f-41da-8026-436298dd6903","ios":"levelo://app?vid=7d323fe3-a48f-41da-8026-436298dd6903"},"vehicle_type_id":"4","last_reported":1750169470,"current_range_meters":21600,"station_id":"ce4bhbh2rcd13ifvqepg","pricing_plan_id":"cebpf4jnsgd1na2vs0mg"},{"bike_id":"c03e0a50-973e-4458-ace2-363ccd38e127","system_id":"levelo_inurba_marseille","lat":43.286273,"lon":5.350953,"is_reserved":false,"is_disabled":false,"rental_uris":{"android":"levelo://app?vid=c03e0a50-973e-4458-ace2-363ccd38e127","ios":"levelo://app?vid=c03e0a50-973e-4458-ace2-363ccd38e127"},"vehicle_type_id":"4","last_reported":1750169470,"current_range_meters":21600,"station_id":"ce4bhch2rcd13ifvqeug","pricing_plan_id":"cebpf4jnsgd1na2vs0mg"},{"bike_id":"2d011489-3a50-4137-8707-13a2dba13148","system_id":"levelo_inurba_marseille","lat":43.259251,"lon":5.408666,"is_reserved":false,"is_disabled":false,"rental_uris":{"android":"levelo://app?vid=2d011489-3a50-4137-8707-13a2dba13148","ios":"levelo://app?vid=2d011489-3a50-4137-8707-13a2dba13148"},"vehicle_type_id":"4","last_reported":1750169470,"current_range_meters":21600,"station_id":"ce4bhm92rcd13ifvqglg","pricing_plan_id":"cebpf4jnsgd1na2vs0mg"},{"bike_id":"8e077055-7ad0-4e0a-b9a5-744e94f44b1d","system_id":"levelo_inurba_marseille","lat":43.31367,"lon":5.36707,"is_reserved":false,"is_disabled":false,"rental_uris":{"android":"levelo://app?vid=8e077055-7ad0-4e0a-b9a5-744e94f44b1d","ios":"levelo://app?vid=8e077055-7ad0-4e0a-b9a5-744e94f44b1d"},"vehicle_type_id":"4","last_reported":1750169470,"current_range_meters":22000,"station_id":"ce4bgr92rcd13ifvqc6g","pricing_plan_id":"cebpf4jnsgd1na2vs0mg"},{"bike_id":"d041ba0a-388e-4dbc-b6aa-62fa08b79b18","system_id":"levelo_inurba_marseille","lat":43.30208,"lon":5.3947,"is_reserved":false,"is_disabled":false,"rental_uris":{"android":"levelo://app?vid=d041ba0a-388e-4dbc-b6aa-62fa08b79b18","ios":"levelo://app?vid=d041ba0a-388e-4dbc-b6aa-62fa08b79b18"},"vehicle_type_id":"4","last_reported":1750169470,"current_range_meters":22000,"station_id":"ce4bh0p2rcd13ifvqd70","pricing_plan_id":"cebpf4jnsgd1na2vs0mg"},{"bike_id":"fdd44788-80d3-41aa-a83c-3c48b01597b8","system_id":"levelo_inurba_marseille","lat":43.28839,"lon":5.39322,"is_reserved":false,"is_disabled":false,"rental_uris":{"android":"levelo://app?vid=fdd44788-80d3-41aa-a83c-3c48b01597b8","ios":"levelo://app?vid=fdd44788-80d3-41aa-a83c-3c48b01597b8"},"vehicle_type_id":"4","last_reported":1750169470,"current_range_meters":22000,"station_id":"ce4bh2p2rcd13ifvqdi0","pricing_plan_id":"cebpf4jnsgd1na2vs0mg"},{"bike_id":"2a66c5d6-2b92-4fd4-9f33-6c2256ab8544","system_id":"levelo_inurba_marseille","lat":43.26034,"lon":5.37549,"is_reserved":false,"is_disabled":false,"rental_uris":{"android":"levelo://app?vid=2a66c5d6-2b92-4fd4-9f33-6c2256ab8544","ios":"levelo://app?vid=2a66c5d6-2b92-4fd4-9f33-6c2256ab8544"},