{"last_updated":1739048843,"ttl":60,"version":"2.2","data":{"bikes":[{"bike_id":"b5915fec-635f-4cd9-af3e-fa7e247711b4","system_id":"levelo_inurba_marseille","lat":43.28415,"lon":5.37501,"is_reserved":false,"is_disabled":false,"rental_uris":{"android":"levelo://app?vid=b5915fec-635f-4cd9-af3e-fa7e247711b4","ios":"levelo://app?vid=b5915fec-635f-4cd9-af3e-fa7e247711b4"},"vehicle_type_id":"4","last_reported":1739048843,"current_range_meters":24000,"station_id":"ce4bh412rcd13ifvqds0","pricing_plan_id":"cebpf4jnsgd1na2vs0mg"},{"bike_id":"8bf9c0d5-b42b-43f3-ac16-58c6303bc32c","system_id":"levelo_inurba_marseille","lat":43.27087,"lon":5.4227,"is_reserved":false,"is_disabled":false,"rental_uris":{"android":"levelo://app?vid=8bf9c0d5-b42b-43f3-ac16-58c6303bc32c","ios":"levelo://app?vid=8bf9c0d5-b42b-43f3-ac16-58c6303bc32c"},"vehicle_type_id":"4","last_reported":1739048843,"current_range_meters":18800,"station_id":"ce4bhk92rcd13ifvqgb0","pricing_plan_id":"cebpf4jnsgd1na2vs0mg"},{"bike_id":"24e6347d-30fc-429d-a054-000bdfd80c76","system_id":"levelo_inurba_marseille","lat":43.28254,"lon":5.3505,"is_reserved":false,"is_disabled":false,"rental_uris":{"android":"levelo://app?vid=24e6347d-30fc-429d-a054-000bdfd80c76","ios":"levelo://app?vid=24e6347d-30fc-429d-a054-000bdfd80c76"},"vehicle_type_id":"4","last_reported":1739048843,"current_range_meters":38000,"station_id":"ce4bhbp2rcd13ifvqerg","pricing_plan_id":"cebpf4jnsgd1na2vs0mg"},{"bike_id":"7ac74796-85bc-4244-a535-1728ee3957ff","system_id":"levelo_inurba_marseille","lat":43.28674,"lon":5.38664,"is_reserved":false,"is_disabled":false,"rental_uris":{"android":"levelo://app?vid=7ac74796-85bc-4244-a535-1728ee3957ff","ios":"levelo://app?vid=7ac74796-85bc-4244-a535-1728ee3957ff"},"vehicle_type_id":"4","last_reported":1739048843,"current_range_meters":38400,"station_id":"ce4bh492rcd13ifvqdug","pricing_plan_id":"cebpf4jnsgd1na2vs0mg"},{"bike_id":"cfa7f1cc-5150-48ed-843c-f6960ddad1e1","system_id":"levelo_inurba_marseille","lat":43.2651,"lon":5.39581,"is_reserved":false,"is_disabled":true,"rental_uris":{"android":"levelo://app?vid=cfa7f1cc-5150-48ed-843c-f6960ddad1e1","ios":"levelo://app?vid=cfa7f1cc-5150-48ed-843c-f6960ddad1e1"},"vehicle_type_id":"4","last_reported":1739048843,"current_range_meters":12000,"station_id":"ce4bhi12rcd13ifvqfq0","pricing_plan_id":"cebpf4jnsgd1na2vs0mg"},{"bike_id":"fb0e234e-108f-4e2d-9520-e41bff530764","system_id":"levelo_inurba_marseille","lat":43.24659,"lon":5.38178,"is_reserved":false,"is_disabled":false,"rental_uris":{"android":"levelo://app?vid=fb0e234e-108f-4e2d-9520-e41bff530764","ios":"levelo://app?vid=fb0e234e-108f-4e2d-9520-e41bff530764"},"vehicle_type_id":"4","last_reported":1739048843,"current_range_meters":34800,"station_id":"ce4bhih2rcd13ifvqfr0","pricing_plan_id":"cebpf4jnsgd1na2vs0mg"},{"bike_id":"e06bad01-5d50-47d2-96c7-a75ef9dc120d","system_id":"levelo_inurba_marseille","lat":43.33764,"lon":5.37473,"is_reserved":false,"is_disabled":false,"rental_uris":{"android":"levelo://app?vid=e06bad01-5d50-47d2-96c7-a75ef9dc120d","ios":"levelo://app?vid=e06bad01-5d50-47d2-96c7-a75ef9dc120d"},"vehicle_type_id":"4","last_reported":1739048843,"current_range_meters":24000,"station_id":"","pricing_plan_id":"cebpf4jnsgd1na2vs0mg"},{"bike_id":"f2e06baa-60fe-40f3-9f0e-2b7a9f451081","system_id":"levelo_inurba_marseille","lat":43.29186,"lon":5.39335,"is_reserved":false,"is_disabled":false,"rental_uris":{"android":"levelo://app?vid=f2e06baa-60fe-40f3-9f0e-2b7a9f451081","ios":"levelo://app?vid=f2e06baa-60fe-40f3-9f0e-2b7a9f451081"},"vehicle_type_id":"4","last_reported":1739048843,"current_range_meters":33600,"station_id":"ce4bh192rcd13ifvqdd0","pricing_plan_id":"cebpf4jnsgd1na2vs0mg"},{"bike_id":"7e8bec65-5945-4fa0-8df6-04403a22eb14","system_id":"levelo_inurba_marseille","lat":43.273,"lon":5.39113,"is_reserved":false,"is_disabled":false,"rental_uris":{"android":"levelo://app?vid=7e8bec65-5945-4fa0-8df6-04403a22eb14","ios":"levelo://app?vid=7e8bec65-5945-4fa0-8df6-04403a22eb14"},"vehicle_type_id":"4","last_reported":1739048843,"current_range_meters":24800,"station_id":"ce4bhgp2rcd13ifvqfe0","pricing_plan_id":"cebpf4jnsgd1na2vs0mg"},{"bike_id":"ab1e7b5f-ec74-4b51-ba84-14d2ab5ee66e","system_id":"levelo_inurba_marseille","lat":43.29302,"lon":5.37457,"is_reserved":false,"is_disabled":false,"rental_uris":{"android":"levelo://app?vid=ab1e7b5f-ec74-4b51-ba84-14d2ab5ee66e","ios":"levelo://app?vid=ab1e7b5f-ec74-4b51-ba84-14d2ab5ee66e"},"vehicle_type_id":"4","last_reported":1739048843,"current_range_meters":38800,"station_id":"ce4bgi12rcd13ifvqb70","pricing_plan_id":"cebpf4jnsgd1na2vs0mg"},{"bike_id":"7d76beb3-3577-4e70-b961-5c1ce14ac0c3","system_id":"levelo_inurba_marseille","lat":43.279011,"lon":5.380029,"is_reserved":false,"is_disabled":false,"rental_uris":{"android":"levelo://app?vid=7d76beb3-3577-4e70-b961-5c1ce14ac0c3","ios":"levelo://app?vid=7d76beb3-3577-4e70-b961-5c1ce14ac0c3"},"vehicle_type_id":"4","last_reported":1739048843,"current_range_meters":38800,"station_id":"ce4bhf92rcd13ifvqf50","pricing_plan_id":"cebpf4jnsgd1na2vs0mg"},{"bike_id":"952ab6ee-c71f-431a-a116-28c771dc3a24","system_id":"levelo_inurba_marseille","lat":43.27949,"lon":5.41026,"is_reserved":false,"is_disabled":true,"rental_uris":{"android":"levelo://app?vid=952ab6ee-c71f-431a-a116-28c771dc3a24","ios":"levelo://app?vid=952ab6ee-c71f-431a-a116-28c771dc3a24"},"vehicle_type_id":"4","last_reported":1739048843,"current_range_meters":0,"station_id":"ce4bhnp2rcd13ifvqh0g","pricing_plan_id":"cebpf4jnsgd1na2vs0mg"},{"bike_id":"16179672-8e57-4bd7-883c-f6b0c3f5487d","system_id":"levelo_inurba_marseille","lat":43.29273,"lon":5.38449,"is_reserved":false,"is_disabled":false,"rental_uris":{"android":"levelo://app?vid=16179672-8e57-4bd7-883c-f6b0c3f5487d","ios":"levelo://app?vid=16179672-8e57-4bd7-883c-f6b0c3f5487d"},"vehicle_type_id":"4","last_reported":1739048843,"current_range_meters":20000,"station_id":"ce4bh692rcd13ifvqea0","pricing_plan_id":"cebpf4jnsgd1na2vs0mg"},{"bike_id":"748060b5-b076-40e0-8ffa-ae2ef61bee30","system_id":"levelo_inurba_marseille","lat":43.294189,"lon":5.38628,"is_reserved":false,"is_disabled":false,"rental_uris":{"android":"levelo://app?vid=748060b5-b076-40e0-8ffa-ae2ef61bee30","ios":"levelo://app?vid=748060b5-b076-40e0-8ffa-ae2ef61bee30"},"vehicle_type_id":"4","last_reported":1739048843,"current_range_meters":34800,"station_id":"ce4bh2h2rcd13ifvqdh0","pricing_plan_id":"cebpf4jnsgd1na2vs0mg"},{"bike_id":"f648c896-ae04-434b-b716-9058c2568c14","system_id":"levelo_inurba_marseille","lat":43.2953,"lon":5.38547,"is_reserved":false,"is_disabled":false,"rental_uris":{"android":"levelo://app?vid=f648c896-ae04-434b-b716-9058c2568c14","ios":"levelo://app?vid=f648c896-ae04-434b-b716-9058c2568c14"},"vehicle_type_id":"4","last_reported":1739048843,"current_range_meters":37600,"station_id":"ce4bgih2rcd13ifvqba0","pricing_plan_id":"cebpf4jnsgd1na2vs0mg"},{"bike_id":"23e51599-58b3-4981-970f-4bcf41077c68","system_id":"levelo_inurba_marseille","lat":43.30436,"lon":5.39748,"is_reserved":false,"is_disabled":false,"rental_uris":{"android":"levelo://app?vid=23e51599-58b3-4981-970f-4bcf41077c68","ios":"levelo://app?vid=23e51599-58b3-4981-970f-4bcf41077c68"},"vehicle_type_id":"4","last_reported":1739048843,"current_range_meters":22400,"station_id":"ce4bh092rcd13ifvqd20","pricing_plan_id":"cebpf4jnsgd1na2vs0mg"},{"bike_id":"0b570336-f0af-448d-b9b7-744840b1cd28","system_id":"levelo_inurba_marseille","lat":43.29268,"lon":5.36845,"is_reserved":false,"is_disabled":false,"rental_uris":{"android":"levelo://app?vid=0b570336-f0af-448d-b9b7-744840b1cd28","ios":"levelo://app?vid=0b570336-f0af-448d-b9b7-744840b1cd28"},"vehicle_type_id":"4","last_reported":1739048843,"current_range_meters":32800,"station_id":"ce4bhbp2rcd13ifvqesg","pricing_plan_id":"cebpf4jnsgd1na2vs0mg"},{"bike_id":"36e53cc6-0052-4492-bb77-b33fe90983d1","system_id":"levelo_inurba_marseille","lat":43.28624,"lon":5.35108,"is_reserved":false,"is_disabled":false,"rental_uris":{"android":"levelo://app?vid=36e53cc6-0052-4492-bb77-b33fe90983d1","ios":"levelo://app?vid=36e53cc6-0052-4492-bb77-b33fe90983d1"},"vehicle_type_id":"4","last_reported":1739048843,"current_range_meters":36400,"station_id":"ce4bhch2rcd13ifvqeug","pricing_plan_id":"cebpf4jnsgd1na2vs0mg"},{"bike_id":"56353fc4-9394-43fa-a8b9-6940e67715c5","system_id":"levelo_inurba_marseille","lat":43.29974,"lon":5.38494,"is_reserved":false,"is_disabled":false,"rental_uris":{"android":"levelo://app?vid=56353fc4-9394-43fa-a8b9-6940e67715c5","ios":"levelo://app?vid=56353fc4-9394-43fa-a8b9-6940e67715c5"},"vehicle_type_id":"4","last_reported":1739048843,"current_range_meters":27200,"station_id":"ce4bgj92rcd13ifvqbd0","pricing_plan_id":"cebpf4jnsgd1na2vs0mg"},{"bike_id":"949ecb89-56e4-4c04-a100-83de2f0eaaf9","system_id":"levelo_inurba_marseille","lat":43.2779,"lon":5.40731,"is_reserved":false,"is_disabled":false,"rental_uris":{"android":"levelo://app?vid=949ecb89-56e4-4c04-a100-83de2f0eaaf9","ios":"levelo://app?vid=949ecb89-56e4-4c04-a100-83de2f0eaaf9"},"vehicle_type_id":"4","last_reported":1739048843,"current_range_meters":27600,"station_id":"ce4bhnh2rcd13ifvqgtg","pricing_plan_id":"cebpf4jnsgd1na2vs0mg"},{"bike_id":"6a3bf5dc-6406-4053-977a-019d33b4193c","system_id":"levelo_inurba_marseille","lat":43.28421,"lon":5.37589,"is_reserved":false,"is_disabled":false,"rental_uris":{"android":"levelo://app?vid=6a3bf5dc-6406-4053-977a-019d33b4193c","ios":"levelo://app?vid=6a3bf5dc-6406-4053-977a-019d33b4193c"},"vehicle_type_id":"4","last_reported":1739048843,"current_range_meters":28000,"station_id":"ce4bh412rcd13ifvqds0","pricing_plan_id":"cebpf4jnsgd1na2vs0mg"},{"bike_id":"a92bc0c3-079a-47f0-99e6-d552134d15f5","system_id":"levelo_inurba_marseille","lat":43.27544,"lon":5.38452,"is_reserved":false,"is_disabled":false,"rental_uris":{"android":"levelo://app?vid=a92bc0c3-079a-47f0-99e6-d552134d15f5","ios":"levelo://app?vid=a92bc0c3-079a-47f0-99e6-d552134d15f5"},"vehicle_type_id":"4","last_reported":1739048843,"current_range_meters":34000,"station_id":"ce4bhh92rcd13ifvqfi0","pricing_plan_id":"cebpf4jnsgd1na2vs0mg"},{"bike_id":"cd0b1f26-229a-49dc-a632-abc582d835cd","system_id":"levelo_inurba_marseille","lat":43.24544,"lon":5.39542,"is_reserved":false,"is_disabled":false,"rental_uris":{"android":"levelo://app?vid=cd0b1f26-229a-49dc-a632-abc582d835cd","ios":"levelo://app?vid=cd0b1f26-229a-49dc-a632-abc582d835cd"},"vehicle_type_id":"4","last_reported":1739048843,"current_range_meters":38000,"station_id":"ce4bhlp2rcd13ifvqgjg","pricing_plan_id":"cebpf4jnsgd1na2vs0mg"},{"bike_id":"af3b94d5-ac48-4a4f-9581-92e0687b680b","system_id":"levelo_inurba_marseille","lat":43.28697,"lon":5.37384,"is_reserved":false,"is_disabled":false,"rental_uris":{"android":"levelo://app?vid=af3b94d5-ac48-4a4f-9581-92e0687b680b","ios":"levelo://app?vid=af3b94d5-ac48-4a4f-9581-92e0687b680b"},"vehicle_type_id":"4","last_reported":1739048843,"current_range_meters":16000,"station_id":"ce4bh3p2rcd13ifvqdq0","pricing_plan_id":"cebpf4jnsgd1na2vs0mg"},{"bike_id":"cc5be222-f5b9-4564-8357-792e36ef3901","system_id":"levelo_inurba_marseille","lat":43.28032,"lon":5.36948,"is_reserved":false,"is_disabled":false,"rental_uris":{"android":"levelo://app?vid=cc5be222-f5b9-4564-8357-792e36ef3901","ios":"levelo://app?vid=cc5be222-f5b9-4564-8357-792e36ef3901"},"vehicle_type_id":"4","last_reported":1739048843,"current_range_meters":39200,"station_id":"ce4bha12rcd13ifvqef0","pricing_plan_id":"cebpf4jnsgd1na2vs0mg"},{"bike_id":"63bbc862-544c-452b-819c-a08c4226e97b","system_id":"levelo_inurba_marseille","lat":43.29266,"lon":5.38444,"is_reserved":false,"is_disabled":false,"rental_uris":{"android":"levelo://app?vid=63bbc862-544c-452b-819c-a08c4226e97b","ios":"levelo://app?vid=63bbc862-544c-452b-819c-a08c4226e97b"},"vehicle_type_id":"4","last_reported":1739048843,"current_range_meters":28000,"station_id":"ce4bh692rcd13ifvqea0","pricing_plan_id":"cebpf4jnsgd1na2vs0mg"},{"bike_id":"3711b840-d678-4287-b469-a5aa91bfc0be","system_id":"levelo_inurba_marseille","lat":43.26232,"lon":5.37405,"is_reserved":false,"is_disabled":false,"rental_uris":{"android":"levelo://app?vid=3711b840-d678-4287-b469-a5aa91bfc0be","ios":"levelo://app?vid=3711b840-d678-4287-b469-a5aa91bfc0be"},"vehicle_type_id":"4","last_reported":1739048843,"current_range_meters":29600,"station_id":"ce4bhgp2rcd13ifvqfc0","pricing_plan_id":"cebpf4jnsgd1na2vs0mg"},{"bike_id":"39b9fd79-34fc-4150-bb20-d513ffed69f4","system_id":"levelo_inurba_marseille","lat":43.29426,"lon":5.38633,"is_reserved":false,"is_disabled":false,"rental_uris":{"android":"levelo://app?vid=39b9fd79-34fc-4150-bb20-d513ffed69f4","ios":"levelo://app?vid=39b9fd79-34fc-4150-bb20-d513ffed69f4"},"vehicle_type_id":"4","last_reported":1739048843,"current_range_meters":32800,"station_id":"ce4bh2h2rcd13ifvqdh0","pricing_plan_id":"cebpf4jnsgd1na2vs0mg"},{"bike_id":"c7214087-f338-4aa0-87d4-4c782ee32a35","system_id":"levelo_inurba_marseille","lat":43.23961,"lon":5.36635,"is_reserved":false,"is_disabled":false,"rental_uris":{"android":"levelo://app?vid=c7214087-f338-4aa0-87d4-4c782ee32a35","ios":"levelo://app?vid=c7214087-f338-4aa0-87d4-4c782ee32a35"},"vehicle_type_id":"4","last_reported":1739048843,"current_range_meters":16000,"station_id":"ce4bhi12rcd13ifvqfp0","pricing_plan_id":"cebpf4jnsgd1na2vs0mg"},{"bike_id":"d25eec51-bb4e-43cd-9e78-510d5472253f","system_id":"levelo_inurba_marseille","lat":43.26214,"lon":5.37447,"is_reserved":false,"is_disabled":false,"rental_uris":{"android":"levelo://app?vid=d25eec51-bb4e-43cd-9e78-510d5472253f","ios":"levelo://app?vid=d25eec51-bb4e-43cd-9e78-510d5472253f"},"vehicle_type_id":"4","last_reported":1739048843,"current_range_meters":38800,"station_id":"ce4bhgp2rcd13ifvqfc0","pricing_plan_id":"cebpf4jnsgd1na2vs0mg"},{"bike_id":"3047d67e-3367-4bab-bf66-c059c6caf2a6","system_id":"levelo_inurba_marseille","lat":43.2621,"lon":5.40451,"is_reserved":false,"is_disabled":false,"rental_uris":{"android":"levelo://app?vid=3047d67e-3367-4bab-bf66-c059c6caf2a6","ios":"levelo://app?vid=3047d67e-3367-4bab-bf66-c059c6caf2a6"},"vehicle_type_id":"4","last_reported":1739048843,"current_range_meters":28400,"station_id":"ce4bhmh2rcd13ifvqgmg","pricing_plan_id":"cebpf4jnsgd1na2vs0mg"},{"bike_id":"1b91739e-6bd2-4273-8c8f-c0534d5b551b","system_id":"levelo_inurba_marseille","lat":43.23963,"lon":5.3663,"is_reserved":false,"is_disabled":false,"rental_uris":{"android":"levelo://app?vid=1b91739e-6bd2-4273-8c8f-c0534d5b551b","ios":"levelo://app?vid=1b91739e-6bd2-4273-8c8f-c0534d5b551b"},"vehicle_type_id":"4","last_reported":1739048843,"current_range_meters":33200,"station_id":"ce4bhi12rcd13ifvqfp0","pricing_plan_id":"cebpf4jnsgd1na2vs0mg"},{"bike_id":"962633c7-4bc4-4b66-8248-607305c8ad0b","system_id":"levelo_inurba_marseille","lat":43.2848,"lon":5.38429,"is_reserved":false,"is_disabled":false,"rental_uris":{"android":"levelo://app?vid=962633c7-4bc4-4b66-8248-607305c8ad0b","ios":"levelo://app?vid=962633c7-4bc4-4b66-8248-607305c8ad0b"},"vehicle_type_id":"4","last_reported":1739048843,"current_range_meters":5600,"station_id":"ce4bh512rcd13ifvqe3g","pricing_plan_id":"cebpf4jnsgd1na2vs0mg"},{"bike_id":"db17e1ea-c776-42a7-84e1-d008d91b30e8","system_id":"levelo_inurba_marseille","lat":43.29304,"lon":5.37447,"is_reserved":false,"is_disabled":false,"rental_uris":{"android":"levelo://app?vid=db17e1ea-c776-42a7-84e1-d008d91b30e8","ios":"levelo://app?vid=db17e1ea-c776-42a7-84e1-d008d91b30e8"},"vehicle_type_id":"4","last_reported":1739048843,"current_range_meters":32000,"station_id":"ce4bgi12rcd13ifvqb70","pricing_plan_id":"cebpf4jnsgd1na2vs0mg"},{"bike_id":"5b1ad23e-98a1-47d5-88de-be663b65ff48","system_id":"levelo_inurba_marseille","lat":43.25581,"lon":5.38251,"is_reserved":false,"is_disabled":false,"rental_uris":{"android":"levelo://app?vid=5b1ad23e-98a1-47d5-88de-be663b65ff48","ios":"levelo://app?vid=5b1ad23e-98a1-47d5-88de-be663b65ff48"},"vehicle_type_id":"4","last_reported":1739048843,"current_range_meters":26800,"station_id":"ce4bhih2rcd13ifvqfs0","pricing_plan_id":"cebpf4jnsgd1na2vs0mg"},{"bike_id":"2d6a2e4c-47bb-4bf8-8e22-1e9c987f8b16","system_id":"levelo_inurba_marseille","lat":43.23966,"lon":5.36633,"is_reserved":false,"is_disabled":false,"rental_uris":{"android":"levelo://app?vid=2d6a2e4c-47bb-4bf8-8e22-1e9c987f8b16","ios":"levelo://app?vid=2d6a2e4c-47bb-4bf8-8e22-1e9c987f8b16"},"vehicle_type_id":"4","last_reported":1739048843,"current_range_meters":10000,"station_id":"ce4bhi12rcd13ifvqfp0","pricing_plan_id":"cebpf4jnsgd1na2vs0mg"},{"bike_id":"7dd1a804-3494-49db-a5bb-759f5479bdbd","system_id":"levelo_inurba_marseille","lat":43.2862,"lon":5.37142,"is_reserved":false,"is_disabled":false,"rental_uris":{"android":"levelo://app?vid=7dd1a804-3494-49db-a5bb-759f5479bdbd","ios":"levelo://app?vid=7dd1a804-3494-49db-a5bb-759f5479bdbd"},"vehicle_type_id":"4","last_reported":1739048843,"current_range_meters":38000,"station_id":"ce4bht12rcd13ifvqi60","pricing_plan_id":"cebpf4jnsgd1na2vs0mg"},{"bike_id":"25896d29-b168-42e8-a209-12561d26af8b","system_id":"levelo_inurba_marseille","lat":43.2589,"lon":5.39874,"is_reserved":false,"is_disabled":false,"rental_uris":{"android":"levelo://app?vid=25896d29-b168-42e8-a209-12561d26af8b","ios":"levelo://app?vid=25896d29-b168-42e8-a209-12561d26af8b"},"vehicle_type_id":"4","last_reported":1739048843,"current_range_meters":38000,"station_id":"ce4bhl92rcd13ifvqghg","pricing_plan_id":"cebpf4jnsgd1na2vs0mg"},{"bike_id":"963e2182-7dab-4921-9405-106a236585a1","system_id":"levelo_inurba_marseille","lat":43.29273,"lon":5.38442,"is_reserved":false,"is_disabled":false,"rental_uris":{"android":"levelo://app?vid=963e2182-7dab-4921-9405-106a236585a1","ios":"levelo://app?vid=963e2182-7dab-4921-9405-106a236585a1"},"vehicle_type_id":"4","last_reported":1739048843,"current_range_meters":33600,"station_id":"ce4bh692rcd13ifvqea0","pricing_plan_id":"cebpf4jnsgd1na2vs0mg"},{"bike_id":"098d220b-e449-43ea-8d6d-9fc78e0abad9","system_id":"levelo_inurba_marseille","lat":43.22926,"lon":5.3539,"is_reserved":false,"is_disabled":false,"rental_uris":{"android":"levelo://app?vid=098d220b-e449-43ea-8d6d-9fc78e0abad9","ios":"levelo://app?vid=098d220b-e449-43ea-8d6d-9fc78e0abad9"},"vehicle_type_id":"4","last_reported":1739048843,"current_range_meters":38800,"station_id":"cpo3532slgdg3j2ikp40","pricing_plan_id":"cebpf4jnsgd1na2vs0mg"},{"bike_id":"0efde736-ee9b-44d0-8b04-e8bc73c3f8d5","system_id":"levelo_inurba_marseille","lat":43.29381,"lon":5.37863,"is_reserved":false,"is_disabled":false,"rental_uris":{"android":"levelo://app?vid=0efde736-ee9b-44d0-8b04-e8bc73c3f8d5","ios":"levelo://app?vid=0efde736-ee9b-44d0-8b04-e8bc73c3f8d5"},"vehicle_type_id":"4","last_reported":1739048843,"current_range_meters":38800,"station_id":"ce4bgjh2rcd13ifvqbf0","pricing_plan_id":"cebpf4jnsgd1na2vs0mg"},{"bike_id":"e1dbee30-3f5f-441b-a0c7-2f8908a82158","system_id":"levelo_inurba_marseille","lat":43.28444,"lon":5.35892,"is_reserved":false,"is_disabled":false,"rental_uris":{"android":"levelo://app?vid=e1dbee30-3f5f-441b-a0c7-2f8908a82158","ios":"levelo://app?vid=e1dbee30-3f5f-441b-a0c7-2f8908a82158"},"vehicle_type_id":"4","last_reported":1739048843,"current_range_meters":32800,"station_id":"ce4bhah2rcd13ifvqei0","pricing_plan_id":"cebpf4jnsgd1na2vs0mg"},{"bike_id":"25265f47-6177-48e9-b4ee-d5d5e25bf867","system_id":"levelo_inurba_marseille","lat":43.25735,"lon":5.41117,"is_reserved":false,"is_disabled":false,"rental_uris":{"android":"levelo://app?vid=25265f47-6177-48e9-b4ee-d5d5e25bf867","ios":"levelo://app?vid=25265f47-6177-48e9-b4ee-d5d5e25bf867"},"vehicle_type_id":"4","last_reported":1739048843,"current_range_meters":11200,"station_id":"ce4bhkp2rcd13ifvqgd0","pricing_plan_id":"cebpf4jnsgd1na2vs0mg"},{"bike_id":"e8e7974d-086b-4c50-812d-fcd3fae9665a","system_id":"levelo_inurba_marseille","lat":43.28444,"lon":5.35894,"is_reserved":false,"is_disabled":false,"rental_uris":{"android":"levelo://app?vid=e8e7974d-086b-4c50-812d-fcd3fae9665a","ios":"levelo://app?vid=e8e7974d-086b-4c50-812d-fcd3fae9665a"},"vehicle_type_id":"4","last_reported":1739048843,"current_range_meters":39200,"station_id":"ce4bhah2rcd13ifvqei0","pricing_plan_id":"cebpf4jnsgd1na2vs0mg"},{"bike_id":"109d8d07-d605-45c4-912d-3e7b38f9a9ae","system_id":"levelo_inurba_marseille","lat":43.24164,"lon":5.36414,"is_reserved":false,"is_disabled":false,"rental_uris":{"android":"levelo://app?vid=109d8d07-d605-45c4-912d-3e7b38f9a9ae","ios":"levelo://app?vid=109d8d07-d605-45c4-912d-3e7b38f9a9ae"},"vehicle_type_id":"4","last_reported":1739048843,"current_range_meters":11600,"station_id":"cpo36qri1sfpv3e86is0","pricing_plan_id":"cebpf4jnsgd1na2vs0mg"},{"bike_id":"25942210-cb49-4e7b-986a-27edd939ad3b","system_id":"levelo_inurba_marseille","lat":43.29001,"lon":5.3562,"is_reserved":false,"is_disabled":false,"rental_uris":{"android":"levelo://app?vid=25942210-cb49-4e7b-986a-27edd939ad3b","ios":"levelo://app?vid=25942210-cb49-4e7b-986a-27edd939ad3b"},"vehicle_type_id":"4","last_reported":1739048843,"current_range_meters":12800,"station_id":"ce4bhb92rcd13ifvqen0","pricing_plan_id":"cebpf4jnsgd1na2vs0mg"},{"bike_id":"b402e7ea-7e8d-41f7-88dc-b0d0ebed5285","system_id":"levelo_inurba_marseille","lat":43.29426,"lon":5.38618,"is_reserved":false,"is_disabled":false,"rental_uris":{"android":"levelo://app?vid=b402e7ea-7e8d-41f7-88dc-b0d0ebed5285","ios":"levelo://app?vid=b402e7ea-7e8d-41f7-88dc-b0d0ebed5285"},"vehicle_type_id":"4","last_reported":1739048843,"current_range_meters":20000,"station_id":"ce4bh2h2rcd13ifvqdh0","pricing_plan_id":"cebpf4jnsgd1na2vs0mg"},{"bike_id":"2ebd233c-fd15-4f13-9700-c155c053523f","system_id":"levelo_inurba_marseille","lat":43.25925,"lon":5.40883,"is_reserved":false,"is_disabled":true,"rental_uris":{"android":"levelo://app?vid=2ebd233c-fd15-4f13-9700-c155c053523f","ios":"levelo://app?vid=2ebd233c-fd15-4f13-9700-c155c053523f"},"vehicle_type_id":"4","last_reported":1739048843,"current_range_meters":22800,"station_id":"ce4bhm92rcd13ifvqglg","pricing_plan_id":"cebpf4jnsgd1na2vs0mg"},{"bike_id":"39236380-f9cb-4f30-b319-f9333c13c808","system_id":"levelo_inurba_marseille","lat":43.29529,"lon":5.38542,"is_reserved":false,"is_disabled":false,"rental_uris":{"android":"levelo://app?vid=39236380-f9cb-4f30-b319-f9333c13c808","ios":"levelo://app?vid=39236380-f9cb-4f30-b319-f9333c13c808"},"vehicle_type_id":"4","last_reported":1739048843,"current_range_meters":11200,"station_id":"ce4bgih2rcd13ifvqba0","pricing_plan_id":"cebpf4jnsgd1na2vs0mg"},{"bike_id":"b99f2813-c89f-426e-a3ac-2ef979f42f00","system_id":"levelo_inurba_marseille","lat":43.32107,"lon":5.36769,"is_reserved":false,"is_disabled":false,"rental_uris":{"android":"levelo://app?vid=b99f2813-c89f-426e-a3ac-2ef979f42f00","ios":"levelo://app?vid=b99f2813-c89f-426e-a3ac-2ef979f42f00"},"vehicle_type_id":"4","last_reported":1739048843,"current_range_meters":27600,"station_id":"ce4bhrh2rcd13ifvqhug","pricing_plan_id":"cebpf4jnsgd1na2vs0mg"},{"bike_id":"14bff24b-ffd2-4a11-81c8-5809279188ec","system_id":"levelo_inurba_marseille","lat":43.29514,"lon":5.39412,"is_reserved":false,"is_disabled":false,"rental_uris":{"android":"levelo://app?vid=14bff24b-ffd2-4a11-81c8-5809279188ec","ios":"levelo://app?vid=14bff24b-ffd2-4a11-81c8-5809279188ec"},"vehicle_type_id":"4","last_reported":1739048843,"current_range_meters":38800,"station_id":"ce4bh292rcd13ifvqdf0","pricing_plan_id":"cebpf4jnsgd1na2vs0mg"},{"bike_id":"8fdc9d99-5dd6-46ed-933b-a92898878e61","system_id":"levelo_inurba_marseille","lat":43.28088,"lon":5.37866,"is_reserved":false,"is_disabled":false,"rental_uris":{"android":"levelo://app?vid=8fdc9d99-5dd6-46ed-933b-a92898878e61","ios":"levelo://app?vid=8fdc9d99-5dd6-46ed-933b-a92898878e61"},"vehicle_type_id":"4","last_reported":1739048843,"current_range_meters":12400,"station_id":"ce4bha12rcd13ifvqee0","pricing_plan_id":"cebpf4jnsgd1na2vs0mg"},{"bike_id":"c13ae62e-d5d6-4d3f-b979-0be4fe4644ed","system_id":"levelo_inurba_marseille","lat":43.24679,"lon":5.38145,"is_reserved":false,"is_disabled":false,"rental_uris":{"android":"levelo://app?vid=c13ae62e-d5d6-4d3f-b979-0be4fe4644ed","ios":"levelo://app?vid=c13ae62e-d5d6-4d3f-b979-0be4fe4644ed"},"vehicle_type_id":"4","last_reported":1739048843,"current_range_meters":18800,"station_id":"ce4bhih2rcd13ifvqfr0","pricing_plan_id":"cebpf4jnsgd1na2vs0mg"},{"bike_id":"5834c90f-4f5c-4603-9020-91c24a184914","system_id":"levelo_inurba_marseille","lat":43.28448,"lon":5.38464,"is_reserved":false,"is_disabled":false,"rental_uris":{"android":"levelo://app?vid=5834c90f-4f5c-4603-9020-91c24a184914","ios":"levelo://app?vid=5834c90f-4f5c-4603-9020-91c24a184914"},"vehicle_type_id":"4","last_reported":1739048843,"current_range_meters":29600,"station_id":"","pricing_plan_id":"cebpf4jnsgd1na2vs0mg"},{"bike_id":"31531767-ab87-4aae-a024-597eb257d640","system_id":"levelo_inurba_marseille","lat":43.31184,"lon":5.38718,"is_reserved":false,"is_disabled":false,"rental_uris":{"android":"levelo://app?vid=31531767-ab87-4aae-a024-597eb257d640","ios":"levelo://app?vid=31531767-ab87-4aae-a024-597eb257d640"},"vehicle_type_id":"4","last_reported":1739048843,"current_range_meters":27600,"station_id":"ce4bgv12rcd13ifvqcp0","pricing_plan_id":"cebpf4jnsgd1na2vs0mg"},{"bike_id":"b705f561-dbe8-4485-90d5-75b92e94f765","system_id":"levelo_inurba_marseille","lat":43.27552,"lon":5.38452,"is_reserved":false,"is_disabled":false,"rental_uris":{"android":"levelo://app?vid=b705f561-dbe8-4485-90d5-75b92e94f765","ios":"levelo://app?vid=b705f561-dbe8-4485-90d5-75b92e94f765"},"vehicle_type_id":"4","last_reported":1739048843,"current_range_meters":26800,"station_id":"ce4bhh92rcd13ifvqfi0","pricing_plan_id":"cebpf4jnsgd1na2vs0mg"},{"bike_id":"05248eb5-7269-4903-9e59-0e8e45454d8f","system_id":"levelo_inurba_marseille","lat":43.26948,"lon":5.38645,"is_reserved":false,"is_disabled":false,"rental_uris":{"android":"levelo://app?vid=05248eb5-7269-4903-9e59-0e8e45454d8f","ios":"levelo://app?vid=05248eb5-7269-4903-9e59-0e8e45454d8f"},"vehicle_type_id":"4","last_reported":1739048843,"current_range_meters":36400,"station_id":"ce4bhh92rcd13ifvqfh0","pricing_plan_id":"cebpf4jnsgd1na2vs0mg"},{"bike_id":"dd0ef353-f4d0-4343-891f-decfdefa5c22","system_id":"levelo_inurba_marseille","lat":43.27618,"lon":5.36135,"is_reserved":false,"is_disabled":false,"rental_uris":{"android":"levelo://app?vid=dd0ef353-f4d0-4343-891f-decfdefa5c22","ios":"levelo://app?vid=dd0ef353-f4d0-4343-891f-decfdefa5c22"},"vehicle_type_id":"4","last_reported":1739048843,"current_range_meters":38800,"station_id":"ce4bgj92rcd13ifvqbe0","pricing_plan_id":"cebpf4jnsgd1na2vs0mg"},{"bike_id":"21d898ed-92c5-464c-963a-ac66ea2225fd","system_id":"levelo_inurba_marseille","lat":43.2862,"lon":5.35106,"is_reserved":false,"is_disabled":false,"rental_uris":{"android":"levelo://app?vid=21d898ed-92c5-464c-963a-ac66ea2225fd","ios":"levelo://app?vid=21d898ed-92c5-464c-963a-ac66ea2225fd"},"vehicle_type_id":"4","last_reported":1739048843,"current_range_meters":32000,"station_id":"ce4bhch2rcd13ifvqeug","pricing_plan_id":"cebpf4jnsgd1na2vs0mg"},{"bike_id":"1026c232-bfb4-4162-9f47-6800f4a5b03a","system_id":"levelo_inurba_marseille","lat":43.31575,"lon":5.373,"is_reserved":false,"is_disabled":false,"rental_uris":{"android":"levelo://app?vid=1026c232-bfb4-4162-9f47-6800f4a5b03a","ios":"levelo://app?vid=1026c232-bfb4-4162-9f47-6800f4a5b03a"},"vehicle_type_id":"4","last_reported":1739048843,"current_range_meters":33600,"station_id":"","pricing_plan_id":"cebpf4jnsgd1na2vs0mg"},{"bike_id":"89912e32-c5f0-448f-82d2-e236e4d6d653","system_id":"levelo_inurba_marseille","lat":43.28265,"lon":5.40778,"is_reserved":false,"is_disabled":true,"rental_uris":{"android":"levelo://app?vid=89912e32-c5f0-448f-82d2-e236e4d6d653","ios":"levelo://app?vid=89912e32-c5f0-448f-82d2-e236e4d6d653"},"vehicle_type_id":"4","last_reported":1739048843,"current_range_meters":0,"station_id":"","pricing_plan_id":"cebpf4jnsgd1na2vs0mg"},{"bike_id":"3f3e210e-dee5-46e0-8466-720033924bed","system_id":"levelo_inurba_marseille","lat":43.26559,"lon":5.37292,"is_reserved":false,"is_disabled":false,"rental_uris":{"android":"levelo://app?vid=3f3e210e-dee5-46e0-8466-720033924bed","ios":"levelo://app?vid=3f3e210e-dee5-46e0-8466-720033924bed"},"vehicle_type_id":"4","last_reported":1739048843,"current_range_meters":31200,"station_id":"ce4bhg12rcd13ifvqf70","pricing_plan_id":"cebpf4jnsgd1na2vs0mg"},{"bike_id":"07b0c9c7-9389-4511-bb38-b45465fdc042","system_id":"levelo_inurba_marseille","lat":43.2848,"lon":5.35893,"is_reserved":false,"is_disabled":false,"rental_uris":{"android":"levelo://app?vid=07b0c9c7-9389-4511-bb38-b45465fdc042","ios":"levelo://app?vid=07b0c9c7-9389-4511-bb38-b45465fdc042"},"vehicle_type_id":"4","last_reported":1739048843,"current_range_meters":39200,"station_id":"ce4bhah2rcd13ifvqei0","pricing_plan_id":"cebpf4jnsgd1na2vs0mg"},{"bike_id":"e7e14db6-3bef-453a-aab6-06ade3cdd6b0","system_id":"levelo_inurba_marseille","lat":43.244,"lon":5.44092,"is_reserved":false,"is_disabled":true,"rental_uris":{"android":"levelo://app?vid=e7e14db6-3bef-453a-aab6-06ade3cdd6b0","ios":"levelo://app?vid=e7e14db6-3bef-453a-aab6-06ade3cdd6b0"},"vehicle_type_id":"4","last_reported":1739048843,"current_range_meters":0,"station_id":"","pricing_plan_id":"cebpf4jnsgd1na2vs0mg"},{"bike_id":"a436e2ca-3b1c-44d4-a575-314946b32f12","system_id":"levelo_inurba_marseille","lat":43.25496,"lon":5.3765,"is_reserved":false,"is_disabled":false,"rental_uris":{"android":"levelo://app?vid=a436e2ca-3b1c-44d4-a575-314946b32f12","ios":"levelo://app?vid=a436e2ca-3b1c-44d4-a575-314946b32f12"},"vehicle_type_id":"4","last_reported":1739048843,"current_range_meters":38000,"station_id":"ce4bhh12rcd13ifvqff0","pricing_plan_id":"cebpf4jnsgd1na2vs0mg"},{"bike_id":"fb5a704f-a51b-458c-a6e9-f5586a789b94","system_id":"levelo_inurba_marseille","lat":43.241698,"lon":5.363944,"is_reserved":false,"is_disabled":false,"rental_uris":{"android":"levelo://app?vid=fb5a704f-a51b-458c-a6e9-f5586a789b94","ios":"levelo://app?vid=fb5a704f-a51b-458c-a6e9-f5586a789b94"},"vehicle_type_id":"4","last_reported":1739048843,"current_range_meters":36800,"station_id":"cpo36qri1sfpv3e86is0","pricing_plan_id":"cebpf4jnsgd1na2vs0mg"},{"bike_id":"ec1fc395-8ce7-4960-968b-a938a8fa5732","system_id":"levelo_inurba_marseille","lat":43.27996,"lon":5.40028,"is_reserved":false,"is_disabled":false,"rental_uris":{"android":"levelo://app?vid=ec1fc395-8ce7-4960-968b-a938a8fa5732","ios":"levelo://app?vid=ec1fc395-8ce7-4960-968b-a938a8fa5732"},"vehicle_type_id":"4","last_reported":1739048843,"current_range_meters":38800,"station_id":"ce4bho92rcd13ifvqh4g","pricing_plan_id":"cebpf4jnsgd1na2vs0mg"},{"bike_id":"259246d2-dc7a-4755-b3eb-43d5276244dd","system_id":"levelo_inurba_marseille","lat":43.25864,"lon":5.39904,"is_reserved":false,"is_disabled":false,"rental_uris":{"android":"levelo://app?vid=259246d2-dc7a-4755-b3eb-43d5276244dd","ios":"levelo://app?vid=259246d2-dc7a-4755-b3eb-43d5276244dd"},"vehicle_type_id":"4","last_reported":1739048843,"current_range_meters":36800,"station_id":"ce4bhl92rcd13ifvqghg","pricing_plan_id":"cebpf4jnsgd1na2vs0mg"},{"bike_id":"c68c790a-b438-4300-a843-2385d8f27d4f","system_id":"levelo_inurba_marseille","lat":43.31355,"lon":5.38502,"is_reserved":false,"is_disabled":false,"rental_uris":{"android":"levelo://app?vid=c68c790a-b438-4300-a843-2385d8f27d4f","ios":"levelo://app?vid=c68c790a-b438-4300-a843-2385d8f27d4f"},"vehicle_type_id":"4","last_reported":1739048843,"current_range_meters":38800,"station_id":"ce4bgt92rcd13ifvqcf0","pricing_plan_id":"cebpf4jnsgd1na2vs0mg"},{"bike_id":"f4bff26c-8c72-4522-a2ae-29a4b087c43b","system_id":"levelo_inurba_marseille","lat":43.27903,"lon":5.37962,"is_reserved":false,"is_disabled":false,"rental_uris":{"android":"levelo://app?vid=f4bff26c-8c72-4522-a2ae-29a4b087c43b","ios":"levelo://app?vid=f4bff26c-8c72-4522-a2ae-29a4b087c43b"},"vehicle_type_id":"4","last_reported":1739048843,"current_range_meters":32800,"station_id":"ce4bhf92rcd13ifvqf50","pricing_plan_id":"cebpf4jnsgd1na2vs0mg"},{"bike_id":"ab54e2d0-4c2c-486a-84c7-811ed9008ddc","system_id":"levelo_inurba_marseille","lat":43.27948,"lon":5.42405,"is_reserved":false,"is_disabled":true,"rental_uris":{"android":"levelo://app?vid=ab54e2d0-4c2c-486a-84c7-811ed9008ddc","ios":"levelo://app?vid=ab54e2d0-4c2c-486a-84c7-811ed9008ddc"},"vehicle_type_id":"4","last_reported":1739048843,"current_range_meters":0,"station_id":"","pricing_plan_id":"cebpf4jnsgd1na2vs0mg"},{"bike_id":"04e9976f-fc67-4b3f-9a5f-08268a5eb49c","system_id":"levelo_inurba_marseille","lat":43.29416,"lon":5.38612,"is_reserved":false,"is_disabled":true,"rental_uris":{"android":"levelo://app?vid=04e9976f-fc67-4b3f-9a5f-08268a5eb49c","ios":"levelo://app?vid=04e9976f-fc67-4b3f-9a5f-08268a5eb49c"},"vehicle_type_id":"4","last_reported":1739048843,"current_range_meters":38800,"station_id":"ce4bh2h2rcd13ifvqdh0","pricing_plan_id":"cebpf4jnsgd1na2vs0mg"},{"bike_id":"57e2e598-b5b3-4410-ab59-7bf25a44175d","system_id":"levelo_inurba_marseille","lat":43.29416,"lon":5.38636,"is_reserved":false,"is_disabled":false,"rental_uris":{"android":"levelo://app?vid=57e2e598-b5b3-4410-ab59-7bf25a44175d","ios":"levelo://app?vid=57e2e598-b5b3-4410-ab59-7bf25a44175d"},"vehicle_type_id":"4","last_reported":1739048843,"current_range_meters":34800,"station_id":"ce4bh2h2rcd13ifvqdh0","pricing_plan_id":"cebpf4jnsgd1na2vs0mg"},{"bike_id":"93543844-e0d3-4a0d-8327-7cb4acff52fc","system_id":"levelo_inurba_marseille","lat":43.29414,"lon":5.38687,"is_reserved":false,"is_disabled":false,"rental_uris":{"android":"levelo://app?vid=93543844-e0d3-4a0d-8327-7cb4acff52fc","ios":"levelo://app?vid=93543844-e0d3-4a0d-8327-7cb4acff52fc"},"vehicle_type_id":"4","last_reported":1739048843,"current_range_meters":14400,"station_id":"ce4bh2h2rcd13ifvqdh0","pricing_plan_id":"cebpf4jnsgd1na2vs0mg"},{"bike_id":"b5135d91-2dbc-4326-bda2-20e06e74cbe2","system_id":"levelo_inurba_marseille","lat":43.2961,"lon":5.37038,"is_reserved":false,"is_disabled":false,"rental_uris":{"android":"levelo://app?vid=b5135d91-2dbc-4326-bda2-20e06e74cbe2","ios":"levelo://app?vid=b5135d91-2dbc-4326-bda2-20e06e74cbe2"},"vehicle_type_id":"4","last_reported":1739048843,"current_range_meters":19200,"station_id":"","pricing_plan_id":"cebpf4jnsgd1na2vs0mg"},{"bike_id":"6835673f-f138-4499-8bdd-83c3f3bccf33","system_id":"levelo_inurba_marseille","lat":43.28002,"lon":5.4002,"is_reserved":false,"is_disabled":false,"rental_uris":{"android":"levelo://app?vid=6835673f-f138-4499-8bdd-83c3f3bccf33","ios":"levelo://app?vid=6835673f-f138-4499-8bdd-83c3f3bccf33"},"vehicle_type_id":"4","last_reported":1739048843,"current_range_meters":33200,"station_id":"ce4bho92rcd13ifvqh4g","pricing_plan_id":"cebpf4jnsgd1na2vs0mg"},{"bike_id":"bb1bab95-412e-41ba-879a-c483b6ec0924","system_id":"levelo_inurba_marseille","lat":43.27808,"lon":5.40725,"is_reserved":false,"is_disabled":false,"rental_uris":{"android":"levelo://app?vid=bb1bab95-412e-41ba-879a-c483b6ec0924","ios":"levelo://app?vid=bb1bab95-412e-41ba-879a-c483b6ec0924"},"vehicle_type_id":"4","last_reported":1739048843,"current_range_meters":11200,"station_id":"ce4bhnh2rcd13ifvqgtg","pricing_plan_id":"cebpf4jnsgd1na2vs0mg"},{"bike_id":"6e358927-ff7d-49ba-8b74-937ec069bd4e","system_id":"levelo_inurba_marseille","lat":43.28621,"lon":5.35102,"is_reserved":false,"is_disabled":false,"rental_uris":{"android":"levelo://app?vid=6e358927-ff7d-49ba-8b74-937ec069bd4e","ios":"levelo://app?vid=6e358927-ff7d-49ba-8b74-937ec069bd4e"},"vehicle_type_id":"4","last_reported":1739048843,"current_range_meters":19600,"station_id":"ce4bhch2rcd13ifvqeug","pricing_plan_id":"cebpf4jnsgd1na2vs0mg"},{"bike_id":"6a58dd11-a579-4519-84ef-72d462a0e689","system_id":"levelo_inurba_marseille","lat":43.32633,"lon":5.42839,"is_reserved":false,"is_disabled":false,"rental_uris":{"android":"levelo://app?vid=6a58dd11-a579-4519-84ef-72d462a0e689","ios":"levelo://app?vid=6a58dd11-a579-4519-84ef-72d462a0e689"},"vehicle_type_id":"4","last_reported":1739048843,"current_range_meters":19200,"station_id":"","pricing_plan_id":"cebpf4jnsgd1na2vs0mg"},{"bike_id":"5e4cfe55-ab3e-4fab-97ff-7a70b51ae8c0","system_id":"levelo_inurba_marseille","lat":43.29605,"lon":5.38099,"is_reserved":false,"is_disabled":false,"rental_uris":{"android":"levelo://app?vid=5e4cfe55-ab3e-4fab-97ff-7a70b51ae8c0","ios":"levelo://app?vid=5e4cfe55-ab3e-4fab-97ff-7a70b51ae8c0"},"vehicle_type_id":"4","last_reported":1739048843,"current_range_meters":39200,"station_id":"ce4bgl12rcd13ifvqbo0","pricing_plan_id":"cebpf4jnsgd1na2vs0mg"},{"bike_id":"9ee17cc6-94b6-42f9-a180-22e25ec3ed8d","system_id":"levelo_inurba_marseille","lat":43.28724,"lon":5.37416,"is_reserved":false,"is_disabled":true,"rental_uris":{"android":"levelo://app?vid=9ee17cc6-94b6-42f9-a180-22e25ec3ed8d","ios":"levelo://app?vid=9ee17cc6-94b6-42f9-a180-22e25ec3ed8d"},"vehicle_type_id":"4","last_reported":1739048843,"current_range_meters":11200,"station_id":"ce4bh3p2rcd13ifvqdq0","pricing_plan_id":"cebpf4jnsgd1na2vs0mg"},{"bike_id":"a9faae4d-75a6-46b9-b2bf-bee95ee027d1","system_id":"levelo_inurba_marseille","lat":43.29093,"lon":5.38158,"is_reserved":false,"is_disabled":false,"rental_uris":{"android":"levelo://app?vid=a9faae4d-75a6-46b9-b2bf-bee95ee027d1","ios":"levelo://app?vid=a9faae4d-75a6-46b9-b2bf-bee95ee027d1"},"vehicle_type_id":"4","last_reported":1739048843,"current_range_meters":38400,"station_id":"ce4bh512rcd13ifvqe2g","pricing_plan_id":"cebpf4jnsgd1na2vs0mg"},{"bike_id":"9b7a8c62-e473-4d07-971b-e94975d6428e","system_id":"levelo_inurba_marseille","lat":43.32364,"lon":5.38886,"is_reserved":false,"is_disabled":false,"rental_uris":{"android":"levelo://app?vid=9b7a8c62-e473-4d07-971b-e94975d6428e","ios":"levelo://app?vid=9b7a8c62-e473-4d07-971b-e94975d6428e"},"vehicle_type_id":"4","last_reported":1739048843,"current_range_meters":38800,"station_id":"ce4bhqp2rcd13ifvqhog","pricing_plan_id":"cebpf4jnsgd1na2vs0mg"},{"bike_id":"70ac1a4f-6f86-42ba-b8c6-93e2a4c4f9f8","system_id":"levelo_inurba_marseille","lat":43.2551,"lon":5.37645,"is_reserved":false,"is_disabled":false,"rental_uris":{"android":"levelo://app?vid=70ac1a4f-6f86-42ba-b8c6-93e2a4c4f9f8","ios":"levelo://app?vid=70ac1a4f-6f86-42ba-b8c6-93e2a4c4f9f8"},"vehicle_type_id":"4","last_reported":1739048843,"current_range_meters":38800,"station_id":"ce4bhh12rcd13ifvqff0","pricing_plan_id":"cebpf4jnsgd1na2vs0mg"},{"bike_id":"2e0cc48f-a05e-4597-918e-2adbfd2eaa2f","system_id":"levelo_inurba_marseille","lat":43.29401,"lon":5.38637,"is_reserved":false,"is_disabled":false,"rental_uris":{"android":"levelo://app?vid=2e0cc48f-a05e-4597-918e-2adbfd2eaa2f","ios":"levelo://app?vid=2e0cc48f-a05e-4597-918e-2adbfd2eaa2f"},"vehicle_type_id":"4","last_reported":1739048843,"current_range_meters":38400,"station_id":"ce4bh2h2rcd13ifvqdh0","pricing_plan_id":"cebpf4jnsgd1na2vs0mg"},{"bike_id":"d7cfd9fc-9f1a-4a50-b63e-d046f2d7ec5b","system_id":"levelo_inurba_marseille","lat":43.2961,"lon":5.37181,"is_reserved":false,"is_disabled":false,"rental_uris":{"android":"levelo://app?vid=d7cfd9fc-9f1a-4a50-b63e-d046f2d7ec5b","ios":"levelo://app?vid=d7cfd9fc-9f1a-4a50-b63e-d046f2d7ec5b"},"vehicle_type_id":"4","last_reported":1739048843,"current_range_meters":36400,"station_id":"ce4bgnh2rcd13ifvqc0g","pricing_plan_id":"cebpf4jnsgd1na2vs0mg"},{"bike_id":"b8592e76-a51f-490c-9e3b-ff63d3a6602e","system_id":"levelo_inurba_marseille","lat":43.27302,"lon":5.39113,"is_reserved":false,"is_disabled":false,"rental_uris":{"android":"levelo://app?vid=b8592e76-a51f-490c-9e3b-ff63d3a6602e","ios":"levelo://app?vid=b8592e76-a51f-490c-9e3b-ff63d3a6602e"},"vehicle_type_id":"4","last_reported":1739048843,"current_range_meters":13600,"station_id":"ce4bhgp2rcd13ifvqfe0","pricing_plan_id":"cebpf4jnsgd1na2vs0mg"},{"bike_id":"c50fe8a5-348d-46a0-8683-0aae8aac9dba","system_id":"levelo_inurba_marseille","lat":43.29529,"lon":5.37498,"is_reserved":false,"is_disabled":false,"rental_uris":{"android":"levelo://app?vid=c50fe8a5-348d-46a0-8683-0aae8aac9dba","ios":"levelo://app?vid=c50fe8a5-348d-46a0-8683-0aae8aac9dba"},"vehicle_type_id":"4","last_reported":1739048843,"current_range_meters":17600,"station_id":"ce4bgkp2rcd13ifvqbmg","pricing_plan_id":"cebpf4jnsgd1na2vs0mg"},{"bike_id":"187375a2-49e4-46d1-b02c-429ac3db4d24","system_id":"levelo_inurba_marseille","lat":43.28646,"lon":5.35071,"is_reserved":false,"is_disabled":false,"rental_uris":{"android":"levelo://app?vid=187375a2-49e4-46d1-b02c-429ac3db4d24","ios":"levelo://app?vid=187375a2-49e4-46d1-b02c-429ac3db4d24"},"vehicle_type_id":"4","last_reported":1739048843,"current_range_meters":26000,"station_id":"ce4bhch2rcd13ifvqeug","pricing_plan_id":"cebpf4jnsgd1na2vs0mg"},{"bike_id":"ee3923b2-9a73-4656-9d0a-7dd3b9627528","system_id":"levelo_inurba_marseille","lat":43.29299,"lon":5.37162,"is_reserved":false,"is_disabled":false,"rental_uris":{"android":"levelo://app?vid=ee3923b2-9a73-4656-9d0a-7dd3b9627528","ios":"levelo://app?vid=ee3923b2-9a73-4656-9d0a-7dd3b9627528"},"vehicle_type_id":"4","last_reported":1739048843,"current_range_meters":35600,"station_id":"ce4bgh92rcd13ifvqb40","pricing_plan_id":"cebpf4jnsgd1na2vs0mg"},{"bike_id":"0ccae692-16fa-48e3-88e0-236b5491d838","system_id":"levelo_inurba_marseille","lat":43.33741,"lon":5.39192,"is_reserved":false,"is_disabled":false,"rental_uris":{"android":"levelo://app?vid=0ccae692-16fa-48e3-88e0-236b5491d838","ios":"levelo://app?vid=0ccae692-16fa-48e3-88e0-236b5491d838"},"vehicle_type_id":"4","last_reported":1739048843,"current_range_meters":39200,"station_id":"ce4bhr92rcd13ifvqhsg","pricing_plan_id":"cebpf4jnsgd1na2vs0mg"},{"bike_id":"4e53624a-1341-4269-a631-c3beec6255ac","system_id":"levelo_inurba_marseille","lat":43.31331,"lon":5.396937,"is_reserved":false,"is_disabled":false,"rental_uris":{"android":"levelo://app?vid=4e53624a-1341-4269-a631-c3beec6255ac","ios":"levelo://app?vid=4e53624a-1341-4269-a631-c3beec6255ac"},"vehicle_type_id":"4","last_reported":1739048843,"current_range_meters":38800,"station_id":"ce4bgvp2rcd13ifvqcu0","pricing_plan_id":"cebpf4jnsgd1na2vs0mg"},{"bike_id":"bb6f1455-5425-407a-883d-18fcd200300e","system_id":"levelo_inurba_marseille","lat":43.29275,"lon":5.3844,"is_reserved":false,"is_disabled":false,"rental_uris":{"android":"levelo://app?vid=bb6f1455-5425-407a-883d-18fcd200300e","ios":"levelo://app?vid=bb6f1455-5425-407a-883d-18fcd200300e"},"vehicle_type_id":"4","last_reported":1739048843,"current_range_meters":36800,"station_id":"ce4bh692rcd13ifvqea0","pricing_plan_id":"cebpf4jnsgd1na2vs0mg"},{"bike_id":"24e9877f-a032-43da-83b1-014de9cc02bd","system_id":"levelo_inurba_marseille","lat":43.31896,"lon":5.40736,"is_reserved":false,"is_disabled":false,"rental_uris":{"android":"levelo://app?vid=24e9877f-a032-43da-83b1-014de9cc02bd","ios":"levelo://app?vid=24e9877f-a032-43da-83b1-014de9cc02bd"},"vehicle_type_id":"4","last_reported":1739048843,"current_range_meters":38000,"station_id":"ce4bhq12rcd13ifvqhig","pricing_plan_id":"cebpf4jnsgd1na2vs0mg"},{"bike_id":"e0bf26a6-5b95-4cf1-acec-2b57815a9a76","system_id":"levelo_inurba_marseille","lat":43.248079,"lon":5.374529,"is_reserved":false,"is_disabled":false,"rental_uris":{"android":"levelo://app?vid=e0bf26a6-5b95-4cf1-acec-2b57815a9a76","ios":"levelo://app?vid=e0bf26a6-5b95-4cf1-acec-2b57815a9a76"},"vehicle_type_id":"4","last_reported":1739048843,"current_range_meters":14000,"station_id":"ce4bhgh2rcd13ifvqfb0","pricing_plan_id":"cebpf4jnsgd1na2vs0mg"},{"bike_id":"c9b8d1e0-58df-44e2-9deb-07982b74bf5a","system_id":"levelo_inurba_marseille","lat":43.28686,"lon":5.37385,"is_reserved":false,"is_disabled":false,"rental_uris":{"android":"levelo://app?vid=c9b8d1e0-58df-44e2-9deb-07982b74bf5a","ios":"levelo://app?vid=c9b8d1e0-58df-44e2-9deb-07982b74bf5a"},"vehicle_type_id":"4","last_reported":1739048843,"current_range_meters":13600,"station_id":"ce4bh3p2rcd13ifvqdq0","pricing_plan_id":"cebpf4jnsgd1na2vs0mg"},{"bike_id":"a60e0149-b2cd-40e8-a6bd-b908b9c256f5","system_id":"levelo_inurba_marseille","lat":43.30891,"lon":5.372,"is_reserved":false,"is_disabled":false,"rental_uris":{"android":"levelo://app?vid=a60e0149-b2cd-40e8-a6bd-b908b9c256f5","ios":"levelo://app?vid=a60e0149-b2cd-40e8-a6bd-b908b9c256f5"},"vehicle_type_id":"4","last_reported":1739048843,"current_range_meters":37600,"station_id":"ce4bguh2rcd13ifvqckg","pricing_plan_id":"cebpf4jnsgd1na2vs0mg"},{"bike_id":"5a59290d-9728-4814-baf8-9c6b635a9a2a","system_id":"levelo_inurba_marseille","lat":43.32487,"lon":5.36562,"is_reserved":false,"is_disabled":false,"rental_uris":{"android":"levelo://app?vid=5a59290d-9728-4814-baf8-9c6b635a9a2a","ios":"levelo://app?vid=5a59290d-9728-4814-baf8-9c6b635a9a2a"},"vehicle_type_id":"4","last_reported":1739048843,"current_range_meters":39200,"station_id":"ce4bhs12rcd13ifvqhvg","pricing_plan_id":"cebpf4jnsgd1na2vs0mg"},{"bike_id":"4aaacd5a-c775-46a2-998b-2bddb5514c3e","system_id":"levelo_inurba_marseille","lat":43.29039,"lon":5.37561,"is_reserved":false,"is_disabled":false,"rental_uris":{"android":"levelo://app?vid=4aaacd5a-c775-46a2-998b-2bddb5514c3e","ios":"levelo://app?vid=4aaacd5a-c775-46a2-998b-2bddb5514c3e"},"vehicle_type_id":"4","last_reported":1739048843,"current_range_meters":33200,"station_id":"ce4bh692rcd13ifvqe90","pricing_plan_id":"cebpf4jnsgd1na2vs0mg"},{"bike_id":"71f25586-0a06-455d-a7ed-26c4be85f9ec","system_id":"levelo_inurba_marseille","lat":43.28608,"lon":5.37042,"is_reserved":false,"is_disabled":false,"rental_uris":{"android":"levelo://app?vid=71f25586-0a06-455d-a7ed-26c4be85f9ec","ios":"levelo://app?vid=71f25586-0a06-455d-a7ed-26c4be85f9ec"},"vehicle_type_id":"4","last_reported":1739048843,"current_range_meters":24400,"station_id":"ce4bht12rcd13ifvqi60","pricing_plan_id":"cebpf4jnsgd1na2vs0mg"},{"bike_id":"52fe56a9-f0a8-42d0-b5b4-0783f930fcd4","system_id":"levelo_inurba_marseille","lat":43.33023,"lon":5.39043,"is_reserved":false,"is_disabled":false,"rental_uris":{"android":"levelo://app?vid=52fe56a9-f0a8-42d0-b5b4-0783f930fcd4","ios":"levelo://app?vid=52fe56a9-f0a8-42d0-b5b4-0783f930fcd4"},"vehicle_type_id":"4","last_reported":1739048843,"current_range_meters":22400,"station_id":"ce4bhr92rcd13ifvqhrg","pricing_plan_id":"cebpf4jnsgd1na2vs0mg"},{"bike_id":"f67b7531-6c63-4f46-a9d4-4fdf588facb0","system_id":"levelo_inurba_marseille","lat":43.27866,"lon":5.40592,"is_reserved":false,"is_disabled":true,"rental_uris":{"android":"levelo://app?vid=f67b7531-6c63-4f46-a9d4-4fdf588facb0","ios":"levelo://app?vid=f67b7531-6c63-4f46-a9d4-4fdf588facb0"},"vehicle_type_id":"4","last_reported":1739048843,"current_range_meters":0,"station_id":"","pricing_plan_id":"cebpf4jnsgd1na2vs0mg"},{"bike_id":"e576b6d9-5445-44cc-98e8-fbac182cdcad","system_id":"levelo_inurba_marseille","lat":43.31276,"lon":5.40187,"is_reserved":false,"is_disabled":false,"rental_uris":{"android":"levelo://app?vid=e576b6d9-5445-44cc-98e8-fbac182cdcad","ios":"levelo://app?vid=e576b6d9-5445-44cc-98e8-fbac182cdcad"},"vehicle_type_id":"4","last_reported":1739048843,"current_range_meters":31200,"station_id":"ce4bh092rcd13ifvqd30","pricing_plan_id":"cebpf4jnsgd1na2vs0mg"},{"bike_id":"cd7252f2-8ee0-4b16-a8f0-7db2be645bff","system_id":"levelo_inurba_marseille","lat":43.28457,"lon":5.35883,"is_reserved":false,"is_disabled":false,"rental_uris":{"android":"levelo://app?vid=cd7252f2-8ee0-4b16-a8f0-7db2be645bff","ios":"levelo://app?vid=cd7252f2-8ee0-4b16-a8f0-7db2be645bff"},"vehicle_type_id":"4","last_reported":1739048843,"current_range_meters":23200,"station_id":"ce4bhah2rcd13ifvqei0","pricing_plan_id":"cebpf4jnsgd1na2vs0mg"},{"bike_id":"daccefc5-f4f0-499c-b0ad-e75d5edba8c7","system_id":"levelo_inurba_marseille","lat":43.29415,"lon":5.38624,"is_reserved":false,"is_disabled":false,"rental_uris":{"android":"levelo://app?vid=daccefc5-f4f0-499c-b0ad-e75d5edba8c7","ios":"levelo://app?vid=daccefc5-f4f0-499c-b0ad-e75d5edba8c7"},"vehicle_type_id":"4","last_reported":1739048843,"current_range_meters":38400,"station_id":"ce4bh2h2rcd13ifvqdh0","pricing_plan_id":"cebpf4jnsgd1na2vs0mg"},{"bike_id":"a1ff6a73-36b2-4a61-a88f-8f0cc16371c7","system_id":"levelo_inurba_marseille","lat":43.26238,"lon":5.40445,"is_reserved":false,"is_disabled":false,"rental_uris":{"android":"levelo://app?vid=a1ff6a73-36b2-4a61-a88f-8f0cc16371c7","ios":"levelo://app?vid=a1ff6a73-36b2-4a61-a88f-8f0cc16371c7"},"vehicle_type_id":"4","last_reported":1739048843,"current_range_meters":31200,"station_id":"ce4bhmh2rcd13ifvqgmg","pricing_plan_id":"cebpf4jnsgd1na2vs0mg"},{"bike_id":"95142193-e7ab-4f84-8e06-dfbe95511df7","system_id":"levelo_inurba_marseille","lat":43.29298,"lon":5.37435,"is_reserved":false,"is_disabled":false,"rental_uris":{"android":"levelo://app?vid=95142193-e7ab-4f84-8e06-dfbe95511df7","ios":"levelo://app?vid=95142193-e7ab-4f84-8e06-dfbe95511df7"},"vehicle_type_id":"4","last_reported":1739048843,"current_range_meters":24400,"station_id":"ce4bgi12rcd13ifvqb70","pricing_plan_id":"cebpf4jnsgd1na2vs0mg"},{"bike_id":"7c7bea91-098e-400a-a626-a4c100556495","system_id":"levelo_inurba_marseille","lat":43.30552,"lon":5.36717,"is_reserved":false,"is_disabled":false,"rental_uris":{"android":"levelo://app?vid=7c7bea91-098e-400a-a626-a4c100556495","ios":"levelo://app?vid=7c7bea91-098e-400a-a626-a4c100556495"},"vehicle_type_id":"4","last_reported":1739048843,"current_range_meters":36000,"station_id":"ce4bgrp2rcd13ifvqc9g","pricing_plan_id":"cebpf4jnsgd1na2vs0mg"},{"bike_id":"40b221ed-8398-44a6-9294-97ea8af9ebdc","system_id":"levelo_inurba_marseille","lat":43.28044,"lon":5.3696,"is_reserved":false,"is_disabled":false,"rental_uris":{"android":"levelo://app?vid=40b221ed-8398-44a6-9294-97ea8af9ebdc","ios":"levelo://app?vid=40b221ed-8398-44a6-9294-97ea8af9ebdc"},"vehicle_type_id":"4","last_reported":1739048843,"current_range_meters":30800,"station_id":"ce4bha12rcd13ifvqef0","pricing_plan_id":"cebpf4jnsgd1na2vs0mg"},{"bike_id":"986cd5bf-4ec6-44a3-89d6-5f4aed20123a","system_id":"levelo_inurba_marseille","lat":43.290429,"lon":5.386354,"is_reserved":false,"is_disabled":false,"rental_uris":{"android":"levelo://app?vid=986cd5bf-4ec6-44a3-89d6-5f4aed20123a","ios":"levelo://app?vid=986cd5bf-4ec6-44a3-89d6-5f4aed20123a"},"vehicle_type_id":"4","last_reported":1739048843,"current_range_meters":23200,"station_id":"ce4bh4p2rcd13ifvqe0g","pricing_plan_id":"cebpf4jnsgd1na2vs0mg"},{"bike_id":"913b075c-01e4-4282-8e86-8307769ca068","system_id":"levelo_inurba_marseille","lat":43.29322,"lon":5.37149,"is_reserved":false,"is_disabled":false,"rental_uris":{"android":"levelo://app?vid=913b075c-01e4-4282-8e86-8307769ca068","ios":"levelo://app?vid=913b075c-01e4-4282-8e86-8307769ca068"},"vehicle_type_id":"4","last_reported":1739048843,"current_range_meters":36800,"station_id":"ce4bgh92rcd13ifvqb40","pricing_plan_id":"cebpf4jnsgd1na2vs0mg"},{"bike_id":"eed32a6c-636b-401e-8e16-82e5db872e88","system_id":"levelo_inurba_marseille","lat":43.29099,"lon":5.38145,"is_reserved":false,"is_disabled":false,"rental_uris":{"android":"levelo://app?vid=eed32a6c-636b-401e-8e16-82e5db872e88","ios":"levelo://app?vid=eed32a6c-636b-401e-8e16-82e5db872e88"},"vehicle_type_id":"4","last_reported":1739048843,"current_range_meters":38400,"station_id":"ce4bh512rcd13ifvqe2g","pricing_plan_id":"cebpf4jnsgd1na2vs0mg"},{"bike_id":"eeb1626b-d9a7-4181-8530-ac28fa96e047","system_id":"levelo_inurba_marseille","lat":43.290364,"lon":5.359196,"is_reserved":false,"is_disabled":false,"rental_uris":{"android":"levelo://app?vid=eeb1626b-d9a7-4181-8530-ac28fa96e047","ios":"levelo://app?vid=eeb1626b-d9a7-4181-8530-ac28fa96e047"},"vehicle_type_id":"4","last_reported":1739048843,"current_range_meters":34800,"station_id":"ce4bha92rcd13ifvqeg0","pricing_plan_id":"cebpf4jnsgd1na2vs0mg"},{"bike_id":"07ab6819-0209-411c-99c4-14fb9ed8b3d8","system_id":"levelo_inurba_marseille","lat":43.29412,"lon":5.38642,"is_reserved":false,"is_disabled":false,"rental_uris":{"android":"levelo://app?vid=07ab6819-0209-411c-99c4-14fb9ed8b3d8","ios":"levelo://app?vid=07ab6819-0209-411c-99c4-14fb9ed8b3d8"},"vehicle_type_id":"4","last_reported":1739048843,"current_range_meters":24800,"station_id":"ce4bh2h2rcd13ifvqdh0","pricing_plan_id":"cebpf4jnsgd1na2vs0mg"},{"bike_id":"23644462-c1de-4e99-a2e9-4d0c9cf86788","system_id":"levelo_inurba_marseille","lat":43.3122,"lon":5.36828,"is_reserved":false,"is_disabled":false,"rental_uris":{"android":"levelo://app?vid=23644462-c1de-4e99-a2e9-4d0c9cf86788","ios":"levelo://app?vid=23644462-c1de-4e99-a2e9-4d0c9cf86788"},"vehicle_type_id":"4","last_reported":1739048843,"current_range_meters":33600,"station_id":"ce4bgl92rcd13ifvqbq0","pricing_plan_id":"cebpf4jnsgd1na2vs0mg"},{"bike_id":"aa64e527-59d2-47d2-add4-8943252860d2","system_id":"levelo_inurba_marseille","lat":43.31333,"lon":5.38512,"is_reserved":false,"is_disabled":false,"rental_uris":{"android":"levelo://app?vid=aa64e527-59d2-47d2-add4-8943252860d2","ios":"levelo://app?vid=aa64e527-59d2-47d2-add4-8943252860d2"},"vehicle_type_id":"4","last_reported":1739048843,"current_range_meters":38000,"station_id":"ce4bgt92rcd13ifvqcf0","pricing_plan_id":"cebpf4jnsgd1na2vs0mg"},{"bike_id":"328f0fee-14df-4fdb-9b48-360d557747e5","system_id":"levelo_inurba_marseille","lat":43.25931,"lon":5.37606,"is_reserved":false,"is_disabled":false,"rental_uris":{"android":"levelo://app?vid=328f0fee-14df-4fdb-9b48-360d557747e5","ios":"levelo://app?vid=328f0fee-14df-4fdb-9b48-360d557747e5"},"vehicle_type_id":"4","last_reported":1739048843,"current_range_meters":38800,"station_id":"ce4bhgh2rcd13ifvqfa0","pricing_plan_id":"cebpf4jnsgd1na2vs0mg"},{"bike_id":"6ba0b9c0-c8c1-471b-80f3-1b962f084541","system_id":"levelo_inurba_marseille","lat":43.27173,"lon":5.4099,"is_reserved":false,"is_disabled":false,"rental_uris":{"android":"levelo://app?vid=6ba0b9c0-c8c1-471b-80f3-1b962f084541","ios":"levelo://app?vid=6ba0b9c0-c8c1-471b-80f3-1b962f084541"},"vehicle_type_id":"4","last_reported":1739048843,"current_range_meters":38400,"station_id":"ce4bhl12rcd13ifvqgf0","pricing_plan_id":"cebpf4jnsgd1na2vs0mg"},{"bike_id":"22669ad6-c05b-49c6-864d-bb442ac14c15","system_id":"levelo_inurba_marseille","lat":43.25923,"lon":5.40842,"is_reserved":false,"is_disabled":false,"rental_uris":{"android":"levelo://app?vid=22669ad6-c05b-49c6-864d-bb442ac14c15","ios":"levelo://app?vid=22669ad6-c05b-49c6-864d-bb442ac14c15"},"vehicle_type_id":"4","last_reported":1739048843,"current_range_meters":33200,"station_id":"ce4bhm92rcd13ifvqglg","pricing_plan_id":"cebpf4jnsgd1na2vs0mg"},{"bike_id":"22219a69-ff6e-4128-9c66-6e0ba4f7f3c6","system_id":"levelo_inurba_marseille","lat":43.262,"lon":5.3791,"is_reserved":false,"is_disabled":false,"rental_uris":{"android":"levelo://app?vid=22219a69-ff6e-4128-9c66-6e0ba4f7f3c6","ios":"levelo://app?vid=22219a69-ff6e-4128-9c66-6e0ba4f7f3c6"},"vehicle_type_id":"4","last_reported":1739048843,"current_range_meters":38800,"station_id":"ce4bhjp2rcd13ifvqg90","pricing_plan_id":"cebpf4jnsgd1na2vs0mg"},{"bike_id":"7cd321bd-53ed-408d-b35c-718c30a864f6","system_id":"levelo_inurba_marseille","lat":43.29271,"lon":5.38445,"is_reserved":false,"is_disabled":false,"rental_uris":{"android":"levelo://app?vid=7cd321bd-53ed-408d-b35c-718c30a864f6","ios":"levelo://app?vid=7cd321bd-53ed-408d-b35c-718c30a864f6"},"vehicle_type_id":"4","last_reported":1739048843,"current_range_meters":28400,"station_id":"ce4bh692rcd13ifvqea0","pricing_plan_id":"cebpf4jnsgd1na2vs0mg"},{"bike_id":"3c434100-0ec7-4174-be49-81df709efba1","system_id":"levelo_inurba_marseille","lat":43.26486,"lon":5.39552,"is_reserved":false,"is_disabled":false,"rental_uris":{"android":"levelo://app?vid=3c434100-0ec7-4174-be49-81df709efba1","ios":"levelo://app?vid=3c434100-0ec7-4174-be49-81df709efba1"},"vehicle_type_id":"4","last_reported":1739048843,"current_range_meters":22800,"station_id":"ce4bhi12rcd13ifvqfq0","pricing_plan_id":"cebpf4jnsgd1na2vs0mg"},{"bike_id":"c6fc4b4a-5347-4905-8d96-67ea4d004656","system_id":"levelo_inurba_marseille","lat":43.23208,"lon":5.35576,"is_reserved":false,"is_disabled":false,"rental_uris":{"android":"levelo://app?vid=c6fc4b4a-5347-4905-8d96-67ea4d004656","ios":"levelo://app?vid=c6fc4b4a-5347-4905-8d96-67ea4d004656"},"vehicle_type_id":"4","last_reported":1739048843,"current_range_meters":6400,"station_id":"ce4bhu92rcd13ifvqi70","pricing_plan_id":"cebpf4jnsgd1na2vs0mg"},{"bike_id":"1da8b17b-ad28-4780-a711-431647c244ed","system_id":"levelo_inurba_marseille","lat":43.23961,"lon":5.3662,"is_reserved":false,"is_disabled":false,"rental_uris":{"android":"levelo://app?vid=1da8b17b-ad28-4780-a711-431647c244ed","ios":"levelo://app?vid=1da8b17b-ad28-4780-a711-431647c244ed"},"vehicle_type_id":"4","last_reported":1739048843,"current_range_meters":24000,"station_id":"ce4bhi12rcd13ifvqfp0","pricing_plan_id":"cebpf4jnsgd1na2vs0mg"},{"bike_id":"f78952aa-a1e4-42f8-b5d2-31338580d315","system_id":"levelo_inurba_marseille","lat":43.23958,"lon":5.3665,"is_reserved":false,"is_disabled":false,"rental_uris":{"android":"levelo://app?vid=f78952aa-a1e4-42f8-b5d2-31338580d315","ios":"levelo://app?vid=f78952aa-a1e4-42f8-b5d2-31338580d315"},"vehicle_type_id":"4","last_reported":1739048843,"current_range_meters":16000,"station_id":"ce4bhi12rcd13ifvqfp0","pricing_plan_id":"cebpf4jnsgd1na2vs0mg"},{"bike_id":"b987140e-f854-4956-9f4b-626a4bf8b22c","system_id":"levelo_inurba_marseille","lat":43.28093,"lon":5.3969,"is_reserved":false,"is_disabled":false,"rental_uris":{"android":"levelo://app?vid=b987140e-f854-4956-9f4b-626a4bf8b22c","ios":"levelo://app?vid=b987140e-f854-4956-9f4b-626a4bf8b22c"},"vehicle_type_id":"4","last_reported":1739048843,"current_range_meters":32400,"station_id":"ce4bho12rcd13ifvqh2g","pricing_plan_id":"cebpf4jnsgd1na2vs0mg"},{"bike_id":"985ea620-1838-4cc4-9f45-6622855b2de9","system_id":"levelo_inurba_marseille","lat":43.2799,"lon":5.40018,"is_reserved":false,"is_disabled":false,"rental_uris":{"android":"levelo://app?vid=985ea620-1838-4cc4-9f45-6622855b2de9","ios":"levelo://app?vid=985ea620-1838-4cc4-9f45-6622855b2de9"},"vehicle_type_id":"4","last_reported":1739048843,"current_range_meters":38800,"station_id":"ce4bho92rcd13ifvqh4g","pricing_plan_id":"cebpf4jnsgd1na2vs0mg"},{"bike_id":"bb3d0c8f-5db2-4adb-8511-f373da6c1adb","system_id":"levelo_inurba_marseille","lat":43.24385,"lon":5.37061,"is_reserved":false,"is_disabled":false,"rental_uris":{"android":"levelo://app?vid=bb3d0c8f-5db2-4adb-8511-f373da6c1adb","ios":"levelo://app?vid=bb3d0c8f-5db2-4adb-8511-f373da6c1adb"},"vehicle_type_id":"4","last_reported":1739048843,"current_range_meters":38400,"station_id":"ce4bhhh2rcd13ifvqfk0","pricing_plan_id":"cebpf4jnsgd1na2vs0mg"},{"bike_id":"36387823-60f3-4f4f-850e-337b320d69f2","system_id":"levelo_inurba_marseille","lat":43.265,"lon":5.39544,"is_reserved":false,"is_disabled":false,"rental_uris":{"android":"levelo://app?vid=36387823-60f3-4f4f-850e-337b320d69f2","ios":"levelo://app?vid=36387823-60f3-4f4f-850e-337b320d69f2"},"vehicle_type_id":"4","last_reported":1739048843,"current_range_meters":28400,"station_id":"ce4bhi12rcd13ifvqfq0","pricing_plan_id":"cebpf4jnsgd1na2vs0mg"},{"bike_id":"7b9e0bab-610c-4749-84d1-9fd6d2de8c6c","system_id":"levelo_inurba_marseille","lat":43.30636,"lon":5.40065,"is_reserved":false,"is_disabled":false,"rental_uris":{"android":"levelo://app?vid=7b9e0bab-610c-4749-84d1-9fd6d2de8c6c","ios":"levelo://app?vid=7b9e0bab-610c-4749-84d1-9fd6d2de8c6c"},"vehicle_type_id":"4","last_reported":1739048843,"current_range_meters":28000,"station_id":"ce4bh112rcd13ifvqda0","pricing_plan_id":"cebpf4jnsgd1na2vs0mg"},{"bike_id":"44c009d3-c0dc-4027-abdf-110ade9a1957","system_id":"levelo_inurba_marseille","lat":43.33017,"lon":5.39063,"is_reserved":false,"is_disabled":false,"rental_uris":{"android":"levelo://app?vid=44c009d3-c0dc-4027-abdf-110ade9a1957","ios":"levelo://app?vid=44c009d3-c0dc-4027-abdf-110ade9a1957"},"vehicle_type_id":"4","last_reported":1739048843,"current_range_meters":37600,"station_id":"ce4bhr92rcd13ifvqhrg","pricing_plan_id":"cebpf4jnsgd1na2vs0mg"},{"bike_id":"e125f111-23e7-486c-9467-fdd11b1d49ee","system_id":"levelo_inurba_marseille","lat":43.29568,"lon":5.39936,"is_reserved":false,"is_disabled":false,"rental_uris":{"android":"levelo://app?vid=e125f111-23e7-486c-9467-fdd11b1d49ee","ios":"levelo://app?vid=e125f111-23e7-486c-9467-fdd11b1d49ee"},"vehicle_type_id":"4","last_reported":1739048843,"current_range_meters":36400,"station_id":"ce4bh312rcd13ifvqdj0","pricing_plan_id":"cebpf4jnsgd1na2vs0mg"},{"bike_id":"c8467e20-c52a-4fa4-90f2-f69c646cb59f","system_id":"levelo_inurba_marseille","lat":43.30805,"lon":5.43529,"is_reserved":false,"is_disabled":false,"rental_uris":{"android":"levelo://app?vid=c8467e20-c52a-4fa4-90f2-f69c646cb59f","ios":"levelo://app?vid=c8467e20-c52a-4fa4-90f2-f69c646cb59f"},"vehicle_type_id":"4","last_reported":1739048843,"current_range_meters":27600,"station_id":"ce4bhph2rcd13ifvqheg","pricing_plan_id":"cebpf4jnsgd1na2vs0mg"},{"bike_id":"becfaf32-6da7-41b3-b18b-1bf2f10cd580","system_id":"levelo_inurba_marseille","lat":43.29596,"lon":5.38106,"is_reserved":false,"is_disabled":false,"rental_uris":{"android":"levelo://app?vid=becfaf32-6da7-41b3-b18b-1bf2f10cd580","ios":"levelo://app?vid=becfaf32-6da7-41b3-b18b-1bf2f10cd580"},"vehicle_type_id":"4","last_reported":1739048843,"current_range_meters":38400,"station_id":"ce4bgl12rcd13ifvqbo0","pricing_plan_id":"cebpf4jnsgd1na2vs0mg"},{"bike_id":"a7e472d5-2d24-46cc-b90e-bbaf7eb85483","system_id":"levelo_inurba_marseille","lat":43.29261,"lon":5.38444,"is_reserved":false,"is_disabled":false,"rental_uris":{"android":"levelo://app?vid=a7e472d5-2d24-46cc-b90e-bbaf7eb85483","ios":"levelo://app?vid=a7e472d5-2d24-46cc-b90e-bbaf7eb85483"},"vehicle_type_id":"4","last_reported":1739048843,"current_range_meters":25600,"station_id":"ce4bh692rcd13ifvqea0","pricing_plan_id":"cebpf4jnsgd1na2vs0mg"},{"bike_id":"346c95f5-08eb-4908-93cd-0a773c0f7827","system_id":"levelo_inurba_marseille","lat":43.29446,"lon":5.39749,"is_reserved":false,"is_disabled":false,"rental_uris":{"android":"levelo://app?vid=346c95f5-08eb-4908-93cd-0a773c0f7827","ios":"levelo://app?vid=346c95f5-08eb-4908-93cd-0a773c0f7827"},"vehicle_type_id":"4","last_reported":1739048843,"current_range_meters":38800,"station_id":"ce4bh3h2rcd13ifvqdo0","pricing_plan_id":"cebpf4jnsgd1na2vs0mg"},{"bike_id":"22b480ba-f7c6-49f1-b122-a8794292c9ba","system_id":"levelo_inurba_marseille","lat":43.29007,"lon":5.38124,"is_reserved":false,"is_disabled":false,"rental_uris":{"android":"levelo://app?vid=22b480ba-f7c6-49f1-b122-a8794292c9ba","ios":"levelo://app?vid=22b480ba-f7c6-49f1-b122-a8794292c9ba"},"vehicle_type_id":"4","last_reported":1739048843,"current_range_meters":38800,"station_id":"ce4bh4p2rcd13ifvqe1g","pricing_plan_id":"cebpf4jnsgd1na2vs0mg"},{"bike_id":"f31fce91-5f35-4434-bc3d-5c7c2a5410f6","system_id":"levelo_inurba_marseille","lat":43.29872,"lon":5.39727,"is_reserved":false,"is_disabled":false,"rental_uris":{"android":"levelo://app?vid=f31fce91-5f35-4434-bc3d-5c7c2a5410f6","ios":"levelo://app?vid=f31fce91-5f35-4434-bc3d-5c7c2a5410f6"},"vehicle_type_id":"4","last_reported":1739048843,"current_range_meters":38400,"station_id":"ce4bh0h2rcd13ifvqd50","pricing_plan_id":"cebpf4jnsgd1na2vs0mg"},{"bike_id":"afd073ab-b7d7-4d06-a610-4d1b18b5fb42","system_id":"levelo_inurba_marseille","lat":43.27672,"lon":5.38921,"is_reserved":false,"is_disabled":false,"rental_uris":{"android":"levelo://app?vid=afd073ab-b7d7-4d06-a610-4d1b18b5fb42","ios":"levelo://app?vid=afd073ab-b7d7-4d06-a610-4d1b18b5fb42"},"vehicle_type_id":"4","last_reported":1739048843,"current_range_meters":39200,"station_id":"ce4bhi12rcd13ifvqfo0","pricing_plan_id":"cebpf4jnsgd1na2vs0mg"},{"bike_id":"fd7f60dd-1b52-46f9-9b6b-de4b0fe7477f","system_id":"levelo_inurba_marseille","lat":43.27066,"lon":5.42281,"is_reserved":false,"is_disabled":true,"rental_uris":{"android":"levelo://app?vid=fd7f60dd-1b52-46f9-9b6b-de4b0fe7477f","ios":"levelo://app?vid=fd7f60dd-1b52-46f9-9b6b-de4b0fe7477f"},"vehicle_type_id":"4","last_reported":1739048843,"current_range_meters":36800,"station_id":"ce4bhk92rcd13ifvqgb0","pricing_plan_id":"cebpf4jnsgd1na2vs0mg"},{"bike_id":"1fffece1-5ae6-44ef-a889-944ec0af2697","system_id":"levelo_inurba_marseille","lat":43.26208,"lon":5.37464,"is_reserved":false,"is_disabled":false,"rental_uris":{"android":"levelo://app?vid=1fffece1-5ae6-44ef-a889-944ec0af2697","ios":"levelo://app?vid=1fffece1-5ae6-44ef-a889-944ec0af2697"},"vehicle_type_id":"4","last_reported":1739048843,"current_range_meters":8400,"station_id":"ce4bhgp2rcd13ifvqfc0","pricing_plan_id":"cebpf4jnsgd1na2vs0mg"},{"bike_id":"cfd667cc-9bb2-4dfd-a685-3d64a02e740a","system_id":"levelo_inurba_marseille","lat":43.2929,"lon":5.38447,"is_reserved":false,"is_disabled":false,"rental_uris":{"android":"levelo://app?vid=cfd667cc-9bb2-4dfd-a685-3d64a02e740a","ios":"levelo://app?vid=cfd667cc-9bb2-4dfd-a685-3d64a02e740a"},"vehicle_type_id":"4","last_reported":1739048843,"current_range_meters":18000,"station_id":"ce4bh692rcd13ifvqea0","pricing_plan_id":"cebpf4jnsgd1na2vs0mg"},{"bike_id":"71af4c3a-fa26-4039-9ee7-f5d24e009142","system_id":"levelo_inurba_marseille","lat":43.24804,"lon":5.37444,"is_reserved":false,"is_disabled":false,"rental_uris":{"android":"levelo://app?vid=71af4c3a-fa26-4039-9ee7-f5d24e009142","ios":"levelo://app?vid=71af4c3a-fa26-4039-9ee7-f5d24e009142"},"vehicle_type_id":"4","last_reported":1739048843,"current_range_meters":39200,"station_id":"ce4bhgh2rcd13ifvqfb0","pricing_plan_id":"cebpf4jnsgd1na2vs0mg"},{"bike_id":"638f0be8-0146-447b-8ef6-3bf4f187a091","system_id":"levelo_inurba_marseille","lat":43.2953,"lon":5.38539,"is_reserved":false,"is_disabled":false,"rental_uris":{"android":"levelo://app?vid=638f0be8-0146-447b-8ef6-3bf4f187a091","ios":"levelo://app?vid=638f0be8-0146-447b-8ef6-3bf4f187a091"},"vehicle_type_id":"4","last_reported":1739048843,"current_range_meters":16400,"station_id":"","pricing_plan_id":"cebpf4jnsgd1na2vs0mg"},{"bike_id":"d4aed399-0d88-46d5-8778-3c2b39e20f06","system_id":"levelo_inurba_marseille","lat":43.24678,"lon":5.38167,"is_reserved":false,"is_disabled":false,"rental_uris":{"android":"levelo://app?vid=d4aed399-0d88-46d5-8778-3c2b39e20f06","ios":"levelo://app?vid=d4aed399-0d88-46d5-8778-3c2b39e20f06"},"vehicle_type_id":"4","last_reported":1739048843,"current_range_meters":39200,"station_id":"ce4bhih2rcd13ifvqfr0","pricing_plan_id":"cebpf4jnsgd1na2vs0mg"},{"bike_id":"86e7fe57-f8b6-4306-adb2-c48a1d6d6515","system_id":"levelo_inurba_marseille","lat":43.25717,"lon":5.41121,"is_reserved":false,"is_disabled":false,"rental_uris":{"android":"levelo://app?vid=86e7fe57-f8b6-4306-adb2-c48a1d6d6515","ios":"levelo://app?vid=86e7fe57-f8b6-4306-adb2-c48a1d6d6515"},"vehicle_type_id":"4","last_reported":1739048843,"current_range_meters":39200,"station_id":"ce4bhkp2rcd13ifvqgd0","pricing_plan_id":"cebpf4jnsgd1na2vs0mg"},{"bike_id":"244783fc-e553-4b13-97c4-77dee0149449","system_id":"levelo_inurba_marseille","lat":43.31329,"lon":5.39688,"is_reserved":false,"is_disabled":false,"rental_uris":{"android":"levelo://app?vid=244783fc-e553-4b13-97c4-77dee0149449","ios":"levelo://app?vid=244783fc-e553-4b13-97c4-77dee0149449"},"vehicle_type_id":"4","last_reported":1739048843,"current_range_meters":27600,"station_id":"ce4bgvp2rcd13ifvqcu0","pricing_plan_id":"cebpf4jnsgd1na2vs0mg"},{"bike_id":"2d93e85a-65e7-4a5b-a324-00f4511865a9","system_id":"levelo_inurba_marseille","lat":43.24389,"lon":5.37049,"is_reserved":false,"is_disabled":false,"rental_uris":{"android":"levelo://app?vid=2d93e85a-65e7-4a5b-a324-00f4511865a9","ios":"levelo://app?vid=2d93e85a-65e7-4a5b-a324-00f4511865a9"},"vehicle_type_id":"4","last_reported":1739048843,"current_range_meters":38800,"station_id":"ce4bhhh2rcd13ifvqfk0","pricing_plan_id":"cebpf4jnsgd1na2vs0mg"},{"bike_id":"bf3aa4aa-354f-4fbe-8127-60a749c72897","system_id":"levelo_inurba_marseille","lat":43.29919,"lon":5.37491,"is_reserved":false,"is_disabled":false,"rental_uris":{"android":"levelo://app?vid=bf3aa4aa-354f-4fbe-8127-60a749c72897","ios":"levelo://app?vid=bf3aa4aa-354f-4fbe-8127-60a749c72897"},"vehicle_type_id":"4","last_reported":1739048843,"current_range_meters":38800,"station_id":"ce4bgjh2rcd13ifvqbg0","pricing_plan_id":"cebpf4jnsgd1na2vs0mg"},{"bike_id":"5b405412-625c-424b-8736-3953b3555870","system_id":"levelo_inurba_marseille","lat":43.2978,"lon":5.37102,"is_reserved":false,"is_disabled":false,"rental_uris":{"android":"levelo://app?vid=5b405412-625c-424b-8736-3953b3555870","ios":"levelo://app?vid=5b405412-625c-424b-8736-3953b3555870"},"vehicle_type_id":"4","last_reported":1739048843,"current_range_meters":26800,"station_id":"ce4bgop2rcd13ifvqc1g","pricing_plan_id":"cebpf4jnsgd1na2vs0mg"},{"bike_id":"4599987c-383e-4228-baf4-fb1911bb67ec","system_id":"levelo_inurba_marseille","lat":43.29375,"lon":5.38721,"is_reserved":false,"is_disabled":false,"rental_uris":{"android":"levelo://app?vid=4599987c-383e-4228-baf4-fb1911bb67ec","ios":"levelo://app?vid=4599987c-383e-4228-baf4-fb1911bb67ec"},"vehicle_type_id":"4","last_reported":1739048843,"current_range_meters":28000,"station_id":"","pricing_plan_id":"cebpf4jnsgd1na2vs0mg"},{"bike_id":"d5fd2a14-8ff1-4b6e-a72e-8f7d6ba6ec2f","system_id":"levelo_inurba_marseille","lat":43.28261,"lon":5.35057,"is_reserved":false,"is_disabled":false,"rental_uris":{"android":"levelo://app?vid=d5fd2a14-8ff1-4b6e-a72e-8f7d6ba6ec2f","ios":"levelo://app?vid=d5fd2a14-8ff1-4b6e-a72e-8f7d6ba6ec2f"},"vehicle_type_id":"4","last_reported":1739048843,"current_range_meters":25200,"station_id":"ce4bhbp2rcd13ifvqerg","pricing_plan_id":"cebpf4jnsgd1na2vs0mg"},{"bike_id":"c9bf43e0-b24e-4b9d-a8de-daf0934bab76","system_id":"levelo_inurba_marseille","lat":43.290916,"lon":5.3815,"is_reserved":false,"is_disabled":false,"rental_uris":{"android":"levelo://app?vid=c9bf43e0-b24e-4b9d-a8de-daf0934bab76","ios":"levelo://app?vid=c9bf43e0-b24e-4b9d-a8de-daf0934bab76"},"vehicle_type_id":"4","last_reported":1739048843,"current_range_meters":38000,"station_id":"ce4bh512rcd13ifvqe2g","pricing_plan_id":"cebpf4jnsgd1na2vs0mg"},{"bike_id":"f121b4f3-9ce7-4c6a-b725-2596a1176eb8","system_id":"levelo_inurba_marseille","lat":43.26458,"lon":5.39587,"is_reserved":false,"is_disabled":false,"rental_uris":{"android":"levelo://app?vid=f121b4f3-9ce7-4c6a-b725-2596a1176eb8","ios":"levelo://app?vid=f121b4f3-9ce7-4c6a-b725-2596a1176eb8"},"vehicle_type_id":"4","last_reported":1739048843,"current_range_meters":17200,"station_id":"ce4bhi12rcd13ifvqfq0","pricing_plan_id":"cebpf4jnsgd1na2vs0mg"},{"bike_id":"c6f92ca4-91f7-4b27-a97d-0ada5b4e29ae","system_id":"levelo_inurba_marseille","lat":43.24686,"lon":5.38176,"is_reserved":false,"is_disabled":false,"rental_uris":{"android":"levelo://app?vid=c6f92ca4-91f7-4b27-a97d-0ada5b4e29ae","ios":"levelo://app?vid=c6f92ca4-91f7-4b27-a97d-0ada5b4e29ae"},"vehicle_type_id":"4","last_reported":1739048843,"current_range_meters":26800,"station_id":"ce4bhih2rcd13ifvqfr0","pricing_plan_id":"cebpf4jnsgd1na2vs0mg"},{"bike_id":"d6848ca7-79ec-416e-9854-c85f49d33db0","system_id":"levelo_inurba_marseille","lat":43.25824,"lon":5.39433,"is_reserved":false,"is_disabled":false,"rental_uris":{"android":"levelo://app?vid=d6848ca7-79ec-416e-9854-c85f49d33db0","ios":"levelo://app?vid=d6848ca7-79ec-416e-9854-c85f49d33db0"},"vehicle_type_id":"4","last_reported":1739048843,"current_range_meters":37600,"station_id":"ce4bhip2rcd13ifvqft0","pricing_plan_id":"cebpf4jnsgd1na2vs0mg"},{"bike_id":"a860e58a-e256-498d-8d5b-7ace0dfda41e","system_id":"levelo_inurba_marseille","lat":43.28092,"lon":5.39649,"is_reserved":false,"is_disabled":false,"rental_uris":{"android":"levelo://app?vid=a860e58a-e256-498d-8d5b-7ace0dfda41e","ios":"levelo://app?vid=a860e58a-e256-498d-8d5b-7ace0dfda41e"},"vehicle_type_id":"4","last_reported":1739048843,"current_range_meters":36800,"station_id":"ce4bho12rcd13ifvqh2g","pricing_plan_id":"cebpf4jnsgd1na2vs0mg"},{"bike_id":"f335f4ea-f372-4b4d-97e9-cf4e01ad5b70","system_id":"levelo_inurba_marseille","lat":43.32226,"lon":5.38935,"is_reserved":false,"is_disabled":false,"rental_uris":{"android":"levelo://app?vid=f335f4ea-f372-4b4d-97e9-cf4e01ad5b70","ios":"levelo://app?vid=f335f4ea-f372-4b4d-97e9-cf4e01ad5b70"},"vehicle_type_id":"4","last_reported":1739048843,"current_range_meters":20400,"station_id":"","pricing_plan_id":"cebpf4jnsgd1na2vs0mg"},{"bike_id":"d1d6450b-3929-4c3e-b4b4-59579ec58d08","system_id":"levelo_inurba_marseille","lat":43.28242,"lon":5.36108,"is_reserved":false,"is_disabled":false,"rental_uris":{"android":"levelo://app?vid=d1d6450b-3929-4c3e-b4b4-59579ec58d08","ios":"levelo://app?vid=d1d6450b-3929-4c3e-b4b4-59579ec58d08"},"vehicle_type_id":"4","last_reported":1739048843,"current_range_meters":27600,"station_id":"","pricing_plan_id":"cebpf4jnsgd1na2vs0mg"},{"bike_id":"cac0ef70-4b31-40ea-ab01-f55b2bc45e5a","system_id":"levelo_inurba_marseille","lat":43.26198,"lon":5.37468,"is_reserved":false,"is_disabled":false,"rental_uris":{"android":"levelo://app?vid=cac0ef70-4b31-40ea-ab01-f55b2bc45e5a","ios":"levelo://app?vid=cac0ef70-4b31-40ea-ab01-f55b2bc45e5a"},"vehicle_type_id":"4","last_reported":1739048843,"current_range_meters":28800,"station_id":"ce4bhgp2rcd13ifvqfc0","pricing_plan_id":"cebpf4jnsgd1na2vs0mg"},{"bike_id":"9a3c26a6-b0a6-409b-94fc-0339af411e19","system_id":"levelo_inurba_marseille","lat":43.30426,"lon":5.39747,"is_reserved":false,"is_disabled":false,"rental_uris":{"android":"levelo://app?vid=9a3c26a6-b0a6-409b-94fc-0339af411e19","ios":"levelo://app?vid=9a3c26a6-b0a6-409b-94fc-0339af411e19"},"vehicle_type_id":"4","last_reported":1739048843,"current_range_meters":38800,"station_id":"ce4bh092rcd13ifvqd20","pricing_plan_id":"cebpf4jnsgd1na2vs0mg"},{"bike_id":"aa5ad55a-e998-4a1a-859b-55653b465085","system_id":"levelo_inurba_marseille","lat":43.27971,"lon":5.38661,"is_reserved":false,"is_disabled":false,"rental_uris":{"android":"levelo://app?vid=aa5ad55a-e998-4a1a-859b-55653b465085","ios":"levelo://app?vid=aa5ad55a-e998-4a1a-859b-55653b465085"},"vehicle_type_id":"4","last_reported":1739048843,"current_range_meters":38800,"station_id":"ce4bhg12rcd13ifvqf80","pricing_plan_id":"cebpf4jnsgd1na2vs0mg"},{"bike_id":"00acf672-47c1-42d5-ae81-0c2dd5fc2c7a","system_id":"levelo_inurba_marseille","lat":43.279254,"lon":5.410635,"is_reserved":false,"is_disabled":false,"rental_uris":{"android":"levelo://app?vid=00acf672-47c1-42d5-ae81-0c2dd5fc2c7a","ios":"levelo://app?vid=00acf672-47c1-42d5-ae81-0c2dd5fc2c7a"},"vehicle_type_id":"4","last_reported":1739048843,"current_range_meters":29600,"station_id":"ce4bhnp2rcd13ifvqh0g","pricing_plan_id":"cebpf4jnsgd1na2vs0mg"},{"bike_id":"c5789181-d252-4c46-b75d-908f3a6a38fe","system_id":"levelo_inurba_marseille","lat":43.33755,"lon":5.39221,"is_reserved":false,"is_disabled":false,"rental_uris":{"android":"levelo://app?vid=c5789181-d252-4c46-b75d-908f3a6a38fe","ios":"levelo://app?vid=c5789181-d252-4c46-b75d-908f3a6a38fe"},"vehicle_type_id":"4","last_reported":1739048843,"current_range_meters":38400,"station_id":"ce4bhr92rcd13ifvqhsg","pricing_plan_id":"cebpf4jnsgd1na2vs0mg"},{"bike_id":"11063cc8-8844-425d-a2ec-e05845fb5b1a","system_id":"levelo_inurba_marseille","lat":43.31363,"lon":5.38503,"is_reserved":false,"is_disabled":false,"rental_uris":{"android":"levelo://app?vid=11063cc8-8844-425d-a2ec-e05845fb5b1a","ios":"levelo://app?vid=11063cc8-8844-425d-a2ec-e05845fb5b1a"},"vehicle_type_id":"4","last_reported":1739048843,"current_range_meters":36400,"station_id":"ce4bgt92rcd13ifvqcf0","pricing_plan_id":"cebpf4jnsgd1na2vs0mg"},{"bike_id":"5c915b64-6972-4ec6-b81d-513d97c73353","system_id":"levelo_inurba_marseille","lat":43.2942,"lon":5.38634,"is_reserved":false,"is_disabled":false,"rental_uris":{"android":"levelo://app?vid=5c915b64-6972-4ec6-b81d-513d97c73353","ios":"levelo://app?vid=5c915b64-6972-4ec6-b81d-513d97c73353"},"vehicle_type_id":"4","last_reported":1739048843,"current_range_meters":38800,"station_id":"ce4bh2h2rcd13ifvqdh0","pricing_plan_id":"cebpf4jnsgd1na2vs0mg"},{"bike_id":"0d3e6358-f538-48e4-97b5-cfd7ffaf7479","system_id":"levelo_inurba_marseille","lat":43.27171,"lon":5.40981,"is_reserved":false,"is_disabled":false,"rental_uris":{"android":"levelo://app?vid=0d3e6358-f538-48e4-97b5-cfd7ffaf7479","ios":"levelo://app?vid=0d3e6358-f538-48e4-97b5-cfd7ffaf7479"},"vehicle_type_id":"4","last_reported":1739048843,"current_range_meters":39200,"station_id":"ce4bhl12rcd13ifvqgf0","pricing_plan_id":"cebpf4jnsgd1na2vs0mg"},{"bike_id":"493f4c7a-f3c2-4a5e-9690-c1cf73bb3426","system_id":"levelo_inurba_marseille","lat":43.33613,"lon":5.40989,"is_reserved":false,"is_disabled":false,"rental_uris":{"android":"levelo://app?vid=493f4c7a-f3c2-4a5e-9690-c1cf73bb3426","ios":"levelo://app?vid=493f4c7a-f3c2-4a5e-9690-c1cf73bb3426"},"vehicle_type_id":"4","last_reported":1739048843,"current_range_meters":38000,"station_id":"ce4bhqh2rcd13ifvqhmg","pricing_plan_id":"cebpf4jnsgd1na2vs0mg"},{"bike_id":"4b346763-af4b-47bb-8f20-016bb4fee202","system_id":"levelo_inurba_marseille","lat":43.2777,"lon":5.40768,"is_reserved":false,"is_disabled":false,"rental_uris":{"android":"levelo://app?vid=4b346763-af4b-47bb-8f20-016bb4fee202","ios":"levelo://app?vid=4b346763-af4b-47bb-8f20-016bb4fee202"},"vehicle_type_id":"4","last_reported":1739048843,"current_range_meters":38800,"station_id":"","pricing_plan_id":"cebpf4jnsgd1na2vs0mg"},{"bike_id":"b3896a3a-63cf-42f3-bae4-7adf79a0873e","system_id":"levelo_inurba_marseille","lat":43.24071,"lon":5.3777,"is_reserved":false,"is_disabled":false,"rental_uris":{"android":"levelo://app?vid=b3896a3a-63cf-42f3-bae4-7adf79a0873e","ios":"levelo://app?vid=b3896a3a-63cf-42f3-bae4-7adf79a0873e"},"vehicle_type_id":"4","last_reported":1739048843,"current_range_meters":38800,"station_id":"ce4bhnp2rcd13ifvqgvg","pricing_plan_id":"cebpf4jnsgd1na2vs0mg"},{"bike_id":"85031609-8913-48dc-bb86-4f4d422aa463","system_id":"levelo_inurba_marseille","lat":43.29419,"lon":5.38629,"is_reserved":false,"is_disabled":false,"rental_uris":{"android":"levelo://app?vid=85031609-8913-48dc-bb86-4f4d422aa463","ios":"levelo://app?vid=85031609-8913-48dc-bb86-4f4d422aa463"},"vehicle_type_id":"4","last_reported":1739048843,"current_range_meters":37600,"station_id":"ce4bh2h2rcd13ifvqdh0","pricing_plan_id":"cebpf4jnsgd1na2vs0mg"},{"bike_id":"09710415-4dac-4e4c-a5b2-403eafa59e89","system_id":"levelo_inurba_marseille","lat":43.23962,"lon":5.36635,"is_reserved":false,"is_disabled":false,"rental_uris":{"android":"levelo://app?vid=09710415-4dac-4e4c-a5b2-403eafa59e89","ios":"levelo://app?vid=09710415-4dac-4e4c-a5b2-403eafa59e89"},"vehicle_type_id":"4","last_reported":1739048843,"current_range_meters":37600,"station_id":"ce4bhi12rcd13ifvqfp0","pricing_plan_id":"cebpf4jnsgd1na2vs0mg"},{"bike_id":"81a7b224-08a7-43fb-b446-a9b7ce9f4b97","system_id":"levelo_inurba_marseille","lat":43.294,"lon":5.38623,"is_reserved":false,"is_disabled":false,"rental_uris":{"android":"levelo://app?vid=81a7b224-08a7-43fb-b446-a9b7ce9f4b97","ios":"levelo://app?vid=81a7b224-08a7-43fb-b446-a9b7ce9f4b97"},"vehicle_type_id":"4","last_reported":1739048843,"current_range_meters":27600,"station_id":"ce4bgt12rcd13ifvqce0","pricing_plan_id":"cebpf4jnsgd1na2vs0mg"},{"bike_id":"cda70a47-1966-4606-a6ee-e81748054c04","system_id":"levelo_inurba_marseille","lat":43.23955,"lon":5.36633,"is_reserved":false,"is_disabled":false,"rental_uris":{"android":"levelo://app?vid=cda70a47-1966-4606-a6ee-e81748054c04","ios":"levelo://app?vid=cda70a47-1966-4606-a6ee-e81748054c04"},"vehicle_type_id":"4","last_reported":1739048843,"current_range_meters":35200,"station_id":"ce4bhi12rcd13ifvqfp0","pricing_plan_id":"cebpf4jnsgd1na2vs0mg"},{"bike_id":"d4a52905-42d5-4e96-832f-81c7cd355836","system_id":"levelo_inurba_marseille","lat":43.27316,"lon":5.39103,"is_reserved":false,"is_disabled":false,"rental_uris":{"android":"levelo://app?vid=d4a52905-42d5-4e96-832f-81c7cd355836","ios":"levelo://app?vid=d4a52905-42d5-4e96-832f-81c7cd355836"},"vehicle_type_id":"4","last_reported":1739048843,"current_range_meters":38800,"station_id":"ce4bhgp2rcd13ifvqfe0","pricing_plan_id":"cebpf4jnsgd1na2vs0mg"},{"bike_id":"d127a229-8836-4c0f-a071-964ec5978504","system_id":"levelo_inurba_marseille","lat":43.27188,"lon":5.40996,"is_reserved":false,"is_disabled":false,"rental_uris":{"android":"levelo://app?vid=d127a229-8836-4c0f-a071-964ec5978504","ios":"levelo://app?vid=d127a229-8836-4c0f-a071-964ec5978504"},"vehicle_type_id":"4","last_reported":1739048843,"current_range_meters":38800,"station_id":"ce4bhl12rcd13ifvqgf0","pricing_plan_id":"cebpf4jnsgd1na2vs0mg"},{"bike_id":"118b1d9a-bc00-428d-ac60-6949e2e1ff6b","system_id":"levelo_inurba_marseille","lat":43.24807,"lon":5.37442,"is_reserved":false,"is_disabled":false,"rental_uris":{"android":"levelo://app?vid=118b1d9a-bc00-428d-ac60-6949e2e1ff6b","ios":"levelo://app?vid=118b1d9a-bc00-428d-ac60-6949e2e1ff6b"},"vehicle_type_id":"4","last_reported":1739048843,"current_range_meters":31200,"station_id":"ce4bhgh2rcd13ifvqfb0","pricing_plan_id":"cebpf4jnsgd1na2vs0mg"},{"bike_id":"a3d705bd-f3eb-4113-bc23-65d864e792dd","system_id":"levelo_inurba_marseille","lat":43.288498,"lon":5.393165,"is_reserved":false,"is_disabled":false,"rental_uris":{"android":"levelo://app?vid=a3d705bd-f3eb-4113-bc23-65d864e792dd","ios":"levelo://app?vid=a3d705bd-f3eb-4113-bc23-65d864e792dd"},"vehicle_type_id":"4","last_reported":1739048843,"current_range_meters":6400,"station_id":"ce4bh2p2rcd13ifvqdi0","pricing_plan_id":"cebpf4jnsgd1na2vs0mg"},{"bike_id":"af62d40d-43f5-4ce3-a384-9e3b7f747689","system_id":"levelo_inurba_marseille","lat":43.26202,"lon":5.37441,"is_reserved":false,"is_disabled":false,"rental_uris":{"android":"levelo://app?vid=af62d40d-43f5-4ce3-a384-9e3b7f747689","ios":"levelo://app?vid=af62d40d-43f5-4ce3-a384-9e3b7f747689"},"vehicle_type_id":"4","last_reported":1739048843,"current_range_meters":12400,"station_id":"ce4bhgp2rcd13ifvqfc0","pricing_plan_id":"cebpf4jnsgd1na2vs0mg"},{"bike_id":"656b3b3b-ebfa-4345-b7c9-9eedd9381155","system_id":"levelo_inurba_marseille","lat":43.30816,"lon":5.40021,"is_reserved":false,"is_disabled":false,"rental_uris":{"android":"levelo://app?vid=656b3b3b-ebfa-4345-b7c9-9eedd9381155","ios":"levelo://app?vid=656b3b3b-ebfa-4345-b7c9-9eedd9381155"},"vehicle_type_id":"4","last_reported":1739048843,"current_range_meters":15200,"station_id":"","pricing_plan_id":"cebpf4jnsgd1na2vs0mg"},{"bike_id":"15b1a084-c2e3-4bb1-9ea7-2bfcd7d54939","system_id":"levelo_inurba_marseille","lat":43.29531,"lon":5.37525,"is_reserved":false,"is_disabled":false,"rental_uris":{"android":"levelo://app?vid=15b1a084-c2e3-4bb1-9ea7-2bfcd7d54939","ios":"levelo://app?vid=15b1a084-c2e3-4bb1-9ea7-2bfcd7d54939"},"vehicle_type_id":"4","last_reported":1739048843,"current_range_meters":27600,"station_id":"ce4bgkp2rcd13ifvqbmg","pricing_plan_id":"cebpf4jnsgd1na2vs0mg"},{"bike_id":"ed3f81b2-c3a6-4b51-b9b2-2dfb5b711dd0","system_id":"levelo_inurba_marseille","lat":43.275,"lon":5.42456,"is_reserved":false,"is_disabled":false,"rental_uris":{"android":"levelo://app?vid=ed3f81b2-c3a6-4b51-b9b2-2dfb5b711dd0","ios":"levelo://app?vid=ed3f81b2-c3a6-4b51-b9b2-2dfb5b711dd0"},"vehicle_type_id":"4","last_reported":1739048843,"current_range_meters":8000,"station_id":"ce4bhn92rcd13ifvqgrg","pricing_plan_id":"cebpf4jnsgd1na2vs0mg"},{"bike_id":"272f9d9b-71c0-44ba-8418-bb5adedfc368","system_id":"levelo_inurba_marseille","lat":43.29414,"lon":5.38659,"is_reserved":false,"is_disabled":false,"rental_uris":{"android":"levelo://app?vid=272f9d9b-71c0-44ba-8418-bb5adedfc368","ios":"levelo://app?vid=272f9d9b-71c0-44ba-8418-bb5adedfc368"},"vehicle_type_id":"4","last_reported":1739048843,"current_range_meters":38000,"station_id":"ce4bh2h2rcd13ifvqdh0","pricing_plan_id":"cebpf4jnsgd1na2vs0mg"},{"bike_id":"7164fc98-7d36-4c91-9619-1bd94943fe3d","system_id":"levelo_inurba_marseille","lat":43.28927,"lon":5.38392,"is_reserved":false,"is_disabled":false,"rental_uris":{"android":"levelo://app?vid=7164fc98-7d36-4c91-9619-1bd94943fe3d","ios":"levelo://app?vid=7164fc98-7d36-4c91-9619-1bd94943fe3d"},"vehicle_type_id":"4","last_reported":1739048843,"current_range_meters":37600,"station_id":"ce4bh612rcd13ifvqe6g","pricing_plan_id":"cebpf4jnsgd1na2vs0mg"},{"bike_id":"7d221946-c821-4ef5-bf57-7a380b8ee00b","system_id":"levelo_inurba_marseille","lat":43.28562,"lon":5.39499,"is_reserved":false,"is_disabled":false,"rental_uris":{"android":"levelo://app?vid=7d221946-c821-4ef5-bf57-7a380b8ee00b","ios":"levelo://app?vid=7d221946-c821-4ef5-bf57-7a380b8ee00b"},"vehicle_type_id":"4","last_reported":1739048843,"current_range_meters":38800,"station_id":"ce4bh292rcd13ifvqdg0","pricing_plan_id":"cebpf4jnsgd1na2vs0mg"},{"bike_id":"889ef476-f99b-42ff-95f8-28ea11857507","system_id":"levelo_inurba_marseille","lat":43.23956,"lon":5.36636,"is_reserved":false,"is_disabled":false,"rental_uris":{"android":"levelo://app?vid=889ef476-f99b-42ff-95f8-28ea11857507","ios":"levelo://app?vid=889ef476-f99b-42ff-95f8-28ea11857507"},"vehicle_type_id":"4","last_reported":1739048843,"current_range_meters":30000,"station_id":"ce4bhi12rcd13ifvqfp0","pricing_plan_id":"cebpf4jnsgd1na2vs0mg"},{"bike_id":"7f2deb56-183c-436c-981c-cfbcfece13e6","system_id":"levelo_inurba_marseille","lat":43.23963,"lon":5.36625,"is_reserved":false,"is_disabled":false,"rental_uris":{"android":"levelo://app?vid=7f2deb56-183c-436c-981c-cfbcfece13e6","ios":"levelo://app?vid=7f2deb56-183c-436c-981c-cfbcfece13e6"},"vehicle_type_id":"4","last_reported":1739048843,"current_range_meters":36400,"station_id":"ce4bhi12rcd13ifvqfp0","pricing_plan_id":"cebpf4jnsgd1na2vs0mg"},{"bike_id":"aac5a4ca-b8d0-4641-93c3-6c5e80d60918","system_id":"levelo_inurba_marseille","lat":43.31221,"lon":5.36854,"is_reserved":false,"is_disabled":false,"rental_uris":{"android":"levelo://app?vid=aac5a4ca-b8d0-4641-93c3-6c5e80d60918","ios":"levelo://app?vid=aac5a4ca-b8d0-4641-93c3-6c5e80d60918"},"vehicle_type_id":"4","last_reported":1739048843,"current_range_meters":38800,"station_id":"ce4bgl92rcd13ifvqbq0","pricing_plan_id":"cebpf4jnsgd1na2vs0mg"},{"bike_id":"1a9fc786-57aa-43e7-a404-b8d7f75cacc8","system_id":"levelo_inurba_marseille","lat":43.29266,"lon":5.38446,"is_reserved":false,"is_disabled":false,"rental_uris":{"android":"levelo://app?vid=1a9fc786-57aa-43e7-a404-b8d7f75cacc8","ios":"levelo://app?vid=1a9fc786-57aa-43e7-a404-b8d7f75cacc8"},"vehicle_type_id":"4","last_reported":1739048843,"current_range_meters":37600,"station_id":"ce4bh692rcd13ifvqea0","pricing_plan_id":"cebpf4jnsgd1na2vs0mg"},{"bike_id":"6186afb6-fd6f-42d8-8215-07291eb97707","system_id":"levelo_inurba_marseille","lat":43.24183,"lon":5.39753,"is_reserved":false,"is_disabled":false,"rental_uris":{"android":"levelo://app?vid=6186afb6-fd6f-42d8-8215-07291eb97707","ios":"levelo://app?vid=6186afb6-fd6f-42d8-8215-07291eb97707"},"vehicle_type_id":"4","last_reported":1739048843,"current_range_meters":24800,"station_id":"ce4bhn12rcd13ifvqgpg","pricing_plan_id":"cebpf4jnsgd1na2vs0mg"},{"bike_id":"2f37c01b-9dbf-4f25-a6c6-88a6b88e248f","system_id":"levelo_inurba_marseille","lat":43.29278,"lon":5.36851,"is_reserved":false,"is_disabled":false,"rental_uris":{"android":"levelo://app?vid=2f37c01b-9dbf-4f25-a6c6-88a6b88e248f","ios":"levelo://app?vid=2f37c01b-9dbf-4f25-a6c6-88a6b88e248f"},"vehicle_type_id":"4","last_reported":1739048843,"current_range_meters":38400,"station_id":"ce4bhbp2rcd13ifvqesg","pricing_plan_id":"cebpf4jnsgd1na2vs0mg"},{"bike_id":"c1994bca-8c74-4142-b569-d2f7c47c698f","system_id":"levelo_inurba_marseille","lat":43.27816,"lon":5.40721,"is_reserved":false,"is_disabled":false,"rental_uris":{"android":"levelo://app?vid=c1994bca-8c74-4142-b569-d2f7c47c698f","ios":"levelo://app?vid=c1994bca-8c74-4142-b569-d2f7c47c698f"},"vehicle_type_id":"4","last_reported":1739048843,"current_range_meters":27200,"station_id":"ce4bhnh2rcd13ifvqgtg","pricing_plan_id":"cebpf4jnsgd1na2vs0mg"},{"bike_id":"f2df57fd-48fb-42b4-9b53-5e639c9b06ad","system_id":"levelo_inurba_marseille","lat":43.32359,"lon":5.38918,"is_reserved":false,"is_disabled":false,"rental_uris":{"android":"levelo://app?vid=f2df57fd-48fb-42b4-9b53-5e639c9b06ad","ios":"levelo://app?vid=f2df57fd-48fb-42b4-9b53-5e639c9b06ad"},"vehicle_type_id":"4","last_reported":1739048843,"current_range_meters":32800,"station_id":"ce4bhqp2rcd13ifvqhog","pricing_plan_id":"cebpf4jnsgd1na2vs0mg"},{"bike_id":"aaa34935-1279-4709-8f0a-a124f9432eec","system_id":"levelo_inurba_marseille","lat":43.29014,"lon":5.38626,"is_reserved":false,"is_disabled":false,"rental_uris":{"android":"levelo://app?vid=aaa34935-1279-4709-8f0a-a124f9432eec","ios":"levelo://app?vid=aaa34935-1279-4709-8f0a-a124f9432eec"},"vehicle_type_id":"4","last_reported":1739048843,"current_range_meters":38000,"station_id":"ce4bh4p2rcd13ifvqe0g","pricing_plan_id":"cebpf4jnsgd1na2vs0mg"},{"bike_id":"685c92c8-a657-4843-b6ab-01f5e7f8f946","system_id":"levelo_inurba_marseille","lat":43.29269,"lon":5.38443,"is_reserved":false,"is_disabled":false,"rental_uris":{"android":"levelo://app?vid=685c92c8-a657-4843-b6ab-01f5e7f8f946","ios":"levelo://app?vid=685c92c8-a657-4843-b6ab-01f5e7f8f946"},"vehicle_type_id":"4","last_reported":1739048843,"current_range_meters":20400,"station_id":"ce4bh692rcd13ifvqea0","pricing_plan_id":"cebpf4jnsgd1na2vs0mg"},{"bike_id":"9f7cf945-ba46-4a30-a487-0537ff799f4a","system_id":"levelo_inurba_marseille","lat":43.27987,"lon":5.4002,"is_reserved":false,"is_disabled":false,"rental_uris":{"android":"levelo://app?vid=9f7cf945-ba46-4a30-a487-0537ff799f4a","ios":"levelo://app?vid=9f7cf945-ba46-4a30-a487-0537ff799f4a"},"vehicle_type_id":"4","last_reported":1739048843,"current_range_meters":18800,"station_id":"ce4bho92rcd13ifvqh4g","pricing_plan_id":"cebpf4jnsgd1na2vs0mg"},{"bike_id":"59db9156-837c-4bef-bdf0-6cb05d00fb23","system_id":"levelo_inurba_marseille","lat":43.24166,"lon":5.36407,"is_reserved":false,"is_disabled":false,"rental_uris":{"android":"levelo://app?vid=59db9156-837c-4bef-bdf0-6cb05d00fb23","ios":"levelo://app?vid=59db9156-837c-4bef-bdf0-6cb05d00fb23"},"vehicle_type_id":"4","last_reported":1739048843,"current_range_meters":26800,"station_id":"cpo36qri1sfpv3e86is0","pricing_plan_id":"cebpf4jnsgd1na2vs0mg"},{"bike_id":"ba87df7a-c623-44bf-ac36-52361c2315ac","system_id":"levelo_inurba_marseille","lat":43.29525,"lon":5.39397,"is_reserved":false,"is_disabled":false,"rental_uris":{"android":"levelo://app?vid=ba87df7a-c623-44bf-ac36-52361c2315ac","ios":"levelo://app?vid=ba87df7a-c623-44bf-ac36-52361c2315ac"},"vehicle_type_id":"4","last_reported":1739048843,"current_range_meters":34800,"station_id":"ce4bh292rcd13ifvqdf0","pricing_plan_id":"cebpf4jnsgd1na2vs0mg"},{"bike_id":"0ed84333-b932-4d64-b2f5-6fbac997e6bb","system_id":"levelo_inurba_marseille","lat":43.28046,"lon":5.36918,"is_reserved":false,"is_disabled":false,"rental_uris":{"android":"levelo://app?vid=0ed84333-b932-4d64-b2f5-6fbac997e6bb","ios":"levelo://app?vid=0ed84333-b932-4d64-b2f5-6fbac997e6bb"},"vehicle_type_id":"4","last_reported":1739048843,"current_range_meters":38800,"station_id":"ce4bha12rcd13ifvqef0","pricing_plan_id":"cebpf4jnsgd1na2vs0mg"},{"bike_id":"f1e9b514-8d63-4512-92a1-4bc9d87c157b","system_id":"levelo_inurba_marseille","lat":43.31712,"lon":5.43699,"is_reserved":false,"is_disabled":true,"rental_uris":{"android":"levelo://app?vid=f1e9b514-8d63-4512-92a1-4bc9d87c157b","ios":"levelo://app?vid=f1e9b514-8d63-4512-92a1-4bc9d87c157b"},"vehicle_type_id":"4","last_reported":1739048843,"current_range_meters":4000,"station_id":"ce4bhp92rcd13ifvqhcg","pricing_plan_id":"cebpf4jnsgd1na2vs0mg"},{"bike_id":"25779db4-1979-4bf8-9051-93f244d3242a","system_id":"levelo_inurba_marseille","lat":43.31673,"lon":5.39483,"is_reserved":false,"is_disabled":false,"rental_uris":{"android":"levelo://app?vid=25779db4-1979-4bf8-9051-93f244d3242a","ios":"levelo://app?vid=25779db4-1979-4bf8-9051-93f244d3242a"},"vehicle_type_id":"4","last_reported":1739048843,"current_range_meters":30000,"station_id":"","pricing_plan_id":"cebpf4jnsgd1na2vs0mg"},{"bike_id":"5ec8eb26-4da0-44bd-a749-6834bbce000b","system_id":"levelo_inurba_marseille","lat":43.28852,"lon":5.39321,"is_reserved":false,"is_disabled":false,"rental_uris":{"android":"levelo://app?vid=5ec8eb26-4da0-44bd-a749-6834bbce000b","ios":"levelo://app?vid=5ec8eb26-4da0-44bd-a749-6834bbce000b"},"vehicle_type_id":"4","last_reported":1739048843,"current_range_meters":20800,"station_id":"ce4bh2p2rcd13ifvqdi0","pricing_plan_id":"cebpf4jnsgd1na2vs0mg"},{"bike_id":"7e424a35-8cf7-4c71-b98f-4231461d22a0","system_id":"levelo_inurba_marseille","lat":43.27489,"lon":5.39018,"is_reserved":false,"is_disabled":false,"rental_uris":{"android":"levelo://app?vid=7e424a35-8cf7-4c71-b98f-4231461d22a0","ios":"levelo://app?vid=7e424a35-8cf7-4c71-b98f-4231461d22a0"},"vehicle_type_id":"4","last_reported":1739048843,"current_range_meters":34800,"station_id":"","pricing_plan_id":"cebpf4jnsgd1na2vs0mg"},{"bike_id":"af9d7bb7-48e5-4298-8b4f-786d891d5ea9","system_id":"levelo_inurba_marseille","lat":43.25719,"lon":5.41106,"is_reserved":false,"is_disabled":false,"rental_uris":{"android":"levelo://app?vid=af9d7bb7-48e5-4298-8b4f-786d891d5ea9","ios":"levelo://app?vid=af9d7bb7-48e5-4298-8b4f-786d891d5ea9"},"vehicle_type_id":"4","last_reported":1739048843,"current_range_meters":34000,"station_id":"ce4bhkp2rcd13ifvqgd0","pricing_plan_id":"cebpf4jnsgd1na2vs0mg"},{"bike_id":"aef7fc4e-dd57-4096-8d9e-8fa458cb3f42","system_id":"levelo_inurba_marseille","lat":43.29872,"lon":5.38899,"is_reserved":false,"is_disabled":false,"rental_uris":{"android":"levelo://app?vid=aef7fc4e-dd57-4096-8d9e-8fa458cb3f42","ios":"levelo://app?vid=aef7fc4e-dd57-4096-8d9e-8fa458cb3f42"},"vehicle_type_id":"4","last_reported":1739048843,"current_range_meters":19200,"station_id":"ce4bh392rcd13ifvqdl0","pricing_plan_id":"cebpf4jnsgd1na2vs0mg"},{"bike_id":"688cb102-28ba-4c7e-885f-41414f9433e9","system_id":"levelo_inurba_marseille","lat":43.2557,"lon":5.38226,"is_reserved":false,"is_disabled":false,"rental_uris":{"android":"levelo://app?vid=688cb102-28ba-4c7e-885f-41414f9433e9","ios":"levelo://app?vid=688cb102-28ba-4c7e-885f-41414f9433e9"},"vehicle_type_id":"4","last_reported":1739048843,"current_range_meters":21600,"station_id":"ce4bhih2rcd13ifvqfs0","pricing_plan_id":"cebpf4jnsgd1na2vs0mg"},{"bike_id":"9c3ed8fb-7268-418c-ac09-3f255c9e9b5e","system_id":"levelo_inurba_marseille","lat":43.28039,"lon":5.36939,"is_reserved":false,"is_disabled":false,"rental_uris":{"android":"levelo://app?vid=9c3ed8fb-7268-418c-ac09-3f255c9e9b5e","ios":"levelo://app?vid=9c3ed8fb-7268-418c-ac09-3f255c9e9b5e"},"vehicle_type_id":"4","last_reported":1739048843,"current_range_meters":38800,"station_id":"ce4bha12rcd13ifvqef0","pricing_plan_id":"cebpf4jnsgd1na2vs0mg"},{"bike_id":"52b2f957-5d69-4c29-a42b-f89f109fca3c","system_id":"levelo_inurba_marseille","lat":43.30423,"lon":5.39744,"is_reserved":false,"is_disabled":false,"rental_uris":{"android":"levelo://app?vid=52b2f957-5d69-4c29-a42b-f89f109fca3c","ios":"levelo://app?vid=52b2f957-5d69-4c29-a42b-f89f109fca3c"},"vehicle_type_id":"4","last_reported":1739048843,"current_range_meters":16000,"station_id":"ce4bh092rcd13ifvqd20","pricing_plan_id":"cebpf4jnsgd1na2vs0mg"},{"bike_id":"686f797b-2194-423b-bba7-5f8eb5cd45ab","system_id":"levelo_inurba_marseille","lat":43.29969,"lon":5.38511,"is_reserved":false,"is_disabled":false,"rental_uris":{"android":"levelo://app?vid=686f797b-2194-423b-bba7-5f8eb5cd45ab","ios":"levelo://app?vid=686f797b-2194-423b-bba7-5f8eb5cd45ab"},"vehicle_type_id":"4","last_reported":1739048843,"current_range_meters":20000,"station_id":"ce4bgj92rcd13ifvqbd0","pricing_plan_id":"cebpf4jnsgd1na2vs0mg"},{"bike_id":"b557dda7-73c9-4e4b-95b0-603097b3ec6b","system_id":"levelo_inurba_marseille","lat":43.26208,"lon":5.37935,"is_reserved":false,"is_disabled":false,"rental_uris":{"android":"levelo://app?vid=b557dda7-73c9-4e4b-95b0-603097b3ec6b","ios":"levelo://app?vid=b557dda7-73c9-4e4b-95b0-603097b3ec6b"},"vehicle_type_id":"4","last_reported":1739048843,"current_range_meters":38800,"station_id":"ce4bhjp2rcd13ifvqg90","pricing_plan_id":"cebpf4jnsgd1na2vs0mg"},{"bike_id":"482bb069-4c30-4f2c-a988-23832f72e762","system_id":"levelo_inurba_marseille","lat":43.28955,"lon":5.39642,"is_reserved":false,"is_disabled":false,"rental_uris":{"android":"levelo://app?vid=482bb069-4c30-4f2c-a988-23832f72e762","ios":"levelo://app?vid=482bb069-4c30-4f2c-a988-23832f72e762"},"vehicle_type_id":"4","last_reported":1739048843,"current_range_meters":24000,"station_id":"ce4bh3h2rcd13ifvqdn0","pricing_plan_id":"cebpf4jnsgd1na2vs0mg"},{"bike_id":"6ff781d1-2621-44d1-b299-83b571f09432","system_id":"levelo_inurba_marseille","lat":43.34065,"lon":5.38507,"is_reserved":false,"is_disabled":true,"rental_uris":{"android":"levelo://app?vid=6ff781d1-2621-44d1-b299-83b571f09432","ios":"levelo://app?vid=6ff781d1-2621-44d1-b299-83b571f09432"},"vehicle_type_id":"4","last_reported":1739048843,"current_range_meters":1200,"station_id":"","pricing_plan_id":"cebpf4jnsgd1na2vs0mg"},{"bike_id":"7811f590-b275-45e0-ad58-812101e2855a","system_id":"levelo_inurba_marseille","lat":43.30419,"lon":5.39756,"is_reserved":false,"is_disabled":false,"rental_uris":{"android":"levelo://app?vid=7811f590-b275-45e0-ad58-812101e2855a","ios":"levelo://app?vid=7811f590-b275-45e0-ad58-812101e2855a"},"vehicle_type_id":"4","last_reported":1739048843,"current_range_meters":39200,"station_id":"ce4bh092rcd13ifvqd20","pricing_plan_id":"cebpf4jnsgd1na2vs0mg"},{"bike_id":"58bad30e-c3b2-402c-930b-0c16bd108c3d","system_id":"levelo_inurba_marseille","lat":43.29978,"lon":5.38506,"is_reserved":false,"is_disabled":false,"rental_uris":{"android":"levelo://app?vid=58bad30e-c3b2-402c-930b-0c16bd108c3d","ios":"levelo://app?vid=58bad30e-c3b2-402c-930b-0c16bd108c3d"},"vehicle_type_id":"4","last_reported":1739048843,"current_range_meters":38800,"station_id":"ce4bgj92rcd13ifvqbd0","pricing_plan_id":"cebpf4jnsgd1na2vs0mg"},{"bike_id":"0a484fee-0ef1-47de-86d9-acd71bab934b","system_id":"levelo_inurba_marseille","lat":43.23191,"lon":5.3998,"is_reserved":false,"is_disabled":false,"rental_uris":{"android":"levelo://app?vid=0a484fee-0ef1-47de-86d9-acd71bab934b","ios":"levelo://app?vid=0a484fee-0ef1-47de-86d9-acd71bab934b"},"vehicle_type_id":"4","last_reported":1739048843,"current_range_meters":38800,"station_id":"ce4bhn12rcd13ifvqgqg","pricing_plan_id":"cebpf4jnsgd1na2vs0mg"},{"bike_id":"decbd4f4-1364-44ae-a730-21c70080594d","system_id":"levelo_inurba_marseille","lat":43.28422,"lon":5.3751,"is_reserved":false,"is_disabled":true,"rental_uris":{"android":"levelo://app?vid=decbd4f4-1364-44ae-a730-21c70080594d","ios":"levelo://app?vid=decbd4f4-1364-44ae-a730-21c70080594d"},"vehicle_type_id":"4","last_reported":1739048843,"current_range_meters":0,"station_id":"ce4bh412rcd13ifvqds0","pricing_plan_id":"cebpf4jnsgd1na2vs0mg"},{"bike_id":"8bec6f5e-e450-4c2b-8557-aced9db82d7a","system_id":"levelo_inurba_marseille","lat":43.25721,"lon":5.41114,"is_reserved":false,"is_disabled":false,"rental_uris":{"android":"levelo://app?vid=8bec6f5e-e450-4c2b-8557-aced9db82d7a","ios":"levelo://app?vid=8bec6f5e-e450-4c2b-8557-aced9db82d7a"},"vehicle_type_id":"4","last_reported":1739048843,"current_range_meters":35600,"station_id":"ce4bhkp2rcd13ifvqgd0","pricing_plan_id":"cebpf4jnsgd1na2vs0mg"},{"bike_id":"c7d36f63-3933-46ab-b9cc-b4708b43a9ab","system_id":"levelo_inurba_marseille","lat":43.30246,"lon":5.40073,"is_reserved":false,"is_disabled":false,"rental_uris":{"android":"levelo://app?vid=c7d36f63-3933-46ab-b9cc-b4708b43a9ab","ios":"levelo://app?vid=c7d36f63-3933-46ab-b9cc-b4708b43a9ab"},"vehicle_type_id":"4","last_reported":1739048843,"current_range_meters":38800,"station_id":"ce4bgvh2rcd13ifvqcs0","pricing_plan_id":"cebpf4jnsgd1na2vs0mg"},{"bike_id":"fc27cc67-0de9-4972-9ba4-f0b467e96b7c","system_id":"levelo_inurba_marseille","lat":43.246688,"lon":5.38165,"is_reserved":false,"is_disabled":false,"rental_uris":{"android":"levelo://app?vid=fc27cc67-0de9-4972-9ba4-f0b467e96b7c","ios":"levelo://app?vid=fc27cc67-0de9-4972-9ba4-f0b467e96b7c"},"vehicle_type_id":"4","last_reported":1739048843,"current_range_meters":38400,"station_id":"ce4bhih2rcd13ifvqfr0","pricing_plan_id":"cebpf4jnsgd1na2vs0mg"},