{"last_updated":1728835771,"ttl":60,"version":"2.2","data":{"bikes":[{"bike_id":"5c47657f-70c2-45b0-90cd-bbe0a26b07b9","system_id":"levelo_inurba_marseille","lat":43.24389,"lon":5.37064,"is_reserved":false,"is_disabled":false,"rental_uris":{"android":"levelo://app?vid=5c47657f-70c2-45b0-90cd-bbe0a26b07b9","ios":"levelo://app?vid=5c47657f-70c2-45b0-90cd-bbe0a26b07b9"},"vehicle_type_id":"4","last_reported":1728835771,"current_range_meters":4400,"station_id":"ce4bhhh2rcd13ifvqfk0","pricing_plan_id":"cebpf4jnsgd1na2vs0mg"},{"bike_id":"d885d96e-d926-4227-9eec-639d1069044e","system_id":"levelo_inurba_marseille","lat":43.23194,"lon":5.35549,"is_reserved":false,"is_disabled":false,"rental_uris":{"android":"levelo://app?vid=d885d96e-d926-4227-9eec-639d1069044e","ios":"levelo://app?vid=d885d96e-d926-4227-9eec-639d1069044e"},"vehicle_type_id":"4","last_reported":1728835771,"current_range_meters":9200,"station_id":"ce4bhu92rcd13ifvqi70","pricing_plan_id":"cebpf4jnsgd1na2vs0mg"},{"bike_id":"d09d8fda-e2fe-4887-8f7e-499207657584","system_id":"levelo_inurba_marseille","lat":43.29257,"lon":5.40109,"is_reserved":false,"is_disabled":false,"rental_uris":{"android":"levelo://app?vid=d09d8fda-e2fe-4887-8f7e-499207657584","ios":"levelo://app?vid=d09d8fda-e2fe-4887-8f7e-499207657584"},"vehicle_type_id":"4","last_reported":1728835771,"current_range_meters":6400,"station_id":"ce4bh312rcd13ifvqdk0","pricing_plan_id":"cebpf4jnsgd1na2vs0mg"},{"bike_id":"480c36bc-dd66-41df-b09a-76735c76211b","system_id":"levelo_inurba_marseille","lat":43.28,"lon":5.41656,"is_reserved":false,"is_disabled":false,"rental_uris":{"android":"levelo://app?vid=480c36bc-dd66-41df-b09a-76735c76211b","ios":"levelo://app?vid=480c36bc-dd66-41df-b09a-76735c76211b"},"vehicle_type_id":"4","last_reported":1728835771,"current_range_meters":35200,"station_id":"ce4bho12rcd13ifvqh1g","pricing_plan_id":"cebpf4jnsgd1na2vs0mg"},{"bike_id":"4f2fdd78-84d7-4fbe-a53a-d7ca7e6bbce9","system_id":"levelo_inurba_marseille","lat":43.2694,"lon":5.40252,"is_reserved":false,"is_disabled":false,"rental_uris":{"android":"levelo://app?vid=4f2fdd78-84d7-4fbe-a53a-d7ca7e6bbce9","ios":"levelo://app?vid=4f2fdd78-84d7-4fbe-a53a-d7ca7e6bbce9"},"vehicle_type_id":"4","last_reported":1728835771,"current_range_meters":36800,"station_id":"cjm6bp8fraef2m0cb0m0","pricing_plan_id":"cebpf4jnsgd1na2vs0mg"},{"bike_id":"c5c33660-077d-4f97-b2f0-40691ac09116","system_id":"levelo_inurba_marseille","lat":43.2439,"lon":5.37064,"is_reserved":false,"is_disabled":false,"rental_uris":{"android":"levelo://app?vid=c5c33660-077d-4f97-b2f0-40691ac09116","ios":"levelo://app?vid=c5c33660-077d-4f97-b2f0-40691ac09116"},"vehicle_type_id":"4","last_reported":1728835771,"current_range_meters":32800,"station_id":"ce4bhhh2rcd13ifvqfk0","pricing_plan_id":"cebpf4jnsgd1na2vs0mg"},{"bike_id":"931d1f9c-4cb2-40a2-a856-914a1c55fcf3","system_id":"levelo_inurba_marseille","lat":43.2457,"lon":5.41661,"is_reserved":false,"is_disabled":false,"rental_uris":{"android":"levelo://app?vid=931d1f9c-4cb2-40a2-a856-914a1c55fcf3","ios":"levelo://app?vid=931d1f9c-4cb2-40a2-a856-914a1c55fcf3"},"vehicle_type_id":"4","last_reported":1728835771,"current_range_meters":6400,"station_id":"","pricing_plan_id":"cebpf4jnsgd1na2vs0mg"},{"bike_id":"b8d3e178-77e6-4b2b-b8de-85af06fa4430","system_id":"levelo_inurba_marseille","lat":43.23064,"lon":5.35494,"is_reserved":false,"is_disabled":false,"rental_uris":{"android":"levelo://app?vid=b8d3e178-77e6-4b2b-b8de-85af06fa4430","ios":"levelo://app?vid=b8d3e178-77e6-4b2b-b8de-85af06fa4430"},"vehicle_type_id":"4","last_reported":1728835771,"current_range_meters":38800,"station_id":"cpo3342slgdg3j2ifvpg","pricing_plan_id":"cebpf4jnsgd1na2vs0mg"},{"bike_id":"520408ea-2df0-43fa-a65c-8491eb0baa83","system_id":"levelo_inurba_marseille","lat":43.27492,"lon":5.4246,"is_reserved":false,"is_disabled":false,"rental_uris":{"android":"levelo://app?vid=520408ea-2df0-43fa-a65c-8491eb0baa83","ios":"levelo://app?vid=520408ea-2df0-43fa-a65c-8491eb0baa83"},"vehicle_type_id":"4","last_reported":1728835771,"current_range_meters":18000,"station_id":"ce4bhn92rcd13ifvqgrg","pricing_plan_id":"cebpf4jnsgd1na2vs0mg"},{"bike_id":"c1526f14-0f53-47fd-bc6e-2dc8711b4bf6","system_id":"levelo_inurba_marseille","lat":43.29892,"lon":5.43654,"is_reserved":false,"is_disabled":false,"rental_uris":{"android":"levelo://app?vid=c1526f14-0f53-47fd-bc6e-2dc8711b4bf6","ios":"levelo://app?vid=c1526f14-0f53-47fd-bc6e-2dc8711b4bf6"},"vehicle_type_id":"4","last_reported":1728835771,"current_range_meters":29600,"station_id":"ce4bhpp2rcd13ifvqhfg","pricing_plan_id":"cebpf4jnsgd1na2vs0mg"},{"bike_id":"4cf93bdc-153b-4c42-80da-fb89ea8b0b01","system_id":"levelo_inurba_marseille","lat":43.29963,"lon":5.385,"is_reserved":false,"is_disabled":false,"rental_uris":{"android":"levelo://app?vid=4cf93bdc-153b-4c42-80da-fb89ea8b0b01","ios":"levelo://app?vid=4cf93bdc-153b-4c42-80da-fb89ea8b0b01"},"vehicle_type_id":"4","last_reported":1728835771,"current_range_meters":20000,"station_id":"ce4bgj92rcd13ifvqbd0","pricing_plan_id":"cebpf4jnsgd1na2vs0mg"},{"bike_id":"17d0a89e-2968-495c-8b5d-77b0ec64ca9e","system_id":"levelo_inurba_marseille","lat":43.30085,"lon":5.39069,"is_reserved":false,"is_disabled":false,"rental_uris":{"android":"levelo://app?vid=17d0a89e-2968-495c-8b5d-77b0ec64ca9e","ios":"levelo://app?vid=17d0a89e-2968-495c-8b5d-77b0ec64ca9e"},"vehicle_type_id":"4","last_reported":1728835771,"current_range_meters":4400,"station_id":"ce4bh192rcd13ifvqdb0","pricing_plan_id":"cebpf4jnsgd1na2vs0mg"},{"bike_id":"2eebb1d2-f9d6-4c22-9f39-dcab9effdc3b","system_id":"levelo_inurba_marseille","lat":43.31533,"lon":5.38033,"is_reserved":false,"is_disabled":false,"rental_uris":{"android":"levelo://app?vid=2eebb1d2-f9d6-4c22-9f39-dcab9effdc3b","ios":"levelo://app?vid=2eebb1d2-f9d6-4c22-9f39-dcab9effdc3b"},"vehicle_type_id":"4","last_reported":1728835771,"current_range_meters":7200,"station_id":"ce4bhsp2rcd13ifvqi50","pricing_plan_id":"cebpf4jnsgd1na2vs0mg"},{"bike_id":"f89a17ac-1204-4944-8410-2a53b3bc59a3","system_id":"levelo_inurba_marseille","lat":43.29045,"lon":5.35908,"is_reserved":false,"is_disabled":false,"rental_uris":{"android":"levelo://app?vid=f89a17ac-1204-4944-8410-2a53b3bc59a3","ios":"levelo://app?vid=f89a17ac-1204-4944-8410-2a53b3bc59a3"},"vehicle_type_id":"4","last_reported":1728835771,"current_range_meters":38800,"station_id":"ce4bha92rcd13ifvqeg0","pricing_plan_id":"cebpf4jnsgd1na2vs0mg"},{"bike_id":"6b2daff3-9851-4dff-9081-e0ec010599e4","system_id":"levelo_inurba_marseille","lat":43.314515,"lon":5.37384,"is_reserved":false,"is_disabled":false,"rental_uris":{"android":"levelo://app?vid=6b2daff3-9851-4dff-9081-e0ec010599e4","ios":"levelo://app?vid=6b2daff3-9851-4dff-9081-e0ec010599e4"},"vehicle_type_id":"4","last_reported":1728835771,"current_range_meters":32000,"station_id":"","pricing_plan_id":"cebpf4jnsgd1na2vs0mg"},{"bike_id":"67e48798-506e-4ddc-81db-ec93bf2c3b72","system_id":"levelo_inurba_marseille","lat":43.3236,"lon":5.3895,"is_reserved":false,"is_disabled":false,"rental_uris":{"android":"levelo://app?vid=67e48798-506e-4ddc-81db-ec93bf2c3b72","ios":"levelo://app?vid=67e48798-506e-4ddc-81db-ec93bf2c3b72"},"vehicle_type_id":"4","last_reported":1728835771,"current_range_meters":37600,"station_id":"ce4bhqp2rcd13ifvqhog","pricing_plan_id":"cebpf4jnsgd1na2vs0mg"},{"bike_id":"fa08456f-0316-46ca-b497-6c7d63a7f841","system_id":"levelo_inurba_marseille","lat":43.23195,"lon":5.35548,"is_reserved":false,"is_disabled":false,"rental_uris":{"android":"levelo://app?vid=fa08456f-0316-46ca-b497-6c7d63a7f841","ios":"levelo://app?vid=fa08456f-0316-46ca-b497-6c7d63a7f841"},"vehicle_type_id":"4","last_reported":1728835771,"current_range_meters":34000,"station_id":"ce4bhu92rcd13ifvqi70","pricing_plan_id":"cebpf4jnsgd1na2vs0mg"},{"bike_id":"160db750-1129-4633-90ea-f0347148dfd3","system_id":"levelo_inurba_marseille","lat":43.24973,"lon":5.38774,"is_reserved":false,"is_disabled":false,"rental_uris":{"android":"levelo://app?vid=160db750-1129-4633-90ea-f0347148dfd3","ios":"levelo://app?vid=160db750-1129-4633-90ea-f0347148dfd3"},"vehicle_type_id":"4","last_reported":1728835771,"current_range_meters":11200,"station_id":"ce4bhg12rcd13ifvqf60","pricing_plan_id":"cebpf4jnsgd1na2vs0mg"},{"bike_id":"900d410e-a263-4441-80a1-af67345a66d2","system_id":"levelo_inurba_marseille","lat":43.24391,"lon":5.37062,"is_reserved":false,"is_disabled":false,"rental_uris":{"android":"levelo://app?vid=900d410e-a263-4441-80a1-af67345a66d2","ios":"levelo://app?vid=900d410e-a263-4441-80a1-af67345a66d2"},"vehicle_type_id":"4","last_reported":1728835771,"current_range_meters":10000,"station_id":"ce4bhhh2rcd13ifvqfk0","pricing_plan_id":"cebpf4jnsgd1na2vs0mg"},{"bike_id":"7bfca5b2-1ddd-4e5d-b9fc-19e6379d40a0","system_id":"levelo_inurba_marseille","lat":43.28057,"lon":5.40977,"is_reserved":false,"is_disabled":false,"rental_uris":{"android":"levelo://app?vid=7bfca5b2-1ddd-4e5d-b9fc-19e6379d40a0","ios":"levelo://app?vid=7bfca5b2-1ddd-4e5d-b9fc-19e6379d40a0"},"vehicle_type_id":"4","last_reported":1728835771,"current_range_meters":31200,"station_id":"","pricing_plan_id":"cebpf4jnsgd1na2vs0mg"},{"bike_id":"459beff5-c900-477f-917e-99d4928b745c","system_id":"levelo_inurba_marseille","lat":43.27071,"lon":5.4228,"is_reserved":false,"is_disabled":false,"rental_uris":{"android":"levelo://app?vid=459beff5-c900-477f-917e-99d4928b745c","ios":"levelo://app?vid=459beff5-c900-477f-917e-99d4928b745c"},"vehicle_type_id":"4","last_reported":1728835771,"current_range_meters":31200,"station_id":"ce4bhk92rcd13ifvqgb0","pricing_plan_id":"cebpf4jnsgd1na2vs0mg"},{"bike_id":"c4bf8725-40db-4f28-82dc-a2c1907d56d1","system_id":"levelo_inurba_marseille","lat":43.26563,"lon":5.39012,"is_reserved":false,"is_disabled":false,"rental_uris":{"android":"levelo://app?vid=c4bf8725-40db-4f28-82dc-a2c1907d56d1","ios":"levelo://app?vid=c4bf8725-40db-4f28-82dc-a2c1907d56d1"},"vehicle_type_id":"4","last_reported":1728835771,"current_range_meters":3200,"station_id":"ce4bhe12rcd13ifvqf30","pricing_plan_id":"cebpf4jnsgd1na2vs0mg"},{"bike_id":"1046dc14-b858-46ab-883c-c9c6bfeb0842","system_id":"levelo_inurba_marseille","lat":43.30542,"lon":5.36555,"is_reserved":false,"is_disabled":false,"rental_uris":{"android":"levelo://app?vid=1046dc14-b858-46ab-883c-c9c6bfeb0842","ios":"levelo://app?vid=1046dc14-b858-46ab-883c-c9c6bfeb0842"},"vehicle_type_id":"4","last_reported":1728835771,"current_range_meters":37600,"station_id":"ce4bgs12rcd13ifvqcag","pricing_plan_id":"cebpf4jnsgd1na2vs0mg"},{"bike_id":"3e4f306a-0193-49a5-ae54-ea2787574907","system_id":"levelo_inurba_marseille","lat":43.24399,"lon":5.37063,"is_reserved":false,"is_disabled":false,"rental_uris":{"android":"levelo://app?vid=3e4f306a-0193-49a5-ae54-ea2787574907","ios":"levelo://app?vid=3e4f306a-0193-49a5-ae54-ea2787574907"},"vehicle_type_id":"4","last_reported":1728835771,"current_range_meters":35600,"station_id":"ce4bhhh2rcd13ifvqfk0","pricing_plan_id":"cebpf4jnsgd1na2vs0mg"},{"bike_id":"cb0fa5b9-00ee-48fc-9ffa-599816c760e3","system_id":"levelo_inurba_marseille","lat":43.28108,"lon":5.37835,"is_reserved":false,"is_disabled":false,"rental_uris":{"android":"levelo://app?vid=cb0fa5b9-00ee-48fc-9ffa-599816c760e3","ios":"levelo://app?vid=cb0fa5b9-00ee-48fc-9ffa-599816c760e3"},"vehicle_type_id":"4","last_reported":1728835771,"current_range_meters":27600,"station_id":"ce4bha12rcd13ifvqee0","pricing_plan_id":"cebpf4jnsgd1na2vs0mg"},{"bike_id":"5bc1304b-0352-47e2-8270-6a18d2ffcc89","system_id":"levelo_inurba_marseille","lat":43.28479,"lon":5.384177,"is_reserved":false,"is_disabled":false,"rental_uris":{"android":"levelo://app?vid=5bc1304b-0352-47e2-8270-6a18d2ffcc89","ios":"levelo://app?vid=5bc1304b-0352-47e2-8270-6a18d2ffcc89"},"vehicle_type_id":"4","last_reported":1728835771,"current_range_meters":7200,"station_id":"ce4bh512rcd13ifvqe3g","pricing_plan_id":"cebpf4jnsgd1na2vs0mg"},{"bike_id":"363446a2-dc7d-415b-af10-70253325fefc","system_id":"levelo_inurba_marseille","lat":43.299571,"lon":5.41342,"is_reserved":false,"is_disabled":false,"rental_uris":{"android":"levelo://app?vid=363446a2-dc7d-415b-af10-70253325fefc","ios":"levelo://app?vid=363446a2-dc7d-415b-af10-70253325fefc"},"vehicle_type_id":"4","last_reported":1728835771,"current_range_meters":8800,"station_id":"ce4bhp12rcd13ifvqh9g","pricing_plan_id":"cebpf4jnsgd1na2vs0mg"},{"bike_id":"6cda755c-57a9-442a-8fe4-123cb54e7ad3","system_id":"levelo_inurba_marseille","lat":43.24661,"lon":5.38169,"is_reserved":false,"is_disabled":false,"rental_uris":{"android":"levelo://app?vid=6cda755c-57a9-442a-8fe4-123cb54e7ad3","ios":"levelo://app?vid=6cda755c-57a9-442a-8fe4-123cb54e7ad3"},"vehicle_type_id":"4","last_reported":1728835771,"current_range_meters":24000,"station_id":"ce4bhih2rcd13ifvqfr0","pricing_plan_id":"cebpf4jnsgd1na2vs0mg"},{"bike_id":"df6a6888-2989-42e5-a7db-b75d07261a8e","system_id":"levelo_inurba_marseille","lat":43.27811,"lon":5.40715,"is_reserved":false,"is_disabled":false,"rental_uris":{"android":"levelo://app?vid=df6a6888-2989-42e5-a7db-b75d07261a8e","ios":"levelo://app?vid=df6a6888-2989-42e5-a7db-b75d07261a8e"},"vehicle_type_id":"4","last_reported":1728835771,"current_range_meters":10800,"station_id":"ce4bhnh2rcd13ifvqgtg","pricing_plan_id":"cebpf4jnsgd1na2vs0mg"},{"bike_id":"2e75e0e2-ac21-4ccb-87fd-f1ae41467fbc","system_id":"levelo_inurba_marseille","lat":43.32537,"lon":5.41426,"is_reserved":false,"is_disabled":false,"rental_uris":{"android":"levelo://app?vid=2e75e0e2-ac21-4ccb-87fd-f1ae41467fbc","ios":"levelo://app?vid=2e75e0e2-ac21-4ccb-87fd-f1ae41467fbc"},"vehicle_type_id":"4","last_reported":1728835771,"current_range_meters":8000,"station_id":"ce4bhq12rcd13ifvqhhg","pricing_plan_id":"cebpf4jnsgd1na2vs0mg"},{"bike_id":"ddd8071c-e197-43f6-b7d5-51b8315e08bd","system_id":"levelo_inurba_marseille","lat":43.23195,"lon":5.35561,"is_reserved":false,"is_disabled":false,"rental_uris":{"android":"levelo://app?vid=ddd8071c-e197-43f6-b7d5-51b8315e08bd","ios":"levelo://app?vid=ddd8071c-e197-43f6-b7d5-51b8315e08bd"},"vehicle_type_id":"4","last_reported":1728835771,"current_range_meters":12800,"station_id":"ce4bhu92rcd13ifvqi70","pricing_plan_id":"cebpf4jnsgd1na2vs0mg"},{"bike_id":"25ed2710-8c35-44e6-81fd-8fc7cf6b54a8","system_id":"levelo_inurba_marseille","lat":43.274948,"lon":5.424466,"is_reserved":false,"is_disabled":false,"rental_uris":{"android":"levelo://app?vid=25ed2710-8c35-44e6-81fd-8fc7cf6b54a8","ios":"levelo://app?vid=25ed2710-8c35-44e6-81fd-8fc7cf6b54a8"},"vehicle_type_id":"4","last_reported":1728835771,"current_range_meters":20400,"station_id":"ce4bhn92rcd13ifvqgrg","pricing_plan_id":"cebpf4jnsgd1na2vs0mg"},{"bike_id":"675bf0a3-6bf2-4a0b-8b30-967e70f43074","system_id":"levelo_inurba_marseille","lat":43.290131,"lon":5.356246,"is_reserved":false,"is_disabled":false,"rental_uris":{"android":"levelo://app?vid=675bf0a3-6bf2-4a0b-8b30-967e70f43074","ios":"levelo://app?vid=675bf0a3-6bf2-4a0b-8b30-967e70f43074"},"vehicle_type_id":"4","last_reported":1728835771,"current_range_meters":27600,"station_id":"ce4bhb92rcd13ifvqen0","pricing_plan_id":"cebpf4jnsgd1na2vs0mg"},{"bike_id":"b92ed8b1-4622-4df4-864e-d1f2f0385616","system_id":"levelo_inurba_marseille","lat":43.31525,"lon":5.38043,"is_reserved":false,"is_disabled":false,"rental_uris":{"android":"levelo://app?vid=b92ed8b1-4622-4df4-864e-d1f2f0385616","ios":"levelo://app?vid=b92ed8b1-4622-4df4-864e-d1f2f0385616"},"vehicle_type_id":"4","last_reported":1728835771,"current_range_meters":16000,"station_id":"ce4bhsp2rcd13ifvqi50","pricing_plan_id":"cebpf4jnsgd1na2vs0mg"},{"bike_id":"109d18b6-bfcf-4cff-85dc-bd512ce6fb2f","system_id":"levelo_inurba_marseille","lat":43.23192,"lon":5.35553,"is_reserved":false,"is_disabled":false,"rental_uris":{"android":"levelo://app?vid=109d18b6-bfcf-4cff-85dc-bd512ce6fb2f","ios":"levelo://app?vid=109d18b6-bfcf-4cff-85dc-bd512ce6fb2f"},"vehicle_type_id":"4","last_reported":1728835771,"current_range_meters":6800,"station_id":"ce4bhu92rcd13ifvqi70","pricing_plan_id":"cebpf4jnsgd1na2vs0mg"},{"bike_id":"e3cd8953-9e5a-44ad-a5cd-debf49a539ae","system_id":"levelo_inurba_marseille","lat":43.21253,"lon":5.35455,"is_reserved":false,"is_disabled":false,"rental_uris":{"android":"levelo://app?vid=e3cd8953-9e5a-44ad-a5cd-debf49a539ae","ios":"levelo://app?vid=e3cd8953-9e5a-44ad-a5cd-debf49a539ae"},"vehicle_type_id":"4","last_reported":1728835771,"current_range_meters":19600,"station_id":"","pricing_plan_id":"cebpf4jnsgd1na2vs0mg"},{"bike_id":"726ea84d-d6f3-4f63-8d10-efa74cba9883","system_id":"levelo_inurba_marseille","lat":43.24386,"lon":5.37059,"is_reserved":false,"is_disabled":false,"rental_uris":{"android":"levelo://app?vid=726ea84d-d6f3-4f63-8d10-efa74cba9883","ios":"levelo://app?vid=726ea84d-d6f3-4f63-8d10-efa74cba9883"},"vehicle_type_id":"4","last_reported":1728835771,"current_range_meters":38400,"station_id":"ce4bhhh2rcd13ifvqfk0","pricing_plan_id":"cebpf4jnsgd1na2vs0mg"},{"bike_id":"744d7d46-a030-452d-827a-600610e2a098","system_id":"levelo_inurba_marseille","lat":43.23182,"lon":5.39994,"is_reserved":false,"is_disabled":false,"rental_uris":{"android":"levelo://app?vid=744d7d46-a030-452d-827a-600610e2a098","ios":"levelo://app?vid=744d7d46-a030-452d-827a-600610e2a098"},"vehicle_type_id":"4","last_reported":1728835771,"current_range_meters":33200,"station_id":"ce4bhn12rcd13ifvqgqg","pricing_plan_id":"cebpf4jnsgd1na2vs0mg"},{"bike_id":"e6a8aec1-d448-48fb-b2d3-480453e7edf3","system_id":"levelo_inurba_marseille","lat":43.31687,"lon":5.39864,"is_reserved":false,"is_disabled":false,"rental_uris":{"android":"levelo://app?vid=e6a8aec1-d448-48fb-b2d3-480453e7edf3","ios":"levelo://app?vid=e6a8aec1-d448-48fb-b2d3-480453e7edf3"},"vehicle_type_id":"4","last_reported":1728835771,"current_range_meters":3600,"station_id":"","pricing_plan_id":"cebpf4jnsgd1na2vs0mg"},{"bike_id":"d2bd2a04-a959-4501-9807-c9a2a1986463","system_id":"levelo_inurba_marseille","lat":43.24177,"lon":5.39724,"is_reserved":false,"is_disabled":false,"rental_uris":{"android":"levelo://app?vid=d2bd2a04-a959-4501-9807-c9a2a1986463","ios":"levelo://app?vid=d2bd2a04-a959-4501-9807-c9a2a1986463"},"vehicle_type_id":"4","last_reported":1728835771,"current_range_meters":3600,"station_id":"ce4bhn12rcd13ifvqgpg","pricing_plan_id":"cebpf4jnsgd1na2vs0mg"},{"bike_id":"62609da7-5142-40dd-b8d5-96c13facecde","system_id":"levelo_inurba_marseille","lat":43.29578,"lon":5.37515,"is_reserved":false,"is_disabled":false,"rental_uris":{"android":"levelo://app?vid=62609da7-5142-40dd-b8d5-96c13facecde","ios":"levelo://app?vid=62609da7-5142-40dd-b8d5-96c13facecde"},"vehicle_type_id":"4","last_reported":1728835771,"current_range_meters":38800,"station_id":"ce4bgh92rcd13ifvqb50","pricing_plan_id":"cebpf4jnsgd1na2vs0mg"},{"bike_id":"6cb5b02c-2401-484a-8b7d-b4d2106d6b08","system_id":"levelo_inurba_marseille","lat":43.23194,"lon":5.35557,"is_reserved":false,"is_disabled":false,"rental_uris":{"android":"levelo://app?vid=6cb5b02c-2401-484a-8b7d-b4d2106d6b08","ios":"levelo://app?vid=6cb5b02c-2401-484a-8b7d-b4d2106d6b08"},"vehicle_type_id":"4","last_reported":1728835771,"current_range_meters":24800,"station_id":"ce4bhu92rcd13ifvqi70","pricing_plan_id":"cebpf4jnsgd1na2vs0mg"},{"bike_id":"2b7925ea-b982-49fb-834a-1fc6aed73b29","system_id":"levelo_inurba_marseille","lat":43.31756,"lon":5.39016,"is_reserved":false,"is_disabled":false,"rental_uris":{"android":"levelo://app?vid=2b7925ea-b982-49fb-834a-1fc6aed73b29","ios":"levelo://app?vid=2b7925ea-b982-49fb-834a-1fc6aed73b29"},"vehicle_type_id":"4","last_reported":1728835771,"current_range_meters":17600,"station_id":"ce4bhqp2rcd13ifvqhng","pricing_plan_id":"cebpf4jnsgd1na2vs0mg"},{"bike_id":"ba2beaf0-e77f-4d88-9a6e-a688b7212bea","system_id":"levelo_inurba_marseille","lat":43.28613,"lon":5.35107,"is_reserved":false,"is_disabled":false,"rental_uris":{"android":"levelo://app?vid=ba2beaf0-e77f-4d88-9a6e-a688b7212bea","ios":"levelo://app?vid=ba2beaf0-e77f-4d88-9a6e-a688b7212bea"},"vehicle_type_id":"4","last_reported":1728835771,"current_range_meters":32400,"station_id":"ce4bhch2rcd13ifvqeug","pricing_plan_id":"cebpf4jnsgd1na2vs0mg"},{"bike_id":"48d54818-8c67-43dd-82f4-e3474eda976e","system_id":"levelo_inurba_marseille","lat":43.25856,"lon":5.3991,"is_reserved":false,"is_disabled":false,"rental_uris":{"android":"levelo://app?vid=48d54818-8c67-43dd-82f4-e3474eda976e","ios":"levelo://app?vid=48d54818-8c67-43dd-82f4-e3474eda976e"},"vehicle_type_id":"4","last_reported":1728835771,"current_range_meters":32400,"station_id":"ce4bhl92rcd13ifvqghg","pricing_plan_id":"cebpf4jnsgd1na2vs0mg"},{"bike_id":"9d671549-67ad-4eb0-ace0-50f59d8a0c79","system_id":"levelo_inurba_marseille","lat":43.31109,"lon":5.38064,"is_reserved":false,"is_disabled":false,"rental_uris":{"android":"levelo://app?vid=9d671549-67ad-4eb0-ace0-50f59d8a0c79","ios":"levelo://app?vid=9d671549-67ad-4eb0-ace0-50f59d8a0c79"},"vehicle_type_id":"4","last_reported":1728835771,"current_range_meters":24000,"station_id":"ce4bgt92rcd13ifvqcf0","pricing_plan_id":"cebpf4jnsgd1na2vs0mg"},{"bike_id":"241dd592-0d68-4fe0-b08d-16485cb6d8d4","system_id":"levelo_inurba_marseille","lat":43.29615,"lon":5.38683,"is_reserved":false,"is_disabled":false,"rental_uris":{"android":"levelo://app?vid=241dd592-0d68-4fe0-b08d-16485cb6d8d4","ios":"levelo://app?vid=241dd592-0d68-4fe0-b08d-16485cb6d8d4"},"vehicle_type_id":"4","last_reported":1728835771,"current_range_meters":6400,"station_id":"ce4bh392rcd13ifvqdl0","pricing_plan_id":"cebpf4jnsgd1na2vs0mg"},{"bike_id":"34c1103d-226f-41b3-be84-9436eed01895","system_id":"levelo_inurba_marseille","lat":43.25939,"lon":5.40904,"is_reserved":false,"is_disabled":false,"rental_uris":{"android":"levelo://app?vid=34c1103d-226f-41b3-be84-9436eed01895","ios":"levelo://app?vid=34c1103d-226f-41b3-be84-9436eed01895"},"vehicle_type_id":"4","last_reported":1728835771,"current_range_meters":29600,"station_id":"ce4bhm92rcd13ifvqglg","pricing_plan_id":"cebpf4jnsgd1na2vs0mg"},{"bike_id":"8e595d25-5330-4f11-8402-2ad006ed20a6","system_id":"levelo_inurba_marseille","lat":43.24391,"lon":5.37066,"is_reserved":false,"is_disabled":false,"rental_uris":{"android":"levelo://app?vid=8e595d25-5330-4f11-8402-2ad006ed20a6","ios":"levelo://app?vid=8e595d25-5330-4f11-8402-2ad006ed20a6"},"vehicle_type_id":"4","last_reported":1728835771,"current_range_meters":9600,"station_id":"ce4bhhh2rcd13ifvqfk0","pricing_plan_id":"cebpf4jnsgd1na2vs0mg"},{"bike_id":"b933402b-d1ca-49a8-bbf7-fb19281d941c","system_id":"levelo_inurba_marseille","lat":43.23195,"lon":5.35559,"is_reserved":false,"is_disabled":false,"rental_uris":{"android":"levelo://app?vid=b933402b-d1ca-49a8-bbf7-fb19281d941c","ios":"levelo://app?vid=b933402b-d1ca-49a8-bbf7-fb19281d941c"},"vehicle_type_id":"4","last_reported":1728835771,"current_range_meters":14000,"station_id":"ce4bhu92rcd13ifvqi70","pricing_plan_id":"cebpf4jnsgd1na2vs0mg"},{"bike_id":"105bdb75-b358-4a3c-9023-7f1ac99a13a7","system_id":"levelo_inurba_marseille","lat":43.25582,"lon":5.38236,"is_reserved":false,"is_disabled":false,"rental_uris":{"android":"levelo://app?vid=105bdb75-b358-4a3c-9023-7f1ac99a13a7","ios":"levelo://app?vid=105bdb75-b358-4a3c-9023-7f1ac99a13a7"},"vehicle_type_id":"4","last_reported":1728835771,"current_range_meters":28400,"station_id":"ce4bhih2rcd13ifvqfs0","pricing_plan_id":"cebpf4jnsgd1na2vs0mg"},{"bike_id":"733c5887-06c1-48de-aecb-7ca2e78e6909","system_id":"levelo_inurba_marseille","lat":43.29709,"lon":5.3661,"is_reserved":false,"is_disabled":false,"rental_uris":{"android":"levelo://app?vid=733c5887-06c1-48de-aecb-7ca2e78e6909","ios":"levelo://app?vid=733c5887-06c1-48de-aecb-7ca2e78e6909"},"vehicle_type_id":"4","last_reported":1728835771,"current_range_meters":38800,"station_id":"ce4bgn12rcd13ifvqbt0","pricing_plan_id":"cebpf4jnsgd1na2vs0mg"},{"bike_id":"549d6d74-2989-4262-84f7-d0467c6c02f7","system_id":"levelo_inurba_marseille","lat":43.29891,"lon":5.43658,"is_reserved":false,"is_disabled":false,"rental_uris":{"android":"levelo://app?vid=549d6d74-2989-4262-84f7-d0467c6c02f7","ios":"levelo://app?vid=549d6d74-2989-4262-84f7-d0467c6c02f7"},"vehicle_type_id":"4","last_reported":1728835771,"current_range_meters":17600,"station_id":"ce4bhpp2rcd13ifvqhfg","pricing_plan_id":"cebpf4jnsgd1na2vs0mg"},{"bike_id":"ad384203-41b2-41a3-bdd9-e89e71f4a9b5","system_id":"levelo_inurba_marseille","lat":43.24387,"lon":5.37053,"is_reserved":false,"is_disabled":false,"rental_uris":{"android":"levelo://app?vid=ad384203-41b2-41a3-bdd9-e89e71f4a9b5","ios":"levelo://app?vid=ad384203-41b2-41a3-bdd9-e89e71f4a9b5"},"vehicle_type_id":"4","last_reported":1728835771,"current_range_meters":16400,"station_id":"ce4bhhh2rcd13ifvqfk0","pricing_plan_id":"cebpf4jnsgd1na2vs0mg"},{"bike_id":"932803d4-86f1-4949-8ee6-100ee72719c1","system_id":"levelo_inurba_marseille","lat":43.26201,"lon":5.37936,"is_reserved":false,"is_disabled":false,"rental_uris":{"android":"levelo://app?vid=932803d4-86f1-4949-8ee6-100ee72719c1","ios":"levelo://app?vid=932803d4-86f1-4949-8ee6-100ee72719c1"},"vehicle_type_id":"4","last_reported":1728835771,"current_range_meters":35200,"station_id":"ce4bhjp2rcd13ifvqg90","pricing_plan_id":"cebpf4jnsgd1na2vs0mg"},{"bike_id":"b66c51e4-8ae6-469d-bbcc-2bcfd33cc311","system_id":"levelo_inurba_marseille","lat":43.32334,"lon":5.40617,"is_reserved":false,"is_disabled":false,"rental_uris":{"android":"levelo://app?vid=b66c51e4-8ae6-469d-bbcc-2bcfd33cc311","ios":"levelo://app?vid=b66c51e4-8ae6-469d-bbcc-2bcfd33cc311"},"vehicle_type_id":"4","last_reported":1728835771,"current_range_meters":22000,"station_id":"ce4bhq92rcd13ifvqhjg","pricing_plan_id":"cebpf4jnsgd1na2vs0mg"},{"bike_id":"13b16909-f2b1-4383-b72e-ca81d0158d26","system_id":"levelo_inurba_marseille","lat":43.29516,"lon":5.39401,"is_reserved":false,"is_disabled":false,"rental_uris":{"android":"levelo://app?vid=13b16909-f2b1-4383-b72e-ca81d0158d26","ios":"levelo://app?vid=13b16909-f2b1-4383-b72e-ca81d0158d26"},"vehicle_type_id":"4","last_reported":1728835771,"current_range_meters":32400,"station_id":"ce4bh292rcd13ifvqdf0","pricing_plan_id":"cebpf4jnsgd1na2vs0mg"},{"bike_id":"7563807c-d27a-4161-8a5f-4b0cb3141228","system_id":"levelo_inurba_marseille","lat":43.3372,"lon":5.39188,"is_reserved":false,"is_disabled":false,"rental_uris":{"android":"levelo://app?vid=7563807c-d27a-4161-8a5f-4b0cb3141228","ios":"levelo://app?vid=7563807c-d27a-4161-8a5f-4b0cb3141228"},"vehicle_type_id":"4","last_reported":1728835771,"current_range_meters":3600,"station_id":"ce4bhr92rcd13ifvqhsg","pricing_plan_id":"cebpf4jnsgd1na2vs0mg"},{"bike_id":"5bc9b78b-9615-45c0-a888-79c429dfa74a","system_id":"levelo_inurba_marseille","lat":43.33728,"lon":5.39194,"is_reserved":false,"is_disabled":false,"rental_uris":{"android":"levelo://app?vid=5bc9b78b-9615-45c0-a888-79c429dfa74a","ios":"levelo://app?vid=5bc9b78b-9615-45c0-a888-79c429dfa74a"},"vehicle_type_id":"4","last_reported":1728835771,"current_range_meters":16800,"station_id":"ce4bhr92rcd13ifvqhsg","pricing_plan_id":"cebpf4jnsgd1na2vs0mg"},{"bike_id":"488f6d03-fffb-42a2-9813-5932509c3332","system_id":"levelo_inurba_marseille","lat":43.27474,"lon":5.36023,"is_reserved":false,"is_disabled":false,"rental_uris":{"android":"levelo://app?vid=488f6d03-fffb-42a2-9813-5932509c3332","ios":"levelo://app?vid=488f6d03-fffb-42a2-9813-5932509c3332"},"vehicle_type_id":"4","last_reported":1728835771,"current_range_meters":7200,"station_id":"","pricing_plan_id":"cebpf4jnsgd1na2vs0mg"},{"bike_id":"e1f9486c-3843-42a6-aacd-4c828c67520a","system_id":"levelo_inurba_marseille","lat":43.23053,"lon":5.3549,"is_reserved":false,"is_disabled":false,"rental_uris":{"android":"levelo://app?vid=e1f9486c-3843-42a6-aacd-4c828c67520a","ios":"levelo://app?vid=e1f9486c-3843-42a6-aacd-4c828c67520a"},"vehicle_type_id":"4","last_reported":1728835771,"current_range_meters":30000,"station_id":"cpo3342slgdg3j2ifvpg","pricing_plan_id":"cebpf4jnsgd1na2vs0mg"},{"bike_id":"91f9d3fe-c2b2-4219-be70-6132f9500b21","system_id":"levelo_inurba_marseille","lat":43.30537,"lon":5.36536,"is_reserved":false,"is_disabled":false,"rental_uris":{"android":"levelo://app?vid=91f9d3fe-c2b2-4219-be70-6132f9500b21","ios":"levelo://app?vid=91f9d3fe-c2b2-4219-be70-6132f9500b21"},"vehicle_type_id":"4","last_reported":1728835771,"current_range_meters":26800,"station_id":"ce4bgs12rcd13ifvqcag","pricing_plan_id":"cebpf4jnsgd1na2vs0mg"},{"bike_id":"729b5747-2745-44f4-8e45-767e543cac8a","system_id":"levelo_inurba_marseille","lat":43.33034,"lon":5.38936,"is_reserved":false,"is_disabled":false,"rental_uris":{"android":"levelo://app?vid=729b5747-2745-44f4-8e45-767e543cac8a","ios":"levelo://app?vid=729b5747-2745-44f4-8e45-767e543cac8a"},"vehicle_type_id":"4","last_reported":1728835771,"current_range_meters":37600,"station_id":"","pricing_plan_id":"cebpf4jnsgd1na2vs0mg"},{"bike_id":"8fb2b431-bcb9-46ba-80fb-e26e84592fc5","system_id":"levelo_inurba_marseille","lat":43.23194,"lon":5.35564,"is_reserved":false,"is_disabled":false,"rental_uris":{"android":"levelo://app?vid=8fb2b431-bcb9-46ba-80fb-e26e84592fc5","ios":"levelo://app?vid=8fb2b431-bcb9-46ba-80fb-e26e84592fc5"},"vehicle_type_id":"4","last_reported":1728835771,"current_range_meters":26800,"station_id":"ce4bhu92rcd13ifvqi70","pricing_plan_id":"cebpf4jnsgd1na2vs0mg"},{"bike_id":"cc691ba1-8ba5-4312-a899-58c4793ec853","system_id":"levelo_inurba_marseille","lat":43.31537,"lon":5.38036,"is_reserved":false,"is_disabled":false,"rental_uris":{"android":"levelo://app?vid=cc691ba1-8ba5-4312-a899-58c4793ec853","ios":"levelo://app?vid=cc691ba1-8ba5-4312-a899-58c4793ec853"},"vehicle_type_id":"4","last_reported":1728835771,"current_range_meters":20800,"station_id":"ce4bhsp2rcd13ifvqi50","pricing_plan_id":"cebpf4jnsgd1na2vs0mg"},{"bike_id":"6746abcb-d28b-4802-b21a-150ec671a4ca","system_id":"levelo_inurba_marseille","lat":43.23194,"lon":5.35552,"is_reserved":false,"is_disabled":false,"rental_uris":{"android":"levelo://app?vid=6746abcb-d28b-4802-b21a-150ec671a4ca","ios":"levelo://app?vid=6746abcb-d28b-4802-b21a-150ec671a4ca"},"vehicle_type_id":"4","last_reported":1728835771,"current_range_meters":21600,"station_id":"ce4bhu92rcd13ifvqi70","pricing_plan_id":"cebpf4jnsgd1na2vs0mg"},{"bike_id":"2ab423a0-58a0-4125-b3de-29c6611f5114","system_id":"levelo_inurba_marseille","lat":43.25087,"lon":5.39519,"is_reserved":false,"is_disabled":false,"rental_uris":{"android":"levelo://app?vid=2ab423a0-58a0-4125-b3de-29c6611f5114","ios":"levelo://app?vid=2ab423a0-58a0-4125-b3de-29c6611f5114"},"vehicle_type_id":"4","last_reported":1728835771,"current_range_meters":38800,"station_id":"ce4bhm12rcd13ifvqgkg","pricing_plan_id":"cebpf4jnsgd1na2vs0mg"},{"bike_id":"acb09437-83b8-4772-a77c-f96d21004daf","system_id":"levelo_inurba_marseille","lat":43.30883,"lon":5.37189,"is_reserved":false,"is_disabled":false,"rental_uris":{"android":"levelo://app?vid=acb09437-83b8-4772-a77c-f96d21004daf","ios":"levelo://app?vid=acb09437-83b8-4772-a77c-f96d21004daf"},"vehicle_type_id":"4","last_reported":1728835771,"current_range_meters":18000,"station_id":"ce4bguh2rcd13ifvqckg","pricing_plan_id":"cebpf4jnsgd1na2vs0mg"},{"bike_id":"336619c9-417f-4a5c-a9f4-fb7e3ec6b1d5","system_id":"levelo_inurba_marseille","lat":43.28347,"lon":5.38108,"is_reserved":false,"is_disabled":false,"rental_uris":{"android":"levelo://app?vid=336619c9-417f-4a5c-a9f4-fb7e3ec6b1d5","ios":"levelo://app?vid=336619c9-417f-4a5c-a9f4-fb7e3ec6b1d5"},"vehicle_type_id":"4","last_reported":1728835771,"current_range_meters":22000,"station_id":"ce4bh412rcd13ifvqdr0","pricing_plan_id":"cebpf4jnsgd1na2vs0mg"},{"bike_id":"a9d8d00f-2b10-40cd-af9b-04b4ae45f2bc","system_id":"levelo_inurba_marseille","lat":43.24393,"lon":5.3706,"is_reserved":false,"is_disabled":false,"rental_uris":{"android":"levelo://app?vid=a9d8d00f-2b10-40cd-af9b-04b4ae45f2bc","ios":"levelo://app?vid=a9d8d00f-2b10-40cd-af9b-04b4ae45f2bc"},"vehicle_type_id":"4","last_reported":1728835771,"current_range_meters":22400,"station_id":"ce4bhhh2rcd13ifvqfk0","pricing_plan_id":"cebpf4jnsgd1na2vs0mg"},{"bike_id":"2d61b16c-cdd9-4c19-8c73-73f3c036212e","system_id":"levelo_inurba_marseille","lat":43.30275,"lon":5.39685,"is_reserved":false,"is_disabled":false,"rental_uris":{"android":"levelo://app?vid=2d61b16c-cdd9-4c19-8c73-73f3c036212e","ios":"levelo://app?vid=2d61b16c-cdd9-4c19-8c73-73f3c036212e"},"vehicle_type_id":"4","last_reported":1728835771,"current_range_meters":7200,"station_id":"ce4bh092rcd13ifvqd20","pricing_plan_id":"cebpf4jnsgd1na2vs0mg"},{"bike_id":"d7ed9a21-0e85-466b-84e2-bc5a3810ccb9","system_id":"levelo_inurba_marseille","lat":43.282623,"lon":5.350528,"is_reserved":false,"is_disabled":false,"rental_uris":{"android":"levelo://app?vid=d7ed9a21-0e85-466b-84e2-bc5a3810ccb9","ios":"levelo://app?vid=d7ed9a21-0e85-466b-84e2-bc5a3810ccb9"},"vehicle_type_id":"4","last_reported":1728835771,"current_range_meters":6800,"station_id":"ce4bhbp2rcd13ifvqerg","pricing_plan_id":"cebpf4jnsgd1na2vs0mg"},{"bike_id":"def16276-18da-47cf-b893-473f96525730","system_id":"levelo_inurba_marseille","lat":43.23969,"lon":5.36622,"is_reserved":false,"is_disabled":false,"rental_uris":{"android":"levelo://app?vid=def16276-18da-47cf-b893-473f96525730","ios":"levelo://app?vid=def16276-18da-47cf-b893-473f96525730"},"vehicle_type_id":"4","last_reported":1728835771,"current_range_meters":34800,"station_id":"ce4bhi12rcd13ifvqfp0","pricing_plan_id":"cebpf4jnsgd1na2vs0mg"},{"bike_id":"aa94dfd2-1ed1-43df-a438-34e39f771f63","system_id":"levelo_inurba_marseille","lat":43.24389,"lon":5.37062,"is_reserved":false,"is_disabled":false,"rental_uris":{"android":"levelo://app?vid=aa94dfd2-1ed1-43df-a438-34e39f771f63","ios":"levelo://app?vid=aa94dfd2-1ed1-43df-a438-34e39f771f63"},"vehicle_type_id":"4","last_reported":1728835771,"current_range_meters":9600,"station_id":"ce4bhhh2rcd13ifvqfk0","pricing_plan_id":"cebpf4jnsgd1na2vs0mg"},{"bike_id":"7c095d3c-604a-4602-b927-64e3a8b70e01","system_id":"levelo_inurba_marseille","lat":43.29032,"lon":5.37567,"is_reserved":false,"is_disabled":false,"rental_uris":{"android":"levelo://app?vid=7c095d3c-604a-4602-b927-64e3a8b70e01","ios":"levelo://app?vid=7c095d3c-604a-4602-b927-64e3a8b70e01"},"vehicle_type_id":"4","last_reported":1728835771,"current_range_meters":34800,"station_id":"ce4bh692rcd13ifvqe90","pricing_plan_id":"cebpf4jnsgd1na2vs0mg"},{"bike_id":"cdde71fa-933f-47ef-8a23-39142a076aea","system_id":"levelo_inurba_marseille","lat":43.29549,"lon":5.42286,"is_reserved":false,"is_disabled":false,"rental_uris":{"android":"levelo://app?vid=cdde71fa-933f-47ef-8a23-39142a076aea","ios":"levelo://app?vid=cdde71fa-933f-47ef-8a23-39142a076aea"},"vehicle_type_id":"4","last_reported":1728835771,"current_range_meters":38800,"station_id":"ce4bhph2rcd13ifvqhdg","pricing_plan_id":"cebpf4jnsgd1na2vs0mg"},{"bike_id":"56c2ddd8-545f-40f6-9224-3e0220b75fdc","system_id":"levelo_inurba_marseille","lat":43.30545,"lon":5.36554,"is_reserved":false,"is_disabled":false,"rental_uris":{"android":"levelo://app?vid=56c2ddd8-545f-40f6-9224-3e0220b75fdc","ios":"levelo://app?vid=56c2ddd8-545f-40f6-9224-3e0220b75fdc"},"vehicle_type_id":"4","last_reported":1728835771,"current_range_meters":13600,"station_id":"ce4bgs12rcd13ifvqcag","pricing_plan_id":"cebpf4jnsgd1na2vs0mg"},{"bike_id":"49316722-f5ca-469e-b328-cdeaebfb0c7f","system_id":"levelo_inurba_marseille","lat":43.23958,"lon":5.36628,"is_reserved":false,"is_disabled":false,"rental_uris":{"android":"levelo://app?vid=49316722-f5ca-469e-b328-cdeaebfb0c7f","ios":"levelo://app?vid=49316722-f5ca-469e-b328-cdeaebfb0c7f"},"vehicle_type_id":"4","last_reported":1728835771,"current_range_meters":38800,"station_id":"ce4bhi12rcd13ifvqfp0","pricing_plan_id":"cebpf4jnsgd1na2vs0mg"},{"bike_id":"25bc16c1-4015-4301-84ca-1b4503b86321","system_id":"levelo_inurba_marseille","lat":43.29198,"lon":5.35812,"is_reserved":false,"is_disabled":false,"rental_uris":{"android":"levelo://app?vid=25bc16c1-4015-4301-84ca-1b4503b86321","ios":"levelo://app?vid=25bc16c1-4015-4301-84ca-1b4503b86321"},"vehicle_type_id":"4","last_reported":1728835771,"current_range_meters":37600,"station_id":"ce4bhb12rcd13ifvqel0","pricing_plan_id":"cebpf4jnsgd1na2vs0mg"},{"bike_id":"46241f83-05b6-448d-a033-6b1fac2b6a3c","system_id":"levelo_inurba_marseille","lat":43.30086,"lon":5.39071,"is_reserved":false,"is_disabled":false,"rental_uris":{"android":"levelo://app?vid=46241f83-05b6-448d-a033-6b1fac2b6a3c","ios":"levelo://app?vid=46241f83-05b6-448d-a033-6b1fac2b6a3c"},"vehicle_type_id":"4","last_reported":1728835771,"current_range_meters":7200,"station_id":"ce4bh192rcd13ifvqdb0","pricing_plan_id":"cebpf4jnsgd1na2vs0mg"},{"bike_id":"7b20509d-3e68-45a9-908c-1764325c91a4","system_id":"levelo_inurba_marseille","lat":43.23187,"lon":5.35557,"is_reserved":false,"is_disabled":false,"rental_uris":{"android":"levelo://app?vid=7b20509d-3e68-45a9-908c-1764325c91a4","ios":"levelo://app?vid=7b20509d-3e68-45a9-908c-1764325c91a4"},"vehicle_type_id":"4","last_reported":1728835771,"current_range_meters":4000,"station_id":"ce4bhu92rcd13ifvqi70","pricing_plan_id":"cebpf4jnsgd1na2vs0mg"},{"bike_id":"aad69708-28ac-43e6-945e-619f5a7c6bfd","system_id":"levelo_inurba_marseille","lat":43.33781,"lon":5.37443,"is_reserved":false,"is_disabled":false,"rental_uris":{"android":"levelo://app?vid=aad69708-28ac-43e6-945e-619f5a7c6bfd","ios":"levelo://app?vid=aad69708-28ac-43e6-945e-619f5a7c6bfd"},"vehicle_type_id":"4","last_reported":1728835771,"current_range_meters":32800,"station_id":"","pricing_plan_id":"cebpf4jnsgd1na2vs0mg"},{"bike_id":"a64fbd1a-b4c1-4c4c-9861-8c2d9d062b3b","system_id":"levelo_inurba_marseille","lat":43.29273,"lon":5.36847,"is_reserved":false,"is_disabled":false,"rental_uris":{"android":"levelo://app?vid=a64fbd1a-b4c1-4c4c-9861-8c2d9d062b3b","ios":"levelo://app?vid=a64fbd1a-b4c1-4c4c-9861-8c2d9d062b3b"},"vehicle_type_id":"4","last_reported":1728835771,"current_range_meters":4000,"station_id":"ce4bhbp2rcd13ifvqesg","pricing_plan_id":"cebpf4jnsgd1na2vs0mg"},{"bike_id":"5a98864f-a04f-43d1-80fa-9b97602d7570","system_id":"levelo_inurba_marseille","lat":43.2396,"lon":5.36631,"is_reserved":false,"is_disabled":false,"rental_uris":{"android":"levelo://app?vid=5a98864f-a04f-43d1-80fa-9b97602d7570","ios":"levelo://app?vid=5a98864f-a04f-43d1-80fa-9b97602d7570"},"vehicle_type_id":"4","last_reported":1728835771,"current_range_meters":23200,"station_id":"ce4bhi12rcd13ifvqfp0","pricing_plan_id":"cebpf4jnsgd1na2vs0mg"},{"bike_id":"1b1910a5-6c57-4923-ad87-d8327e4d78db","system_id":"levelo_inurba_marseille","lat":43.318848,"lon":5.407474,"is_reserved":false,"is_disabled":false,"rental_uris":{"android":"levelo://app?vid=1b1910a5-6c57-4923-ad87-d8327e4d78db","ios":"levelo://app?vid=1b1910a5-6c57-4923-ad87-d8327e4d78db"},"vehicle_type_id":"4","last_reported":1728835771,"current_range_meters":24800,"station_id":"ce4bh092rcd13ifvqd20","pricing_plan_id":"cebpf4jnsgd1na2vs0mg"},{"bike_id":"3a5f744b-73bb-4cbc-97fa-8c102c9deea8","system_id":"levelo_inurba_marseille","lat":43.32472,"lon":5.36567,"is_reserved":false,"is_disabled":false,"rental_uris":{"android":"levelo://app?vid=3a5f744b-73bb-4cbc-97fa-8c102c9deea8","ios":"levelo://app?vid=3a5f744b-73bb-4cbc-97fa-8c102c9deea8"},"vehicle_type_id":"4","last_reported":1728835771,"current_range_meters":12800,"station_id":"ce4bhs12rcd13ifvqhvg","pricing_plan_id":"cebpf4jnsgd1na2vs0mg"},{"bike_id":"8509fa5d-c6d9-4cb2-b4b1-4f2065b2666e","system_id":"levelo_inurba_marseille","lat":43.28344,"lon":5.41016,"is_reserved":false,"is_disabled":false,"rental_uris":{"android":"levelo://app?vid=8509fa5d-c6d9-4cb2-b4b1-4f2065b2666e","ios":"levelo://app?vid=8509fa5d-c6d9-4cb2-b4b1-4f2065b2666e"},"vehicle_type_id":"4","last_reported":1728835771,"current_range_meters":2800,"station_id":"","pricing_plan_id":"cebpf4jnsgd1na2vs0mg"},{"bike_id":"125b3a72-de06-42d7-92c4-889296f92e6d","system_id":"levelo_inurba_marseille","lat":43.239838,"lon":5.366706,"is_reserved":false,"is_disabled":false,"rental_uris":{"android":"levelo://app?vid=125b3a72-de06-42d7-92c4-889296f92e6d","ios":"levelo://app?vid=125b3a72-de06-42d7-92c4-889296f92e6d"},"vehicle_type_id":"4","last_reported":1728835771,"current_range_meters":11600,"station_id":"ce4bh112rcd13ifvqda0","pricing_plan_id":"cebpf4jnsgd1na2vs0mg"},{"bike_id":"8eb33ee8-9870-429c-82a1-1abdb56ce667","system_id":"levelo_inurba_marseille","lat":43.31331,"lon":5.38516,"is_reserved":false,"is_disabled":false,"rental_uris":{"android":"levelo://app?vid=8eb33ee8-9870-429c-82a1-1abdb56ce667","ios":"levelo://app?vid=8eb33ee8-9870-429c-82a1-1abdb56ce667"},"vehicle_type_id":"4","last_reported":1728835771,"current_range_meters":14800,"station_id":"ce4bhq92rcd13ifvqhjg","pricing_plan_id":"cebpf4jnsgd1na2vs0mg"},{"bike_id":"570a6b9c-6c36-4094-a9e8-7a8afae4a727","system_id":"levelo_inurba_marseille","lat":43.29697,"lon":5.36617,"is_reserved":false,"is_disabled":false,"rental_uris":{"android":"levelo://app?vid=570a6b9c-6c36-4094-a9e8-7a8afae4a727","ios":"levelo://app?vid=570a6b9c-6c36-4094-a9e8-7a8afae4a727"},"vehicle_type_id":"4","last_reported":1728835771,"current_range_meters":38400,"station_id":"ce4bgn12rcd13ifvqbt0","pricing_plan_id":"cebpf4jnsgd1na2vs0mg"},{"bike_id":"2489290b-d68c-4d74-8df9-d07018c7c90f","system_id":"levelo_inurba_marseille","lat":43.24392,"lon":5.37071,"is_reserved":false,"is_disabled":false,"rental_uris":{"android":"levelo://app?vid=2489290b-d68c-4d74-8df9-d07018c7c90f","ios":"levelo://app?vid=2489290b-d68c-4d74-8df9-d07018c7c90f"},"vehicle_type_id":"4","last_reported":1728835771,"current_range_meters":33200,"station_id":"ce4bhhh2rcd13ifvqfk0","pricing_plan_id":"cebpf4jnsgd1na2vs0mg"},{"bike_id":"6586c532-a2b2-4db7-90ee-1853127c7072","system_id":"levelo_inurba_marseille","lat":43.29433,"lon":5.39753,"is_reserved":false,"is_disabled":false,"rental_uris":{"android":"levelo://app?vid=6586c532-a2b2-4db7-90ee-1853127c7072","ios":"levelo://app?vid=6586c532-a2b2-4db7-90ee-1853127c7072"},"vehicle_type_id":"4","last_reported":1728835771,"current_range_meters":20400,"station_id":"ce4bh3h2rcd13ifvqdo0","pricing_plan_id":"cebpf4jnsgd1na2vs0mg"},{"bike_id":"27311a75-ebb6-43d6-9fb5-f3ba72a10e0e","system_id":"levelo_inurba_marseille","lat":43.299,"lon":5.43657,"is_reserved":false,"is_disabled":false,"rental_uris":{"android":"levelo://app?vid=27311a75-ebb6-43d6-9fb5-f3ba72a10e0e","ios":"levelo://app?vid=27311a75-ebb6-43d6-9fb5-f3ba72a10e0e"},"vehicle_type_id":"4","last_reported":1728835771,"current_range_meters":17200,"station_id":"ce4bhpp2rcd13ifvqhfg","pricing_plan_id":"cebpf4jnsgd1na2vs0mg"},{"bike_id":"5999e33c-d82c-4738-b738-d4dba87a73c3","system_id":"levelo_inurba_marseille","lat":43.32334,"lon":5.40635,"is_reserved":false,"is_disabled":false,"rental_uris":{"android":"levelo://app?vid=5999e33c-d82c-4738-b738-d4dba87a73c3","ios":"levelo://app?vid=5999e33c-d82c-4738-b738-d4dba87a73c3"},"vehicle_type_id":"4","last_reported":1728835771,"current_range_meters":24000,"station_id":"ce4bhq92rcd13ifvqhjg","pricing_plan_id":"cebpf4jnsgd1na2vs0mg"},{"bike_id":"5307291f-9aa4-4052-89fc-21b2f93f163f","system_id":"levelo_inurba_marseille","lat":43.229375,"lon":5.353765,"is_reserved":false,"is_disabled":false,"rental_uris":{"android":"levelo://app?vid=5307291f-9aa4-4052-89fc-21b2f93f163f","ios":"levelo://app?vid=5307291f-9aa4-4052-89fc-21b2f93f163f"},"vehicle_type_id":"4","last_reported":1728835771,"current_range_meters":14000,"station_id":"ce4bhnh2rcd13ifvqgtg","pricing_plan_id":"cebpf4jnsgd1na2vs0mg"},{"bike_id":"b1483e38-92bb-491a-bacd-a2dca6f92aca","system_id":"levelo_inurba_marseille","lat":43.23061,"lon":5.35489,"is_reserved":false,"is_disabled":false,"rental_uris":{"android":"levelo://app?vid=b1483e38-92bb-491a-bacd-a2dca6f92aca","ios":"levelo://app?vid=b1483e38-92bb-491a-bacd-a2dca6f92aca"},"vehicle_type_id":"4","last_reported":1728835771,"current_range_meters":6800,"station_id":"cpo3342slgdg3j2ifvpg","pricing_plan_id":"cebpf4jnsgd1na2vs0mg"},{"bike_id":"c125659c-958d-46e0-903b-368579960dd5","system_id":"levelo_inurba_marseille","lat":43.24389,"lon":5.37052,"is_reserved":false,"is_disabled":false,"rental_uris":{"android":"levelo://app?vid=c125659c-958d-46e0-903b-368579960dd5","ios":"levelo://app?vid=c125659c-958d-46e0-903b-368579960dd5"},"vehicle_type_id":"4","last_reported":1728835771,"current_range_meters":27200,"station_id":"ce4bhhh2rcd13ifvqfk0","pricing_plan_id":"cebpf4jnsgd1na2vs0mg"},{"bike_id":"a3a84477-5d10-49c6-9fb2-19ecf72eca2a","system_id":"levelo_inurba_marseille","lat":43.23054,"lon":5.35495,"is_reserved":false,"is_disabled":false,"rental_uris":{"android":"levelo://app?vid=a3a84477-5d10-49c6-9fb2-19ecf72eca2a","ios":"levelo://app?vid=a3a84477-5d10-49c6-9fb2-19ecf72eca2a"},"vehicle_type_id":"4","last_reported":1728835771,"current_range_meters":7200,"station_id":"cpo3342slgdg3j2ifvpg","pricing_plan_id":"cebpf4jnsgd1na2vs0mg"},{"bike_id":"7456dac3-d687-43cd-9d8b-e22d909234e7","system_id":"levelo_inurba_marseille","lat":43.32163,"lon":5.38894,"is_reserved":false,"is_disabled":false,"rental_uris":{"android":"levelo://app?vid=7456dac3-d687-43cd-9d8b-e22d909234e7","ios":"levelo://app?vid=7456dac3-d687-43cd-9d8b-e22d909234e7"},"vehicle_type_id":"4","last_reported":1728835771,"current_range_meters":6800,"station_id":"ce4bhr12rcd13ifvqhqg","pricing_plan_id":"cebpf4jnsgd1na2vs0mg"},{"bike_id":"cba59919-95e6-42ff-83c9-6bcf45674d60","system_id":"levelo_inurba_marseille","lat":43.32336,"lon":5.38328,"is_reserved":false,"is_disabled":false,"rental_uris":{"android":"levelo://app?vid=cba59919-95e6-42ff-83c9-6bcf45674d60","ios":"levelo://app?vid=cba59919-95e6-42ff-83c9-6bcf45674d60"},"vehicle_type_id":"4","last_reported":1728835771,"current_range_meters":38800,"station_id":"","pricing_plan_id":"cebpf4jnsgd1na2vs0mg"},{"bike_id":"3a9c5f32-9d8b-41d4-a424-ff9ac23d0ae3","system_id":"levelo_inurba_marseille","lat":43.30788,"lon":5.37649,"is_reserved":false,"is_disabled":false,"rental_uris":{"android":"levelo://app?vid=3a9c5f32-9d8b-41d4-a424-ff9ac23d0ae3","ios":"levelo://app?vid=3a9c5f32-9d8b-41d4-a424-ff9ac23d0ae3"},"vehicle_type_id":"4","last_reported":1728835771,"current_range_meters":36000,"station_id":"ce4bgv92rcd13ifvqcq0","pricing_plan_id":"cebpf4jnsgd1na2vs0mg"},{"bike_id":"610bfb8b-3e91-4e90-b1f9-7f3d953e2cb4","system_id":"levelo_inurba_marseille","lat":43.24396,"lon":5.37067,"is_reserved":false,"is_disabled":false,"rental_uris":{"android":"levelo://app?vid=610bfb8b-3e91-4e90-b1f9-7f3d953e2cb4","ios":"levelo://app?vid=610bfb8b-3e91-4e90-b1f9-7f3d953e2cb4"},"vehicle_type_id":"4","last_reported":1728835771,"current_range_meters":20800,"station_id":"ce4bhhh2rcd13ifvqfk0","pricing_plan_id":"cebpf4jnsgd1na2vs0mg"},{"bike_id":"555e5659-0e16-41e4-b7df-62030b03e6ca","system_id":"levelo_inurba_marseille","lat":43.32365,"lon":5.38649,"is_reserved":false,"is_disabled":false,"rental_uris":{"android":"levelo://app?vid=555e5659-0e16-41e4-b7df-62030b03e6ca","ios":"levelo://app?vid=555e5659-0e16-41e4-b7df-62030b03e6ca"},"vehicle_type_id":"4","last_reported":1728835771,"current_range_meters":26000,"station_id":"","pricing_plan_id":"cebpf4jnsgd1na2vs0mg"},{"bike_id":"5e9bb8f9-696e-4771-9449-537974ae54c8","system_id":"levelo_inurba_marseille","lat":43.265503,"lon":5.390175,"is_reserved":false,"is_disabled":false,"rental_uris":{"android":"levelo://app?vid=5e9bb8f9-696e-4771-9449-537974ae54c8","ios":"levelo://app?vid=5e9bb8f9-696e-4771-9449-537974ae54c8"},"vehicle_type_id":"4","last_reported":1728835771,"current_range_meters":8400,"station_id":"ce4bhe12rcd13ifvqf30","pricing_plan_id":"cebpf4jnsgd1na2vs0mg"},{"bike_id":"89ae8fe5-03c1-4b3a-9bdb-367351d52050","system_id":"levelo_inurba_marseille","lat":43.26956,"lon":5.38622,"is_reserved":false,"is_disabled":false,"rental_uris":{"android":"levelo://app?vid=89ae8fe5-03c1-4b3a-9bdb-367351d52050","ios":"levelo://app?vid=89ae8fe5-03c1-4b3a-9bdb-367351d52050"},"vehicle_type_id":"4","last_reported":1728835771,"current_range_meters":36800,"station_id":"ce4bhh92rcd13ifvqfh0","pricing_plan_id":"cebpf4jnsgd1na2vs0mg"},{"bike_id":"eddddcae-ec5d-43de-a9af-6e31c4347144","system_id":"levelo_inurba_marseille","lat":43.2388,"lon":5.371078,"is_reserved":false,"is_disabled":false,"rental_uris":{"android":"levelo://app?vid=eddddcae-ec5d-43de-a9af-6e31c4347144","ios":"levelo://app?vid=eddddcae-ec5d-43de-a9af-6e31c4347144"},"vehicle_type_id":"4","last_reported":1728835771,"current_range_meters":26800,"station_id":"","pricing_plan_id":"cebpf4jnsgd1na2vs0mg"},{"bike_id":"60b5543d-1a05-461f-b8de-e22995173343","system_id":"levelo_inurba_marseille","lat":43.24549,"lon":5.39522,"is_reserved":false,"is_disabled":false,"rental_uris":{"android":"levelo://app?vid=60b5543d-1a05-461f-b8de-e22995173343","ios":"levelo://app?vid=60b5543d-1a05-461f-b8de-e22995173343"},"vehicle_type_id":"4","last_reported":1728835771,"current_range_meters":38800,"station_id":"ce4bhlp2rcd13ifvqgjg","pricing_plan_id":"cebpf4jnsgd1na2vs0mg"},{"bike_id":"93b27a53-ca87-42cc-a558-985f0164192b","system_id":"levelo_inurba_marseille","lat":43.29656,"lon":5.40009,"is_reserved":false,"is_disabled":false,"rental_uris":{"android":"levelo://app?vid=93b27a53-ca87-42cc-a558-985f0164192b","ios":"levelo://app?vid=93b27a53-ca87-42cc-a558-985f0164192b"},"vehicle_type_id":"4","last_reported":1728835771,"current_range_meters":9200,"station_id":"","pricing_plan_id":"cebpf4jnsgd1na2vs0mg"},{"bike_id":"cb1c617d-ddcb-48ca-b1eb-5a9f446ff012","system_id":"levelo_inurba_marseille","lat":43.29507,"lon":5.38711,"is_reserved":false,"is_disabled":false,"rental_uris":{"android":"levelo://app?vid=cb1c617d-ddcb-48ca-b1eb-5a9f446ff012","ios":"levelo://app?vid=cb1c617d-ddcb-48ca-b1eb-5a9f446ff012"},"vehicle_type_id":"4","last_reported":1728835771,"current_range_meters":19600,"station_id":"","pricing_plan_id":"cebpf4jnsgd1na2vs0mg"},{"bike_id":"8eb5e8c7-5ba5-4d04-9248-917b20970616","system_id":"levelo_inurba_marseille","lat":43.24172,"lon":5.36403,"is_reserved":false,"is_disabled":false,"rental_uris":{"android":"levelo://app?vid=8eb5e8c7-5ba5-4d04-9248-917b20970616","ios":"levelo://app?vid=8eb5e8c7-5ba5-4d04-9248-917b20970616"},"vehicle_type_id":"4","last_reported":1728835771,"current_range_meters":32800,"station_id":"cpo36qri1sfpv3e86is0","pricing_plan_id":"cebpf4jnsgd1na2vs0mg"},{"bike_id":"63bb0abb-b0f6-472f-bbdb-b3213a19ed02","system_id":"levelo_inurba_marseille","lat":43.2803,"lon":5.36944,"is_reserved":false,"is_disabled":false,"rental_uris":{"android":"levelo://app?vid=63bb0abb-b0f6-472f-bbdb-b3213a19ed02","ios":"levelo://app?vid=63bb0abb-b0f6-472f-bbdb-b3213a19ed02"},"vehicle_type_id":"4","last_reported":1728835771,"current_range_meters":15200,"station_id":"ce4bha12rcd13ifvqef0","pricing_plan_id":"cebpf4jnsgd1na2vs0mg"},{"bike_id":"adf7f252-dbc1-459a-8043-ad1f1eca0157","system_id":"levelo_inurba_marseille","lat":43.33722,"lon":5.39184,"is_reserved":false,"is_disabled":false,"rental_uris":{"android":"levelo://app?vid=adf7f252-dbc1-459a-8043-ad1f1eca0157","ios":"levelo://app?vid=adf7f252-dbc1-459a-8043-ad1f1eca0157"},"vehicle_type_id":"4","last_reported":1728835771,"current_range_meters":33200,"station_id":"ce4bhr92rcd13ifvqhsg","pricing_plan_id":"cebpf4jnsgd1na2vs0mg"},{"bike_id":"144a35c8-b046-4c70-aa0a-7998d09012a8","system_id":"levelo_inurba_marseille","lat":43.29777,"lon":5.37106,"is_reserved":false,"is_disabled":false,"rental_uris":{"android":"levelo://app?vid=144a35c8-b046-4c70-aa0a-7998d09012a8","ios":"levelo://app?vid=144a35c8-b046-4c70-aa0a-7998d09012a8"},"vehicle_type_id":"4","last_reported":1728835771,"current_range_meters":38800,"station_id":"ce4bgop2rcd13ifvqc1g","pricing_plan_id":"cebpf4jnsgd1na2vs0mg"},{"bike_id":"5c241f7f-3c7a-4947-88a4-9c035026e8b9","system_id":"levelo_inurba_marseille","lat":43.24649,"lon":5.38896,"is_reserved":false,"is_disabled":false,"rental_uris":{"android":"levelo://app?vid=5c241f7f-3c7a-4947-88a4-9c035026e8b9","ios":"levelo://app?vid=5c241f7f-3c7a-4947-88a4-9c035026e8b9"},"vehicle_type_id":"4","last_reported":1728835771,"current_range_meters":10800,"station_id":"ce4bhg12rcd13ifvqf60","pricing_plan_id":"cebpf4jnsgd1na2vs0mg"},{"bike_id":"d9e474e5-09ff-4379-a013-7d7ba9a15ce3","system_id":"levelo_inurba_marseille","lat":43.29527,"lon":5.39041,"is_reserved":false,"is_disabled":false,"rental_uris":{"android":"levelo://app?vid=d9e474e5-09ff-4379-a013-7d7ba9a15ce3","ios":"levelo://app?vid=d9e474e5-09ff-4379-a013-7d7ba9a15ce3"},"vehicle_type_id":"4","last_reported":1728835771,"current_range_meters":3600,"station_id":"ce4bh3p2rcd13ifvqdp0","pricing_plan_id":"cebpf4jnsgd1na2vs0mg"},{"bike_id":"c9f0461d-c198-499d-98c7-686edb27bdbb","system_id":"levelo_inurba_marseille","lat":43.27374,"lon":5.36257,"is_reserved":false,"is_disabled":false,"rental_uris":{"android":"levelo://app?vid=c9f0461d-c198-499d-98c7-686edb27bdbb","ios":"levelo://app?vid=c9f0461d-c198-499d-98c7-686edb27bdbb"},"vehicle_type_id":"4","last_reported":1728835771,"current_range_meters":6400,"station_id":"ce4bhbh2rcd13ifvqeo0","pricing_plan_id":"cebpf4jnsgd1na2vs0mg"},{"bike_id":"9b1f639f-65ac-410b-9fc0-63a994e7977b","system_id":"levelo_inurba_marseille","lat":43.31079,"lon":5.42433,"is_reserved":false,"is_disabled":false,"rental_uris":{"android":"levelo://app?vid=9b1f639f-65ac-410b-9fc0-63a994e7977b","ios":"levelo://app?vid=9b1f639f-65ac-410b-9fc0-63a994e7977b"},"vehicle_type_id":"4","last_reported":1728835771,"current_range_meters":17200,"station_id":"ce4bhp92rcd13ifvqhag","pricing_plan_id":"cebpf4jnsgd1na2vs0mg"},{"bike_id":"0fe37e89-fefc-4545-8187-5b1fdd7e5f70","system_id":"levelo_inurba_marseille","lat":43.322597,"lon":5.386693,"is_reserved":false,"is_disabled":false,"rental_uris":{"android":"levelo://app?vid=0fe37e89-fefc-4545-8187-5b1fdd7e5f70","ios":"levelo://app?vid=0fe37e89-fefc-4545-8187-5b1fdd7e5f70"},"vehicle_type_id":"4","last_reported":1728835771,"current_range_meters":8000,"station_id":"","pricing_plan_id":"cebpf4jnsgd1na2vs0mg"},{"bike_id":"9d960984-c801-496e-bb50-c485ac295345","system_id":"levelo_inurba_marseille","lat":43.30356,"lon":5.41888,"is_reserved":false,"is_disabled":false,"rental_uris":{"android":"levelo://app?vid=9d960984-c801-496e-bb50-c485ac295345","ios":"levelo://app?vid=9d960984-c801-496e-bb50-c485ac295345"},"vehicle_type_id":"4","last_reported":1728835771,"current_range_meters":26000,"station_id":"ce4bhop2rcd13ifvqh7g","pricing_plan_id":"cebpf4jnsgd1na2vs0mg"},{"bike_id":"2f19d9b2-60a0-45bf-bf48-04c9ce231242","system_id":"levelo_inurba_marseille","lat":43.25576,"lon":5.38246,"is_reserved":false,"is_disabled":false,"rental_uris":{"android":"levelo://app?vid=2f19d9b2-60a0-45bf-bf48-04c9ce231242","ios":"levelo://app?vid=2f19d9b2-60a0-45bf-bf48-04c9ce231242"},"vehicle_type_id":"4","last_reported":1728835771,"current_range_meters":7200,"station_id":"ce4bhih2rcd13ifvqfs0","pricing_plan_id":"cebpf4jnsgd1na2vs0mg"},{"bike_id":"5afc86c6-823a-47f4-8156-ecdb6ff5b801","system_id":"levelo_inurba_marseille","lat":43.29089,"lon":5.38125,"is_reserved":false,"is_disabled":false,"rental_uris":{"android":"levelo://app?vid=5afc86c6-823a-47f4-8156-ecdb6ff5b801","ios":"levelo://app?vid=5afc86c6-823a-47f4-8156-ecdb6ff5b801"},"vehicle_type_id":"4","last_reported":1728835771,"current_range_meters":38400,"station_id":"ce4bh512rcd13ifvqe2g","pricing_plan_id":"cebpf4jnsgd1na2vs0mg"},{"bike_id":"3f94f3d1-8555-49cd-9693-d0d079d66b53","system_id":"levelo_inurba_marseille","lat":43.29848,"lon":5.36294,"is_reserved":false,"is_disabled":false,"rental_uris":{"android":"levelo://app?vid=3f94f3d1-8555-49cd-9693-d0d079d66b53","ios":"levelo://app?vid=3f94f3d1-8555-49cd-9693-d0d079d66b53"},"vehicle_type_id":"4","last_reported":1728835771,"current_range_meters":6000,"station_id":"ce4bgpp2rcd13ifvqc3g","pricing_plan_id":"cebpf4jnsgd1na2vs0mg"},{"bike_id":"f76f7cf9-5a35-462b-a0e0-61398d3d378c","system_id":"levelo_inurba_marseille","lat":43.28945,"lon":5.36401,"is_reserved":false,"is_disabled":false,"rental_uris":{"android":"levelo://app?vid=f76f7cf9-5a35-462b-a0e0-61398d3d378c","ios":"levelo://app?vid=f76f7cf9-5a35-462b-a0e0-61398d3d378c"},"vehicle_type_id":"4","last_reported":1728835771,"current_range_meters":14800,"station_id":"ce4bhc92rcd13ifvqetg","pricing_plan_id":"cebpf4jnsgd1na2vs0mg"},{"bike_id":"8959e646-d53c-4e80-934c-668284561737","system_id":"levelo_inurba_marseille","lat":43.22937,"lon":5.353766,"is_reserved":false,"is_disabled":false,"rental_uris":{"android":"levelo://app?vid=8959e646-d53c-4e80-934c-668284561737","ios":"levelo://app?vid=8959e646-d53c-4e80-934c-668284561737"},"vehicle_type_id":"4","last_reported":1728835771,"current_range_meters":6400,"station_id":"cpo3532slgdg3j2ikp40","pricing_plan_id":"cebpf4jnsgd1na2vs0mg"},{"bike_id":"600a6ea5-5c70-4f25-9b57-c621b8210681","system_id":"levelo_inurba_marseille","lat":43.32666,"lon":5.40983,"is_reserved":false,"is_disabled":false,"rental_uris":{"android":"levelo://app?vid=600a6ea5-5c70-4f25-9b57-c621b8210681","ios":"levelo://app?vid=600a6ea5-5c70-4f25-9b57-c621b8210681"},"vehicle_type_id":"4","last_reported":1728835771,"current_range_meters":27600,"station_id":"ce4bhpp2rcd13ifvqhgg","pricing_plan_id":"cebpf4jnsgd1na2vs0mg"},{"bike_id":"ec459838-8836-4c06-b999-7605dedea091","system_id":"levelo_inurba_marseille","lat":43.23197,"lon":5.35546,"is_reserved":false,"is_disabled":false,"rental_uris":{"android":"levelo://app?vid=ec459838-8836-4c06-b999-7605dedea091","ios":"levelo://app?vid=ec459838-8836-4c06-b999-7605dedea091"},"vehicle_type_id":"4","last_reported":1728835771,"current_range_meters":24800,"station_id":"ce4bhu92rcd13ifvqi70","pricing_plan_id":"cebpf4jnsgd1na2vs0mg"},{"bike_id":"cc05b1c5-ed9c-4f47-8e3c-e769d8630fe4","system_id":"levelo_inurba_marseille","lat":43.27972,"lon":5.38745,"is_reserved":false,"is_disabled":false,"rental_uris":{"android":"levelo://app?vid=cc05b1c5-ed9c-4f47-8e3c-e769d8630fe4","ios":"levelo://app?vid=cc05b1c5-ed9c-4f47-8e3c-e769d8630fe4"},"vehicle_type_id":"4","last_reported":1728835771,"current_range_meters":14400,"station_id":"ce4bhg12rcd13ifvqf80","pricing_plan_id":"cebpf4jnsgd1na2vs0mg"},{"bike_id":"bf8a119f-d03d-4d45-9c38-8b50ea7b594b","system_id":"levelo_inurba_marseille","lat":43.2978,"lon":5.37114,"is_reserved":false,"is_disabled":false,"rental_uris":{"android":"levelo://app?vid=bf8a119f-d03d-4d45-9c38-8b50ea7b594b","ios":"levelo://app?vid=bf8a119f-d03d-4d45-9c38-8b50ea7b594b"},"vehicle_type_id":"4","last_reported":1728835771,"current_range_meters":38000,"station_id":"ce4bgop2rcd13ifvqc1g","pricing_plan_id":"cebpf4jnsgd1na2vs0mg"},{"bike_id":"3c25dded-f8d5-4193-a336-9fad641c4aac","system_id":"levelo_inurba_marseille","lat":43.33752,"lon":5.3748,"is_reserved":false,"is_disabled":false,"rental_uris":{"android":"levelo://app?vid=3c25dded-f8d5-4193-a336-9fad641c4aac","ios":"levelo://app?vid=3c25dded-f8d5-4193-a336-9fad641c4aac"},"vehicle_type_id":"4","last_reported":1728835771,"current_range_meters":29600,"station_id":"","pricing_plan_id":"cebpf4jnsgd1na2vs0mg"},{"bike_id":"d376e732-619b-4958-b822-328a86218e89","system_id":"levelo_inurba_marseille","lat":43.2439,"lon":5.37061,"is_reserved":false,"is_disabled":false,"rental_uris":{"android":"levelo://app?vid=d376e732-619b-4958-b822-328a86218e89","ios":"levelo://app?vid=d376e732-619b-4958-b822-328a86218e89"},"vehicle_type_id":"4","last_reported":1728835771,"current_range_meters":37600,"station_id":"ce4bhhh2rcd13ifvqfk0","pricing_plan_id":"cebpf4jnsgd1na2vs0mg"},{"bike_id":"d39a5c9d-83a2-48b0-8b64-26a62bca82f7","system_id":"levelo_inurba_marseille","lat":43.28948,"lon":5.36397,"is_reserved":false,"is_disabled":false,"rental_uris":{"android":"levelo://app?vid=d39a5c9d-83a2-48b0-8b64-26a62bca82f7","ios":"levelo://app?vid=d39a5c9d-83a2-48b0-8b64-26a62bca82f7"},"vehicle_type_id":"4","last_reported":1728835771,"current_range_meters":2000,"station_id":"ce4bhc92rcd13ifvqetg","pricing_plan_id":"cebpf4jnsgd1na2vs0mg"},{"bike_id":"7975faaf-f260-41c7-87cd-147b9a3b3ebf","system_id":"levelo_inurba_marseille","lat":43.23054,"lon":5.35493,"is_reserved":false,"is_disabled":false,"rental_uris":{"android":"levelo://app?vid=7975faaf-f260-41c7-87cd-147b9a3b3ebf","ios":"levelo://app?vid=7975faaf-f260-41c7-87cd-147b9a3b3ebf"},"vehicle_type_id":"4","last_reported":1728835771,"current_range_meters":29600,"station_id":"cpo3342slgdg3j2ifvpg","pricing_plan_id":"cebpf4jnsgd1na2vs0mg"},{"bike_id":"b8c40456-2842-4528-8fc7-d6284ee3c804","system_id":"levelo_inurba_marseille","lat":43.233032,"lon":5.357398,"is_reserved":false,"is_disabled":false,"rental_uris":{"android":"levelo://app?vid=b8c40456-2842-4528-8fc7-d6284ee3c804","ios":"levelo://app?vid=b8c40456-2842-4528-8fc7-d6284ee3c804"},"vehicle_type_id":"4","last_reported":1728835771,"current_range_meters":10800,"station_id":"ce4bgqh2rcd13ifvqc4g","pricing_plan_id":"cebpf4jnsgd1na2vs0mg"},{"bike_id":"4868b14d-47e7-4f0c-8992-0cd4e222b713","system_id":"levelo_inurba_marseille","lat":43.30142,"lon":5.38071,"is_reserved":false,"is_disabled":false,"rental_uris":{"android":"levelo://app?vid=4868b14d-47e7-4f0c-8992-0cd4e222b713","ios":"levelo://app?vid=4868b14d-47e7-4f0c-8992-0cd4e222b713"},"vehicle_type_id":"4","last_reported":1728835771,"current_range_meters":23200,"station_id":"ce4bgjp2rcd13ifvqbh0","pricing_plan_id":"cebpf4jnsgd1na2vs0mg"},{"bike_id":"abacfaf2-1913-4277-bd8e-fdc9882bb2d4","system_id":"levelo_inurba_marseille","lat":43.296204,"lon":5.377059,"is_reserved":false,"is_disabled":false,"rental_uris":{"android":"levelo://app?vid=abacfaf2-1913-4277-bd8e-fdc9882bb2d4","ios":"levelo://app?vid=abacfaf2-1913-4277-bd8e-fdc9882bb2d4"},"vehicle_type_id":"4","last_reported":1728835771,"current_range_meters":37600,"station_id":"ce4bgi92rcd13ifvqb90","pricing_plan_id":"cebpf4jnsgd1na2vs0mg"},{"bike_id":"8fc54e32-2dad-4cfe-867b-a52e651d7f0f","system_id":"levelo_inurba_marseille","lat":43.25559,"lon":5.40386,"is_reserved":false,"is_disabled":false,"rental_uris":{"android":"levelo://app?vid=8fc54e32-2dad-4cfe-867b-a52e651d7f0f","ios":"levelo://app?vid=8fc54e32-2dad-4cfe-867b-a52e651d7f0f"},"vehicle_type_id":"4","last_reported":1728835771,"current_range_meters":13600,"station_id":"","pricing_plan_id":"cebpf4jnsgd1na2vs0mg"},{"bike_id":"5b7c7875-1d91-4ce1-8c6a-18c2464c67f1","system_id":"levelo_inurba_marseille","lat":43.32262,"lon":5.38663,"is_reserved":false,"is_disabled":false,"rental_uris":{"android":"levelo://app?vid=5b7c7875-1d91-4ce1-8c6a-18c2464c67f1","ios":"levelo://app?vid=5b7c7875-1d91-4ce1-8c6a-18c2464c67f1"},"vehicle_type_id":"4","last_reported":1728835771,"current_range_meters":9600,"station_id":"","pricing_plan_id":"cebpf4jnsgd1na2vs0mg"},{"bike_id":"f26d9773-5d64-4ce0-b0ae-83a6de365891","system_id":"levelo_inurba_marseille","lat":43.29894,"lon":5.40193,"is_reserved":false,"is_disabled":false,"rental_uris":{"android":"levelo://app?vid=f26d9773-5d64-4ce0-b0ae-83a6de365891","ios":"levelo://app?vid=f26d9773-5d64-4ce0-b0ae-83a6de365891"},"vehicle_type_id":"4","last_reported":1728835771,"current_range_meters":7200,"station_id":"","pricing_plan_id":"cebpf4jnsgd1na2vs0mg"},{"bike_id":"c95213a4-c204-4ed2-b96e-be469a50f9b2","system_id":"levelo_inurba_marseille","lat":43.28031,"lon":5.36949,"is_reserved":false,"is_disabled":false,"rental_uris":{"android":"levelo://app?vid=c95213a4-c204-4ed2-b96e-be469a50f9b2","ios":"levelo://app?vid=c95213a4-c204-4ed2-b96e-be469a50f9b2"},"vehicle_type_id":"4","last_reported":1728835771,"current_range_meters":37600,"station_id":"ce4bha12rcd13ifvqef0","pricing_plan_id":"cebpf4jnsgd1na2vs0mg"},{"bike_id":"37a9ef15-0738-4d36-96b8-a47554704b59","system_id":"levelo_inurba_marseille","lat":43.29223,"lon":5.36044,"is_reserved":false,"is_disabled":false,"rental_uris":{"android":"levelo://app?vid=37a9ef15-0738-4d36-96b8-a47554704b59","ios":"levelo://app?vid=37a9ef15-0738-4d36-96b8-a47554704b59"},"vehicle_type_id":"4","last_reported":1728835771,"current_range_meters":34000,"station_id":"ce4bhbh2rcd13ifvqeqg","pricing_plan_id":"cebpf4jnsgd1na2vs0mg"},{"bike_id":"bb6fe96f-9c66-40de-b625-fc114cb7a517","system_id":"levelo_inurba_marseille","lat":43.26026,"lon":5.37555,"is_reserved":false,"is_disabled":false,"rental_uris":{"android":"levelo://app?vid=bb6fe96f-9c66-40de-b625-fc114cb7a517","ios":"levelo://app?vid=bb6fe96f-9c66-40de-b625-fc114cb7a517"},"vehicle_type_id":"4","last_reported":1728835771,"current_range_meters":24400,"station_id":"ce4bhgh2rcd13ifvqfa0","pricing_plan_id":"cebpf4jnsgd1na2vs0mg"},{"bike_id":"8710eee7-edb9-4475-9664-991398c901f4","system_id":"levelo_inurba_marseille","lat":43.29922,"lon":5.37493,"is_reserved":false,"is_disabled":false,"rental_uris":{"android":"levelo://app?vid=8710eee7-edb9-4475-9664-991398c901f4","ios":"levelo://app?vid=8710eee7-edb9-4475-9664-991398c901f4"},"vehicle_type_id":"4","last_reported":1728835771,"current_range_meters":38800,"station_id":"ce4bgjh2rcd13ifvqbg0","pricing_plan_id":"cebpf4jnsgd1na2vs0mg"},{"bike_id":"8af4aa04-71c6-48e0-b118-119c9302970d","system_id":"levelo_inurba_marseille","lat":43.23189,"lon":5.35543,"is_reserved":false,"is_disabled":false,"rental_uris":{"android":"levelo://app?vid=8af4aa04-71c6-48e0-b118-119c9302970d","ios":"levelo://app?vid=8af4aa04-71c6-48e0-b118-119c9302970d"},"vehicle_type_id":"4","last_reported":1728835771,"current_range_meters":26800,"station_id":"ce4bhu92rcd13ifvqi70","pricing_plan_id":"cebpf4jnsgd1na2vs0mg"},{"bike_id":"a0bbddc6-12f4-4da3-8251-4ce10ebe19f3","system_id":"levelo_inurba_marseille","lat":43.273773,"lon":5.362415,"is_reserved":false,"is_disabled":false,"rental_uris":{"android":"levelo://app?vid=a0bbddc6-12f4-4da3-8251-4ce10ebe19f3","ios":"levelo://app?vid=a0bbddc6-12f4-4da3-8251-4ce10ebe19f3"},"vehicle_type_id":"4","last_reported":1728835771,"current_range_meters":10000,"station_id":"ce4bh492rcd13ifvqdvg","pricing_plan_id":"cebpf4jnsgd1na2vs0mg"},{"bike_id":"83c34219-f285-494d-8f3f-7d9ee4eddb28","system_id":"levelo_inurba_marseille","lat":43.31492,"lon":5.37308,"is_reserved":false,"is_disabled":false,"rental_uris":{"android":"levelo://app?vid=83c34219-f285-494d-8f3f-7d9ee4eddb28","ios":"levelo://app?vid=83c34219-f285-494d-8f3f-7d9ee4eddb28"},"vehicle_type_id":"4","last_reported":1728835771,"current_range_meters":12800,"station_id":"ce4bgt12rcd13ifvqcd0","pricing_plan_id":"cebpf4jnsgd1na2vs0mg"},{"bike_id":"af7cef89-d3f0-4c9a-b967-c3e6058d23f9","system_id":"levelo_inurba_marseille","lat":43.28459,"lon":5.35888,"is_reserved":false,"is_disabled":false,"rental_uris":{"android":"levelo://app?vid=af7cef89-d3f0-4c9a-b967-c3e6058d23f9","ios":"levelo://app?vid=af7cef89-d3f0-4c9a-b967-c3e6058d23f9"},"vehicle_type_id":"4","last_reported":1728835771,"current_range_meters":30800,"station_id":"ce4bhah2rcd13ifvqei0","pricing_plan_id":"cebpf4jnsgd1na2vs0mg"},{"bike_id":"1fae3049-330f-4fe7-83df-28cd6552c7bb","system_id":"levelo_inurba_marseille","lat":43.23188,"lon":5.39991,"is_reserved":false,"is_disabled":false,"rental_uris":{"android":"levelo://app?vid=1fae3049-330f-4fe7-83df-28cd6552c7bb","ios":"levelo://app?vid=1fae3049-330f-4fe7-83df-28cd6552c7bb"},"vehicle_type_id":"4","last_reported":1728835771,"current_range_meters":19600,"station_id":"ce4bhn12rcd13ifvqgqg","pricing_plan_id":"cebpf4jnsgd1na2vs0mg"},{"bike_id":"e88c3b58-69a1-4a29-943f-b7c01fb58514","system_id":"levelo_inurba_marseille","lat":43.29956,"lon":5.41326,"is_reserved":false,"is_disabled":false,"rental_uris":{"android":"levelo://app?vid=e88c3b58-69a1-4a29-943f-b7c01fb58514","ios":"levelo://app?vid=e88c3b58-69a1-4a29-943f-b7c01fb58514"},"vehicle_type_id":"4","last_reported":1728835771,"current_range_meters":28400,"station_id":"ce4bhp12rcd13ifvqh9g","pricing_plan_id":"cebpf4jnsgd1na2vs0mg"},{"bike_id":"33c08cd3-3d2f-4a6b-8e11-6ccaaa003c7f","system_id":"levelo_inurba_marseille","lat":43.312249,"lon":5.368608,"is_reserved":false,"is_disabled":false,"rental_uris":{"android":"levelo://app?vid=33c08cd3-3d2f-4a6b-8e11-6ccaaa003c7f","ios":"levelo://app?vid=33c08cd3-3d2f-4a6b-8e11-6ccaaa003c7f"},"vehicle_type_id":"4","last_reported":1728835771,"current_range_meters":25600,"station_id":"ce4bgl92rcd13ifvqbq0","pricing_plan_id":"cebpf4jnsgd1na2vs0mg"},{"bike_id":"0d4f3e93-37ff-47d1-b5b2-f42a5ef97926","system_id":"levelo_inurba_marseille","lat":43.284693,"lon":5.384177,"is_reserved":false,"is_disabled":false,"rental_uris":{"android":"levelo://app?vid=0d4f3e93-37ff-47d1-b5b2-f42a5ef97926","ios":"levelo://app?vid=0d4f3e93-37ff-47d1-b5b2-f42a5ef97926"},"vehicle_type_id":"4","last_reported":1728835771,"current_range_meters":18800,"station_id":"ce4bha12rcd13ifvqee0","pricing_plan_id":"cebpf4jnsgd1na2vs0mg"},{"bike_id":"02d79aec-031a-476e-acef-da9c34364fd6","system_id":"levelo_inurba_marseille","lat":43.27482,"lon":5.42454,"is_reserved":false,"is_disabled":false,"rental_uris":{"android":"levelo://app?vid=02d79aec-031a-476e-acef-da9c34364fd6","ios":"levelo://app?vid=02d79aec-031a-476e-acef-da9c34364fd6"},"vehicle_type_id":"4","last_reported":1728835771,"current_range_meters":34800,"station_id":"ce4bhn92rcd13ifvqgrg","pricing_plan_id":"cebpf4jnsgd1na2vs0mg"},{"bike_id":"13ec10bf-89ae-4f0c-913a-ea642a77a539","system_id":"levelo_inurba_marseille","lat":43.29805,"lon":5.3809,"is_reserved":false,"is_disabled":false,"rental_uris":{"android":"levelo://app?vid=13ec10bf-89ae-4f0c-913a-ea642a77a539","ios":"levelo://app?vid=13ec10bf-89ae-4f0c-913a-ea642a77a539"},"vehicle_type_id":"4","last_reported":1728835771,"current_range_meters":11200,"station_id":"ce4bgip2rcd13ifvqbb0","pricing_plan_id":"cebpf4jnsgd1na2vs0mg"},{"bike_id":"45111ea9-7ede-44cd-a99c-9719343bd08f","system_id":"levelo_inurba_marseille","lat":43.307465,"lon":5.395816,"is_reserved":false,"is_disabled":false,"rental_uris":{"android":"levelo://app?vid=45111ea9-7ede-44cd-a99c-9719343bd08f","ios":"levelo://app?vid=45111ea9-7ede-44cd-a99c-9719343bd08f"},"vehicle_type_id":"4","last_reported":1728835771,"current_range_meters":4000,"station_id":"ce4bh012rcd13ifvqcv0","pricing_plan_id":"cebpf4jnsgd1na2vs0mg"},{"bike_id":"74c32776-f10e-40f1-a403-14e736f1aeda","system_id":"levelo_inurba_marseille","lat":43.26192,"lon":5.37454,"is_reserved":false,"is_disabled":false,"rental_uris":{"android":"levelo://app?vid=74c32776-f10e-40f1-a403-14e736f1aeda","ios":"levelo://app?vid=74c32776-f10e-40f1-a403-14e736f1aeda"},"vehicle_type_id":"4","last_reported":1728835771,"current_range_meters":21600,"station_id":"ce4bhgp2rcd13ifvqfc0","pricing_plan_id":"cebpf4jnsgd1na2vs0mg"},{"bike_id":"6d6261ad-43ad-47ca-a616-12926281a5e7","system_id":"levelo_inurba_marseille","lat":43.28152,"lon":5.42646,"is_reserved":false,"is_disabled":false,"rental_uris":{"android":"levelo://app?vid=6d6261ad-43ad-47ca-a616-12926281a5e7","ios":"levelo://app?vid=6d6261ad-43ad-47ca-a616-12926281a5e7"},"vehicle_type_id":"4","last_reported":1728835771,"current_range_meters":4000,"station_id":"","pricing_plan_id":"cebpf4jnsgd1na2vs0mg"},{"bike_id":"c4963f03-9a7d-4bc2-a67f-dc88201f6571","system_id":"levelo_inurba_marseille","lat":43.29275,"lon":5.36846,"is_reserved":false,"is_disabled":false,"rental_uris":{"android":"levelo://app?vid=c4963f03-9a7d-4bc2-a67f-dc88201f6571","ios":"levelo://app?vid=c4963f03-9a7d-4bc2-a67f-dc88201f6571"},"vehicle_type_id":"4","last_reported":1728835771,"current_range_meters":20400,"station_id":"ce4bhbp2rcd13ifvqesg","pricing_plan_id":"cebpf4jnsgd1na2vs0mg"},{"bike_id":"7107626d-4c37-4374-b7db-4e9ca8955943","system_id":"levelo_inurba_marseille","lat":43.27373,"lon":5.3625,"is_reserved":false,"is_disabled":false,"rental_uris":{"android":"levelo://app?vid=7107626d-4c37-4374-b7db-4e9ca8955943","ios":"levelo://app?vid=7107626d-4c37-4374-b7db-4e9ca8955943"},"vehicle_type_id":"4","last_reported":1728835771,"current_range_meters":27600,"station_id":"ce4bhbh2rcd13ifvqeo0","pricing_plan_id":"cebpf4jnsgd1na2vs0mg"},{"bike_id":"ddb02782-38b0-4337-8dd6-74b5a00a7504","system_id":"levelo_inurba_marseille","lat":43.26552,"lon":5.37291,"is_reserved":false,"is_disabled":false,"rental_uris":{"android":"levelo://app?vid=ddb02782-38b0-4337-8dd6-74b5a00a7504","ios":"levelo://app?vid=ddb02782-38b0-4337-8dd6-74b5a00a7504"},"vehicle_type_id":"4","last_reported":1728835771,"current_range_meters":38800,"station_id":"ce4bhg12rcd13ifvqf70","pricing_plan_id":"cebpf4jnsgd1na2vs0mg"},{"bike_id":"ddce90ed-80d5-4aa1-9fb2-0ecf9e2ef08c","system_id":"levelo_inurba_marseille","lat":43.27071,"lon":5.42279,"is_reserved":false,"is_disabled":false,"rental_uris":{"android":"levelo://app?vid=ddce90ed-80d5-4aa1-9fb2-0ecf9e2ef08c","ios":"levelo://app?vid=ddce90ed-80d5-4aa1-9fb2-0ecf9e2ef08c"},"vehicle_type_id":"4","last_reported":1728835771,"current_range_meters":12000,"station_id":"ce4bhk92rcd13ifvqgb0","pricing_plan_id":"cebpf4jnsgd1na2vs0mg"},{"bike_id":"94fa3b90-a1e3-433f-bb14-2e282b5eb262","system_id":"levelo_inurba_marseille","lat":43.29326,"lon":5.41163,"is_reserved":false,"is_disabled":false,"rental_uris":{"android":"levelo://app?vid=94fa3b90-a1e3-433f-bb14-2e282b5eb262","ios":"levelo://app?vid=94fa3b90-a1e3-433f-bb14-2e282b5eb262"},"vehicle_type_id":"4","last_reported":1728835771,"current_range_meters":20800,"station_id":"","pricing_plan_id":"cebpf4jnsgd1na2vs0mg"},{"bike_id":"cf023358-a962-4166-bc82-f67c13254ab6","system_id":"levelo_inurba_marseille","lat":43.28078,"lon":5.39665,"is_reserved":false,"is_disabled":false,"rental_uris":{"android":"levelo://app?vid=cf023358-a962-4166-bc82-f67c13254ab6","ios":"levelo://app?vid=cf023358-a962-4166-bc82-f67c13254ab6"},"vehicle_type_id":"4","last_reported":1728835771,"current_range_meters":8400,"station_id":"ce4bho12rcd13ifvqh2g","pricing_plan_id":"cebpf4jnsgd1na2vs0mg"},{"bike_id":"8990b36c-6191-4873-a165-0b769f4e66f1","system_id":"levelo_inurba_marseille","lat":43.26932,"lon":5.38923,"is_reserved":false,"is_disabled":false,"rental_uris":{"android":"levelo://app?vid=8990b36c-6191-4873-a165-0b769f4e66f1","ios":"levelo://app?vid=8990b36c-6191-4873-a165-0b769f4e66f1"},"vehicle_type_id":"4","last_reported":1728835771,"current_range_meters":20000,"station_id":"ce4bhhh2rcd13ifvqfl0","pricing_plan_id":"cebpf4jnsgd1na2vs0mg"},{"bike_id":"ed8170d9-99a2-4fb7-8941-8bdd99bd282c","system_id":"levelo_inurba_marseille","lat":43.30353,"lon":5.41883,"is_reserved":false,"is_disabled":false,"rental_uris":{"android":"levelo://app?vid=ed8170d9-99a2-4fb7-8941-8bdd99bd282c","ios":"levelo://app?vid=ed8170d9-99a2-4fb7-8941-8bdd99bd282c"},"vehicle_type_id":"4","last_reported":1728835771,"current_range_meters":37600,"station_id":"ce4bhop2rcd13ifvqh7g","pricing_plan_id":"cebpf4jnsgd1na2vs0mg"},{"bike_id":"096564ff-8909-4caa-868a-b174f099f06c","system_id":"levelo_inurba_marseille","lat":43.27427,"lon":5.39411,"is_reserved":false,"is_disabled":false,"rental_uris":{"android":"levelo://app?vid=096564ff-8909-4caa-868a-b174f099f06c","ios":"levelo://app?vid=096564ff-8909-4caa-868a-b174f099f06c"},"vehicle_type_id":"4","last_reported":1728835771,"current_range_meters":10800,"station_id":"ce4bhdp2rcd13ifvqf20","pricing_plan_id":"cebpf4jnsgd1na2vs0mg"},{"bike_id":"d81b28cf-2bc1-43e6-ba1a-011289811731","system_id":"levelo_inurba_marseille","lat":43.30351,"lon":5.41881,"is_reserved":false,"is_disabled":false,"rental_uris":{"android":"levelo://app?vid=d81b28cf-2bc1-43e6-ba1a-011289811731","ios":"levelo://app?vid=d81b28cf-2bc1-43e6-ba1a-011289811731"},"vehicle_type_id":"4","last_reported":1728835771,"current_range_meters":37600,"station_id":"ce4bhop2rcd13ifvqh7g","pricing_plan_id":"cebpf4jnsgd1na2vs0mg"},{"bike_id":"a2faf3c7-ef2d-47ce-a99a-6eb10a2b42d5","system_id":"levelo_inurba_marseille","lat":43.23193,"lon":5.35546,"is_reserved":false,"is_disabled":false,"rental_uris":{"android":"levelo://app?vid=a2faf3c7-ef2d-47ce-a99a-6eb10a2b42d5","ios":"levelo://app?vid=a2faf3c7-ef2d-47ce-a99a-6eb10a2b42d5"},"vehicle_type_id":"4","last_reported":1728835771,"current_range_meters":24800,"station_id":"ce4bhu92rcd13ifvqi70","pricing_plan_id":"cebpf4jnsgd1na2vs0mg"},{"bike_id":"54d8198c-2280-42d1-a02d-dafc7e5a2616","system_id":"levelo_inurba_marseille","lat":43.29825,"lon":5.42006,"is_reserved":false,"is_disabled":false,"rental_uris":{"android":"levelo://app?vid=54d8198c-2280-42d1-a02d-dafc7e5a2616","ios":"levelo://app?vid=54d8198c-2280-42d1-a02d-dafc7e5a2616"},"vehicle_type_id":"4","last_reported":1728835771,"current_range_meters":22800,"station_id":"","pricing_plan_id":"cebpf4jnsgd1na2vs0mg"},{"bike_id":"0e665600-beb7-4d23-bf0f-3ae3aaada6e9","system_id":"levelo_inurba_marseille","lat":43.29709,"lon":5.40059,"is_reserved":false,"is_disabled":false,"rental_uris":{"android":"levelo://app?vid=0e665600-beb7-4d23-bf0f-3ae3aaada6e9","ios":"levelo://app?vid=0e665600-beb7-4d23-bf0f-3ae3aaada6e9"},"vehicle_type_id":"4","last_reported":1728835771,"current_range_meters":19600,"station_id":"","pricing_plan_id":"cebpf4jnsgd1na2vs0mg"},{"bike_id":"b591ee30-2137-48ce-8bc2-4fd14b61fa93","system_id":"levelo_inurba_marseille","lat":43.29166,"lon":5.37161,"is_reserved":false,"is_disabled":false,"rental_uris":{"android":"levelo://app?vid=b591ee30-2137-48ce-8bc2-4fd14b61fa93","ios":"levelo://app?vid=b591ee30-2137-48ce-8bc2-4fd14b61fa93"},"vehicle_type_id":"4","last_reported":1728835771,"current_range_meters":8400,"station_id":"ce4bha92rcd13ifvqeh0","pricing_plan_id":"cebpf4jnsgd1na2vs0mg"},{"bike_id":"e55dbb01-c3e3-4bbd-9e36-3e3644bfb477","system_id":"levelo_inurba_marseille","lat":43.29052,"lon":5.35909,"is_reserved":false,"is_disabled":false,"rental_uris":{"android":"levelo://app?vid=e55dbb01-c3e3-4bbd-9e36-3e3644bfb477","ios":"levelo://app?vid=e55dbb01-c3e3-4bbd-9e36-3e3644bfb477"},"vehicle_type_id":"4","last_reported":1728835771,"current_range_meters":8800,"station_id":"ce4bha92rcd13ifvqeg0","pricing_plan_id":"cebpf4jnsgd1na2vs0mg"},{"bike_id":"38ad9d4b-00fe-40fe-8af0-26a063647d96","system_id":"levelo_inurba_marseille","lat":43.33765,"lon":5.37446,"is_reserved":false,"is_disabled":false,"rental_uris":{"android":"levelo://app?vid=38ad9d4b-00fe-40fe-8af0-26a063647d96","ios":"levelo://app?vid=38ad9d4b-00fe-40fe-8af0-26a063647d96"},"vehicle_type_id":"4","last_reported":1728835771,"current_range_meters":32400,"station_id":"","pricing_plan_id":"cebpf4jnsgd1na2vs0mg"},{"bike_id":"8d7d0db9-243e-4dde-8891-4bce10c9d53c","system_id":"levelo_inurba_marseille","lat":43.2959,"lon":5.381,"is_reserved":false,"is_disabled":false,"rental_uris":{"android":"levelo://app?vid=8d7d0db9-243e-4dde-8891-4bce10c9d53c","ios":"levelo://app?vid=8d7d0db9-243e-4dde-8891-4bce10c9d53c"},"vehicle_type_id":"4","last_reported":1728835771,"current_range_meters":3600,"station_id":"ce4bgl12rcd13ifvqbo0","pricing_plan_id":"cebpf4jnsgd1na2vs0mg"},{"bike_id":"4edce656-0a51-4c2a-864e-e04e68e72589","system_id":"levelo_inurba_marseille","lat":43.28151,"lon":5.42654,"is_reserved":false,"is_disabled":false,"rental_uris":{"android":"levelo://app?vid=4edce656-0a51-4c2a-864e-e04e68e72589","ios":"levelo://app?vid=4edce656-0a51-4c2a-864e-e04e68e72589"},"vehicle_type_id":"4","last_reported":1728835771,"current_range_meters":12800,"station_id":"ce4bhnh2rcd13ifvqgug","pricing_plan_id":"cebpf4jnsgd1na2vs0mg"},{"bike_id":"d5a53c84-fae7-4fc1-ab9d-3a236a4feadb","system_id":"levelo_inurba_marseille","lat":43.2953,"lon":5.38542,"is_reserved":false,"is_disabled":false,"rental_uris":{"android":"levelo://app?vid=d5a53c84-fae7-4fc1-ab9d-3a236a4feadb","ios":"levelo://app?vid=d5a53c84-fae7-4fc1-ab9d-3a236a4feadb"},"vehicle_type_id":"4","last_reported":1728835771,"current_range_meters":30400,"station_id":"ce4bgih2rcd13ifvqba0","pricing_plan_id":"cebpf4jnsgd1na2vs0mg"},{"bike_id":"ab67ae67-938f-4d30-95a9-bb5ea78c5193","system_id":"levelo_inurba_marseille","lat":43.239686,"lon":5.366361,"is_reserved":false,"is_disabled":false,"rental_uris":{"android":"levelo://app?vid=ab67ae67-938f-4d30-95a9-bb5ea78c5193","ios":"levelo://app?vid=ab67ae67-938f-4d30-95a9-bb5ea78c5193"},"vehicle_type_id":"4","last_reported":1728835771,"current_range_meters":38800,"station_id":"ce4bhi12rcd13ifvqfp0","pricing_plan_id":"cebpf4jnsgd1na2vs0mg"},{"bike_id":"4a6e3d45-57cb-48fa-8df6-6ca872936b30","system_id":"levelo_inurba_marseille","lat":43.26781,"lon":5.39416,"is_reserved":false,"is_disabled":false,"rental_uris":{"android":"levelo://app?vid=4a6e3d45-57cb-48fa-8df6-6ca872936b30","ios":"levelo://app?vid=4a6e3d45-57cb-48fa-8df6-6ca872936b30"},"vehicle_type_id":"4","last_reported":1728835771,"current_range_meters":38000,"station_id":"ce4bhh12rcd13ifvqfg0","pricing_plan_id":"cebpf4jnsgd1na2vs0mg"},{"bike_id":"0eae93ec-d7b3-44d4-ba25-244e7876d5ef","system_id":"levelo_inurba_marseille","lat":43.30425,"lon":5.39747,"is_reserved":false,"is_disabled":false,"rental_uris":{"android":"levelo://app?vid=0eae93ec-d7b3-44d4-ba25-244e7876d5ef","ios":"levelo://app?vid=0eae93ec-d7b3-44d4-ba25-244e7876d5ef"},"vehicle_type_id":"4","last_reported":1728835771,"current_range_meters":13600,"station_id":"ce4bh092rcd13ifvqd20","pricing_plan_id":"cebpf4jnsgd1na2vs0mg"},{"bike_id":"7e2f893a-6bf7-4926-b9a7-8e011fc2d89c","system_id":"levelo_inurba_marseille","lat":43.2738,"lon":5.3625,"is_reserved":false,"is_disabled":false,"rental_uris":{"android":"levelo://app?vid=7e2f893a-6bf7-4926-b9a7-8e011fc2d89c","ios":"levelo://app?vid=7e2f893a-6bf7-4926-b9a7-8e011fc2d89c"},"vehicle_type_id":"4","last_reported":1728835771,"current_range_meters":2000,"station_id":"ce4bhbh2rcd13ifvqeo0","pricing_plan_id":"cebpf4jnsgd1na2vs0mg"},{"bike_id":"ff549c51-af0a-424b-8e0c-2b932f9efa00","system_id":"levelo_inurba_marseille","lat":43.28603,"lon":5.35657,"is_reserved":false,"is_disabled":false,"rental_uris":{"android":"levelo://app?vid=ff549c51-af0a-424b-8e0c-2b932f9efa00","ios":"levelo://app?vid=ff549c51-af0a-424b-8e0c-2b932f9efa00"},"vehicle_type_id":"4","last_reported":1728835771,"current_range_meters":8400,"station_id":"","pricing_plan_id":"cebpf4jnsgd1na2vs0mg"},{"bike_id":"232ba208-0d35-4ac0-ab83-05478cd15bfb","system_id":"levelo_inurba_marseille","lat":43.24395,"lon":5.3706,"is_reserved":false,"is_disabled":false,"rental_uris":{"android":"levelo://app?vid=232ba208-0d35-4ac0-ab83-05478cd15bfb","ios":"levelo://app?vid=232ba208-0d35-4ac0-ab83-05478cd15bfb"},"vehicle_type_id":"4","last_reported":1728835771,"current_range_meters":26800,"station_id":"ce4bhhh2rcd13ifvqfk0","pricing_plan_id":"cebpf4jnsgd1na2vs0mg"},{"bike_id":"5dde06fe-f1ba-42c7-8d56-3195376ad1ff","system_id":"levelo_inurba_marseille","lat":43.27384,"lon":5.3625,"is_reserved":false,"is_disabled":false,"rental_uris":{"android":"levelo://app?vid=5dde06fe-f1ba-42c7-8d56-3195376ad1ff","ios":"levelo://app?vid=5dde06fe-f1ba-42c7-8d56-3195376ad1ff"},"vehicle_type_id":"4","last_reported":1728835771,"current_range_meters":32000,"station_id":"ce4bhbh2rcd13ifvqeo0","pricing_plan_id":"cebpf4jnsgd1na2vs0mg"},{"bike_id":"0e6ca605-adb5-4a5e-9faa-ffe2943c1b47","system_id":"levelo_inurba_marseille","lat":43.28075,"lon":5.39662,"is_reserved":false,"is_disabled":false,"rental_uris":{"android":"levelo://app?vid=0e6ca605-adb5-4a5e-9faa-ffe2943c1b47","ios":"levelo://app?vid=0e6ca605-adb5-4a5e-9faa-ffe2943c1b47"},"vehicle_type_id":"4","last_reported":1728835771,"current_range_meters":12800,"station_id":"ce4bho12rcd13ifvqh2g","pricing_plan_id":"cebpf4jnsgd1na2vs0mg"},{"bike_id":"d323877d-62f3-4af5-96b8-83e9148402ff","system_id":"levelo_inurba_marseille","lat":43.2319,"lon":5.35548,"is_reserved":false,"is_disabled":false,"rental_uris":{"android":"levelo://app?vid=d323877d-62f3-4af5-96b8-83e9148402ff","ios":"levelo://app?vid=d323877d-62f3-4af5-96b8-83e9148402ff"},"vehicle_type_id":"4","last_reported":1728835771,"current_range_meters":2000,"station_id":"ce4bhu92rcd13ifvqi70","pricing_plan_id":"cebpf4jnsgd1na2vs0mg"},{"bike_id":"11fd36d7-fca7-4cae-bf5d-e73b234c55e5","system_id":"levelo_inurba_marseille","lat":43.26558,"lon":5.39001,"is_reserved":false,"is_disabled":false,"rental_uris":{"android":"levelo://app?vid=11fd36d7-fca7-4cae-bf5d-e73b234c55e5","ios":"levelo://app?vid=11fd36d7-fca7-4cae-bf5d-e73b234c55e5"},"vehicle_type_id":"4","last_reported":1728835771,"current_range_meters":3200,"station_id":"ce4bhe12rcd13ifvqf30","pricing_plan_id":"cebpf4jnsgd1na2vs0mg"},{"bike_id":"f2aed75c-b571-4a98-80aa-d52b9dc28daf","system_id":"levelo_inurba_marseille","lat":43.23057,"lon":5.35488,"is_reserved":false,"is_disabled":false,"rental_uris":{"android":"levelo://app?vid=f2aed75c-b571-4a98-80aa-d52b9dc28daf","ios":"levelo://app?vid=f2aed75c-b571-4a98-80aa-d52b9dc28daf"},"vehicle_type_id":"4","last_reported":1728835771,"current_range_meters":28000,"station_id":"cpo3342slgdg3j2ifvpg","pricing_plan_id":"cebpf4jnsgd1na2vs0mg"},{"bike_id":"69ad423c-8f72-478f-9891-a0f2eb434872","system_id":"levelo_inurba_marseille","lat":43.28476,"lon":5.38546,"is_reserved":false,"is_disabled":false,"rental_uris":{"android":"levelo://app?vid=69ad423c-8f72-478f-9891-a0f2eb434872","ios":"levelo://app?vid=69ad423c-8f72-478f-9891-a0f2eb434872"},"vehicle_type_id":"4","last_reported":1728835771,"current_range_meters":38000,"station_id":"ce4bh8p2rcd13ifvqeb0","pricing_plan_id":"cebpf4jnsgd1na2vs0mg"},{"bike_id":"862775e0-82ca-4f3e-8933-a8b4da4c7508","system_id":"levelo_inurba_marseille","lat":43.25724,"lon":5.41109,"is_reserved":false,"is_disabled":false,"rental_uris":{"android":"levelo://app?vid=862775e0-82ca-4f3e-8933-a8b4da4c7508","ios":"levelo://app?vid=862775e0-82ca-4f3e-8933-a8b4da4c7508"},"vehicle_type_id":"4","last_reported":1728835771,"current_range_meters":3200,"station_id":"ce4bhkp2rcd13ifvqgd0","pricing_plan_id":"cebpf4jnsgd1na2vs0mg"},{"bike_id":"3e79382a-c6c3-477c-a049-1ff73779ff0e","system_id":"levelo_inurba_marseille","lat":43.29778,"lon":5.37112,"is_reserved":false,"is_disabled":false,"rental_uris":{"android":"levelo://app?vid=3e79382a-c6c3-477c-a049-1ff73779ff0e","ios":"levelo://app?vid=3e79382a-c6c3-477c-a049-1ff73779ff0e"},"vehicle_type_id":"4","last_reported":1728835771,"current_range_meters":35200,"station_id":"ce4bgop2rcd13ifvqc1g","pricing_plan_id":"cebpf4jnsgd1na2vs0mg"},{"bike_id":"2a3acd7e-da14-462e-8191-7e302cdb31e2","system_id":"levelo_inurba_marseille","lat":43.2927,"lon":5.36847,"is_reserved":false,"is_disabled":false,"rental_uris":{"android":"levelo://app?vid=2a3acd7e-da14-462e-8191-7e302cdb31e2","ios":"levelo://app?vid=2a3acd7e-da14-462e-8191-7e302cdb31e2"},"vehicle_type_id":"4","last_reported":1728835771,"current_range_meters":32800,"station_id":"ce4bhbp2rcd13ifvqesg","pricing_plan_id":"cebpf4jnsgd1na2vs0mg"},{"bike_id":"aeaf2ad8-5263-4978-ae68-29b76bd1245a","system_id":"levelo_inurba_marseille","lat":43.289978,"lon":5.38763,"is_reserved":false,"is_disabled":false,"rental_uris":{"android":"levelo://app?vid=aeaf2ad8-5263-4978-ae68-29b76bd1245a","ios":"levelo://app?vid=aeaf2ad8-5263-4978-ae68-29b76bd1245a"},"vehicle_type_id":"4","last_reported":1728835771,"current_range_meters":7200,"station_id":"ce4bh4p2rcd13ifvqe0g","pricing_plan_id":"cebpf4jnsgd1na2vs0mg"},{"bike_id":"6695691d-7974-49e3-84d1-d8fb8472f20d","system_id":"levelo_inurba_marseille","lat":43.28352,"lon":5.38096,"is_reserved":false,"is_disabled":false,"rental_uris":{"android":"levelo://app?vid=6695691d-7974-49e3-84d1-d8fb8472f20d","ios":"levelo://app?vid=6695691d-7974-49e3-84d1-d8fb8472f20d"},"vehicle_type_id":"4","last_reported":1728835771,"current_range_meters":26800,"station_id":"ce4bh412rcd13ifvqdr0","pricing_plan_id":"cebpf4jnsgd1na2vs0mg"},{"bike_id":"abeb94f8-2b10-4e3c-aea5-f485999ef0ab","system_id":"levelo_inurba_marseille","lat":43.230661,"lon":5.354903,"is_reserved":false,"is_disabled":false,"rental_uris":{"android":"levelo://app?vid=abeb94f8-2b10-4e3c-aea5-f485999ef0ab","ios":"levelo://app?vid=abeb94f8-2b10-4e3c-aea5-f485999ef0ab"},"vehicle_type_id":"4","last_reported":1728835771,"current_range_meters":6800,"station_id":"ce4bhi12rcd13ifvqfp0","pricing_plan_id":"cebpf4jnsgd1na2vs0mg"},{"bike_id":"ed0f4b1c-4c0d-4af8-a63f-c72abae83cd2","system_id":"levelo_inurba_marseille","lat":43.24389,"lon":5.37051,"is_reserved":false,"is_disabled":false,"rental_uris":{"android":"levelo://app?vid=ed0f4b1c-4c0d-4af8-a63f-c72abae83cd2","ios":"levelo://app?vid=ed0f4b1c-4c0d-4af8-a63f-c72abae83cd2"},"vehicle_type_id":"4","last_reported":1728835771,"current_range_meters":38800,"station_id":"ce4bhhh2rcd13ifvqfk0","pricing_plan_id":"cebpf4jnsgd1na2vs0mg"},{"bike_id":"44358ff6-92e9-4b99-bca3-d40602e4bbd6","system_id":"levelo_inurba_marseille","lat":43.26682,"lon":5.38266,"is_reserved":false,"is_disabled":false,"rental_uris":{"android":"levelo://app?vid=44358ff6-92e9-4b99-bca3-d40602e4bbd6","ios":"levelo://app?vid=44358ff6-92e9-4b99-bca3-d40602e4bbd6"},"vehicle_type_id":"4","last_reported":1728835771,"current_range_meters":37600,"station_id":"ce4bhg92rcd13ifvqf90","pricing_plan_id":"cebpf4jnsgd1na2vs0mg"},{"bike_id":"991c1ce7-fc65-4938-a9ba-6a8d34304572","system_id":"levelo_inurba_marseille","lat":43.257341,"lon":5.376647,"is_reserved":false,"is_disabled":false,"rental_uris":{"android":"levelo://app?vid=991c1ce7-fc65-4938-a9ba-6a8d34304572","ios":"levelo://app?vid=991c1ce7-fc65-4938-a9ba-6a8d34304572"},"vehicle_type_id":"4","last_reported":1728835771,"current_range_meters":30000,"station_id":"ce4bhb12rcd13ifvqem0","pricing_plan_id":"cebpf4jnsgd1na2vs0mg"},{"bike_id":"138a7939-43b1-443a-9bd8-4ceba00d7d47","system_id":"levelo_inurba_marseille","lat":43.30536,"lon":5.36698,"is_reserved":false,"is_disabled":false,"rental_uris":{"android":"levelo://app?vid=138a7939-43b1-443a-9bd8-4ceba00d7d47","ios":"levelo://app?vid=138a7939-43b1-443a-9bd8-4ceba00d7d47"},"vehicle_type_id":"4","last_reported":1728835771,"current_range_meters":14800,"station_id":"ce4bgrp2rcd13ifvqc9g","pricing_plan_id":"cebpf4jnsgd1na2vs0mg"},{"bike_id":"45f8d464-75a7-4af3-addb-b9f3b178f90a","system_id":"levelo_inurba_marseille","lat":43.29013,"lon":5.38127,"is_reserved":false,"is_disabled":false,"rental_uris":{"android":"levelo://app?vid=45f8d464-75a7-4af3-addb-b9f3b178f90a","ios":"levelo://app?vid=45f8d464-75a7-4af3-addb-b9f3b178f90a"},"vehicle_type_id":"4","last_reported":1728835771,"current_range_meters":15200,"station_id":"ce4bh4p2rcd13ifvqe1g","pricing_plan_id":"cebpf4jnsgd1na2vs0mg"},{"bike_id":"c0720818-7907-45ee-a3e0-1ec83719d166","system_id":"levelo_inurba_marseille","lat":43.30204,"lon":5.39461,"is_reserved":false,"is_disabled":false,"rental_uris":{"android":"levelo://app?vid=c0720818-7907-45ee-a3e0-1ec83719d166","ios":"levelo://app?vid=c0720818-7907-45ee-a3e0-1ec83719d166"},"vehicle_type_id":"4","last_reported":1728835771,"current_range_meters":10000,"station_id":"ce4bh0p2rcd13ifvqd70","pricing_plan_id":"cebpf4jnsgd1na2vs0mg"},{"bike_id":"babde264-68ab-4f26-adc3-65424eb8d5f0","system_id":"levelo_inurba_marseille","lat":43.26951,"lon":5.3863,"is_reserved":false,"is_disabled":false,"rental_uris":{"android":"levelo://app?vid=babde264-68ab-4f26-adc3-65424eb8d5f0","ios":"levelo://app?vid=babde264-68ab-4f26-adc3-65424eb8d5f0"},"vehicle_type_id":"4","last_reported":1728835771,"current_range_meters":38800,"station_id":"ce4bhh92rcd13ifvqfh0","pricing_plan_id":"cebpf4jnsgd1na2vs0mg"},{"bike_id":"8beb5411-86c5-40ff-9e8a-8993f2700ad7","system_id":"levelo_inurba_marseille","lat":43.27617,"lon":5.36115,"is_reserved":false,"is_disabled":false,"rental_uris":{"android":"levelo://app?vid=8beb5411-86c5-40ff-9e8a-8993f2700ad7","ios":"levelo://app?vid=8beb5411-86c5-40ff-9e8a-8993f2700ad7"},"vehicle_type_id":"4","last_reported":1728835771,"current_range_meters":37600,"station_id":"ce4bgj92rcd13ifvqbe0","pricing_plan_id":"cebpf4jnsgd1na2vs0mg"},{"bike_id":"55959cb9-6c85-421d-8971-76d2f28e9678","system_id":"levelo_inurba_marseille","lat":43.29098,"lon":5.38125,"is_reserved":false,"is_disabled":false,"rental_uris":{"android":"levelo://app?vid=55959cb9-6c85-421d-8971-76d2f28e9678","ios":"levelo://app?vid=55959cb9-6c85-421d-8971-76d2f28e9678"},"vehicle_type_id":"4","last_reported":1728835771,"current_range_meters":10800,"station_id":"ce4bh512rcd13ifvqe2g","pricing_plan_id":"cebpf4jnsgd1na2vs0mg"},{"bike_id":"f786d51c-6a89-4c4b-b8c6-b4110e2eae16","system_id":"levelo_inurba_marseille","lat":43.23191,"lon":5.35541,"is_reserved":false,"is_disabled":false,"rental_uris":{"android":"levelo://app?vid=f786d51c-6a89-4c4b-b8c6-b4110e2eae16","ios":"levelo://app?vid=f786d51c-6a89-4c4b-b8c6-b4110e2eae16"},"vehicle_type_id":"4","last_reported":1728835771,"current_range_meters":19600,"station_id":"ce4bhu92rcd13ifvqi70","pricing_plan_id":"cebpf4jnsgd1na2vs0mg"},{"bike_id":"5bfd2788-c175-4a34-8a25-104f9ae10132","system_id":"levelo_inurba_marseille","lat":43.33721,"lon":5.39191,"is_reserved":false,"is_disabled":false,"rental_uris":{"android":"levelo://app?vid=5bfd2788-c175-4a34-8a25-104f9ae10132","ios":"levelo://app?vid=5bfd2788-c175-4a34-8a25-104f9ae10132"},"vehicle_type_id":"4","last_reported":1728835771,"current_range_meters":9600,"station_id":"ce4bhr92rcd13ifvqhsg","pricing_plan_id":"cebpf4jnsgd1na2vs0mg"},{"bike_id":"ca581163-6f99-461b-acb2-1e254b8cc0b4","system_id":"levelo_inurba_marseille","lat":43.292181,"lon":5.360466,"is_reserved":false,"is_disabled":false,"rental_uris":{"android":"levelo://app?vid=ca581163-6f99-461b-acb2-1e254b8cc0b4","ios":"levelo://app?vid=ca581163-6f99-461b-acb2-1e254b8cc0b4"},"vehicle_type_id":"4","last_reported":1728835771,"current_range_meters":15200,"station_id":"","pricing_plan_id":"cebpf4jnsgd1na2vs0mg"},{"bike_id":"a75a942b-947a-47be-bc42-e210f7fc12ca","system_id":"levelo_inurba_marseille","lat":43.24384,"lon":5.37056,"is_reserved":false,"is_disabled":false,"rental_uris":{"android":"levelo://app?vid=a75a942b-947a-47be-bc42-e210f7fc12ca","ios":"levelo://app?vid=a75a942b-947a-47be-bc42-e210f7fc12ca"},"vehicle_type_id":"4","last_reported":1728835771,"current_range_meters":38800,"station_id":"ce4bhhh2rcd13ifvqfk0","pricing_plan_id":"cebpf4jnsgd1na2vs0mg"},{"bike_id":"90aafc56-4c2d-4083-a0af-dc52876cd7d0","system_id":"levelo_inurba_marseille","lat":43.2762,"lon":5.36106,"is_reserved":false,"is_disabled":false,"rental_uris":{"android":"levelo://app?vid=90aafc56-4c2d-4083-a0af-dc52876cd7d0","ios":"levelo://app?vid=90aafc56-4c2d-4083-a0af-dc52876cd7d0"},"vehicle_type_id":"4","last_reported":1728835771,"current_range_meters":27200,"station_id":"ce4bgj92rcd13ifvqbe0","pricing_plan_id":"cebpf4jnsgd1na2vs0mg"},{"bike_id":"d7c203ac-5ab0-4721-b0c7-3626cd3fbbff","system_id":"levelo_inurba_marseille","lat":43.29409,"lon":5.38616,"is_reserved":false,"is_disabled":false,"rental_uris":{"android":"levelo://app?vid=d7c203ac-5ab0-4721-b0c7-3626cd3fbbff","ios":"levelo://app?vid=d7c203ac-5ab0-4721-b0c7-3626cd3fbbff"},"vehicle_type_id":"4","last_reported":1728835771,"current_range_meters":35600,"station_id":"ce4bh2h2rcd13ifvqdh0","pricing_plan_id":"cebpf4jnsgd1na2vs0mg"},{"bike_id":"43657f3b-282a-40e6-ab79-9604ee1d0e84","system_id":"levelo_inurba_marseille","lat":43.295799,"lon":5.37514,"is_reserved":false,"is_disabled":false,"rental_uris":{"android":"levelo://app?vid=43657f3b-282a-40e6-ab79-9604ee1d0e84","ios":"levelo://app?vid=43657f3b-282a-40e6-ab79-9604ee1d0e84"},"vehicle_type_id":"4","last_reported":1728835771,"current_range_meters":26800,"station_id":"ce4bgh92rcd13ifvqb50","pricing_plan_id":"cebpf4jnsgd1na2vs0mg"},{"bike_id":"3a3fa652-3785-4981-a325-30a3ef02f3d5","system_id":"levelo_inurba_marseille","lat":43.28932,"lon":5.36644,"is_reserved":false,"is_disabled":false,"rental_uris":{"android":"levelo://app?vid=3a3fa652-3785-4981-a325-30a3ef02f3d5","ios":"levelo://app?vid=3a3fa652-3785-4981-a325-30a3ef02f3d5"},"vehicle_type_id":"4","last_reported":1728835771,"current_range_meters":12800,"station_id":"ce4bhap2rcd13ifvqek0","pricing_plan_id":"cebpf4jnsgd1na2vs0mg"},{"bike_id":"fa928755-ed0d-416f-9c81-acbd6eeb00e9","system_id":"levelo_inurba_marseille","lat":43.33717,"lon":5.39186,"is_reserved":false,"is_disabled":false,"rental_uris":{"android":"levelo://app?vid=fa928755-ed0d-416f-9c81-acbd6eeb00e9","ios":"levelo://app?vid=fa928755-ed0d-416f-9c81-acbd6eeb00e9"},"vehicle_type_id":"4","last_reported":1728835771,"current_range_meters":28000,"station_id":"ce4bhr92rcd13ifvqhsg","pricing_plan_id":"cebpf4jnsgd1na2vs0mg"},{"bike_id":"8542527d-fc42-4f62-8b1a-546c9cb50c9b","system_id":"levelo_inurba_marseille","lat":43.23717,"lon":5.40189,"is_reserved":false,"is_disabled":false,"rental_uris":{"android":"levelo://app?vid=8542527d-fc42-4f62-8b1a-546c9cb50c9b","ios":"levelo://app?vid=8542527d-fc42-4f62-8b1a-546c9cb50c9b"},"vehicle_type_id":"4","last_reported":1728835771,"current_range_meters":18800,"station_id":"","pricing_plan_id":"cebpf4jnsgd1na2vs0mg"},{"bike_id":"e31c8b08-14be-43c5-9d37-c3242679c044","system_id":"levelo_inurba_marseille","lat":43.32301,"lon":5.3829,"is_reserved":false,"is_disabled":false,"rental_uris":{"android":"levelo://app?vid=e31c8b08-14be-43c5-9d37-c3242679c044","ios":"levelo://app?vid=e31c8b08-14be-43c5-9d37-c3242679c044"},"vehicle_type_id":"4","last_reported":1728835771,"current_range_meters":10000,"station_id":"ce4bhr12rcd13ifvqhqg","pricing_plan_id":"cebpf4jnsgd1na2vs0mg"},{"bike_id":"f9ca4a4e-ce2f-4401-bfb0-bae9830560e5","system_id":"levelo_inurba_marseille","lat":43.2319,"lon":5.35554,"is_reserved":false,"is_disabled":false,"rental_uris":{"android":"levelo://app?vid=f9ca4a4e-ce2f-4401-bfb0-bae9830560e5","ios":"levelo://app?vid=f9ca4a4e-ce2f-4401-bfb0-bae9830560e5"},"vehicle_type_id":"4","last_reported":1728835771,"current_range_meters":21600,"station_id":"ce4bhu92rcd13ifvqi70","pricing_plan_id":"cebpf4jnsgd1na2vs0mg"},{"bike_id":"b79822c6-1525-4736-acf5-54b37b73ac35","system_id":"levelo_inurba_marseille","lat":43.27184,"lon":5.40999,"is_reserved":false,"is_disabled":false,"rental_uris":{"android":"levelo://app?vid=b79822c6-1525-4736-acf5-54b37b73ac35","ios":"levelo://app?vid=b79822c6-1525-4736-acf5-54b37b73ac35"},"vehicle_type_id":"4","last_reported":1728835771,"current_range_meters":38400,"station_id":"ce4bhl12rcd13ifvqgf0","pricing_plan_id":"cebpf4jnsgd1na2vs0mg"},{"bike_id":"5932d5cc-3886-4a88-9e3c-57fc235f4fc0","system_id":"levelo_inurba_marseille","lat":43.28438,"lon":5.39548,"is_reserved":false,"is_disabled":false,"rental_uris":{"android":"levelo://app?vid=5932d5cc-3886-4a88-9e3c-57fc235f4fc0","ios":"levelo://app?vid=5932d5cc-3886-4a88-9e3c-57fc235f4fc0"},"vehicle_type_id":"4","last_reported":1728835771,"current_range_meters":6400,"station_id":"ce4bhnp2rcd13ifvqh0g","pricing_plan_id":"cebpf4jnsgd1na2vs0mg"},{"bike_id":"210823fb-7abf-4b29-813a-5c529b7f7ecf","system_id":"levelo_inurba_marseille","lat":43.31996,"lon":5.38168,"is_reserved":false,"is_disabled":false,"rental_uris":{"android":"levelo://app?vid=210823fb-7abf-4b29-813a-5c529b7f7ecf","ios":"levelo://app?vid=210823fb-7abf-4b29-813a-5c529b7f7ecf"},"vehicle_type_id":"4","last_reported":1728835771,"current_range_meters":32400,"station_id":"ce4bhr12rcd13ifvqhpg","pricing_plan_id":"cebpf4jnsgd1na2vs0mg"},{"bike_id":"815e484e-eae9-4f3e-aff5-a8ee633115cc","system_id":"levelo_inurba_marseille","lat":43.23059,"lon":5.3549,"is_reserved":false,"is_disabled":false,"rental_uris":{"android":"levelo://app?vid=815e484e-eae9-4f3e-aff5-a8ee633115cc","ios":"levelo://app?vid=815e484e-eae9-4f3e-aff5-a8ee633115cc"},"vehicle_type_id":"4","last_reported":1728835771,"current_range_meters":13600,"station_id":"cpo3342slgdg3j2ifvpg","pricing_plan_id":"cebpf4jnsgd1na2vs0mg"},{"bike_id":"681aaa13-8502-4210-a514-da367804480a","system_id":"levelo_inurba_marseille","lat":43.24388,"lon":5.37067,"is_reserved":false,"is_disabled":false,"rental_uris":{"android":"levelo://app?vid=681aaa13-8502-4210-a514-da367804480a","ios":"levelo://app?vid=681aaa13-8502-4210-a514-da367804480a"},"vehicle_type_id":"4","last_reported":1728835771,"current_range_meters":8400,"station_id":"ce4bhhh2rcd13ifvqfk0","pricing_plan_id":"cebpf4jnsgd1na2vs0mg"},{"bike_id":"bb4397b2-ee91-4425-ba97-96f1a7380834","system_id":"levelo_inurba_marseille","lat":43.27915,"lon":5.39582,"is_reserved":false,"is_disabled":false,"rental_uris":{"android":"levelo://app?vid=bb4397b2-ee91-4425-ba97-96f1a7380834","ios":"levelo://app?vid=bb4397b2-ee91-4425-ba97-96f1a7380834"},"vehicle_type_id":"4","last_reported":1728835771,"current_range_meters":8800,"station_id":"ce4bhf92rcd13ifvqf40","pricing_plan_id":"cebpf4jnsgd1na2vs0mg"},{"bike_id":"f62f94df-7581-48de-ae90-e10a7b5e1e9f","system_id":"levelo_inurba_marseille","lat":43.333887,"lon":5.37823,"is_reserved":false,"is_disabled":false,"rental_uris":{"android":"levelo://app?vid=f62f94df-7581-48de-ae90-e10a7b5e1e9f","ios":"levelo://app?vid=f62f94df-7581-48de-ae90-e10a7b5e1e9f"},"vehicle_type_id":"4","last_reported":1728835771,"current_range_meters":8000,"station_id":"","pricing_plan_id":"cebpf4jnsgd1na2vs0mg"},