{"last_updated":1691694270,"ttl":30,"version":"2.2","data":{"bikes":[{"bike_id":"faedd107-eb0c-4731-b4d6-7a40aa70bb2f","system_id":"levelo_inurba_marseille","lat":43.312239,"lon":5.368562,"is_reserved":false,"is_disabled":false,"rental_uris":{"android":"levelo://app?vid=faedd107-eb0c-4731-b4d6-7a40aa70bb2f","ios":"levelo://app?vid=faedd107-eb0c-4731-b4d6-7a40aa70bb2f"},"vehicle_type_id":"4","last_reported":1691694271,"current_range_meters":22800,"station_id":"ce4bgl92rcd13ifvqbq0","pricing_plan_id":"free"},{"bike_id":"bf4c2ce5-a5e6-4bad-9bdb-cd43c27053de","system_id":"levelo_inurba_marseille","lat":43.312239,"lon":5.368562,"is_reserved":false,"is_disabled":false,"rental_uris":{"android":"levelo://app?vid=bf4c2ce5-a5e6-4bad-9bdb-cd43c27053de","ios":"levelo://app?vid=bf4c2ce5-a5e6-4bad-9bdb-cd43c27053de"},"vehicle_type_id":"4","last_reported":1691694271,"current_range_meters":22000,"station_id":"ce4bgl92rcd13ifvqbq0","pricing_plan_id":"free"},{"bike_id":"0cd3a491-d0cd-4bb7-bb5a-2d01eda8e3cb","system_id":"levelo_inurba_marseille","lat":43.314811,"lon":5.373103,"is_reserved":false,"is_disabled":false,"rental_uris":{"android":"levelo://app?vid=0cd3a491-d0cd-4bb7-bb5a-2d01eda8e3cb","ios":"levelo://app?vid=0cd3a491-d0cd-4bb7-bb5a-2d01eda8e3cb"},"vehicle_type_id":"4","last_reported":1691694271,"current_range_meters":6000,"station_id":"ce4bgt12rcd13ifvqcd0","pricing_plan_id":"free"},{"bike_id":"73273096-57c0-4aab-93af-97948814e52b","system_id":"levelo_inurba_marseille","lat":43.314811,"lon":5.373104,"is_reserved":false,"is_disabled":false,"rental_uris":{"android":"levelo://app?vid=73273096-57c0-4aab-93af-97948814e52b","ios":"levelo://app?vid=73273096-57c0-4aab-93af-97948814e52b"},"vehicle_type_id":"4","last_reported":1691694271,"current_range_meters":1200,"station_id":"ce4bgt12rcd13ifvqcd0","pricing_plan_id":"free"},{"bike_id":"8353c8d9-e5ce-4b05-bf2c-ba38afdfc5d6","system_id":"levelo_inurba_marseille","lat":43.305714,"lon":5.365633,"is_reserved":false,"is_disabled":false,"rental_uris":{"android":"levelo://app?vid=8353c8d9-e5ce-4b05-bf2c-ba38afdfc5d6","ios":"levelo://app?vid=8353c8d9-e5ce-4b05-bf2c-ba38afdfc5d6"},"vehicle_type_id":"4","last_reported":1691694271,"current_range_meters":2800,"station_id":"ce4bgs12rcd13ifvqcag","pricing_plan_id":"free"},{"bike_id":"a670e42b-6f5f-4018-a0eb-93d50ea1b5e3","system_id":"levelo_inurba_marseille","lat":43.305363,"lon":5.367344,"is_reserved":false,"is_disabled":false,"rental_uris":{"android":"levelo://app?vid=a670e42b-6f5f-4018-a0eb-93d50ea1b5e3","ios":"levelo://app?vid=a670e42b-6f5f-4018-a0eb-93d50ea1b5e3"},"vehicle_type_id":"4","last_reported":1691694271,"current_range_meters":6800,"station_id":"ce4bgrp2rcd13ifvqc9g","pricing_plan_id":"free"},{"bike_id":"d0326e90-40b9-4d00-814c-44c565290fdb","system_id":"levelo_inurba_marseille","lat":43.305706,"lon":5.365654,"is_reserved":false,"is_disabled":false,"rental_uris":{"android":"levelo://app?vid=d0326e90-40b9-4d00-814c-44c565290fdb","ios":"levelo://app?vid=d0326e90-40b9-4d00-814c-44c565290fdb"},"vehicle_type_id":"4","last_reported":1691694271,"current_range_meters":0,"station_id":"ce4bgs12rcd13ifvqcag","pricing_plan_id":"free"},{"bike_id":"56710596-7300-4b38-92c3-5ec88e0a8ea8","system_id":"levelo_inurba_marseille","lat":43.305989,"lon":5.37225,"is_reserved":false,"is_disabled":false,"rental_uris":{"android":"levelo://app?vid=56710596-7300-4b38-92c3-5ec88e0a8ea8","ios":"levelo://app?vid=56710596-7300-4b38-92c3-5ec88e0a8ea8"},"vehicle_type_id":"4","last_reported":1691694271,"current_range_meters":10400,"station_id":"ce4bgqh2rcd13ifvqc4g","pricing_plan_id":"free"},{"bike_id":"b9fa7fc7-1a9d-4c7c-aa55-61d62a0b6686","system_id":"levelo_inurba_marseille","lat":43.311131,"lon":5.377651,"is_reserved":false,"is_disabled":false,"rental_uris":{"android":"levelo://app?vid=b9fa7fc7-1a9d-4c7c-aa55-61d62a0b6686","ios":"levelo://app?vid=b9fa7fc7-1a9d-4c7c-aa55-61d62a0b6686"},"vehicle_type_id":"4","last_reported":1691694271,"current_range_meters":14000,"station_id":"ce4bgt92rcd13ifvqcg0","pricing_plan_id":"free"},{"bike_id":"3f7e5c72-534f-4638-ac83-46d20a770535","system_id":"levelo_inurba_marseille","lat":43.311125,"lon":5.377624,"is_reserved":false,"is_disabled":false,"rental_uris":{"android":"levelo://app?vid=3f7e5c72-534f-4638-ac83-46d20a770535","ios":"levelo://app?vid=3f7e5c72-534f-4638-ac83-46d20a770535"},"vehicle_type_id":"4","last_reported":1691694271,"current_range_meters":16400,"station_id":"ce4bgt92rcd13ifvqcg0","pricing_plan_id":"free"},{"bike_id":"3a125ebe-342d-40c7-a0bd-f289a62a8245","system_id":"levelo_inurba_marseille","lat":43.30784,"lon":5.3764,"is_reserved":false,"is_disabled":false,"rental_uris":{"android":"levelo://app?vid=3a125ebe-342d-40c7-a0bd-f289a62a8245","ios":"levelo://app?vid=3a125ebe-342d-40c7-a0bd-f289a62a8245"},"vehicle_type_id":"4","last_reported":1691694271,"current_range_meters":22800,"station_id":"ce4bgv92rcd13ifvqcq0","pricing_plan_id":"free"},{"bike_id":"5d607c95-4095-473e-8a2e-d391fe3222f9","system_id":"levelo_inurba_marseille","lat":43.301939,"lon":5.366286,"is_reserved":false,"is_disabled":false,"rental_uris":{"android":"levelo://app?vid=5d607c95-4095-473e-8a2e-d391fe3222f9","ios":"levelo://app?vid=5d607c95-4095-473e-8a2e-d391fe3222f9"},"vehicle_type_id":"4","last_reported":1691694271,"current_range_meters":14400,"station_id":"ce4bgrh2rcd13ifvqc8g","pricing_plan_id":"free"},{"bike_id":"d3f095d9-43e5-49c2-b6d1-d51acbdf569c","system_id":"levelo_inurba_marseille","lat":43.304606,"lon":5.379026,"is_reserved":false,"is_disabled":false,"rental_uris":{"android":"levelo://app?vid=d3f095d9-43e5-49c2-b6d1-d51acbdf569c","ios":"levelo://app?vid=d3f095d9-43e5-49c2-b6d1-d51acbdf569c"},"vehicle_type_id":"4","last_reported":1691694271,"current_range_meters":5200,"station_id":"ce4bgup2rcd13ifvqcn0","pricing_plan_id":"free"},{"bike_id":"fbcc19d1-e626-4880-9c6d-9292f6cf3049","system_id":"levelo_inurba_marseille","lat":43.304606,"lon":5.379026,"is_reserved":false,"is_disabled":false,"rental_uris":{"android":"levelo://app?vid=fbcc19d1-e626-4880-9c6d-9292f6cf3049","ios":"levelo://app?vid=fbcc19d1-e626-4880-9c6d-9292f6cf3049"},"vehicle_type_id":"4","last_reported":1691694271,"current_range_meters":6400,"station_id":"ce4bgup2rcd13ifvqcn0","pricing_plan_id":"free"},{"bike_id":"d8df8ec3-8fd8-4271-af19-e6d0a1eced51","system_id":"levelo_inurba_marseille","lat":43.304606,"lon":5.379026,"is_reserved":false,"is_disabled":false,"rental_uris":{"android":"levelo://app?vid=d8df8ec3-8fd8-4271-af19-e6d0a1eced51","ios":"levelo://app?vid=d8df8ec3-8fd8-4271-af19-e6d0a1eced51"},"vehicle_type_id":"4","last_reported":1691694271,"current_range_meters":21200,"station_id":"ce4bgup2rcd13ifvqcn0","pricing_plan_id":"free"},{"bike_id":"da3ba877-06d5-4b63-9096-3752a045b7e9","system_id":"levelo_inurba_marseille","lat":43.30067,"lon":5.36889,"is_reserved":false,"is_disabled":false,"rental_uris":{"android":"levelo://app?vid=da3ba877-06d5-4b63-9096-3752a045b7e9","ios":"levelo://app?vid=da3ba877-06d5-4b63-9096-3752a045b7e9"},"vehicle_type_id":"4","last_reported":1691694271,"current_range_meters":8400,"station_id":"","pricing_plan_id":"free"},{"bike_id":"5a37dd45-39cb-4105-933e-c79f681aa43c","system_id":"levelo_inurba_marseille","lat":43.30143,"lon":5.37413,"is_reserved":false,"is_disabled":false,"rental_uris":{"android":"levelo://app?vid=5a37dd45-39cb-4105-933e-c79f681aa43c","ios":"levelo://app?vid=5a37dd45-39cb-4105-933e-c79f681aa43c"},"vehicle_type_id":"4","last_reported":1691694271,"current_range_meters":17200,"station_id":"ce4bgs92rcd13ifvqcc0","pricing_plan_id":"free"},{"bike_id":"485c0385-7ed5-4cc1-afbc-689019f8a289","system_id":"levelo_inurba_marseille","lat":43.31985,"lon":5.38166,"is_reserved":false,"is_disabled":false,"rental_uris":{"android":"levelo://app?vid=485c0385-7ed5-4cc1-afbc-689019f8a289","ios":"levelo://app?vid=485c0385-7ed5-4cc1-afbc-689019f8a289"},"vehicle_type_id":"4","last_reported":1691694271,"current_range_meters":18400,"station_id":"ce4bhr12rcd13ifvqhpg","pricing_plan_id":"free"},{"bike_id":"6e250910-8a13-4bf1-a839-9ec8877174d9","system_id":"levelo_inurba_marseille","lat":43.313571,"lon":5.384829,"is_reserved":false,"is_disabled":false,"rental_uris":{"android":"levelo://app?vid=6e250910-8a13-4bf1-a839-9ec8877174d9","ios":"levelo://app?vid=6e250910-8a13-4bf1-a839-9ec8877174d9"},"vehicle_type_id":"4","last_reported":1691694271,"current_range_meters":20400,"station_id":"ce4bgt92rcd13ifvqcf0","pricing_plan_id":"free"},{"bike_id":"afe0d053-4644-476e-a136-82c8f8ac3197","system_id":"levelo_inurba_marseille","lat":43.313571,"lon":5.384829,"is_reserved":false,"is_disabled":false,"rental_uris":{"android":"levelo://app?vid=afe0d053-4644-476e-a136-82c8f8ac3197","ios":"levelo://app?vid=afe0d053-4644-476e-a136-82c8f8ac3197"},"vehicle_type_id":"4","last_reported":1691694271,"current_range_meters":7600,"station_id":"ce4bgt92rcd13ifvqcf0","pricing_plan_id":"free"},{"bike_id":"f1491c71-497a-4e06-b36d-6570494de64f","system_id":"levelo_inurba_marseille","lat":43.31357,"lon":5.38494,"is_reserved":false,"is_disabled":false,"rental_uris":{"android":"levelo://app?vid=f1491c71-497a-4e06-b36d-6570494de64f","ios":"levelo://app?vid=f1491c71-497a-4e06-b36d-6570494de64f"},"vehicle_type_id":"4","last_reported":1691694271,"current_range_meters":20800,"station_id":"ce4bgt92rcd13ifvqcf0","pricing_plan_id":"free"},{"bike_id":"2f26a036-2498-4881-b45e-ac3b7b811c03","system_id":"levelo_inurba_marseille","lat":43.29978,"lon":5.3717,"is_reserved":false,"is_disabled":false,"rental_uris":{"android":"levelo://app?vid=2f26a036-2498-4881-b45e-ac3b7b811c03","ios":"levelo://app?vid=2f26a036-2498-4881-b45e-ac3b7b811c03"},"vehicle_type_id":"4","last_reported":1691694271,"current_range_meters":12000,"station_id":"ce4bgr92rcd13ifvqc7g","pricing_plan_id":"free"},{"bike_id":"74c1fabd-6c3a-430f-9f4b-b5cbe91730a1","system_id":"levelo_inurba_marseille","lat":43.299222,"lon":5.365554,"is_reserved":false,"is_disabled":false,"rental_uris":{"android":"levelo://app?vid=74c1fabd-6c3a-430f-9f4b-b5cbe91730a1","ios":"levelo://app?vid=74c1fabd-6c3a-430f-9f4b-b5cbe91730a1"},"vehicle_type_id":"4","last_reported":1691694271,"current_range_meters":1200,"station_id":"ce4bgm92rcd13ifvqbr0","pricing_plan_id":"free"},{"bike_id":"e6b09bc1-0f74-4f5c-92d9-fd314f85c467","system_id":"levelo_inurba_marseille","lat":43.29971,"lon":5.37171,"is_reserved":false,"is_disabled":false,"rental_uris":{"android":"levelo://app?vid=e6b09bc1-0f74-4f5c-92d9-fd314f85c467","ios":"levelo://app?vid=e6b09bc1-0f74-4f5c-92d9-fd314f85c467"},"vehicle_type_id":"4","last_reported":1691694271,"current_range_meters":0,"station_id":"ce4bgr92rcd13ifvqc7g","pricing_plan_id":"free"},{"bike_id":"b5b4d7ba-8122-42a9-9d91-743c2c2c1772","system_id":"levelo_inurba_marseille","lat":43.298433,"lon":5.362774,"is_reserved":false,"is_disabled":false,"rental_uris":{"android":"levelo://app?vid=b5b4d7ba-8122-42a9-9d91-743c2c2c1772","ios":"levelo://app?vid=b5b4d7ba-8122-42a9-9d91-743c2c2c1772"},"vehicle_type_id":"4","last_reported":1691694271,"current_range_meters":7600,"station_id":"ce4bgpp2rcd13ifvqc3g","pricing_plan_id":"free"},{"bike_id":"a868370f-7eaf-4e19-9896-bbc8779e25ba","system_id":"levelo_inurba_marseille","lat":43.298433,"lon":5.362774,"is_reserved":false,"is_disabled":false,"rental_uris":{"android":"levelo://app?vid=a868370f-7eaf-4e19-9896-bbc8779e25ba","ios":"levelo://app?vid=a868370f-7eaf-4e19-9896-bbc8779e25ba"},"vehicle_type_id":"4","last_reported":1691694271,"current_range_meters":1200,"station_id":"ce4bgpp2rcd13ifvqc3g","pricing_plan_id":"free"},{"bike_id":"30537d43-af02-4a10-b928-7b9b8cf633d2","system_id":"levelo_inurba_marseille","lat":43.305387,"lon":5.384253,"is_reserved":false,"is_disabled":false,"rental_uris":{"android":"levelo://app?vid=30537d43-af02-4a10-b928-7b9b8cf633d2","ios":"levelo://app?vid=30537d43-af02-4a10-b928-7b9b8cf633d2"},"vehicle_type_id":"4","last_reported":1691694271,"current_range_meters":15200,"station_id":"ce4bgg92rcd13ifvqb30","pricing_plan_id":"free"},{"bike_id":"a6e85fa6-daa7-4dbf-bf96-6ce02b6e7742","system_id":"levelo_inurba_marseille","lat":43.298433,"lon":5.362774,"is_reserved":false,"is_disabled":false,"rental_uris":{"android":"levelo://app?vid=a6e85fa6-daa7-4dbf-bf96-6ce02b6e7742","ios":"levelo://app?vid=a6e85fa6-daa7-4dbf-bf96-6ce02b6e7742"},"vehicle_type_id":"4","last_reported":1691694271,"current_range_meters":8800,"station_id":"ce4bgpp2rcd13ifvqc3g","pricing_plan_id":"free"},{"bike_id":"e9c7b5a7-12a1-4445-9a1a-5e797d711a1a","system_id":"levelo_inurba_marseille","lat":43.311722,"lon":5.387247,"is_reserved":false,"is_disabled":false,"rental_uris":{"android":"levelo://app?vid=e9c7b5a7-12a1-4445-9a1a-5e797d711a1a","ios":"levelo://app?vid=e9c7b5a7-12a1-4445-9a1a-5e797d711a1a"},"vehicle_type_id":"4","last_reported":1691694271,"current_range_meters":28400,"station_id":"ce4bgv12rcd13ifvqcp0","pricing_plan_id":"free"},{"bike_id":"6f74913c-bfeb-4e5e-ba3c-82b734a3a842","system_id":"levelo_inurba_marseille","lat":43.311722,"lon":5.387247,"is_reserved":false,"is_disabled":false,"rental_uris":{"android":"levelo://app?vid=6f74913c-bfeb-4e5e-ba3c-82b734a3a842","ios":"levelo://app?vid=6f74913c-bfeb-4e5e-ba3c-82b734a3a842"},"vehicle_type_id":"4","last_reported":1691694271,"current_range_meters":25200,"station_id":"ce4bgv12rcd13ifvqcp0","pricing_plan_id":"free"},{"bike_id":"3e43da76-0364-4773-80e2-adad7e9e040f","system_id":"levelo_inurba_marseille","lat":43.311722,"lon":5.387247,"is_reserved":false,"is_disabled":false,"rental_uris":{"android":"levelo://app?vid=3e43da76-0364-4773-80e2-adad7e9e040f","ios":"levelo://app?vid=3e43da76-0364-4773-80e2-adad7e9e040f"},"vehicle_type_id":"4","last_reported":1691694271,"current_range_meters":14000,"station_id":"ce4bgv12rcd13ifvqcp0","pricing_plan_id":"free"},{"bike_id":"244109ee-d87f-45d8-aaca-eff6ff7301a6","system_id":"levelo_inurba_marseille","lat":43.311722,"lon":5.387247,"is_reserved":false,"is_disabled":false,"rental_uris":{"android":"levelo://app?vid=244109ee-d87f-45d8-aaca-eff6ff7301a6","ios":"levelo://app?vid=244109ee-d87f-45d8-aaca-eff6ff7301a6"},"vehicle_type_id":"4","last_reported":1691694271,"current_range_meters":1200,"station_id":"ce4bgv12rcd13ifvqcp0","pricing_plan_id":"free"},{"bike_id":"68af6269-05f1-4b85-b3f9-84740559d242","system_id":"levelo_inurba_marseille","lat":43.311722,"lon":5.387247,"is_reserved":false,"is_disabled":false,"rental_uris":{"android":"levelo://app?vid=68af6269-05f1-4b85-b3f9-84740559d242","ios":"levelo://app?vid=68af6269-05f1-4b85-b3f9-84740559d242"},"vehicle_type_id":"4","last_reported":1691694271,"current_range_meters":22400,"station_id":"ce4bgv12rcd13ifvqcp0","pricing_plan_id":"free"},{"bike_id":"70257b8d-c28c-46ac-bcb3-449a94c55ae6","system_id":"levelo_inurba_marseille","lat":43.311722,"lon":5.387247,"is_reserved":false,"is_disabled":false,"rental_uris":{"android":"levelo://app?vid=70257b8d-c28c-46ac-bcb3-449a94c55ae6","ios":"levelo://app?vid=70257b8d-c28c-46ac-bcb3-449a94c55ae6"},"vehicle_type_id":"4","last_reported":1691694271,"current_range_meters":26800,"station_id":"ce4bgv12rcd13ifvqcp0","pricing_plan_id":"free"},{"bike_id":"8cfd9db3-aa2b-469a-9aec-a1bacfe9d6a6","system_id":"levelo_inurba_marseille","lat":43.297774,"lon":5.370875,"is_reserved":false,"is_disabled":false,"rental_uris":{"android":"levelo://app?vid=8cfd9db3-aa2b-469a-9aec-a1bacfe9d6a6","ios":"levelo://app?vid=8cfd9db3-aa2b-469a-9aec-a1bacfe9d6a6"},"vehicle_type_id":"4","last_reported":1691694271,"current_range_meters":12800,"station_id":"ce4bgop2rcd13ifvqc1g","pricing_plan_id":"free"},{"bike_id":"5d76a089-57a6-41c3-9736-662fd5348cfc","system_id":"levelo_inurba_marseille","lat":43.328371,"lon":5.366909,"is_reserved":false,"is_disabled":false,"rental_uris":{"android":"levelo://app?vid=5d76a089-57a6-41c3-9736-662fd5348cfc","ios":"levelo://app?vid=5d76a089-57a6-41c3-9736-662fd5348cfc"},"vehicle_type_id":"4","last_reported":1691694271,"current_range_meters":25600,"station_id":"ce4bhs92rcd13ifvqi0g","pricing_plan_id":"free"},{"bike_id":"4656a0a2-1ed7-49a9-99e1-00b2f7e77116","system_id":"levelo_inurba_marseille","lat":43.32823,"lon":5.3667,"is_reserved":false,"is_disabled":false,"rental_uris":{"android":"levelo://app?vid=4656a0a2-1ed7-49a9-99e1-00b2f7e77116","ios":"levelo://app?vid=4656a0a2-1ed7-49a9-99e1-00b2f7e77116"},"vehicle_type_id":"4","last_reported":1691694271,"current_range_meters":23600,"station_id":"ce4bhs92rcd13ifvqi0g","pricing_plan_id":"free"},{"bike_id":"2f79774f-4293-4cd5-b81e-8ef048788e83","system_id":"levelo_inurba_marseille","lat":43.32824,"lon":5.3668,"is_reserved":false,"is_disabled":false,"rental_uris":{"android":"levelo://app?vid=2f79774f-4293-4cd5-b81e-8ef048788e83","ios":"levelo://app?vid=2f79774f-4293-4cd5-b81e-8ef048788e83"},"vehicle_type_id":"4","last_reported":1691694271,"current_range_meters":7200,"station_id":"ce4bhs92rcd13ifvqi0g","pricing_plan_id":"free"},{"bike_id":"a112a680-d3e0-411d-8250-15bff243835d","system_id":"levelo_inurba_marseille","lat":43.32827,"lon":5.36673,"is_reserved":false,"is_disabled":false,"rental_uris":{"android":"levelo://app?vid=a112a680-d3e0-411d-8250-15bff243835d","ios":"levelo://app?vid=a112a680-d3e0-411d-8250-15bff243835d"},"vehicle_type_id":"4","last_reported":1691694271,"current_range_meters":30400,"station_id":"ce4bhs92rcd13ifvqi0g","pricing_plan_id":"free"},{"bike_id":"f3218e60-d55c-4651-a28e-b22752d014ab","system_id":"levelo_inurba_marseille","lat":43.32828,"lon":5.3669,"is_reserved":false,"is_disabled":false,"rental_uris":{"android":"levelo://app?vid=f3218e60-d55c-4651-a28e-b22752d014ab","ios":"levelo://app?vid=f3218e60-d55c-4651-a28e-b22752d014ab"},"vehicle_type_id":"4","last_reported":1691694271,"current_range_meters":22800,"station_id":"ce4bhs92rcd13ifvqi0g","pricing_plan_id":"free"},{"bike_id":"8ce81456-09b5-4da0-802b-88be49dcac1d","system_id":"levelo_inurba_marseille","lat":43.328371,"lon":5.366909,"is_reserved":false,"is_disabled":false,"rental_uris":{"android":"levelo://app?vid=8ce81456-09b5-4da0-802b-88be49dcac1d","ios":"levelo://app?vid=8ce81456-09b5-4da0-802b-88be49dcac1d"},"vehicle_type_id":"4","last_reported":1691694271,"current_range_meters":27200,"station_id":"ce4bhs92rcd13ifvqi0g","pricing_plan_id":"free"},{"bike_id":"44083f66-fac4-47f0-887c-1e5643752b55","system_id":"levelo_inurba_marseille","lat":43.32829,"lon":5.36673,"is_reserved":false,"is_disabled":false,"rental_uris":{"android":"levelo://app?vid=44083f66-fac4-47f0-887c-1e5643752b55","ios":"levelo://app?vid=44083f66-fac4-47f0-887c-1e5643752b55"},"vehicle_type_id":"4","last_reported":1691694271,"current_range_meters":4800,"station_id":"ce4bhs92rcd13ifvqi0g","pricing_plan_id":"free"},{"bike_id":"cf43544e-989a-4d21-9699-931a6368cb00","system_id":"levelo_inurba_marseille","lat":43.328371,"lon":5.366909,"is_reserved":false,"is_disabled":false,"rental_uris":{"android":"levelo://app?vid=cf43544e-989a-4d21-9699-931a6368cb00","ios":"levelo://app?vid=cf43544e-989a-4d21-9699-931a6368cb00"},"vehicle_type_id":"4","last_reported":1691694271,"current_range_meters":30400,"station_id":"ce4bhs92rcd13ifvqi0g","pricing_plan_id":"free"},{"bike_id":"6e2049d4-c28c-4978-a454-4edbdc0f7037","system_id":"levelo_inurba_marseille","lat":43.3283,"lon":5.3668,"is_reserved":false,"is_disabled":false,"rental_uris":{"android":"levelo://app?vid=6e2049d4-c28c-4978-a454-4edbdc0f7037","ios":"levelo://app?vid=6e2049d4-c28c-4978-a454-4edbdc0f7037"},"vehicle_type_id":"4","last_reported":1691694271,"current_range_meters":3200,"station_id":"ce4bhs92rcd13ifvqi0g","pricing_plan_id":"free"},{"bike_id":"eecb9fc8-33ba-4387-aa9d-597578a2c8a2","system_id":"levelo_inurba_marseille","lat":43.32833,"lon":5.36694,"is_reserved":false,"is_disabled":false,"rental_uris":{"android":"levelo://app?vid=eecb9fc8-33ba-4387-aa9d-597578a2c8a2","ios":"levelo://app?vid=eecb9fc8-33ba-4387-aa9d-597578a2c8a2"},"vehicle_type_id":"4","last_reported":1691694271,"current_range_meters":8400,"station_id":"ce4bhs92rcd13ifvqi0g","pricing_plan_id":"free"},{"bike_id":"c82f63dc-13af-4c33-9101-9fa9fe99e103","system_id":"levelo_inurba_marseille","lat":43.30143,"lon":5.37413,"is_reserved":false,"is_disabled":false,"rental_uris":{"android":"levelo://app?vid=c82f63dc-13af-4c33-9101-9fa9fe99e103","ios":"levelo://app?vid=c82f63dc-13af-4c33-9101-9fa9fe99e103"},"vehicle_type_id":"4","last_reported":1691694271,"current_range_meters":19600,"station_id":"ce4bgs92rcd13ifvqcc0","pricing_plan_id":"free"},{"bike_id":"dd789220-e7b5-42c1-b9dc-dc4243148021","system_id":"levelo_inurba_marseille","lat":43.297163,"lon":5.365866,"is_reserved":false,"is_disabled":false,"rental_uris":{"android":"levelo://app?vid=dd789220-e7b5-42c1-b9dc-dc4243148021","ios":"levelo://app?vid=dd789220-e7b5-42c1-b9dc-dc4243148021"},"vehicle_type_id":"4","last_reported":1691694271,"current_range_meters":31600,"station_id":"ce4bgn12rcd13ifvqbt0","pricing_plan_id":"free"},{"bike_id":"ac8aaa3f-9d58-482b-8416-bde935f1980a","system_id":"levelo_inurba_marseille","lat":43.2968,"lon":5.37291,"is_reserved":false,"is_disabled":false,"rental_uris":{"android":"levelo://app?vid=ac8aaa3f-9d58-482b-8416-bde935f1980a","ios":"levelo://app?vid=ac8aaa3f-9d58-482b-8416-bde935f1980a"},"vehicle_type_id":"4","last_reported":1691694271,"current_range_meters":6000,"station_id":"ce4bgk12rcd13ifvqbj0","pricing_plan_id":"free"},{"bike_id":"74a8a0ff-e5a5-445a-a658-d1df54a23f95","system_id":"levelo_inurba_marseille","lat":43.296131,"lon":5.370791,"is_reserved":false,"is_disabled":false,"rental_uris":{"android":"levelo://app?vid=74a8a0ff-e5a5-445a-a658-d1df54a23f95","ios":"levelo://app?vid=74a8a0ff-e5a5-445a-a658-d1df54a23f95"},"vehicle_type_id":"4","last_reported":1691694271,"current_range_meters":2800,"station_id":"ce4bgnh2rcd13ifvqc0g","pricing_plan_id":"free"},{"bike_id":"2113ea03-1b7c-4170-a5fc-3cd434aaf855","system_id":"levelo_inurba_marseille","lat":43.296131,"lon":5.370773,"is_reserved":false,"is_disabled":false,"rental_uris":{"android":"levelo://app?vid=2113ea03-1b7c-4170-a5fc-3cd434aaf855","ios":"levelo://app?vid=2113ea03-1b7c-4170-a5fc-3cd434aaf855"},"vehicle_type_id":"4","last_reported":1691694271,"current_range_meters":0,"station_id":"ce4bgnh2rcd13ifvqc0g","pricing_plan_id":"free"},{"bike_id":"ec7260e3-e01e-4057-b0c8-f00f88116155","system_id":"levelo_inurba_marseille","lat":43.296131,"lon":5.370791,"is_reserved":false,"is_disabled":false,"rental_uris":{"android":"levelo://app?vid=ec7260e3-e01e-4057-b0c8-f00f88116155","ios":"levelo://app?vid=ec7260e3-e01e-4057-b0c8-f00f88116155"},"vehicle_type_id":"4","last_reported":1691694271,"current_range_meters":800,"station_id":"ce4bgnh2rcd13ifvqc0g","pricing_plan_id":"free"},{"bike_id":"d0040d31-a9de-4110-8b5a-5410cdce0322","system_id":"levelo_inurba_marseille","lat":43.296131,"lon":5.370791,"is_reserved":false,"is_disabled":false,"rental_uris":{"android":"levelo://app?vid=d0040d31-a9de-4110-8b5a-5410cdce0322","ios":"levelo://app?vid=d0040d31-a9de-4110-8b5a-5410cdce0322"},"vehicle_type_id":"4","last_reported":1691694271,"current_range_meters":19200,"station_id":"ce4bgnh2rcd13ifvqc0g","pricing_plan_id":"free"},{"bike_id":"d2bb46c0-7848-495d-b572-c4772b203cdb","system_id":"levelo_inurba_marseille","lat":43.29573,"lon":5.367355,"is_reserved":false,"is_disabled":false,"rental_uris":{"android":"levelo://app?vid=d2bb46c0-7848-495d-b572-c4772b203cdb","ios":"levelo://app?vid=d2bb46c0-7848-495d-b572-c4772b203cdb"},"vehicle_type_id":"4","last_reported":1691694271,"current_range_meters":3200,"station_id":"ce4bgph2rcd13ifvqc2g","pricing_plan_id":"free"},{"bike_id":"86b5470e-3a75-43a2-82e0-02bd7e24473d","system_id":"levelo_inurba_marseille","lat":43.29615,"lon":5.37172,"is_reserved":false,"is_disabled":false,"rental_uris":{"android":"levelo://app?vid=86b5470e-3a75-43a2-82e0-02bd7e24473d","ios":"levelo://app?vid=86b5470e-3a75-43a2-82e0-02bd7e24473d"},"vehicle_type_id":"4","last_reported":1691694271,"current_range_meters":24000,"station_id":"","pricing_plan_id":"free"},{"bike_id":"08079fc8-d27d-48e7-bfb5-8bb2c1833752","system_id":"levelo_inurba_marseille","lat":43.29573,"lon":5.367355,"is_reserved":false,"is_disabled":false,"rental_uris":{"android":"levelo://app?vid=08079fc8-d27d-48e7-bfb5-8bb2c1833752","ios":"levelo://app?vid=08079fc8-d27d-48e7-bfb5-8bb2c1833752"},"vehicle_type_id":"4","last_reported":1691694271,"current_range_meters":4800,"station_id":"ce4bgph2rcd13ifvqc2g","pricing_plan_id":"free"},{"bike_id":"70cac9cd-964c-4ddc-965d-5bfda90d6dd0","system_id":"levelo_inurba_marseille","lat":43.29573,"lon":5.367355,"is_reserved":false,"is_disabled":false,"rental_uris":{"android":"levelo://app?vid=70cac9cd-964c-4ddc-965d-5bfda90d6dd0","ios":"levelo://app?vid=70cac9cd-964c-4ddc-965d-5bfda90d6dd0"},"vehicle_type_id":"4","last_reported":1691694271,"current_range_meters":30400,"station_id":"ce4bgph2rcd13ifvqc2g","pricing_plan_id":"free"},{"bike_id":"412485fd-1433-49e1-a30a-b87be12d47f6","system_id":"levelo_inurba_marseille","lat":43.30949,"lon":5.39026,"is_reserved":false,"is_disabled":false,"rental_uris":{"android":"levelo://app?vid=412485fd-1433-49e1-a30a-b87be12d47f6","ios":"levelo://app?vid=412485fd-1433-49e1-a30a-b87be12d47f6"},"vehicle_type_id":"4","last_reported":1691694271,"current_range_meters":800,"station_id":"ce4bgup2rcd13ifvqco0","pricing_plan_id":"free"},{"bike_id":"394b354f-38b3-4954-b66a-49253371577f","system_id":"levelo_inurba_marseille","lat":43.30948,"lon":5.39029,"is_reserved":false,"is_disabled":false,"rental_uris":{"android":"levelo://app?vid=394b354f-38b3-4954-b66a-49253371577f","ios":"levelo://app?vid=394b354f-38b3-4954-b66a-49253371577f"},"vehicle_type_id":"4","last_reported":1691694271,"current_range_meters":4000,"station_id":"ce4bgup2rcd13ifvqco0","pricing_plan_id":"free"},{"bike_id":"437c2cb6-31d0-45e1-bfad-db7d03715d8e","system_id":"levelo_inurba_marseille","lat":43.309589,"lon":5.390258,"is_reserved":false,"is_disabled":false,"rental_uris":{"android":"levelo://app?vid=437c2cb6-31d0-45e1-bfad-db7d03715d8e","ios":"levelo://app?vid=437c2cb6-31d0-45e1-bfad-db7d03715d8e"},"vehicle_type_id":"4","last_reported":1691694271,"current_range_meters":1600,"station_id":"ce4bgup2rcd13ifvqco0","pricing_plan_id":"free"},{"bike_id":"4981a086-e4d4-43df-b12c-ce793dccc9d4","system_id":"levelo_inurba_marseille","lat":43.309589,"lon":5.390258,"is_reserved":false,"is_disabled":false,"rental_uris":{"android":"levelo://app?vid=4981a086-e4d4-43df-b12c-ce793dccc9d4","ios":"levelo://app?vid=4981a086-e4d4-43df-b12c-ce793dccc9d4"},"vehicle_type_id":"4","last_reported":1691694271,"current_range_meters":0,"station_id":"ce4bgup2rcd13ifvqco0","pricing_plan_id":"free"},{"bike_id":"57f26411-c37d-46a3-81ca-a491d6bc7ff3","system_id":"levelo_inurba_marseille","lat":43.309589,"lon":5.390258,"is_reserved":false,"is_disabled":false,"rental_uris":{"android":"levelo://app?vid=57f26411-c37d-46a3-81ca-a491d6bc7ff3","ios":"levelo://app?vid=57f26411-c37d-46a3-81ca-a491d6bc7ff3"},"vehicle_type_id":"4","last_reported":1691694271,"current_range_meters":24800,"station_id":"ce4bgup2rcd13ifvqco0","pricing_plan_id":"free"},{"bike_id":"47feefbc-be78-4a8f-b712-c0fd0785994b","system_id":"levelo_inurba_marseille","lat":43.30961,"lon":5.39035,"is_reserved":false,"is_disabled":false,"rental_uris":{"android":"levelo://app?vid=47feefbc-be78-4a8f-b712-c0fd0785994b","ios":"levelo://app?vid=47feefbc-be78-4a8f-b712-c0fd0785994b"},"vehicle_type_id":"4","last_reported":1691694271,"current_range_meters":20000,"station_id":"ce4bgup2rcd13ifvqco0","pricing_plan_id":"free"},{"bike_id":"e694f91b-f86e-44eb-ba69-e7a9826977e1","system_id":"levelo_inurba_marseille","lat":43.3095,"lon":5.39033,"is_reserved":false,"is_disabled":false,"rental_uris":{"android":"levelo://app?vid=e694f91b-f86e-44eb-ba69-e7a9826977e1","ios":"levelo://app?vid=e694f91b-f86e-44eb-ba69-e7a9826977e1"},"vehicle_type_id":"4","last_reported":1691694271,"current_range_meters":15600,"station_id":"ce4bgup2rcd13ifvqco0","pricing_plan_id":"free"},{"bike_id":"598f9142-1d73-4084-925a-2fd1eeb571c7","system_id":"levelo_inurba_marseille","lat":43.309589,"lon":5.390258,"is_reserved":false,"is_disabled":false,"rental_uris":{"android":"levelo://app?vid=598f9142-1d73-4084-925a-2fd1eeb571c7","ios":"levelo://app?vid=598f9142-1d73-4084-925a-2fd1eeb571c7"},"vehicle_type_id":"4","last_reported":1691694271,"current_range_meters":12000,"station_id":"ce4bgup2rcd13ifvqco0","pricing_plan_id":"free"},{"bike_id":"14a11f32-87d4-4110-9a80-8511090acac5","system_id":"levelo_inurba_marseille","lat":43.309589,"lon":5.390258,"is_reserved":false,"is_disabled":false,"rental_uris":{"android":"levelo://app?vid=14a11f32-87d4-4110-9a80-8511090acac5","ios":"levelo://app?vid=14a11f32-87d4-4110-9a80-8511090acac5"},"vehicle_type_id":"4","last_reported":1691694271,"current_range_meters":16800,"station_id":"ce4bgup2rcd13ifvqco0","pricing_plan_id":"free"},{"bike_id":"d8bc4cad-9716-42ba-b37b-df504f3605c1","system_id":"levelo_inurba_marseille","lat":43.30951,"lon":5.39037,"is_reserved":false,"is_disabled":false,"rental_uris":{"android":"levelo://app?vid=d8bc4cad-9716-42ba-b37b-df504f3605c1","ios":"levelo://app?vid=d8bc4cad-9716-42ba-b37b-df504f3605c1"},"vehicle_type_id":"4","last_reported":1691694271,"current_range_meters":6000,"station_id":"ce4bgup2rcd13ifvqco0","pricing_plan_id":"free"},{"bike_id":"c90459c3-045b-4e6e-ab44-c6fc5d761b79","system_id":"levelo_inurba_marseille","lat":43.29697,"lon":5.37691,"is_reserved":false,"is_disabled":false,"rental_uris":{"android":"levelo://app?vid=c90459c3-045b-4e6e-ab44-c6fc5d761b79","ios":"levelo://app?vid=c90459c3-045b-4e6e-ab44-c6fc5d761b79"},"vehicle_type_id":"4","last_reported":1691694271,"current_range_meters":2000,"station_id":"ce4bgkh2rcd13ifvqbl0","pricing_plan_id":"free"},{"bike_id":"3ffba66e-0496-4e9b-a732-de581ec7cef7","system_id":"levelo_inurba_marseille","lat":43.299028,"lon":5.381509,"is_reserved":false,"is_disabled":false,"rental_uris":{"android":"levelo://app?vid=3ffba66e-0496-4e9b-a732-de581ec7cef7","ios":"levelo://app?vid=3ffba66e-0496-4e9b-a732-de581ec7cef7"},"vehicle_type_id":"4","last_reported":1691694271,"current_range_meters":3200,"station_id":"ce4bgj12rcd13ifvqbc0","pricing_plan_id":"free"},{"bike_id":"9a382dd2-0daf-44b6-ad4b-c11f35039861","system_id":"levelo_inurba_marseille","lat":43.30954,"lon":5.39048,"is_reserved":false,"is_disabled":false,"rental_uris":{"android":"levelo://app?vid=9a382dd2-0daf-44b6-ad4b-c11f35039861","ios":"levelo://app?vid=9a382dd2-0daf-44b6-ad4b-c11f35039861"},"vehicle_type_id":"4","last_reported":1691694271,"current_range_meters":26000,"station_id":"ce4bgup2rcd13ifvqco0","pricing_plan_id":"free"},{"bike_id":"08f8d4ea-d772-43c2-b601-71455a90ead0","system_id":"levelo_inurba_marseille","lat":43.309589,"lon":5.390258,"is_reserved":false,"is_disabled":false,"rental_uris":{"android":"levelo://app?vid=08f8d4ea-d772-43c2-b601-71455a90ead0","ios":"levelo://app?vid=08f8d4ea-d772-43c2-b601-71455a90ead0"},"vehicle_type_id":"4","last_reported":1691694271,"current_range_meters":9600,"station_id":"ce4bgup2rcd13ifvqco0","pricing_plan_id":"free"},{"bike_id":"eda2d94f-cbd6-454d-ae89-2eb902aad7ad","system_id":"levelo_inurba_marseille","lat":43.317557,"lon":5.390173,"is_reserved":false,"is_disabled":false,"rental_uris":{"android":"levelo://app?vid=eda2d94f-cbd6-454d-ae89-2eb902aad7ad","ios":"levelo://app?vid=eda2d94f-cbd6-454d-ae89-2eb902aad7ad"},"vehicle_type_id":"4","last_reported":1691694271,"current_range_meters":26000,"station_id":"ce4bhqp2rcd13ifvqhng","pricing_plan_id":"free"},{"bike_id":"9e288399-e594-4c1b-827a-c224681650a9","system_id":"levelo_inurba_marseille","lat":43.317557,"lon":5.390173,"is_reserved":false,"is_disabled":false,"rental_uris":{"android":"levelo://app?vid=9e288399-e594-4c1b-827a-c224681650a9","ios":"levelo://app?vid=9e288399-e594-4c1b-827a-c224681650a9"},"vehicle_type_id":"4","last_reported":1691694271,"current_range_meters":31600,"station_id":"ce4bhqp2rcd13ifvqhng","pricing_plan_id":"free"},{"bike_id":"1680c174-b403-4d10-ad16-59aa3077aea9","system_id":"levelo_inurba_marseille","lat":43.29797,"lon":5.38087,"is_reserved":false,"is_disabled":false,"rental_uris":{"android":"levelo://app?vid=1680c174-b403-4d10-ad16-59aa3077aea9","ios":"levelo://app?vid=1680c174-b403-4d10-ad16-59aa3077aea9"},"vehicle_type_id":"4","last_reported":1691694271,"current_range_meters":10400,"station_id":"","pricing_plan_id":"free"},{"bike_id":"944bc3bf-028b-4966-8a89-fe034dacbde1","system_id":"levelo_inurba_marseille","lat":43.29797,"lon":5.38096,"is_reserved":false,"is_disabled":false,"rental_uris":{"android":"levelo://app?vid=944bc3bf-028b-4966-8a89-fe034dacbde1","ios":"levelo://app?vid=944bc3bf-028b-4966-8a89-fe034dacbde1"},"vehicle_type_id":"4","last_reported":1691694271,"current_range_meters":11600,"station_id":"ce4bgip2rcd13ifvqbb0","pricing_plan_id":"free"},{"bike_id":"55eec67b-7258-4015-9446-4b6ca7b74ed6","system_id":"levelo_inurba_marseille","lat":43.297906,"lon":5.380947,"is_reserved":false,"is_disabled":false,"rental_uris":{"android":"levelo://app?vid=55eec67b-7258-4015-9446-4b6ca7b74ed6","ios":"levelo://app?vid=55eec67b-7258-4015-9446-4b6ca7b74ed6"},"vehicle_type_id":"4","last_reported":1691694271,"current_range_meters":4800,"station_id":"ce4bgip2rcd13ifvqbb0","pricing_plan_id":"free"},{"bike_id":"a4df99ce-0488-49dd-a888-94686f562e88","system_id":"levelo_inurba_marseille","lat":43.295748,"lon":5.37522,"is_reserved":false,"is_disabled":false,"rental_uris":{"android":"levelo://app?vid=a4df99ce-0488-49dd-a888-94686f562e88","ios":"levelo://app?vid=a4df99ce-0488-49dd-a888-94686f562e88"},"vehicle_type_id":"4","last_reported":1691694271,"current_range_meters":29200,"station_id":"ce4bgh92rcd13ifvqb50","pricing_plan_id":"free"},{"bike_id":"3b6f1658-692e-468e-a981-7c46b0c6ef4c","system_id":"levelo_inurba_marseille","lat":43.30431,"lon":5.38887,"is_reserved":false,"is_disabled":false,"rental_uris":{"android":"levelo://app?vid=3b6f1658-692e-468e-a981-7c46b0c6ef4c","ios":"levelo://app?vid=3b6f1658-692e-468e-a981-7c46b0c6ef4c"},"vehicle_type_id":"4","last_reported":1691694271,"current_range_meters":5200,"station_id":"ce4bgk12rcd13ifvqbi0","pricing_plan_id":"free"},{"bike_id":"c4610149-7089-434f-a83a-aaa23ce093df","system_id":"levelo_inurba_marseille","lat":43.295748,"lon":5.37522,"is_reserved":false,"is_disabled":false,"rental_uris":{"android":"levelo://app?vid=c4610149-7089-434f-a83a-aaa23ce093df","ios":"levelo://app?vid=c4610149-7089-434f-a83a-aaa23ce093df"},"vehicle_type_id":"4","last_reported":1691694271,"current_range_meters":30800,"station_id":"ce4bgh92rcd13ifvqb50","pricing_plan_id":"free"},{"bike_id":"774be4e7-066a-4fa1-9756-ddc8702b5c85","system_id":"levelo_inurba_marseille","lat":43.295748,"lon":5.37522,"is_reserved":false,"is_disabled":false,"rental_uris":{"android":"levelo://app?vid=774be4e7-066a-4fa1-9756-ddc8702b5c85","ios":"levelo://app?vid=774be4e7-066a-4fa1-9756-ddc8702b5c85"},"vehicle_type_id":"4","last_reported":1691694271,"current_range_meters":17600,"station_id":"ce4bgh92rcd13ifvqb50","pricing_plan_id":"free"},{"bike_id":"63f939e8-6f93-46c9-bb57-953f953c1e00","system_id":"levelo_inurba_marseille","lat":43.304278,"lon":5.388868,"is_reserved":false,"is_disabled":false,"rental_uris":{"android":"levelo://app?vid=63f939e8-6f93-46c9-bb57-953f953c1e00","ios":"levelo://app?vid=63f939e8-6f93-46c9-bb57-953f953c1e00"},"vehicle_type_id":"4","last_reported":1691694271,"current_range_meters":1200,"station_id":"ce4bgk12rcd13ifvqbi0","pricing_plan_id":"free"},{"bike_id":"aee3fdfa-0945-45c9-975a-05ebcf813b61","system_id":"levelo_inurba_marseille","lat":43.304274,"lon":5.388873,"is_reserved":false,"is_disabled":false,"rental_uris":{"android":"levelo://app?vid=aee3fdfa-0945-45c9-975a-05ebcf813b61","ios":"levelo://app?vid=aee3fdfa-0945-45c9-975a-05ebcf813b61"},"vehicle_type_id":"4","last_reported":1691694271,"current_range_meters":2000,"station_id":"ce4bgk12rcd13ifvqbi0","pricing_plan_id":"free"},{"bike_id":"9ba9568d-72e5-4e98-8129-8ab540dc23ea","system_id":"levelo_inurba_marseille","lat":43.304274,"lon":5.388873,"is_reserved":false,"is_disabled":false,"rental_uris":{"android":"levelo://app?vid=9ba9568d-72e5-4e98-8129-8ab540dc23ea","ios":"levelo://app?vid=9ba9568d-72e5-4e98-8129-8ab540dc23ea"},"vehicle_type_id":"4","last_reported":1691694271,"current_range_meters":23600,"station_id":"ce4bgk12rcd13ifvqbi0","pricing_plan_id":"free"},{"bike_id":"171af664-d7af-44fe-a868-9d239924815d","system_id":"levelo_inurba_marseille","lat":43.3043,"lon":5.38903,"is_reserved":false,"is_disabled":false,"rental_uris":{"android":"levelo://app?vid=171af664-d7af-44fe-a868-9d239924815d","ios":"levelo://app?vid=171af664-d7af-44fe-a868-9d239924815d"},"vehicle_type_id":"4","last_reported":1691694271,"current_range_meters":10000,"station_id":"ce4bgk12rcd13ifvqbi0","pricing_plan_id":"free"},{"bike_id":"2dc8b90d-0689-473c-a989-3df9ca83d84e","system_id":"levelo_inurba_marseille","lat":43.29614,"lon":5.37734,"is_reserved":false,"is_disabled":false,"rental_uris":{"android":"levelo://app?vid=2dc8b90d-0689-473c-a989-3df9ca83d84e","ios":"levelo://app?vid=2dc8b90d-0689-473c-a989-3df9ca83d84e"},"vehicle_type_id":"4","last_reported":1691694271,"current_range_meters":0,"station_id":"ce4bgi92rcd13ifvqb90","pricing_plan_id":"free"},{"bike_id":"6c04a97c-9a7d-4ac0-9c58-2443e9941d7a","system_id":"levelo_inurba_marseille","lat":43.295279,"lon":5.375048,"is_reserved":false,"is_disabled":false,"rental_uris":{"android":"levelo://app?vid=6c04a97c-9a7d-4ac0-9c58-2443e9941d7a","ios":"levelo://app?vid=6c04a97c-9a7d-4ac0-9c58-2443e9941d7a"},"vehicle_type_id":"4","last_reported":1691694271,"current_range_meters":16000,"station_id":"ce4bgkp2rcd13ifvqbmg","pricing_plan_id":"free"},{"bike_id":"bbae2850-e107-489c-b3b7-ab18465eff0f","system_id":"levelo_inurba_marseille","lat":43.30896,"lon":5.39162,"is_reserved":false,"is_disabled":false,"rental_uris":{"android":"levelo://app?vid=bbae2850-e107-489c-b3b7-ab18465eff0f","ios":"levelo://app?vid=bbae2850-e107-489c-b3b7-ab18465eff0f"},"vehicle_type_id":"4","last_reported":1691694271,"current_range_meters":8000,"station_id":"ce4bgup2rcd13ifvqco0","pricing_plan_id":"free"},{"bike_id":"cbfed5c3-8699-4f41-accb-94ed61511af5","system_id":"levelo_inurba_marseille","lat":43.299717,"lon":5.384845,"is_reserved":false,"is_disabled":false,"rental_uris":{"android":"levelo://app?vid=cbfed5c3-8699-4f41-accb-94ed61511af5","ios":"levelo://app?vid=cbfed5c3-8699-4f41-accb-94ed61511af5"},"vehicle_type_id":"4","last_reported":1691694271,"current_range_meters":16800,"station_id":"ce4bgj92rcd13ifvqbd0","pricing_plan_id":"free"},{"bike_id":"e3d021b7-1668-4617-939d-387d5b8e3c5d","system_id":"levelo_inurba_marseille","lat":43.299717,"lon":5.384845,"is_reserved":false,"is_disabled":false,"rental_uris":{"android":"levelo://app?vid=e3d021b7-1668-4617-939d-387d5b8e3c5d","ios":"levelo://app?vid=e3d021b7-1668-4617-939d-387d5b8e3c5d"},"vehicle_type_id":"4","last_reported":1691694271,"current_range_meters":6000,"station_id":"ce4bgj92rcd13ifvqbd0","pricing_plan_id":"free"},{"bike_id":"63c998b2-1dd8-4f8e-9593-6270b4bedfc7","system_id":"levelo_inurba_marseille","lat":43.29504,"lon":5.3751,"is_reserved":false,"is_disabled":false,"rental_uris":{"android":"levelo://app?vid=63c998b2-1dd8-4f8e-9593-6270b4bedfc7","ios":"levelo://app?vid=63c998b2-1dd8-4f8e-9593-6270b4bedfc7"},"vehicle_type_id":"4","last_reported":1691694271,"current_range_meters":0,"station_id":"ce4bgkp2rcd13ifvqbmg","pricing_plan_id":"free"},{"bike_id":"665f0e1b-b75e-4373-b06d-a7cc139210fc","system_id":"levelo_inurba_marseille","lat":43.32367,"lon":5.388836,"is_reserved":false,"is_disabled":false,"rental_uris":{"android":"levelo://app?vid=665f0e1b-b75e-4373-b06d-a7cc139210fc","ios":"levelo://app?vid=665f0e1b-b75e-4373-b06d-a7cc139210fc"},"vehicle_type_id":"4","last_reported":1691694271,"current_range_meters":28800,"station_id":"ce4bhqp2rcd13ifvqhog","pricing_plan_id":"free"},{"bike_id":"b52c313a-b6b8-45c3-a54d-4a5b3ba28c60","system_id":"levelo_inurba_marseille","lat":43.292749,"lon":5.368402,"is_reserved":false,"is_disabled":false,"rental_uris":{"android":"levelo://app?vid=b52c313a-b6b8-45c3-a54d-4a5b3ba28c60","ios":"levelo://app?vid=b52c313a-b6b8-45c3-a54d-4a5b3ba28c60"},"vehicle_type_id":"4","last_reported":1691694271,"current_range_meters":400,"station_id":"ce4bhbp2rcd13ifvqesg","pricing_plan_id":"free"},{"bike_id":"dbe406a0-e31d-4174-932b-0d8d584d17c2","system_id":"levelo_inurba_marseille","lat":43.292749,"lon":5.368398,"is_reserved":false,"is_disabled":false,"rental_uris":{"android":"levelo://app?vid=dbe406a0-e31d-4174-932b-0d8d584d17c2","ios":"levelo://app?vid=dbe406a0-e31d-4174-932b-0d8d584d17c2"},"vehicle_type_id":"4","last_reported":1691694271,"current_range_meters":31200,"station_id":"ce4bhbp2rcd13ifvqesg","pricing_plan_id":"free"},{"bike_id":"b6dee6fb-eb7f-428d-8ff4-b87e941c023d","system_id":"levelo_inurba_marseille","lat":43.305994,"lon":5.393687,"is_reserved":false,"is_disabled":false,"rental_uris":{"android":"levelo://app?vid=b6dee6fb-eb7f-428d-8ff4-b87e941c023d","ios":"levelo://app?vid=b6dee6fb-eb7f-428d-8ff4-b87e941c023d"},"vehicle_type_id":"4","last_reported":1691694271,"current_range_meters":4000,"station_id":"ce4bh0p2rcd13ifvqd80","pricing_plan_id":"free"},{"bike_id":"b96a720c-f63d-4c5e-92bb-3470920b3c64","system_id":"levelo_inurba_marseille","lat":43.2936,"lon":5.37835,"is_reserved":false,"is_disabled":false,"rental_uris":{"android":"levelo://app?vid=b96a720c-f63d-4c5e-92bb-3470920b3c64","ios":"levelo://app?vid=b96a720c-f63d-4c5e-92bb-3470920b3c64"},"vehicle_type_id":"4","last_reported":1691694271,"current_range_meters":9600,"station_id":"ce4bgjh2rcd13ifvqbf0","pricing_plan_id":"free"},{"bike_id":"2306a830-9a5c-478d-955f-733950b4934a","system_id":"levelo_inurba_marseille","lat":43.2936,"lon":5.37835,"is_reserved":false,"is_disabled":false,"rental_uris":{"android":"levelo://app?vid=2306a830-9a5c-478d-955f-733950b4934a","ios":"levelo://app?vid=2306a830-9a5c-478d-955f-733950b4934a"},"vehicle_type_id":"4","last_reported":1691694271,"current_range_meters":8400,"station_id":"ce4bgjh2rcd13ifvqbf0","pricing_plan_id":"free"},{"bike_id":"36ed1ce4-966f-4d3f-98a9-37a99181c8b3","system_id":"levelo_inurba_marseille","lat":43.2936,"lon":5.37835,"is_reserved":false,"is_disabled":false,"rental_uris":{"android":"levelo://app?vid=36ed1ce4-966f-4d3f-98a9-37a99181c8b3","ios":"levelo://app?vid=36ed1ce4-966f-4d3f-98a9-37a99181c8b3"},"vehicle_type_id":"4","last_reported":1691694271,"current_range_meters":800,"station_id":"ce4bgjh2rcd13ifvqbf0","pricing_plan_id":"free"},{"bike_id":"1cc324fd-0df5-4cf4-a79e-ab4c01e843da","system_id":"levelo_inurba_marseille","lat":43.292663,"lon":5.376389,"is_reserved":false,"is_disabled":false,"rental_uris":{"android":"levelo://app?vid=1cc324fd-0df5-4cf4-a79e-ab4c01e843da","ios":"levelo://app?vid=1cc324fd-0df5-4cf4-a79e-ab4c01e843da"},"vehicle_type_id":"4","last_reported":1691694271,"current_range_meters":28800,"station_id":"ce4bgi12rcd13ifvqb80","pricing_plan_id":"free"},{"bike_id":"ef43f1b2-bb5a-4358-8a4a-2c208cbabad4","system_id":"levelo_inurba_marseille","lat":43.298764,"lon":5.388973,"is_reserved":false,"is_disabled":false,"rental_uris":{"android":"levelo://app?vid=ef43f1b2-bb5a-4358-8a4a-2c208cbabad4","ios":"levelo://app?vid=ef43f1b2-bb5a-4358-8a4a-2c208cbabad4"},"vehicle_type_id":"4","last_reported":1691694271,"current_range_meters":800,"station_id":"ce4bh392rcd13ifvqdl0","pricing_plan_id":"free"},{"bike_id":"b343d5ce-2f0d-4d34-92ae-90adb703eb19","system_id":"levelo_inurba_marseille","lat":43.291675,"lon":5.371583,"is_reserved":false,"is_disabled":false,"rental_uris":{"android":"levelo://app?vid=b343d5ce-2f0d-4d34-92ae-90adb703eb19","ios":"levelo://app?vid=b343d5ce-2f0d-4d34-92ae-90adb703eb19"},"vehicle_type_id":"4","last_reported":1691694271,"current_range_meters":5200,"station_id":"ce4bha92rcd13ifvqeh0","pricing_plan_id":"free"},{"bike_id":"e1f5653d-5c9b-486e-a5ed-3f4b2d202882","system_id":"levelo_inurba_marseille","lat":43.298764,"lon":5.388973,"is_reserved":false,"is_disabled":false,"rental_uris":{"android":"levelo://app?vid=e1f5653d-5c9b-486e-a5ed-3f4b2d202882","ios":"levelo://app?vid=e1f5653d-5c9b-486e-a5ed-3f4b2d202882"},"vehicle_type_id":"4","last_reported":1691694271,"current_range_meters":25600,"station_id":"ce4bh392rcd13ifvqdl0","pricing_plan_id":"free"},{"bike_id":"0a768e34-ce59-4aca-8417-dfb74e944811","system_id":"levelo_inurba_marseille","lat":43.291675,"lon":5.371583,"is_reserved":false,"is_disabled":false,"rental_uris":{"android":"levelo://app?vid=0a768e34-ce59-4aca-8417-dfb74e944811","ios":"levelo://app?vid=0a768e34-ce59-4aca-8417-dfb74e944811"},"vehicle_type_id":"4","last_reported":1691694271,"current_range_meters":28400,"station_id":"ce4bha92rcd13ifvqeh0","pricing_plan_id":"free"},{"bike_id":"c9fccf71-4a0d-4c3d-949b-694a54982004","system_id":"levelo_inurba_marseille","lat":43.30877,"lon":5.39658,"is_reserved":false,"is_disabled":false,"rental_uris":{"android":"levelo://app?vid=c9fccf71-4a0d-4c3d-949b-694a54982004","ios":"levelo://app?vid=c9fccf71-4a0d-4c3d-949b-694a54982004"},"vehicle_type_id":"4","last_reported":1691694271,"current_range_meters":23600,"station_id":"ce4bh012rcd13ifvqcv0","pricing_plan_id":"free"},{"bike_id":"d598d2f5-7e61-460e-8f63-13e1f6c05680","system_id":"levelo_inurba_marseille","lat":43.29529,"lon":5.385581,"is_reserved":false,"is_disabled":false,"rental_uris":{"android":"levelo://app?vid=d598d2f5-7e61-460e-8f63-13e1f6c05680","ios":"levelo://app?vid=d598d2f5-7e61-460e-8f63-13e1f6c05680"},"vehicle_type_id":"4","last_reported":1691694271,"current_range_meters":24000,"station_id":"ce4bgih2rcd13ifvqba0","pricing_plan_id":"free"},{"bike_id":"c57b0e9f-0eee-4b4d-9e8e-9e0f745a3886","system_id":"levelo_inurba_marseille","lat":43.29529,"lon":5.385581,"is_reserved":false,"is_disabled":false,"rental_uris":{"android":"levelo://app?vid=c57b0e9f-0eee-4b4d-9e8e-9e0f745a3886","ios":"levelo://app?vid=c57b0e9f-0eee-4b4d-9e8e-9e0f745a3886"},"vehicle_type_id":"4","last_reported":1691694271,"current_range_meters":29200,"station_id":"ce4bgih2rcd13ifvqba0","pricing_plan_id":"free"},{"bike_id":"cb6d4a9a-1a1f-4482-bb26-5c6528733371","system_id":"levelo_inurba_marseille","lat":43.29529,"lon":5.385581,"is_reserved":false,"is_disabled":false,"rental_uris":{"android":"levelo://app?vid=cb6d4a9a-1a1f-4482-bb26-5c6528733371","ios":"levelo://app?vid=cb6d4a9a-1a1f-4482-bb26-5c6528733371"},"vehicle_type_id":"4","last_reported":1691694271,"current_range_meters":22000,"station_id":"ce4bgih2rcd13ifvqba0","pricing_plan_id":"free"},{"bike_id":"fe66375f-59c7-4ed3-b08e-09b45e448214","system_id":"levelo_inurba_marseille","lat":43.29529,"lon":5.385581,"is_reserved":false,"is_disabled":false,"rental_uris":{"android":"levelo://app?vid=fe66375f-59c7-4ed3-b08e-09b45e448214","ios":"levelo://app?vid=fe66375f-59c7-4ed3-b08e-09b45e448214"},"vehicle_type_id":"4","last_reported":1691694271,"current_range_meters":13200,"station_id":"ce4bgih2rcd13ifvqba0","pricing_plan_id":"free"},{"bike_id":"4fc4668b-3c27-4cf3-89d7-9982cdbed294","system_id":"levelo_inurba_marseille","lat":43.29529,"lon":5.385581,"is_reserved":false,"is_disabled":false,"rental_uris":{"android":"levelo://app?vid=4fc4668b-3c27-4cf3-89d7-9982cdbed294","ios":"levelo://app?vid=4fc4668b-3c27-4cf3-89d7-9982cdbed294"},"vehicle_type_id":"4","last_reported":1691694271,"current_range_meters":16000,"station_id":"ce4bgih2rcd13ifvqba0","pricing_plan_id":"free"},{"bike_id":"ddb322a5-0886-4f00-bff3-fb8df737737f","system_id":"levelo_inurba_marseille","lat":43.29529,"lon":5.385581,"is_reserved":false,"is_disabled":false,"rental_uris":{"android":"levelo://app?vid=ddb322a5-0886-4f00-bff3-fb8df737737f","ios":"levelo://app?vid=ddb322a5-0886-4f00-bff3-fb8df737737f"},"vehicle_type_id":"4","last_reported":1691694271,"current_range_meters":20400,"station_id":"ce4bgih2rcd13ifvqba0","pricing_plan_id":"free"},{"bike_id":"290bbc61-cbff-4a10-8162-10241e0ceeff","system_id":"levelo_inurba_marseille","lat":43.29529,"lon":5.385581,"is_reserved":false,"is_disabled":false,"rental_uris":{"android":"levelo://app?vid=290bbc61-cbff-4a10-8162-10241e0ceeff","ios":"levelo://app?vid=290bbc61-cbff-4a10-8162-10241e0ceeff"},"vehicle_type_id":"4","last_reported":1691694271,"current_range_meters":28000,"station_id":"ce4bgih2rcd13ifvqba0","pricing_plan_id":"free"},{"bike_id":"3fbf1a6c-6d03-4e13-857d-ace53097b0d1","system_id":"levelo_inurba_marseille","lat":43.29529,"lon":5.385581,"is_reserved":false,"is_disabled":false,"rental_uris":{"android":"levelo://app?vid=3fbf1a6c-6d03-4e13-857d-ace53097b0d1","ios":"levelo://app?vid=3fbf1a6c-6d03-4e13-857d-ace53097b0d1"},"vehicle_type_id":"4","last_reported":1691694271,"current_range_meters":21600,"station_id":"ce4bgih2rcd13ifvqba0","pricing_plan_id":"free"},{"bike_id":"0876aef3-eb94-43de-aea1-ef86dd3ec7f4","system_id":"levelo_inurba_marseille","lat":43.309517,"lon":5.397746,"is_reserved":false,"is_disabled":false,"rental_uris":{"android":"levelo://app?vid=0876aef3-eb94-43de-aea1-ef86dd3ec7f4","ios":"levelo://app?vid=0876aef3-eb94-43de-aea1-ef86dd3ec7f4"},"vehicle_type_id":"4","last_reported":1691694271,"current_range_meters":26000,"station_id":"","pricing_plan_id":"free"},{"bike_id":"4000c8ba-b9b0-4d7b-9a0d-998987a8f41d","system_id":"levelo_inurba_marseille","lat":43.29419,"lon":5.38611,"is_reserved":false,"is_disabled":false,"rental_uris":{"android":"levelo://app?vid=4000c8ba-b9b0-4d7b-9a0d-998987a8f41d","ios":"levelo://app?vid=4000c8ba-b9b0-4d7b-9a0d-998987a8f41d"},"vehicle_type_id":"4","last_reported":1691694271,"current_range_meters":29600,"station_id":"ce4bh2h2rcd13ifvqdh0","pricing_plan_id":"free"},{"bike_id":"d3bb5a2d-e8cb-4c4c-9348-cf4262cff853","system_id":"levelo_inurba_marseille","lat":43.294153,"lon":5.386305,"is_reserved":false,"is_disabled":false,"rental_uris":{"android":"levelo://app?vid=d3bb5a2d-e8cb-4c4c-9348-cf4262cff853","ios":"levelo://app?vid=d3bb5a2d-e8cb-4c4c-9348-cf4262cff853"},"vehicle_type_id":"4","last_reported":1691694271,"current_range_meters":4000,"station_id":"ce4bh2h2rcd13ifvqdh0","pricing_plan_id":"free"},{"bike_id":"d292baf8-ded6-4ea0-9194-6239315965a6","system_id":"levelo_inurba_marseille","lat":43.29417,"lon":5.38614,"is_reserved":false,"is_disabled":false,"rental_uris":{"android":"levelo://app?vid=d292baf8-ded6-4ea0-9194-6239315965a6","ios":"levelo://app?vid=d292baf8-ded6-4ea0-9194-6239315965a6"},"vehicle_type_id":"4","last_reported":1691694271,"current_range_meters":400,"station_id":"ce4bh2h2rcd13ifvqdh0","pricing_plan_id":"free"},{"bike_id":"771da971-deba-4866-bd70-6597f3732c85","system_id":"levelo_inurba_marseille","lat":43.289184,"lon":5.366408,"is_reserved":false,"is_disabled":false,"rental_uris":{"android":"levelo://app?vid=771da971-deba-4866-bd70-6597f3732c85","ios":"levelo://app?vid=771da971-deba-4866-bd70-6597f3732c85"},"vehicle_type_id":"4","last_reported":1691694271,"current_range_meters":17600,"station_id":"ce4bhap2rcd13ifvqek0","pricing_plan_id":"free"},{"bike_id":"d407d204-ef75-46c4-9491-b7dcce71fc86","system_id":"levelo_inurba_marseille","lat":43.28933,"lon":5.36639,"is_reserved":false,"is_disabled":false,"rental_uris":{"android":"levelo://app?vid=d407d204-ef75-46c4-9491-b7dcce71fc86","ios":"levelo://app?vid=d407d204-ef75-46c4-9491-b7dcce71fc86"},"vehicle_type_id":"4","last_reported":1691694271,"current_range_meters":24400,"station_id":"ce4bhap2rcd13ifvqek0","pricing_plan_id":"free"},{"bike_id":"04be2543-3e2c-42d4-a13f-41fbfbb776db","system_id":"levelo_inurba_marseille","lat":43.28932,"lon":5.36637,"is_reserved":false,"is_disabled":false,"rental_uris":{"android":"levelo://app?vid=04be2543-3e2c-42d4-a13f-41fbfbb776db","ios":"levelo://app?vid=04be2543-3e2c-42d4-a13f-41fbfbb776db"},"vehicle_type_id":"4","last_reported":1691694271,"current_range_meters":1200,"station_id":"ce4bhap2rcd13ifvqek0","pricing_plan_id":"free"},{"bike_id":"b43237ce-85af-46ba-bbfc-4053d6c7cd47","system_id":"levelo_inurba_marseille","lat":43.28932,"lon":5.36636,"is_reserved":false,"is_disabled":false,"rental_uris":{"android":"levelo://app?vid=b43237ce-85af-46ba-bbfc-4053d6c7cd47","ios":"levelo://app?vid=b43237ce-85af-46ba-bbfc-4053d6c7cd47"},"vehicle_type_id":"4","last_reported":1691694271,"current_range_meters":16000,"station_id":"ce4bhap2rcd13ifvqek0","pricing_plan_id":"free"},{"bike_id":"6fd6a8ea-dcba-41d9-94da-ef467ff696a9","system_id":"levelo_inurba_marseille","lat":43.289468,"lon":5.363719,"is_reserved":false,"is_disabled":false,"rental_uris":{"android":"levelo://app?vid=6fd6a8ea-dcba-41d9-94da-ef467ff696a9","ios":"levelo://app?vid=6fd6a8ea-dcba-41d9-94da-ef467ff696a9"},"vehicle_type_id":"4","last_reported":1691694271,"current_range_meters":20000,"station_id":"ce4bhc92rcd13ifvqetg","pricing_plan_id":"free"},{"bike_id":"66865473-f6e1-4e2f-8574-218d6d3c6031","system_id":"levelo_inurba_marseille","lat":43.289468,"lon":5.363719,"is_reserved":false,"is_disabled":false,"rental_uris":{"android":"levelo://app?vid=66865473-f6e1-4e2f-8574-218d6d3c6031","ios":"levelo://app?vid=66865473-f6e1-4e2f-8574-218d6d3c6031"},"vehicle_type_id":"4","last_reported":1691694271,"current_range_meters":30400,"station_id":"ce4bhc92rcd13ifvqetg","pricing_plan_id":"free"},{"bike_id":"95c8405d-68d1-4c59-9040-f04131646943","system_id":"levelo_inurba_marseille","lat":43.28925,"lon":5.36624,"is_reserved":false,"is_disabled":false,"rental_uris":{"android":"levelo://app?vid=95c8405d-68d1-4c59-9040-f04131646943","ios":"levelo://app?vid=95c8405d-68d1-4c59-9040-f04131646943"},"vehicle_type_id":"4","last_reported":1691694271,"current_range_meters":28000,"station_id":"ce4bhap2rcd13ifvqek0","pricing_plan_id":"free"},{"bike_id":"a9432ecd-d4cd-47ac-b966-19f9636c6c34","system_id":"levelo_inurba_marseille","lat":43.292642,"lon":5.384254,"is_reserved":false,"is_disabled":false,"rental_uris":{"android":"levelo://app?vid=a9432ecd-d4cd-47ac-b966-19f9636c6c34","ios":"levelo://app?vid=a9432ecd-d4cd-47ac-b966-19f9636c6c34"},"vehicle_type_id":"4","last_reported":1691694271,"current_range_meters":18800,"station_id":"ce4bh692rcd13ifvqea0","pricing_plan_id":"free"},{"bike_id":"835017f3-fdfb-43eb-9006-53d65374ca71","system_id":"levelo_inurba_marseille","lat":43.292664,"lon":5.384454,"is_reserved":false,"is_disabled":false,"rental_uris":{"android":"levelo://app?vid=835017f3-fdfb-43eb-9006-53d65374ca71","ios":"levelo://app?vid=835017f3-fdfb-43eb-9006-53d65374ca71"},"vehicle_type_id":"4","last_reported":1691694271,"current_range_meters":19600,"station_id":"ce4bh692rcd13ifvqea0","pricing_plan_id":"free"},{"bike_id":"d4dcb47a-31f1-4098-b81e-d16a840c98d4","system_id":"levelo_inurba_marseille","lat":43.292682,"lon":5.384495,"is_reserved":false,"is_disabled":false,"rental_uris":{"android":"levelo://app?vid=d4dcb47a-31f1-4098-b81e-d16a840c98d4","ios":"levelo://app?vid=d4dcb47a-31f1-4098-b81e-d16a840c98d4"},"vehicle_type_id":"4","last_reported":1691694271,"current_range_meters":18800,"station_id":"ce4bh692rcd13ifvqea0","pricing_plan_id":"free"},{"bike_id":"a2e94d28-64a2-4320-a128-9dc7d4ddff66","system_id":"levelo_inurba_marseille","lat":43.292642,"lon":5.384254,"is_reserved":false,"is_disabled":false,"rental_uris":{"android":"levelo://app?vid=a2e94d28-64a2-4320-a128-9dc7d4ddff66","ios":"levelo://app?vid=a2e94d28-64a2-4320-a128-9dc7d4ddff66"},"vehicle_type_id":"4","last_reported":1691694271,"current_range_meters":14800,"station_id":"ce4bh692rcd13ifvqea0","pricing_plan_id":"free"},{"bike_id":"9bfe88d5-0565-41ed-b015-d7e74c7afd56","system_id":"levelo_inurba_marseille","lat":43.292685,"lon":5.384531,"is_reserved":false,"is_disabled":false,"rental_uris":{"android":"levelo://app?vid=9bfe88d5-0565-41ed-b015-d7e74c7afd56","ios":"levelo://app?vid=9bfe88d5-0565-41ed-b015-d7e74c7afd56"},"vehicle_type_id":"4","last_reported":1691694271,"current_range_meters":31200,"station_id":"ce4bh692rcd13ifvqea0","pricing_plan_id":"free"},{"bike_id":"dcca8292-f726-4437-bb31-9c707a59fb9a","system_id":"levelo_inurba_marseille","lat":43.292644,"lon":5.384257,"is_reserved":false,"is_disabled":false,"rental_uris":{"android":"levelo://app?vid=dcca8292-f726-4437-bb31-9c707a59fb9a","ios":"levelo://app?vid=dcca8292-f726-4437-bb31-9c707a59fb9a"},"vehicle_type_id":"4","last_reported":1691694271,"current_range_meters":23600,"station_id":"ce4bh692rcd13ifvqea0","pricing_plan_id":"free"},{"bike_id":"423d0d4b-0308-401c-a888-92e5913cad06","system_id":"levelo_inurba_marseille","lat":43.292642,"lon":5.384254,"is_reserved":false,"is_disabled":false,"rental_uris":{"android":"levelo://app?vid=423d0d4b-0308-401c-a888-92e5913cad06","ios":"levelo://app?vid=423d0d4b-0308-401c-a888-92e5913cad06"},"vehicle_type_id":"4","last_reported":1691694271,"current_range_meters":4800,"station_id":"ce4bh692rcd13ifvqea0","pricing_plan_id":"free"},{"bike_id":"eda96265-890c-4cd2-8c6b-68022d0413ec","system_id":"levelo_inurba_marseille","lat":43.29041,"lon":5.399634,"is_reserved":false,"is_disabled":false,"rental_uris":{"android":"levelo://app?vid=eda96265-890c-4cd2-8c6b-68022d0413ec","ios":"levelo://app?vid=eda96265-890c-4cd2-8c6b-68022d0413ec"},"vehicle_type_id":"4","last_reported":1691694271,"current_range_meters":5600,"station_id":"ce4bh392rcd13ifvqdm0","pricing_plan_id":"free"},{"bike_id":"6b521133-ec12-41f0-be82-5819d3217901","system_id":"levelo_inurba_marseille","lat":43.292644,"lon":5.384257,"is_reserved":false,"is_disabled":false,"rental_uris":{"android":"levelo://app?vid=6b521133-ec12-41f0-be82-5819d3217901","ios":"levelo://app?vid=6b521133-ec12-41f0-be82-5819d3217901"},"vehicle_type_id":"4","last_reported":1691694271,"current_range_meters":18000,"station_id":"ce4bh692rcd13ifvqea0","pricing_plan_id":"free"},{"bike_id":"5cc7c443-89b0-4f68-980c-8ab00ab2da4f","system_id":"levelo_inurba_marseille","lat":43.29262,"lon":5.38443,"is_reserved":false,"is_disabled":false,"rental_uris":{"android":"levelo://app?vid=5cc7c443-89b0-4f68-980c-8ab00ab2da4f","ios":"levelo://app?vid=5cc7c443-89b0-4f68-980c-8ab00ab2da4f"},"vehicle_type_id":"4","last_reported":1691694271,"current_range_meters":31200,"station_id":"ce4bh692rcd13ifvqea0","pricing_plan_id":"free"},{"bike_id":"888b9d84-00d3-4656-a490-36c33817fec1","system_id":"levelo_inurba_marseille","lat":43.292642,"lon":5.384254,"is_reserved":false,"is_disabled":false,"rental_uris":{"android":"levelo://app?vid=888b9d84-00d3-4656-a490-36c33817fec1","ios":"levelo://app?vid=888b9d84-00d3-4656-a490-36c33817fec1"},"vehicle_type_id":"4","last_reported":1691694271,"current_range_meters":13600,"station_id":"ce4bh692rcd13ifvqea0","pricing_plan_id":"free"},{"bike_id":"e50b8007-c437-4bbe-b5b4-b38c632d7aa4","system_id":"levelo_inurba_marseille","lat":43.29262,"lon":5.38446,"is_reserved":false,"is_disabled":false,"rental_uris":{"android":"levelo://app?vid=e50b8007-c437-4bbe-b5b4-b38c632d7aa4","ios":"levelo://app?vid=e50b8007-c437-4bbe-b5b4-b38c632d7aa4"},"vehicle_type_id":"4","last_reported":1691694271,"current_range_meters":31200,"station_id":"ce4bh692rcd13ifvqea0","pricing_plan_id":"free"},{"bike_id":"a7852b01-17da-4bd7-aa04-dd52a31f9e9e","system_id":"levelo_inurba_marseille","lat":43.2926,"lon":5.38444,"is_reserved":false,"is_disabled":false,"rental_uris":{"android":"levelo://app?vid=a7852b01-17da-4bd7-aa04-dd52a31f9e9e","ios":"levelo://app?vid=a7852b01-17da-4bd7-aa04-dd52a31f9e9e"},"vehicle_type_id":"4","last_reported":1691694271,"current_range_meters":31200,"station_id":"ce4bh692rcd13ifvqea0","pricing_plan_id":"free"},{"bike_id":"efe805d4-ef1b-445c-90d8-efdcfdcdb7e8","system_id":"levelo_inurba_marseille","lat":43.292642,"lon":5.384254,"is_reserved":false,"is_disabled":false,"rental_uris":{"android":"levelo://app?vid=efe805d4-ef1b-445c-90d8-efdcfdcdb7e8","ios":"levelo://app?vid=efe805d4-ef1b-445c-90d8-efdcfdcdb7e8"},"vehicle_type_id":"4","last_reported":1691694271,"current_range_meters":30400,"station_id":"ce4bh692rcd13ifvqea0","pricing_plan_id":"free"},{"bike_id":"6183c4da-fc57-421c-8ef8-6005f9b93000","system_id":"levelo_inurba_marseille","lat":43.292644,"lon":5.384257,"is_reserved":false,"is_disabled":false,"rental_uris":{"android":"levelo://app?vid=6183c4da-fc57-421c-8ef8-6005f9b93000","ios":"levelo://app?vid=6183c4da-fc57-421c-8ef8-6005f9b93000"},"vehicle_type_id":"4","last_reported":1691694271,"current_range_meters":31600,"station_id":"ce4bh692rcd13ifvqea0","pricing_plan_id":"free"},{"bike_id":"350e124f-9ae0-43e1-9caa-a83af74adc33","system_id":"levelo_inurba_marseille","lat":43.330357,"lon":5.38912,"is_reserved":false,"is_disabled":false,"rental_uris":{"android":"levelo://app?vid=350e124f-9ae0-43e1-9caa-a83af74adc33","ios":"levelo://app?vid=350e124f-9ae0-43e1-9caa-a83af74adc33"},"vehicle_type_id":"4","last_reported":1691694271,"current_range_meters":20000,"station_id":"","pricing_plan_id":"free"},{"bike_id":"0fee5965-6fa3-41ed-94fd-e212550bf080","system_id":"levelo_inurba_marseille","lat":43.330442,"lon":5.389148,"is_reserved":false,"is_disabled":false,"rental_uris":{"android":"levelo://app?vid=0fee5965-6fa3-41ed-94fd-e212550bf080","ios":"levelo://app?vid=0fee5965-6fa3-41ed-94fd-e212550bf080"},"vehicle_type_id":"4","last_reported":1691694271,"current_range_meters":18400,"station_id":"ce4bhr92rcd13ifvqhrg","pricing_plan_id":"free"},{"bike_id":"e1ba2342-5cd1-4783-b75c-011209b60996","system_id":"levelo_inurba_marseille","lat":43.33044,"lon":5.38913,"is_reserved":false,"is_disabled":false,"rental_uris":{"android":"levelo://app?vid=e1ba2342-5cd1-4783-b75c-011209b60996","ios":"levelo://app?vid=e1ba2342-5cd1-4783-b75c-011209b60996"},"vehicle_type_id":"4","last_reported":1691694271,"current_range_meters":22000,"station_id":"ce4bhr92rcd13ifvqhrg","pricing_plan_id":"free"},{"bike_id":"4c6c8599-260a-40af-809e-680a0575fb10","system_id":"levelo_inurba_marseille","lat":43.330442,"lon":5.389148,"is_reserved":false,"is_disabled":false,"rental_uris":{"android":"levelo://app?vid=4c6c8599-260a-40af-809e-680a0575fb10","ios":"levelo://app?vid=4c6c8599-260a-40af-809e-680a0575fb10"},"vehicle_type_id":"4","last_reported":1691694271,"current_range_meters":10800,"station_id":"ce4bhr92rcd13ifvqhrg","pricing_plan_id":"free"},{"bike_id":"cf7df158-307b-4a2b-a221-edb366379194","system_id":"levelo_inurba_marseille","lat":43.33048,"lon":5.3891,"is_reserved":false,"is_disabled":false,"rental_uris":{"android":"levelo://app?vid=cf7df158-307b-4a2b-a221-edb366379194","ios":"levelo://app?vid=cf7df158-307b-4a2b-a221-edb366379194"},"vehicle_type_id":"4","last_reported":1691694271,"current_range_meters":27600,"station_id":"ce4bhr92rcd13ifvqhrg","pricing_plan_id":"free"},{"bike_id":"5e92fafc-e349-4e41-a322-cf7bd93ef45a","system_id":"levelo_inurba_marseille","lat":43.33046,"lon":5.38914,"is_reserved":false,"is_disabled":false,"rental_uris":{"android":"levelo://app?vid=5e92fafc-e349-4e41-a322-cf7bd93ef45a","ios":"levelo://app?vid=5e92fafc-e349-4e41-a322-cf7bd93ef45a"},"vehicle_type_id":"4","last_reported":1691694271,"current_range_meters":14000,"station_id":"ce4bhr92rcd13ifvqhrg","pricing_plan_id":"free"},{"bike_id":"7b78d55e-e99c-4fa7-968a-c672d6912f00","system_id":"levelo_inurba_marseille","lat":43.290103,"lon":5.356114,"is_reserved":false,"is_disabled":false,"rental_uris":{"android":"levelo://app?vid=7b78d55e-e99c-4fa7-968a-c672d6912f00","ios":"levelo://app?vid=7b78d55e-e99c-4fa7-968a-c672d6912f00"},"vehicle_type_id":"4","last_reported":1691694271,"current_range_meters":31600,"station_id":"ce4bhb92rcd13ifvqen0","pricing_plan_id":"free"},{"bike_id":"d92191b5-3897-428d-989c-4b986c7a7e64","system_id":"levelo_inurba_marseille","lat":43.28995,"lon":5.35609,"is_reserved":false,"is_disabled":false,"rental_uris":{"android":"levelo://app?vid=d92191b5-3897-428d-989c-4b986c7a7e64","ios":"levelo://app?vid=d92191b5-3897-428d-989c-4b986c7a7e64"},"vehicle_type_id":"4","last_reported":1691694271,"current_range_meters":26800,"station_id":"ce4bhb92rcd13ifvqen0","pricing_plan_id":"free"},{"bike_id":"67c003be-6b50-4c6b-81d8-39a5fea38396","system_id":"levelo_inurba_marseille","lat":43.290995,"lon":5.381361,"is_reserved":false,"is_disabled":false,"rental_uris":{"android":"levelo://app?vid=67c003be-6b50-4c6b-81d8-39a5fea38396","ios":"levelo://app?vid=67c003be-6b50-4c6b-81d8-39a5fea38396"},"vehicle_type_id":"4","last_reported":1691694271,"current_range_meters":30000,"station_id":"ce4bh512rcd13ifvqe2g","pricing_plan_id":"free"},{"bike_id":"c8a6e9ac-5b5d-45a8-800d-1d7b5dece862","system_id":"levelo_inurba_marseille","lat":43.290995,"lon":5.381361,"is_reserved":false,"is_disabled":false,"rental_uris":{"android":"levelo://app?vid=c8a6e9ac-5b5d-45a8-800d-1d7b5dece862","ios":"levelo://app?vid=c8a6e9ac-5b5d-45a8-800d-1d7b5dece862"},"vehicle_type_id":"4","last_reported":1691694271,"current_range_meters":24800,"station_id":"ce4bh512rcd13ifvqe2g","pricing_plan_id":"free"},{"bike_id":"2d4b5e94-737a-4a89-aac7-064f9d6008b1","system_id":"levelo_inurba_marseille","lat":43.297815,"lon":5.393548,"is_reserved":false,"is_disabled":false,"rental_uris":{"android":"levelo://app?vid=2d4b5e94-737a-4a89-aac7-064f9d6008b1","ios":"levelo://app?vid=2d4b5e94-737a-4a89-aac7-064f9d6008b1"},"vehicle_type_id":"4","last_reported":1691694271,"current_range_meters":28000,"station_id":"chh1huq6cuj3fo74tm60","pricing_plan_id":"free"},{"bike_id":"8ea52360-2eb3-44f9-b3f4-9b3471c6f3e3","system_id":"levelo_inurba_marseille","lat":43.290995,"lon":5.381361,"is_reserved":false,"is_disabled":false,"rental_uris":{"android":"levelo://app?vid=8ea52360-2eb3-44f9-b3f4-9b3471c6f3e3","ios":"levelo://app?vid=8ea52360-2eb3-44f9-b3f4-9b3471c6f3e3"},"vehicle_type_id":"4","last_reported":1691694271,"current_range_meters":22000,"station_id":"ce4bh512rcd13ifvqe2g","pricing_plan_id":"free"},{"bike_id":"1192fc51-1074-4aba-a41b-57e87b9c81c7","system_id":"levelo_inurba_marseille","lat":43.29089,"lon":5.3814,"is_reserved":false,"is_disabled":false,"rental_uris":{"android":"levelo://app?vid=1192fc51-1074-4aba-a41b-57e87b9c81c7","ios":"levelo://app?vid=1192fc51-1074-4aba-a41b-57e87b9c81c7"},"vehicle_type_id":"4","last_reported":1691694271,"current_range_meters":14400,"station_id":"ce4bh512rcd13ifvqe2g","pricing_plan_id":"free"},{"bike_id":"1077c5d1-3c19-4e26-afdb-469501c38af2","system_id":"levelo_inurba_marseille","lat":43.295169,"lon":5.390426,"is_reserved":false,"is_disabled":false,"rental_uris":{"android":"levelo://app?vid=1077c5d1-3c19-4e26-afdb-469501c38af2","ios":"levelo://app?vid=1077c5d1-3c19-4e26-afdb-469501c38af2"},"vehicle_type_id":"4","last_reported":1691694271,"current_range_meters":18800,"station_id":"ce4bh3p2rcd13ifvqdp0","pricing_plan_id":"free"},{"bike_id":"0127aeee-e4fd-42c7-9b64-c35091cc1b22","system_id":"levelo_inurba_marseille","lat":43.295169,"lon":5.390426,"is_reserved":false,"is_disabled":false,"rental_uris":{"android":"levelo://app?vid=0127aeee-e4fd-42c7-9b64-c35091cc1b22","ios":"levelo://app?vid=0127aeee-e4fd-42c7-9b64-c35091cc1b22"},"vehicle_type_id":"4","last_reported":1691694271,"current_range_meters":16000,"station_id":"ce4bh3p2rcd13ifvqdp0","pricing_plan_id":"free"},{"bike_id":"5e1165e4-64d7-4ca7-883c-34c110ba150f","system_id":"levelo_inurba_marseille","lat":43.295169,"lon":5.390426,"is_reserved":false,"is_disabled":false,"rental_uris":{"android":"levelo://app?vid=5e1165e4-64d7-4ca7-883c-34c110ba150f","ios":"levelo://app?vid=5e1165e4-64d7-4ca7-883c-34c110ba150f"},"vehicle_type_id":"4","last_reported":1691694271,"current_range_meters":3200,"station_id":"ce4bh3p2rcd13ifvqdp0","pricing_plan_id":"free"},{"bike_id":"0ade7dd3-a890-4fb1-9070-0a89053e9d0e","system_id":"levelo_inurba_marseille","lat":43.28917,"lon":5.37618,"is_reserved":false,"is_disabled":false,"rental_uris":{"android":"levelo://app?vid=0ade7dd3-a890-4fb1-9070-0a89053e9d0e","ios":"levelo://app?vid=0ade7dd3-a890-4fb1-9070-0a89053e9d0e"},"vehicle_type_id":"4","last_reported":1691694271,"current_range_meters":0,"station_id":"","pricing_plan_id":"free"},{"bike_id":"188706c7-9966-4cf8-855f-a788455a01ee","system_id":"levelo_inurba_marseille","lat":43.295169,"lon":5.390426,"is_reserved":false,"is_disabled":false,"rental_uris":{"android":"levelo://app?vid=188706c7-9966-4cf8-855f-a788455a01ee","ios":"levelo://app?vid=188706c7-9966-4cf8-855f-a788455a01ee"},"vehicle_type_id":"4","last_reported":1691694271,"current_range_meters":11600,"station_id":"ce4bh3p2rcd13ifvqdp0","pricing_plan_id":"free"},{"bike_id":"dfb070e1-2faa-4303-bd03-7177dcf0afde","system_id":"levelo_inurba_marseille","lat":43.295169,"lon":5.390426,"is_reserved":false,"is_disabled":false,"rental_uris":{"android":"levelo://app?vid=dfb070e1-2faa-4303-bd03-7177dcf0afde","ios":"levelo://app?vid=dfb070e1-2faa-4303-bd03-7177dcf0afde"},"vehicle_type_id":"4","last_reported":1691694271,"current_range_meters":29200,"station_id":"ce4bh3p2rcd13ifvqdp0","pricing_plan_id":"free"},{"bike_id":"4ebde0bc-67ee-45bf-9776-b788b9b30888","system_id":"levelo_inurba_marseille","lat":43.29017,"lon":5.3812,"is_reserved":false,"is_disabled":false,"rental_uris":{"android":"levelo://app?vid=4ebde0bc-67ee-45bf-9776-b788b9b30888","ios":"levelo://app?vid=4ebde0bc-67ee-45bf-9776-b788b9b30888"},"vehicle_type_id":"4","last_reported":1691694271,"current_range_meters":8400,"station_id":"ce4bh4p2rcd13ifvqe1g","pricing_plan_id":"free"},{"bike_id":"8e7549ac-7a7f-4433-a2a5-53db4db7c5b5","system_id":"levelo_inurba_marseille","lat":43.28856,"lon":5.358371,"is_reserved":false,"is_disabled":false,"rental_uris":{"android":"levelo://app?vid=8e7549ac-7a7f-4433-a2a5-53db4db7c5b5","ios":"levelo://app?vid=8e7549ac-7a7f-4433-a2a5-53db4db7c5b5"},"vehicle_type_id":"4","last_reported":1691694271,"current_range_meters":26000,"station_id":"ce4bhb12rcd13ifvqem0","pricing_plan_id":"free"},{"bike_id":"94bcd71b-942e-48ed-b8b3-f337cdb50842","system_id":"levelo_inurba_marseille","lat":43.33738,"lon":5.37465,"is_reserved":false,"is_disabled":false,"rental_uris":{"android":"levelo://app?vid=94bcd71b-942e-48ed-b8b3-f337cdb50842","ios":"levelo://app?vid=94bcd71b-942e-48ed-b8b3-f337cdb50842"},"vehicle_type_id":"4","last_reported":1691694271,"current_range_meters":24400,"station_id":"","pricing_plan_id":"free"},{"bike_id":"55c0f65a-0f66-484d-9df9-5434dd0ca22f","system_id":"levelo_inurba_marseille","lat":43.33738,"lon":5.37469,"is_reserved":false,"is_disabled":false,"rental_uris":{"android":"levelo://app?vid=55c0f65a-0f66-484d-9df9-5434dd0ca22f","ios":"levelo://app?vid=55c0f65a-0f66-484d-9df9-5434dd0ca22f"},"vehicle_type_id":"4","last_reported":1691694271,"current_range_meters":22400,"station_id":"","pricing_plan_id":"free"},{"bike_id":"3aeed6a3-82b3-4446-8d3e-34e464e9fe89","system_id":"levelo_inurba_marseille","lat":43.309322,"lon":5.401392,"is_reserved":false,"is_disabled":false,"rental_uris":{"android":"levelo://app?vid=3aeed6a3-82b3-4446-8d3e-34e464e9fe89","ios":"levelo://app?vid=3aeed6a3-82b3-4446-8d3e-34e464e9fe89"},"vehicle_type_id":"4","last_reported":1691694271,"current_range_meters":0,"station_id":"ce4bgvp2rcd13ifvqct0","pricing_plan_id":"free"},{"bike_id":"587f2a5e-97aa-4562-ad3a-7a9ad8b5b318","system_id":"levelo_inurba_marseille","lat":43.33755,"lon":5.37463,"is_reserved":false,"is_disabled":false,"rental_uris":{"android":"levelo://app?vid=587f2a5e-97aa-4562-ad3a-7a9ad8b5b318","ios":"levelo://app?vid=587f2a5e-97aa-4562-ad3a-7a9ad8b5b318"},"vehicle_type_id":"4","last_reported":1691694271,"current_range_meters":24800,"station_id":"","pricing_plan_id":"free"},{"bike_id":"27f6d17c-0534-4332-85c1-adf70c904f62","system_id":"levelo_inurba_marseille","lat":43.30643,"lon":5.40099,"is_reserved":false,"is_disabled":false,"rental_uris":{"android":"levelo://app?vid=27f6d17c-0534-4332-85c1-adf70c904f62","ios":"levelo://app?vid=27f6d17c-0534-4332-85c1-adf70c904f62"},"vehicle_type_id":"4","last_reported":1691694271,"current_range_meters":15200,"station_id":"ce4bh112rcd13ifvqda0","pricing_plan_id":"free"},{"bike_id":"b352ba2b-406c-4e0a-8b14-8d565aa468ab","system_id":"levelo_inurba_marseille","lat":43.301117,"lon":5.398795,"is_reserved":false,"is_disabled":false,"rental_uris":{"android":"levelo://app?vid=b352ba2b-406c-4e0a-8b14-8d565aa468ab","ios":"levelo://app?vid=b352ba2b-406c-4e0a-8b14-8d565aa468ab"},"vehicle_type_id":"4","last_reported":1691694271,"current_range_meters":26400,"station_id":"ce4bh0h2rcd13ifvqd40","pricing_plan_id":"free"},{"bike_id":"e9e99643-39c7-43ca-9378-4e5599c96f69","system_id":"levelo_inurba_marseille","lat":43.286591,"lon":5.363346,"is_reserved":false,"is_disabled":false,"rental_uris":{"android":"levelo://app?vid=e9e99643-39c7-43ca-9378-4e5599c96f69","ios":"levelo://app?vid=e9e99643-39c7-43ca-9378-4e5599c96f69"},"vehicle_type_id":"4","last_reported":1691694271,"current_range_meters":26800,"station_id":"ce4bhah2rcd13ifvqej0","pricing_plan_id":"free"},{"bike_id":"75199276-b705-4ad7-b6a9-49aeaa84628a","system_id":"levelo_inurba_marseille","lat":43.286591,"lon":5.363346,"is_reserved":false,"is_disabled":false,"rental_uris":{"android":"levelo://app?vid=75199276-b705-4ad7-b6a9-49aeaa84628a","ios":"levelo://app?vid=75199276-b705-4ad7-b6a9-49aeaa84628a"},"vehicle_type_id":"4","last_reported":1691694271,"current_range_meters":32000,"station_id":"ce4bhah2rcd13ifvqej0","pricing_plan_id":"free"},{"bike_id":"561c4ef4-4248-4a12-a4b0-f12d72822a17","system_id":"levelo_inurba_marseille","lat":43.286593,"lon":5.363346,"is_reserved":false,"is_disabled":false,"rental_uris":{"android":"levelo://app?vid=561c4ef4-4248-4a12-a4b0-f12d72822a17","ios":"levelo://app?vid=561c4ef4-4248-4a12-a4b0-f12d72822a17"},"vehicle_type_id":"4","last_reported":1691694271,"current_range_meters":28400,"station_id":"ce4bhah2rcd13ifvqej0","pricing_plan_id":"free"},{"bike_id":"0bdab33e-457a-41da-a862-d8f6da7516f4","system_id":"levelo_inurba_marseille","lat":43.286591,"lon":5.363346,"is_reserved":false,"is_disabled":false,"rental_uris":{"android":"levelo://app?vid=0bdab33e-457a-41da-a862-d8f6da7516f4","ios":"levelo://app?vid=0bdab33e-457a-41da-a862-d8f6da7516f4"},"vehicle_type_id":"4","last_reported":1691694271,"current_range_meters":31600,"station_id":"ce4bhah2rcd13ifvqej0","pricing_plan_id":"free"},{"bike_id":"915f802e-f31b-4c71-8de0-2a5fc39e5970","system_id":"levelo_inurba_marseille","lat":43.32994,"lon":5.39403,"is_reserved":false,"is_disabled":false,"rental_uris":{"android":"levelo://app?vid=915f802e-f31b-4c71-8de0-2a5fc39e5970","ios":"levelo://app?vid=915f802e-f31b-4c71-8de0-2a5fc39e5970"},"vehicle_type_id":"4","last_reported":1691694271,"current_range_meters":10000,"station_id":"","pricing_plan_id":"free"},{"bike_id":"2f8a2afe-07e8-45d8-a1a4-05c20a6cb5f7","system_id":"levelo_inurba_marseille","lat":43.286591,"lon":5.363346,"is_reserved":false,"is_disabled":false,"rental_uris":{"android":"levelo://app?vid=2f8a2afe-07e8-45d8-a1a4-05c20a6cb5f7","ios":"levelo://app?vid=2f8a2afe-07e8-45d8-a1a4-05c20a6cb5f7"},"vehicle_type_id":"4","last_reported":1691694271,"current_range_meters":7200,"station_id":"ce4bhah2rcd13ifvqej0","pricing_plan_id":"free"},{"bike_id":"3166d453-aee0-4fa3-88d1-f722437cac37","system_id":"levelo_inurba_marseille","lat":43.286591,"lon":5.363346,"is_reserved":false,"is_disabled":false,"rental_uris":{"android":"levelo://app?vid=3166d453-aee0-4fa3-88d1-f722437cac37","ios":"levelo://app?vid=3166d453-aee0-4fa3-88d1-f722437cac37"},"vehicle_type_id":"4","last_reported":1691694271,"current_range_meters":20800,"station_id":"ce4bhah2rcd13ifvqej0","pricing_plan_id":"free"},{"bike_id":"e6fca172-af6a-430e-9697-6e348cb7eb7a","system_id":"levelo_inurba_marseille","lat":43.286593,"lon":5.363346,"is_reserved":false,"is_disabled":false,"rental_uris":{"android":"levelo://app?vid=e6fca172-af6a-430e-9697-6e348cb7eb7a","ios":"levelo://app?vid=e6fca172-af6a-430e-9697-6e348cb7eb7a"},"vehicle_type_id":"4","last_reported":1691694271,"current_range_meters":5200,"station_id":"ce4bhah2rcd13ifvqej0","pricing_plan_id":"free"},{"bike_id":"2c3df343-bc1c-4eb8-b5f5-75a560bc4a09","system_id":"levelo_inurba_marseille","lat":43.29876,"lon":5.3974,"is_reserved":false,"is_disabled":false,"rental_uris":{"android":"levelo://app?vid=2c3df343-bc1c-4eb8-b5f5-75a560bc4a09","ios":"levelo://app?vid=2c3df343-bc1c-4eb8-b5f5-75a560bc4a09"},"vehicle_type_id":"4","last_reported":1691694271,"current_range_meters":31200,"station_id":"ce4bh0h2rcd13ifvqd50","pricing_plan_id":"free"},{"bike_id":"c8963c91-8753-4ebf-9000-cdaf95a0e0cd","system_id":"levelo_inurba_marseille","lat":43.29866,"lon":5.39735,"is_reserved":false,"is_disabled":false,"rental_uris":{"android":"levelo://app?vid=c8963c91-8753-4ebf-9000-cdaf95a0e0cd","ios":"levelo://app?vid=c8963c91-8753-4ebf-9000-cdaf95a0e0cd"},"vehicle_type_id":"4","last_reported":1691694271,"current_range_meters":27200,"station_id":"ce4bh0h2rcd13ifvqd50","pricing_plan_id":"free"},{"bike_id":"d21a4e83-ebcd-4b68-90f4-2800d99aac74","system_id":"levelo_inurba_marseille","lat":43.295194,"lon":5.39397,"is_reserved":false,"is_disabled":false,"rental_uris":{"android":"levelo://app?vid=d21a4e83-ebcd-4b68-90f4-2800d99aac74","ios":"levelo://app?vid=d21a4e83-ebcd-4b68-90f4-2800d99aac74"},"vehicle_type_id":"4","last_reported":1691694271,"current_range_meters":0,"station_id":"ce4bh292rcd13ifvqdf0","pricing_plan_id":"free"},{"bike_id":"9f01d79b-6edb-4917-88ee-44092bf157a7","system_id":"levelo_inurba_marseille","lat":43.2952,"lon":5.39401,"is_reserved":false,"is_disabled":false,"rental_uris":{"android":"levelo://app?vid=9f01d79b-6edb-4917-88ee-44092bf157a7","ios":"levelo://app?vid=9f01d79b-6edb-4917-88ee-44092bf157a7"},"vehicle_type_id":"4","last_reported":1691694271,"current_range_meters":30000,"station_id":"ce4bh292rcd13ifvqdf0","pricing_plan_id":"free"},{"bike_id":"4bbea780-891b-42fe-be62-4ef2a476351a","system_id":"levelo_inurba_marseille","lat":43.295194,"lon":5.39397,"is_reserved":false,"is_disabled":false,"rental_uris":{"android":"levelo://app?vid=4bbea780-891b-42fe-be62-4ef2a476351a","ios":"levelo://app?vid=4bbea780-891b-42fe-be62-4ef2a476351a"},"vehicle_type_id":"4","last_reported":1691694271,"current_range_meters":26400,"station_id":"ce4bh292rcd13ifvqdf0","pricing_plan_id":"free"},{"bike_id":"92cbe218-35d9-46e4-aa8f-a2fae1f0d6d8","system_id":"levelo_inurba_marseille","lat":43.29027,"lon":5.38643,"is_reserved":false,"is_disabled":false,"rental_uris":{"android":"levelo://app?vid=92cbe218-35d9-46e4-aa8f-a2fae1f0d6d8","ios":"levelo://app?vid=92cbe218-35d9-46e4-aa8f-a2fae1f0d6d8"},"vehicle_type_id":"4","last_reported":1691694271,"current_range_meters":0,"station_id":"ce4bh4p2rcd13ifvqe0g","pricing_plan_id":"free"},{"bike_id":"bcb5de60-bc3a-4c3e-8945-f9f826459e82","system_id":"levelo_inurba_marseille","lat":43.302759,"lon":5.400793,"is_reserved":false,"is_disabled":false,"rental_uris":{"android":"levelo://app?vid=bcb5de60-bc3a-4c3e-8945-f9f826459e82","ios":"levelo://app?vid=bcb5de60-bc3a-4c3e-8945-f9f826459e82"},"vehicle_type_id":"4","last_reported":1691694271,"current_range_meters":5200,"station_id":"ce4bgvh2rcd13ifvqcs0","pricing_plan_id":"free"},{"bike_id":"71070c16-71e4-4658-a755-5d92308d91e0","system_id":"levelo_inurba_marseille","lat":43.286039,"lon":5.370679,"is_reserved":false,"is_disabled":false,"rental_uris":{"android":"levelo://app?vid=71070c16-71e4-4658-a755-5d92308d91e0","ios":"levelo://app?vid=71070c16-71e4-4658-a755-5d92308d91e0"},"vehicle_type_id":"4","last_reported":1691694271,"current_range_meters":30400,"station_id":"ce4bht12rcd13ifvqi60","pricing_plan_id":"free"},{"bike_id":"500f2372-4d41-4551-a5da-0fb7e909bedc","system_id":"levelo_inurba_marseille","lat":43.286039,"lon":5.370679,"is_reserved":false,"is_disabled":false,"rental_uris":{"android":"levelo://app?vid=500f2372-4d41-4551-a5da-0fb7e909bedc","ios":"levelo://app?vid=500f2372-4d41-4551-a5da-0fb7e909bedc"},"vehicle_type_id":"4","last_reported":1691694271,"current_range_meters":31600,"station_id":"ce4bht12rcd13ifvqi60","pricing_plan_id":"free"},{"bike_id":"8b2217da-d596-4523-9497-44bce0ab96f8","system_id":"levelo_inurba_marseille","lat":43.286039,"lon":5.370679,"is_reserved":false,"is_disabled":false,"rental_uris":{"android":"levelo://app?vid=8b2217da-d596-4523-9497-44bce0ab96f8","ios":"levelo://app?vid=8b2217da-d596-4523-9497-44bce0ab96f8"},"vehicle_type_id":"4","last_reported":1691694271,"current_range_meters":31600,"station_id":"ce4bht12rcd13ifvqi60","pricing_plan_id":"free"},{"bike_id":"cf2b3808-e706-4b56-b688-38170075b3dd","system_id":"levelo_inurba_marseille","lat":43.286039,"lon":5.370679,"is_reserved":false,"is_disabled":false,"rental_uris":{"android":"levelo://app?vid=cf2b3808-e706-4b56-b688-38170075b3dd","ios":"levelo://app?vid=cf2b3808-e706-4b56-b688-38170075b3dd"},"vehicle_type_id":"4","last_reported":1691694271,"current_range_meters":31600,"station_id":"ce4bht12rcd13ifvqi60","pricing_plan_id":"free"},{"bike_id":"b06c3806-45c3-4ad6-9033-3a8835ddab05","system_id":"levelo_inurba_marseille","lat":43.286039,"lon":5.370679,"is_reserved":false,"is_disabled":false,"rental_uris":{"android":"levelo://app?vid=b06c3806-45c3-4ad6-9033-3a8835ddab05","ios":"levelo://app?vid=b06c3806-45c3-4ad6-9033-3a8835ddab05"},"vehicle_type_id":"4","last_reported":1691694271,"current_range_meters":15600,"station_id":"ce4bht12rcd13ifvqi60","pricing_plan_id":"free"},{"bike_id":"ae54dd0e-d499-4365-a2ff-28d3e6859a89","system_id":"levelo_inurba_marseille","lat":43.286039,"lon":5.370679,"is_reserved":false,"is_disabled":false,"rental_uris":{"android":"levelo://app?vid=ae54dd0e-d499-4365-a2ff-28d3e6859a89","ios":"levelo://app?vid=ae54dd0e-d499-4365-a2ff-28d3e6859a89"},"vehicle_type_id":"4","last_reported":1691694271,"current_range_meters":7600,"station_id":"ce4bht12rcd13ifvqi60","pricing_plan_id":"free"},{"bike_id":"b53650c0-5d6b-474a-aac9-0affc6c4a258","system_id":"levelo_inurba_marseille","lat":43.286039,"lon":5.370679,"is_reserved":false,"is_disabled":false,"rental_uris":{"android":"levelo://app?vid=b53650c0-5d6b-474a-aac9-0affc6c4a258","ios":"levelo://app?vid=b53650c0-5d6b-474a-aac9-0affc6c4a258"},"vehicle_type_id":"4","last_reported":1691694271,"current_range_meters":31600,"station_id":"ce4bht12rcd13ifvqi60","pricing_plan_id":"free"},{"bike_id":"b7b0a66f-5a7c-43c7-892b-5797e7c56778","system_id":"levelo_inurba_marseille","lat":43.286039,"lon":5.370679,"is_reserved":false,"is_disabled":false,"rental_uris":{"android":"levelo://app?vid=b7b0a66f-5a7c-43c7-892b-5797e7c56778","ios":"levelo://app?vid=b7b0a66f-5a7c-43c7-892b-5797e7c56778"},"vehicle_type_id":"4","last_reported":1691694271,"current_range_meters":13200,"station_id":"ce4bht12rcd13ifvqi60","pricing_plan_id":"free"},{"bike_id":"bf3ba703-5ff5-4390-8e21-5c68a61906c0","system_id":"levelo_inurba_marseille","lat":43.28609,"lon":5.37065,"is_reserved":false,"is_disabled":false,"rental_uris":{"android":"levelo://app?vid=bf3ba703-5ff5-4390-8e21-5c68a61906c0","ios":"levelo://app?vid=bf3ba703-5ff5-4390-8e21-5c68a61906c0"},"vehicle_type_id":"4","last_reported":1691694271,"current_range_meters":26800,"station_id":"ce4bht12rcd13ifvqi60","pricing_plan_id":"free"},{"bike_id":"73268f28-128b-4f97-8ace-d2e3eb233a87","system_id":"levelo_inurba_marseille","lat":43.303,"lon":5.40124,"is_reserved":false,"is_disabled":false,"rental_uris":{"android":"levelo://app?vid=73268f28-128b-4f97-8ace-d2e3eb233a87","ios":"levelo://app?vid=73268f28-128b-4f97-8ace-d2e3eb233a87"},"vehicle_type_id":"4","last_reported":1691694271,"current_range_meters":9200,"station_id":"","pricing_plan_id":"free"},{"bike_id":"a4c81a2a-c3c2-41a4-bf22-a23654c68c5e","system_id":"levelo_inurba_marseille","lat":43.287185,"lon":5.379373,"is_reserved":false,"is_disabled":false,"rental_uris":{"android":"levelo://app?vid=a4c81a2a-c3c2-41a4-bf22-a23654c68c5e","ios":"levelo://app?vid=a4c81a2a-c3c2-41a4-bf22-a23654c68c5e"},"vehicle_type_id":"4","last_reported":1691694271,"current_range_meters":13600,"station_id":"ce4bh9p2rcd13ifvqec0","pricing_plan_id":"free"},{"bike_id":"3bab5a6b-dc79-42af-b705-3c407460119c","system_id":"levelo_inurba_marseille","lat":43.316517,"lon":5.404375,"is_reserved":false,"is_disabled":false,"rental_uris":{"android":"levelo://app?vid=3bab5a6b-dc79-42af-b705-3c407460119c","ios":"levelo://app?vid=3bab5a6b-dc79-42af-b705-3c407460119c"},"vehicle_type_id":"4","last_reported":1691694271,"current_range_meters":15600,"station_id":"ce4bh012rcd13ifvqd00","pricing_plan_id":"free"},{"bike_id":"0b61c3eb-545c-4164-9202-318ce5b808d0","system_id":"levelo_inurba_marseille","lat":43.316523,"lon":5.404367,"is_reserved":false,"is_disabled":false,"rental_uris":{"android":"levelo://app?vid=0b61c3eb-545c-4164-9202-318ce5b808d0","ios":"levelo://app?vid=0b61c3eb-545c-4164-9202-318ce5b808d0"},"vehicle_type_id":"4","last_reported":1691694271,"current_range_meters":27200,"station_id":"ce4bh012rcd13ifvqd00","pricing_plan_id":"free"},{"bike_id":"40330f91-8e92-4f61-9f28-b20267a96160","system_id":"levelo_inurba_marseille","lat":43.291994,"lon":5.392907,"is_reserved":false,"is_disabled":false,"rental_uris":{"android":"levelo://app?vid=40330f91-8e92-4f61-9f28-b20267a96160","ios":"levelo://app?vid=40330f91-8e92-4f61-9f28-b20267a96160"},"vehicle_type_id":"4","last_reported":1691694271,"current_range_meters":800,"station_id":"ce4bh192rcd13ifvqdd0","pricing_plan_id":"free"},{"bike_id":"0529429f-d260-4be5-92b9-4a1824a717c7","system_id":"levelo_inurba_marseille","lat":43.28541,"lon":5.3778,"is_reserved":false,"is_disabled":false,"rental_uris":{"android":"levelo://app?vid=0529429f-d260-4be5-92b9-4a1824a717c7","ios":"levelo://app?vid=0529429f-d260-4be5-92b9-4a1824a717c7"},"vehicle_type_id":"4","last_reported":1691694271,"current_range_meters":400,"station_id":"","pricing_plan_id":"free"},{"bike_id":"aa31457a-65c6-4862-ba0a-6771c6266381","system_id":"levelo_inurba_marseille","lat":43.284538,"lon":5.358657,"is_reserved":false,"is_disabled":false,"rental_uris":{"android":"levelo://app?vid=aa31457a-65c6-4862-ba0a-6771c6266381","ios":"levelo://app?vid=aa31457a-65c6-4862-ba0a-6771c6266381"},"vehicle_type_id":"4","last_reported":1691694271,"current_range_meters":0,"station_id":"ce4bhah2rcd13ifvqei0","pricing_plan_id":"free"},{"bike_id":"a70dfdc6-e2ee-4cb6-bd47-3818bc04ca79","system_id":"levelo_inurba_marseille","lat":43.284538,"lon":5.358657,"is_reserved":false,"is_disabled":false,"rental_uris":{"android":"levelo://app?vid=a70dfdc6-e2ee-4cb6-bd47-3818bc04ca79","ios":"levelo://app?vid=a70dfdc6-e2ee-4cb6-bd47-3818bc04ca79"},"vehicle_type_id":"4","last_reported":1691694271,"current_range_meters":31600,"station_id":"ce4bhah2rcd13ifvqei0","pricing_plan_id":"free"},{"bike_id":"b57696fb-b5b7-4b24-905e-680e88d66735","system_id":"levelo_inurba_marseille","lat":43.284538,"lon":5.358657,"is_reserved":false,"is_disabled":false,"rental_uris":{"android":"levelo://app?vid=b57696fb-b5b7-4b24-905e-680e88d66735","ios":"levelo://app?vid=b57696fb-b5b7-4b24-905e-680e88d66735"},"vehicle_type_id":"4","last_reported":1691694271,"current_range_meters":10400,"station_id":"ce4bhah2rcd13ifvqei0","pricing_plan_id":"free"},{"bike_id":"31265084-8cb9-4304-acda-0b2118b3e9cc","system_id":"levelo_inurba_marseille","lat":43.284538,"lon":5.358657,"is_reserved":false,"is_disabled":false,"rental_uris":{"android":"levelo://app?vid=31265084-8cb9-4304-acda-0b2118b3e9cc","ios":"levelo://app?vid=31265084-8cb9-4304-acda-0b2118b3e9cc"},"vehicle_type_id":"4","last_reported":1691694271,"current_range_meters":24000,"station_id":"ce4bhah2rcd13ifvqei0","pricing_plan_id":"free"},{"bike_id":"3003a43d-5424-470c-b3a3-9bb2c4398cd5","system_id":"levelo_inurba_marseille","lat":43.294314,"lon":5.397498,"is_reserved":false,"is_disabled":false,"rental_uris":{"android":"levelo://app?vid=3003a43d-5424-470c-b3a3-9bb2c4398cd5","ios":"levelo://app?vid=3003a43d-5424-470c-b3a3-9bb2c4398cd5"},"vehicle_type_id":"4","last_reported":1691694271,"current_range_meters":29600,"station_id":"ce4bh3h2rcd13ifvqdo0","pricing_plan_id":"free"},{"bike_id":"8ce0f695-6549-4dbf-ba67-9d8c23a2ec6c","system_id":"levelo_inurba_marseille","lat":43.286194,"lon":5.350887,"is_reserved":false,"is_disabled":false,"rental_uris":{"android":"levelo://app?vid=8ce0f695-6549-4dbf-ba67-9d8c23a2ec6c","ios":"levelo://app?vid=8ce0f695-6549-4dbf-ba67-9d8c23a2ec6c"},"vehicle_type_id":"4","last_reported":1691694271,"current_range_meters":13200,"station_id":"ce4bhb92rcd13ifvqen0","pricing_plan_id":"free"},{"bike_id":"44e3f9ec-1b18-440b-8956-f7b7a5783050","system_id":"levelo_inurba_marseille","lat":43.283998,"lon":5.375062,"is_reserved":false,"is_disabled":false,"rental_uris":{"android":"levelo://app?vid=44e3f9ec-1b18-440b-8956-f7b7a5783050","ios":"levelo://app?vid=44e3f9ec-1b18-440b-8956-f7b7a5783050"},"vehicle_type_id":"4","last_reported":1691694271,"current_range_meters":22000,"station_id":"ce4bh412rcd13ifvqds0","pricing_plan_id":"free"},{"bike_id":"19b4b037-0378-49d1-9551-4c747ac6339d","system_id":"levelo_inurba_marseille","lat":43.283998,"lon":5.375062,"is_reserved":false,"is_disabled":false,"rental_uris":{"android":"levelo://app?vid=19b4b037-0378-49d1-9551-4c747ac6339d","ios":"levelo://app?vid=19b4b037-0378-49d1-9551-4c747ac6339d"},"vehicle_type_id":"4","last_reported":1691694271,"current_range_meters":6400,"station_id":"ce4bh412rcd13ifvqds0","pricing_plan_id":"free"},{"bike_id":"76c4dcf9-c74f-4a67-8dfa-b328c7618554","system_id":"levelo_inurba_marseille","lat":43.283998,"lon":5.375062,"is_reserved":false,"is_disabled":false,"rental_uris":{"android":"levelo://app?vid=76c4dcf9-c74f-4a67-8dfa-b328c7618554","ios":"levelo://app?vid=76c4dcf9-c74f-4a67-8dfa-b328c7618554"},"vehicle_type_id":"4","last_reported":1691694271,"current_range_meters":12000,"station_id":"ce4bh412rcd13ifvqds0","pricing_plan_id":"free"},{"bike_id":"329918ba-82f3-48dc-961c-6adfed1230bd","system_id":"levelo_inurba_marseille","lat":43.283998,"lon":5.375062,"is_reserved":false,"is_disabled":false,"rental_uris":{"android":"levelo://app?vid=329918ba-82f3-48dc-961c-6adfed1230bd","ios":"levelo://app?vid=329918ba-82f3-48dc-961c-6adfed1230bd"},"vehicle_type_id":"4","last_reported":1691694271,"current_range_meters":28800,"station_id":"ce4bh412rcd13ifvqds0","pricing_plan_id":"free"},{"bike_id":"acb584e3-de95-4f46-bb36-dc9aaad4d361","system_id":"levelo_inurba_marseille","lat":43.29572,"lon":5.39975,"is_reserved":false,"is_disabled":false,"rental_uris":{"android":"levelo://app?vid=acb584e3-de95-4f46-bb36-dc9aaad4d361","ios":"levelo://app?vid=acb584e3-de95-4f46-bb36-dc9aaad4d361"},"vehicle_type_id":"4","last_reported":1691694271,"current_range_meters":14400,"station_id":"","pricing_plan_id":"free"},{"bike_id":"0820ab51-aaad-48b3-b51b-6ea468895209","system_id":"levelo_inurba_marseille","lat":43.283998,"lon":5.375062,"is_reserved":false,"is_disabled":false,"rental_uris":{"android":"levelo://app?vid=0820ab51-aaad-48b3-b51b-6ea468895209","ios":"levelo://app?vid=0820ab51-aaad-48b3-b51b-6ea468895209"},"vehicle_type_id":"4","last_reported":1691694271,"current_range_meters":17600,"station_id":"ce4bh412rcd13ifvqds0","pricing_plan_id":"free"},{"bike_id":"7171cc77-9b0d-4db4-b5b6-a31b429b3069","system_id":"levelo_inurba_marseille","lat":43.286595,"lon":5.386795,"is_reserved":false,"is_disabled":false,"rental_uris":{"android":"levelo://app?vid=7171cc77-9b0d-4db4-b5b6-a31b429b3069","ios":"levelo://app?vid=7171cc77-9b0d-4db4-b5b6-a31b429b3069"},"vehicle_type_id":"4","last_reported":1691694271,"current_range_meters":3200,"station_id":"ce4bh492rcd13ifvqdug","pricing_plan_id":"free"},{"bike_id":"b6850797-3835-4805-ab6a-d52264a39746","system_id":"levelo_inurba_marseille","lat":43.28401,"lon":5.37824,"is_reserved":false,"is_disabled":false,"rental_uris":{"android":"levelo://app?vid=b6850797-3835-4805-ab6a-d52264a39746","ios":"levelo://app?vid=b6850797-3835-4805-ab6a-d52264a39746"},"vehicle_type_id":"4","last_reported":1691694271,"current_range_meters":14000,"station_id":"ce4bh412rcd13ifvqdr0","pricing_plan_id":"free"},{"bike_id":"63955b37-d768-44a6-bd5b-70d8842d5c89","system_id":"levelo_inurba_marseille","lat":43.31883,"lon":5.40735,"is_reserved":false,"is_disabled":false,"rental_uris":{"android":"levelo://app?vid=63955b37-d768-44a6-bd5b-70d8842d5c89","ios":"levelo://app?vid=63955b37-d768-44a6-bd5b-70d8842d5c89"},"vehicle_type_id":"4","last_reported":1691694271,"current_range_meters":0,"station_id":"","pricing_plan_id":"free"},{"bike_id":"a8abd5d0-daa5-4694-bcb6-1028d87b1444","system_id":"levelo_inurba_marseille","lat":43.33717,"lon":5.391857,"is_reserved":false,"is_disabled":false,"rental_uris":{"android":"levelo://app?vid=a8abd5d0-daa5-4694-bcb6-1028d87b1444","ios":"levelo://app?vid=a8abd5d0-daa5-4694-bcb6-1028d87b1444"},"vehicle_type_id":"4","last_reported":1691694271,"current_range_meters":4400,"station_id":"ce4bhr92rcd13ifvqhsg","pricing_plan_id":"free"},{"bike_id":"edb3c5c3-dea4-418b-ab85-ce27e4437e73","system_id":"levelo_inurba_marseille","lat":43.33717,"lon":5.391857,"is_reserved":false,"is_disabled":false,"rental_uris":{"android":"levelo://app?vid=edb3c5c3-dea4-418b-ab85-ce27e4437e73","ios":"levelo://app?vid=edb3c5c3-dea4-418b-ab85-ce27e4437e73"},"vehicle_type_id":"4","last_reported":1691694271,"current_range_meters":0,"station_id":"ce4bhr92rcd13ifvqhsg","pricing_plan_id":"free"},{"bike_id":"fbfeeb75-e370-407d-81d3-a22af631e8cf","system_id":"levelo_inurba_marseille","lat":43.323464,"lon":5.406297,"is_reserved":false,"is_disabled":false,"rental_uris":{"android":"levelo://app?vid=fbfeeb75-e370-407d-81d3-a22af631e8cf","ios":"levelo://app?vid=fbfeeb75-e370-407d-81d3-a22af631e8cf"},"vehicle_type_id":"4","last_reported":1691694271,"current_range_meters":28400,"station_id":"ce4bhq92rcd13ifvqhjg","pricing_plan_id":"free"},{"bike_id":"a369c97d-81f0-46c7-b8ce-be37c51bdc96","system_id":"levelo_inurba_marseille","lat":43.33717,"lon":5.391857,"is_reserved":false,"is_disabled":false,"rental_uris":{"android":"levelo://app?vid=a369c97d-81f0-46c7-b8ce-be37c51bdc96","ios":"levelo://app?vid=a369c97d-81f0-46c7-b8ce-be37c51bdc96"},"vehicle_type_id":"4","last_reported":1691694271,"current_range_meters":28000,"station_id":"ce4bhr92rcd13ifvqhsg","pricing_plan_id":"free"},{"bike_id":"99655be4-85c4-4618-9f8f-575f85f1237b","system_id":"levelo_inurba_marseille","lat":43.323464,"lon":5.406297,"is_reserved":false,"is_disabled":false,"rental_uris":{"android":"levelo://app?vid=99655be4-85c4-4618-9f8f-575f85f1237b","ios":"levelo://app?vid=99655be4-85c4-4618-9f8f-575f85f1237b"},"vehicle_type_id":"4","last_reported":1691694271,"current_range_meters":8800,"station_id":"ce4bhq92rcd13ifvqhjg","pricing_plan_id":"free"},{"bike_id":"68deabe1-9b4a-4139-8e5e-0fb984c4d2e3","system_id":"levelo_inurba_marseille","lat":43.284793,"lon":5.384113,"is_reserved":false,"is_disabled":false,"rental_uris":{"android":"levelo://app?vid=68deabe1-9b4a-4139-8e5e-0fb984c4d2e3","ios":"levelo://app?vid=68deabe1-9b4a-4139-8e5e-0fb984c4d2e3"},"vehicle_type_id":"4","last_reported":1691694271,"current_range_meters":3600,"station_id":"ce4bh512rcd13ifvqe3g","pricing_plan_id":"free"},{"bike_id":"66c9707e-0efc-49e7-8e89-88316feb6b63","system_id":"levelo_inurba_marseille","lat":43.28862,"lon":5.39306,"is_reserved":false,"is_disabled":false,"rental_uris":{"android":"levelo://app?vid=66c9707e-0efc-49e7-8e89-88316feb6b63","ios":"levelo://app?vid=66c9707e-0efc-49e7-8e89-88316feb6b63"},"vehicle_type_id":"4","last_reported":1691694271,"current_range_meters":12400,"station_id":"ce4bh2p2rcd13ifvqdi0","pricing_plan_id":"free"},{"bike_id":"c64fb976-6da2-4608-ac9e-e927feb58bde","system_id":"levelo_inurba_marseille","lat":43.297946,"lon":5.404063,"is_reserved":false,"is_disabled":false,"rental_uris":{"android":"levelo://app?vid=c64fb976-6da2-4608-ac9e-e927feb58bde","ios":"levelo://app?vid=c64fb976-6da2-4608-ac9e-e927feb58bde"},"vehicle_type_id":"4","last_reported":1691694271,"current_range_meters":14800,"station_id":"ce4bh112rcd13ifvqd90","pricing_plan_id":"free"},{"bike_id":"a08bc895-fb41-41e5-a206-76d8cf6b30f4","system_id":"levelo_inurba_marseille","lat":43.284793,"lon":5.384119,"is_reserved":false,"is_disabled":false,"rental_uris":{"android":"levelo://app?vid=a08bc895-fb41-41e5-a206-76d8cf6b30f4","ios":"levelo://app?vid=a08bc895-fb41-41e5-a206-76d8cf6b30f4"},"vehicle_type_id":"4","last_reported":1691694271,"current_range_meters":24400,"station_id":"ce4bh512rcd13ifvqe3g","pricing_plan_id":"free"},{"bike_id":"13654ed6-e020-494e-a89a-4e8b641b29ca","system_id":"levelo_inurba_marseille","lat":43.32337,"lon":5.40793,"is_reserved":false,"is_disabled":false,"rental_uris":{"android":"levelo://app?vid=13654ed6-e020-494e-a89a-4e8b641b29ca","ios":"levelo://app?vid=13654ed6-e020-494e-a89a-4e8b641b29ca"},"vehicle_type_id":"4","last_reported":1691694271,"current_range_meters":30800,"station_id":"","pricing_plan_id":"free"},{"bike_id":"9725bf95-8fd3-41f9-b82d-e13898086f3d","system_id":"levelo_inurba_marseille","lat":43.292724,"lon":5.401131,"is_reserved":false,"is_disabled":false,"rental_uris":{"android":"levelo://app?vid=9725bf95-8fd3-41f9-b82d-e13898086f3d","ios":"levelo://app?vid=9725bf95-8fd3-41f9-b82d-e13898086f3d"},"vehicle_type_id":"4","last_reported":1691694271,"current_range_meters":26000,"station_id":"ce4bh312rcd13ifvqdk0","pricing_plan_id":"free"},{"bike_id":"5cec26ac-344f-432b-af34-450b75305b9b","system_id":"levelo_inurba_marseille","lat":43.292724,"lon":5.401131,"is_reserved":false,"is_disabled":false,"rental_uris":{"android":"levelo://app?vid=5cec26ac-344f-432b-af34-450b75305b9b","ios":"levelo://app?vid=5cec26ac-344f-432b-af34-450b75305b9b"},"vehicle_type_id":"4","last_reported":1691694271,"current_range_meters":31600,"station_id":"ce4bh312rcd13ifvqdk0","pricing_plan_id":"free"},{"bike_id":"cc4c8e3b-ce5b-413a-a1f4-4a5f03f7822f","system_id":"levelo_inurba_marseille","lat":43.282744,"lon":5.350533,"is_reserved":false,"is_disabled":false,"rental_uris":{"android":"levelo://app?vid=cc4c8e3b-ce5b-413a-a1f4-4a5f03f7822f","ios":"levelo://app?vid=cc4c8e3b-ce5b-413a-a1f4-4a5f03f7822f"},"vehicle_type_id":"4","last_reported":1691694271,"current_range_meters":31600,"station_id":"ce4bhbp2rcd13ifvqerg","pricing_plan_id":"free"},{"bike_id":"88940920-727e-47f8-bee6-24feedff1167","system_id":"levelo_inurba_marseille","lat":43.282754,"lon":5.350519,"is_reserved":false,"is_disabled":false,"rental_uris":{"android":"levelo://app?vid=88940920-727e-47f8-bee6-24feedff1167","ios":"levelo://app?vid=88940920-727e-47f8-bee6-24feedff1167"},"vehicle_type_id":"4","last_reported":1691694271,"current_range_meters":31200,"station_id":"ce4bhbp2rcd13ifvqerg","pricing_plan_id":"free"},{"bike_id":"45ceacb8-9e8b-46fe-92e5-9a6e231814aa","system_id":"levelo_inurba_marseille","lat":43.283502,"lon":5.386471,"is_reserved":false,"is_disabled":false,"rental_uris":{"android":"levelo://app?vid=45ceacb8-9e8b-46fe-92e5-9a6e231814aa","ios":"levelo://app?vid=45ceacb8-9e8b-46fe-92e5-9a6e231814aa"},"vehicle_type_id":"4","last_reported":1691694271,"current_range_meters":30400,"station_id":"ce4bh492rcd13ifvqdvg","pricing_plan_id":"free"},{"bike_id":"8ac28735-5c05-40ca-acd1-bd48f55de7be","system_id":"levelo_inurba_marseille","lat":43.28039,"lon":5.36939,"is_reserved":false,"is_disabled":false,"rental_uris":{"android":"levelo://app?vid=8ac28735-5c05-40ca-acd1-bd48f55de7be","ios":"levelo://app?vid=8ac28735-5c05-40ca-acd1-bd48f55de7be"},"vehicle_type_id":"4","last_reported":1691694271,"current_range_meters":31200,"station_id":"ce4bha12rcd13ifvqef0","pricing_plan_id":"free"},{"bike_id":"497af39a-a213-4b11-94a2-801cd4d63820","system_id":"levelo_inurba_marseille","lat":43.28039,"lon":5.369297,"is_reserved":false,"is_disabled":false,"rental_uris":{"android":"levelo://app?vid=497af39a-a213-4b11-94a2-801cd4d63820","ios":"levelo://app?vid=497af39a-a213-4b11-94a2-801cd4d63820"},"vehicle_type_id":"4","last_reported":1691694271,"current_range_meters":10000,"station_id":"ce4bha12rcd13ifvqef0","pricing_plan_id":"free"},{"bike_id":"241b027d-f57e-413a-90ee-dcd393c7023f","system_id":"levelo_inurba_marseille","lat":43.280372,"lon":5.369417,"is_reserved":false,"is_disabled":false,"rental_uris":{"android":"levelo://app?vid=241b027d-f57e-413a-90ee-dcd393c7023f","ios":"levelo://app?vid=241b027d-f57e-413a-90ee-dcd393c7023f"},"vehicle_type_id":"4","last_reported":1691694271,"current_range_meters":30000,"station_id":"ce4bha12rcd13ifvqef0","pricing_plan_id":"free"},{"bike_id":"e8709050-38c5-4368-bcd4-86cc9ba41e3c","system_id":"levelo_inurba_marseille","lat":43.28039,"lon":5.369297,"is_reserved":false,"is_disabled":false,"rental_uris":{"android":"levelo://app?vid=e8709050-38c5-4368-bcd4-86cc9ba41e3c","ios":"levelo://app?vid=e8709050-38c5-4368-bcd4-86cc9ba41e3c"},