{"last_updated":1750086708,"ttl":60,"version":"2.2","data":{"bikes":[{"bike_id":"3da29fb8-fc97-44c6-b9ac-31dd456b2fd4","system_id":"levelo_inurba_marseille","lat":43.33771,"lon":5.37424,"is_reserved":false,"is_disabled":true,"rental_uris":{"android":"levelo://app?vid=3da29fb8-fc97-44c6-b9ac-31dd456b2fd4","ios":"levelo://app?vid=3da29fb8-fc97-44c6-b9ac-31dd456b2fd4"},"vehicle_type_id":"4","last_reported":1750086708,"current_range_meters":0,"station_id":"","pricing_plan_id":"cebpf4jnsgd1na2vs0mg"},{"bike_id":"01861ad8-a8d7-4be6-816e-651927c87584","system_id":"levelo_inurba_marseille","lat":43.33751,"lon":5.37456,"is_reserved":false,"is_disabled":true,"rental_uris":{"android":"levelo://app?vid=01861ad8-a8d7-4be6-816e-651927c87584","ios":"levelo://app?vid=01861ad8-a8d7-4be6-816e-651927c87584"},"vehicle_type_id":"4","last_reported":1750086708,"current_range_meters":0,"station_id":"","pricing_plan_id":"cebpf4jnsgd1na2vs0mg"},{"bike_id":"d2bd57c8-6b64-48db-ad24-5398eb3fd9d6","system_id":"levelo_inurba_marseille","lat":43.337444,"lon":5.374475,"is_reserved":false,"is_disabled":true,"rental_uris":{"android":"levelo://app?vid=d2bd57c8-6b64-48db-ad24-5398eb3fd9d6","ios":"levelo://app?vid=d2bd57c8-6b64-48db-ad24-5398eb3fd9d6"},"vehicle_type_id":"4","last_reported":1750086708,"current_range_meters":0,"station_id":"","pricing_plan_id":"cebpf4jnsgd1na2vs0mg"},{"bike_id":"31efc9ba-0c74-4af5-9228-1de18fc992e3","system_id":"levelo_inurba_marseille","lat":43.3,"lon":5.37031,"is_reserved":false,"is_disabled":true,"rental_uris":{"android":"levelo://app?vid=31efc9ba-0c74-4af5-9228-1de18fc992e3","ios":"levelo://app?vid=31efc9ba-0c74-4af5-9228-1de18fc992e3"},"vehicle_type_id":"4","last_reported":1750086708,"current_range_meters":0,"station_id":"","pricing_plan_id":"cebpf4jnsgd1na2vs0mg"},{"bike_id":"62a493c7-4534-4419-ad43-0582de34a72a","system_id":"levelo_inurba_marseille","lat":43.21362,"lon":5.35522,"is_reserved":false,"is_disabled":true,"rental_uris":{"android":"levelo://app?vid=62a493c7-4534-4419-ad43-0582de34a72a","ios":"levelo://app?vid=62a493c7-4534-4419-ad43-0582de34a72a"},"vehicle_type_id":"4","last_reported":1750086708,"current_range_meters":0,"station_id":"","pricing_plan_id":"cebpf4jnsgd1na2vs0mg"},{"bike_id":"c62a3532-5b9b-4775-9c30-3af76a7d3009","system_id":"levelo_inurba_marseille","lat":43.27246,"lon":5.36262,"is_reserved":false,"is_disabled":true,"rental_uris":{"android":"levelo://app?vid=c62a3532-5b9b-4775-9c30-3af76a7d3009","ios":"levelo://app?vid=c62a3532-5b9b-4775-9c30-3af76a7d3009"},"vehicle_type_id":"4","last_reported":1750086708,"current_range_meters":0,"station_id":"","pricing_plan_id":"cebpf4jnsgd1na2vs0mg"},{"bike_id":"117f24b3-d6ce-455f-99fd-f28a795c0458","system_id":"levelo_inurba_marseille","lat":43.28043,"lon":5.38454,"is_reserved":false,"is_disabled":true,"rental_uris":{"android":"levelo://app?vid=117f24b3-d6ce-455f-99fd-f28a795c0458","ios":"levelo://app?vid=117f24b3-d6ce-455f-99fd-f28a795c0458"},"vehicle_type_id":"4","last_reported":1750086708,"current_range_meters":0,"station_id":"","pricing_plan_id":"cebpf4jnsgd1na2vs0mg"},{"bike_id":"946f5633-31c1-46bf-ab81-23560e476e56","system_id":"levelo_inurba_marseille","lat":43.26052,"lon":5.38735,"is_reserved":false,"is_disabled":true,"rental_uris":{"android":"levelo://app?vid=946f5633-31c1-46bf-ab81-23560e476e56","ios":"levelo://app?vid=946f5633-31c1-46bf-ab81-23560e476e56"},"vehicle_type_id":"4","last_reported":1750086708,"current_range_meters":0,"station_id":"","pricing_plan_id":"cebpf4jnsgd1na2vs0mg"},{"bike_id":"caca20da-18e0-443e-a3dc-04ab1bbad8db","system_id":"levelo_inurba_marseille","lat":43.27125,"lon":5.36392,"is_reserved":false,"is_disabled":true,"rental_uris":{"android":"levelo://app?vid=caca20da-18e0-443e-a3dc-04ab1bbad8db","ios":"levelo://app?vid=caca20da-18e0-443e-a3dc-04ab1bbad8db"},"vehicle_type_id":"4","last_reported":1750086708,"current_range_meters":0,"station_id":"","pricing_plan_id":"cebpf4jnsgd1na2vs0mg"},{"bike_id":"93af304b-67b5-47b8-a3fd-e0775f7cde8c","system_id":"levelo_inurba_marseille","lat":43.2153,"lon":5.34737,"is_reserved":false,"is_disabled":true,"rental_uris":{"android":"levelo://app?vid=93af304b-67b5-47b8-a3fd-e0775f7cde8c","ios":"levelo://app?vid=93af304b-67b5-47b8-a3fd-e0775f7cde8c"},"vehicle_type_id":"4","last_reported":1750086708,"current_range_meters":0,"station_id":"","pricing_plan_id":"cebpf4jnsgd1na2vs0mg"},{"bike_id":"d6609b4f-333b-43c1-9ebe-8726f5e76e88","system_id":"levelo_inurba_marseille","lat":43.337444,"lon":5.374475,"is_reserved":false,"is_disabled":true,"rental_uris":{"android":"levelo://app?vid=d6609b4f-333b-43c1-9ebe-8726f5e76e88","ios":"levelo://app?vid=d6609b4f-333b-43c1-9ebe-8726f5e76e88"},"vehicle_type_id":"4","last_reported":1750086708,"current_range_meters":0,"station_id":"","pricing_plan_id":"cebpf4jnsgd1na2vs0mg"},{"bike_id":"a354a693-87cc-4bf2-b99d-b0ea81e88075","system_id":"levelo_inurba_marseille","lat":43.261553,"lon":5.388235,"is_reserved":false,"is_disabled":true,"rental_uris":{"android":"levelo://app?vid=a354a693-87cc-4bf2-b99d-b0ea81e88075","ios":"levelo://app?vid=a354a693-87cc-4bf2-b99d-b0ea81e88075"},"vehicle_type_id":"4","last_reported":1750086708,"current_range_meters":0,"station_id":"","pricing_plan_id":"cebpf4jnsgd1na2vs0mg"},{"bike_id":"a06cb25e-2ceb-4977-a828-2c9366c125c7","system_id":"levelo_inurba_marseille","lat":43.2993,"lon":5.3655,"is_reserved":false,"is_disabled":true,"rental_uris":{"android":"levelo://app?vid=a06cb25e-2ceb-4977-a828-2c9366c125c7","ios":"levelo://app?vid=a06cb25e-2ceb-4977-a828-2c9366c125c7"},"vehicle_type_id":"4","last_reported":1750086708,"current_range_meters":0,"station_id":"ce4bgm92rcd13ifvqbr0","pricing_plan_id":"cebpf4jnsgd1na2vs0mg"},{"bike_id":"96aaee24-7f36-4656-88ab-48b4ed8a1813","system_id":"levelo_inurba_marseille","lat":43.27377,"lon":5.36252,"is_reserved":false,"is_disabled":true,"rental_uris":{"android":"levelo://app?vid=96aaee24-7f36-4656-88ab-48b4ed8a1813","ios":"levelo://app?vid=96aaee24-7f36-4656-88ab-48b4ed8a1813"},"vehicle_type_id":"4","last_reported":1750086708,"current_range_meters":0,"station_id":"ce4bhbh2rcd13ifvqeo0","pricing_plan_id":"cebpf4jnsgd1na2vs0mg"},{"bike_id":"eee5e20d-8555-4451-94b7-33ed968b33b2","system_id":"levelo_inurba_marseille","lat":43.23953,"lon":5.36641,"is_reserved":false,"is_disabled":true,"rental_uris":{"android":"levelo://app?vid=eee5e20d-8555-4451-94b7-33ed968b33b2","ios":"levelo://app?vid=eee5e20d-8555-4451-94b7-33ed968b33b2"},"vehicle_type_id":"4","last_reported":1750086708,"current_range_meters":0,"station_id":"ce4bhi12rcd13ifvqfp0","pricing_plan_id":"cebpf4jnsgd1na2vs0mg"},{"bike_id":"a8688c71-a40c-4167-85f7-821595ff3623","system_id":"levelo_inurba_marseille","lat":43.29862,"lon":5.38303,"is_reserved":false,"is_disabled":true,"rental_uris":{"android":"levelo://app?vid=a8688c71-a40c-4167-85f7-821595ff3623","ios":"levelo://app?vid=a8688c71-a40c-4167-85f7-821595ff3623"},"vehicle_type_id":"4","last_reported":1750086708,"current_range_meters":800,"station_id":"","pricing_plan_id":"cebpf4jnsgd1na2vs0mg"},{"bike_id":"0f9598dc-5b5f-4afc-bc62-2f3f8fd1fe0d","system_id":"levelo_inurba_marseille","lat":43.29592,"lon":5.38099,"is_reserved":false,"is_disabled":true,"rental_uris":{"android":"levelo://app?vid=0f9598dc-5b5f-4afc-bc62-2f3f8fd1fe0d","ios":"levelo://app?vid=0f9598dc-5b5f-4afc-bc62-2f3f8fd1fe0d"},"vehicle_type_id":"4","last_reported":1750086708,"current_range_meters":800,"station_id":"ce4bgl12rcd13ifvqbo0","pricing_plan_id":"cebpf4jnsgd1na2vs0mg"},{"bike_id":"7d050a62-cef4-443f-955a-da1dece9b930","system_id":"levelo_inurba_marseille","lat":43.27573,"lon":5.38414,"is_reserved":false,"is_disabled":true,"rental_uris":{"android":"levelo://app?vid=7d050a62-cef4-443f-955a-da1dece9b930","ios":"levelo://app?vid=7d050a62-cef4-443f-955a-da1dece9b930"},"vehicle_type_id":"4","last_reported":1750086708,"current_range_meters":800,"station_id":"ce4bhh92rcd13ifvqfi0","pricing_plan_id":"cebpf4jnsgd1na2vs0mg"},{"bike_id":"40313cae-2971-49a3-a521-6638f0968936","system_id":"levelo_inurba_marseille","lat":43.301883,"lon":5.366217,"is_reserved":false,"is_disabled":true,"rental_uris":{"android":"levelo://app?vid=40313cae-2971-49a3-a521-6638f0968936","ios":"levelo://app?vid=40313cae-2971-49a3-a521-6638f0968936"},"vehicle_type_id":"4","last_reported":1750086708,"current_range_meters":1200,"station_id":"ce4bgrh2rcd13ifvqc8g","pricing_plan_id":"cebpf4jnsgd1na2vs0mg"},{"bike_id":"28c3f56b-d629-4758-ab87-a7a89e9e2ff2","system_id":"levelo_inurba_marseille","lat":43.304206,"lon":5.397434,"is_reserved":false,"is_disabled":true,"rental_uris":{"android":"levelo://app?vid=28c3f56b-d629-4758-ab87-a7a89e9e2ff2","ios":"levelo://app?vid=28c3f56b-d629-4758-ab87-a7a89e9e2ff2"},"vehicle_type_id":"4","last_reported":1750086708,"current_range_meters":1200,"station_id":"ce4bh092rcd13ifvqd20","pricing_plan_id":"cebpf4jnsgd1na2vs0mg"},{"bike_id":"28d2ddbb-6bc5-48b2-81df-4de05dbf911b","system_id":"levelo_inurba_marseille","lat":43.27905,"lon":5.38012,"is_reserved":false,"is_disabled":true,"rental_uris":{"android":"levelo://app?vid=28d2ddbb-6bc5-48b2-81df-4de05dbf911b","ios":"levelo://app?vid=28d2ddbb-6bc5-48b2-81df-4de05dbf911b"},"vehicle_type_id":"4","last_reported":1750086708,"current_range_meters":1200,"station_id":"ce4bhf92rcd13ifvqf50","pricing_plan_id":"cebpf4jnsgd1na2vs0mg"},{"bike_id":"5db6ddea-df88-498d-a102-f69a14099f96","system_id":"levelo_inurba_marseille","lat":43.26789,"lon":5.39414,"is_reserved":false,"is_disabled":true,"rental_uris":{"android":"levelo://app?vid=5db6ddea-df88-498d-a102-f69a14099f96","ios":"levelo://app?vid=5db6ddea-df88-498d-a102-f69a14099f96"},"vehicle_type_id":"4","last_reported":1750086708,"current_range_meters":1600,"station_id":"ce4bhh12rcd13ifvqfg0","pricing_plan_id":"cebpf4jnsgd1na2vs0mg"},{"bike_id":"2f910f57-2545-4727-9d9e-9c7628a04ea7","system_id":"levelo_inurba_marseille","lat":43.30139,"lon":5.38778,"is_reserved":false,"is_disabled":false,"rental_uris":{"android":"levelo://app?vid=2f910f57-2545-4727-9d9e-9c7628a04ea7","ios":"levelo://app?vid=2f910f57-2545-4727-9d9e-9c7628a04ea7"},"vehicle_type_id":"4","last_reported":1750086708,"current_range_meters":2000,"station_id":"ce4bghh2rcd13ifvqb60","pricing_plan_id":"cebpf4jnsgd1na2vs0mg"},{"bike_id":"2836a656-d655-4ff3-a99c-2589af6f088b","system_id":"levelo_inurba_marseille","lat":43.276625,"lon":5.38887,"is_reserved":false,"is_disabled":true,"rental_uris":{"android":"levelo://app?vid=2836a656-d655-4ff3-a99c-2589af6f088b","ios":"levelo://app?vid=2836a656-d655-4ff3-a99c-2589af6f088b"},"vehicle_type_id":"4","last_reported":1750086708,"current_range_meters":2000,"station_id":"ce4bhi12rcd13ifvqfo0","pricing_plan_id":"cebpf4jnsgd1na2vs0mg"},{"bike_id":"d1ff4cb9-9ed6-4d52-a8e1-12389c6551b8","system_id":"levelo_inurba_marseille","lat":43.32363,"lon":5.36756,"is_reserved":false,"is_disabled":true,"rental_uris":{"android":"levelo://app?vid=d1ff4cb9-9ed6-4d52-a8e1-12389c6551b8","ios":"levelo://app?vid=d1ff4cb9-9ed6-4d52-a8e1-12389c6551b8"},"vehicle_type_id":"4","last_reported":1750086708,"current_range_meters":2000,"station_id":"ce4bhsh2rcd13ifvqi2g","pricing_plan_id":"cebpf4jnsgd1na2vs0mg"},{"bike_id":"aecab728-ad8f-4974-97d7-04707940746f","system_id":"levelo_inurba_marseille","lat":43.30538,"lon":5.38426,"is_reserved":false,"is_disabled":false,"rental_uris":{"android":"levelo://app?vid=aecab728-ad8f-4974-97d7-04707940746f","ios":"levelo://app?vid=aecab728-ad8f-4974-97d7-04707940746f"},"vehicle_type_id":"4","last_reported":1750086708,"current_range_meters":2800,"station_id":"ce4bgg92rcd13ifvqb30","pricing_plan_id":"cebpf4jnsgd1na2vs0mg"},{"bike_id":"e905d6f2-f2b0-487a-9709-ccfdac9baee4","system_id":"levelo_inurba_marseille","lat":43.30818,"lon":5.37071,"is_reserved":false,"is_disabled":false,"rental_uris":{"android":"levelo://app?vid=e905d6f2-f2b0-487a-9709-ccfdac9baee4","ios":"levelo://app?vid=e905d6f2-f2b0-487a-9709-ccfdac9baee4"},"vehicle_type_id":"4","last_reported":1750086708,"current_range_meters":3600,"station_id":"","pricing_plan_id":"cebpf4jnsgd1na2vs0mg"},{"bike_id":"cbfb4586-8460-4b4b-b682-17f011d5235f","system_id":"levelo_inurba_marseille","lat":43.30842,"lon":5.36993,"is_reserved":false,"is_disabled":false,"rental_uris":{"android":"levelo://app?vid=cbfb4586-8460-4b4b-b682-17f011d5235f","ios":"levelo://app?vid=cbfb4586-8460-4b4b-b682-17f011d5235f"},"vehicle_type_id":"4","last_reported":1750086708,"current_range_meters":3600,"station_id":"","pricing_plan_id":"cebpf4jnsgd1na2vs0mg"},{"bike_id":"a1185ea9-bc61-43be-9faa-4e59003fee93","system_id":"levelo_inurba_marseille","lat":43.29369,"lon":5.37843,"is_reserved":false,"is_disabled":false,"rental_uris":{"android":"levelo://app?vid=a1185ea9-bc61-43be-9faa-4e59003fee93","ios":"levelo://app?vid=a1185ea9-bc61-43be-9faa-4e59003fee93"},"vehicle_type_id":"4","last_reported":1750086708,"current_range_meters":3600,"station_id":"ce4bgjh2rcd13ifvqbf0","pricing_plan_id":"cebpf4jnsgd1na2vs0mg"},{"bike_id":"1827d622-e20d-4be6-99ac-0d1e0724dbb6","system_id":"levelo_inurba_marseille","lat":43.337444,"lon":5.374475,"is_reserved":false,"is_disabled":false,"rental_uris":{"android":"levelo://app?vid=1827d622-e20d-4be6-99ac-0d1e0724dbb6","ios":"levelo://app?vid=1827d622-e20d-4be6-99ac-0d1e0724dbb6"},"vehicle_type_id":"4","last_reported":1750086708,"current_range_meters":4000,"station_id":"","pricing_plan_id":"cebpf4jnsgd1na2vs0mg"},{"bike_id":"fad29df9-388d-46b9-97e7-bb3e155c8605","system_id":"levelo_inurba_marseille","lat":43.30224,"lon":5.39465,"is_reserved":false,"is_disabled":false,"rental_uris":{"android":"levelo://app?vid=fad29df9-388d-46b9-97e7-bb3e155c8605","ios":"levelo://app?vid=fad29df9-388d-46b9-97e7-bb3e155c8605"},"vehicle_type_id":"4","last_reported":1750086708,"current_range_meters":4000,"station_id":"ce4bh0p2rcd13ifvqd70","pricing_plan_id":"cebpf4jnsgd1na2vs0mg"},{"bike_id":"a3999b3c-d4f8-4ceb-923f-0e2303700e89","system_id":"levelo_inurba_marseille","lat":43.29027,"lon":5.38649,"is_reserved":false,"is_disabled":false,"rental_uris":{"android":"levelo://app?vid=a3999b3c-d4f8-4ceb-923f-0e2303700e89","ios":"levelo://app?vid=a3999b3c-d4f8-4ceb-923f-0e2303700e89"},"vehicle_type_id":"4","last_reported":1750086708,"current_range_meters":4000,"station_id":"ce4bh4p2rcd13ifvqe0g","pricing_plan_id":"cebpf4jnsgd1na2vs0mg"},{"bike_id":"a7a4795e-a29c-4996-b394-e9150431a605","system_id":"levelo_inurba_marseille","lat":43.31752,"lon":5.39016,"is_reserved":false,"is_disabled":false,"rental_uris":{"android":"levelo://app?vid=a7a4795e-a29c-4996-b394-e9150431a605","ios":"levelo://app?vid=a7a4795e-a29c-4996-b394-e9150431a605"},"vehicle_type_id":"4","last_reported":1750086708,"current_range_meters":4000,"station_id":"ce4bhqp2rcd13ifvqhng","pricing_plan_id":"cebpf4jnsgd1na2vs0mg"},{"bike_id":"5c5ce329-f331-4dd3-a050-e971631ee442","system_id":"levelo_inurba_marseille","lat":43.30543,"lon":5.36531,"is_reserved":false,"is_disabled":false,"rental_uris":{"android":"levelo://app?vid=5c5ce329-f331-4dd3-a050-e971631ee442","ios":"levelo://app?vid=5c5ce329-f331-4dd3-a050-e971631ee442"},"vehicle_type_id":"4","last_reported":1750086708,"current_range_meters":4400,"station_id":"ce4bgs12rcd13ifvqcag","pricing_plan_id":"cebpf4jnsgd1na2vs0mg"},{"bike_id":"2f7825ba-7ca7-47da-9246-b525c7006020","system_id":"levelo_inurba_marseille","lat":43.30609,"lon":5.37227,"is_reserved":false,"is_disabled":false,"rental_uris":{"android":"levelo://app?vid=2f7825ba-7ca7-47da-9246-b525c7006020","ios":"levelo://app?vid=2f7825ba-7ca7-47da-9246-b525c7006020"},"vehicle_type_id":"4","last_reported":1750086708,"current_range_meters":4800,"station_id":"ce4bgqh2rcd13ifvqc4g","pricing_plan_id":"cebpf4jnsgd1na2vs0mg"},{"bike_id":"e291f9fd-d4e0-4011-89d3-b3f562799fb4","system_id":"levelo_inurba_marseille","lat":43.299474,"lon":5.371718,"is_reserved":false,"is_disabled":false,"rental_uris":{"android":"levelo://app?vid=e291f9fd-d4e0-4011-89d3-b3f562799fb4","ios":"levelo://app?vid=e291f9fd-d4e0-4011-89d3-b3f562799fb4"},"vehicle_type_id":"4","last_reported":1750086708,"current_range_meters":4800,"station_id":"ce4bgr92rcd13ifvqc7g","pricing_plan_id":"cebpf4jnsgd1na2vs0mg"},{"bike_id":"0fbeb814-fd7f-4803-8e89-e17166a0b76b","system_id":"levelo_inurba_marseille","lat":43.28847,"lon":5.35854,"is_reserved":false,"is_disabled":false,"rental_uris":{"android":"levelo://app?vid=0fbeb814-fd7f-4803-8e89-e17166a0b76b","ios":"levelo://app?vid=0fbeb814-fd7f-4803-8e89-e17166a0b76b"},"vehicle_type_id":"4","last_reported":1750086708,"current_range_meters":4800,"station_id":"ce4bhb12rcd13ifvqem0","pricing_plan_id":"cebpf4jnsgd1na2vs0mg"},{"bike_id":"5d844a88-58f4-4d04-a68e-d566063f364d","system_id":"levelo_inurba_marseille","lat":43.25576,"lon":5.38226,"is_reserved":false,"is_disabled":false,"rental_uris":{"android":"levelo://app?vid=5d844a88-58f4-4d04-a68e-d566063f364d","ios":"levelo://app?vid=5d844a88-58f4-4d04-a68e-d566063f364d"},"vehicle_type_id":"4","last_reported":1750086708,"current_range_meters":4800,"station_id":"ce4bhih2rcd13ifvqfs0","pricing_plan_id":"cebpf4jnsgd1na2vs0mg"},{"bike_id":"81576972-ef34-41bc-97e1-5c4799fb1437","system_id":"levelo_inurba_marseille","lat":43.29525,"lon":5.39045,"is_reserved":false,"is_disabled":false,"rental_uris":{"android":"levelo://app?vid=81576972-ef34-41bc-97e1-5c4799fb1437","ios":"levelo://app?vid=81576972-ef34-41bc-97e1-5c4799fb1437"},"vehicle_type_id":"4","last_reported":1750086708,"current_range_meters":5600,"station_id":"ce4bh3p2rcd13ifvqdp0","pricing_plan_id":"cebpf4jnsgd1na2vs0mg"},{"bike_id":"3d9fff9f-6513-40cd-94ba-eca885098e40","system_id":"levelo_inurba_marseille","lat":43.28269,"lon":5.3506,"is_reserved":false,"is_disabled":false,"rental_uris":{"android":"levelo://app?vid=3d9fff9f-6513-40cd-94ba-eca885098e40","ios":"levelo://app?vid=3d9fff9f-6513-40cd-94ba-eca885098e40"},"vehicle_type_id":"4","last_reported":1750086708,"current_range_meters":5600,"station_id":"ce4bhbp2rcd13ifvqerg","pricing_plan_id":"cebpf4jnsgd1na2vs0mg"},{"bike_id":"04e8aefd-f2ce-40ac-9e66-98c297ec0b88","system_id":"levelo_inurba_marseille","lat":43.32335,"lon":5.40621,"is_reserved":false,"is_disabled":false,"rental_uris":{"android":"levelo://app?vid=04e8aefd-f2ce-40ac-9e66-98c297ec0b88","ios":"levelo://app?vid=04e8aefd-f2ce-40ac-9e66-98c297ec0b88"},"vehicle_type_id":"4","last_reported":1750086708,"current_range_meters":6000,"station_id":"ce4bhq92rcd13ifvqhjg","pricing_plan_id":"cebpf4jnsgd1na2vs0mg"},{"bike_id":"f16a5698-ddc2-4e59-97f5-5526424b5a60","system_id":"levelo_inurba_marseille","lat":43.21174,"lon":5.35092,"is_reserved":false,"is_disabled":false,"rental_uris":{"android":"levelo://app?vid=f16a5698-ddc2-4e59-97f5-5526424b5a60","ios":"levelo://app?vid=f16a5698-ddc2-4e59-97f5-5526424b5a60"},"vehicle_type_id":"4","last_reported":1750086708,"current_range_meters":6000,"station_id":"st_cvj6sg6p6f1abm77japg","pricing_plan_id":"cebpf4jnsgd1na2vs0mg"},{"bike_id":"dbfce7a3-3423-4296-b193-a177dea644ac","system_id":"levelo_inurba_marseille","lat":43.272675,"lon":5.416255,"is_reserved":false,"is_disabled":false,"rental_uris":{"android":"levelo://app?vid=dbfce7a3-3423-4296-b193-a177dea644ac","ios":"levelo://app?vid=dbfce7a3-3423-4296-b193-a177dea644ac"},"vehicle_type_id":"4","last_reported":1750086708,"current_range_meters":6400,"station_id":"","pricing_plan_id":"cebpf4jnsgd1na2vs0mg"},{"bike_id":"e4e2404f-7328-4d75-8c77-49f5668c6fa2","system_id":"levelo_inurba_marseille","lat":43.254273,"lon":5.376638,"is_reserved":false,"is_disabled":false,"rental_uris":{"android":"levelo://app?vid=e4e2404f-7328-4d75-8c77-49f5668c6fa2","ios":"levelo://app?vid=e4e2404f-7328-4d75-8c77-49f5668c6fa2"},"vehicle_type_id":"4","last_reported":1750086708,"current_range_meters":6400,"station_id":"ce4bhi12rcd13ifvqfp0","pricing_plan_id":"cebpf4jnsgd1na2vs0mg"},{"bike_id":"dbfca594-3761-41f6-991a-e43e1017d609","system_id":"levelo_inurba_marseille","lat":43.24093,"lon":5.36828,"is_reserved":false,"is_disabled":false,"rental_uris":{"android":"levelo://app?vid=dbfca594-3761-41f6-991a-e43e1017d609","ios":"levelo://app?vid=dbfca594-3761-41f6-991a-e43e1017d609"},"vehicle_type_id":"4","last_reported":1750086708,"current_range_meters":6800,"station_id":"","pricing_plan_id":"cebpf4jnsgd1na2vs0mg"},{"bike_id":"cd842614-f278-4506-9763-3b01ec31f1b2","system_id":"levelo_inurba_marseille","lat":43.30646,"lon":5.40103,"is_reserved":false,"is_disabled":false,"rental_uris":{"android":"levelo://app?vid=cd842614-f278-4506-9763-3b01ec31f1b2","ios":"levelo://app?vid=cd842614-f278-4506-9763-3b01ec31f1b2"},"vehicle_type_id":"4","last_reported":1750086708,"current_range_meters":6800,"station_id":"ce4bh112rcd13ifvqda0","pricing_plan_id":"cebpf4jnsgd1na2vs0mg"},{"bike_id":"91e6e0f3-a35a-42c9-b015-16e6078875d6","system_id":"levelo_inurba_marseille","lat":43.29075,"lon":5.37149,"is_reserved":false,"is_disabled":false,"rental_uris":{"android":"levelo://app?vid=91e6e0f3-a35a-42c9-b015-16e6078875d6","ios":"levelo://app?vid=91e6e0f3-a35a-42c9-b015-16e6078875d6"},"vehicle_type_id":"4","last_reported":1750086708,"current_range_meters":6800,"station_id":"ce4bh5p2rcd13ifvqe4g","pricing_plan_id":"cebpf4jnsgd1na2vs0mg"},{"bike_id":"27da77e9-28a6-4f08-858f-1cdc41c9ff2d","system_id":"levelo_inurba_marseille","lat":43.2737,"lon":5.36258,"is_reserved":false,"is_disabled":false,"rental_uris":{"android":"levelo://app?vid=27da77e9-28a6-4f08-858f-1cdc41c9ff2d","ios":"levelo://app?vid=27da77e9-28a6-4f08-858f-1cdc41c9ff2d"},"vehicle_type_id":"4","last_reported":1750086708,"current_range_meters":6800,"station_id":"ce4bhbh2rcd13ifvqeo0","pricing_plan_id":"cebpf4jnsgd1na2vs0mg"},{"bike_id":"548fcf3c-d093-41a6-afa5-8a2dd95caefe","system_id":"levelo_inurba_marseille","lat":43.28032,"lon":5.36943,"is_reserved":false,"is_disabled":false,"rental_uris":{"android":"levelo://app?vid=548fcf3c-d093-41a6-afa5-8a2dd95caefe","ios":"levelo://app?vid=548fcf3c-d093-41a6-afa5-8a2dd95caefe"},"vehicle_type_id":"4","last_reported":1750086708,"current_range_meters":7200,"station_id":"ce4bha12rcd13ifvqef0","pricing_plan_id":"cebpf4jnsgd1na2vs0mg"},{"bike_id":"4bd3e9e0-a973-4c06-969d-3bc51696dc27","system_id":"levelo_inurba_marseille","lat":43.32362,"lon":5.3671,"is_reserved":false,"is_disabled":false,"rental_uris":{"android":"levelo://app?vid=4bd3e9e0-a973-4c06-969d-3bc51696dc27","ios":"levelo://app?vid=4bd3e9e0-a973-4c06-969d-3bc51696dc27"},"vehicle_type_id":"4","last_reported":1750086708,"current_range_meters":7200,"station_id":"ce4bhsh2rcd13ifvqi2g","pricing_plan_id":"cebpf4jnsgd1na2vs0mg"},{"bike_id":"59ebea85-86d7-44cf-8e27-1c208a2ff220","system_id":"levelo_inurba_marseille","lat":43.321033,"lon":5.367794,"is_reserved":false,"is_disabled":false,"rental_uris":{"android":"levelo://app?vid=59ebea85-86d7-44cf-8e27-1c208a2ff220","ios":"levelo://app?vid=59ebea85-86d7-44cf-8e27-1c208a2ff220"},"vehicle_type_id":"4","last_reported":1750086708,"current_range_meters":8000,"station_id":"ce4bhrh2rcd13ifvqhug","pricing_plan_id":"cebpf4jnsgd1na2vs0mg"},{"bike_id":"78c7e60c-fc25-4b7f-b682-127708472d4c","system_id":"levelo_inurba_marseille","lat":43.21191,"lon":5.35072,"is_reserved":false,"is_disabled":false,"rental_uris":{"android":"levelo://app?vid=78c7e60c-fc25-4b7f-b682-127708472d4c","ios":"levelo://app?vid=78c7e60c-fc25-4b7f-b682-127708472d4c"},"vehicle_type_id":"4","last_reported":1750086708,"current_range_meters":8000,"station_id":"st_cvj6sg6p6f1abm77japg","pricing_plan_id":"cebpf4jnsgd1na2vs0mg"},{"bike_id":"8d297b38-f666-4a46-9dee-0132f800019c","system_id":"levelo_inurba_marseille","lat":43.3219,"lon":5.38508,"is_reserved":false,"is_disabled":false,"rental_uris":{"android":"levelo://app?vid=8d297b38-f666-4a46-9dee-0132f800019c","ios":"levelo://app?vid=8d297b38-f666-4a46-9dee-0132f800019c"},"vehicle_type_id":"4","last_reported":1750086708,"current_range_meters":8400,"station_id":"","pricing_plan_id":"cebpf4jnsgd1na2vs0mg"},{"bike_id":"dcb87a9a-18f8-41c6-9134-949f31e21b42","system_id":"levelo_inurba_marseille","lat":43.26997,"lon":5.39954,"is_reserved":false,"is_disabled":false,"rental_uris":{"android":"levelo://app?vid=dcb87a9a-18f8-41c6-9134-949f31e21b42","ios":"levelo://app?vid=dcb87a9a-18f8-41c6-9134-949f31e21b42"},"vehicle_type_id":"4","last_reported":1750086708,"current_range_meters":8400,"station_id":"","pricing_plan_id":"cebpf4jnsgd1na2vs0mg"},{"bike_id":"2c66ff0d-a35e-46b1-9580-ab3fa64231f8","system_id":"levelo_inurba_marseille","lat":43.309134,"lon":5.368484,"is_reserved":false,"is_disabled":false,"rental_uris":{"android":"levelo://app?vid=2c66ff0d-a35e-46b1-9580-ab3fa64231f8","ios":"levelo://app?vid=2c66ff0d-a35e-46b1-9580-ab3fa64231f8"},"vehicle_type_id":"4","last_reported":1750086708,"current_range_meters":8400,"station_id":"ce4bgn92rcd13ifvqbvg","pricing_plan_id":"cebpf4jnsgd1na2vs0mg"},{"bike_id":"e0913311-890c-4b54-a6cf-9318f47f70dd","system_id":"levelo_inurba_marseille","lat":43.28354,"lon":5.38114,"is_reserved":false,"is_disabled":false,"rental_uris":{"android":"levelo://app?vid=e0913311-890c-4b54-a6cf-9318f47f70dd","ios":"levelo://app?vid=e0913311-890c-4b54-a6cf-9318f47f70dd"},"vehicle_type_id":"4","last_reported":1750086708,"current_range_meters":8400,"station_id":"ce4bh412rcd13ifvqdr0","pricing_plan_id":"cebpf4jnsgd1na2vs0mg"},{"bike_id":"eaae1434-1e3d-4325-92dc-6cb4ea023770","system_id":"levelo_inurba_marseille","lat":43.30525,"lon":5.36554,"is_reserved":false,"is_disabled":false,"rental_uris":{"android":"levelo://app?vid=eaae1434-1e3d-4325-92dc-6cb4ea023770","ios":"levelo://app?vid=eaae1434-1e3d-4325-92dc-6cb4ea023770"},"vehicle_type_id":"4","last_reported":1750086708,"current_range_meters":8800,"station_id":"ce4bgs12rcd13ifvqcag","pricing_plan_id":"cebpf4jnsgd1na2vs0mg"},{"bike_id":"178abcea-a4e3-4969-b29c-7d16d7874f97","system_id":"levelo_inurba_marseille","lat":43.30557,"lon":5.36526,"is_reserved":false,"is_disabled":false,"rental_uris":{"android":"levelo://app?vid=178abcea-a4e3-4969-b29c-7d16d7874f97","ios":"levelo://app?vid=178abcea-a4e3-4969-b29c-7d16d7874f97"},"vehicle_type_id":"4","last_reported":1750086708,"current_range_meters":8800,"station_id":"ce4bgs12rcd13ifvqcag","pricing_plan_id":"cebpf4jnsgd1na2vs0mg"},{"bike_id":"0f7a8141-ca7b-4d0e-8116-a1959a90483b","system_id":"levelo_inurba_marseille","lat":43.29872,"lon":5.38906,"is_reserved":false,"is_disabled":false,"rental_uris":{"android":"levelo://app?vid=0f7a8141-ca7b-4d0e-8116-a1959a90483b","ios":"levelo://app?vid=0f7a8141-ca7b-4d0e-8116-a1959a90483b"},"vehicle_type_id":"4","last_reported":1750086708,"current_range_meters":8800,"station_id":"ce4bh392rcd13ifvqdl0","pricing_plan_id":"cebpf4jnsgd1na2vs0mg"},{"bike_id":"8ebc5cdb-6007-4fdc-aff7-ac7986ba9781","system_id":"levelo_inurba_marseille","lat":43.28943,"lon":5.36637,"is_reserved":false,"is_disabled":false,"rental_uris":{"android":"levelo://app?vid=8ebc5cdb-6007-4fdc-aff7-ac7986ba9781","ios":"levelo://app?vid=8ebc5cdb-6007-4fdc-aff7-ac7986ba9781"},"vehicle_type_id":"4","last_reported":1750086708,"current_range_meters":8800,"station_id":"ce4bhap2rcd13ifvqek0","pricing_plan_id":"cebpf4jnsgd1na2vs0mg"},{"bike_id":"79eeb666-d8d8-469a-94d3-68222c812a1d","system_id":"levelo_inurba_marseille","lat":43.31775,"lon":5.37457,"is_reserved":false,"is_disabled":false,"rental_uris":{"android":"levelo://app?vid=79eeb666-d8d8-469a-94d3-68222c812a1d","ios":"levelo://app?vid=79eeb666-d8d8-469a-94d3-68222c812a1d"},"vehicle_type_id":"4","last_reported":1750086708,"current_range_meters":9200,"station_id":"","pricing_plan_id":"cebpf4jnsgd1na2vs0mg"},{"bike_id":"592b4e69-2d1b-4eea-8e77-9dbca2748d78","system_id":"levelo_inurba_marseille","lat":43.297171,"lon":5.365795,"is_reserved":false,"is_disabled":false,"rental_uris":{"android":"levelo://app?vid=592b4e69-2d1b-4eea-8e77-9dbca2748d78","ios":"levelo://app?vid=592b4e69-2d1b-4eea-8e77-9dbca2748d78"},"vehicle_type_id":"4","last_reported":1750086708,"current_range_meters":9200,"station_id":"ce4bgn12rcd13ifvqbt0","pricing_plan_id":"cebpf4jnsgd1na2vs0mg"},{"bike_id":"a4b2c8cb-9c61-4c32-9ede-8a56720b5f6a","system_id":"levelo_inurba_marseille","lat":43.21755,"lon":5.34599,"is_reserved":false,"is_disabled":false,"rental_uris":{"android":"levelo://app?vid=a4b2c8cb-9c61-4c32-9ede-8a56720b5f6a","ios":"levelo://app?vid=a4b2c8cb-9c61-4c32-9ede-8a56720b5f6a"},"vehicle_type_id":"4","last_reported":1750086708,"current_range_meters":9200,"station_id":"st_cvj6r9ubvosntc0bgbag","pricing_plan_id":"cebpf4jnsgd1na2vs0mg"},{"bike_id":"10d8703f-8168-48d3-b44c-9eaaf686e239","system_id":"levelo_inurba_marseille","lat":43.305739,"lon":5.371747,"is_reserved":false,"is_disabled":false,"rental_uris":{"android":"levelo://app?vid=10d8703f-8168-48d3-b44c-9eaaf686e239","ios":"levelo://app?vid=10d8703f-8168-48d3-b44c-9eaaf686e239"},"vehicle_type_id":"4","last_reported":1750086708,"current_range_meters":9600,"station_id":"","pricing_plan_id":"cebpf4jnsgd1na2vs0mg"},{"bike_id":"96f28763-58d8-41d3-90ae-00e2aae7e5cc","system_id":"levelo_inurba_marseille","lat":43.29713,"lon":5.37991,"is_reserved":false,"is_disabled":false,"rental_uris":{"android":"levelo://app?vid=96f28763-58d8-41d3-90ae-00e2aae7e5cc","ios":"levelo://app?vid=96f28763-58d8-41d3-90ae-00e2aae7e5cc"},"vehicle_type_id":"4","last_reported":1750086708,"current_range_meters":9600,"station_id":"","pricing_plan_id":"cebpf4jnsgd1na2vs0mg"},{"bike_id":"75c96a33-5a57-4503-bcfc-97769c77793d","system_id":"levelo_inurba_marseille","lat":43.2962,"lon":5.37732,"is_reserved":false,"is_disabled":false,"rental_uris":{"android":"levelo://app?vid=75c96a33-5a57-4503-bcfc-97769c77793d","ios":"levelo://app?vid=75c96a33-5a57-4503-bcfc-97769c77793d"},"vehicle_type_id":"4","last_reported":1750086708,"current_range_meters":9600,"station_id":"ce4bgi92rcd13ifvqb90","pricing_plan_id":"cebpf4jnsgd1na2vs0mg"},{"bike_id":"dd064b72-729e-4f4d-9a4c-6decd26bc526","system_id":"levelo_inurba_marseille","lat":43.28405,"lon":5.35,"is_reserved":false,"is_disabled":false,"rental_uris":{"android":"levelo://app?vid=dd064b72-729e-4f4d-9a4c-6decd26bc526","ios":"levelo://app?vid=dd064b72-729e-4f4d-9a4c-6decd26bc526"},"vehicle_type_id":"4","last_reported":1750086708,"current_range_meters":9600,"station_id":"ce4bhbh2rcd13ifvqepg","pricing_plan_id":"cebpf4jnsgd1na2vs0mg"},{"bike_id":"ccfcfc43-47d4-4f28-8d02-e21c60446a78","system_id":"levelo_inurba_marseille","lat":43.29225,"lon":5.36064,"is_reserved":false,"is_disabled":false,"rental_uris":{"android":"levelo://app?vid=ccfcfc43-47d4-4f28-8d02-e21c60446a78","ios":"levelo://app?vid=ccfcfc43-47d4-4f28-8d02-e21c60446a78"},"vehicle_type_id":"4","last_reported":1750086708,"current_range_meters":9600,"station_id":"ce4bhbh2rcd13ifvqeqg","pricing_plan_id":"cebpf4jnsgd1na2vs0mg"},{"bike_id":"bb0d8dcb-e7c0-4e35-be46-5e841db5af15","system_id":"levelo_inurba_marseille","lat":43.26564,"lon":5.37278,"is_reserved":false,"is_disabled":false,"rental_uris":{"android":"levelo://app?vid=bb0d8dcb-e7c0-4e35-be46-5e841db5af15","ios":"levelo://app?vid=bb0d8dcb-e7c0-4e35-be46-5e841db5af15"},"vehicle_type_id":"4","last_reported":1750086708,"current_range_meters":9600,"station_id":"ce4bhg12rcd13ifvqf70","pricing_plan_id":"cebpf4jnsgd1na2vs0mg"},{"bike_id":"a3e0cb5b-07b7-489e-8ca9-903686b4dc1a","system_id":"levelo_inurba_marseille","lat":43.323587,"lon":5.367602,"is_reserved":false,"is_disabled":false,"rental_uris":{"android":"levelo://app?vid=a3e0cb5b-07b7-489e-8ca9-903686b4dc1a","ios":"levelo://app?vid=a3e0cb5b-07b7-489e-8ca9-903686b4dc1a"},"vehicle_type_id":"4","last_reported":1750086708,"current_range_meters":9600,"station_id":"ce4bhsh2rcd13ifvqi2g","pricing_plan_id":"cebpf4jnsgd1na2vs0mg"},{"bike_id":"87a73488-390c-4e28-a3b3-5d6b7a9184c3","system_id":"levelo_inurba_marseille","lat":43.337444,"lon":5.374475,"is_reserved":false,"is_disabled":false,"rental_uris":{"android":"levelo://app?vid=87a73488-390c-4e28-a3b3-5d6b7a9184c3","ios":"levelo://app?vid=87a73488-390c-4e28-a3b3-5d6b7a9184c3"},"vehicle_type_id":"4","last_reported":1750086708,"current_range_meters":10000,"station_id":"","pricing_plan_id":"cebpf4jnsgd1na2vs0mg"},{"bike_id":"4d68c87b-c72e-4fff-b647-7151b653cd14","system_id":"levelo_inurba_marseille","lat":43.30142,"lon":5.3878,"is_reserved":false,"is_disabled":false,"rental_uris":{"android":"levelo://app?vid=4d68c87b-c72e-4fff-b647-7151b653cd14","ios":"levelo://app?vid=4d68c87b-c72e-4fff-b647-7151b653cd14"},"vehicle_type_id":"4","last_reported":1750086708,"current_range_meters":10000,"station_id":"ce4bghh2rcd13ifvqb60","pricing_plan_id":"cebpf4jnsgd1na2vs0mg"},{"bike_id":"1064a302-8cf9-4151-bc7f-6ed396f52ef6","system_id":"levelo_inurba_marseille","lat":43.29843,"lon":5.36274,"is_reserved":false,"is_disabled":false,"rental_uris":{"android":"levelo://app?vid=1064a302-8cf9-4151-bc7f-6ed396f52ef6","ios":"levelo://app?vid=1064a302-8cf9-4151-bc7f-6ed396f52ef6"},"vehicle_type_id":"4","last_reported":1750086708,"current_range_meters":10000,"station_id":"ce4bgpp2rcd13ifvqc3g","pricing_plan_id":"cebpf4jnsgd1na2vs0mg"},{"bike_id":"6a928840-95ce-4cd4-9d12-3642916c54ed","system_id":"levelo_inurba_marseille","lat":43.31498,"lon":5.373193,"is_reserved":false,"is_disabled":false,"rental_uris":{"android":"levelo://app?vid=6a928840-95ce-4cd4-9d12-3642916c54ed","ios":"levelo://app?vid=6a928840-95ce-4cd4-9d12-3642916c54ed"},"vehicle_type_id":"4","last_reported":1750086708,"current_range_meters":10000,"station_id":"ce4bgt12rcd13ifvqcd0","pricing_plan_id":"cebpf4jnsgd1na2vs0mg"},{"bike_id":"a15a5ddf-687c-458b-868e-64a85addfca8","system_id":"levelo_inurba_marseille","lat":43.29262,"lon":5.40903,"is_reserved":false,"is_disabled":false,"rental_uris":{"android":"levelo://app?vid=a15a5ddf-687c-458b-868e-64a85addfca8","ios":"levelo://app?vid=a15a5ddf-687c-458b-868e-64a85addfca8"},"vehicle_type_id":"4","last_reported":1750086708,"current_range_meters":10000,"station_id":"ce4bh192rcd13ifvqdc0","pricing_plan_id":"cebpf4jnsgd1na2vs0mg"},{"bike_id":"c52e6942-4f77-436c-a7df-4d6afeb3a2ad","system_id":"levelo_inurba_marseille","lat":43.29264,"lon":5.38445,"is_reserved":false,"is_disabled":false,"rental_uris":{"android":"levelo://app?vid=c52e6942-4f77-436c-a7df-4d6afeb3a2ad","ios":"levelo://app?vid=c52e6942-4f77-436c-a7df-4d6afeb3a2ad"},"vehicle_type_id":"4","last_reported":1750086708,"current_range_meters":10000,"station_id":"ce4bh692rcd13ifvqea0","pricing_plan_id":"cebpf4jnsgd1na2vs0mg"},{"bike_id":"0a88759c-5743-4725-99a8-e8e6a7af6ad8","system_id":"levelo_inurba_marseille","lat":43.26555,"lon":5.37283,"is_reserved":false,"is_disabled":false,"rental_uris":{"android":"levelo://app?vid=0a88759c-5743-4725-99a8-e8e6a7af6ad8","ios":"levelo://app?vid=0a88759c-5743-4725-99a8-e8e6a7af6ad8"},"vehicle_type_id":"4","last_reported":1750086708,"current_range_meters":10000,"station_id":"ce4bhg12rcd13ifvqf70","pricing_plan_id":"cebpf4jnsgd1na2vs0mg"},{"bike_id":"9dc0ab07-c6c0-4fb4-8a37-c9af72f9cba0","system_id":"levelo_inurba_marseille","lat":43.30533,"lon":5.36549,"is_reserved":false,"is_disabled":false,"rental_uris":{"android":"levelo://app?vid=9dc0ab07-c6c0-4fb4-8a37-c9af72f9cba0","ios":"levelo://app?vid=9dc0ab07-c6c0-4fb4-8a37-c9af72f9cba0"},"vehicle_type_id":"4","last_reported":1750086708,"current_range_meters":10800,"station_id":"ce4bgs12rcd13ifvqcag","pricing_plan_id":"cebpf4jnsgd1na2vs0mg"},{"bike_id":"8678245c-0d05-46d6-b86f-9321d634bdf7","system_id":"levelo_inurba_marseille","lat":43.31489,"lon":5.37307,"is_reserved":false,"is_disabled":false,"rental_uris":{"android":"levelo://app?vid=8678245c-0d05-46d6-b86f-9321d634bdf7","ios":"levelo://app?vid=8678245c-0d05-46d6-b86f-9321d634bdf7"},"vehicle_type_id":"4","last_reported":1750086708,"current_range_meters":10800,"station_id":"ce4bgt12rcd13ifvqcd0","pricing_plan_id":"cebpf4jnsgd1na2vs0mg"},{"bike_id":"0ee2e5fb-c621-427f-a0b4-eb5beba32ef6","system_id":"levelo_inurba_marseille","lat":43.28365,"lon":5.3865,"is_reserved":false,"is_disabled":false,"rental_uris":{"android":"levelo://app?vid=0ee2e5fb-c621-427f-a0b4-eb5beba32ef6","ios":"levelo://app?vid=0ee2e5fb-c621-427f-a0b4-eb5beba32ef6"},"vehicle_type_id":"4","last_reported":1750086708,"current_range_meters":10800,"station_id":"ce4bh492rcd13ifvqdvg","pricing_plan_id":"cebpf4jnsgd1na2vs0mg"},{"bike_id":"ea9f4cfd-bc91-4e7d-ac4c-f5aac00171f3","system_id":"levelo_inurba_marseille","lat":43.289886,"lon":5.37825,"is_reserved":false,"is_disabled":false,"rental_uris":{"android":"levelo://app?vid=ea9f4cfd-bc91-4e7d-ac4c-f5aac00171f3","ios":"levelo://app?vid=ea9f4cfd-bc91-4e7d-ac4c-f5aac00171f3"},"vehicle_type_id":"4","last_reported":1750086708,"current_range_meters":10800,"station_id":"ce4bh9p2rcd13ifvqed0","pricing_plan_id":"cebpf4jnsgd1na2vs0mg"},{"bike_id":"8cf8b8c7-88a2-4155-97a8-b2fd24c9fd69","system_id":"levelo_inurba_marseille","lat":43.29195,"lon":5.35804,"is_reserved":false,"is_disabled":false,"rental_uris":{"android":"levelo://app?vid=8cf8b8c7-88a2-4155-97a8-b2fd24c9fd69","ios":"levelo://app?vid=8cf8b8c7-88a2-4155-97a8-b2fd24c9fd69"},"vehicle_type_id":"4","last_reported":1750086708,"current_range_meters":10800,"station_id":"ce4bhb12rcd13ifvqel0","pricing_plan_id":"cebpf4jnsgd1na2vs0mg"},{"bike_id":"40fe9ef5-bce5-4867-873f-894747d76148","system_id":"levelo_inurba_marseille","lat":43.287098,"lon":5.400027,"is_reserved":false,"is_disabled":false,"rental_uris":{"android":"levelo://app?vid=40fe9ef5-bce5-4867-873f-894747d76148","ios":"levelo://app?vid=40fe9ef5-bce5-4867-873f-894747d76148"},"vehicle_type_id":"4","last_reported":1750086708,"current_range_meters":10800,"station_id":"ce4bho92rcd13ifvqh3g","pricing_plan_id":"cebpf4jnsgd1na2vs0mg"},{"bike_id":"6afc644c-08c3-42de-8619-3f94e2ba41cd","system_id":"levelo_inurba_marseille","lat":43.29919,"lon":5.43677,"is_reserved":false,"is_disabled":false,"rental_uris":{"android":"levelo://app?vid=6afc644c-08c3-42de-8619-3f94e2ba41cd","ios":"levelo://app?vid=6afc644c-08c3-42de-8619-3f94e2ba41cd"},"vehicle_type_id":"4","last_reported":1750086708,"current_range_meters":10800,"station_id":"ce4bhpp2rcd13ifvqhfg","pricing_plan_id":"cebpf4jnsgd1na2vs0mg"},{"bike_id":"6bed16c8-fe11-44a8-9d8c-6d5bf94f3d9d","system_id":"levelo_inurba_marseille","lat":43.32077,"lon":5.36755,"is_reserved":false,"is_disabled":false,"rental_uris":{"android":"levelo://app?vid=6bed16c8-fe11-44a8-9d8c-6d5bf94f3d9d","ios":"levelo://app?vid=6bed16c8-fe11-44a8-9d8c-6d5bf94f3d9d"},"vehicle_type_id":"4","last_reported":1750086708,"current_range_meters":10800,"station_id":"ce4bhrh2rcd13ifvqhug","pricing_plan_id":"cebpf4jnsgd1na2vs0mg"},{"bike_id":"6da8f05d-6537-4368-b06b-ed7eb376bcf6","system_id":"levelo_inurba_marseille","lat":43.3248,"lon":5.36565,"is_reserved":false,"is_disabled":false,"rental_uris":{"android":"levelo://app?vid=6da8f05d-6537-4368-b06b-ed7eb376bcf6","ios":"levelo://app?vid=6da8f05d-6537-4368-b06b-ed7eb376bcf6"},"vehicle_type_id":"4","last_reported":1750086708,"current_range_meters":10800,"station_id":"ce4bhs12rcd13ifvqhvg","pricing_plan_id":"cebpf4jnsgd1na2vs0mg"},{"bike_id":"a218f7b1-1ede-42b6-9f21-577bc879a2fb","system_id":"levelo_inurba_marseille","lat":43.21192,"lon":5.35078,"is_reserved":false,"is_disabled":false,"rental_uris":{"android":"levelo://app?vid=a218f7b1-1ede-42b6-9f21-577bc879a2fb","ios":"levelo://app?vid=a218f7b1-1ede-42b6-9f21-577bc879a2fb"},"vehicle_type_id":"4","last_reported":1750086708,"current_range_meters":10800,"station_id":"st_cvj6sg6p6f1abm77japg","pricing_plan_id":"cebpf4jnsgd1na2vs0mg"},{"bike_id":"bb22ed19-dd4c-424a-88bc-fdf14818ca39","system_id":"levelo_inurba_marseille","lat":43.29011,"lon":5.35617,"is_reserved":false,"is_disabled":false,"rental_uris":{"android":"levelo://app?vid=bb22ed19-dd4c-424a-88bc-fdf14818ca39","ios":"levelo://app?vid=bb22ed19-dd4c-424a-88bc-fdf14818ca39"},"vehicle_type_id":"4","last_reported":1750086708,"current_range_meters":11200,"station_id":"ce4bhb92rcd13ifvqen0","pricing_plan_id":"cebpf4jnsgd1na2vs0mg"},{"bike_id":"25be301b-e50b-4f31-a209-462aec1b4ce5","system_id":"levelo_inurba_marseille","lat":43.21201,"lon":5.3509,"is_reserved":false,"is_disabled":false,"rental_uris":{"android":"levelo://app?vid=25be301b-e50b-4f31-a209-462aec1b4ce5","ios":"levelo://app?vid=25be301b-e50b-4f31-a209-462aec1b4ce5"},"vehicle_type_id":"4","last_reported":1750086708,"current_range_meters":11200,"station_id":"st_cvj6sg6p6f1abm77japg","pricing_plan_id":"cebpf4jnsgd1na2vs0mg"},{"bike_id":"09fecbeb-8244-4c61-9eb6-1676bbca65c6","system_id":"levelo_inurba_marseille","lat":43.31082,"lon":5.38367,"is_reserved":false,"is_disabled":false,"rental_uris":{"android":"levelo://app?vid=09fecbeb-8244-4c61-9eb6-1676bbca65c6","ios":"levelo://app?vid=09fecbeb-8244-4c61-9eb6-1676bbca65c6"},"vehicle_type_id":"4","last_reported":1750086708,"current_range_meters":11600,"station_id":"ce4bgv92rcd13ifvqcr0","pricing_plan_id":"cebpf4jnsgd1na2vs0mg"},{"bike_id":"7f7d8f86-bd42-41e4-8840-62e56144ec2f","system_id":"levelo_inurba_marseille","lat":43.284163,"lon":5.349913,"is_reserved":false,"is_disabled":false,"rental_uris":{"android":"levelo://app?vid=7f7d8f86-bd42-41e4-8840-62e56144ec2f","ios":"levelo://app?vid=7f7d8f86-bd42-41e4-8840-62e56144ec2f"},"vehicle_type_id":"4","last_reported":1750086708,"current_range_meters":11600,"station_id":"ce4bhbh2rcd13ifvqepg","pricing_plan_id":"cebpf4jnsgd1na2vs0mg"},{"bike_id":"e409f394-bc73-4d82-a44d-ce65f90dacf4","system_id":"levelo_inurba_marseille","lat":43.26571,"lon":5.39019,"is_reserved":false,"is_disabled":false,"rental_uris":{"android":"levelo://app?vid=e409f394-bc73-4d82-a44d-ce65f90dacf4","ios":"levelo://app?vid=e409f394-bc73-4d82-a44d-ce65f90dacf4"},"vehicle_type_id":"4","last_reported":1750086708,"current_range_meters":11600,"station_id":"ce4bhe12rcd13ifvqf30","pricing_plan_id":"cebpf4jnsgd1na2vs0mg"},{"bike_id":"b71cace6-0416-4165-a9ca-29441bc27ee8","system_id":"levelo_inurba_marseille","lat":43.30429,"lon":5.3974,"is_reserved":false,"is_disabled":false,"rental_uris":{"android":"levelo://app?vid=b71cace6-0416-4165-a9ca-29441bc27ee8","ios":"levelo://app?vid=b71cace6-0416-4165-a9ca-29441bc27ee8"},"vehicle_type_id":"4","last_reported":1750086708,"current_range_meters":12000,"station_id":"ce4bh092rcd13ifvqd20","pricing_plan_id":"cebpf4jnsgd1na2vs0mg"},{"bike_id":"4a84802c-4a48-4a81-8d95-25767c5ebeb0","system_id":"levelo_inurba_marseille","lat":43.28429,"lon":5.35011,"is_reserved":false,"is_disabled":false,"rental_uris":{"android":"levelo://app?vid=4a84802c-4a48-4a81-8d95-25767c5ebeb0","ios":"levelo://app?vid=4a84802c-4a48-4a81-8d95-25767c5ebeb0"},"vehicle_type_id":"4","last_reported":1750086708,"current_range_meters":12000,"station_id":"ce4bhbh2rcd13ifvqepg","pricing_plan_id":"cebpf4jnsgd1na2vs0mg"},{"bike_id":"cd3431bf-4a7a-46de-bab2-21b1f7b1f31d","system_id":"levelo_inurba_marseille","lat":43.25577,"lon":5.38233,"is_reserved":false,"is_disabled":false,"rental_uris":{"android":"levelo://app?vid=cd3431bf-4a7a-46de-bab2-21b1f7b1f31d","ios":"levelo://app?vid=cd3431bf-4a7a-46de-bab2-21b1f7b1f31d"},"vehicle_type_id":"4","last_reported":1750086708,"current_range_meters":12000,"station_id":"ce4bhih2rcd13ifvqfs0","pricing_plan_id":"cebpf4jnsgd1na2vs0mg"},{"bike_id":"232581a2-33b4-4eac-9339-1ddfca3758d5","system_id":"levelo_inurba_marseille","lat":43.24172,"lon":5.36385,"is_reserved":false,"is_disabled":false,"rental_uris":{"android":"levelo://app?vid=232581a2-33b4-4eac-9339-1ddfca3758d5","ios":"levelo://app?vid=232581a2-33b4-4eac-9339-1ddfca3758d5"},"vehicle_type_id":"4","last_reported":1750086708,"current_range_meters":12000,"station_id":"cpo36qri1sfpv3e86is0","pricing_plan_id":"cebpf4jnsgd1na2vs0mg"},{"bike_id":"a66728c4-f2e7-428e-b872-e7406fb70732","system_id":"levelo_inurba_marseille","lat":43.21199,"lon":5.35081,"is_reserved":false,"is_disabled":false,"rental_uris":{"android":"levelo://app?vid=a66728c4-f2e7-428e-b872-e7406fb70732","ios":"levelo://app?vid=a66728c4-f2e7-428e-b872-e7406fb70732"},"vehicle_type_id":"4","last_reported":1750086708,"current_range_meters":12000,"station_id":"st_cvj6sg6p6f1abm77japg","pricing_plan_id":"cebpf4jnsgd1na2vs0mg"},{"bike_id":"e702009b-c01c-49ff-a14b-69c65366caa4","system_id":"levelo_inurba_marseille","lat":43.28488,"lon":5.38563,"is_reserved":false,"is_disabled":false,"rental_uris":{"android":"levelo://app?vid=e702009b-c01c-49ff-a14b-69c65366caa4","ios":"levelo://app?vid=e702009b-c01c-49ff-a14b-69c65366caa4"},"vehicle_type_id":"4","last_reported":1750086708,"current_range_meters":12400,"station_id":"","pricing_plan_id":"cebpf4jnsgd1na2vs0mg"},{"bike_id":"60175e85-21cb-4d69-8b0e-608ca82325b2","system_id":"levelo_inurba_marseille","lat":43.25494,"lon":5.37649,"is_reserved":false,"is_disabled":false,"rental_uris":{"android":"levelo://app?vid=60175e85-21cb-4d69-8b0e-608ca82325b2","ios":"levelo://app?vid=60175e85-21cb-4d69-8b0e-608ca82325b2"},"vehicle_type_id":"4","last_reported":1750086708,"current_range_meters":12400,"station_id":"ce4bhh12rcd13ifvqff0","pricing_plan_id":"cebpf4jnsgd1na2vs0mg"},{"bike_id":"96b6957b-9065-43ca-aec5-03a99aaacd73","system_id":"levelo_inurba_marseille","lat":43.23964,"lon":5.36637,"is_reserved":false,"is_disabled":false,"rental_uris":{"android":"levelo://app?vid=96b6957b-9065-43ca-aec5-03a99aaacd73","ios":"levelo://app?vid=96b6957b-9065-43ca-aec5-03a99aaacd73"},"vehicle_type_id":"4","last_reported":1750086708,"current_range_meters":12400,"station_id":"ce4bhi12rcd13ifvqfp0","pricing_plan_id":"cebpf4jnsgd1na2vs0mg"},{"bike_id":"564c18d3-8f89-4216-b14e-7b00707be914","system_id":"levelo_inurba_marseille","lat":43.23148,"lon":5.43712,"is_reserved":false,"is_disabled":false,"rental_uris":{"android":"levelo://app?vid=564c18d3-8f89-4216-b14e-7b00707be914","ios":"levelo://app?vid=564c18d3-8f89-4216-b14e-7b00707be914"},"vehicle_type_id":"4","last_reported":1750086708,"current_range_meters":12400,"station_id":"ce4bhmp2rcd13ifvqgog","pricing_plan_id":"cebpf4jnsgd1na2vs0mg"},{"bike_id":"da3e1724-606c-4f9a-9130-d56dd48e22e0","system_id":"levelo_inurba_marseille","lat":43.329073,"lon":5.405804,"is_reserved":false,"is_disabled":false,"rental_uris":{"android":"levelo://app?vid=da3e1724-606c-4f9a-9130-d56dd48e22e0","ios":"levelo://app?vid=da3e1724-606c-4f9a-9130-d56dd48e22e0"},"vehicle_type_id":"4","last_reported":1750086708,"current_range_meters":12800,"station_id":"","pricing_plan_id":"cebpf4jnsgd1na2vs0mg"},{"bike_id":"64c6d212-acc6-47e3-9e04-fbaf04a7ed4e","system_id":"levelo_inurba_marseille","lat":43.27001,"lon":5.38779,"is_reserved":false,"is_disabled":false,"rental_uris":{"android":"levelo://app?vid=64c6d212-acc6-47e3-9e04-fbaf04a7ed4e","ios":"levelo://app?vid=64c6d212-acc6-47e3-9e04-fbaf04a7ed4e"},"vehicle_type_id":"4","last_reported":1750086708,"current_range_meters":12800,"station_id":"","pricing_plan_id":"cebpf4jnsgd1na2vs0mg"},{"bike_id":"a3f27a88-b909-4c0a-8d9e-cae805913d1a","system_id":"levelo_inurba_marseille","lat":43.29027,"lon":5.38653,"is_reserved":false,"is_disabled":false,"rental_uris":{"android":"levelo://app?vid=a3f27a88-b909-4c0a-8d9e-cae805913d1a","ios":"levelo://app?vid=a3f27a88-b909-4c0a-8d9e-cae805913d1a"},"vehicle_type_id":"4","last_reported":1750086708,"current_range_meters":12800,"station_id":"ce4bh4p2rcd13ifvqe0g","pricing_plan_id":"cebpf4jnsgd1na2vs0mg"},{"bike_id":"a00b0328-f430-47a6-9162-348968c2a989","system_id":"levelo_inurba_marseille","lat":43.28665,"lon":5.36384,"is_reserved":false,"is_disabled":false,"rental_uris":{"android":"levelo://app?vid=a00b0328-f430-47a6-9162-348968c2a989","ios":"levelo://app?vid=a00b0328-f430-47a6-9162-348968c2a989"},"vehicle_type_id":"4","last_reported":1750086708,"current_range_meters":12800,"station_id":"ce4bhah2rcd13ifvqej0","pricing_plan_id":"cebpf4jnsgd1na2vs0mg"},{"bike_id":"d0c6b551-4765-4114-aa10-e8fbbdc1a4a7","system_id":"levelo_inurba_marseille","lat":43.27367,"lon":5.36264,"is_reserved":false,"is_disabled":false,"rental_uris":{"android":"levelo://app?vid=d0c6b551-4765-4114-aa10-e8fbbdc1a4a7","ios":"levelo://app?vid=d0c6b551-4765-4114-aa10-e8fbbdc1a4a7"},"vehicle_type_id":"4","last_reported":1750086708,"current_range_meters":12800,"station_id":"ce4bhbh2rcd13ifvqeo0","pricing_plan_id":"cebpf4jnsgd1na2vs0mg"},{"bike_id":"48e98c35-6eaf-4651-a68c-7876f7d82eba","system_id":"levelo_inurba_marseille","lat":43.24795,"lon":5.37474,"is_reserved":false,"is_disabled":false,"rental_uris":{"android":"levelo://app?vid=48e98c35-6eaf-4651-a68c-7876f7d82eba","ios":"levelo://app?vid=48e98c35-6eaf-4651-a68c-7876f7d82eba"},"vehicle_type_id":"4","last_reported":1750086708,"current_range_meters":12800,"station_id":"ce4bhgh2rcd13ifvqfb0","pricing_plan_id":"cebpf4jnsgd1na2vs0mg"},{"bike_id":"45853a76-b280-4527-b8cb-f602f3f9dbe8","system_id":"levelo_inurba_marseille","lat":43.23966,"lon":5.36646,"is_reserved":false,"is_disabled":false,"rental_uris":{"android":"levelo://app?vid=45853a76-b280-4527-b8cb-f602f3f9dbe8","ios":"levelo://app?vid=45853a76-b280-4527-b8cb-f602f3f9dbe8"},"vehicle_type_id":"4","last_reported":1750086708,"current_range_meters":12800,"station_id":"ce4bhi12rcd13ifvqfp0","pricing_plan_id":"cebpf4jnsgd1na2vs0mg"},{"bike_id":"aca72251-a287-4748-8abd-3597e08bcb98","system_id":"levelo_inurba_marseille","lat":43.26497,"lon":5.39517,"is_reserved":false,"is_disabled":false,"rental_uris":{"android":"levelo://app?vid=aca72251-a287-4748-8abd-3597e08bcb98","ios":"levelo://app?vid=aca72251-a287-4748-8abd-3597e08bcb98"},"vehicle_type_id":"4","last_reported":1750086708,"current_range_meters":12800,"station_id":"ce4bhi12rcd13ifvqfq0","pricing_plan_id":"cebpf4jnsgd1na2vs0mg"},{"bike_id":"76454bdf-68f5-4054-b00e-8d80a060532a","system_id":"levelo_inurba_marseille","lat":43.31172,"lon":5.38721,"is_reserved":false,"is_disabled":false,"rental_uris":{"android":"levelo://app?vid=76454bdf-68f5-4054-b00e-8d80a060532a","ios":"levelo://app?vid=76454bdf-68f5-4054-b00e-8d80a060532a"},"vehicle_type_id":"4","last_reported":1750086708,"current_range_meters":13600,"station_id":"ce4bgv12rcd13ifvqcp0","pricing_plan_id":"cebpf4jnsgd1na2vs0mg"},{"bike_id":"88d4fd99-6294-4e6d-a1d4-ea2437f96cef","system_id":"levelo_inurba_marseille","lat":43.27381,"lon":5.36258,"is_reserved":false,"is_disabled":false,"rental_uris":{"android":"levelo://app?vid=88d4fd99-6294-4e6d-a1d4-ea2437f96cef","ios":"levelo://app?vid=88d4fd99-6294-4e6d-a1d4-ea2437f96cef"},"vehicle_type_id":"4","last_reported":1750086708,"current_range_meters":13600,"station_id":"ce4bhbh2rcd13ifvqeo0","pricing_plan_id":"cebpf4jnsgd1na2vs0mg"},{"bike_id":"c03bd9ab-07aa-4b69-a3f7-3a1b8841e3ff","system_id":"levelo_inurba_marseille","lat":43.26027,"lon":5.37546,"is_reserved":false,"is_disabled":false,"rental_uris":{"android":"levelo://app?vid=c03bd9ab-07aa-4b69-a3f7-3a1b8841e3ff","ios":"levelo://app?vid=c03bd9ab-07aa-4b69-a3f7-3a1b8841e3ff"},"vehicle_type_id":"4","last_reported":1750086708,"current_range_meters":13600,"station_id":"ce4bhgh2rcd13ifvqfa0","pricing_plan_id":"cebpf4jnsgd1na2vs0mg"},{"bike_id":"398a0bbf-4f1e-4b6e-a4e1-0e8ceb1b1dbe","system_id":"levelo_inurba_marseille","lat":43.23957,"lon":5.36626,"is_reserved":false,"is_disabled":false,"rental_uris":{"android":"levelo://app?vid=398a0bbf-4f1e-4b6e-a4e1-0e8ceb1b1dbe","ios":"levelo://app?vid=398a0bbf-4f1e-4b6e-a4e1-0e8ceb1b1dbe"},"vehicle_type_id":"4","last_reported":1750086708,"current_range_meters":14000,"station_id":"ce4bhi12rcd13ifvqfp0","pricing_plan_id":"cebpf4jnsgd1na2vs0mg"},{"bike_id":"d2868572-6fee-4690-8a81-283adbeec80c","system_id":"levelo_inurba_marseille","lat":43.21189,"lon":5.35067,"is_reserved":false,"is_disabled":false,"rental_uris":{"android":"levelo://app?vid=d2868572-6fee-4690-8a81-283adbeec80c","ios":"levelo://app?vid=d2868572-6fee-4690-8a81-283adbeec80c"},"vehicle_type_id":"4","last_reported":1750086708,"current_range_meters":14000,"station_id":"st_cvj6sg6p6f1abm77japg","pricing_plan_id":"cebpf4jnsgd1na2vs0mg"},{"bike_id":"d5af8921-860a-4c56-ac55-a0a4af05239e","system_id":"levelo_inurba_marseille","lat":43.27615,"lon":5.36101,"is_reserved":false,"is_disabled":false,"rental_uris":{"android":"levelo://app?vid=d5af8921-860a-4c56-ac55-a0a4af05239e","ios":"levelo://app?vid=d5af8921-860a-4c56-ac55-a0a4af05239e"},"vehicle_type_id":"4","last_reported":1750086708,"current_range_meters":14400,"station_id":"ce4bgj92rcd13ifvqbe0","pricing_plan_id":"cebpf4jnsgd1na2vs0mg"},{"bike_id":"e9307d5b-81f6-412e-ab0e-5f6acb32333c","system_id":"levelo_inurba_marseille","lat":43.27373,"lon":5.36257,"is_reserved":false,"is_disabled":false,"rental_uris":{"android":"levelo://app?vid=e9307d5b-81f6-412e-ab0e-5f6acb32333c","ios":"levelo://app?vid=e9307d5b-81f6-412e-ab0e-5f6acb32333c"},"vehicle_type_id":"4","last_reported":1750086708,"current_range_meters":14400,"station_id":"ce4bhbh2rcd13ifvqeo0","pricing_plan_id":"cebpf4jnsgd1na2vs0mg"},{"bike_id":"7c7160a5-cf44-4137-822d-c88eca1871ed","system_id":"levelo_inurba_marseille","lat":43.27377,"lon":5.36253,"is_reserved":false,"is_disabled":false,"rental_uris":{"android":"levelo://app?vid=7c7160a5-cf44-4137-822d-c88eca1871ed","ios":"levelo://app?vid=7c7160a5-cf44-4137-822d-c88eca1871ed"},"vehicle_type_id":"4","last_reported":1750086708,"current_range_meters":14400,"station_id":"ce4bhbh2rcd13ifvqeo0","pricing_plan_id":"cebpf4jnsgd1na2vs0mg"},{"bike_id":"c1ba07ad-731d-49d8-9fd6-a826431f3438","system_id":"levelo_inurba_marseille","lat":43.29904,"lon":5.43666,"is_reserved":false,"is_disabled":false,"rental_uris":{"android":"levelo://app?vid=c1ba07ad-731d-49d8-9fd6-a826431f3438","ios":"levelo://app?vid=c1ba07ad-731d-49d8-9fd6-a826431f3438"},"vehicle_type_id":"4","last_reported":1750086708,"current_range_meters":14400,"station_id":"ce4bhpp2rcd13ifvqhfg","pricing_plan_id":"cebpf4jnsgd1na2vs0mg"},{"bike_id":"8b6b2bc5-278d-48a6-9e2d-bcf6f36c9be6","system_id":"levelo_inurba_marseille","lat":43.24167,"lon":5.3639,"is_reserved":false,"is_disabled":false,"rental_uris":{"android":"levelo://app?vid=8b6b2bc5-278d-48a6-9e2d-bcf6f36c9be6","ios":"levelo://app?vid=8b6b2bc5-278d-48a6-9e2d-bcf6f36c9be6"},"vehicle_type_id":"4","last_reported":1750086708,"current_range_meters":14400,"station_id":"cpo36qri1sfpv3e86is0","pricing_plan_id":"cebpf4jnsgd1na2vs0mg"},{"bike_id":"757906b4-eb86-4ed8-a0a5-7f582bcde75a","system_id":"levelo_inurba_marseille","lat":43.265332,"lon":5.395246,"is_reserved":false,"is_disabled":false,"rental_uris":{"android":"levelo://app?vid=757906b4-eb86-4ed8-a0a5-7f582bcde75a","ios":"levelo://app?vid=757906b4-eb86-4ed8-a0a5-7f582bcde75a"},"vehicle_type_id":"4","last_reported":1750086708,"current_range_meters":14800,"station_id":"","pricing_plan_id":"cebpf4jnsgd1na2vs0mg"},{"bike_id":"3fe5a851-839a-40d0-9910-fc178c617ae7","system_id":"levelo_inurba_marseille","lat":43.28406,"lon":5.37521,"is_reserved":false,"is_disabled":false,"rental_uris":{"android":"levelo://app?vid=3fe5a851-839a-40d0-9910-fc178c617ae7","ios":"levelo://app?vid=3fe5a851-839a-40d0-9910-fc178c617ae7"},"vehicle_type_id":"4","last_reported":1750086708,"current_range_meters":14800,"station_id":"ce4bh412rcd13ifvqds0","pricing_plan_id":"cebpf4jnsgd1na2vs0mg"},{"bike_id":"ff3e1354-47e0-4719-87c5-08dbc5c733f5","system_id":"levelo_inurba_marseille","lat":43.23953,"lon":5.366332,"is_reserved":false,"is_disabled":false,"rental_uris":{"android":"levelo://app?vid=ff3e1354-47e0-4719-87c5-08dbc5c733f5","ios":"levelo://app?vid=ff3e1354-47e0-4719-87c5-08dbc5c733f5"},"vehicle_type_id":"4","last_reported":1750086708,"current_range_meters":14800,"station_id":"ce4bhi12rcd13ifvqfp0","pricing_plan_id":"cebpf4jnsgd1na2vs0mg"},{"bike_id":"93164b71-3d2e-4035-ab83-b5a090400594","system_id":"levelo_inurba_marseille","lat":43.3078,"lon":5.37653,"is_reserved":false,"is_disabled":false,"rental_uris":{"android":"levelo://app?vid=93164b71-3d2e-4035-ab83-b5a090400594","ios":"levelo://app?vid=93164b71-3d2e-4035-ab83-b5a090400594"},"vehicle_type_id":"4","last_reported":1750086708,"current_range_meters":15200,"station_id":"ce4bgv92rcd13ifvqcq0","pricing_plan_id":"cebpf4jnsgd1na2vs0mg"},{"bike_id":"cb9cf34d-e81d-4e93-b448-d64732d642a6","system_id":"levelo_inurba_marseille","lat":43.28416,"lon":5.34982,"is_reserved":false,"is_disabled":false,"rental_uris":{"android":"levelo://app?vid=cb9cf34d-e81d-4e93-b448-d64732d642a6","ios":"levelo://app?vid=cb9cf34d-e81d-4e93-b448-d64732d642a6"},"vehicle_type_id":"4","last_reported":1750086708,"current_range_meters":15200,"station_id":"ce4bhbh2rcd13ifvqepg","pricing_plan_id":"cebpf4jnsgd1na2vs0mg"},{"bike_id":"c27e6706-b66e-4b1b-b4ca-b34cdb786c6f","system_id":"levelo_inurba_marseille","lat":43.26512,"lon":5.39557,"is_reserved":false,"is_disabled":false,"rental_uris":{"android":"levelo://app?vid=c27e6706-b66e-4b1b-b4ca-b34cdb786c6f","ios":"levelo://app?vid=c27e6706-b66e-4b1b-b4ca-b34cdb786c6f"},"vehicle_type_id":"4","last_reported":1750086708,"current_range_meters":15200,"station_id":"ce4bhi12rcd13ifvqfq0","pricing_plan_id":"cebpf4jnsgd1na2vs0mg"},{"bike_id":"b16ea546-3f93-4a19-aa1d-b24b6cf5b95e","system_id":"levelo_inurba_marseille","lat":43.23147,"lon":5.43703,"is_reserved":false,"is_disabled":false,"rental_uris":{"android":"levelo://app?vid=b16ea546-3f93-4a19-aa1d-b24b6cf5b95e","ios":"levelo://app?vid=b16ea546-3f93-4a19-aa1d-b24b6cf5b95e"},"vehicle_type_id":"4","last_reported":1750086708,"current_range_meters":15200,"station_id":"ce4bhmp2rcd13ifvqgog","pricing_plan_id":"cebpf4jnsgd1na2vs0mg"},{"bike_id":"03340537-67a8-4219-b943-e70560332de6","system_id":"levelo_inurba_marseille","lat":43.31757,"lon":5.39012,"is_reserved":false,"is_disabled":false,"rental_uris":{"android":"levelo://app?vid=03340537-67a8-4219-b943-e70560332de6","ios":"levelo://app?vid=03340537-67a8-4219-b943-e70560332de6"},"vehicle_type_id":"4","last_reported":1750086708,"current_range_meters":15200,"station_id":"ce4bhqp2rcd13ifvqhng","pricing_plan_id":"cebpf4jnsgd1na2vs0mg"},{"bike_id":"6b75a80e-12fa-4bd0-b8db-b509b9abce19","system_id":"levelo_inurba_marseille","lat":43.211917,"lon":5.35065,"is_reserved":false,"is_disabled":false,"rental_uris":{"android":"levelo://app?vid=6b75a80e-12fa-4bd0-b8db-b509b9abce19","ios":"levelo://app?vid=6b75a80e-12fa-4bd0-b8db-b509b9abce19"},"vehicle_type_id":"4","last_reported":1750086708,"current_range_meters":15200,"station_id":"st_cvj6sg6p6f1abm77japg","pricing_plan_id":"cebpf4jnsgd1na2vs0mg"},{"bike_id":"d05c512f-ecf8-4d54-8646-fa719dc17ab7","system_id":"levelo_inurba_marseille","lat":43.27577,"lon":5.41738,"is_reserved":false,"is_disabled":false,"rental_uris":{"android":"levelo://app?vid=d05c512f-ecf8-4d54-8646-fa719dc17ab7","ios":"levelo://app?vid=d05c512f-ecf8-4d54-8646-fa719dc17ab7"},"vehicle_type_id":"4","last_reported":1750086708,"current_range_meters":16000,"station_id":"","pricing_plan_id":"cebpf4jnsgd1na2vs0mg"},{"bike_id":"fd3c1b42-94fd-4ba7-96d3-43328c47f9f3","system_id":"levelo_inurba_marseille","lat":43.29527,"lon":5.38532,"is_reserved":false,"is_disabled":false,"rental_uris":{"android":"levelo://app?vid=fd3c1b42-94fd-4ba7-96d3-43328c47f9f3","ios":"levelo://app?vid=fd3c1b42-94fd-4ba7-96d3-43328c47f9f3"},"vehicle_type_id":"4","last_reported":1750086708,"current_range_meters":16000,"station_id":"ce4bgih2rcd13ifvqba0","pricing_plan_id":"cebpf4jnsgd1na2vs0mg"},{"bike_id":"a7f2f195-d63f-4421-9fc3-ea4a9427575f","system_id":"levelo_inurba_marseille","lat":43.29429,"lon":5.39734,"is_reserved":false,"is_disabled":false,"rental_uris":{"android":"levelo://app?vid=a7f2f195-d63f-4421-9fc3-ea4a9427575f","ios":"levelo://app?vid=a7f2f195-d63f-4421-9fc3-ea4a9427575f"},"vehicle_type_id":"4","last_reported":1750086708,"current_range_meters":16000,"station_id":"ce4bh3h2rcd13ifvqdo0","pricing_plan_id":"cebpf4jnsgd1na2vs0mg"},{"bike_id":"16a01418-1422-46e8-8039-cf11a3d0ecc3","system_id":"levelo_inurba_marseille","lat":43.32048,"lon":5.41538,"is_reserved":false,"is_disabled":false,"rental_uris":{"android":"levelo://app?vid=16a01418-1422-46e8-8039-cf11a3d0ecc3","ios":"levelo://app?vid=16a01418-1422-46e8-8039-cf11a3d0ecc3"},"vehicle_type_id":"4","last_reported":1750086708,"current_range_meters":16000,"station_id":"ce4bhq92rcd13ifvqhkg","pricing_plan_id":"cebpf4jnsgd1na2vs0mg"},{"bike_id":"25960fd9-8509-4555-9b23-fa4fae1e21d0","system_id":"levelo_inurba_marseille","lat":43.290106,"lon":5.381988,"is_reserved":false,"is_disabled":false,"rental_uris":{"android":"levelo://app?vid=25960fd9-8509-4555-9b23-fa4fae1e21d0","ios":"levelo://app?vid=25960fd9-8509-4555-9b23-fa4fae1e21d0"},"vehicle_type_id":"4","last_reported":1750086708,"current_range_meters":16400,"station_id":"","pricing_plan_id":"cebpf4jnsgd1na2vs0mg"},{"bike_id":"c6e11e18-206f-4bff-84da-d0aa44e03a49","system_id":"levelo_inurba_marseille","lat":43.27406,"lon":5.36265,"is_reserved":false,"is_disabled":false,"rental_uris":{"android":"levelo://app?vid=c6e11e18-206f-4bff-84da-d0aa44e03a49","ios":"levelo://app?vid=c6e11e18-206f-4bff-84da-d0aa44e03a49"},"vehicle_type_id":"4","last_reported":1750086708,"current_range_meters":16400,"station_id":"","pricing_plan_id":"cebpf4jnsgd1na2vs0mg"},{"bike_id":"f5d1db1c-9e09-4d6b-9134-cbfb9d9df24f","system_id":"levelo_inurba_marseille","lat":43.30548,"lon":5.36537,"is_reserved":false,"is_disabled":false,"rental_uris":{"android":"levelo://app?vid=f5d1db1c-9e09-4d6b-9134-cbfb9d9df24f","ios":"levelo://app?vid=f5d1db1c-9e09-4d6b-9134-cbfb9d9df24f"},"vehicle_type_id":"4","last_reported":1750086708,"current_range_meters":16400,"station_id":"ce4bgs12rcd13ifvqcag","pricing_plan_id":"cebpf4jnsgd1na2vs0mg"},{"bike_id":"d373660e-f51d-4013-9abf-31b449921f40","system_id":"levelo_inurba_marseille","lat":43.30638,"lon":5.40091,"is_reserved":false,"is_disabled":false,"rental_uris":{"android":"levelo://app?vid=d373660e-f51d-4013-9abf-31b449921f40","ios":"levelo://app?vid=d373660e-f51d-4013-9abf-31b449921f40"},"vehicle_type_id":"4","last_reported":1750086708,"current_range_meters":16400,"station_id":"ce4bh112rcd13ifvqda0","pricing_plan_id":"cebpf4jnsgd1na2vs0mg"},{"bike_id":"5a66efa4-406f-47a9-9d54-0082814f1beb","system_id":"levelo_inurba_marseille","lat":43.24684,"lon":5.38138,"is_reserved":false,"is_disabled":false,"rental_uris":{"android":"levelo://app?vid=5a66efa4-406f-47a9-9d54-0082814f1beb","ios":"levelo://app?vid=5a66efa4-406f-47a9-9d54-0082814f1beb"},"vehicle_type_id":"4","last_reported":1750086708,"current_range_meters":16400,"station_id":"ce4bhih2rcd13ifvqfr0","pricing_plan_id":"cebpf4jnsgd1na2vs0mg"},{"bike_id":"1e373418-986e-4d3c-9ff7-c37dd7c7a214","system_id":"levelo_inurba_marseille","lat":43.29898,"lon":5.43664,"is_reserved":false,"is_disabled":false,"rental_uris":{"android":"levelo://app?vid=1e373418-986e-4d3c-9ff7-c37dd7c7a214","ios":"levelo://app?vid=1e373418-986e-4d3c-9ff7-c37dd7c7a214"},"vehicle_type_id":"4","last_reported":1750086708,"current_range_meters":16400,"station_id":"ce4bhpp2rcd13ifvqhfg","pricing_plan_id":"cebpf4jnsgd1na2vs0mg"},{"bike_id":"48fa481a-a5ba-471d-9700-640f29d5dae8","system_id":"levelo_inurba_marseille","lat":43.28398,"lon":5.37518,"is_reserved":false,"is_disabled":false,"rental_uris":{"android":"levelo://app?vid=48fa481a-a5ba-471d-9700-640f29d5dae8","ios":"levelo://app?vid=48fa481a-a5ba-471d-9700-640f29d5dae8"},"vehicle_type_id":"4","last_reported":1750086708,"current_range_meters":16800,"station_id":"ce4bh412rcd13ifvqds0","pricing_plan_id":"cebpf4jnsgd1na2vs0mg"},{"bike_id":"9ca4474d-50d3-4613-90fd-fa8476250cd0","system_id":"levelo_inurba_marseille","lat":43.26688,"lon":5.38275,"is_reserved":false,"is_disabled":false,"rental_uris":{"android":"levelo://app?vid=9ca4474d-50d3-4613-90fd-fa8476250cd0","ios":"levelo://app?vid=9ca4474d-50d3-4613-90fd-fa8476250cd0"},"vehicle_type_id":"4","last_reported":1750086708,"current_range_meters":16800,"station_id":"ce4bhg92rcd13ifvqf90","pricing_plan_id":"cebpf4jnsgd1na2vs0mg"},{"bike_id":"0e27dafc-21df-4fb1-bd36-2450a7866702","system_id":"levelo_inurba_marseille","lat":43.27154,"lon":5.40005,"is_reserved":false,"is_disabled":false,"rental_uris":{"android":"levelo://app?vid=0e27dafc-21df-4fb1-bd36-2450a7866702","ios":"levelo://app?vid=0e27dafc-21df-4fb1-bd36-2450a7866702"},"vehicle_type_id":"4","last_reported":1750086708,"current_range_meters":17200,"station_id":"","pricing_plan_id":"cebpf4jnsgd1na2vs0mg"},{"bike_id":"e11a744e-d3c0-416b-84ac-f8b31120363d","system_id":"levelo_inurba_marseille","lat":43.31707,"lon":5.37736,"is_reserved":false,"is_disabled":false,"rental_uris":{"android":"levelo://app?vid=e11a744e-d3c0-416b-84ac-f8b31120363d","ios":"levelo://app?vid=e11a744e-d3c0-416b-84ac-f8b31120363d"},"vehicle_type_id":"4","last_reported":1750086708,"current_range_meters":17200,"station_id":"ce4bgth2rcd13ifvqch0","pricing_plan_id":"cebpf4jnsgd1na2vs0mg"},{"bike_id":"bc65c7e5-0556-4970-aa94-fd78a2a5ff43","system_id":"levelo_inurba_marseille","lat":43.27372,"lon":5.36264,"is_reserved":false,"is_disabled":false,"rental_uris":{"android":"levelo://app?vid=bc65c7e5-0556-4970-aa94-fd78a2a5ff43","ios":"levelo://app?vid=bc65c7e5-0556-4970-aa94-fd78a2a5ff43"},"vehicle_type_id":"4","last_reported":1750086708,"current_range_meters":17200,"station_id":"ce4bhbh2rcd13ifvqeo0","pricing_plan_id":"cebpf4jnsgd1na2vs0mg"},{"bike_id":"8764a77c-fc55-42d8-ac0f-01722fa705df","system_id":"levelo_inurba_marseille","lat":43.273695,"lon":5.36262,"is_reserved":false,"is_disabled":false,"rental_uris":{"android":"levelo://app?vid=8764a77c-fc55-42d8-ac0f-01722fa705df","ios":"levelo://app?vid=8764a77c-fc55-42d8-ac0f-01722fa705df"},"vehicle_type_id":"4","last_reported":1750086708,"current_range_meters":17200,"station_id":"ce4bhbh2rcd13ifvqeo0","pricing_plan_id":"cebpf4jnsgd1na2vs0mg"},{"bike_id":"f8d1e557-c806-403e-b093-89a899d624dd","system_id":"levelo_inurba_marseille","lat":43.28619,"lon":5.35103,"is_reserved":false,"is_disabled":false,"rental_uris":{"android":"levelo://app?vid=f8d1e557-c806-403e-b093-89a899d624dd","ios":"levelo://app?vid=f8d1e557-c806-403e-b093-89a899d624dd"},"vehicle_type_id":"4","last_reported":1750086708,"current_range_meters":17200,"station_id":"ce4bhch2rcd13ifvqeug","pricing_plan_id":"cebpf4jnsgd1na2vs0mg"},{"bike_id":"af1e8a70-e7ab-49ea-a35b-a86e99ae1a84","system_id":"levelo_inurba_marseille","lat":43.2766,"lon":5.38872,"is_reserved":false,"is_disabled":false,"rental_uris":{"android":"levelo://app?vid=af1e8a70-e7ab-49ea-a35b-a86e99ae1a84","ios":"levelo://app?vid=af1e8a70-e7ab-49ea-a35b-a86e99ae1a84"},"vehicle_type_id":"4","last_reported":1750086708,"current_range_meters":17200,"station_id":"ce4bhi12rcd13ifvqfo0","pricing_plan_id":"cebpf4jnsgd1na2vs0mg"},{"bike_id":"3ff72a70-ddeb-4eee-a085-0a08ddc9d3db","system_id":"levelo_inurba_marseille","lat":43.24185,"lon":5.39718,"is_reserved":false,"is_disabled":false,"rental_uris":{"android":"levelo://app?vid=3ff72a70-ddeb-4eee-a085-0a08ddc9d3db","ios":"levelo://app?vid=3ff72a70-ddeb-4eee-a085-0a08ddc9d3db"},"vehicle_type_id":"4","last_reported":1750086708,"current_range_meters":17200,"station_id":"ce4bhn12rcd13ifvqgpg","pricing_plan_id":"cebpf4jnsgd1na2vs0mg"},{"bike_id":"5685db32-a7b8-4997-b956-0e11acfe4916","system_id":"levelo_inurba_marseille","lat":43.24183,"lon":5.39721,"is_reserved":false,"is_disabled":false,"rental_uris":{"android":"levelo://app?vid=5685db32-a7b8-4997-b956-0e11acfe4916","ios":"levelo://app?vid=5685db32-a7b8-4997-b956-0e11acfe4916"},"vehicle_type_id":"4","last_reported":1750086708,"current_range_meters":17200,"station_id":"ce4bhn12rcd13ifvqgpg","pricing_plan_id":"cebpf4jnsgd1na2vs0mg"},{"bike_id":"3416a707-2d70-496d-9def-98dfa1a8af2c","system_id":"levelo_inurba_marseille","lat":43.2306,"lon":5.35494,"is_reserved":false,"is_disabled":false,"rental_uris":{"android":"levelo://app?vid=3416a707-2d70-496d-9def-98dfa1a8af2c","ios":"levelo://app?vid=3416a707-2d70-496d-9def-98dfa1a8af2c"},"vehicle_type_id":"4","last_reported":1750086708,"current_range_meters":17200,"station_id":"cpo3342slgdg3j2ifvpg","pricing_plan_id":"cebpf4jnsgd1na2vs0mg"},{"bike_id":"8d8216b7-70be-4e0e-b02f-ed276d5ecd5f","system_id":"levelo_inurba_marseille","lat":43.23063,"lon":5.35508,"is_reserved":false,"is_disabled":false,"rental_uris":{"android":"levelo://app?vid=8d8216b7-70be-4e0e-b02f-ed276d5ecd5f","ios":"levelo://app?vid=8d8216b7-70be-4e0e-b02f-ed276d5ecd5f"},"vehicle_type_id":"4","last_reported":1750086708,"current_range_meters":17200,"station_id":"cpo3342slgdg3j2ifvpg","pricing_plan_id":"cebpf4jnsgd1na2vs0mg"},{"bike_id":"b45b0212-2e64-4e7d-8c95-8b7263d4e6d1","system_id":"levelo_inurba_marseille","lat":43.30789,"lon":5.38137,"is_reserved":false,"is_disabled":false,"rental_uris":{"android":"levelo://app?vid=b45b0212-2e64-4e7d-8c95-8b7263d4e6d1","ios":"levelo://app?vid=b45b0212-2e64-4e7d-8c95-8b7263d4e6d1"},"vehicle_type_id":"4","last_reported":1750086708,"current_range_meters":17600,"station_id":"ce4bgt12rcd13ifvqce0","pricing_plan_id":"cebpf4jnsgd1na2vs0mg"},{"bike_id":"4dc388d4-aefb-48ec-9d98-a4d5e294055a","system_id":"levelo_inurba_marseille","lat":43.28407,"lon":5.37507,"is_reserved":false,"is_disabled":false,"rental_uris":{"android":"levelo://app?vid=4dc388d4-aefb-48ec-9d98-a4d5e294055a","ios":"levelo://app?vid=4dc388d4-aefb-48ec-9d98-a4d5e294055a"},"vehicle_type_id":"4","last_reported":1750086708,"current_range_meters":17600,"station_id":"ce4bh412rcd13ifvqds0","pricing_plan_id":"cebpf4jnsgd1na2vs0mg"},{"bike_id":"1c2c01a0-a0bc-4003-9a28-e54122ac7bca","system_id":"levelo_inurba_marseille","lat":43.28838,"lon":5.3584,"is_reserved":false,"is_disabled":false,"rental_uris":{"android":"levelo://app?vid=1c2c01a0-a0bc-4003-9a28-e54122ac7bca","ios":"levelo://app?vid=1c2c01a0-a0bc-4003-9a28-e54122ac7bca"},"vehicle_type_id":"4","last_reported":1750086708,"current_range_meters":17600,"station_id":"ce4bhb12rcd13ifvqem0","pricing_plan_id":"cebpf4jnsgd1na2vs0mg"},{"bike_id":"404b450f-6352-4674-9a2a-f51c6591d8da","system_id":"levelo_inurba_marseille","lat":43.29897,"lon":5.4366,"is_reserved":false,"is_disabled":false,"rental_uris":{"android":"levelo://app?vid=404b450f-6352-4674-9a2a-f51c6591d8da","ios":"levelo://app?vid=404b450f-6352-4674-9a2a-f51c6591d8da"},"vehicle_type_id":"4","last_reported":1750086708,"current_range_meters":17600,"station_id":"ce4bhpp2rcd13ifvqhfg","pricing_plan_id":"cebpf4jnsgd1na2vs0mg"},{"bike_id":"0af7f3a2-e0f5-46f4-a4dd-2ab41fe2d0ff","system_id":"levelo_inurba_marseille","lat":43.23178,"lon":5.3558,"is_reserved":false,"is_disabled":false,"rental_uris":{"android":"levelo://app?vid=0af7f3a2-e0f5-46f4-a4dd-2ab41fe2d0ff","ios":"levelo://app?vid=0af7f3a2-e0f5-46f4-a4dd-2ab41fe2d0ff"},"vehicle_type_id":"4","last_reported":1750086708,"current_range_meters":17600,"station_id":"ce4bhu92rcd13ifvqi70","pricing_plan_id":"cebpf4jnsgd1na2vs0mg"},{"bike_id":"83cfee7d-980d-496a-98c8-745c7e44c68d","system_id":"levelo_inurba_marseille","lat":43.3288,"lon":5.39089,"is_reserved":false,"is_disabled":false,"rental_uris":{"android":"levelo://app?vid=83cfee7d-980d-496a-98c8-745c7e44c68d","ios":"levelo://app?vid=83cfee7d-980d-496a-98c8-745c7e44c68d"},"vehicle_type_id":"4","last_reported":1750086708,"current_range_meters":18000,"station_id":"","pricing_plan_id":"cebpf4jnsgd1na2vs0mg"},{"bike_id":"9cad6b1f-bac0-427a-bdb6-00879abca636","system_id":"levelo_inurba_marseille","lat":43.314757,"lon":5.37292,"is_reserved":false,"is_disabled":false,"rental_uris":{"android":"levelo://app?vid=9cad6b1f-bac0-427a-bdb6-00879abca636","ios":"levelo://app?vid=9cad6b1f-bac0-427a-bdb6-00879abca636"},"vehicle_type_id":"4","last_reported":1750086708,"current_range_meters":18000,"station_id":"ce4bgt12rcd13ifvqcd0","pricing_plan_id":"cebpf4jnsgd1na2vs0mg"},{"bike_id":"ceb7da22-f5ca-42c3-b40a-f7a4c92e8024","system_id":"levelo_inurba_marseille","lat":43.27376,"lon":5.36254,"is_reserved":false,"is_disabled":false,"rental_uris":{"android":"levelo://app?vid=ceb7da22-f5ca-42c3-b40a-f7a4c92e8024","ios":"levelo://app?vid=ceb7da22-f5ca-42c3-b40a-f7a4c92e8024"},"vehicle_type_id":"4","last_reported":1750086708,"current_range_meters":18000,"station_id":"ce4bhbh2rcd13ifvqeo0","pricing_plan_id":"cebpf4jnsgd1na2vs0mg"},{"bike_id":"55a63c9d-bcdf-4d67-8380-d0eb8011ce4e","system_id":"levelo_inurba_marseille","lat":43.279136,"lon":5.412935,"is_reserved":false,"is_disabled":false,"rental_uris":{"android":"levelo://app?vid=55a63c9d-bcdf-4d67-8380-d0eb8011ce4e","ios":"levelo://app?vid=55a63c9d-bcdf-4d67-8380-d0eb8011ce4e"},"vehicle_type_id":"4","last_reported":1750086708,"current_range_meters":18000,"station_id":"ce4bho12rcd13ifvqh1g","pricing_plan_id":"cebpf4jnsgd1na2vs0mg"},{"bike_id":"63d8f8de-6fb5-461e-8196-70d15c64a587","system_id":"levelo_inurba_marseille","lat":43.21182,"lon":5.35072,"is_reserved":false,"is_disabled":false,"rental_uris":{"android":"levelo://app?vid=63d8f8de-6fb5-461e-8196-70d15c64a587","ios":"levelo://app?vid=63d8f8de-6fb5-461e-8196-70d15c64a587"},"vehicle_type_id":"4","last_reported":1750086708,"current_range_meters":18000,"station_id":"st_cvj6sg6p6f1abm77japg","pricing_plan_id":"cebpf4jnsgd1na2vs0mg"},{"bike_id":"06213fd4-3ac9-41fd-91fd-9202d4c13793","system_id":"levelo_inurba_marseille","lat":43.284057,"lon":5.34987,"is_reserved":false,"is_disabled":false,"rental_uris":{"android":"levelo://app?vid=06213fd4-3ac9-41fd-91fd-9202d4c13793","ios":"levelo://app?vid=06213fd4-3ac9-41fd-91fd-9202d4c13793"},"vehicle_type_id":"4","last_reported":1750086708,"current_range_meters":18800,"station_id":"","pricing_plan_id":"cebpf4jnsgd1na2vs0mg"},{"bike_id":"13d7396c-b21e-41a0-a404-981679e2ba81","system_id":"levelo_inurba_marseille","lat":43.27376,"lon":5.36251,"is_reserved":false,"is_disabled":false,"rental_uris":{"android":"levelo://app?vid=13d7396c-b21e-41a0-a404-981679e2ba81","ios":"levelo://app?vid=13d7396c-b21e-41a0-a404-981679e2ba81"},"vehicle_type_id":"4","last_reported":1750086708,"current_range_meters":18800,"station_id":"ce4bhbh2rcd13ifvqeo0","pricing_plan_id":"cebpf4jnsgd1na2vs0mg"},{"bike_id":"79ae78e4-508d-4b34-8596-3a2d1b66a09b","system_id":"levelo_inurba_marseille","lat":43.28411,"lon":5.34985,"is_reserved":false,"is_disabled":false,"rental_uris":{"android":"levelo://app?vid=79ae78e4-508d-4b34-8596-3a2d1b66a09b","ios":"levelo://app?vid=79ae78e4-508d-4b34-8596-3a2d1b66a09b"},"vehicle_type_id":"4","last_reported":1750086708,"current_range_meters":18800,"station_id":"ce4bhbh2rcd13ifvqepg","pricing_plan_id":"cebpf4jnsgd1na2vs0mg"},{"bike_id":"c62a6a74-b32d-43d2-bac7-be8bce8fb299","system_id":"levelo_inurba_marseille","lat":43.28415,"lon":5.34993,"is_reserved":false,"is_disabled":false,"rental_uris":{"android":"levelo://app?vid=c62a6a74-b32d-43d2-bac7-be8bce8fb299","ios":"levelo://app?vid=c62a6a74-b32d-43d2-bac7-be8bce8fb299"},"vehicle_type_id":"4","last_reported":1750086708,"current_range_meters":18800,"station_id":"ce4bhbh2rcd13ifvqepg","pricing_plan_id":"cebpf4jnsgd1na2vs0mg"},{"bike_id":"3dde3bca-46fc-4164-a167-3eaf1a11c0a3","system_id":"levelo_inurba_marseille","lat":43.28622,"lon":5.35103,"is_reserved":false,"is_disabled":false,"rental_uris":{"android":"levelo://app?vid=3dde3bca-46fc-4164-a167-3eaf1a11c0a3","ios":"levelo://app?vid=3dde3bca-46fc-4164-a167-3eaf1a11c0a3"},"vehicle_type_id":"4","last_reported":1750086708,"current_range_meters":18800,"station_id":"ce4bhch2rcd13ifvqeug","pricing_plan_id":"cebpf4jnsgd1na2vs0mg"},{"bike_id":"c6a83b67-e7a5-4bec-b443-caaa4ac87ad9","system_id":"levelo_inurba_marseille","lat":43.27559,"lon":5.38437,"is_reserved":false,"is_disabled":false,"rental_uris":{"android":"levelo://app?vid=c6a83b67-e7a5-4bec-b443-caaa4ac87ad9","ios":"levelo://app?vid=c6a83b67-e7a5-4bec-b443-caaa4ac87ad9"},"vehicle_type_id":"4","last_reported":1750086708,"current_range_meters":18800,"station_id":"ce4bhh92rcd13ifvqfi0","pricing_plan_id":"cebpf4jnsgd1na2vs0mg"},{"bike_id":"ab2bfc4c-6ccb-42eb-aa2d-3ca59a091eb4","system_id":"levelo_inurba_marseille","lat":43.2587,"lon":5.39892,"is_reserved":false,"is_disabled":false,"rental_uris":{"android":"levelo://app?vid=ab2bfc4c-6ccb-42eb-aa2d-3ca59a091eb4","ios":"levelo://app?vid=ab2bfc4c-6ccb-42eb-aa2d-3ca59a091eb4"},"vehicle_type_id":"4","last_reported":1750086708,"current_range_meters":18800,"station_id":"ce4bhl92rcd13ifvqghg","pricing_plan_id":"cebpf4jnsgd1na2vs0mg"},{"bike_id":"24df6eb0-57c5-4673-9b74-8548c324dc1f","system_id":"levelo_inurba_marseille","lat":43.31764,"lon":5.39019,"is_reserved":false,"is_disabled":false,"rental_uris":{"android":"levelo://app?vid=24df6eb0-57c5-4673-9b74-8548c324dc1f","ios":"levelo://app?vid=24df6eb0-57c5-4673-9b74-8548c324dc1f"},"vehicle_type_id":"4","last_reported":1750086708,"current_range_meters":18800,"station_id":"ce4bhqp2rcd13ifvqhng","pricing_plan_id":"cebpf4jnsgd1na2vs0mg"},{"bike_id":"2aa78b25-7a9c-4a83-ae64-b82d5f142295","system_id":"levelo_inurba_marseille","lat":43.32347,"lon":5.3675,"is_reserved":false,"is_disabled":false,"rental_uris":{"android":"levelo://app?vid=2aa78b25-7a9c-4a83-ae64-b82d5f142295","ios":"levelo://app?vid=2aa78b25-7a9c-4a83-ae64-b82d5f142295"},"vehicle_type_id":"4","last_reported":1750086708,"current_range_meters":18800,"station_id":"ce4bhsh2rcd13ifvqi2g","pricing_plan_id":"cebpf4jnsgd1na2vs0mg"},{"bike_id":"857db257-8d6c-4c01-851f-e26d60a92521","system_id":"levelo_inurba_marseille","lat":43.30544,"lon":5.36556,"is_reserved":false,"is_disabled":false,"rental_uris":{"android":"levelo://app?vid=857db257-8d6c-4c01-851f-e26d60a92521","ios":"levelo://app?vid=857db257-8d6c-4c01-851f-e26d60a92521"},"vehicle_type_id":"4","last_reported":1750086708,"current_range_meters":19200,"station_id":"ce4bgs12rcd13ifvqcag","pricing_plan_id":"cebpf4jnsgd1na2vs0mg"},{"bike_id":"fec8b9f3-6dc7-4766-a52c-6958ac70ab31","system_id":"levelo_inurba_marseille","lat":43.31507,"lon":5.37297,"is_reserved":false,"is_disabled":false,"rental_uris":{"android":"levelo://app?vid=fec8b9f3-6dc7-4766-a52c-6958ac70ab31","ios":"levelo://app?vid=fec8b9f3-6dc7-4766-a52c-6958ac70ab31"},"vehicle_type_id":"4","last_reported":1750086708,"current_range_meters":19200,"station_id":"ce4bgt12rcd13ifvqcd0","pricing_plan_id":"cebpf4jnsgd1na2vs0mg"},{"bike_id":"b3e7b03b-5d0f-45e7-b0a1-a405de069ddb","system_id":"levelo_inurba_marseille","lat":43.28987,"lon":5.35618,"is_reserved":false,"is_disabled":false,"rental_uris":{"android":"levelo://app?vid=b3e7b03b-5d0f-45e7-b0a1-a405de069ddb","ios":"levelo://app?vid=b3e7b03b-5d0f-45e7-b0a1-a405de069ddb"},"vehicle_type_id":"4","last_reported":1750086708,"current_range_meters":19200,"station_id":"ce4bhb92rcd13ifvqen0","pricing_plan_id":"cebpf4jnsgd1na2vs0mg"},{"bike_id":"b6796e4a-925c-4192-b381-b5ebc25bde02","system_id":"levelo_inurba_marseille","lat":43.23191,"lon":5.35553,"is_reserved":false,"is_disabled":false,"rental_uris":{"android":"levelo://app?vid=b6796e4a-925c-4192-b381-b5ebc25bde02","ios":"levelo://app?vid=b6796e4a-925c-4192-b381-b5ebc25bde02"},"vehicle_type_id":"4","last_reported":1750086708,"current_range_meters":19200,"station_id":"ce4bhu92rcd13ifvqi70","pricing_plan_id":"cebpf4jnsgd1na2vs0mg"},{"bike_id":"190a12a2-6869-42fa-9694-b72690cb2074","system_id":"levelo_inurba_marseille","lat":43.24165,"lon":5.36399,"is_reserved":false,"is_disabled":false,"rental_uris":{"android":"levelo://app?vid=190a12a2-6869-42fa-9694-b72690cb2074","ios":"levelo://app?vid=190a12a2-6869-42fa-9694-b72690cb2074"},"vehicle_type_id":"4","last_reported":1750086708,"current_range_meters":19200,"station_id":"cpo36qri1sfpv3e86is0","pricing_plan_id":"cebpf4jnsgd1na2vs0mg"},{"bike_id":"4ce5b165-f22d-40cf-abd3-1cb294861955","system_id":"levelo_inurba_marseille","lat":43.21196,"lon":5.35076,"is_reserved":false,"is_disabled":false,"rental_uris":{"android":"levelo://app?vid=4ce5b165-f22d-40cf-abd3-1cb294861955","ios":"levelo://app?vid=4ce5b165-f22d-40cf-abd3-1cb294861955"},"vehicle_type_id":"4","last_reported":1750086708,"current_range_meters":19600,"station_id":"","pricing_plan_id":"cebpf4jnsgd1na2vs0mg"},{"bike_id":"f83e23ee-a46c-4ffc-bf79-a2a951b15a92","system_id":"levelo_inurba_marseille","lat":43.29178,"lon":5.35599,"is_reserved":false,"is_disabled":false,"rental_uris":{"android":"levelo://app?vid=f83e23ee-a46c-4ffc-bf79-a2a951b15a92","ios":"levelo://app?vid=f83e23ee-a46c-4ffc-bf79-a2a951b15a92"},"vehicle_type_id":"4","last_reported":1750086708,"current_range_meters":19600,"station_id":"","pricing_plan_id":"cebpf4jnsgd1na2vs0mg"},{"bike_id":"863d0d6e-e460-41a6-844c-17c2796bad05","system_id":"levelo_inurba_marseille","lat":43.30278,"lon":5.37727,"is_reserved":false,"is_disabled":false,"rental_uris":{"android":"levelo://app?vid=863d0d6e-e460-41a6-844c-17c2796bad05","ios":"levelo://app?vid=863d0d6e-e460-41a6-844c-17c2796bad05"},"vehicle_type_id":"4","last_reported":1750086708,"current_range_meters":19600,"station_id":"ce4bguh2rcd13ifvqcj0","pricing_plan_id":"cebpf4jnsgd1na2vs0mg"},{"bike_id":"8d092cd5-1b2f-4e79-acb3-d3e3bf42c8b7","system_id":"levelo_inurba_marseille","lat":43.27371,"lon":5.36245,"is_reserved":false,"is_disabled":false,"rental_uris":{"android":"levelo://app?vid=8d092cd5-1b2f-4e79-acb3-d3e3bf42c8b7","ios":"levelo://app?vid=8d092cd5-1b2f-4e79-acb3-d3e3bf42c8b7"},"vehicle_type_id":"4","last_reported":1750086708,"current_range_meters":19600,"station_id":"ce4bhbh2rcd13ifvqeo0","pricing_plan_id":"cebpf4jnsgd1na2vs0mg"},{"bike_id":"565d28fd-8e81-4d05-863f-612940bbe238","system_id":"levelo_inurba_marseille","lat":43.28419,"lon":5.34978,"is_reserved":false,"is_disabled":false,"rental_uris":{"android":"levelo://app?vid=565d28fd-8e81-4d05-863f-612940bbe238","ios":"levelo://app?vid=565d28fd-8e81-4d05-863f-612940bbe238"},"vehicle_type_id":"4","last_reported":1750086708,"current_range_meters":19600,"station_id":"ce4bhbh2rcd13ifvqepg","pricing_plan_id":"cebpf4jnsgd1na2vs0mg"},{"bike_id":"1b35a8a6-a9b1-4bab-a31c-f61a6cad02ad","system_id":"levelo_inurba_marseille","lat":43.28248,"lon":5.3508,"is_reserved":false,"is_disabled":false,"rental_uris":{"android":"levelo://app?vid=1b35a8a6-a9b1-4bab-a31c-f61a6cad02ad","ios":"levelo://app?vid=1b35a8a6-a9b1-4bab-a31c-f61a6cad02ad"},"vehicle_type_id":"4","last_reported":1750086708,"current_range_meters":19600,"station_id":"ce4bhbp2rcd13ifvqerg","pricing_plan_id":"cebpf4jnsgd1na2vs0mg"},{"bike_id":"7626db2f-8581-4200-8af0-5ce97614bd80","system_id":"levelo_inurba_marseille","lat":43.2396,"lon":5.36645,"is_reserved":false,"is_disabled":false,"rental_uris":{"android":"levelo://app?vid=7626db2f-8581-4200-8af0-5ce97614bd80","ios":"levelo://app?vid=7626db2f-8581-4200-8af0-5ce97614bd80"},"vehicle_type_id":"4","last_reported":1750086708,"current_range_meters":19600,"station_id":"ce4bhi12rcd13ifvqfp0","pricing_plan_id":"cebpf4jnsgd1na2vs0mg"},{"bike_id":"12f3380e-ed27-4d38-9fc0-6167ece46198","system_id":"levelo_inurba_marseille","lat":43.27986,"lon":5.41647,"is_reserved":false,"is_disabled":false,"rental_uris":{"android":"levelo://app?vid=12f3380e-ed27-4d38-9fc0-6167ece46198","ios":"levelo://app?vid=12f3380e-ed27-4d38-9fc0-6167ece46198"},"vehicle_type_id":"4","last_reported":1750086708,"current_range_meters":19600,"station_id":"ce4bho12rcd13ifvqh1g","pricing_plan_id":"cebpf4jnsgd1na2vs0mg"},{"bike_id":"2090556a-ebe6-4fcd-b60b-df67d7c8e4f7","system_id":"levelo_inurba_marseille","lat":43.29905,"lon":5.43666,"is_reserved":false,"is_disabled":false,"rental_uris":{"android":"levelo://app?vid=2090556a-ebe6-4fcd-b60b-df67d7c8e4f7","ios":"levelo://app?vid=2090556a-ebe6-4fcd-b60b-df67d7c8e4f7"},"vehicle_type_id":"4","last_reported":1750086708,"current_range_meters":19600,"station_id":"ce4bhpp2rcd13ifvqhfg","pricing_plan_id":"cebpf4jnsgd1na2vs0mg"},{"bike_id":"4cfcd6ac-29dc-4441-a0e2-99bee7cc7789","system_id":"levelo_inurba_marseille","lat":43.217524,"lon":5.345986,"is_reserved":false,"is_disabled":false,"rental_uris":{"android":"levelo://app?vid=4cfcd6ac-29dc-4441-a0e2-99bee7cc7789","ios":"levelo://app?vid=4cfcd6ac-29dc-4441-a0e2-99bee7cc7789"},"vehicle_type_id":"4","last_reported":1750086708,"current_range_meters":20000,"station_id":"","pricing_plan_id":"cebpf4jnsgd1na2vs0mg"},{"bike_id":"2ae80011-f8d5-43f5-b5c8-9e65a89521ca","system_id":"levelo_inurba_marseille","lat":43.29659,"lon":5.37944,"is_reserved":false,"is_disabled":false,"rental_uris":{"android":"levelo://app?vid=2ae80011-f8d5-43f5-b5c8-9e65a89521ca","ios":"levelo://app?vid=2ae80011-f8d5-43f5-b5c8-9e65a89521ca"},"vehicle_type_id":"4","last_reported":1750086708,"current_range_meters":20000,"station_id":"","pricing_plan_id":"cebpf4jnsgd1na2vs0mg"},{"bike_id":"e4545242-0d34-410b-9092-52e20d435c24","system_id":"levelo_inurba_marseille","lat":43.3085,"lon":5.37009,"is_reserved":false,"is_disabled":false,"rental_uris":{"android":"levelo://app?vid=e4545242-0d34-410b-9092-52e20d435c24","ios":"levelo://app?vid=e4545242-0d34-410b-9092-52e20d435c24"},"vehicle_type_id":"4","last_reported":1750086708,"current_range_meters":20000,"station_id":"","pricing_plan_id":"cebpf4jnsgd1na2vs0mg"},{"bike_id":"a8f9e697-30cf-458f-bd47-e14782fac29b","system_id":"levelo_inurba_marseille","lat":43.30902,"lon":5.37434,"is_reserved":false,"is_disabled":false,"rental_uris":{"android":"levelo://app?vid=a8f9e697-30cf-458f-bd47-e14782fac29b","ios":"levelo://app?vid=a8f9e697-30cf-458f-bd47-e14782fac29b"},"vehicle_type_id":"4","last_reported":1750086708,"current_range_meters":20000,"station_id":"","pricing_plan_id":"cebpf4jnsgd1na2vs0mg"},{"bike_id":"f1501383-0c54-4bdc-a395-17cc7b3f99e3","system_id":"levelo_inurba_marseille","lat":43.273877,"lon":5.362787,"is_reserved":false,"is_disabled":false,"rental_uris":{"android":"levelo://app?vid=f1501383-0c54-4bdc-a395-17cc7b3f99e3","ios":"levelo://app?vid=f1501383-0c54-4bdc-a395-17cc7b3f99e3"},"vehicle_type_id":"4","last_reported":1750086708,"current_range_meters":20000,"station_id":"ce4bhbh2rcd13ifvqeo0","pricing_plan_id":"cebpf4jnsgd1na2vs0mg"},{"bike_id":"2290d813-231f-4113-9f0b-359f2d8f1d6d","system_id":"levelo_inurba_marseille","lat":43.28416,"lon":5.34984,"is_reserved":false,"is_disabled":false,"rental_uris":{"android":"levelo://app?vid=2290d813-231f-4113-9f0b-359f2d8f1d6d","ios":"levelo://app?vid=2290d813-231f-4113-9f0b-359f2d8f1d6d"},"vehicle_type_id":"4","last_reported":1750086708,"current_range_meters":20000,"station_id":"ce4bhbh2rcd13ifvqepg","pricing_plan_id":"cebpf4jnsgd1na2vs0mg"},{"bike_id":"601097e3-4c62-4355-9e63-05d29f995968","system_id":"levelo_inurba_marseille","lat":43.24803,"lon":5.37453,"is_reserved":false,"is_disabled":false,"rental_uris":{"android":"levelo://app?vid=601097e3-4c62-4355-9e63-05d29f995968","ios":"levelo://app?vid=601097e3-4c62-4355-9e63-05d29f995968"},"vehicle_type_id":"4","last_reported":1750086708,"current_range_meters":20000,"station_id":"ce4bhgh2rcd13ifvqfb0","pricing_plan_id":"cebpf4jnsgd1na2vs0mg"},{"bike_id":"14117a21-5ede-4e67-920a-7eb3274156d1","system_id":"levelo_inurba_marseille","lat":43.23964,"lon":5.36631,"is_reserved":false,"is_disabled":false,"rental_uris":{"android":"levelo://app?vid=14117a21-5ede-4e67-920a-7eb3274156d1","ios":"levelo://app?vid=14117a21-5ede-4e67-920a-7eb3274156d1"},"vehicle_type_id":"4","last_reported":1750086708,"current_range_meters":20000,"station_id":"ce4bhi12rcd13ifvqfp0","pricing_plan_id":"cebpf4jnsgd1na2vs0mg"},{"bike_id":"37b51233-5f1e-4ebc-a152-d55184a162e0","system_id":"levelo_inurba_marseille","lat":43.32047,"lon":5.41545,"is_reserved":false,"is_disabled":false,"rental_uris":{"android":"levelo://app?vid=37b51233-5f1e-4ebc-a152-d55184a162e0","ios":"levelo://app?vid=37b51233-5f1e-4ebc-a152-d55184a162e0"},"vehicle_type_id":"4","last_reported":1750086708,"current_range_meters":20000,"station_id":"ce4bhq92rcd13ifvqhkg","pricing_plan_id":"cebpf4jnsgd1na2vs0mg"},{"bike_id":"de0f7c2b-5974-4035-a240-8ed367c0e3f3","system_id":"levelo_inurba_marseille","lat":43.31964,"lon":5.37612,"is_reserved":false,"is_disabled":false,"rental_uris":{"android":"levelo://app?vid=de0f7c2b-5974-4035-a240-8ed367c0e3f3","ios":"levelo://app?vid=de0f7c2b-5974-4035-a240-8ed367c0e3f3"},"vehicle_type_id":"4","last_reported":1750086708,"current_range_meters":20400,"station_id":"","pricing_plan_id":"cebpf4jnsgd1na2vs0mg"},{"bike_id":"8c37b5fd-cac6-45ee-80ca-979f66f81efb","system_id":"levelo_inurba_marseille","lat":43.31485,"lon":5.37297,"is_reserved":false,"is_disabled":false,"rental_uris":{"android":"levelo://app?vid=8c37b5fd-cac6-45ee-80ca-979f66f81efb","ios":"levelo://app?vid=8c37b5fd-cac6-45ee-80ca-979f66f81efb"},"vehicle_type_id":"4","last_reported":1750086708,"current_range_meters":20400,"station_id":"ce4bgt12rcd13ifvqcd0","pricing_plan_id":"cebpf4jnsgd1na2vs0mg"},{"bike_id":"a4001b1c-9cd9-4633-836d-4e0560bfdc65","system_id":"levelo_inurba_marseille","lat":43.30783,"lon":5.37637,"is_reserved":false,"is_disabled":false,"rental_uris":{"android":"levelo://app?vid=a4001b1c-9cd9-4633-836d-4e0560bfdc65","ios":"levelo://app?vid=a4001b1c-9cd9-4633-836d-4e0560bfdc65"},"vehicle_type_id":"4","last_reported":1750086708,"current_range_meters":20400,"station_id":"ce4bgv92rcd13ifvqcq0","pricing_plan_id":"cebpf4jnsgd1na2vs0mg"},{"bike_id":"db53a82b-c487-4159-82da-baeb3b0dcf99","system_id":"levelo_inurba_marseille","lat":43.28614,"lon":5.35109,"is_reserved":false,"is_disabled":false,"rental_uris":{"android":"levelo://app?vid=db53a82b-c487-4159-82da-baeb3b0dcf99","ios":"levelo://app?vid=db53a82b-c487-4159-82da-baeb3b0dcf99"},"vehicle_type_id":"4","last_reported":1750086708,"current_range_meters":20400,"station_id":"ce4bhch2rcd13ifvqeug","pricing_plan_id":"cebpf4jnsgd1na2vs0mg"},{"bike_id":"d7910b22-a1f1-468b-aa03-6bbf2e3094ec","system_id":"levelo_inurba_marseille","lat":43.28614,"lon":5.35108,"is_reserved":false,"is_disabled":false,"rental_uris":{"android":"levelo://app?vid=d7910b22-a1f1-468b-aa03-6bbf2e3094ec","ios":"levelo://app?vid=d7910b22-a1f1-468b-aa03-6bbf2e3094ec"},"vehicle_type_id":"4","last_reported":1750086708,"current_range_meters":20400,"station_id":"ce4bhch2rcd13ifvqeug","pricing_plan_id":"cebpf4jnsgd1na2vs0mg"},{"bike_id":"7516c593-6640-4b00-96c9-31c1b5678a8a","system_id":"levelo_inurba_marseille","lat":43.3237,"lon":5.38882,"is_reserved":false,"is_disabled":false,"rental_uris":{"android":"levelo://app?vid=7516c593-6640-4b00-96c9-31c1b5678a8a","ios":"levelo://app?vid=7516c593-6640-4b00-96c9-31c1b5678a8a"},"vehicle_type_id":"4","last_reported":1750086708,"current_range_meters":20400,"station_id":"ce4bhqp2rcd13ifvqhog","pricing_plan_id":"cebpf4jnsgd1na2vs0mg"},{"bike_id":"49301210-e158-45ad-9b06-8b8a43605e81","system_id":"levelo_inurba_marseille","lat":43.32135,"lon":5.36749,"is_reserved":false,"is_disabled":false,"rental_uris":{"android":"levelo://app?vid=49301210-e158-45ad-9b06-8b8a43605e81","ios":"levelo://app?vid=49301210-e158-45ad-9b06-8b8a43605e81"},"vehicle_type_id":"4","last_reported":1750086708,"current_range_meters":20400,"station_id":"ce4bhrh2rcd13ifvqhug","pricing_plan_id":"cebpf4jnsgd1na2vs0mg"},{"bike_id":"26e352bc-4882-4a35-bddc-4cfe596d118d","system_id":"levelo_inurba_marseille","lat":43.23061,"lon":5.35492,"is_reserved":false,"is_disabled":false,"rental_uris":{"android":"levelo://app?vid=26e352bc-4882-4a35-bddc-4cfe596d118d","ios":"levelo://app?vid=26e352bc-4882-4a35-bddc-4cfe596d118d"},"vehicle_type_id":"4","last_reported":1750086708,"current_range_meters":20400,"station_id":"cpo3342slgdg3j2ifvpg","pricing_plan_id":"cebpf4jnsgd1na2vs0mg"},{"bike_id":"6757de9f-7b8b-43dd-a21b-bc9f37c3edce","system_id":"levelo_inurba_marseille","lat":43.21195,"lon":5.35067,"is_reserved":false,"is_disabled":false,"rental_uris":{"android":"levelo://app?vid=6757de9f-7b8b-43dd-a21b-bc9f37c3edce","ios":"levelo://app?vid=6757de9f-7b8b-43dd-a21b-bc9f37c3edce"},"vehicle_type_id":"4","last_reported":1750086708,"current_range_meters":20400,"station_id":"st_cvj6sg6p6f1abm77japg","pricing_plan_id":"cebpf4jnsgd1na2vs0mg"},{"bike_id":"5e132c01-c1e9-4e5d-b189-fbe6bfb6148c","system_id":"levelo_inurba_marseille","lat":43.29531,"lon":5.3854,"is_reserved":false,"is_disabled":false,"rental_uris":{"android":"levelo://app?vid=5e132c01-c1e9-4e5d-b189-fbe6bfb6148c","ios":"levelo://app?vid=5e132c01-c1e9-4e5d-b189-fbe6bfb6148c"},"vehicle_type_id":"4","last_reported":1750086708,"current_range_meters":20800,"station_id":"ce4bgih2rcd13ifvqba0","pricing_plan_id":"cebpf4jnsgd1na2vs0mg"},{"bike_id":"0cc6a12a-2b03-4c36-9d67-6684b61ff02e","system_id":"levelo_inurba_marseille","lat":43.30603,"lon":5.37226,"is_reserved":false,"is_disabled":false,"rental_uris":{"android":"levelo://app?vid=0cc6a12a-2b03-4c36-9d67-6684b61ff02e","ios":"levelo://app?vid=0cc6a12a-2b03-4c36-9d67-6684b61ff02e"},"vehicle_type_id":"4","last_reported":1750086708,"current_range_meters":20800,"station_id":"ce4bgqh2rcd13ifvqc4g","pricing_plan_id":"cebpf4jnsgd1na2vs0mg"},{"bike_id":"ffe77e82-c3f3-4bca-9329-bb48eb32e53d","system_id":"levelo_inurba_marseille","lat":43.288651,"lon":5.363567,"is_reserved":false,"is_disabled":false,"rental_uris":{"android":"levelo://app?vid=ffe77e82-c3f3-4bca-9329-bb48eb32e53d","ios":"levelo://app?vid=ffe77e82-c3f3-4bca-9329-bb48eb32e53d"},"vehicle_type_id":"4","last_reported":1750086708,"current_range_meters":20800,"station_id":"ce4bh412rcd13ifvqds0","pricing_plan_id":"cebpf4jnsgd1na2vs0mg"},{"bike_id":"7f93af37-509b-4360-8dd3-5a015bcae96c","system_id":"levelo_inurba_marseille","lat":43.27374,"lon":5.36254,"is_reserved":false,"is_disabled":false,"rental_uris":{"android":"levelo://app?vid=7f93af37-509b-4360-8dd3-5a015bcae96c","ios":"levelo://app?vid=7f93af37-509b-4360-8dd3-5a015bcae96c"},"vehicle_type_id":"4","last_reported":1750086708,"current_range_meters":20800,"station_id":"ce4bhbh2rcd13ifvqeo0","pricing_plan_id":"cebpf4jnsgd1na2vs0mg"},{"bike_id":"0c5f1387-5090-411c-b49c-7bd56d68eebb","system_id":"levelo_inurba_marseille","lat":43.28416,"lon":5.34994,"is_reserved":false,"is_disabled":false,"rental_uris":{"android":"levelo://app?vid=0c5f1387-5090-411c-b49c-7bd56d68eebb","ios":"levelo://app?vid=0c5f1387-5090-411c-b49c-7bd56d68eebb"},"vehicle_type_id":"4","last_reported":1750086708,"current_range_meters":20800,"station_id":"ce4bhbh2rcd13ifvqepg","pricing_plan_id":"cebpf4jnsgd1na2vs0mg"},{"bike_id":"c2109284-9e5d-4a05-bc38-61de6580dc67","system_id":"levelo_inurba_marseille","lat":43.26207,"lon":5.37445,"is_reserved":false,"is_disabled":false,"rental_uris":{"android":"levelo://app?vid=c2109284-9e5d-4a05-bc38-61de6580dc67","ios":"levelo://app?vid=c2109284-9e5d-4a05-bc38-61de6580dc67"},"vehicle_type_id":"4","last_reported":1750086708,"current_range_meters":20800,"station_id":"ce4bhgp2rcd13ifvqfc0","pricing_plan_id":"cebpf4jnsgd1na2vs0mg"},{"bike_id":"adb2bc98-a6fd-42a5-a350-39cefef6d14d","system_id":"levelo_inurba_marseille","lat":43.24071,"lon":5.37761,"is_reserved":false,"is_disabled":false,"rental_uris":{"android":"levelo://app?vid=adb2bc98-a6fd-42a5-a350-39cefef6d14d","ios":"levelo://app?vid=adb2bc98-a6fd-42a5-a350-39cefef6d14d"},"vehicle_type_id":"4","last_reported":1750086708,"current_range_meters":20800,"station_id":"ce4bhnp2rcd13ifvqgvg","pricing_plan_id":"cebpf4jnsgd1na2vs0mg"},{"bike_id":"cf96569c-8aed-4094-b5c5-fe00b8ebf061","system_id":"levelo_inurba_marseille","lat":43.23192,"lon":5.35551,"is_reserved":false,"is_disabled":false,"rental_uris":{"android":"levelo://app?vid=cf96569c-8aed-4094-b5c5-fe00b8ebf061","ios":"levelo://app?vid=cf96569c-8aed-4094-b5c5-fe00b8ebf061"},"vehicle_type_id":"4","last_reported":1750086708,"current_range_meters":20800,"station_id":"ce4bhu92rcd13ifvqi70","pricing_plan_id":"cebpf4jnsgd1na2vs0mg"},{"bike_id":"998208a0-ed92-4a1e-8b34-c1701460f0b5","system_id":"levelo_inurba_marseille","lat":43.232,"lon":5.35549,"is_reserved":false,"is_disabled":false,"rental_uris":{"android":"levelo://app?vid=998208a0-ed92-4a1e-8b34-c1701460f0b5","ios":"levelo://app?vid=998208a0-ed92-4a1e-8b34-c1701460f0b5"},"vehicle_type_id":"4","last_reported":1750086708,"current_range_meters":20800,"station_id":"ce4bhu92rcd13ifvqi70","pricing_plan_id":"cebpf4jnsgd1na2vs0mg"},{"bike_id":"2f0f7865-53e4-4955-8eb9-1bb98bf95595","system_id":"levelo_inurba_marseille","lat":43.31765,"lon":5.37569,"is_reserved":false,"is_disabled":false,"rental_uris":{"android":"levelo://app?vid=2f0f7865-53e4-4955-8eb9-1bb98bf95595","ios":"levelo://app?vid=2f0f7865-53e4-4955-8eb9-1bb98bf95595"},"vehicle_type_id":"4","last_reported":1750086708,"current_range_meters":21600,"station_id":"","pricing_plan_id":"cebpf4jnsgd1na2vs0mg"},{"bike_id":"5ef36153-3619-4db1-b0d9-d909333f33dd","system_id":"levelo_inurba_marseille","lat":43.30301,"lon":5.39208,"is_reserved":false,"is_disabled":false,"rental_uris":{"android":"levelo://app?vid=5ef36153-3619-4db1-b0d9-d909333f33dd","ios":"levelo://app?vid=5ef36153-3619-4db1-b0d9-d909333f33dd"},"vehicle_type_id":"4","last_reported":1750086708,"current_range_meters":21600,"station_id":"ce4bgkh2rcd13ifvqbk0","pricing_plan_id":"cebpf4jnsgd1na2vs0mg"},{"bike_id":"a66a5807-5e81-4b42-87cd-6ab38510de0a","system_id":"levelo_inurba_marseille","lat":43.27376,"lon":5.36262,"is_reserved":false,"is_disabled":false,"rental_uris":{"android":"levelo://app?vid=a66a5807-5e81-4b42-87cd-6ab38510de0a","ios":"levelo://app?vid=a66a5807-5e81-4b42-87cd-6ab38510de0a"},"vehicle_type_id":"4","last_reported":1750086708,"current_range_meters":21600,"station_id":"ce4bhbh2rcd13ifvqeo0","pricing_plan_id":"cebpf4jnsgd1na2vs0mg"},{"bike_id":"e38cc8a9-8135-4fa4-90ff-779dd53af5d3","system_id":"levelo_inurba_marseille","lat":43.25824,"lon":5.39439,"is_reserved":false,"is_disabled":false,"rental_uris":{"android":"levelo://app?vid=e38cc8a9-8135-4fa4-90ff-779dd53af5d3","ios":"levelo://app?vid=e38cc8a9-8135-4fa4-90ff-779dd53af5d3"},"vehicle_type_id":"4","last_reported":1750086708,"current_range_meters":21600,"station_id":"ce4bhip2rcd13ifvqft0","pricing_plan_id":"cebpf4jnsgd1na2vs0mg"},{"bike_id":"1db1c6c8-14cd-486c-85b2-55a479763f4b","system_id":"levelo_inurba_marseille","lat":43.23181,"lon":5.39989,"is_reserved":false,"is_disabled":false,"rental_uris":{"android":"levelo://app?vid=1db1c6c8-14cd-486c-85b2-55a479763f4b","ios":"levelo://app?vid=1db1c6c8-14cd-486c-85b2-55a479763f4b"},"vehicle_type_id":"4","last_reported":1750086708,"current_range_meters":21600,"station_id":"ce4bhn12rcd13ifvqgqg","pricing_plan_id":"cebpf4jnsgd1na2vs0mg"},{"bike_id":"f360438e-a269-4f13-a313-54047950d774","system_id":"levelo_inurba_marseille","lat":43.231812,"lon":5.399836,"is_reserved":false,"is_disabled":false,"rental_uris":{"android":"levelo://app?vid=f360438e-a269-4f13-a313-54047950d774","ios":"levelo://app?vid=f360438e-a269-4f13-a313-54047950d774"},"vehicle_type_id":"4","last_reported":1750086708,"current_range_meters":21600,"station_id":"ce4bhn12rcd13ifvqgqg","pricing_plan_id":"cebpf4jnsgd1na2vs0mg"},{"bike_id":"39077a6a-542c-444b-afeb-482ebcd33cf4","system_id":"levelo_inurba_marseille","lat":43.32061,"lon":5.41531,"is_reserved":false,"is_disabled":false,"rental_uris":{"android":"levelo://app?vid=39077a6a-542c-444b-afeb-482ebcd33cf4","ios":"levelo://app?vid=39077a6a-542c-444b-afeb-482ebcd33cf4"},"vehicle_type_id":"4","last_reported":1750086708,"current_range_meters":21600,"station_id":"ce4bhq92rcd13ifvqhkg","pricing_plan_id":"cebpf4jnsgd1na2vs0mg"},{"bike_id":"0ba2ef6f-02db-4737-b883-d7f7bad16bc7","system_id":"levelo_inurba_marseille","lat":43.32486,"lon":5.36562,"is_reserved":false,"is_disabled":false,"rental_uris":{"android":"levelo://app?vid=0ba2ef6f-02db-4737-b883-d7f7bad16bc7","ios":"levelo://app?vid=0ba2ef6f-02db-4737-b883-d7f7bad16bc7"},"vehicle_type_id":"4","last_reported":1750086708,"current_range_meters":21600,"station_id":"ce4bhs12rcd13ifvqhvg","pricing_plan_id":"cebpf4jnsgd1na2vs0mg"},{"bike_id":"697fae05-7d3a-41f0-9b2b-86affa30e5c2","system_id":"levelo_inurba_marseille","lat":43.283833,"lon":5.381029,"is_reserved":false,"is_disabled":false,"rental_uris":{"android":"levelo://app?vid=697fae05-7d3a-41f0-9b2b-86affa30e5c2","ios":"levelo://app?vid=697fae05-7d3a-41f0-9b2b-86affa30e5c2"},"vehicle_type_id":"4","last_reported":1750086708,"current_range_meters":22000,"station_id":"ce4bh412rcd13ifvqdr0","pricing_plan_id":"cebpf4jnsgd1na2vs0mg"},{"bike_id":"cea4e4b4-a7f7-4f15-b1b9-de674cc4cb3f","system_id":"levelo_inurba_marseille","lat":43.28265,"lon":5.35071,"is_reserved":false,"is_disabled":false,"rental_uris":{"android":"levelo://app?vid=cea4e4b4-a7f7-4f15-b1b9-de674cc4cb3f","ios":"levelo://app?vid=cea4e4b4-a7f7-4f15-b1b9-de674cc4cb3f"},"vehicle_type_id":"4","last_reported":1750086708,"current_range_meters":22000,"station_id":"ce4bhbp2rcd13ifvqerg","pricing_plan_id":"cebpf4jnsgd1na2vs0mg"},{"bike_id":"28da8b92-f209-4378-9080-73750680ec6e","system_id":"levelo_inurba_marseille","lat":43.231308,"lon":5.355069,"is_reserved":false,"is_disabled":false,"rental_uris":{"android":"levelo://app?vid=28da8b92-f209-4378-9080-73750680ec6e","ios":"levelo://app?vid=28da8b92-f209-4378-9080-73750680ec6e"},