{"last_updated":1743664246,"ttl":60,"version":"2.2","data":{"bikes":[{"bike_id":"c6c2127e-d6ae-4206-8c04-541a70e143d5","system_id":"levelo_inurba_marseille","lat":43.24664,"lon":5.38181,"is_reserved":false,"is_disabled":false,"rental_uris":{"android":"levelo://app?vid=c6c2127e-d6ae-4206-8c04-541a70e143d5","ios":"levelo://app?vid=c6c2127e-d6ae-4206-8c04-541a70e143d5"},"vehicle_type_id":"4","last_reported":1743664247,"current_range_meters":2800,"station_id":"ce4bhih2rcd13ifvqfr0","pricing_plan_id":"cebpf4jnsgd1na2vs0mg"},{"bike_id":"999f7bef-73ed-4c81-b4c0-35285070c513","system_id":"levelo_inurba_marseille","lat":43.28419,"lon":5.34983,"is_reserved":false,"is_disabled":false,"rental_uris":{"android":"levelo://app?vid=999f7bef-73ed-4c81-b4c0-35285070c513","ios":"levelo://app?vid=999f7bef-73ed-4c81-b4c0-35285070c513"},"vehicle_type_id":"4","last_reported":1743664247,"current_range_meters":2800,"station_id":"ce4bhbh2rcd13ifvqepg","pricing_plan_id":"cebpf4jnsgd1na2vs0mg"},{"bike_id":"72a59223-7fbc-4af7-a727-ebdf00595f3e","system_id":"levelo_inurba_marseille","lat":43.241636,"lon":5.364166,"is_reserved":false,"is_disabled":false,"rental_uris":{"android":"levelo://app?vid=72a59223-7fbc-4af7-a727-ebdf00595f3e","ios":"levelo://app?vid=72a59223-7fbc-4af7-a727-ebdf00595f3e"},"vehicle_type_id":"4","last_reported":1743664247,"current_range_meters":2800,"station_id":"cpo36qri1sfpv3e86is0","pricing_plan_id":"cebpf4jnsgd1na2vs0mg"},{"bike_id":"ba52f074-228d-48d5-b418-bd429bee906d","system_id":"levelo_inurba_marseille","lat":43.23964,"lon":5.36629,"is_reserved":false,"is_disabled":false,"rental_uris":{"android":"levelo://app?vid=ba52f074-228d-48d5-b418-bd429bee906d","ios":"levelo://app?vid=ba52f074-228d-48d5-b418-bd429bee906d"},"vehicle_type_id":"4","last_reported":1743664247,"current_range_meters":2800,"station_id":"ce4bhi12rcd13ifvqfp0","pricing_plan_id":"cebpf4jnsgd1na2vs0mg"},{"bike_id":"72e5bcf6-f752-41bc-8247-342d91e46666","system_id":"levelo_inurba_marseille","lat":43.284839,"lon":5.385654,"is_reserved":false,"is_disabled":false,"rental_uris":{"android":"levelo://app?vid=72e5bcf6-f752-41bc-8247-342d91e46666","ios":"levelo://app?vid=72e5bcf6-f752-41bc-8247-342d91e46666"},"vehicle_type_id":"4","last_reported":1743664247,"current_range_meters":2800,"station_id":"ce4bh8p2rcd13ifvqeb0","pricing_plan_id":"cebpf4jnsgd1na2vs0mg"},{"bike_id":"89291eb5-26c6-4c0a-92e6-2d4db02be7c4","system_id":"levelo_inurba_marseille","lat":43.27316,"lon":5.39096,"is_reserved":false,"is_disabled":false,"rental_uris":{"android":"levelo://app?vid=89291eb5-26c6-4c0a-92e6-2d4db02be7c4","ios":"levelo://app?vid=89291eb5-26c6-4c0a-92e6-2d4db02be7c4"},"vehicle_type_id":"4","last_reported":1743664247,"current_range_meters":2800,"station_id":"ce4bhgp2rcd13ifvqfe0","pricing_plan_id":"cebpf4jnsgd1na2vs0mg"},{"bike_id":"66a6759f-f104-404f-ba35-7dd5d87e6d0b","system_id":"levelo_inurba_marseille","lat":43.30154,"lon":5.3769,"is_reserved":false,"is_disabled":false,"rental_uris":{"android":"levelo://app?vid=66a6759f-f104-404f-ba35-7dd5d87e6d0b","ios":"levelo://app?vid=66a6759f-f104-404f-ba35-7dd5d87e6d0b"},"vehicle_type_id":"4","last_reported":1743664247,"current_range_meters":2800,"station_id":"","pricing_plan_id":"cebpf4jnsgd1na2vs0mg"},{"bike_id":"0ad767b2-18d3-4322-9c1b-cccdb2a04142","system_id":"levelo_inurba_marseille","lat":43.299126,"lon":5.374707,"is_reserved":false,"is_disabled":false,"rental_uris":{"android":"levelo://app?vid=0ad767b2-18d3-4322-9c1b-cccdb2a04142","ios":"levelo://app?vid=0ad767b2-18d3-4322-9c1b-cccdb2a04142"},"vehicle_type_id":"4","last_reported":1743664247,"current_range_meters":2800,"station_id":"ce4bgjh2rcd13ifvqbg0","pricing_plan_id":"cebpf4jnsgd1na2vs0mg"},{"bike_id":"37764002-9b1d-4eab-8f9b-b4e82ab987af","system_id":"levelo_inurba_marseille","lat":43.309082,"lon":5.368446,"is_reserved":false,"is_disabled":false,"rental_uris":{"android":"levelo://app?vid=37764002-9b1d-4eab-8f9b-b4e82ab987af","ios":"levelo://app?vid=37764002-9b1d-4eab-8f9b-b4e82ab987af"},"vehicle_type_id":"4","last_reported":1743664247,"current_range_meters":3200,"station_id":"ce4bgn92rcd13ifvqbvg","pricing_plan_id":"cebpf4jnsgd1na2vs0mg"},{"bike_id":"f19d09c0-c570-4160-b74e-ebb29dd15cfa","system_id":"levelo_inurba_marseille","lat":43.30596,"lon":5.39367,"is_reserved":false,"is_disabled":false,"rental_uris":{"android":"levelo://app?vid=f19d09c0-c570-4160-b74e-ebb29dd15cfa","ios":"levelo://app?vid=f19d09c0-c570-4160-b74e-ebb29dd15cfa"},"vehicle_type_id":"4","last_reported":1743664247,"current_range_meters":3200,"station_id":"ce4bh0p2rcd13ifvqd80","pricing_plan_id":"cebpf4jnsgd1na2vs0mg"},{"bike_id":"e47bc61d-df2d-41b3-b26b-dd94e6e5e301","system_id":"levelo_inurba_marseille","lat":43.26254,"lon":5.42121,"is_reserved":false,"is_disabled":false,"rental_uris":{"android":"levelo://app?vid=e47bc61d-df2d-41b3-b26b-dd94e6e5e301","ios":"levelo://app?vid=e47bc61d-df2d-41b3-b26b-dd94e6e5e301"},"vehicle_type_id":"4","last_reported":1743664247,"current_range_meters":3200,"station_id":"","pricing_plan_id":"cebpf4jnsgd1na2vs0mg"},{"bike_id":"e84bef4c-cced-4cd0-b180-0053717ac75e","system_id":"levelo_inurba_marseille","lat":43.2873,"lon":5.40012,"is_reserved":false,"is_disabled":true,"rental_uris":{"android":"levelo://app?vid=e84bef4c-cced-4cd0-b180-0053717ac75e","ios":"levelo://app?vid=e84bef4c-cced-4cd0-b180-0053717ac75e"},"vehicle_type_id":"4","last_reported":1743664247,"current_range_meters":3200,"station_id":"ce4bho92rcd13ifvqh3g","pricing_plan_id":"cebpf4jnsgd1na2vs0mg"},{"bike_id":"7bdf0d60-3026-4723-ac07-ebb25b9cf79f","system_id":"levelo_inurba_marseille","lat":43.28804,"lon":5.3869,"is_reserved":false,"is_disabled":false,"rental_uris":{"android":"levelo://app?vid=7bdf0d60-3026-4723-ac07-ebb25b9cf79f","ios":"levelo://app?vid=7bdf0d60-3026-4723-ac07-ebb25b9cf79f"},"vehicle_type_id":"4","last_reported":1743664247,"current_range_meters":3200,"station_id":"","pricing_plan_id":"cebpf4jnsgd1na2vs0mg"},{"bike_id":"f812244b-ce1a-4079-8ef8-11a38deed5c3","system_id":"levelo_inurba_marseille","lat":43.26063,"lon":5.39397,"is_reserved":false,"is_disabled":false,"rental_uris":{"android":"levelo://app?vid=f812244b-ce1a-4079-8ef8-11a38deed5c3","ios":"levelo://app?vid=f812244b-ce1a-4079-8ef8-11a38deed5c3"},"vehicle_type_id":"4","last_reported":1743664247,"current_range_meters":3600,"station_id":"ce4bhh92rcd13ifvqfj0","pricing_plan_id":"cebpf4jnsgd1na2vs0mg"},{"bike_id":"8dd59c1b-0099-418f-9b93-35fc591d4892","system_id":"levelo_inurba_marseille","lat":43.29541,"lon":5.38692,"is_reserved":false,"is_disabled":false,"rental_uris":{"android":"levelo://app?vid=8dd59c1b-0099-418f-9b93-35fc591d4892","ios":"levelo://app?vid=8dd59c1b-0099-418f-9b93-35fc591d4892"},"vehicle_type_id":"4","last_reported":1743664247,"current_range_meters":3600,"station_id":"","pricing_plan_id":"cebpf4jnsgd1na2vs0mg"},{"bike_id":"ae59add5-e6c3-4f9a-aa4b-67d504580e52","system_id":"levelo_inurba_marseille","lat":43.295668,"lon":5.400049,"is_reserved":false,"is_disabled":false,"rental_uris":{"android":"levelo://app?vid=ae59add5-e6c3-4f9a-aa4b-67d504580e52","ios":"levelo://app?vid=ae59add5-e6c3-4f9a-aa4b-67d504580e52"},"vehicle_type_id":"4","last_reported":1743664247,"current_range_meters":3600,"station_id":"ce4bgvp2rcd13ifvqct0","pricing_plan_id":"cebpf4jnsgd1na2vs0mg"},{"bike_id":"963d154d-f941-4a63-a7ab-a6986505f188","system_id":"levelo_inurba_marseille","lat":43.24076,"lon":5.37729,"is_reserved":false,"is_disabled":false,"rental_uris":{"android":"levelo://app?vid=963d154d-f941-4a63-a7ab-a6986505f188","ios":"levelo://app?vid=963d154d-f941-4a63-a7ab-a6986505f188"},"vehicle_type_id":"4","last_reported":1743664247,"current_range_meters":3600,"station_id":"ce4bhnp2rcd13ifvqgvg","pricing_plan_id":"cebpf4jnsgd1na2vs0mg"},{"bike_id":"648efc6e-6b94-4bc2-8944-d66a86cac8db","system_id":"levelo_inurba_marseille","lat":43.309494,"lon":5.390313,"is_reserved":false,"is_disabled":false,"rental_uris":{"android":"levelo://app?vid=648efc6e-6b94-4bc2-8944-d66a86cac8db","ios":"levelo://app?vid=648efc6e-6b94-4bc2-8944-d66a86cac8db"},"vehicle_type_id":"4","last_reported":1743664247,"current_range_meters":3600,"station_id":"ce4bgup2rcd13ifvqco0","pricing_plan_id":"cebpf4jnsgd1na2vs0mg"},{"bike_id":"0ef9b485-3b9c-419b-842a-20c5d6158d65","system_id":"levelo_inurba_marseille","lat":43.31492,"lon":5.37302,"is_reserved":false,"is_disabled":false,"rental_uris":{"android":"levelo://app?vid=0ef9b485-3b9c-419b-842a-20c5d6158d65","ios":"levelo://app?vid=0ef9b485-3b9c-419b-842a-20c5d6158d65"},"vehicle_type_id":"4","last_reported":1743664247,"current_range_meters":4000,"station_id":"ce4bgt12rcd13ifvqcd0","pricing_plan_id":"cebpf4jnsgd1na2vs0mg"},{"bike_id":"df3e21ca-fe06-417e-9087-13df23a4859e","system_id":"levelo_inurba_marseille","lat":43.26698,"lon":5.38263,"is_reserved":false,"is_disabled":false,"rental_uris":{"android":"levelo://app?vid=df3e21ca-fe06-417e-9087-13df23a4859e","ios":"levelo://app?vid=df3e21ca-fe06-417e-9087-13df23a4859e"},"vehicle_type_id":"4","last_reported":1743664247,"current_range_meters":4000,"station_id":"ce4bhg92rcd13ifvqf90","pricing_plan_id":"cebpf4jnsgd1na2vs0mg"},{"bike_id":"4f1fb305-fdac-49af-98f8-e5ebaa4429a4","system_id":"levelo_inurba_marseille","lat":43.22929,"lon":5.35385,"is_reserved":false,"is_disabled":false,"rental_uris":{"android":"levelo://app?vid=4f1fb305-fdac-49af-98f8-e5ebaa4429a4","ios":"levelo://app?vid=4f1fb305-fdac-49af-98f8-e5ebaa4429a4"},"vehicle_type_id":"4","last_reported":1743664247,"current_range_meters":4000,"station_id":"cpo3532slgdg3j2ikp40","pricing_plan_id":"cebpf4jnsgd1na2vs0mg"},{"bike_id":"f06067fe-c409-49ce-b995-b28658dd37fb","system_id":"levelo_inurba_marseille","lat":43.28686,"lon":5.37385,"is_reserved":false,"is_disabled":true,"rental_uris":{"android":"levelo://app?vid=f06067fe-c409-49ce-b995-b28658dd37fb","ios":"levelo://app?vid=f06067fe-c409-49ce-b995-b28658dd37fb"},"vehicle_type_id":"4","last_reported":1743664247,"current_range_meters":4400,"station_id":"ce4bh3p2rcd13ifvqdq0","pricing_plan_id":"cebpf4jnsgd1na2vs0mg"},{"bike_id":"d0ca8bcb-5e74-47e6-b343-d966cc08be61","system_id":"levelo_inurba_marseille","lat":43.26497,"lon":5.3954,"is_reserved":false,"is_disabled":false,"rental_uris":{"android":"levelo://app?vid=d0ca8bcb-5e74-47e6-b343-d966cc08be61","ios":"levelo://app?vid=d0ca8bcb-5e74-47e6-b343-d966cc08be61"},"vehicle_type_id":"4","last_reported":1743664247,"current_range_meters":4400,"station_id":"ce4bhi12rcd13ifvqfq0","pricing_plan_id":"cebpf4jnsgd1na2vs0mg"},{"bike_id":"d1c0b0aa-686c-46ac-a54e-c913c9582ae4","system_id":"levelo_inurba_marseille","lat":43.27333,"lon":5.39086,"is_reserved":false,"is_disabled":false,"rental_uris":{"android":"levelo://app?vid=d1c0b0aa-686c-46ac-a54e-c913c9582ae4","ios":"levelo://app?vid=d1c0b0aa-686c-46ac-a54e-c913c9582ae4"},"vehicle_type_id":"4","last_reported":1743664247,"current_range_meters":4400,"station_id":"ce4bhgp2rcd13ifvqfe0","pricing_plan_id":"cebpf4jnsgd1na2vs0mg"},{"bike_id":"c276e217-253b-4b08-a941-9b8e843ebc37","system_id":"levelo_inurba_marseille","lat":43.284696,"lon":5.384197,"is_reserved":false,"is_disabled":false,"rental_uris":{"android":"levelo://app?vid=c276e217-253b-4b08-a941-9b8e843ebc37","ios":"levelo://app?vid=c276e217-253b-4b08-a941-9b8e843ebc37"},"vehicle_type_id":"4","last_reported":1743664247,"current_range_meters":4400,"station_id":"ce4bh512rcd13ifvqe3g","pricing_plan_id":"cebpf4jnsgd1na2vs0mg"},{"bike_id":"ff42135b-10ff-470e-83ab-bdd8bc43bd8e","system_id":"levelo_inurba_marseille","lat":43.24066,"lon":5.37761,"is_reserved":false,"is_disabled":false,"rental_uris":{"android":"levelo://app?vid=ff42135b-10ff-470e-83ab-bdd8bc43bd8e","ios":"levelo://app?vid=ff42135b-10ff-470e-83ab-bdd8bc43bd8e"},"vehicle_type_id":"4","last_reported":1743664247,"current_range_meters":4400,"station_id":"ce4bhnp2rcd13ifvqgvg","pricing_plan_id":"cebpf4jnsgd1na2vs0mg"},{"bike_id":"74d1691c-2cdd-4bb3-8881-51256d3d78c7","system_id":"levelo_inurba_marseille","lat":43.25935,"lon":5.40906,"is_reserved":false,"is_disabled":false,"rental_uris":{"android":"levelo://app?vid=74d1691c-2cdd-4bb3-8881-51256d3d78c7","ios":"levelo://app?vid=74d1691c-2cdd-4bb3-8881-51256d3d78c7"},"vehicle_type_id":"4","last_reported":1743664247,"current_range_meters":4800,"station_id":"ce4bhm92rcd13ifvqglg","pricing_plan_id":"cebpf4jnsgd1na2vs0mg"},{"bike_id":"48302313-0890-44fb-97d4-f7f3b5d44fd5","system_id":"levelo_inurba_marseille","lat":43.331,"lon":5.40044,"is_reserved":false,"is_disabled":false,"rental_uris":{"android":"levelo://app?vid=48302313-0890-44fb-97d4-f7f3b5d44fd5","ios":"levelo://app?vid=48302313-0890-44fb-97d4-f7f3b5d44fd5"},"vehicle_type_id":"4","last_reported":1743664247,"current_range_meters":4800,"station_id":"","pricing_plan_id":"cebpf4jnsgd1na2vs0mg"},{"bike_id":"0c00ee55-3060-4de0-972c-9226372f506f","system_id":"levelo_inurba_marseille","lat":43.26784,"lon":5.39416,"is_reserved":false,"is_disabled":false,"rental_uris":{"android":"levelo://app?vid=0c00ee55-3060-4de0-972c-9226372f506f","ios":"levelo://app?vid=0c00ee55-3060-4de0-972c-9226372f506f"},"vehicle_type_id":"4","last_reported":1743664247,"current_range_meters":4800,"station_id":"ce4bhh12rcd13ifvqfg0","pricing_plan_id":"cebpf4jnsgd1na2vs0mg"},{"bike_id":"49a72feb-73ec-4ddb-82be-72523b44e16a","system_id":"levelo_inurba_marseille","lat":43.30463,"lon":5.37912,"is_reserved":false,"is_disabled":false,"rental_uris":{"android":"levelo://app?vid=49a72feb-73ec-4ddb-82be-72523b44e16a","ios":"levelo://app?vid=49a72feb-73ec-4ddb-82be-72523b44e16a"},"vehicle_type_id":"4","last_reported":1743664247,"current_range_meters":5600,"station_id":"ce4bgup2rcd13ifvqcn0","pricing_plan_id":"cebpf4jnsgd1na2vs0mg"},{"bike_id":"3e5329f3-c0cd-422c-afb1-2f46242590da","system_id":"levelo_inurba_marseille","lat":43.31913,"lon":5.37553,"is_reserved":false,"is_disabled":false,"rental_uris":{"android":"levelo://app?vid=3e5329f3-c0cd-422c-afb1-2f46242590da","ios":"levelo://app?vid=3e5329f3-c0cd-422c-afb1-2f46242590da"},"vehicle_type_id":"4","last_reported":1743664247,"current_range_meters":5600,"station_id":"","pricing_plan_id":"cebpf4jnsgd1na2vs0mg"},{"bike_id":"e40d9d1f-df80-411b-aaed-3b0ee84cedfd","system_id":"levelo_inurba_marseille","lat":43.31749,"lon":5.39021,"is_reserved":false,"is_disabled":false,"rental_uris":{"android":"levelo://app?vid=e40d9d1f-df80-411b-aaed-3b0ee84cedfd","ios":"levelo://app?vid=e40d9d1f-df80-411b-aaed-3b0ee84cedfd"},"vehicle_type_id":"4","last_reported":1743664247,"current_range_meters":4800,"station_id":"ce4bhqp2rcd13ifvqhng","pricing_plan_id":"cebpf4jnsgd1na2vs0mg"},{"bike_id":"1331c791-6775-4642-afd5-40465ecccfa5","system_id":"levelo_inurba_marseille","lat":43.24049,"lon":5.37724,"is_reserved":false,"is_disabled":false,"rental_uris":{"android":"levelo://app?vid=1331c791-6775-4642-afd5-40465ecccfa5","ios":"levelo://app?vid=1331c791-6775-4642-afd5-40465ecccfa5"},"vehicle_type_id":"4","last_reported":1743664247,"current_range_meters":5600,"station_id":"ce4bhnp2rcd13ifvqgvg","pricing_plan_id":"cebpf4jnsgd1na2vs0mg"},{"bike_id":"3da65b93-017d-4173-a24f-819c71745d66","system_id":"levelo_inurba_marseille","lat":43.23154,"lon":5.43709,"is_reserved":false,"is_disabled":false,"rental_uris":{"android":"levelo://app?vid=3da65b93-017d-4173-a24f-819c71745d66","ios":"levelo://app?vid=3da65b93-017d-4173-a24f-819c71745d66"},"vehicle_type_id":"4","last_reported":1743664247,"current_range_meters":8800,"station_id":"ce4bhmp2rcd13ifvqgog","pricing_plan_id":"cebpf4jnsgd1na2vs0mg"},{"bike_id":"d5be55a1-ab43-4588-ae7b-d796d9eafdd8","system_id":"levelo_inurba_marseille","lat":43.29841,"lon":5.36282,"is_reserved":false,"is_disabled":false,"rental_uris":{"android":"levelo://app?vid=d5be55a1-ab43-4588-ae7b-d796d9eafdd8","ios":"levelo://app?vid=d5be55a1-ab43-4588-ae7b-d796d9eafdd8"},"vehicle_type_id":"4","last_reported":1743664247,"current_range_meters":6000,"station_id":"ce4bgpp2rcd13ifvqc3g","pricing_plan_id":"cebpf4jnsgd1na2vs0mg"},{"bike_id":"11179ead-4291-4834-b717-4616c070b71f","system_id":"levelo_inurba_marseille","lat":43.284836,"lon":5.385641,"is_reserved":false,"is_disabled":false,"rental_uris":{"android":"levelo://app?vid=11179ead-4291-4834-b717-4616c070b71f","ios":"levelo://app?vid=11179ead-4291-4834-b717-4616c070b71f"},"vehicle_type_id":"4","last_reported":1743664247,"current_range_meters":6000,"station_id":"ce4bh8p2rcd13ifvqeb0","pricing_plan_id":"cebpf4jnsgd1na2vs0mg"},{"bike_id":"e53f9db2-d75c-4594-8157-2926a2062b6f","system_id":"levelo_inurba_marseille","lat":43.28441,"lon":5.39193,"is_reserved":false,"is_disabled":true,"rental_uris":{"android":"levelo://app?vid=e53f9db2-d75c-4594-8157-2926a2062b6f","ios":"levelo://app?vid=e53f9db2-d75c-4594-8157-2926a2062b6f"},"vehicle_type_id":"4","last_reported":1743664247,"current_range_meters":6000,"station_id":"ce4bhoh2rcd13ifvqh5g","pricing_plan_id":"cebpf4jnsgd1na2vs0mg"},{"bike_id":"e46f717e-7bd3-4c8c-be92-e367b9cb08bc","system_id":"levelo_inurba_marseille","lat":43.30904,"lon":5.36843,"is_reserved":false,"is_disabled":false,"rental_uris":{"android":"levelo://app?vid=e46f717e-7bd3-4c8c-be92-e367b9cb08bc","ios":"levelo://app?vid=e46f717e-7bd3-4c8c-be92-e367b9cb08bc"},"vehicle_type_id":"4","last_reported":1743664247,"current_range_meters":6000,"station_id":"ce4bgn92rcd13ifvqbvg","pricing_plan_id":"cebpf4jnsgd1na2vs0mg"},{"bike_id":"41912f40-64b9-4752-b0ab-f9231edf73f0","system_id":"levelo_inurba_marseille","lat":43.2603,"lon":5.37546,"is_reserved":false,"is_disabled":false,"rental_uris":{"android":"levelo://app?vid=41912f40-64b9-4752-b0ab-f9231edf73f0","ios":"levelo://app?vid=41912f40-64b9-4752-b0ab-f9231edf73f0"},"vehicle_type_id":"4","last_reported":1743664247,"current_range_meters":6000,"station_id":"ce4bhgh2rcd13ifvqfa0","pricing_plan_id":"cebpf4jnsgd1na2vs0mg"},{"bike_id":"4f1c00e5-a79d-4f0b-ab4e-3bd2b06e7d2e","system_id":"levelo_inurba_marseille","lat":43.23058,"lon":5.35506,"is_reserved":false,"is_disabled":false,"rental_uris":{"android":"levelo://app?vid=4f1c00e5-a79d-4f0b-ab4e-3bd2b06e7d2e","ios":"levelo://app?vid=4f1c00e5-a79d-4f0b-ab4e-3bd2b06e7d2e"},"vehicle_type_id":"4","last_reported":1743664247,"current_range_meters":6000,"station_id":"cpo3342slgdg3j2ifvpg","pricing_plan_id":"cebpf4jnsgd1na2vs0mg"},{"bike_id":"65a8f5ff-7563-48cb-ab58-1a4acaf3b47d","system_id":"levelo_inurba_marseille","lat":43.26211,"lon":5.3744,"is_reserved":false,"is_disabled":false,"rental_uris":{"android":"levelo://app?vid=65a8f5ff-7563-48cb-ab58-1a4acaf3b47d","ios":"levelo://app?vid=65a8f5ff-7563-48cb-ab58-1a4acaf3b47d"},"vehicle_type_id":"4","last_reported":1743664247,"current_range_meters":6000,"station_id":"ce4bhgp2rcd13ifvqfc0","pricing_plan_id":"cebpf4jnsgd1na2vs0mg"},{"bike_id":"49ebd2ad-8c78-4cb3-a166-0e9ee300590a","system_id":"levelo_inurba_marseille","lat":43.28155,"lon":5.42653,"is_reserved":false,"is_disabled":false,"rental_uris":{"android":"levelo://app?vid=49ebd2ad-8c78-4cb3-a166-0e9ee300590a","ios":"levelo://app?vid=49ebd2ad-8c78-4cb3-a166-0e9ee300590a"},"vehicle_type_id":"4","last_reported":1743664247,"current_range_meters":6000,"station_id":"ce4bhnh2rcd13ifvqgug","pricing_plan_id":"cebpf4jnsgd1na2vs0mg"},{"bike_id":"998e8c9f-8aa4-469d-b753-37f3143df91a","system_id":"levelo_inurba_marseille","lat":43.302887,"lon":5.396672,"is_reserved":false,"is_disabled":false,"rental_uris":{"android":"levelo://app?vid=998e8c9f-8aa4-469d-b753-37f3143df91a","ios":"levelo://app?vid=998e8c9f-8aa4-469d-b753-37f3143df91a"},"vehicle_type_id":"4","last_reported":1743664247,"current_range_meters":6400,"station_id":"ce4bhs12rcd13ifvqhvg","pricing_plan_id":"cebpf4jnsgd1na2vs0mg"},{"bike_id":"f55695a6-b65f-4a30-99ab-94b2bfa63268","system_id":"levelo_inurba_marseille","lat":43.23197,"lon":5.35568,"is_reserved":false,"is_disabled":false,"rental_uris":{"android":"levelo://app?vid=f55695a6-b65f-4a30-99ab-94b2bfa63268","ios":"levelo://app?vid=f55695a6-b65f-4a30-99ab-94b2bfa63268"},"vehicle_type_id":"4","last_reported":1743664247,"current_range_meters":6400,"station_id":"ce4bhu92rcd13ifvqi70","pricing_plan_id":"cebpf4jnsgd1na2vs0mg"},{"bike_id":"a7d11798-7eaf-4f99-80ac-c9438018c0f0","system_id":"levelo_inurba_marseille","lat":43.2405,"lon":5.3774,"is_reserved":false,"is_disabled":false,"rental_uris":{"android":"levelo://app?vid=a7d11798-7eaf-4f99-80ac-c9438018c0f0","ios":"levelo://app?vid=a7d11798-7eaf-4f99-80ac-c9438018c0f0"},"vehicle_type_id":"4","last_reported":1743664247,"current_range_meters":6400,"station_id":"ce4bhnp2rcd13ifvqgvg","pricing_plan_id":"cebpf4jnsgd1na2vs0mg"},{"bike_id":"2cf61775-cb21-4b86-a7af-7925ef8f8bd8","system_id":"levelo_inurba_marseille","lat":43.22919,"lon":5.35384,"is_reserved":false,"is_disabled":false,"rental_uris":{"android":"levelo://app?vid=2cf61775-cb21-4b86-a7af-7925ef8f8bd8","ios":"levelo://app?vid=2cf61775-cb21-4b86-a7af-7925ef8f8bd8"},"vehicle_type_id":"4","last_reported":1743664247,"current_range_meters":6400,"station_id":"cpo3532slgdg3j2ikp40","pricing_plan_id":"cebpf4jnsgd1na2vs0mg"},{"bike_id":"4a341a06-7291-4b5d-846a-b513537429a6","system_id":"levelo_inurba_marseille","lat":43.28938,"lon":5.36386,"is_reserved":false,"is_disabled":false,"rental_uris":{"android":"levelo://app?vid=4a341a06-7291-4b5d-846a-b513537429a6","ios":"levelo://app?vid=4a341a06-7291-4b5d-846a-b513537429a6"},"vehicle_type_id":"4","last_reported":1743664247,"current_range_meters":800,"station_id":"ce4bhc92rcd13ifvqetg","pricing_plan_id":"cebpf4jnsgd1na2vs0mg"},{"bike_id":"d6c81a00-cf24-47bc-81aa-99e15d303460","system_id":"levelo_inurba_marseille","lat":43.27178,"lon":5.40998,"is_reserved":false,"is_disabled":false,"rental_uris":{"android":"levelo://app?vid=d6c81a00-cf24-47bc-81aa-99e15d303460","ios":"levelo://app?vid=d6c81a00-cf24-47bc-81aa-99e15d303460"},"vehicle_type_id":"4","last_reported":1743664247,"current_range_meters":6400,"station_id":"ce4bhl12rcd13ifvqgf0","pricing_plan_id":"cebpf4jnsgd1na2vs0mg"},{"bike_id":"1c7ea303-0f0b-477c-a6b0-56cc00a9de10","system_id":"levelo_inurba_marseille","lat":43.32364,"lon":5.38929,"is_reserved":false,"is_disabled":false,"rental_uris":{"android":"levelo://app?vid=1c7ea303-0f0b-477c-a6b0-56cc00a9de10","ios":"levelo://app?vid=1c7ea303-0f0b-477c-a6b0-56cc00a9de10"},"vehicle_type_id":"4","last_reported":1743664247,"current_range_meters":6400,"station_id":"ce4bhqp2rcd13ifvqhog","pricing_plan_id":"cebpf4jnsgd1na2vs0mg"},{"bike_id":"249d9c4c-d204-4c88-b810-3e2ec60384b0","system_id":"levelo_inurba_marseille","lat":43.30597,"lon":5.39351,"is_reserved":false,"is_disabled":false,"rental_uris":{"android":"levelo://app?vid=249d9c4c-d204-4c88-b810-3e2ec60384b0","ios":"levelo://app?vid=249d9c4c-d204-4c88-b810-3e2ec60384b0"},"vehicle_type_id":"4","last_reported":1743664247,"current_range_meters":6800,"station_id":"ce4bh0p2rcd13ifvqd80","pricing_plan_id":"cebpf4jnsgd1na2vs0mg"},{"bike_id":"07bc3919-ac42-4e1a-b974-20b4fcc94f54","system_id":"levelo_inurba_marseille","lat":43.26778,"lon":5.39419,"is_reserved":false,"is_disabled":false,"rental_uris":{"android":"levelo://app?vid=07bc3919-ac42-4e1a-b974-20b4fcc94f54","ios":"levelo://app?vid=07bc3919-ac42-4e1a-b974-20b4fcc94f54"},"vehicle_type_id":"4","last_reported":1743664247,"current_range_meters":6400,"station_id":"ce4bhh12rcd13ifvqfg0","pricing_plan_id":"cebpf4jnsgd1na2vs0mg"},{"bike_id":"d157a8ac-f1ea-480a-a1ee-9ac00962bb01","system_id":"levelo_inurba_marseille","lat":43.29563,"lon":5.42294,"is_reserved":false,"is_disabled":false,"rental_uris":{"android":"levelo://app?vid=d157a8ac-f1ea-480a-a1ee-9ac00962bb01","ios":"levelo://app?vid=d157a8ac-f1ea-480a-a1ee-9ac00962bb01"},"vehicle_type_id":"4","last_reported":1743664247,"current_range_meters":6800,"station_id":"ce4bhph2rcd13ifvqhdg","pricing_plan_id":"cebpf4jnsgd1na2vs0mg"},{"bike_id":"7bc507c4-187b-4cb2-a5ef-07322f924baf","system_id":"levelo_inurba_marseille","lat":43.22928,"lon":5.35414,"is_reserved":false,"is_disabled":false,"rental_uris":{"android":"levelo://app?vid=7bc507c4-187b-4cb2-a5ef-07322f924baf","ios":"levelo://app?vid=7bc507c4-187b-4cb2-a5ef-07322f924baf"},"vehicle_type_id":"4","last_reported":1743664247,"current_range_meters":6800,"station_id":"cpo3532slgdg3j2ikp40","pricing_plan_id":"cebpf4jnsgd1na2vs0mg"},{"bike_id":"54fe4193-4a71-4120-926d-2460e18bf146","system_id":"levelo_inurba_marseille","lat":43.27493,"lon":5.42453,"is_reserved":false,"is_disabled":false,"rental_uris":{"android":"levelo://app?vid=54fe4193-4a71-4120-926d-2460e18bf146","ios":"levelo://app?vid=54fe4193-4a71-4120-926d-2460e18bf146"},"vehicle_type_id":"4","last_reported":1743664247,"current_range_meters":6800,"station_id":"ce4bhn92rcd13ifvqgrg","pricing_plan_id":"cebpf4jnsgd1na2vs0mg"},{"bike_id":"8d5b971e-28a3-40d2-975a-686cbf6dfadd","system_id":"levelo_inurba_marseille","lat":43.29557,"lon":5.42287,"is_reserved":false,"is_disabled":false,"rental_uris":{"android":"levelo://app?vid=8d5b971e-28a3-40d2-975a-686cbf6dfadd","ios":"levelo://app?vid=8d5b971e-28a3-40d2-975a-686cbf6dfadd"},"vehicle_type_id":"4","last_reported":1743664247,"current_range_meters":6800,"station_id":"ce4bhph2rcd13ifvqhdg","pricing_plan_id":"cebpf4jnsgd1na2vs0mg"},{"bike_id":"2828a043-0062-47a2-bc36-8769134c8804","system_id":"levelo_inurba_marseille","lat":43.30907,"lon":5.36847,"is_reserved":false,"is_disabled":false,"rental_uris":{"android":"levelo://app?vid=2828a043-0062-47a2-bc36-8769134c8804","ios":"levelo://app?vid=2828a043-0062-47a2-bc36-8769134c8804"},"vehicle_type_id":"4","last_reported":1743664247,"current_range_meters":6800,"station_id":"ce4bgn92rcd13ifvqbvg","pricing_plan_id":"cebpf4jnsgd1na2vs0mg"},{"bike_id":"8f5431e2-c557-405c-beef-4a28ee08aafc","system_id":"levelo_inurba_marseille","lat":43.2782,"lon":5.40706,"is_reserved":false,"is_disabled":false,"rental_uris":{"android":"levelo://app?vid=8f5431e2-c557-405c-beef-4a28ee08aafc","ios":"levelo://app?vid=8f5431e2-c557-405c-beef-4a28ee08aafc"},"vehicle_type_id":"4","last_reported":1743664247,"current_range_meters":6800,"station_id":"ce4bhnh2rcd13ifvqgtg","pricing_plan_id":"cebpf4jnsgd1na2vs0mg"},{"bike_id":"907c6b69-44a0-43de-8d18-fd15aff0b4d2","system_id":"levelo_inurba_marseille","lat":43.28354,"lon":5.38099,"is_reserved":false,"is_disabled":false,"rental_uris":{"android":"levelo://app?vid=907c6b69-44a0-43de-8d18-fd15aff0b4d2","ios":"levelo://app?vid=907c6b69-44a0-43de-8d18-fd15aff0b4d2"},"vehicle_type_id":"4","last_reported":1743664247,"current_range_meters":6800,"station_id":"ce4bh412rcd13ifvqdr0","pricing_plan_id":"cebpf4jnsgd1na2vs0mg"},{"bike_id":"4b44f39c-5bb2-424a-891d-855ab4adfcfa","system_id":"levelo_inurba_marseille","lat":43.30095,"lon":5.3877,"is_reserved":false,"is_disabled":true,"rental_uris":{"android":"levelo://app?vid=4b44f39c-5bb2-424a-891d-855ab4adfcfa","ios":"levelo://app?vid=4b44f39c-5bb2-424a-891d-855ab4adfcfa"},"vehicle_type_id":"4","last_reported":1743664247,"current_range_meters":6800,"station_id":"","pricing_plan_id":"cebpf4jnsgd1na2vs0mg"},{"bike_id":"9fd868ca-6ca2-4756-bac9-da1743cb8424","system_id":"levelo_inurba_marseille","lat":43.30904,"lon":5.36844,"is_reserved":false,"is_disabled":false,"rental_uris":{"android":"levelo://app?vid=9fd868ca-6ca2-4756-bac9-da1743cb8424","ios":"levelo://app?vid=9fd868ca-6ca2-4756-bac9-da1743cb8424"},"vehicle_type_id":"4","last_reported":1743664247,"current_range_meters":6800,"station_id":"ce4bgn92rcd13ifvqbvg","pricing_plan_id":"cebpf4jnsgd1na2vs0mg"},{"bike_id":"2380dd51-e881-48a3-bd44-33c29696dbd4","system_id":"levelo_inurba_marseille","lat":43.28941,"lon":5.39628,"is_reserved":false,"is_disabled":false,"rental_uris":{"android":"levelo://app?vid=2380dd51-e881-48a3-bd44-33c29696dbd4","ios":"levelo://app?vid=2380dd51-e881-48a3-bd44-33c29696dbd4"},"vehicle_type_id":"4","last_reported":1743664247,"current_range_meters":6800,"station_id":"ce4bh3h2rcd13ifvqdn0","pricing_plan_id":"cebpf4jnsgd1na2vs0mg"},{"bike_id":"d3345442-2654-4ddc-b869-fce22decea38","system_id":"levelo_inurba_marseille","lat":43.230554,"lon":5.35493,"is_reserved":false,"is_disabled":false,"rental_uris":{"android":"levelo://app?vid=d3345442-2654-4ddc-b869-fce22decea38","ios":"levelo://app?vid=d3345442-2654-4ddc-b869-fce22decea38"},"vehicle_type_id":"4","last_reported":1743664247,"current_range_meters":6800,"station_id":"cpo3342slgdg3j2ifvpg","pricing_plan_id":"cebpf4jnsgd1na2vs0mg"},{"bike_id":"634397d6-3e53-45ab-b5ae-102ac30306ca","system_id":"levelo_inurba_marseille","lat":43.259173,"lon":5.408589,"is_reserved":false,"is_disabled":false,"rental_uris":{"android":"levelo://app?vid=634397d6-3e53-45ab-b5ae-102ac30306ca","ios":"levelo://app?vid=634397d6-3e53-45ab-b5ae-102ac30306ca"},"vehicle_type_id":"4","last_reported":1743664247,"current_range_meters":6800,"station_id":"ce4bhm92rcd13ifvqglg","pricing_plan_id":"cebpf4jnsgd1na2vs0mg"},{"bike_id":"cd69a897-0e30-45d1-8bcf-1ee67c4cbaa8","system_id":"levelo_inurba_marseille","lat":43.24083,"lon":5.37751,"is_reserved":false,"is_disabled":false,"rental_uris":{"android":"levelo://app?vid=cd69a897-0e30-45d1-8bcf-1ee67c4cbaa8","ios":"levelo://app?vid=cd69a897-0e30-45d1-8bcf-1ee67c4cbaa8"},"vehicle_type_id":"4","last_reported":1743664247,"current_range_meters":6800,"station_id":"ce4bhnp2rcd13ifvqgvg","pricing_plan_id":"cebpf4jnsgd1na2vs0mg"},{"bike_id":"521a2579-e26e-4c68-bce3-6ac67b0a64ea","system_id":"levelo_inurba_marseille","lat":43.309082,"lon":5.368531,"is_reserved":false,"is_disabled":false,"rental_uris":{"android":"levelo://app?vid=521a2579-e26e-4c68-bce3-6ac67b0a64ea","ios":"levelo://app?vid=521a2579-e26e-4c68-bce3-6ac67b0a64ea"},"vehicle_type_id":"4","last_reported":1743664247,"current_range_meters":3200,"station_id":"ce4bgn92rcd13ifvqbvg","pricing_plan_id":"cebpf4jnsgd1na2vs0mg"},{"bike_id":"3374421a-949f-40b6-870f-59a2d8ba0de4","system_id":"levelo_inurba_marseille","lat":43.24166,"lon":5.36397,"is_reserved":false,"is_disabled":false,"rental_uris":{"android":"levelo://app?vid=3374421a-949f-40b6-870f-59a2d8ba0de4","ios":"levelo://app?vid=3374421a-949f-40b6-870f-59a2d8ba0de4"},"vehicle_type_id":"4","last_reported":1743664247,"current_range_meters":7200,"station_id":"cpo36qri1sfpv3e86is0","pricing_plan_id":"cebpf4jnsgd1na2vs0mg"},{"bike_id":"a88a6d8d-9419-4680-aefe-83fb40289737","system_id":"levelo_inurba_marseille","lat":43.26826,"lon":5.39466,"is_reserved":false,"is_disabled":false,"rental_uris":{"android":"levelo://app?vid=a88a6d8d-9419-4680-aefe-83fb40289737","ios":"levelo://app?vid=a88a6d8d-9419-4680-aefe-83fb40289737"},"vehicle_type_id":"4","last_reported":1743664247,"current_range_meters":6800,"station_id":"ce4bhh12rcd13ifvqfg0","pricing_plan_id":"cebpf4jnsgd1na2vs0mg"},{"bike_id":"b80ee275-2592-4659-b2e9-175feb839700","system_id":"levelo_inurba_marseille","lat":43.23204,"lon":5.35564,"is_reserved":false,"is_disabled":false,"rental_uris":{"android":"levelo://app?vid=b80ee275-2592-4659-b2e9-175feb839700","ios":"levelo://app?vid=b80ee275-2592-4659-b2e9-175feb839700"},"vehicle_type_id":"4","last_reported":1743664247,"current_range_meters":7200,"station_id":"ce4bhu92rcd13ifvqi70","pricing_plan_id":"cebpf4jnsgd1na2vs0mg"},{"bike_id":"1e56f8b0-0569-43fd-956b-7c3d45c8ba02","system_id":"levelo_inurba_marseille","lat":43.293199,"lon":5.411564,"is_reserved":false,"is_disabled":false,"rental_uris":{"android":"levelo://app?vid=1e56f8b0-0569-43fd-956b-7c3d45c8ba02","ios":"levelo://app?vid=1e56f8b0-0569-43fd-956b-7c3d45c8ba02"},"vehicle_type_id":"4","last_reported":1743664247,"current_range_meters":7200,"station_id":"","pricing_plan_id":"cebpf4jnsgd1na2vs0mg"},{"bike_id":"fe147b08-794f-4cc8-a62c-e589ca5791a1","system_id":"levelo_inurba_marseille","lat":43.25917,"lon":5.40902,"is_reserved":false,"is_disabled":false,"rental_uris":{"android":"levelo://app?vid=fe147b08-794f-4cc8-a62c-e589ca5791a1","ios":"levelo://app?vid=fe147b08-794f-4cc8-a62c-e589ca5791a1"},"vehicle_type_id":"4","last_reported":1743664247,"current_range_meters":7200,"station_id":"ce4bhm92rcd13ifvqglg","pricing_plan_id":"cebpf4jnsgd1na2vs0mg"},{"bike_id":"d53777c8-71ae-4227-ab5d-b5d248512007","system_id":"levelo_inurba_marseille","lat":43.23167,"lon":5.43707,"is_reserved":false,"is_disabled":false,"rental_uris":{"android":"levelo://app?vid=d53777c8-71ae-4227-ab5d-b5d248512007","ios":"levelo://app?vid=d53777c8-71ae-4227-ab5d-b5d248512007"},"vehicle_type_id":"4","last_reported":1743664247,"current_range_meters":7200,"station_id":"ce4bhmp2rcd13ifvqgog","pricing_plan_id":"cebpf4jnsgd1na2vs0mg"},{"bike_id":"04556df8-715f-45d8-b288-9c8fd51282f9","system_id":"levelo_inurba_marseille","lat":43.23193,"lon":5.35569,"is_reserved":false,"is_disabled":false,"rental_uris":{"android":"levelo://app?vid=04556df8-715f-45d8-b288-9c8fd51282f9","ios":"levelo://app?vid=04556df8-715f-45d8-b288-9c8fd51282f9"},"vehicle_type_id":"4","last_reported":1743664247,"current_range_meters":8000,"station_id":"ce4bhu92rcd13ifvqi70","pricing_plan_id":"cebpf4jnsgd1na2vs0mg"},{"bike_id":"988a4b2a-1fca-4561-9342-57ad8b6adb1c","system_id":"levelo_inurba_marseille","lat":43.2293,"lon":5.35395,"is_reserved":false,"is_disabled":false,"rental_uris":{"android":"levelo://app?vid=988a4b2a-1fca-4561-9342-57ad8b6adb1c","ios":"levelo://app?vid=988a4b2a-1fca-4561-9342-57ad8b6adb1c"},"vehicle_type_id":"4","last_reported":1743664247,"current_range_meters":8000,"station_id":"cpo3532slgdg3j2ikp40","pricing_plan_id":"cebpf4jnsgd1na2vs0mg"},{"bike_id":"3b948fbe-ea54-4e7f-8a80-214f816bc66c","system_id":"levelo_inurba_marseille","lat":43.24173,"lon":5.39732,"is_reserved":false,"is_disabled":false,"rental_uris":{"android":"levelo://app?vid=3b948fbe-ea54-4e7f-8a80-214f816bc66c","ios":"levelo://app?vid=3b948fbe-ea54-4e7f-8a80-214f816bc66c"},"vehicle_type_id":"4","last_reported":1743664247,"current_range_meters":8000,"station_id":"ce4bhn12rcd13ifvqgpg","pricing_plan_id":"cebpf4jnsgd1na2vs0mg"},{"bike_id":"f87e996c-206a-47d9-8697-84a2d463fdc3","system_id":"levelo_inurba_marseille","lat":43.23196,"lon":5.35563,"is_reserved":false,"is_disabled":false,"rental_uris":{"android":"levelo://app?vid=f87e996c-206a-47d9-8697-84a2d463fdc3","ios":"levelo://app?vid=f87e996c-206a-47d9-8697-84a2d463fdc3"},"vehicle_type_id":"4","last_reported":1743664247,"current_range_meters":8000,"station_id":"ce4bhu92rcd13ifvqi70","pricing_plan_id":"cebpf4jnsgd1na2vs0mg"},{"bike_id":"920f6ca0-0606-4d4f-8258-619f9f19df50","system_id":"levelo_inurba_marseille","lat":43.289199,"lon":5.383988,"is_reserved":false,"is_disabled":true,"rental_uris":{"android":"levelo://app?vid=920f6ca0-0606-4d4f-8258-619f9f19df50","ios":"levelo://app?vid=920f6ca0-0606-4d4f-8258-619f9f19df50"},"vehicle_type_id":"4","last_reported":1743664247,"current_range_meters":8000,"station_id":"ce4bh612rcd13ifvqe6g","pricing_plan_id":"cebpf4jnsgd1na2vs0mg"},{"bike_id":"3945780b-3464-4b52-8543-cf05282ae10d","system_id":"levelo_inurba_marseille","lat":43.269532,"lon":5.386335,"is_reserved":false,"is_disabled":false,"rental_uris":{"android":"levelo://app?vid=3945780b-3464-4b52-8543-cf05282ae10d","ios":"levelo://app?vid=3945780b-3464-4b52-8543-cf05282ae10d"},"vehicle_type_id":"4","last_reported":1743664247,"current_range_meters":8000,"station_id":"ce4bgl92rcd13ifvqbq0","pricing_plan_id":"cebpf4jnsgd1na2vs0mg"},{"bike_id":"1d8f2c5e-7842-4c7e-b427-374bcf9a8b5a","system_id":"levelo_inurba_marseille","lat":43.30906,"lon":5.36843,"is_reserved":false,"is_disabled":false,"rental_uris":{"android":"levelo://app?vid=1d8f2c5e-7842-4c7e-b427-374bcf9a8b5a","ios":"levelo://app?vid=1d8f2c5e-7842-4c7e-b427-374bcf9a8b5a"},"vehicle_type_id":"4","last_reported":1743664247,"current_range_meters":8000,"station_id":"ce4bgn92rcd13ifvqbvg","pricing_plan_id":"cebpf4jnsgd1na2vs0mg"},{"bike_id":"51a10d1a-396c-4ab6-b2b3-5c615c8f4247","system_id":"levelo_inurba_marseille","lat":43.29932,"lon":5.36562,"is_reserved":false,"is_disabled":false,"rental_uris":{"android":"levelo://app?vid=51a10d1a-396c-4ab6-b2b3-5c615c8f4247","ios":"levelo://app?vid=51a10d1a-396c-4ab6-b2b3-5c615c8f4247"},"vehicle_type_id":"4","last_reported":1743664247,"current_range_meters":8000,"station_id":"ce4bgm92rcd13ifvqbr0","pricing_plan_id":"cebpf4jnsgd1na2vs0mg"},{"bike_id":"7a2ba730-9820-4b99-bb4a-9605925001af","system_id":"levelo_inurba_marseille","lat":43.295703,"lon":5.375521,"is_reserved":false,"is_disabled":false,"rental_uris":{"android":"levelo://app?vid=7a2ba730-9820-4b99-bb4a-9605925001af","ios":"levelo://app?vid=7a2ba730-9820-4b99-bb4a-9605925001af"},"vehicle_type_id":"4","last_reported":1743664247,"current_range_meters":8000,"station_id":"ce4bgs12rcd13ifvqcag","pricing_plan_id":"cebpf4jnsgd1na2vs0mg"},{"bike_id":"a112ce08-6f4e-41f2-873e-94895f2e1506","system_id":"levelo_inurba_marseille","lat":43.27694,"lon":5.38928,"is_reserved":false,"is_disabled":true,"rental_uris":{"android":"levelo://app?vid=a112ce08-6f4e-41f2-873e-94895f2e1506","ios":"levelo://app?vid=a112ce08-6f4e-41f2-873e-94895f2e1506"},"vehicle_type_id":"4","last_reported":1743664247,"current_range_meters":8000,"station_id":"ce4bhi12rcd13ifvqfo0","pricing_plan_id":"cebpf4jnsgd1na2vs0mg"},{"bike_id":"695c8290-d280-4637-a551-cff4f68c5fbc","system_id":"levelo_inurba_marseille","lat":43.23156,"lon":5.43716,"is_reserved":false,"is_disabled":false,"rental_uris":{"android":"levelo://app?vid=695c8290-d280-4637-a551-cff4f68c5fbc","ios":"levelo://app?vid=695c8290-d280-4637-a551-cff4f68c5fbc"},"vehicle_type_id":"4","last_reported":1743664247,"current_range_meters":8000,"station_id":"ce4bhmp2rcd13ifvqgog","pricing_plan_id":"cebpf4jnsgd1na2vs0mg"},{"bike_id":"546380d0-0813-4737-817f-a21e056e8d2e","system_id":"levelo_inurba_marseille","lat":43.3236,"lon":5.3676,"is_reserved":false,"is_disabled":false,"rental_uris":{"android":"levelo://app?vid=546380d0-0813-4737-817f-a21e056e8d2e","ios":"levelo://app?vid=546380d0-0813-4737-817f-a21e056e8d2e"},"vehicle_type_id":"4","last_reported":1743664247,"current_range_meters":8000,"station_id":"ce4bhsh2rcd13ifvqi2g","pricing_plan_id":"cebpf4jnsgd1na2vs0mg"},{"bike_id":"ec8aab6c-0f17-4923-b403-245a0459998d","system_id":"levelo_inurba_marseille","lat":43.303212,"lon":5.404334,"is_reserved":false,"is_disabled":false,"rental_uris":{"android":"levelo://app?vid=ec8aab6c-0f17-4923-b403-245a0459998d","ios":"levelo://app?vid=ec8aab6c-0f17-4923-b403-245a0459998d"},"vehicle_type_id":"4","last_reported":1743664247,"current_range_meters":8000,"station_id":"ce4bhhp2rcd13ifvqfm0","pricing_plan_id":"cebpf4jnsgd1na2vs0mg"},{"bike_id":"4863f73f-1240-42e9-847e-7edd4ccf4fea","system_id":"levelo_inurba_marseille","lat":43.30162,"lon":5.38095,"is_reserved":false,"is_disabled":false,"rental_uris":{"android":"levelo://app?vid=4863f73f-1240-42e9-847e-7edd4ccf4fea","ios":"levelo://app?vid=4863f73f-1240-42e9-847e-7edd4ccf4fea"},"vehicle_type_id":"4","last_reported":1743664247,"current_range_meters":8000,"station_id":"ce4bgjp2rcd13ifvqbh0","pricing_plan_id":"cebpf4jnsgd1na2vs0mg"},{"bike_id":"2e1d0491-8046-4a1c-910c-6d230f4ca468","system_id":"levelo_inurba_marseille","lat":43.30667,"lon":5.37374,"is_reserved":false,"is_disabled":false,"rental_uris":{"android":"levelo://app?vid=2e1d0491-8046-4a1c-910c-6d230f4ca468","ios":"levelo://app?vid=2e1d0491-8046-4a1c-910c-6d230f4ca468"},"vehicle_type_id":"4","last_reported":1743664247,"current_range_meters":8000,"station_id":"","pricing_plan_id":"cebpf4jnsgd1na2vs0mg"},{"bike_id":"d97c6895-9a58-42bd-9edc-053f218b5b60","system_id":"levelo_inurba_marseille","lat":43.29485,"lon":5.36393,"is_reserved":false,"is_disabled":false,"rental_uris":{"android":"levelo://app?vid=d97c6895-9a58-42bd-9edc-053f218b5b60","ios":"levelo://app?vid=d97c6895-9a58-42bd-9edc-053f218b5b60"},"vehicle_type_id":"4","last_reported":1743664247,"current_range_meters":8400,"station_id":"","pricing_plan_id":"cebpf4jnsgd1na2vs0mg"},{"bike_id":"f8dc6029-025c-47cd-8921-5ce023e19c20","system_id":"levelo_inurba_marseille","lat":43.31992,"lon":5.38226,"is_reserved":false,"is_disabled":false,"rental_uris":{"android":"levelo://app?vid=f8dc6029-025c-47cd-8921-5ce023e19c20","ios":"levelo://app?vid=f8dc6029-025c-47cd-8921-5ce023e19c20"},"vehicle_type_id":"4","last_reported":1743664247,"current_range_meters":8400,"station_id":"ce4bhr12rcd13ifvqhpg","pricing_plan_id":"cebpf4jnsgd1na2vs0mg"},{"bike_id":"c13962cb-474e-4e8e-b6f2-e3bb01716342","system_id":"levelo_inurba_marseille","lat":43.30543,"lon":5.36552,"is_reserved":false,"is_disabled":false,"rental_uris":{"android":"levelo://app?vid=c13962cb-474e-4e8e-b6f2-e3bb01716342","ios":"levelo://app?vid=c13962cb-474e-4e8e-b6f2-e3bb01716342"},"vehicle_type_id":"4","last_reported":1743664247,"current_range_meters":8400,"station_id":"ce4bgs12rcd13ifvqcag","pricing_plan_id":"cebpf4jnsgd1na2vs0mg"},{"bike_id":"0735936c-8abe-401d-ac2b-155c72686cce","system_id":"levelo_inurba_marseille","lat":43.27332,"lon":5.39069,"is_reserved":false,"is_disabled":false,"rental_uris":{"android":"levelo://app?vid=0735936c-8abe-401d-ac2b-155c72686cce","ios":"levelo://app?vid=0735936c-8abe-401d-ac2b-155c72686cce"},"vehicle_type_id":"4","last_reported":1743664247,"current_range_meters":7200,"station_id":"ce4bhgp2rcd13ifvqfe0","pricing_plan_id":"cebpf4jnsgd1na2vs0mg"},{"bike_id":"75dae32f-059a-4b5b-a5e8-963c6eda2f66","system_id":"levelo_inurba_marseille","lat":43.27521,"lon":5.41007,"is_reserved":false,"is_disabled":false,"rental_uris":{"android":"levelo://app?vid=75dae32f-059a-4b5b-a5e8-963c6eda2f66","ios":"levelo://app?vid=75dae32f-059a-4b5b-a5e8-963c6eda2f66"},"vehicle_type_id":"4","last_reported":1743664247,"current_range_meters":8400,"station_id":"","pricing_plan_id":"cebpf4jnsgd1na2vs0mg"},{"bike_id":"ba1f99d1-7f04-4262-8727-9b2fd914c530","system_id":"levelo_inurba_marseille","lat":43.305414,"lon":5.367392,"is_reserved":false,"is_disabled":false,"rental_uris":{"android":"levelo://app?vid=ba1f99d1-7f04-4262-8727-9b2fd914c530","ios":"levelo://app?vid=ba1f99d1-7f04-4262-8727-9b2fd914c530"},"vehicle_type_id":"4","last_reported":1743664247,"current_range_meters":8800,"station_id":"ce4bgrp2rcd13ifvqc9g","pricing_plan_id":"cebpf4jnsgd1na2vs0mg"},{"bike_id":"7056a83e-d64c-453c-bcc8-5758aaf4fa2c","system_id":"levelo_inurba_marseille","lat":43.30467,"lon":5.37912,"is_reserved":false,"is_disabled":false,"rental_uris":{"android":"levelo://app?vid=7056a83e-d64c-453c-bcc8-5758aaf4fa2c","ios":"levelo://app?vid=7056a83e-d64c-453c-bcc8-5758aaf4fa2c"},"vehicle_type_id":"4","last_reported":1743664247,"current_range_meters":8800,"station_id":"ce4bgup2rcd13ifvqcn0","pricing_plan_id":"cebpf4jnsgd1na2vs0mg"},{"bike_id":"7ba67d0a-4dd2-434e-9233-c217be617343","system_id":"levelo_inurba_marseille","lat":43.33782,"lon":5.37456,"is_reserved":false,"is_disabled":false,"rental_uris":{"android":"levelo://app?vid=7ba67d0a-4dd2-434e-9233-c217be617343","ios":"levelo://app?vid=7ba67d0a-4dd2-434e-9233-c217be617343"},"vehicle_type_id":"4","last_reported":1743664247,"current_range_meters":8800,"station_id":"","pricing_plan_id":"cebpf4jnsgd1na2vs0mg"},{"bike_id":"7514852b-340a-4392-a4d2-9a84e0d03998","system_id":"levelo_inurba_marseille","lat":43.33302,"lon":5.39679,"is_reserved":false,"is_disabled":false,"rental_uris":{"android":"levelo://app?vid=7514852b-340a-4392-a4d2-9a84e0d03998","ios":"levelo://app?vid=7514852b-340a-4392-a4d2-9a84e0d03998"},"vehicle_type_id":"4","last_reported":1743664247,"current_range_meters":8800,"station_id":"","pricing_plan_id":"cebpf4jnsgd1na2vs0mg"},{"bike_id":"32a978e0-d0c2-43d4-9b03-19a5c41c27de","system_id":"levelo_inurba_marseille","lat":43.3106,"lon":5.3835,"is_reserved":false,"is_disabled":true,"rental_uris":{"android":"levelo://app?vid=32a978e0-d0c2-43d4-9b03-19a5c41c27de","ios":"levelo://app?vid=32a978e0-d0c2-43d4-9b03-19a5c41c27de"},"vehicle_type_id":"4","last_reported":1743664247,"current_range_meters":8800,"station_id":"ce4bgv92rcd13ifvqcr0","pricing_plan_id":"cebpf4jnsgd1na2vs0mg"},{"bike_id":"806f15f5-826d-41fe-94bf-7198bfd375b1","system_id":"levelo_inurba_marseille","lat":43.23149,"lon":5.43724,"is_reserved":false,"is_disabled":false,"rental_uris":{"android":"levelo://app?vid=806f15f5-826d-41fe-94bf-7198bfd375b1","ios":"levelo://app?vid=806f15f5-826d-41fe-94bf-7198bfd375b1"},"vehicle_type_id":"4","last_reported":1743664247,"current_range_meters":8800,"station_id":"ce4bhmp2rcd13ifvqgog","pricing_plan_id":"cebpf4jnsgd1na2vs0mg"},{"bike_id":"b6c83da9-b3c4-4843-9a1d-36871e12515b","system_id":"levelo_inurba_marseille","lat":43.26039,"lon":5.41463,"is_reserved":false,"is_disabled":false,"rental_uris":{"android":"levelo://app?vid=b6c83da9-b3c4-4843-9a1d-36871e12515b","ios":"levelo://app?vid=b6c83da9-b3c4-4843-9a1d-36871e12515b"},"vehicle_type_id":"4","last_reported":1743664247,"current_range_meters":8800,"station_id":"","pricing_plan_id":"cebpf4jnsgd1na2vs0mg"},{"bike_id":"0b821c23-8c64-4699-97fa-6ab3f8994acf","system_id":"levelo_inurba_marseille","lat":43.307995,"lon":5.381424,"is_reserved":false,"is_disabled":true,"rental_uris":{"android":"levelo://app?vid=0b821c23-8c64-4699-97fa-6ab3f8994acf","ios":"levelo://app?vid=0b821c23-8c64-4699-97fa-6ab3f8994acf"},"vehicle_type_id":"4","last_reported":1743664247,"current_range_meters":8800,"station_id":"ce4bgt12rcd13ifvqce0","pricing_plan_id":"cebpf4jnsgd1na2vs0mg"},{"bike_id":"5cdc5b4d-77c2-4cf7-9e3a-fabd559424b6","system_id":"levelo_inurba_marseille","lat":43.26564,"lon":5.39008,"is_reserved":false,"is_disabled":false,"rental_uris":{"android":"levelo://app?vid=5cdc5b4d-77c2-4cf7-9e3a-fabd559424b6","ios":"levelo://app?vid=5cdc5b4d-77c2-4cf7-9e3a-fabd559424b6"},"vehicle_type_id":"4","last_reported":1743664247,"current_range_meters":9200,"station_id":"ce4bhe12rcd13ifvqf30","pricing_plan_id":"cebpf4jnsgd1na2vs0mg"},{"bike_id":"915a352d-4bee-44a6-acdd-d714f3d678fb","system_id":"levelo_inurba_marseille","lat":43.27497,"lon":5.42451,"is_reserved":false,"is_disabled":false,"rental_uris":{"android":"levelo://app?vid=915a352d-4bee-44a6-acdd-d714f3d678fb","ios":"levelo://app?vid=915a352d-4bee-44a6-acdd-d714f3d678fb"},"vehicle_type_id":"4","last_reported":1743664247,"current_range_meters":9200,"station_id":"ce4bhn92rcd13ifvqgrg","pricing_plan_id":"cebpf4jnsgd1na2vs0mg"},{"bike_id":"c2e6881a-04a3-4a38-9cc0-75cacf165e78","system_id":"levelo_inurba_marseille","lat":43.28832,"lon":5.364645,"is_reserved":false,"is_disabled":false,"rental_uris":{"android":"levelo://app?vid=c2e6881a-04a3-4a38-9cc0-75cacf165e78","ios":"levelo://app?vid=c2e6881a-04a3-4a38-9cc0-75cacf165e78"},"vehicle_type_id":"4","last_reported":1743664247,"current_range_meters":9200,"station_id":"","pricing_plan_id":"cebpf4jnsgd1na2vs0mg"},{"bike_id":"673a6ab9-9d13-4da0-bd76-910db3009573","system_id":"levelo_inurba_marseille","lat":43.23149,"lon":5.43714,"is_reserved":false,"is_disabled":false,"rental_uris":{"android":"levelo://app?vid=673a6ab9-9d13-4da0-bd76-910db3009573","ios":"levelo://app?vid=673a6ab9-9d13-4da0-bd76-910db3009573"},"vehicle_type_id":"4","last_reported":1743664247,"current_range_meters":9200,"station_id":"ce4bhmp2rcd13ifvqgog","pricing_plan_id":"cebpf4jnsgd1na2vs0mg"},{"bike_id":"75d539a7-27d8-4b69-a620-5911b9e2046e","system_id":"levelo_inurba_marseille","lat":43.28698,"lon":5.37963,"is_reserved":false,"is_disabled":false,"rental_uris":{"android":"levelo://app?vid=75d539a7-27d8-4b69-a620-5911b9e2046e","ios":"levelo://app?vid=75d539a7-27d8-4b69-a620-5911b9e2046e"},"vehicle_type_id":"4","last_reported":1743664247,"current_range_meters":9200,"station_id":"ce4bh9p2rcd13ifvqec0","pricing_plan_id":"cebpf4jnsgd1na2vs0mg"},{"bike_id":"cf1e53ae-b855-4ff1-83cf-4764ba2133f9","system_id":"levelo_inurba_marseille","lat":43.288606,"lon":5.358329,"is_reserved":false,"is_disabled":false,"rental_uris":{"android":"levelo://app?vid=cf1e53ae-b855-4ff1-83cf-4764ba2133f9","ios":"levelo://app?vid=cf1e53ae-b855-4ff1-83cf-4764ba2133f9"},"vehicle_type_id":"4","last_reported":1743664247,"current_range_meters":9200,"station_id":"ce4bhb12rcd13ifvqem0","pricing_plan_id":"cebpf4jnsgd1na2vs0mg"},{"bike_id":"b5fa61b4-55c0-4d0f-b518-f0583e71aca3","system_id":"levelo_inurba_marseille","lat":43.22924,"lon":5.354,"is_reserved":false,"is_disabled":false,"rental_uris":{"android":"levelo://app?vid=b5fa61b4-55c0-4d0f-b518-f0583e71aca3","ios":"levelo://app?vid=b5fa61b4-55c0-4d0f-b518-f0583e71aca3"},"vehicle_type_id":"4","last_reported":1743664247,"current_range_meters":9200,"station_id":"cpo3532slgdg3j2ikp40","pricing_plan_id":"cebpf4jnsgd1na2vs0mg"},{"bike_id":"e1b03b21-5eb0-483c-b4ac-ea8a29304382","system_id":"levelo_inurba_marseille","lat":43.23076,"lon":5.35491,"is_reserved":false,"is_disabled":false,"rental_uris":{"android":"levelo://app?vid=e1b03b21-5eb0-483c-b4ac-ea8a29304382","ios":"levelo://app?vid=e1b03b21-5eb0-483c-b4ac-ea8a29304382"},"vehicle_type_id":"4","last_reported":1743664247,"current_range_meters":9600,"station_id":"cpo3342slgdg3j2ifvpg","pricing_plan_id":"cebpf4jnsgd1na2vs0mg"},{"bike_id":"51a8e66f-1f46-4408-84de-17b74e2734a5","system_id":"levelo_inurba_marseille","lat":43.33553,"lon":5.41011,"is_reserved":false,"is_disabled":false,"rental_uris":{"android":"levelo://app?vid=51a8e66f-1f46-4408-84de-17b74e2734a5","ios":"levelo://app?vid=51a8e66f-1f46-4408-84de-17b74e2734a5"},"vehicle_type_id":"4","last_reported":1743664247,"current_range_meters":9600,"station_id":"","pricing_plan_id":"cebpf4jnsgd1na2vs0mg"},{"bike_id":"8838f0b6-4082-40db-991b-35e4e95058cc","system_id":"levelo_inurba_marseille","lat":43.28034,"lon":5.36948,"is_reserved":false,"is_disabled":false,"rental_uris":{"android":"levelo://app?vid=8838f0b6-4082-40db-991b-35e4e95058cc","ios":"levelo://app?vid=8838f0b6-4082-40db-991b-35e4e95058cc"},"vehicle_type_id":"4","last_reported":1743664247,"current_range_meters":9600,"station_id":"ce4bha12rcd13ifvqef0","pricing_plan_id":"cebpf4jnsgd1na2vs0mg"},{"bike_id":"09a8a7dc-25ab-48a6-ac8b-5ee88a884479","system_id":"levelo_inurba_marseille","lat":43.286109,"lon":5.383748,"is_reserved":false,"is_disabled":false,"rental_uris":{"android":"levelo://app?vid=09a8a7dc-25ab-48a6-ac8b-5ee88a884479","ios":"levelo://app?vid=09a8a7dc-25ab-48a6-ac8b-5ee88a884479"},"vehicle_type_id":"4","last_reported":1743664247,"current_range_meters":9600,"station_id":"","pricing_plan_id":"cebpf4jnsgd1na2vs0mg"},{"bike_id":"aa8142aa-a396-422e-9b64-21608fabf1eb","system_id":"levelo_inurba_marseille","lat":43.30285,"lon":5.378095,"is_reserved":false,"is_disabled":false,"rental_uris":{"android":"levelo://app?vid=aa8142aa-a396-422e-9b64-21608fabf1eb","ios":"levelo://app?vid=aa8142aa-a396-422e-9b64-21608fabf1eb"},"vehicle_type_id":"4","last_reported":1743664247,"current_range_meters":9600,"station_id":"ce4bguh2rcd13ifvqcj0","pricing_plan_id":"cebpf4jnsgd1na2vs0mg"},{"bike_id":"160f1b99-f55c-4706-9f49-8f96058d7754","system_id":"levelo_inurba_marseille","lat":43.30552,"lon":5.36558,"is_reserved":false,"is_disabled":false,"rental_uris":{"android":"levelo://app?vid=160f1b99-f55c-4706-9f49-8f96058d7754","ios":"levelo://app?vid=160f1b99-f55c-4706-9f49-8f96058d7754"},"vehicle_type_id":"4","last_reported":1743664247,"current_range_meters":9600,"station_id":"ce4bgs12rcd13ifvqcag","pricing_plan_id":"cebpf4jnsgd1na2vs0mg"},{"bike_id":"f6bd48ca-490c-403f-ba54-859cabc59f02","system_id":"levelo_inurba_marseille","lat":43.29917,"lon":5.37474,"is_reserved":false,"is_disabled":false,"rental_uris":{"android":"levelo://app?vid=f6bd48ca-490c-403f-ba54-859cabc59f02","ios":"levelo://app?vid=f6bd48ca-490c-403f-ba54-859cabc59f02"},"vehicle_type_id":"4","last_reported":1743664247,"current_range_meters":10000,"station_id":"ce4bgjh2rcd13ifvqbg0","pricing_plan_id":"cebpf4jnsgd1na2vs0mg"},{"bike_id":"cd83c8ac-ed09-4369-9279-b6f36f2bbd3c","system_id":"levelo_inurba_marseille","lat":43.30836,"lon":5.38265,"is_reserved":false,"is_disabled":false,"rental_uris":{"android":"levelo://app?vid=cd83c8ac-ed09-4369-9279-b6f36f2bbd3c","ios":"levelo://app?vid=cd83c8ac-ed09-4369-9279-b6f36f2bbd3c"},"vehicle_type_id":"4","last_reported":1743664247,"current_range_meters":10000,"station_id":"","pricing_plan_id":"cebpf4jnsgd1na2vs0mg"},{"bike_id":"aa4ae5bb-9ec9-4369-b901-81b857165e76","system_id":"levelo_inurba_marseille","lat":43.26687,"lon":5.38271,"is_reserved":false,"is_disabled":false,"rental_uris":{"android":"levelo://app?vid=aa4ae5bb-9ec9-4369-b901-81b857165e76","ios":"levelo://app?vid=aa4ae5bb-9ec9-4369-b901-81b857165e76"},"vehicle_type_id":"4","last_reported":1743664247,"current_range_meters":9600,"station_id":"ce4bhg92rcd13ifvqf90","pricing_plan_id":"cebpf4jnsgd1na2vs0mg"},{"bike_id":"f9942b38-4b85-41d1-a828-e68229a2d475","system_id":"levelo_inurba_marseille","lat":43.26681,"lon":5.38271,"is_reserved":false,"is_disabled":false,"rental_uris":{"android":"levelo://app?vid=f9942b38-4b85-41d1-a828-e68229a2d475","ios":"levelo://app?vid=f9942b38-4b85-41d1-a828-e68229a2d475"},"vehicle_type_id":"4","last_reported":1743664247,"current_range_meters":10000,"station_id":"ce4bhg92rcd13ifvqf90","pricing_plan_id":"cebpf4jnsgd1na2vs0mg"},{"bike_id":"7d49898d-4c6e-4131-9fdb-37de62f2c79c","system_id":"levelo_inurba_marseille","lat":43.28896,"lon":5.371276,"is_reserved":false,"is_disabled":false,"rental_uris":{"android":"levelo://app?vid=7d49898d-4c6e-4131-9fdb-37de62f2c79c","ios":"levelo://app?vid=7d49898d-4c6e-4131-9fdb-37de62f2c79c"},"vehicle_type_id":"4","last_reported":1743664247,"current_range_meters":10000,"station_id":"","pricing_plan_id":"cebpf4jnsgd1na2vs0mg"},{"bike_id":"3ae58bbb-27fe-4f66-93aa-3ec0b1b4782c","system_id":"levelo_inurba_marseille","lat":43.24079,"lon":5.37762,"is_reserved":false,"is_disabled":false,"rental_uris":{"android":"levelo://app?vid=3ae58bbb-27fe-4f66-93aa-3ec0b1b4782c","ios":"levelo://app?vid=3ae58bbb-27fe-4f66-93aa-3ec0b1b4782c"},"vehicle_type_id":"4","last_reported":1743664247,"current_range_meters":10000,"station_id":"ce4bhnp2rcd13ifvqgvg","pricing_plan_id":"cebpf4jnsgd1na2vs0mg"},{"bike_id":"a8f68bb3-93d5-4e8f-b698-b0cf332cdff9","system_id":"levelo_inurba_marseille","lat":43.23155,"lon":5.43701,"is_reserved":false,"is_disabled":false,"rental_uris":{"android":"levelo://app?vid=a8f68bb3-93d5-4e8f-b698-b0cf332cdff9","ios":"levelo://app?vid=a8f68bb3-93d5-4e8f-b698-b0cf332cdff9"},"vehicle_type_id":"4","last_reported":1743664247,"current_range_meters":10000,"station_id":"ce4bhmp2rcd13ifvqgog","pricing_plan_id":"cebpf4jnsgd1na2vs0mg"},{"bike_id":"6c89c935-a855-49de-94cc-301a02501094","system_id":"levelo_inurba_marseille","lat":43.3014,"lon":5.37422,"is_reserved":false,"is_disabled":false,"rental_uris":{"android":"levelo://app?vid=6c89c935-a855-49de-94cc-301a02501094","ios":"levelo://app?vid=6c89c935-a855-49de-94cc-301a02501094"},"vehicle_type_id":"4","last_reported":1743664247,"current_range_meters":10000,"station_id":"ce4bgs92rcd13ifvqcc0","pricing_plan_id":"cebpf4jnsgd1na2vs0mg"},{"bike_id":"6431e841-e00a-404e-b090-47c22f915e50","system_id":"levelo_inurba_marseille","lat":43.29306,"lon":5.37463,"is_reserved":false,"is_disabled":false,"rental_uris":{"android":"levelo://app?vid=6431e841-e00a-404e-b090-47c22f915e50","ios":"levelo://app?vid=6431e841-e00a-404e-b090-47c22f915e50"},"vehicle_type_id":"4","last_reported":1743664247,"current_range_meters":10000,"station_id":"ce4bgi12rcd13ifvqb70","pricing_plan_id":"cebpf4jnsgd1na2vs0mg"},{"bike_id":"2b463b3b-f883-4bc5-a159-fd7879b36106","system_id":"levelo_inurba_marseille","lat":43.27432,"lon":5.39411,"is_reserved":false,"is_disabled":false,"rental_uris":{"android":"levelo://app?vid=2b463b3b-f883-4bc5-a159-fd7879b36106","ios":"levelo://app?vid=2b463b3b-f883-4bc5-a159-fd7879b36106"},"vehicle_type_id":"4","last_reported":1743664247,"current_range_meters":10800,"station_id":"ce4bhdp2rcd13ifvqf20","pricing_plan_id":"cebpf4jnsgd1na2vs0mg"},{"bike_id":"9ada3385-2eea-446a-95da-f8740519d0e3","system_id":"levelo_inurba_marseille","lat":43.24082,"lon":5.37758,"is_reserved":false,"is_disabled":false,"rental_uris":{"android":"levelo://app?vid=9ada3385-2eea-446a-95da-f8740519d0e3","ios":"levelo://app?vid=9ada3385-2eea-446a-95da-f8740519d0e3"},"vehicle_type_id":"4","last_reported":1743664247,"current_range_meters":10800,"station_id":"ce4bhnp2rcd13ifvqgvg","pricing_plan_id":"cebpf4jnsgd1na2vs0mg"},{"bike_id":"1c89932c-db4d-4345-9571-d5eb72e47a40","system_id":"levelo_inurba_marseille","lat":43.30462,"lon":5.37896,"is_reserved":false,"is_disabled":true,"rental_uris":{"android":"levelo://app?vid=1c89932c-db4d-4345-9571-d5eb72e47a40","ios":"levelo://app?vid=1c89932c-db4d-4345-9571-d5eb72e47a40"},"vehicle_type_id":"4","last_reported":1743664247,"current_range_meters":10800,"station_id":"ce4bgup2rcd13ifvqcn0","pricing_plan_id":"cebpf4jnsgd1na2vs0mg"},{"bike_id":"43705df6-dad5-49b0-ba8b-f4f32b11172b","system_id":"levelo_inurba_marseille","lat":43.28712,"lon":5.37941,"is_reserved":false,"is_disabled":false,"rental_uris":{"android":"levelo://app?vid=43705df6-dad5-49b0-ba8b-f4f32b11172b","ios":"levelo://app?vid=43705df6-dad5-49b0-ba8b-f4f32b11172b"},"vehicle_type_id":"4","last_reported":1743664247,"current_range_meters":10800,"station_id":"ce4bh9p2rcd13ifvqec0","pricing_plan_id":"cebpf4jnsgd1na2vs0mg"},{"bike_id":"96358b86-edd6-47bd-8cdc-7d4ebef66ea1","system_id":"levelo_inurba_marseille","lat":43.27062,"lon":5.42274,"is_reserved":false,"is_disabled":false,"rental_uris":{"android":"levelo://app?vid=96358b86-edd6-47bd-8cdc-7d4ebef66ea1","ios":"levelo://app?vid=96358b86-edd6-47bd-8cdc-7d4ebef66ea1"},"vehicle_type_id":"4","last_reported":1743664247,"current_range_meters":10800,"station_id":"ce4bhk92rcd13ifvqgb0","pricing_plan_id":"cebpf4jnsgd1na2vs0mg"},{"bike_id":"7d7de050-70ab-45f2-be31-2003f264a8b2","system_id":"levelo_inurba_marseille","lat":43.284779,"lon":5.385766,"is_reserved":false,"is_disabled":false,"rental_uris":{"android":"levelo://app?vid=7d7de050-70ab-45f2-be31-2003f264a8b2","ios":"levelo://app?vid=7d7de050-70ab-45f2-be31-2003f264a8b2"},"vehicle_type_id":"4","last_reported":1743664247,"current_range_meters":11200,"station_id":"ce4bh8p2rcd13ifvqeb0","pricing_plan_id":"cebpf4jnsgd1na2vs0mg"},{"bike_id":"2e0c5330-7281-4f9f-b8a6-0ea7b5e8b6a3","system_id":"levelo_inurba_marseille","lat":43.27676,"lon":5.38868,"is_reserved":false,"is_disabled":false,"rental_uris":{"android":"levelo://app?vid=2e0c5330-7281-4f9f-b8a6-0ea7b5e8b6a3","ios":"levelo://app?vid=2e0c5330-7281-4f9f-b8a6-0ea7b5e8b6a3"},"vehicle_type_id":"4","last_reported":1743664247,"current_range_meters":11200,"station_id":"ce4bhi12rcd13ifvqfo0","pricing_plan_id":"cebpf4jnsgd1na2vs0mg"},{"bike_id":"99301fc0-a3c3-4395-9adf-b646740cffda","system_id":"levelo_inurba_marseille","lat":43.25927,"lon":5.40914,"is_reserved":false,"is_disabled":false,"rental_uris":{"android":"levelo://app?vid=99301fc0-a3c3-4395-9adf-b646740cffda","ios":"levelo://app?vid=99301fc0-a3c3-4395-9adf-b646740cffda"},"vehicle_type_id":"4","last_reported":1743664247,"current_range_meters":11200,"station_id":"ce4bhm92rcd13ifvqglg","pricing_plan_id":"cebpf4jnsgd1na2vs0mg"},{"bike_id":"b4a3508c-11be-4b6b-87d6-fdd1390e7d88","system_id":"levelo_inurba_marseille","lat":43.31458,"lon":5.37064,"is_reserved":false,"is_disabled":false,"rental_uris":{"android":"levelo://app?vid=b4a3508c-11be-4b6b-87d6-fdd1390e7d88","ios":"levelo://app?vid=b4a3508c-11be-4b6b-87d6-fdd1390e7d88"},"vehicle_type_id":"4","last_reported":1743664247,"current_range_meters":11200,"station_id":"","pricing_plan_id":"cebpf4jnsgd1na2vs0mg"},{"bike_id":"2635283e-ffd4-4c1f-b9e8-1b146ac4c8cc","system_id":"levelo_inurba_marseille","lat":43.30222,"lon":5.41933,"is_reserved":false,"is_disabled":false,"rental_uris":{"android":"levelo://app?vid=2635283e-ffd4-4c1f-b9e8-1b146ac4c8cc","ios":"levelo://app?vid=2635283e-ffd4-4c1f-b9e8-1b146ac4c8cc"},"vehicle_type_id":"4","last_reported":1743664247,"current_range_meters":11200,"station_id":"","pricing_plan_id":"cebpf4jnsgd1na2vs0mg"},{"bike_id":"8f86bb90-b294-4048-b2fb-c228dc101b21","system_id":"levelo_inurba_marseille","lat":43.31353,"lon":5.36719,"is_reserved":false,"is_disabled":false,"rental_uris":{"android":"levelo://app?vid=8f86bb90-b294-4048-b2fb-c228dc101b21","ios":"levelo://app?vid=8f86bb90-b294-4048-b2fb-c228dc101b21"},"vehicle_type_id":"4","last_reported":1743664247,"current_range_meters":11200,"station_id":"ce4bgr92rcd13ifvqc6g","pricing_plan_id":"cebpf4jnsgd1na2vs0mg"},{"bike_id":"22bcfedc-fd1a-42ef-b4ce-f8cb0c81bc99","system_id":"levelo_inurba_marseille","lat":43.30122,"lon":5.38792,"is_reserved":false,"is_disabled":true,"rental_uris":{"android":"levelo://app?vid=22bcfedc-fd1a-42ef-b4ce-f8cb0c81bc99","ios":"levelo://app?vid=22bcfedc-fd1a-42ef-b4ce-f8cb0c81bc99"},"vehicle_type_id":"4","last_reported":1743664247,"current_range_meters":11200,"station_id":"ce4bghh2rcd13ifvqb60","pricing_plan_id":"cebpf4jnsgd1na2vs0mg"},{"bike_id":"6996a9d0-22de-44a9-8ee4-cdb21830d0cc","system_id":"levelo_inurba_marseille","lat":43.270947,"lon":5.391948,"is_reserved":false,"is_disabled":false,"rental_uris":{"android":"levelo://app?vid=6996a9d0-22de-44a9-8ee4-cdb21830d0cc","ios":"levelo://app?vid=6996a9d0-22de-44a9-8ee4-cdb21830d0cc"},"vehicle_type_id":"4","last_reported":1743664247,"current_range_meters":11200,"station_id":"ce4bhh12rcd13ifvqfg0","pricing_plan_id":"cebpf4jnsgd1na2vs0mg"},{"bike_id":"bb2bc6ac-25ed-46d3-8995-42268e209b1b","system_id":"levelo_inurba_marseille","lat":43.29698,"lon":5.37695,"is_reserved":false,"is_disabled":false,"rental_uris":{"android":"levelo://app?vid=bb2bc6ac-25ed-46d3-8995-42268e209b1b","ios":"levelo://app?vid=bb2bc6ac-25ed-46d3-8995-42268e209b1b"},"vehicle_type_id":"4","last_reported":1743664247,"current_range_meters":11600,"station_id":"ce4bgkh2rcd13ifvqbl0","pricing_plan_id":"cebpf4jnsgd1na2vs0mg"},{"bike_id":"2b7563bf-72ce-4546-bdfe-0681f54925e9","system_id":"levelo_inurba_marseille","lat":43.29246,"lon":5.38453,"is_reserved":false,"is_disabled":true,"rental_uris":{"android":"levelo://app?vid=2b7563bf-72ce-4546-bdfe-0681f54925e9","ios":"levelo://app?vid=2b7563bf-72ce-4546-bdfe-0681f54925e9"},"vehicle_type_id":"4","last_reported":1743664247,"current_range_meters":11600,"station_id":"ce4bh692rcd13ifvqea0","pricing_plan_id":"cebpf4jnsgd1na2vs0mg"},{"bike_id":"e6f02e74-383c-4bae-b8c4-037430863270","system_id":"levelo_inurba_marseille","lat":43.23064,"lon":5.35495,"is_reserved":false,"is_disabled":false,"rental_uris":{"android":"levelo://app?vid=e6f02e74-383c-4bae-b8c4-037430863270","ios":"levelo://app?vid=e6f02e74-383c-4bae-b8c4-037430863270"},"vehicle_type_id":"4","last_reported":1743664247,"current_range_meters":11600,"station_id":"cpo3342slgdg3j2ifvpg","pricing_plan_id":"cebpf4jnsgd1na2vs0mg"},{"bike_id":"c13336a2-47ce-488c-b5b6-77c01a3ac1d1","system_id":"levelo_inurba_marseille","lat":43.31891,"lon":5.40748,"is_reserved":false,"is_disabled":true,"rental_uris":{"android":"levelo://app?vid=c13336a2-47ce-488c-b5b6-77c01a3ac1d1","ios":"levelo://app?vid=c13336a2-47ce-488c-b5b6-77c01a3ac1d1"},"vehicle_type_id":"4","last_reported":1743664247,"current_range_meters":11600,"station_id":"ce4bhq12rcd13ifvqhig","pricing_plan_id":"cebpf4jnsgd1na2vs0mg"},{"bike_id":"70e5b39f-29e3-4ea9-aa83-5a60a8eec6f8","system_id":"levelo_inurba_marseille","lat":43.25042,"lon":5.41721,"is_reserved":false,"is_disabled":false,"rental_uris":{"android":"levelo://app?vid=70e5b39f-29e3-4ea9-aa83-5a60a8eec6f8","ios":"levelo://app?vid=70e5b39f-29e3-4ea9-aa83-5a60a8eec6f8"},"vehicle_type_id":"4","last_reported":1743664247,"current_range_meters":11600,"station_id":"","pricing_plan_id":"cebpf4jnsgd1na2vs0mg"},{"bike_id":"b61a33fe-6372-4bd4-9589-3bc407f2f2e1","system_id":"levelo_inurba_marseille","lat":43.29302,"lon":5.37445,"is_reserved":false,"is_disabled":false,"rental_uris":{"android":"levelo://app?vid=b61a33fe-6372-4bd4-9589-3bc407f2f2e1","ios":"levelo://app?vid=b61a33fe-6372-4bd4-9589-3bc407f2f2e1"},"vehicle_type_id":"4","last_reported":1743664247,"current_range_meters":11600,"station_id":"","pricing_plan_id":"cebpf4jnsgd1na2vs0mg"},{"bike_id":"a0832530-2cf9-4f19-a63d-c5be278c0831","system_id":"levelo_inurba_marseille","lat":43.33606,"lon":5.41042,"is_reserved":false,"is_disabled":false,"rental_uris":{"android":"levelo://app?vid=a0832530-2cf9-4f19-a63d-c5be278c0831","ios":"levelo://app?vid=a0832530-2cf9-4f19-a63d-c5be278c0831"},"vehicle_type_id":"4","last_reported":1743664247,"current_range_meters":11600,"station_id":"ce4bhqh2rcd13ifvqhmg","pricing_plan_id":"cebpf4jnsgd1na2vs0mg"},{"bike_id":"f643681e-8235-4c37-9c4a-1e80de4494c0","system_id":"levelo_inurba_marseille","lat":43.30899,"lon":5.36846,"is_reserved":false,"is_disabled":false,"rental_uris":{"android":"levelo://app?vid=f643681e-8235-4c37-9c4a-1e80de4494c0","ios":"levelo://app?vid=f643681e-8235-4c37-9c4a-1e80de4494c0"},"vehicle_type_id":"4","last_reported":1743664247,"current_range_meters":12000,"station_id":"ce4bgn92rcd13ifvqbvg","pricing_plan_id":"cebpf4jnsgd1na2vs0mg"},{"bike_id":"5fbb555d-4760-498f-b46b-31b0db21280b","system_id":"levelo_inurba_marseille","lat":43.2512,"lon":5.40328,"is_reserved":false,"is_disabled":false,"rental_uris":{"android":"levelo://app?vid=5fbb555d-4760-498f-b46b-31b0db21280b","ios":"levelo://app?vid=5fbb555d-4760-498f-b46b-31b0db21280b"},"vehicle_type_id":"4","last_reported":1743664247,"current_range_meters":11600,"station_id":"ce4bhlh2rcd13ifvqgig","pricing_plan_id":"cebpf4jnsgd1na2vs0mg"},{"bike_id":"e3a29d38-a611-4b12-87ef-2fb8a21c41d5","system_id":"levelo_inurba_marseille","lat":43.229186,"lon":5.353874,"is_reserved":false,"is_disabled":false,"rental_uris":{"android":"levelo://app?vid=e3a29d38-a611-4b12-87ef-2fb8a21c41d5","ios":"levelo://app?vid=e3a29d38-a611-4b12-87ef-2fb8a21c41d5"},"vehicle_type_id":"4","last_reported":1743664247,"current_range_meters":12000,"station_id":"cpo3532slgdg3j2ikp40","pricing_plan_id":"cebpf4jnsgd1na2vs0mg"},{"bike_id":"c1c63035-c83b-4419-8cbf-133778d95125","system_id":"levelo_inurba_marseille","lat":43.2981,"lon":5.39358,"is_reserved":false,"is_disabled":true,"rental_uris":{"android":"levelo://app?vid=c1c63035-c83b-4419-8cbf-133778d95125","ios":"levelo://app?vid=c1c63035-c83b-4419-8cbf-133778d95125"},"vehicle_type_id":"4","last_reported":1743664247,"current_range_meters":12000,"station_id":"chh1huq6cuj3fo74tm60","pricing_plan_id":"cebpf4jnsgd1na2vs0mg"},{"bike_id":"e330163d-6cd0-4bfe-b5ae-99fba611728c","system_id":"levelo_inurba_marseille","lat":43.29273,"lon":5.36852,"is_reserved":false,"is_disabled":false,"rental_uris":{"android":"levelo://app?vid=e330163d-6cd0-4bfe-b5ae-99fba611728c","ios":"levelo://app?vid=e330163d-6cd0-4bfe-b5ae-99fba611728c"},"vehicle_type_id":"4","last_reported":1743664247,"current_range_meters":12000,"station_id":"ce4bhbp2rcd13ifvqesg","pricing_plan_id":"cebpf4jnsgd1na2vs0mg"},{"bike_id":"711963ab-e357-472a-8687-e3d5ebc69869","system_id":"levelo_inurba_marseille","lat":43.2894,"lon":5.39629,"is_reserved":false,"is_disabled":false,"rental_uris":{"android":"levelo://app?vid=711963ab-e357-472a-8687-e3d5ebc69869","ios":"levelo://app?vid=711963ab-e357-472a-8687-e3d5ebc69869"},"vehicle_type_id":"4","last_reported":1743664247,"current_range_meters":12000,"station_id":"ce4bh3h2rcd13ifvqdn0","pricing_plan_id":"cebpf4jnsgd1na2vs0mg"},{"bike_id":"f8c62789-a6b7-4539-b99c-e6c73b69ae5e","system_id":"levelo_inurba_marseille","lat":43.30318,"lon":5.40452,"is_reserved":false,"is_disabled":true,"rental_uris":{"android":"levelo://app?vid=f8c62789-a6b7-4539-b99c-e6c73b69ae5e","ios":"levelo://app?vid=f8c62789-a6b7-4539-b99c-e6c73b69ae5e"},"vehicle_type_id":"4","last_reported":1743664247,"current_range_meters":12400,"station_id":"ce4bh012rcd13ifvqd10","pricing_plan_id":"cebpf4jnsgd1na2vs0mg"},{"bike_id":"efddeda7-6eb2-4c14-868d-fa0ce0b35ef3","system_id":"levelo_inurba_marseille","lat":43.31299,"lon":5.38305,"is_reserved":false,"is_disabled":false,"rental_uris":{"android":"levelo://app?vid=efddeda7-6eb2-4c14-868d-fa0ce0b35ef3","ios":"levelo://app?vid=efddeda7-6eb2-4c14-868d-fa0ce0b35ef3"},"vehicle_type_id":"4","last_reported":1743664247,"current_range_meters":12400,"station_id":"","pricing_plan_id":"cebpf4jnsgd1na2vs0mg"},{"bike_id":"56a72aaa-efb7-401f-919a-daa88347a789","system_id":"levelo_inurba_marseille","lat":43.31326,"lon":5.39711,"is_reserved":false,"is_disabled":false,"rental_uris":{"android":"levelo://app?vid=56a72aaa-efb7-401f-919a-daa88347a789","ios":"levelo://app?vid=56a72aaa-efb7-401f-919a-daa88347a789"},"vehicle_type_id":"4","last_reported":1743664247,"current_range_meters":12400,"station_id":"ce4bgvp2rcd13ifvqcu0","pricing_plan_id":"cebpf4jnsgd1na2vs0mg"},{"bike_id":"cc3629cd-0b38-4c41-844e-f89cec5f6593","system_id":"levelo_inurba_marseille","lat":43.30902,"lon":5.36845,"is_reserved":false,"is_disabled":false,"rental_uris":{"android":"levelo://app?vid=cc3629cd-0b38-4c41-844e-f89cec5f6593","ios":"levelo://app?vid=cc3629cd-0b38-4c41-844e-f89cec5f6593"},"vehicle_type_id":"4","last_reported":1743664247,"current_range_meters":12400,"station_id":"ce4bgn92rcd13ifvqbvg","pricing_plan_id":"cebpf4jnsgd1na2vs0mg"},{"bike_id":"db720a25-fd83-4ba2-a028-14a7a80a6a2b","system_id":"levelo_inurba_marseille","lat":43.29836,"lon":5.36268,"is_reserved":false,"is_disabled":false,"rental_uris":{"android":"levelo://app?vid=db720a25-fd83-4ba2-a028-14a7a80a6a2b","ios":"levelo://app?vid=db720a25-fd83-4ba2-a028-14a7a80a6a2b"},"vehicle_type_id":"4","last_reported":1743664247,"current_range_meters":12400,"station_id":"ce4bgpp2rcd13ifvqc3g","pricing_plan_id":"cebpf4jnsgd1na2vs0mg"},{"bike_id":"d1946664-1140-491f-b11d-03c95ed9fdee","system_id":"levelo_inurba_marseille","lat":43.25933,"lon":5.40909,"is_reserved":false,"is_disabled":false,"rental_uris":{"android":"levelo://app?vid=d1946664-1140-491f-b11d-03c95ed9fdee","ios":"levelo://app?vid=d1946664-1140-491f-b11d-03c95ed9fdee"},"vehicle_type_id":"4","last_reported":1743664247,"current_range_meters":12800,"station_id":"ce4bhm92rcd13ifvqglg","pricing_plan_id":"cebpf4jnsgd1na2vs0mg"},{"bike_id":"f419f5a5-d1f3-48f1-bb04-e5a98c012007","system_id":"levelo_inurba_marseille","lat":43.29108,"lon":5.3815,"is_reserved":false,"is_disabled":false,"rental_uris":{"android":"levelo://app?vid=f419f5a5-d1f3-48f1-bb04-e5a98c012007","ios":"levelo://app?vid=f419f5a5-d1f3-48f1-bb04-e5a98c012007"},"vehicle_type_id":"4","last_reported":1743664247,"current_range_meters":12800,"station_id":"ce4bh512rcd13ifvqe2g","pricing_plan_id":"cebpf4jnsgd1na2vs0mg"},{"bike_id":"e3f6e6f2-31c2-43b8-bb45-2cd589210e93","system_id":"levelo_inurba_marseille","lat":43.29916,"lon":5.37462,"is_reserved":false,"is_disabled":false,"rental_uris":{"android":"levelo://app?vid=e3f6e6f2-31c2-43b8-bb45-2cd589210e93","ios":"levelo://app?vid=e3f6e6f2-31c2-43b8-bb45-2cd589210e93"},"vehicle_type_id":"4","last_reported":1743664247,"current_range_meters":12800,"station_id":"ce4bgjh2rcd13ifvqbg0","pricing_plan_id":"cebpf4jnsgd1na2vs0mg"},{"bike_id":"b45f2408-15cc-4e0b-9266-09135399cd5c","system_id":"levelo_inurba_marseille","lat":43.30273,"lon":5.37706,"is_reserved":false,"is_disabled":false,"rental_uris":{"android":"levelo://app?vid=b45f2408-15cc-4e0b-9266-09135399cd5c","ios":"levelo://app?vid=b45f2408-15cc-4e0b-9266-09135399cd5c"},"vehicle_type_id":"4","last_reported":1743664247,"current_range_meters":12800,"station_id":"ce4bguh2rcd13ifvqcj0","pricing_plan_id":"cebpf4jnsgd1na2vs0mg"},{"bike_id":"1bd4c5e9-3479-4a34-bfb9-e556a3bbe8ed","system_id":"levelo_inurba_marseille","lat":43.23065,"lon":5.35518,"is_reserved":false,"is_disabled":false,"rental_uris":{"android":"levelo://app?vid=1bd4c5e9-3479-4a34-bfb9-e556a3bbe8ed","ios":"levelo://app?vid=1bd4c5e9-3479-4a34-bfb9-e556a3bbe8ed"},"vehicle_type_id":"4","last_reported":1743664247,"current_range_meters":12800,"station_id":"cpo3342slgdg3j2ifvpg","pricing_plan_id":"cebpf4jnsgd1na2vs0mg"},{"bike_id":"a31e1065-6dbf-4830-a0bc-9b64c2b847b8","system_id":"levelo_inurba_marseille","lat":43.27057,"lon":5.40259,"is_reserved":false,"is_disabled":false,"rental_uris":{"android":"levelo://app?vid=a31e1065-6dbf-4830-a0bc-9b64c2b847b8","ios":"levelo://app?vid=a31e1065-6dbf-4830-a0bc-9b64c2b847b8"},"vehicle_type_id":"4","last_reported":1743664247,"current_range_meters":12800,"station_id":"ce4bhk92rcd13ifvqgc0","pricing_plan_id":"cebpf4jnsgd1na2vs0mg"},{"bike_id":"005283db-9aca-49eb-ae41-cbf0dc140b6c","system_id":"levelo_inurba_marseille","lat":43.30144,"lon":5.37296,"is_reserved":false,"is_disabled":false,"rental_uris":{"android":"levelo://app?vid=005283db-9aca-49eb-ae41-cbf0dc140b6c","ios":"levelo://app?vid=005283db-9aca-49eb-ae41-cbf0dc140b6c"},"vehicle_type_id":"4","last_reported":1743664247,"current_range_meters":13600,"station_id":"","pricing_plan_id":"cebpf4jnsgd1na2vs0mg"},{"bike_id":"31aa2980-e14e-4650-8a54-b2ea5489646e","system_id":"levelo_inurba_marseille","lat":43.250878,"lon":5.403268,"is_reserved":false,"is_disabled":false,"rental_uris":{"android":"levelo://app?vid=31aa2980-e14e-4650-8a54-b2ea5489646e","ios":"levelo://app?vid=31aa2980-e14e-4650-8a54-b2ea5489646e"},"vehicle_type_id":"4","last_reported":1743664247,"current_range_meters":13600,"station_id":"ce4bhlh2rcd13ifvqgig","pricing_plan_id":"cebpf4jnsgd1na2vs0mg"},{"bike_id":"b4b7958b-bb29-47fd-b20c-09fe5553b367","system_id":"levelo_inurba_marseille","lat":43.29739,"lon":5.3814,"is_reserved":false,"is_disabled":false,"rental_uris":{"android":"levelo://app?vid=b4b7958b-bb29-47fd-b20c-09fe5553b367","ios":"levelo://app?vid=b4b7958b-bb29-47fd-b20c-09fe5553b367"},"vehicle_type_id":"4","last_reported":1743664247,"current_range_meters":13600,"station_id":"ce4bgpp2rcd13ifvqc3g","pricing_plan_id":"cebpf4jnsgd1na2vs0mg"},{"bike_id":"06672b07-330e-431c-bcbe-eb28c04beb47","system_id":"levelo_inurba_marseille","lat":43.29059,"lon":5.40006,"is_reserved":false,"is_disabled":true,"rental_uris":{"android":"levelo://app?vid=06672b07-330e-431c-bcbe-eb28c04beb47","ios":"levelo://app?vid=06672b07-330e-431c-bcbe-eb28c04beb47"},"vehicle_type_id":"4","last_reported":1743664247,"current_range_meters":13600,"station_id":"ce4bh392rcd13ifvqdm0","pricing_plan_id":"cebpf4jnsgd1na2vs0mg"},{"bike_id":"10dba690-16cc-4e3a-8cf1-837f9f6eb283","system_id":"levelo_inurba_marseille","lat":43.30147,"lon":5.37416,"is_reserved":false,"is_disabled":false,"rental_uris":{"android":"levelo://app?vid=10dba690-16cc-4e3a-8cf1-837f9f6eb283","ios":"levelo://app?vid=10dba690-16cc-4e3a-8cf1-837f9f6eb283"},"vehicle_type_id":"4","last_reported":1743664247,"current_range_meters":13600,"station_id":"ce4bgs92rcd13ifvqcc0","pricing_plan_id":"cebpf4jnsgd1na2vs0mg"},{"bike_id":"9b3b2014-2d72-4107-bd82-6d250eb3a244","system_id":"levelo_inurba_marseille","lat":43.310789,"lon":5.383507,"is_reserved":false,"is_disabled":false,"rental_uris":{"android":"levelo://app?vid=9b3b2014-2d72-4107-bd82-6d250eb3a244","ios":"levelo://app?vid=9b3b2014-2d72-4107-bd82-6d250eb3a244"},"vehicle_type_id":"4","last_reported":1743664247,"current_range_meters":13600,"station_id":"ce4bgv92rcd13ifvqcr0","pricing_plan_id":"cebpf4jnsgd1na2vs0mg"},{"bike_id":"8e4581a0-ac48-45f0-8881-72e126b8df71","system_id":"levelo_inurba_marseille","lat":43.3122,"lon":5.36849,"is_reserved":false,"is_disabled":false,"rental_uris":{"android":"levelo://app?vid=8e4581a0-ac48-45f0-8881-72e126b8df71","ios":"levelo://app?vid=8e4581a0-ac48-45f0-8881-72e126b8df71"},"vehicle_type_id":"4","last_reported":1743664247,"current_range_meters":13600,"station_id":"ce4bgl92rcd13ifvqbq0","pricing_plan_id":"cebpf4jnsgd1na2vs0mg"},{"bike_id":"13a24fcc-8048-441c-b975-f73376da5d57","system_id":"levelo_inurba_marseille","lat":43.28719,"lon":5.37937,"is_reserved":false,"is_disabled":false,"rental_uris":{"android":"levelo://app?vid=13a24fcc-8048-441c-b975-f73376da5d57","ios":"levelo://app?vid=13a24fcc-8048-441c-b975-f73376da5d57"},"vehicle_type_id":"4","last_reported":1743664247,"current_range_meters":14000,"station_id":"ce4bh9p2rcd13ifvqec0","pricing_plan_id":"cebpf4jnsgd1na2vs0mg"},{"bike_id":"f88cdea8-f6f7-42dd-8067-42c3c697a2c7","system_id":"levelo_inurba_marseille","lat":43.283,"lon":5.43091,"is_reserved":false,"is_disabled":false,"rental_uris":{"android":"levelo://app?vid=f88cdea8-f6f7-42dd-8067-42c3c697a2c7","ios":"levelo://app?vid=f88cdea8-f6f7-42dd-8067-42c3c697a2c7"},"vehicle_type_id":"4","last_reported":1743664247,"current_range_meters":14000,"station_id":"","pricing_plan_id":"cebpf4jnsgd1na2vs0mg"},{"bike_id":"0aa69f03-0878-4038-837b-a34d05729b70","system_id":"levelo_inurba_marseille","lat":43.305375,"lon":5.367346,"is_reserved":false,"is_disabled":false,"rental_uris":{"android":"levelo://app?vid=0aa69f03-0878-4038-837b-a34d05729b70","ios":"levelo://app?vid=0aa69f03-0878-4038-837b-a34d05729b70"},"vehicle_type_id":"4","last_reported":1743664247,"current_range_meters":13600,"station_id":"ce4bgrp2rcd13ifvqc9g","pricing_plan_id":"cebpf4jnsgd1na2vs0mg"},{"bike_id":"8e2424bb-8c50-4583-b41b-a7e00143b6c2","system_id":"levelo_inurba_marseille","lat":43.23991,"lon":5.37743,"is_reserved":false,"is_disabled":false,"rental_uris":{"android":"levelo://app?vid=8e2424bb-8c50-4583-b41b-a7e00143b6c2","ios":"levelo://app?vid=8e2424bb-8c50-4583-b41b-a7e00143b6c2"},"vehicle_type_id":"4","last_reported":1743664247,"current_range_meters":14000,"station_id":"","pricing_plan_id":"cebpf4jnsgd1na2vs0mg"},{"bike_id":"2f755ed7-02ae-4465-a223-ac013586f7c9","system_id":"levelo_inurba_marseille","lat":43.33568,"lon":5.40978,"is_reserved":false,"is_disabled":false,"rental_uris":{"android":"levelo://app?vid=2f755ed7-02ae-4465-a223-ac013586f7c9","ios":"levelo://app?vid=2f755ed7-02ae-4465-a223-ac013586f7c9"},"vehicle_type_id":"4","last_reported":1743664247,"current_range_meters":14000,"station_id":"ce4bhqh2rcd13ifvqhmg","pricing_plan_id":"cebpf4jnsgd1na2vs0mg"},{"bike_id":"c23f91d8-e1fc-443f-b2db-4725b19e2cc9","system_id":"levelo_inurba_marseille","lat":43.30948,"lon":5.39026,"is_reserved":false,"is_disabled":false,"rental_uris":{"android":"levelo://app?vid=c23f91d8-e1fc-443f-b2db-4725b19e2cc9","ios":"levelo://app?vid=c23f91d8-e1fc-443f-b2db-4725b19e2cc9"},"vehicle_type_id":"4","last_reported":1743664247,"current_range_meters":14000,"station_id":"ce4bgup2rcd13ifvqco0","pricing_plan_id":"cebpf4jnsgd1na2vs0mg"},{"bike_id":"a6c1a4d5-d420-40e3-8359-eb7fa21fc083","system_id":"levelo_inurba_marseille","lat":43.26193,"lon":5.37449,"is_reserved":false,"is_disabled":false,"rental_uris":{"android":"levelo://app?vid=a6c1a4d5-d420-40e3-8359-eb7fa21fc083","ios":"levelo://app?vid=a6c1a4d5-d420-40e3-8359-eb7fa21fc083"},"vehicle_type_id":"4","last_reported":1743664247,"current_range_meters":14000,"station_id":"ce4bhgp2rcd13ifvqfc0","pricing_plan_id":"cebpf4jnsgd1na2vs0mg"},{"bike_id":"22b8702c-0dfe-451a-841a-e968657038a3","system_id":"levelo_inurba_marseille","lat":43.32465,"lon":5.366,"is_reserved":false,"is_disabled":false,"rental_uris":{"android":"levelo://app?vid=22b8702c-0dfe-451a-841a-e968657038a3","ios":"levelo://app?vid=22b8702c-0dfe-451a-841a-e968657038a3"},"vehicle_type_id":"4","last_reported":1743664247,"current_range_meters":14400,"station_id":"ce4bhs12rcd13ifvqhvg","pricing_plan_id":"cebpf4jnsgd1na2vs0mg"},{"bike_id":"0843bf61-b48a-4b0a-9222-5b3b1b0edbc3","system_id":"levelo_inurba_marseille","lat":43.3123,"lon":5.36872,"is_reserved":false,"is_disabled":false,"rental_uris":{"android":"levelo://app?vid=0843bf61-b48a-4b0a-9222-5b3b1b0edbc3","ios":"levelo://app?vid=0843bf61-b48a-4b0a-9222-5b3b1b0edbc3"},"vehicle_type_id":"4","last_reported":1743664247,"current_range_meters":14400,"station_id":"ce4bgl92rcd13ifvqbq0","pricing_plan_id":"cebpf4jnsgd1na2vs0mg"},{"bike_id":"6a460605-a1a5-4a46-a586-c3b768b3064f","system_id":"levelo_inurba_marseille","lat":43.27502,"lon":5.42461,"is_reserved":false,"is_disabled":false,"rental_uris":{"android":"levelo://app?vid=6a460605-a1a5-4a46-a586-c3b768b3064f","ios":"levelo://app?vid=6a460605-a1a5-4a46-a586-c3b768b3064f"},"vehicle_type_id":"4","last_reported":1743664247,"current_range_meters":14400,"station_id":"ce4bhn92rcd13ifvqgrg","pricing_plan_id":"cebpf4jnsgd1na2vs0mg"},{"bike_id":"841946bd-6940-4794-9af4-41cbe287891a","system_id":"levelo_inurba_marseille","lat":43.27369,"lon":5.36248,"is_reserved":false,"is_disabled":false,"rental_uris":{"android":"levelo://app?vid=841946bd-6940-4794-9af4-41cbe287891a","ios":"levelo://app?vid=841946bd-6940-4794-9af4-41cbe287891a"},"vehicle_type_id":"4","last_reported":1743664247,"current_range_meters":14400,"station_id":"ce4bhbh2rcd13ifvqeo0","pricing_plan_id":"cebpf4jnsgd1na2vs0mg"},{"bike_id":"63139285-137c-4e8d-8e95-6c2a275f8333","system_id":"levelo_inurba_marseille","lat":43.32084,"lon":5.36779,"is_reserved":false,"is_disabled":false,"rental_uris":{"android":"levelo://app?vid=63139285-137c-4e8d-8e95-6c2a275f8333","ios":"levelo://app?vid=63139285-137c-4e8d-8e95-6c2a275f8333"},"vehicle_type_id":"4","last_reported":1743664247,"current_range_meters":14400,"station_id":"ce4bhrh2rcd13ifvqhug","pricing_plan_id":"cebpf4jnsgd1na2vs0mg"},{"bike_id":"0c0ab0e3-d180-45ea-97f7-41ed3ffa42d1","system_id":"levelo_inurba_marseille","lat":43.23181,"lon":5.39991,"is_reserved":false,"is_disabled":false,"rental_uris":{"android":"levelo://app?vid=0c0ab0e3-d180-45ea-97f7-41ed3ffa42d1","ios":"levelo://app?vid=0c0ab0e3-d180-45ea-97f7-41ed3ffa42d1"},"vehicle_type_id":"4","last_reported":1743664247,"current_range_meters":14800,"station_id":"ce4bhn12rcd13ifvqgqg","pricing_plan_id":"cebpf4jnsgd1na2vs0mg"},{"bike_id":"45abd613-3fdd-4392-89f9-b954db16ce90","system_id":"levelo_inurba_marseille","lat":43.2593,"lon":5.40908,"is_reserved":false,"is_disabled":false,"rental_uris":{"android":"levelo://app?vid=45abd613-3fdd-4392-89f9-b954db16ce90","ios":"levelo://app?vid=45abd613-3fdd-4392-89f9-b954db16ce90"},"vehicle_type_id":"4","last_reported":1743664247,"current_range_meters":14800,"station_id":"ce4bhm92rcd13ifvqglg","pricing_plan_id":"cebpf4jnsgd1na2vs0mg"},{"bike_id":"f1e5f20d-e5bb-4349-9a72-f7ab8a004414","system_id":"levelo_inurba_marseille","lat":43.30314,"lon":5.40446,"is_reserved":false,"is_disabled":true,"rental_uris":{"android":"levelo://app?vid=f1e5f20d-e5bb-4349-9a72-f7ab8a004414","ios":"levelo://app?vid=f1e5f20d-e5bb-4349-9a72-f7ab8a004414"},"vehicle_type_id":"4","last_reported":1743664247,"current_range_meters":14800,"station_id":"ce4bh012rcd13ifvqd10","pricing_plan_id":"cebpf4jnsgd1na2vs0mg"},{"bike_id":"5f46717b-05d1-4f34-a220-8087932d755b","system_id":"levelo_inurba_marseille","lat":43.30123,"lon":5.36958,"is_reserved":false,"is_disabled":false,"rental_uris":{"android":"levelo://app?vid=5f46717b-05d1-4f34-a220-8087932d755b","ios":"levelo://app?vid=5f46717b-05d1-4f34-a220-8087932d755b"},"vehicle_type_id":"4","last_reported":1743664247,"current_range_meters":14800,"station_id":"","pricing_plan_id":"cebpf4jnsgd1na2vs0mg"},{"bike_id":"4dc2e017-2338-4c8e-8c49-115d78626747","system_id":"levelo_inurba_marseille","lat":43.30744,"lon":5.42466,"is_reserved":false,"is_disabled":false,"rental_uris":{"android":"levelo://app?vid=4dc2e017-2338-4c8e-8c49-115d78626747","ios":"levelo://app?vid=4dc2e017-2338-4c8e-8c49-115d78626747"},"vehicle_type_id":"4","last_reported":1743664247,"current_range_meters":14800,"station_id":"st_cvj6ca6bvosntc0bfgr0","pricing_plan_id":"cebpf4jnsgd1na2vs0mg"},{"bike_id":"7f7c87e7-a9a6-4c07-9446-85f1b5f7525b","system_id":"levelo_inurba_marseille","lat":43.27298,"lon":5.39116,"is_reserved":false,"is_disabled":false,"rental_uris":{"android":"levelo://app?vid=7f7c87e7-a9a6-4c07-9446-85f1b5f7525b","ios":"levelo://app?vid=7f7c87e7-a9a6-4c07-9446-85f1b5f7525b"},"vehicle_type_id":"4","last_reported":1743664247,"current_range_meters":15200,"station_id":"ce4bhgp2rcd13ifvqfe0","pricing_plan_id":"cebpf4jnsgd1na2vs0mg"},{"bike_id":"e82bc24b-9cdc-495b-a5d4-b8706dc4f90c","system_id":"levelo_inurba_marseille","lat":43.31353,"lon":5.36721,"is_reserved":false,"is_disabled":false,"rental_uris":{"android":"levelo://app?vid=e82bc24b-9cdc-495b-a5d4-b8706dc4f90c","ios":"levelo://app?vid=e82bc24b-9cdc-495b-a5d4-b8706dc4f90c"},"vehicle_type_id":"4","last_reported":1743664247,"current_range_meters":15200,"station_id":"ce4bgr92rcd13ifvqc6g","pricing_plan_id":"cebpf4jnsgd1na2vs0mg"},{"bike_id":"93cbb798-f822-4f3d-aae2-19ec45d0ddc0","system_id":"levelo_inurba_marseille","lat":43.322764,"lon":5.382706,"is_reserved":false,"is_disabled":false,"rental_uris":{"android":"levelo://app?vid=93cbb798-f822-4f3d-aae2-19ec45d0ddc0","ios":"levelo://app?vid=93cbb798-f822-4f3d-aae2-19ec45d0ddc0"},"vehicle_type_id":"4","last_reported":1743664247,"current_range_meters":15200,"station_id":"ce4bhr12rcd13ifvqhqg","pricing_plan_id":"cebpf4jnsgd1na2vs0mg"},{"bike_id":"d81c816e-5991-473f-a308-770a24deedde","system_id":"levelo_inurba_marseille","lat":43.31361,"lon":5.36719,"is_reserved":false,"is_disabled":true,"rental_uris":{"android":"levelo://app?vid=d81c816e-5991-473f-a308-770a24deedde","ios":"levelo://app?vid=d81c816e-5991-473f-a308-770a24deedde"},"vehicle_type_id":"4","last_reported":1743664247,"current_range_meters":15200,"station_id":"ce4bgr92rcd13ifvqc6g","pricing_plan_id":"cebpf4jnsgd1na2vs0mg"},{"bike_id":"639a96a3-0003-45fd-b4c6-1a8b9975d9c4","system_id":"levelo_inurba_marseille","lat":43.25935,"lon":5.40907,"is_reserved":false,"is_disabled":false,"rental_uris":{"android":"levelo://app?vid=639a96a3-0003-45fd-b4c6-1a8b9975d9c4","ios":"levelo://app?vid=639a96a3-0003-45fd-b4c6-1a8b9975d9c4"},"vehicle_type_id":"4","last_reported":1743664247,"current_range_meters":15200,"station_id":"ce4bhm92rcd13ifvqglg","pricing_plan_id":"cebpf4jnsgd1na2vs0mg"},{"bike_id":"73b2bf2e-db18-423d-99aa-e14b0f6bf2a0","system_id":"levelo_inurba_marseille","lat":43.28733,"lon":5.37939,"is_reserved":false,"is_disabled":false,"rental_uris":{"android":"levelo://app?vid=73b2bf2e-db18-423d-99aa-e14b0f6bf2a0","ios":"levelo://app?vid=73b2bf2e-db18-423d-99aa-e14b0f6bf2a0"},"vehicle_type_id":"4","last_reported":1743664247,"current_range_meters":15200,"station_id":"ce4bh9p2rcd13ifvqec0","pricing_plan_id":"cebpf4jnsgd1na2vs0mg"},{"bike_id":"a6303451-5b45-435c-bf0e-748f94cc010d","system_id":"levelo_inurba_marseille","lat":43.23192,"lon":5.35586,"is_reserved":false,"is_disabled":false,"rental_uris":{"android":"levelo://app?vid=a6303451-5b45-435c-bf0e-748f94cc010d","ios":"levelo://app?vid=a6303451-5b45-435c-bf0e-748f94cc010d"},"vehicle_type_id":"4","last_reported":1743664247,"current_range_meters":15200,"station_id":"ce4bhu92rcd13ifvqi70","pricing_plan_id":"cebpf4jnsgd1na2vs0mg"},{"bike_id":"716e1e90-3704-42ec-ad57-269832cd7156","system_id":"levelo_inurba_marseille","lat":43.28957,"lon":5.36455,"is_reserved":false,"is_disabled":false,"rental_uris":{"android":"levelo://app?vid=716e1e90-3704-42ec-ad57-269832cd7156","ios":"levelo://app?vid=716e1e90-3704-42ec-ad57-269832cd7156"},"vehicle_type_id":"4","last_reported":1743664247,"current_range_meters":15200,"station_id":"ce4bhc92rcd13ifvqetg","pricing_plan_id":"cebpf4jnsgd1na2vs0mg"},{"bike_id":"f1332bd1-168a-43da-98f3-161cfec9c012","system_id":"levelo_inurba_marseille","lat":43.30326,"lon":5.39226,"is_reserved":false,"is_disabled":false,"rental_uris":{"android":"levelo://app?vid=f1332bd1-168a-43da-98f3-161cfec9c012","ios":"levelo://app?vid=f1332bd1-168a-43da-98f3-161cfec9c012"},"vehicle_type_id":"4","last_reported":1743664247,"current_range_meters":15200,"station_id":"ce4bgkh2rcd13ifvqbk0","pricing_plan_id":"cebpf4jnsgd1na2vs0mg"},{"bike_id":"38a27e80-f76f-4390-95cf-935bc6ba1991","system_id":"levelo_inurba_marseille","lat":43.28495,"lon":5.38418,"is_reserved":false,"is_disabled":false,"rental_uris":{"android":"levelo://app?vid=38a27e80-f76f-4390-95cf-935bc6ba1991","ios":"levelo://app?vid=38a27e80-f76f-4390-95cf-935bc6ba1991"},"vehicle_type_id":"4","last_reported":1743664247,"current_range_meters":15200,"station_id":"ce4bh512rcd13ifvqe3g","pricing_plan_id":"cebpf4jnsgd1na2vs0mg"},{"bike_id":"01c2cdfd-f407-4ca2-8fe9-0ff1298e3416","system_id":"levelo_inurba_marseille","lat":43.31228,"lon":5.36865,"is_reserved":false,"is_disabled":false,"rental_uris":{"android":"levelo://app?vid=01c2cdfd-f407-4ca2-8fe9-0ff1298e3416","ios":"levelo://app?vid=01c2cdfd-f407-4ca2-8fe9-0ff1298e3416"},"vehicle_type_id":"4","last_reported":1743664247,"current_range_meters":15200,"station_id":"ce4bgl92rcd13ifvqbq0","pricing_plan_id":"cebpf4jnsgd1na2vs0mg"},{"bike_id":"0da307f0-a737-4f3f-8786-4dd451d57e79","system_id":"levelo_inurba_marseille","lat":43.30825,"lon":5.36777,"is_reserved":false,"is_disabled":false,"rental_uris":{"android":"levelo://app?vid=0da307f0-a737-4f3f-8786-4dd451d57e79","ios":"levelo://app?vid=0da307f0-a737-4f3f-8786-4dd451d57e79"},"vehicle_type_id":"4","last_reported":1743664247,"current_range_meters":16000,"station_id":"","pricing_plan_id":"cebpf4jnsgd1na2vs0mg"},{"bike_id":"f5fb006d-13a5-487d-9648-e0d6ddc976d8","system_id":"levelo_inurba_marseille","lat":43.26954,"lon":5.38631,"is_reserved":false,"is_disabled":false,"rental_uris":{"android":"levelo://app?vid=f5fb006d-13a5-487d-9648-e0d6ddc976d8","ios":"levelo://app?vid=f5fb006d-13a5-487d-9648-e0d6ddc976d8"},"vehicle_type_id":"4","last_reported":1743664247,"current_range_meters":16000,"station_id":"ce4bhh92rcd13ifvqfh0","pricing_plan_id":"cebpf4jnsgd1na2vs0mg"},{"bike_id":"b8b4d2ea-e78e-4040-b56f-5c5b6b33148a","system_id":"levelo_inurba_marseille","lat":43.23963,"lon":5.36628,"is_reserved":false,"is_disabled":false,"rental_uris":{"android":"levelo://app?vid=b8b4d2ea-e78e-4040-b56f-5c5b6b33148a","ios":"levelo://app?vid=b8b4d2ea-e78e-4040-b56f-5c5b6b33148a"},"vehicle_type_id":"4","last_reported":1743664247,"current_range_meters":16000,"station_id":"ce4bhi12rcd13ifvqfp0","pricing_plan_id":"cebpf4jnsgd1na2vs0mg"},{"bike_id":"1c98b99c-34fc-4e0b-a00c-d64c82ae3564","system_id":"levelo_inurba_marseille","lat":43.30537,"lon":5.36556,"is_reserved":false,"is_disabled":false,"rental_uris":{"android":"levelo://app?vid=1c98b99c-34fc-4e0b-a00c-d64c82ae3564","ios":"levelo://app?vid=1c98b99c-34fc-4e0b-a00c-d64c82ae3564"},"vehicle_type_id":"4","last_reported":1743664247,"current_range_meters":16000,"station_id":"ce4bgs12rcd13ifvqcag","pricing_plan_id":"cebpf4jnsgd1na2vs0mg"},{"bike_id":"6e4450d2-63d5-42e6-9e6c-a13cc13a07e9","system_id":"levelo_inurba_marseille","lat":43.24179,"lon":5.39729,"is_reserved":false,"is_disabled":false,"rental_uris":{"android":"levelo://app?vid=6e4450d2-63d5-42e6-9e6c-a13cc13a07e9","ios":"levelo://app?vid=6e4450d2-63d5-42e6-9e6c-a13cc13a07e9"},"vehicle_type_id":"4","last_reported":1743664247,"current_range_meters":16000,"station_id":"ce4bhn12rcd13ifvqgpg","pricing_plan_id":"cebpf4jnsgd1na2vs0mg"},{"bike_id":"faf10aa9-ad81-475d-b0d2-0b8adadcb4ef","system_id":"levelo_inurba_marseille","lat":43.252572,"lon":5.376094,"is_reserved":false,"is_disabled":false,"rental_uris":{"android":"levelo://app?vid=faf10aa9-ad81-475d-b0d2-0b8adadcb4ef","ios":"levelo://app?vid=faf10aa9-ad81-475d-b0d2-0b8adadcb4ef"},"vehicle_type_id":"4","last_reported":1743664247,"current_range_meters":16000,"station_id":"ce4bhi12rcd13ifvqfp0","pricing_plan_id":"cebpf4jnsgd1na2vs0mg"},{"bike_id":"e9947125-e4b1-4977-bee9-fb031515997e","system_id":"levelo_inurba_marseille","lat":43.24557,"lon":5.3957,"is_reserved":false,"is_disabled":false,"rental_uris":{"android":"levelo://app?vid=e9947125-e4b1-4977-bee9-fb031515997e","ios":"levelo://app?vid=e9947125-e4b1-4977-bee9-fb031515997e"},"vehicle_type_id":"4","last_reported":1743664247,"current_range_meters":16000,"station_id":"","pricing_plan_id":"cebpf4jnsgd1na2vs0mg"},{"bike_id":"4c6c26e9-c2c0-42ca-bbad-340608c64a5a","system_id":"levelo_inurba_marseille","lat":43.31336,"lon":5.36725,"is_reserved":false,"is_disabled":false,"rental_uris":{"android":"levelo://app?vid=4c6c26e9-c2c0-42ca-bbad-340608c64a5a","ios":"levelo://app?vid=4c6c26e9-c2c0-42ca-bbad-340608c64a5a"},"vehicle_type_id":"4","last_reported":1743664247,"current_range_meters":16000,"station_id":"ce4bgr92rcd13ifvqc6g","pricing_plan_id":"cebpf4jnsgd1na2vs0mg"},{"bike_id":"81c4db0e-2cf8-444e-959f-a608cf084239","system_id":"levelo_inurba_marseille","lat":43.307975,"lon":5.366446,"is_reserved":false,"is_disabled":false,"rental_uris":{"android":"levelo://app?vid=81c4db0e-2cf8-444e-959f-a608cf084239","ios":"levelo://app?vid=81c4db0e-2cf8-444e-959f-a608cf084239"},"vehicle_type_id":"4","last_reported":1743664247,"current_range_meters":16000,"station_id":"ce4bgr92rcd13ifvqc6g","pricing_plan_id":"cebpf4jnsgd1na2vs0mg"},{"bike_id":"25e5cff3-9250-4cbb-8945-0693ba66ed7d","system_id":"levelo_inurba_marseille","lat":43.29943,"lon":5.36551,"is_reserved":false,"is_disabled":false,"rental_uris":{"android":"levelo://app?vid=25e5cff3-9250-4cbb-8945-0693ba66ed7d","ios":"levelo://app?vid=25e5cff3-9250-4cbb-8945-0693ba66ed7d"},"vehicle_type_id":"4","last_reported":1743664247,"current_range_meters":16400,"station_id":"ce4bgm92rcd13ifvqbr0","pricing_plan_id":"cebpf4jnsgd1na2vs0mg"},{"bike_id":"9d7b4579-2f49-4625-9d98-42fe0dd225fc","system_id":"levelo_inurba_marseille","lat":43.30184,"lon":5.4193,"is_reserved":false,"is_disabled":false,"rental_uris":{"android":"levelo://app?vid=9d7b4579-2f49-4625-9d98-42fe0dd225fc","ios":"levelo://app?vid=9d7b4579-2f49-4625-9d98-42fe0dd225fc"},"vehicle_type_id":"4","last_reported":1743664247,"current_range_meters":16400,"station_id":"","pricing_plan_id":"cebpf4jnsgd1na2vs0mg"},{"bike_id":"4518a972-00d3-482f-9c17-91f410acf9f0","system_id":"levelo_inurba_marseille","lat":43.30894,"lon":5.37208,"is_reserved":false,"is_disabled":false,"rental_uris":{"android":"levelo://app?vid=4518a972-00d3-482f-9c17-91f410acf9f0","ios":"levelo://app?vid=4518a972-00d3-482f-9c17-91f410acf9f0"},"vehicle_type_id":"4","last_reported":1743664247,"current_range_meters":16400,"station_id":"ce4bguh2rcd13ifvqckg","pricing_plan_id":"cebpf4jnsgd1na2vs0mg"},{"bike_id":"f7933b9f-d69d-4478-8f0f-9719ff49ac5f","system_id":"levelo_inurba_marseille","lat":43.26253,"lon":5.42128,"is_reserved":false,"is_disabled":false,"rental_uris":{"android":"levelo://app?vid=f7933b9f-d69d-4478-8f0f-9719ff49ac5f","ios":"levelo://app?vid=f7933b9f-d69d-4478-8f0f-9719ff49ac5f"},"vehicle_type_id":"4","last_reported":1743664247,"current_range_meters":16400,"station_id":"","pricing_plan_id":"cebpf4jnsgd1na2vs0mg"},{"bike_id":"57ed477b-5a20-4d2a-b64d-9b3e1012ea65","system_id":"levelo_inurba_marseille","lat":43.28939,"lon":5.39638,"is_reserved":false,"is_disabled":false,"rental_uris":{"android":"levelo://app?vid=57ed477b-5a20-4d2a-b64d-9b3e1012ea65","ios":"levelo://app?vid=57ed477b-5a20-4d2a-b64d-9b3e1012ea65"},"vehicle_type_id":"4","last_reported":1743664247,"current_range_meters":16400,"station_id":"ce4bh3h2rcd13ifvqdn0","pricing_plan_id":"cebpf4jnsgd1na2vs0mg"},{"bike_id":"65c86302-8ef0-46f4-ab6e-bac7149a2865","system_id":"levelo_inurba_marseille","lat":43.32112,"lon":5.36781,"is_reserved":false,"is_disabled":false,"rental_uris":{"android":"levelo://app?vid=65c86302-8ef0-46f4-ab6e-bac7149a2865","ios":"levelo://app?vid=65c86302-8ef0-46f4-ab6e-bac7149a2865"},"vehicle_type_id":"4","last_reported":1743664247,"current_range_meters":16400,"station_id":"ce4bhrh2rcd13ifvqhug","pricing_plan_id":"cebpf4jnsgd1na2vs0mg"},{"bike_id":"8259a860-1538-45ee-b3d8-f4b46b26eafa","system_id":"levelo_inurba_marseille","lat":43.23156,"lon":5.43739,"is_reserved":false,"is_disabled":false,"rental_uris":{"android":"levelo://app?vid=8259a860-1538-45ee-b3d8-f4b46b26eafa","ios":"levelo://app?vid=8259a860-1538-45ee-b3d8-f4b46b26eafa"},"vehicle_type_id":"4","last_reported":1743664247,"current_range_meters":16400,"station_id":"ce4bhmp2rcd13ifvqgog","pricing_plan_id":"cebpf4jnsgd1na2vs0mg"},{"bike_id":"6f0b2285-ecad-46fa-be6a-007f4eae2b71","system_id":"levelo_inurba_marseille","lat":43.24076,"lon":5.37765,"is_reserved":false,"is_disabled":false,"rental_uris":{"android":"levelo://app?vid=6f0b2285-ecad-46fa-be6a-007f4eae2b71","ios":"levelo://app?vid=6f0b2285-ecad-46fa-be6a-007f4eae2b71"},"vehicle_type_id":"4","last_reported":1743664247,"current_range_meters":16800,"station_id":"ce4bhnp2rcd13ifvqgvg","pricing_plan_id":"cebpf4jnsgd1na2vs0mg"},{"bike_id":"414a8a4d-0dbc-43bc-b3de-6b50dfd8f45a","system_id":"levelo_inurba_marseille","lat":43.309,"lon":5.36842,"is_reserved":false,"is_disabled":false,"rental_uris":{"android":"levelo://app?vid=414a8a4d-0dbc-43bc-b3de-6b50dfd8f45a","ios":"levelo://app?vid=414a8a4d-0dbc-43bc-b3de-6b50dfd8f45a"},"vehicle_type_id":"4","last_reported":1743664247,"current_range_meters":16800,"station_id":"ce4bgn92rcd13ifvqbvg","pricing_plan_id":"cebpf4jnsgd1na2vs0mg"},{"bike_id":"11b4cfb3-f050-4609-bf5a-8f0b078f8eb2","system_id":"levelo_inurba_marseille","lat":43.2955,"lon":5.42303,"is_reserved":false,"is_disabled":false,"rental_uris":{"android":"levelo://app?vid=11b4cfb3-f050-4609-bf5a-8f0b078f8eb2","ios":"levelo://app?vid=11b4cfb3-f050-4609-bf5a-8f0b078f8eb2"},"vehicle_type_id":"4","last_reported":1743664247,"current_range_meters":16800,"station_id":"ce4bhph2rcd13ifvqhdg","pricing_plan_id":"cebpf4jnsgd1na2vs0mg"},{"bike_id":"105e98cd-a98a-4daf-a9df-78e469bd932b","system_id":"levelo_inurba_marseille","lat":43.3248,"lon":5.36572,"is_reserved":false,"is_disabled":true,"rental_uris":{"android":"levelo://app?vid=105e98cd-a98a-4daf-a9df-78e469bd932b","ios":"levelo://app?vid=105e98cd-a98a-4daf-a9df-78e469bd932b"},"vehicle_type_id":"4","last_reported":1743664247,"current_range_meters":16800,"station_id":"ce4bhs12rcd13ifvqhvg","pricing_plan_id":"cebpf4jnsgd1na2vs0mg"},{"bike_id":"b91ef664-fb19-4b37-b4f9-64a02888e8e9","system_id":"levelo_inurba_marseille","lat":43.230604,"lon":5.35491,"is_reserved":false,"is_disabled":true,"rental_uris":{"android":"levelo://app?vid=b91ef664-fb19-4b37-b4f9-64a02888e8e9","ios":"levelo://app?vid=b91ef664-fb19-4b37-b4f9-64a02888e8e9"},"vehicle_type_id":"4","last_reported":1743664247,"current_range_meters":16800,"station_id":"cpo3342slgdg3j2ifvpg","pricing_plan_id":"cebpf4jnsgd1na2vs0mg"},{"bike_id":"0ce365e9-190c-4da1-97d4-bbc095d5dcc2","system_id":"levelo_inurba_marseille","lat":43.31321,"lon":5.36671,"is_reserved":false,"is_disabled":false,"rental_uris":{"android":"levelo://app?vid=0ce365e9-190c-4da1-97d4-bbc095d5dcc2","ios":"levelo://app?vid=0ce365e9-190c-4da1-97d4-bbc095d5dcc2"},"vehicle_type_id":"4","last_reported":1743664247,"current_range_meters":16800,"station_id":"ce4bgr92rcd13ifvqc6g","pricing_plan_id":"cebpf4jnsgd1na2vs0mg"},{"bike_id":"7bc35aa7-0894-4939-b0b1-3c33e432c446","system_id":"levelo_inurba_marseille","lat":43.32272,"lon":5.38817,"is_reserved":false,"is_disabled":false,"rental_uris":{"android":"levelo://app?vid=7bc35aa7-0894-4939-b0b1-3c33e432c446","ios":"levelo://app?vid=7bc35aa7-0894-4939-b0b1-3c33e432c446"},"vehicle_type_id":"4","last_reported":1743664247,"current_range_meters":16800,"station_id":"","pricing_plan_id":"cebpf4jnsgd1na2vs0mg"},{"bike_id":"8188e868-abba-428e-9878-efa1643e2aeb","system_id":"levelo_inurba_marseille","lat":43.24385,"lon":5.37059,"is_reserved":false,"is_disabled":false,"rental_uris":{"android":"levelo://app?vid=8188e868-abba-428e-9878-efa1643e2aeb","ios":"levelo://app?vid=8188e868-abba-428e-9878-efa1643e2aeb"},"vehicle_type_id":"4","last_reported":1743664247,"current_range_meters":16800,"station_id":"ce4bhhh2rcd13ifvqfk0","pricing_plan_id":"cebpf4jnsgd1na2vs0mg"},{"bike_id":"dcb844d7-0299-4861-813c-aa91eb67efa8","system_id":"levelo_inurba_marseille","lat":43.24075,"lon":5.37734,"is_reserved":false,"is_disabled":false,"rental_uris":{"android":"levelo://app?vid=dcb844d7-0299-4861-813c-aa91eb67efa8","ios":"levelo://app?vid=dcb844d7-0299-4861-813c-aa91eb67efa8"},"vehicle_type_id":"4","last_reported":1743664247,"current_range_meters":16800,"station_id":"ce4bhnp2rcd13ifvqgvg","pricing_plan_id":"cebpf4jnsgd1na2vs0mg"},{"bike_id":"e6b69cd2-f965-4a12-9e02-6f28a269f9f9","system_id":"levelo_inurba_marseille","lat":43.23054,"lon":5.35492,"is_reserved":false,"is_disabled":false,"rental_uris":{"android":"levelo://app?vid=e6b69cd2-f965-4a12-9e02-6f28a269f9f9","ios":"levelo://app?vid=e6b69cd2-f965-4a12-9e02-6f28a269f9f9"},"vehicle_type_id":"4","last_reported":1743664247,"current_range_meters":17200,"station_id":"cpo3342slgdg3j2ifvpg","pricing_plan_id":"cebpf4jnsgd1na2vs0mg"},{"bike_id":"6a304e84-8a11-4c01-b207-12564d6e4360","system_id":"levelo_inurba_marseille","lat":43.33596,"lon":5.41026,"is_reserved":false,"is_disabled":false,"rental_uris":{"android":"levelo://app?vid=6a304e84-8a11-4c01-b207-12564d6e4360","ios":"levelo://app?vid=6a304e84-8a11-4c01-b207-12564d6e4360"},"vehicle_type_id":"4","last_reported":1743664247,"current_range_meters":16800,"station_id":"ce4bhqh2rcd13ifvqhmg","pricing_plan_id":"cebpf4jnsgd1na2vs0mg"},