{"last_updated":1722089258,"ttl":30,"version":"2.2","data":{"bikes":[{"bike_id":"28362b32-72fa-4421-a858-f06ed4902616","system_id":"levelo_inurba_marseille","lat":43.312239,"lon":5.368562,"is_reserved":false,"is_disabled":false,"rental_uris":{"android":"levelo://app?vid=28362b32-72fa-4421-a858-f06ed4902616","ios":"levelo://app?vid=28362b32-72fa-4421-a858-f06ed4902616"},"vehicle_type_id":"4","last_reported":1722089259,"current_range_meters":20800,"station_id":"ce4bgl92rcd13ifvqbq0","pricing_plan_id":"cebpf4jnsgd1na2vs0mg"},{"bike_id":"26a5f360-cd39-4f6b-9007-a69f9846363d","system_id":"levelo_inurba_marseille","lat":43.312239,"lon":5.368562,"is_reserved":false,"is_disabled":false,"rental_uris":{"android":"levelo://app?vid=26a5f360-cd39-4f6b-9007-a69f9846363d","ios":"levelo://app?vid=26a5f360-cd39-4f6b-9007-a69f9846363d"},"vehicle_type_id":"4","last_reported":1722089259,"current_range_meters":10000,"station_id":"ce4bgl92rcd13ifvqbq0","pricing_plan_id":"cebpf4jnsgd1na2vs0mg"},{"bike_id":"fa279ac7-db49-4e76-b3c2-99988d52fb9f","system_id":"levelo_inurba_marseille","lat":43.312239,"lon":5.368562,"is_reserved":false,"is_disabled":false,"rental_uris":{"android":"levelo://app?vid=fa279ac7-db49-4e76-b3c2-99988d52fb9f","ios":"levelo://app?vid=fa279ac7-db49-4e76-b3c2-99988d52fb9f"},"vehicle_type_id":"4","last_reported":1722089259,"current_range_meters":23200,"station_id":"ce4bgl92rcd13ifvqbq0","pricing_plan_id":"cebpf4jnsgd1na2vs0mg"},{"bike_id":"bd49eaa7-6072-4aea-a36d-c372fe6e08db","system_id":"levelo_inurba_marseille","lat":43.312239,"lon":5.368562,"is_reserved":false,"is_disabled":false,"rental_uris":{"android":"levelo://app?vid=bd49eaa7-6072-4aea-a36d-c372fe6e08db","ios":"levelo://app?vid=bd49eaa7-6072-4aea-a36d-c372fe6e08db"},"vehicle_type_id":"4","last_reported":1722089259,"current_range_meters":0,"station_id":"ce4bgl92rcd13ifvqbq0","pricing_plan_id":"cebpf4jnsgd1na2vs0mg"},{"bike_id":"11a10c25-5f00-4485-8c05-eaeb258c56d6","system_id":"levelo_inurba_marseille","lat":43.312239,"lon":5.368562,"is_reserved":false,"is_disabled":false,"rental_uris":{"android":"levelo://app?vid=11a10c25-5f00-4485-8c05-eaeb258c56d6","ios":"levelo://app?vid=11a10c25-5f00-4485-8c05-eaeb258c56d6"},"vehicle_type_id":"4","last_reported":1722089259,"current_range_meters":25600,"station_id":"ce4bgl92rcd13ifvqbq0","pricing_plan_id":"cebpf4jnsgd1na2vs0mg"},{"bike_id":"70b147dd-4dee-45ec-b1a6-7eca4050b185","system_id":"levelo_inurba_marseille","lat":43.314983,"lon":5.368481,"is_reserved":false,"is_disabled":false,"rental_uris":{"android":"levelo://app?vid=70b147dd-4dee-45ec-b1a6-7eca4050b185","ios":"levelo://app?vid=70b147dd-4dee-45ec-b1a6-7eca4050b185"},"vehicle_type_id":"4","last_reported":1722089259,"current_range_meters":10400,"station_id":"","pricing_plan_id":"cebpf4jnsgd1na2vs0mg"},{"bike_id":"da0c2d3d-9912-405f-b2e3-c9af0329b2e8","system_id":"levelo_inurba_marseille","lat":43.314811,"lon":5.373103,"is_reserved":false,"is_disabled":false,"rental_uris":{"android":"levelo://app?vid=da0c2d3d-9912-405f-b2e3-c9af0329b2e8","ios":"levelo://app?vid=da0c2d3d-9912-405f-b2e3-c9af0329b2e8"},"vehicle_type_id":"4","last_reported":1722089259,"current_range_meters":1200,"station_id":"ce4bgt12rcd13ifvqcd0","pricing_plan_id":"cebpf4jnsgd1na2vs0mg"},{"bike_id":"c9e9f8a6-05d6-4a33-9752-8803cf01351e","system_id":"levelo_inurba_marseille","lat":43.309039,"lon":5.371797,"is_reserved":false,"is_disabled":false,"rental_uris":{"android":"levelo://app?vid=c9e9f8a6-05d6-4a33-9752-8803cf01351e","ios":"levelo://app?vid=c9e9f8a6-05d6-4a33-9752-8803cf01351e"},"vehicle_type_id":"4","last_reported":1722089259,"current_range_meters":25600,"station_id":"ce4bguh2rcd13ifvqckg","pricing_plan_id":"cebpf4jnsgd1na2vs0mg"},{"bike_id":"99fc6748-4775-4aa4-a53a-ded0c0bcbba9","system_id":"levelo_inurba_marseille","lat":43.31543,"lon":5.373127,"is_reserved":false,"is_disabled":false,"rental_uris":{"android":"levelo://app?vid=99fc6748-4775-4aa4-a53a-ded0c0bcbba9","ios":"levelo://app?vid=99fc6748-4775-4aa4-a53a-ded0c0bcbba9"},"vehicle_type_id":"4","last_reported":1722089259,"current_range_meters":8400,"station_id":"","pricing_plan_id":"cebpf4jnsgd1na2vs0mg"},{"bike_id":"1ef70904-19f5-42a7-a1bd-fa2d73cdcab5","system_id":"levelo_inurba_marseille","lat":43.316747,"lon":5.374761,"is_reserved":false,"is_disabled":false,"rental_uris":{"android":"levelo://app?vid=1ef70904-19f5-42a7-a1bd-fa2d73cdcab5","ios":"levelo://app?vid=1ef70904-19f5-42a7-a1bd-fa2d73cdcab5"},"vehicle_type_id":"4","last_reported":1722089259,"current_range_meters":0,"station_id":"","pricing_plan_id":"cebpf4jnsgd1na2vs0mg"},{"bike_id":"ec0460b6-4d92-4930-8ffc-081a4bc29baf","system_id":"levelo_inurba_marseille","lat":43.305714,"lon":5.365633,"is_reserved":false,"is_disabled":false,"rental_uris":{"android":"levelo://app?vid=ec0460b6-4d92-4930-8ffc-081a4bc29baf","ios":"levelo://app?vid=ec0460b6-4d92-4930-8ffc-081a4bc29baf"},"vehicle_type_id":"4","last_reported":1722089259,"current_range_meters":0,"station_id":"ce4bgs12rcd13ifvqcag","pricing_plan_id":"cebpf4jnsgd1na2vs0mg"},{"bike_id":"0c507310-97cd-4e94-a14a-2b8c9b3e0204","system_id":"levelo_inurba_marseille","lat":43.305368,"lon":5.367343,"is_reserved":false,"is_disabled":false,"rental_uris":{"android":"levelo://app?vid=0c507310-97cd-4e94-a14a-2b8c9b3e0204","ios":"levelo://app?vid=0c507310-97cd-4e94-a14a-2b8c9b3e0204"},"vehicle_type_id":"4","last_reported":1722089259,"current_range_meters":20000,"station_id":"ce4bgrp2rcd13ifvqc9g","pricing_plan_id":"cebpf4jnsgd1na2vs0mg"},{"bike_id":"bf22ed83-f196-4fc1-af5b-39294e6fd031","system_id":"levelo_inurba_marseille","lat":43.317075,"lon":5.377367,"is_reserved":false,"is_disabled":false,"rental_uris":{"android":"levelo://app?vid=bf22ed83-f196-4fc1-af5b-39294e6fd031","ios":"levelo://app?vid=bf22ed83-f196-4fc1-af5b-39294e6fd031"},"vehicle_type_id":"4","last_reported":1722089259,"current_range_meters":17200,"station_id":"ce4bgth2rcd13ifvqch0","pricing_plan_id":"cebpf4jnsgd1na2vs0mg"},{"bike_id":"85e60dfd-f81a-45d4-b6a0-1f882fd09ec6","system_id":"levelo_inurba_marseille","lat":43.31706,"lon":5.37751,"is_reserved":false,"is_disabled":false,"rental_uris":{"android":"levelo://app?vid=85e60dfd-f81a-45d4-b6a0-1f882fd09ec6","ios":"levelo://app?vid=85e60dfd-f81a-45d4-b6a0-1f882fd09ec6"},"vehicle_type_id":"4","last_reported":1722089259,"current_range_meters":5600,"station_id":"ce4bgth2rcd13ifvqch0","pricing_plan_id":"cebpf4jnsgd1na2vs0mg"},{"bike_id":"934f0b97-8586-4dd8-956b-22b9aa2d83bd","system_id":"levelo_inurba_marseille","lat":43.315289,"lon":5.380349,"is_reserved":false,"is_disabled":false,"rental_uris":{"android":"levelo://app?vid=934f0b97-8586-4dd8-956b-22b9aa2d83bd","ios":"levelo://app?vid=934f0b97-8586-4dd8-956b-22b9aa2d83bd"},"vehicle_type_id":"4","last_reported":1722089259,"current_range_meters":26800,"station_id":"ce4bhsp2rcd13ifvqi50","pricing_plan_id":"cebpf4jnsgd1na2vs0mg"},{"bike_id":"e1576ded-b366-46de-aa33-87e0e77c0d45","system_id":"levelo_inurba_marseille","lat":43.315289,"lon":5.380349,"is_reserved":false,"is_disabled":false,"rental_uris":{"android":"levelo://app?vid=e1576ded-b366-46de-aa33-87e0e77c0d45","ios":"levelo://app?vid=e1576ded-b366-46de-aa33-87e0e77c0d45"},"vehicle_type_id":"4","last_reported":1722089259,"current_range_meters":10000,"station_id":"ce4bhsp2rcd13ifvqi50","pricing_plan_id":"cebpf4jnsgd1na2vs0mg"},{"bike_id":"bd0c1b71-6303-4eb8-988a-a377c376b5d6","system_id":"levelo_inurba_marseille","lat":43.315289,"lon":5.380349,"is_reserved":false,"is_disabled":false,"rental_uris":{"android":"levelo://app?vid=bd0c1b71-6303-4eb8-988a-a377c376b5d6","ios":"levelo://app?vid=bd0c1b71-6303-4eb8-988a-a377c376b5d6"},"vehicle_type_id":"4","last_reported":1722089259,"current_range_meters":23600,"station_id":"ce4bhsp2rcd13ifvqi50","pricing_plan_id":"cebpf4jnsgd1na2vs0mg"},{"bike_id":"b5abd685-417f-4836-add0-416e7e2a3854","system_id":"levelo_inurba_marseille","lat":43.315289,"lon":5.380349,"is_reserved":false,"is_disabled":false,"rental_uris":{"android":"levelo://app?vid=b5abd685-417f-4836-add0-416e7e2a3854","ios":"levelo://app?vid=b5abd685-417f-4836-add0-416e7e2a3854"},"vehicle_type_id":"4","last_reported":1722089259,"current_range_meters":5600,"station_id":"ce4bhsp2rcd13ifvqi50","pricing_plan_id":"cebpf4jnsgd1na2vs0mg"},{"bike_id":"a53ca99e-965b-443f-a2f7-3ef412ee5c84","system_id":"levelo_inurba_marseille","lat":43.315345,"lon":5.38031,"is_reserved":false,"is_disabled":false,"rental_uris":{"android":"levelo://app?vid=a53ca99e-965b-443f-a2f7-3ef412ee5c84","ios":"levelo://app?vid=a53ca99e-965b-443f-a2f7-3ef412ee5c84"},"vehicle_type_id":"4","last_reported":1722089259,"current_range_meters":29600,"station_id":"ce4bhsp2rcd13ifvqi50","pricing_plan_id":"cebpf4jnsgd1na2vs0mg"},{"bike_id":"45c14a0e-0546-448a-8ab2-cf9dd6f9275e","system_id":"levelo_inurba_marseille","lat":43.31535,"lon":5.38032,"is_reserved":false,"is_disabled":false,"rental_uris":{"android":"levelo://app?vid=45c14a0e-0546-448a-8ab2-cf9dd6f9275e","ios":"levelo://app?vid=45c14a0e-0546-448a-8ab2-cf9dd6f9275e"},"vehicle_type_id":"4","last_reported":1722089259,"current_range_meters":28400,"station_id":"ce4bhsp2rcd13ifvqi50","pricing_plan_id":"cebpf4jnsgd1na2vs0mg"},{"bike_id":"67c509a1-43af-470c-968c-68a461c7d31c","system_id":"levelo_inurba_marseille","lat":43.31535,"lon":5.38034,"is_reserved":false,"is_disabled":false,"rental_uris":{"android":"levelo://app?vid=67c509a1-43af-470c-968c-68a461c7d31c","ios":"levelo://app?vid=67c509a1-43af-470c-968c-68a461c7d31c"},"vehicle_type_id":"4","last_reported":1722089259,"current_range_meters":29600,"station_id":"ce4bhsp2rcd13ifvqi50","pricing_plan_id":"cebpf4jnsgd1na2vs0mg"},{"bike_id":"86a28410-184b-4744-877b-6ae2b25c4f4b","system_id":"levelo_inurba_marseille","lat":43.315289,"lon":5.380349,"is_reserved":false,"is_disabled":false,"rental_uris":{"android":"levelo://app?vid=86a28410-184b-4744-877b-6ae2b25c4f4b","ios":"levelo://app?vid=86a28410-184b-4744-877b-6ae2b25c4f4b"},"vehicle_type_id":"4","last_reported":1722089259,"current_range_meters":24000,"station_id":"ce4bhsp2rcd13ifvqi50","pricing_plan_id":"cebpf4jnsgd1na2vs0mg"},{"bike_id":"817e62d3-5e2f-4ae3-acfd-41fa207a84fe","system_id":"levelo_inurba_marseille","lat":43.315289,"lon":5.380349,"is_reserved":false,"is_disabled":false,"rental_uris":{"android":"levelo://app?vid=817e62d3-5e2f-4ae3-acfd-41fa207a84fe","ios":"levelo://app?vid=817e62d3-5e2f-4ae3-acfd-41fa207a84fe"},"vehicle_type_id":"4","last_reported":1722089259,"current_range_meters":17200,"station_id":"ce4bhsp2rcd13ifvqi50","pricing_plan_id":"cebpf4jnsgd1na2vs0mg"},{"bike_id":"6af5bede-4847-4220-8a37-2d21db808eb5","system_id":"levelo_inurba_marseille","lat":43.301939,"lon":5.366286,"is_reserved":false,"is_disabled":false,"rental_uris":{"android":"levelo://app?vid=6af5bede-4847-4220-8a37-2d21db808eb5","ios":"levelo://app?vid=6af5bede-4847-4220-8a37-2d21db808eb5"},"vehicle_type_id":"4","last_reported":1722089259,"current_range_meters":14800,"station_id":"ce4bgrh2rcd13ifvqc8g","pricing_plan_id":"cebpf4jnsgd1na2vs0mg"},{"bike_id":"33499b9a-4468-4d2a-9302-d9435251028e","system_id":"levelo_inurba_marseille","lat":43.324771,"lon":5.36557,"is_reserved":false,"is_disabled":false,"rental_uris":{"android":"levelo://app?vid=33499b9a-4468-4d2a-9302-d9435251028e","ios":"levelo://app?vid=33499b9a-4468-4d2a-9302-d9435251028e"},"vehicle_type_id":"4","last_reported":1722089259,"current_range_meters":9200,"station_id":"ce4bhs12rcd13ifvqhvg","pricing_plan_id":"cebpf4jnsgd1na2vs0mg"},{"bike_id":"a2238537-60c8-4875-9c1f-c88ac28b173d","system_id":"levelo_inurba_marseille","lat":43.324771,"lon":5.36557,"is_reserved":false,"is_disabled":false,"rental_uris":{"android":"levelo://app?vid=a2238537-60c8-4875-9c1f-c88ac28b173d","ios":"levelo://app?vid=a2238537-60c8-4875-9c1f-c88ac28b173d"},"vehicle_type_id":"4","last_reported":1722089259,"current_range_meters":31200,"station_id":"ce4bhs12rcd13ifvqhvg","pricing_plan_id":"cebpf4jnsgd1na2vs0mg"},{"bike_id":"0a91de68-d941-423f-ae88-64e91d98a16e","system_id":"levelo_inurba_marseille","lat":43.32482,"lon":5.36553,"is_reserved":false,"is_disabled":false,"rental_uris":{"android":"levelo://app?vid=0a91de68-d941-423f-ae88-64e91d98a16e","ios":"levelo://app?vid=0a91de68-d941-423f-ae88-64e91d98a16e"},"vehicle_type_id":"4","last_reported":1722089259,"current_range_meters":18000,"station_id":"ce4bhs12rcd13ifvqhvg","pricing_plan_id":"cebpf4jnsgd1na2vs0mg"},{"bike_id":"2fb79667-ea02-4953-87fa-e97ab647561d","system_id":"levelo_inurba_marseille","lat":43.324771,"lon":5.36557,"is_reserved":false,"is_disabled":false,"rental_uris":{"android":"levelo://app?vid=2fb79667-ea02-4953-87fa-e97ab647561d","ios":"levelo://app?vid=2fb79667-ea02-4953-87fa-e97ab647561d"},"vehicle_type_id":"4","last_reported":1722089259,"current_range_meters":28000,"station_id":"ce4bhs12rcd13ifvqhvg","pricing_plan_id":"cebpf4jnsgd1na2vs0mg"},{"bike_id":"79df1eb1-c6bf-4892-b4b9-51968941dcba","system_id":"levelo_inurba_marseille","lat":43.302784,"lon":5.377158,"is_reserved":false,"is_disabled":false,"rental_uris":{"android":"levelo://app?vid=79df1eb1-c6bf-4892-b4b9-51968941dcba","ios":"levelo://app?vid=79df1eb1-c6bf-4892-b4b9-51968941dcba"},"vehicle_type_id":"4","last_reported":1722089259,"current_range_meters":29200,"station_id":"ce4bguh2rcd13ifvqcj0","pricing_plan_id":"cebpf4jnsgd1na2vs0mg"},{"bike_id":"ff9b2287-8b2e-4b5a-a7f7-32af4287aa9a","system_id":"levelo_inurba_marseille","lat":43.30142,"lon":5.37413,"is_reserved":false,"is_disabled":false,"rental_uris":{"android":"levelo://app?vid=ff9b2287-8b2e-4b5a-a7f7-32af4287aa9a","ios":"levelo://app?vid=ff9b2287-8b2e-4b5a-a7f7-32af4287aa9a"},"vehicle_type_id":"4","last_reported":1722089259,"current_range_meters":28400,"station_id":"ce4bgs92rcd13ifvqcc0","pricing_plan_id":"cebpf4jnsgd1na2vs0mg"},{"bike_id":"c522ac87-5a9c-420e-96ce-f5e1bef48604","system_id":"levelo_inurba_marseille","lat":43.30143,"lon":5.37421,"is_reserved":false,"is_disabled":false,"rental_uris":{"android":"levelo://app?vid=c522ac87-5a9c-420e-96ce-f5e1bef48604","ios":"levelo://app?vid=c522ac87-5a9c-420e-96ce-f5e1bef48604"},"vehicle_type_id":"4","last_reported":1722089259,"current_range_meters":24400,"station_id":"ce4bgs92rcd13ifvqcc0","pricing_plan_id":"cebpf4jnsgd1na2vs0mg"},{"bike_id":"9df41fec-4549-43f8-8c75-7517744cbb33","system_id":"levelo_inurba_marseille","lat":43.32028,"lon":5.38262,"is_reserved":false,"is_disabled":false,"rental_uris":{"android":"levelo://app?vid=9df41fec-4549-43f8-8c75-7517744cbb33","ios":"levelo://app?vid=9df41fec-4549-43f8-8c75-7517744cbb33"},"vehicle_type_id":"4","last_reported":1722089259,"current_range_meters":29600,"station_id":"","pricing_plan_id":"cebpf4jnsgd1na2vs0mg"},{"bike_id":"23a1011d-a425-414d-af34-9cdc0d211485","system_id":"levelo_inurba_marseille","lat":43.298433,"lon":5.362774,"is_reserved":false,"is_disabled":false,"rental_uris":{"android":"levelo://app?vid=23a1011d-a425-414d-af34-9cdc0d211485","ios":"levelo://app?vid=23a1011d-a425-414d-af34-9cdc0d211485"},"vehicle_type_id":"4","last_reported":1722089259,"current_range_meters":31600,"station_id":"ce4bgpp2rcd13ifvqc3g","pricing_plan_id":"cebpf4jnsgd1na2vs0mg"},{"bike_id":"0ea4521b-20b1-49be-a212-6ccfb5b3633b","system_id":"levelo_inurba_marseille","lat":43.298433,"lon":5.362774,"is_reserved":false,"is_disabled":false,"rental_uris":{"android":"levelo://app?vid=0ea4521b-20b1-49be-a212-6ccfb5b3633b","ios":"levelo://app?vid=0ea4521b-20b1-49be-a212-6ccfb5b3633b"},"vehicle_type_id":"4","last_reported":1722089259,"current_range_meters":23200,"station_id":"ce4bgpp2rcd13ifvqc3g","pricing_plan_id":"cebpf4jnsgd1na2vs0mg"},{"bike_id":"b8d2faa1-929f-446f-9858-dff0087f3d64","system_id":"levelo_inurba_marseille","lat":43.298433,"lon":5.362774,"is_reserved":false,"is_disabled":false,"rental_uris":{"android":"levelo://app?vid=b8d2faa1-929f-446f-9858-dff0087f3d64","ios":"levelo://app?vid=b8d2faa1-929f-446f-9858-dff0087f3d64"},"vehicle_type_id":"4","last_reported":1722089259,"current_range_meters":0,"station_id":"ce4bgpp2rcd13ifvqc3g","pricing_plan_id":"cebpf4jnsgd1na2vs0mg"},{"bike_id":"7187d9e4-eeac-4b45-a902-41a6977ccc08","system_id":"levelo_inurba_marseille","lat":43.298433,"lon":5.362774,"is_reserved":false,"is_disabled":false,"rental_uris":{"android":"levelo://app?vid=7187d9e4-eeac-4b45-a902-41a6977ccc08","ios":"levelo://app?vid=7187d9e4-eeac-4b45-a902-41a6977ccc08"},"vehicle_type_id":"4","last_reported":1722089259,"current_range_meters":30000,"station_id":"ce4bgpp2rcd13ifvqc3g","pricing_plan_id":"cebpf4jnsgd1na2vs0mg"},{"bike_id":"4dd030a1-a9d2-45e5-acad-1d3a0240bfe7","system_id":"levelo_inurba_marseille","lat":43.297774,"lon":5.370875,"is_reserved":false,"is_disabled":false,"rental_uris":{"android":"levelo://app?vid=4dd030a1-a9d2-45e5-acad-1d3a0240bfe7","ios":"levelo://app?vid=4dd030a1-a9d2-45e5-acad-1d3a0240bfe7"},"vehicle_type_id":"4","last_reported":1722089259,"current_range_meters":14000,"station_id":"ce4bgop2rcd13ifvqc1g","pricing_plan_id":"cebpf4jnsgd1na2vs0mg"},{"bike_id":"553363d3-b2f0-4e68-a004-1fd5345938b3","system_id":"levelo_inurba_marseille","lat":43.322913,"lon":5.382673,"is_reserved":false,"is_disabled":false,"rental_uris":{"android":"levelo://app?vid=553363d3-b2f0-4e68-a004-1fd5345938b3","ios":"levelo://app?vid=553363d3-b2f0-4e68-a004-1fd5345938b3"},"vehicle_type_id":"4","last_reported":1722089259,"current_range_meters":6400,"station_id":"ce4bhr12rcd13ifvqhqg","pricing_plan_id":"cebpf4jnsgd1na2vs0mg"},{"bike_id":"4dc794f6-e1d8-4cf0-95b2-cd6d647fab4e","system_id":"levelo_inurba_marseille","lat":43.323052,"lon":5.382516,"is_reserved":false,"is_disabled":false,"rental_uris":{"android":"levelo://app?vid=4dc794f6-e1d8-4cf0-95b2-cd6d647fab4e","ios":"levelo://app?vid=4dc794f6-e1d8-4cf0-95b2-cd6d647fab4e"},"vehicle_type_id":"4","last_reported":1722089259,"current_range_meters":24400,"station_id":"ce4bhr12rcd13ifvqhqg","pricing_plan_id":"cebpf4jnsgd1na2vs0mg"},{"bike_id":"d4262961-f3bb-4638-aa76-74e085324454","system_id":"levelo_inurba_marseille","lat":43.32292,"lon":5.382683,"is_reserved":false,"is_disabled":false,"rental_uris":{"android":"levelo://app?vid=d4262961-f3bb-4638-aa76-74e085324454","ios":"levelo://app?vid=d4262961-f3bb-4638-aa76-74e085324454"},"vehicle_type_id":"4","last_reported":1722089259,"current_range_meters":400,"station_id":"ce4bhr12rcd13ifvqhqg","pricing_plan_id":"cebpf4jnsgd1na2vs0mg"},{"bike_id":"2aa797f6-cf35-44ea-b97b-35b9e34f58e1","system_id":"levelo_inurba_marseille","lat":43.3229,"lon":5.38272,"is_reserved":false,"is_disabled":false,"rental_uris":{"android":"levelo://app?vid=2aa797f6-cf35-44ea-b97b-35b9e34f58e1","ios":"levelo://app?vid=2aa797f6-cf35-44ea-b97b-35b9e34f58e1"},"vehicle_type_id":"4","last_reported":1722089259,"current_range_meters":31200,"station_id":"ce4bhr12rcd13ifvqhqg","pricing_plan_id":"cebpf4jnsgd1na2vs0mg"},{"bike_id":"d72c69b9-6808-4ae8-8ed9-ac8ae707197e","system_id":"levelo_inurba_marseille","lat":43.32291,"lon":5.38272,"is_reserved":false,"is_disabled":false,"rental_uris":{"android":"levelo://app?vid=d72c69b9-6808-4ae8-8ed9-ac8ae707197e","ios":"levelo://app?vid=d72c69b9-6808-4ae8-8ed9-ac8ae707197e"},"vehicle_type_id":"4","last_reported":1722089259,"current_range_meters":30800,"station_id":"ce4bhr12rcd13ifvqhqg","pricing_plan_id":"cebpf4jnsgd1na2vs0mg"},{"bike_id":"7a4a332f-ccad-4d9e-9cdf-a1c6d87ff077","system_id":"levelo_inurba_marseille","lat":43.32289,"lon":5.38282,"is_reserved":false,"is_disabled":false,"rental_uris":{"android":"levelo://app?vid=7a4a332f-ccad-4d9e-9cdf-a1c6d87ff077","ios":"levelo://app?vid=7a4a332f-ccad-4d9e-9cdf-a1c6d87ff077"},"vehicle_type_id":"4","last_reported":1722089259,"current_range_meters":31200,"station_id":"ce4bhr12rcd13ifvqhqg","pricing_plan_id":"cebpf4jnsgd1na2vs0mg"},{"bike_id":"c397368f-9f67-4482-b9f7-1d9f600407e8","system_id":"levelo_inurba_marseille","lat":43.322872,"lon":5.382756,"is_reserved":false,"is_disabled":false,"rental_uris":{"android":"levelo://app?vid=c397368f-9f67-4482-b9f7-1d9f600407e8","ios":"levelo://app?vid=c397368f-9f67-4482-b9f7-1d9f600407e8"},"vehicle_type_id":"4","last_reported":1722089259,"current_range_meters":17600,"station_id":"ce4bhr12rcd13ifvqhqg","pricing_plan_id":"cebpf4jnsgd1na2vs0mg"},{"bike_id":"5162ae64-2179-46ec-acfe-7b40dff9626e","system_id":"levelo_inurba_marseille","lat":43.297163,"lon":5.365866,"is_reserved":false,"is_disabled":false,"rental_uris":{"android":"levelo://app?vid=5162ae64-2179-46ec-acfe-7b40dff9626e","ios":"levelo://app?vid=5162ae64-2179-46ec-acfe-7b40dff9626e"},"vehicle_type_id":"4","last_reported":1722089259,"current_range_meters":0,"station_id":"ce4bgn12rcd13ifvqbt0","pricing_plan_id":"cebpf4jnsgd1na2vs0mg"},{"bike_id":"77ebd6f7-0e15-4246-8feb-b1d720ac899a","system_id":"levelo_inurba_marseille","lat":43.300434,"lon":5.382081,"is_reserved":false,"is_disabled":false,"rental_uris":{"android":"levelo://app?vid=77ebd6f7-0e15-4246-8feb-b1d720ac899a","ios":"levelo://app?vid=77ebd6f7-0e15-4246-8feb-b1d720ac899a"},"vehicle_type_id":"4","last_reported":1722089259,"current_range_meters":19600,"station_id":"","pricing_plan_id":"cebpf4jnsgd1na2vs0mg"},{"bike_id":"0b9190be-b728-438b-b915-cfd9f32c8df4","system_id":"levelo_inurba_marseille","lat":43.309589,"lon":5.390258,"is_reserved":false,"is_disabled":false,"rental_uris":{"android":"levelo://app?vid=0b9190be-b728-438b-b915-cfd9f32c8df4","ios":"levelo://app?vid=0b9190be-b728-438b-b915-cfd9f32c8df4"},"vehicle_type_id":"4","last_reported":1722089259,"current_range_meters":19200,"station_id":"ce4bgup2rcd13ifvqco0","pricing_plan_id":"cebpf4jnsgd1na2vs0mg"},{"bike_id":"7e520275-ce73-458e-ac4b-161ddcfa2978","system_id":"levelo_inurba_marseille","lat":43.309589,"lon":5.390258,"is_reserved":false,"is_disabled":false,"rental_uris":{"android":"levelo://app?vid=7e520275-ce73-458e-ac4b-161ddcfa2978","ios":"levelo://app?vid=7e520275-ce73-458e-ac4b-161ddcfa2978"},"vehicle_type_id":"4","last_reported":1722089259,"current_range_meters":24400,"station_id":"ce4bgup2rcd13ifvqco0","pricing_plan_id":"cebpf4jnsgd1na2vs0mg"},{"bike_id":"4d10aa23-c0d3-46c5-b54f-71d7d748a57d","system_id":"levelo_inurba_marseille","lat":43.29577,"lon":5.37506,"is_reserved":false,"is_disabled":false,"rental_uris":{"android":"levelo://app?vid=4d10aa23-c0d3-46c5-b54f-71d7d748a57d","ios":"levelo://app?vid=4d10aa23-c0d3-46c5-b54f-71d7d748a57d"},"vehicle_type_id":"4","last_reported":1722089259,"current_range_meters":19200,"station_id":"ce4bgh92rcd13ifvqb50","pricing_plan_id":"cebpf4jnsgd1na2vs0mg"},{"bike_id":"ccad1da7-8f8d-4c64-bc64-b1564d8825f5","system_id":"levelo_inurba_marseille","lat":43.299724,"lon":5.384848,"is_reserved":false,"is_disabled":false,"rental_uris":{"android":"levelo://app?vid=ccad1da7-8f8d-4c64-bc64-b1564d8825f5","ios":"levelo://app?vid=ccad1da7-8f8d-4c64-bc64-b1564d8825f5"},"vehicle_type_id":"4","last_reported":1722089259,"current_range_meters":0,"station_id":"ce4bgj92rcd13ifvqbd0","pricing_plan_id":"cebpf4jnsgd1na2vs0mg"},{"bike_id":"3a5c7459-b313-41cb-9384-b24a910cd0cf","system_id":"levelo_inurba_marseille","lat":43.296015,"lon":5.38094,"is_reserved":false,"is_disabled":false,"rental_uris":{"android":"levelo://app?vid=3a5c7459-b313-41cb-9384-b24a910cd0cf","ios":"levelo://app?vid=3a5c7459-b313-41cb-9384-b24a910cd0cf"},"vehicle_type_id":"4","last_reported":1722089259,"current_range_meters":26000,"station_id":"ce4bgl12rcd13ifvqbo0","pricing_plan_id":"cebpf4jnsgd1na2vs0mg"},{"bike_id":"8613e481-232a-4a98-bf7f-bdd4e1bee865","system_id":"levelo_inurba_marseille","lat":43.293249,"lon":5.371578,"is_reserved":false,"is_disabled":false,"rental_uris":{"android":"levelo://app?vid=8613e481-232a-4a98-bf7f-bdd4e1bee865","ios":"levelo://app?vid=8613e481-232a-4a98-bf7f-bdd4e1bee865"},"vehicle_type_id":"4","last_reported":1722089259,"current_range_meters":5200,"station_id":"ce4bgh92rcd13ifvqb40","pricing_plan_id":"cebpf4jnsgd1na2vs0mg"},{"bike_id":"fb4649f6-5774-4a6b-ab6d-18c7e48797ac","system_id":"levelo_inurba_marseille","lat":43.292749,"lon":5.368402,"is_reserved":false,"is_disabled":false,"rental_uris":{"android":"levelo://app?vid=fb4649f6-5774-4a6b-ab6d-18c7e48797ac","ios":"levelo://app?vid=fb4649f6-5774-4a6b-ab6d-18c7e48797ac"},"vehicle_type_id":"4","last_reported":1722089259,"current_range_meters":0,"station_id":"ce4bhbp2rcd13ifvqesg","pricing_plan_id":"cebpf4jnsgd1na2vs0mg"},{"bike_id":"7b0d5a24-1fd7-45c6-89c6-5c233c3b1c3e","system_id":"levelo_inurba_marseille","lat":43.30002,"lon":5.38852,"is_reserved":false,"is_disabled":false,"rental_uris":{"android":"levelo://app?vid=7b0d5a24-1fd7-45c6-89c6-5c233c3b1c3e","ios":"levelo://app?vid=7b0d5a24-1fd7-45c6-89c6-5c233c3b1c3e"},"vehicle_type_id":"4","last_reported":1722089259,"current_range_meters":21600,"station_id":"","pricing_plan_id":"cebpf4jnsgd1na2vs0mg"},{"bike_id":"bff43a0d-cd0b-40f7-a888-4a7eb4c8678b","system_id":"levelo_inurba_marseille","lat":43.293009,"lon":5.374584,"is_reserved":false,"is_disabled":false,"rental_uris":{"android":"levelo://app?vid=bff43a0d-cd0b-40f7-a888-4a7eb4c8678b","ios":"levelo://app?vid=bff43a0d-cd0b-40f7-a888-4a7eb4c8678b"},"vehicle_type_id":"4","last_reported":1722089259,"current_range_meters":20400,"station_id":"ce4bgi12rcd13ifvqb70","pricing_plan_id":"cebpf4jnsgd1na2vs0mg"},{"bike_id":"89e82c63-b7c6-49b4-8fc4-fd49fd017b1b","system_id":"levelo_inurba_marseille","lat":43.30084,"lon":5.39077,"is_reserved":false,"is_disabled":false,"rental_uris":{"android":"levelo://app?vid=89e82c63-b7c6-49b4-8fc4-fd49fd017b1b","ios":"levelo://app?vid=89e82c63-b7c6-49b4-8fc4-fd49fd017b1b"},"vehicle_type_id":"4","last_reported":1722089259,"current_range_meters":12000,"station_id":"ce4bh192rcd13ifvqdb0","pricing_plan_id":"cebpf4jnsgd1na2vs0mg"},{"bike_id":"d5f04152-5c86-44aa-85a6-685b8a1fea32","system_id":"levelo_inurba_marseille","lat":43.293009,"lon":5.374584,"is_reserved":false,"is_disabled":false,"rental_uris":{"android":"levelo://app?vid=d5f04152-5c86-44aa-85a6-685b8a1fea32","ios":"levelo://app?vid=d5f04152-5c86-44aa-85a6-685b8a1fea32"},"vehicle_type_id":"4","last_reported":1722089259,"current_range_meters":28400,"station_id":"ce4bgi12rcd13ifvqb70","pricing_plan_id":"cebpf4jnsgd1na2vs0mg"},{"bike_id":"c9df13fc-c711-4c28-ada2-1678efbf1af2","system_id":"levelo_inurba_marseille","lat":43.293009,"lon":5.374584,"is_reserved":false,"is_disabled":false,"rental_uris":{"android":"levelo://app?vid=c9df13fc-c711-4c28-ada2-1678efbf1af2","ios":"levelo://app?vid=c9df13fc-c711-4c28-ada2-1678efbf1af2"},"vehicle_type_id":"4","last_reported":1722089259,"current_range_meters":0,"station_id":"ce4bgi12rcd13ifvqb70","pricing_plan_id":"cebpf4jnsgd1na2vs0mg"},{"bike_id":"fceba28a-b899-4526-b4cd-9cb682ac1061","system_id":"levelo_inurba_marseille","lat":43.292005,"lon":5.357875,"is_reserved":false,"is_disabled":false,"rental_uris":{"android":"levelo://app?vid=fceba28a-b899-4526-b4cd-9cb682ac1061","ios":"levelo://app?vid=fceba28a-b899-4526-b4cd-9cb682ac1061"},"vehicle_type_id":"4","last_reported":1722089259,"current_range_meters":4000,"station_id":"ce4bhb12rcd13ifvqel0","pricing_plan_id":"cebpf4jnsgd1na2vs0mg"},{"bike_id":"133b22a6-3529-4da4-9e67-f0d66afe873b","system_id":"levelo_inurba_marseille","lat":43.313291,"lon":5.396838,"is_reserved":false,"is_disabled":false,"rental_uris":{"android":"levelo://app?vid=133b22a6-3529-4da4-9e67-f0d66afe873b","ios":"levelo://app?vid=133b22a6-3529-4da4-9e67-f0d66afe873b"},"vehicle_type_id":"4","last_reported":1722089259,"current_range_meters":18800,"station_id":"ce4bgvp2rcd13ifvqcu0","pricing_plan_id":"cebpf4jnsgd1na2vs0mg"},{"bike_id":"ba585a30-dc69-4528-98fb-009aa05caaf6","system_id":"levelo_inurba_marseille","lat":43.309038,"lon":5.396546,"is_reserved":false,"is_disabled":false,"rental_uris":{"android":"levelo://app?vid=ba585a30-dc69-4528-98fb-009aa05caaf6","ios":"levelo://app?vid=ba585a30-dc69-4528-98fb-009aa05caaf6"},"vehicle_type_id":"4","last_reported":1722089259,"current_range_meters":8800,"station_id":"ce4bh012rcd13ifvqcv0","pricing_plan_id":"cebpf4jnsgd1na2vs0mg"},{"bike_id":"250942a2-bb19-4fd1-8545-dbaa54ea6a31","system_id":"levelo_inurba_marseille","lat":43.29529,"lon":5.385581,"is_reserved":false,"is_disabled":false,"rental_uris":{"android":"levelo://app?vid=250942a2-bb19-4fd1-8545-dbaa54ea6a31","ios":"levelo://app?vid=250942a2-bb19-4fd1-8545-dbaa54ea6a31"},"vehicle_type_id":"4","last_reported":1722089259,"current_range_meters":30000,"station_id":"ce4bgih2rcd13ifvqba0","pricing_plan_id":"cebpf4jnsgd1na2vs0mg"},{"bike_id":"16cfbd40-d17f-4ace-bcaa-f71409b4f506","system_id":"levelo_inurba_marseille","lat":43.29529,"lon":5.385581,"is_reserved":false,"is_disabled":false,"rental_uris":{"android":"levelo://app?vid=16cfbd40-d17f-4ace-bcaa-f71409b4f506","ios":"levelo://app?vid=16cfbd40-d17f-4ace-bcaa-f71409b4f506"},"vehicle_type_id":"4","last_reported":1722089259,"current_range_meters":400,"station_id":"ce4bgih2rcd13ifvqba0","pricing_plan_id":"cebpf4jnsgd1na2vs0mg"},{"bike_id":"7f8bfe3f-75cb-46af-96e4-02472d55770d","system_id":"levelo_inurba_marseille","lat":43.29529,"lon":5.385581,"is_reserved":false,"is_disabled":false,"rental_uris":{"android":"levelo://app?vid=7f8bfe3f-75cb-46af-96e4-02472d55770d","ios":"levelo://app?vid=7f8bfe3f-75cb-46af-96e4-02472d55770d"},"vehicle_type_id":"4","last_reported":1722089259,"current_range_meters":6000,"station_id":"ce4bgih2rcd13ifvqba0","pricing_plan_id":"cebpf4jnsgd1na2vs0mg"},{"bike_id":"9768842e-1563-479e-8ba0-a22a96036e93","system_id":"levelo_inurba_marseille","lat":43.29529,"lon":5.385581,"is_reserved":false,"is_disabled":false,"rental_uris":{"android":"levelo://app?vid=9768842e-1563-479e-8ba0-a22a96036e93","ios":"levelo://app?vid=9768842e-1563-479e-8ba0-a22a96036e93"},"vehicle_type_id":"4","last_reported":1722089259,"current_range_meters":18000,"station_id":"ce4bgih2rcd13ifvqba0","pricing_plan_id":"cebpf4jnsgd1na2vs0mg"},{"bike_id":"ab48ca50-ea6a-4a20-9d83-63437a3986ca","system_id":"levelo_inurba_marseille","lat":43.29071,"lon":5.37167,"is_reserved":false,"is_disabled":false,"rental_uris":{"android":"levelo://app?vid=ab48ca50-ea6a-4a20-9d83-63437a3986ca","ios":"levelo://app?vid=ab48ca50-ea6a-4a20-9d83-63437a3986ca"},"vehicle_type_id":"4","last_reported":1722089259,"current_range_meters":8800,"station_id":"ce4bh5p2rcd13ifvqe4g","pricing_plan_id":"cebpf4jnsgd1na2vs0mg"},{"bike_id":"9d81eeed-e74f-4534-a112-7910b14ae189","system_id":"levelo_inurba_marseille","lat":43.290624,"lon":5.359245,"is_reserved":false,"is_disabled":false,"rental_uris":{"android":"levelo://app?vid=9d81eeed-e74f-4534-a112-7910b14ae189","ios":"levelo://app?vid=9d81eeed-e74f-4534-a112-7910b14ae189"},"vehicle_type_id":"4","last_reported":1722089259,"current_range_meters":9600,"station_id":"ce4bha92rcd13ifvqeg0","pricing_plan_id":"cebpf4jnsgd1na2vs0mg"},{"bike_id":"0f825299-4e2b-416a-971f-706fdbc3ae95","system_id":"levelo_inurba_marseille","lat":43.28978,"lon":5.3662,"is_reserved":false,"is_disabled":false,"rental_uris":{"android":"levelo://app?vid=0f825299-4e2b-416a-971f-706fdbc3ae95","ios":"levelo://app?vid=0f825299-4e2b-416a-971f-706fdbc3ae95"},"vehicle_type_id":"4","last_reported":1722089259,"current_range_meters":22800,"station_id":"ce4bhbp2rcd13ifvqerg","pricing_plan_id":"cebpf4jnsgd1na2vs0mg"},{"bike_id":"3d9bf045-2f42-42f7-a947-8c5f1f586d9e","system_id":"levelo_inurba_marseille","lat":43.290624,"lon":5.359245,"is_reserved":false,"is_disabled":false,"rental_uris":{"android":"levelo://app?vid=3d9bf045-2f42-42f7-a947-8c5f1f586d9e","ios":"levelo://app?vid=3d9bf045-2f42-42f7-a947-8c5f1f586d9e"},"vehicle_type_id":"4","last_reported":1722089259,"current_range_meters":0,"station_id":"ce4bha92rcd13ifvqeg0","pricing_plan_id":"cebpf4jnsgd1na2vs0mg"},{"bike_id":"ee70439a-d902-4c45-8b28-cd75e7b4a83a","system_id":"levelo_inurba_marseille","lat":43.294162,"lon":5.386292,"is_reserved":false,"is_disabled":false,"rental_uris":{"android":"levelo://app?vid=ee70439a-d902-4c45-8b28-cd75e7b4a83a","ios":"levelo://app?vid=ee70439a-d902-4c45-8b28-cd75e7b4a83a"},"vehicle_type_id":"4","last_reported":1722089259,"current_range_meters":11200,"station_id":"ce4bh2h2rcd13ifvqdh0","pricing_plan_id":"cebpf4jnsgd1na2vs0mg"},{"bike_id":"fdb10637-c33c-46a0-b04e-35efcbe65fef","system_id":"levelo_inurba_marseille","lat":43.289468,"lon":5.363719,"is_reserved":false,"is_disabled":false,"rental_uris":{"android":"levelo://app?vid=fdb10637-c33c-46a0-b04e-35efcbe65fef","ios":"levelo://app?vid=fdb10637-c33c-46a0-b04e-35efcbe65fef"},"vehicle_type_id":"4","last_reported":1722089259,"current_range_meters":0,"station_id":"ce4bhc92rcd13ifvqetg","pricing_plan_id":"cebpf4jnsgd1na2vs0mg"},{"bike_id":"82e137e8-5766-4779-81e2-29143c130989","system_id":"levelo_inurba_marseille","lat":43.289468,"lon":5.363719,"is_reserved":false,"is_disabled":false,"rental_uris":{"android":"levelo://app?vid=82e137e8-5766-4779-81e2-29143c130989","ios":"levelo://app?vid=82e137e8-5766-4779-81e2-29143c130989"},"vehicle_type_id":"4","last_reported":1722089259,"current_range_meters":2400,"station_id":"ce4bhc92rcd13ifvqetg","pricing_plan_id":"cebpf4jnsgd1na2vs0mg"},{"bike_id":"5ac3aa75-7c18-4fef-92d3-88c29d248440","system_id":"levelo_inurba_marseille","lat":43.289468,"lon":5.363719,"is_reserved":false,"is_disabled":false,"rental_uris":{"android":"levelo://app?vid=5ac3aa75-7c18-4fef-92d3-88c29d248440","ios":"levelo://app?vid=5ac3aa75-7c18-4fef-92d3-88c29d248440"},"vehicle_type_id":"4","last_reported":1722089259,"current_range_meters":4400,"station_id":"ce4bhc92rcd13ifvqetg","pricing_plan_id":"cebpf4jnsgd1na2vs0mg"},{"bike_id":"2146cbde-ce9c-4088-a3f8-ebc27177ef81","system_id":"levelo_inurba_marseille","lat":43.29069,"lon":5.35589,"is_reserved":false,"is_disabled":false,"rental_uris":{"android":"levelo://app?vid=2146cbde-ce9c-4088-a3f8-ebc27177ef81","ios":"levelo://app?vid=2146cbde-ce9c-4088-a3f8-ebc27177ef81"},"vehicle_type_id":"4","last_reported":1722089259,"current_range_meters":0,"station_id":"","pricing_plan_id":"cebpf4jnsgd1na2vs0mg"},{"bike_id":"6357481d-ce9d-4182-8c14-78ba0c2be689","system_id":"levelo_inurba_marseille","lat":43.28936,"lon":5.36393,"is_reserved":false,"is_disabled":false,"rental_uris":{"android":"levelo://app?vid=6357481d-ce9d-4182-8c14-78ba0c2be689","ios":"levelo://app?vid=6357481d-ce9d-4182-8c14-78ba0c2be689"},"vehicle_type_id":"4","last_reported":1722089259,"current_range_meters":1200,"station_id":"ce4bhc92rcd13ifvqetg","pricing_plan_id":"cebpf4jnsgd1na2vs0mg"},{"bike_id":"75a302a6-fea3-424b-88cf-68f50a604601","system_id":"levelo_inurba_marseille","lat":43.292698,"lon":5.384422,"is_reserved":false,"is_disabled":false,"rental_uris":{"android":"levelo://app?vid=75a302a6-fea3-424b-88cf-68f50a604601","ios":"levelo://app?vid=75a302a6-fea3-424b-88cf-68f50a604601"},"vehicle_type_id":"4","last_reported":1722089259,"current_range_meters":0,"station_id":"ce4bh692rcd13ifvqea0","pricing_plan_id":"cebpf4jnsgd1na2vs0mg"},{"bike_id":"b7b956b3-9839-4e00-b154-61171aef249b","system_id":"levelo_inurba_marseille","lat":43.290103,"lon":5.356114,"is_reserved":false,"is_disabled":false,"rental_uris":{"android":"levelo://app?vid=b7b956b3-9839-4e00-b154-61171aef249b","ios":"levelo://app?vid=b7b956b3-9839-4e00-b154-61171aef249b"},"vehicle_type_id":"4","last_reported":1722089259,"current_range_meters":30400,"station_id":"ce4bhb92rcd13ifvqen0","pricing_plan_id":"cebpf4jnsgd1na2vs0mg"},{"bike_id":"67772116-5216-4355-a50b-a419d5883bde","system_id":"levelo_inurba_marseille","lat":43.290104,"lon":5.356111,"is_reserved":false,"is_disabled":false,"rental_uris":{"android":"levelo://app?vid=67772116-5216-4355-a50b-a419d5883bde","ios":"levelo://app?vid=67772116-5216-4355-a50b-a419d5883bde"},"vehicle_type_id":"4","last_reported":1722089259,"current_range_meters":0,"station_id":"ce4bhb92rcd13ifvqen0","pricing_plan_id":"cebpf4jnsgd1na2vs0mg"},{"bike_id":"07dfb50a-cdc7-469c-a7a5-3216a0f4ee1d","system_id":"levelo_inurba_marseille","lat":43.29003,"lon":5.35612,"is_reserved":false,"is_disabled":false,"rental_uris":{"android":"levelo://app?vid=07dfb50a-cdc7-469c-a7a5-3216a0f4ee1d","ios":"levelo://app?vid=07dfb50a-cdc7-469c-a7a5-3216a0f4ee1d"},"vehicle_type_id":"4","last_reported":1722089259,"current_range_meters":0,"station_id":"ce4bhb92rcd13ifvqen0","pricing_plan_id":"cebpf4jnsgd1na2vs0mg"},{"bike_id":"bec46e97-20a7-4ef2-83c6-21b8b2baf6f1","system_id":"levelo_inurba_marseille","lat":43.290103,"lon":5.356114,"is_reserved":false,"is_disabled":false,"rental_uris":{"android":"levelo://app?vid=bec46e97-20a7-4ef2-83c6-21b8b2baf6f1","ios":"levelo://app?vid=bec46e97-20a7-4ef2-83c6-21b8b2baf6f1"},"vehicle_type_id":"4","last_reported":1722089259,"current_range_meters":27200,"station_id":"ce4bhb92rcd13ifvqen0","pricing_plan_id":"cebpf4jnsgd1na2vs0mg"},{"bike_id":"bbe56208-1354-4be7-a7dc-69c7ee57458e","system_id":"levelo_inurba_marseille","lat":43.330442,"lon":5.389148,"is_reserved":false,"is_disabled":false,"rental_uris":{"android":"levelo://app?vid=bbe56208-1354-4be7-a7dc-69c7ee57458e","ios":"levelo://app?vid=bbe56208-1354-4be7-a7dc-69c7ee57458e"},"vehicle_type_id":"4","last_reported":1722089259,"current_range_meters":29200,"station_id":"ce4bhr92rcd13ifvqhrg","pricing_plan_id":"cebpf4jnsgd1na2vs0mg"},{"bike_id":"03265a15-9cbb-437f-a0c3-187470e51679","system_id":"levelo_inurba_marseille","lat":43.31467,"lon":5.40058,"is_reserved":false,"is_disabled":false,"rental_uris":{"android":"levelo://app?vid=03265a15-9cbb-437f-a0c3-187470e51679","ios":"levelo://app?vid=03265a15-9cbb-437f-a0c3-187470e51679"},"vehicle_type_id":"4","last_reported":1722089259,"current_range_meters":1600,"station_id":"","pricing_plan_id":"cebpf4jnsgd1na2vs0mg"},{"bike_id":"99be36d2-f6fe-4fd7-a343-6530fea37444","system_id":"levelo_inurba_marseille","lat":43.28856,"lon":5.358371,"is_reserved":false,"is_disabled":false,"rental_uris":{"android":"levelo://app?vid=99be36d2-f6fe-4fd7-a343-6530fea37444","ios":"levelo://app?vid=99be36d2-f6fe-4fd7-a343-6530fea37444"},"vehicle_type_id":"4","last_reported":1722089259,"current_range_meters":23600,"station_id":"ce4bhb12rcd13ifvqem0","pricing_plan_id":"cebpf4jnsgd1na2vs0mg"},{"bike_id":"79b2d61f-4043-4814-95cc-9a36b193d62d","system_id":"levelo_inurba_marseille","lat":43.28856,"lon":5.358371,"is_reserved":false,"is_disabled":false,"rental_uris":{"android":"levelo://app?vid=79b2d61f-4043-4814-95cc-9a36b193d62d","ios":"levelo://app?vid=79b2d61f-4043-4814-95cc-9a36b193d62d"},"vehicle_type_id":"4","last_reported":1722089259,"current_range_meters":18800,"station_id":"ce4bhb12rcd13ifvqem0","pricing_plan_id":"cebpf4jnsgd1na2vs0mg"},{"bike_id":"fd405115-c447-4f2a-a48a-48ceedad0367","system_id":"levelo_inurba_marseille","lat":43.28856,"lon":5.358371,"is_reserved":false,"is_disabled":false,"rental_uris":{"android":"levelo://app?vid=fd405115-c447-4f2a-a48a-48ceedad0367","ios":"levelo://app?vid=fd405115-c447-4f2a-a48a-48ceedad0367"},"vehicle_type_id":"4","last_reported":1722089259,"current_range_meters":6000,"station_id":"ce4bhb12rcd13ifvqem0","pricing_plan_id":"cebpf4jnsgd1na2vs0mg"},{"bike_id":"83afc2d2-a877-40a0-9ac6-fd3006baf185","system_id":"levelo_inurba_marseille","lat":43.28856,"lon":5.358371,"is_reserved":false,"is_disabled":false,"rental_uris":{"android":"levelo://app?vid=83afc2d2-a877-40a0-9ac6-fd3006baf185","ios":"levelo://app?vid=83afc2d2-a877-40a0-9ac6-fd3006baf185"},"vehicle_type_id":"4","last_reported":1722089259,"current_range_meters":26400,"station_id":"ce4bhb12rcd13ifvqem0","pricing_plan_id":"cebpf4jnsgd1na2vs0mg"},{"bike_id":"96f0551a-04b6-41e7-b190-73b009cbbb22","system_id":"levelo_inurba_marseille","lat":43.290094,"lon":5.381264,"is_reserved":false,"is_disabled":false,"rental_uris":{"android":"levelo://app?vid=96f0551a-04b6-41e7-b190-73b009cbbb22","ios":"levelo://app?vid=96f0551a-04b6-41e7-b190-73b009cbbb22"},"vehicle_type_id":"4","last_reported":1722089259,"current_range_meters":0,"station_id":"ce4bh4p2rcd13ifvqe1g","pricing_plan_id":"cebpf4jnsgd1na2vs0mg"},{"bike_id":"951ce47e-bc7f-40a2-a8d4-70e20b77d0c1","system_id":"levelo_inurba_marseille","lat":43.28856,"lon":5.358371,"is_reserved":false,"is_disabled":false,"rental_uris":{"android":"levelo://app?vid=951ce47e-bc7f-40a2-a8d4-70e20b77d0c1","ios":"levelo://app?vid=951ce47e-bc7f-40a2-a8d4-70e20b77d0c1"},"vehicle_type_id":"4","last_reported":1722089259,"current_range_meters":20400,"station_id":"ce4bhb12rcd13ifvqem0","pricing_plan_id":"cebpf4jnsgd1na2vs0mg"},{"bike_id":"e516c382-04d5-43f1-ad0c-f591b05d0ecd","system_id":"levelo_inurba_marseille","lat":43.2885,"lon":5.35848,"is_reserved":false,"is_disabled":false,"rental_uris":{"android":"levelo://app?vid=e516c382-04d5-43f1-ad0c-f591b05d0ecd","ios":"levelo://app?vid=e516c382-04d5-43f1-ad0c-f591b05d0ecd"},"vehicle_type_id":"4","last_reported":1722089259,"current_range_meters":12800,"station_id":"ce4bhb12rcd13ifvqem0","pricing_plan_id":"cebpf4jnsgd1na2vs0mg"},{"bike_id":"7a4a09b0-0033-4bd4-845e-873af246c2a8","system_id":"levelo_inurba_marseille","lat":43.28856,"lon":5.358371,"is_reserved":false,"is_disabled":false,"rental_uris":{"android":"levelo://app?vid=7a4a09b0-0033-4bd4-845e-873af246c2a8","ios":"levelo://app?vid=7a4a09b0-0033-4bd4-845e-873af246c2a8"},"vehicle_type_id":"4","last_reported":1722089259,"current_range_meters":29600,"station_id":"ce4bhb12rcd13ifvqem0","pricing_plan_id":"cebpf4jnsgd1na2vs0mg"},{"bike_id":"e92bf1d5-b1ca-44cd-9b31-a0496082825d","system_id":"levelo_inurba_marseille","lat":43.33733,"lon":5.37507,"is_reserved":false,"is_disabled":false,"rental_uris":{"android":"levelo://app?vid=e92bf1d5-b1ca-44cd-9b31-a0496082825d","ios":"levelo://app?vid=e92bf1d5-b1ca-44cd-9b31-a0496082825d"},"vehicle_type_id":"4","last_reported":1722089259,"current_range_meters":29200,"station_id":"","pricing_plan_id":"cebpf4jnsgd1na2vs0mg"},{"bike_id":"28ff567c-281c-4a43-913e-e1206badf942","system_id":"levelo_inurba_marseille","lat":43.337405,"lon":5.37469,"is_reserved":false,"is_disabled":false,"rental_uris":{"android":"levelo://app?vid=28ff567c-281c-4a43-913e-e1206badf942","ios":"levelo://app?vid=28ff567c-281c-4a43-913e-e1206badf942"},"vehicle_type_id":"4","last_reported":1722089259,"current_range_meters":28000,"station_id":"","pricing_plan_id":"cebpf4jnsgd1na2vs0mg"},{"bike_id":"f8e8dd66-c7d6-4bd0-91ac-ef4274ae24f3","system_id":"levelo_inurba_marseille","lat":43.33741,"lon":5.374705,"is_reserved":false,"is_disabled":false,"rental_uris":{"android":"levelo://app?vid=f8e8dd66-c7d6-4bd0-91ac-ef4274ae24f3","ios":"levelo://app?vid=f8e8dd66-c7d6-4bd0-91ac-ef4274ae24f3"},"vehicle_type_id":"4","last_reported":1722089259,"current_range_meters":22800,"station_id":"","pricing_plan_id":"cebpf4jnsgd1na2vs0mg"},{"bike_id":"0aa226e6-2195-431b-bdc4-34bf44420451","system_id":"levelo_inurba_marseille","lat":43.337467,"lon":5.374397,"is_reserved":false,"is_disabled":false,"rental_uris":{"android":"levelo://app?vid=0aa226e6-2195-431b-bdc4-34bf44420451","ios":"levelo://app?vid=0aa226e6-2195-431b-bdc4-34bf44420451"},"vehicle_type_id":"4","last_reported":1722089259,"current_range_meters":27200,"station_id":"","pricing_plan_id":"cebpf4jnsgd1na2vs0mg"},{"bike_id":"6ff48f3c-927a-470d-a08e-7714539082f0","system_id":"levelo_inurba_marseille","lat":43.337447,"lon":5.374547,"is_reserved":false,"is_disabled":false,"rental_uris":{"android":"levelo://app?vid=6ff48f3c-927a-470d-a08e-7714539082f0","ios":"levelo://app?vid=6ff48f3c-927a-470d-a08e-7714539082f0"},"vehicle_type_id":"4","last_reported":1722089259,"current_range_meters":3600,"station_id":"","pricing_plan_id":"cebpf4jnsgd1na2vs0mg"},{"bike_id":"20a7bf81-31fd-4cb5-b454-68d5314a31b8","system_id":"levelo_inurba_marseille","lat":43.33745,"lon":5.374593,"is_reserved":false,"is_disabled":false,"rental_uris":{"android":"levelo://app?vid=20a7bf81-31fd-4cb5-b454-68d5314a31b8","ios":"levelo://app?vid=20a7bf81-31fd-4cb5-b454-68d5314a31b8"},"vehicle_type_id":"4","last_reported":1722089259,"current_range_meters":30400,"station_id":"","pricing_plan_id":"cebpf4jnsgd1na2vs0mg"},{"bike_id":"f0338c4f-2f14-449f-abf8-25e44f36ca55","system_id":"levelo_inurba_marseille","lat":43.337503,"lon":5.374507,"is_reserved":false,"is_disabled":false,"rental_uris":{"android":"levelo://app?vid=f0338c4f-2f14-449f-abf8-25e44f36ca55","ios":"levelo://app?vid=f0338c4f-2f14-449f-abf8-25e44f36ca55"},"vehicle_type_id":"4","last_reported":1722089259,"current_range_meters":29600,"station_id":"","pricing_plan_id":"cebpf4jnsgd1na2vs0mg"},{"bike_id":"6cf0c176-f7c0-4e29-a014-f3a3b29e1d2a","system_id":"levelo_inurba_marseille","lat":43.337516,"lon":5.374478,"is_reserved":false,"is_disabled":false,"rental_uris":{"android":"levelo://app?vid=6cf0c176-f7c0-4e29-a014-f3a3b29e1d2a","ios":"levelo://app?vid=6cf0c176-f7c0-4e29-a014-f3a3b29e1d2a"},"vehicle_type_id":"4","last_reported":1722089259,"current_range_meters":28400,"station_id":"","pricing_plan_id":"cebpf4jnsgd1na2vs0mg"},{"bike_id":"3e79250c-7764-488c-b465-61fd16d31170","system_id":"levelo_inurba_marseille","lat":43.33753,"lon":5.374513,"is_reserved":false,"is_disabled":false,"rental_uris":{"android":"levelo://app?vid=3e79250c-7764-488c-b465-61fd16d31170","ios":"levelo://app?vid=3e79250c-7764-488c-b465-61fd16d31170"},"vehicle_type_id":"4","last_reported":1722089259,"current_range_meters":29200,"station_id":"","pricing_plan_id":"cebpf4jnsgd1na2vs0mg"},{"bike_id":"149ad317-2977-4c2d-b9af-065d2c29d5b4","system_id":"levelo_inurba_marseille","lat":43.287808,"lon":5.373669,"is_reserved":false,"is_disabled":false,"rental_uris":{"android":"levelo://app?vid=149ad317-2977-4c2d-b9af-065d2c29d5b4","ios":"levelo://app?vid=149ad317-2977-4c2d-b9af-065d2c29d5b4"},"vehicle_type_id":"4","last_reported":1722089259,"current_range_meters":17200,"station_id":"","pricing_plan_id":"cebpf4jnsgd1na2vs0mg"},{"bike_id":"ce2a281f-6b17-464e-8289-d463ea4cfa07","system_id":"levelo_inurba_marseille","lat":43.337553,"lon":5.374554,"is_reserved":false,"is_disabled":false,"rental_uris":{"android":"levelo://app?vid=ce2a281f-6b17-464e-8289-d463ea4cfa07","ios":"levelo://app?vid=ce2a281f-6b17-464e-8289-d463ea4cfa07"},"vehicle_type_id":"4","last_reported":1722089259,"current_range_meters":30000,"station_id":"","pricing_plan_id":"cebpf4jnsgd1na2vs0mg"},{"bike_id":"43d41115-8937-4ce6-93a9-3efbe19032fb","system_id":"levelo_inurba_marseille","lat":43.30643,"lon":5.40079,"is_reserved":false,"is_disabled":false,"rental_uris":{"android":"levelo://app?vid=43d41115-8937-4ce6-93a9-3efbe19032fb","ios":"levelo://app?vid=43d41115-8937-4ce6-93a9-3efbe19032fb"},"vehicle_type_id":"4","last_reported":1722089259,"current_range_meters":0,"station_id":"ce4bh112rcd13ifvqda0","pricing_plan_id":"cebpf4jnsgd1na2vs0mg"},{"bike_id":"e9a9ac78-4a37-4cdc-8c26-0216b01b1e8f","system_id":"levelo_inurba_marseille","lat":43.286591,"lon":5.363346,"is_reserved":false,"is_disabled":false,"rental_uris":{"android":"levelo://app?vid=e9a9ac78-4a37-4cdc-8c26-0216b01b1e8f","ios":"levelo://app?vid=e9a9ac78-4a37-4cdc-8c26-0216b01b1e8f"},"vehicle_type_id":"4","last_reported":1722089259,"current_range_meters":28000,"station_id":"ce4bhah2rcd13ifvqej0","pricing_plan_id":"cebpf4jnsgd1na2vs0mg"},{"bike_id":"e571207a-2d4b-4f29-9bd2-8cabaa7e2418","system_id":"levelo_inurba_marseille","lat":43.286591,"lon":5.363346,"is_reserved":false,"is_disabled":false,"rental_uris":{"android":"levelo://app?vid=e571207a-2d4b-4f29-9bd2-8cabaa7e2418","ios":"levelo://app?vid=e571207a-2d4b-4f29-9bd2-8cabaa7e2418"},"vehicle_type_id":"4","last_reported":1722089259,"current_range_meters":0,"station_id":"ce4bhah2rcd13ifvqej0","pricing_plan_id":"cebpf4jnsgd1na2vs0mg"},{"bike_id":"6afe19d3-fb86-46de-b7bd-29e39a36cb3e","system_id":"levelo_inurba_marseille","lat":43.287034,"lon":5.3739,"is_reserved":false,"is_disabled":false,"rental_uris":{"android":"levelo://app?vid=6afe19d3-fb86-46de-b7bd-29e39a36cb3e","ios":"levelo://app?vid=6afe19d3-fb86-46de-b7bd-29e39a36cb3e"},"vehicle_type_id":"4","last_reported":1722089259,"current_range_meters":800,"station_id":"","pricing_plan_id":"cebpf4jnsgd1na2vs0mg"},{"bike_id":"208d63f1-ac6a-43c0-8d4d-d897ddd3bdf5","system_id":"levelo_inurba_marseille","lat":43.286591,"lon":5.363346,"is_reserved":false,"is_disabled":false,"rental_uris":{"android":"levelo://app?vid=208d63f1-ac6a-43c0-8d4d-d897ddd3bdf5","ios":"levelo://app?vid=208d63f1-ac6a-43c0-8d4d-d897ddd3bdf5"},"vehicle_type_id":"4","last_reported":1722089259,"current_range_meters":22800,"station_id":"ce4bhah2rcd13ifvqej0","pricing_plan_id":"cebpf4jnsgd1na2vs0mg"},{"bike_id":"48237b33-26ad-45f8-926d-026f4c2d25e6","system_id":"levelo_inurba_marseille","lat":43.28663,"lon":5.363423,"is_reserved":false,"is_disabled":false,"rental_uris":{"android":"levelo://app?vid=48237b33-26ad-45f8-926d-026f4c2d25e6","ios":"levelo://app?vid=48237b33-26ad-45f8-926d-026f4c2d25e6"},"vehicle_type_id":"4","last_reported":1722089259,"current_range_meters":16800,"station_id":"","pricing_plan_id":"cebpf4jnsgd1na2vs0mg"},{"bike_id":"f3446235-a732-4a5e-be32-a737600b663b","system_id":"levelo_inurba_marseille","lat":43.286591,"lon":5.363346,"is_reserved":false,"is_disabled":false,"rental_uris":{"android":"levelo://app?vid=f3446235-a732-4a5e-be32-a737600b663b","ios":"levelo://app?vid=f3446235-a732-4a5e-be32-a737600b663b"},"vehicle_type_id":"4","last_reported":1722089259,"current_range_meters":22400,"station_id":"ce4bhah2rcd13ifvqej0","pricing_plan_id":"cebpf4jnsgd1na2vs0mg"},{"bike_id":"f97582dc-f45b-4947-8fab-e4776c91d3d0","system_id":"levelo_inurba_marseille","lat":43.28659,"lon":5.36342,"is_reserved":false,"is_disabled":false,"rental_uris":{"android":"levelo://app?vid=f97582dc-f45b-4947-8fab-e4776c91d3d0","ios":"levelo://app?vid=f97582dc-f45b-4947-8fab-e4776c91d3d0"},"vehicle_type_id":"4","last_reported":1722089259,"current_range_meters":0,"station_id":"ce4bhah2rcd13ifvqej0","pricing_plan_id":"cebpf4jnsgd1na2vs0mg"},{"bike_id":"cef467f6-5dac-40de-a226-e0443c03f1ec","system_id":"levelo_inurba_marseille","lat":43.28658,"lon":5.36351,"is_reserved":false,"is_disabled":false,"rental_uris":{"android":"levelo://app?vid=cef467f6-5dac-40de-a226-e0443c03f1ec","ios":"levelo://app?vid=cef467f6-5dac-40de-a226-e0443c03f1ec"},"vehicle_type_id":"4","last_reported":1722089259,"current_range_meters":0,"station_id":"ce4bhah2rcd13ifvqej0","pricing_plan_id":"cebpf4jnsgd1na2vs0mg"},{"bike_id":"e766417c-7a49-41c8-984e-57e3f6e2879a","system_id":"levelo_inurba_marseille","lat":43.28652,"lon":5.36339,"is_reserved":false,"is_disabled":false,"rental_uris":{"android":"levelo://app?vid=e766417c-7a49-41c8-984e-57e3f6e2879a","ios":"levelo://app?vid=e766417c-7a49-41c8-984e-57e3f6e2879a"},"vehicle_type_id":"4","last_reported":1722089259,"current_range_meters":11200,"station_id":"ce4bhah2rcd13ifvqej0","pricing_plan_id":"cebpf4jnsgd1na2vs0mg"},{"bike_id":"883e3535-9e76-42ce-8044-86c1a93637c3","system_id":"levelo_inurba_marseille","lat":43.286591,"lon":5.363346,"is_reserved":false,"is_disabled":false,"rental_uris":{"android":"levelo://app?vid=883e3535-9e76-42ce-8044-86c1a93637c3","ios":"levelo://app?vid=883e3535-9e76-42ce-8044-86c1a93637c3"},"vehicle_type_id":"4","last_reported":1722089259,"current_range_meters":21200,"station_id":"ce4bhah2rcd13ifvqej0","pricing_plan_id":"cebpf4jnsgd1na2vs0mg"},{"bike_id":"b328f2e9-243c-4bb2-ac1c-305a1596d815","system_id":"levelo_inurba_marseille","lat":43.286591,"lon":5.363346,"is_reserved":false,"is_disabled":false,"rental_uris":{"android":"levelo://app?vid=b328f2e9-243c-4bb2-ac1c-305a1596d815","ios":"levelo://app?vid=b328f2e9-243c-4bb2-ac1c-305a1596d815"},"vehicle_type_id":"4","last_reported":1722089259,"current_range_meters":26400,"station_id":"ce4bhah2rcd13ifvqej0","pricing_plan_id":"cebpf4jnsgd1na2vs0mg"},{"bike_id":"f745e933-3523-4482-95fa-6e9ccdc46b0b","system_id":"levelo_inurba_marseille","lat":43.286039,"lon":5.370679,"is_reserved":false,"is_disabled":false,"rental_uris":{"android":"levelo://app?vid=f745e933-3523-4482-95fa-6e9ccdc46b0b","ios":"levelo://app?vid=f745e933-3523-4482-95fa-6e9ccdc46b0b"},"vehicle_type_id":"4","last_reported":1722089259,"current_range_meters":20400,"station_id":"ce4bht12rcd13ifvqi60","pricing_plan_id":"cebpf4jnsgd1na2vs0mg"},{"bike_id":"21f45e9a-7d20-450b-8f12-3d96701d53ed","system_id":"levelo_inurba_marseille","lat":43.314013,"lon":5.403995,"is_reserved":false,"is_disabled":false,"rental_uris":{"android":"levelo://app?vid=21f45e9a-7d20-450b-8f12-3d96701d53ed","ios":"levelo://app?vid=21f45e9a-7d20-450b-8f12-3d96701d53ed"},"vehicle_type_id":"4","last_reported":1722089259,"current_range_meters":0,"station_id":"","pricing_plan_id":"cebpf4jnsgd1na2vs0mg"},{"bike_id":"2f6f9359-b64b-4f9f-8b0c-0edb3db70432","system_id":"levelo_inurba_marseille","lat":43.287184,"lon":5.37937,"is_reserved":false,"is_disabled":false,"rental_uris":{"android":"levelo://app?vid=2f6f9359-b64b-4f9f-8b0c-0edb3db70432","ios":"levelo://app?vid=2f6f9359-b64b-4f9f-8b0c-0edb3db70432"},"vehicle_type_id":"4","last_reported":1722089259,"current_range_meters":16400,"station_id":"ce4bh9p2rcd13ifvqec0","pricing_plan_id":"cebpf4jnsgd1na2vs0mg"},{"bike_id":"2c9ca53a-3b44-465a-8fa5-73e7cbffc645","system_id":"levelo_inurba_marseille","lat":43.28711,"lon":5.379446,"is_reserved":false,"is_disabled":false,"rental_uris":{"android":"levelo://app?vid=2c9ca53a-3b44-465a-8fa5-73e7cbffc645","ios":"levelo://app?vid=2c9ca53a-3b44-465a-8fa5-73e7cbffc645"},"vehicle_type_id":"4","last_reported":1722089259,"current_range_meters":0,"station_id":"ce4bh9p2rcd13ifvqec0","pricing_plan_id":"cebpf4jnsgd1na2vs0mg"},{"bike_id":"6f77c9e2-018b-4e9f-bca4-bf5922dc3653","system_id":"levelo_inurba_marseille","lat":43.316828,"lon":5.404723,"is_reserved":false,"is_disabled":false,"rental_uris":{"android":"levelo://app?vid=6f77c9e2-018b-4e9f-bca4-bf5922dc3653","ios":"levelo://app?vid=6f77c9e2-018b-4e9f-bca4-bf5922dc3653"},"vehicle_type_id":"4","last_reported":1722089259,"current_range_meters":12800,"station_id":"ce4bh012rcd13ifvqd00","pricing_plan_id":"cebpf4jnsgd1na2vs0mg"},{"bike_id":"bdc36ce8-5088-4d40-96fe-8ff9a487f24a","system_id":"levelo_inurba_marseille","lat":43.316821,"lon":5.404737,"is_reserved":false,"is_disabled":false,"rental_uris":{"android":"levelo://app?vid=bdc36ce8-5088-4d40-96fe-8ff9a487f24a","ios":"levelo://app?vid=bdc36ce8-5088-4d40-96fe-8ff9a487f24a"},"vehicle_type_id":"4","last_reported":1722089259,"current_range_meters":24800,"station_id":"ce4bh012rcd13ifvqd00","pricing_plan_id":"cebpf4jnsgd1na2vs0mg"},{"bike_id":"d0cd843c-b038-4f6b-99ff-f318e48abfbd","system_id":"levelo_inurba_marseille","lat":43.284538,"lon":5.358657,"is_reserved":false,"is_disabled":false,"rental_uris":{"android":"levelo://app?vid=d0cd843c-b038-4f6b-99ff-f318e48abfbd","ios":"levelo://app?vid=d0cd843c-b038-4f6b-99ff-f318e48abfbd"},"vehicle_type_id":"4","last_reported":1722089259,"current_range_meters":30000,"station_id":"ce4bhah2rcd13ifvqei0","pricing_plan_id":"cebpf4jnsgd1na2vs0mg"},{"bike_id":"47f218d1-b7e4-4180-b051-26f1d9a171b4","system_id":"levelo_inurba_marseille","lat":43.284538,"lon":5.358657,"is_reserved":false,"is_disabled":false,"rental_uris":{"android":"levelo://app?vid=47f218d1-b7e4-4180-b051-26f1d9a171b4","ios":"levelo://app?vid=47f218d1-b7e4-4180-b051-26f1d9a171b4"},"vehicle_type_id":"4","last_reported":1722089259,"current_range_meters":10400,"station_id":"ce4bhah2rcd13ifvqei0","pricing_plan_id":"cebpf4jnsgd1na2vs0mg"},{"bike_id":"40f7b6f3-b9bf-4e1d-a52e-381f3caddc8c","system_id":"levelo_inurba_marseille","lat":43.284538,"lon":5.358657,"is_reserved":false,"is_disabled":false,"rental_uris":{"android":"levelo://app?vid=40f7b6f3-b9bf-4e1d-a52e-381f3caddc8c","ios":"levelo://app?vid=40f7b6f3-b9bf-4e1d-a52e-381f3caddc8c"},"vehicle_type_id":"4","last_reported":1722089259,"current_range_meters":12000,"station_id":"ce4bhah2rcd13ifvqei0","pricing_plan_id":"cebpf4jnsgd1na2vs0mg"},{"bike_id":"370e08c5-ad12-4a15-ba1d-337111410259","system_id":"levelo_inurba_marseille","lat":43.284534,"lon":5.358662,"is_reserved":false,"is_disabled":false,"rental_uris":{"android":"levelo://app?vid=370e08c5-ad12-4a15-ba1d-337111410259","ios":"levelo://app?vid=370e08c5-ad12-4a15-ba1d-337111410259"},"vehicle_type_id":"4","last_reported":1722089259,"current_range_meters":4000,"station_id":"ce4bhah2rcd13ifvqei0","pricing_plan_id":"cebpf4jnsgd1na2vs0mg"},{"bike_id":"4e103760-85a6-42df-8170-f9cde7760959","system_id":"levelo_inurba_marseille","lat":43.284538,"lon":5.358657,"is_reserved":false,"is_disabled":false,"rental_uris":{"android":"levelo://app?vid=4e103760-85a6-42df-8170-f9cde7760959","ios":"levelo://app?vid=4e103760-85a6-42df-8170-f9cde7760959"},"vehicle_type_id":"4","last_reported":1722089259,"current_range_meters":0,"station_id":"ce4bhah2rcd13ifvqei0","pricing_plan_id":"cebpf4jnsgd1na2vs0mg"},{"bike_id":"493e2d3a-7834-4ea0-81dd-4ab70bd3b817","system_id":"levelo_inurba_marseille","lat":43.28458,"lon":5.35897,"is_reserved":false,"is_disabled":false,"rental_uris":{"android":"levelo://app?vid=493e2d3a-7834-4ea0-81dd-4ab70bd3b817","ios":"levelo://app?vid=493e2d3a-7834-4ea0-81dd-4ab70bd3b817"},"vehicle_type_id":"4","last_reported":1722089259,"current_range_meters":11600,"station_id":"ce4bhah2rcd13ifvqei0","pricing_plan_id":"cebpf4jnsgd1na2vs0mg"},{"bike_id":"2aeb9367-a019-4064-b56f-5957df3f99f3","system_id":"levelo_inurba_marseille","lat":43.284538,"lon":5.358657,"is_reserved":false,"is_disabled":false,"rental_uris":{"android":"levelo://app?vid=2aeb9367-a019-4064-b56f-5957df3f99f3","ios":"levelo://app?vid=2aeb9367-a019-4064-b56f-5957df3f99f3"},"vehicle_type_id":"4","last_reported":1722089259,"current_range_meters":7200,"station_id":"ce4bhah2rcd13ifvqei0","pricing_plan_id":"cebpf4jnsgd1na2vs0mg"},{"bike_id":"0063ab33-f89d-4643-80d7-9eca5e6905b9","system_id":"levelo_inurba_marseille","lat":43.284538,"lon":5.358657,"is_reserved":false,"is_disabled":false,"rental_uris":{"android":"levelo://app?vid=0063ab33-f89d-4643-80d7-9eca5e6905b9","ios":"levelo://app?vid=0063ab33-f89d-4643-80d7-9eca5e6905b9"},"vehicle_type_id":"4","last_reported":1722089259,"current_range_meters":15600,"station_id":"ce4bhah2rcd13ifvqei0","pricing_plan_id":"cebpf4jnsgd1na2vs0mg"},{"bike_id":"87a98917-96f0-4d21-8226-a01c2075780a","system_id":"levelo_inurba_marseille","lat":43.284538,"lon":5.358657,"is_reserved":false,"is_disabled":false,"rental_uris":{"android":"levelo://app?vid=87a98917-96f0-4d21-8226-a01c2075780a","ios":"levelo://app?vid=87a98917-96f0-4d21-8226-a01c2075780a"},"vehicle_type_id":"4","last_reported":1722089259,"current_range_meters":0,"station_id":"ce4bhah2rcd13ifvqei0","pricing_plan_id":"cebpf4jnsgd1na2vs0mg"},{"bike_id":"2a7ca6ff-bfdc-49c8-8b3f-da0372eefd2f","system_id":"levelo_inurba_marseille","lat":43.28457,"lon":5.35886,"is_reserved":false,"is_disabled":false,"rental_uris":{"android":"levelo://app?vid=2a7ca6ff-bfdc-49c8-8b3f-da0372eefd2f","ios":"levelo://app?vid=2a7ca6ff-bfdc-49c8-8b3f-da0372eefd2f"},"vehicle_type_id":"4","last_reported":1722089259,"current_range_meters":0,"station_id":"ce4bhah2rcd13ifvqei0","pricing_plan_id":"cebpf4jnsgd1na2vs0mg"},{"bike_id":"bb1be8c2-6551-4e36-883e-6200cfadcfa7","system_id":"levelo_inurba_marseille","lat":43.28454,"lon":5.35895,"is_reserved":false,"is_disabled":false,"rental_uris":{"android":"levelo://app?vid=bb1be8c2-6551-4e36-883e-6200cfadcfa7","ios":"levelo://app?vid=bb1be8c2-6551-4e36-883e-6200cfadcfa7"},"vehicle_type_id":"4","last_reported":1722089259,"current_range_meters":11600,"station_id":"ce4bhah2rcd13ifvqei0","pricing_plan_id":"cebpf4jnsgd1na2vs0mg"},{"bike_id":"535c412c-1898-458f-b742-298089281984","system_id":"levelo_inurba_marseille","lat":43.28627,"lon":5.35101,"is_reserved":false,"is_disabled":false,"rental_uris":{"android":"levelo://app?vid=535c412c-1898-458f-b742-298089281984","ios":"levelo://app?vid=535c412c-1898-458f-b742-298089281984"},"vehicle_type_id":"4","last_reported":1722089259,"current_range_meters":20000,"station_id":"ce4bhch2rcd13ifvqeug","pricing_plan_id":"cebpf4jnsgd1na2vs0mg"},{"bike_id":"93a630e7-f780-4ca5-82b3-530306e2ebf5","system_id":"levelo_inurba_marseille","lat":43.294314,"lon":5.397498,"is_reserved":false,"is_disabled":false,"rental_uris":{"android":"levelo://app?vid=93a630e7-f780-4ca5-82b3-530306e2ebf5","ios":"levelo://app?vid=93a630e7-f780-4ca5-82b3-530306e2ebf5"},"vehicle_type_id":"4","last_reported":1722089259,"current_range_meters":17200,"station_id":"ce4bh3h2rcd13ifvqdo0","pricing_plan_id":"cebpf4jnsgd1na2vs0mg"},{"bike_id":"b5a51157-4664-4bfa-9d60-7807e5ad9824","system_id":"levelo_inurba_marseille","lat":43.28624,"lon":5.35098,"is_reserved":false,"is_disabled":false,"rental_uris":{"android":"levelo://app?vid=b5a51157-4664-4bfa-9d60-7807e5ad9824","ios":"levelo://app?vid=b5a51157-4664-4bfa-9d60-7807e5ad9824"},"vehicle_type_id":"4","last_reported":1722089259,"current_range_meters":30800,"station_id":"ce4bhch2rcd13ifvqeug","pricing_plan_id":"cebpf4jnsgd1na2vs0mg"},{"bike_id":"c26aec70-2d61-4de1-8b5f-a4bf02eb00c2","system_id":"levelo_inurba_marseille","lat":43.28624,"lon":5.35096,"is_reserved":false,"is_disabled":false,"rental_uris":{"android":"levelo://app?vid=c26aec70-2d61-4de1-8b5f-a4bf02eb00c2","ios":"levelo://app?vid=c26aec70-2d61-4de1-8b5f-a4bf02eb00c2"},"vehicle_type_id":"4","last_reported":1722089259,"current_range_meters":11600,"station_id":"ce4bhch2rcd13ifvqeug","pricing_plan_id":"cebpf4jnsgd1na2vs0mg"},{"bike_id":"01473be5-f961-42b6-88f9-28d81e6133a2","system_id":"levelo_inurba_marseille","lat":43.286223,"lon":5.350997,"is_reserved":false,"is_disabled":false,"rental_uris":{"android":"levelo://app?vid=01473be5-f961-42b6-88f9-28d81e6133a2","ios":"levelo://app?vid=01473be5-f961-42b6-88f9-28d81e6133a2"},"vehicle_type_id":"4","last_reported":1722089259,"current_range_meters":11200,"station_id":"ce4bhch2rcd13ifvqeug","pricing_plan_id":"cebpf4jnsgd1na2vs0mg"},{"bike_id":"58b7941b-7730-4477-bfcd-e99f3d80ca1c","system_id":"levelo_inurba_marseille","lat":43.28621,"lon":5.35103,"is_reserved":false,"is_disabled":false,"rental_uris":{"android":"levelo://app?vid=58b7941b-7730-4477-bfcd-e99f3d80ca1c","ios":"levelo://app?vid=58b7941b-7730-4477-bfcd-e99f3d80ca1c"},"vehicle_type_id":"4","last_reported":1722089259,"current_range_meters":18400,"station_id":"ce4bhch2rcd13ifvqeug","pricing_plan_id":"cebpf4jnsgd1na2vs0mg"},{"bike_id":"074448ee-e507-4cad-a096-52fd96acfdb4","system_id":"levelo_inurba_marseille","lat":43.28618,"lon":5.35109,"is_reserved":false,"is_disabled":false,"rental_uris":{"android":"levelo://app?vid=074448ee-e507-4cad-a096-52fd96acfdb4","ios":"levelo://app?vid=074448ee-e507-4cad-a096-52fd96acfdb4"},"vehicle_type_id":"4","last_reported":1722089259,"current_range_meters":27200,"station_id":"ce4bhch2rcd13ifvqeug","pricing_plan_id":"cebpf4jnsgd1na2vs0mg"},{"bike_id":"6544ef57-6f41-4ffe-b4a0-da3392b69f6a","system_id":"levelo_inurba_marseille","lat":43.28613,"lon":5.35123,"is_reserved":false,"is_disabled":false,"rental_uris":{"android":"levelo://app?vid=6544ef57-6f41-4ffe-b4a0-da3392b69f6a","ios":"levelo://app?vid=6544ef57-6f41-4ffe-b4a0-da3392b69f6a"},"vehicle_type_id":"4","last_reported":1722089259,"current_range_meters":22000,"station_id":"ce4bhch2rcd13ifvqeug","pricing_plan_id":"cebpf4jnsgd1na2vs0mg"},{"bike_id":"9c197d19-8c46-44c1-bdb4-9318a32c38c4","system_id":"levelo_inurba_marseille","lat":43.2862,"lon":5.35099,"is_reserved":false,"is_disabled":false,"rental_uris":{"android":"levelo://app?vid=9c197d19-8c46-44c1-bdb4-9318a32c38c4","ios":"levelo://app?vid=9c197d19-8c46-44c1-bdb4-9318a32c38c4"},"vehicle_type_id":"4","last_reported":1722089259,"current_range_meters":3200,"station_id":"ce4bhch2rcd13ifvqeug","pricing_plan_id":"cebpf4jnsgd1na2vs0mg"},{"bike_id":"803b7649-fa00-48ea-9032-3f08cffcec49","system_id":"levelo_inurba_marseille","lat":43.2862,"lon":5.35096,"is_reserved":false,"is_disabled":false,"rental_uris":{"android":"levelo://app?vid=803b7649-fa00-48ea-9032-3f08cffcec49","ios":"levelo://app?vid=803b7649-fa00-48ea-9032-3f08cffcec49"},"vehicle_type_id":"4","last_reported":1722089259,"current_range_meters":31200,"station_id":"ce4bhch2rcd13ifvqeug","pricing_plan_id":"cebpf4jnsgd1na2vs0mg"},{"bike_id":"27849222-323d-4861-a2ea-3749ee55de4a","system_id":"levelo_inurba_marseille","lat":43.28616,"lon":5.35108,"is_reserved":false,"is_disabled":false,"rental_uris":{"android":"levelo://app?vid=27849222-323d-4861-a2ea-3749ee55de4a","ios":"levelo://app?vid=27849222-323d-4861-a2ea-3749ee55de4a"},"vehicle_type_id":"4","last_reported":1722089259,"current_range_meters":19600,"station_id":"ce4bhch2rcd13ifvqeug","pricing_plan_id":"cebpf4jnsgd1na2vs0mg"},{"bike_id":"99ea2bc6-6ef6-4994-b587-e888f2c32149","system_id":"levelo_inurba_marseille","lat":43.28616,"lon":5.35105,"is_reserved":false,"is_disabled":false,"rental_uris":{"android":"levelo://app?vid=99ea2bc6-6ef6-4994-b587-e888f2c32149","ios":"levelo://app?vid=99ea2bc6-6ef6-4994-b587-e888f2c32149"},"vehicle_type_id":"4","last_reported":1722089259,"current_range_meters":19200,"station_id":"ce4bhch2rcd13ifvqeug","pricing_plan_id":"cebpf4jnsgd1na2vs0mg"},{"bike_id":"0792a101-7bde-4532-ad0d-069f2d9219db","system_id":"levelo_inurba_marseille","lat":43.28618,"lon":5.35098,"is_reserved":false,"is_disabled":false,"rental_uris":{"android":"levelo://app?vid=0792a101-7bde-4532-ad0d-069f2d9219db","ios":"levelo://app?vid=0792a101-7bde-4532-ad0d-069f2d9219db"},"vehicle_type_id":"4","last_reported":1722089259,"current_range_meters":12400,"station_id":"ce4bhch2rcd13ifvqeug","pricing_plan_id":"cebpf4jnsgd1na2vs0mg"},{"bike_id":"4d391fdd-66ed-462e-a0af-3b655dadaab0","system_id":"levelo_inurba_marseille","lat":43.28617,"lon":5.35101,"is_reserved":false,"is_disabled":false,"rental_uris":{"android":"levelo://app?vid=4d391fdd-66ed-462e-a0af-3b655dadaab0","ios":"levelo://app?vid=4d391fdd-66ed-462e-a0af-3b655dadaab0"},"vehicle_type_id":"4","last_reported":1722089259,"current_range_meters":3200,"station_id":"ce4bhch2rcd13ifvqeug","pricing_plan_id":"cebpf4jnsgd1na2vs0mg"},{"bike_id":"25b75580-e66d-48ed-b206-e205005b3b43","system_id":"levelo_inurba_marseille","lat":43.28616,"lon":5.35104,"is_reserved":false,"is_disabled":false,"rental_uris":{"android":"levelo://app?vid=25b75580-e66d-48ed-b206-e205005b3b43","ios":"levelo://app?vid=25b75580-e66d-48ed-b206-e205005b3b43"},"vehicle_type_id":"4","last_reported":1722089259,"current_range_meters":20800,"station_id":"ce4bhch2rcd13ifvqeug","pricing_plan_id":"cebpf4jnsgd1na2vs0mg"},{"bike_id":"524af3ed-1a36-4b94-b39a-7964a5fbaa80","system_id":"levelo_inurba_marseille","lat":43.28616,"lon":5.35104,"is_reserved":false,"is_disabled":false,"rental_uris":{"android":"levelo://app?vid=524af3ed-1a36-4b94-b39a-7964a5fbaa80","ios":"levelo://app?vid=524af3ed-1a36-4b94-b39a-7964a5fbaa80"},"vehicle_type_id":"4","last_reported":1722089259,"current_range_meters":3600,"station_id":"ce4bhch2rcd13ifvqeug","pricing_plan_id":"cebpf4jnsgd1na2vs0mg"},{"bike_id":"f47281a1-f6eb-4c5b-8832-eb1f85bd1fc8","system_id":"levelo_inurba_marseille","lat":43.28617,"lon":5.351,"is_reserved":false,"is_disabled":false,"rental_uris":{"android":"levelo://app?vid=f47281a1-f6eb-4c5b-8832-eb1f85bd1fc8","ios":"levelo://app?vid=f47281a1-f6eb-4c5b-8832-eb1f85bd1fc8"},"vehicle_type_id":"4","last_reported":1722089259,"current_range_meters":23200,"station_id":"ce4bhch2rcd13ifvqeug","pricing_plan_id":"cebpf4jnsgd1na2vs0mg"},{"bike_id":"393fb8bd-e0e9-483c-8250-119aad64b0cc","system_id":"levelo_inurba_marseille","lat":43.28616,"lon":5.35103,"is_reserved":false,"is_disabled":false,"rental_uris":{"android":"levelo://app?vid=393fb8bd-e0e9-483c-8250-119aad64b0cc","ios":"levelo://app?vid=393fb8bd-e0e9-483c-8250-119aad64b0cc"},"vehicle_type_id":"4","last_reported":1722089259,"current_range_meters":0,"station_id":"ce4bhch2rcd13ifvqeug","pricing_plan_id":"cebpf4jnsgd1na2vs0mg"},{"bike_id":"6453a802-53f6-48c4-8aff-7c293ed75dda","system_id":"levelo_inurba_marseille","lat":43.28613,"lon":5.35108,"is_reserved":false,"is_disabled":false,"rental_uris":{"android":"levelo://app?vid=6453a802-53f6-48c4-8aff-7c293ed75dda","ios":"levelo://app?vid=6453a802-53f6-48c4-8aff-7c293ed75dda"},"vehicle_type_id":"4","last_reported":1722089259,"current_range_meters":21200,"station_id":"ce4bhch2rcd13ifvqeug","pricing_plan_id":"cebpf4jnsgd1na2vs0mg"},{"bike_id":"aeec8b6c-8ab6-4895-b7ee-c104c635ca3a","system_id":"levelo_inurba_marseille","lat":43.28615,"lon":5.35101,"is_reserved":false,"is_disabled":false,"rental_uris":{"android":"levelo://app?vid=aeec8b6c-8ab6-4895-b7ee-c104c635ca3a","ios":"levelo://app?vid=aeec8b6c-8ab6-4895-b7ee-c104c635ca3a"},"vehicle_type_id":"4","last_reported":1722089259,"current_range_meters":23200,"station_id":"ce4bhch2rcd13ifvqeug","pricing_plan_id":"cebpf4jnsgd1na2vs0mg"},{"bike_id":"2d3c31c5-960d-40cd-8079-77bcc6293f17","system_id":"levelo_inurba_marseille","lat":43.28614,"lon":5.35104,"is_reserved":false,"is_disabled":false,"rental_uris":{"android":"levelo://app?vid=2d3c31c5-960d-40cd-8079-77bcc6293f17","ios":"levelo://app?vid=2d3c31c5-960d-40cd-8079-77bcc6293f17"},"vehicle_type_id":"4","last_reported":1722089259,"current_range_meters":11600,"station_id":"ce4bhch2rcd13ifvqeug","pricing_plan_id":"cebpf4jnsgd1na2vs0mg"},{"bike_id":"ee3bd901-f8e8-445b-8208-9c298c8c71c1","system_id":"levelo_inurba_marseille","lat":43.28614,"lon":5.35104,"is_reserved":false,"is_disabled":false,"rental_uris":{"android":"levelo://app?vid=ee3bd901-f8e8-445b-8208-9c298c8c71c1","ios":"levelo://app?vid=ee3bd901-f8e8-445b-8208-9c298c8c71c1"},"vehicle_type_id":"4","last_reported":1722089259,"current_range_meters":2400,"station_id":"ce4bhch2rcd13ifvqeug","pricing_plan_id":"cebpf4jnsgd1na2vs0mg"},{"bike_id":"a411acfb-dcb4-485e-a67b-cc5c9fd0feac","system_id":"levelo_inurba_marseille","lat":43.28614,"lon":5.35103,"is_reserved":false,"is_disabled":false,"rental_uris":{"android":"levelo://app?vid=a411acfb-dcb4-485e-a67b-cc5c9fd0feac","ios":"levelo://app?vid=a411acfb-dcb4-485e-a67b-cc5c9fd0feac"},"vehicle_type_id":"4","last_reported":1722089259,"current_range_meters":31200,"station_id":"ce4bhch2rcd13ifvqeug","pricing_plan_id":"cebpf4jnsgd1na2vs0mg"},{"bike_id":"a1fb0234-862c-4247-99a7-e57367b0c1cf","system_id":"levelo_inurba_marseille","lat":43.28614,"lon":5.35102,"is_reserved":false,"is_disabled":false,"rental_uris":{"android":"levelo://app?vid=a1fb0234-862c-4247-99a7-e57367b0c1cf","ios":"levelo://app?vid=a1fb0234-862c-4247-99a7-e57367b0c1cf"},"vehicle_type_id":"4","last_reported":1722089259,"current_range_meters":31200,"station_id":"ce4bhch2rcd13ifvqeug","pricing_plan_id":"cebpf4jnsgd1na2vs0mg"},{"bike_id":"e8484b54-bfb7-4357-8f80-a22a627e22e0","system_id":"levelo_inurba_marseille","lat":43.28614,"lon":5.35102,"is_reserved":false,"is_disabled":false,"rental_uris":{"android":"levelo://app?vid=e8484b54-bfb7-4357-8f80-a22a627e22e0","ios":"levelo://app?vid=e8484b54-bfb7-4357-8f80-a22a627e22e0"},"vehicle_type_id":"4","last_reported":1722089259,"current_range_meters":28800,"station_id":"ce4bhch2rcd13ifvqeug","pricing_plan_id":"cebpf4jnsgd1na2vs0mg"},{"bike_id":"4824540b-fbf7-4bf3-a905-8273b446cc57","system_id":"levelo_inurba_marseille","lat":43.28612,"lon":5.35108,"is_reserved":false,"is_disabled":false,"rental_uris":{"android":"levelo://app?vid=4824540b-fbf7-4bf3-a905-8273b446cc57","ios":"levelo://app?vid=4824540b-fbf7-4bf3-a905-8273b446cc57"},"vehicle_type_id":"4","last_reported":1722089259,"current_range_meters":30800,"station_id":"ce4bhch2rcd13ifvqeug","pricing_plan_id":"cebpf4jnsgd1na2vs0mg"},{"bike_id":"78784ea7-f0f5-421a-8119-a6cc86e761ae","system_id":"levelo_inurba_marseille","lat":43.28615,"lon":5.35098,"is_reserved":false,"is_disabled":false,"rental_uris":{"android":"levelo://app?vid=78784ea7-f0f5-421a-8119-a6cc86e761ae","ios":"levelo://app?vid=78784ea7-f0f5-421a-8119-a6cc86e761ae"},"vehicle_type_id":"4","last_reported":1722089259,"current_range_meters":10800,"station_id":"ce4bhch2rcd13ifvqeug","pricing_plan_id":"cebpf4jnsgd1na2vs0mg"},{"bike_id":"c02ce2af-db38-4fb2-af42-c48479d2ca97","system_id":"levelo_inurba_marseille","lat":43.28612,"lon":5.35107,"is_reserved":false,"is_disabled":false,"rental_uris":{"android":"levelo://app?vid=c02ce2af-db38-4fb2-af42-c48479d2ca97","ios":"levelo://app?vid=c02ce2af-db38-4fb2-af42-c48479d2ca97"},"vehicle_type_id":"4","last_reported":1722089259,"current_range_meters":1200,"station_id":"ce4bhch2rcd13ifvqeug","pricing_plan_id":"cebpf4jnsgd1na2vs0mg"},{"bike_id":"a187a3be-5859-4d3a-827a-8d8d0e7b2144","system_id":"levelo_inurba_marseille","lat":43.28613,"lon":5.35102,"is_reserved":false,"is_disabled":false,"rental_uris":{"android":"levelo://app?vid=a187a3be-5859-4d3a-827a-8d8d0e7b2144","ios":"levelo://app?vid=a187a3be-5859-4d3a-827a-8d8d0e7b2144"},"vehicle_type_id":"4","last_reported":1722089259,"current_range_meters":26000,"station_id":"ce4bhch2rcd13ifvqeug","pricing_plan_id":"cebpf4jnsgd1na2vs0mg"},{"bike_id":"addc2f9a-be85-4513-8bfa-b2adf33c7819","system_id":"levelo_inurba_marseille","lat":43.285856,"lon":5.350771,"is_reserved":false,"is_disabled":false,"rental_uris":{"android":"levelo://app?vid=addc2f9a-be85-4513-8bfa-b2adf33c7819","ios":"levelo://app?vid=addc2f9a-be85-4513-8bfa-b2adf33c7819"},"vehicle_type_id":"4","last_reported":1722089259,"current_range_meters":20000,"station_id":"ce4bhch2rcd13ifvqeug","pricing_plan_id":"cebpf4jnsgd1na2vs0mg"},{"bike_id":"7f4cd0dd-d743-4396-a21a-887e78b47fbe","system_id":"levelo_inurba_marseille","lat":43.28612,"lon":5.35104,"is_reserved":false,"is_disabled":false,"rental_uris":{"android":"levelo://app?vid=7f4cd0dd-d743-4396-a21a-887e78b47fbe","ios":"levelo://app?vid=7f4cd0dd-d743-4396-a21a-887e78b47fbe"},"vehicle_type_id":"4","last_reported":1722089259,"current_range_meters":400,"station_id":"ce4bhch2rcd13ifvqeug","pricing_plan_id":"cebpf4jnsgd1na2vs0mg"},{"bike_id":"e6a3d18f-037f-4f04-aded-9df2f63009c7","system_id":"levelo_inurba_marseille","lat":43.28614,"lon":5.35097,"is_reserved":false,"is_disabled":false,"rental_uris":{"android":"levelo://app?vid=e6a3d18f-037f-4f04-aded-9df2f63009c7","ios":"levelo://app?vid=e6a3d18f-037f-4f04-aded-9df2f63009c7"},"vehicle_type_id":"4","last_reported":1722089259,"current_range_meters":16800,"station_id":"ce4bhch2rcd13ifvqeug","pricing_plan_id":"cebpf4jnsgd1na2vs0mg"},{"bike_id":"dd196e07-656a-436c-8b64-2cb9ed00f148","system_id":"levelo_inurba_marseille","lat":43.28613,"lon":5.35099,"is_reserved":false,"is_disabled":false,"rental_uris":{"android":"levelo://app?vid=dd196e07-656a-436c-8b64-2cb9ed00f148","ios":"levelo://app?vid=dd196e07-656a-436c-8b64-2cb9ed00f148"},"vehicle_type_id":"4","last_reported":1722089259,"current_range_meters":14400,"station_id":"ce4bhch2rcd13ifvqeug","pricing_plan_id":"cebpf4jnsgd1na2vs0mg"},{"bike_id":"e3b95ea3-8cdd-42db-8688-37d34fd19ec3","system_id":"levelo_inurba_marseille","lat":43.28613,"lon":5.35098,"is_reserved":false,"is_disabled":false,"rental_uris":{"android":"levelo://app?vid=e3b95ea3-8cdd-42db-8688-37d34fd19ec3","ios":"levelo://app?vid=e3b95ea3-8cdd-42db-8688-37d34fd19ec3"},"vehicle_type_id":"4","last_reported":1722089259,"current_range_meters":17200,"station_id":"ce4bhch2rcd13ifvqeug","pricing_plan_id":"cebpf4jnsgd1na2vs0mg"},{"bike_id":"5c277789-2d44-47d0-94f1-21ea65b66de1","system_id":"levelo_inurba_marseille","lat":43.28612,"lon":5.35101,"is_reserved":false,"is_disabled":false,"rental_uris":{"android":"levelo://app?vid=5c277789-2d44-47d0-94f1-21ea65b66de1","ios":"levelo://app?vid=5c277789-2d44-47d0-94f1-21ea65b66de1"},"vehicle_type_id":"4","last_reported":1722089259,"current_range_meters":11200,"station_id":"ce4bhch2rcd13ifvqeug","pricing_plan_id":"cebpf4jnsgd1na2vs0mg"},{"bike_id":"d2fea3f2-b1fb-4319-9bb4-5febe3a3d351","system_id":"levelo_inurba_marseille","lat":43.286233,"lon":5.35064,"is_reserved":false,"is_disabled":false,"rental_uris":{"android":"levelo://app?vid=d2fea3f2-b1fb-4319-9bb4-5febe3a3d351","ios":"levelo://app?vid=d2fea3f2-b1fb-4319-9bb4-5febe3a3d351"},"vehicle_type_id":"4","last_reported":1722089259,"current_range_meters":3600,"station_id":"ce4bhch2rcd13ifvqeug","pricing_plan_id":"cebpf4jnsgd1na2vs0mg"},{"bike_id":"69815a8d-7df8-4a01-b8f0-b6154bf375e0","system_id":"levelo_inurba_marseille","lat":43.28612,"lon":5.35099,"is_reserved":false,"is_disabled":false,"rental_uris":{"android":"levelo://app?vid=69815a8d-7df8-4a01-b8f0-b6154bf375e0","ios":"levelo://app?vid=69815a8d-7df8-4a01-b8f0-b6154bf375e0"},"vehicle_type_id":"4","last_reported":1722089259,"current_range_meters":26000,"station_id":"ce4bhch2rcd13ifvqeug","pricing_plan_id":"cebpf4jnsgd1na2vs0mg"},{"bike_id":"c007c553-67dc-4371-a791-3316a2ca47df","system_id":"levelo_inurba_marseille","lat":43.28612,"lon":5.35098,"is_reserved":false,"is_disabled":false,"rental_uris":{"android":"levelo://app?vid=c007c553-67dc-4371-a791-3316a2ca47df","ios":"levelo://app?vid=c007c553-67dc-4371-a791-3316a2ca47df"},"vehicle_type_id":"4","last_reported":1722089259,"current_range_meters":24800,"station_id":"ce4bhch2rcd13ifvqeug","pricing_plan_id":"cebpf4jnsgd1na2vs0mg"},{"bike_id":"e5f1acc0-69c3-4f28-aad9-6fbfd33135c7","system_id":"levelo_inurba_marseille","lat":43.28609,"lon":5.35106,"is_reserved":false,"is_disabled":false,"rental_uris":{"android":"levelo://app?vid=e5f1acc0-69c3-4f28-aad9-6fbfd33135c7","ios":"levelo://app?vid=e5f1acc0-69c3-4f28-aad9-6fbfd33135c7"},"vehicle_type_id":"4","last_reported":1722089259,"current_range_meters":7600,"station_id":"ce4bhch2rcd13ifvqeug","pricing_plan_id":"cebpf4jnsgd1na2vs0mg"},{"bike_id":"8399d982-4a71-4452-8746-81f0bf2d15f4","system_id":"levelo_inurba_marseille","lat":43.283998,"lon":5.375062,"is_reserved":false,"is_disabled":false,"rental_uris":{"android":"levelo://app?vid=8399d982-4a71-4452-8746-81f0bf2d15f4","ios":"levelo://app?vid=8399d982-4a71-4452-8746-81f0bf2d15f4"},"vehicle_type_id":"4","last_reported":1722089259,"current_range_meters":0,"station_id":"ce4bh412rcd13ifvqds0","pricing_plan_id":"cebpf4jnsgd1na2vs0mg"},{"bike_id":"25b39d58-2450-4538-b6f7-915ee378e72c","system_id":"levelo_inurba_marseille","lat":43.2957,"lon":5.39977,"is_reserved":false,"is_disabled":false,"rental_uris":{"android":"levelo://app?vid=25b39d58-2450-4538-b6f7-915ee378e72c","ios":"levelo://app?vid=25b39d58-2450-4538-b6f7-915ee378e72c"},"vehicle_type_id":"4","last_reported":1722089259,"current_range_meters":4400,"station_id":"ce4bh312rcd13ifvqdj0","pricing_plan_id":"cebpf4jnsgd1na2vs0mg"},{"bike_id":"ed0bd43e-3247-4a32-8ba2-dc45c7982713","system_id":"levelo_inurba_marseille","lat":43.319179,"lon":5.407725,"is_reserved":false,"is_disabled":false,"rental_uris":{"android":"levelo://app?vid=ed0bd43e-3247-4a32-8ba2-dc45c7982713","ios":"levelo://app?vid=ed0bd43e-3247-4a32-8ba2-dc45c7982713"},"vehicle_type_id":"4","last_reported":1722089259,"current_range_meters":31200,"station_id":"ce4bhq12rcd13ifvqhig","pricing_plan_id":"cebpf4jnsgd1na2vs0mg"},{"bike_id":"acd01f13-54aa-4157-ab6b-0846acc70e3e","system_id":"levelo_inurba_marseille","lat":43.323464,"lon":5.406297,"is_reserved":false,"is_disabled":false,"rental_uris":{"android":"levelo://app?vid=acd01f13-54aa-4157-ab6b-0846acc70e3e","ios":"levelo://app?vid=acd01f13-54aa-4157-ab6b-0846acc70e3e"},"vehicle_type_id":"4","last_reported":1722089259,"current_range_meters":3200,"station_id":"ce4bhq92rcd13ifvqhjg","pricing_plan_id":"cebpf4jnsgd1na2vs0mg"},{"bike_id":"bac069dd-e9ca-4ec3-b8a4-d610c225d64e","system_id":"levelo_inurba_marseille","lat":43.33717,"lon":5.391857,"is_reserved":false,"is_disabled":false,"rental_uris":{"android":"levelo://app?vid=bac069dd-e9ca-4ec3-b8a4-d610c225d64e","ios":"levelo://app?vid=bac069dd-e9ca-4ec3-b8a4-d610c225d64e"},"vehicle_type_id":"4","last_reported":1722089259,"current_range_meters":24000,"station_id":"ce4bhr92rcd13ifvqhsg","pricing_plan_id":"cebpf4jnsgd1na2vs0mg"},{"bike_id":"b2370f5e-39e0-47cd-9965-d423209178c3","system_id":"levelo_inurba_marseille","lat":43.284787,"lon":5.384116,"is_reserved":false,"is_disabled":false,"rental_uris":{"android":"levelo://app?vid=b2370f5e-39e0-47cd-9965-d423209178c3","ios":"levelo://app?vid=b2370f5e-39e0-47cd-9965-d423209178c3"},"vehicle_type_id":"4","last_reported":1722089259,"current_range_meters":0,"station_id":"ce4bh512rcd13ifvqe3g","pricing_plan_id":"cebpf4jnsgd1na2vs0mg"},{"bike_id":"f3479c0e-fea9-410c-a8c2-c9e41a863aeb","system_id":"levelo_inurba_marseille","lat":43.297946,"lon":5.404063,"is_reserved":false,"is_disabled":false,"rental_uris":{"android":"levelo://app?vid=f3479c0e-fea9-410c-a8c2-c9e41a863aeb","ios":"levelo://app?vid=f3479c0e-fea9-410c-a8c2-c9e41a863aeb"},"vehicle_type_id":"4","last_reported":1722089259,"current_range_meters":18000,"station_id":"ce4bh112rcd13ifvqd90","pricing_plan_id":"cebpf4jnsgd1na2vs0mg"},{"bike_id":"1858a12b-c6ac-4259-84c2-9a33a697b56e","system_id":"levelo_inurba_marseille","lat":43.284787,"lon":5.384116,"is_reserved":false,"is_disabled":false,"rental_uris":{"android":"levelo://app?vid=1858a12b-c6ac-4259-84c2-9a33a697b56e","ios":"levelo://app?vid=1858a12b-c6ac-4259-84c2-9a33a697b56e"},"vehicle_type_id":"4","last_reported":1722089259,"current_range_meters":0,"station_id":"ce4bh512rcd13ifvqe3g","pricing_plan_id":"cebpf4jnsgd1na2vs0mg"},{"bike_id":"31be6db3-8366-468b-b662-94ed13a73bb4","system_id":"levelo_inurba_marseille","lat":43.288497,"lon":5.393089,"is_reserved":false,"is_disabled":false,"rental_uris":{"android":"levelo://app?vid=31be6db3-8366-468b-b662-94ed13a73bb4","ios":"levelo://app?vid=31be6db3-8366-468b-b662-94ed13a73bb4"},"vehicle_type_id":"4","last_reported":1722089259,"current_range_meters":14000,"station_id":"ce4bh2p2rcd13ifvqdi0","pricing_plan_id":"cebpf4jnsgd1na2vs0mg"},{"bike_id":"afaee66b-29cc-4074-9586-26163128e458","system_id":"levelo_inurba_marseille","lat":43.288501,"lon":5.393087,"is_reserved":false,"is_disabled":false,"rental_uris":{"android":"levelo://app?vid=afaee66b-29cc-4074-9586-26163128e458","ios":"levelo://app?vid=afaee66b-29cc-4074-9586-26163128e458"},"vehicle_type_id":"4","last_reported":1722089259,"current_range_meters":10400,"station_id":"ce4bh2p2rcd13ifvqdi0","pricing_plan_id":"cebpf4jnsgd1na2vs0mg"},{"bike_id":"c2620d4c-3a36-4fa2-a412-e93a29a08672","system_id":"levelo_inurba_marseille","lat":43.276771,"lon":5.388799,"is_reserved":false,"is_disabled":false,"rental_uris":{"android":"levelo://app?vid=c2620d4c-3a36-4fa2-a412-e93a29a08672","ios":"levelo://app?vid=c2620d4c-3a36-4fa2-a412-e93a29a08672"},"vehicle_type_id":"4","last_reported":1722089259,"current_range_meters":5200,"station_id":"ce4bhi12rcd13ifvqfo0","pricing_plan_id":"cebpf4jnsgd1na2vs0mg"},{"bike_id":"aa69235d-3355-442e-b43b-c999c94c7596","system_id":"levelo_inurba_marseille","lat":43.284219,"lon":5.3497,"is_reserved":false,"is_disabled":false,"rental_uris":{"android":"levelo://app?vid=aa69235d-3355-442e-b43b-c999c94c7596","ios":"levelo://app?vid=aa69235d-3355-442e-b43b-c999c94c7596"},"vehicle_type_id":"4","last_reported":1722089259,"current_range_meters":31200,"station_id":"ce4bhbh2rcd13ifvqepg","pricing_plan_id":"cebpf4jnsgd1na2vs0mg"},{"bike_id":"5520c6b9-27a3-4bd3-86dc-f05bfdabc8a6","system_id":"levelo_inurba_marseille","lat":43.284219,"lon":5.3497,"is_reserved":false,"is_disabled":false,"rental_uris":{"android":"levelo://app?vid=5520c6b9-27a3-4bd3-86dc-f05bfdabc8a6","ios":"levelo://app?vid=5520c6b9-27a3-4bd3-86dc-f05bfdabc8a6"},"vehicle_type_id":"4","last_reported":1722089259,"current_range_meters":18800,"station_id":"ce4bhbh2rcd13ifvqepg","pricing_plan_id":"cebpf4jnsgd1na2vs0mg"},{"bike_id":"1a17753d-5897-4495-82d4-538943bd7573","system_id":"levelo_inurba_marseille","lat":43.284219,"lon":5.3497,"is_reserved":false,"is_disabled":false,"rental_uris":{"android":"levelo://app?vid=1a17753d-5897-4495-82d4-538943bd7573","ios":"levelo://app?vid=1a17753d-5897-4495-82d4-538943bd7573"},"vehicle_type_id":"4","last_reported":1722089259,"current_range_meters":31200,"station_id":"ce4bhbh2rcd13ifvqepg","pricing_plan_id":"cebpf4jnsgd1na2vs0mg"},{"bike_id":"51e03233-d3a2-4dde-9650-d4a6b7608358","system_id":"levelo_inurba_marseille","lat":43.284219,"lon":5.3497,"is_reserved":false,"is_disabled":false,"rental_uris":{"android":"levelo://app?vid=51e03233-d3a2-4dde-9650-d4a6b7608358","ios":"levelo://app?vid=51e03233-d3a2-4dde-9650-d4a6b7608358"},"vehicle_type_id":"4","last_reported":1722089259,"current_range_meters":21600,"station_id":"ce4bhbh2rcd13ifvqepg","pricing_plan_id":"cebpf4jnsgd1na2vs0mg"},{"bike_id":"fe180e96-4700-48f8-bd21-725e5575a9dd","system_id":"levelo_inurba_marseille","lat":43.284217,"lon":5.349697,"is_reserved":false,"is_disabled":false,"rental_uris":{"android":"levelo://app?vid=fe180e96-4700-48f8-bd21-725e5575a9dd","ios":"levelo://app?vid=fe180e96-4700-48f8-bd21-725e5575a9dd"},"vehicle_type_id":"4","last_reported":1722089259,"current_range_meters":31600,"station_id":"ce4bhbh2rcd13ifvqepg","pricing_plan_id":"cebpf4jnsgd1na2vs0mg"},{"bike_id":"f93bf151-9373-4c85-9432-f34063ac1d0f","system_id":"levelo_inurba_marseille","lat":43.284217,"lon":5.349697,"is_reserved":false,"is_disabled":false,"rental_uris":{"android":"levelo://app?vid=f93bf151-9373-4c85-9432-f34063ac1d0f","ios":"levelo://app?vid=f93bf151-9373-4c85-9432-f34063ac1d0f"},"vehicle_type_id":"4","last_reported":1722089259,"current_range_meters":31600,"station_id":"ce4bhbh2rcd13ifvqepg","pricing_plan_id":"cebpf4jnsgd1na2vs0mg"},{"bike_id":"be94c61f-0fcf-4e4a-b5b2-6281fda9e6d1","system_id":"levelo_inurba_marseille","lat":43.284219,"lon":5.3497,"is_reserved":false,"is_disabled":false,"rental_uris":{"android":"levelo://app?vid=be94c61f-0fcf-4e4a-b5b2-6281fda9e6d1","ios":"levelo://app?vid=be94c61f-0fcf-4e4a-b5b2-6281fda9e6d1"},"vehicle_type_id":"4","last_reported":1722089259,"current_range_meters":23200,"station_id":"ce4bhbh2rcd13ifvqepg","pricing_plan_id":"cebpf4jnsgd1na2vs0mg"},{"bike_id":"d4caf244-5ddf-40aa-ac97-8dc17e136efc","system_id":"levelo_inurba_marseille","lat":43.284219,"lon":5.3497,"is_reserved":false,"is_disabled":false,"rental_uris":{"android":"levelo://app?vid=d4caf244-5ddf-40aa-ac97-8dc17e136efc","ios":"levelo://app?vid=d4caf244-5ddf-40aa-ac97-8dc17e136efc"},"vehicle_type_id":"4","last_reported":1722089259,"current_range_meters":23600,"station_id":"ce4bhbh2rcd13ifvqepg","pricing_plan_id":"cebpf4jnsgd1na2vs0mg"},{"bike_id":"3f912705-ee6c-43f9-89ec-e62ee346ea9d","system_id":"levelo_inurba_marseille","lat":43.284219,"lon":5.3497,"is_reserved":false,"is_disabled":false,"rental_uris":{"android":"levelo://app?vid=3f912705-ee6c-43f9-89ec-e62ee346ea9d","ios":"levelo://app?vid=3f912705-ee6c-43f9-89ec-e62ee346ea9d"},"vehicle_type_id":"4","last_reported":1722089259,"current_range_meters":8800,"station_id":"ce4bhbh2rcd13ifvqepg","pricing_plan_id":"cebpf4jnsgd1na2vs0mg"},{"bike_id":"82b814f9-6a41-44ba-aa9a-9e72d5cb8043","system_id":"levelo_inurba_marseille","lat":43.284219,"lon":5.3497,"is_reserved":false,"is_disabled":false,"rental_uris":{"android":"levelo://app?vid=82b814f9-6a41-44ba-aa9a-9e72d5cb8043","ios":"levelo://app?vid=82b814f9-6a41-44ba-aa9a-9e72d5cb8043"},"vehicle_type_id":"4","last_reported":1722089259,"current_range_meters":0,"station_id":"ce4bhbh2rcd13ifvqepg","pricing_plan_id":"cebpf4jnsgd1na2vs0mg"},{"bike_id":"88c68fd6-125d-4995-8d4e-e7996831b500","system_id":"levelo_inurba_marseille","lat":43.284217,"lon":5.349697,"is_reserved":false,"is_disabled":false,"rental_uris":{"android":"levelo://app?vid=88c68fd6-125d-4995-8d4e-e7996831b500","ios":"levelo://app?vid=88c68fd6-125d-4995-8d4e-e7996831b500"},"vehicle_type_id":"4","last_reported":1722089259,"current_range_meters":28800,"station_id":"ce4bhbh2rcd13ifvqepg","pricing_plan_id":"cebpf4jnsgd1na2vs0mg"},{"bike_id":"4a9c757e-4671-4831-a909-367847d48196","system_id":"levelo_inurba_marseille","lat":43.28415,"lon":5.34992,"is_reserved":false,"is_disabled":false,"rental_uris":{"android":"levelo://app?vid=4a9c757e-4671-4831-a909-367847d48196","ios":"levelo://app?vid=4a9c757e-4671-4831-a909-367847d48196"},"vehicle_type_id":"4","last_reported":1722089259,"current_range_meters":24800,"station_id":"ce4bhbh2rcd13ifvqepg","pricing_plan_id":"cebpf4jnsgd1na2vs0mg"},{"bike_id":"767b2075-d9f3-4fdc-a7c8-9a4236ed365b","system_id":"levelo_inurba_marseille","lat":43.284219,"lon":5.3497,"is_reserved":false,"is_disabled":false,"rental_uris":{"android":"levelo://app?vid=767b2075-d9f3-4fdc-a7c8-9a4236ed365b","ios":"levelo://app?vid=767b2075-d9f3-4fdc-a7c8-9a4236ed365b"},"vehicle_type_id":"4","last_reported":1722089259,"current_range_meters":23200,"station_id":"ce4bhbh2rcd13ifvqepg","pricing_plan_id":"cebpf4jnsgd1na2vs0mg"},{"bike_id":"ec510d10-b011-41cb-b8e8-dfb113bdcf9c","system_id":"levelo_inurba_marseille","lat":43.284217,"lon":5.349697,"is_reserved":false,"is_disabled":false,"rental_uris":{"android":"levelo://app?vid=ec510d10-b011-41cb-b8e8-dfb113bdcf9c","ios":"levelo://app?vid=ec510d10-b011-41cb-b8e8-dfb113bdcf9c"},"vehicle_type_id":"4","last_reported":1722089259,"current_range_meters":28000,"station_id":"ce4bhbh2rcd13ifvqepg","pricing_plan_id":"cebpf4jnsgd1na2vs0mg"},{"bike_id":"13dead7f-6229-4394-9295-4616da8802f7","system_id":"levelo_inurba_marseille","lat":43.28416,"lon":5.34986,"is_reserved":false,"is_disabled":false,"rental_uris":{"android":"levelo://app?vid=13dead7f-6229-4394-9295-4616da8802f7","ios":"levelo://app?vid=13dead7f-6229-4394-9295-4616da8802f7"},"vehicle_type_id":"4","last_reported":1722089259,"current_range_meters":18800,"station_id":"ce4bhbh2rcd13ifvqepg","pricing_plan_id":"cebpf4jnsgd1na2vs0mg"},{"bike_id":"62249a5f-3b7d-4ba9-9e05-5386a501e9cd","system_id":"levelo_inurba_marseille","lat":43.284219,"lon":5.3497,"is_reserved":false,"is_disabled":false,"rental_uris":{"android":"levelo://app?vid=62249a5f-3b7d-4ba9-9e05-5386a501e9cd","ios":"levelo://app?vid=62249a5f-3b7d-4ba9-9e05-5386a501e9cd"},"vehicle_type_id":"4","last_reported":1722089259,"current_range_meters":24400,"station_id":"ce4bhbh2rcd13ifvqepg","pricing_plan_id":"cebpf4jnsgd1na2vs0mg"},{"bike_id":"cd2108fe-305e-48ec-ad16-2b0cc033371a","system_id":"levelo_inurba_marseille","lat":43.284165,"lon":5.349828,"is_reserved":false,"is_disabled":false,"rental_uris":{"android":"levelo://app?vid=cd2108fe-305e-48ec-ad16-2b0cc033371a","ios":"levelo://app?vid=cd2108fe-305e-48ec-ad16-2b0cc033371a"},"vehicle_type_id":"4","last_reported":1722089259,"current_range_meters":6000,"station_id":"ce4bgkp2rcd13ifvqbmg","pricing_plan_id":"cebpf4jnsgd1na2vs0mg"},{"bike_id":"403e4c8f-47b1-44aa-b151-66bbcbfc984d","system_id":"levelo_inurba_marseille","lat":43.28414,"lon":5.3499,"is_reserved":false,"is_disabled":false,"rental_uris":{"android":"levelo://app?vid=403e4c8f-47b1-44aa-b151-66bbcbfc984d","ios":"levelo://app?vid=403e4c8f-47b1-44aa-b151-66bbcbfc984d"},"vehicle_type_id":"4","last_reported":1722089259,"current_range_meters":14400,"station_id":"ce4bhbh2rcd13ifvqepg","pricing_plan_id":"cebpf4jnsgd1na2vs0mg"},{"bike_id":"c467c4dc-27b6-4181-8584-d48077227d98","system_id":"levelo_inurba_marseille","lat":43.28418,"lon":5.34977,"is_reserved":false,"is_disabled":false,"rental_uris":{"android":"levelo://app?vid=c467c4dc-27b6-4181-8584-d48077227d98","ios":"levelo://app?vid=c467c4dc-27b6-4181-8584-d48077227d98"},"vehicle_type_id":"4","last_reported":1722089259,"current_range_meters":12400,"station_id":"ce4bhbh2rcd13ifvqepg","pricing_plan_id":"cebpf4jnsgd1na2vs0mg"},{"bike_id":"ff2e344b-e710-4abe-82f3-b8f6e3e74d39","system_id":"levelo_inurba_marseille","lat":43.284217,"lon":5.349697,"is_reserved":false,"is_disabled":false,"rental_uris":{"android":"levelo://app?vid=ff2e344b-e710-4abe-82f3-b8f6e3e74d39","ios":"levelo://app?vid=ff2e344b-e710-4abe-82f3-b8f6e3e74d39"},"vehicle_type_id":"4","last_reported":1722089259,"current_range_meters":10800,"station_id":"ce4bhbh2rcd13ifvqepg","pricing_plan_id":"cebpf4jnsgd1na2vs0mg"},{"bike_id":"258cd763-bc40-45f8-9943-d2d5e6852ab2","system_id":"levelo_inurba_marseille","lat":43.28416,"lon":5.34983,"is_reserved":false,"is_disabled":false,"rental_uris":{"android":"levelo://app?vid=258cd763-bc40-45f8-9943-d2d5e6852ab2","ios":"levelo://app?vid=258cd763-bc40-45f8-9943-d2d5e6852ab2"},"vehicle_type_id":"4","last_reported":1722089259,"current_range_meters":18000,"station_id":"ce4bhbh2rcd13ifvqepg","pricing_plan_id":"cebpf4jnsgd1na2vs0mg"},{"bike_id":"8de27a5f-656e-458c-bf3b-ad66d4e546e7","system_id":"levelo_inurba_marseille","lat":43.284219,"lon":5.3497,"is_reserved":false,"is_disabled":false,"rental_uris":{"android":"levelo://app?vid=8de27a5f-656e-458c-bf3b-ad66d4e546e7","ios":"levelo://app?vid=8de27a5f-656e-458c-bf3b-ad66d4e546e7"},"vehicle_type_id":"4","last_reported":1722089259,"current_range_meters":27600,"station_id":"ce4bhbh2rcd13ifvqepg","pricing_plan_id":"cebpf4jnsgd1na2vs0mg"},{"bike_id":"94c7aaaf-755a-4344-98dd-cbf763e92e18","system_id":"levelo_inurba_marseille","lat":43.28415,"lon":5.34984,"is_reserved":false,"is_disabled":false,"rental_uris":{"android":"levelo://app?vid=94c7aaaf-755a-4344-98dd-cbf763e92e18","ios":"levelo://app?vid=94c7aaaf-755a-4344-98dd-cbf763e92e18"},"vehicle_type_id":"4","last_reported":1722089259,"current_range_meters":24400,"station_id":"ce4bhbh2rcd13ifvqepg","pricing_plan_id":"cebpf4jnsgd1na2vs0mg"},{"bike_id":"f3dd4bf0-75c0-425d-a04a-6a6fe6743816","system_id":"levelo_inurba_marseille","lat":43.28415,"lon":5.34984,"is_reserved":false,"is_disabled":false,"rental_uris":{"android":"levelo://app?vid=f3dd4bf0-75c0-425d-a04a-6a6fe6743816","ios":"levelo://app?vid=f3dd4bf0-75c0-425d-a04a-6a6fe6743816"},"vehicle_type_id":"4","last_reported":1722089259,"current_range_meters":4400,"station_id":"ce4bhbh2rcd13ifvqepg","pricing_plan_id":"cebpf4jnsgd1na2vs0mg"},{"bike_id":"0b3eba36-1b16-4c40-96df-069d66d487e4","system_id":"levelo_inurba_marseille","lat":43.284219,"lon":5.3497,"is_reserved":false,"is_disabled":false,"rental_uris":{"android":"levelo://app?vid=0b3eba36-1b16-4c40-96df-069d66d487e4","ios":"levelo://app?vid=0b3eba36-1b16-4c40-96df-069d66d487e4"},"vehicle_type_id":"4","last_reported":1722089259,"current_range_meters":4800,"station_id":"ce4bhbh2rcd13ifvqepg","pricing_plan_id":"cebpf4jnsgd1na2vs0mg"},{"bike_id":"3ae3fa87-1a6b-4c08-aa8a-7f5c9fd92131","system_id":"levelo_inurba_marseille","lat":43.284219,"lon":5.3497,"is_reserved":false,"is_disabled":false,"rental_uris":{"android":"levelo://app?vid=3ae3fa87-1a6b-4c08-aa8a-7f5c9fd92131","ios":"levelo://app?vid=3ae3fa87-1a6b-4c08-aa8a-7f5c9fd92131"},"vehicle_type_id":"4","last_reported":1722089259,"current_range_meters":26400,"station_id":"ce4bhbh2rcd13ifvqepg","pricing_plan_id":"cebpf4jnsgd1na2vs0mg"},{"bike_id":"0bae12fb-8533-4213-9451-6d6b23fd174d","system_id":"levelo_inurba_marseille","lat":43.28416,"lon":5.3498,"is_reserved":false,"is_disabled":false,"rental_uris":{"android":"levelo://app?vid=0bae12fb-8533-4213-9451-6d6b23fd174d","ios":"levelo://app?vid=0bae12fb-8533-4213-9451-6d6b23fd174d"},"vehicle_type_id":"4","last_reported":1722089259,"current_range_meters":20800,"station_id":"ce4bhbh2rcd13ifvqepg","pricing_plan_id":"cebpf4jnsgd1na2vs0mg"},{"bike_id":"4f3341a9-2203-409d-a44f-b50250cb3372","system_id":"levelo_inurba_marseille","lat":43.28412,"lon":5.34992,"is_reserved":false,"is_disabled":false,"rental_uris":{"android":"levelo://app?vid=4f3341a9-2203-409d-a44f-b50250cb3372","ios":"levelo://app?vid=4f3341a9-2203-409d-a44f-b50250cb3372"},"vehicle_type_id":"4","last_reported":1722089259,"current_range_meters":26400,"station_id":"ce4bhbh2rcd13ifvqepg","pricing_plan_id":"cebpf4jnsgd1na2vs0mg"},{"bike_id":"3ec73c02-cede-4b81-845b-9e6245d33e8c","system_id":"levelo_inurba_marseille","lat":43.28416,"lon":5.34976,"is_reserved":false,"is_disabled":false,"rental_uris":{"android":"levelo://app?vid=3ec73c02-cede-4b81-845b-9e6245d33e8c","ios":"levelo://app?vid=3ec73c02-cede-4b81-845b-9e6245d33e8c"},"vehicle_type_id":"4","last_reported":1722089259,"current_range_meters":6800,"station_id":"ce4bhbh2rcd13ifvqepg","pricing_plan_id":"cebpf4jnsgd1na2vs0mg"},{"bike_id":"75d0d320-04c3-4b58-a149-519f766734ce","system_id":"levelo_inurba_marseille","lat":43.2841,"lon":5.34994,"is_reserved":false,"is_disabled":false,"rental_uris":{"android":"levelo://app?vid=75d0d320-04c3-4b58-a149-519f766734ce","ios":"levelo://app?vid=75d0d320-04c3-4b58-a149-519f766734ce"},"vehicle_type_id":"4","last_reported":1722089259,"current_range_meters":26000,"station_id":"ce4bhbh2rcd13ifvqepg","pricing_plan_id":"cebpf4jnsgd1na2vs0mg"},{"bike_id":"4dfdc43f-2f5c-406a-8a5e-413a66773042","system_id":"levelo_inurba_marseille","lat":43.28413,"lon":5.34982,"is_reserved":false,"is_disabled":false,"rental_uris":{"android":"levelo://app?vid=4dfdc43f-2f5c-406a-8a5e-413a66773042","ios":"levelo://app?vid=4dfdc43f-2f5c-406a-8a5e-413a66773042"},"vehicle_type_id":"4","last_reported":1722089259,"current_range_meters":15200,"station_id":"ce4bhbh2rcd13ifvqepg","pricing_plan_id":"cebpf4jnsgd1na2vs0mg"},{"bike_id":"cbaa2978-07fb-4ca2-89b6-8956324d17c6","system_id":"levelo_inurba_marseille","lat":43.284217,"lon":5.349697,"is_reserved":false,"is_disabled":false,"rental_uris":{"android":"levelo://app?vid=cbaa2978-07fb-4ca2-89b6-8956324d17c6","ios":"levelo://app?vid=cbaa2978-07fb-4ca2-89b6-8956324d17c6"},"vehicle_type_id":"4","last_reported":1722089259,"current_range_meters":17600,"station_id":"ce4bhbh2rcd13ifvqepg","pricing_plan_id":"cebpf4jnsgd1na2vs0mg"},{"bike_id":"251e836f-c037-4ce5-b600-436c3c53ae13","system_id":"levelo_inurba_marseille","lat":43.28409,"lon":5.34994,"is_reserved":false,"is_disabled":false,"rental_uris":{"android":"levelo://app?vid=251e836f-c037-4ce5-b600-436c3c53ae13","ios":"levelo://app?vid=251e836f-c037-4ce5-b600-436c3c53ae13"},"vehicle_type_id":"4","last_reported":1722089259,"current_range_meters":9600,"station_id":"ce4bhbh2rcd13ifvqepg","pricing_plan_id":"cebpf4jnsgd1na2vs0mg"},{"bike_id":"51048c84-588a-40f8-9fa8-6509cc8d230c","system_id":"levelo_inurba_marseille","lat":43.284098,"lon":5.349912,"is_reserved":false,"is_disabled":false,"rental_uris":{"android":"levelo://app?vid=51048c84-588a-40f8-9fa8-6509cc8d230c","ios":"levelo://app?vid=51048c84-588a-40f8-9fa8-6509cc8d230c"},"vehicle_type_id":"4","last_reported":1722089259,"current_range_meters":19600,"station_id":"ce4bhbh2rcd13ifvqepg","pricing_plan_id":"cebpf4jnsgd1na2vs0mg"},{"bike_id":"39f39a5b-19b2-490c-9d09-2b61fae00c78","system_id":"levelo_inurba_marseille","lat":43.284219,"lon":5.3497,"is_reserved":false,"is_disabled":false,"rental_uris":{"android":"levelo://app?vid=39f39a5b-19b2-490c-9d09-2b61fae00c78","ios":"levelo://app?vid=39f39a5b-19b2-490c-9d09-2b61fae00c78"},"vehicle_type_id":"4","last_reported":1722089259,"current_range_meters":16800,"station_id":"ce4bhbh2rcd13ifvqepg","pricing_plan_id":"cebpf4jnsgd1na2vs0mg"},{"bike_id":"b71c97dc-4364-46c6-9cfb-809dd1b21345","system_id":"levelo_inurba_marseille","lat":43.28409,"lon":5.34992,"is_reserved":false,"is_disabled":false,"rental_uris":{"android":"levelo://app?vid=b71c97dc-4364-46c6-9cfb-809dd1b21345","ios":"levelo://app?vid=b71c97dc-4364-46c6-9cfb-809dd1b21345"},"vehicle_type_id":"4","last_reported":1722089259,"current_range_meters":30800,"station_id":"ce4bhbh2rcd13ifvqepg","pricing_plan_id":"cebpf4jnsgd1na2vs0mg"},{"bike_id":"19adf7c2-2189-4fbe-8136-3a2fdc4b52d0","system_id":"levelo_inurba_marseille","lat":43.28414,"lon":5.34975,"is_reserved":false,"is_disabled":false,"rental_uris":{"android":"levelo://app?vid=19adf7c2-2189-4fbe-8136-3a2fdc4b52d0","ios":"levelo://app?vid=19adf7c2-2189-4fbe-8136-3a2fdc4b52d0"},"vehicle_type_id":"4","last_reported":1722089259,"current_range_meters":12400,"station_id":"ce4bhbh2rcd13ifvqepg","pricing_plan_id":"cebpf4jnsgd1na2vs0mg"},{"bike_id":"b799a845-05e4-4ada-ac84-7c106a3698e9","system_id":"levelo_inurba_marseille","lat":43.284219,"lon":5.3497,"is_reserved":false,"is_disabled":false,"rental_uris":{"android":"levelo://app?vid=b799a845-05e4-4ada-ac84-7c106a3698e9","ios":"levelo://app?vid=b799a845-05e4-4ada-ac84-7c106a3698e9"},"vehicle_type_id":"4","last_reported":1722089259,"current_range_meters":7200,"station_id":"ce4bhbh2rcd13ifvqepg","pricing_plan_id":"cebpf4jnsgd1na2vs0mg"},{"bike_id":"720b615b-b026-4685-9e3b-d05bd10ca82c","system_id":"levelo_inurba_marseille","lat":43.28412,"lon":5.34977,"is_reserved":false,"is_disabled":false,"rental_uris":{"android":"levelo://app?vid=720b615b-b026-4685-9e3b-d05bd10ca82c","ios":"levelo://app?vid=720b615b-b026-4685-9e3b-d05bd10ca82c"},"vehicle_type_id":"4","last_reported":1722089259,"current_range_meters":2800,"station_id":"ce4bhbh2rcd13ifvqepg","pricing_plan_id":"cebpf4jnsgd1na2vs0mg"},