{"last_updated":1731550294,"ttl":60,"version":"2.2","data":{"bikes":[{"bike_id":"a9e32afe-028a-4d94-95f4-042295ca9c9d","system_id":"levelo_inurba_marseille","lat":43.25574,"lon":5.3824,"is_reserved":false,"is_disabled":false,"rental_uris":{"android":"levelo://app?vid=a9e32afe-028a-4d94-95f4-042295ca9c9d","ios":"levelo://app?vid=a9e32afe-028a-4d94-95f4-042295ca9c9d"},"vehicle_type_id":"4","last_reported":1731550294,"current_range_meters":38800,"station_id":"ce4bhih2rcd13ifvqfs0","pricing_plan_id":"cebpf4jnsgd1na2vs0mg"},{"bike_id":"77cdb67a-18e3-47a2-8371-0b326871aa22","system_id":"levelo_inurba_marseille","lat":43.28945,"lon":5.36396,"is_reserved":false,"is_disabled":false,"rental_uris":{"android":"levelo://app?vid=77cdb67a-18e3-47a2-8371-0b326871aa22","ios":"levelo://app?vid=77cdb67a-18e3-47a2-8371-0b326871aa22"},"vehicle_type_id":"4","last_reported":1731550294,"current_range_meters":38800,"station_id":"ce4bhc92rcd13ifvqetg","pricing_plan_id":"cebpf4jnsgd1na2vs0mg"},{"bike_id":"b74cb09f-382c-42dd-9f0b-cfd941347c2c","system_id":"levelo_inurba_marseille","lat":43.30879,"lon":5.39643,"is_reserved":false,"is_disabled":false,"rental_uris":{"android":"levelo://app?vid=b74cb09f-382c-42dd-9f0b-cfd941347c2c","ios":"levelo://app?vid=b74cb09f-382c-42dd-9f0b-cfd941347c2c"},"vehicle_type_id":"4","last_reported":1731550294,"current_range_meters":37600,"station_id":"ce4bh012rcd13ifvqcv0","pricing_plan_id":"cebpf4jnsgd1na2vs0mg"},{"bike_id":"d13fff61-e1ec-48bc-8c6d-b560c761fc8b","system_id":"levelo_inurba_marseille","lat":43.29501,"lon":5.3748,"is_reserved":false,"is_disabled":false,"rental_uris":{"android":"levelo://app?vid=d13fff61-e1ec-48bc-8c6d-b560c761fc8b","ios":"levelo://app?vid=d13fff61-e1ec-48bc-8c6d-b560c761fc8b"},"vehicle_type_id":"4","last_reported":1731550294,"current_range_meters":38800,"station_id":"ce4bgkp2rcd13ifvqbmg","pricing_plan_id":"cebpf4jnsgd1na2vs0mg"},{"bike_id":"2d85a8c9-73cd-4fa7-9d24-3a50ba732dcc","system_id":"levelo_inurba_marseille","lat":43.23957,"lon":5.36623,"is_reserved":false,"is_disabled":false,"rental_uris":{"android":"levelo://app?vid=2d85a8c9-73cd-4fa7-9d24-3a50ba732dcc","ios":"levelo://app?vid=2d85a8c9-73cd-4fa7-9d24-3a50ba732dcc"},"vehicle_type_id":"4","last_reported":1731550294,"current_range_meters":39200,"station_id":"ce4bhi12rcd13ifvqfp0","pricing_plan_id":"cebpf4jnsgd1na2vs0mg"},{"bike_id":"a8523969-7310-41b8-ba95-7f5054b6a770","system_id":"levelo_inurba_marseille","lat":43.32658,"lon":5.40992,"is_reserved":false,"is_disabled":false,"rental_uris":{"android":"levelo://app?vid=a8523969-7310-41b8-ba95-7f5054b6a770","ios":"levelo://app?vid=a8523969-7310-41b8-ba95-7f5054b6a770"},"vehicle_type_id":"4","last_reported":1731550294,"current_range_meters":39200,"station_id":"ce4bhpp2rcd13ifvqhgg","pricing_plan_id":"cebpf4jnsgd1na2vs0mg"},{"bike_id":"fe4a9dd2-c51c-422f-bc60-680ae25de89e","system_id":"levelo_inurba_marseille","lat":43.29012,"lon":5.3559,"is_reserved":false,"is_disabled":false,"rental_uris":{"android":"levelo://app?vid=fe4a9dd2-c51c-422f-bc60-680ae25de89e","ios":"levelo://app?vid=fe4a9dd2-c51c-422f-bc60-680ae25de89e"},"vehicle_type_id":"4","last_reported":1731550294,"current_range_meters":38000,"station_id":"ce4bhb92rcd13ifvqen0","pricing_plan_id":"cebpf4jnsgd1na2vs0mg"},{"bike_id":"51f38f8d-449f-4d26-9c9e-be46710f92c3","system_id":"levelo_inurba_marseille","lat":43.29885,"lon":5.39743,"is_reserved":false,"is_disabled":false,"rental_uris":{"android":"levelo://app?vid=51f38f8d-449f-4d26-9c9e-be46710f92c3","ios":"levelo://app?vid=51f38f8d-449f-4d26-9c9e-be46710f92c3"},"vehicle_type_id":"4","last_reported":1731550294,"current_range_meters":23200,"station_id":"ce4bh0h2rcd13ifvqd50","pricing_plan_id":"cebpf4jnsgd1na2vs0mg"},{"bike_id":"eb66c83e-9c22-451e-9a96-11fcf0b6a22c","system_id":"levelo_inurba_marseille","lat":43.318,"lon":5.39009,"is_reserved":false,"is_disabled":false,"rental_uris":{"android":"levelo://app?vid=eb66c83e-9c22-451e-9a96-11fcf0b6a22c","ios":"levelo://app?vid=eb66c83e-9c22-451e-9a96-11fcf0b6a22c"},"vehicle_type_id":"4","last_reported":1731550294,"current_range_meters":37600,"station_id":"ce4bhqp2rcd13ifvqhng","pricing_plan_id":"cebpf4jnsgd1na2vs0mg"},{"bike_id":"77b69f18-7c6a-412a-9655-4f3da3f95e57","system_id":"levelo_inurba_marseille","lat":43.26025,"lon":5.37555,"is_reserved":false,"is_disabled":false,"rental_uris":{"android":"levelo://app?vid=77b69f18-7c6a-412a-9655-4f3da3f95e57","ios":"levelo://app?vid=77b69f18-7c6a-412a-9655-4f3da3f95e57"},"vehicle_type_id":"4","last_reported":1731550294,"current_range_meters":38800,"station_id":"ce4bhgh2rcd13ifvqfa0","pricing_plan_id":"cebpf4jnsgd1na2vs0mg"},{"bike_id":"1f54b4ab-ef3b-4094-8599-dde5735e1dec","system_id":"levelo_inurba_marseille","lat":43.30213,"lon":5.3944,"is_reserved":false,"is_disabled":false,"rental_uris":{"android":"levelo://app?vid=1f54b4ab-ef3b-4094-8599-dde5735e1dec","ios":"levelo://app?vid=1f54b4ab-ef3b-4094-8599-dde5735e1dec"},"vehicle_type_id":"4","last_reported":1731550294,"current_range_meters":38000,"station_id":"ce4bh0p2rcd13ifvqd70","pricing_plan_id":"cebpf4jnsgd1na2vs0mg"},{"bike_id":"1e6d8114-e844-4347-a41a-9379c7d57f71","system_id":"levelo_inurba_marseille","lat":43.26939,"lon":5.4025,"is_reserved":false,"is_disabled":false,"rental_uris":{"android":"levelo://app?vid=1e6d8114-e844-4347-a41a-9379c7d57f71","ios":"levelo://app?vid=1e6d8114-e844-4347-a41a-9379c7d57f71"},"vehicle_type_id":"4","last_reported":1731550294,"current_range_meters":24400,"station_id":"cjm6bp8fraef2m0cb0m0","pricing_plan_id":"cebpf4jnsgd1na2vs0mg"},{"bike_id":"052f9b93-6cd6-4b1f-acb9-36b85dbc4923","system_id":"levelo_inurba_marseille","lat":43.28469,"lon":5.35874,"is_reserved":false,"is_disabled":false,"rental_uris":{"android":"levelo://app?vid=052f9b93-6cd6-4b1f-acb9-36b85dbc4923","ios":"levelo://app?vid=052f9b93-6cd6-4b1f-acb9-36b85dbc4923"},"vehicle_type_id":"4","last_reported":1731550294,"current_range_meters":8800,"station_id":"ce4bhah2rcd13ifvqei0","pricing_plan_id":"cebpf4jnsgd1na2vs0mg"},{"bike_id":"ae292185-8e91-4db6-a612-c3563674c7fa","system_id":"levelo_inurba_marseille","lat":43.31751,"lon":5.39017,"is_reserved":false,"is_disabled":false,"rental_uris":{"android":"levelo://app?vid=ae292185-8e91-4db6-a612-c3563674c7fa","ios":"levelo://app?vid=ae292185-8e91-4db6-a612-c3563674c7fa"},"vehicle_type_id":"4","last_reported":1731550294,"current_range_meters":23200,"station_id":"ce4bhqp2rcd13ifvqhng","pricing_plan_id":"cebpf4jnsgd1na2vs0mg"},{"bike_id":"e284bf0f-8cbf-463b-a39e-6af10373216e","system_id":"levelo_inurba_marseille","lat":43.27821,"lon":5.40754,"is_reserved":false,"is_disabled":false,"rental_uris":{"android":"levelo://app?vid=e284bf0f-8cbf-463b-a39e-6af10373216e","ios":"levelo://app?vid=e284bf0f-8cbf-463b-a39e-6af10373216e"},"vehicle_type_id":"4","last_reported":1731550294,"current_range_meters":27600,"station_id":"ce4bhnh2rcd13ifvqgtg","pricing_plan_id":"cebpf4jnsgd1na2vs0mg"},{"bike_id":"91fe36a8-bc4f-4b08-8287-b0444a16f338","system_id":"levelo_inurba_marseille","lat":43.23154,"lon":5.43723,"is_reserved":false,"is_disabled":false,"rental_uris":{"android":"levelo://app?vid=91fe36a8-bc4f-4b08-8287-b0444a16f338","ios":"levelo://app?vid=91fe36a8-bc4f-4b08-8287-b0444a16f338"},"vehicle_type_id":"4","last_reported":1731550294,"current_range_meters":38000,"station_id":"ce4bhmp2rcd13ifvqgog","pricing_plan_id":"cebpf4jnsgd1na2vs0mg"},{"bike_id":"73da9a75-f79e-4090-86a7-a059dbc4a57e","system_id":"levelo_inurba_marseille","lat":43.30112,"lon":5.39085,"is_reserved":false,"is_disabled":false,"rental_uris":{"android":"levelo://app?vid=73da9a75-f79e-4090-86a7-a059dbc4a57e","ios":"levelo://app?vid=73da9a75-f79e-4090-86a7-a059dbc4a57e"},"vehicle_type_id":"4","last_reported":1731550294,"current_range_meters":37600,"station_id":"ce4bh192rcd13ifvqdb0","pricing_plan_id":"cebpf4jnsgd1na2vs0mg"},{"bike_id":"f5c3439b-e8e8-48e2-b9cd-0c4b842fb896","system_id":"levelo_inurba_marseille","lat":43.25089,"lon":5.39527,"is_reserved":false,"is_disabled":false,"rental_uris":{"android":"levelo://app?vid=f5c3439b-e8e8-48e2-b9cd-0c4b842fb896","ios":"levelo://app?vid=f5c3439b-e8e8-48e2-b9cd-0c4b842fb896"},"vehicle_type_id":"4","last_reported":1731550294,"current_range_meters":24000,"station_id":"ce4bhm12rcd13ifvqgkg","pricing_plan_id":"cebpf4jnsgd1na2vs0mg"},{"bike_id":"4f6386c1-cffb-4610-b64d-62e0d4870946","system_id":"levelo_inurba_marseille","lat":43.2873,"lon":5.36074,"is_reserved":false,"is_disabled":false,"rental_uris":{"android":"levelo://app?vid=4f6386c1-cffb-4610-b64d-62e0d4870946","ios":"levelo://app?vid=4f6386c1-cffb-4610-b64d-62e0d4870946"},"vehicle_type_id":"4","last_reported":1731550294,"current_range_meters":38400,"station_id":"cki0cbj6b192h4jlfktg","pricing_plan_id":"cebpf4jnsgd1na2vs0mg"},{"bike_id":"3b18cb70-5566-4f31-8dbf-ae39d6d51962","system_id":"levelo_inurba_marseille","lat":43.30931,"lon":5.4015,"is_reserved":false,"is_disabled":false,"rental_uris":{"android":"levelo://app?vid=3b18cb70-5566-4f31-8dbf-ae39d6d51962","ios":"levelo://app?vid=3b18cb70-5566-4f31-8dbf-ae39d6d51962"},"vehicle_type_id":"4","last_reported":1731550294,"current_range_meters":8400,"station_id":"ce4bgvp2rcd13ifvqct0","pricing_plan_id":"cebpf4jnsgd1na2vs0mg"},{"bike_id":"5d1cde06-dd03-4e36-9ce6-af560831ed05","system_id":"levelo_inurba_marseille","lat":43.3302,"lon":5.39032,"is_reserved":false,"is_disabled":false,"rental_uris":{"android":"levelo://app?vid=5d1cde06-dd03-4e36-9ce6-af560831ed05","ios":"levelo://app?vid=5d1cde06-dd03-4e36-9ce6-af560831ed05"},"vehicle_type_id":"4","last_reported":1731550294,"current_range_meters":38000,"station_id":"ce4bhr92rcd13ifvqhrg","pricing_plan_id":"cebpf4jnsgd1na2vs0mg"},{"bike_id":"d9c902c9-ceb4-4faa-92db-38f2e5e1d341","system_id":"levelo_inurba_marseille","lat":43.25819,"lon":5.39435,"is_reserved":false,"is_disabled":false,"rental_uris":{"android":"levelo://app?vid=d9c902c9-ceb4-4faa-92db-38f2e5e1d341","ios":"levelo://app?vid=d9c902c9-ceb4-4faa-92db-38f2e5e1d341"},"vehicle_type_id":"4","last_reported":1731550294,"current_range_meters":5600,"station_id":"ce4bhip2rcd13ifvqft0","pricing_plan_id":"cebpf4jnsgd1na2vs0mg"},{"bike_id":"6731da3f-d8a2-49d1-abf3-b85f7793c4b9","system_id":"levelo_inurba_marseille","lat":43.30811,"lon":5.38163,"is_reserved":false,"is_disabled":false,"rental_uris":{"android":"levelo://app?vid=6731da3f-d8a2-49d1-abf3-b85f7793c4b9","ios":"levelo://app?vid=6731da3f-d8a2-49d1-abf3-b85f7793c4b9"},"vehicle_type_id":"4","last_reported":1731550294,"current_range_meters":31200,"station_id":"ce4bgt12rcd13ifvqce0","pricing_plan_id":"cebpf4jnsgd1na2vs0mg"},{"bike_id":"01ecd40e-2276-4e4f-8718-c6fcd768f34c","system_id":"levelo_inurba_marseille","lat":43.24811,"lon":5.37451,"is_reserved":false,"is_disabled":false,"rental_uris":{"android":"levelo://app?vid=01ecd40e-2276-4e4f-8718-c6fcd768f34c","ios":"levelo://app?vid=01ecd40e-2276-4e4f-8718-c6fcd768f34c"},"vehicle_type_id":"4","last_reported":1731550294,"current_range_meters":29600,"station_id":"ce4bhgh2rcd13ifvqfb0","pricing_plan_id":"cebpf4jnsgd1na2vs0mg"},{"bike_id":"3a7c1686-16fb-43f9-a859-6da762d7feac","system_id":"levelo_inurba_marseille","lat":43.30791,"lon":5.37658,"is_reserved":false,"is_disabled":false,"rental_uris":{"android":"levelo://app?vid=3a7c1686-16fb-43f9-a859-6da762d7feac","ios":"levelo://app?vid=3a7c1686-16fb-43f9-a859-6da762d7feac"},"vehicle_type_id":"4","last_reported":1731550294,"current_range_meters":39200,"station_id":"ce4bgv92rcd13ifvqcq0","pricing_plan_id":"cebpf4jnsgd1na2vs0mg"},{"bike_id":"97046bd2-ebcf-46bc-8186-976c7001dd52","system_id":"levelo_inurba_marseille","lat":43.27815,"lon":5.39206,"is_reserved":false,"is_disabled":false,"rental_uris":{"android":"levelo://app?vid=97046bd2-ebcf-46bc-8186-976c7001dd52","ios":"levelo://app?vid=97046bd2-ebcf-46bc-8186-976c7001dd52"},"vehicle_type_id":"4","last_reported":1731550294,"current_range_meters":2800,"station_id":"ce4bhjp2rcd13ifvqga0","pricing_plan_id":"cebpf4jnsgd1na2vs0mg"},{"bike_id":"57787bb0-1cf7-4460-ad20-7da83147c060","system_id":"levelo_inurba_marseille","lat":43.31189,"lon":5.38701,"is_reserved":false,"is_disabled":false,"rental_uris":{"android":"levelo://app?vid=57787bb0-1cf7-4460-ad20-7da83147c060","ios":"levelo://app?vid=57787bb0-1cf7-4460-ad20-7da83147c060"},"vehicle_type_id":"4","last_reported":1731550294,"current_range_meters":28400,"station_id":"ce4bgv12rcd13ifvqcp0","pricing_plan_id":"cebpf4jnsgd1na2vs0mg"},{"bike_id":"deeb86ad-6988-4b1a-861c-2717a7c11d1e","system_id":"levelo_inurba_marseille","lat":43.28146,"lon":5.42646,"is_reserved":false,"is_disabled":false,"rental_uris":{"android":"levelo://app?vid=deeb86ad-6988-4b1a-861c-2717a7c11d1e","ios":"levelo://app?vid=deeb86ad-6988-4b1a-861c-2717a7c11d1e"},"vehicle_type_id":"4","last_reported":1731550294,"current_range_meters":38000,"station_id":"ce4bhnh2rcd13ifvqgug","pricing_plan_id":"cebpf4jnsgd1na2vs0mg"},{"bike_id":"67cc0176-d02d-4779-bd99-3da0a1e49a5d","system_id":"levelo_inurba_marseille","lat":43.30416,"lon":5.41271,"is_reserved":false,"is_disabled":false,"rental_uris":{"android":"levelo://app?vid=67cc0176-d02d-4779-bd99-3da0a1e49a5d","ios":"levelo://app?vid=67cc0176-d02d-4779-bd99-3da0a1e49a5d"},"vehicle_type_id":"4","last_reported":1731550294,"current_range_meters":38800,"station_id":"ce4bhop2rcd13ifvqh8g","pricing_plan_id":"cebpf4jnsgd1na2vs0mg"},{"bike_id":"10f83ea1-21fc-49d5-934a-4b6f18d7a2b7","system_id":"levelo_inurba_marseille","lat":43.33609,"lon":5.41009,"is_reserved":false,"is_disabled":false,"rental_uris":{"android":"levelo://app?vid=10f83ea1-21fc-49d5-934a-4b6f18d7a2b7","ios":"levelo://app?vid=10f83ea1-21fc-49d5-934a-4b6f18d7a2b7"},"vehicle_type_id":"4","last_reported":1731550294,"current_range_meters":7200,"station_id":"ce4bhqh2rcd13ifvqhmg","pricing_plan_id":"cebpf4jnsgd1na2vs0mg"},{"bike_id":"af23c437-9c01-4e48-a6af-488f0359b3d8","system_id":"levelo_inurba_marseille","lat":43.2396,"lon":5.36638,"is_reserved":false,"is_disabled":false,"rental_uris":{"android":"levelo://app?vid=af23c437-9c01-4e48-a6af-488f0359b3d8","ios":"levelo://app?vid=af23c437-9c01-4e48-a6af-488f0359b3d8"},"vehicle_type_id":"4","last_reported":1731550294,"current_range_meters":28000,"station_id":"ce4bhi12rcd13ifvqfp0","pricing_plan_id":"cebpf4jnsgd1na2vs0mg"},{"bike_id":"d0733b5e-6bfa-4bdb-8b6a-792a1167a5b8","system_id":"levelo_inurba_marseille","lat":43.31166,"lon":5.38725,"is_reserved":false,"is_disabled":false,"rental_uris":{"android":"levelo://app?vid=d0733b5e-6bfa-4bdb-8b6a-792a1167a5b8","ios":"levelo://app?vid=d0733b5e-6bfa-4bdb-8b6a-792a1167a5b8"},"vehicle_type_id":"4","last_reported":1731550294,"current_range_meters":38800,"station_id":"ce4bgv12rcd13ifvqcp0","pricing_plan_id":"cebpf4jnsgd1na2vs0mg"},{"bike_id":"341b4146-f80f-4069-97ee-692e0462699f","system_id":"levelo_inurba_marseille","lat":43.31076,"lon":5.38363,"is_reserved":false,"is_disabled":false,"rental_uris":{"android":"levelo://app?vid=341b4146-f80f-4069-97ee-692e0462699f","ios":"levelo://app?vid=341b4146-f80f-4069-97ee-692e0462699f"},"vehicle_type_id":"4","last_reported":1731550294,"current_range_meters":16800,"station_id":"ce4bgv92rcd13ifvqcr0","pricing_plan_id":"cebpf4jnsgd1na2vs0mg"},{"bike_id":"55eaa616-6069-4488-b2c4-a1d4f41baf53","system_id":"levelo_inurba_marseille","lat":43.2871,"lon":5.37397,"is_reserved":false,"is_disabled":false,"rental_uris":{"android":"levelo://app?vid=55eaa616-6069-4488-b2c4-a1d4f41baf53","ios":"levelo://app?vid=55eaa616-6069-4488-b2c4-a1d4f41baf53"},"vehicle_type_id":"4","last_reported":1731550294,"current_range_meters":20800,"station_id":"ce4bh3p2rcd13ifvqdq0","pricing_plan_id":"cebpf4jnsgd1na2vs0mg"},{"bike_id":"4a74f469-1d99-48ee-a8ca-9199898c00a4","system_id":"levelo_inurba_marseille","lat":43.23199,"lon":5.35548,"is_reserved":false,"is_disabled":false,"rental_uris":{"android":"levelo://app?vid=4a74f469-1d99-48ee-a8ca-9199898c00a4","ios":"levelo://app?vid=4a74f469-1d99-48ee-a8ca-9199898c00a4"},"vehicle_type_id":"4","last_reported":1731550294,"current_range_meters":24000,"station_id":"ce4bhu92rcd13ifvqi70","pricing_plan_id":"cebpf4jnsgd1na2vs0mg"},{"bike_id":"c513423a-06cf-4613-b0fc-fcc6a06b898c","system_id":"levelo_inurba_marseille","lat":43.26055,"lon":5.39403,"is_reserved":false,"is_disabled":false,"rental_uris":{"android":"levelo://app?vid=c513423a-06cf-4613-b0fc-fcc6a06b898c","ios":"levelo://app?vid=c513423a-06cf-4613-b0fc-fcc6a06b898c"},"vehicle_type_id":"4","last_reported":1731550294,"current_range_meters":39200,"station_id":"ce4bhh92rcd13ifvqfj0","pricing_plan_id":"cebpf4jnsgd1na2vs0mg"},{"bike_id":"77849bd5-5bfe-4445-8191-82da714d15fa","system_id":"levelo_inurba_marseille","lat":43.27807,"lon":5.40695,"is_reserved":false,"is_disabled":false,"rental_uris":{"android":"levelo://app?vid=77849bd5-5bfe-4445-8191-82da714d15fa","ios":"levelo://app?vid=77849bd5-5bfe-4445-8191-82da714d15fa"},"vehicle_type_id":"4","last_reported":1731550294,"current_range_meters":35600,"station_id":"ce4bhnh2rcd13ifvqgtg","pricing_plan_id":"cebpf4jnsgd1na2vs0mg"},{"bike_id":"b4d728fa-35f7-4e39-83b7-6c7e64d06469","system_id":"levelo_inurba_marseille","lat":43.25584,"lon":5.38247,"is_reserved":false,"is_disabled":false,"rental_uris":{"android":"levelo://app?vid=b4d728fa-35f7-4e39-83b7-6c7e64d06469","ios":"levelo://app?vid=b4d728fa-35f7-4e39-83b7-6c7e64d06469"},"vehicle_type_id":"4","last_reported":1731550294,"current_range_meters":38800,"station_id":"ce4bhih2rcd13ifvqfs0","pricing_plan_id":"cebpf4jnsgd1na2vs0mg"},{"bike_id":"baeed238-b5b4-482c-9e5c-2accf4da025a","system_id":"levelo_inurba_marseille","lat":43.2803,"lon":5.36943,"is_reserved":false,"is_disabled":false,"rental_uris":{"android":"levelo://app?vid=baeed238-b5b4-482c-9e5c-2accf4da025a","ios":"levelo://app?vid=baeed238-b5b4-482c-9e5c-2accf4da025a"},"vehicle_type_id":"4","last_reported":1731550294,"current_range_meters":28000,"station_id":"ce4bha12rcd13ifvqef0","pricing_plan_id":"cebpf4jnsgd1na2vs0mg"},{"bike_id":"c686a523-a68c-45a9-a771-1fc5ac658cfe","system_id":"levelo_inurba_marseille","lat":43.32341,"lon":5.40616,"is_reserved":false,"is_disabled":false,"rental_uris":{"android":"levelo://app?vid=c686a523-a68c-45a9-a771-1fc5ac658cfe","ios":"levelo://app?vid=c686a523-a68c-45a9-a771-1fc5ac658cfe"},"vehicle_type_id":"4","last_reported":1731550294,"current_range_meters":38800,"station_id":"ce4bhq92rcd13ifvqhjg","pricing_plan_id":"cebpf4jnsgd1na2vs0mg"},{"bike_id":"6db1e6c8-06cc-4380-90f6-7eba7199060d","system_id":"levelo_inurba_marseille","lat":43.31066,"lon":5.38365,"is_reserved":false,"is_disabled":false,"rental_uris":{"android":"levelo://app?vid=6db1e6c8-06cc-4380-90f6-7eba7199060d","ios":"levelo://app?vid=6db1e6c8-06cc-4380-90f6-7eba7199060d"},"vehicle_type_id":"4","last_reported":1731550294,"current_range_meters":38800,"station_id":"ce4bgv92rcd13ifvqcr0","pricing_plan_id":"cebpf4jnsgd1na2vs0mg"},{"bike_id":"4a5ca1e0-4e13-4a04-b77d-92aecf8fbba5","system_id":"levelo_inurba_marseille","lat":43.30649,"lon":5.40063,"is_reserved":false,"is_disabled":false,"rental_uris":{"android":"levelo://app?vid=4a5ca1e0-4e13-4a04-b77d-92aecf8fbba5","ios":"levelo://app?vid=4a5ca1e0-4e13-4a04-b77d-92aecf8fbba5"},"vehicle_type_id":"4","last_reported":1731550294,"current_range_meters":39200,"station_id":"ce4bh112rcd13ifvqda0","pricing_plan_id":"cebpf4jnsgd1na2vs0mg"},{"bike_id":"b401526e-9797-412b-a024-2aeff2654ce6","system_id":"levelo_inurba_marseille","lat":43.27934,"lon":5.35508,"is_reserved":false,"is_disabled":false,"rental_uris":{"android":"levelo://app?vid=b401526e-9797-412b-a024-2aeff2654ce6","ios":"levelo://app?vid=b401526e-9797-412b-a024-2aeff2654ce6"},"vehicle_type_id":"4","last_reported":1731550294,"current_range_meters":6800,"station_id":"","pricing_plan_id":"cebpf4jnsgd1na2vs0mg"},{"bike_id":"37dcd8c4-5f61-405b-84ad-7c41c7125b21","system_id":"levelo_inurba_marseille","lat":43.24067,"lon":5.37736,"is_reserved":false,"is_disabled":false,"rental_uris":{"android":"levelo://app?vid=37dcd8c4-5f61-405b-84ad-7c41c7125b21","ios":"levelo://app?vid=37dcd8c4-5f61-405b-84ad-7c41c7125b21"},"vehicle_type_id":"4","last_reported":1731550294,"current_range_meters":37600,"station_id":"ce4bhnp2rcd13ifvqgvg","pricing_plan_id":"cebpf4jnsgd1na2vs0mg"},{"bike_id":"75659cfe-2d87-40df-8a8a-06fea6680d55","system_id":"levelo_inurba_marseille","lat":43.29449,"lon":5.39753,"is_reserved":false,"is_disabled":false,"rental_uris":{"android":"levelo://app?vid=75659cfe-2d87-40df-8a8a-06fea6680d55","ios":"levelo://app?vid=75659cfe-2d87-40df-8a8a-06fea6680d55"},"vehicle_type_id":"4","last_reported":1731550294,"current_range_meters":10000,"station_id":"ce4bh3h2rcd13ifvqdo0","pricing_plan_id":"cebpf4jnsgd1na2vs0mg"},{"bike_id":"5031991e-125b-41e6-a14f-3bafbd97c480","system_id":"levelo_inurba_marseille","lat":43.30802,"lon":5.38149,"is_reserved":false,"is_disabled":false,"rental_uris":{"android":"levelo://app?vid=5031991e-125b-41e6-a14f-3bafbd97c480","ios":"levelo://app?vid=5031991e-125b-41e6-a14f-3bafbd97c480"},"vehicle_type_id":"4","last_reported":1731550294,"current_range_meters":16400,"station_id":"ce4bgt12rcd13ifvqce0","pricing_plan_id":"cebpf4jnsgd1na2vs0mg"},{"bike_id":"d90d861b-f246-48e4-b5c6-8f100bd8f91c","system_id":"levelo_inurba_marseille","lat":43.25091,"lon":5.39522,"is_reserved":false,"is_disabled":false,"rental_uris":{"android":"levelo://app?vid=d90d861b-f246-48e4-b5c6-8f100bd8f91c","ios":"levelo://app?vid=d90d861b-f246-48e4-b5c6-8f100bd8f91c"},"vehicle_type_id":"4","last_reported":1731550294,"current_range_meters":26000,"station_id":"ce4bhm12rcd13ifvqgkg","pricing_plan_id":"cebpf4jnsgd1na2vs0mg"},{"bike_id":"263d9352-745d-4496-b9ba-001591edf2fa","system_id":"levelo_inurba_marseille","lat":43.25502,"lon":5.37655,"is_reserved":false,"is_disabled":false,"rental_uris":{"android":"levelo://app?vid=263d9352-745d-4496-b9ba-001591edf2fa","ios":"levelo://app?vid=263d9352-745d-4496-b9ba-001591edf2fa"},"vehicle_type_id":"4","last_reported":1731550294,"current_range_meters":37600,"station_id":"ce4bhh12rcd13ifvqff0","pricing_plan_id":"cebpf4jnsgd1na2vs0mg"},{"bike_id":"4dbbe8c3-bc64-4591-be54-71f48705519a","system_id":"levelo_inurba_marseille","lat":43.27997,"lon":5.4166,"is_reserved":false,"is_disabled":false,"rental_uris":{"android":"levelo://app?vid=4dbbe8c3-bc64-4591-be54-71f48705519a","ios":"levelo://app?vid=4dbbe8c3-bc64-4591-be54-71f48705519a"},"vehicle_type_id":"4","last_reported":1731550294,"current_range_meters":34800,"station_id":"ce4bho12rcd13ifvqh1g","pricing_plan_id":"cebpf4jnsgd1na2vs0mg"},{"bike_id":"e106c143-b27f-40cf-b30c-df721c2b0379","system_id":"levelo_inurba_marseille","lat":43.27948,"lon":5.41041,"is_reserved":false,"is_disabled":false,"rental_uris":{"android":"levelo://app?vid=e106c143-b27f-40cf-b30c-df721c2b0379","ios":"levelo://app?vid=e106c143-b27f-40cf-b30c-df721c2b0379"},"vehicle_type_id":"4","last_reported":1731550294,"current_range_meters":10000,"station_id":"ce4bhnp2rcd13ifvqh0g","pricing_plan_id":"cebpf4jnsgd1na2vs0mg"},{"bike_id":"17a7bc2b-9e13-42de-b495-cf67396a93ce","system_id":"levelo_inurba_marseille","lat":43.29869,"lon":5.39734,"is_reserved":false,"is_disabled":false,"rental_uris":{"android":"levelo://app?vid=17a7bc2b-9e13-42de-b495-cf67396a93ce","ios":"levelo://app?vid=17a7bc2b-9e13-42de-b495-cf67396a93ce"},"vehicle_type_id":"4","last_reported":1731550294,"current_range_meters":24800,"station_id":"ce4bh0h2rcd13ifvqd50","pricing_plan_id":"cebpf4jnsgd1na2vs0mg"},{"bike_id":"44376c3b-e62c-4341-acee-1fb0b2497c4c","system_id":"levelo_inurba_marseille","lat":43.23963,"lon":5.3662,"is_reserved":false,"is_disabled":false,"rental_uris":{"android":"levelo://app?vid=44376c3b-e62c-4341-acee-1fb0b2497c4c","ios":"levelo://app?vid=44376c3b-e62c-4341-acee-1fb0b2497c4c"},"vehicle_type_id":"4","last_reported":1731550294,"current_range_meters":33600,"station_id":"ce4bhi12rcd13ifvqfp0","pricing_plan_id":"cebpf4jnsgd1na2vs0mg"},{"bike_id":"7cdb67bd-0174-4b2a-a978-6d8f0879f18a","system_id":"levelo_inurba_marseille","lat":43.31756,"lon":5.39018,"is_reserved":false,"is_disabled":false,"rental_uris":{"android":"levelo://app?vid=7cdb67bd-0174-4b2a-a978-6d8f0879f18a","ios":"levelo://app?vid=7cdb67bd-0174-4b2a-a978-6d8f0879f18a"},"vehicle_type_id":"4","last_reported":1731550294,"current_range_meters":38400,"station_id":"ce4bhqp2rcd13ifvqhng","pricing_plan_id":"cebpf4jnsgd1na2vs0mg"},{"bike_id":"45865806-bc2c-4c6c-8332-c61b5ccd45c4","system_id":"levelo_inurba_marseille","lat":43.31542,"lon":5.38018,"is_reserved":false,"is_disabled":false,"rental_uris":{"android":"levelo://app?vid=45865806-bc2c-4c6c-8332-c61b5ccd45c4","ios":"levelo://app?vid=45865806-bc2c-4c6c-8332-c61b5ccd45c4"},"vehicle_type_id":"4","last_reported":1731550294,"current_range_meters":38800,"station_id":"ce4bhsp2rcd13ifvqi50","pricing_plan_id":"cebpf4jnsgd1na2vs0mg"},{"bike_id":"91e2d62e-9351-4226-9c58-a990ea1f1c69","system_id":"levelo_inurba_marseille","lat":43.29196,"lon":5.39323,"is_reserved":false,"is_disabled":false,"rental_uris":{"android":"levelo://app?vid=91e2d62e-9351-4226-9c58-a990ea1f1c69","ios":"levelo://app?vid=91e2d62e-9351-4226-9c58-a990ea1f1c69"},"vehicle_type_id":"4","last_reported":1731550294,"current_range_meters":36800,"station_id":"ce4bh192rcd13ifvqdd0","pricing_plan_id":"cebpf4jnsgd1na2vs0mg"},{"bike_id":"5447d4d6-da02-40b0-82ec-331a146c1bfc","system_id":"levelo_inurba_marseille","lat":43.30869,"lon":5.39629,"is_reserved":false,"is_disabled":false,"rental_uris":{"android":"levelo://app?vid=5447d4d6-da02-40b0-82ec-331a146c1bfc","ios":"levelo://app?vid=5447d4d6-da02-40b0-82ec-331a146c1bfc"},"vehicle_type_id":"4","last_reported":1731550294,"current_range_meters":37600,"station_id":"ce4bh012rcd13ifvqcv0","pricing_plan_id":"cebpf4jnsgd1na2vs0mg"},{"bike_id":"f6be5a9f-da9f-4673-8aa7-5387ec0333e4","system_id":"levelo_inurba_marseille","lat":43.28093,"lon":5.39632,"is_reserved":false,"is_disabled":false,"rental_uris":{"android":"levelo://app?vid=f6be5a9f-da9f-4673-8aa7-5387ec0333e4","ios":"levelo://app?vid=f6be5a9f-da9f-4673-8aa7-5387ec0333e4"},"vehicle_type_id":"4","last_reported":1731550294,"current_range_meters":16000,"station_id":"ce4bho12rcd13ifvqh2g","pricing_plan_id":"cebpf4jnsgd1na2vs0mg"},{"bike_id":"5d6ec05a-eb22-4cd8-8494-88aa5b87dedd","system_id":"levelo_inurba_marseille","lat":43.32491,"lon":5.36591,"is_reserved":false,"is_disabled":false,"rental_uris":{"android":"levelo://app?vid=5d6ec05a-eb22-4cd8-8494-88aa5b87dedd","ios":"levelo://app?vid=5d6ec05a-eb22-4cd8-8494-88aa5b87dedd"},"vehicle_type_id":"4","last_reported":1731550294,"current_range_meters":20000,"station_id":"ce4bhs12rcd13ifvqhvg","pricing_plan_id":"cebpf4jnsgd1na2vs0mg"},{"bike_id":"e7dba591-5900-402e-97ff-bd9dd1890971","system_id":"levelo_inurba_marseille","lat":43.29876,"lon":5.39731,"is_reserved":false,"is_disabled":false,"rental_uris":{"android":"levelo://app?vid=e7dba591-5900-402e-97ff-bd9dd1890971","ios":"levelo://app?vid=e7dba591-5900-402e-97ff-bd9dd1890971"},"vehicle_type_id":"4","last_reported":1731550294,"current_range_meters":38800,"station_id":"ce4bh0h2rcd13ifvqd50","pricing_plan_id":"cebpf4jnsgd1na2vs0mg"},{"bike_id":"88f4a0ea-f89b-4e50-88f3-da55f603f69a","system_id":"levelo_inurba_marseille","lat":43.321,"lon":5.368,"is_reserved":false,"is_disabled":false,"rental_uris":{"android":"levelo://app?vid=88f4a0ea-f89b-4e50-88f3-da55f603f69a","ios":"levelo://app?vid=88f4a0ea-f89b-4e50-88f3-da55f603f69a"},"vehicle_type_id":"4","last_reported":1731550294,"current_range_meters":17600,"station_id":"ce4bhrh2rcd13ifvqhug","pricing_plan_id":"cebpf4jnsgd1na2vs0mg"},{"bike_id":"6eebe7e0-e2df-48f4-b6ca-e9514d151868","system_id":"levelo_inurba_marseille","lat":43.29285,"lon":5.40162,"is_reserved":false,"is_disabled":false,"rental_uris":{"android":"levelo://app?vid=6eebe7e0-e2df-48f4-b6ca-e9514d151868","ios":"levelo://app?vid=6eebe7e0-e2df-48f4-b6ca-e9514d151868"},"vehicle_type_id":"4","last_reported":1731550294,"current_range_meters":36400,"station_id":"ce4bh312rcd13ifvqdk0","pricing_plan_id":"cebpf4jnsgd1na2vs0mg"},{"bike_id":"d629aba1-1b75-4b3a-8c37-a357eb3d6c15","system_id":"levelo_inurba_marseille","lat":43.28467,"lon":5.35877,"is_reserved":false,"is_disabled":false,"rental_uris":{"android":"levelo://app?vid=d629aba1-1b75-4b3a-8c37-a357eb3d6c15","ios":"levelo://app?vid=d629aba1-1b75-4b3a-8c37-a357eb3d6c15"},"vehicle_type_id":"4","last_reported":1731550294,"current_range_meters":7200,"station_id":"ce4bhah2rcd13ifvqei0","pricing_plan_id":"cebpf4jnsgd1na2vs0mg"},{"bike_id":"c4d3108a-1727-4984-9260-0d0a54662088","system_id":"levelo_inurba_marseille","lat":43.28368,"lon":5.38614,"is_reserved":false,"is_disabled":false,"rental_uris":{"android":"levelo://app?vid=c4d3108a-1727-4984-9260-0d0a54662088","ios":"levelo://app?vid=c4d3108a-1727-4984-9260-0d0a54662088"},"vehicle_type_id":"4","last_reported":1731550294,"current_range_meters":38400,"station_id":"ce4bh492rcd13ifvqdvg","pricing_plan_id":"cebpf4jnsgd1na2vs0mg"},{"bike_id":"19f28e5b-5fba-40ba-a41f-21578246d721","system_id":"levelo_inurba_marseille","lat":43.29887,"lon":5.39745,"is_reserved":false,"is_disabled":false,"rental_uris":{"android":"levelo://app?vid=19f28e5b-5fba-40ba-a41f-21578246d721","ios":"levelo://app?vid=19f28e5b-5fba-40ba-a41f-21578246d721"},"vehicle_type_id":"4","last_reported":1731550294,"current_range_meters":26000,"station_id":"ce4bh0h2rcd13ifvqd50","pricing_plan_id":"cebpf4jnsgd1na2vs0mg"},{"bike_id":"db80870f-14b6-4060-8fce-a24d01be1c24","system_id":"levelo_inurba_marseille","lat":43.27951,"lon":5.4104,"is_reserved":false,"is_disabled":false,"rental_uris":{"android":"levelo://app?vid=db80870f-14b6-4060-8fce-a24d01be1c24","ios":"levelo://app?vid=db80870f-14b6-4060-8fce-a24d01be1c24"},"vehicle_type_id":"4","last_reported":1731550294,"current_range_meters":7200,"station_id":"ce4bhnp2rcd13ifvqh0g","pricing_plan_id":"cebpf4jnsgd1na2vs0mg"},{"bike_id":"b0b9f0a5-6c3e-4409-abd1-3ff962e212a0","system_id":"levelo_inurba_marseille","lat":43.30931,"lon":5.40161,"is_reserved":false,"is_disabled":false,"rental_uris":{"android":"levelo://app?vid=b0b9f0a5-6c3e-4409-abd1-3ff962e212a0","ios":"levelo://app?vid=b0b9f0a5-6c3e-4409-abd1-3ff962e212a0"},"vehicle_type_id":"4","last_reported":1731550294,"current_range_meters":38800,"station_id":"ce4bgvp2rcd13ifvqct0","pricing_plan_id":"cebpf4jnsgd1na2vs0mg"},{"bike_id":"203e76b4-b6a7-4141-81bb-1c6c13698fa7","system_id":"levelo_inurba_marseille","lat":43.28155,"lon":5.42643,"is_reserved":false,"is_disabled":false,"rental_uris":{"android":"levelo://app?vid=203e76b4-b6a7-4141-81bb-1c6c13698fa7","ios":"levelo://app?vid=203e76b4-b6a7-4141-81bb-1c6c13698fa7"},"vehicle_type_id":"4","last_reported":1731550294,"current_range_meters":39200,"station_id":"ce4bhnh2rcd13ifvqgug","pricing_plan_id":"cebpf4jnsgd1na2vs0mg"},{"bike_id":"817849d8-25eb-48a4-b155-e11b87f519ff","system_id":"levelo_inurba_marseille","lat":43.30541,"lon":5.36542,"is_reserved":false,"is_disabled":false,"rental_uris":{"android":"levelo://app?vid=817849d8-25eb-48a4-b155-e11b87f519ff","ios":"levelo://app?vid=817849d8-25eb-48a4-b155-e11b87f519ff"},"vehicle_type_id":"4","last_reported":1731550294,"current_range_meters":38400,"station_id":"ce4bgs12rcd13ifvqcag","pricing_plan_id":"cebpf4jnsgd1na2vs0mg"},{"bike_id":"b5c48233-4f2d-4568-a512-177511afea67","system_id":"levelo_inurba_marseille","lat":43.29042,"lon":5.35901,"is_reserved":false,"is_disabled":false,"rental_uris":{"android":"levelo://app?vid=b5c48233-4f2d-4568-a512-177511afea67","ios":"levelo://app?vid=b5c48233-4f2d-4568-a512-177511afea67"},"vehicle_type_id":"4","last_reported":1731550294,"current_range_meters":38800,"station_id":"ce4bha92rcd13ifvqeg0","pricing_plan_id":"cebpf4jnsgd1na2vs0mg"},{"bike_id":"2834bc61-5c31-4729-8445-00c3cd376eb2","system_id":"levelo_inurba_marseille","lat":43.29803,"lon":5.39345,"is_reserved":false,"is_disabled":false,"rental_uris":{"android":"levelo://app?vid=2834bc61-5c31-4729-8445-00c3cd376eb2","ios":"levelo://app?vid=2834bc61-5c31-4729-8445-00c3cd376eb2"},"vehicle_type_id":"4","last_reported":1731550294,"current_range_meters":36000,"station_id":"chh1huq6cuj3fo74tm60","pricing_plan_id":"cebpf4jnsgd1na2vs0mg"},{"bike_id":"5d7c50d9-a10f-4e3b-afec-77c1a7e640d5","system_id":"levelo_inurba_marseille","lat":43.30804,"lon":5.37648,"is_reserved":false,"is_disabled":false,"rental_uris":{"android":"levelo://app?vid=5d7c50d9-a10f-4e3b-afec-77c1a7e640d5","ios":"levelo://app?vid=5d7c50d9-a10f-4e3b-afec-77c1a7e640d5"},"vehicle_type_id":"4","last_reported":1731550294,"current_range_meters":28400,"station_id":"ce4bgv92rcd13ifvqcq0","pricing_plan_id":"cebpf4jnsgd1na2vs0mg"},{"bike_id":"3dd2ef49-ad1c-43a1-ac6b-b877c1801c2f","system_id":"levelo_inurba_marseille","lat":43.27895,"lon":5.37992,"is_reserved":false,"is_disabled":false,"rental_uris":{"android":"levelo://app?vid=3dd2ef49-ad1c-43a1-ac6b-b877c1801c2f","ios":"levelo://app?vid=3dd2ef49-ad1c-43a1-ac6b-b877c1801c2f"},"vehicle_type_id":"4","last_reported":1731550294,"current_range_meters":38800,"station_id":"ce4bhf92rcd13ifvqf50","pricing_plan_id":"cebpf4jnsgd1na2vs0mg"},{"bike_id":"9cf5fe7b-47e5-4da9-8f85-ef1aeead96c5","system_id":"levelo_inurba_marseille","lat":43.30657,"lon":5.40073,"is_reserved":false,"is_disabled":false,"rental_uris":{"android":"levelo://app?vid=9cf5fe7b-47e5-4da9-8f85-ef1aeead96c5","ios":"levelo://app?vid=9cf5fe7b-47e5-4da9-8f85-ef1aeead96c5"},"vehicle_type_id":"4","last_reported":1731550294,"current_range_meters":38800,"station_id":"ce4bh112rcd13ifvqda0","pricing_plan_id":"cebpf4jnsgd1na2vs0mg"},{"bike_id":"7a56d0a8-a4a2-4acb-8323-25d4cda32662","system_id":"levelo_inurba_marseille","lat":43.24063,"lon":5.37764,"is_reserved":false,"is_disabled":false,"rental_uris":{"android":"levelo://app?vid=7a56d0a8-a4a2-4acb-8323-25d4cda32662","ios":"levelo://app?vid=7a56d0a8-a4a2-4acb-8323-25d4cda32662"},"vehicle_type_id":"4","last_reported":1731550294,"current_range_meters":37600,"station_id":"ce4bhnp2rcd13ifvqgvg","pricing_plan_id":"cebpf4jnsgd1na2vs0mg"},{"bike_id":"d99bff46-e3e0-4c25-9719-3fa3dd9a1a6e","system_id":"levelo_inurba_marseille","lat":43.31415,"lon":5.37418,"is_reserved":false,"is_disabled":false,"rental_uris":{"android":"levelo://app?vid=d99bff46-e3e0-4c25-9719-3fa3dd9a1a6e","ios":"levelo://app?vid=d99bff46-e3e0-4c25-9719-3fa3dd9a1a6e"},"vehicle_type_id":"4","last_reported":1731550294,"current_range_meters":22400,"station_id":"","pricing_plan_id":"cebpf4jnsgd1na2vs0mg"},{"bike_id":"5138bdb1-d0ff-4107-8c10-533742a54fb7","system_id":"levelo_inurba_marseille","lat":43.28486,"lon":5.384,"is_reserved":false,"is_disabled":false,"rental_uris":{"android":"levelo://app?vid=5138bdb1-d0ff-4107-8c10-533742a54fb7","ios":"levelo://app?vid=5138bdb1-d0ff-4107-8c10-533742a54fb7"},"vehicle_type_id":"4","last_reported":1731550294,"current_range_meters":39200,"station_id":"ce4bh512rcd13ifvqe3g","pricing_plan_id":"cebpf4jnsgd1na2vs0mg"},{"bike_id":"1f9bbbe2-6d43-4695-ad1c-62239c6576c6","system_id":"levelo_inurba_marseille","lat":43.2848,"lon":5.3587,"is_reserved":false,"is_disabled":false,"rental_uris":{"android":"levelo://app?vid=1f9bbbe2-6d43-4695-ad1c-62239c6576c6","ios":"levelo://app?vid=1f9bbbe2-6d43-4695-ad1c-62239c6576c6"},"vehicle_type_id":"4","last_reported":1731550294,"current_range_meters":9200,"station_id":"ce4bhah2rcd13ifvqei0","pricing_plan_id":"cebpf4jnsgd1na2vs0mg"},{"bike_id":"4e2374da-ae8a-4e80-b322-a311f399cd72","system_id":"levelo_inurba_marseille","lat":43.30652,"lon":5.40052,"is_reserved":false,"is_disabled":false,"rental_uris":{"android":"levelo://app?vid=4e2374da-ae8a-4e80-b322-a311f399cd72","ios":"levelo://app?vid=4e2374da-ae8a-4e80-b322-a311f399cd72"},"vehicle_type_id":"4","last_reported":1731550294,"current_range_meters":16400,"station_id":"ce4bh112rcd13ifvqda0","pricing_plan_id":"cebpf4jnsgd1na2vs0mg"},{"bike_id":"41216121-f9a5-4d0d-b4ad-c65a5f5a6201","system_id":"levelo_inurba_marseille","lat":43.33726,"lon":5.39181,"is_reserved":false,"is_disabled":false,"rental_uris":{"android":"levelo://app?vid=41216121-f9a5-4d0d-b4ad-c65a5f5a6201","ios":"levelo://app?vid=41216121-f9a5-4d0d-b4ad-c65a5f5a6201"},"vehicle_type_id":"4","last_reported":1731550294,"current_range_meters":37600,"station_id":"ce4bhr92rcd13ifvqhsg","pricing_plan_id":"cebpf4jnsgd1na2vs0mg"},{"bike_id":"07df449b-4274-4142-8432-30fbab1e34c7","system_id":"levelo_inurba_marseille","lat":43.316925,"lon":5.423986,"is_reserved":false,"is_disabled":false,"rental_uris":{"android":"levelo://app?vid=07df449b-4274-4142-8432-30fbab1e34c7","ios":"levelo://app?vid=07df449b-4274-4142-8432-30fbab1e34c7"},"vehicle_type_id":"4","last_reported":1731550294,"current_range_meters":7200,"station_id":"ce4bhp92rcd13ifvqhbg","pricing_plan_id":"cebpf4jnsgd1na2vs0mg"},{"bike_id":"805bb8b1-9cc6-4f3e-a15b-1d33acae2c35","system_id":"levelo_inurba_marseille","lat":43.25089,"lon":5.39512,"is_reserved":false,"is_disabled":false,"rental_uris":{"android":"levelo://app?vid=805bb8b1-9cc6-4f3e-a15b-1d33acae2c35","ios":"levelo://app?vid=805bb8b1-9cc6-4f3e-a15b-1d33acae2c35"},"vehicle_type_id":"4","last_reported":1731550294,"current_range_meters":8800,"station_id":"ce4bhm12rcd13ifvqgkg","pricing_plan_id":"cebpf4jnsgd1na2vs0mg"},{"bike_id":"9e9a2369-1d14-4981-a72c-1ddb3ebe0ae3","system_id":"levelo_inurba_marseille","lat":43.27991,"lon":5.41664,"is_reserved":false,"is_disabled":false,"rental_uris":{"android":"levelo://app?vid=9e9a2369-1d14-4981-a72c-1ddb3ebe0ae3","ios":"levelo://app?vid=9e9a2369-1d14-4981-a72c-1ddb3ebe0ae3"},"vehicle_type_id":"4","last_reported":1731550294,"current_range_meters":38000,"station_id":"ce4bho12rcd13ifvqh1g","pricing_plan_id":"cebpf4jnsgd1na2vs0mg"},{"bike_id":"e84c3e0e-ecb8-4ff3-a803-0156741b8ebd","system_id":"levelo_inurba_marseille","lat":43.31361,"lon":5.38508,"is_reserved":false,"is_disabled":false,"rental_uris":{"android":"levelo://app?vid=e84c3e0e-ecb8-4ff3-a803-0156741b8ebd","ios":"levelo://app?vid=e84c3e0e-ecb8-4ff3-a803-0156741b8ebd"},"vehicle_type_id":"4","last_reported":1731550294,"current_range_meters":20000,"station_id":"ce4bgt92rcd13ifvqcf0","pricing_plan_id":"cebpf4jnsgd1na2vs0mg"},{"bike_id":"c7190943-6068-43f7-8523-f40d0bf48839","system_id":"levelo_inurba_marseille","lat":43.28703,"lon":5.37399,"is_reserved":false,"is_disabled":false,"rental_uris":{"android":"levelo://app?vid=c7190943-6068-43f7-8523-f40d0bf48839","ios":"levelo://app?vid=c7190943-6068-43f7-8523-f40d0bf48839"},"vehicle_type_id":"4","last_reported":1731550294,"current_range_meters":30400,"station_id":"ce4bh3p2rcd13ifvqdq0","pricing_plan_id":"cebpf4jnsgd1na2vs0mg"},{"bike_id":"98815e11-316c-46d0-a9a4-8247fa6ca6a0","system_id":"levelo_inurba_marseille","lat":43.31709,"lon":5.40452,"is_reserved":false,"is_disabled":false,"rental_uris":{"android":"levelo://app?vid=98815e11-316c-46d0-a9a4-8247fa6ca6a0","ios":"levelo://app?vid=98815e11-316c-46d0-a9a4-8247fa6ca6a0"},"vehicle_type_id":"4","last_reported":1731550294,"current_range_meters":26000,"station_id":"ce4bh012rcd13ifvqd00","pricing_plan_id":"cebpf4jnsgd1na2vs0mg"},{"bike_id":"bf3d4295-2815-4180-ac62-a2acd8993ea9","system_id":"levelo_inurba_marseille","lat":43.30271,"lon":5.40099,"is_reserved":false,"is_disabled":false,"rental_uris":{"android":"levelo://app?vid=bf3d4295-2815-4180-ac62-a2acd8993ea9","ios":"levelo://app?vid=bf3d4295-2815-4180-ac62-a2acd8993ea9"},"vehicle_type_id":"4","last_reported":1731550294,"current_range_meters":28800,"station_id":"ce4bgvh2rcd13ifvqcs0","pricing_plan_id":"cebpf4jnsgd1na2vs0mg"},{"bike_id":"0a6c8e4d-3ae0-4f74-ac27-b108fa286d45","system_id":"levelo_inurba_marseille","lat":43.25866,"lon":5.39896,"is_reserved":false,"is_disabled":false,"rental_uris":{"android":"levelo://app?vid=0a6c8e4d-3ae0-4f74-ac27-b108fa286d45","ios":"levelo://app?vid=0a6c8e4d-3ae0-4f74-ac27-b108fa286d45"},"vehicle_type_id":"4","last_reported":1731550294,"current_range_meters":38800,"station_id":"ce4bhl92rcd13ifvqghg","pricing_plan_id":"cebpf4jnsgd1na2vs0mg"},{"bike_id":"a66a2868-6cad-4e9d-86e2-8b514b301a2b","system_id":"levelo_inurba_marseille","lat":43.29704,"lon":5.36613,"is_reserved":false,"is_disabled":false,"rental_uris":{"android":"levelo://app?vid=a66a2868-6cad-4e9d-86e2-8b514b301a2b","ios":"levelo://app?vid=a66a2868-6cad-4e9d-86e2-8b514b301a2b"},"vehicle_type_id":"4","last_reported":1731550294,"current_range_meters":16400,"station_id":"ce4bgn12rcd13ifvqbt0","pricing_plan_id":"cebpf4jnsgd1na2vs0mg"},{"bike_id":"d4999c7f-8b6e-4a0e-b01a-e88fae560a5c","system_id":"levelo_inurba_marseille","lat":43.29047,"lon":5.35909,"is_reserved":false,"is_disabled":false,"rental_uris":{"android":"levelo://app?vid=d4999c7f-8b6e-4a0e-b01a-e88fae560a5c","ios":"levelo://app?vid=d4999c7f-8b6e-4a0e-b01a-e88fae560a5c"},"vehicle_type_id":"4","last_reported":1731550294,"current_range_meters":38800,"station_id":"ce4bha92rcd13ifvqeg0","pricing_plan_id":"cebpf4jnsgd1na2vs0mg"},{"bike_id":"cb9a6aa0-0b19-47f1-9052-a16185b299c2","system_id":"levelo_inurba_marseille","lat":43.29888,"lon":5.39726,"is_reserved":false,"is_disabled":false,"rental_uris":{"android":"levelo://app?vid=cb9a6aa0-0b19-47f1-9052-a16185b299c2","ios":"levelo://app?vid=cb9a6aa0-0b19-47f1-9052-a16185b299c2"},"vehicle_type_id":"4","last_reported":1731550294,"current_range_meters":39200,"station_id":"ce4bh0h2rcd13ifvqd50","pricing_plan_id":"cebpf4jnsgd1na2vs0mg"},{"bike_id":"7d3eacf7-6154-44a8-8611-005a20a78b16","system_id":"levelo_inurba_marseille","lat":43.31081,"lon":5.38365,"is_reserved":false,"is_disabled":false,"rental_uris":{"android":"levelo://app?vid=7d3eacf7-6154-44a8-8611-005a20a78b16","ios":"levelo://app?vid=7d3eacf7-6154-44a8-8611-005a20a78b16"},"vehicle_type_id":"4","last_reported":1731550294,"current_range_meters":24400,"station_id":"ce4bgv92rcd13ifvqcr0","pricing_plan_id":"cebpf4jnsgd1na2vs0mg"},{"bike_id":"4d588559-87d9-4b67-ac55-1a3523c0923d","system_id":"levelo_inurba_marseille","lat":43.29899,"lon":5.43652,"is_reserved":false,"is_disabled":false,"rental_uris":{"android":"levelo://app?vid=4d588559-87d9-4b67-ac55-1a3523c0923d","ios":"levelo://app?vid=4d588559-87d9-4b67-ac55-1a3523c0923d"},"vehicle_type_id":"4","last_reported":1731550294,"current_range_meters":38800,"station_id":"ce4bhpp2rcd13ifvqhfg","pricing_plan_id":"cebpf4jnsgd1na2vs0mg"},{"bike_id":"b7dd5ec7-2006-4c58-8750-d55b0b24b00f","system_id":"levelo_inurba_marseille","lat":43.27946,"lon":5.41038,"is_reserved":false,"is_disabled":false,"rental_uris":{"android":"levelo://app?vid=b7dd5ec7-2006-4c58-8750-d55b0b24b00f","ios":"levelo://app?vid=b7dd5ec7-2006-4c58-8750-d55b0b24b00f"},"vehicle_type_id":"4","last_reported":1731550294,"current_range_meters":34000,"station_id":"ce4bhnp2rcd13ifvqh0g","pricing_plan_id":"cebpf4jnsgd1na2vs0mg"},{"bike_id":"30083b78-52d8-4c88-b227-7a2763bcf4fc","system_id":"levelo_inurba_marseille","lat":43.32334,"lon":5.40602,"is_reserved":false,"is_disabled":false,"rental_uris":{"android":"levelo://app?vid=30083b78-52d8-4c88-b227-7a2763bcf4fc","ios":"levelo://app?vid=30083b78-52d8-4c88-b227-7a2763bcf4fc"},"vehicle_type_id":"4","last_reported":1731550294,"current_range_meters":27600,"station_id":"ce4bhq92rcd13ifvqhjg","pricing_plan_id":"cebpf4jnsgd1na2vs0mg"},{"bike_id":"6a013f38-7997-41e7-ac4a-77fc2e02fba8","system_id":"levelo_inurba_marseille","lat":43.3029,"lon":5.39197,"is_reserved":false,"is_disabled":false,"rental_uris":{"android":"levelo://app?vid=6a013f38-7997-41e7-ac4a-77fc2e02fba8","ios":"levelo://app?vid=6a013f38-7997-41e7-ac4a-77fc2e02fba8"},"vehicle_type_id":"4","last_reported":1731550294,"current_range_meters":37600,"station_id":"ce4bgkh2rcd13ifvqbk0","pricing_plan_id":"cebpf4jnsgd1na2vs0mg"},{"bike_id":"8889ce2c-aa97-491c-a8b4-11b49466b5c3","system_id":"levelo_inurba_marseille","lat":43.30293,"lon":5.39195,"is_reserved":false,"is_disabled":false,"rental_uris":{"android":"levelo://app?vid=8889ce2c-aa97-491c-a8b4-11b49466b5c3","ios":"levelo://app?vid=8889ce2c-aa97-491c-a8b4-11b49466b5c3"},"vehicle_type_id":"4","last_reported":1731550294,"current_range_meters":38800,"station_id":"ce4bgkh2rcd13ifvqbk0","pricing_plan_id":"cebpf4jnsgd1na2vs0mg"},{"bike_id":"8d95023a-d41a-4cef-be40-8213145bf30d","system_id":"levelo_inurba_marseille","lat":43.27993,"lon":5.41669,"is_reserved":false,"is_disabled":false,"rental_uris":{"android":"levelo://app?vid=8d95023a-d41a-4cef-be40-8213145bf30d","ios":"levelo://app?vid=8d95023a-d41a-4cef-be40-8213145bf30d"},"vehicle_type_id":"4","last_reported":1731550294,"current_range_meters":25200,"station_id":"ce4bho12rcd13ifvqh1g","pricing_plan_id":"cebpf4jnsgd1na2vs0mg"},{"bike_id":"6cfa6652-479d-4f14-bb48-8ecafbe3740b","system_id":"levelo_inurba_marseille","lat":43.30431,"lon":5.3976,"is_reserved":false,"is_disabled":false,"rental_uris":{"android":"levelo://app?vid=6cfa6652-479d-4f14-bb48-8ecafbe3740b","ios":"levelo://app?vid=6cfa6652-479d-4f14-bb48-8ecafbe3740b"},"vehicle_type_id":"4","last_reported":1731550294,"current_range_meters":23200,"station_id":"ce4bh092rcd13ifvqd20","pricing_plan_id":"cebpf4jnsgd1na2vs0mg"},{"bike_id":"2dfe3ff7-15f1-44d8-8056-486b409d3678","system_id":"levelo_inurba_marseille","lat":43.31698,"lon":5.40459,"is_reserved":false,"is_disabled":false,"rental_uris":{"android":"levelo://app?vid=2dfe3ff7-15f1-44d8-8056-486b409d3678","ios":"levelo://app?vid=2dfe3ff7-15f1-44d8-8056-486b409d3678"},"vehicle_type_id":"4","last_reported":1731550294,"current_range_meters":36400,"station_id":"ce4bh012rcd13ifvqd00","pricing_plan_id":"cebpf4jnsgd1na2vs0mg"},{"bike_id":"40754b4a-72c4-442c-83e0-e5cfb0a116c5","system_id":"levelo_inurba_marseille","lat":43.3046,"lon":5.39217,"is_reserved":false,"is_disabled":false,"rental_uris":{"android":"levelo://app?vid=40754b4a-72c4-442c-83e0-e5cfb0a116c5","ios":"levelo://app?vid=40754b4a-72c4-442c-83e0-e5cfb0a116c5"},"vehicle_type_id":"4","last_reported":1731550294,"current_range_meters":34800,"station_id":"","pricing_plan_id":"cebpf4jnsgd1na2vs0mg"},{"bike_id":"8963f262-bdcb-43f5-9e37-237198779ba8","system_id":"levelo_inurba_marseille","lat":43.33773,"lon":5.37442,"is_reserved":false,"is_disabled":false,"rental_uris":{"android":"levelo://app?vid=8963f262-bdcb-43f5-9e37-237198779ba8","ios":"levelo://app?vid=8963f262-bdcb-43f5-9e37-237198779ba8"},"vehicle_type_id":"4","last_reported":1731550294,"current_range_meters":35600,"station_id":"","pricing_plan_id":"cebpf4jnsgd1na2vs0mg"},{"bike_id":"131d5275-8201-4abf-89e3-9cd3bb0ce7b5","system_id":"levelo_inurba_marseille","lat":43.306834,"lon":5.380212,"is_reserved":false,"is_disabled":false,"rental_uris":{"android":"levelo://app?vid=131d5275-8201-4abf-89e3-9cd3bb0ce7b5","ios":"levelo://app?vid=131d5275-8201-4abf-89e3-9cd3bb0ce7b5"},"vehicle_type_id":"4","last_reported":1731550294,"current_range_meters":35200,"station_id":"","pricing_plan_id":"cebpf4jnsgd1na2vs0mg"},{"bike_id":"398b47b3-a042-4cec-b1dd-254773a78263","system_id":"levelo_inurba_marseille","lat":43.27401,"lon":5.38949,"is_reserved":false,"is_disabled":false,"rental_uris":{"android":"levelo://app?vid=398b47b3-a042-4cec-b1dd-254773a78263","ios":"levelo://app?vid=398b47b3-a042-4cec-b1dd-254773a78263"},"vehicle_type_id":"4","last_reported":1731550294,"current_range_meters":6400,"station_id":"","pricing_plan_id":"cebpf4jnsgd1na2vs0mg"},{"bike_id":"b7c2faf1-ecf1-4884-aba5-2bb342652a82","system_id":"levelo_inurba_marseille","lat":43.306,"lon":5.37236,"is_reserved":false,"is_disabled":false,"rental_uris":{"android":"levelo://app?vid=b7c2faf1-ecf1-4884-aba5-2bb342652a82","ios":"levelo://app?vid=b7c2faf1-ecf1-4884-aba5-2bb342652a82"},"vehicle_type_id":"4","last_reported":1731550294,"current_range_meters":30400,"station_id":"ce4bgqh2rcd13ifvqc4g","pricing_plan_id":"cebpf4jnsgd1na2vs0mg"},{"bike_id":"aeed913e-49c0-4ab0-8437-51150ca5a1d8","system_id":"levelo_inurba_marseille","lat":43.27945,"lon":5.41041,"is_reserved":false,"is_disabled":false,"rental_uris":{"android":"levelo://app?vid=aeed913e-49c0-4ab0-8437-51150ca5a1d8","ios":"levelo://app?vid=aeed913e-49c0-4ab0-8437-51150ca5a1d8"},"vehicle_type_id":"4","last_reported":1731550294,"current_range_meters":27200,"station_id":"ce4bhnp2rcd13ifvqh0g","pricing_plan_id":"cebpf4jnsgd1na2vs0mg"},{"bike_id":"44d4aeee-f0c2-4734-b402-fb62f0186632","system_id":"levelo_inurba_marseille","lat":43.2438,"lon":5.37054,"is_reserved":false,"is_disabled":false,"rental_uris":{"android":"levelo://app?vid=44d4aeee-f0c2-4734-b402-fb62f0186632","ios":"levelo://app?vid=44d4aeee-f0c2-4734-b402-fb62f0186632"},"vehicle_type_id":"4","last_reported":1731550294,"current_range_meters":30400,"station_id":"ce4bhhh2rcd13ifvqfk0","pricing_plan_id":"cebpf4jnsgd1na2vs0mg"},{"bike_id":"68e917fb-7a0e-415a-99ab-50edab48b82a","system_id":"levelo_inurba_marseille","lat":43.30888,"lon":5.39613,"is_reserved":false,"is_disabled":false,"rental_uris":{"android":"levelo://app?vid=68e917fb-7a0e-415a-99ab-50edab48b82a","ios":"levelo://app?vid=68e917fb-7a0e-415a-99ab-50edab48b82a"},"vehicle_type_id":"4","last_reported":1731550294,"current_range_meters":32800,"station_id":"ce4bh012rcd13ifvqcv0","pricing_plan_id":"cebpf4jnsgd1na2vs0mg"},{"bike_id":"bfa67605-738a-4a04-8785-ac934e987ef3","system_id":"levelo_inurba_marseille","lat":43.31728,"lon":5.40475,"is_reserved":false,"is_disabled":false,"rental_uris":{"android":"levelo://app?vid=bfa67605-738a-4a04-8785-ac934e987ef3","ios":"levelo://app?vid=bfa67605-738a-4a04-8785-ac934e987ef3"},"vehicle_type_id":"4","last_reported":1731550294,"current_range_meters":39200,"station_id":"ce4bh012rcd13ifvqd00","pricing_plan_id":"cebpf4jnsgd1na2vs0mg"},{"bike_id":"92e3ad17-17c9-4714-a148-ef9436ad6113","system_id":"levelo_inurba_marseille","lat":43.22932,"lon":5.35369,"is_reserved":false,"is_disabled":false,"rental_uris":{"android":"levelo://app?vid=92e3ad17-17c9-4714-a148-ef9436ad6113","ios":"levelo://app?vid=92e3ad17-17c9-4714-a148-ef9436ad6113"},"vehicle_type_id":"4","last_reported":1731550294,"current_range_meters":39200,"station_id":"cpo3532slgdg3j2ikp40","pricing_plan_id":"cebpf4jnsgd1na2vs0mg"},{"bike_id":"187a7fa8-9afd-4d26-b5e7-6a10712e67a7","system_id":"levelo_inurba_marseille","lat":43.23147,"lon":5.43703,"is_reserved":false,"is_disabled":false,"rental_uris":{"android":"levelo://app?vid=187a7fa8-9afd-4d26-b5e7-6a10712e67a7","ios":"levelo://app?vid=187a7fa8-9afd-4d26-b5e7-6a10712e67a7"},"vehicle_type_id":"4","last_reported":1731550294,"current_range_meters":34000,"station_id":"ce4bhmp2rcd13ifvqgog","pricing_plan_id":"cebpf4jnsgd1na2vs0mg"},{"bike_id":"e6a03aba-3d73-49a9-891f-883f2f916f86","system_id":"levelo_inurba_marseille","lat":43.30885,"lon":5.39638,"is_reserved":false,"is_disabled":false,"rental_uris":{"android":"levelo://app?vid=e6a03aba-3d73-49a9-891f-883f2f916f86","ios":"levelo://app?vid=e6a03aba-3d73-49a9-891f-883f2f916f86"},"vehicle_type_id":"4","last_reported":1731550294,"current_range_meters":36800,"station_id":"ce4bh012rcd13ifvqcv0","pricing_plan_id":"cebpf4jnsgd1na2vs0mg"},{"bike_id":"187dab1e-6f52-4db4-a1d6-a502ef5495b2","system_id":"levelo_inurba_marseille","lat":43.28636,"lon":5.38329,"is_reserved":false,"is_disabled":false,"rental_uris":{"android":"levelo://app?vid=187dab1e-6f52-4db4-a1d6-a502ef5495b2","ios":"levelo://app?vid=187dab1e-6f52-4db4-a1d6-a502ef5495b2"},"vehicle_type_id":"4","last_reported":1731550294,"current_range_meters":33200,"station_id":"","pricing_plan_id":"cebpf4jnsgd1na2vs0mg"},{"bike_id":"d776d60f-7094-4000-b5f7-8ffe37594415","system_id":"levelo_inurba_marseille","lat":43.28569,"lon":5.39487,"is_reserved":false,"is_disabled":false,"rental_uris":{"android":"levelo://app?vid=d776d60f-7094-4000-b5f7-8ffe37594415","ios":"levelo://app?vid=d776d60f-7094-4000-b5f7-8ffe37594415"},"vehicle_type_id":"4","last_reported":1731550294,"current_range_meters":38800,"station_id":"ce4bh292rcd13ifvqdg0","pricing_plan_id":"cebpf4jnsgd1na2vs0mg"},{"bike_id":"beb7b9bd-a544-4d0c-b0ee-a6204f3f5108","system_id":"levelo_inurba_marseille","lat":43.291962,"lon":5.385193,"is_reserved":false,"is_disabled":false,"rental_uris":{"android":"levelo://app?vid=beb7b9bd-a544-4d0c-b0ee-a6204f3f5108","ios":"levelo://app?vid=beb7b9bd-a544-4d0c-b0ee-a6204f3f5108"},"vehicle_type_id":"4","last_reported":1731550294,"current_range_meters":26800,"station_id":"","pricing_plan_id":"cebpf4jnsgd1na2vs0mg"},{"bike_id":"82f309e6-c4ae-421f-89cb-1d64a8e0ef10","system_id":"levelo_inurba_marseille","lat":43.337444,"lon":5.374475,"is_reserved":false,"is_disabled":false,"rental_uris":{"android":"levelo://app?vid=82f309e6-c4ae-421f-89cb-1d64a8e0ef10","ios":"levelo://app?vid=82f309e6-c4ae-421f-89cb-1d64a8e0ef10"},"vehicle_type_id":"4","last_reported":1731550294,"current_range_meters":34800,"station_id":"","pricing_plan_id":"cebpf4jnsgd1na2vs0mg"},{"bike_id":"5419d154-3ce9-4c40-9294-d16b9d2b3431","system_id":"levelo_inurba_marseille","lat":43.337444,"lon":5.374475,"is_reserved":false,"is_disabled":false,"rental_uris":{"android":"levelo://app?vid=5419d154-3ce9-4c40-9294-d16b9d2b3431","ios":"levelo://app?vid=5419d154-3ce9-4c40-9294-d16b9d2b3431"},"vehicle_type_id":"4","last_reported":1731550294,"current_range_meters":34800,"station_id":"","pricing_plan_id":"cebpf4jnsgd1na2vs0mg"},{"bike_id":"b615b6de-5530-40a5-9554-a272be97687a","system_id":"levelo_inurba_marseille","lat":43.31365,"lon":5.38504,"is_reserved":false,"is_disabled":false,"rental_uris":{"android":"levelo://app?vid=b615b6de-5530-40a5-9554-a272be97687a","ios":"levelo://app?vid=b615b6de-5530-40a5-9554-a272be97687a"},"vehicle_type_id":"4","last_reported":1731550294,"current_range_meters":31200,"station_id":"ce4bgt92rcd13ifvqcf0","pricing_plan_id":"cebpf4jnsgd1na2vs0mg"},{"bike_id":"9a849f58-7a7d-4d73-abb4-c064f5d657cf","system_id":"levelo_inurba_marseille","lat":43.30924,"lon":5.40151,"is_reserved":false,"is_disabled":false,"rental_uris":{"android":"levelo://app?vid=9a849f58-7a7d-4d73-abb4-c064f5d657cf","ios":"levelo://app?vid=9a849f58-7a7d-4d73-abb4-c064f5d657cf"},"vehicle_type_id":"4","last_reported":1731550294,"current_range_meters":37600,"station_id":"ce4bgvp2rcd13ifvqct0","pricing_plan_id":"cebpf4jnsgd1na2vs0mg"},{"bike_id":"6e4ab7d2-c1df-4ea4-bb4b-2f5c43ed5717","system_id":"levelo_inurba_marseille","lat":43.33768,"lon":5.37439,"is_reserved":false,"is_disabled":false,"rental_uris":{"android":"levelo://app?vid=6e4ab7d2-c1df-4ea4-bb4b-2f5c43ed5717","ios":"levelo://app?vid=6e4ab7d2-c1df-4ea4-bb4b-2f5c43ed5717"},"vehicle_type_id":"4","last_reported":1731550294,"current_range_meters":34800,"station_id":"","pricing_plan_id":"cebpf4jnsgd1na2vs0mg"},{"bike_id":"8382100a-fdf5-4e43-82cf-5b28c1d5c421","system_id":"levelo_inurba_marseille","lat":43.30149,"lon":5.37416,"is_reserved":false,"is_disabled":false,"rental_uris":{"android":"levelo://app?vid=8382100a-fdf5-4e43-82cf-5b28c1d5c421","ios":"levelo://app?vid=8382100a-fdf5-4e43-82cf-5b28c1d5c421"},"vehicle_type_id":"4","last_reported":1731550294,"current_range_meters":9200,"station_id":"ce4bgs92rcd13ifvqcc0","pricing_plan_id":"cebpf4jnsgd1na2vs0mg"},{"bike_id":"e9c22987-e77f-4667-8b0b-54aee6909c3e","system_id":"levelo_inurba_marseille","lat":43.30186,"lon":5.36594,"is_reserved":false,"is_disabled":false,"rental_uris":{"android":"levelo://app?vid=e9c22987-e77f-4667-8b0b-54aee6909c3e","ios":"levelo://app?vid=e9c22987-e77f-4667-8b0b-54aee6909c3e"},"vehicle_type_id":"4","last_reported":1731550294,"current_range_meters":39200,"station_id":"ce4bgrh2rcd13ifvqc8g","pricing_plan_id":"cebpf4jnsgd1na2vs0mg"},{"bike_id":"2e10cc50-770f-4f75-be0f-4e12b149451d","system_id":"levelo_inurba_marseille","lat":43.31892,"lon":5.40727,"is_reserved":false,"is_disabled":false,"rental_uris":{"android":"levelo://app?vid=2e10cc50-770f-4f75-be0f-4e12b149451d","ios":"levelo://app?vid=2e10cc50-770f-4f75-be0f-4e12b149451d"},"vehicle_type_id":"4","last_reported":1731550294,"current_range_meters":39200,"station_id":"ce4bhq12rcd13ifvqhig","pricing_plan_id":"cebpf4jnsgd1na2vs0mg"},{"bike_id":"c5eb75d1-bc15-4614-adec-aa2a2b4a6a37","system_id":"levelo_inurba_marseille","lat":43.26496,"lon":5.39585,"is_reserved":false,"is_disabled":false,"rental_uris":{"android":"levelo://app?vid=c5eb75d1-bc15-4614-adec-aa2a2b4a6a37","ios":"levelo://app?vid=c5eb75d1-bc15-4614-adec-aa2a2b4a6a37"},"vehicle_type_id":"4","last_reported":1731550294,"current_range_meters":38800,"station_id":"ce4bhi12rcd13ifvqfq0","pricing_plan_id":"cebpf4jnsgd1na2vs0mg"},{"bike_id":"bf572986-72e5-4ae6-bf1e-d22b0a1d0215","system_id":"levelo_inurba_marseille","lat":43.31193,"lon":5.38714,"is_reserved":false,"is_disabled":false,"rental_uris":{"android":"levelo://app?vid=bf572986-72e5-4ae6-bf1e-d22b0a1d0215","ios":"levelo://app?vid=bf572986-72e5-4ae6-bf1e-d22b0a1d0215"},"vehicle_type_id":"4","last_reported":1731550294,"current_range_meters":8400,"station_id":"ce4bgv12rcd13ifvqcp0","pricing_plan_id":"cebpf4jnsgd1na2vs0mg"},{"bike_id":"9722550f-1a69-4d6e-8160-2610e45f09a4","system_id":"levelo_inurba_marseille","lat":43.28031,"lon":5.36935,"is_reserved":false,"is_disabled":false,"rental_uris":{"android":"levelo://app?vid=9722550f-1a69-4d6e-8160-2610e45f09a4","ios":"levelo://app?vid=9722550f-1a69-4d6e-8160-2610e45f09a4"},"vehicle_type_id":"4","last_reported":1731550294,"current_range_meters":36400,"station_id":"ce4bha12rcd13ifvqef0","pricing_plan_id":"cebpf4jnsgd1na2vs0mg"},{"bike_id":"42744b5d-4b77-4c92-808c-ebf462138a5f","system_id":"levelo_inurba_marseille","lat":43.31552,"lon":5.38611,"is_reserved":false,"is_disabled":false,"rental_uris":{"android":"levelo://app?vid=42744b5d-4b77-4c92-808c-ebf462138a5f","ios":"levelo://app?vid=42744b5d-4b77-4c92-808c-ebf462138a5f"},"vehicle_type_id":"4","last_reported":1731550294,"current_range_meters":25200,"station_id":"","pricing_plan_id":"cebpf4jnsgd1na2vs0mg"},{"bike_id":"c9d041c0-acec-4cf4-bba2-e01a92441368","system_id":"levelo_inurba_marseille","lat":43.337444,"lon":5.374475,"is_reserved":false,"is_disabled":false,"rental_uris":{"android":"levelo://app?vid=c9d041c0-acec-4cf4-bba2-e01a92441368","ios":"levelo://app?vid=c9d041c0-acec-4cf4-bba2-e01a92441368"},"vehicle_type_id":"4","last_reported":1731550294,"current_range_meters":33200,"station_id":"","pricing_plan_id":"cebpf4jnsgd1na2vs0mg"},{"bike_id":"06ce8277-6238-4e82-9a81-1df8844cbd38","system_id":"levelo_inurba_marseille","lat":43.31528,"lon":5.38012,"is_reserved":false,"is_disabled":false,"rental_uris":{"android":"levelo://app?vid=06ce8277-6238-4e82-9a81-1df8844cbd38","ios":"levelo://app?vid=06ce8277-6238-4e82-9a81-1df8844cbd38"},"vehicle_type_id":"4","last_reported":1731550294,"current_range_meters":38800,"station_id":"ce4bhsp2rcd13ifvqi50","pricing_plan_id":"cebpf4jnsgd1na2vs0mg"},{"bike_id":"38bbdcff-2bf0-472f-b7a7-55224c74f01e","system_id":"levelo_inurba_marseille","lat":43.2884,"lon":5.35839,"is_reserved":false,"is_disabled":false,"rental_uris":{"android":"levelo://app?vid=38bbdcff-2bf0-472f-b7a7-55224c74f01e","ios":"levelo://app?vid=38bbdcff-2bf0-472f-b7a7-55224c74f01e"},"vehicle_type_id":"4","last_reported":1731550294,"current_range_meters":37600,"station_id":"ce4bhb12rcd13ifvqem0","pricing_plan_id":"cebpf4jnsgd1na2vs0mg"},{"bike_id":"9aef9200-3170-4f01-8e62-576a9deb994b","system_id":"levelo_inurba_marseille","lat":43.29891,"lon":5.43651,"is_reserved":false,"is_disabled":false,"rental_uris":{"android":"levelo://app?vid=9aef9200-3170-4f01-8e62-576a9deb994b","ios":"levelo://app?vid=9aef9200-3170-4f01-8e62-576a9deb994b"},"vehicle_type_id":"4","last_reported":1731550294,"current_range_meters":37600,"station_id":"ce4bhpp2rcd13ifvqhfg","pricing_plan_id":"cebpf4jnsgd1na2vs0mg"},{"bike_id":"2e6a1118-1c5f-4c27-9a47-3bd23eaff188","system_id":"levelo_inurba_marseille","lat":43.30882,"lon":5.37182,"is_reserved":false,"is_disabled":false,"rental_uris":{"android":"levelo://app?vid=2e6a1118-1c5f-4c27-9a47-3bd23eaff188","ios":"levelo://app?vid=2e6a1118-1c5f-4c27-9a47-3bd23eaff188"},"vehicle_type_id":"4","last_reported":1731550294,"current_range_meters":37600,"station_id":"ce4bguh2rcd13ifvqckg","pricing_plan_id":"cebpf4jnsgd1na2vs0mg"},{"bike_id":"98d65cc2-834d-48a7-aa13-156cf79b50b3","system_id":"levelo_inurba_marseille","lat":43.28854,"lon":5.39316,"is_reserved":false,"is_disabled":false,"rental_uris":{"android":"levelo://app?vid=98d65cc2-834d-48a7-aa13-156cf79b50b3","ios":"levelo://app?vid=98d65cc2-834d-48a7-aa13-156cf79b50b3"},"vehicle_type_id":"4","last_reported":1731550294,"current_range_meters":18000,"station_id":"ce4bh2p2rcd13ifvqdi0","pricing_plan_id":"cebpf4jnsgd1na2vs0mg"},{"bike_id":"6f1adf72-fb2b-4aae-9b58-b66153e79e9a","system_id":"levelo_inurba_marseille","lat":43.2919,"lon":5.35824,"is_reserved":false,"is_disabled":false,"rental_uris":{"android":"levelo://app?vid=6f1adf72-fb2b-4aae-9b58-b66153e79e9a","ios":"levelo://app?vid=6f1adf72-fb2b-4aae-9b58-b66153e79e9a"},"vehicle_type_id":"4","last_reported":1731550294,"current_range_meters":24000,"station_id":"ce4bhb12rcd13ifvqel0","pricing_plan_id":"cebpf4jnsgd1na2vs0mg"},{"bike_id":"98a09aa5-7594-4cc0-b8e0-aa7b433d97ac","system_id":"levelo_inurba_marseille","lat":43.26061,"lon":5.39385,"is_reserved":false,"is_disabled":false,"rental_uris":{"android":"levelo://app?vid=98a09aa5-7594-4cc0-b8e0-aa7b433d97ac","ios":"levelo://app?vid=98a09aa5-7594-4cc0-b8e0-aa7b433d97ac"},"vehicle_type_id":"4","last_reported":1731550294,"current_range_meters":16800,"station_id":"ce4bhh92rcd13ifvqfj0","pricing_plan_id":"cebpf4jnsgd1na2vs0mg"},{"bike_id":"c36353ab-bf50-460a-baab-4158a4d4d226","system_id":"levelo_inurba_marseille","lat":43.31169,"lon":5.3871,"is_reserved":false,"is_disabled":false,"rental_uris":{"android":"levelo://app?vid=c36353ab-bf50-460a-baab-4158a4d4d226","ios":"levelo://app?vid=c36353ab-bf50-460a-baab-4158a4d4d226"},"vehicle_type_id":"4","last_reported":1731550294,"current_range_meters":8800,"station_id":"ce4bgv12rcd13ifvqcp0","pricing_plan_id":"cebpf4jnsgd1na2vs0mg"},{"bike_id":"5f1b89ae-1266-4792-91ad-55b706dc1643","system_id":"levelo_inurba_marseille","lat":43.23964,"lon":5.3663,"is_reserved":false,"is_disabled":false,"rental_uris":{"android":"levelo://app?vid=5f1b89ae-1266-4792-91ad-55b706dc1643","ios":"levelo://app?vid=5f1b89ae-1266-4792-91ad-55b706dc1643"},"vehicle_type_id":"4","last_reported":1731550294,"current_range_meters":39200,"station_id":"ce4bhi12rcd13ifvqfp0","pricing_plan_id":"cebpf4jnsgd1na2vs0mg"},{"bike_id":"5db543b4-771f-4ecb-bc4c-29900f6dda8c","system_id":"levelo_inurba_marseille","lat":43.31497,"lon":5.37263,"is_reserved":false,"is_disabled":false,"rental_uris":{"android":"levelo://app?vid=5db543b4-771f-4ecb-bc4c-29900f6dda8c","ios":"levelo://app?vid=5db543b4-771f-4ecb-bc4c-29900f6dda8c"},"vehicle_type_id":"4","last_reported":1731550294,"current_range_meters":36800,"station_id":"ce4bgt12rcd13ifvqcd0","pricing_plan_id":"cebpf4jnsgd1na2vs0mg"},{"bike_id":"56b95c73-8922-4454-af0c-d312d9510ff0","system_id":"levelo_inurba_marseille","lat":43.30649,"lon":5.40063,"is_reserved":false,"is_disabled":false,"rental_uris":{"android":"levelo://app?vid=56b95c73-8922-4454-af0c-d312d9510ff0","ios":"levelo://app?vid=56b95c73-8922-4454-af0c-d312d9510ff0"},"vehicle_type_id":"4","last_reported":1731550294,"current_range_meters":39200,"station_id":"ce4bh112rcd13ifvqda0","pricing_plan_id":"cebpf4jnsgd1na2vs0mg"},{"bike_id":"5164f3a8-922f-488f-8ce2-4806c9a0e188","system_id":"levelo_inurba_marseille","lat":43.30877,"lon":5.39635,"is_reserved":false,"is_disabled":false,"rental_uris":{"android":"levelo://app?vid=5164f3a8-922f-488f-8ce2-4806c9a0e188","ios":"levelo://app?vid=5164f3a8-922f-488f-8ce2-4806c9a0e188"},"vehicle_type_id":"4","last_reported":1731550294,"current_range_meters":22000,"station_id":"ce4bh012rcd13ifvqcv0","pricing_plan_id":"cebpf4jnsgd1na2vs0mg"},{"bike_id":"0d058f10-40e3-4e9f-a0d5-ac4ed20bcda3","system_id":"levelo_inurba_marseille","lat":43.30463,"lon":5.3889,"is_reserved":false,"is_disabled":false,"rental_uris":{"android":"levelo://app?vid=0d058f10-40e3-4e9f-a0d5-ac4ed20bcda3","ios":"levelo://app?vid=0d058f10-40e3-4e9f-a0d5-ac4ed20bcda3"},"vehicle_type_id":"4","last_reported":1731550294,"current_range_meters":37600,"station_id":"ce4bgk12rcd13ifvqbi0","pricing_plan_id":"cebpf4jnsgd1na2vs0mg"},{"bike_id":"bda05687-3d22-4af7-9745-98a8fa29e0d4","system_id":"levelo_inurba_marseille","lat":43.28557,"lon":5.3947,"is_reserved":false,"is_disabled":false,"rental_uris":{"android":"levelo://app?vid=bda05687-3d22-4af7-9745-98a8fa29e0d4","ios":"levelo://app?vid=bda05687-3d22-4af7-9745-98a8fa29e0d4"},"vehicle_type_id":"4","last_reported":1731550294,"current_range_meters":30800,"station_id":"ce4bh292rcd13ifvqdg0","pricing_plan_id":"cebpf4jnsgd1na2vs0mg"},{"bike_id":"25a7f5fe-d7f0-4249-8d37-a22621fbf84a","system_id":"levelo_inurba_marseille","lat":43.28065,"lon":5.39644,"is_reserved":false,"is_disabled":false,"rental_uris":{"android":"levelo://app?vid=25a7f5fe-d7f0-4249-8d37-a22621fbf84a","ios":"levelo://app?vid=25a7f5fe-d7f0-4249-8d37-a22621fbf84a"},"vehicle_type_id":"4","last_reported":1731550294,"current_range_meters":39200,"station_id":"ce4bho12rcd13ifvqh2g","pricing_plan_id":"cebpf4jnsgd1na2vs0mg"},{"bike_id":"929996c8-eb75-49bc-a4c9-6cfd09c05ed2","system_id":"levelo_inurba_marseille","lat":43.3236,"lon":5.38894,"is_reserved":false,"is_disabled":false,"rental_uris":{"android":"levelo://app?vid=929996c8-eb75-49bc-a4c9-6cfd09c05ed2","ios":"levelo://app?vid=929996c8-eb75-49bc-a4c9-6cfd09c05ed2"},"vehicle_type_id":"4","last_reported":1731550294,"current_range_meters":36400,"station_id":"ce4bhqp2rcd13ifvqhog","pricing_plan_id":"cebpf4jnsgd1na2vs0mg"},{"bike_id":"83a46b88-087d-4287-b780-84d4db7aff44","system_id":"levelo_inurba_marseille","lat":43.32358,"lon":5.38892,"is_reserved":false,"is_disabled":false,"rental_uris":{"android":"levelo://app?vid=83a46b88-087d-4287-b780-84d4db7aff44","ios":"levelo://app?vid=83a46b88-087d-4287-b780-84d4db7aff44"},"vehicle_type_id":"4","last_reported":1731550294,"current_range_meters":23200,"station_id":"ce4bhqp2rcd13ifvqhog","pricing_plan_id":"cebpf4jnsgd1na2vs0mg"},{"bike_id":"033c5c19-203a-4d11-a7e6-91e96fa07efd","system_id":"levelo_inurba_marseille","lat":43.31327,"lon":5.39703,"is_reserved":false,"is_disabled":false,"rental_uris":{"android":"levelo://app?vid=033c5c19-203a-4d11-a7e6-91e96fa07efd","ios":"levelo://app?vid=033c5c19-203a-4d11-a7e6-91e96fa07efd"},"vehicle_type_id":"4","last_reported":1731550294,"current_range_meters":38800,"station_id":"ce4bgvp2rcd13ifvqcu0","pricing_plan_id":"cebpf4jnsgd1na2vs0mg"},{"bike_id":"a8aa4d8a-1a1d-47ba-9fb8-41d4d24deb77","system_id":"levelo_inurba_marseille","lat":43.28105,"lon":5.37857,"is_reserved":false,"is_disabled":false,"rental_uris":{"android":"levelo://app?vid=a8aa4d8a-1a1d-47ba-9fb8-41d4d24deb77","ios":"levelo://app?vid=a8aa4d8a-1a1d-47ba-9fb8-41d4d24deb77"},"vehicle_type_id":"4","last_reported":1731550294,"current_range_meters":10800,"station_id":"ce4bha12rcd13ifvqee0","pricing_plan_id":"cebpf4jnsgd1na2vs0mg"},{"bike_id":"170905c7-f490-4232-b141-663a4bd15902","system_id":"levelo_inurba_marseille","lat":43.29875,"lon":5.39739,"is_reserved":false,"is_disabled":false,"rental_uris":{"android":"levelo://app?vid=170905c7-f490-4232-b141-663a4bd15902","ios":"levelo://app?vid=170905c7-f490-4232-b141-663a4bd15902"},"vehicle_type_id":"4","last_reported":1731550294,"current_range_meters":38800,"station_id":"ce4bh0h2rcd13ifvqd50","pricing_plan_id":"cebpf4jnsgd1na2vs0mg"},{"bike_id":"337ea833-1b01-4041-a864-7a3676c066d7","system_id":"levelo_inurba_marseille","lat":43.27068,"lon":5.42285,"is_reserved":false,"is_disabled":false,"rental_uris":{"android":"levelo://app?vid=337ea833-1b01-4041-a864-7a3676c066d7","ios":"levelo://app?vid=337ea833-1b01-4041-a864-7a3676c066d7"},"vehicle_type_id":"4","last_reported":1731550294,"current_range_meters":38800,"station_id":"ce4bhk92rcd13ifvqgb0","pricing_plan_id":"cebpf4jnsgd1na2vs0mg"},{"bike_id":"7616a63e-4040-448c-a84b-1c511a4e52ab","system_id":"levelo_inurba_marseille","lat":43.31074,"lon":5.38353,"is_reserved":false,"is_disabled":false,"rental_uris":{"android":"levelo://app?vid=7616a63e-4040-448c-a84b-1c511a4e52ab","ios":"levelo://app?vid=7616a63e-4040-448c-a84b-1c511a4e52ab"},"vehicle_type_id":"4","last_reported":1731550294,"current_range_meters":16800,"station_id":"ce4bgv92rcd13ifvqcr0","pricing_plan_id":"cebpf4jnsgd1na2vs0mg"},{"bike_id":"9d818ecc-e71e-480f-b749-325239ca9d81","system_id":"levelo_inurba_marseille","lat":43.27909,"lon":5.39585,"is_reserved":false,"is_disabled":false,"rental_uris":{"android":"levelo://app?vid=9d818ecc-e71e-480f-b749-325239ca9d81","ios":"levelo://app?vid=9d818ecc-e71e-480f-b749-325239ca9d81"},"vehicle_type_id":"4","last_reported":1731550294,"current_range_meters":24000,"station_id":"ce4bhf92rcd13ifvqf40","pricing_plan_id":"cebpf4jnsgd1na2vs0mg"},{"bike_id":"3ff2aa7c-e831-4438-9ae0-9f2a11b31e2f","system_id":"levelo_inurba_marseille","lat":43.28698,"lon":5.39983,"is_reserved":false,"is_disabled":false,"rental_uris":{"android":"levelo://app?vid=3ff2aa7c-e831-4438-9ae0-9f2a11b31e2f","ios":"levelo://app?vid=3ff2aa7c-e831-4438-9ae0-9f2a11b31e2f"},"vehicle_type_id":"4","last_reported":1731550294,"current_range_meters":24800,"station_id":"ce4bho92rcd13ifvqh3g","pricing_plan_id":"cebpf4jnsgd1na2vs0mg"},{"bike_id":"790f29b5-7551-4bb1-8fbe-cdc7b1f47ec9","system_id":"levelo_inurba_marseille","lat":43.32658,"lon":5.41009,"is_reserved":false,"is_disabled":false,"rental_uris":{"android":"levelo://app?vid=790f29b5-7551-4bb1-8fbe-cdc7b1f47ec9","ios":"levelo://app?vid=790f29b5-7551-4bb1-8fbe-cdc7b1f47ec9"},"vehicle_type_id":"4","last_reported":1731550294,"current_range_meters":38000,"station_id":"ce4bhpp2rcd13ifvqhgg","pricing_plan_id":"cebpf4jnsgd1na2vs0mg"},{"bike_id":"d57ed4c6-233a-4b03-8e63-472eff6ba1dc","system_id":"levelo_inurba_marseille","lat":43.2901,"lon":5.35615,"is_reserved":false,"is_disabled":false,"rental_uris":{"android":"levelo://app?vid=d57ed4c6-233a-4b03-8e63-472eff6ba1dc","ios":"levelo://app?vid=d57ed4c6-233a-4b03-8e63-472eff6ba1dc"},"vehicle_type_id":"4","last_reported":1731550294,"current_range_meters":38800,"station_id":"ce4bhb92rcd13ifvqen0","pricing_plan_id":"cebpf4jnsgd1na2vs0mg"},{"bike_id":"1ed7d770-636b-47b3-afbf-c1d47b213604","system_id":"levelo_inurba_marseille","lat":43.30879,"lon":5.39618,"is_reserved":false,"is_disabled":false,"rental_uris":{"android":"levelo://app?vid=1ed7d770-636b-47b3-afbf-c1d47b213604","ios":"levelo://app?vid=1ed7d770-636b-47b3-afbf-c1d47b213604"},"vehicle_type_id":"4","last_reported":1731550294,"current_range_meters":25600,"station_id":"ce4bh012rcd13ifvqcv0","pricing_plan_id":"cebpf4jnsgd1na2vs0mg"},{"bike_id":"0017d6cf-6c90-4bf0-9626-a3ec2112cc8e","system_id":"levelo_inurba_marseille","lat":43.27914,"lon":5.38006,"is_reserved":false,"is_disabled":false,"rental_uris":{"android":"levelo://app?vid=0017d6cf-6c90-4bf0-9626-a3ec2112cc8e","ios":"levelo://app?vid=0017d6cf-6c90-4bf0-9626-a3ec2112cc8e"},"vehicle_type_id":"4","last_reported":1731550294,"current_range_meters":9200,"station_id":"ce4bhf92rcd13ifvqf50","pricing_plan_id":"cebpf4jnsgd1na2vs0mg"},{"bike_id":"244fe09c-487d-4a26-a9e4-c62125f82ee6","system_id":"levelo_inurba_marseille","lat":43.27804,"lon":5.407,"is_reserved":false,"is_disabled":false,"rental_uris":{"android":"levelo://app?vid=244fe09c-487d-4a26-a9e4-c62125f82ee6","ios":"levelo://app?vid=244fe09c-487d-4a26-a9e4-c62125f82ee6"},"vehicle_type_id":"4","last_reported":1731550294,"current_range_meters":38800,"station_id":"ce4bhnh2rcd13ifvqgtg","pricing_plan_id":"cebpf4jnsgd1na2vs0mg"},{"bike_id":"b2885ba1-3d11-437e-88ab-ad54a0f3bf59","system_id":"levelo_inurba_marseille","lat":43.29881,"lon":5.39734,"is_reserved":false,"is_disabled":false,"rental_uris":{"android":"levelo://app?vid=b2885ba1-3d11-437e-88ab-ad54a0f3bf59","ios":"levelo://app?vid=b2885ba1-3d11-437e-88ab-ad54a0f3bf59"},"vehicle_type_id":"4","last_reported":1731550294,"current_range_meters":22800,"station_id":"ce4bh0h2rcd13ifvqd50","pricing_plan_id":"cebpf4jnsgd1na2vs0mg"},{"bike_id":"5b41e762-1614-46f6-92e6-bba5e7d3cb79","system_id":"levelo_inurba_marseille","lat":43.28454,"lon":5.35865,"is_reserved":false,"is_disabled":false,"rental_uris":{"android":"levelo://app?vid=5b41e762-1614-46f6-92e6-bba5e7d3cb79","ios":"levelo://app?vid=5b41e762-1614-46f6-92e6-bba5e7d3cb79"},"vehicle_type_id":"4","last_reported":1731550294,"current_range_meters":39200,"station_id":"ce4bhah2rcd13ifvqei0","pricing_plan_id":"cebpf4jnsgd1na2vs0mg"},{"bike_id":"012927f2-0ce0-4abc-933c-6366952c031d","system_id":"levelo_inurba_marseille","lat":43.24167,"lon":5.39729,"is_reserved":false,"is_disabled":false,"rental_uris":{"android":"levelo://app?vid=012927f2-0ce0-4abc-933c-6366952c031d","ios":"levelo://app?vid=012927f2-0ce0-4abc-933c-6366952c031d"},"vehicle_type_id":"4","last_reported":1731550294,"current_range_meters":28000,"station_id":"ce4bhn12rcd13ifvqgpg","pricing_plan_id":"cebpf4jnsgd1na2vs0mg"},{"bike_id":"6adcbd2b-9899-4fee-aa0f-a378a1941d7a","system_id":"levelo_inurba_marseille","lat":43.2923,"lon":5.36059,"is_reserved":false,"is_disabled":false,"rental_uris":{"android":"levelo://app?vid=6adcbd2b-9899-4fee-aa0f-a378a1941d7a","ios":"levelo://app?vid=6adcbd2b-9899-4fee-aa0f-a378a1941d7a"},"vehicle_type_id":"4","last_reported":1731550294,"current_range_meters":30000,"station_id":"ce4bhbh2rcd13ifvqeqg","pricing_plan_id":"cebpf4jnsgd1na2vs0mg"},{"bike_id":"cba70387-9395-45fa-950a-845ea939c429","system_id":"levelo_inurba_marseille","lat":43.29249,"lon":5.39814,"is_reserved":false,"is_disabled":false,"rental_uris":{"android":"levelo://app?vid=cba70387-9395-45fa-950a-845ea939c429","ios":"levelo://app?vid=cba70387-9395-45fa-950a-845ea939c429"},"vehicle_type_id":"4","last_reported":1731550294,"current_range_meters":6400,"station_id":"","pricing_plan_id":"cebpf4jnsgd1na2vs0mg"},{"bike_id":"85358b47-b147-41bf-9e92-5e6b5279e626","system_id":"levelo_inurba_marseille","lat":43.30424,"lon":5.39753,"is_reserved":false,"is_disabled":false,"rental_uris":{"android":"levelo://app?vid=85358b47-b147-41bf-9e92-5e6b5279e626","ios":"levelo://app?vid=85358b47-b147-41bf-9e92-5e6b5279e626"},"vehicle_type_id":"4","last_reported":1731550294,"current_range_meters":24400,"station_id":"ce4bh092rcd13ifvqd20","pricing_plan_id":"cebpf4jnsgd1na2vs0mg"},{"bike_id":"6fce68ea-ca63-44ae-bb8e-eb33fc5fa0b5","system_id":"levelo_inurba_marseille","lat":43.3089,"lon":5.39614,"is_reserved":false,"is_disabled":false,"rental_uris":{"android":"levelo://app?vid=6fce68ea-ca63-44ae-bb8e-eb33fc5fa0b5","ios":"levelo://app?vid=6fce68ea-ca63-44ae-bb8e-eb33fc5fa0b5"},"vehicle_type_id":"4","last_reported":1731550294,"current_range_meters":35600,"station_id":"ce4bh012rcd13ifvqcv0","pricing_plan_id":"cebpf4jnsgd1na2vs0mg"},{"bike_id":"1951ed30-ed91-4241-95e7-23f48f436d43","system_id":"levelo_inurba_marseille","lat":43.26922,"lon":5.40274,"is_reserved":false,"is_disabled":false,"rental_uris":{"android":"levelo://app?vid=1951ed30-ed91-4241-95e7-23f48f436d43","ios":"levelo://app?vid=1951ed30-ed91-4241-95e7-23f48f436d43"},"vehicle_type_id":"4","last_reported":1731550294,"current_range_meters":36800,"station_id":"cjm6bp8fraef2m0cb0m0","pricing_plan_id":"cebpf4jnsgd1na2vs0mg"},{"bike_id":"fd1e7b30-f859-4736-a101-5352f5409432","system_id":"levelo_inurba_marseille","lat":43.28039,"lon":5.3694,"is_reserved":false,"is_disabled":false,"rental_uris":{"android":"levelo://app?vid=fd1e7b30-f859-4736-a101-5352f5409432","ios":"levelo://app?vid=fd1e7b30-f859-4736-a101-5352f5409432"},"vehicle_type_id":"4","last_reported":1731550294,"current_range_meters":24000,"station_id":"ce4bha12rcd13ifvqef0","pricing_plan_id":"cebpf4jnsgd1na2vs0mg"},{"bike_id":"7c9b8995-ac96-4708-b4eb-b4b17631b9d8","system_id":"levelo_inurba_marseille","lat":43.337444,"lon":5.374475,"is_reserved":false,"is_disabled":false,"rental_uris":{"android":"levelo://app?vid=7c9b8995-ac96-4708-b4eb-b4b17631b9d8","ios":"levelo://app?vid=7c9b8995-ac96-4708-b4eb-b4b17631b9d8"},"vehicle_type_id":"4","last_reported":1731550294,"current_range_meters":35200,"station_id":"","pricing_plan_id":"cebpf4jnsgd1na2vs0mg"},{"bike_id":"8ab17290-17a8-48a2-8dba-505756bb84a7","system_id":"levelo_inurba_marseille","lat":43.28433,"lon":5.39175,"is_reserved":false,"is_disabled":false,"rental_uris":{"android":"levelo://app?vid=8ab17290-17a8-48a2-8dba-505756bb84a7","ios":"levelo://app?vid=8ab17290-17a8-48a2-8dba-505756bb84a7"},"vehicle_type_id":"4","last_reported":1731550294,"current_range_meters":37600,"station_id":"ce4bhoh2rcd13ifvqh5g","pricing_plan_id":"cebpf4jnsgd1na2vs0mg"},{"bike_id":"96837c80-6d46-454d-b22b-e1a41d22d9a3","system_id":"levelo_inurba_marseille","lat":43.24395,"lon":5.37057,"is_reserved":false,"is_disabled":false,"rental_uris":{"android":"levelo://app?vid=96837c80-6d46-454d-b22b-e1a41d22d9a3","ios":"levelo://app?vid=96837c80-6d46-454d-b22b-e1a41d22d9a3"},"vehicle_type_id":"4","last_reported":1731550294,"current_range_meters":19600,"station_id":"ce4bhhh2rcd13ifvqfk0","pricing_plan_id":"cebpf4jnsgd1na2vs0mg"},{"bike_id":"bfa998e5-f39d-4565-8083-ac8883bcdd82","system_id":"levelo_inurba_marseille","lat":43.24074,"lon":5.37756,"is_reserved":false,"is_disabled":false,"rental_uris":{"android":"levelo://app?vid=bfa998e5-f39d-4565-8083-ac8883bcdd82","ios":"levelo://app?vid=bfa998e5-f39d-4565-8083-ac8883bcdd82"},"vehicle_type_id":"4","last_reported":1731550294,"current_range_meters":9600,"station_id":"ce4bhnp2rcd13ifvqgvg","pricing_plan_id":"cebpf4jnsgd1na2vs0mg"},{"bike_id":"a4df5d8f-a96e-44fd-a33c-a0551b9dcb5d","system_id":"levelo_inurba_marseille","lat":43.2707,"lon":5.42275,"is_reserved":false,"is_disabled":false,"rental_uris":{"android":"levelo://app?vid=a4df5d8f-a96e-44fd-a33c-a0551b9dcb5d","ios":"levelo://app?vid=a4df5d8f-a96e-44fd-a33c-a0551b9dcb5d"},"vehicle_type_id":"4","last_reported":1731550294,"current_range_meters":38800,"station_id":"ce4bhk92rcd13ifvqgb0","pricing_plan_id":"cebpf4jnsgd1na2vs0mg"},{"bike_id":"ea9d824b-e109-408d-9583-880839570f08","system_id":"levelo_inurba_marseille","lat":43.31848,"lon":5.4024,"is_reserved":false,"is_disabled":false,"rental_uris":{"android":"levelo://app?vid=ea9d824b-e109-408d-9583-880839570f08","ios":"levelo://app?vid=ea9d824b-e109-408d-9583-880839570f08"},"vehicle_type_id":"4","last_reported":1731550294,"current_range_meters":38000,"station_id":"","pricing_plan_id":"cebpf4jnsgd1na2vs0mg"},{"bike_id":"adae9e65-2295-4993-bc99-04b1c97935c5","system_id":"levelo_inurba_marseille","lat":43.2871,"lon":5.3998,"is_reserved":false,"is_disabled":false,"rental_uris":{"android":"levelo://app?vid=adae9e65-2295-4993-bc99-04b1c97935c5","ios":"levelo://app?vid=adae9e65-2295-4993-bc99-04b1c97935c5"},"vehicle_type_id":"4","last_reported":1731550294,"current_range_meters":36000,"station_id":"ce4bho92rcd13ifvqh3g","pricing_plan_id":"cebpf4jnsgd1na2vs0mg"},{"bike_id":"caed76f8-7fcb-4143-a047-45544b91ced9","system_id":"levelo_inurba_marseille","lat":43.30439,"lon":5.3975,"is_reserved":false,"is_disabled":false,"rental_uris":{"android":"levelo://app?vid=caed76f8-7fcb-4143-a047-45544b91ced9","ios":"levelo://app?vid=caed76f8-7fcb-4143-a047-45544b91ced9"},"vehicle_type_id":"4","last_reported":1731550294,"current_range_meters":39200,"station_id":"ce4bh092rcd13ifvqd20","pricing_plan_id":"cebpf4jnsgd1na2vs0mg"},{"bike_id":"95ee45c3-40e4-41fe-a8db-c41167d39590","system_id":"levelo_inurba_marseille","lat":43.28349,"lon":5.38612,"is_reserved":false,"is_disabled":false,"rental_uris":{"android":"levelo://app?vid=95ee45c3-40e4-41fe-a8db-c41167d39590","ios":"levelo://app?vid=95ee45c3-40e4-41fe-a8db-c41167d39590"},"vehicle_type_id":"4","last_reported":1731550294,"current_range_meters":38400,"station_id":"ce4bh492rcd13ifvqdvg","pricing_plan_id":"cebpf4jnsgd1na2vs0mg"},{"bike_id":"a0030329-7869-42e4-81d2-c11185cc27f8","system_id":"levelo_inurba_marseille","lat":43.248,"lon":5.37444,"is_reserved":false,"is_disabled":false,"rental_uris":{"android":"levelo://app?vid=a0030329-7869-42e4-81d2-c11185cc27f8","ios":"levelo://app?vid=a0030329-7869-42e4-81d2-c11185cc27f8"},"vehicle_type_id":"4","last_reported":1731550294,"current_range_meters":39200,"station_id":"ce4bhgh2rcd13ifvqfb0","pricing_plan_id":"cebpf4jnsgd1na2vs0mg"},{"bike_id":"b3b5223c-5272-409d-bc43-d2e21832bcd1","system_id":"levelo_inurba_marseille","lat":43.30361,"lon":5.41862,"is_reserved":false,"is_disabled":false,"rental_uris":{"android":"levelo://app?vid=b3b5223c-5272-409d-bc43-d2e21832bcd1","ios":"levelo://app?vid=b3b5223c-5272-409d-bc43-d2e21832bcd1"},"vehicle_type_id":"4","last_reported":1731550294,"current_range_meters":38800,"station_id":"ce4bhop2rcd13ifvqh7g","pricing_plan_id":"cebpf4jnsgd1na2vs0mg"},{"bike_id":"87d93078-85b6-4456-ba43-4faf2544291e","system_id":"levelo_inurba_marseille","lat":43.31321,"lon":5.39691,"is_reserved":false,"is_disabled":false,"rental_uris":{"android":"levelo://app?vid=87d93078-85b6-4456-ba43-4faf2544291e","ios":"levelo://app?vid=87d93078-85b6-4456-ba43-4faf2544291e"},"vehicle_type_id":"4","last_reported":1731550294,"current_range_meters":39200,"station_id":"ce4bgvp2rcd13ifvqcu0","pricing_plan_id":"cebpf4jnsgd1na2vs0mg"},{"bike_id":"05e1fca1-ddc2-4b44-be8c-57a27e93f2c5","system_id":"levelo_inurba_marseille","lat":43.3173,"lon":5.42391,"is_reserved":false,"is_disabled":false,"rental_uris":{"android":"levelo://app?vid=05e1fca1-ddc2-4b44-be8c-57a27e93f2c5","ios":"levelo://app?vid=05e1fca1-ddc2-4b44-be8c-57a27e93f2c5"},"vehicle_type_id":"4","last_reported":1731550294,"current_range_meters":37600,"station_id":"ce4bhp92rcd13ifvqhbg","pricing_plan_id":"cebpf4jnsgd1na2vs0mg"},{"bike_id":"27b4e9bd-df15-4424-acdd-3f5ada6cd854","system_id":"levelo_inurba_marseille","lat":43.26933,"lon":5.40246,"is_reserved":false,"is_disabled":false,"rental_uris":{"android":"levelo://app?vid=27b4e9bd-df15-4424-acdd-3f5ada6cd854","ios":"levelo://app?vid=27b4e9bd-df15-4424-acdd-3f5ada6cd854"},"vehicle_type_id":"4","last_reported":1731550294,"current_range_meters":38400,"station_id":"cjm6bp8fraef2m0cb0m0","pricing_plan_id":"cebpf4jnsgd1na2vs0mg"},{"bike_id":"92adb336-5165-474e-9737-637bddb603ea","system_id":"levelo_inurba_marseille","lat":43.28616,"lon":5.35106,"is_reserved":false,"is_disabled":false,"rental_uris":{"android":"levelo://app?vid=92adb336-5165-474e-9737-637bddb603ea","ios":"levelo://app?vid=92adb336-5165-474e-9737-637bddb603ea"},"vehicle_type_id":"4","last_reported":1731550294,"current_range_meters":34800,"station_id":"ce4bhch2rcd13ifvqeug","pricing_plan_id":"cebpf4jnsgd1na2vs0mg"},{"bike_id":"83f700c3-f7b1-4a09-9190-340c479d326a","system_id":"levelo_inurba_marseille","lat":43.31172,"lon":5.38708,"is_reserved":false,"is_disabled":false,"rental_uris":{"android":"levelo://app?vid=83f700c3-f7b1-4a09-9190-340c479d326a","ios":"levelo://app?vid=83f700c3-f7b1-4a09-9190-340c479d326a"},"vehicle_type_id":"4","last_reported":1731550294,"current_range_meters":8400,"station_id":"ce4bgv12rcd13ifvqcp0","pricing_plan_id":"cebpf4jnsgd1na2vs0mg"},{"bike_id":"200ccbcd-2376-442e-b02b-103dd43743c7","system_id":"levelo_inurba_marseille","lat":43.27667,"lon":5.38877,"is_reserved":false,"is_disabled":false,"rental_uris":{"android":"levelo://app?vid=200ccbcd-2376-442e-b02b-103dd43743c7","ios":"levelo://app?vid=200ccbcd-2376-442e-b02b-103dd43743c7"},"vehicle_type_id":"4","last_reported":1731550294,"current_range_meters":36800,"station_id":"ce4bhi12rcd13ifvqfo0","pricing_plan_id":"cebpf4jnsgd1na2vs0mg"},{"bike_id":"ea4cd98c-22c0-422f-bbfb-f6495f5c5121","system_id":"levelo_inurba_marseille","lat":43.30607,"lon":5.37211,"is_reserved":false,"is_disabled":false,"rental_uris":{"android":"levelo://app?vid=ea4cd98c-22c0-422f-bbfb-f6495f5c5121","ios":"levelo://app?vid=ea4cd98c-22c0-422f-bbfb-f6495f5c5121"},"vehicle_type_id":"4","last_reported":1731550294,"current_range_meters":15200,"station_id":"ce4bgqh2rcd13ifvqc4g","pricing_plan_id":"cebpf4jnsgd1na2vs0mg"},{"bike_id":"47ba2751-aa15-48df-b4b4-e53c2d94cbca","system_id":"levelo_inurba_marseille","lat":43.25852,"lon":5.3993,"is_reserved":false,"is_disabled":false,"rental_uris":{"android":"levelo://app?vid=47ba2751-aa15-48df-b4b4-e53c2d94cbca","ios":"levelo://app?vid=47ba2751-aa15-48df-b4b4-e53c2d94cbca"},"vehicle_type_id":"4","last_reported":1731550294,"current_range_meters":39200,"station_id":"ce4bhl92rcd13ifvqghg","pricing_plan_id":"cebpf4jnsgd1na2vs0mg"},{"bike_id":"1f6b3c61-9259-434c-b5ca-122f9ce10181","system_id":"levelo_inurba_marseille","lat":43.28567,"lon":5.39487,"is_reserved":false,"is_disabled":false,"rental_uris":{"android":"levelo://app?vid=1f6b3c61-9259-434c-b5ca-122f9ce10181","ios":"levelo://app?vid=1f6b3c61-9259-434c-b5ca-122f9ce10181"},"vehicle_type_id":"4","last_reported":1731550294,"current_range_meters":27600,"station_id":"ce4bh292rcd13ifvqdg0","pricing_plan_id":"cebpf4jnsgd1na2vs0mg"},{"bike_id":"dc61d19c-1cee-4753-936b-7b21a8abe5b9","system_id":"levelo_inurba_marseille","lat":43.29779,"lon":5.39339,"is_reserved":false,"is_disabled":false,"rental_uris":{"android":"levelo://app?vid=dc61d19c-1cee-4753-936b-7b21a8abe5b9","ios":"levelo://app?vid=dc61d19c-1cee-4753-936b-7b21a8abe5b9"},"vehicle_type_id":"4","last_reported":1731550294,"current_range_meters":22400,"station_id":"chh1huq6cuj3fo74tm60","pricing_plan_id":"cebpf4jnsgd1na2vs0mg"},{"bike_id":"8fc10aa6-f1bd-4378-86d8-647eb17aa595","system_id":"levelo_inurba_marseille","lat":43.302204,"lon":5.369068,"is_reserved":false,"is_disabled":false,"rental_uris":{"android":"levelo://app?vid=8fc10aa6-f1bd-4378-86d8-647eb17aa595","ios":"levelo://app?vid=8fc10aa6-f1bd-4378-86d8-647eb17aa595"},"vehicle_type_id":"4","last_reported":1731550294,"current_range_meters":18000,"station_id":"ce4bh0p2rcd13ifvqd70","pricing_plan_id":"cebpf4jnsgd1na2vs0mg"},{"bike_id":"4a3cf62d-0025-4500-8f7d-535ef36cf7e8","system_id":"levelo_inurba_marseille","lat":43.27179,"lon":5.40977,"is_reserved":false,"is_disabled":false,"rental_uris":{"android":"levelo://app?vid=4a3cf62d-0025-4500-8f7d-535ef36cf7e8","ios":"levelo://app?vid=4a3cf62d-0025-4500-8f7d-535ef36cf7e8"},"vehicle_type_id":"4","last_reported":1731550294,"current_range_meters":27200,"station_id":"ce4bhl12rcd13ifvqgf0","pricing_plan_id":"cebpf4jnsgd1na2vs0mg"},{"bike_id":"7735a892-8d6b-4a93-b64f-341778d38d92","system_id":"levelo_inurba_marseille","lat":43.33612,"lon":5.41016,"is_reserved":false,"is_disabled":false,"rental_uris":{"android":"levelo://app?vid=7735a892-8d6b-4a93-b64f-341778d38d92","ios":"levelo://app?vid=7735a892-8d6b-4a93-b64f-341778d38d92"},"vehicle_type_id":"4","last_reported":1731550294,"current_range_meters":27200,"station_id":"ce4bhqh2rcd13ifvqhmg","pricing_plan_id":"cebpf4jnsgd1na2vs0mg"},{"bike_id":"a4ec425c-e618-4c93-8518-14aaf2cc1493","system_id":"levelo_inurba_marseille","lat":43.3176,"lon":5.39015,"is_reserved":false,"is_disabled":false,"rental_uris":{"android":"levelo://app?vid=a4ec425c-e618-4c93-8518-14aaf2cc1493","ios":"levelo://app?vid=a4ec425c-e618-4c93-8518-14aaf2cc1493"},"vehicle_type_id":"4","last_reported":1731550294,"current_range_meters":38400,"station_id":"ce4bhqp2rcd13ifvqhng","pricing_plan_id":"cebpf4jnsgd1na2vs0mg"},{"bike_id":"48d5a2ad-51a8-460d-bbfc-8e2d640cab9e","system_id":"levelo_inurba_marseille","lat":43.29252,"lon":5.40901,"is_reserved":false,"is_disabled":false,"rental_uris":{"android":"levelo://app?vid=48d5a2ad-51a8-460d-bbfc-8e2d640cab9e","ios":"levelo://app?vid=48d5a2ad-51a8-460d-bbfc-8e2d640cab9e"},"vehicle_type_id":"4","last_reported":1731550294,"current_range_meters":38400,"station_id":"ce4bh192rcd13ifvqdc0","pricing_plan_id":"cebpf4jnsgd1na2vs0mg"},{"bike_id":"2c318517-3db3-4e3f-b814-541806cf94f7","system_id":"levelo_inurba_marseille","lat":43.28087,"lon":5.39649,"is_reserved":false,"is_disabled":false,"rental_uris":{"android":"levelo://app?vid=2c318517-3db3-4e3f-b814-541806cf94f7","ios":"levelo://app?vid=2c318517-3db3-4e3f-b814-541806cf94f7"},"vehicle_type_id":"4","last_reported":1731550294,"current_range_meters":3200,"station_id":"ce4bho12rcd13ifvqh2g","pricing_plan_id":"cebpf4jnsgd1na2vs0mg"},{"bike_id":"daf6732d-3ad6-49c2-a716-11566ae26405","system_id":"levelo_inurba_marseille","lat":43.31166,"lon":5.38706,"is_reserved":false,"is_disabled":false,"rental_uris":{"android":"levelo://app?vid=daf6732d-3ad6-49c2-a716-11566ae26405","ios":"levelo://app?vid=daf6732d-3ad6-49c2-a716-11566ae26405"},"vehicle_type_id":"4","last_reported":1731550294,"current_range_meters":36000,"station_id":"ce4bgv12rcd13ifvqcp0","pricing_plan_id":"cebpf4jnsgd1na2vs0mg"},{"bike_id":"dae5cfe0-b8b5-4b7f-a29e-18f7f77aa5ed","system_id":"levelo_inurba_marseille","lat":43.29952,"lon":5.3805,"is_reserved":false,"is_disabled":false,"rental_uris":{"android":"levelo://app?vid=dae5cfe0-b8b5-4b7f-a29e-18f7f77aa5ed","ios":"levelo://app?vid=dae5cfe0-b8b5-4b7f-a29e-18f7f77aa5ed"},"vehicle_type_id":"4","last_reported":1731550294,"current_range_meters":32400,"station_id":"","pricing_plan_id":"cebpf4jnsgd1na2vs0mg"},{"bike_id":"1606602f-da62-4339-8912-118cec5ef4b9","system_id":"levelo_inurba_marseille","lat":43.28702,"lon":5.39969,"is_reserved":false,"is_disabled":false,"rental_uris":{"android":"levelo://app?vid=1606602f-da62-4339-8912-118cec5ef4b9","ios":"levelo://app?vid=1606602f-da62-4339-8912-118cec5ef4b9"},"vehicle_type_id":"4","last_reported":1731550294,"current_range_meters":38800,"station_id":"ce4bho92rcd13ifvqh3g","pricing_plan_id":"cebpf4jnsgd1na2vs0mg"},{"bike_id":"837d23cd-25d1-47d0-a086-e102357d7e65","system_id":"levelo_inurba_marseille","lat":43.27812,"lon":5.40685,"is_reserved":false,"is_disabled":false,"rental_uris":{"android":"levelo://app?vid=837d23cd-25d1-47d0-a086-e102357d7e65","ios":"levelo://app?vid=837d23cd-25d1-47d0-a086-e102357d7e65"},"vehicle_type_id":"4","last_reported":1731550294,"current_range_meters":38800,"station_id":"ce4bhnh2rcd13ifvqgtg","pricing_plan_id":"cebpf4jnsgd1na2vs0mg"},{"bike_id":"9e4868d1-d7bd-46d5-a321-e3594e2b8567","system_id":"levelo_inurba_marseille","lat":43.28693,"lon":5.37383,"is_reserved":false,"is_disabled":false,"rental_uris":{"android":"levelo://app?vid=9e4868d1-d7bd-46d5-a321-e3594e2b8567","ios":"levelo://app?vid=9e4868d1-d7bd-46d5-a321-e3594e2b8567"},"vehicle_type_id":"4","last_reported":1731550294,"current_range_meters":30800,"station_id":"ce4bh3p2rcd13ifvqdq0","pricing_plan_id":"cebpf4jnsgd1na2vs0mg"},{"bike_id":"763a0d0b-adc4-4f6c-8ca3-5d5ac74d0652","system_id":"levelo_inurba_marseille","lat":43.28401,"lon":5.37526,"is_reserved":false,"is_disabled":false,"rental_uris":{"android":"levelo://app?vid=763a0d0b-adc4-4f6c-8ca3-5d5ac74d0652","ios":"levelo://app?vid=763a0d0b-adc4-4f6c-8ca3-5d5ac74d0652"},"vehicle_type_id":"4","last_reported":1731550294,"current_range_meters":18000,"station_id":"ce4bh412rcd13ifvqds0","pricing_plan_id":"cebpf4jnsgd1na2vs0mg"},{"bike_id":"f87f2439-11e3-4811-826c-aae8008298a8","system_id":"levelo_inurba_marseille","lat":43.30316,"lon":5.36906,"is_reserved":false,"is_disabled":false,"rental_uris":{"android":"levelo://app?vid=f87f2439-11e3-4811-826c-aae8008298a8","ios":"levelo://app?vid=f87f2439-11e3-4811-826c-aae8008298a8"},"vehicle_type_id":"4","last_reported":1731550294,"current_range_meters":37600,"station_id":"ce4bgqh2rcd13ifvqc5g","pricing_plan_id":"cebpf4jnsgd1na2vs0mg"},{"bike_id":"65512001-41e1-4669-b982-0a39690902a4","system_id":"levelo_inurba_marseille","lat":43.28103,"lon":5.37828,"is_reserved":false,"is_disabled":false,"rental_uris":{"android":"levelo://app?vid=65512001-41e1-4669-b982-0a39690902a4","ios":"levelo://app?vid=65512001-41e1-4669-b982-0a39690902a4"},"vehicle_type_id":"4","last_reported":1731550294,"current_range_meters":38000,"station_id":"ce4bha12rcd13ifvqee0","pricing_plan_id":"cebpf4jnsgd1na2vs0mg"},{"bike_id":"c3096774-94fa-4407-9929-28f7cf224e8b","system_id":"levelo_inurba_marseille","lat":43.25091,"lon":5.39519,"is_reserved":false,"is_disabled":false,"rental_uris":{"android":"levelo://app?vid=c3096774-94fa-4407-9929-28f7cf224e8b","ios":"levelo://app?vid=c3096774-94fa-4407-9929-28f7cf224e8b"},"vehicle_type_id":"4","last_reported":1731550294,"current_range_meters":32400,"station_id":"ce4bhm12rcd13ifvqgkg","pricing_plan_id":"cebpf4jnsgd1na2vs0mg"},{"bike_id":"7891995d-7c39-4fa5-ab0a-02ee601a522d","system_id":"levelo_inurba_marseille","lat":43.31998,"lon":5.38131,"is_reserved":false,"is_disabled":false,"rental_uris":{"android":"levelo://app?vid=7891995d-7c39-4fa5-ab0a-02ee601a522d","ios":"levelo://app?vid=7891995d-7c39-4fa5-ab0a-02ee601a522d"},"vehicle_type_id":"4","last_reported":1731550294,"current_range_meters":38400,"station_id":"ce4bhr12rcd13ifvqhpg","pricing_plan_id":"cebpf4jnsgd1na2vs0mg"},{"bike_id":"e4935905-67da-4e99-bbf5-f13614b8f314","system_id":"levelo_inurba_marseille","lat":43.23961,"lon":5.36633,"is_reserved":false,"is_disabled":false,"rental_uris":{"android":"levelo://app?vid=e4935905-67da-4e99-bbf5-f13614b8f314","ios":"levelo://app?vid=e4935905-67da-4e99-bbf5-f13614b8f314"},"vehicle_type_id":"4","last_reported":1731550294,"current_range_meters":11600,"station_id":"ce4bhi12rcd13ifvqfp0","pricing_plan_id":"cebpf4jnsgd1na2vs0mg"},{"bike_id":"58e244c1-4fc0-4be5-a598-59c5ada0c569","system_id":"levelo_inurba_marseille","lat":43.27949,"lon":5.41043,"is_reserved":false,"is_disabled":false,"rental_uris":{"android":"levelo://app?vid=58e244c1-4fc0-4be5-a598-59c5ada0c569","ios":"levelo://app?vid=58e244c1-4fc0-4be5-a598-59c5ada0c569"},"vehicle_type_id":"4","last_reported":1731550294,"current_range_meters":38800,"station_id":"ce4bhnp2rcd13ifvqh0g","pricing_plan_id":"cebpf4jnsgd1na2vs0mg"},{"bike_id":"91a3f049-9d93-4e97-b42c-2d397aebb1a3","system_id":"levelo_inurba_marseille","lat":43.30665,"lon":5.40077,"is_reserved":false,"is_disabled":false,"rental_uris":{"android":"levelo://app?vid=91a3f049-9d93-4e97-b42c-2d397aebb1a3","ios":"levelo://app?vid=91a3f049-9d93-4e97-b42c-2d397aebb1a3"},"vehicle_type_id":"4","last_reported":1731550294,"current_range_meters":32400,"station_id":"ce4bh112rcd13ifvqda0","pricing_plan_id":"cebpf4jnsgd1na2vs0mg"},{"bike_id":"1f70dcbd-92e1-4de5-869d-e0fda4ca0b8d","system_id":"levelo_inurba_marseille","lat":43.25731,"lon":5.41106,"is_reserved":false,"is_disabled":false,"rental_uris":{"android":"levelo://app?vid=1f70dcbd-92e1-4de5-869d-e0fda4ca0b8d","ios":"levelo://app?vid=1f70dcbd-92e1-4de5-869d-e0fda4ca0b8d"},"vehicle_type_id":"4","last_reported":1731550294,"current_range_meters":16800,"station_id":"ce4bhkp2rcd13ifvqgd0","pricing_plan_id":"cebpf4jnsgd1na2vs0mg"},{"bike_id":"f2c0c674-a5e7-4997-8a27-413af9bcc481","system_id":"levelo_inurba_marseille","lat":43.2862,"lon":5.35099,"is_reserved":false,"is_disabled":false,"rental_uris":{"android":"levelo://app?vid=f2c0c674-a5e7-4997-8a27-413af9bcc481","ios":"levelo://app?vid=f2c0c674-a5e7-4997-8a27-413af9bcc481"},"vehicle_type_id":"4","last_reported":1731550294,"current_range_meters":14000,"station_id":"ce4bhch2rcd13ifvqeug","pricing_plan_id":"cebpf4jnsgd1na2vs0mg"},{"bike_id":"026a85bf-c234-4fa1-a2c0-ef7c0af2ff83","system_id":"levelo_inurba_marseille","lat":43.29454,"lon":5.39758,"is_reserved":false,"is_disabled":false,"rental_uris":{"android":"levelo://app?vid=026a85bf-c234-4fa1-a2c0-ef7c0af2ff83","ios":"levelo://app?vid=026a85bf-c234-4fa1-a2c0-ef7c0af2ff83"},"vehicle_type_id":"4","last_reported":1731550294,"current_range_meters":38800,"station_id":"ce4bh3h2rcd13ifvqdo0","pricing_plan_id":"cebpf4jnsgd1na2vs0mg"},{"bike_id":"272ef7ad-b649-405b-b92a-ef8cfa3ac84a","system_id":"levelo_inurba_marseille","lat":43.27186,"lon":5.40985,"is_reserved":false,"is_disabled":false,"rental_uris":{"android":"levelo://app?vid=272ef7ad-b649-405b-b92a-ef8cfa3ac84a","ios":"levelo://app?vid=272ef7ad-b649-405b-b92a-ef8cfa3ac84a"},"vehicle_type_id":"4","last_reported":1731550294,"current_range_meters":29600,"station_id":"ce4bhl12rcd13ifvqgf0","pricing_plan_id":"cebpf4jnsgd1na2vs0mg"},{"bike_id":"f64f8a56-bc81-4ee1-a898-ff585bdcf3f8","system_id":"levelo_inurba_marseille","lat":43.26934,"lon":5.40244,"is_reserved":false,"is_disabled":false,"rental_uris":{"android":"levelo://app?vid=f64f8a56-bc81-4ee1-a898-ff585bdcf3f8","ios":"levelo://app?vid=f64f8a56-bc81-4ee1-a898-ff585bdcf3f8"},"vehicle_type_id":"4","last_reported":1731550294,"current_range_meters":37600,"station_id":"cjm6bp8fraef2m0cb0m0","pricing_plan_id":"cebpf4jnsgd1na2vs0mg"},{"bike_id":"1311c692-6e9d-4afb-b7b0-20686564fe7a","system_id":"levelo_inurba_marseille","lat":43.337444,"lon":5.374475,"is_reserved":false,"is_disabled":false,"rental_uris":{"android":"levelo://app?vid=1311c692-6e9d-4afb-b7b0-20686564fe7a","ios":"levelo://app?vid=1311c692-6e9d-4afb-b7b0-20686564fe7a"},"vehicle_type_id":"4","last_reported":1731550294,"current_range_meters":34800,"station_id":"","pricing_plan_id":"cebpf4jnsgd1na2vs0mg"},{"bike_id":"22645df9-4405-49e6-ab92-a104545a8813","system_id":"levelo_inurba_marseille","lat":43.29972,"lon":5.38501,"is_reserved":false,"is_disabled":false,"rental_uris":{"android":"levelo://app?vid=22645df9-4405-49e6-ab92-a104545a8813","ios":"levelo://app?vid=22645df9-4405-49e6-ab92-a104545a8813"},"vehicle_type_id":"4","last_reported":1731550294,"current_range_meters":38400,"station_id":"ce4bgj92rcd13ifvqbd0","pricing_plan_id":"cebpf4jnsgd1na2vs0mg"},{"bike_id":"07a4be1c-5cf0-4f3e-8c27-4c3e24078daa","system_id":"levelo_inurba_marseille","lat":43.2482,"lon":5.37458,"is_reserved":false,"is_disabled":false,"rental_uris":{"android":"levelo://app?vid=07a4be1c-5cf0-4f3e-8c27-4c3e24078daa","ios":"levelo://app?vid=07a4be1c-5cf0-4f3e-8c27-4c3e24078daa"},"vehicle_type_id":"4","last_reported":1731550294,"current_range_meters":16800,"station_id":"ce4bhgh2rcd13ifvqfb0","pricing_plan_id":"cebpf4jnsgd1na2vs0mg"},{"bike_id":"c90cf34f-4e73-48d5-b2e4-18caf002ed51","system_id":"levelo_inurba_marseille","lat":43.31067,"lon":5.38359,"is_reserved":false,"is_disabled":false,"rental_uris":{"android":"levelo://app?vid=c90cf34f-4e73-48d5-b2e4-18caf002ed51","ios":"levelo://app?vid=c90cf34f-4e73-48d5-b2e4-18caf002ed51"},"vehicle_type_id":"4","last_reported":1731550294,"current_range_meters":36800,"station_id":"ce4bgv92rcd13ifvqcr0","pricing_plan_id":"cebpf4jnsgd1na2vs0mg"},{"bike_id":"ecb3cc37-9673-4250-b386-228d12a366ea","system_id":"levelo_inurba_marseille","lat":43.27819,"lon":5.40698,"is_reserved":false,"is_disabled":false,"rental_uris":{"android":"levelo://app?vid=ecb3cc37-9673-4250-b386-228d12a366ea","ios":"levelo://app?vid=ecb3cc37-9673-4250-b386-228d12a366ea"},"vehicle_type_id":"4","last_reported":1731550294,"current_range_meters":37600,"station_id":"ce4bhnh2rcd13ifvqgtg","pricing_plan_id":"cebpf4jnsgd1na2vs0mg"},{"bike_id":"4236ba3b-ca60-447f-9fcf-44724f3d403a","system_id":"levelo_inurba_marseille","lat":43.28689,"lon":5.37406,"is_reserved":false,"is_disabled":false,"rental_uris":{"android":"levelo://app?vid=4236ba3b-ca60-447f-9fcf-44724f3d403a","ios":"levelo://app?vid=4236ba3b-ca60-447f-9fcf-44724f3d403a"},"vehicle_type_id":"4","last_reported":1731550294,"current_range_meters":24000,"station_id":"ce4bh3p2rcd13ifvqdq0","pricing_plan_id":"cebpf4jnsgd1na2vs0mg"},{"bike_id":"d7595a11-9b28-4bec-b99f-e0f1cad51f41","system_id":"levelo_inurba_marseille","lat":43.29793,"lon":5.40412,"is_reserved":false,"is_disabled":false,"rental_uris":{"android":"levelo://app?vid=d7595a11-9b28-4bec-b99f-e0f1cad51f41","ios":"levelo://app?vid=d7595a11-9b28-4bec-b99f-e0f1cad51f41"},"vehicle_type_id":"4","last_reported":1731550294,"current_range_meters":38000,"station_id":"ce4bh112rcd13ifvqd90","pricing_plan_id":"cebpf4jnsgd1na2vs0mg"},{"bike_id":"064785b1-570d-4d3d-b30e-ad791fb7597f","system_id":"levelo_inurba_marseille","lat":43.30437,"lon":5.39734,"is_reserved":false,"is_disabled":false,"rental_uris":{"android":"levelo://app?vid=064785b1-570d-4d3d-b30e-ad791fb7597f","ios":"levelo://app?vid=064785b1-570d-4d3d-b30e-ad791fb7597f"},"vehicle_type_id":"4","last_reported":1731550294,"current_range_meters":38000,"station_id":"ce4bh092rcd13ifvqd20","pricing_plan_id":"cebpf4jnsgd1na2vs0mg"},{"bike_id":"75f71ef1-6e08-415a-bb8b-dfb0f44294ba","system_id":"levelo_inurba_marseille","lat":43.2798,"lon":5.41639,"is_reserved":false,"is_disabled":false,"rental_uris":{"android":"levelo://app?vid=75f71ef1-6e08-415a-bb8b-dfb0f44294ba","ios":"levelo://app?vid=75f71ef1-6e08-415a-bb8b-dfb0f44294ba"},"vehicle_type_id":"4","last_reported":1731550294,"current_range_meters":7200,"station_id":"ce4bho12rcd13ifvqh1g","pricing_plan_id":"cebpf4jnsgd1na2vs0mg"},