{"last_updated":1752138834,"ttl":60,"version":"2.2","data":{"bikes":[{"bike_id":"cd20cfea-2f2f-444d-a882-a49b6cf370eb","system_id":"levelo_inurba_marseille","lat":43.337444,"lon":5.374475,"is_reserved":false,"is_disabled":true,"rental_uris":{"android":"levelo://app?vid=cd20cfea-2f2f-444d-a882-a49b6cf370eb","ios":"levelo://app?vid=cd20cfea-2f2f-444d-a882-a49b6cf370eb"},"vehicle_type_id":"4","last_reported":1752138834,"current_range_meters":0,"station_id":"","pricing_plan_id":"cebpf4jnsgd1na2vs0mg"},{"bike_id":"3da29fb8-fc97-44c6-b9ac-31dd456b2fd4","system_id":"levelo_inurba_marseille","lat":43.33771,"lon":5.37424,"is_reserved":false,"is_disabled":true,"rental_uris":{"android":"levelo://app?vid=3da29fb8-fc97-44c6-b9ac-31dd456b2fd4","ios":"levelo://app?vid=3da29fb8-fc97-44c6-b9ac-31dd456b2fd4"},"vehicle_type_id":"4","last_reported":1752138834,"current_range_meters":0,"station_id":"","pricing_plan_id":"cebpf4jnsgd1na2vs0mg"},{"bike_id":"01861ad8-a8d7-4be6-816e-651927c87584","system_id":"levelo_inurba_marseille","lat":43.33751,"lon":5.37456,"is_reserved":false,"is_disabled":true,"rental_uris":{"android":"levelo://app?vid=01861ad8-a8d7-4be6-816e-651927c87584","ios":"levelo://app?vid=01861ad8-a8d7-4be6-816e-651927c87584"},"vehicle_type_id":"4","last_reported":1752138834,"current_range_meters":0,"station_id":"","pricing_plan_id":"cebpf4jnsgd1na2vs0mg"},{"bike_id":"24cb9089-93ac-4b36-9d4e-b77f1a42140d","system_id":"levelo_inurba_marseille","lat":43.31339,"lon":5.36781,"is_reserved":false,"is_disabled":true,"rental_uris":{"android":"levelo://app?vid=24cb9089-93ac-4b36-9d4e-b77f1a42140d","ios":"levelo://app?vid=24cb9089-93ac-4b36-9d4e-b77f1a42140d"},"vehicle_type_id":"4","last_reported":1752138834,"current_range_meters":0,"station_id":"","pricing_plan_id":"cebpf4jnsgd1na2vs0mg"},{"bike_id":"37f2becd-23f9-4f13-a711-38b8024eeec7","system_id":"levelo_inurba_marseille","lat":43.33768,"lon":5.37516,"is_reserved":false,"is_disabled":true,"rental_uris":{"android":"levelo://app?vid=37f2becd-23f9-4f13-a711-38b8024eeec7","ios":"levelo://app?vid=37f2becd-23f9-4f13-a711-38b8024eeec7"},"vehicle_type_id":"4","last_reported":1752138834,"current_range_meters":0,"station_id":"","pricing_plan_id":"cebpf4jnsgd1na2vs0mg"},{"bike_id":"b8fcd1b8-e383-4c4c-a466-f8393a965939","system_id":"levelo_inurba_marseille","lat":43.21757,"lon":5.34613,"is_reserved":false,"is_disabled":true,"rental_uris":{"android":"levelo://app?vid=b8fcd1b8-e383-4c4c-a466-f8393a965939","ios":"levelo://app?vid=b8fcd1b8-e383-4c4c-a466-f8393a965939"},"vehicle_type_id":"4","last_reported":1752138834,"current_range_meters":0,"station_id":"","pricing_plan_id":"cebpf4jnsgd1na2vs0mg"},{"bike_id":"53b1a31e-8ada-40c0-8d64-113a81233c84","system_id":"levelo_inurba_marseille","lat":43.36523,"lon":5.323,"is_reserved":false,"is_disabled":true,"rental_uris":{"android":"levelo://app?vid=53b1a31e-8ada-40c0-8d64-113a81233c84","ios":"levelo://app?vid=53b1a31e-8ada-40c0-8d64-113a81233c84"},"vehicle_type_id":"4","last_reported":1752138834,"current_range_meters":0,"station_id":"","pricing_plan_id":"cebpf4jnsgd1na2vs0mg"},{"bike_id":"e712d100-9513-4979-85ae-3889528565c7","system_id":"levelo_inurba_marseille","lat":43.24385,"lon":5.37066,"is_reserved":false,"is_disabled":true,"rental_uris":{"android":"levelo://app?vid=e712d100-9513-4979-85ae-3889528565c7","ios":"levelo://app?vid=e712d100-9513-4979-85ae-3889528565c7"},"vehicle_type_id":"4","last_reported":1752138834,"current_range_meters":0,"station_id":"ce4bhhh2rcd13ifvqfk0","pricing_plan_id":"cebpf4jnsgd1na2vs0mg"},{"bike_id":"d0afdcac-61f9-451b-b809-cdf62d609c75","system_id":"levelo_inurba_marseille","lat":43.29548,"lon":5.42276,"is_reserved":false,"is_disabled":true,"rental_uris":{"android":"levelo://app?vid=d0afdcac-61f9-451b-b809-cdf62d609c75","ios":"levelo://app?vid=d0afdcac-61f9-451b-b809-cdf62d609c75"},"vehicle_type_id":"4","last_reported":1752138834,"current_range_meters":0,"station_id":"ce4bhph2rcd13ifvqhdg","pricing_plan_id":"cebpf4jnsgd1na2vs0mg"},{"bike_id":"8c96b343-d668-4141-aee1-41d37666636e","system_id":"levelo_inurba_marseille","lat":43.32347,"lon":5.40611,"is_reserved":false,"is_disabled":true,"rental_uris":{"android":"levelo://app?vid=8c96b343-d668-4141-aee1-41d37666636e","ios":"levelo://app?vid=8c96b343-d668-4141-aee1-41d37666636e"},"vehicle_type_id":"4","last_reported":1752138834,"current_range_meters":0,"station_id":"ce4bhq92rcd13ifvqhjg","pricing_plan_id":"cebpf4jnsgd1na2vs0mg"},{"bike_id":"b056ce9b-7b21-4183-8507-73b1a35e2dda","system_id":"levelo_inurba_marseille","lat":43.23199,"lon":5.35542,"is_reserved":false,"is_disabled":true,"rental_uris":{"android":"levelo://app?vid=b056ce9b-7b21-4183-8507-73b1a35e2dda","ios":"levelo://app?vid=b056ce9b-7b21-4183-8507-73b1a35e2dda"},"vehicle_type_id":"4","last_reported":1752138834,"current_range_meters":0,"station_id":"ce4bhu92rcd13ifvqi70","pricing_plan_id":"cebpf4jnsgd1na2vs0mg"},{"bike_id":"1ea07c30-7637-4836-8280-b70950b610b5","system_id":"levelo_inurba_marseille","lat":43.225037,"lon":5.347858,"is_reserved":false,"is_disabled":true,"rental_uris":{"android":"levelo://app?vid=1ea07c30-7637-4836-8280-b70950b610b5","ios":"levelo://app?vid=1ea07c30-7637-4836-8280-b70950b610b5"},"vehicle_type_id":"4","last_reported":1752138834,"current_range_meters":0,"station_id":"st_cvj5dfep6f1abm77gieg","pricing_plan_id":"cebpf4jnsgd1na2vs0mg"},{"bike_id":"5745f131-cd4a-4ac9-bdc2-7385b3c3e0a5","system_id":"levelo_inurba_marseille","lat":43.217505,"lon":5.346006,"is_reserved":false,"is_disabled":true,"rental_uris":{"android":"levelo://app?vid=5745f131-cd4a-4ac9-bdc2-7385b3c3e0a5","ios":"levelo://app?vid=5745f131-cd4a-4ac9-bdc2-7385b3c3e0a5"},"vehicle_type_id":"4","last_reported":1752138834,"current_range_meters":0,"station_id":"st_cvj6r9ubvosntc0bgbag","pricing_plan_id":"cebpf4jnsgd1na2vs0mg"},{"bike_id":"336eaf6b-6955-4ef9-8dfa-abf06b057d2c","system_id":"levelo_inurba_marseille","lat":43.211887,"lon":5.350703,"is_reserved":false,"is_disabled":true,"rental_uris":{"android":"levelo://app?vid=336eaf6b-6955-4ef9-8dfa-abf06b057d2c","ios":"levelo://app?vid=336eaf6b-6955-4ef9-8dfa-abf06b057d2c"},"vehicle_type_id":"4","last_reported":1752138834,"current_range_meters":0,"station_id":"st_cvj6sg6p6f1abm77japg","pricing_plan_id":"cebpf4jnsgd1na2vs0mg"},{"bike_id":"6661cbd2-6ba2-4b46-b15e-1188df0f29d7","system_id":"levelo_inurba_marseille","lat":43.21191,"lon":5.35073,"is_reserved":false,"is_disabled":true,"rental_uris":{"android":"levelo://app?vid=6661cbd2-6ba2-4b46-b15e-1188df0f29d7","ios":"levelo://app?vid=6661cbd2-6ba2-4b46-b15e-1188df0f29d7"},"vehicle_type_id":"4","last_reported":1752138834,"current_range_meters":0,"station_id":"st_cvj6sg6p6f1abm77japg","pricing_plan_id":"cebpf4jnsgd1na2vs0mg"},{"bike_id":"db841109-9b56-4777-86e2-06fbf4ef1649","system_id":"levelo_inurba_marseille","lat":43.31118,"lon":5.39738,"is_reserved":false,"is_disabled":true,"rental_uris":{"android":"levelo://app?vid=db841109-9b56-4777-86e2-06fbf4ef1649","ios":"levelo://app?vid=db841109-9b56-4777-86e2-06fbf4ef1649"},"vehicle_type_id":"4","last_reported":1752138834,"current_range_meters":800,"station_id":"","pricing_plan_id":"cebpf4jnsgd1na2vs0mg"},{"bike_id":"5ce39f79-aff1-446c-be6e-5b7a8fe0dcce","system_id":"levelo_inurba_marseille","lat":43.31472,"lon":5.38359,"is_reserved":false,"is_disabled":true,"rental_uris":{"android":"levelo://app?vid=5ce39f79-aff1-446c-be6e-5b7a8fe0dcce","ios":"levelo://app?vid=5ce39f79-aff1-446c-be6e-5b7a8fe0dcce"},"vehicle_type_id":"4","last_reported":1752138834,"current_range_meters":1200,"station_id":"","pricing_plan_id":"cebpf4jnsgd1na2vs0mg"},{"bike_id":"9996d5ee-ba6b-46f9-95c6-337ba0e57b84","system_id":"levelo_inurba_marseille","lat":43.27372,"lon":5.36256,"is_reserved":false,"is_disabled":true,"rental_uris":{"android":"levelo://app?vid=9996d5ee-ba6b-46f9-95c6-337ba0e57b84","ios":"levelo://app?vid=9996d5ee-ba6b-46f9-95c6-337ba0e57b84"},"vehicle_type_id":"4","last_reported":1752138834,"current_range_meters":1200,"station_id":"ce4bhbh2rcd13ifvqeo0","pricing_plan_id":"cebpf4jnsgd1na2vs0mg"},{"bike_id":"aaded38d-a184-451b-807b-af3cdd8a6d8a","system_id":"levelo_inurba_marseille","lat":43.24182,"lon":5.39711,"is_reserved":false,"is_disabled":true,"rental_uris":{"android":"levelo://app?vid=aaded38d-a184-451b-807b-af3cdd8a6d8a","ios":"levelo://app?vid=aaded38d-a184-451b-807b-af3cdd8a6d8a"},"vehicle_type_id":"4","last_reported":1752138834,"current_range_meters":1200,"station_id":"ce4bhn12rcd13ifvqgpg","pricing_plan_id":"cebpf4jnsgd1na2vs0mg"},{"bike_id":"a2ce34df-6b9d-4a23-800c-aa4aa107bd85","system_id":"levelo_inurba_marseille","lat":43.31252,"lon":5.36868,"is_reserved":false,"is_disabled":true,"rental_uris":{"android":"levelo://app?vid=a2ce34df-6b9d-4a23-800c-aa4aa107bd85","ios":"levelo://app?vid=a2ce34df-6b9d-4a23-800c-aa4aa107bd85"},"vehicle_type_id":"4","last_reported":1752138834,"current_range_meters":1600,"station_id":"ce4bgl92rcd13ifvqbq0","pricing_plan_id":"cebpf4jnsgd1na2vs0mg"},{"bike_id":"8637aaab-14e2-473e-bb8c-7f0817f7d7db","system_id":"levelo_inurba_marseille","lat":43.32491,"lon":5.36565,"is_reserved":false,"is_disabled":true,"rental_uris":{"android":"levelo://app?vid=8637aaab-14e2-473e-bb8c-7f0817f7d7db","ios":"levelo://app?vid=8637aaab-14e2-473e-bb8c-7f0817f7d7db"},"vehicle_type_id":"4","last_reported":1752138834,"current_range_meters":2000,"station_id":"ce4bhs12rcd13ifvqhvg","pricing_plan_id":"cebpf4jnsgd1na2vs0mg"},{"bike_id":"719dacdb-37b1-4aa2-8491-cc8187e8bea8","system_id":"levelo_inurba_marseille","lat":43.29194,"lon":5.357894,"is_reserved":false,"is_disabled":false,"rental_uris":{"android":"levelo://app?vid=719dacdb-37b1-4aa2-8491-cc8187e8bea8","ios":"levelo://app?vid=719dacdb-37b1-4aa2-8491-cc8187e8bea8"},"vehicle_type_id":"4","last_reported":1752138834,"current_range_meters":3200,"station_id":"","pricing_plan_id":"cebpf4jnsgd1na2vs0mg"},{"bike_id":"888522e3-39b6-4ff3-ad74-ff6c6f771157","system_id":"levelo_inurba_marseille","lat":43.294931,"lon":5.402921,"is_reserved":false,"is_disabled":false,"rental_uris":{"android":"levelo://app?vid=888522e3-39b6-4ff3-ad74-ff6c6f771157","ios":"levelo://app?vid=888522e3-39b6-4ff3-ad74-ff6c6f771157"},"vehicle_type_id":"4","last_reported":1752138834,"current_range_meters":3200,"station_id":"","pricing_plan_id":"cebpf4jnsgd1na2vs0mg"},{"bike_id":"323b107d-22f0-4d8a-8cd0-c280dd2323e0","system_id":"levelo_inurba_marseille","lat":43.3235,"lon":5.3675,"is_reserved":false,"is_disabled":false,"rental_uris":{"android":"levelo://app?vid=323b107d-22f0-4d8a-8cd0-c280dd2323e0","ios":"levelo://app?vid=323b107d-22f0-4d8a-8cd0-c280dd2323e0"},"vehicle_type_id":"4","last_reported":1752138834,"current_range_meters":3200,"station_id":"ce4bhsh2rcd13ifvqi2g","pricing_plan_id":"cebpf4jnsgd1na2vs0mg"},{"bike_id":"d0ab95f6-1802-42e1-9e10-bb15b311c528","system_id":"levelo_inurba_marseille","lat":43.27059,"lon":5.40255,"is_reserved":false,"is_disabled":false,"rental_uris":{"android":"levelo://app?vid=d0ab95f6-1802-42e1-9e10-bb15b311c528","ios":"levelo://app?vid=d0ab95f6-1802-42e1-9e10-bb15b311c528"},"vehicle_type_id":"4","last_reported":1752138834,"current_range_meters":4000,"station_id":"ce4bhk92rcd13ifvqgc0","pricing_plan_id":"cebpf4jnsgd1na2vs0mg"},{"bike_id":"97b636d4-ce76-4469-91f2-cb71a35c75e9","system_id":"levelo_inurba_marseille","lat":43.29514,"lon":5.38679,"is_reserved":false,"is_disabled":false,"rental_uris":{"android":"levelo://app?vid=97b636d4-ce76-4469-91f2-cb71a35c75e9","ios":"levelo://app?vid=97b636d4-ce76-4469-91f2-cb71a35c75e9"},"vehicle_type_id":"4","last_reported":1752138834,"current_range_meters":4400,"station_id":"","pricing_plan_id":"cebpf4jnsgd1na2vs0mg"},{"bike_id":"3a35dad5-0705-4cbf-98ec-ea1499198ab2","system_id":"levelo_inurba_marseille","lat":43.280003,"lon":5.40008,"is_reserved":false,"is_disabled":false,"rental_uris":{"android":"levelo://app?vid=3a35dad5-0705-4cbf-98ec-ea1499198ab2","ios":"levelo://app?vid=3a35dad5-0705-4cbf-98ec-ea1499198ab2"},"vehicle_type_id":"4","last_reported":1752138834,"current_range_meters":4400,"station_id":"ce4bho92rcd13ifvqh4g","pricing_plan_id":"cebpf4jnsgd1na2vs0mg"},{"bike_id":"9eac8e8f-a197-4f5d-8618-40d72d6d1c3f","system_id":"levelo_inurba_marseille","lat":43.24999,"lon":5.38931,"is_reserved":false,"is_disabled":false,"rental_uris":{"android":"levelo://app?vid=9eac8e8f-a197-4f5d-8618-40d72d6d1c3f","ios":"levelo://app?vid=9eac8e8f-a197-4f5d-8618-40d72d6d1c3f"},"vehicle_type_id":"4","last_reported":1752138834,"current_range_meters":5600,"station_id":"ce4bhgp2rcd13ifvqfd0","pricing_plan_id":"cebpf4jnsgd1na2vs0mg"},{"bike_id":"48b8260d-add9-45d3-82b6-c184b93e4026","system_id":"levelo_inurba_marseille","lat":43.29102,"lon":5.40014,"is_reserved":false,"is_disabled":false,"rental_uris":{"android":"levelo://app?vid=48b8260d-add9-45d3-82b6-c184b93e4026","ios":"levelo://app?vid=48b8260d-add9-45d3-82b6-c184b93e4026"},"vehicle_type_id":"4","last_reported":1752138834,"current_range_meters":6000,"station_id":"ce4bh392rcd13ifvqdm0","pricing_plan_id":"cebpf4jnsgd1na2vs0mg"},{"bike_id":"26b66e89-fd3e-4e82-b2c1-9f862c0e0a76","system_id":"levelo_inurba_marseille","lat":43.29636,"lon":5.40592,"is_reserved":false,"is_disabled":false,"rental_uris":{"android":"levelo://app?vid=26b66e89-fd3e-4e82-b2c1-9f862c0e0a76","ios":"levelo://app?vid=26b66e89-fd3e-4e82-b2c1-9f862c0e0a76"},"vehicle_type_id":"4","last_reported":1752138834,"current_range_meters":6800,"station_id":"ce4bh0h2rcd13ifvqd60","pricing_plan_id":"cebpf4jnsgd1na2vs0mg"},{"bike_id":"6fb45b4a-01f5-4f5d-b85b-9d16785015b8","system_id":"levelo_inurba_marseille","lat":43.21744,"lon":5.34603,"is_reserved":false,"is_disabled":false,"rental_uris":{"android":"levelo://app?vid=6fb45b4a-01f5-4f5d-b85b-9d16785015b8","ios":"levelo://app?vid=6fb45b4a-01f5-4f5d-b85b-9d16785015b8"},"vehicle_type_id":"4","last_reported":1752138834,"current_range_meters":7200,"station_id":"","pricing_plan_id":"cebpf4jnsgd1na2vs0mg"},{"bike_id":"6e20dbb2-ba79-4d2a-bc09-8c7740e09a8b","system_id":"levelo_inurba_marseille","lat":43.23968,"lon":5.3662,"is_reserved":false,"is_disabled":false,"rental_uris":{"android":"levelo://app?vid=6e20dbb2-ba79-4d2a-bc09-8c7740e09a8b","ios":"levelo://app?vid=6e20dbb2-ba79-4d2a-bc09-8c7740e09a8b"},"vehicle_type_id":"4","last_reported":1752138834,"current_range_meters":7200,"station_id":"ce4bhi12rcd13ifvqfp0","pricing_plan_id":"cebpf4jnsgd1na2vs0mg"},{"bike_id":"2354f4ca-20d1-4b1b-b469-739d1656dff6","system_id":"levelo_inurba_marseille","lat":43.28989,"lon":5.37619,"is_reserved":false,"is_disabled":false,"rental_uris":{"android":"levelo://app?vid=2354f4ca-20d1-4b1b-b469-739d1656dff6","ios":"levelo://app?vid=2354f4ca-20d1-4b1b-b469-739d1656dff6"},"vehicle_type_id":"4","last_reported":1752138834,"current_range_meters":8800,"station_id":"","pricing_plan_id":"cebpf4jnsgd1na2vs0mg"},{"bike_id":"c39afd5e-f450-4294-84cc-e734ed7418e5","system_id":"levelo_inurba_marseille","lat":43.284892,"lon":5.374789,"is_reserved":false,"is_disabled":false,"rental_uris":{"android":"levelo://app?vid=c39afd5e-f450-4294-84cc-e734ed7418e5","ios":"levelo://app?vid=c39afd5e-f450-4294-84cc-e734ed7418e5"},"vehicle_type_id":"4","last_reported":1752138834,"current_range_meters":8800,"station_id":"ce4bh3p2rcd13ifvqdq0","pricing_plan_id":"cebpf4jnsgd1na2vs0mg"},{"bike_id":"63b42577-c8b2-41d0-af77-a317978faa91","system_id":"levelo_inurba_marseille","lat":43.3248,"lon":5.36541,"is_reserved":false,"is_disabled":false,"rental_uris":{"android":"levelo://app?vid=63b42577-c8b2-41d0-af77-a317978faa91","ios":"levelo://app?vid=63b42577-c8b2-41d0-af77-a317978faa91"},"vehicle_type_id":"4","last_reported":1752138834,"current_range_meters":9200,"station_id":"ce4bhs12rcd13ifvqhvg","pricing_plan_id":"cebpf4jnsgd1na2vs0mg"},{"bike_id":"84e7e709-4e4f-4764-818c-af719435bfca","system_id":"levelo_inurba_marseille","lat":43.319659,"lon":5.372834,"is_reserved":false,"is_disabled":false,"rental_uris":{"android":"levelo://app?vid=84e7e709-4e4f-4764-818c-af719435bfca","ios":"levelo://app?vid=84e7e709-4e4f-4764-818c-af719435bfca"},"vehicle_type_id":"4","last_reported":1752138834,"current_range_meters":9600,"station_id":"","pricing_plan_id":"cebpf4jnsgd1na2vs0mg"},{"bike_id":"f573a8fb-f1f8-47c4-901e-ddf2739a5cca","system_id":"levelo_inurba_marseille","lat":43.359986,"lon":5.324789,"is_reserved":false,"is_disabled":false,"rental_uris":{"android":"levelo://app?vid=f573a8fb-f1f8-47c4-901e-ddf2739a5cca","ios":"levelo://app?vid=f573a8fb-f1f8-47c4-901e-ddf2739a5cca"},"vehicle_type_id":"4","last_reported":1752138834,"current_range_meters":9600,"station_id":"","pricing_plan_id":"cebpf4jnsgd1na2vs0mg"},{"bike_id":"a7a01d83-66a5-42b2-9365-39c5dd2ba432","system_id":"levelo_inurba_marseille","lat":43.30768,"lon":5.37643,"is_reserved":false,"is_disabled":false,"rental_uris":{"android":"levelo://app?vid=a7a01d83-66a5-42b2-9365-39c5dd2ba432","ios":"levelo://app?vid=a7a01d83-66a5-42b2-9365-39c5dd2ba432"},"vehicle_type_id":"4","last_reported":1752138834,"current_range_meters":9600,"station_id":"ce4bgv92rcd13ifvqcq0","pricing_plan_id":"cebpf4jnsgd1na2vs0mg"},{"bike_id":"fddbf0e1-54a0-4a84-bd5c-c3a161fdae73","system_id":"levelo_inurba_marseille","lat":43.2618,"lon":5.37471,"is_reserved":false,"is_disabled":false,"rental_uris":{"android":"levelo://app?vid=fddbf0e1-54a0-4a84-bd5c-c3a161fdae73","ios":"levelo://app?vid=fddbf0e1-54a0-4a84-bd5c-c3a161fdae73"},"vehicle_type_id":"4","last_reported":1752138834,"current_range_meters":9600,"station_id":"ce4bhgp2rcd13ifvqfc0","pricing_plan_id":"cebpf4jnsgd1na2vs0mg"},{"bike_id":"907f70fa-1844-4f74-a557-f78fa18059e5","system_id":"levelo_inurba_marseille","lat":43.26567,"lon":5.39012,"is_reserved":false,"is_disabled":false,"rental_uris":{"android":"levelo://app?vid=907f70fa-1844-4f74-a557-f78fa18059e5","ios":"levelo://app?vid=907f70fa-1844-4f74-a557-f78fa18059e5"},"vehicle_type_id":"4","last_reported":1752138834,"current_range_meters":10000,"station_id":"ce4bhe12rcd13ifvqf30","pricing_plan_id":"cebpf4jnsgd1na2vs0mg"},{"bike_id":"2d64afdf-b178-46a8-beda-f561b7aa30f5","system_id":"levelo_inurba_marseille","lat":43.27965,"lon":5.41059,"is_reserved":false,"is_disabled":false,"rental_uris":{"android":"levelo://app?vid=2d64afdf-b178-46a8-beda-f561b7aa30f5","ios":"levelo://app?vid=2d64afdf-b178-46a8-beda-f561b7aa30f5"},"vehicle_type_id":"4","last_reported":1752138834,"current_range_meters":10000,"station_id":"ce4bhnp2rcd13ifvqh0g","pricing_plan_id":"cebpf4jnsgd1na2vs0mg"},{"bike_id":"4975b22d-8c48-452f-bd19-7a9d3ed7c378","system_id":"levelo_inurba_marseille","lat":43.29676,"lon":5.37424,"is_reserved":false,"is_disabled":false,"rental_uris":{"android":"levelo://app?vid=4975b22d-8c48-452f-bd19-7a9d3ed7c378","ios":"levelo://app?vid=4975b22d-8c48-452f-bd19-7a9d3ed7c378"},"vehicle_type_id":"4","last_reported":1752138834,"current_range_meters":10800,"station_id":"","pricing_plan_id":"cebpf4jnsgd1na2vs0mg"},{"bike_id":"e5513091-20a5-4543-bd08-68054dd89ad9","system_id":"levelo_inurba_marseille","lat":43.30247,"lon":5.40071,"is_reserved":false,"is_disabled":false,"rental_uris":{"android":"levelo://app?vid=e5513091-20a5-4543-bd08-68054dd89ad9","ios":"levelo://app?vid=e5513091-20a5-4543-bd08-68054dd89ad9"},"vehicle_type_id":"4","last_reported":1752138834,"current_range_meters":10800,"station_id":"ce4bgvh2rcd13ifvqcs0","pricing_plan_id":"cebpf4jnsgd1na2vs0mg"},{"bike_id":"d1774f08-0b74-4ebe-83dd-070530b598d8","system_id":"levelo_inurba_marseille","lat":43.272062,"lon":5.391882,"is_reserved":false,"is_disabled":false,"rental_uris":{"android":"levelo://app?vid=d1774f08-0b74-4ebe-83dd-070530b598d8","ios":"levelo://app?vid=d1774f08-0b74-4ebe-83dd-070530b598d8"},"vehicle_type_id":"4","last_reported":1752138834,"current_range_meters":10800,"station_id":"ce4bhhp2rcd13ifvqfm0","pricing_plan_id":"cebpf4jnsgd1na2vs0mg"},{"bike_id":"c4e27960-38b9-4506-942a-a90a18501230","system_id":"levelo_inurba_marseille","lat":43.25819,"lon":5.39419,"is_reserved":false,"is_disabled":false,"rental_uris":{"android":"levelo://app?vid=c4e27960-38b9-4506-942a-a90a18501230","ios":"levelo://app?vid=c4e27960-38b9-4506-942a-a90a18501230"},"vehicle_type_id":"4","last_reported":1752138834,"current_range_meters":10800,"station_id":"ce4bhip2rcd13ifvqft0","pricing_plan_id":"cebpf4jnsgd1na2vs0mg"},{"bike_id":"6e5c2657-ccb8-4153-8b94-2143bc427a03","system_id":"levelo_inurba_marseille","lat":43.22463,"lon":5.34738,"is_reserved":false,"is_disabled":false,"rental_uris":{"android":"levelo://app?vid=6e5c2657-ccb8-4153-8b94-2143bc427a03","ios":"levelo://app?vid=6e5c2657-ccb8-4153-8b94-2143bc427a03"},"vehicle_type_id":"4","last_reported":1752138834,"current_range_meters":11200,"station_id":"","pricing_plan_id":"cebpf4jnsgd1na2vs0mg"},{"bike_id":"f5c16f07-bc6f-4121-91a7-5ad90eec4f34","system_id":"levelo_inurba_marseille","lat":43.312027,"lon":5.373193,"is_reserved":false,"is_disabled":false,"rental_uris":{"android":"levelo://app?vid=f5c16f07-bc6f-4121-91a7-5ad90eec4f34","ios":"levelo://app?vid=f5c16f07-bc6f-4121-91a7-5ad90eec4f34"},"vehicle_type_id":"4","last_reported":1752138834,"current_range_meters":11200,"station_id":"","pricing_plan_id":"cebpf4jnsgd1na2vs0mg"},{"bike_id":"10c590a8-f9a6-461b-bb6c-d4e1492dd051","system_id":"levelo_inurba_marseille","lat":43.29569,"lon":5.37507,"is_reserved":false,"is_disabled":false,"rental_uris":{"android":"levelo://app?vid=10c590a8-f9a6-461b-bb6c-d4e1492dd051","ios":"levelo://app?vid=10c590a8-f9a6-461b-bb6c-d4e1492dd051"},"vehicle_type_id":"4","last_reported":1752138834,"current_range_meters":11200,"station_id":"ce4bgh92rcd13ifvqb50","pricing_plan_id":"cebpf4jnsgd1na2vs0mg"},{"bike_id":"83d7826a-b8a0-4b71-8fdb-133e6e69e766","system_id":"levelo_inurba_marseille","lat":43.28609,"lon":5.35111,"is_reserved":false,"is_disabled":false,"rental_uris":{"android":"levelo://app?vid=83d7826a-b8a0-4b71-8fdb-133e6e69e766","ios":"levelo://app?vid=83d7826a-b8a0-4b71-8fdb-133e6e69e766"},"vehicle_type_id":"4","last_reported":1752138834,"current_range_meters":11200,"station_id":"ce4bhch2rcd13ifvqeug","pricing_plan_id":"cebpf4jnsgd1na2vs0mg"},{"bike_id":"20f1a850-9109-4131-8ed6-c9e3ac969299","system_id":"levelo_inurba_marseille","lat":43.23154,"lon":5.43709,"is_reserved":false,"is_disabled":false,"rental_uris":{"android":"levelo://app?vid=20f1a850-9109-4131-8ed6-c9e3ac969299","ios":"levelo://app?vid=20f1a850-9109-4131-8ed6-c9e3ac969299"},"vehicle_type_id":"4","last_reported":1752138834,"current_range_meters":11200,"station_id":"ce4bhmp2rcd13ifvqgog","pricing_plan_id":"cebpf4jnsgd1na2vs0mg"},{"bike_id":"b757ffbb-2b71-4330-9f60-5f8a9d46d16e","system_id":"levelo_inurba_marseille","lat":43.29445,"lon":5.37036,"is_reserved":false,"is_disabled":false,"rental_uris":{"android":"levelo://app?vid=b757ffbb-2b71-4330-9f60-5f8a9d46d16e","ios":"levelo://app?vid=b757ffbb-2b71-4330-9f60-5f8a9d46d16e"},"vehicle_type_id":"4","last_reported":1752138834,"current_range_meters":11600,"station_id":"","pricing_plan_id":"cebpf4jnsgd1na2vs0mg"},{"bike_id":"b2caa530-bb19-4cc6-a6bd-61e3e1d7432e","system_id":"levelo_inurba_marseille","lat":43.33763,"lon":5.37461,"is_reserved":false,"is_disabled":false,"rental_uris":{"android":"levelo://app?vid=b2caa530-bb19-4cc6-a6bd-61e3e1d7432e","ios":"levelo://app?vid=b2caa530-bb19-4cc6-a6bd-61e3e1d7432e"},"vehicle_type_id":"4","last_reported":1752138834,"current_range_meters":11600,"station_id":"","pricing_plan_id":"cebpf4jnsgd1na2vs0mg"},{"bike_id":"833f97ec-e704-4051-ab3b-2e9eb58f71d0","system_id":"levelo_inurba_marseille","lat":43.30241,"lon":5.37541,"is_reserved":false,"is_disabled":false,"rental_uris":{"android":"levelo://app?vid=833f97ec-e704-4051-ab3b-2e9eb58f71d0","ios":"levelo://app?vid=833f97ec-e704-4051-ab3b-2e9eb58f71d0"},"vehicle_type_id":"4","last_reported":1752138834,"current_range_meters":11600,"station_id":"","pricing_plan_id":"cebpf4jnsgd1na2vs0mg"},{"bike_id":"6ef5f3ea-45a5-4129-a8bc-9005968550f8","system_id":"levelo_inurba_marseille","lat":43.30423,"lon":5.368466,"is_reserved":false,"is_disabled":false,"rental_uris":{"android":"levelo://app?vid=6ef5f3ea-45a5-4129-a8bc-9005968550f8","ios":"levelo://app?vid=6ef5f3ea-45a5-4129-a8bc-9005968550f8"},"vehicle_type_id":"4","last_reported":1752138834,"current_range_meters":11600,"station_id":"","pricing_plan_id":"cebpf4jnsgd1na2vs0mg"},{"bike_id":"5bcdf73e-ccd6-4100-9c8c-fafedda18047","system_id":"levelo_inurba_marseille","lat":43.25886,"lon":5.40868,"is_reserved":false,"is_disabled":false,"rental_uris":{"android":"levelo://app?vid=5bcdf73e-ccd6-4100-9c8c-fafedda18047","ios":"levelo://app?vid=5bcdf73e-ccd6-4100-9c8c-fafedda18047"},"vehicle_type_id":"4","last_reported":1752138834,"current_range_meters":12000,"station_id":"","pricing_plan_id":"cebpf4jnsgd1na2vs0mg"},{"bike_id":"53102663-3a1b-42f9-92fb-3bcc0ba7a692","system_id":"levelo_inurba_marseille","lat":43.29446,"lon":5.39757,"is_reserved":false,"is_disabled":false,"rental_uris":{"android":"levelo://app?vid=53102663-3a1b-42f9-92fb-3bcc0ba7a692","ios":"levelo://app?vid=53102663-3a1b-42f9-92fb-3bcc0ba7a692"},"vehicle_type_id":"4","last_reported":1752138834,"current_range_meters":12000,"station_id":"ce4bh3h2rcd13ifvqdo0","pricing_plan_id":"cebpf4jnsgd1na2vs0mg"},{"bike_id":"1be39311-cfa5-4cbb-b93d-fb0870d6e611","system_id":"levelo_inurba_marseille","lat":43.21195,"lon":5.35071,"is_reserved":false,"is_disabled":false,"rental_uris":{"android":"levelo://app?vid=1be39311-cfa5-4cbb-b93d-fb0870d6e611","ios":"levelo://app?vid=1be39311-cfa5-4cbb-b93d-fb0870d6e611"},"vehicle_type_id":"4","last_reported":1752138834,"current_range_meters":12000,"station_id":"st_cvj6sg6p6f1abm77japg","pricing_plan_id":"cebpf4jnsgd1na2vs0mg"},{"bike_id":"320f2a33-deaa-4e0a-a3d5-c39ce8ad680a","system_id":"levelo_inurba_marseille","lat":43.31579,"lon":5.37419,"is_reserved":false,"is_disabled":false,"rental_uris":{"android":"levelo://app?vid=320f2a33-deaa-4e0a-a3d5-c39ce8ad680a","ios":"levelo://app?vid=320f2a33-deaa-4e0a-a3d5-c39ce8ad680a"},"vehicle_type_id":"4","last_reported":1752138834,"current_range_meters":12400,"station_id":"","pricing_plan_id":"cebpf4jnsgd1na2vs0mg"},{"bike_id":"842c4346-36bb-41e4-a498-e56def3118bd","system_id":"levelo_inurba_marseille","lat":43.29292,"lon":5.37161,"is_reserved":false,"is_disabled":false,"rental_uris":{"android":"levelo://app?vid=842c4346-36bb-41e4-a498-e56def3118bd","ios":"levelo://app?vid=842c4346-36bb-41e4-a498-e56def3118bd"},"vehicle_type_id":"4","last_reported":1752138834,"current_range_meters":12400,"station_id":"ce4bgh92rcd13ifvqb40","pricing_plan_id":"cebpf4jnsgd1na2vs0mg"},{"bike_id":"6e93340a-10fb-42ac-b2a9-fb75920a6378","system_id":"levelo_inurba_marseille","lat":43.30917,"lon":5.37199,"is_reserved":false,"is_disabled":false,"rental_uris":{"android":"levelo://app?vid=6e93340a-10fb-42ac-b2a9-fb75920a6378","ios":"levelo://app?vid=6e93340a-10fb-42ac-b2a9-fb75920a6378"},"vehicle_type_id":"4","last_reported":1752138834,"current_range_meters":12400,"station_id":"ce4bguh2rcd13ifvqckg","pricing_plan_id":"cebpf4jnsgd1na2vs0mg"},{"bike_id":"ee57a736-5ecb-4eac-bf22-e60a05ccd09c","system_id":"levelo_inurba_marseille","lat":43.29025,"lon":5.37562,"is_reserved":false,"is_disabled":false,"rental_uris":{"android":"levelo://app?vid=ee57a736-5ecb-4eac-bf22-e60a05ccd09c","ios":"levelo://app?vid=ee57a736-5ecb-4eac-bf22-e60a05ccd09c"},"vehicle_type_id":"4","last_reported":1752138834,"current_range_meters":12400,"station_id":"ce4bh692rcd13ifvqe90","pricing_plan_id":"cebpf4jnsgd1na2vs0mg"},{"bike_id":"833d3f83-00f4-4656-8d54-523c544842c8","system_id":"levelo_inurba_marseille","lat":43.25942,"lon":5.40902,"is_reserved":false,"is_disabled":false,"rental_uris":{"android":"levelo://app?vid=833d3f83-00f4-4656-8d54-523c544842c8","ios":"levelo://app?vid=833d3f83-00f4-4656-8d54-523c544842c8"},"vehicle_type_id":"4","last_reported":1752138834,"current_range_meters":12400,"station_id":"ce4bhm92rcd13ifvqglg","pricing_plan_id":"cebpf4jnsgd1na2vs0mg"},{"bike_id":"21f9e3de-040f-4bf8-bb63-c366c0b621f8","system_id":"levelo_inurba_marseille","lat":43.33607,"lon":5.41025,"is_reserved":false,"is_disabled":false,"rental_uris":{"android":"levelo://app?vid=21f9e3de-040f-4bf8-bb63-c366c0b621f8","ios":"levelo://app?vid=21f9e3de-040f-4bf8-bb63-c366c0b621f8"},"vehicle_type_id":"4","last_reported":1752138834,"current_range_meters":12400,"station_id":"ce4bhqh2rcd13ifvqhmg","pricing_plan_id":"cebpf4jnsgd1na2vs0mg"},{"bike_id":"2a2c2ba3-f4e7-4476-b21e-559d75857b71","system_id":"levelo_inurba_marseille","lat":43.27131,"lon":5.42314,"is_reserved":false,"is_disabled":false,"rental_uris":{"android":"levelo://app?vid=2a2c2ba3-f4e7-4476-b21e-559d75857b71","ios":"levelo://app?vid=2a2c2ba3-f4e7-4476-b21e-559d75857b71"},"vehicle_type_id":"4","last_reported":1752138834,"current_range_meters":12800,"station_id":"","pricing_plan_id":"cebpf4jnsgd1na2vs0mg"},{"bike_id":"d7ff4435-290a-4ac9-9305-842f33b508d6","system_id":"levelo_inurba_marseille","lat":43.30444,"lon":5.3889,"is_reserved":false,"is_disabled":false,"rental_uris":{"android":"levelo://app?vid=d7ff4435-290a-4ac9-9305-842f33b508d6","ios":"levelo://app?vid=d7ff4435-290a-4ac9-9305-842f33b508d6"},"vehicle_type_id":"4","last_reported":1752138834,"current_range_meters":12800,"station_id":"ce4bgk12rcd13ifvqbi0","pricing_plan_id":"cebpf4jnsgd1na2vs0mg"},{"bike_id":"f37ee598-e17e-4ad0-a520-17edc7ceba53","system_id":"levelo_inurba_marseille","lat":43.27674,"lon":5.38866,"is_reserved":false,"is_disabled":false,"rental_uris":{"android":"levelo://app?vid=f37ee598-e17e-4ad0-a520-17edc7ceba53","ios":"levelo://app?vid=f37ee598-e17e-4ad0-a520-17edc7ceba53"},"vehicle_type_id":"4","last_reported":1752138834,"current_range_meters":12800,"station_id":"ce4bhi12rcd13ifvqfo0","pricing_plan_id":"cebpf4jnsgd1na2vs0mg"},{"bike_id":"437e1534-4105-4998-8da9-17d10459ca56","system_id":"levelo_inurba_marseille","lat":43.27176,"lon":5.40991,"is_reserved":false,"is_disabled":false,"rental_uris":{"android":"levelo://app?vid=437e1534-4105-4998-8da9-17d10459ca56","ios":"levelo://app?vid=437e1534-4105-4998-8da9-17d10459ca56"},"vehicle_type_id":"4","last_reported":1752138834,"current_range_meters":12800,"station_id":"ce4bhl12rcd13ifvqgf0","pricing_plan_id":"cebpf4jnsgd1na2vs0mg"},{"bike_id":"fab20a66-1a15-486f-80f7-f7df5bf02a8f","system_id":"levelo_inurba_marseille","lat":43.28709,"lon":5.37379,"is_reserved":false,"is_disabled":false,"rental_uris":{"android":"levelo://app?vid=fab20a66-1a15-486f-80f7-f7df5bf02a8f","ios":"levelo://app?vid=fab20a66-1a15-486f-80f7-f7df5bf02a8f"},"vehicle_type_id":"4","last_reported":1752138834,"current_range_meters":13600,"station_id":"ce4bh3p2rcd13ifvqdq0","pricing_plan_id":"cebpf4jnsgd1na2vs0mg"},{"bike_id":"87847516-fdcc-4a33-a493-db77529d8b34","system_id":"levelo_inurba_marseille","lat":43.29005,"lon":5.35605,"is_reserved":false,"is_disabled":false,"rental_uris":{"android":"levelo://app?vid=87847516-fdcc-4a33-a493-db77529d8b34","ios":"levelo://app?vid=87847516-fdcc-4a33-a493-db77529d8b34"},"vehicle_type_id":"4","last_reported":1752138834,"current_range_meters":13600,"station_id":"ce4bhb92rcd13ifvqen0","pricing_plan_id":"cebpf4jnsgd1na2vs0mg"},{"bike_id":"a683eb29-f896-440b-8cbc-46d7aacd78c3","system_id":"levelo_inurba_marseille","lat":43.27374,"lon":5.36254,"is_reserved":false,"is_disabled":false,"rental_uris":{"android":"levelo://app?vid=a683eb29-f896-440b-8cbc-46d7aacd78c3","ios":"levelo://app?vid=a683eb29-f896-440b-8cbc-46d7aacd78c3"},"vehicle_type_id":"4","last_reported":1752138834,"current_range_meters":13600,"station_id":"ce4bhbh2rcd13ifvqeo0","pricing_plan_id":"cebpf4jnsgd1na2vs0mg"},{"bike_id":"3b3e8011-e2e8-4829-a29a-123098a16e90","system_id":"levelo_inurba_marseille","lat":43.30591,"lon":5.36725,"is_reserved":false,"is_disabled":false,"rental_uris":{"android":"levelo://app?vid=3b3e8011-e2e8-4829-a29a-123098a16e90","ios":"levelo://app?vid=3b3e8011-e2e8-4829-a29a-123098a16e90"},"vehicle_type_id":"4","last_reported":1752138834,"current_range_meters":14000,"station_id":"ce4bgrp2rcd13ifvqc9g","pricing_plan_id":"cebpf4jnsgd1na2vs0mg"},{"bike_id":"e75173ba-092f-4e3c-b2e1-128bf1f9d79b","system_id":"levelo_inurba_marseille","lat":43.21749,"lon":5.34603,"is_reserved":false,"is_disabled":false,"rental_uris":{"android":"levelo://app?vid=e75173ba-092f-4e3c-b2e1-128bf1f9d79b","ios":"levelo://app?vid=e75173ba-092f-4e3c-b2e1-128bf1f9d79b"},"vehicle_type_id":"4","last_reported":1752138834,"current_range_meters":14400,"station_id":"","pricing_plan_id":"cebpf4jnsgd1na2vs0mg"},{"bike_id":"520dd6c5-bd8b-4794-833e-65350f98c083","system_id":"levelo_inurba_marseille","lat":43.30814,"lon":5.37657,"is_reserved":false,"is_disabled":false,"rental_uris":{"android":"levelo://app?vid=520dd6c5-bd8b-4794-833e-65350f98c083","ios":"levelo://app?vid=520dd6c5-bd8b-4794-833e-65350f98c083"},"vehicle_type_id":"4","last_reported":1752138834,"current_range_meters":14400,"station_id":"ce4bgv92rcd13ifvqcq0","pricing_plan_id":"cebpf4jnsgd1na2vs0mg"},{"bike_id":"a204c034-491b-41f0-9126-fc30d6354c79","system_id":"levelo_inurba_marseille","lat":43.23966,"lon":5.36629,"is_reserved":false,"is_disabled":false,"rental_uris":{"android":"levelo://app?vid=a204c034-491b-41f0-9126-fc30d6354c79","ios":"levelo://app?vid=a204c034-491b-41f0-9126-fc30d6354c79"},"vehicle_type_id":"4","last_reported":1752138834,"current_range_meters":14400,"station_id":"ce4bhi12rcd13ifvqfp0","pricing_plan_id":"cebpf4jnsgd1na2vs0mg"},{"bike_id":"7e66c1f6-8bd5-44a9-af98-934147a63900","system_id":"levelo_inurba_marseille","lat":43.27218,"lon":5.39185,"is_reserved":false,"is_disabled":false,"rental_uris":{"android":"levelo://app?vid=7e66c1f6-8bd5-44a9-af98-934147a63900","ios":"levelo://app?vid=7e66c1f6-8bd5-44a9-af98-934147a63900"},"vehicle_type_id":"4","last_reported":1752138834,"current_range_meters":14800,"station_id":"ce4bhhp2rcd13ifvqfm0","pricing_plan_id":"cebpf4jnsgd1na2vs0mg"},{"bike_id":"3e9715dd-d31a-4f49-bae9-43a6be377a33","system_id":"levelo_inurba_marseille","lat":43.24661,"lon":5.38166,"is_reserved":false,"is_disabled":false,"rental_uris":{"android":"levelo://app?vid=3e9715dd-d31a-4f49-bae9-43a6be377a33","ios":"levelo://app?vid=3e9715dd-d31a-4f49-bae9-43a6be377a33"},"vehicle_type_id":"4","last_reported":1752138834,"current_range_meters":14800,"station_id":"ce4bhih2rcd13ifvqfr0","pricing_plan_id":"cebpf4jnsgd1na2vs0mg"},{"bike_id":"bf9e85a4-d185-43c1-ad21-f42cf123275c","system_id":"levelo_inurba_marseille","lat":43.240782,"lon":5.377521,"is_reserved":false,"is_disabled":false,"rental_uris":{"android":"levelo://app?vid=bf9e85a4-d185-43c1-ad21-f42cf123275c","ios":"levelo://app?vid=bf9e85a4-d185-43c1-ad21-f42cf123275c"},"vehicle_type_id":"4","last_reported":1752138834,"current_range_meters":14800,"station_id":"ce4bhnp2rcd13ifvqgvg","pricing_plan_id":"cebpf4jnsgd1na2vs0mg"},{"bike_id":"73fe94e8-74f9-41f0-85e9-7d8c52adf2fc","system_id":"levelo_inurba_marseille","lat":43.212678,"lon":5.352878,"is_reserved":false,"is_disabled":false,"rental_uris":{"android":"levelo://app?vid=73fe94e8-74f9-41f0-85e9-7d8c52adf2fc","ios":"levelo://app?vid=73fe94e8-74f9-41f0-85e9-7d8c52adf2fc"},"vehicle_type_id":"4","last_reported":1752138834,"current_range_meters":15200,"station_id":"","pricing_plan_id":"cebpf4jnsgd1na2vs0mg"},{"bike_id":"87d13c3c-9453-4492-8a8f-f2b4c8e828c6","system_id":"levelo_inurba_marseille","lat":43.26177,"lon":5.37049,"is_reserved":false,"is_disabled":false,"rental_uris":{"android":"levelo://app?vid=87d13c3c-9453-4492-8a8f-f2b4c8e828c6","ios":"levelo://app?vid=87d13c3c-9453-4492-8a8f-f2b4c8e828c6"},"vehicle_type_id":"4","last_reported":1752138834,"current_range_meters":15200,"station_id":"","pricing_plan_id":"cebpf4jnsgd1na2vs0mg"},{"bike_id":"feaa7e3a-cbe4-4489-be11-8a12d7eec173","system_id":"levelo_inurba_marseille","lat":43.25152,"lon":5.42806,"is_reserved":false,"is_disabled":false,"rental_uris":{"android":"levelo://app?vid=feaa7e3a-cbe4-4489-be11-8a12d7eec173","ios":"levelo://app?vid=feaa7e3a-cbe4-4489-be11-8a12d7eec173"},"vehicle_type_id":"4","last_reported":1752138834,"current_range_meters":15200,"station_id":"","pricing_plan_id":"cebpf4jnsgd1na2vs0mg"},{"bike_id":"6c6517af-996e-4b4e-8cfa-66960711f3cf","system_id":"levelo_inurba_marseille","lat":43.29719,"lon":5.36613,"is_reserved":false,"is_disabled":false,"rental_uris":{"android":"levelo://app?vid=6c6517af-996e-4b4e-8cfa-66960711f3cf","ios":"levelo://app?vid=6c6517af-996e-4b4e-8cfa-66960711f3cf"},"vehicle_type_id":"4","last_reported":1752138834,"current_range_meters":15200,"station_id":"ce4bgn12rcd13ifvqbt0","pricing_plan_id":"cebpf4jnsgd1na2vs0mg"},{"bike_id":"b540a757-5018-4045-a161-7dd9642cea96","system_id":"levelo_inurba_marseille","lat":43.31377,"lon":5.36686,"is_reserved":false,"is_disabled":false,"rental_uris":{"android":"levelo://app?vid=b540a757-5018-4045-a161-7dd9642cea96","ios":"levelo://app?vid=b540a757-5018-4045-a161-7dd9642cea96"},"vehicle_type_id":"4","last_reported":1752138834,"current_range_meters":15200,"station_id":"ce4bgr92rcd13ifvqc6g","pricing_plan_id":"cebpf4jnsgd1na2vs0mg"},{"bike_id":"eb483541-da24-41cb-b94e-dbdb83049f85","system_id":"levelo_inurba_marseille","lat":43.3014,"lon":5.37408,"is_reserved":false,"is_disabled":false,"rental_uris":{"android":"levelo://app?vid=eb483541-da24-41cb-b94e-dbdb83049f85","ios":"levelo://app?vid=eb483541-da24-41cb-b94e-dbdb83049f85"},"vehicle_type_id":"4","last_reported":1752138834,"current_range_meters":15200,"station_id":"ce4bgs92rcd13ifvqcc0","pricing_plan_id":"cebpf4jnsgd1na2vs0mg"},{"bike_id":"cb8db8c5-e9dd-4a16-a0e6-554c3d555317","system_id":"levelo_inurba_marseille","lat":43.2571,"lon":5.4112,"is_reserved":false,"is_disabled":false,"rental_uris":{"android":"levelo://app?vid=cb8db8c5-e9dd-4a16-a0e6-554c3d555317","ios":"levelo://app?vid=cb8db8c5-e9dd-4a16-a0e6-554c3d555317"},"vehicle_type_id":"4","last_reported":1752138834,"current_range_meters":15200,"station_id":"ce4bhkp2rcd13ifvqgd0","pricing_plan_id":"cebpf4jnsgd1na2vs0mg"},{"bike_id":"ce09a6c7-b341-4488-a538-26468f87b477","system_id":"levelo_inurba_marseille","lat":43.324857,"lon":5.365607,"is_reserved":false,"is_disabled":false,"rental_uris":{"android":"levelo://app?vid=ce09a6c7-b341-4488-a538-26468f87b477","ios":"levelo://app?vid=ce09a6c7-b341-4488-a538-26468f87b477"},"vehicle_type_id":"4","last_reported":1752138834,"current_range_meters":15200,"station_id":"ce4bhs12rcd13ifvqhvg","pricing_plan_id":"cebpf4jnsgd1na2vs0mg"},{"bike_id":"07e23da8-1aab-44d7-8d40-309109ee0205","system_id":"levelo_inurba_marseille","lat":43.32351,"lon":5.36713,"is_reserved":false,"is_disabled":false,"rental_uris":{"android":"levelo://app?vid=07e23da8-1aab-44d7-8d40-309109ee0205","ios":"levelo://app?vid=07e23da8-1aab-44d7-8d40-309109ee0205"},"vehicle_type_id":"4","last_reported":1752138834,"current_range_meters":15200,"station_id":"ce4bhsh2rcd13ifvqi2g","pricing_plan_id":"cebpf4jnsgd1na2vs0mg"},{"bike_id":"de010bc4-5e98-41bd-aed3-9094f259cc5a","system_id":"levelo_inurba_marseille","lat":43.24163,"lon":5.36396,"is_reserved":false,"is_disabled":false,"rental_uris":{"android":"levelo://app?vid=de010bc4-5e98-41bd-aed3-9094f259cc5a","ios":"levelo://app?vid=de010bc4-5e98-41bd-aed3-9094f259cc5a"},"vehicle_type_id":"4","last_reported":1752138834,"current_range_meters":15200,"station_id":"cpo36qri1sfpv3e86is0","pricing_plan_id":"cebpf4jnsgd1na2vs0mg"},{"bike_id":"d3e8264f-5e78-41b8-b5b0-557e389e6623","system_id":"levelo_inurba_marseille","lat":43.31371,"lon":5.37159,"is_reserved":false,"is_disabled":false,"rental_uris":{"android":"levelo://app?vid=d3e8264f-5e78-41b8-b5b0-557e389e6623","ios":"levelo://app?vid=d3e8264f-5e78-41b8-b5b0-557e389e6623"},"vehicle_type_id":"4","last_reported":1752138834,"current_range_meters":16000,"station_id":"","pricing_plan_id":"cebpf4jnsgd1na2vs0mg"},{"bike_id":"4c36c8b2-241f-4b9f-8864-958ca40e2121","system_id":"levelo_inurba_marseille","lat":43.29583,"lon":5.37513,"is_reserved":false,"is_disabled":false,"rental_uris":{"android":"levelo://app?vid=4c36c8b2-241f-4b9f-8864-958ca40e2121","ios":"levelo://app?vid=4c36c8b2-241f-4b9f-8864-958ca40e2121"},"vehicle_type_id":"4","last_reported":1752138834,"current_range_meters":16000,"station_id":"ce4bgh92rcd13ifvqb50","pricing_plan_id":"cebpf4jnsgd1na2vs0mg"},{"bike_id":"55105142-3666-4ef7-8f20-17f02baa8c73","system_id":"levelo_inurba_marseille","lat":43.30902,"lon":5.36854,"is_reserved":false,"is_disabled":false,"rental_uris":{"android":"levelo://app?vid=55105142-3666-4ef7-8f20-17f02baa8c73","ios":"levelo://app?vid=55105142-3666-4ef7-8f20-17f02baa8c73"},"vehicle_type_id":"4","last_reported":1752138834,"current_range_meters":16000,"station_id":"ce4bgn92rcd13ifvqbvg","pricing_plan_id":"cebpf4jnsgd1na2vs0mg"},{"bike_id":"37d24ae8-ab60-4ff1-9d36-77e365c878e4","system_id":"levelo_inurba_marseille","lat":43.29843,"lon":5.36265,"is_reserved":false,"is_disabled":false,"rental_uris":{"android":"levelo://app?vid=37d24ae8-ab60-4ff1-9d36-77e365c878e4","ios":"levelo://app?vid=37d24ae8-ab60-4ff1-9d36-77e365c878e4"},"vehicle_type_id":"4","last_reported":1752138834,"current_range_meters":16000,"station_id":"ce4bgpp2rcd13ifvqc3g","pricing_plan_id":"cebpf4jnsgd1na2vs0mg"},{"bike_id":"b0b523d1-ea29-4a44-adc0-758c7c9b3d79","system_id":"levelo_inurba_marseille","lat":43.30556,"lon":5.36554,"is_reserved":false,"is_disabled":false,"rental_uris":{"android":"levelo://app?vid=b0b523d1-ea29-4a44-adc0-758c7c9b3d79","ios":"levelo://app?vid=b0b523d1-ea29-4a44-adc0-758c7c9b3d79"},"vehicle_type_id":"4","last_reported":1752138834,"current_range_meters":16000,"station_id":"ce4bgs12rcd13ifvqcag","pricing_plan_id":"cebpf4jnsgd1na2vs0mg"},{"bike_id":"fb04013c-d1f7-41fe-a142-9fe1969a3ded","system_id":"levelo_inurba_marseille","lat":43.30142,"lon":5.37418,"is_reserved":false,"is_disabled":false,"rental_uris":{"android":"levelo://app?vid=fb04013c-d1f7-41fe-a142-9fe1969a3ded","ios":"levelo://app?vid=fb04013c-d1f7-41fe-a142-9fe1969a3ded"},"vehicle_type_id":"4","last_reported":1752138834,"current_range_meters":16000,"station_id":"ce4bgs92rcd13ifvqcc0","pricing_plan_id":"cebpf4jnsgd1na2vs0mg"},{"bike_id":"01652994-7fb3-4ab4-9534-771ddec57a5c","system_id":"levelo_inurba_marseille","lat":43.309638,"lon":5.390321,"is_reserved":false,"is_disabled":false,"rental_uris":{"android":"levelo://app?vid=01652994-7fb3-4ab4-9534-771ddec57a5c","ios":"levelo://app?vid=01652994-7fb3-4ab4-9534-771ddec57a5c"},"vehicle_type_id":"4","last_reported":1752138834,"current_range_meters":16000,"station_id":"ce4bgup2rcd13ifvqco0","pricing_plan_id":"cebpf4jnsgd1na2vs0mg"},{"bike_id":"c24d1eb3-b219-4e18-865d-5fb4c1787415","system_id":"levelo_inurba_marseille","lat":43.29511,"lon":5.39052,"is_reserved":false,"is_disabled":false,"rental_uris":{"android":"levelo://app?vid=c24d1eb3-b219-4e18-865d-5fb4c1787415","ios":"levelo://app?vid=c24d1eb3-b219-4e18-865d-5fb4c1787415"},"vehicle_type_id":"4","last_reported":1752138834,"current_range_meters":16000,"station_id":"ce4bh3p2rcd13ifvqdp0","pricing_plan_id":"cebpf4jnsgd1na2vs0mg"},{"bike_id":"f373e4a8-33e3-4f72-ae8e-e7ab386910f4","system_id":"levelo_inurba_marseille","lat":43.22517,"lon":5.34799,"is_reserved":false,"is_disabled":false,"rental_uris":{"android":"levelo://app?vid=f373e4a8-33e3-4f72-ae8e-e7ab386910f4","ios":"levelo://app?vid=f373e4a8-33e3-4f72-ae8e-e7ab386910f4"},"vehicle_type_id":"4","last_reported":1752138834,"current_range_meters":16000,"station_id":"st_cvj5dfep6f1abm77gieg","pricing_plan_id":"cebpf4jnsgd1na2vs0mg"},{"bike_id":"069759f3-8488-4973-b337-5e447fc27e24","system_id":"levelo_inurba_marseille","lat":43.21208,"lon":5.35064,"is_reserved":false,"is_disabled":false,"rental_uris":{"android":"levelo://app?vid=069759f3-8488-4973-b337-5e447fc27e24","ios":"levelo://app?vid=069759f3-8488-4973-b337-5e447fc27e24"},"vehicle_type_id":"4","last_reported":1752138834,"current_range_meters":16000,"station_id":"st_cvj6sg6p6f1abm77japg","pricing_plan_id":"cebpf4jnsgd1na2vs0mg"},{"bike_id":"9f5e74ce-2459-4c6f-a171-f6d1e8a1ed83","system_id":"levelo_inurba_marseille","lat":43.31857,"lon":5.37564,"is_reserved":false,"is_disabled":false,"rental_uris":{"android":"levelo://app?vid=9f5e74ce-2459-4c6f-a171-f6d1e8a1ed83","ios":"levelo://app?vid=9f5e74ce-2459-4c6f-a171-f6d1e8a1ed83"},"vehicle_type_id":"4","last_reported":1752138834,"current_range_meters":16400,"station_id":"","pricing_plan_id":"cebpf4jnsgd1na2vs0mg"},{"bike_id":"0aef81f1-2263-40a3-a0fe-a9aaa2854d02","system_id":"levelo_inurba_marseille","lat":43.27686,"lon":5.38914,"is_reserved":false,"is_disabled":false,"rental_uris":{"android":"levelo://app?vid=0aef81f1-2263-40a3-a0fe-a9aaa2854d02","ios":"levelo://app?vid=0aef81f1-2263-40a3-a0fe-a9aaa2854d02"},"vehicle_type_id":"4","last_reported":1752138834,"current_range_meters":16400,"station_id":"ce4bhi12rcd13ifvqfo0","pricing_plan_id":"cebpf4jnsgd1na2vs0mg"},{"bike_id":"ee281906-3fe5-413e-a9a2-7edf555f078b","system_id":"levelo_inurba_marseille","lat":43.24075,"lon":5.37764,"is_reserved":false,"is_disabled":false,"rental_uris":{"android":"levelo://app?vid=ee281906-3fe5-413e-a9a2-7edf555f078b","ios":"levelo://app?vid=ee281906-3fe5-413e-a9a2-7edf555f078b"},"vehicle_type_id":"4","last_reported":1752138834,"current_range_meters":16400,"station_id":"ce4bhnp2rcd13ifvqgvg","pricing_plan_id":"cebpf4jnsgd1na2vs0mg"},{"bike_id":"4e209b0c-855f-4b51-8120-2faef8673853","system_id":"levelo_inurba_marseille","lat":43.306175,"lon":5.368775,"is_reserved":false,"is_disabled":false,"rental_uris":{"android":"levelo://app?vid=4e209b0c-855f-4b51-8120-2faef8673853","ios":"levelo://app?vid=4e209b0c-855f-4b51-8120-2faef8673853"},"vehicle_type_id":"4","last_reported":1752138834,"current_range_meters":16800,"station_id":"","pricing_plan_id":"cebpf4jnsgd1na2vs0mg"},{"bike_id":"dba9c860-a69d-45c0-b77a-05c4a69316c3","system_id":"levelo_inurba_marseille","lat":43.31238,"lon":5.36884,"is_reserved":false,"is_disabled":false,"rental_uris":{"android":"levelo://app?vid=dba9c860-a69d-45c0-b77a-05c4a69316c3","ios":"levelo://app?vid=dba9c860-a69d-45c0-b77a-05c4a69316c3"},"vehicle_type_id":"4","last_reported":1752138834,"current_range_meters":16800,"station_id":"ce4bgl92rcd13ifvqbq0","pricing_plan_id":"cebpf4jnsgd1na2vs0mg"},{"bike_id":"f0a2192f-8d3a-482d-a043-32b763a8959f","system_id":"levelo_inurba_marseille","lat":43.25451,"lon":5.37946,"is_reserved":false,"is_disabled":false,"rental_uris":{"android":"levelo://app?vid=f0a2192f-8d3a-482d-a043-32b763a8959f","ios":"levelo://app?vid=f0a2192f-8d3a-482d-a043-32b763a8959f"},"vehicle_type_id":"4","last_reported":1752138834,"current_range_meters":17200,"station_id":"","pricing_plan_id":"cebpf4jnsgd1na2vs0mg"},{"bike_id":"bd5228ab-002e-4f81-bbd3-2baf5452f591","system_id":"levelo_inurba_marseille","lat":43.27826,"lon":5.41439,"is_reserved":false,"is_disabled":false,"rental_uris":{"android":"levelo://app?vid=bd5228ab-002e-4f81-bbd3-2baf5452f591","ios":"levelo://app?vid=bd5228ab-002e-4f81-bbd3-2baf5452f591"},"vehicle_type_id":"4","last_reported":1752138834,"current_range_meters":17200,"station_id":"","pricing_plan_id":"cebpf4jnsgd1na2vs0mg"},{"bike_id":"fa87fcb5-aacb-41a1-a789-0296bbd02085","system_id":"levelo_inurba_marseille","lat":43.24582,"lon":5.37372,"is_reserved":false,"is_disabled":false,"rental_uris":{"android":"levelo://app?vid=fa87fcb5-aacb-41a1-a789-0296bbd02085","ios":"levelo://app?vid=fa87fcb5-aacb-41a1-a789-0296bbd02085"},"vehicle_type_id":"4","last_reported":1752138834,"current_range_meters":17200,"station_id":"","pricing_plan_id":"cebpf4jnsgd1na2vs0mg"},{"bike_id":"846e28d8-a565-4248-a02e-bf6d18b20bee","system_id":"levelo_inurba_marseille","lat":43.29984,"lon":5.37175,"is_reserved":false,"is_disabled":false,"rental_uris":{"android":"levelo://app?vid=846e28d8-a565-4248-a02e-bf6d18b20bee","ios":"levelo://app?vid=846e28d8-a565-4248-a02e-bf6d18b20bee"},"vehicle_type_id":"4","last_reported":1752138834,"current_range_meters":17200,"station_id":"ce4bgr92rcd13ifvqc7g","pricing_plan_id":"cebpf4jnsgd1na2vs0mg"},{"bike_id":"faaddb4a-ca17-4d46-9854-ed7d48c340bd","system_id":"levelo_inurba_marseille","lat":43.31178,"lon":5.38709,"is_reserved":false,"is_disabled":false,"rental_uris":{"android":"levelo://app?vid=faaddb4a-ca17-4d46-9854-ed7d48c340bd","ios":"levelo://app?vid=faaddb4a-ca17-4d46-9854-ed7d48c340bd"},"vehicle_type_id":"4","last_reported":1752138834,"current_range_meters":17200,"station_id":"ce4bgv12rcd13ifvqcp0","pricing_plan_id":"cebpf4jnsgd1na2vs0mg"},{"bike_id":"aea8d665-2d91-46d6-a00b-d6caf3043c90","system_id":"levelo_inurba_marseille","lat":43.25941,"lon":5.40895,"is_reserved":false,"is_disabled":false,"rental_uris":{"android":"levelo://app?vid=aea8d665-2d91-46d6-a00b-d6caf3043c90","ios":"levelo://app?vid=aea8d665-2d91-46d6-a00b-d6caf3043c90"},"vehicle_type_id":"4","last_reported":1752138834,"current_range_meters":17200,"station_id":"ce4bhm92rcd13ifvqglg","pricing_plan_id":"cebpf4jnsgd1na2vs0mg"},{"bike_id":"a5a6c2c1-2d48-4581-8647-6eab6c0bbb54","system_id":"levelo_inurba_marseille","lat":43.263534,"lon":5.373811,"is_reserved":false,"is_disabled":false,"rental_uris":{"android":"levelo://app?vid=a5a6c2c1-2d48-4581-8647-6eab6c0bbb54","ios":"levelo://app?vid=a5a6c2c1-2d48-4581-8647-6eab6c0bbb54"},"vehicle_type_id":"4","last_reported":1752138834,"current_range_meters":17600,"station_id":"","pricing_plan_id":"cebpf4jnsgd1na2vs0mg"},{"bike_id":"c7bc0b85-c966-4913-8908-15a71d65944b","system_id":"levelo_inurba_marseille","lat":43.35493,"lon":5.3572,"is_reserved":false,"is_disabled":false,"rental_uris":{"android":"levelo://app?vid=c7bc0b85-c966-4913-8908-15a71d65944b","ios":"levelo://app?vid=c7bc0b85-c966-4913-8908-15a71d65944b"},"vehicle_type_id":"4","last_reported":1752138834,"current_range_meters":17600,"station_id":"","pricing_plan_id":"cebpf4jnsgd1na2vs0mg"},{"bike_id":"24b17f7b-dff1-4936-b27a-7c2c6813a894","system_id":"levelo_inurba_marseille","lat":43.24587,"lon":5.37373,"is_reserved":false,"is_disabled":false,"rental_uris":{"android":"levelo://app?vid=24b17f7b-dff1-4936-b27a-7c2c6813a894","ios":"levelo://app?vid=24b17f7b-dff1-4936-b27a-7c2c6813a894"},"vehicle_type_id":"4","last_reported":1752138834,"current_range_meters":17600,"station_id":"","pricing_plan_id":"cebpf4jnsgd1na2vs0mg"},{"bike_id":"55eb3ee3-207d-45c9-a356-7e275a6ee08e","system_id":"levelo_inurba_marseille","lat":43.322208,"lon":5.407363,"is_reserved":false,"is_disabled":false,"rental_uris":{"android":"levelo://app?vid=55eb3ee3-207d-45c9-a356-7e275a6ee08e","ios":"levelo://app?vid=55eb3ee3-207d-45c9-a356-7e275a6ee08e"},"vehicle_type_id":"4","last_reported":1752138834,"current_range_meters":17600,"station_id":"ce4bh092rcd13ifvqd30","pricing_plan_id":"cebpf4jnsgd1na2vs0mg"},{"bike_id":"28c2815d-a42b-4111-bdae-b53d7b9e42a1","system_id":"levelo_inurba_marseille","lat":43.28941,"lon":5.36402,"is_reserved":false,"is_disabled":false,"rental_uris":{"android":"levelo://app?vid=28c2815d-a42b-4111-bdae-b53d7b9e42a1","ios":"levelo://app?vid=28c2815d-a42b-4111-bdae-b53d7b9e42a1"},"vehicle_type_id":"4","last_reported":1752138834,"current_range_meters":17600,"station_id":"ce4bhc92rcd13ifvqetg","pricing_plan_id":"cebpf4jnsgd1na2vs0mg"},{"bike_id":"ee1ac907-8623-4d00-ac01-d41dd90be9fe","system_id":"levelo_inurba_marseille","lat":43.211934,"lon":5.350701,"is_reserved":false,"is_disabled":false,"rental_uris":{"android":"levelo://app?vid=ee1ac907-8623-4d00-ac01-d41dd90be9fe","ios":"levelo://app?vid=ee1ac907-8623-4d00-ac01-d41dd90be9fe"},"vehicle_type_id":"4","last_reported":1752138834,"current_range_meters":17600,"station_id":"st_cvj6sg6p6f1abm77japg","pricing_plan_id":"cebpf4jnsgd1na2vs0mg"},{"bike_id":"5126538c-e379-41f9-b8aa-b60309da16d4","system_id":"levelo_inurba_marseille","lat":43.29846,"lon":5.36283,"is_reserved":false,"is_disabled":false,"rental_uris":{"android":"levelo://app?vid=5126538c-e379-41f9-b8aa-b60309da16d4","ios":"levelo://app?vid=5126538c-e379-41f9-b8aa-b60309da16d4"},"vehicle_type_id":"4","last_reported":1752138834,"current_range_meters":18000,"station_id":"ce4bgpp2rcd13ifvqc3g","pricing_plan_id":"cebpf4jnsgd1na2vs0mg"},{"bike_id":"bcb5093d-72d2-421e-92d3-1be69245626d","system_id":"levelo_inurba_marseille","lat":43.28279,"lon":5.3507,"is_reserved":false,"is_disabled":false,"rental_uris":{"android":"levelo://app?vid=bcb5093d-72d2-421e-92d3-1be69245626d","ios":"levelo://app?vid=bcb5093d-72d2-421e-92d3-1be69245626d"},"vehicle_type_id":"4","last_reported":1752138834,"current_range_meters":18000,"station_id":"ce4bhbp2rcd13ifvqerg","pricing_plan_id":"cebpf4jnsgd1na2vs0mg"},{"bike_id":"386ac6c9-5fc7-4a38-b181-1cf955b205b5","system_id":"levelo_inurba_marseille","lat":43.25907,"lon":5.4086,"is_reserved":false,"is_disabled":false,"rental_uris":{"android":"levelo://app?vid=386ac6c9-5fc7-4a38-b181-1cf955b205b5","ios":"levelo://app?vid=386ac6c9-5fc7-4a38-b181-1cf955b205b5"},"vehicle_type_id":"4","last_reported":1752138834,"current_range_meters":18000,"station_id":"ce4bhm92rcd13ifvqglg","pricing_plan_id":"cebpf4jnsgd1na2vs0mg"},{"bike_id":"cc91f022-5f4f-478d-8287-995a3efb66d1","system_id":"levelo_inurba_marseille","lat":43.26235,"lon":5.40473,"is_reserved":false,"is_disabled":false,"rental_uris":{"android":"levelo://app?vid=cc91f022-5f4f-478d-8287-995a3efb66d1","ios":"levelo://app?vid=cc91f022-5f4f-478d-8287-995a3efb66d1"},"vehicle_type_id":"4","last_reported":1752138834,"current_range_meters":18000,"station_id":"ce4bhmh2rcd13ifvqgmg","pricing_plan_id":"cebpf4jnsgd1na2vs0mg"},{"bike_id":"885a4f7a-b630-4979-8079-f23273e8b02f","system_id":"levelo_inurba_marseille","lat":43.241794,"lon":5.397264,"is_reserved":false,"is_disabled":false,"rental_uris":{"android":"levelo://app?vid=885a4f7a-b630-4979-8079-f23273e8b02f","ios":"levelo://app?vid=885a4f7a-b630-4979-8079-f23273e8b02f"},"vehicle_type_id":"4","last_reported":1752138834,"current_range_meters":18000,"station_id":"ce4bhn12rcd13ifvqgpg","pricing_plan_id":"cebpf4jnsgd1na2vs0mg"},{"bike_id":"8f89e4f3-495a-4317-bd6d-37a19186d65b","system_id":"levelo_inurba_marseille","lat":43.33722,"lon":5.39181,"is_reserved":false,"is_disabled":false,"rental_uris":{"android":"levelo://app?vid=8f89e4f3-495a-4317-bd6d-37a19186d65b","ios":"levelo://app?vid=8f89e4f3-495a-4317-bd6d-37a19186d65b"},"vehicle_type_id":"4","last_reported":1752138834,"current_range_meters":18000,"station_id":"ce4bhr92rcd13ifvqhsg","pricing_plan_id":"cebpf4jnsgd1na2vs0mg"},{"bike_id":"5948c1b8-e115-4dc5-a5c7-90cad69d0936","system_id":"levelo_inurba_marseille","lat":43.31933,"lon":5.37321,"is_reserved":false,"is_disabled":false,"rental_uris":{"android":"levelo://app?vid=5948c1b8-e115-4dc5-a5c7-90cad69d0936","ios":"levelo://app?vid=5948c1b8-e115-4dc5-a5c7-90cad69d0936"},"vehicle_type_id":"4","last_reported":1752138834,"current_range_meters":18800,"station_id":"","pricing_plan_id":"cebpf4jnsgd1na2vs0mg"},{"bike_id":"d39178c4-b7be-4d48-9ac4-b9c12a67227c","system_id":"levelo_inurba_marseille","lat":43.25941,"lon":5.40899,"is_reserved":false,"is_disabled":false,"rental_uris":{"android":"levelo://app?vid=d39178c4-b7be-4d48-9ac4-b9c12a67227c","ios":"levelo://app?vid=d39178c4-b7be-4d48-9ac4-b9c12a67227c"},"vehicle_type_id":"4","last_reported":1752138834,"current_range_meters":18800,"station_id":"ce4bhm92rcd13ifvqglg","pricing_plan_id":"cebpf4jnsgd1na2vs0mg"},{"bike_id":"a3d06fdd-d90f-4da8-9200-8f61c005f0a2","system_id":"levelo_inurba_marseille","lat":43.22494,"lon":5.34774,"is_reserved":false,"is_disabled":false,"rental_uris":{"android":"levelo://app?vid=a3d06fdd-d90f-4da8-9200-8f61c005f0a2","ios":"levelo://app?vid=a3d06fdd-d90f-4da8-9200-8f61c005f0a2"},"vehicle_type_id":"4","last_reported":1752138834,"current_range_meters":18800,"station_id":"st_cvj5dfep6f1abm77gieg","pricing_plan_id":"cebpf4jnsgd1na2vs0mg"},{"bike_id":"156a6cbf-c8db-4d1b-9064-75655a043613","system_id":"levelo_inurba_marseille","lat":43.217497,"lon":5.346026,"is_reserved":false,"is_disabled":false,"rental_uris":{"android":"levelo://app?vid=156a6cbf-c8db-4d1b-9064-75655a043613","ios":"levelo://app?vid=156a6cbf-c8db-4d1b-9064-75655a043613"},"vehicle_type_id":"4","last_reported":1752138834,"current_range_meters":18800,"station_id":"st_cvj6r9ubvosntc0bgbag","pricing_plan_id":"cebpf4jnsgd1na2vs0mg"},{"bike_id":"4c20d321-0bc9-42d0-9308-79703d497ae9","system_id":"levelo_inurba_marseille","lat":43.284789,"lon":5.384169,"is_reserved":false,"is_disabled":false,"rental_uris":{"android":"levelo://app?vid=4c20d321-0bc9-42d0-9308-79703d497ae9","ios":"levelo://app?vid=4c20d321-0bc9-42d0-9308-79703d497ae9"},"vehicle_type_id":"4","last_reported":1752138834,"current_range_meters":19200,"station_id":"","pricing_plan_id":"cebpf4jnsgd1na2vs0mg"},{"bike_id":"cadcdd94-6f30-4473-bcb1-9df418f342aa","system_id":"levelo_inurba_marseille","lat":43.24395,"lon":5.37064,"is_reserved":false,"is_disabled":false,"rental_uris":{"android":"levelo://app?vid=cadcdd94-6f30-4473-bcb1-9df418f342aa","ios":"levelo://app?vid=cadcdd94-6f30-4473-bcb1-9df418f342aa"},"vehicle_type_id":"4","last_reported":1752138834,"current_range_meters":19200,"station_id":"ce4bhhh2rcd13ifvqfk0","pricing_plan_id":"cebpf4jnsgd1na2vs0mg"},{"bike_id":"a37c81c5-d096-4e6d-b1b3-5bbb8251fbd0","system_id":"levelo_inurba_marseille","lat":43.24372,"lon":5.37065,"is_reserved":false,"is_disabled":false,"rental_uris":{"android":"levelo://app?vid=a37c81c5-d096-4e6d-b1b3-5bbb8251fbd0","ios":"levelo://app?vid=a37c81c5-d096-4e6d-b1b3-5bbb8251fbd0"},"vehicle_type_id":"4","last_reported":1752138834,"current_range_meters":19200,"station_id":"ce4bhhh2rcd13ifvqfk0","pricing_plan_id":"cebpf4jnsgd1na2vs0mg"},{"bike_id":"ccd8088e-665d-407d-bc70-2c07bf9cec81","system_id":"levelo_inurba_marseille","lat":43.2293,"lon":5.35381,"is_reserved":false,"is_disabled":false,"rental_uris":{"android":"levelo://app?vid=ccd8088e-665d-407d-bc70-2c07bf9cec81","ios":"levelo://app?vid=ccd8088e-665d-407d-bc70-2c07bf9cec81"},"vehicle_type_id":"4","last_reported":1752138834,"current_range_meters":19200,"station_id":"cpo3532slgdg3j2ikp40","pricing_plan_id":"cebpf4jnsgd1na2vs0mg"},{"bike_id":"29a0a180-d29f-4a4e-a71b-d1d9d42cb217","system_id":"levelo_inurba_marseille","lat":43.211896,"lon":5.350713,"is_reserved":false,"is_disabled":false,"rental_uris":{"android":"levelo://app?vid=29a0a180-d29f-4a4e-a71b-d1d9d42cb217","ios":"levelo://app?vid=29a0a180-d29f-4a4e-a71b-d1d9d42cb217"},"vehicle_type_id":"4","last_reported":1752138834,"current_range_meters":19200,"station_id":"st_cvj6sg6p6f1abm77japg","pricing_plan_id":"cebpf4jnsgd1na2vs0mg"},{"bike_id":"595e9351-a7ce-45de-8995-771f7d9fe86e","system_id":"levelo_inurba_marseille","lat":43.309243,"lon":5.378088,"is_reserved":false,"is_disabled":false,"rental_uris":{"android":"levelo://app?vid=595e9351-a7ce-45de-8995-771f7d9fe86e","ios":"levelo://app?vid=595e9351-a7ce-45de-8995-771f7d9fe86e"},"vehicle_type_id":"4","last_reported":1752138834,"current_range_meters":19600,"station_id":"","pricing_plan_id":"cebpf4jnsgd1na2vs0mg"},{"bike_id":"ce82a454-d023-4138-afd3-541610425d63","system_id":"levelo_inurba_marseille","lat":43.295212,"lon":5.390417,"is_reserved":false,"is_disabled":false,"rental_uris":{"android":"levelo://app?vid=ce82a454-d023-4138-afd3-541610425d63","ios":"levelo://app?vid=ce82a454-d023-4138-afd3-541610425d63"},"vehicle_type_id":"4","last_reported":1752138834,"current_range_meters":19600,"station_id":"ce4bh3p2rcd13ifvqdp0","pricing_plan_id":"cebpf4jnsgd1na2vs0mg"},{"bike_id":"7466bcd8-9d0a-4c62-844e-d70d0bce4ab7","system_id":"levelo_inurba_marseille","lat":43.29055,"lon":5.35906,"is_reserved":false,"is_disabled":false,"rental_uris":{"android":"levelo://app?vid=7466bcd8-9d0a-4c62-844e-d70d0bce4ab7","ios":"levelo://app?vid=7466bcd8-9d0a-4c62-844e-d70d0bce4ab7"},"vehicle_type_id":"4","last_reported":1752138834,"current_range_meters":19600,"station_id":"ce4bha92rcd13ifvqeg0","pricing_plan_id":"cebpf4jnsgd1na2vs0mg"},{"bike_id":"d33cbabe-8724-4b7d-a873-a5476968f7d3","system_id":"levelo_inurba_marseille","lat":43.28404,"lon":5.34978,"is_reserved":false,"is_disabled":false,"rental_uris":{"android":"levelo://app?vid=d33cbabe-8724-4b7d-a873-a5476968f7d3","ios":"levelo://app?vid=d33cbabe-8724-4b7d-a873-a5476968f7d3"},"vehicle_type_id":"4","last_reported":1752138834,"current_range_meters":19600,"station_id":"ce4bhbh2rcd13ifvqepg","pricing_plan_id":"cebpf4jnsgd1na2vs0mg"},{"bike_id":"a772997c-52b4-4655-afac-b63fc06c4a2e","system_id":"levelo_inurba_marseille","lat":43.285709,"lon":5.394975,"is_reserved":false,"is_disabled":false,"rental_uris":{"android":"levelo://app?vid=a772997c-52b4-4655-afac-b63fc06c4a2e","ios":"levelo://app?vid=a772997c-52b4-4655-afac-b63fc06c4a2e"},"vehicle_type_id":"4","last_reported":1752138834,"current_range_meters":19600,"station_id":"ce4bho12rcd13ifvqh2g","pricing_plan_id":"cebpf4jnsgd1na2vs0mg"},{"bike_id":"6d526cf2-f7c6-43f0-8c10-b635af2f14a9","system_id":"levelo_inurba_marseille","lat":43.22935,"lon":5.35375,"is_reserved":false,"is_disabled":false,"rental_uris":{"android":"levelo://app?vid=6d526cf2-f7c6-43f0-8c10-b635af2f14a9","ios":"levelo://app?vid=6d526cf2-f7c6-43f0-8c10-b635af2f14a9"},"vehicle_type_id":"4","last_reported":1752138834,"current_range_meters":19600,"station_id":"cpo3532slgdg3j2ikp40","pricing_plan_id":"cebpf4jnsgd1na2vs0mg"},{"bike_id":"cb8db05c-7ef4-4fcf-b321-cdc13d7cccad","system_id":"levelo_inurba_marseille","lat":43.290737,"lon":5.35567,"is_reserved":false,"is_disabled":false,"rental_uris":{"android":"levelo://app?vid=cb8db05c-7ef4-4fcf-b321-cdc13d7cccad","ios":"levelo://app?vid=cb8db05c-7ef4-4fcf-b321-cdc13d7cccad"},"vehicle_type_id":"4","last_reported":1752138834,"current_range_meters":20000,"station_id":"","pricing_plan_id":"cebpf4jnsgd1na2vs0mg"},{"bike_id":"52bbed55-bb43-4609-aa14-ca80dd09df26","system_id":"levelo_inurba_marseille","lat":43.33768,"lon":5.37476,"is_reserved":false,"is_disabled":false,"rental_uris":{"android":"levelo://app?vid=52bbed55-bb43-4609-aa14-ca80dd09df26","ios":"levelo://app?vid=52bbed55-bb43-4609-aa14-ca80dd09df26"},"vehicle_type_id":"4","last_reported":1752138834,"current_range_meters":20000,"station_id":"","pricing_plan_id":"cebpf4jnsgd1na2vs0mg"},{"bike_id":"9e3a10a7-70d3-4248-bc9b-afea7755deec","system_id":"levelo_inurba_marseille","lat":43.293197,"lon":5.371747,"is_reserved":false,"is_disabled":false,"rental_uris":{"android":"levelo://app?vid=9e3a10a7-70d3-4248-bc9b-afea7755deec","ios":"levelo://app?vid=9e3a10a7-70d3-4248-bc9b-afea7755deec"},"vehicle_type_id":"4","last_reported":1752138834,"current_range_meters":20000,"station_id":"ce4bgh92rcd13ifvqb40","pricing_plan_id":"cebpf4jnsgd1na2vs0mg"},{"bike_id":"f1ed3ac6-bc81-40a0-8403-5deb5d5b5b49","system_id":"levelo_inurba_marseille","lat":43.29168,"lon":5.37166,"is_reserved":false,"is_disabled":false,"rental_uris":{"android":"levelo://app?vid=f1ed3ac6-bc81-40a0-8403-5deb5d5b5b49","ios":"levelo://app?vid=f1ed3ac6-bc81-40a0-8403-5deb5d5b5b49"},"vehicle_type_id":"4","last_reported":1752138834,"current_range_meters":20000,"station_id":"ce4bha92rcd13ifvqeh0","pricing_plan_id":"cebpf4jnsgd1na2vs0mg"},{"bike_id":"800b1751-81c4-40b8-ace8-ec2de651aab0","system_id":"levelo_inurba_marseille","lat":43.28421,"lon":5.34981,"is_reserved":false,"is_disabled":false,"rental_uris":{"android":"levelo://app?vid=800b1751-81c4-40b8-ace8-ec2de651aab0","ios":"levelo://app?vid=800b1751-81c4-40b8-ace8-ec2de651aab0"},"vehicle_type_id":"4","last_reported":1752138834,"current_range_meters":20000,"station_id":"ce4bhbh2rcd13ifvqepg","pricing_plan_id":"cebpf4jnsgd1na2vs0mg"},{"bike_id":"3f05c1ba-be58-4dd1-b0e5-a921fdb1040c","system_id":"levelo_inurba_marseille","lat":43.27975,"lon":5.38744,"is_reserved":false,"is_disabled":false,"rental_uris":{"android":"levelo://app?vid=3f05c1ba-be58-4dd1-b0e5-a921fdb1040c","ios":"levelo://app?vid=3f05c1ba-be58-4dd1-b0e5-a921fdb1040c"},"vehicle_type_id":"4","last_reported":1752138834,"current_range_meters":20000,"station_id":"ce4bhg12rcd13ifvqf80","pricing_plan_id":"cebpf4jnsgd1na2vs0mg"},{"bike_id":"3ed2e416-cc24-40a0-9fed-d1140ce34edd","system_id":"levelo_inurba_marseille","lat":43.27037,"lon":5.40281,"is_reserved":false,"is_disabled":false,"rental_uris":{"android":"levelo://app?vid=3ed2e416-cc24-40a0-9fed-d1140ce34edd","ios":"levelo://app?vid=3ed2e416-cc24-40a0-9fed-d1140ce34edd"},"vehicle_type_id":"4","last_reported":1752138834,"current_range_meters":20000,"station_id":"ce4bhk92rcd13ifvqgc0","pricing_plan_id":"cebpf4jnsgd1na2vs0mg"},{"bike_id":"d30caf52-2397-4e7f-8fa4-abe2a7db27b2","system_id":"levelo_inurba_marseille","lat":43.259377,"lon":5.408967,"is_reserved":false,"is_disabled":false,"rental_uris":{"android":"levelo://app?vid=d30caf52-2397-4e7f-8fa4-abe2a7db27b2","ios":"levelo://app?vid=d30caf52-2397-4e7f-8fa4-abe2a7db27b2"},"vehicle_type_id":"4","last_reported":1752138834,"current_range_meters":20000,"station_id":"ce4bhm92rcd13ifvqglg","pricing_plan_id":"cebpf4jnsgd1na2vs0mg"},{"bike_id":"046c0394-b120-4491-adc0-fce2b93696bc","system_id":"levelo_inurba_marseille","lat":43.25916,"lon":5.40891,"is_reserved":false,"is_disabled":false,"rental_uris":{"android":"levelo://app?vid=046c0394-b120-4491-adc0-fce2b93696bc","ios":"levelo://app?vid=046c0394-b120-4491-adc0-fce2b93696bc"},"vehicle_type_id":"4","last_reported":1752138834,"current_range_meters":20000,"station_id":"ce4bhm92rcd13ifvqglg","pricing_plan_id":"cebpf4jnsgd1na2vs0mg"},{"bike_id":"9f3c5f2e-d4be-4bd4-9865-c7acb5e49047","system_id":"levelo_inurba_marseille","lat":43.303795,"lon":5.42485,"is_reserved":false,"is_disabled":false,"rental_uris":{"android":"levelo://app?vid=9f3c5f2e-d4be-4bd4-9865-c7acb5e49047","ios":"levelo://app?vid=9f3c5f2e-d4be-4bd4-9865-c7acb5e49047"},"vehicle_type_id":"4","last_reported":1752138834,"current_range_meters":20000,"station_id":"ce4bhoh2rcd13ifvqh6g","pricing_plan_id":"cebpf4jnsgd1na2vs0mg"},{"bike_id":"e3a75ee9-c614-467b-8cc2-f813bcef2ab1","system_id":"levelo_inurba_marseille","lat":43.33743,"lon":5.3919,"is_reserved":false,"is_disabled":false,"rental_uris":{"android":"levelo://app?vid=e3a75ee9-c614-467b-8cc2-f813bcef2ab1","ios":"levelo://app?vid=e3a75ee9-c614-467b-8cc2-f813bcef2ab1"},"vehicle_type_id":"4","last_reported":1752138834,"current_range_meters":20000,"station_id":"ce4bhr92rcd13ifvqhsg","pricing_plan_id":"cebpf4jnsgd1na2vs0mg"},{"bike_id":"bc63cf6a-5655-40c0-b618-b45846f8e9aa","system_id":"levelo_inurba_marseille","lat":43.32098,"lon":5.36789,"is_reserved":false,"is_disabled":false,"rental_uris":{"android":"levelo://app?vid=bc63cf6a-5655-40c0-b618-b45846f8e9aa","ios":"levelo://app?vid=bc63cf6a-5655-40c0-b618-b45846f8e9aa"},"vehicle_type_id":"4","last_reported":1752138834,"current_range_meters":20000,"station_id":"ce4bhrh2rcd13ifvqhug","pricing_plan_id":"cebpf4jnsgd1na2vs0mg"},{"bike_id":"7ee46bf2-3199-410f-abd3-baf82dda3e89","system_id":"levelo_inurba_marseille","lat":43.28607,"lon":5.37062,"is_reserved":false,"is_disabled":false,"rental_uris":{"android":"levelo://app?vid=7ee46bf2-3199-410f-abd3-baf82dda3e89","ios":"levelo://app?vid=7ee46bf2-3199-410f-abd3-baf82dda3e89"},"vehicle_type_id":"4","last_reported":1752138834,"current_range_meters":20000,"station_id":"ce4bht12rcd13ifvqi60","pricing_plan_id":"cebpf4jnsgd1na2vs0mg"},{"bike_id":"4ca69d49-63d1-4772-9006-09bcfa098c08","system_id":"levelo_inurba_marseille","lat":43.26161,"lon":5.37468,"is_reserved":false,"is_disabled":false,"rental_uris":{"android":"levelo://app?vid=4ca69d49-63d1-4772-9006-09bcfa098c08","ios":"levelo://app?vid=4ca69d49-63d1-4772-9006-09bcfa098c08"},"vehicle_type_id":"4","last_reported":1752138834,"current_range_meters":20400,"station_id":"","pricing_plan_id":"cebpf4jnsgd1na2vs0mg"},{"bike_id":"a4ec11bb-3564-4bcb-a741-9a9daab4a909","system_id":"levelo_inurba_marseille","lat":43.30465,"lon":5.38213,"is_reserved":false,"is_disabled":false,"rental_uris":{"android":"levelo://app?vid=a4ec11bb-3564-4bcb-a741-9a9daab4a909","ios":"levelo://app?vid=a4ec11bb-3564-4bcb-a741-9a9daab4a909"},"vehicle_type_id":"4","last_reported":1752138834,"current_range_meters":20400,"station_id":"","pricing_plan_id":"cebpf4jnsgd1na2vs0mg"},{"bike_id":"56bed1a4-5623-4713-bc86-be18b419b626","system_id":"levelo_inurba_marseille","lat":43.28487,"lon":5.38405,"is_reserved":false,"is_disabled":false,"rental_uris":{"android":"levelo://app?vid=56bed1a4-5623-4713-bc86-be18b419b626","ios":"levelo://app?vid=56bed1a4-5623-4713-bc86-be18b419b626"},"vehicle_type_id":"4","last_reported":1752138834,"current_range_meters":20400,"station_id":"ce4bh512rcd13ifvqe3g","pricing_plan_id":"cebpf4jnsgd1na2vs0mg"},{"bike_id":"baded31f-14f6-420b-848e-602cf108c48b","system_id":"levelo_inurba_marseille","lat":43.27962,"lon":5.38704,"is_reserved":false,"is_disabled":false,"rental_uris":{"android":"levelo://app?vid=baded31f-14f6-420b-848e-602cf108c48b","ios":"levelo://app?vid=baded31f-14f6-420b-848e-602cf108c48b"},"vehicle_type_id":"4","last_reported":1752138834,"current_range_meters":20400,"station_id":"ce4bhg12rcd13ifvqf80","pricing_plan_id":"cebpf4jnsgd1na2vs0mg"},{"bike_id":"a11671c1-3afa-4977-92ba-76b5ac1b176c","system_id":"levelo_inurba_marseille","lat":43.24387,"lon":5.37061,"is_reserved":false,"is_disabled":false,"rental_uris":{"android":"levelo://app?vid=a11671c1-3afa-4977-92ba-76b5ac1b176c","ios":"levelo://app?vid=a11671c1-3afa-4977-92ba-76b5ac1b176c"},"vehicle_type_id":"4","last_reported":1752138834,"current_range_meters":20400,"station_id":"ce4bhhh2rcd13ifvqfk0","pricing_plan_id":"cebpf4jnsgd1na2vs0mg"},{"bike_id":"fde530d0-eeed-4692-bb9c-2c65ba0cdd9f","system_id":"levelo_inurba_marseille","lat":43.308505,"lon":5.42575,"is_reserved":false,"is_disabled":false,"rental_uris":{"android":"levelo://app?vid=fde530d0-eeed-4692-bb9c-2c65ba0cdd9f","ios":"levelo://app?vid=fde530d0-eeed-4692-bb9c-2c65ba0cdd9f"},"vehicle_type_id":"4","last_reported":1752138834,"current_range_meters":20800,"station_id":"","pricing_plan_id":"cebpf4jnsgd1na2vs0mg"},{"bike_id":"6205e2fc-2dad-471e-bf31-561a49f4a110","system_id":"levelo_inurba_marseille","lat":43.29303,"lon":5.37453,"is_reserved":false,"is_disabled":false,"rental_uris":{"android":"levelo://app?vid=6205e2fc-2dad-471e-bf31-561a49f4a110","ios":"levelo://app?vid=6205e2fc-2dad-471e-bf31-561a49f4a110"},"vehicle_type_id":"4","last_reported":1752138834,"current_range_meters":20800,"station_id":"ce4bgi12rcd13ifvqb70","pricing_plan_id":"cebpf4jnsgd1na2vs0mg"},{"bike_id":"4eb3e89a-7968-47c0-8e0f-6c6a788dca56","system_id":"levelo_inurba_marseille","lat":43.29846,"lon":5.36266,"is_reserved":false,"is_disabled":false,"rental_uris":{"android":"levelo://app?vid=4eb3e89a-7968-47c0-8e0f-6c6a788dca56","ios":"levelo://app?vid=4eb3e89a-7968-47c0-8e0f-6c6a788dca56"},"vehicle_type_id":"4","last_reported":1752138834,"current_range_meters":20800,"station_id":"ce4bgpp2rcd13ifvqc3g","pricing_plan_id":"cebpf4jnsgd1na2vs0mg"},{"bike_id":"db0a00d3-7eb3-42f3-b10c-d4190ef1015b","system_id":"levelo_inurba_marseille","lat":43.25588,"lon":5.3822,"is_reserved":false,"is_disabled":false,"rental_uris":{"android":"levelo://app?vid=db0a00d3-7eb3-42f3-b10c-d4190ef1015b","ios":"levelo://app?vid=db0a00d3-7eb3-42f3-b10c-d4190ef1015b"},"vehicle_type_id":"4","last_reported":1752138834,"current_range_meters":20800,"station_id":"ce4bhih2rcd13ifvqfs0","pricing_plan_id":"cebpf4jnsgd1na2vs0mg"},{"bike_id":"5e4bb725-0a7c-42b6-8717-a55d114feeb5","system_id":"levelo_inurba_marseille","lat":43.32478,"lon":5.36568,"is_reserved":false,"is_disabled":false,"rental_uris":{"android":"levelo://app?vid=5e4bb725-0a7c-42b6-8717-a55d114feeb5","ios":"levelo://app?vid=5e4bb725-0a7c-42b6-8717-a55d114feeb5"},"vehicle_type_id":"4","last_reported":1752138834,"current_range_meters":20800,"station_id":"ce4bhs12rcd13ifvqhvg","pricing_plan_id":"cebpf4jnsgd1na2vs0mg"},{"bike_id":"06ec5e73-7c37-4d7d-9933-e904369ec74e","system_id":"levelo_inurba_marseille","lat":43.32367,"lon":5.36757,"is_reserved":false,"is_disabled":false,"rental_uris":{"android":"levelo://app?vid=06ec5e73-7c37-4d7d-9933-e904369ec74e","ios":"levelo://app?vid=06ec5e73-7c37-4d7d-9933-e904369ec74e"},"vehicle_type_id":"4","last_reported":1752138834,"current_range_meters":20800,"station_id":"ce4bhsh2rcd13ifvqi2g","pricing_plan_id":"cebpf4jnsgd1na2vs0mg"},{"bike_id":"495b42e7-c480-4c9f-af1d-45f0e83f40b6","system_id":"levelo_inurba_marseille","lat":43.21746,"lon":5.34607,"is_reserved":false,"is_disabled":false,"rental_uris":{"android":"levelo://app?vid=495b42e7-c480-4c9f-af1d-45f0e83f40b6","ios":"levelo://app?vid=495b42e7-c480-4c9f-af1d-45f0e83f40b6"},"vehicle_type_id":"4","last_reported":1752138834,"current_range_meters":20800,"station_id":"st_cvj6r9ubvosntc0bgbag","pricing_plan_id":"cebpf4jnsgd1na2vs0mg"},{"bike_id":"5a92189b-852f-477c-8c45-d37c5039b49a","system_id":"levelo_inurba_marseille","lat":43.30138,"lon":5.38072,"is_reserved":false,"is_disabled":false,"rental_uris":{"android":"levelo://app?vid=5a92189b-852f-477c-8c45-d37c5039b49a","ios":"levelo://app?vid=5a92189b-852f-477c-8c45-d37c5039b49a"},"vehicle_type_id":"4","last_reported":1752138834,"current_range_meters":21600,"station_id":"ce4bgjp2rcd13ifvqbh0","pricing_plan_id":"cebpf4jnsgd1na2vs0mg"},{"bike_id":"d5e85d38-b2bb-49a0-8ef4-5a19cd695751","system_id":"levelo_inurba_marseille","lat":43.28107,"lon":5.37834,"is_reserved":false,"is_disabled":false,"rental_uris":{"android":"levelo://app?vid=d5e85d38-b2bb-49a0-8ef4-5a19cd695751","ios":"levelo://app?vid=d5e85d38-b2bb-49a0-8ef4-5a19cd695751"},"vehicle_type_id":"4","last_reported":1752138834,"current_range_meters":21600,"station_id":"ce4bha12rcd13ifvqee0","pricing_plan_id":"cebpf4jnsgd1na2vs0mg"},{"bike_id":"cfcaf7e3-3bfc-4d26-97cd-3b9e218c69aa","system_id":"levelo_inurba_marseille","lat":43.2827,"lon":5.35062,"is_reserved":false,"is_disabled":false,"rental_uris":{"android":"levelo://app?vid=cfcaf7e3-3bfc-4d26-97cd-3b9e218c69aa","ios":"levelo://app?vid=cfcaf7e3-3bfc-4d26-97cd-3b9e218c69aa"},"vehicle_type_id":"4","last_reported":1752138834,"current_range_meters":21600,"station_id":"ce4bhbp2rcd13ifvqerg","pricing_plan_id":"cebpf4jnsgd1na2vs0mg"},{"bike_id":"b8cd50f2-4dd9-415d-9ee4-6aec216879f2","system_id":"levelo_inurba_marseille","lat":43.26697,"lon":5.38251,"is_reserved":false,"is_disabled":false,"rental_uris":{"android":"levelo://app?vid=b8cd50f2-4dd9-415d-9ee4-6aec216879f2","ios":"levelo://app?vid=b8cd50f2-4dd9-415d-9ee4-6aec216879f2"},"vehicle_type_id":"4","last_reported":1752138834,"current_range_meters":21600,"station_id":"ce4bhg92rcd13ifvqf90","pricing_plan_id":"cebpf4jnsgd1na2vs0mg"},{"bike_id":"964059b0-e6e4-4a2e-8f94-56b7ad9c5f3c","system_id":"levelo_inurba_marseille","lat":43.25493,"lon":5.37664,"is_reserved":false,"is_disabled":false,"rental_uris":{"android":"levelo://app?vid=964059b0-e6e4-4a2e-8f94-56b7ad9c5f3c","ios":"levelo://app?vid=964059b0-e6e4-4a2e-8f94-56b7ad9c5f3c"},"vehicle_type_id":"4","last_reported":1752138834,"current_range_meters":21600,"station_id":"ce4bhh12rcd13ifvqff0","pricing_plan_id":"cebpf4jnsgd1na2vs0mg"},{"bike_id":"08b86981-7d14-42d7-8c0b-9c4d988dcb09","system_id":"levelo_inurba_marseille","lat":43.24545,"lon":5.39525,"is_reserved":false,"is_disabled":false,"rental_uris":{"android":"levelo://app?vid=08b86981-7d14-42d7-8c0b-9c4d988dcb09","ios":"levelo://app?vid=08b86981-7d14-42d7-8c0b-9c4d988dcb09"},"vehicle_type_id":"4","last_reported":1752138834,"current_range_meters":21600,"station_id":"ce4bhlp2rcd13ifvqgjg","pricing_plan_id":"cebpf4jnsgd1na2vs0mg"},{"bike_id":"5fa281ea-b2b7-4806-a59d-87d02c76b268","system_id":"levelo_inurba_marseille","lat":43.25916,"lon":5.4089,"is_reserved":false,"is_disabled":false,"rental_uris":{"android":"levelo://app?vid=5fa281ea-b2b7-4806-a59d-87d02c76b268","ios":"levelo://app?vid=5fa281ea-b2b7-4806-a59d-87d02c76b268"},"vehicle_type_id":"4","last_reported":1752138834,"current_range_meters":21600,"station_id":"ce4bhm92rcd13ifvqglg","pricing_plan_id":"cebpf4jnsgd1na2vs0mg"},{"bike_id":"7b5cd6ce-df57-4328-854d-cb2d1407ab18","system_id":"levelo_inurba_marseille","lat":43.33023,"lon":5.39053,"is_reserved":false,"is_disabled":false,"rental_uris":{"android":"levelo://app?vid=7b5cd6ce-df57-4328-854d-cb2d1407ab18","ios":"levelo://app?vid=7b5cd6ce-df57-4328-854d-cb2d1407ab18"},"vehicle_type_id":"4","last_reported":1752138834,"current_range_meters":21600,"station_id":"ce4bhr92rcd13ifvqhrg","pricing_plan_id":"cebpf4jnsgd1na2vs0mg"},{"bike_id":"dafa5a87-b26d-4379-9a6b-1f02133b78a6","system_id":"levelo_inurba_marseille","lat":43.211902,"lon":5.350689,"is_reserved":false,"is_disabled":false,"rental_uris":{"android":"levelo://app?vid=dafa5a87-b26d-4379-9a6b-1f02133b78a6","ios":"levelo://app?vid=dafa5a87-b26d-4379-9a6b-1f02133b78a6"},"vehicle_type_id":"4","last_reported":1752138834,"current_range_meters":21600,"station_id":"st_cvj6sg6p6f1abm77japg","pricing_plan_id":"cebpf4jnsgd1na2vs0mg"},{"bike_id":"37b84a38-055a-4a6e-a56a-8ff3d0c1b2ec","system_id":"levelo_inurba_marseille","lat":43.21202,"lon":5.35079,"is_reserved":false,"is_disabled":false,"rental_uris":{"android":"levelo://app?vid=37b84a38-055a-4a6e-a56a-8ff3d0c1b2ec","ios":"levelo://app?vid=37b84a38-055a-4a6e-a56a-8ff3d0c1b2ec"},"vehicle_type_id":"4","last_reported":1752138834,"current_range_meters":21600,"station_id":"st_cvj6sg6p6f1abm77japg","pricing_plan_id":"cebpf4jnsgd1na2vs0mg"},{"bike_id":"dc71cfe7-dd5b-4120-8a55-db3cfcbd08fa","system_id":"levelo_inurba_marseille","lat":43.27838,"lon":5.37435,"is_reserved":false,"is_disabled":false,"rental_uris":{"android":"levelo://app?vid=dc71cfe7-dd5b-4120-8a55-db3cfcbd08fa","ios":"levelo://app?vid=dc71cfe7-dd5b-4120-8a55-db3cfcbd08fa"},"vehicle_type_id":"4","last_reported":1752138834,"current_range_meters":22000,"station_id":"","pricing_plan_id":"cebpf4jnsgd1na2vs0mg"},{"bike_id":"4b13f0f2-3808-456a-b409-65e2d4ffb9c9","system_id":"levelo_inurba_marseille","lat":43.30559,"lon":5.3669,"is_reserved":false,"is_disabled":false,"rental_uris":{"android":"levelo://app?vid=4b13f0f2-3808-456a-b409-65e2d4ffb9c9","ios":"levelo://app?vid=4b13f0f2-3808-456a-b409-65e2d4ffb9c9"},"vehicle_type_id":"4","last_reported":1752138834,"current_range_meters":22000,"station_id":"ce4bgrp2rcd13ifvqc9g","pricing_plan_id":"cebpf4jnsgd1na2vs0mg"},{"bike_id":"e8ae14dc-e51d-4bb9-9f22-0ee34cf1122b","system_id":"levelo_inurba_marseille","lat":43.30951,"lon":5.3904,"is_reserved":false,"is_disabled":false,"rental_uris":{"android":"levelo://app?vid=e8ae14dc-e51d-4bb9-9f22-0ee34cf1122b","ios":"levelo://app?vid=e8ae14dc-e51d-4bb9-9f22-0ee34cf1122b"},"vehicle_type_id":"4","last_reported":1752138834,"current_range_meters":22000,"station_id":"ce4bgup2rcd13ifvqco0","pricing_plan_id":"cebpf4jnsgd1na2vs0mg"},{"bike_id":"fc2f2fc1-dfd7-4df0-a884-3f73196a2b3e","system_id":"levelo_inurba_marseille","lat":43.25926,"lon":5.40906,"is_reserved":false,"is_disabled":false,"rental_uris":{"android":"levelo://app?vid=fc2f2fc1-dfd7-4df0-a884-3f73196a2b3e","ios":"levelo://app?vid=fc2f2fc1-dfd7-4df0-a884-3f73196a2b3e"},"vehicle_type_id":"4","last_reported":1752138834,"current_range_meters":22000,"station_id":"ce4bhm92rcd13ifvqglg","pricing_plan_id":"cebpf4jnsgd1na2vs0mg"},{"bike_id":"65c6d2d7-a7dc-45ec-9f2f-fb7430e6281d","system_id":"levelo_inurba_marseille","lat":43.32346,"lon":5.36728,"is_reserved":false,"is_disabled":false,"rental_uris":{"android":"levelo://app?vid=65c6d2d7-a7dc-45ec-9f2f-fb7430e6281d","ios":"levelo://app?vid=65c6d2d7-a7dc-45ec-9f2f-fb7430e6281d"},"vehicle_type_id":"4","last_reported":1752138834,"current_range_meters":22000,"station_id":"ce4bhsh2rcd13ifvqi2g","pricing_plan_id":"cebpf4jnsgd1na2vs0mg"},{"bike_id":"7f5051af-bec0-45f2-a210-88095fee74d4","system_id":"levelo_inurba_marseille","lat":43.21753,"lon":5.346,"is_reserved":false,"is_disabled":false,"rental_uris":{"android":"levelo://app?vid=7f5051af-bec0-45f2-a210-88095fee74d4","ios":"levelo://app?vid=7f5051af-bec0-45f2-a210-88095fee74d4"},"vehicle_type_id":"4","last_reported":1752138834,"current_range_meters":22000,"station_id":"st_cvj6r9ubvosntc0bgbag","pricing_plan_id":"cebpf4jnsgd1na2vs0mg"},{"bike_id":"0fdbfa71-2a8e-49c7-9f88-38b5ed6ae89d","system_id":"levelo_inurba_marseille","lat":43.28127,"lon":5.389052,"is_reserved":false,"is_disabled":false,"rental_uris":{"android":"levelo://app?vid=0fdbfa71-2a8e-49c7-9f88-38b5ed6ae89d","ios":"levelo://app?vid=0fdbfa71-2a8e-49c7-9f88-38b5ed6ae89d"},"vehicle_type_id":"4","last_reported":1752138834,"current_range_meters":22400,"station_id":"","pricing_plan_id":"cebpf4jnsgd1na2vs0mg"},{"bike_id":"5f9facdb-d1e1-40e1-8ceb-766e4b9ac193","system_id":"levelo_inurba_marseille","lat":43.21754,"lon":5.345992,"is_reserved":false,"is_disabled":false,"rental_uris":{"android":"levelo://app?vid=5f9facdb-d1e1-40e1-8ceb-766e4b9ac193","ios":"levelo://app?vid=5f9facdb-d1e1-40e1-8ceb-766e4b9ac193"},"vehicle_type_id":"4","last_reported":1752138834,"current_range_meters":22400,"station_id":"","pricing_plan_id":"cebpf4jnsgd1na2vs0mg"},{"bike_id":"43b90c82-97e0-4fa7-8b67-2448f07d529e","system_id":"levelo_inurba_marseille","lat":43.211903,"lon":5.350713,"is_reserved":false,"is_disabled":false,"rental_uris":{"android":"levelo://app?vid=43b90c82-97e0-4fa7-8b67-2448f07d529e","ios":"levelo://app?vid=43b90c82-97e0-4fa7-8b67-2448f07d529e"},"vehicle_type_id":"4","last_reported":1752138834,"current_range_meters":22400,"station_id":"","pricing_plan_id":"cebpf4jnsgd1na2vs0mg"},{"bike_id":"046fa2a0-9fb2-4690-9995-70f0621686d6","system_id":"levelo_inurba_marseille","lat":43.259398,"lon":5.409035,"is_reserved":false,"is_disabled":false,"rental_uris":{"android":"levelo://app?vid=046fa2a0-9fb2-4690-9995-70f0621686d6","ios":"levelo://app?vid=046fa2a0-9fb2-4690-9995-70f0621686d6"},"vehicle_type_id":"4","last_reported":1752138834,"current_range_meters":22400,"station_id":"","pricing_plan_id":"cebpf4jnsgd1na2vs0mg"},{"bike_id":"dbba3321-20c7-4989-a7b5-ea9ab2c4b3e8","system_id":"levelo_inurba_marseille","lat":43.261935,"lon":5.374477,"is_reserved":false,"is_disabled":false,"rental_uris":{"android":"levelo://app?vid=dbba3321-20c7-4989-a7b5-ea9ab2c4b3e8","ios":"levelo://app?vid=dbba3321-20c7-4989-a7b5-ea9ab2c4b3e8"},"vehicle_type_id":"4","last_reported":1752138834,"current_range_meters":22400,"station_id":"ce4bhgp2rcd13ifvqfc0","pricing_plan_id":"cebpf4jnsgd1na2vs0mg"},{"bike_id":"64f10ec8-b23a-4bf1-ae67-d220a1529eb7","system_id":"levelo_inurba_marseille","lat":43.27359,"lon":5.39119,"is_reserved":false,"is_disabled":false,"rental_uris":{"android":"levelo://app?vid=64f10ec8-b23a-4bf1-ae67-d220a1529eb7","ios":"levelo://app?vid=64f10ec8-b23a-4bf1-ae67-d220a1529eb7"},"vehicle_type_id":"4","last_reported":1752138834,"current_range_meters":22800,"station_id":"","pricing_plan_id":"cebpf4jnsgd1na2vs0mg"},{"bike_id":"cc9fe713-d8e8-4598-9f40-2c11a3269e81","system_id":"levelo_inurba_marseille","lat":43.29785,"lon":5.38099,"is_reserved":false,"is_disabled":false,"rental_uris":{"android":"levelo://app?vid=cc9fe713-d8e8-4598-9f40-2c11a3269e81","ios":"levelo://app?vid=cc9fe713-d8e8-4598-9f40-2c11a3269e81"},"vehicle_type_id":"4","last_reported":1752138834,"current_range_meters":22800,"station_id":"","pricing_plan_id":"cebpf4jnsgd1na2vs0mg"},{"bike_id":"5ae531d6-5e79-4ecd-8681-9f5984e7d552","system_id":"levelo_inurba_marseille","lat":43.30805,"lon":5.38163,"is_reserved":false,"is_disabled":false,"rental_uris":{"android":"levelo://app?vid=5ae531d6-5e79-4ecd-8681-9f5984e7d552","ios":"levelo://app?vid=5ae531d6-5e79-4ecd-8681-9f5984e7d552"},"vehicle_type_id":"4","last_reported":1752138834,"current_range_meters":22800,"station_id":"ce4bgt12rcd13ifvqce0","pricing_plan_id":"cebpf4jnsgd1na2vs0mg"},{"bike_id":"586d7fea-c764-4b1f-8ef5-988eefc9918b","system_id":"levelo_inurba_marseille","lat":43.3028,"lon":5.37705,"is_reserved":false,"is_disabled":false,"rental_uris":{"android":"levelo://app?vid=586d7fea-c764-4b1f-8ef5-988eefc9918b","ios":"levelo://app?vid=586d7fea-c764-4b1f-8ef5-988eefc9918b"},"vehicle_type_id":"4","last_reported":1752138834,"current_range_meters":22800,"station_id":"ce4bguh2rcd13ifvqcj0","pricing_plan_id":"cebpf4jnsgd1na2vs0mg"},{"bike_id":"60874c31-8863-473e-b6cb-37b5bb31df57","system_id":"levelo_inurba_marseille","lat":43.28266,"lon":5.35067,"is_reserved":false,"is_disabled":false,"rental_uris":{"android":"levelo://app?vid=60874c31-8863-473e-b6cb-37b5bb31df57","ios":"levelo://app?vid=60874c31-8863-473e-b6cb-37b5bb31df57"},"vehicle_type_id":"4","last_reported":1752138834,"current_range_meters":22800,"station_id":"ce4bhbp2rcd13ifvqerg","pricing_plan_id":"cebpf4jnsgd1na2vs0mg"},{"bike_id":"b6dcd2c1-0d76-4767-8413-3866b661d382","system_id":"levelo_inurba_marseille","lat":43.279464,"lon":5.410497,"is_reserved":false,"is_disabled":false,"rental_uris":{"android":"levelo://app?vid=b6dcd2c1-0d76-4767-8413-3866b661d382","ios":"levelo://app?vid=b6dcd2c1-0d76-4767-8413-3866b661d382"},"vehicle_type_id":"4","last_reported":1752138834,"current_range_meters":22800,"station_id":"ce4bhnp2rcd13ifvqh0g","pricing_plan_id":"cebpf4jnsgd1na2vs0mg"},{"bike_id":"03373532-34cd-4f0c-8eb3-d271c86692ac","system_id":"levelo_inurba_marseille","lat":43.3236,"lon":5.38892,"is_reserved":false,"is_disabled":false,"rental_uris":{"android":"levelo://app?vid=03373532-34cd-4f0c-8eb3-d271c86692ac","ios":"levelo://app?vid=03373532-34cd-4f0c-8eb3-d271c86692ac"},"vehicle_type_id":"4","last_reported":1752138834,"current_range_meters":22800,"station_id":"ce4bhqp2rcd13ifvqhog","pricing_plan_id":"cebpf4jnsgd1na2vs0mg"},{"bike_id":"96d4fa0b-a0f0-4fc1-b968-cfc03cd023a6","system_id":"levelo_inurba_marseille","lat":43.28617,"lon":5.35105,"is_reserved":false,"is_disabled":false,"rental_uris":{"android":"levelo://app?vid=96d4fa0b-a0f0-4fc1-b968-cfc03cd023a6","ios":"levelo://app?vid=96d4fa0b-a0f0-4fc1-b968-cfc03cd023a6"},"vehicle_type_id":"4","last_reported":1752138834,"current_range_meters":23200,"station_id":"ce4bhch2rcd13ifvqeug","pricing_plan_id":"cebpf4jnsgd1na2vs0mg"},{"bike_id":"800f3b4e-7d0c-45cf-8eb2-da850abe107f","system_id":"levelo_inurba_marseille","lat":43.26682,"lon":5.38263,"is_reserved":false,"is_disabled":false,"rental_uris":{"android":"levelo://app?vid=800f3b4e-7d0c-45cf-8eb2-da850abe107f","ios":"levelo://app?vid=800f3b4e-7d0c-45cf-8eb2-da850abe107f"},"vehicle_type_id":"4","last_reported":1752138834,"current_range_meters":23200,"station_id":"ce4bhg92rcd13ifvqf90","pricing_plan_id":"cebpf4jnsgd1na2vs0mg"},{"bike_id":"a0419746-6e10-4f26-9315-4e5e1d9cd1d2","system_id":"levelo_inurba_marseille","lat":43.24393,"lon":5.37065,"is_reserved":false,"is_disabled":false,"rental_uris":{"android":"levelo://app?vid=a0419746-6e10-4f26-9315-4e5e1d9cd1d2","ios":"levelo://app?vid=a0419746-6e10-4f26-9315-4e5e1d9cd1d2"},"vehicle_type_id":"4","last_reported":1752138834,"current_range_meters":23200,"station_id":"ce4bhhh2rcd13ifvqfk0","pricing_plan_id":"cebpf4jnsgd1na2vs0mg"},{"bike_id":"6a7099b5-2747-4f5a-9d33-b0f90b21119f","system_id":"levelo_inurba_marseille","lat":43.24394,"lon":5.37056,"is_reserved":false,"is_disabled":false,"rental_uris":{"android":"levelo://app?vid=6a7099b5-2747-4f5a-9d33-b0f90b21119f","ios":"levelo://app?vid=6a7099b5-2747-4f5a-9d33-b0f90b21119f"},"vehicle_type_id":"4","last_reported":1752138834,"current_range_meters":23200,"station_id":"ce4bhhh2rcd13ifvqfk0","pricing_plan_id":"cebpf4jnsgd1na2vs0mg"},{"bike_id":"6eec44b7-277a-4964-9b69-aee4eee98dfc","system_id":"levelo_inurba_marseille","lat":43.27055,"lon":5.40261,"is_reserved":false,"is_disabled":false,"rental_uris":{"android":"levelo://app?vid=6eec44b7-277a-4964-9b69-aee4eee98dfc","ios":"levelo://app?vid=6eec44b7-277a-4964-9b69-aee4eee98dfc"},"vehicle_type_id":"4","last_reported":1752138834,"current_range_meters":23200,"station_id":"ce4bhk92rcd13ifvqgc0","pricing_plan_id":"cebpf4jnsgd1na2vs0mg"},{"bike_id":"5ae85738-9486-4adc-9ec2-69859a6b642b","system_id":"levelo_inurba_marseille","lat":43.23163,"lon":5.43711,"is_reserved":false,"is_disabled":false,"rental_uris":{"android":"levelo://app?vid=5ae85738-9486-4adc-9ec2-69859a6b642b","ios":"levelo://app?vid=5ae85738-9486-4adc-9ec2-69859a6b642b"},"vehicle_type_id":"4","last_reported":1752138834,"current_range_meters":23200,"station_id":"ce4bhmp2rcd13ifvqgog","pricing_plan_id":"cebpf4jnsgd1na2vs0mg"},{"bike_id":"04396914-5239-4886-9b1a-aff52fc6a209","system_id":"levelo_inurba_marseille","lat":43.23195,"lon":5.39984,"is_reserved":false,"is_disabled":false,"rental_uris":{"android":"levelo://app?vid=04396914-5239-4886-9b1a-aff52fc6a209","ios":"levelo://app?vid=04396914-5239-4886-9b1a-aff52fc6a209"},"vehicle_type_id":"4","last_reported":1752138834,"current_range_meters":23200,"station_id":"ce4bhn12rcd13ifvqgqg","pricing_plan_id":"cebpf4jnsgd1na2vs0mg"},{"bike_id":"d2191847-bfce-41b3-a3bd-67bae65b9b15","system_id":"levelo_inurba_marseille","lat":43.337306,"lon":5.391846,"is_reserved":false,"is_disabled":false,"rental_uris":{"android":"levelo://app?vid=d2191847-bfce-41b3-a3bd-67bae65b9b15","ios":"levelo://app?vid=d2191847-bfce-41b3-a3bd-67bae65b9b15"},"vehicle_type_id":"4","last_reported":1752138834,"current_range_meters":23200,"station_id":"ce4bhr92rcd13ifvqhsg","pricing_plan_id":"cebpf4jnsgd1na2vs0mg"},{"bike_id":"953ea83f-a4ea-4034-85d4-e09bef5b921a","system_id":"levelo_inurba_marseille","lat":43.22504,"lon":5.34784,"is_reserved":false,"is_disabled":false,"rental_uris":{"android":"levelo://app?vid=953ea83f-a4ea-4034-85d4-e09bef5b921a","ios":"levelo://app?vid=953ea83f-a4ea-4034-85d4-e09bef5b921a"},"vehicle_type_id":"4","last_reported":1752138834,"current_range_meters":23200,"station_id":"st_cvj5dfep6f1abm77gieg","pricing_plan_id":"cebpf4jnsgd1na2vs0mg"},{"bike_id":"e86ba8c9-208d-482c-a826-4c100938472a","system_id":"levelo_inurba_marseille","lat":43.21196,"lon":5.35063,"is_reserved":false,"is_disabled":false,"rental_uris":{"android":"levelo://app?vid=e86ba8c9-208d-482c-a826-4c100938472a","ios":"levelo://app?vid=e86ba8c9-208d-482c-a826-4c100938472a"},"vehicle_type_id":"4","last_reported":1752138834,"current_range_meters":23200,"station_id":"st_cvj6sg6p6f1abm77japg","pricing_plan_id":"cebpf4jnsgd1na2vs0mg"},{"bike_id":"b42d7c38-1c82-4226-bfd8-fc44d3a3ea22","system_id":"levelo_inurba_marseille","lat":43.31144,"lon":5.36828,"is_reserved":false,"is_disabled":false,"rental_uris":{"android":"levelo://app?vid=b42d7c38-1c82-4226-bfd8-fc44d3a3ea22","ios":"levelo://app?vid=b42d7c38-1c82-4226-bfd8-fc44d3a3ea22"},"vehicle_type_id":"4","last_reported":1752138834,"current_range_meters":24000,"station_id":"","pricing_plan_id":"cebpf4jnsgd1na2vs0mg"},{"bike_id":"b8ecced1-4614-4116-a1de-5fc89f85851b","system_id":"levelo_inurba_marseille","lat":43.31695,"lon":5.40464,"is_reserved":false,"is_disabled":false,"rental_uris":{"android":"levelo://app?vid=b8ecced1-4614-4116-a1de-5fc89f85851b","ios":"levelo://app?vid=b8ecced1-4614-4116-a1de-5fc89f85851b"},"vehicle_type_id":"4","last_reported":1752138834,"current_range_meters":24000,"station_id":"ce4bh012rcd13ifvqd00","pricing_plan_id":"cebpf4jnsgd1na2vs0mg"},{"bike_id":"14adb9e6-3d90-40ef-aca3-0c283a2873bc","system_id":"levelo_inurba_marseille","lat":43.28434,"lon":5.34997,"is_reserved":false,"is_disabled":false,"rental_uris":{"android":"levelo://app?vid=14adb9e6-3d90-40ef-aca3-0c283a2873bc","ios":"levelo://app?vid=14adb9e6-3d90-40ef-aca3-0c283a2873bc"},"vehicle_type_id":"4","last_reported":1752138834,"current_range_meters":24000,"station_id":"ce4bhbh2rcd13ifvqepg","pricing_plan_id":"cebpf4jnsgd1na2vs0mg"},{"bike_id":"00d8b942-c562-441b-ab76-f6181dd95525","system_id":"levelo_inurba_marseille","lat":43.24651,"lon":5.38888,"is_reserved":false,"is_disabled":false,"rental_uris":{"android":"levelo://app?vid=00d8b942-c562-441b-ab76-f6181dd95525","ios":"levelo://app?vid=00d8b942-c562-441b-ab76-f6181dd95525"},"vehicle_type_id":"4","last_reported":1752138834,"current_range_meters":24000,"station_id":"ce4bhg12rcd13ifvqf60","pricing_plan_id":"cebpf4jnsgd1na2vs0mg"},{"bike_id":"232fe40c-43d4-4abc-a4f0-57ce741956e5","system_id":"levelo_inurba_marseille","lat":43.25586,"lon":5.38239,"is_reserved":false,"is_disabled":false,"rental_uris":{"android":"levelo://app?vid=232fe40c-43d4-4abc-a4f0-57ce741956e5","ios":"levelo://app?vid=232fe40c-43d4-4abc-a4f0-57ce741956e5"},"vehicle_type_id":"4","last_reported":1752138834,"current_range_meters":24000,"station_id":"ce4bhih2rcd13ifvqfs0","pricing_plan_id":"cebpf4jnsgd1na2vs0mg"},{"bike_id":"86fe5d5d-06ca-4e50-b52e-bdbbe251d1da","system_id":"levelo_inurba_marseille","lat":43.24552,"lon":5.39512,"is_reserved":false,"is_disabled":false,"rental_uris":{"android":"levelo://app?vid=86fe5d5d-06ca-4e50-b52e-bdbbe251d1da","ios":"levelo://app?vid=86fe5d5d-06ca-4e50-b52e-bdbbe251d1da"},"vehicle_type_id":"4","last_reported":1752138834,"current_range_meters":24000,"station_id":"ce4bhlp2rcd13ifvqgjg","pricing_plan_id":"cebpf4jnsgd1na2vs0mg"},{"bike_id":"8eb2a8e0-faef-4b10-81ff-e5b450ae5b35","system_id":"levelo_inurba_marseille","lat":43.3173,"lon":5.42392,"is_reserved":false,"is_disabled":false,"rental_uris":{"android":"levelo://app?vid=8eb2a8e0-faef-4b10-81ff-e5b450ae5b35","ios":"levelo://app?vid=8eb2a8e0-faef-4b10-81ff-e5b450ae5b35"},"vehicle_type_id":"4","last_reported":1752138834,"current_range_meters":24000,"station_id":"ce4bhp92rcd13ifvqhbg","pricing_plan_id":"cebpf4jnsgd1na2vs0mg"},{"bike_id":"452e8211-4f44-45d0-814a-3e9e25b8c44e","system_id":"levelo_inurba_marseille","lat":43.211943,"lon":5.350745,"is_reserved":false,"is_disabled":false,"rental_uris":{"android":"levelo://app?vid=452e8211-4f44-45d0-814a-3e9e25b8c44e","ios":"levelo://app?vid=452e8211-4f44-45d0-814a-3e9e25b8c44e"},"vehicle_type_id":"4","last_reported":1752138834,"current_range_meters":24000,"station_id":"st_cvj6sg6p6f1abm77japg","pricing_plan_id":"cebpf4jnsgd1na2vs0mg"},{"bike_id":"6a445661-c27f-4e83-8005-f07873db907e","system_id":"levelo_inurba_marseille","lat":43.30518,"lon":5.36538,"is_reserved":false,"is_disabled":false,"rental_uris":{"android":"levelo://app?vid=6a445661-c27f-4e83-8005-f07873db907e","ios":"levelo://app?vid=6a445661-c27f-4e83-8005-f07873db907e"},"vehicle_type_id":"4","last_reported":1752138834,"current_range_meters":24400,"station_id":"","pricing_plan_id":"cebpf4jnsgd1na2vs0mg"},{"bike_id":"5fae4696-4745-4bfd-b3fa-9c8f72e406b8","system_id":"levelo_inurba_marseille","lat":43.21749,"lon":5.34599,"is_reserved":false,"is_disabled":false,"rental_uris":{"android":"levelo://app?vid=5fae4696-4745-4bfd-b3fa-9c8f72e406b8","ios":"levelo://app?vid=5fae4696-4745-4bfd-b3fa-9c8f72e406b8"},"vehicle_type_id":"4","last_reported":1752138834,"current_range_meters":24400,"station_id":"","pricing_plan_id":"cebpf4jnsgd1na2vs0mg"},{"bike_id":"bde1e4a4-6de2-462e-8c6c-8de012719130","system_id":"levelo_inurba_marseille","lat":43.30903,"lon":5.36855,"is_reserved":false,"is_disabled":false,"rental_uris":{"android":"levelo://app?vid=bde1e4a4-6de2-462e-8c6c-8de012719130","ios":"levelo://app?vid=bde1e4a4-6de2-462e-8c6c-8de012719130"},"vehicle_type_id":"4","last_reported":1752138834,"current_range_meters":24400,"station_id":"ce4bgn92rcd13ifvqbvg","pricing_plan_id":"cebpf4jnsgd1na2vs0mg"},{"bike_id":"23b37642-b108-4776-9368-34aa0142bdf9","system_id":"levelo_inurba_marseille","lat":43.29853,"lon":5.36261,"is_reserved":false,"is_disabled":false,"rental_uris":{"android":"levelo://app?vid=23b37642-b108-4776-9368-34aa0142bdf9","ios":"levelo://app?vid=23b37642-b108-4776-9368-34aa0142bdf9"},"vehicle_type_id":"4","last_reported":1752138834,"current_range_meters":24400,"station_id":"ce4bgpp2rcd13ifvqc3g","pricing_plan_id":"cebpf4jnsgd1na2vs0mg"},{"bike_id":"f61344fb-2634-4d53-bea7-eb7a5ca0900e","system_id":"levelo_inurba_marseille","lat":43.30942,"lon":5.3903,"is_reserved":false,"is_disabled":false,"rental_uris":{"android":"levelo://app?vid=f61344fb-2634-4d53-bea7-eb7a5ca0900e","ios":"levelo://app?vid=f61344fb-2634-4d53-bea7-eb7a5ca0900e"},"vehicle_type_id":"4","last_reported":1752138834,"current_range_meters":24400,"station_id":"ce4bgup2rcd13ifvqco0","pricing_plan_id":"cebpf4jnsgd1na2vs0mg"},{"bike_id":"15abae54-9e83-45ec-9dd6-f4cfe8fd1611","system_id":"levelo_inurba_marseille","lat":43.30954,"lon":5.39031,"is_reserved":false,"is_disabled":false,"rental_uris":{"android":"levelo://app?vid=15abae54-9e83-45ec-9dd6-f4cfe8fd1611","ios":"levelo://app?vid=15abae54-9e83-45ec-9dd6-f4cfe8fd1611"},"vehicle_type_id":"4","last_reported":1752138834,"current_range_meters":24400,"station_id":"ce4bgup2rcd13ifvqco0","pricing_plan_id":"cebpf4jnsgd1na2vs0mg"},{"bike_id":"ba96da10-d16d-4ca7-ab34-2c0d95e65594","system_id":"levelo_inurba_marseille","lat":43.3079,"lon":5.37642,"is_reserved":false,"is_disabled":false,"rental_uris":{"android":"levelo://app?vid=ba96da10-d16d-4ca7-ab34-2c0d95e65594","ios":"levelo://app?vid=ba96da10-d16d-4ca7-ab34-2c0d95e65594"},"vehicle_type_id":"4","last_reported":1752138834,"current_range_meters":24400,"station_id":"ce4bgv92rcd13ifvqcq0","pricing_plan_id":"cebpf4jnsgd1na2vs0mg"},{"bike_id":"3326f179-1579-47fc-9aeb-f0fe1dc79c4d","system_id":"levelo_inurba_marseille","lat":43.28412,"lon":5.34996,"is_reserved":false,"is_disabled":false,"rental_uris":{"android":"levelo://app?vid=3326f179-1579-47fc-9aeb-f0fe1dc79c4d","ios":"levelo://app?vid=3326f179-1579-47fc-9aeb-f0fe1dc79c4d"},"vehicle_type_id":"4","last_reported":1752138834,"current_range_meters":24400,"station_id":"ce4bhbh2rcd13ifvqepg","pricing_plan_id":"cebpf4jnsgd1na2vs0mg"},{"bike_id":"63eb0946-3a7f-48f5-9ce5-04ee0abbe304","system_id":"levelo_inurba_marseille","lat":43.28416,"lon":5.34981,"is_reserved":false,"is_disabled":false,"rental_uris":{"android":"levelo://app?vid=63eb0946-3a7f-48f5-9ce5-04ee0abbe304","ios":"levelo://app?vid=63eb0946-3a7f-48f5-9ce5-04ee0abbe304"},"vehicle_type_id":"4","last_reported":1752138834,"current_range_meters":24400,"station_id":"ce4bhbh2rcd13ifvqepg","pricing_plan_id":"cebpf4jnsgd1na2vs0mg"},{"bike_id":"377adb55-be50-47c0-9950-98c35ac820e9","system_id":"levelo_inurba_marseille","lat":43.2621,"lon":5.3746,"is_reserved":false,"is_disabled":false,"rental_uris":{"android":"levelo://app?vid=377adb55-be50-47c0-9950-98c35ac820e9","ios":"levelo://app?vid=377adb55-be50-47c0-9950-98c35ac820e9"},"vehicle_type_id":"4","last_reported":1752138834,"current_range_meters":24400,"station_id":"ce4bhgp2rcd13ifvqfc0","pricing_plan_id":"cebpf4jnsgd1na2vs0mg"},{"bike_id":"f6b68386-3ed3-46d8-a753-e4018caf76f2","system_id":"levelo_inurba_marseille","lat":43.27824,"lon":5.3922,"is_reserved":false,"is_disabled":false,"rental_uris":{"android":"levelo://app?vid=f6b68386-3ed3-46d8-a753-e4018caf76f2","ios":"levelo://app?vid=f6b68386-3ed3-46d8-a753-e4018caf76f2"},"vehicle_type_id":"4","last_reported":1752138834,"current_range_meters":24400,"station_id":"ce4bhjp2rcd13ifvqga0","pricing_plan_id":"cebpf4jnsgd1na2vs0mg"},{"bike_id":"93e9eaf4-08f8-40b1-9dd8-48d8e605730d","system_id":"levelo_inurba_marseille","lat":43.23155,"lon":5.43711,"is_reserved":false,"is_disabled":false,"rental_uris":{"android":"levelo://app?vid=93e9eaf4-08f8-40b1-9dd8-48d8e605730d","ios":"levelo://app?vid=93e9eaf4-08f8-40b1-9dd8-48d8e605730d"},"vehicle_type_id":"4","last_reported":1752138834,"current_range_meters":24400,"station_id":"ce4bhmp2rcd13ifvqgog","pricing_plan_id":"cebpf4jnsgd1na2vs0mg"},{"bike_id":"b90641d6-3bcf-4362-92a9-91300c172f6d","system_id":"levelo_inurba_marseille","lat":43.31992,"lon":5.3815,"is_reserved":false,"is_disabled":false,"rental_uris":{"android":"levelo://app?vid=b90641d6-3bcf-4362-92a9-91300c172f6d","ios":"levelo://app?vid=b90641d6-3bcf-4362-92a9-91300c172f6d"},"vehicle_type_id":"4","last_reported":1752138834,"current_range_meters":24400,"station_id":"ce4bhr12rcd13ifvqhpg","pricing_plan_id":"cebpf4jnsgd1na2vs0mg"},{"bike_id":"68291f15-a612-45e9-bde3-a28a0b39222d","system_id":"levelo_inurba_marseille","lat":43.32487,"lon":5.36529,"is_reserved":false,"is_disabled":false,"rental_uris":{"android":"levelo://app?vid=68291f15-a612-45e9-bde3-a28a0b39222d","ios":"levelo://app?vid=68291f15-a612-45e9-bde3-a28a0b39222d"},"vehicle_type_id":"4","last_reported":1752138834,"current_range_meters":24400,"station_id":"ce4bhs12rcd13ifvqhvg","pricing_plan_id":"cebpf4jnsgd1na2vs0mg"},{"bike_id":"c75bb91e-aa5a-49c1-b731-6d424b0690e7","system_id":"levelo_inurba_marseille","lat":43.32361,"lon":5.36755,"is_reserved":false,"is_disabled":false,"rental_uris":{"android":"levelo://app?vid=c75bb91e-aa5a-49c1-b731-6d424b0690e7","ios":"levelo://app?vid=c75bb91e-aa5a-49c1-b731-6d424b0690e7"},"vehicle_type_id":"4","last_reported":1752138834,"current_range_meters":24400,"station_id":"ce4bhsh2rcd13ifvqi2g","pricing_plan_id":"cebpf4jnsgd1na2vs0mg"},