{"last_updated":1728011697,"ttl":60,"version":"2.2","data":{"bikes":[{"bike_id":"fcc0dea3-a4f1-4cdd-9155-e6fbe4a49d1b","system_id":"levelo_inurba_marseille","lat":43.28344,"lon":5.38104,"is_reserved":false,"is_disabled":false,"rental_uris":{"android":"levelo://app?vid=fcc0dea3-a4f1-4cdd-9155-e6fbe4a49d1b","ios":"levelo://app?vid=fcc0dea3-a4f1-4cdd-9155-e6fbe4a49d1b"},"vehicle_type_id":"4","last_reported":1728011697,"current_range_meters":27200,"station_id":"ce4bh412rcd13ifvqdr0","pricing_plan_id":"cebpf4jnsgd1na2vs0mg"},{"bike_id":"c65f7b1b-8cb1-43d6-936c-e5dc86a23984","system_id":"levelo_inurba_marseille","lat":43.2462,"lon":5.4195,"is_reserved":false,"is_disabled":false,"rental_uris":{"android":"levelo://app?vid=c65f7b1b-8cb1-43d6-936c-e5dc86a23984","ios":"levelo://app?vid=c65f7b1b-8cb1-43d6-936c-e5dc86a23984"},"vehicle_type_id":"4","last_reported":1728011697,"current_range_meters":10800,"station_id":"","pricing_plan_id":"cebpf4jnsgd1na2vs0mg"},{"bike_id":"b0321591-c8c7-4b35-81f3-4d3368a3296a","system_id":"levelo_inurba_marseille","lat":43.2836,"lon":5.38634,"is_reserved":false,"is_disabled":false,"rental_uris":{"android":"levelo://app?vid=b0321591-c8c7-4b35-81f3-4d3368a3296a","ios":"levelo://app?vid=b0321591-c8c7-4b35-81f3-4d3368a3296a"},"vehicle_type_id":"4","last_reported":1728011697,"current_range_meters":38800,"station_id":"ce4bh492rcd13ifvqdvg","pricing_plan_id":"cebpf4jnsgd1na2vs0mg"},{"bike_id":"2c1d28fc-a845-4b20-a246-11f8885282c0","system_id":"levelo_inurba_marseille","lat":43.28028,"lon":5.36954,"is_reserved":false,"is_disabled":false,"rental_uris":{"android":"levelo://app?vid=2c1d28fc-a845-4b20-a246-11f8885282c0","ios":"levelo://app?vid=2c1d28fc-a845-4b20-a246-11f8885282c0"},"vehicle_type_id":"4","last_reported":1728011697,"current_range_meters":27600,"station_id":"ce4bha12rcd13ifvqef0","pricing_plan_id":"cebpf4jnsgd1na2vs0mg"},{"bike_id":"a23d2941-6509-43bd-ab8b-2df671dc648e","system_id":"levelo_inurba_marseille","lat":43.30789,"lon":5.38166,"is_reserved":false,"is_disabled":false,"rental_uris":{"android":"levelo://app?vid=a23d2941-6509-43bd-ab8b-2df671dc648e","ios":"levelo://app?vid=a23d2941-6509-43bd-ab8b-2df671dc648e"},"vehicle_type_id":"4","last_reported":1728011697,"current_range_meters":37600,"station_id":"ce4bgt12rcd13ifvqce0","pricing_plan_id":"cebpf4jnsgd1na2vs0mg"},{"bike_id":"8f2ca0ae-7c75-471f-8ffd-2caa17293137","system_id":"levelo_inurba_marseille","lat":43.31628,"lon":5.37697,"is_reserved":false,"is_disabled":false,"rental_uris":{"android":"levelo://app?vid=8f2ca0ae-7c75-471f-8ffd-2caa17293137","ios":"levelo://app?vid=8f2ca0ae-7c75-471f-8ffd-2caa17293137"},"vehicle_type_id":"4","last_reported":1728011697,"current_range_meters":28000,"station_id":"ce4bgth2rcd13ifvqch0","pricing_plan_id":"cebpf4jnsgd1na2vs0mg"},{"bike_id":"423ab14e-af93-4d1f-b820-2acf3dc9b782","system_id":"levelo_inurba_marseille","lat":43.28674,"lon":5.38666,"is_reserved":false,"is_disabled":false,"rental_uris":{"android":"levelo://app?vid=423ab14e-af93-4d1f-b820-2acf3dc9b782","ios":"levelo://app?vid=423ab14e-af93-4d1f-b820-2acf3dc9b782"},"vehicle_type_id":"4","last_reported":1728011697,"current_range_meters":38800,"station_id":"ce4bh492rcd13ifvqdug","pricing_plan_id":"cebpf4jnsgd1na2vs0mg"},{"bike_id":"b286b487-e9a5-4615-949e-bb1fe7d4d6d6","system_id":"levelo_inurba_marseille","lat":43.29975,"lon":5.41344,"is_reserved":false,"is_disabled":false,"rental_uris":{"android":"levelo://app?vid=b286b487-e9a5-4615-949e-bb1fe7d4d6d6","ios":"levelo://app?vid=b286b487-e9a5-4615-949e-bb1fe7d4d6d6"},"vehicle_type_id":"4","last_reported":1728011697,"current_range_meters":10000,"station_id":"ce4bhp12rcd13ifvqh9g","pricing_plan_id":"cebpf4jnsgd1na2vs0mg"},{"bike_id":"12de9d2b-489e-4e07-a88a-9d4c4d623dd1","system_id":"levelo_inurba_marseille","lat":43.317,"lon":5.40468,"is_reserved":false,"is_disabled":false,"rental_uris":{"android":"levelo://app?vid=12de9d2b-489e-4e07-a88a-9d4c4d623dd1","ios":"levelo://app?vid=12de9d2b-489e-4e07-a88a-9d4c4d623dd1"},"vehicle_type_id":"4","last_reported":1728011697,"current_range_meters":37600,"station_id":"ce4bh012rcd13ifvqd00","pricing_plan_id":"cebpf4jnsgd1na2vs0mg"},{"bike_id":"dfa316ed-31fe-4eb7-ae98-3312a562d760","system_id":"levelo_inurba_marseille","lat":43.27183,"lon":5.41001,"is_reserved":false,"is_disabled":false,"rental_uris":{"android":"levelo://app?vid=dfa316ed-31fe-4eb7-ae98-3312a562d760","ios":"levelo://app?vid=dfa316ed-31fe-4eb7-ae98-3312a562d760"},"vehicle_type_id":"4","last_reported":1728011697,"current_range_meters":37600,"station_id":"ce4bhl12rcd13ifvqgf0","pricing_plan_id":"cebpf4jnsgd1na2vs0mg"},{"bike_id":"1fc0f4a2-31b7-40da-8f76-f155e3ecbc5e","system_id":"levelo_inurba_marseille","lat":43.269342,"lon":5.402467,"is_reserved":false,"is_disabled":false,"rental_uris":{"android":"levelo://app?vid=1fc0f4a2-31b7-40da-8f76-f155e3ecbc5e","ios":"levelo://app?vid=1fc0f4a2-31b7-40da-8f76-f155e3ecbc5e"},"vehicle_type_id":"4","last_reported":1728011697,"current_range_meters":28000,"station_id":"cjm6bp8fraef2m0cb0m0","pricing_plan_id":"cebpf4jnsgd1na2vs0mg"},{"bike_id":"7c90bb76-cd3d-4776-8fe4-dd8213dd2b7a","system_id":"levelo_inurba_marseille","lat":43.31484,"lon":5.37303,"is_reserved":false,"is_disabled":false,"rental_uris":{"android":"levelo://app?vid=7c90bb76-cd3d-4776-8fe4-dd8213dd2b7a","ios":"levelo://app?vid=7c90bb76-cd3d-4776-8fe4-dd8213dd2b7a"},"vehicle_type_id":"4","last_reported":1728011697,"current_range_meters":11200,"station_id":"ce4bgt12rcd13ifvqcd0","pricing_plan_id":"cebpf4jnsgd1na2vs0mg"},{"bike_id":"756088e4-bd38-4606-aa6f-cbbf1461af00","system_id":"levelo_inurba_marseille","lat":43.22937,"lon":5.3538,"is_reserved":false,"is_disabled":false,"rental_uris":{"android":"levelo://app?vid=756088e4-bd38-4606-aa6f-cbbf1461af00","ios":"levelo://app?vid=756088e4-bd38-4606-aa6f-cbbf1461af00"},"vehicle_type_id":"4","last_reported":1728011697,"current_range_meters":15200,"station_id":"cpo3532slgdg3j2ikp40","pricing_plan_id":"cebpf4jnsgd1na2vs0mg"},{"bike_id":"a2e67e3c-7061-41ef-b621-c916bfea005c","system_id":"levelo_inurba_marseille","lat":43.26502,"lon":5.39536,"is_reserved":false,"is_disabled":false,"rental_uris":{"android":"levelo://app?vid=a2e67e3c-7061-41ef-b621-c916bfea005c","ios":"levelo://app?vid=a2e67e3c-7061-41ef-b621-c916bfea005c"},"vehicle_type_id":"4","last_reported":1728011697,"current_range_meters":29600,"station_id":"ce4bhi12rcd13ifvqfq0","pricing_plan_id":"cebpf4jnsgd1na2vs0mg"},{"bike_id":"9def42de-c8b4-4bc0-8719-dee3a1ae86f0","system_id":"levelo_inurba_marseille","lat":43.28453,"lon":5.35886,"is_reserved":false,"is_disabled":false,"rental_uris":{"android":"levelo://app?vid=9def42de-c8b4-4bc0-8719-dee3a1ae86f0","ios":"levelo://app?vid=9def42de-c8b4-4bc0-8719-dee3a1ae86f0"},"vehicle_type_id":"4","last_reported":1728011697,"current_range_meters":9600,"station_id":"ce4bhah2rcd13ifvqei0","pricing_plan_id":"cebpf4jnsgd1na2vs0mg"},{"bike_id":"9456af3d-12d5-4ff8-9953-8444c47e95c4","system_id":"levelo_inurba_marseille","lat":43.29282,"lon":5.4012,"is_reserved":false,"is_disabled":false,"rental_uris":{"android":"levelo://app?vid=9456af3d-12d5-4ff8-9953-8444c47e95c4","ios":"levelo://app?vid=9456af3d-12d5-4ff8-9953-8444c47e95c4"},"vehicle_type_id":"4","last_reported":1728011697,"current_range_meters":28800,"station_id":"ce4bh312rcd13ifvqdk0","pricing_plan_id":"cebpf4jnsgd1na2vs0mg"},{"bike_id":"bc41810d-3fc6-4e9c-bcc1-3b1d7bce3ce2","system_id":"levelo_inurba_marseille","lat":43.23184,"lon":5.39984,"is_reserved":false,"is_disabled":false,"rental_uris":{"android":"levelo://app?vid=bc41810d-3fc6-4e9c-bcc1-3b1d7bce3ce2","ios":"levelo://app?vid=bc41810d-3fc6-4e9c-bcc1-3b1d7bce3ce2"},"vehicle_type_id":"4","last_reported":1728011697,"current_range_meters":21600,"station_id":"ce4bhn12rcd13ifvqgqg","pricing_plan_id":"cebpf4jnsgd1na2vs0mg"},{"bike_id":"8bb483de-e1a0-4a19-8e6d-94df484d7e4d","system_id":"levelo_inurba_marseille","lat":43.24075,"lon":5.37763,"is_reserved":false,"is_disabled":false,"rental_uris":{"android":"levelo://app?vid=8bb483de-e1a0-4a19-8e6d-94df484d7e4d","ios":"levelo://app?vid=8bb483de-e1a0-4a19-8e6d-94df484d7e4d"},"vehicle_type_id":"4","last_reported":1728011697,"current_range_meters":36400,"station_id":"ce4bhnp2rcd13ifvqgvg","pricing_plan_id":"cebpf4jnsgd1na2vs0mg"},{"bike_id":"d087af73-7fac-4929-97c8-b53b57c29849","system_id":"levelo_inurba_marseille","lat":43.28458,"lon":5.35895,"is_reserved":false,"is_disabled":false,"rental_uris":{"android":"levelo://app?vid=d087af73-7fac-4929-97c8-b53b57c29849","ios":"levelo://app?vid=d087af73-7fac-4929-97c8-b53b57c29849"},"vehicle_type_id":"4","last_reported":1728011697,"current_range_meters":28800,"station_id":"ce4bhah2rcd13ifvqei0","pricing_plan_id":"cebpf4jnsgd1na2vs0mg"},{"bike_id":"0ae24b9b-4a5c-4ace-bce6-02a1b13a6870","system_id":"levelo_inurba_marseille","lat":43.30414,"lon":5.41284,"is_reserved":false,"is_disabled":false,"rental_uris":{"android":"levelo://app?vid=0ae24b9b-4a5c-4ace-bce6-02a1b13a6870","ios":"levelo://app?vid=0ae24b9b-4a5c-4ace-bce6-02a1b13a6870"},"vehicle_type_id":"4","last_reported":1728011697,"current_range_meters":36400,"station_id":"ce4bhop2rcd13ifvqh8g","pricing_plan_id":"cebpf4jnsgd1na2vs0mg"},{"bike_id":"ddae31f4-d65d-4f59-8945-5cdef263ce02","system_id":"levelo_inurba_marseille","lat":43.269447,"lon":5.402468,"is_reserved":false,"is_disabled":false,"rental_uris":{"android":"levelo://app?vid=ddae31f4-d65d-4f59-8945-5cdef263ce02","ios":"levelo://app?vid=ddae31f4-d65d-4f59-8945-5cdef263ce02"},"vehicle_type_id":"4","last_reported":1728011697,"current_range_meters":28400,"station_id":"cjm6bp8fraef2m0cb0m0","pricing_plan_id":"cebpf4jnsgd1na2vs0mg"},{"bike_id":"605a4fb7-bd05-4d50-8a55-5ade4268d715","system_id":"levelo_inurba_marseille","lat":43.28699,"lon":5.39976,"is_reserved":false,"is_disabled":false,"rental_uris":{"android":"levelo://app?vid=605a4fb7-bd05-4d50-8a55-5ade4268d715","ios":"levelo://app?vid=605a4fb7-bd05-4d50-8a55-5ade4268d715"},"vehicle_type_id":"4","last_reported":1728011697,"current_range_meters":38800,"station_id":"ce4bho92rcd13ifvqh3g","pricing_plan_id":"cebpf4jnsgd1na2vs0mg"},{"bike_id":"149797c5-88bb-435c-ae4e-98cca08bfc3f","system_id":"levelo_inurba_marseille","lat":43.26787,"lon":5.39421,"is_reserved":false,"is_disabled":false,"rental_uris":{"android":"levelo://app?vid=149797c5-88bb-435c-ae4e-98cca08bfc3f","ios":"levelo://app?vid=149797c5-88bb-435c-ae4e-98cca08bfc3f"},"vehicle_type_id":"4","last_reported":1728011697,"current_range_meters":28400,"station_id":"ce4bhh12rcd13ifvqfg0","pricing_plan_id":"cebpf4jnsgd1na2vs0mg"},{"bike_id":"5027e841-9475-4eed-9c3e-b6229a636acb","system_id":"levelo_inurba_marseille","lat":43.29261,"lon":5.40898,"is_reserved":false,"is_disabled":false,"rental_uris":{"android":"levelo://app?vid=5027e841-9475-4eed-9c3e-b6229a636acb","ios":"levelo://app?vid=5027e841-9475-4eed-9c3e-b6229a636acb"},"vehicle_type_id":"4","last_reported":1728011697,"current_range_meters":27600,"station_id":"ce4bh192rcd13ifvqdc0","pricing_plan_id":"cebpf4jnsgd1na2vs0mg"},{"bike_id":"48b7b995-6a83-4b3e-aae7-c1d3b600ba6f","system_id":"levelo_inurba_marseille","lat":43.2927,"lon":5.40127,"is_reserved":false,"is_disabled":false,"rental_uris":{"android":"levelo://app?vid=48b7b995-6a83-4b3e-aae7-c1d3b600ba6f","ios":"levelo://app?vid=48b7b995-6a83-4b3e-aae7-c1d3b600ba6f"},"vehicle_type_id":"4","last_reported":1728011697,"current_range_meters":38800,"station_id":"ce4bh312rcd13ifvqdk0","pricing_plan_id":"cebpf4jnsgd1na2vs0mg"},{"bike_id":"c9753217-8459-4f5f-9a51-5d6eb1e88baf","system_id":"levelo_inurba_marseille","lat":43.27997,"lon":5.40015,"is_reserved":false,"is_disabled":false,"rental_uris":{"android":"levelo://app?vid=c9753217-8459-4f5f-9a51-5d6eb1e88baf","ios":"levelo://app?vid=c9753217-8459-4f5f-9a51-5d6eb1e88baf"},"vehicle_type_id":"4","last_reported":1728011697,"current_range_meters":38400,"station_id":"ce4bho92rcd13ifvqh4g","pricing_plan_id":"cebpf4jnsgd1na2vs0mg"},{"bike_id":"541d5aee-85fc-4a22-a550-040a95848043","system_id":"levelo_inurba_marseille","lat":43.27568,"lon":5.38423,"is_reserved":false,"is_disabled":false,"rental_uris":{"android":"levelo://app?vid=541d5aee-85fc-4a22-a550-040a95848043","ios":"levelo://app?vid=541d5aee-85fc-4a22-a550-040a95848043"},"vehicle_type_id":"4","last_reported":1728011697,"current_range_meters":38800,"station_id":"ce4bhh92rcd13ifvqfi0","pricing_plan_id":"cebpf4jnsgd1na2vs0mg"},{"bike_id":"1287138e-fa6c-436c-9adf-a4c35ff244bc","system_id":"levelo_inurba_marseille","lat":43.31756,"lon":5.39013,"is_reserved":false,"is_disabled":false,"rental_uris":{"android":"levelo://app?vid=1287138e-fa6c-436c-9adf-a4c35ff244bc","ios":"levelo://app?vid=1287138e-fa6c-436c-9adf-a4c35ff244bc"},"vehicle_type_id":"4","last_reported":1728011697,"current_range_meters":16000,"station_id":"ce4bhqp2rcd13ifvqhng","pricing_plan_id":"cebpf4jnsgd1na2vs0mg"},{"bike_id":"a92999c2-d539-49de-8b01-808098a8f35b","system_id":"levelo_inurba_marseille","lat":43.28435,"lon":5.39194,"is_reserved":false,"is_disabled":false,"rental_uris":{"android":"levelo://app?vid=a92999c2-d539-49de-8b01-808098a8f35b","ios":"levelo://app?vid=a92999c2-d539-49de-8b01-808098a8f35b"},"vehicle_type_id":"4","last_reported":1728011697,"current_range_meters":38800,"station_id":"ce4bhoh2rcd13ifvqh5g","pricing_plan_id":"cebpf4jnsgd1na2vs0mg"},{"bike_id":"a99e0887-fb66-4880-8761-33fdb36b8615","system_id":"levelo_inurba_marseille","lat":43.23191,"lon":5.39993,"is_reserved":false,"is_disabled":false,"rental_uris":{"android":"levelo://app?vid=a99e0887-fb66-4880-8761-33fdb36b8615","ios":"levelo://app?vid=a99e0887-fb66-4880-8761-33fdb36b8615"},"vehicle_type_id":"4","last_reported":1728011697,"current_range_meters":12400,"station_id":"ce4bhn12rcd13ifvqgqg","pricing_plan_id":"cebpf4jnsgd1na2vs0mg"},{"bike_id":"545483e1-ca6a-44f0-8b13-786603e4549c","system_id":"levelo_inurba_marseille","lat":43.30435,"lon":5.389,"is_reserved":false,"is_disabled":false,"rental_uris":{"android":"levelo://app?vid=545483e1-ca6a-44f0-8b13-786603e4549c","ios":"levelo://app?vid=545483e1-ca6a-44f0-8b13-786603e4549c"},"vehicle_type_id":"4","last_reported":1728011697,"current_range_meters":38800,"station_id":"ce4bgk12rcd13ifvqbi0","pricing_plan_id":"cebpf4jnsgd1na2vs0mg"},{"bike_id":"397a2d03-4f85-4289-97cc-f11013459605","system_id":"levelo_inurba_marseille","lat":43.31893,"lon":5.40736,"is_reserved":false,"is_disabled":false,"rental_uris":{"android":"levelo://app?vid=397a2d03-4f85-4289-97cc-f11013459605","ios":"levelo://app?vid=397a2d03-4f85-4289-97cc-f11013459605"},"vehicle_type_id":"4","last_reported":1728011697,"current_range_meters":37600,"station_id":"ce4bhq12rcd13ifvqhig","pricing_plan_id":"cebpf4jnsgd1na2vs0mg"},{"bike_id":"711ebaf3-e5ad-4a91-9158-61808cfe80a7","system_id":"levelo_inurba_marseille","lat":43.3032,"lon":5.40443,"is_reserved":false,"is_disabled":false,"rental_uris":{"android":"levelo://app?vid=711ebaf3-e5ad-4a91-9158-61808cfe80a7","ios":"levelo://app?vid=711ebaf3-e5ad-4a91-9158-61808cfe80a7"},"vehicle_type_id":"4","last_reported":1728011697,"current_range_meters":36000,"station_id":"ce4bh012rcd13ifvqd10","pricing_plan_id":"cebpf4jnsgd1na2vs0mg"},{"bike_id":"042c34d5-e204-4982-8e37-8aa44a6cc98a","system_id":"levelo_inurba_marseille","lat":43.294445,"lon":5.397459,"is_reserved":false,"is_disabled":false,"rental_uris":{"android":"levelo://app?vid=042c34d5-e204-4982-8e37-8aa44a6cc98a","ios":"levelo://app?vid=042c34d5-e204-4982-8e37-8aa44a6cc98a"},"vehicle_type_id":"4","last_reported":1728011697,"current_range_meters":39200,"station_id":"ce4bh3h2rcd13ifvqdo0","pricing_plan_id":"cebpf4jnsgd1na2vs0mg"},{"bike_id":"f3ca8eae-8524-453e-a3ef-ef65e37e2e78","system_id":"levelo_inurba_marseille","lat":43.24668,"lon":5.38167,"is_reserved":false,"is_disabled":false,"rental_uris":{"android":"levelo://app?vid=f3ca8eae-8524-453e-a3ef-ef65e37e2e78","ios":"levelo://app?vid=f3ca8eae-8524-453e-a3ef-ef65e37e2e78"},"vehicle_type_id":"4","last_reported":1728011697,"current_range_meters":20400,"station_id":"ce4bhih2rcd13ifvqfr0","pricing_plan_id":"cebpf4jnsgd1na2vs0mg"},{"bike_id":"c36f12fa-ae32-4b0d-b404-78b57e4f78fe","system_id":"levelo_inurba_marseille","lat":43.29892,"lon":5.43668,"is_reserved":false,"is_disabled":false,"rental_uris":{"android":"levelo://app?vid=c36f12fa-ae32-4b0d-b404-78b57e4f78fe","ios":"levelo://app?vid=c36f12fa-ae32-4b0d-b404-78b57e4f78fe"},"vehicle_type_id":"4","last_reported":1728011697,"current_range_meters":34000,"station_id":"ce4bhpp2rcd13ifvqhfg","pricing_plan_id":"cebpf4jnsgd1na2vs0mg"},{"bike_id":"46233e9e-06c4-4df1-a818-c4c5bad0a987","system_id":"levelo_inurba_marseille","lat":43.28453,"lon":5.35892,"is_reserved":false,"is_disabled":false,"rental_uris":{"android":"levelo://app?vid=46233e9e-06c4-4df1-a818-c4c5bad0a987","ios":"levelo://app?vid=46233e9e-06c4-4df1-a818-c4c5bad0a987"},"vehicle_type_id":"4","last_reported":1728011697,"current_range_meters":16000,"station_id":"ce4bhah2rcd13ifvqei0","pricing_plan_id":"cebpf4jnsgd1na2vs0mg"},{"bike_id":"4ccea797-c080-439d-80f0-aac7c0fd78ec","system_id":"levelo_inurba_marseille","lat":43.29509,"lon":5.39043,"is_reserved":false,"is_disabled":false,"rental_uris":{"android":"levelo://app?vid=4ccea797-c080-439d-80f0-aac7c0fd78ec","ios":"levelo://app?vid=4ccea797-c080-439d-80f0-aac7c0fd78ec"},"vehicle_type_id":"4","last_reported":1728011697,"current_range_meters":38400,"station_id":"ce4bh3p2rcd13ifvqdp0","pricing_plan_id":"cebpf4jnsgd1na2vs0mg"},{"bike_id":"dc790a0f-240b-4bc4-9e7d-a755fc0f2315","system_id":"levelo_inurba_marseille","lat":43.27182,"lon":5.40995,"is_reserved":false,"is_disabled":false,"rental_uris":{"android":"levelo://app?vid=dc790a0f-240b-4bc4-9e7d-a755fc0f2315","ios":"levelo://app?vid=dc790a0f-240b-4bc4-9e7d-a755fc0f2315"},"vehicle_type_id":"4","last_reported":1728011697,"current_range_meters":38800,"station_id":"ce4bhl12rcd13ifvqgf0","pricing_plan_id":"cebpf4jnsgd1na2vs0mg"},{"bike_id":"70377c27-592e-451b-9687-491e57111e75","system_id":"levelo_inurba_marseille","lat":43.3112,"lon":5.37765,"is_reserved":false,"is_disabled":false,"rental_uris":{"android":"levelo://app?vid=70377c27-592e-451b-9687-491e57111e75","ios":"levelo://app?vid=70377c27-592e-451b-9687-491e57111e75"},"vehicle_type_id":"4","last_reported":1728011697,"current_range_meters":3600,"station_id":"ce4bgt92rcd13ifvqcg0","pricing_plan_id":"cebpf4jnsgd1na2vs0mg"},{"bike_id":"75ae865b-18dc-4981-b8a0-9c762a1bfa9c","system_id":"levelo_inurba_marseille","lat":43.33026,"lon":5.39043,"is_reserved":false,"is_disabled":false,"rental_uris":{"android":"levelo://app?vid=75ae865b-18dc-4981-b8a0-9c762a1bfa9c","ios":"levelo://app?vid=75ae865b-18dc-4981-b8a0-9c762a1bfa9c"},"vehicle_type_id":"4","last_reported":1728011697,"current_range_meters":39200,"station_id":"ce4bhr92rcd13ifvqhrg","pricing_plan_id":"cebpf4jnsgd1na2vs0mg"},{"bike_id":"10db0674-caf9-4a89-9a1c-67516fa498dd","system_id":"levelo_inurba_marseille","lat":43.29807,"lon":5.40394,"is_reserved":false,"is_disabled":false,"rental_uris":{"android":"levelo://app?vid=10db0674-caf9-4a89-9a1c-67516fa498dd","ios":"levelo://app?vid=10db0674-caf9-4a89-9a1c-67516fa498dd"},"vehicle_type_id":"4","last_reported":1728011697,"current_range_meters":39200,"station_id":"ce4bh112rcd13ifvqd90","pricing_plan_id":"cebpf4jnsgd1na2vs0mg"},{"bike_id":"067137d1-b01e-4db3-8afa-dbe448ff1ea0","system_id":"levelo_inurba_marseille","lat":43.28621,"lon":5.3511,"is_reserved":false,"is_disabled":false,"rental_uris":{"android":"levelo://app?vid=067137d1-b01e-4db3-8afa-dbe448ff1ea0","ios":"levelo://app?vid=067137d1-b01e-4db3-8afa-dbe448ff1ea0"},"vehicle_type_id":"4","last_reported":1728011697,"current_range_meters":28400,"station_id":"ce4bhch2rcd13ifvqeug","pricing_plan_id":"cebpf4jnsgd1na2vs0mg"},{"bike_id":"e6b2df58-b4a0-4aec-933d-a62e42f34d34","system_id":"levelo_inurba_marseille","lat":43.33719,"lon":5.39193,"is_reserved":false,"is_disabled":false,"rental_uris":{"android":"levelo://app?vid=e6b2df58-b4a0-4aec-933d-a62e42f34d34","ios":"levelo://app?vid=e6b2df58-b4a0-4aec-933d-a62e42f34d34"},"vehicle_type_id":"4","last_reported":1728011697,"current_range_meters":22800,"station_id":"ce4bhr92rcd13ifvqhsg","pricing_plan_id":"cebpf4jnsgd1na2vs0mg"},{"bike_id":"c131d4d8-e8ae-449c-9601-db9ad4f71756","system_id":"levelo_inurba_marseille","lat":43.27993,"lon":5.41655,"is_reserved":false,"is_disabled":false,"rental_uris":{"android":"levelo://app?vid=c131d4d8-e8ae-449c-9601-db9ad4f71756","ios":"levelo://app?vid=c131d4d8-e8ae-449c-9601-db9ad4f71756"},"vehicle_type_id":"4","last_reported":1728011697,"current_range_meters":10000,"station_id":"ce4bho12rcd13ifvqh1g","pricing_plan_id":"cebpf4jnsgd1na2vs0mg"},{"bike_id":"b1caede3-9948-4c10-a88e-31db67871077","system_id":"levelo_inurba_marseille","lat":43.31356,"lon":5.38503,"is_reserved":false,"is_disabled":false,"rental_uris":{"android":"levelo://app?vid=b1caede3-9948-4c10-a88e-31db67871077","ios":"levelo://app?vid=b1caede3-9948-4c10-a88e-31db67871077"},"vehicle_type_id":"4","last_reported":1728011697,"current_range_meters":24800,"station_id":"ce4bgt92rcd13ifvqcf0","pricing_plan_id":"cebpf4jnsgd1na2vs0mg"},{"bike_id":"eb43ae52-3f5b-4a7e-9fa5-6a9c95a4cebb","system_id":"levelo_inurba_marseille","lat":43.24514,"lon":5.37352,"is_reserved":false,"is_disabled":false,"rental_uris":{"android":"levelo://app?vid=eb43ae52-3f5b-4a7e-9fa5-6a9c95a4cebb","ios":"levelo://app?vid=eb43ae52-3f5b-4a7e-9fa5-6a9c95a4cebb"},"vehicle_type_id":"4","last_reported":1728011697,"current_range_meters":18800,"station_id":"","pricing_plan_id":"cebpf4jnsgd1na2vs0mg"},{"bike_id":"c2310d2e-f23f-4eeb-a8d8-6440fb8d758e","system_id":"levelo_inurba_marseille","lat":43.29557,"lon":5.42292,"is_reserved":false,"is_disabled":false,"rental_uris":{"android":"levelo://app?vid=c2310d2e-f23f-4eeb-a8d8-6440fb8d758e","ios":"levelo://app?vid=c2310d2e-f23f-4eeb-a8d8-6440fb8d758e"},"vehicle_type_id":"4","last_reported":1728011697,"current_range_meters":36400,"station_id":"ce4bhph2rcd13ifvqhdg","pricing_plan_id":"cebpf4jnsgd1na2vs0mg"},{"bike_id":"56287f66-1668-4a5d-b3e1-733e18339fb8","system_id":"levelo_inurba_marseille","lat":43.32367,"lon":5.38886,"is_reserved":false,"is_disabled":false,"rental_uris":{"android":"levelo://app?vid=56287f66-1668-4a5d-b3e1-733e18339fb8","ios":"levelo://app?vid=56287f66-1668-4a5d-b3e1-733e18339fb8"},"vehicle_type_id":"4","last_reported":1728011697,"current_range_meters":27200,"station_id":"ce4bhqp2rcd13ifvqhog","pricing_plan_id":"cebpf4jnsgd1na2vs0mg"},{"bike_id":"a2a4b699-3677-451a-9074-e0e839b6dd0f","system_id":"levelo_inurba_marseille","lat":43.30935,"lon":5.40145,"is_reserved":false,"is_disabled":false,"rental_uris":{"android":"levelo://app?vid=a2a4b699-3677-451a-9074-e0e839b6dd0f","ios":"levelo://app?vid=a2a4b699-3677-451a-9074-e0e839b6dd0f"},"vehicle_type_id":"4","last_reported":1728011697,"current_range_meters":38800,"station_id":"ce4bgvp2rcd13ifvqct0","pricing_plan_id":"cebpf4jnsgd1na2vs0mg"},{"bike_id":"240aabb2-d30a-4816-bf39-1f44da7634a0","system_id":"levelo_inurba_marseille","lat":43.30916,"lon":5.36858,"is_reserved":false,"is_disabled":false,"rental_uris":{"android":"levelo://app?vid=240aabb2-d30a-4816-bf39-1f44da7634a0","ios":"levelo://app?vid=240aabb2-d30a-4816-bf39-1f44da7634a0"},"vehicle_type_id":"4","last_reported":1728011697,"current_range_meters":37600,"station_id":"ce4bgn92rcd13ifvqbvg","pricing_plan_id":"cebpf4jnsgd1na2vs0mg"},{"bike_id":"566a9cf0-f209-4c9f-9e1e-a43a024de395","system_id":"levelo_inurba_marseille","lat":43.27383,"lon":5.36262,"is_reserved":false,"is_disabled":false,"rental_uris":{"android":"levelo://app?vid=566a9cf0-f209-4c9f-9e1e-a43a024de395","ios":"levelo://app?vid=566a9cf0-f209-4c9f-9e1e-a43a024de395"},"vehicle_type_id":"4","last_reported":1728011697,"current_range_meters":28000,"station_id":"ce4bhbh2rcd13ifvqeo0","pricing_plan_id":"cebpf4jnsgd1na2vs0mg"},{"bike_id":"b73551f1-4737-42f3-8efd-5f2fca843848","system_id":"levelo_inurba_marseille","lat":43.29895,"lon":5.43671,"is_reserved":false,"is_disabled":false,"rental_uris":{"android":"levelo://app?vid=b73551f1-4737-42f3-8efd-5f2fca843848","ios":"levelo://app?vid=b73551f1-4737-42f3-8efd-5f2fca843848"},"vehicle_type_id":"4","last_reported":1728011697,"current_range_meters":19600,"station_id":"ce4bhpp2rcd13ifvqhfg","pricing_plan_id":"cebpf4jnsgd1na2vs0mg"},{"bike_id":"9f044e34-f516-4aa5-a763-9660f8c5bdf8","system_id":"levelo_inurba_marseille","lat":43.26682,"lon":5.38267,"is_reserved":false,"is_disabled":false,"rental_uris":{"android":"levelo://app?vid=9f044e34-f516-4aa5-a763-9660f8c5bdf8","ios":"levelo://app?vid=9f044e34-f516-4aa5-a763-9660f8c5bdf8"},"vehicle_type_id":"4","last_reported":1728011697,"current_range_meters":39200,"station_id":"ce4bhg92rcd13ifvqf90","pricing_plan_id":"cebpf4jnsgd1na2vs0mg"},{"bike_id":"03ad1baf-eae9-4286-9758-a0f11ca86ec8","system_id":"levelo_inurba_marseille","lat":43.28404,"lon":5.37506,"is_reserved":false,"is_disabled":false,"rental_uris":{"android":"levelo://app?vid=03ad1baf-eae9-4286-9758-a0f11ca86ec8","ios":"levelo://app?vid=03ad1baf-eae9-4286-9758-a0f11ca86ec8"},"vehicle_type_id":"4","last_reported":1728011697,"current_range_meters":34800,"station_id":"ce4bh412rcd13ifvqds0","pricing_plan_id":"cebpf4jnsgd1na2vs0mg"},{"bike_id":"63bae4f0-02bd-4bdc-902b-51044b09603f","system_id":"levelo_inurba_marseille","lat":43.27616,"lon":5.36117,"is_reserved":false,"is_disabled":false,"rental_uris":{"android":"levelo://app?vid=63bae4f0-02bd-4bdc-902b-51044b09603f","ios":"levelo://app?vid=63bae4f0-02bd-4bdc-902b-51044b09603f"},"vehicle_type_id":"4","last_reported":1728011697,"current_range_meters":37600,"station_id":"ce4bgj92rcd13ifvqbe0","pricing_plan_id":"cebpf4jnsgd1na2vs0mg"},{"bike_id":"1d2f50f0-a92b-4cc3-8df7-4e1465139892","system_id":"levelo_inurba_marseille","lat":43.25582,"lon":5.38236,"is_reserved":false,"is_disabled":false,"rental_uris":{"android":"levelo://app?vid=1d2f50f0-a92b-4cc3-8df7-4e1465139892","ios":"levelo://app?vid=1d2f50f0-a92b-4cc3-8df7-4e1465139892"},"vehicle_type_id":"4","last_reported":1728011697,"current_range_meters":39200,"station_id":"ce4bhih2rcd13ifvqfs0","pricing_plan_id":"cebpf4jnsgd1na2vs0mg"},{"bike_id":"437efef6-ee24-442c-93f2-446ad8da25bb","system_id":"levelo_inurba_marseille","lat":43.25588,"lon":5.38232,"is_reserved":false,"is_disabled":false,"rental_uris":{"android":"levelo://app?vid=437efef6-ee24-442c-93f2-446ad8da25bb","ios":"levelo://app?vid=437efef6-ee24-442c-93f2-446ad8da25bb"},"vehicle_type_id":"4","last_reported":1728011697,"current_range_meters":31200,"station_id":"ce4bhih2rcd13ifvqfs0","pricing_plan_id":"cebpf4jnsgd1na2vs0mg"},{"bike_id":"756d993b-c10c-4b9d-8ae5-05c3e6b5e1b2","system_id":"levelo_inurba_marseille","lat":43.30796,"lon":5.38156,"is_reserved":false,"is_disabled":false,"rental_uris":{"android":"levelo://app?vid=756d993b-c10c-4b9d-8ae5-05c3e6b5e1b2","ios":"levelo://app?vid=756d993b-c10c-4b9d-8ae5-05c3e6b5e1b2"},"vehicle_type_id":"4","last_reported":1728011697,"current_range_meters":38800,"station_id":"ce4bgt12rcd13ifvqce0","pricing_plan_id":"cebpf4jnsgd1na2vs0mg"},{"bike_id":"a0feab16-2f1f-4214-9058-21d8b9b7774f","system_id":"levelo_inurba_marseille","lat":43.27995,"lon":5.4097,"is_reserved":false,"is_disabled":false,"rental_uris":{"android":"levelo://app?vid=a0feab16-2f1f-4214-9058-21d8b9b7774f","ios":"levelo://app?vid=a0feab16-2f1f-4214-9058-21d8b9b7774f"},"vehicle_type_id":"4","last_reported":1728011697,"current_range_meters":10800,"station_id":"","pricing_plan_id":"cebpf4jnsgd1na2vs0mg"},{"bike_id":"6323c3ea-75d7-47ca-8873-1f720d264584","system_id":"levelo_inurba_marseille","lat":43.25499,"lon":5.37653,"is_reserved":false,"is_disabled":false,"rental_uris":{"android":"levelo://app?vid=6323c3ea-75d7-47ca-8873-1f720d264584","ios":"levelo://app?vid=6323c3ea-75d7-47ca-8873-1f720d264584"},"vehicle_type_id":"4","last_reported":1728011697,"current_range_meters":39200,"station_id":"ce4bhh12rcd13ifvqff0","pricing_plan_id":"cebpf4jnsgd1na2vs0mg"},{"bike_id":"0d38caac-4e1b-4bc6-8634-fba8549655ca","system_id":"levelo_inurba_marseille","lat":43.32112,"lon":5.36776,"is_reserved":false,"is_disabled":false,"rental_uris":{"android":"levelo://app?vid=0d38caac-4e1b-4bc6-8634-fba8549655ca","ios":"levelo://app?vid=0d38caac-4e1b-4bc6-8634-fba8549655ca"},"vehicle_type_id":"4","last_reported":1728011697,"current_range_meters":33200,"station_id":"ce4bhrh2rcd13ifvqhug","pricing_plan_id":"cebpf4jnsgd1na2vs0mg"},{"bike_id":"14c66a28-c6c0-441c-8abd-0d39da98cd06","system_id":"levelo_inurba_marseille","lat":43.28944,"lon":5.36634,"is_reserved":false,"is_disabled":false,"rental_uris":{"android":"levelo://app?vid=14c66a28-c6c0-441c-8abd-0d39da98cd06","ios":"levelo://app?vid=14c66a28-c6c0-441c-8abd-0d39da98cd06"},"vehicle_type_id":"4","last_reported":1728011697,"current_range_meters":38800,"station_id":"ce4bhap2rcd13ifvqek0","pricing_plan_id":"cebpf4jnsgd1na2vs0mg"},{"bike_id":"8fa7713f-cf0d-4b8a-b6f2-cb38acd9ee7c","system_id":"levelo_inurba_marseille","lat":43.29627,"lon":5.40606,"is_reserved":false,"is_disabled":false,"rental_uris":{"android":"levelo://app?vid=8fa7713f-cf0d-4b8a-b6f2-cb38acd9ee7c","ios":"levelo://app?vid=8fa7713f-cf0d-4b8a-b6f2-cb38acd9ee7c"},"vehicle_type_id":"4","last_reported":1728011697,"current_range_meters":11600,"station_id":"ce4bh0h2rcd13ifvqd60","pricing_plan_id":"cebpf4jnsgd1na2vs0mg"},{"bike_id":"f15749ef-8afe-4d39-89e7-4e320961fb28","system_id":"levelo_inurba_marseille","lat":43.24066,"lon":5.37767,"is_reserved":false,"is_disabled":false,"rental_uris":{"android":"levelo://app?vid=f15749ef-8afe-4d39-89e7-4e320961fb28","ios":"levelo://app?vid=f15749ef-8afe-4d39-89e7-4e320961fb28"},"vehicle_type_id":"4","last_reported":1728011697,"current_range_meters":12400,"station_id":"ce4bhnp2rcd13ifvqgvg","pricing_plan_id":"cebpf4jnsgd1na2vs0mg"},{"bike_id":"afcafeaa-39b2-4599-b1ca-199f1988c081","system_id":"levelo_inurba_marseille","lat":43.29629,"lon":5.40602,"is_reserved":false,"is_disabled":false,"rental_uris":{"android":"levelo://app?vid=afcafeaa-39b2-4599-b1ca-199f1988c081","ios":"levelo://app?vid=afcafeaa-39b2-4599-b1ca-199f1988c081"},"vehicle_type_id":"4","last_reported":1728011697,"current_range_meters":39200,"station_id":"ce4bh0h2rcd13ifvqd60","pricing_plan_id":"cebpf4jnsgd1na2vs0mg"},{"bike_id":"f6139423-9a75-4754-aa4b-50bb61259845","system_id":"levelo_inurba_marseille","lat":43.31702,"lon":5.40473,"is_reserved":false,"is_disabled":false,"rental_uris":{"android":"levelo://app?vid=f6139423-9a75-4754-aa4b-50bb61259845","ios":"levelo://app?vid=f6139423-9a75-4754-aa4b-50bb61259845"},"vehicle_type_id":"4","last_reported":1728011697,"current_range_meters":27200,"station_id":"ce4bh012rcd13ifvqd00","pricing_plan_id":"cebpf4jnsgd1na2vs0mg"},{"bike_id":"c2389386-45c5-4d0d-8c02-670d8af85f91","system_id":"levelo_inurba_marseille","lat":43.27181,"lon":5.40996,"is_reserved":false,"is_disabled":false,"rental_uris":{"android":"levelo://app?vid=c2389386-45c5-4d0d-8c02-670d8af85f91","ios":"levelo://app?vid=c2389386-45c5-4d0d-8c02-670d8af85f91"},"vehicle_type_id":"4","last_reported":1728011697,"current_range_meters":9600,"station_id":"ce4bhl12rcd13ifvqgf0","pricing_plan_id":"cebpf4jnsgd1na2vs0mg"},{"bike_id":"af18da6e-0ce8-4386-a6fd-0590c5b3a4ee","system_id":"levelo_inurba_marseille","lat":43.26806,"lon":5.40265,"is_reserved":false,"is_disabled":false,"rental_uris":{"android":"levelo://app?vid=af18da6e-0ce8-4386-a6fd-0590c5b3a4ee","ios":"levelo://app?vid=af18da6e-0ce8-4386-a6fd-0590c5b3a4ee"},"vehicle_type_id":"4","last_reported":1728011697,"current_range_meters":36800,"station_id":"ce501612rcd8frsf0b60","pricing_plan_id":"cebpf4jnsgd1na2vs0mg"},{"bike_id":"ad9d6e94-a639-469e-9892-0c7fed511f97","system_id":"levelo_inurba_marseille","lat":43.26554,"lon":5.37287,"is_reserved":false,"is_disabled":false,"rental_uris":{"android":"levelo://app?vid=ad9d6e94-a639-469e-9892-0c7fed511f97","ios":"levelo://app?vid=ad9d6e94-a639-469e-9892-0c7fed511f97"},"vehicle_type_id":"4","last_reported":1728011697,"current_range_meters":17200,"station_id":"ce4bhg12rcd13ifvqf70","pricing_plan_id":"cebpf4jnsgd1na2vs0mg"},{"bike_id":"ecfea253-826c-4f56-995b-6e04a0f3884a","system_id":"levelo_inurba_marseille","lat":43.23965,"lon":5.36629,"is_reserved":false,"is_disabled":false,"rental_uris":{"android":"levelo://app?vid=ecfea253-826c-4f56-995b-6e04a0f3884a","ios":"levelo://app?vid=ecfea253-826c-4f56-995b-6e04a0f3884a"},"vehicle_type_id":"4","last_reported":1728011697,"current_range_meters":29600,"station_id":"ce4bhi12rcd13ifvqfp0","pricing_plan_id":"cebpf4jnsgd1na2vs0mg"},{"bike_id":"fb07b73d-1fe0-4362-85ce-064ce87af344","system_id":"levelo_inurba_marseille","lat":43.29848,"lon":5.36278,"is_reserved":false,"is_disabled":false,"rental_uris":{"android":"levelo://app?vid=fb07b73d-1fe0-4362-85ce-064ce87af344","ios":"levelo://app?vid=fb07b73d-1fe0-4362-85ce-064ce87af344"},"vehicle_type_id":"4","last_reported":1728011697,"current_range_meters":38800,"station_id":"ce4bgpp2rcd13ifvqc3g","pricing_plan_id":"cebpf4jnsgd1na2vs0mg"},{"bike_id":"ba7a26e7-2ef9-45d4-a227-c30073b5b405","system_id":"levelo_inurba_marseille","lat":43.28665,"lon":5.36362,"is_reserved":false,"is_disabled":false,"rental_uris":{"android":"levelo://app?vid=ba7a26e7-2ef9-45d4-a227-c30073b5b405","ios":"levelo://app?vid=ba7a26e7-2ef9-45d4-a227-c30073b5b405"},"vehicle_type_id":"4","last_reported":1728011697,"current_range_meters":6400,"station_id":"ce4bhah2rcd13ifvqej0","pricing_plan_id":"cebpf4jnsgd1na2vs0mg"},{"bike_id":"b1c0cd94-8565-438a-9960-dcc43f7677c5","system_id":"levelo_inurba_marseille","lat":43.28029,"lon":5.36949,"is_reserved":false,"is_disabled":false,"rental_uris":{"android":"levelo://app?vid=b1c0cd94-8565-438a-9960-dcc43f7677c5","ios":"levelo://app?vid=b1c0cd94-8565-438a-9960-dcc43f7677c5"},"vehicle_type_id":"4","last_reported":1728011697,"current_range_meters":29600,"station_id":"ce4bha12rcd13ifvqef0","pricing_plan_id":"cebpf4jnsgd1na2vs0mg"},{"bike_id":"224dcdff-127d-40ef-8b2b-52b60b856ae6","system_id":"levelo_inurba_marseille","lat":43.28111,"lon":5.37844,"is_reserved":false,"is_disabled":false,"rental_uris":{"android":"levelo://app?vid=224dcdff-127d-40ef-8b2b-52b60b856ae6","ios":"levelo://app?vid=224dcdff-127d-40ef-8b2b-52b60b856ae6"},"vehicle_type_id":"4","last_reported":1728011697,"current_range_meters":38800,"station_id":"ce4bha12rcd13ifvqee0","pricing_plan_id":"cebpf4jnsgd1na2vs0mg"},{"bike_id":"6c612d46-36b3-4c42-a988-8fe9c456f752","system_id":"levelo_inurba_marseille","lat":43.30457,"lon":5.37902,"is_reserved":false,"is_disabled":false,"rental_uris":{"android":"levelo://app?vid=6c612d46-36b3-4c42-a988-8fe9c456f752","ios":"levelo://app?vid=6c612d46-36b3-4c42-a988-8fe9c456f752"},"vehicle_type_id":"4","last_reported":1728011697,"current_range_meters":28400,"station_id":"ce4bgup2rcd13ifvqcn0","pricing_plan_id":"cebpf4jnsgd1na2vs0mg"},{"bike_id":"ffa2a68d-7022-4ec2-b2b3-886d4fb8d964","system_id":"levelo_inurba_marseille","lat":43.25085,"lon":5.39507,"is_reserved":false,"is_disabled":false,"rental_uris":{"android":"levelo://app?vid=ffa2a68d-7022-4ec2-b2b3-886d4fb8d964","ios":"levelo://app?vid=ffa2a68d-7022-4ec2-b2b3-886d4fb8d964"},"vehicle_type_id":"4","last_reported":1728011697,"current_range_meters":33600,"station_id":"ce4bhm12rcd13ifvqgkg","pricing_plan_id":"cebpf4jnsgd1na2vs0mg"},{"bike_id":"3c7a2902-2493-40b4-9959-f32e7d43a5eb","system_id":"levelo_inurba_marseille","lat":43.28258,"lon":5.35058,"is_reserved":false,"is_disabled":false,"rental_uris":{"android":"levelo://app?vid=3c7a2902-2493-40b4-9959-f32e7d43a5eb","ios":"levelo://app?vid=3c7a2902-2493-40b4-9959-f32e7d43a5eb"},"vehicle_type_id":"4","last_reported":1728011697,"current_range_meters":26000,"station_id":"ce4bhbp2rcd13ifvqerg","pricing_plan_id":"cebpf4jnsgd1na2vs0mg"},{"bike_id":"9ffef3f2-f17f-4b2c-ac23-bb89887beead","system_id":"levelo_inurba_marseille","lat":43.32339,"lon":5.40621,"is_reserved":false,"is_disabled":false,"rental_uris":{"android":"levelo://app?vid=9ffef3f2-f17f-4b2c-ac23-bb89887beead","ios":"levelo://app?vid=9ffef3f2-f17f-4b2c-ac23-bb89887beead"},"vehicle_type_id":"4","last_reported":1728011697,"current_range_meters":14400,"station_id":"ce4bhq92rcd13ifvqhjg","pricing_plan_id":"cebpf4jnsgd1na2vs0mg"},{"bike_id":"2abc33c5-5934-4cf6-a1e5-6f26fe87d8e9","system_id":"levelo_inurba_marseille","lat":43.28614,"lon":5.35107,"is_reserved":false,"is_disabled":false,"rental_uris":{"android":"levelo://app?vid=2abc33c5-5934-4cf6-a1e5-6f26fe87d8e9","ios":"levelo://app?vid=2abc33c5-5934-4cf6-a1e5-6f26fe87d8e9"},"vehicle_type_id":"4","last_reported":1728011697,"current_range_meters":8400,"station_id":"ce4bhch2rcd13ifvqeug","pricing_plan_id":"cebpf4jnsgd1na2vs0mg"},{"bike_id":"6492f35d-2ead-4863-985e-e92ad62cabbd","system_id":"levelo_inurba_marseille","lat":43.27178,"lon":5.40993,"is_reserved":false,"is_disabled":false,"rental_uris":{"android":"levelo://app?vid=6492f35d-2ead-4863-985e-e92ad62cabbd","ios":"levelo://app?vid=6492f35d-2ead-4863-985e-e92ad62cabbd"},"vehicle_type_id":"4","last_reported":1728011697,"current_range_meters":30400,"station_id":"ce4bhl12rcd13ifvqgf0","pricing_plan_id":"cebpf4jnsgd1na2vs0mg"},{"bike_id":"8e7ae72a-2bb9-49f2-9500-cfb31a4b07a4","system_id":"levelo_inurba_marseille","lat":43.28034,"lon":5.36943,"is_reserved":false,"is_disabled":false,"rental_uris":{"android":"levelo://app?vid=8e7ae72a-2bb9-49f2-9500-cfb31a4b07a4","ios":"levelo://app?vid=8e7ae72a-2bb9-49f2-9500-cfb31a4b07a4"},"vehicle_type_id":"4","last_reported":1728011697,"current_range_meters":6400,"station_id":"ce4bha12rcd13ifvqef0","pricing_plan_id":"cebpf4jnsgd1na2vs0mg"},{"bike_id":"0fc7ae8d-9102-4d20-8337-a47ebec4b5f1","system_id":"levelo_inurba_marseille","lat":43.32542,"lon":5.414454,"is_reserved":false,"is_disabled":false,"rental_uris":{"android":"levelo://app?vid=0fc7ae8d-9102-4d20-8337-a47ebec4b5f1","ios":"levelo://app?vid=0fc7ae8d-9102-4d20-8337-a47ebec4b5f1"},"vehicle_type_id":"4","last_reported":1728011697,"current_range_meters":38800,"station_id":"ce4bhq12rcd13ifvqhhg","pricing_plan_id":"cebpf4jnsgd1na2vs0mg"},{"bike_id":"2b824457-e386-4df9-8146-0a41d729db4a","system_id":"levelo_inurba_marseille","lat":43.30789,"lon":5.37654,"is_reserved":false,"is_disabled":false,"rental_uris":{"android":"levelo://app?vid=2b824457-e386-4df9-8146-0a41d729db4a","ios":"levelo://app?vid=2b824457-e386-4df9-8146-0a41d729db4a"},"vehicle_type_id":"4","last_reported":1728011697,"current_range_meters":37600,"station_id":"ce4bgv92rcd13ifvqcq0","pricing_plan_id":"cebpf4jnsgd1na2vs0mg"},{"bike_id":"a159e45a-7bbf-473c-b638-80b72bd5f9b8","system_id":"levelo_inurba_marseille","lat":43.28353,"lon":5.38643,"is_reserved":false,"is_disabled":false,"rental_uris":{"android":"levelo://app?vid=a159e45a-7bbf-473c-b638-80b72bd5f9b8","ios":"levelo://app?vid=a159e45a-7bbf-473c-b638-80b72bd5f9b8"},"vehicle_type_id":"4","last_reported":1728011697,"current_range_meters":16800,"station_id":"ce4bh492rcd13ifvqdvg","pricing_plan_id":"cebpf4jnsgd1na2vs0mg"},{"bike_id":"73203cb1-288c-45f7-84f9-6ef691f5dd77","system_id":"levelo_inurba_marseille","lat":43.31993,"lon":5.38149,"is_reserved":false,"is_disabled":false,"rental_uris":{"android":"levelo://app?vid=73203cb1-288c-45f7-84f9-6ef691f5dd77","ios":"levelo://app?vid=73203cb1-288c-45f7-84f9-6ef691f5dd77"},"vehicle_type_id":"4","last_reported":1728011697,"current_range_meters":8800,"station_id":"ce4bhr12rcd13ifvqhpg","pricing_plan_id":"cebpf4jnsgd1na2vs0mg"},{"bike_id":"87cb4577-3dfe-4a24-8c26-6556b4507e4f","system_id":"levelo_inurba_marseille","lat":43.27996,"lon":5.4002,"is_reserved":false,"is_disabled":false,"rental_uris":{"android":"levelo://app?vid=87cb4577-3dfe-4a24-8c26-6556b4507e4f","ios":"levelo://app?vid=87cb4577-3dfe-4a24-8c26-6556b4507e4f"},"vehicle_type_id":"4","last_reported":1728011697,"current_range_meters":30800,"station_id":"ce4bho92rcd13ifvqh4g","pricing_plan_id":"cebpf4jnsgd1na2vs0mg"},{"bike_id":"516d3aba-b571-41fd-8a62-0c2036d8398f","system_id":"levelo_inurba_marseille","lat":43.26788,"lon":5.39415,"is_reserved":false,"is_disabled":false,"rental_uris":{"android":"levelo://app?vid=516d3aba-b571-41fd-8a62-0c2036d8398f","ios":"levelo://app?vid=516d3aba-b571-41fd-8a62-0c2036d8398f"},"vehicle_type_id":"4","last_reported":1728011697,"current_range_meters":9600,"station_id":"ce4bhh12rcd13ifvqfg0","pricing_plan_id":"cebpf4jnsgd1na2vs0mg"},{"bike_id":"2e5684a8-9893-45df-af0c-ae283ad85bea","system_id":"levelo_inurba_marseille","lat":43.307781,"lon":5.376637,"is_reserved":false,"is_disabled":false,"rental_uris":{"android":"levelo://app?vid=2e5684a8-9893-45df-af0c-ae283ad85bea","ios":"levelo://app?vid=2e5684a8-9893-45df-af0c-ae283ad85bea"},"vehicle_type_id":"4","last_reported":1728011697,"current_range_meters":30400,"station_id":"ce4bgv92rcd13ifvqcq0","pricing_plan_id":"cebpf4jnsgd1na2vs0mg"},{"bike_id":"55451df6-dc38-4862-8a04-e6a956919556","system_id":"levelo_inurba_marseille","lat":43.312733,"lon":5.401734,"is_reserved":false,"is_disabled":false,"rental_uris":{"android":"levelo://app?vid=55451df6-dc38-4862-8a04-e6a956919556","ios":"levelo://app?vid=55451df6-dc38-4862-8a04-e6a956919556"},"vehicle_type_id":"4","last_reported":1728011697,"current_range_meters":28400,"station_id":"ce4bh092rcd13ifvqd30","pricing_plan_id":"cebpf4jnsgd1na2vs0mg"},{"bike_id":"85a60867-0292-479f-99a9-23810b153b98","system_id":"levelo_inurba_marseille","lat":43.27064,"lon":5.42275,"is_reserved":false,"is_disabled":false,"rental_uris":{"android":"levelo://app?vid=85a60867-0292-479f-99a9-23810b153b98","ios":"levelo://app?vid=85a60867-0292-479f-99a9-23810b153b98"},"vehicle_type_id":"4","last_reported":1728011697,"current_range_meters":10000,"station_id":"ce4bhk92rcd13ifvqgb0","pricing_plan_id":"cebpf4jnsgd1na2vs0mg"},{"bike_id":"4d7b92bd-fb4a-4851-9d74-ec38fbbbdb1b","system_id":"levelo_inurba_marseille","lat":43.337444,"lon":5.374475,"is_reserved":false,"is_disabled":false,"rental_uris":{"android":"levelo://app?vid=4d7b92bd-fb4a-4851-9d74-ec38fbbbdb1b","ios":"levelo://app?vid=4d7b92bd-fb4a-4851-9d74-ec38fbbbdb1b"},"vehicle_type_id":"4","last_reported":1728011697,"current_range_meters":33600,"station_id":"","pricing_plan_id":"cebpf4jnsgd1na2vs0mg"},{"bike_id":"fefb7078-261a-490f-9b4d-afc450c5bd18","system_id":"levelo_inurba_marseille","lat":43.29036,"lon":5.35916,"is_reserved":false,"is_disabled":false,"rental_uris":{"android":"levelo://app?vid=fefb7078-261a-490f-9b4d-afc450c5bd18","ios":"levelo://app?vid=fefb7078-261a-490f-9b4d-afc450c5bd18"},"vehicle_type_id":"4","last_reported":1728011697,"current_range_meters":27200,"station_id":"ce4bha92rcd13ifvqeg0","pricing_plan_id":"cebpf4jnsgd1na2vs0mg"},{"bike_id":"5c8970c0-3ceb-465a-9f61-48e90dd5c290","system_id":"levelo_inurba_marseille","lat":43.25004,"lon":5.38932,"is_reserved":false,"is_disabled":false,"rental_uris":{"android":"levelo://app?vid=5c8970c0-3ceb-465a-9f61-48e90dd5c290","ios":"levelo://app?vid=5c8970c0-3ceb-465a-9f61-48e90dd5c290"},"vehicle_type_id":"4","last_reported":1728011697,"current_range_meters":28000,"station_id":"ce4bhgp2rcd13ifvqfd0","pricing_plan_id":"cebpf4jnsgd1na2vs0mg"},{"bike_id":"526110d2-a906-4bd7-a546-c4b5387f9ebb","system_id":"levelo_inurba_marseille","lat":43.31176,"lon":5.38715,"is_reserved":false,"is_disabled":false,"rental_uris":{"android":"levelo://app?vid=526110d2-a906-4bd7-a546-c4b5387f9ebb","ios":"levelo://app?vid=526110d2-a906-4bd7-a546-c4b5387f9ebb"},"vehicle_type_id":"4","last_reported":1728011697,"current_range_meters":38800,"station_id":"ce4bgv12rcd13ifvqcp0","pricing_plan_id":"cebpf4jnsgd1na2vs0mg"},{"bike_id":"7f329304-c627-4196-8d0f-ef29b0434bf7","system_id":"levelo_inurba_marseille","lat":43.28616,"lon":5.35107,"is_reserved":false,"is_disabled":false,"rental_uris":{"android":"levelo://app?vid=7f329304-c627-4196-8d0f-ef29b0434bf7","ios":"levelo://app?vid=7f329304-c627-4196-8d0f-ef29b0434bf7"},"vehicle_type_id":"4","last_reported":1728011697,"current_range_meters":38800,"station_id":"ce4bhch2rcd13ifvqeug","pricing_plan_id":"cebpf4jnsgd1na2vs0mg"},{"bike_id":"73a8aa32-122e-42e5-a71f-815d06db8ffe","system_id":"levelo_inurba_marseille","lat":43.28106,"lon":5.37838,"is_reserved":false,"is_disabled":false,"rental_uris":{"android":"levelo://app?vid=73a8aa32-122e-42e5-a71f-815d06db8ffe","ios":"levelo://app?vid=73a8aa32-122e-42e5-a71f-815d06db8ffe"},"vehicle_type_id":"4","last_reported":1728011697,"current_range_meters":37600,"station_id":"ce4bha12rcd13ifvqee0","pricing_plan_id":"cebpf4jnsgd1na2vs0mg"},{"bike_id":"b4d92a09-4853-4571-84e2-6fa828263f94","system_id":"levelo_inurba_marseille","lat":43.28367,"lon":5.38634,"is_reserved":false,"is_disabled":false,"rental_uris":{"android":"levelo://app?vid=b4d92a09-4853-4571-84e2-6fa828263f94","ios":"levelo://app?vid=b4d92a09-4853-4571-84e2-6fa828263f94"},"vehicle_type_id":"4","last_reported":1728011697,"current_range_meters":38800,"station_id":"ce4bh492rcd13ifvqdvg","pricing_plan_id":"cebpf4jnsgd1na2vs0mg"},{"bike_id":"0c3863dd-5bcb-40ad-bc6c-60f5392a528a","system_id":"levelo_inurba_marseille","lat":43.286614,"lon":5.363539,"is_reserved":false,"is_disabled":false,"rental_uris":{"android":"levelo://app?vid=0c3863dd-5bcb-40ad-bc6c-60f5392a528a","ios":"levelo://app?vid=0c3863dd-5bcb-40ad-bc6c-60f5392a528a"},"vehicle_type_id":"4","last_reported":1728011697,"current_range_meters":39200,"station_id":"ce4bhah2rcd13ifvqej0","pricing_plan_id":"cebpf4jnsgd1na2vs0mg"},{"bike_id":"b4c92fdd-a27f-4121-8c81-5f89a6a2ba6f","system_id":"levelo_inurba_marseille","lat":43.26938,"lon":5.402593,"is_reserved":false,"is_disabled":false,"rental_uris":{"android":"levelo://app?vid=b4c92fdd-a27f-4121-8c81-5f89a6a2ba6f","ios":"levelo://app?vid=b4c92fdd-a27f-4121-8c81-5f89a6a2ba6f"},"vehicle_type_id":"4","last_reported":1728011697,"current_range_meters":31200,"station_id":"cjm6bp8fraef2m0cb0m0","pricing_plan_id":"cebpf4jnsgd1na2vs0mg"},{"bike_id":"9259589a-427f-4ada-ba20-e0a1ac34b652","system_id":"levelo_inurba_marseille","lat":43.288476,"lon":5.358479,"is_reserved":false,"is_disabled":false,"rental_uris":{"android":"levelo://app?vid=9259589a-427f-4ada-ba20-e0a1ac34b652","ios":"levelo://app?vid=9259589a-427f-4ada-ba20-e0a1ac34b652"},"vehicle_type_id":"4","last_reported":1728011697,"current_range_meters":8000,"station_id":"ce4bhb12rcd13ifvqem0","pricing_plan_id":"cebpf4jnsgd1na2vs0mg"},{"bike_id":"1f75681d-8815-4f4c-be9f-37003ee9a56c","system_id":"levelo_inurba_marseille","lat":43.28415,"lon":5.37519,"is_reserved":false,"is_disabled":false,"rental_uris":{"android":"levelo://app?vid=1f75681d-8815-4f4c-be9f-37003ee9a56c","ios":"levelo://app?vid=1f75681d-8815-4f4c-be9f-37003ee9a56c"},"vehicle_type_id":"4","last_reported":1728011697,"current_range_meters":37600,"station_id":"ce4bh412rcd13ifvqds0","pricing_plan_id":"cebpf4jnsgd1na2vs0mg"},{"bike_id":"ebdbb6b1-6d67-4fd7-840a-5f2c87792587","system_id":"levelo_inurba_marseille","lat":43.28703,"lon":5.39978,"is_reserved":false,"is_disabled":false,"rental_uris":{"android":"levelo://app?vid=ebdbb6b1-6d67-4fd7-840a-5f2c87792587","ios":"levelo://app?vid=ebdbb6b1-6d67-4fd7-840a-5f2c87792587"},"vehicle_type_id":"4","last_reported":1728011697,"current_range_meters":28400,"station_id":"ce4bho92rcd13ifvqh3g","pricing_plan_id":"cebpf4jnsgd1na2vs0mg"},{"bike_id":"2e02cc92-145f-42bf-ae64-18ae7f48ff66","system_id":"levelo_inurba_marseille","lat":43.28419,"lon":5.37512,"is_reserved":false,"is_disabled":false,"rental_uris":{"android":"levelo://app?vid=2e02cc92-145f-42bf-ae64-18ae7f48ff66","ios":"levelo://app?vid=2e02cc92-145f-42bf-ae64-18ae7f48ff66"},"vehicle_type_id":"4","last_reported":1728011697,"current_range_meters":35200,"station_id":"ce4bh412rcd13ifvqds0","pricing_plan_id":"cebpf4jnsgd1na2vs0mg"},{"bike_id":"e8b8d4c8-39b2-44d6-8746-b10d06ad76b6","system_id":"levelo_inurba_marseille","lat":43.3153,"lon":5.38032,"is_reserved":false,"is_disabled":false,"rental_uris":{"android":"levelo://app?vid=e8b8d4c8-39b2-44d6-8746-b10d06ad76b6","ios":"levelo://app?vid=e8b8d4c8-39b2-44d6-8746-b10d06ad76b6"},"vehicle_type_id":"4","last_reported":1728011697,"current_range_meters":38800,"station_id":"ce4bhsp2rcd13ifvqi50","pricing_plan_id":"cebpf4jnsgd1na2vs0mg"},{"bike_id":"1f854782-f4b9-4682-ad08-b948bfab0f26","system_id":"levelo_inurba_marseille","lat":43.28409,"lon":5.37525,"is_reserved":false,"is_disabled":false,"rental_uris":{"android":"levelo://app?vid=1f854782-f4b9-4682-ad08-b948bfab0f26","ios":"levelo://app?vid=1f854782-f4b9-4682-ad08-b948bfab0f26"},"vehicle_type_id":"4","last_reported":1728011697,"current_range_meters":35200,"station_id":"ce4bh412rcd13ifvqds0","pricing_plan_id":"cebpf4jnsgd1na2vs0mg"},{"bike_id":"4a5b4e70-55fd-4222-918a-b99e2fd0d8e3","system_id":"levelo_inurba_marseille","lat":43.3169,"lon":5.40464,"is_reserved":false,"is_disabled":false,"rental_uris":{"android":"levelo://app?vid=4a5b4e70-55fd-4222-918a-b99e2fd0d8e3","ios":"levelo://app?vid=4a5b4e70-55fd-4222-918a-b99e2fd0d8e3"},"vehicle_type_id":"4","last_reported":1728011697,"current_range_meters":38800,"station_id":"ce4bh012rcd13ifvqd00","pricing_plan_id":"cebpf4jnsgd1na2vs0mg"},{"bike_id":"c34cde31-fc71-4d5b-9a3a-071edffbabc8","system_id":"levelo_inurba_marseille","lat":43.295524,"lon":5.394024,"is_reserved":false,"is_disabled":false,"rental_uris":{"android":"levelo://app?vid=c34cde31-fc71-4d5b-9a3a-071edffbabc8","ios":"levelo://app?vid=c34cde31-fc71-4d5b-9a3a-071edffbabc8"},"vehicle_type_id":"4","last_reported":1728011697,"current_range_meters":28800,"station_id":"ce4bh292rcd13ifvqdf0","pricing_plan_id":"cebpf4jnsgd1na2vs0mg"},{"bike_id":"781757d6-91df-4aa1-afd2-cfd41967db46","system_id":"levelo_inurba_marseille","lat":43.25003,"lon":5.38927,"is_reserved":false,"is_disabled":false,"rental_uris":{"android":"levelo://app?vid=781757d6-91df-4aa1-afd2-cfd41967db46","ios":"levelo://app?vid=781757d6-91df-4aa1-afd2-cfd41967db46"},"vehicle_type_id":"4","last_reported":1728011697,"current_range_meters":39200,"station_id":"ce4bhgp2rcd13ifvqfd0","pricing_plan_id":"cebpf4jnsgd1na2vs0mg"},{"bike_id":"f524501b-97a9-49f6-b290-d3c0acde9c9b","system_id":"levelo_inurba_marseille","lat":43.320434,"lon":5.415382,"is_reserved":false,"is_disabled":false,"rental_uris":{"android":"levelo://app?vid=f524501b-97a9-49f6-b290-d3c0acde9c9b","ios":"levelo://app?vid=f524501b-97a9-49f6-b290-d3c0acde9c9b"},"vehicle_type_id":"4","last_reported":1728011697,"current_range_meters":32400,"station_id":"ce4bhq92rcd13ifvqhkg","pricing_plan_id":"cebpf4jnsgd1na2vs0mg"},{"bike_id":"0a0e3134-ea1a-4535-bd74-0ca38322a4f4","system_id":"levelo_inurba_marseille","lat":43.28717,"lon":5.39995,"is_reserved":false,"is_disabled":false,"rental_uris":{"android":"levelo://app?vid=0a0e3134-ea1a-4535-bd74-0ca38322a4f4","ios":"levelo://app?vid=0a0e3134-ea1a-4535-bd74-0ca38322a4f4"},"vehicle_type_id":"4","last_reported":1728011697,"current_range_meters":38800,"station_id":"ce4bho92rcd13ifvqh3g","pricing_plan_id":"cebpf4jnsgd1na2vs0mg"},{"bike_id":"a7655235-b324-48d0-a81b-428bb02118ce","system_id":"levelo_inurba_marseille","lat":43.285689,"lon":5.394929,"is_reserved":false,"is_disabled":false,"rental_uris":{"android":"levelo://app?vid=a7655235-b324-48d0-a81b-428bb02118ce","ios":"levelo://app?vid=a7655235-b324-48d0-a81b-428bb02118ce"},"vehicle_type_id":"4","last_reported":1728011697,"current_range_meters":38800,"station_id":"ce4bh292rcd13ifvqdg0","pricing_plan_id":"cebpf4jnsgd1na2vs0mg"},{"bike_id":"d569267f-419a-4d36-a732-0ebbc564ff43","system_id":"levelo_inurba_marseille","lat":43.26209,"lon":5.37919,"is_reserved":false,"is_disabled":false,"rental_uris":{"android":"levelo://app?vid=d569267f-419a-4d36-a732-0ebbc564ff43","ios":"levelo://app?vid=d569267f-419a-4d36-a732-0ebbc564ff43"},"vehicle_type_id":"4","last_reported":1728011697,"current_range_meters":38400,"station_id":"ce4bhjp2rcd13ifvqg90","pricing_plan_id":"cebpf4jnsgd1na2vs0mg"},{"bike_id":"fd872ba7-9877-4e67-9269-d8995abba644","system_id":"levelo_inurba_marseille","lat":43.22936,"lon":5.35377,"is_reserved":false,"is_disabled":false,"rental_uris":{"android":"levelo://app?vid=fd872ba7-9877-4e67-9269-d8995abba644","ios":"levelo://app?vid=fd872ba7-9877-4e67-9269-d8995abba644"},"vehicle_type_id":"4","last_reported":1728011697,"current_range_meters":22800,"station_id":"cpo3532slgdg3j2ikp40","pricing_plan_id":"cebpf4jnsgd1na2vs0mg"},{"bike_id":"9fb86a20-7907-4afc-930c-d46f6a76a1d1","system_id":"levelo_inurba_marseille","lat":43.308912,"lon":5.396386,"is_reserved":false,"is_disabled":false,"rental_uris":{"android":"levelo://app?vid=9fb86a20-7907-4afc-930c-d46f6a76a1d1","ios":"levelo://app?vid=9fb86a20-7907-4afc-930c-d46f6a76a1d1"},"vehicle_type_id":"4","last_reported":1728011697,"current_range_meters":38400,"station_id":"ce4bh012rcd13ifvqcv0","pricing_plan_id":"cebpf4jnsgd1na2vs0mg"},{"bike_id":"91913e38-2c79-4744-bc0b-e9ceeafdd2e6","system_id":"levelo_inurba_marseille","lat":43.29228,"lon":5.36059,"is_reserved":false,"is_disabled":false,"rental_uris":{"android":"levelo://app?vid=91913e38-2c79-4744-bc0b-e9ceeafdd2e6","ios":"levelo://app?vid=91913e38-2c79-4744-bc0b-e9ceeafdd2e6"},"vehicle_type_id":"4","last_reported":1728011697,"current_range_meters":38800,"station_id":"ce4bhbh2rcd13ifvqeqg","pricing_plan_id":"cebpf4jnsgd1na2vs0mg"},{"bike_id":"e2e710fa-18d1-4640-8843-7ba0cc5f8fd8","system_id":"levelo_inurba_marseille","lat":43.295739,"lon":5.399643,"is_reserved":false,"is_disabled":false,"rental_uris":{"android":"levelo://app?vid=e2e710fa-18d1-4640-8843-7ba0cc5f8fd8","ios":"levelo://app?vid=e2e710fa-18d1-4640-8843-7ba0cc5f8fd8"},"vehicle_type_id":"4","last_reported":1728011697,"current_range_meters":38800,"station_id":"ce4bh312rcd13ifvqdj0","pricing_plan_id":"cebpf4jnsgd1na2vs0mg"},{"bike_id":"c1b845b1-b148-48e3-b795-440066e77ead","system_id":"levelo_inurba_marseille","lat":43.30553,"lon":5.36692,"is_reserved":false,"is_disabled":false,"rental_uris":{"android":"levelo://app?vid=c1b845b1-b148-48e3-b795-440066e77ead","ios":"levelo://app?vid=c1b845b1-b148-48e3-b795-440066e77ead"},"vehicle_type_id":"4","last_reported":1728011697,"current_range_meters":38800,"station_id":"ce4bgrp2rcd13ifvqc9g","pricing_plan_id":"cebpf4jnsgd1na2vs0mg"},{"bike_id":"1dff6269-77de-4259-8d5b-2ea73afb5126","system_id":"levelo_inurba_marseille","lat":43.24667,"lon":5.38163,"is_reserved":false,"is_disabled":false,"rental_uris":{"android":"levelo://app?vid=1dff6269-77de-4259-8d5b-2ea73afb5126","ios":"levelo://app?vid=1dff6269-77de-4259-8d5b-2ea73afb5126"},"vehicle_type_id":"4","last_reported":1728011697,"current_range_meters":38800,"station_id":"ce4bhih2rcd13ifvqfr0","pricing_plan_id":"cebpf4jnsgd1na2vs0mg"},{"bike_id":"702e9c55-751f-4ce7-a531-616a3a8345a6","system_id":"levelo_inurba_marseille","lat":43.30414,"lon":5.41286,"is_reserved":false,"is_disabled":false,"rental_uris":{"android":"levelo://app?vid=702e9c55-751f-4ce7-a531-616a3a8345a6","ios":"levelo://app?vid=702e9c55-751f-4ce7-a531-616a3a8345a6"},"vehicle_type_id":"4","last_reported":1728011697,"current_range_meters":24400,"station_id":"ce4bhop2rcd13ifvqh8g","pricing_plan_id":"cebpf4jnsgd1na2vs0mg"},{"bike_id":"08f8d884-ea33-4876-95c5-27ca37eb95d1","system_id":"levelo_inurba_marseille","lat":43.29791,"lon":5.39349,"is_reserved":false,"is_disabled":false,"rental_uris":{"android":"levelo://app?vid=08f8d884-ea33-4876-95c5-27ca37eb95d1","ios":"levelo://app?vid=08f8d884-ea33-4876-95c5-27ca37eb95d1"},"vehicle_type_id":"4","last_reported":1728011697,"current_range_meters":37600,"station_id":"chh1huq6cuj3fo74tm60","pricing_plan_id":"cebpf4jnsgd1na2vs0mg"},{"bike_id":"9c245083-b5d5-467e-999e-3b86c3163f23","system_id":"levelo_inurba_marseille","lat":43.284644,"lon":5.358887,"is_reserved":false,"is_disabled":false,"rental_uris":{"android":"levelo://app?vid=9c245083-b5d5-467e-999e-3b86c3163f23","ios":"levelo://app?vid=9c245083-b5d5-467e-999e-3b86c3163f23"},"vehicle_type_id":"4","last_reported":1728011697,"current_range_meters":39200,"station_id":"ce4bhah2rcd13ifvqei0","pricing_plan_id":"cebpf4jnsgd1na2vs0mg"},{"bike_id":"1528896e-590d-45aa-930c-f5e190969a0b","system_id":"levelo_inurba_marseille","lat":43.28079,"lon":5.39665,"is_reserved":false,"is_disabled":false,"rental_uris":{"android":"levelo://app?vid=1528896e-590d-45aa-930c-f5e190969a0b","ios":"levelo://app?vid=1528896e-590d-45aa-930c-f5e190969a0b"},"vehicle_type_id":"4","last_reported":1728011697,"current_range_meters":37600,"station_id":"ce4bho12rcd13ifvqh2g","pricing_plan_id":"cebpf4jnsgd1na2vs0mg"},{"bike_id":"2bc06e6f-9d5f-4eeb-b0d9-84fb37e9f025","system_id":"levelo_inurba_marseille","lat":43.27904,"lon":5.38026,"is_reserved":false,"is_disabled":false,"rental_uris":{"android":"levelo://app?vid=2bc06e6f-9d5f-4eeb-b0d9-84fb37e9f025","ios":"levelo://app?vid=2bc06e6f-9d5f-4eeb-b0d9-84fb37e9f025"},"vehicle_type_id":"4","last_reported":1728011697,"current_range_meters":6400,"station_id":"ce4bhf92rcd13ifvqf50","pricing_plan_id":"cebpf4jnsgd1na2vs0mg"},{"bike_id":"b8248326-5d04-423d-9724-3a953d4e8c2c","system_id":"levelo_inurba_marseille","lat":43.284645,"lon":5.358906,"is_reserved":false,"is_disabled":false,"rental_uris":{"android":"levelo://app?vid=b8248326-5d04-423d-9724-3a953d4e8c2c","ios":"levelo://app?vid=b8248326-5d04-423d-9724-3a953d4e8c2c"},"vehicle_type_id":"4","last_reported":1728011697,"current_range_meters":12000,"station_id":"ce4bhah2rcd13ifvqei0","pricing_plan_id":"cebpf4jnsgd1na2vs0mg"},{"bike_id":"475ed610-462d-43a0-aca3-4df3f8e08a69","system_id":"levelo_inurba_marseille","lat":43.27639,"lon":5.38919,"is_reserved":false,"is_disabled":false,"rental_uris":{"android":"levelo://app?vid=475ed610-462d-43a0-aca3-4df3f8e08a69","ios":"levelo://app?vid=475ed610-462d-43a0-aca3-4df3f8e08a69"},"vehicle_type_id":"4","last_reported":1728011697,"current_range_meters":30800,"station_id":"","pricing_plan_id":"cebpf4jnsgd1na2vs0mg"},{"bike_id":"a8287693-ee1a-4e37-8147-45dd88d7f731","system_id":"levelo_inurba_marseille","lat":43.28073,"lon":5.39652,"is_reserved":false,"is_disabled":false,"rental_uris":{"android":"levelo://app?vid=a8287693-ee1a-4e37-8147-45dd88d7f731","ios":"levelo://app?vid=a8287693-ee1a-4e37-8147-45dd88d7f731"},"vehicle_type_id":"4","last_reported":1728011697,"current_range_meters":28800,"station_id":"ce4bho12rcd13ifvqh2g","pricing_plan_id":"cebpf4jnsgd1na2vs0mg"},{"bike_id":"ac4e8631-b912-40d0-afbd-f7e7f710a14c","system_id":"levelo_inurba_marseille","lat":43.2922,"lon":5.36075,"is_reserved":false,"is_disabled":false,"rental_uris":{"android":"levelo://app?vid=ac4e8631-b912-40d0-afbd-f7e7f710a14c","ios":"levelo://app?vid=ac4e8631-b912-40d0-afbd-f7e7f710a14c"},"vehicle_type_id":"4","last_reported":1728011697,"current_range_meters":38800,"station_id":"ce4bhbh2rcd13ifvqeqg","pricing_plan_id":"cebpf4jnsgd1na2vs0mg"},{"bike_id":"38546c28-50c2-441c-883a-e43a446f8587","system_id":"levelo_inurba_marseille","lat":43.28417,"lon":5.37516,"is_reserved":false,"is_disabled":false,"rental_uris":{"android":"levelo://app?vid=38546c28-50c2-441c-883a-e43a446f8587","ios":"levelo://app?vid=38546c28-50c2-441c-883a-e43a446f8587"},"vehicle_type_id":"4","last_reported":1728011697,"current_range_meters":38800,"station_id":"ce4bh412rcd13ifvqds0","pricing_plan_id":"cebpf4jnsgd1na2vs0mg"},{"bike_id":"fde0d2d1-af88-43e1-b171-23e843cd4e70","system_id":"levelo_inurba_marseille","lat":43.32334,"lon":5.40618,"is_reserved":false,"is_disabled":false,"rental_uris":{"android":"levelo://app?vid=fde0d2d1-af88-43e1-b171-23e843cd4e70","ios":"levelo://app?vid=fde0d2d1-af88-43e1-b171-23e843cd4e70"},"vehicle_type_id":"4","last_reported":1728011697,"current_range_meters":16800,"station_id":"ce4bhq92rcd13ifvqhjg","pricing_plan_id":"cebpf4jnsgd1na2vs0mg"},{"bike_id":"1a757c2e-e169-407e-a0ea-0da4d6016afe","system_id":"levelo_inurba_marseille","lat":43.26555,"lon":5.37288,"is_reserved":false,"is_disabled":false,"rental_uris":{"android":"levelo://app?vid=1a757c2e-e169-407e-a0ea-0da4d6016afe","ios":"levelo://app?vid=1a757c2e-e169-407e-a0ea-0da4d6016afe"},"vehicle_type_id":"4","last_reported":1728011697,"current_range_meters":28800,"station_id":"ce4bhg12rcd13ifvqf70","pricing_plan_id":"cebpf4jnsgd1na2vs0mg"},{"bike_id":"92b5c022-a316-4370-85f1-cd9056a17cee","system_id":"levelo_inurba_marseille","lat":43.29874,"lon":5.39741,"is_reserved":false,"is_disabled":false,"rental_uris":{"android":"levelo://app?vid=92b5c022-a316-4370-85f1-cd9056a17cee","ios":"levelo://app?vid=92b5c022-a316-4370-85f1-cd9056a17cee"},"vehicle_type_id":"4","last_reported":1728011697,"current_range_meters":11600,"station_id":"ce4bh0h2rcd13ifvqd50","pricing_plan_id":"cebpf4jnsgd1na2vs0mg"},{"bike_id":"d2837eff-1fe3-4dad-833e-63f38367d961","system_id":"levelo_inurba_marseille","lat":43.28822,"lon":5.35862,"is_reserved":false,"is_disabled":false,"rental_uris":{"android":"levelo://app?vid=d2837eff-1fe3-4dad-833e-63f38367d961","ios":"levelo://app?vid=d2837eff-1fe3-4dad-833e-63f38367d961"},"vehicle_type_id":"4","last_reported":1728011697,"current_range_meters":38400,"station_id":"ce4bhb12rcd13ifvqem0","pricing_plan_id":"cebpf4jnsgd1na2vs0mg"},{"bike_id":"e5df9faf-fb5e-49de-ad70-a689817bf186","system_id":"levelo_inurba_marseille","lat":43.284018,"lon":5.375213,"is_reserved":false,"is_disabled":false,"rental_uris":{"android":"levelo://app?vid=e5df9faf-fb5e-49de-ad70-a689817bf186","ios":"levelo://app?vid=e5df9faf-fb5e-49de-ad70-a689817bf186"},"vehicle_type_id":"4","last_reported":1728011697,"current_range_meters":38800,"station_id":"ce4bh412rcd13ifvqds0","pricing_plan_id":"cebpf4jnsgd1na2vs0mg"},{"bike_id":"74e09656-989f-417c-8e64-04011ab80207","system_id":"levelo_inurba_marseille","lat":43.32334,"lon":5.40615,"is_reserved":false,"is_disabled":false,"rental_uris":{"android":"levelo://app?vid=74e09656-989f-417c-8e64-04011ab80207","ios":"levelo://app?vid=74e09656-989f-417c-8e64-04011ab80207"},"vehicle_type_id":"4","last_reported":1728011697,"current_range_meters":4800,"station_id":"ce4bhq92rcd13ifvqhjg","pricing_plan_id":"cebpf4jnsgd1na2vs0mg"},{"bike_id":"5a02f645-9cc6-4f35-9970-15f726b82b63","system_id":"levelo_inurba_marseille","lat":43.25088,"lon":5.39527,"is_reserved":false,"is_disabled":false,"rental_uris":{"android":"levelo://app?vid=5a02f645-9cc6-4f35-9970-15f726b82b63","ios":"levelo://app?vid=5a02f645-9cc6-4f35-9970-15f726b82b63"},"vehicle_type_id":"4","last_reported":1728011697,"current_range_meters":39200,"station_id":"ce4bhm12rcd13ifvqgkg","pricing_plan_id":"cebpf4jnsgd1na2vs0mg"},{"bike_id":"4061a425-0fa8-4b85-ba2e-dd23d5b416e9","system_id":"levelo_inurba_marseille","lat":43.288409,"lon":5.358421,"is_reserved":false,"is_disabled":false,"rental_uris":{"android":"levelo://app?vid=4061a425-0fa8-4b85-ba2e-dd23d5b416e9","ios":"levelo://app?vid=4061a425-0fa8-4b85-ba2e-dd23d5b416e9"},"vehicle_type_id":"4","last_reported":1728011697,"current_range_meters":34800,"station_id":"ce4bhb12rcd13ifvqem0","pricing_plan_id":"cebpf4jnsgd1na2vs0mg"},{"bike_id":"525e851f-b6fd-4226-b024-d76bd655edd1","system_id":"levelo_inurba_marseille","lat":43.23191,"lon":5.39995,"is_reserved":false,"is_disabled":false,"rental_uris":{"android":"levelo://app?vid=525e851f-b6fd-4226-b024-d76bd655edd1","ios":"levelo://app?vid=525e851f-b6fd-4226-b024-d76bd655edd1"},"vehicle_type_id":"4","last_reported":1728011697,"current_range_meters":30800,"station_id":"ce4bhn12rcd13ifvqgqg","pricing_plan_id":"cebpf4jnsgd1na2vs0mg"},{"bike_id":"23ea3717-b4ed-444e-aeab-56fb429d247d","system_id":"levelo_inurba_marseille","lat":43.29203,"lon":5.35801,"is_reserved":false,"is_disabled":false,"rental_uris":{"android":"levelo://app?vid=23ea3717-b4ed-444e-aeab-56fb429d247d","ios":"levelo://app?vid=23ea3717-b4ed-444e-aeab-56fb429d247d"},"vehicle_type_id":"4","last_reported":1728011697,"current_range_meters":38800,"station_id":"ce4bhb12rcd13ifvqel0","pricing_plan_id":"cebpf4jnsgd1na2vs0mg"},{"bike_id":"f9377f29-a9cf-4a7c-bb67-7be4ef2eeafe","system_id":"levelo_inurba_marseille","lat":43.316984,"lon":5.377567,"is_reserved":false,"is_disabled":false,"rental_uris":{"android":"levelo://app?vid=f9377f29-a9cf-4a7c-bb67-7be4ef2eeafe","ios":"levelo://app?vid=f9377f29-a9cf-4a7c-bb67-7be4ef2eeafe"},"vehicle_type_id":"4","last_reported":1728011697,"current_range_meters":38000,"station_id":"ce4bgth2rcd13ifvqch0","pricing_plan_id":"cebpf4jnsgd1na2vs0mg"},{"bike_id":"056e55e6-ba40-4c94-acbf-f3ceca7f6da3","system_id":"levelo_inurba_marseille","lat":43.29279,"lon":5.40124,"is_reserved":false,"is_disabled":false,"rental_uris":{"android":"levelo://app?vid=056e55e6-ba40-4c94-acbf-f3ceca7f6da3","ios":"levelo://app?vid=056e55e6-ba40-4c94-acbf-f3ceca7f6da3"},"vehicle_type_id":"4","last_reported":1728011697,"current_range_meters":16000,"station_id":"ce4bh312rcd13ifvqdk0","pricing_plan_id":"cebpf4jnsgd1na2vs0mg"},{"bike_id":"97cca60a-be6b-447f-a75e-09e346abb21c","system_id":"levelo_inurba_marseille","lat":43.25819,"lon":5.3943,"is_reserved":false,"is_disabled":false,"rental_uris":{"android":"levelo://app?vid=97cca60a-be6b-447f-a75e-09e346abb21c","ios":"levelo://app?vid=97cca60a-be6b-447f-a75e-09e346abb21c"},"vehicle_type_id":"4","last_reported":1728011697,"current_range_meters":38800,"station_id":"ce4bhip2rcd13ifvqft0","pricing_plan_id":"cebpf4jnsgd1na2vs0mg"},{"bike_id":"ec340770-9790-495a-a317-35951a73ba45","system_id":"levelo_inurba_marseille","lat":43.30604,"lon":5.37227,"is_reserved":false,"is_disabled":false,"rental_uris":{"android":"levelo://app?vid=ec340770-9790-495a-a317-35951a73ba45","ios":"levelo://app?vid=ec340770-9790-495a-a317-35951a73ba45"},"vehicle_type_id":"4","last_reported":1728011697,"current_range_meters":24400,"station_id":"ce4bgqh2rcd13ifvqc4g","pricing_plan_id":"cebpf4jnsgd1na2vs0mg"},{"bike_id":"16a50fa2-597a-4294-a3d5-c35e56ef70a0","system_id":"levelo_inurba_marseille","lat":43.32544,"lon":5.41439,"is_reserved":false,"is_disabled":false,"rental_uris":{"android":"levelo://app?vid=16a50fa2-597a-4294-a3d5-c35e56ef70a0","ios":"levelo://app?vid=16a50fa2-597a-4294-a3d5-c35e56ef70a0"},"vehicle_type_id":"4","last_reported":1728011697,"current_range_meters":38000,"station_id":"ce4bhq12rcd13ifvqhhg","pricing_plan_id":"cebpf4jnsgd1na2vs0mg"},{"bike_id":"81293a8e-e273-4d5d-a50a-a1b9253b0a28","system_id":"levelo_inurba_marseille","lat":43.326484,"lon":5.410017,"is_reserved":false,"is_disabled":false,"rental_uris":{"android":"levelo://app?vid=81293a8e-e273-4d5d-a50a-a1b9253b0a28","ios":"levelo://app?vid=81293a8e-e273-4d5d-a50a-a1b9253b0a28"},"vehicle_type_id":"4","last_reported":1728011697,"current_range_meters":32400,"station_id":"ce4bhpp2rcd13ifvqhgg","pricing_plan_id":"cebpf4jnsgd1na2vs0mg"},{"bike_id":"4e3c7c25-d062-40ab-b46b-95c89b278538","system_id":"levelo_inurba_marseille","lat":43.31119,"lon":5.37767,"is_reserved":false,"is_disabled":false,"rental_uris":{"android":"levelo://app?vid=4e3c7c25-d062-40ab-b46b-95c89b278538","ios":"levelo://app?vid=4e3c7c25-d062-40ab-b46b-95c89b278538"},"vehicle_type_id":"4","last_reported":1728011697,"current_range_meters":30400,"station_id":"ce4bgt92rcd13ifvqcg0","pricing_plan_id":"cebpf4jnsgd1na2vs0mg"},{"bike_id":"53c6fe7a-c5f0-4c29-bdb6-08c6c7db5c71","system_id":"levelo_inurba_marseille","lat":43.32107,"lon":5.36771,"is_reserved":false,"is_disabled":false,"rental_uris":{"android":"levelo://app?vid=53c6fe7a-c5f0-4c29-bdb6-08c6c7db5c71","ios":"levelo://app?vid=53c6fe7a-c5f0-4c29-bdb6-08c6c7db5c71"},"vehicle_type_id":"4","last_reported":1728011697,"current_range_meters":7200,"station_id":"ce4bhrh2rcd13ifvqhug","pricing_plan_id":"cebpf4jnsgd1na2vs0mg"},{"bike_id":"3cc954e3-013b-47f6-b1e5-c5a81185f52b","system_id":"levelo_inurba_marseille","lat":43.30952,"lon":5.39652,"is_reserved":false,"is_disabled":false,"rental_uris":{"android":"levelo://app?vid=3cc954e3-013b-47f6-b1e5-c5a81185f52b","ios":"levelo://app?vid=3cc954e3-013b-47f6-b1e5-c5a81185f52b"},"vehicle_type_id":"4","last_reported":1728011697,"current_range_meters":20000,"station_id":"","pricing_plan_id":"cebpf4jnsgd1na2vs0mg"},{"bike_id":"920f7d12-78b0-49d3-84c9-fb80e5d4b6f7","system_id":"levelo_inurba_marseille","lat":43.24651,"lon":5.38901,"is_reserved":false,"is_disabled":false,"rental_uris":{"android":"levelo://app?vid=920f7d12-78b0-49d3-84c9-fb80e5d4b6f7","ios":"levelo://app?vid=920f7d12-78b0-49d3-84c9-fb80e5d4b6f7"},"vehicle_type_id":"4","last_reported":1728011697,"current_range_meters":4800,"station_id":"ce4bhg12rcd13ifvqf60","pricing_plan_id":"cebpf4jnsgd1na2vs0mg"},{"bike_id":"6ce60676-3f86-4aaa-a5df-572436c32ad4","system_id":"levelo_inurba_marseille","lat":43.23196,"lon":5.3555,"is_reserved":false,"is_disabled":false,"rental_uris":{"android":"levelo://app?vid=6ce60676-3f86-4aaa-a5df-572436c32ad4","ios":"levelo://app?vid=6ce60676-3f86-4aaa-a5df-572436c32ad4"},"vehicle_type_id":"4","last_reported":1728011697,"current_range_meters":16800,"station_id":"ce4bhu92rcd13ifvqi70","pricing_plan_id":"cebpf4jnsgd1na2vs0mg"},{"bike_id":"bb1d45c3-f50a-4ba0-9942-1edc9ffd3ed6","system_id":"levelo_inurba_marseille","lat":43.24997,"lon":5.38932,"is_reserved":false,"is_disabled":false,"rental_uris":{"android":"levelo://app?vid=bb1d45c3-f50a-4ba0-9942-1edc9ffd3ed6","ios":"levelo://app?vid=bb1d45c3-f50a-4ba0-9942-1edc9ffd3ed6"},"vehicle_type_id":"4","last_reported":1728011697,"current_range_meters":36400,"station_id":"ce4bhgp2rcd13ifvqfd0","pricing_plan_id":"cebpf4jnsgd1na2vs0mg"},{"bike_id":"c59a62a2-ad87-4538-8860-42039acb6fe1","system_id":"levelo_inurba_marseille","lat":43.3047,"lon":5.37903,"is_reserved":false,"is_disabled":false,"rental_uris":{"android":"levelo://app?vid=c59a62a2-ad87-4538-8860-42039acb6fe1","ios":"levelo://app?vid=c59a62a2-ad87-4538-8860-42039acb6fe1"},"vehicle_type_id":"4","last_reported":1728011697,"current_range_meters":26800,"station_id":"ce4bgup2rcd13ifvqcn0","pricing_plan_id":"cebpf4jnsgd1na2vs0mg"},{"bike_id":"3abf463e-56e4-4a6c-9167-6be6cc4ff307","system_id":"levelo_inurba_marseille","lat":43.28567,"lon":5.39507,"is_reserved":false,"is_disabled":false,"rental_uris":{"android":"levelo://app?vid=3abf463e-56e4-4a6c-9167-6be6cc4ff307","ios":"levelo://app?vid=3abf463e-56e4-4a6c-9167-6be6cc4ff307"},"vehicle_type_id":"4","last_reported":1728011697,"current_range_meters":39200,"station_id":"ce4bh292rcd13ifvqdg0","pricing_plan_id":"cebpf4jnsgd1na2vs0mg"},{"bike_id":"662f738e-b790-43ea-9d44-7b029b468d99","system_id":"levelo_inurba_marseille","lat":43.24177,"lon":5.39727,"is_reserved":false,"is_disabled":false,"rental_uris":{"android":"levelo://app?vid=662f738e-b790-43ea-9d44-7b029b468d99","ios":"levelo://app?vid=662f738e-b790-43ea-9d44-7b029b468d99"},"vehicle_type_id":"4","last_reported":1728011697,"current_range_meters":38400,"station_id":"ce4bhn12rcd13ifvqgpg","pricing_plan_id":"cebpf4jnsgd1na2vs0mg"},{"bike_id":"632bf4ef-fc05-4f3a-a527-d8a2cc756366","system_id":"levelo_inurba_marseille","lat":43.291963,"lon":5.393324,"is_reserved":false,"is_disabled":false,"rental_uris":{"android":"levelo://app?vid=632bf4ef-fc05-4f3a-a527-d8a2cc756366","ios":"levelo://app?vid=632bf4ef-fc05-4f3a-a527-d8a2cc756366"},"vehicle_type_id":"4","last_reported":1728011697,"current_range_meters":38800,"station_id":"ce4bh192rcd13ifvqdd0","pricing_plan_id":"cebpf4jnsgd1na2vs0mg"},{"bike_id":"7871e31a-50c3-4ce1-9cc5-64ff471333a0","system_id":"levelo_inurba_marseille","lat":43.282697,"lon":5.350804,"is_reserved":false,"is_disabled":false,"rental_uris":{"android":"levelo://app?vid=7871e31a-50c3-4ce1-9cc5-64ff471333a0","ios":"levelo://app?vid=7871e31a-50c3-4ce1-9cc5-64ff471333a0"},"vehicle_type_id":"4","last_reported":1728011697,"current_range_meters":39200,"station_id":"ce4bhbp2rcd13ifvqerg","pricing_plan_id":"cebpf4jnsgd1na2vs0mg"},{"bike_id":"93106a67-b122-459c-a4ea-31e43ee0cb9a","system_id":"levelo_inurba_marseille","lat":43.28619,"lon":5.35103,"is_reserved":false,"is_disabled":false,"rental_uris":{"android":"levelo://app?vid=93106a67-b122-459c-a4ea-31e43ee0cb9a","ios":"levelo://app?vid=93106a67-b122-459c-a4ea-31e43ee0cb9a"},"vehicle_type_id":"4","last_reported":1728011697,"current_range_meters":38800,"station_id":"ce4bhch2rcd13ifvqeug","pricing_plan_id":"cebpf4jnsgd1na2vs0mg"},{"bike_id":"868e29ec-ebfe-4770-9e6b-3e7f4b857dd2","system_id":"levelo_inurba_marseille","lat":43.30786,"lon":5.38152,"is_reserved":false,"is_disabled":false,"rental_uris":{"android":"levelo://app?vid=868e29ec-ebfe-4770-9e6b-3e7f4b857dd2","ios":"levelo://app?vid=868e29ec-ebfe-4770-9e6b-3e7f4b857dd2"},"vehicle_type_id":"4","last_reported":1728011697,"current_range_meters":29600,"station_id":"ce4bgt12rcd13ifvqce0","pricing_plan_id":"cebpf4jnsgd1na2vs0mg"},{"bike_id":"e11e5dbf-f7e2-498d-94f0-51a7d383d050","system_id":"levelo_inurba_marseille","lat":43.2988,"lon":5.39738,"is_reserved":false,"is_disabled":false,"rental_uris":{"android":"levelo://app?vid=e11e5dbf-f7e2-498d-94f0-51a7d383d050","ios":"levelo://app?vid=e11e5dbf-f7e2-498d-94f0-51a7d383d050"},"vehicle_type_id":"4","last_reported":1728011697,"current_range_meters":38800,"station_id":"ce4bh0h2rcd13ifvqd50","pricing_plan_id":"cebpf4jnsgd1na2vs0mg"},{"bike_id":"14457725-1dad-4705-8dc9-35dee84023ac","system_id":"levelo_inurba_marseille","lat":43.31725,"lon":5.424,"is_reserved":false,"is_disabled":false,"rental_uris":{"android":"levelo://app?vid=14457725-1dad-4705-8dc9-35dee84023ac","ios":"levelo://app?vid=14457725-1dad-4705-8dc9-35dee84023ac"},"vehicle_type_id":"4","last_reported":1728011697,"current_range_meters":24000,"station_id":"ce4bhp92rcd13ifvqhbg","pricing_plan_id":"cebpf4jnsgd1na2vs0mg"},{"bike_id":"ac491eed-1fef-4832-b4ca-d42b5b54f337","system_id":"levelo_inurba_marseille","lat":43.28413,"lon":5.34977,"is_reserved":false,"is_disabled":false,"rental_uris":{"android":"levelo://app?vid=ac491eed-1fef-4832-b4ca-d42b5b54f337","ios":"levelo://app?vid=ac491eed-1fef-4832-b4ca-d42b5b54f337"},"vehicle_type_id":"4","last_reported":1728011697,"current_range_meters":38000,"station_id":"ce4bhbh2rcd13ifvqepg","pricing_plan_id":"cebpf4jnsgd1na2vs0mg"},{"bike_id":"4d67e015-f6a1-43aa-93fa-fe76bb546bfc","system_id":"levelo_inurba_marseille","lat":43.29522,"lon":5.37502,"is_reserved":false,"is_disabled":false,"rental_uris":{"android":"levelo://app?vid=4d67e015-f6a1-43aa-93fa-fe76bb546bfc","ios":"levelo://app?vid=4d67e015-f6a1-43aa-93fa-fe76bb546bfc"},"vehicle_type_id":"4","last_reported":1728011697,"current_range_meters":18000,"station_id":"ce4bgkp2rcd13ifvqbmg","pricing_plan_id":"cebpf4jnsgd1na2vs0mg"},{"bike_id":"1c43f958-4590-430c-a11e-68d1ba018349","system_id":"levelo_inurba_marseille","lat":43.28391,"lon":5.37516,"is_reserved":false,"is_disabled":false,"rental_uris":{"android":"levelo://app?vid=1c43f958-4590-430c-a11e-68d1ba018349","ios":"levelo://app?vid=1c43f958-4590-430c-a11e-68d1ba018349"},"vehicle_type_id":"4","last_reported":1728011697,"current_range_meters":35600,"station_id":"ce4bh412rcd13ifvqds0","pricing_plan_id":"cebpf4jnsgd1na2vs0mg"},{"bike_id":"e237f3eb-d62e-4c44-9a79-19d7ae984718","system_id":"levelo_inurba_marseille","lat":43.28711,"lon":5.3999,"is_reserved":false,"is_disabled":false,"rental_uris":{"android":"levelo://app?vid=e237f3eb-d62e-4c44-9a79-19d7ae984718","ios":"levelo://app?vid=e237f3eb-d62e-4c44-9a79-19d7ae984718"},"vehicle_type_id":"4","last_reported":1728011697,"current_range_meters":36000,"station_id":"ce4bho92rcd13ifvqh3g","pricing_plan_id":"cebpf4jnsgd1na2vs0mg"},{"bike_id":"bfb52033-51bc-4a6b-9961-821f92dd3f3a","system_id":"levelo_inurba_marseille","lat":43.295517,"lon":5.422857,"is_reserved":false,"is_disabled":false,"rental_uris":{"android":"levelo://app?vid=bfb52033-51bc-4a6b-9961-821f92dd3f3a","ios":"levelo://app?vid=bfb52033-51bc-4a6b-9961-821f92dd3f3a"},"vehicle_type_id":"4","last_reported":1728011697,"current_range_meters":12400,"station_id":"ce4bhph2rcd13ifvqhdg","pricing_plan_id":"cebpf4jnsgd1na2vs0mg"},{"bike_id":"7fed4edd-fced-4cac-8f5a-8f088e4cd963","system_id":"levelo_inurba_marseille","lat":43.26556,"lon":5.37288,"is_reserved":false,"is_disabled":false,"rental_uris":{"android":"levelo://app?vid=7fed4edd-fced-4cac-8f5a-8f088e4cd963","ios":"levelo://app?vid=7fed4edd-fced-4cac-8f5a-8f088e4cd963"},"vehicle_type_id":"4","last_reported":1728011697,"current_range_meters":4400,"station_id":"ce4bhg12rcd13ifvqf70","pricing_plan_id":"cebpf4jnsgd1na2vs0mg"},{"bike_id":"a6692f1f-5525-4523-bd49-a7c219bc26c1","system_id":"levelo_inurba_marseille","lat":43.26556,"lon":5.37287,"is_reserved":false,"is_disabled":false,"rental_uris":{"android":"levelo://app?vid=a6692f1f-5525-4523-bd49-a7c219bc26c1","ios":"levelo://app?vid=a6692f1f-5525-4523-bd49-a7c219bc26c1"},"vehicle_type_id":"4","last_reported":1728011697,"current_range_meters":35600,"station_id":"ce4bhg12rcd13ifvqf70","pricing_plan_id":"cebpf4jnsgd1na2vs0mg"},{"bike_id":"dc56530e-8e90-4c40-b3e7-479b56e7787b","system_id":"levelo_inurba_marseille","lat":43.24661,"lon":5.38168,"is_reserved":false,"is_disabled":false,"rental_uris":{"android":"levelo://app?vid=dc56530e-8e90-4c40-b3e7-479b56e7787b","ios":"levelo://app?vid=dc56530e-8e90-4c40-b3e7-479b56e7787b"},"vehicle_type_id":"4","last_reported":1728011697,"current_range_meters":34000,"station_id":"ce4bhih2rcd13ifvqfr0","pricing_plan_id":"cebpf4jnsgd1na2vs0mg"},{"bike_id":"329973a4-e8ec-4473-9781-6423f1ce3eb7","system_id":"levelo_inurba_marseille","lat":43.317145,"lon":5.437096,"is_reserved":false,"is_disabled":false,"rental_uris":{"android":"levelo://app?vid=329973a4-e8ec-4473-9781-6423f1ce3eb7","ios":"levelo://app?vid=329973a4-e8ec-4473-9781-6423f1ce3eb7"},"vehicle_type_id":"4","last_reported":1728011697,"current_range_meters":2800,"station_id":"ce4bhp92rcd13ifvqhcg","pricing_plan_id":"cebpf4jnsgd1na2vs0mg"},{"bike_id":"51b75ede-96df-4370-a9b1-0dfe434f9ba7","system_id":"levelo_inurba_marseille","lat":43.25088,"lon":5.39515,"is_reserved":false,"is_disabled":false,"rental_uris":{"android":"levelo://app?vid=51b75ede-96df-4370-a9b1-0dfe434f9ba7","ios":"levelo://app?vid=51b75ede-96df-4370-a9b1-0dfe434f9ba7"},"vehicle_type_id":"4","last_reported":1728011697,"current_range_meters":38800,"station_id":"ce4bhm12rcd13ifvqgkg","pricing_plan_id":"cebpf4jnsgd1na2vs0mg"},{"bike_id":"f28532ab-2844-4c68-acee-baaa073b03fa","system_id":"levelo_inurba_marseille","lat":43.32478,"lon":5.36566,"is_reserved":false,"is_disabled":false,"rental_uris":{"android":"levelo://app?vid=f28532ab-2844-4c68-acee-baaa073b03fa","ios":"levelo://app?vid=f28532ab-2844-4c68-acee-baaa073b03fa"},"vehicle_type_id":"4","last_reported":1728011697,"current_range_meters":38800,"station_id":"ce4bhs12rcd13ifvqhvg","pricing_plan_id":"cebpf4jnsgd1na2vs0mg"},{"bike_id":"c2af3ceb-8e0f-4621-8126-93c82628c817","system_id":"levelo_inurba_marseille","lat":43.29555,"lon":5.42279,"is_reserved":false,"is_disabled":false,"rental_uris":{"android":"levelo://app?vid=c2af3ceb-8e0f-4621-8126-93c82628c817","ios":"levelo://app?vid=c2af3ceb-8e0f-4621-8126-93c82628c817"},"vehicle_type_id":"4","last_reported":1728011697,"current_range_meters":38800,"station_id":"ce4bhph2rcd13ifvqhdg","pricing_plan_id":"cebpf4jnsgd1na2vs0mg"},{"bike_id":"481b9ab3-5db0-4170-9e70-1b72e769f60e","system_id":"levelo_inurba_marseille","lat":43.286579,"lon":5.363503,"is_reserved":false,"is_disabled":false,"rental_uris":{"android":"levelo://app?vid=481b9ab3-5db0-4170-9e70-1b72e769f60e","ios":"levelo://app?vid=481b9ab3-5db0-4170-9e70-1b72e769f60e"},"vehicle_type_id":"4","last_reported":1728011697,"current_range_meters":26000,"station_id":"ce4bhah2rcd13ifvqej0","pricing_plan_id":"cebpf4jnsgd1na2vs0mg"},{"bike_id":"8458457e-e745-4af8-9f7c-89ed4057da4e","system_id":"levelo_inurba_marseille","lat":43.29252,"lon":5.40908,"is_reserved":false,"is_disabled":false,"rental_uris":{"android":"levelo://app?vid=8458457e-e745-4af8-9f7c-89ed4057da4e","ios":"levelo://app?vid=8458457e-e745-4af8-9f7c-89ed4057da4e"},"vehicle_type_id":"4","last_reported":1728011697,"current_range_meters":39200,"station_id":"ce4bh192rcd13ifvqdc0","pricing_plan_id":"cebpf4jnsgd1na2vs0mg"},{"bike_id":"fffa3ecd-8333-4e1c-914a-66e6b8be3b1d","system_id":"levelo_inurba_marseille","lat":43.28104,"lon":5.37838,"is_reserved":false,"is_disabled":false,"rental_uris":{"android":"levelo://app?vid=fffa3ecd-8333-4e1c-914a-66e6b8be3b1d","ios":"levelo://app?vid=fffa3ecd-8333-4e1c-914a-66e6b8be3b1d"},"vehicle_type_id":"4","last_reported":1728011697,"current_range_meters":28800,"station_id":"ce4bha12rcd13ifvqee0","pricing_plan_id":"cebpf4jnsgd1na2vs0mg"},{"bike_id":"b692de28-83ae-44d1-80f0-2ba55d9df2cf","system_id":"levelo_inurba_marseille","lat":43.29194,"lon":5.39323,"is_reserved":false,"is_disabled":false,"rental_uris":{"android":"levelo://app?vid=b692de28-83ae-44d1-80f0-2ba55d9df2cf","ios":"levelo://app?vid=b692de28-83ae-44d1-80f0-2ba55d9df2cf"},"vehicle_type_id":"4","last_reported":1728011697,"current_range_meters":38800,"station_id":"ce4bh192rcd13ifvqdd0","pricing_plan_id":"cebpf4jnsgd1na2vs0mg"},{"bike_id":"e5c27dcf-3d6e-41a5-8a35-01e9d92ac648","system_id":"levelo_inurba_marseille","lat":43.27499,"lon":5.42455,"is_reserved":false,"is_disabled":false,"rental_uris":{"android":"levelo://app?vid=e5c27dcf-3d6e-41a5-8a35-01e9d92ac648","ios":"levelo://app?vid=e5c27dcf-3d6e-41a5-8a35-01e9d92ac648"},"vehicle_type_id":"4","last_reported":1728011697,"current_range_meters":36400,"station_id":"ce4bhn92rcd13ifvqgrg","pricing_plan_id":"cebpf4jnsgd1na2vs0mg"},{"bike_id":"b1ab5d8b-a038-425e-aceb-c8ee3229c242","system_id":"levelo_inurba_marseille","lat":43.288499,"lon":5.358608,"is_reserved":false,"is_disabled":false,"rental_uris":{"android":"levelo://app?vid=b1ab5d8b-a038-425e-aceb-c8ee3229c242","ios":"levelo://app?vid=b1ab5d8b-a038-425e-aceb-c8ee3229c242"},"vehicle_type_id":"4","last_reported":1728011697,"current_range_meters":39200,"station_id":"ce4bhb12rcd13ifvqem0","pricing_plan_id":"cebpf4jnsgd1na2vs0mg"},{"bike_id":"4c080020-1ddb-47a2-9710-9824df23c04b","system_id":"levelo_inurba_marseille","lat":43.255005,"lon":5.376527,"is_reserved":false,"is_disabled":false,"rental_uris":{"android":"levelo://app?vid=4c080020-1ddb-47a2-9710-9824df23c04b","ios":"levelo://app?vid=4c080020-1ddb-47a2-9710-9824df23c04b"},"vehicle_type_id":"4","last_reported":1728011697,"current_range_meters":23200,"station_id":"ce4bhh12rcd13ifvqff0","pricing_plan_id":"cebpf4jnsgd1na2vs0mg"},{"bike_id":"dfc32ef4-5233-4b6f-85f2-c49f918d8e8d","system_id":"levelo_inurba_marseille","lat":43.308848,"lon":5.396396,"is_reserved":false,"is_disabled":false,"rental_uris":{"android":"levelo://app?vid=dfc32ef4-5233-4b6f-85f2-c49f918d8e8d","ios":"levelo://app?vid=dfc32ef4-5233-4b6f-85f2-c49f918d8e8d"},"vehicle_type_id":"4","last_reported":1728011697,"current_range_meters":37600,"station_id":"ce4bh012rcd13ifvqcv0","pricing_plan_id":"cebpf4jnsgd1na2vs0mg"},{"bike_id":"a8fb4039-3839-42ea-9d1b-4f453dca4e0d","system_id":"levelo_inurba_marseille","lat":43.29253,"lon":5.40901,"is_reserved":false,"is_disabled":false,"rental_uris":{"android":"levelo://app?vid=a8fb4039-3839-42ea-9d1b-4f453dca4e0d","ios":"levelo://app?vid=a8fb4039-3839-42ea-9d1b-4f453dca4e0d"},"vehicle_type_id":"4","last_reported":1728011697,"current_range_meters":16400,"station_id":"ce4bh192rcd13ifvqdc0","pricing_plan_id":"cebpf4jnsgd1na2vs0mg"},{"bike_id":"7112ef8d-8142-4d4d-816c-51780c5cff4c","system_id":"levelo_inurba_marseille","lat":43.28429,"lon":5.37519,"is_reserved":false,"is_disabled":false,"rental_uris":{"android":"levelo://app?vid=7112ef8d-8142-4d4d-816c-51780c5cff4c","ios":"levelo://app?vid=7112ef8d-8142-4d4d-816c-51780c5cff4c"},"vehicle_type_id":"4","last_reported":1728011697,"current_range_meters":8400,"station_id":"ce4bh412rcd13ifvqds0","pricing_plan_id":"cebpf4jnsgd1na2vs0mg"},{"bike_id":"dbf4aadd-78b0-48d7-84dd-1a7fec82af07","system_id":"levelo_inurba_marseille","lat":43.24662,"lon":5.38157,"is_reserved":false,"is_disabled":false,"rental_uris":{"android":"levelo://app?vid=dbf4aadd-78b0-48d7-84dd-1a7fec82af07","ios":"levelo://app?vid=dbf4aadd-78b0-48d7-84dd-1a7fec82af07"},"vehicle_type_id":"4","last_reported":1728011697,"current_range_meters":36800,"station_id":"ce4bhih2rcd13ifvqfr0","pricing_plan_id":"cebpf4jnsgd1na2vs0mg"},{"bike_id":"47911c3a-70d6-4541-ae40-328b24ae278f","system_id":"levelo_inurba_marseille","lat":43.28072,"lon":5.39658,"is_reserved":false,"is_disabled":false,"rental_uris":{"android":"levelo://app?vid=47911c3a-70d6-4541-ae40-328b24ae278f","ios":"levelo://app?vid=47911c3a-70d6-4541-ae40-328b24ae278f"},"vehicle_type_id":"4","last_reported":1728011697,"current_range_meters":39200,"station_id":"ce4bho12rcd13ifvqh2g","pricing_plan_id":"cebpf4jnsgd1na2vs0mg"},{"bike_id":"958e7c33-252b-4123-876d-02665709c655","system_id":"levelo_inurba_marseille","lat":43.28653,"lon":5.36363,"is_reserved":false,"is_disabled":false,"rental_uris":{"android":"levelo://app?vid=958e7c33-252b-4123-876d-02665709c655","ios":"levelo://app?vid=958e7c33-252b-4123-876d-02665709c655"},"vehicle_type_id":"4","last_reported":1728011697,"current_range_meters":38800,"station_id":"ce4bhah2rcd13ifvqej0","pricing_plan_id":"cebpf4jnsgd1na2vs0mg"},{"bike_id":"f532d21e-f21a-4026-886f-f5e7dd6f8b7c","system_id":"levelo_inurba_marseille","lat":43.28438,"lon":5.39198,"is_reserved":false,"is_disabled":false,"rental_uris":{"android":"levelo://app?vid=f532d21e-f21a-4026-886f-f5e7dd6f8b7c","ios":"levelo://app?vid=f532d21e-f21a-4026-886f-f5e7dd6f8b7c"},"vehicle_type_id":"4","last_reported":1728011697,"current_range_meters":38800,"station_id":"ce4bhoh2rcd13ifvqh5g","pricing_plan_id":"cebpf4jnsgd1na2vs0mg"},{"bike_id":"c8e4ff73-620c-4248-92f7-758d5098242c","system_id":"levelo_inurba_marseille","lat":43.22931,"lon":5.35376,"is_reserved":false,"is_disabled":false,"rental_uris":{"android":"levelo://app?vid=c8e4ff73-620c-4248-92f7-758d5098242c","ios":"levelo://app?vid=c8e4ff73-620c-4248-92f7-758d5098242c"},"vehicle_type_id":"4","last_reported":1728011697,"current_range_meters":24400,"station_id":"cpo3532slgdg3j2ikp40","pricing_plan_id":"cebpf4jnsgd1na2vs0mg"},{"bike_id":"dee1da8e-35eb-49de-951a-16bbe888ae61","system_id":"levelo_inurba_marseille","lat":43.29936,"lon":5.36523,"is_reserved":false,"is_disabled":false,"rental_uris":{"android":"levelo://app?vid=dee1da8e-35eb-49de-951a-16bbe888ae61","ios":"levelo://app?vid=dee1da8e-35eb-49de-951a-16bbe888ae61"},"vehicle_type_id":"4","last_reported":1728011697,"current_range_meters":38000,"station_id":"ce4bgm92rcd13ifvqbr0","pricing_plan_id":"cebpf4jnsgd1na2vs0mg"},{"bike_id":"1f3b076e-6c70-4ef2-8933-b5976263e1b1","system_id":"levelo_inurba_marseille","lat":43.30928,"lon":5.40145,"is_reserved":false,"is_disabled":false,"rental_uris":{"android":"levelo://app?vid=1f3b076e-6c70-4ef2-8933-b5976263e1b1","ios":"levelo://app?vid=1f3b076e-6c70-4ef2-8933-b5976263e1b1"},"vehicle_type_id":"4","last_reported":1728011697,"current_range_meters":30800,"station_id":"ce4bgvp2rcd13ifvqct0","pricing_plan_id":"cebpf4jnsgd1na2vs0mg"},{"bike_id":"583eb2a3-c703-4842-8648-2706b2b88008","system_id":"levelo_inurba_marseille","lat":43.28155,"lon":5.42642,"is_reserved":false,"is_disabled":false,"rental_uris":{"android":"levelo://app?vid=583eb2a3-c703-4842-8648-2706b2b88008","ios":"levelo://app?vid=583eb2a3-c703-4842-8648-2706b2b88008"},"vehicle_type_id":"4","last_reported":1728011697,"current_range_meters":7200,"station_id":"ce4bhnh2rcd13ifvqgug","pricing_plan_id":"cebpf4jnsgd1na2vs0mg"},{"bike_id":"451d89ca-f9e1-492a-bb2c-30a26d6f28bf","system_id":"levelo_inurba_marseille","lat":43.25723,"lon":5.41111,"is_reserved":false,"is_disabled":false,"rental_uris":{"android":"levelo://app?vid=451d89ca-f9e1-492a-bb2c-30a26d6f28bf","ios":"levelo://app?vid=451d89ca-f9e1-492a-bb2c-30a26d6f28bf"},"vehicle_type_id":"4","last_reported":1728011697,"current_range_meters":30000,"station_id":"ce4bhkp2rcd13ifvqgd0","pricing_plan_id":"cebpf4jnsgd1na2vs0mg"},{"bike_id":"595be7d7-6dd6-443d-bbd0-34d9a1335cfc","system_id":"levelo_inurba_marseille","lat":43.31487,"lon":5.36842,"is_reserved":false,"is_disabled":false,"rental_uris":{"android":"levelo://app?vid=595be7d7-6dd6-443d-bbd0-34d9a1335cfc","ios":"levelo://app?vid=595be7d7-6dd6-443d-bbd0-34d9a1335cfc"},"vehicle_type_id":"4","last_reported":1728011697,"current_range_meters":16000,"station_id":"","pricing_plan_id":"cebpf4jnsgd1na2vs0mg"},{"bike_id":"0946268e-451b-4eae-9c53-f76e2b977f3f","system_id":"levelo_inurba_marseille","lat":43.3248,"lon":5.36566,"is_reserved":false,"is_disabled":false,"rental_uris":{"android":"levelo://app?vid=0946268e-451b-4eae-9c53-f76e2b977f3f","ios":"levelo://app?vid=0946268e-451b-4eae-9c53-f76e2b977f3f"},"vehicle_type_id":"4","last_reported":1728011697,"current_range_meters":25600,"station_id":"ce4bhs12rcd13ifvqhvg","pricing_plan_id":"cebpf4jnsgd1na2vs0mg"},{"bike_id":"5e778da9-2d39-4031-8ebb-5990fbc1004d","system_id":"levelo_inurba_marseille","lat":43.28342,"lon":5.38102,"is_reserved":false,"is_disabled":false,"rental_uris":{"android":"levelo://app?vid=5e778da9-2d39-4031-8ebb-5990fbc1004d","ios":"levelo://app?vid=5e778da9-2d39-4031-8ebb-5990fbc1004d"},"vehicle_type_id":"4","last_reported":1728011697,"current_range_meters":10000,"station_id":"ce4bh412rcd13ifvqdr0","pricing_plan_id":"cebpf4jnsgd1na2vs0mg"},{"bike_id":"84b54399-1a50-41a5-a55b-4c94789bc34d","system_id":"levelo_inurba_marseille","lat":43.31226,"lon":5.36846,"is_reserved":false,"is_disabled":false,"rental_uris":{"android":"levelo://app?vid=84b54399-1a50-41a5-a55b-4c94789bc34d","ios":"levelo://app?vid=84b54399-1a50-41a5-a55b-4c94789bc34d"},"vehicle_type_id":"4","last_reported":1728011697,"current_range_meters":24800,"station_id":"ce4bgl92rcd13ifvqbq0","pricing_plan_id":"cebpf4jnsgd1na2vs0mg"},{"bike_id":"7328d24b-5534-4bb3-902d-8eb18854bdef","system_id":"levelo_inurba_marseille","lat":43.28462,"lon":5.35897,"is_reserved":false,"is_disabled":false,"rental_uris":{"android":"levelo://app?vid=7328d24b-5534-4bb3-902d-8eb18854bdef","ios":"levelo://app?vid=7328d24b-5534-4bb3-902d-8eb18854bdef"},"vehicle_type_id":"4","last_reported":1728011697,"current_range_meters":38800,"station_id":"ce4bhah2rcd13ifvqei0","pricing_plan_id":"cebpf4jnsgd1na2vs0mg"},{"bike_id":"97dfb8ba-6036-4a05-93ee-69da66794484","system_id":"levelo_inurba_marseille","lat":43.30419,"lon":5.41284,"is_reserved":false,"is_disabled":false,"rental_uris":{"android":"levelo://app?vid=97dfb8ba-6036-4a05-93ee-69da66794484","ios":"levelo://app?vid=97dfb8ba-6036-4a05-93ee-69da66794484"},"vehicle_type_id":"4","last_reported":1728011697,"current_range_meters":39200,"station_id":"ce4bhop2rcd13ifvqh8g","pricing_plan_id":"cebpf4jnsgd1na2vs0mg"},{"bike_id":"ce18c2bb-7127-4b3f-a92e-61bd0c7e7ec3","system_id":"levelo_inurba_marseille","lat":43.29305,"lon":5.37181,"is_reserved":false,"is_disabled":false,"rental_uris":{"android":"levelo://app?vid=ce18c2bb-7127-4b3f-a92e-61bd0c7e7ec3","ios":"levelo://app?vid=ce18c2bb-7127-4b3f-a92e-61bd0c7e7ec3"},"vehicle_type_id":"4","last_reported":1728011697,"current_range_meters":36800,"station_id":"ce4bgh92rcd13ifvqb40","pricing_plan_id":"cebpf4jnsgd1na2vs0mg"},{"bike_id":"51234694-4a24-470a-bb96-0d40cf984866","system_id":"levelo_inurba_marseille","lat":43.3088,"lon":5.39642,"is_reserved":false,"is_disabled":false,"rental_uris":{"android":"levelo://app?vid=51234694-4a24-470a-bb96-0d40cf984866","ios":"levelo://app?vid=51234694-4a24-470a-bb96-0d40cf984866"},"vehicle_type_id":"4","last_reported":1728011697,"current_range_meters":38800,"station_id":"ce4bh012rcd13ifvqcv0","pricing_plan_id":"cebpf4jnsgd1na2vs0mg"},{"bike_id":"9111912f-5f92-4e01-9623-79e0ea71aff6","system_id":"levelo_inurba_marseille","lat":43.32275,"lon":5.38254,"is_reserved":false,"is_disabled":false,"rental_uris":{"android":"levelo://app?vid=9111912f-5f92-4e01-9623-79e0ea71aff6","ios":"levelo://app?vid=9111912f-5f92-4e01-9623-79e0ea71aff6"},"vehicle_type_id":"4","last_reported":1728011697,"current_range_meters":34800,"station_id":"ce4bhr12rcd13ifvqhqg","pricing_plan_id":"cebpf4jnsgd1na2vs0mg"},{"bike_id":"09648bcd-aff3-4e5d-a358-b65c5d88ce54","system_id":"levelo_inurba_marseille","lat":43.25002,"lon":5.38932,"is_reserved":false,"is_disabled":false,"rental_uris":{"android":"levelo://app?vid=09648bcd-aff3-4e5d-a358-b65c5d88ce54","ios":"levelo://app?vid=09648bcd-aff3-4e5d-a358-b65c5d88ce54"},"vehicle_type_id":"4","last_reported":1728011697,"current_range_meters":36400,"station_id":"ce4bhgp2rcd13ifvqfd0","pricing_plan_id":"cebpf4jnsgd1na2vs0mg"},{"bike_id":"d1c29cc8-4a89-46c6-bcf6-9521d03600ac","system_id":"levelo_inurba_marseille","lat":43.28455,"lon":5.35898,"is_reserved":false,"is_disabled":false,"rental_uris":{"android":"levelo://app?vid=d1c29cc8-4a89-46c6-bcf6-9521d03600ac","ios":"levelo://app?vid=d1c29cc8-4a89-46c6-bcf6-9521d03600ac"},"vehicle_type_id":"4","last_reported":1728011697,"current_range_meters":11600,"station_id":"ce4bhah2rcd13ifvqei0","pricing_plan_id":"cebpf4jnsgd1na2vs0mg"},{"bike_id":"4a141fd2-634f-4564-afbf-0784bd537519","system_id":"levelo_inurba_marseille","lat":43.31754,"lon":5.39028,"is_reserved":false,"is_disabled":false,"rental_uris":{"android":"levelo://app?vid=4a141fd2-634f-4564-afbf-0784bd537519","ios":"levelo://app?vid=4a141fd2-634f-4564-afbf-0784bd537519"},"vehicle_type_id":"4","last_reported":1728011697,"current_range_meters":37600,"station_id":"ce4bhqp2rcd13ifvqhng","pricing_plan_id":"cebpf4jnsgd1na2vs0mg"},{"bike_id":"91ce5286-9976-41ad-9183-3cbc030fde18","system_id":"levelo_inurba_marseille","lat":43.30327,"lon":5.40446,"is_reserved":false,"is_disabled":false,"rental_uris":{"android":"levelo://app?vid=91ce5286-9976-41ad-9183-3cbc030fde18","ios":"levelo://app?vid=91ce5286-9976-41ad-9183-3cbc030fde18"},"vehicle_type_id":"4","last_reported":1728011697,"current_range_meters":37600,"station_id":"ce4bh012rcd13ifvqd10","pricing_plan_id":"cebpf4jnsgd1na2vs0mg"},{"bike_id":"b891bbb3-9c76-4c36-90cc-235048eff1c4","system_id":"levelo_inurba_marseille","lat":43.294457,"lon":5.397476,"is_reserved":false,"is_disabled":false,"rental_uris":{"android":"levelo://app?vid=b891bbb3-9c76-4c36-90cc-235048eff1c4","ios":"levelo://app?vid=b891bbb3-9c76-4c36-90cc-235048eff1c4"},"vehicle_type_id":"4","last_reported":1728011697,"current_range_meters":23200,"station_id":"ce4bh3h2rcd13ifvqdo0","pricing_plan_id":"cebpf4jnsgd1na2vs0mg"},{"bike_id":"71a85321-cdd0-4b0c-9a38-c490afade47c","system_id":"levelo_inurba_marseille","lat":43.29215,"lon":5.36049,"is_reserved":false,"is_disabled":false,"rental_uris":{"android":"levelo://app?vid=71a85321-cdd0-4b0c-9a38-c490afade47c","ios":"levelo://app?vid=71a85321-cdd0-4b0c-9a38-c490afade47c"},"vehicle_type_id":"4","last_reported":1728011697,"current_range_meters":38800,"station_id":"ce4bhbh2rcd13ifvqeqg","pricing_plan_id":"cebpf4jnsgd1na2vs0mg"},{"bike_id":"abec413d-b494-40cf-97ca-9e3005c481a6","system_id":"levelo_inurba_marseille","lat":43.27914,"lon":5.39584,"is_reserved":false,"is_disabled":false,"rental_uris":{"android":"levelo://app?vid=abec413d-b494-40cf-97ca-9e3005c481a6","ios":"levelo://app?vid=abec413d-b494-40cf-97ca-9e3005c481a6"},"vehicle_type_id":"4","last_reported":1728011697,"current_range_meters":3600,"station_id":"ce4bhf92rcd13ifvqf40","pricing_plan_id":"cebpf4jnsgd1na2vs0mg"},{"bike_id":"106822a0-7626-4888-be87-a65dfe1f49c8","system_id":"levelo_inurba_marseille","lat":43.31691,"lon":5.40463,"is_reserved":false,"is_disabled":false,"rental_uris":{"android":"levelo://app?vid=106822a0-7626-4888-be87-a65dfe1f49c8","ios":"levelo://app?vid=106822a0-7626-4888-be87-a65dfe1f49c8"},"vehicle_type_id":"4","last_reported":1728011697,"current_range_meters":22800,"station_id":"ce4bh012rcd13ifvqd00","pricing_plan_id":"cebpf4jnsgd1na2vs0mg"},{"bike_id":"690c1146-a8cd-495f-94f6-c94b70c09ae9","system_id":"levelo_inurba_marseille","lat":43.26689,"lon":5.38276,"is_reserved":false,"is_disabled":false,"rental_uris":{"android":"levelo://app?vid=690c1146-a8cd-495f-94f6-c94b70c09ae9","ios":"levelo://app?vid=690c1146-a8cd-495f-94f6-c94b70c09ae9"},"vehicle_type_id":"4","last_reported":1728011697,"current_range_meters":38800,"station_id":"ce4bhg92rcd13ifvqf90","pricing_plan_id":"cebpf4jnsgd1na2vs0mg"},{"bike_id":"72ea509d-2ace-4e02-ab5b-55d8ed0d6daa","system_id":"levelo_inurba_marseille","lat":43.30801,"lon":5.43521,"is_reserved":false,"is_disabled":false,"rental_uris":{"android":"levelo://app?vid=72ea509d-2ace-4e02-ab5b-55d8ed0d6daa","ios":"levelo://app?vid=72ea509d-2ace-4e02-ab5b-55d8ed0d6daa"},"vehicle_type_id":"4","last_reported":1728011697,"current_range_meters":30000,"station_id":"ce4bhph2rcd13ifvqheg","pricing_plan_id":"cebpf4jnsgd1na2vs0mg"},{"bike_id":"ae15a7a4-1b5d-4659-968e-f0d4a2bcd06d","system_id":"levelo_inurba_marseille","lat":43.30888,"lon":5.39642,"is_reserved":false,"is_disabled":false,"rental_uris":{"android":"levelo://app?vid=ae15a7a4-1b5d-4659-968e-f0d4a2bcd06d","ios":"levelo://app?vid=ae15a7a4-1b5d-4659-968e-f0d4a2bcd06d"},"vehicle_type_id":"4","last_reported":1728011697,"current_range_meters":35200,"station_id":"ce4bh012rcd13ifvqcv0","pricing_plan_id":"cebpf4jnsgd1na2vs0mg"},{"bike_id":"3b94b7a4-6c69-4758-a0b8-bde50566d681","system_id":"levelo_inurba_marseille","lat":43.27181,"lon":5.40991,"is_reserved":false,"is_disabled":false,"rental_uris":{"android":"levelo://app?vid=3b94b7a4-6c69-4758-a0b8-bde50566d681","ios":"levelo://app?vid=3b94b7a4-6c69-4758-a0b8-bde50566d681"},"vehicle_type_id":"4","last_reported":1728011697,"current_range_meters":39200,"station_id":"ce4bhl12rcd13ifvqgf0","pricing_plan_id":"cebpf4jnsgd1na2vs0mg"},{"bike_id":"47096975-bede-4100-b73f-a5cbb9ab9117","system_id":"levelo_inurba_marseille","lat":43.311722,"lon":5.387143,"is_reserved":false,"is_disabled":false,"rental_uris":{"android":"levelo://app?vid=47096975-bede-4100-b73f-a5cbb9ab9117","ios":"levelo://app?vid=47096975-bede-4100-b73f-a5cbb9ab9117"},"vehicle_type_id":"4","last_reported":1728011697,"current_range_meters":39200,"station_id":"ce4bgv12rcd13ifvqcp0","pricing_plan_id":"cebpf4jnsgd1na2vs0mg"},{"bike_id":"fe3aefa7-8ad6-4c01-a38b-f3c80b504347","system_id":"levelo_inurba_marseille","lat":43.27212,"lon":5.39182,"is_reserved":false,"is_disabled":false,"rental_uris":{"android":"levelo://app?vid=fe3aefa7-8ad6-4c01-a38b-f3c80b504347","ios":"levelo://app?vid=fe3aefa7-8ad6-4c01-a38b-f3c80b504347"},"vehicle_type_id":"4","last_reported":1728011697,"current_range_meters":35200,"station_id":"ce4bhhp2rcd13ifvqfm0","pricing_plan_id":"cebpf4jnsgd1na2vs0mg"},{"bike_id":"638ea2d4-cb56-475a-9712-21b4df19cbce","system_id":"levelo_inurba_marseille","lat":43.3177,"lon":5.39012,"is_reserved":false,"is_disabled":false,"rental_uris":{"android":"levelo://app?vid=638ea2d4-cb56-475a-9712-21b4df19cbce","ios":"levelo://app?vid=638ea2d4-cb56-475a-9712-21b4df19cbce"},"vehicle_type_id":"4","last_reported":1728011697,"current_range_meters":30000,"station_id":"ce4bhqp2rcd13ifvqhng","pricing_plan_id":"cebpf4jnsgd1na2vs0mg"},{"bike_id":"f0b899b3-ea09-4c19-ba3f-b6bff2e53be7","system_id":"levelo_inurba_marseille","lat":43.24549,"lon":5.39523,"is_reserved":false,"is_disabled":false,"rental_uris":{"android":"levelo://app?vid=f0b899b3-ea09-4c19-ba3f-b6bff2e53be7","ios":"levelo://app?vid=f0b899b3-ea09-4c19-ba3f-b6bff2e53be7"},"vehicle_type_id":"4","last_reported":1728011697,"current_range_meters":8800,"station_id":"ce4bhlp2rcd13ifvqgjg","pricing_plan_id":"cebpf4jnsgd1na2vs0mg"},{"bike_id":"430bc2be-c3ee-47ad-a72c-6925b611a5fe","system_id":"levelo_inurba_marseille","lat":43.30941,"lon":5.40142,"is_reserved":false,"is_disabled":false,"rental_uris":{"android":"levelo://app?vid=430bc2be-c3ee-47ad-a72c-6925b611a5fe","ios":"levelo://app?vid=430bc2be-c3ee-47ad-a72c-6925b611a5fe"},"vehicle_type_id":"4","last_reported":1728011697,"current_range_meters":36800,"station_id":"ce4bgvp2rcd13ifvqct0","pricing_plan_id":"cebpf4jnsgd1na2vs0mg"},{"bike_id":"b3fc85ee-a1ba-419c-825b-044ff953c285","system_id":"levelo_inurba_marseille","lat":43.31494,"lon":5.37301,"is_reserved":false,"is_disabled":false,"rental_uris":{"android":"levelo://app?vid=b3fc85ee-a1ba-419c-825b-044ff953c285","ios":"levelo://app?vid=b3fc85ee-a1ba-419c-825b-044ff953c285"},"vehicle_type_id":"4","last_reported":1728011697,"current_range_meters":39200,"station_id":"ce4bgt12rcd13ifvqcd0","pricing_plan_id":"cebpf4jnsgd1na2vs0mg"},{"bike_id":"dc086a08-bc01-4a19-b785-58f21f6829ae","system_id":"levelo_inurba_marseille","lat":43.25499,"lon":5.37647,"is_reserved":false,"is_disabled":false,"rental_uris":{"android":"levelo://app?vid=dc086a08-bc01-4a19-b785-58f21f6829ae","ios":"levelo://app?vid=dc086a08-bc01-4a19-b785-58f21f6829ae"},