{"last_updated":1744269002,"ttl":60,"version":"2.2","data":{"bikes":[{"bike_id":"79b4a3fe-83b6-4a7e-b62d-fbe80c1f5666","system_id":"levelo_inurba_marseille","lat":43.21746,"lon":5.34595,"is_reserved":false,"is_disabled":false,"rental_uris":{"android":"levelo://app?vid=79b4a3fe-83b6-4a7e-b62d-fbe80c1f5666","ios":"levelo://app?vid=79b4a3fe-83b6-4a7e-b62d-fbe80c1f5666"},"vehicle_type_id":"4","last_reported":1744269003,"current_range_meters":2800,"station_id":"st_cvj6r9ubvosntc0bgbag","pricing_plan_id":"cebpf4jnsgd1na2vs0mg"},{"bike_id":"c1c7ca60-b5bb-4107-8f49-35ca01c60f71","system_id":"levelo_inurba_marseille","lat":43.309384,"lon":5.401433,"is_reserved":false,"is_disabled":false,"rental_uris":{"android":"levelo://app?vid=c1c7ca60-b5bb-4107-8f49-35ca01c60f71","ios":"levelo://app?vid=c1c7ca60-b5bb-4107-8f49-35ca01c60f71"},"vehicle_type_id":"4","last_reported":1744269003,"current_range_meters":2800,"station_id":"ce4bgkp2rcd13ifvqbmg","pricing_plan_id":"cebpf4jnsgd1na2vs0mg"},{"bike_id":"6569a176-a49c-464b-9416-ff731ba8b325","system_id":"levelo_inurba_marseille","lat":43.31115,"lon":5.377723,"is_reserved":false,"is_disabled":true,"rental_uris":{"android":"levelo://app?vid=6569a176-a49c-464b-9416-ff731ba8b325","ios":"levelo://app?vid=6569a176-a49c-464b-9416-ff731ba8b325"},"vehicle_type_id":"4","last_reported":1744269003,"current_range_meters":2800,"station_id":"ce4bgt92rcd13ifvqcg0","pricing_plan_id":"cebpf4jnsgd1na2vs0mg"},{"bike_id":"30c04523-99c2-4df5-a164-05356b7d26cd","system_id":"levelo_inurba_marseille","lat":43.2922,"lon":5.360492,"is_reserved":false,"is_disabled":false,"rental_uris":{"android":"levelo://app?vid=30c04523-99c2-4df5-a164-05356b7d26cd","ios":"levelo://app?vid=30c04523-99c2-4df5-a164-05356b7d26cd"},"vehicle_type_id":"4","last_reported":1744269003,"current_range_meters":2800,"station_id":"ce4bguh2rcd13ifvqckg","pricing_plan_id":"cebpf4jnsgd1na2vs0mg"},{"bike_id":"63d821b6-74f2-4cfd-9c44-5c8f0f63f425","system_id":"levelo_inurba_marseille","lat":43.30897,"lon":5.3685,"is_reserved":false,"is_disabled":false,"rental_uris":{"android":"levelo://app?vid=63d821b6-74f2-4cfd-9c44-5c8f0f63f425","ios":"levelo://app?vid=63d821b6-74f2-4cfd-9c44-5c8f0f63f425"},"vehicle_type_id":"4","last_reported":1744269003,"current_range_meters":3200,"station_id":"ce4bgn92rcd13ifvqbvg","pricing_plan_id":"cebpf4jnsgd1na2vs0mg"},{"bike_id":"9d882983-ffa4-45dd-ab27-737a146a7665","system_id":"levelo_inurba_marseille","lat":43.30554,"lon":5.36534,"is_reserved":false,"is_disabled":false,"rental_uris":{"android":"levelo://app?vid=9d882983-ffa4-45dd-ab27-737a146a7665","ios":"levelo://app?vid=9d882983-ffa4-45dd-ab27-737a146a7665"},"vehicle_type_id":"4","last_reported":1744269003,"current_range_meters":3200,"station_id":"ce4bgs12rcd13ifvqcag","pricing_plan_id":"cebpf4jnsgd1na2vs0mg"},{"bike_id":"46156e5f-25cc-45da-83c4-da2aa986f209","system_id":"levelo_inurba_marseille","lat":43.24712,"lon":5.41215,"is_reserved":false,"is_disabled":false,"rental_uris":{"android":"levelo://app?vid=46156e5f-25cc-45da-83c4-da2aa986f209","ios":"levelo://app?vid=46156e5f-25cc-45da-83c4-da2aa986f209"},"vehicle_type_id":"4","last_reported":1744269003,"current_range_meters":3600,"station_id":"","pricing_plan_id":"cebpf4jnsgd1na2vs0mg"},{"bike_id":"8a90749d-d6ac-4d0d-b6af-72e1a1f200fd","system_id":"levelo_inurba_marseille","lat":43.24176,"lon":5.39732,"is_reserved":false,"is_disabled":false,"rental_uris":{"android":"levelo://app?vid=8a90749d-d6ac-4d0d-b6af-72e1a1f200fd","ios":"levelo://app?vid=8a90749d-d6ac-4d0d-b6af-72e1a1f200fd"},"vehicle_type_id":"4","last_reported":1744269003,"current_range_meters":3600,"station_id":"ce4bhn12rcd13ifvqgpg","pricing_plan_id":"cebpf4jnsgd1na2vs0mg"},{"bike_id":"1b2c0268-b814-40c6-9843-266852b1a466","system_id":"levelo_inurba_marseille","lat":43.26224,"lon":5.4046,"is_reserved":false,"is_disabled":false,"rental_uris":{"android":"levelo://app?vid=1b2c0268-b814-40c6-9843-266852b1a466","ios":"levelo://app?vid=1b2c0268-b814-40c6-9843-266852b1a466"},"vehicle_type_id":"4","last_reported":1744269003,"current_range_meters":3600,"station_id":"ce4bhmh2rcd13ifvqgmg","pricing_plan_id":"cebpf4jnsgd1na2vs0mg"},{"bike_id":"3bfd792d-8024-4b3d-8c0a-4428de874fa2","system_id":"levelo_inurba_marseille","lat":43.32042,"lon":5.38592,"is_reserved":false,"is_disabled":true,"rental_uris":{"android":"levelo://app?vid=3bfd792d-8024-4b3d-8c0a-4428de874fa2","ios":"levelo://app?vid=3bfd792d-8024-4b3d-8c0a-4428de874fa2"},"vehicle_type_id":"4","last_reported":1744269003,"current_range_meters":4000,"station_id":"","pricing_plan_id":"cebpf4jnsgd1na2vs0mg"},{"bike_id":"03926bc9-f9d8-4451-80fc-eb49eedc74e1","system_id":"levelo_inurba_marseille","lat":43.27813,"lon":5.40723,"is_reserved":false,"is_disabled":false,"rental_uris":{"android":"levelo://app?vid=03926bc9-f9d8-4451-80fc-eb49eedc74e1","ios":"levelo://app?vid=03926bc9-f9d8-4451-80fc-eb49eedc74e1"},"vehicle_type_id":"4","last_reported":1744269003,"current_range_meters":4000,"station_id":"ce4bhnh2rcd13ifvqgtg","pricing_plan_id":"cebpf4jnsgd1na2vs0mg"},{"bike_id":"9dad613b-fd85-481c-8b7c-456e1be1d564","system_id":"levelo_inurba_marseille","lat":43.26194,"lon":5.37931,"is_reserved":false,"is_disabled":false,"rental_uris":{"android":"levelo://app?vid=9dad613b-fd85-481c-8b7c-456e1be1d564","ios":"levelo://app?vid=9dad613b-fd85-481c-8b7c-456e1be1d564"},"vehicle_type_id":"4","last_reported":1744269003,"current_range_meters":4000,"station_id":"ce4bhjp2rcd13ifvqg90","pricing_plan_id":"cebpf4jnsgd1na2vs0mg"},{"bike_id":"68d1cc33-0218-451e-8e10-d32225c21263","system_id":"levelo_inurba_marseille","lat":43.23154,"lon":5.43695,"is_reserved":false,"is_disabled":true,"rental_uris":{"android":"levelo://app?vid=68d1cc33-0218-451e-8e10-d32225c21263","ios":"levelo://app?vid=68d1cc33-0218-451e-8e10-d32225c21263"},"vehicle_type_id":"4","last_reported":1744269003,"current_range_meters":4000,"station_id":"ce4bhmp2rcd13ifvqgog","pricing_plan_id":"cebpf4jnsgd1na2vs0mg"},{"bike_id":"9f88194e-ae6a-4273-9cc2-e1057466f644","system_id":"levelo_inurba_marseille","lat":43.30544,"lon":5.36697,"is_reserved":false,"is_disabled":false,"rental_uris":{"android":"levelo://app?vid=9f88194e-ae6a-4273-9cc2-e1057466f644","ios":"levelo://app?vid=9f88194e-ae6a-4273-9cc2-e1057466f644"},"vehicle_type_id":"4","last_reported":1744269003,"current_range_meters":4000,"station_id":"ce4bgrp2rcd13ifvqc9g","pricing_plan_id":"cebpf4jnsgd1na2vs0mg"},{"bike_id":"53ab613e-8898-4730-9b68-1200dd01424f","system_id":"levelo_inurba_marseille","lat":43.30534,"lon":5.36543,"is_reserved":false,"is_disabled":false,"rental_uris":{"android":"levelo://app?vid=53ab613e-8898-4730-9b68-1200dd01424f","ios":"levelo://app?vid=53ab613e-8898-4730-9b68-1200dd01424f"},"vehicle_type_id":"4","last_reported":1744269003,"current_range_meters":4000,"station_id":"ce4bgs12rcd13ifvqcag","pricing_plan_id":"cebpf4jnsgd1na2vs0mg"},{"bike_id":"429d2409-948f-4a09-a01a-ef1e8560d12a","system_id":"levelo_inurba_marseille","lat":43.24993,"lon":5.38932,"is_reserved":false,"is_disabled":false,"rental_uris":{"android":"levelo://app?vid=429d2409-948f-4a09-a01a-ef1e8560d12a","ios":"levelo://app?vid=429d2409-948f-4a09-a01a-ef1e8560d12a"},"vehicle_type_id":"4","last_reported":1744269003,"current_range_meters":4000,"station_id":"ce4bhgp2rcd13ifvqfd0","pricing_plan_id":"cebpf4jnsgd1na2vs0mg"},{"bike_id":"951a075f-4063-499f-95ef-2ec50db6526c","system_id":"levelo_inurba_marseille","lat":43.22921,"lon":5.35376,"is_reserved":false,"is_disabled":false,"rental_uris":{"android":"levelo://app?vid=951a075f-4063-499f-95ef-2ec50db6526c","ios":"levelo://app?vid=951a075f-4063-499f-95ef-2ec50db6526c"},"vehicle_type_id":"4","last_reported":1744269003,"current_range_meters":4400,"station_id":"cpo3532slgdg3j2ikp40","pricing_plan_id":"cebpf4jnsgd1na2vs0mg"},{"bike_id":"c40a2e2c-2a66-4aa2-81cf-c4ae98211b54","system_id":"levelo_inurba_marseille","lat":43.21775,"lon":5.34615,"is_reserved":false,"is_disabled":false,"rental_uris":{"android":"levelo://app?vid=c40a2e2c-2a66-4aa2-81cf-c4ae98211b54","ios":"levelo://app?vid=c40a2e2c-2a66-4aa2-81cf-c4ae98211b54"},"vehicle_type_id":"4","last_reported":1744269003,"current_range_meters":4400,"station_id":"st_cvj6r9ubvosntc0bgbag","pricing_plan_id":"cebpf4jnsgd1na2vs0mg"},{"bike_id":"ad5ad6f0-7a98-43fb-94d0-77a9ac348cd1","system_id":"levelo_inurba_marseille","lat":43.27807,"lon":5.40709,"is_reserved":false,"is_disabled":false,"rental_uris":{"android":"levelo://app?vid=ad5ad6f0-7a98-43fb-94d0-77a9ac348cd1","ios":"levelo://app?vid=ad5ad6f0-7a98-43fb-94d0-77a9ac348cd1"},"vehicle_type_id":"4","last_reported":1744269003,"current_range_meters":4400,"station_id":"ce4bhnh2rcd13ifvqgtg","pricing_plan_id":"cebpf4jnsgd1na2vs0mg"},{"bike_id":"1a9b34bc-954e-47ff-badd-0445ba94937b","system_id":"levelo_inurba_marseille","lat":43.31346,"lon":5.36745,"is_reserved":false,"is_disabled":false,"rental_uris":{"android":"levelo://app?vid=1a9b34bc-954e-47ff-badd-0445ba94937b","ios":"levelo://app?vid=1a9b34bc-954e-47ff-badd-0445ba94937b"},"vehicle_type_id":"4","last_reported":1744269003,"current_range_meters":4400,"station_id":"ce4bgr92rcd13ifvqc6g","pricing_plan_id":"cebpf4jnsgd1na2vs0mg"},{"bike_id":"8a943583-e40e-45e9-9259-71ab13782a92","system_id":"levelo_inurba_marseille","lat":43.2961,"lon":5.37737,"is_reserved":false,"is_disabled":false,"rental_uris":{"android":"levelo://app?vid=8a943583-e40e-45e9-9259-71ab13782a92","ios":"levelo://app?vid=8a943583-e40e-45e9-9259-71ab13782a92"},"vehicle_type_id":"4","last_reported":1744269003,"current_range_meters":4400,"station_id":"ce4bgi92rcd13ifvqb90","pricing_plan_id":"cebpf4jnsgd1na2vs0mg"},{"bike_id":"755fdb66-f4d6-46b9-9314-d708a0b31240","system_id":"levelo_inurba_marseille","lat":43.30938,"lon":5.40172,"is_reserved":false,"is_disabled":false,"rental_uris":{"android":"levelo://app?vid=755fdb66-f4d6-46b9-9314-d708a0b31240","ios":"levelo://app?vid=755fdb66-f4d6-46b9-9314-d708a0b31240"},"vehicle_type_id":"4","last_reported":1744269003,"current_range_meters":4800,"station_id":"ce4bgvp2rcd13ifvqct0","pricing_plan_id":"cebpf4jnsgd1na2vs0mg"},{"bike_id":"bb87c1b4-f608-4b6a-9822-878088c2badf","system_id":"levelo_inurba_marseille","lat":43.23956,"lon":5.36644,"is_reserved":false,"is_disabled":false,"rental_uris":{"android":"levelo://app?vid=bb87c1b4-f608-4b6a-9822-878088c2badf","ios":"levelo://app?vid=bb87c1b4-f608-4b6a-9822-878088c2badf"},"vehicle_type_id":"4","last_reported":1744269003,"current_range_meters":4800,"station_id":"ce4bhi12rcd13ifvqfp0","pricing_plan_id":"cebpf4jnsgd1na2vs0mg"},{"bike_id":"a0a528dc-5323-4051-ba4c-df239c986032","system_id":"levelo_inurba_marseille","lat":43.2619,"lon":5.37451,"is_reserved":false,"is_disabled":false,"rental_uris":{"android":"levelo://app?vid=a0a528dc-5323-4051-ba4c-df239c986032","ios":"levelo://app?vid=a0a528dc-5323-4051-ba4c-df239c986032"},"vehicle_type_id":"4","last_reported":1744269003,"current_range_meters":4800,"station_id":"ce4bhgp2rcd13ifvqfc0","pricing_plan_id":"cebpf4jnsgd1na2vs0mg"},{"bike_id":"5612e94b-071a-4c0b-9663-193c62d21637","system_id":"levelo_inurba_marseille","lat":43.30457,"lon":5.37906,"is_reserved":false,"is_disabled":false,"rental_uris":{"android":"levelo://app?vid=5612e94b-071a-4c0b-9663-193c62d21637","ios":"levelo://app?vid=5612e94b-071a-4c0b-9663-193c62d21637"},"vehicle_type_id":"4","last_reported":1744269003,"current_range_meters":4800,"station_id":"ce4bgup2rcd13ifvqcn0","pricing_plan_id":"cebpf4jnsgd1na2vs0mg"},{"bike_id":"f5dec8e3-8642-4103-938a-1a6acd486722","system_id":"levelo_inurba_marseille","lat":43.24994,"lon":5.38927,"is_reserved":false,"is_disabled":false,"rental_uris":{"android":"levelo://app?vid=f5dec8e3-8642-4103-938a-1a6acd486722","ios":"levelo://app?vid=f5dec8e3-8642-4103-938a-1a6acd486722"},"vehicle_type_id":"4","last_reported":1744269003,"current_range_meters":4800,"station_id":"ce4bhgp2rcd13ifvqfd0","pricing_plan_id":"cebpf4jnsgd1na2vs0mg"},{"bike_id":"33f23efb-5875-439b-940d-6d6aecd8029a","system_id":"levelo_inurba_marseille","lat":43.312332,"lon":5.368414,"is_reserved":false,"is_disabled":false,"rental_uris":{"android":"levelo://app?vid=33f23efb-5875-439b-940d-6d6aecd8029a","ios":"levelo://app?vid=33f23efb-5875-439b-940d-6d6aecd8029a"},"vehicle_type_id":"4","last_reported":1744269003,"current_range_meters":4400,"station_id":"ce4bgl92rcd13ifvqbq0","pricing_plan_id":"cebpf4jnsgd1na2vs0mg"},{"bike_id":"de6a8d05-8f72-46cd-856e-4b3dce88f7c4","system_id":"levelo_inurba_marseille","lat":43.29071,"lon":5.37163,"is_reserved":false,"is_disabled":false,"rental_uris":{"android":"levelo://app?vid=de6a8d05-8f72-46cd-856e-4b3dce88f7c4","ios":"levelo://app?vid=de6a8d05-8f72-46cd-856e-4b3dce88f7c4"},"vehicle_type_id":"4","last_reported":1744269003,"current_range_meters":5600,"station_id":"ce4bh5p2rcd13ifvqe4g","pricing_plan_id":"cebpf4jnsgd1na2vs0mg"},{"bike_id":"fe342e5f-0c7e-48eb-a210-d2539a98210f","system_id":"levelo_inurba_marseille","lat":43.30554,"lon":5.36545,"is_reserved":false,"is_disabled":false,"rental_uris":{"android":"levelo://app?vid=fe342e5f-0c7e-48eb-a210-d2539a98210f","ios":"levelo://app?vid=fe342e5f-0c7e-48eb-a210-d2539a98210f"},"vehicle_type_id":"4","last_reported":1744269003,"current_range_meters":5600,"station_id":"ce4bgs12rcd13ifvqcag","pricing_plan_id":"cebpf4jnsgd1na2vs0mg"},{"bike_id":"83c23dd8-d315-428e-b915-6dfe0d42cef7","system_id":"levelo_inurba_marseille","lat":43.31342,"lon":5.36708,"is_reserved":false,"is_disabled":false,"rental_uris":{"android":"levelo://app?vid=83c23dd8-d315-428e-b915-6dfe0d42cef7","ios":"levelo://app?vid=83c23dd8-d315-428e-b915-6dfe0d42cef7"},"vehicle_type_id":"4","last_reported":1744269003,"current_range_meters":5600,"station_id":"ce4bgr92rcd13ifvqc6g","pricing_plan_id":"cebpf4jnsgd1na2vs0mg"},{"bike_id":"db7766ae-ecd8-4eb1-afab-106a4c216130","system_id":"levelo_inurba_marseille","lat":43.30949,"lon":5.390264,"is_reserved":false,"is_disabled":false,"rental_uris":{"android":"levelo://app?vid=db7766ae-ecd8-4eb1-afab-106a4c216130","ios":"levelo://app?vid=db7766ae-ecd8-4eb1-afab-106a4c216130"},"vehicle_type_id":"4","last_reported":1744269003,"current_range_meters":5600,"station_id":"ce4bgup2rcd13ifvqco0","pricing_plan_id":"cebpf4jnsgd1na2vs0mg"},{"bike_id":"45c83a45-d91f-4563-948b-e519d90a34a6","system_id":"levelo_inurba_marseille","lat":43.30323,"lon":5.40442,"is_reserved":false,"is_disabled":false,"rental_uris":{"android":"levelo://app?vid=45c83a45-d91f-4563-948b-e519d90a34a6","ios":"levelo://app?vid=45c83a45-d91f-4563-948b-e519d90a34a6"},"vehicle_type_id":"4","last_reported":1744269003,"current_range_meters":6000,"station_id":"ce4bh012rcd13ifvqd10","pricing_plan_id":"cebpf4jnsgd1na2vs0mg"},{"bike_id":"ec80396c-83b7-40dd-a7f1-669b581de951","system_id":"levelo_inurba_marseille","lat":43.25932,"lon":5.4091,"is_reserved":false,"is_disabled":false,"rental_uris":{"android":"levelo://app?vid=ec80396c-83b7-40dd-a7f1-669b581de951","ios":"levelo://app?vid=ec80396c-83b7-40dd-a7f1-669b581de951"},"vehicle_type_id":"4","last_reported":1744269003,"current_range_meters":6000,"station_id":"ce4bhm92rcd13ifvqglg","pricing_plan_id":"cebpf4jnsgd1na2vs0mg"},{"bike_id":"80663e12-6b64-446d-88c9-20255bde1a8a","system_id":"levelo_inurba_marseille","lat":43.30872,"lon":5.39637,"is_reserved":false,"is_disabled":true,"rental_uris":{"android":"levelo://app?vid=80663e12-6b64-446d-88c9-20255bde1a8a","ios":"levelo://app?vid=80663e12-6b64-446d-88c9-20255bde1a8a"},"vehicle_type_id":"4","last_reported":1744269003,"current_range_meters":6000,"station_id":"ce4bh012rcd13ifvqcv0","pricing_plan_id":"cebpf4jnsgd1na2vs0mg"},{"bike_id":"bf0c585e-5b41-4721-a51a-71274899cf15","system_id":"levelo_inurba_marseille","lat":43.29713,"lon":5.37858,"is_reserved":false,"is_disabled":false,"rental_uris":{"android":"levelo://app?vid=bf0c585e-5b41-4721-a51a-71274899cf15","ios":"levelo://app?vid=bf0c585e-5b41-4721-a51a-71274899cf15"},"vehicle_type_id":"4","last_reported":1744269003,"current_range_meters":6000,"station_id":"","pricing_plan_id":"cebpf4jnsgd1na2vs0mg"},{"bike_id":"c1152fc8-b7fb-4034-a3a1-a3a68f5df83c","system_id":"levelo_inurba_marseille","lat":43.23153,"lon":5.43706,"is_reserved":false,"is_disabled":false,"rental_uris":{"android":"levelo://app?vid=c1152fc8-b7fb-4034-a3a1-a3a68f5df83c","ios":"levelo://app?vid=c1152fc8-b7fb-4034-a3a1-a3a68f5df83c"},"vehicle_type_id":"4","last_reported":1744269003,"current_range_meters":6000,"station_id":"ce4bhmp2rcd13ifvqgog","pricing_plan_id":"cebpf4jnsgd1na2vs0mg"},{"bike_id":"2a9bfedd-f618-4733-bc39-0db812d9e496","system_id":"levelo_inurba_marseille","lat":43.29619,"lon":5.37164,"is_reserved":false,"is_disabled":false,"rental_uris":{"android":"levelo://app?vid=2a9bfedd-f618-4733-bc39-0db812d9e496","ios":"levelo://app?vid=2a9bfedd-f618-4733-bc39-0db812d9e496"},"vehicle_type_id":"4","last_reported":1744269003,"current_range_meters":6000,"station_id":"ce4bgnh2rcd13ifvqc0g","pricing_plan_id":"cebpf4jnsgd1na2vs0mg"},{"bike_id":"e2aa0145-faff-4f13-9b37-4f603831a20a","system_id":"levelo_inurba_marseille","lat":43.3016,"lon":5.38082,"is_reserved":false,"is_disabled":false,"rental_uris":{"android":"levelo://app?vid=e2aa0145-faff-4f13-9b37-4f603831a20a","ios":"levelo://app?vid=e2aa0145-faff-4f13-9b37-4f603831a20a"},"vehicle_type_id":"4","last_reported":1744269003,"current_range_meters":6000,"station_id":"ce4bgjp2rcd13ifvqbh0","pricing_plan_id":"cebpf4jnsgd1na2vs0mg"},{"bike_id":"feca3d9e-12e9-4a3a-8f8a-211aa953b3fa","system_id":"levelo_inurba_marseille","lat":43.29333,"lon":5.41163,"is_reserved":false,"is_disabled":false,"rental_uris":{"android":"levelo://app?vid=feca3d9e-12e9-4a3a-8f8a-211aa953b3fa","ios":"levelo://app?vid=feca3d9e-12e9-4a3a-8f8a-211aa953b3fa"},"vehicle_type_id":"4","last_reported":1744269003,"current_range_meters":6000,"station_id":"","pricing_plan_id":"cebpf4jnsgd1na2vs0mg"},{"bike_id":"2167c314-edd6-4978-985c-adfd396c814c","system_id":"levelo_inurba_marseille","lat":43.30543,"lon":5.36545,"is_reserved":false,"is_disabled":false,"rental_uris":{"android":"levelo://app?vid=2167c314-edd6-4978-985c-adfd396c814c","ios":"levelo://app?vid=2167c314-edd6-4978-985c-adfd396c814c"},"vehicle_type_id":"4","last_reported":1744269003,"current_range_meters":6400,"station_id":"ce4bgs12rcd13ifvqcag","pricing_plan_id":"cebpf4jnsgd1na2vs0mg"},{"bike_id":"1adcfecd-7da9-485c-b40f-e62ffc130e51","system_id":"levelo_inurba_marseille","lat":43.21747,"lon":5.34609,"is_reserved":false,"is_disabled":false,"rental_uris":{"android":"levelo://app?vid=1adcfecd-7da9-485c-b40f-e62ffc130e51","ios":"levelo://app?vid=1adcfecd-7da9-485c-b40f-e62ffc130e51"},"vehicle_type_id":"4","last_reported":1744269003,"current_range_meters":6400,"station_id":"st_cvj6r9ubvosntc0bgbag","pricing_plan_id":"cebpf4jnsgd1na2vs0mg"},{"bike_id":"35fd22d5-e6b3-4a4a-ba2c-4f13cd6d052e","system_id":"levelo_inurba_marseille","lat":43.28021,"lon":5.36933,"is_reserved":false,"is_disabled":false,"rental_uris":{"android":"levelo://app?vid=35fd22d5-e6b3-4a4a-ba2c-4f13cd6d052e","ios":"levelo://app?vid=35fd22d5-e6b3-4a4a-ba2c-4f13cd6d052e"},"vehicle_type_id":"4","last_reported":1744269003,"current_range_meters":6400,"station_id":"ce4bha12rcd13ifvqef0","pricing_plan_id":"cebpf4jnsgd1na2vs0mg"},{"bike_id":"08f9c0c8-8b33-4578-8a03-20f44d582241","system_id":"levelo_inurba_marseille","lat":43.305593,"lon":5.3697,"is_reserved":false,"is_disabled":false,"rental_uris":{"android":"levelo://app?vid=08f9c0c8-8b33-4578-8a03-20f44d582241","ios":"levelo://app?vid=08f9c0c8-8b33-4578-8a03-20f44d582241"},"vehicle_type_id":"4","last_reported":1744269003,"current_range_meters":6400,"station_id":"","pricing_plan_id":"cebpf4jnsgd1na2vs0mg"},{"bike_id":"60e7647b-41c2-437e-ae15-a92b27d8e90f","system_id":"levelo_inurba_marseille","lat":43.28264,"lon":5.3506,"is_reserved":false,"is_disabled":false,"rental_uris":{"android":"levelo://app?vid=60e7647b-41c2-437e-ae15-a92b27d8e90f","ios":"levelo://app?vid=60e7647b-41c2-437e-ae15-a92b27d8e90f"},"vehicle_type_id":"4","last_reported":1744269003,"current_range_meters":6400,"station_id":"ce4bhbp2rcd13ifvqerg","pricing_plan_id":"cebpf4jnsgd1na2vs0mg"},{"bike_id":"feb92024-ef8d-4d32-8809-d978af6a40d4","system_id":"levelo_inurba_marseille","lat":43.309237,"lon":5.401483,"is_reserved":false,"is_disabled":false,"rental_uris":{"android":"levelo://app?vid=feb92024-ef8d-4d32-8809-d978af6a40d4","ios":"levelo://app?vid=feb92024-ef8d-4d32-8809-d978af6a40d4"},"vehicle_type_id":"4","last_reported":1744269003,"current_range_meters":6400,"station_id":"ce4bgvp2rcd13ifvqct0","pricing_plan_id":"cebpf4jnsgd1na2vs0mg"},{"bike_id":"fd44872b-cdae-40cf-b7fd-196359f461cc","system_id":"levelo_inurba_marseille","lat":43.293063,"lon":5.401972,"is_reserved":false,"is_disabled":false,"rental_uris":{"android":"levelo://app?vid=fd44872b-cdae-40cf-b7fd-196359f461cc","ios":"levelo://app?vid=fd44872b-cdae-40cf-b7fd-196359f461cc"},"vehicle_type_id":"4","last_reported":1744269003,"current_range_meters":6400,"station_id":"ce4bh312rcd13ifvqdk0","pricing_plan_id":"cebpf4jnsgd1na2vs0mg"},{"bike_id":"758e8708-ecd2-494d-80c8-3ff8f0fbc44b","system_id":"levelo_inurba_marseille","lat":43.29951,"lon":5.41329,"is_reserved":false,"is_disabled":false,"rental_uris":{"android":"levelo://app?vid=758e8708-ecd2-494d-80c8-3ff8f0fbc44b","ios":"levelo://app?vid=758e8708-ecd2-494d-80c8-3ff8f0fbc44b"},"vehicle_type_id":"4","last_reported":1744269003,"current_range_meters":6800,"station_id":"ce4bhp12rcd13ifvqh9g","pricing_plan_id":"cebpf4jnsgd1na2vs0mg"},{"bike_id":"1d2a2088-b356-435f-a3b2-dc76ce8ea38c","system_id":"levelo_inurba_marseille","lat":43.24672,"lon":5.38171,"is_reserved":false,"is_disabled":false,"rental_uris":{"android":"levelo://app?vid=1d2a2088-b356-435f-a3b2-dc76ce8ea38c","ios":"levelo://app?vid=1d2a2088-b356-435f-a3b2-dc76ce8ea38c"},"vehicle_type_id":"4","last_reported":1744269003,"current_range_meters":6800,"station_id":"ce4bhih2rcd13ifvqfr0","pricing_plan_id":"cebpf4jnsgd1na2vs0mg"},{"bike_id":"de3b769c-3c0e-42df-b3a4-dc4d3c5d5eaf","system_id":"levelo_inurba_marseille","lat":43.30943,"lon":5.40142,"is_reserved":false,"is_disabled":false,"rental_uris":{"android":"levelo://app?vid=de3b769c-3c0e-42df-b3a4-dc4d3c5d5eaf","ios":"levelo://app?vid=de3b769c-3c0e-42df-b3a4-dc4d3c5d5eaf"},"vehicle_type_id":"4","last_reported":1744269003,"current_range_meters":6800,"station_id":"ce4bgvp2rcd13ifvqct0","pricing_plan_id":"cebpf4jnsgd1na2vs0mg"},{"bike_id":"7c41bab6-0404-4314-b218-f822072c5aba","system_id":"levelo_inurba_marseille","lat":43.240906,"lon":5.377584,"is_reserved":false,"is_disabled":false,"rental_uris":{"android":"levelo://app?vid=7c41bab6-0404-4314-b218-f822072c5aba","ios":"levelo://app?vid=7c41bab6-0404-4314-b218-f822072c5aba"},"vehicle_type_id":"4","last_reported":1744269003,"current_range_meters":6800,"station_id":"ce4bhnp2rcd13ifvqgvg","pricing_plan_id":"cebpf4jnsgd1na2vs0mg"},{"bike_id":"0a27cfe3-6092-4d64-893e-745dcfed7fcd","system_id":"levelo_inurba_marseille","lat":43.29098,"lon":5.38111,"is_reserved":false,"is_disabled":false,"rental_uris":{"android":"levelo://app?vid=0a27cfe3-6092-4d64-893e-745dcfed7fcd","ios":"levelo://app?vid=0a27cfe3-6092-4d64-893e-745dcfed7fcd"},"vehicle_type_id":"4","last_reported":1744269003,"current_range_meters":7200,"station_id":"ce4bh512rcd13ifvqe2g","pricing_plan_id":"cebpf4jnsgd1na2vs0mg"},{"bike_id":"aa006247-0281-4474-aae7-228430cfdfa3","system_id":"levelo_inurba_marseille","lat":43.29014,"lon":5.40002,"is_reserved":false,"is_disabled":false,"rental_uris":{"android":"levelo://app?vid=aa006247-0281-4474-aae7-228430cfdfa3","ios":"levelo://app?vid=aa006247-0281-4474-aae7-228430cfdfa3"},"vehicle_type_id":"4","last_reported":1744269003,"current_range_meters":6800,"station_id":"ce4bh392rcd13ifvqdm0","pricing_plan_id":"cebpf4jnsgd1na2vs0mg"},{"bike_id":"816ea41f-dd73-42de-af1c-dadd3921781e","system_id":"levelo_inurba_marseille","lat":43.27822,"lon":5.40716,"is_reserved":false,"is_disabled":false,"rental_uris":{"android":"levelo://app?vid=816ea41f-dd73-42de-af1c-dadd3921781e","ios":"levelo://app?vid=816ea41f-dd73-42de-af1c-dadd3921781e"},"vehicle_type_id":"4","last_reported":1744269003,"current_range_meters":6800,"station_id":"ce4bhnh2rcd13ifvqgtg","pricing_plan_id":"cebpf4jnsgd1na2vs0mg"},{"bike_id":"1ac1cbbe-b138-42e3-974c-823217b3ef97","system_id":"levelo_inurba_marseille","lat":43.30944,"lon":5.39033,"is_reserved":false,"is_disabled":false,"rental_uris":{"android":"levelo://app?vid=1ac1cbbe-b138-42e3-974c-823217b3ef97","ios":"levelo://app?vid=1ac1cbbe-b138-42e3-974c-823217b3ef97"},"vehicle_type_id":"4","last_reported":1744269003,"current_range_meters":6800,"station_id":"ce4bgup2rcd13ifvqco0","pricing_plan_id":"cebpf4jnsgd1na2vs0mg"},{"bike_id":"ac18df24-ac06-4d13-a6e4-365cd202fc3a","system_id":"levelo_inurba_marseille","lat":43.25897,"lon":5.40914,"is_reserved":false,"is_disabled":false,"rental_uris":{"android":"levelo://app?vid=ac18df24-ac06-4d13-a6e4-365cd202fc3a","ios":"levelo://app?vid=ac18df24-ac06-4d13-a6e4-365cd202fc3a"},"vehicle_type_id":"4","last_reported":1744269003,"current_range_meters":6800,"station_id":"ce4bhm92rcd13ifvqglg","pricing_plan_id":"cebpf4jnsgd1na2vs0mg"},{"bike_id":"cf249a5f-af00-42a3-891f-2a32c7072ed3","system_id":"levelo_inurba_marseille","lat":43.262101,"lon":5.404684,"is_reserved":false,"is_disabled":false,"rental_uris":{"android":"levelo://app?vid=cf249a5f-af00-42a3-891f-2a32c7072ed3","ios":"levelo://app?vid=cf249a5f-af00-42a3-891f-2a32c7072ed3"},"vehicle_type_id":"4","last_reported":1744269003,"current_range_meters":7200,"station_id":"ce4bhmh2rcd13ifvqgmg","pricing_plan_id":"cebpf4jnsgd1na2vs0mg"},{"bike_id":"10790b2b-c447-40cf-871b-6bee3f31059c","system_id":"levelo_inurba_marseille","lat":43.31698,"lon":5.437152,"is_reserved":false,"is_disabled":false,"rental_uris":{"android":"levelo://app?vid=10790b2b-c447-40cf-871b-6bee3f31059c","ios":"levelo://app?vid=10790b2b-c447-40cf-871b-6bee3f31059c"},"vehicle_type_id":"4","last_reported":1744269003,"current_range_meters":7200,"station_id":"ce4bhp92rcd13ifvqhcg","pricing_plan_id":"cebpf4jnsgd1na2vs0mg"},{"bike_id":"4eb280b3-5923-4cd2-a122-21058a7d0c17","system_id":"levelo_inurba_marseille","lat":43.24153,"lon":5.39754,"is_reserved":false,"is_disabled":false,"rental_uris":{"android":"levelo://app?vid=4eb280b3-5923-4cd2-a122-21058a7d0c17","ios":"levelo://app?vid=4eb280b3-5923-4cd2-a122-21058a7d0c17"},"vehicle_type_id":"4","last_reported":1744269003,"current_range_meters":7200,"station_id":"ce4bhn12rcd13ifvqgpg","pricing_plan_id":"cebpf4jnsgd1na2vs0mg"},{"bike_id":"841cc48f-644f-4c42-a397-236e943da4b4","system_id":"levelo_inurba_marseille","lat":43.27087,"lon":5.4228,"is_reserved":false,"is_disabled":false,"rental_uris":{"android":"levelo://app?vid=841cc48f-644f-4c42-a397-236e943da4b4","ios":"levelo://app?vid=841cc48f-644f-4c42-a397-236e943da4b4"},"vehicle_type_id":"4","last_reported":1744269003,"current_range_meters":7200,"station_id":"ce4bhk92rcd13ifvqgb0","pricing_plan_id":"cebpf4jnsgd1na2vs0mg"},{"bike_id":"678b2156-23d8-4979-9a24-20656752f490","system_id":"levelo_inurba_marseille","lat":43.23189,"lon":5.35559,"is_reserved":false,"is_disabled":false,"rental_uris":{"android":"levelo://app?vid=678b2156-23d8-4979-9a24-20656752f490","ios":"levelo://app?vid=678b2156-23d8-4979-9a24-20656752f490"},"vehicle_type_id":"4","last_reported":1744269003,"current_range_meters":7200,"station_id":"ce4bhu92rcd13ifvqi70","pricing_plan_id":"cebpf4jnsgd1na2vs0mg"},{"bike_id":"d3a4196e-af63-440d-88b4-175f84acd438","system_id":"levelo_inurba_marseille","lat":43.25913,"lon":5.40906,"is_reserved":false,"is_disabled":false,"rental_uris":{"android":"levelo://app?vid=d3a4196e-af63-440d-88b4-175f84acd438","ios":"levelo://app?vid=d3a4196e-af63-440d-88b4-175f84acd438"},"vehicle_type_id":"4","last_reported":1744269003,"current_range_meters":7200,"station_id":"ce4bhm92rcd13ifvqglg","pricing_plan_id":"cebpf4jnsgd1na2vs0mg"},{"bike_id":"ae370e9e-a8c6-4623-b952-4b254f807bb4","system_id":"levelo_inurba_marseille","lat":43.26679,"lon":5.38264,"is_reserved":false,"is_disabled":false,"rental_uris":{"android":"levelo://app?vid=ae370e9e-a8c6-4623-b952-4b254f807bb4","ios":"levelo://app?vid=ae370e9e-a8c6-4623-b952-4b254f807bb4"},"vehicle_type_id":"4","last_reported":1744269003,"current_range_meters":7200,"station_id":"ce4bhg92rcd13ifvqf90","pricing_plan_id":"cebpf4jnsgd1na2vs0mg"},{"bike_id":"8eaee688-d104-48ae-b50d-a9cc54c49178","system_id":"levelo_inurba_marseille","lat":43.27309,"lon":5.39081,"is_reserved":false,"is_disabled":false,"rental_uris":{"android":"levelo://app?vid=8eaee688-d104-48ae-b50d-a9cc54c49178","ios":"levelo://app?vid=8eaee688-d104-48ae-b50d-a9cc54c49178"},"vehicle_type_id":"4","last_reported":1744269003,"current_range_meters":8000,"station_id":"ce4bhgp2rcd13ifvqfe0","pricing_plan_id":"cebpf4jnsgd1na2vs0mg"},{"bike_id":"39ec4d0a-b3ce-405f-a2b1-c9ad7bdbe23b","system_id":"levelo_inurba_marseille","lat":43.24177,"lon":5.39755,"is_reserved":false,"is_disabled":false,"rental_uris":{"android":"levelo://app?vid=39ec4d0a-b3ce-405f-a2b1-c9ad7bdbe23b","ios":"levelo://app?vid=39ec4d0a-b3ce-405f-a2b1-c9ad7bdbe23b"},"vehicle_type_id":"4","last_reported":1744269003,"current_range_meters":8000,"station_id":"ce4bhn12rcd13ifvqgpg","pricing_plan_id":"cebpf4jnsgd1na2vs0mg"},{"bike_id":"7242f1ee-8035-4b11-9f38-261a4efc473f","system_id":"levelo_inurba_marseille","lat":43.31331,"lon":5.36725,"is_reserved":false,"is_disabled":false,"rental_uris":{"android":"levelo://app?vid=7242f1ee-8035-4b11-9f38-261a4efc473f","ios":"levelo://app?vid=7242f1ee-8035-4b11-9f38-261a4efc473f"},"vehicle_type_id":"4","last_reported":1744269003,"current_range_meters":8000,"station_id":"ce4bgr92rcd13ifvqc6g","pricing_plan_id":"cebpf4jnsgd1na2vs0mg"},{"bike_id":"f9fde33d-3e05-4f24-9670-2ad2d1cacdc1","system_id":"levelo_inurba_marseille","lat":43.288467,"lon":5.372763,"is_reserved":false,"is_disabled":false,"rental_uris":{"android":"levelo://app?vid=f9fde33d-3e05-4f24-9670-2ad2d1cacdc1","ios":"levelo://app?vid=f9fde33d-3e05-4f24-9670-2ad2d1cacdc1"},"vehicle_type_id":"4","last_reported":1744269003,"current_range_meters":8000,"station_id":"","pricing_plan_id":"cebpf4jnsgd1na2vs0mg"},{"bike_id":"c66e0227-8dab-43f7-959d-ad39878fa71f","system_id":"levelo_inurba_marseille","lat":43.2666,"lon":5.38265,"is_reserved":false,"is_disabled":false,"rental_uris":{"android":"levelo://app?vid=c66e0227-8dab-43f7-959d-ad39878fa71f","ios":"levelo://app?vid=c66e0227-8dab-43f7-959d-ad39878fa71f"},"vehicle_type_id":"4","last_reported":1744269003,"current_range_meters":8400,"station_id":"","pricing_plan_id":"cebpf4jnsgd1na2vs0mg"},{"bike_id":"8fa78f52-8834-4b2c-8a1d-e4f911c35cd4","system_id":"levelo_inurba_marseille","lat":43.25741,"lon":5.4107,"is_reserved":false,"is_disabled":true,"rental_uris":{"android":"levelo://app?vid=8fa78f52-8834-4b2c-8a1d-e4f911c35cd4","ios":"levelo://app?vid=8fa78f52-8834-4b2c-8a1d-e4f911c35cd4"},"vehicle_type_id":"4","last_reported":1744269003,"current_range_meters":8400,"station_id":"ce4bhkp2rcd13ifvqgd0","pricing_plan_id":"cebpf4jnsgd1na2vs0mg"},{"bike_id":"523f199e-c50d-4cd7-8cb0-ecd6da8f7fb1","system_id":"levelo_inurba_marseille","lat":43.31723,"lon":5.42424,"is_reserved":false,"is_disabled":false,"rental_uris":{"android":"levelo://app?vid=523f199e-c50d-4cd7-8cb0-ecd6da8f7fb1","ios":"levelo://app?vid=523f199e-c50d-4cd7-8cb0-ecd6da8f7fb1"},"vehicle_type_id":"4","last_reported":1744269003,"current_range_meters":8400,"station_id":"ce4bhp92rcd13ifvqhbg","pricing_plan_id":"cebpf4jnsgd1na2vs0mg"},{"bike_id":"1a8c3bfa-7658-4f5e-93b8-93807ec24b6f","system_id":"levelo_inurba_marseille","lat":43.26564,"lon":5.39038,"is_reserved":false,"is_disabled":true,"rental_uris":{"android":"levelo://app?vid=1a8c3bfa-7658-4f5e-93b8-93807ec24b6f","ios":"levelo://app?vid=1a8c3bfa-7658-4f5e-93b8-93807ec24b6f"},"vehicle_type_id":"4","last_reported":1744269003,"current_range_meters":8400,"station_id":"ce4bhe12rcd13ifvqf30","pricing_plan_id":"cebpf4jnsgd1na2vs0mg"},{"bike_id":"7bd8f72b-3cb7-4bcc-82c6-fb783d29f6e9","system_id":"levelo_inurba_marseille","lat":43.30313,"lon":5.36892,"is_reserved":false,"is_disabled":false,"rental_uris":{"android":"levelo://app?vid=7bd8f72b-3cb7-4bcc-82c6-fb783d29f6e9","ios":"levelo://app?vid=7bd8f72b-3cb7-4bcc-82c6-fb783d29f6e9"},"vehicle_type_id":"4","last_reported":1744269003,"current_range_meters":8400,"station_id":"ce4bgqh2rcd13ifvqc5g","pricing_plan_id":"cebpf4jnsgd1na2vs0mg"},{"bike_id":"0034db4b-efd6-4119-a358-80e858a45e83","system_id":"levelo_inurba_marseille","lat":43.317661,"lon":5.38918,"is_reserved":false,"is_disabled":false,"rental_uris":{"android":"levelo://app?vid=0034db4b-efd6-4119-a358-80e858a45e83","ios":"levelo://app?vid=0034db4b-efd6-4119-a358-80e858a45e83"},"vehicle_type_id":"4","last_reported":1744269003,"current_range_meters":8400,"station_id":"","pricing_plan_id":"cebpf4jnsgd1na2vs0mg"},{"bike_id":"53c40998-7999-47ac-b2e5-20edf96cd84a","system_id":"levelo_inurba_marseille","lat":43.295258,"lon":5.385443,"is_reserved":false,"is_disabled":false,"rental_uris":{"android":"levelo://app?vid=53c40998-7999-47ac-b2e5-20edf96cd84a","ios":"levelo://app?vid=53c40998-7999-47ac-b2e5-20edf96cd84a"},"vehicle_type_id":"4","last_reported":1744269003,"current_range_meters":8400,"station_id":"ce4bhh92rcd13ifvqfh0","pricing_plan_id":"cebpf4jnsgd1na2vs0mg"},{"bike_id":"99ea2e79-e518-4095-adba-bd4c3c9a31d9","system_id":"levelo_inurba_marseille","lat":43.301457,"lon":5.380694,"is_reserved":false,"is_disabled":false,"rental_uris":{"android":"levelo://app?vid=99ea2e79-e518-4095-adba-bd4c3c9a31d9","ios":"levelo://app?vid=99ea2e79-e518-4095-adba-bd4c3c9a31d9"},"vehicle_type_id":"4","last_reported":1744269003,"current_range_meters":8400,"station_id":"ce4bgjp2rcd13ifvqbh0","pricing_plan_id":"cebpf4jnsgd1na2vs0mg"},{"bike_id":"67f47220-4e75-442f-8852-db1ceea6de84","system_id":"levelo_inurba_marseille","lat":43.24086,"lon":5.37755,"is_reserved":false,"is_disabled":false,"rental_uris":{"android":"levelo://app?vid=67f47220-4e75-442f-8852-db1ceea6de84","ios":"levelo://app?vid=67f47220-4e75-442f-8852-db1ceea6de84"},"vehicle_type_id":"4","last_reported":1744269003,"current_range_meters":8800,"station_id":"ce4bhnp2rcd13ifvqgvg","pricing_plan_id":"cebpf4jnsgd1na2vs0mg"},{"bike_id":"1479a164-479b-4297-acf7-bc077f1f4c02","system_id":"levelo_inurba_marseille","lat":43.30144,"lon":5.38077,"is_reserved":false,"is_disabled":false,"rental_uris":{"android":"levelo://app?vid=1479a164-479b-4297-acf7-bc077f1f4c02","ios":"levelo://app?vid=1479a164-479b-4297-acf7-bc077f1f4c02"},"vehicle_type_id":"4","last_reported":1744269003,"current_range_meters":8800,"station_id":"ce4bgjp2rcd13ifvqbh0","pricing_plan_id":"cebpf4jnsgd1na2vs0mg"},{"bike_id":"bc3899d5-398a-4d28-9876-17a324442f3a","system_id":"levelo_inurba_marseille","lat":43.29974,"lon":5.37175,"is_reserved":false,"is_disabled":false,"rental_uris":{"android":"levelo://app?vid=bc3899d5-398a-4d28-9876-17a324442f3a","ios":"levelo://app?vid=bc3899d5-398a-4d28-9876-17a324442f3a"},"vehicle_type_id":"4","last_reported":1744269003,"current_range_meters":8800,"station_id":"ce4bgr92rcd13ifvqc7g","pricing_plan_id":"cebpf4jnsgd1na2vs0mg"},{"bike_id":"731ab783-7108-4c3e-b37f-6c6bd8a6f1ac","system_id":"levelo_inurba_marseille","lat":43.25938,"lon":5.40899,"is_reserved":false,"is_disabled":false,"rental_uris":{"android":"levelo://app?vid=731ab783-7108-4c3e-b37f-6c6bd8a6f1ac","ios":"levelo://app?vid=731ab783-7108-4c3e-b37f-6c6bd8a6f1ac"},"vehicle_type_id":"4","last_reported":1744269003,"current_range_meters":9200,"station_id":"ce4bhm92rcd13ifvqglg","pricing_plan_id":"cebpf4jnsgd1na2vs0mg"},{"bike_id":"17f4902e-c861-4806-a819-8e218247cad7","system_id":"levelo_inurba_marseille","lat":43.2463,"lon":5.38177,"is_reserved":false,"is_disabled":false,"rental_uris":{"android":"levelo://app?vid=17f4902e-c861-4806-a819-8e218247cad7","ios":"levelo://app?vid=17f4902e-c861-4806-a819-8e218247cad7"},"vehicle_type_id":"4","last_reported":1744269003,"current_range_meters":9200,"station_id":"ce4bhih2rcd13ifvqfr0","pricing_plan_id":"cebpf4jnsgd1na2vs0mg"},{"bike_id":"01e31f15-bc9b-4d18-bebd-edf19bcedef2","system_id":"levelo_inurba_marseille","lat":43.287176,"lon":5.37942,"is_reserved":false,"is_disabled":true,"rental_uris":{"android":"levelo://app?vid=01e31f15-bc9b-4d18-bebd-edf19bcedef2","ios":"levelo://app?vid=01e31f15-bc9b-4d18-bebd-edf19bcedef2"},"vehicle_type_id":"4","last_reported":1744269003,"current_range_meters":9200,"station_id":"ce4bh9p2rcd13ifvqec0","pricing_plan_id":"cebpf4jnsgd1na2vs0mg"},{"bike_id":"5f30a5a4-de9f-499e-b151-b811ebb3b43a","system_id":"levelo_inurba_marseille","lat":43.31055,"lon":5.38338,"is_reserved":false,"is_disabled":true,"rental_uris":{"android":"levelo://app?vid=5f30a5a4-de9f-499e-b151-b811ebb3b43a","ios":"levelo://app?vid=5f30a5a4-de9f-499e-b151-b811ebb3b43a"},"vehicle_type_id":"4","last_reported":1744269003,"current_range_meters":9200,"station_id":"ce4bgv92rcd13ifvqcr0","pricing_plan_id":"cebpf4jnsgd1na2vs0mg"},{"bike_id":"147f9b4c-1c73-4048-93a4-44a3ec726794","system_id":"levelo_inurba_marseille","lat":43.29646,"lon":5.37538,"is_reserved":false,"is_disabled":true,"rental_uris":{"android":"levelo://app?vid=147f9b4c-1c73-4048-93a4-44a3ec726794","ios":"levelo://app?vid=147f9b4c-1c73-4048-93a4-44a3ec726794"},"vehicle_type_id":"4","last_reported":1744269003,"current_range_meters":9200,"station_id":"","pricing_plan_id":"cebpf4jnsgd1na2vs0mg"},{"bike_id":"ed48abc7-9b08-418b-a397-66953dd63cad","system_id":"levelo_inurba_marseille","lat":43.29225,"lon":5.36072,"is_reserved":false,"is_disabled":false,"rental_uris":{"android":"levelo://app?vid=ed48abc7-9b08-418b-a397-66953dd63cad","ios":"levelo://app?vid=ed48abc7-9b08-418b-a397-66953dd63cad"},"vehicle_type_id":"4","last_reported":1744269003,"current_range_meters":8800,"station_id":"ce4bhbh2rcd13ifvqeqg","pricing_plan_id":"cebpf4jnsgd1na2vs0mg"},{"bike_id":"9c51b09b-f7e8-44af-8057-4bd28f7311f0","system_id":"levelo_inurba_marseille","lat":43.28682,"lon":5.37394,"is_reserved":false,"is_disabled":false,"rental_uris":{"android":"levelo://app?vid=9c51b09b-f7e8-44af-8057-4bd28f7311f0","ios":"levelo://app?vid=9c51b09b-f7e8-44af-8057-4bd28f7311f0"},"vehicle_type_id":"4","last_reported":1744269003,"current_range_meters":8400,"station_id":"ce4bh3p2rcd13ifvqdq0","pricing_plan_id":"cebpf4jnsgd1na2vs0mg"},{"bike_id":"406d87db-8002-4163-9a5e-13172f8ed6d3","system_id":"levelo_inurba_marseille","lat":43.28986,"lon":5.37827,"is_reserved":false,"is_disabled":false,"rental_uris":{"android":"levelo://app?vid=406d87db-8002-4163-9a5e-13172f8ed6d3","ios":"levelo://app?vid=406d87db-8002-4163-9a5e-13172f8ed6d3"},"vehicle_type_id":"4","last_reported":1744269003,"current_range_meters":8800,"station_id":"ce4bh9p2rcd13ifvqed0","pricing_plan_id":"cebpf4jnsgd1na2vs0mg"},{"bike_id":"9550470e-ac84-422f-ae67-92ba2e50e7f7","system_id":"levelo_inurba_marseille","lat":43.24979,"lon":5.38925,"is_reserved":false,"is_disabled":false,"rental_uris":{"android":"levelo://app?vid=9550470e-ac84-422f-ae67-92ba2e50e7f7","ios":"levelo://app?vid=9550470e-ac84-422f-ae67-92ba2e50e7f7"},"vehicle_type_id":"4","last_reported":1744269003,"current_range_meters":9600,"station_id":"ce4bhgp2rcd13ifvqfd0","pricing_plan_id":"cebpf4jnsgd1na2vs0mg"},{"bike_id":"a0139d63-e86e-409b-93c7-58261c37a1f2","system_id":"levelo_inurba_marseille","lat":43.3034,"lon":5.40528,"is_reserved":false,"is_disabled":false,"rental_uris":{"android":"levelo://app?vid=a0139d63-e86e-409b-93c7-58261c37a1f2","ios":"levelo://app?vid=a0139d63-e86e-409b-93c7-58261c37a1f2"},"vehicle_type_id":"4","last_reported":1744269003,"current_range_meters":9600,"station_id":"ce4bh012rcd13ifvqd10","pricing_plan_id":"cebpf4jnsgd1na2vs0mg"},{"bike_id":"00e93e70-d1d4-47ca-a515-d8294c5b1b3c","system_id":"levelo_inurba_marseille","lat":43.250275,"lon":5.389373,"is_reserved":false,"is_disabled":false,"rental_uris":{"android":"levelo://app?vid=00e93e70-d1d4-47ca-a515-d8294c5b1b3c","ios":"levelo://app?vid=00e93e70-d1d4-47ca-a515-d8294c5b1b3c"},"vehicle_type_id":"4","last_reported":1744269003,"current_range_meters":9600,"station_id":"ce4bhgp2rcd13ifvqfd0","pricing_plan_id":"cebpf4jnsgd1na2vs0mg"},{"bike_id":"b96be04a-adcd-4816-8c18-ee76dccce0e8","system_id":"levelo_inurba_marseille","lat":43.24166,"lon":5.36391,"is_reserved":false,"is_disabled":false,"rental_uris":{"android":"levelo://app?vid=b96be04a-adcd-4816-8c18-ee76dccce0e8","ios":"levelo://app?vid=b96be04a-adcd-4816-8c18-ee76dccce0e8"},"vehicle_type_id":"4","last_reported":1744269003,"current_range_meters":9600,"station_id":"cpo36qri1sfpv3e86is0","pricing_plan_id":"cebpf4jnsgd1na2vs0mg"},{"bike_id":"370c5ce7-3d00-4a67-b12b-0443c7b825ee","system_id":"levelo_inurba_marseille","lat":43.2765,"lon":5.36159,"is_reserved":false,"is_disabled":false,"rental_uris":{"android":"levelo://app?vid=370c5ce7-3d00-4a67-b12b-0443c7b825ee","ios":"levelo://app?vid=370c5ce7-3d00-4a67-b12b-0443c7b825ee"},"vehicle_type_id":"4","last_reported":1744269003,"current_range_meters":9600,"station_id":"","pricing_plan_id":"cebpf4jnsgd1na2vs0mg"},{"bike_id":"c243072f-6bd2-4d94-ba83-04162cf2a05c","system_id":"levelo_inurba_marseille","lat":43.27204,"lon":5.40139,"is_reserved":false,"is_disabled":false,"rental_uris":{"android":"levelo://app?vid=c243072f-6bd2-4d94-ba83-04162cf2a05c","ios":"levelo://app?vid=c243072f-6bd2-4d94-ba83-04162cf2a05c"},"vehicle_type_id":"4","last_reported":1744269003,"current_range_meters":9600,"station_id":"","pricing_plan_id":"cebpf4jnsgd1na2vs0mg"},{"bike_id":"99260628-93ca-4816-84c2-7509aaf9aff8","system_id":"levelo_inurba_marseille","lat":43.31234,"lon":5.36881,"is_reserved":false,"is_disabled":false,"rental_uris":{"android":"levelo://app?vid=99260628-93ca-4816-84c2-7509aaf9aff8","ios":"levelo://app?vid=99260628-93ca-4816-84c2-7509aaf9aff8"},"vehicle_type_id":"4","last_reported":1744269003,"current_range_meters":9600,"station_id":"ce4bgl92rcd13ifvqbq0","pricing_plan_id":"cebpf4jnsgd1na2vs0mg"},{"bike_id":"d71a9edc-db45-4cb7-8e1b-712bf2f6374d","system_id":"levelo_inurba_marseille","lat":43.29264,"lon":5.4011,"is_reserved":false,"is_disabled":false,"rental_uris":{"android":"levelo://app?vid=d71a9edc-db45-4cb7-8e1b-712bf2f6374d","ios":"levelo://app?vid=d71a9edc-db45-4cb7-8e1b-712bf2f6374d"},"vehicle_type_id":"4","last_reported":1744269003,"current_range_meters":10000,"station_id":"ce4bh312rcd13ifvqdk0","pricing_plan_id":"cebpf4jnsgd1na2vs0mg"},{"bike_id":"9fce7fb9-26b6-4832-9f96-ea1b75c489f0","system_id":"levelo_inurba_marseille","lat":43.21193,"lon":5.35079,"is_reserved":false,"is_disabled":false,"rental_uris":{"android":"levelo://app?vid=9fce7fb9-26b6-4832-9f96-ea1b75c489f0","ios":"levelo://app?vid=9fce7fb9-26b6-4832-9f96-ea1b75c489f0"},"vehicle_type_id":"4","last_reported":1744269003,"current_range_meters":10000,"station_id":"st_cvj6sg6p6f1abm77japg","pricing_plan_id":"cebpf4jnsgd1na2vs0mg"},{"bike_id":"b4b93a64-d083-4ab2-bbd0-53609c602fb5","system_id":"levelo_inurba_marseille","lat":43.30946,"lon":5.40158,"is_reserved":false,"is_disabled":true,"rental_uris":{"android":"levelo://app?vid=b4b93a64-d083-4ab2-bbd0-53609c602fb5","ios":"levelo://app?vid=b4b93a64-d083-4ab2-bbd0-53609c602fb5"},"vehicle_type_id":"4","last_reported":1744269003,"current_range_meters":10000,"station_id":"ce4bgvp2rcd13ifvqct0","pricing_plan_id":"cebpf4jnsgd1na2vs0mg"},{"bike_id":"3cfa414a-56ce-4678-b27b-88f21f1ddfeb","system_id":"levelo_inurba_marseille","lat":43.30298,"lon":5.37741,"is_reserved":false,"is_disabled":false,"rental_uris":{"android":"levelo://app?vid=3cfa414a-56ce-4678-b27b-88f21f1ddfeb","ios":"levelo://app?vid=3cfa414a-56ce-4678-b27b-88f21f1ddfeb"},"vehicle_type_id":"4","last_reported":1744269003,"current_range_meters":10000,"station_id":"ce4bguh2rcd13ifvqcj0","pricing_plan_id":"cebpf4jnsgd1na2vs0mg"},{"bike_id":"f2ddeead-c55a-49b3-90e5-4eec0e251056","system_id":"levelo_inurba_marseille","lat":43.31714,"lon":5.43708,"is_reserved":false,"is_disabled":false,"rental_uris":{"android":"levelo://app?vid=f2ddeead-c55a-49b3-90e5-4eec0e251056","ios":"levelo://app?vid=f2ddeead-c55a-49b3-90e5-4eec0e251056"},"vehicle_type_id":"4","last_reported":1744269003,"current_range_meters":10000,"station_id":"ce4bhp92rcd13ifvqhcg","pricing_plan_id":"cebpf4jnsgd1na2vs0mg"},{"bike_id":"122cdde6-9512-4fc1-b3dd-8da01087c3ed","system_id":"levelo_inurba_marseille","lat":43.21192,"lon":5.35084,"is_reserved":false,"is_disabled":false,"rental_uris":{"android":"levelo://app?vid=122cdde6-9512-4fc1-b3dd-8da01087c3ed","ios":"levelo://app?vid=122cdde6-9512-4fc1-b3dd-8da01087c3ed"},"vehicle_type_id":"4","last_reported":1744269003,"current_range_meters":10000,"station_id":"","pricing_plan_id":"cebpf4jnsgd1na2vs0mg"},{"bike_id":"1082be00-a851-42c6-9e20-db6fa20c3cfd","system_id":"levelo_inurba_marseille","lat":43.24668,"lon":5.38175,"is_reserved":false,"is_disabled":false,"rental_uris":{"android":"levelo://app?vid=1082be00-a851-42c6-9e20-db6fa20c3cfd","ios":"levelo://app?vid=1082be00-a851-42c6-9e20-db6fa20c3cfd"},"vehicle_type_id":"4","last_reported":1744269003,"current_range_meters":10000,"station_id":"ce4bhih2rcd13ifvqfr0","pricing_plan_id":"cebpf4jnsgd1na2vs0mg"},{"bike_id":"64507949-1f92-4ea2-ba8c-fbff93bb6b22","system_id":"levelo_inurba_marseille","lat":43.30948,"lon":5.39025,"is_reserved":false,"is_disabled":false,"rental_uris":{"android":"levelo://app?vid=64507949-1f92-4ea2-ba8c-fbff93bb6b22","ios":"levelo://app?vid=64507949-1f92-4ea2-ba8c-fbff93bb6b22"},"vehicle_type_id":"4","last_reported":1744269003,"current_range_meters":9600,"station_id":"ce4bgup2rcd13ifvqco0","pricing_plan_id":"cebpf4jnsgd1na2vs0mg"},{"bike_id":"98d8f500-736c-4251-b859-760d38c9921e","system_id":"levelo_inurba_marseille","lat":43.24163,"lon":5.39741,"is_reserved":false,"is_disabled":false,"rental_uris":{"android":"levelo://app?vid=98d8f500-736c-4251-b859-760d38c9921e","ios":"levelo://app?vid=98d8f500-736c-4251-b859-760d38c9921e"},"vehicle_type_id":"4","last_reported":1744269003,"current_range_meters":10800,"station_id":"ce4bhn12rcd13ifvqgpg","pricing_plan_id":"cebpf4jnsgd1na2vs0mg"},{"bike_id":"c2ddfc92-73f9-4c56-a0bc-d0856b9f020c","system_id":"levelo_inurba_marseille","lat":43.32544,"lon":5.4143,"is_reserved":false,"is_disabled":false,"rental_uris":{"android":"levelo://app?vid=c2ddfc92-73f9-4c56-a0bc-d0856b9f020c","ios":"levelo://app?vid=c2ddfc92-73f9-4c56-a0bc-d0856b9f020c"},"vehicle_type_id":"4","last_reported":1744269003,"current_range_meters":10800,"station_id":"ce4bhq12rcd13ifvqhhg","pricing_plan_id":"cebpf4jnsgd1na2vs0mg"},{"bike_id":"b5a497b9-a79c-4434-bae5-ae0df984fca4","system_id":"levelo_inurba_marseille","lat":43.3093,"lon":5.3686,"is_reserved":false,"is_disabled":false,"rental_uris":{"android":"levelo://app?vid=b5a497b9-a79c-4434-bae5-ae0df984fca4","ios":"levelo://app?vid=b5a497b9-a79c-4434-bae5-ae0df984fca4"},"vehicle_type_id":"4","last_reported":1744269003,"current_range_meters":10800,"station_id":"ce4bgn92rcd13ifvqbvg","pricing_plan_id":"cebpf4jnsgd1na2vs0mg"},{"bike_id":"74b26f4a-6d3d-4ac2-b681-1e6162ab2ff1","system_id":"levelo_inurba_marseille","lat":43.31222,"lon":5.36856,"is_reserved":false,"is_disabled":false,"rental_uris":{"android":"levelo://app?vid=74b26f4a-6d3d-4ac2-b681-1e6162ab2ff1","ios":"levelo://app?vid=74b26f4a-6d3d-4ac2-b681-1e6162ab2ff1"},"vehicle_type_id":"4","last_reported":1744269003,"current_range_meters":10000,"station_id":"ce4bgl92rcd13ifvqbq0","pricing_plan_id":"cebpf4jnsgd1na2vs0mg"},{"bike_id":"8ab6dcfc-9a38-4d9a-b92d-93ebc3289f5f","system_id":"levelo_inurba_marseille","lat":43.26063,"lon":5.39396,"is_reserved":false,"is_disabled":true,"rental_uris":{"android":"levelo://app?vid=8ab6dcfc-9a38-4d9a-b92d-93ebc3289f5f","ios":"levelo://app?vid=8ab6dcfc-9a38-4d9a-b92d-93ebc3289f5f"},"vehicle_type_id":"4","last_reported":1744269003,"current_range_meters":10800,"station_id":"ce4bhh92rcd13ifvqfj0","pricing_plan_id":"cebpf4jnsgd1na2vs0mg"},{"bike_id":"a14f72ed-ad11-4871-a779-6f279cf67eeb","system_id":"levelo_inurba_marseille","lat":43.21743,"lon":5.34605,"is_reserved":false,"is_disabled":true,"rental_uris":{"android":"levelo://app?vid=a14f72ed-ad11-4871-a779-6f279cf67eeb","ios":"levelo://app?vid=a14f72ed-ad11-4871-a779-6f279cf67eeb"},"vehicle_type_id":"4","last_reported":1744269003,"current_range_meters":10800,"station_id":"ce4bhoh2rcd13ifvqh5g","pricing_plan_id":"cebpf4jnsgd1na2vs0mg"},{"bike_id":"aeb5d532-a5df-474f-a469-24b81f00135c","system_id":"levelo_inurba_marseille","lat":43.30362,"lon":5.41872,"is_reserved":false,"is_disabled":false,"rental_uris":{"android":"levelo://app?vid=aeb5d532-a5df-474f-a469-24b81f00135c","ios":"levelo://app?vid=aeb5d532-a5df-474f-a469-24b81f00135c"},"vehicle_type_id":"4","last_reported":1744269003,"current_range_meters":11200,"station_id":"ce4bhop2rcd13ifvqh7g","pricing_plan_id":"cebpf4jnsgd1na2vs0mg"},{"bike_id":"ded1a5a0-6ea9-4f96-9020-68a2326b5e6d","system_id":"levelo_inurba_marseille","lat":43.29038,"lon":5.39979,"is_reserved":false,"is_disabled":false,"rental_uris":{"android":"levelo://app?vid=ded1a5a0-6ea9-4f96-9020-68a2326b5e6d","ios":"levelo://app?vid=ded1a5a0-6ea9-4f96-9020-68a2326b5e6d"},"vehicle_type_id":"4","last_reported":1744269003,"current_range_meters":11200,"station_id":"ce4bh392rcd13ifvqdm0","pricing_plan_id":"cebpf4jnsgd1na2vs0mg"},{"bike_id":"e6b27e51-7a6f-4c87-9cdb-e0dbaf392783","system_id":"levelo_inurba_marseille","lat":43.30964,"lon":5.39649,"is_reserved":false,"is_disabled":false,"rental_uris":{"android":"levelo://app?vid=e6b27e51-7a6f-4c87-9cdb-e0dbaf392783","ios":"levelo://app?vid=e6b27e51-7a6f-4c87-9cdb-e0dbaf392783"},"vehicle_type_id":"4","last_reported":1744269003,"current_range_meters":11200,"station_id":"","pricing_plan_id":"cebpf4jnsgd1na2vs0mg"},{"bike_id":"d710f03a-d02a-4e12-8166-c804e498c5b5","system_id":"levelo_inurba_marseille","lat":43.26691,"lon":5.38258,"is_reserved":false,"is_disabled":false,"rental_uris":{"android":"levelo://app?vid=d710f03a-d02a-4e12-8166-c804e498c5b5","ios":"levelo://app?vid=d710f03a-d02a-4e12-8166-c804e498c5b5"},"vehicle_type_id":"4","last_reported":1744269003,"current_range_meters":11200,"station_id":"ce4bhg92rcd13ifvqf90","pricing_plan_id":"cebpf4jnsgd1na2vs0mg"},{"bike_id":"e27b31d5-c207-4462-83a2-16ac8cfb53fd","system_id":"levelo_inurba_marseille","lat":43.265874,"lon":5.390847,"is_reserved":false,"is_disabled":false,"rental_uris":{"android":"levelo://app?vid=e27b31d5-c207-4462-83a2-16ac8cfb53fd","ios":"levelo://app?vid=e27b31d5-c207-4462-83a2-16ac8cfb53fd"},"vehicle_type_id":"4","last_reported":1744269003,"current_range_meters":11600,"station_id":"ce4bhip2rcd13ifvqft0","pricing_plan_id":"cebpf4jnsgd1na2vs0mg"},{"bike_id":"5a0fa541-6fc2-4ae1-99ec-a2e2ec69a941","system_id":"levelo_inurba_marseille","lat":43.32998,"lon":5.43866,"is_reserved":false,"is_disabled":false,"rental_uris":{"android":"levelo://app?vid=5a0fa541-6fc2-4ae1-99ec-a2e2ec69a941","ios":"levelo://app?vid=5a0fa541-6fc2-4ae1-99ec-a2e2ec69a941"},"vehicle_type_id":"4","last_reported":1744269003,"current_range_meters":11600,"station_id":"","pricing_plan_id":"cebpf4jnsgd1na2vs0mg"},{"bike_id":"4d2b5cd5-2c6c-4905-b4b8-8faa5aae631b","system_id":"levelo_inurba_marseille","lat":43.33125,"lon":5.39399,"is_reserved":false,"is_disabled":false,"rental_uris":{"android":"levelo://app?vid=4d2b5cd5-2c6c-4905-b4b8-8faa5aae631b","ios":"levelo://app?vid=4d2b5cd5-2c6c-4905-b4b8-8faa5aae631b"},"vehicle_type_id":"4","last_reported":1744269003,"current_range_meters":11600,"station_id":"","pricing_plan_id":"cebpf4jnsgd1na2vs0mg"},{"bike_id":"cc29b15f-44c2-432a-b8c5-44e366421085","system_id":"levelo_inurba_marseille","lat":43.32297,"lon":5.38602,"is_reserved":false,"is_disabled":false,"rental_uris":{"android":"levelo://app?vid=cc29b15f-44c2-432a-b8c5-44e366421085","ios":"levelo://app?vid=cc29b15f-44c2-432a-b8c5-44e366421085"},"vehicle_type_id":"4","last_reported":1744269003,"current_range_meters":11600,"station_id":"","pricing_plan_id":"cebpf4jnsgd1na2vs0mg"},{"bike_id":"67efea5c-6630-4e5d-b1ef-4bdfed60f5c4","system_id":"levelo_inurba_marseille","lat":43.27174,"lon":5.40999,"is_reserved":false,"is_disabled":false,"rental_uris":{"android":"levelo://app?vid=67efea5c-6630-4e5d-b1ef-4bdfed60f5c4","ios":"levelo://app?vid=67efea5c-6630-4e5d-b1ef-4bdfed60f5c4"},"vehicle_type_id":"4","last_reported":1744269003,"current_range_meters":11200,"station_id":"ce4bhl12rcd13ifvqgf0","pricing_plan_id":"cebpf4jnsgd1na2vs0mg"},{"bike_id":"144eebdc-e53c-4ffa-9ed9-879ebddd4d00","system_id":"levelo_inurba_marseille","lat":43.31342,"lon":5.36717,"is_reserved":false,"is_disabled":false,"rental_uris":{"android":"levelo://app?vid=144eebdc-e53c-4ffa-9ed9-879ebddd4d00","ios":"levelo://app?vid=144eebdc-e53c-4ffa-9ed9-879ebddd4d00"},"vehicle_type_id":"4","last_reported":1744269003,"current_range_meters":11600,"station_id":"ce4bgr92rcd13ifvqc6g","pricing_plan_id":"cebpf4jnsgd1na2vs0mg"},{"bike_id":"d1cd1b25-6432-4bde-87f0-3f927aac83c2","system_id":"levelo_inurba_marseille","lat":43.30524,"lon":5.36534,"is_reserved":false,"is_disabled":false,"rental_uris":{"android":"levelo://app?vid=d1cd1b25-6432-4bde-87f0-3f927aac83c2","ios":"levelo://app?vid=d1cd1b25-6432-4bde-87f0-3f927aac83c2"},"vehicle_type_id":"4","last_reported":1744269003,"current_range_meters":11600,"station_id":"ce4bgs12rcd13ifvqcag","pricing_plan_id":"cebpf4jnsgd1na2vs0mg"},{"bike_id":"4a43e792-aa4c-425f-9146-6dabaedecb87","system_id":"levelo_inurba_marseille","lat":43.26781,"lon":5.39418,"is_reserved":false,"is_disabled":false,"rental_uris":{"android":"levelo://app?vid=4a43e792-aa4c-425f-9146-6dabaedecb87","ios":"levelo://app?vid=4a43e792-aa4c-425f-9146-6dabaedecb87"},"vehicle_type_id":"4","last_reported":1744269003,"current_range_meters":11600,"station_id":"ce4bhh12rcd13ifvqfg0","pricing_plan_id":"cebpf4jnsgd1na2vs0mg"},{"bike_id":"5829cd0d-c17e-4de3-b63f-9cd151926e69","system_id":"levelo_inurba_marseille","lat":43.29567,"lon":5.36764,"is_reserved":false,"is_disabled":true,"rental_uris":{"android":"levelo://app?vid=5829cd0d-c17e-4de3-b63f-9cd151926e69","ios":"levelo://app?vid=5829cd0d-c17e-4de3-b63f-9cd151926e69"},"vehicle_type_id":"4","last_reported":1744269003,"current_range_meters":11600,"station_id":"ce4bgph2rcd13ifvqc2g","pricing_plan_id":"cebpf4jnsgd1na2vs0mg"},{"bike_id":"00b9267b-6057-44c7-b688-b643febb3e16","system_id":"levelo_inurba_marseille","lat":43.30524,"lon":5.36709,"is_reserved":false,"is_disabled":false,"rental_uris":{"android":"levelo://app?vid=00b9267b-6057-44c7-b688-b643febb3e16","ios":"levelo://app?vid=00b9267b-6057-44c7-b688-b643febb3e16"},"vehicle_type_id":"4","last_reported":1744269003,"current_range_meters":11600,"station_id":"ce4bgrp2rcd13ifvqc9g","pricing_plan_id":"cebpf4jnsgd1na2vs0mg"},{"bike_id":"82bbe354-e339-4f48-b657-9db431534258","system_id":"levelo_inurba_marseille","lat":43.29916,"lon":5.37465,"is_reserved":false,"is_disabled":false,"rental_uris":{"android":"levelo://app?vid=82bbe354-e339-4f48-b657-9db431534258","ios":"levelo://app?vid=82bbe354-e339-4f48-b657-9db431534258"},"vehicle_type_id":"4","last_reported":1744269003,"current_range_meters":12000,"station_id":"ce4bgjh2rcd13ifvqbg0","pricing_plan_id":"cebpf4jnsgd1na2vs0mg"},{"bike_id":"5d14c852-7d39-4daa-9337-9b008497a52a","system_id":"levelo_inurba_marseille","lat":43.29415,"lon":5.38637,"is_reserved":false,"is_disabled":true,"rental_uris":{"android":"levelo://app?vid=5d14c852-7d39-4daa-9337-9b008497a52a","ios":"levelo://app?vid=5d14c852-7d39-4daa-9337-9b008497a52a"},"vehicle_type_id":"4","last_reported":1744269003,"current_range_meters":12400,"station_id":"ce4bh2h2rcd13ifvqdh0","pricing_plan_id":"cebpf4jnsgd1na2vs0mg"},{"bike_id":"5a84d50b-7780-48f0-a51a-ab983dd952b8","system_id":"levelo_inurba_marseille","lat":43.30463,"lon":5.37903,"is_reserved":false,"is_disabled":false,"rental_uris":{"android":"levelo://app?vid=5a84d50b-7780-48f0-a51a-ab983dd952b8","ios":"levelo://app?vid=5a84d50b-7780-48f0-a51a-ab983dd952b8"},"vehicle_type_id":"4","last_reported":1744269003,"current_range_meters":12400,"station_id":"ce4bgup2rcd13ifvqcn0","pricing_plan_id":"cebpf4jnsgd1na2vs0mg"},{"bike_id":"5bf3f4a1-3271-4dad-9593-ab76c7ea5f4f","system_id":"levelo_inurba_marseille","lat":43.3054,"lon":5.36535,"is_reserved":false,"is_disabled":false,"rental_uris":{"android":"levelo://app?vid=5bf3f4a1-3271-4dad-9593-ab76c7ea5f4f","ios":"levelo://app?vid=5bf3f4a1-3271-4dad-9593-ab76c7ea5f4f"},"vehicle_type_id":"4","last_reported":1744269003,"current_range_meters":12400,"station_id":"ce4bgs12rcd13ifvqcag","pricing_plan_id":"cebpf4jnsgd1na2vs0mg"},{"bike_id":"42c1fdc6-38af-4ea1-a910-702e15d5a9b4","system_id":"levelo_inurba_marseille","lat":43.30938,"lon":5.40143,"is_reserved":false,"is_disabled":true,"rental_uris":{"android":"levelo://app?vid=42c1fdc6-38af-4ea1-a910-702e15d5a9b4","ios":"levelo://app?vid=42c1fdc6-38af-4ea1-a910-702e15d5a9b4"},"vehicle_type_id":"4","last_reported":1744269003,"current_range_meters":12400,"station_id":"ce4bgvp2rcd13ifvqct0","pricing_plan_id":"cebpf4jnsgd1na2vs0mg"},{"bike_id":"5a8f704b-8c8c-4630-9740-2c51c160a002","system_id":"levelo_inurba_marseille","lat":43.301498,"lon":5.380758,"is_reserved":false,"is_disabled":false,"rental_uris":{"android":"levelo://app?vid=5a8f704b-8c8c-4630-9740-2c51c160a002","ios":"levelo://app?vid=5a8f704b-8c8c-4630-9740-2c51c160a002"},"vehicle_type_id":"4","last_reported":1744269003,"current_range_meters":12400,"station_id":"ce4bgjp2rcd13ifvqbh0","pricing_plan_id":"cebpf4jnsgd1na2vs0mg"},{"bike_id":"1a3cd0ab-ec77-41b3-982c-74e5093499a8","system_id":"levelo_inurba_marseille","lat":43.30412,"lon":5.38906,"is_reserved":false,"is_disabled":true,"rental_uris":{"android":"levelo://app?vid=1a3cd0ab-ec77-41b3-982c-74e5093499a8","ios":"levelo://app?vid=1a3cd0ab-ec77-41b3-982c-74e5093499a8"},"vehicle_type_id":"4","last_reported":1744269003,"current_range_meters":12800,"station_id":"ce4bgk12rcd13ifvqbi0","pricing_plan_id":"cebpf4jnsgd1na2vs0mg"},{"bike_id":"8ef273ac-c689-4f24-a851-468efa4e0854","system_id":"levelo_inurba_marseille","lat":43.28996,"lon":5.3684,"is_reserved":false,"is_disabled":false,"rental_uris":{"android":"levelo://app?vid=8ef273ac-c689-4f24-a851-468efa4e0854","ios":"levelo://app?vid=8ef273ac-c689-4f24-a851-468efa4e0854"},"vehicle_type_id":"4","last_reported":1744269003,"current_range_meters":12800,"station_id":"","pricing_plan_id":"cebpf4jnsgd1na2vs0mg"},{"bike_id":"ceb584a8-bfcf-4e68-96cb-97b2c09da309","system_id":"levelo_inurba_marseille","lat":43.299455,"lon":5.371852,"is_reserved":false,"is_disabled":false,"rental_uris":{"android":"levelo://app?vid=ceb584a8-bfcf-4e68-96cb-97b2c09da309","ios":"levelo://app?vid=ceb584a8-bfcf-4e68-96cb-97b2c09da309"},"vehicle_type_id":"4","last_reported":1744269003,"current_range_meters":13600,"station_id":"ce4bgrp2rcd13ifvqc9g","pricing_plan_id":"cebpf4jnsgd1na2vs0mg"},{"bike_id":"f10eaa92-034b-466a-8ac9-20fcbdaff0ab","system_id":"levelo_inurba_marseille","lat":43.313544,"lon":5.367046,"is_reserved":false,"is_disabled":false,"rental_uris":{"android":"levelo://app?vid=f10eaa92-034b-466a-8ac9-20fcbdaff0ab","ios":"levelo://app?vid=f10eaa92-034b-466a-8ac9-20fcbdaff0ab"},"vehicle_type_id":"4","last_reported":1744269003,"current_range_meters":13600,"station_id":"","pricing_plan_id":"cebpf4jnsgd1na2vs0mg"},{"bike_id":"5047455d-c97a-4875-9440-a0dd56a0356d","system_id":"levelo_inurba_marseille","lat":43.32343,"lon":5.3671,"is_reserved":false,"is_disabled":false,"rental_uris":{"android":"levelo://app?vid=5047455d-c97a-4875-9440-a0dd56a0356d","ios":"levelo://app?vid=5047455d-c97a-4875-9440-a0dd56a0356d"},"vehicle_type_id":"4","last_reported":1744269003,"current_range_meters":13600,"station_id":"ce4bhsh2rcd13ifvqi2g","pricing_plan_id":"cebpf4jnsgd1na2vs0mg"},{"bike_id":"6b383df4-9571-4b6b-8882-b1538f985b7f","system_id":"levelo_inurba_marseille","lat":43.30535,"lon":5.36547,"is_reserved":false,"is_disabled":false,"rental_uris":{"android":"levelo://app?vid=6b383df4-9571-4b6b-8882-b1538f985b7f","ios":"levelo://app?vid=6b383df4-9571-4b6b-8882-b1538f985b7f"},"vehicle_type_id":"4","last_reported":1744269003,"current_range_meters":13600,"station_id":"ce4bgs12rcd13ifvqcag","pricing_plan_id":"cebpf4jnsgd1na2vs0mg"},{"bike_id":"5e1809cb-bb64-43c7-8901-7a5c4a101a37","system_id":"levelo_inurba_marseille","lat":43.26677,"lon":5.38266,"is_reserved":false,"is_disabled":false,"rental_uris":{"android":"levelo://app?vid=5e1809cb-bb64-43c7-8901-7a5c4a101a37","ios":"levelo://app?vid=5e1809cb-bb64-43c7-8901-7a5c4a101a37"},"vehicle_type_id":"4","last_reported":1744269003,"current_range_meters":14000,"station_id":"ce4bhg92rcd13ifvqf90","pricing_plan_id":"cebpf4jnsgd1na2vs0mg"},{"bike_id":"1a8fb86a-a16f-4372-9f9e-b82551d343c8","system_id":"levelo_inurba_marseille","lat":43.31328,"lon":5.36719,"is_reserved":false,"is_disabled":false,"rental_uris":{"android":"levelo://app?vid=1a8fb86a-a16f-4372-9f9e-b82551d343c8","ios":"levelo://app?vid=1a8fb86a-a16f-4372-9f9e-b82551d343c8"},"vehicle_type_id":"4","last_reported":1744269003,"current_range_meters":14400,"station_id":"ce4bgr92rcd13ifvqc6g","pricing_plan_id":"cebpf4jnsgd1na2vs0mg"},{"bike_id":"58a06d5c-23f8-466b-a88d-449307d0c901","system_id":"levelo_inurba_marseille","lat":43.31489,"lon":5.36836,"is_reserved":false,"is_disabled":false,"rental_uris":{"android":"levelo://app?vid=58a06d5c-23f8-466b-a88d-449307d0c901","ios":"levelo://app?vid=58a06d5c-23f8-466b-a88d-449307d0c901"},"vehicle_type_id":"4","last_reported":1744269003,"current_range_meters":14400,"station_id":"","pricing_plan_id":"cebpf4jnsgd1na2vs0mg"},{"bike_id":"e305259c-6e8b-4c30-bb3e-d31643eeb2cc","system_id":"levelo_inurba_marseille","lat":43.29258,"lon":5.40133,"is_reserved":false,"is_disabled":false,"rental_uris":{"android":"levelo://app?vid=e305259c-6e8b-4c30-bb3e-d31643eeb2cc","ios":"levelo://app?vid=e305259c-6e8b-4c30-bb3e-d31643eeb2cc"},"vehicle_type_id":"4","last_reported":1744269003,"current_range_meters":14800,"station_id":"ce4bh312rcd13ifvqdk0","pricing_plan_id":"cebpf4jnsgd1na2vs0mg"},{"bike_id":"459bc253-387d-45df-930d-539d8d2b9124","system_id":"levelo_inurba_marseille","lat":43.24177,"lon":5.39719,"is_reserved":false,"is_disabled":false,"rental_uris":{"android":"levelo://app?vid=459bc253-387d-45df-930d-539d8d2b9124","ios":"levelo://app?vid=459bc253-387d-45df-930d-539d8d2b9124"},"vehicle_type_id":"4","last_reported":1744269003,"current_range_meters":14800,"station_id":"ce4bhn12rcd13ifvqgpg","pricing_plan_id":"cebpf4jnsgd1na2vs0mg"},{"bike_id":"6d76978a-2740-4f57-9972-fcce06d4c9a8","system_id":"levelo_inurba_marseille","lat":43.31393,"lon":5.36708,"is_reserved":false,"is_disabled":false,"rental_uris":{"android":"levelo://app?vid=6d76978a-2740-4f57-9972-fcce06d4c9a8","ios":"levelo://app?vid=6d76978a-2740-4f57-9972-fcce06d4c9a8"},"vehicle_type_id":"4","last_reported":1744269003,"current_range_meters":15200,"station_id":"ce4bgr92rcd13ifvqc6g","pricing_plan_id":"cebpf4jnsgd1na2vs0mg"},{"bike_id":"771e5c88-0894-4838-8ec4-4667279f7dd9","system_id":"levelo_inurba_marseille","lat":43.23104,"lon":5.43671,"is_reserved":false,"is_disabled":false,"rental_uris":{"android":"levelo://app?vid=771e5c88-0894-4838-8ec4-4667279f7dd9","ios":"levelo://app?vid=771e5c88-0894-4838-8ec4-4667279f7dd9"},"vehicle_type_id":"4","last_reported":1744269003,"current_range_meters":15200,"station_id":"ce4bhmp2rcd13ifvqgog","pricing_plan_id":"cebpf4jnsgd1na2vs0mg"},{"bike_id":"e3c3a051-8134-4ed3-913b-374aa217874c","system_id":"levelo_inurba_marseille","lat":43.2559,"lon":5.40455,"is_reserved":false,"is_disabled":false,"rental_uris":{"android":"levelo://app?vid=e3c3a051-8134-4ed3-913b-374aa217874c","ios":"levelo://app?vid=e3c3a051-8134-4ed3-913b-374aa217874c"},"vehicle_type_id":"4","last_reported":1744269003,"current_range_meters":15200,"station_id":"","pricing_plan_id":"cebpf4jnsgd1na2vs0mg"},{"bike_id":"8fc75a06-b383-4356-9ce0-507c4c1bc08f","system_id":"levelo_inurba_marseille","lat":43.27077,"lon":5.42291,"is_reserved":false,"is_disabled":false,"rental_uris":{"android":"levelo://app?vid=8fc75a06-b383-4356-9ce0-507c4c1bc08f","ios":"levelo://app?vid=8fc75a06-b383-4356-9ce0-507c4c1bc08f"},"vehicle_type_id":"4","last_reported":1744269003,"current_range_meters":15200,"station_id":"ce4bhk92rcd13ifvqgb0","pricing_plan_id":"cebpf4jnsgd1na2vs0mg"},{"bike_id":"d44ff2b9-417e-4368-bebb-1fc974db3122","system_id":"levelo_inurba_marseille","lat":43.33646,"lon":5.39753,"is_reserved":false,"is_disabled":false,"rental_uris":{"android":"levelo://app?vid=d44ff2b9-417e-4368-bebb-1fc974db3122","ios":"levelo://app?vid=d44ff2b9-417e-4368-bebb-1fc974db3122"},"vehicle_type_id":"4","last_reported":1744269003,"current_range_meters":15200,"station_id":"","pricing_plan_id":"cebpf4jnsgd1na2vs0mg"},{"bike_id":"d1f92f28-9609-4256-bd4a-880c7b09d4e8","system_id":"levelo_inurba_marseille","lat":43.29328,"lon":5.41153,"is_reserved":false,"is_disabled":false,"rental_uris":{"android":"levelo://app?vid=d1f92f28-9609-4256-bd4a-880c7b09d4e8","ios":"levelo://app?vid=d1f92f28-9609-4256-bd4a-880c7b09d4e8"},"vehicle_type_id":"4","last_reported":1744269003,"current_range_meters":15200,"station_id":"","pricing_plan_id":"cebpf4jnsgd1na2vs0mg"},{"bike_id":"4ca8dda0-97dc-4905-9544-c5209e5c8ef2","system_id":"levelo_inurba_marseille","lat":43.3079,"lon":5.38161,"is_reserved":false,"is_disabled":false,"rental_uris":{"android":"levelo://app?vid=4ca8dda0-97dc-4905-9544-c5209e5c8ef2","ios":"levelo://app?vid=4ca8dda0-97dc-4905-9544-c5209e5c8ef2"},"vehicle_type_id":"4","last_reported":1744269003,"current_range_meters":14800,"station_id":"ce4bgt12rcd13ifvqce0","pricing_plan_id":"cebpf4jnsgd1na2vs0mg"},{"bike_id":"39d569f2-804d-4c1f-93cb-ffdd8bba0563","system_id":"levelo_inurba_marseille","lat":43.30553,"lon":5.38429,"is_reserved":false,"is_disabled":true,"rental_uris":{"android":"levelo://app?vid=39d569f2-804d-4c1f-93cb-ffdd8bba0563","ios":"levelo://app?vid=39d569f2-804d-4c1f-93cb-ffdd8bba0563"},"vehicle_type_id":"4","last_reported":1744269003,"current_range_meters":16000,"station_id":"ce4bgg92rcd13ifvqb30","pricing_plan_id":"cebpf4jnsgd1na2vs0mg"},{"bike_id":"f78bf8a8-b506-43e9-9fc4-9ec4cb688e82","system_id":"levelo_inurba_marseille","lat":43.32107,"lon":5.36775,"is_reserved":false,"is_disabled":true,"rental_uris":{"android":"levelo://app?vid=f78bf8a8-b506-43e9-9fc4-9ec4cb688e82","ios":"levelo://app?vid=f78bf8a8-b506-43e9-9fc4-9ec4cb688e82"},"vehicle_type_id":"4","last_reported":1744269003,"current_range_meters":16000,"station_id":"","pricing_plan_id":"cebpf4jnsgd1na2vs0mg"},{"bike_id":"8a1536bc-b0ef-4134-a8fd-1fc117ddd2d7","system_id":"levelo_inurba_marseille","lat":43.246486,"lon":5.388889,"is_reserved":false,"is_disabled":false,"rental_uris":{"android":"levelo://app?vid=8a1536bc-b0ef-4134-a8fd-1fc117ddd2d7","ios":"levelo://app?vid=8a1536bc-b0ef-4134-a8fd-1fc117ddd2d7"},"vehicle_type_id":"4","last_reported":1744269003,"current_range_meters":16000,"station_id":"ce4bhg12rcd13ifvqf60","pricing_plan_id":"cebpf4jnsgd1na2vs0mg"},{"bike_id":"c74893b0-7990-42e1-81ba-6333fadd7f5e","system_id":"levelo_inurba_marseille","lat":43.30536,"lon":5.36551,"is_reserved":false,"is_disabled":false,"rental_uris":{"android":"levelo://app?vid=c74893b0-7990-42e1-81ba-6333fadd7f5e","ios":"levelo://app?vid=c74893b0-7990-42e1-81ba-6333fadd7f5e"},"vehicle_type_id":"4","last_reported":1744269003,"current_range_meters":16000,"station_id":"ce4bgs12rcd13ifvqcag","pricing_plan_id":"cebpf4jnsgd1na2vs0mg"},{"bike_id":"640b6901-af87-4cbb-84ba-cf000e7c8d63","system_id":"levelo_inurba_marseille","lat":43.26487,"lon":5.39568,"is_reserved":false,"is_disabled":true,"rental_uris":{"android":"levelo://app?vid=640b6901-af87-4cbb-84ba-cf000e7c8d63","ios":"levelo://app?vid=640b6901-af87-4cbb-84ba-cf000e7c8d63"},"vehicle_type_id":"4","last_reported":1744269003,"current_range_meters":16000,"station_id":"ce4bhi12rcd13ifvqfq0","pricing_plan_id":"cebpf4jnsgd1na2vs0mg"},{"bike_id":"ef291804-1477-432e-b153-82ea15725418","system_id":"levelo_inurba_marseille","lat":43.33766,"lon":5.37479,"is_reserved":false,"is_disabled":false,"rental_uris":{"android":"levelo://app?vid=ef291804-1477-432e-b153-82ea15725418","ios":"levelo://app?vid=ef291804-1477-432e-b153-82ea15725418"},"vehicle_type_id":"4","last_reported":1744269003,"current_range_meters":16000,"station_id":"","pricing_plan_id":"cebpf4jnsgd1na2vs0mg"},{"bike_id":"073955c6-6f8e-4d79-bdbc-3802d168fcc3","system_id":"levelo_inurba_marseille","lat":43.24157,"lon":5.36417,"is_reserved":false,"is_disabled":false,"rental_uris":{"android":"levelo://app?vid=073955c6-6f8e-4d79-bdbc-3802d168fcc3","ios":"levelo://app?vid=073955c6-6f8e-4d79-bdbc-3802d168fcc3"},"vehicle_type_id":"4","last_reported":1744269003,"current_range_meters":16000,"station_id":"cpo36qri1sfpv3e86is0","pricing_plan_id":"cebpf4jnsgd1na2vs0mg"},{"bike_id":"2cc166cf-cc17-491a-8f83-5128ea7eebba","system_id":"levelo_inurba_marseille","lat":43.264255,"lon":5.388348,"is_reserved":false,"is_disabled":false,"rental_uris":{"android":"levelo://app?vid=2cc166cf-cc17-491a-8f83-5128ea7eebba","ios":"levelo://app?vid=2cc166cf-cc17-491a-8f83-5128ea7eebba"},"vehicle_type_id":"4","last_reported":1744269003,"current_range_meters":16000,"station_id":"ce4bhe12rcd13ifvqf30","pricing_plan_id":"cebpf4jnsgd1na2vs0mg"},{"bike_id":"c89c0f3f-5db7-48d5-a698-8ed549e8c717","system_id":"levelo_inurba_marseille","lat":43.30939,"lon":5.40149,"is_reserved":false,"is_disabled":false,"rental_uris":{"android":"levelo://app?vid=c89c0f3f-5db7-48d5-a698-8ed549e8c717","ios":"levelo://app?vid=c89c0f3f-5db7-48d5-a698-8ed549e8c717"},"vehicle_type_id":"4","last_reported":1744269003,"current_range_meters":16400,"station_id":"ce4bgvp2rcd13ifvqct0","pricing_plan_id":"cebpf4jnsgd1na2vs0mg"},{"bike_id":"ff6149e2-ed25-4777-95b0-f333f9ec38bf","system_id":"levelo_inurba_marseille","lat":43.29979,"lon":5.37176,"is_reserved":false,"is_disabled":false,"rental_uris":{"android":"levelo://app?vid=ff6149e2-ed25-4777-95b0-f333f9ec38bf","ios":"levelo://app?vid=ff6149e2-ed25-4777-95b0-f333f9ec38bf"},"vehicle_type_id":"4","last_reported":1744269003,"current_range_meters":16400,"station_id":"ce4bgr92rcd13ifvqc7g","pricing_plan_id":"cebpf4jnsgd1na2vs0mg"},{"bike_id":"740ed816-09b2-41bd-867d-52a35d1745f1","system_id":"levelo_inurba_marseille","lat":43.24674,"lon":5.38172,"is_reserved":false,"is_disabled":true,"rental_uris":{"android":"levelo://app?vid=740ed816-09b2-41bd-867d-52a35d1745f1","ios":"levelo://app?vid=740ed816-09b2-41bd-867d-52a35d1745f1"},"vehicle_type_id":"4","last_reported":1744269003,"current_range_meters":16400,"station_id":"ce4bhih2rcd13ifvqfr0","pricing_plan_id":"cebpf4jnsgd1na2vs0mg"},{"bike_id":"35b36e91-763a-4885-8944-e030c3a30dcf","system_id":"levelo_inurba_marseille","lat":43.31199,"lon":5.36878,"is_reserved":false,"is_disabled":false,"rental_uris":{"android":"levelo://app?vid=35b36e91-763a-4885-8944-e030c3a30dcf","ios":"levelo://app?vid=35b36e91-763a-4885-8944-e030c3a30dcf"},"vehicle_type_id":"4","last_reported":1744269003,"current_range_meters":16400,"station_id":"ce4bgl92rcd13ifvqbq0","pricing_plan_id":"cebpf4jnsgd1na2vs0mg"},{"bike_id":"231aaa88-1e79-4a74-a543-651d8fd5a027","system_id":"levelo_inurba_marseille","lat":43.33076,"lon":5.40513,"is_reserved":false,"is_disabled":false,"rental_uris":{"android":"levelo://app?vid=231aaa88-1e79-4a74-a543-651d8fd5a027","ios":"levelo://app?vid=231aaa88-1e79-4a74-a543-651d8fd5a027"},"vehicle_type_id":"4","last_reported":1744269003,"current_range_meters":16400,"station_id":"","pricing_plan_id":"cebpf4jnsgd1na2vs0mg"},{"bike_id":"8ee9f686-4549-4aad-af30-9017baadcb23","system_id":"levelo_inurba_marseille","lat":43.314501,"lon":5.375829,"is_reserved":false,"is_disabled":false,"rental_uris":{"android":"levelo://app?vid=8ee9f686-4549-4aad-af30-9017baadcb23","ios":"levelo://app?vid=8ee9f686-4549-4aad-af30-9017baadcb23"},"vehicle_type_id":"4","last_reported":1744269003,"current_range_meters":16400,"station_id":"","pricing_plan_id":"cebpf4jnsgd1na2vs0mg"},{"bike_id":"973e95be-8dab-4e2a-a61a-5ec6b304b71b","system_id":"levelo_inurba_marseille","lat":43.30902,"lon":5.36843,"is_reserved":false,"is_disabled":false,"rental_uris":{"android":"levelo://app?vid=973e95be-8dab-4e2a-a61a-5ec6b304b71b","ios":"levelo://app?vid=973e95be-8dab-4e2a-a61a-5ec6b304b71b"},"vehicle_type_id":"4","last_reported":1744269003,"current_range_meters":16400,"station_id":"ce4bgn92rcd13ifvqbvg","pricing_plan_id":"cebpf4jnsgd1na2vs0mg"},{"bike_id":"6aea74ed-ea0d-40c2-9455-d10b07283bfc","system_id":"levelo_inurba_marseille","lat":43.241671,"lon":5.397271,"is_reserved":false,"is_disabled":false,"rental_uris":{"android":"levelo://app?vid=6aea74ed-ea0d-40c2-9455-d10b07283bfc","ios":"levelo://app?vid=6aea74ed-ea0d-40c2-9455-d10b07283bfc"},"vehicle_type_id":"4","last_reported":1744269003,"current_range_meters":16400,"station_id":"ce4bhn12rcd13ifvqgpg","pricing_plan_id":"cebpf4jnsgd1na2vs0mg"},{"bike_id":"343e005a-cf88-44ec-9a75-3b0a7afa8742","system_id":"levelo_inurba_marseille","lat":43.31467,"lon":5.37289,"is_reserved":false,"is_disabled":false,"rental_uris":{"android":"levelo://app?vid=343e005a-cf88-44ec-9a75-3b0a7afa8742","ios":"levelo://app?vid=343e005a-cf88-44ec-9a75-3b0a7afa8742"},"vehicle_type_id":"4","last_reported":1744269003,"current_range_meters":16400,"station_id":"ce4bgt12rcd13ifvqcd0","pricing_plan_id":"cebpf4jnsgd1na2vs0mg"},{"bike_id":"24231488-5645-46fa-bdcb-cb0f61d4579c","system_id":"levelo_inurba_marseille","lat":43.29038,"lon":5.39961,"is_reserved":false,"is_disabled":false,"rental_uris":{"android":"levelo://app?vid=24231488-5645-46fa-bdcb-cb0f61d4579c","ios":"levelo://app?vid=24231488-5645-46fa-bdcb-cb0f61d4579c"},"vehicle_type_id":"4","last_reported":1744269003,"current_range_meters":16400,"station_id":"ce4bh392rcd13ifvqdm0","pricing_plan_id":"cebpf4jnsgd1na2vs0mg"},{"bike_id":"e4c4571d-16b2-4eac-9eff-e8ab59a81972","system_id":"levelo_inurba_marseille","lat":43.29029,"lon":5.4002,"is_reserved":false,"is_disabled":false,"rental_uris":{"android":"levelo://app?vid=e4c4571d-16b2-4eac-9eff-e8ab59a81972","ios":"levelo://app?vid=e4c4571d-16b2-4eac-9eff-e8ab59a81972"},"vehicle_type_id":"4","last_reported":1744269003,"current_range_meters":16400,"station_id":"ce4bh392rcd13ifvqdm0","pricing_plan_id":"cebpf4jnsgd1na2vs0mg"},{"bike_id":"1b11e802-82e9-43e0-a416-26d67f74d93b","system_id":"levelo_inurba_marseille","lat":43.26684,"lon":5.38272,"is_reserved":false,"is_disabled":false,"rental_uris":{"android":"levelo://app?vid=1b11e802-82e9-43e0-a416-26d67f74d93b","ios":"levelo://app?vid=1b11e802-82e9-43e0-a416-26d67f74d93b"},"vehicle_type_id":"4","last_reported":1744269003,"current_range_meters":16800,"station_id":"ce4bhg92rcd13ifvqf90","pricing_plan_id":"cebpf4jnsgd1na2vs0mg"},{"bike_id":"2b54a496-5bb2-42c4-bb01-6f1e5c2215a7","system_id":"levelo_inurba_marseille","lat":43.30802,"lon":5.37654,"is_reserved":false,"is_disabled":true,"rental_uris":{"android":"levelo://app?vid=2b54a496-5bb2-42c4-bb01-6f1e5c2215a7","ios":"levelo://app?vid=2b54a496-5bb2-42c4-bb01-6f1e5c2215a7"},"vehicle_type_id":"4","last_reported":1744269003,"current_range_meters":16800,"station_id":"ce4bgv92rcd13ifvqcq0","pricing_plan_id":"cebpf4jnsgd1na2vs0mg"},{"bike_id":"eab6cbfa-cb8e-47d7-b0d6-226ab7facec7","system_id":"levelo_inurba_marseille","lat":43.31716,"lon":5.42412,"is_reserved":false,"is_disabled":true,"rental_uris":{"android":"levelo://app?vid=eab6cbfa-cb8e-47d7-b0d6-226ab7facec7","ios":"levelo://app?vid=eab6cbfa-cb8e-47d7-b0d6-226ab7facec7"},"vehicle_type_id":"4","last_reported":1744269003,"current_range_meters":16800,"station_id":"ce4bhp92rcd13ifvqhbg","pricing_plan_id":"cebpf4jnsgd1na2vs0mg"},{"bike_id":"d324405a-0e22-4d8f-9e6a-87134e316705","system_id":"levelo_inurba_marseille","lat":43.231546,"lon":5.437247,"is_reserved":false,"is_disabled":false,"rental_uris":{"android":"levelo://app?vid=d324405a-0e22-4d8f-9e6a-87134e316705","ios":"levelo://app?vid=d324405a-0e22-4d8f-9e6a-87134e316705"},"vehicle_type_id":"4","last_reported":1744269003,"current_range_meters":16800,"station_id":"ce4bhmp2rcd13ifvqgog","pricing_plan_id":"cebpf4jnsgd1na2vs0mg"},{"bike_id":"edcc2472-e7bf-4e0c-91d2-956f1c779ee1","system_id":"levelo_inurba_marseille","lat":43.241695,"lon":5.397433,"is_reserved":false,"is_disabled":false,"rental_uris":{"android":"levelo://app?vid=edcc2472-e7bf-4e0c-91d2-956f1c779ee1","ios":"levelo://app?vid=edcc2472-e7bf-4e0c-91d2-956f1c779ee1"},"vehicle_type_id":"4","last_reported":1744269003,"current_range_meters":17200,"station_id":"ce4bhn12rcd13ifvqgpg","pricing_plan_id":"cebpf4jnsgd1na2vs0mg"},{"bike_id":"d92ec93c-eb44-447c-877b-ff570e74760e","system_id":"levelo_inurba_marseille","lat":43.24181,"lon":5.39721,"is_reserved":false,"is_disabled":false,"rental_uris":{"android":"levelo://app?vid=d92ec93c-eb44-447c-877b-ff570e74760e","ios":"levelo://app?vid=d92ec93c-eb44-447c-877b-ff570e74760e"},"vehicle_type_id":"4","last_reported":1744269003,"current_range_meters":17200,"station_id":"ce4bhn12rcd13ifvqgpg","pricing_plan_id":"cebpf4jnsgd1na2vs0mg"},{"bike_id":"19e57953-6d0c-43b9-ae97-3bf79908d670","system_id":"levelo_inurba_marseille","lat":43.27194,"lon":5.392,"is_reserved":false,"is_disabled":true,"rental_uris":{"android":"levelo://app?vid=19e57953-6d0c-43b9-ae97-3bf79908d670","ios":"levelo://app?vid=19e57953-6d0c-43b9-ae97-3bf79908d670"},"vehicle_type_id":"4","last_reported":1744269003,"current_range_meters":17200,"station_id":"ce4bhhp2rcd13ifvqfm0","pricing_plan_id":"cebpf4jnsgd1na2vs0mg"},{"bike_id":"34616fe2-474b-4998-95c1-a06976c9c13c","system_id":"levelo_inurba_marseille","lat":43.23147,"lon":5.43717,"is_reserved":false,"is_disabled":false,"rental_uris":{"android":"levelo://app?vid=34616fe2-474b-4998-95c1-a06976c9c13c","ios":"levelo://app?vid=34616fe2-474b-4998-95c1-a06976c9c13c"},"vehicle_type_id":"4","last_reported":1744269003,"current_range_meters":17200,"station_id":"ce4bhmp2rcd13ifvqgog","pricing_plan_id":"cebpf4jnsgd1na2vs0mg"},{"bike_id":"0922821c-4e1d-4817-9469-860e55f8f0d1","system_id":"levelo_inurba_marseille","lat":43.22514,"lon":5.34773,"is_reserved":false,"is_disabled":false,"rental_uris":{"android":"levelo://app?vid=0922821c-4e1d-4817-9469-860e55f8f0d1","ios":"levelo://app?vid=0922821c-4e1d-4817-9469-860e55f8f0d1"},"vehicle_type_id":"4","last_reported":1744269003,"current_range_meters":17200,"station_id":"st_cvj5dfep6f1abm77gieg","pricing_plan_id":"cebpf4jnsgd1na2vs0mg"},{"bike_id":"f1e866a5-7c3e-45b7-ba42-0d6523e7a78c","system_id":"levelo_inurba_marseille","lat":43.27502,"lon":5.42451,"is_reserved":false,"is_disabled":false,"rental_uris":{"android":"levelo://app?vid=f1e866a5-7c3e-45b7-ba42-0d6523e7a78c","ios":"levelo://app?vid=f1e866a5-7c3e-45b7-ba42-0d6523e7a78c"},"vehicle_type_id":"4","last_reported":1744269003,"current_range_meters":17600,"station_id":"ce4bhn92rcd13ifvqgrg","pricing_plan_id":"cebpf4jnsgd1na2vs0mg"},{"bike_id":"abd5a04c-0c44-4eaa-ac15-1607aacaa4e4","system_id":"levelo_inurba_marseille","lat":43.298597,"lon":5.409009,"is_reserved":false,"is_disabled":false,"rental_uris":{"android":"levelo://app?vid=abd5a04c-0c44-4eaa-ac15-1607aacaa4e4","ios":"levelo://app?vid=abd5a04c-0c44-4eaa-ac15-1607aacaa4e4"},"vehicle_type_id":"4","last_reported":1744269003,"current_range_meters":17600,"station_id":"","pricing_plan_id":"cebpf4jnsgd1na2vs0mg"},{"bike_id":"e1b171d5-4690-4c56-88ea-3bc958a7511f","system_id":"levelo_inurba_marseille","lat":43.2418,"lon":5.39723,"is_reserved":false,"is_disabled":false,"rental_uris":{"android":"levelo://app?vid=e1b171d5-4690-4c56-88ea-3bc958a7511f","ios":"levelo://app?vid=e1b171d5-4690-4c56-88ea-3bc958a7511f"},"vehicle_type_id":"4","last_reported":1744269003,"current_range_meters":17600,"station_id":"ce4bhn12rcd13ifvqgpg","pricing_plan_id":"cebpf4jnsgd1na2vs0mg"},{"bike_id":"802cd4e7-1532-4be6-941e-5d40067fea63","system_id":"levelo_inurba_marseille","lat":43.29288,"lon":5.38441,"is_reserved":false,"is_disabled":true,"rental_uris":{"android":"levelo://app?vid=802cd4e7-1532-4be6-941e-5d40067fea63","ios":"levelo://app?vid=802cd4e7-1532-4be6-941e-5d40067fea63"},"vehicle_type_id":"4","last_reported":1744269003,"current_range_meters":17600,"station_id":"ce4bh692rcd13ifvqea0","pricing_plan_id":"cebpf4jnsgd1na2vs0mg"},{"bike_id":"9d3970bd-d684-4d01-b43a-5c4c13427742","system_id":"levelo_inurba_marseille","lat":43.29027,"lon":5.38093,"is_reserved":false,"is_disabled":true,"rental_uris":{"android":"levelo://app?vid=9d3970bd-d684-4d01-b43a-5c4c13427742","ios":"levelo://app?vid=9d3970bd-d684-4d01-b43a-5c4c13427742"},"vehicle_type_id":"4","last_reported":1744269003,"current_range_meters":17600,"station_id":"ce4bh4p2rcd13ifvqe1g","pricing_plan_id":"cebpf4jnsgd1na2vs0mg"},{"bike_id":"be67835d-2ef3-4bd2-850a-b3c7a00924e8","system_id":"levelo_inurba_marseille","lat":43.29282,"lon":5.40128,"is_reserved":false,"is_disabled":false,"rental_uris":{"android":"levelo://app?vid=be67835d-2ef3-4bd2-850a-b3c7a00924e8","ios":"levelo://app?vid=be67835d-2ef3-4bd2-850a-b3c7a00924e8"},"vehicle_type_id":"4","last_reported":1744269003,"current_range_meters":18000,"station_id":"ce4bh312rcd13ifvqdk0","pricing_plan_id":"cebpf4jnsgd1na2vs0mg"},{"bike_id":"622bc51a-6965-4cc7-b812-24ec68f9c9ff","system_id":"levelo_inurba_marseille","lat":43.26788,"lon":5.39412,"is_reserved":false,"is_disabled":false,"rental_uris":{"android":"levelo://app?vid=622bc51a-6965-4cc7-b812-24ec68f9c9ff","ios":"levelo://app?vid=622bc51a-6965-4cc7-b812-24ec68f9c9ff"},"vehicle_type_id":"4","last_reported":1744269003,"current_range_meters":18000,"station_id":"ce4bhh12rcd13ifvqfg0","pricing_plan_id":"cebpf4jnsgd1na2vs0mg"},{"bike_id":"221b5d38-61dc-40aa-b23e-5b0391fc47a1","system_id":"levelo_inurba_marseille","lat":43.26219,"lon":5.40456,"is_reserved":false,"is_disabled":false,"rental_uris":{"android":"levelo://app?vid=221b5d38-61dc-40aa-b23e-5b0391fc47a1","ios":"levelo://app?vid=221b5d38-61dc-40aa-b23e-5b0391fc47a1"},"vehicle_type_id":"4","last_reported":1744269003,"current_range_meters":18000,"station_id":"ce4bhmh2rcd13ifvqgmg","pricing_plan_id":"cebpf4jnsgd1na2vs0mg"},{"bike_id":"0a819522-1325-4966-8b80-aa0671edf366","system_id":"levelo_inurba_marseille","lat":43.26684,"lon":5.38274,"is_reserved":false,"is_disabled":false,"rental_uris":{"android":"levelo://app?vid=0a819522-1325-4966-8b80-aa0671edf366","ios":"levelo://app?vid=0a819522-1325-4966-8b80-aa0671edf366"},"vehicle_type_id":"4","last_reported":1744269003,"current_range_meters":18800,"station_id":"ce4bhg92rcd13ifvqf90","pricing_plan_id":"cebpf4jnsgd1na2vs0mg"},{"bike_id":"9a017371-215c-4b4e-a023-5ab272737efb","system_id":"levelo_inurba_marseille","lat":43.29039,"lon":5.39973,"is_reserved":false,"is_disabled":false,"rental_uris":{"android":"levelo://app?vid=9a017371-215c-4b4e-a023-5ab272737efb","ios":"levelo://app?vid=9a017371-215c-4b4e-a023-5ab272737efb"},"vehicle_type_id":"4","last_reported":1744269003,"current_range_meters":18000,"station_id":"ce4bh392rcd13ifvqdm0","pricing_plan_id":"cebpf4jnsgd1na2vs0mg"},{"bike_id":"550669c9-2c2c-44c1-a8a3-dd9756269d1e","system_id":"levelo_inurba_marseille","lat":43.32144,"lon":5.37961,"is_reserved":false,"is_disabled":false,"rental_uris":{"android":"levelo://app?vid=550669c9-2c2c-44c1-a8a3-dd9756269d1e","ios":"levelo://app?vid=550669c9-2c2c-44c1-a8a3-dd9756269d1e"},"vehicle_type_id":"4","last_reported":1744269003,"current_range_meters":18000,"station_id":"","pricing_plan_id":"cebpf4jnsgd1na2vs0mg"},{"bike_id":"5336beb7-2639-49ce-9068-8e72e61fc789","system_id":"levelo_inurba_marseille","lat":43.28663,"lon":5.40014,"is_reserved":false,"is_disabled":false,"rental_uris":{"android":"levelo://app?vid=5336beb7-2639-49ce-9068-8e72e61fc789","ios":"levelo://app?vid=5336beb7-2639-49ce-9068-8e72e61fc789"},"vehicle_type_id":"4","last_reported":1744269003,"current_range_meters":18000,"station_id":"","pricing_plan_id":"cebpf4jnsgd1na2vs0mg"},{"bike_id":"761ab4c6-4800-4be8-a1fe-1b0640d4f959","system_id":"levelo_inurba_marseille","lat":43.32273,"lon":5.37666,"is_reserved":false,"is_disabled":false,"rental_uris":{"android":"levelo://app?vid=761ab4c6-4800-4be8-a1fe-1b0640d4f959","ios":"levelo://app?vid=761ab4c6-4800-4be8-a1fe-1b0640d4f959"},"vehicle_type_id":"4","last_reported":1744269003,"current_range_meters":18000,"station_id":"","pricing_plan_id":"cebpf4jnsgd1na2vs0mg"},{"bike_id":"d3a5a974-aceb-463d-9bbe-c881d4d71eb1","system_id":"levelo_inurba_marseille","lat":43.290358,"lon":5.399637,"is_reserved":false,"is_disabled":false,"rental_uris":{"android":"levelo://app?vid=d3a5a974-aceb-463d-9bbe-c881d4d71eb1","ios":"levelo://app?vid=d3a5a974-aceb-463d-9bbe-c881d4d71eb1"},"vehicle_type_id":"4","last_reported":1744269003,"current_range_meters":18000,"station_id":"ce4bh392rcd13ifvqdm0","pricing_plan_id":"cebpf4jnsgd1na2vs0mg"},{"bike_id":"3e69e336-5bce-4174-92ec-4adc1d9a02cf","system_id":"levelo_inurba_marseille","lat":43.29563,"lon":5.37522,"is_reserved":false,"is_disabled":true,"rental_uris":{"android":"levelo://app?vid=3e69e336-5bce-4174-92ec-4adc1d9a02cf","ios":"levelo://app?vid=3e69e336-5bce-4174-92ec-4adc1d9a02cf"},"vehicle_type_id":"4","last_reported":1744269003,"current_range_meters":18000,"station_id":"ce4bgh92rcd13ifvqb50","pricing_plan_id":"cebpf4jnsgd1na2vs0mg"},{"bike_id":"4cf4623c-d074-4344-baa8-d66cb3daf3a3","system_id":"levelo_inurba_marseille","lat":43.27671,"lon":5.38889,"is_reserved":false,"is_disabled":false,"rental_uris":{"android":"levelo://app?vid=4cf4623c-d074-4344-baa8-d66cb3daf3a3","ios":"levelo://app?vid=4cf4623c-d074-4344-baa8-d66cb3daf3a3"},"vehicle_type_id":"4","last_reported":1744269003,"current_range_meters":18000,"station_id":"ce4bhi12rcd13ifvqfo0","pricing_plan_id":"cebpf4jnsgd1na2vs0mg"},{"bike_id":"b5ca0173-860f-4e09-8ae0-f89867ca9dd6","system_id":"levelo_inurba_marseille","lat":43.31854,"lon":5.37327,"is_reserved":false,"is_disabled":false,"rental_uris":{"android":"levelo://app?vid=b5ca0173-860f-4e09-8ae0-f89867ca9dd6","ios":"levelo://app?vid=b5ca0173-860f-4e09-8ae0-f89867ca9dd6"},"vehicle_type_id":"4","last_reported":1744269003,"current_range_meters":18800,"station_id":"","pricing_plan_id":"cebpf4jnsgd1na2vs0mg"},{"bike_id":"799f3bdc-38c0-4b71-9a34-196020b0e68f","system_id":"levelo_inurba_marseille","lat":43.29275,"lon":5.368427,"is_reserved":false,"is_disabled":false,"rental_uris":{"android":"levelo://app?vid=799f3bdc-38c0-4b71-9a34-196020b0e68f","ios":"levelo://app?vid=799f3bdc-38c0-4b71-9a34-196020b0e68f"},"vehicle_type_id":"4","last_reported":1744269003,"current_range_meters":18800,"station_id":"ce4bhbp2rcd13ifvqesg","pricing_plan_id":"cebpf4jnsgd1na2vs0mg"},{"bike_id":"fa1ce6f1-ffd4-4e0e-8160-8f56a4e3a519","system_id":"levelo_inurba_marseille","lat":43.29047,"lon":5.3756,"is_reserved":false,"is_disabled":false,"rental_uris":{"android":"levelo://app?vid=fa1ce6f1-ffd4-4e0e-8160-8f56a4e3a519","ios":"levelo://app?vid=fa1ce6f1-ffd4-4e0e-8160-8f56a4e3a519"},"vehicle_type_id":"4","last_reported":1744269003,"current_range_meters":18000,"station_id":"ce4bh692rcd13ifvqe90","pricing_plan_id":"cebpf4jnsgd1na2vs0mg"},{"bike_id":"2e68d633-6401-4a1b-8729-66edeeeb8a00","system_id":"levelo_inurba_marseille","lat":43.31366,"lon":5.38496,"is_reserved":false,"is_disabled":false,"rental_uris":{"android":"levelo://app?vid=2e68d633-6401-4a1b-8729-66edeeeb8a00","ios":"levelo://app?vid=2e68d633-6401-4a1b-8729-66edeeeb8a00"},"vehicle_type_id":"4","last_reported":1744269003,"current_range_meters":18800,"station_id":"ce4bgt92rcd13ifvqcf0","pricing_plan_id":"cebpf4jnsgd1na2vs0mg"},{"bike_id":"94455896-0f19-4fae-bd72-9879f01fcd6e","system_id":"levelo_inurba_marseille","lat":43.29568,"lon":5.42285,"is_reserved":false,"is_disabled":true,"rental_uris":{"android":"levelo://app?vid=94455896-0f19-4fae-bd72-9879f01fcd6e","ios":"levelo://app?vid=94455896-0f19-4fae-bd72-9879f01fcd6e"},"vehicle_type_id":"4","last_reported":1744269003,"current_range_meters":18800,"station_id":"ce4bhph2rcd13ifvqhdg","pricing_plan_id":"cebpf4jnsgd1na2vs0mg"},{"bike_id":"182650a6-9433-4951-80ba-44b6e3878dab","system_id":"levelo_inurba_marseille","lat":43.30536,"lon":5.38441,"is_reserved":false,"is_disabled":true,"rental_uris":{"android":"levelo://app?vid=182650a6-9433-4951-80ba-44b6e3878dab","ios":"levelo://app?vid=182650a6-9433-4951-80ba-44b6e3878dab"},"vehicle_type_id":"4","last_reported":1744269003,"current_range_meters":18800,"station_id":"ce4bgg92rcd13ifvqb30","pricing_plan_id":"cebpf4jnsgd1na2vs0mg"},{"bike_id":"a84134a9-407a-4074-ade7-7f98f245d2b5","system_id":"levelo_inurba_marseille","lat":43.25012,"lon":5.38943,"is_reserved":false,"is_disabled":false,"rental_uris":{"android":"levelo://app?vid=a84134a9-407a-4074-ade7-7f98f245d2b5","ios":"levelo://app?vid=a84134a9-407a-4074-ade7-7f98f245d2b5"},"vehicle_type_id":"4","last_reported":1744269003,"current_range_meters":18800,"station_id":"ce4bhgp2rcd13ifvqfd0","pricing_plan_id":"cebpf4jnsgd1na2vs0mg"},{"bike_id":"2158251e-dadc-48b3-a5af-ea98b09513fe","system_id":"levelo_inurba_marseille","lat":43.303033,"lon":5.392057,"is_reserved":false,"is_disabled":true,"rental_uris":{"android":"levelo://app?vid=2158251e-dadc-48b3-a5af-ea98b09513fe","ios":"levelo://app?vid=2158251e-dadc-48b3-a5af-ea98b09513fe"},"vehicle_type_id":"4","last_reported":1744269003,"current_range_meters":18800,"station_id":"ce4bgkh2rcd13ifvqbk0","pricing_plan_id":"cebpf4jnsgd1na2vs0mg"},{"bike_id":"204e4ebf-dbf2-49a6-9c7f-bede59e102a8","system_id":"levelo_inurba_marseille","lat":43.30359,"lon":5.419,"is_reserved":false,"is_disabled":false,"rental_uris":{"android":"levelo://app?vid=204e4ebf-dbf2-49a6-9c7f-bede59e102a8","ios":"levelo://app?vid=204e4ebf-dbf2-49a6-9c7f-bede59e102a8"},"vehicle_type_id":"4","last_reported":1744269003,"current_range_meters":19200,"station_id":"ce4bhop2rcd13ifvqh7g","pricing_plan_id":"cebpf4jnsgd1na2vs0mg"},{"bike_id":"1262ae8b-93e1-47d2-be79-4342c181c95a","system_id":"levelo_inurba_marseille","lat":43.31222,"lon":5.3688,"is_reserved":false,"is_disabled":false,"rental_uris":{"android":"levelo://app?vid=1262ae8b-93e1-47d2-be79-4342c181c95a","ios":"levelo://app?vid=1262ae8b-93e1-47d2-be79-4342c181c95a"},"vehicle_type_id":"4","last_reported":1744269003,"current_range_meters":19200,"station_id":"ce4bgl92rcd13ifvqbq0","pricing_plan_id":"cebpf4jnsgd1na2vs0mg"},{"bike_id":"9e3ece18-7b11-4223-b391-b9afe168cdc3","system_id":"levelo_inurba_marseille","lat":43.292755,"lon":5.368419,"is_reserved":false,"is_disabled":false,"rental_uris":{"android":"levelo://app?vid=9e3ece18-7b11-4223-b391-b9afe168cdc3","ios":"levelo://app?vid=9e3ece18-7b11-4223-b391-b9afe168cdc3"},"vehicle_type_id":"4","last_reported":1744269003,"current_range_meters":19200,"station_id":"","pricing_plan_id":"cebpf4jnsgd1na2vs0mg"},{"bike_id":"4485c6b3-d6c5-4efc-8f45-4ff15fc7d8e2","system_id":"levelo_inurba_marseille","lat":43.23146,"lon":5.43713,"is_reserved":false,"is_disabled":false,"rental_uris":{"android":"levelo://app?vid=4485c6b3-d6c5-4efc-8f45-4ff15fc7d8e2","ios":"levelo://app?vid=4485c6b3-d6c5-4efc-8f45-4ff15fc7d8e2"},"vehicle_type_id":"4","last_reported":1744269003,"current_range_meters":19200,"station_id":"ce4bhmp2rcd13ifvqgog","pricing_plan_id":"cebpf4jnsgd1na2vs0mg"},{"bike_id":"463b41fd-37bb-48c0-a6e4-12f737a3d7cf","system_id":"levelo_inurba_marseille","lat":43.26921,"lon":5.40274,"is_reserved":false,"is_disabled":true,"rental_uris":{"android":"levelo://app?vid=463b41fd-37bb-48c0-a6e4-12f737a3d7cf","ios":"levelo://app?vid=463b41fd-37bb-48c0-a6e4-12f737a3d7cf"},"vehicle_type_id":"4","last_reported":1744269003,"current_range_meters":19200,"station_id":"cjm6bp8fraef2m0cb0m0","pricing_plan_id":"cebpf4jnsgd1na2vs0mg"},{"bike_id":"aeb315f8-5663-4264-8421-f5acbb6ac33d","system_id":"levelo_inurba_marseille","lat":43.26229,"lon":5.40456,"is_reserved":false,"is_disabled":false,"rental_uris":{"android":"levelo://app?vid=aeb315f8-5663-4264-8421-f5acbb6ac33d","ios":"levelo://app?vid=aeb315f8-5663-4264-8421-f5acbb6ac33d"},"vehicle_type_id":"4","last_reported":1744269003,"current_range_meters":19200,"station_id":"ce4bhmh2rcd13ifvqgmg","pricing_plan_id":"cebpf4jnsgd1na2vs0mg"},{"bike_id":"f0930b26-6489-4192-b41e-fbd8631e74f3","system_id":"levelo_inurba_marseille","lat":43.30137,"lon":5.38097,"is_reserved":false,"is_disabled":false,"rental_uris":{"android":"levelo://app?vid=f0930b26-6489-4192-b41e-fbd8631e74f3","ios":"levelo://app?vid=f0930b26-6489-4192-b41e-fbd8631e74f3"},"vehicle_type_id":"4","last_reported":1744269003,"current_range_meters":19200,"station_id":"ce4bgjp2rcd13ifvqbh0","pricing_plan_id":"cebpf4jnsgd1na2vs0mg"},{"bike_id":"6f5a3fba-5124-42a7-b36e-1ce41590f370","system_id":"levelo_inurba_marseille","lat":43.32361,"lon":5.36758,"is_reserved":false,"is_disabled":false,"rental_uris":{"android":"levelo://app?vid=6f5a3fba-5124-42a7-b36e-1ce41590f370","ios":"levelo://app?vid=6f5a3fba-5124-42a7-b36e-1ce41590f370"},"vehicle_type_id":"4","last_reported":1744269003,"current_range_meters":19200,"station_id":"ce4bhsh2rcd13ifvqi2g","pricing_plan_id":"cebpf4jnsgd1na2vs0mg"},{"bike_id":"23718e9a-5ce7-4d28-99a5-8f754f56e13c","system_id":"levelo_inurba_marseille","lat":43.22508,"lon":5.34775,"is_reserved":false,"is_disabled":false,"rental_uris":{"android":"levelo://app?vid=23718e9a-5ce7-4d28-99a5-8f754f56e13c","ios":"levelo://app?vid=23718e9a-5ce7-4d28-99a5-8f754f56e13c"},"vehicle_type_id":"4","last_reported":1744269003,"current_range_meters":19600,"station_id":"","pricing_plan_id":"cebpf4jnsgd1na2vs0mg"},{"bike_id":"5bad23e5-4751-4a05-9261-229af707f7e8","system_id":"levelo_inurba_marseille","lat":43.24174,"lon":5.39734,"is_reserved":false,"is_disabled":false,"rental_uris":{"android":"levelo://app?vid=5bad23e5-4751-4a05-9261-229af707f7e8","ios":"levelo://app?vid=5bad23e5-4751-4a05-9261-229af707f7e8"},"vehicle_type_id":"4","last_reported":1744269003,"current_range_meters":19600,"station_id":"ce4bhn12rcd13ifvqgpg","pricing_plan_id":"cebpf4jnsgd1na2vs0mg"},{"bike_id":"56a65984-7b95-46ce-b9cf-b82e2a047a04","system_id":"levelo_inurba_marseille","lat":43.29074,"lon":5.37172,"is_reserved":false,"is_disabled":false,"rental_uris":{"android":"levelo://app?vid=56a65984-7b95-46ce-b9cf-b82e2a047a04","ios":"levelo://app?vid=56a65984-7b95-46ce-b9cf-b82e2a047a04"},"vehicle_type_id":"4","last_reported":1744269003,"current_range_meters":19600,"station_id":"ce4bh5p2rcd13ifvqe4g","pricing_plan_id":"cebpf4jnsgd1na2vs0mg"},{"bike_id":"f36ca3d8-7188-4931-9a39-385909a64d27","system_id":"levelo_inurba_marseille","lat":43.33103,"lon":5.40659,"is_reserved":false,"is_disabled":false,"rental_uris":{"android":"levelo://app?vid=f36ca3d8-7188-4931-9a39-385909a64d27","ios":"levelo://app?vid=f36ca3d8-7188-4931-9a39-385909a64d27"},"vehicle_type_id":"4","last_reported":1744269003,"current_range_meters":19600,"station_id":"","pricing_plan_id":"cebpf4jnsgd1na2vs0mg"},{"bike_id":"e06a7e2c-7de4-4193-9808-ebaa902278d1","system_id":"levelo_inurba_marseille","lat":43.261997,"lon":5.379275,"is_reserved":false,"is_disabled":false,"rental_uris":{"android":"levelo://app?vid=e06a7e2c-7de4-4193-9808-ebaa902278d1","ios":"levelo://app?vid=e06a7e2c-7de4-4193-9808-ebaa902278d1"},"vehicle_type_id":"4","last_reported":1744269003,"current_range_meters":19600,"station_id":"ce4bhh12rcd13ifvqfg0","pricing_plan_id":"cebpf4jnsgd1na2vs0mg"},{"bike_id":"0a3245e5-8013-406d-a01c-3b4efe26b95f","system_id":"levelo_inurba_marseille","lat":43.291617,"lon":5.371689,"is_reserved":false,"is_disabled":false,"rental_uris":{"android":"levelo://app?vid=0a3245e5-8013-406d-a01c-3b4efe26b95f","ios":"levelo://app?vid=0a3245e5-8013-406d-a01c-3b4efe26b95f"},"vehicle_type_id":"4","last_reported":1744269003,"current_range_meters":19600,"station_id":"ce4bha92rcd13ifvqeh0","pricing_plan_id":"cebpf4jnsgd1na2vs0mg"},{"bike_id":"70333d08-b89a-4e2b-ae7b-375ce248ec2b","system_id":"levelo_inurba_marseille","lat":43.29303,"lon":5.37472,"is_reserved":false,"is_disabled":true,"rental_uris":{"android":"levelo://app?vid=70333d08-b89a-4e2b-ae7b-375ce248ec2b","ios":"levelo://app?vid=70333d08-b89a-4e2b-ae7b-375ce248ec2b"},"vehicle_type_id":"4","last_reported":1744269003,"current_range_meters":19600,"station_id":"","pricing_plan_id":"cebpf4jnsgd1na2vs0mg"},{"bike_id":"59852b06-c5d3-4702-b90f-98eea8f96ee8","system_id":"levelo_inurba_marseille","lat":43.24176,"lon":5.36418,"is_reserved":false,"is_disabled":false,"rental_uris":{"android":"levelo://app?vid=59852b06-c5d3-4702-b90f-98eea8f96ee8","ios":"levelo://app?vid=59852b06-c5d3-4702-b90f-98eea8f96ee8"},"vehicle_type_id":"4","last_reported":1744269003,"current_range_meters":19600,"station_id":"cpo36qri1sfpv3e86is0","pricing_plan_id":"cebpf4jnsgd1na2vs0mg"},{"bike_id":"f4bf0728-44dd-486a-b8cb-9675ef41cc24","system_id":"levelo_inurba_marseille","lat":43.269222,"lon":5.385908,"is_reserved":false,"is_disabled":false,"rental_uris":{"android":"levelo://app?vid=f4bf0728-44dd-486a-b8cb-9675ef41cc24","ios":"levelo://app?vid=f4bf0728-44dd-486a-b8cb-9675ef41cc24"},"vehicle_type_id":"4","last_reported":1744269003,"current_range_meters":19600,"station_id":"ce4bhh92rcd13ifvqfh0","pricing_plan_id":"cebpf4jnsgd1na2vs0mg"},{"bike_id":"2ee106dd-7d55-45ba-b797-a6053946699a","system_id":"levelo_inurba_marseille","lat":43.27066,"lon":5.42265,"is_reserved":false,"is_disabled":false,"rental_uris":{"android":"levelo://app?vid=2ee106dd-7d55-45ba-b797-a6053946699a","ios":"levelo://app?vid=2ee106dd-7d55-45ba-b797-a6053946699a"},"vehicle_type_id":"4","last_reported":1744269003,"current_range_meters":20000,"station_id":"ce4bhk92rcd13ifvqgb0","pricing_plan_id":"cebpf4jnsgd1na2vs0mg"},{"bike_id":"de6fdfe9-85c0-4204-bd3c-83d487c5a0a7","system_id":"levelo_inurba_marseille","lat":43.31495,"lon":5.37307,"is_reserved":false,"is_disabled":false,"rental_uris":{"android":"levelo://app?vid=de6fdfe9-85c0-4204-bd3c-83d487c5a0a7","ios":"levelo://app?vid=de6fdfe9-85c0-4204-bd3c-83d487c5a0a7"},"vehicle_type_id":"4","last_reported":1744269003,"current_range_meters":19600,"station_id":"ce4bgt12rcd13ifvqcd0","pricing_plan_id":"cebpf4jnsgd1na2vs0mg"},{"bike_id":"625e0261-6556-4a5d-9831-19bbcff30c64","system_id":"levelo_inurba_marseille","lat":43.26557,"lon":5.39011,"is_reserved":false,"is_disabled":false,"rental_uris":{"android":"levelo://app?vid=625e0261-6556-4a5d-9831-19bbcff30c64","ios":"levelo://app?vid=625e0261-6556-4a5d-9831-19bbcff30c64"},"vehicle_type_id":"4","last_reported":1744269003,"current_range_meters":20000,"station_id":"ce4bhe12rcd13ifvqf30","pricing_plan_id":"cebpf4jnsgd1na2vs0mg"},{"bike_id":"1f96790d-9c80-414b-8543-ad735c3c628a","system_id":"levelo_inurba_marseille","lat":43.275014,"lon":5.424494,"is_reserved":false,"is_disabled":false,"rental_uris":{"android":"levelo://app?vid=1f96790d-9c80-414b-8543-ad735c3c628a","ios":"levelo://app?vid=1f96790d-9c80-414b-8543-ad735c3c628a"},"vehicle_type_id":"4","last_reported":1744269003,"current_range_meters":20000,"station_id":"ce4bhn92rcd13ifvqgrg","pricing_plan_id":"cebpf4jnsgd1na2vs0mg"},{"bike_id":"593cc697-220e-4df3-9f2b-b1793070fa32","system_id":"levelo_inurba_marseille","lat":43.30534,"lon":5.36501,"is_reserved":false,"is_disabled":true,"rental_uris":{"android":"levelo://app?vid=593cc697-220e-4df3-9f2b-b1793070fa32","ios":"levelo://app?vid=593cc697-220e-4df3-9f2b-b1793070fa32"},"vehicle_type_id":"4","last_reported":1744269003,"current_range_meters":20000,"station_id":"","pricing_plan_id":"cebpf4jnsgd1na2vs0mg"},{"bike_id":"94c7794a-6d48-406f-b5c8-69da2480bb40","system_id":"levelo_inurba_marseille","lat":43.31355,"lon":5.36709,"is_reserved":false,"is_disabled":false,"rental_uris":{"android":"levelo://app?vid=94c7794a-6d48-406f-b5c8-69da2480bb40","ios":"levelo://app?vid=94c7794a-6d48-406f-b5c8-69da2480bb40"},"vehicle_type_id":"4","last_reported":1744269003,"current_range_meters":20000,"station_id":"ce4bgr92rcd13ifvqc6g","pricing_plan_id":"cebpf4jnsgd1na2vs0mg"},{"bike_id":"f336b29b-8563-43e0-873b-ea8fc145a09c","system_id":"levelo_inurba_marseille","lat":43.30311,"lon":5.39694,"is_reserved":false,"is_disabled":false,"rental_uris":{"android":"levelo://app?vid=f336b29b-8563-43e0-873b-ea8fc145a09c","ios":"levelo://app?vid=f336b29b-8563-43e0-873b-ea8fc145a09c"},"vehicle_type_id":"4","last_reported":1744269003,"current_range_meters":20000,"station_id":"","pricing_plan_id":"cebpf4jnsgd1na2vs0mg"},