{"last_updated":1729930233,"ttl":60,"version":"2.2","data":{"bikes":[{"bike_id":"c894f70f-2a6f-425b-ba00-c08216f3e7e3","system_id":"levelo_inurba_marseille","lat":43.29627,"lon":5.37164,"is_reserved":false,"is_disabled":false,"rental_uris":{"android":"levelo://app?vid=c894f70f-2a6f-425b-ba00-c08216f3e7e3","ios":"levelo://app?vid=c894f70f-2a6f-425b-ba00-c08216f3e7e3"},"vehicle_type_id":"4","last_reported":1729930233,"current_range_meters":34800,"station_id":"ce4bgnh2rcd13ifvqc0g","pricing_plan_id":"cebpf4jnsgd1na2vs0mg"},{"bike_id":"565063a0-e62e-4b69-b2be-cb0805d2e002","system_id":"levelo_inurba_marseille","lat":43.29044,"lon":5.39958,"is_reserved":false,"is_disabled":false,"rental_uris":{"android":"levelo://app?vid=565063a0-e62e-4b69-b2be-cb0805d2e002","ios":"levelo://app?vid=565063a0-e62e-4b69-b2be-cb0805d2e002"},"vehicle_type_id":"4","last_reported":1729930233,"current_range_meters":20000,"station_id":"ce4bh392rcd13ifvqdm0","pricing_plan_id":"cebpf4jnsgd1na2vs0mg"},{"bike_id":"163eddd4-107c-441d-b897-daa82cca5a31","system_id":"levelo_inurba_marseille","lat":43.28081,"lon":5.39653,"is_reserved":false,"is_disabled":false,"rental_uris":{"android":"levelo://app?vid=163eddd4-107c-441d-b897-daa82cca5a31","ios":"levelo://app?vid=163eddd4-107c-441d-b897-daa82cca5a31"},"vehicle_type_id":"4","last_reported":1729930233,"current_range_meters":38800,"station_id":"ce4bho12rcd13ifvqh2g","pricing_plan_id":"cebpf4jnsgd1na2vs0mg"},{"bike_id":"786338f8-1efe-4aa3-a341-0e5e57fbf14e","system_id":"levelo_inurba_marseille","lat":43.27665,"lon":5.3889,"is_reserved":false,"is_disabled":false,"rental_uris":{"android":"levelo://app?vid=786338f8-1efe-4aa3-a341-0e5e57fbf14e","ios":"levelo://app?vid=786338f8-1efe-4aa3-a341-0e5e57fbf14e"},"vehicle_type_id":"4","last_reported":1729930233,"current_range_meters":16000,"station_id":"","pricing_plan_id":"cebpf4jnsgd1na2vs0mg"},{"bike_id":"607fa9b8-1815-47a3-97ba-59ab08c0f8bf","system_id":"levelo_inurba_marseille","lat":43.25578,"lon":5.38238,"is_reserved":false,"is_disabled":false,"rental_uris":{"android":"levelo://app?vid=607fa9b8-1815-47a3-97ba-59ab08c0f8bf","ios":"levelo://app?vid=607fa9b8-1815-47a3-97ba-59ab08c0f8bf"},"vehicle_type_id":"4","last_reported":1729930233,"current_range_meters":27200,"station_id":"ce4bhih2rcd13ifvqfs0","pricing_plan_id":"cebpf4jnsgd1na2vs0mg"},{"bike_id":"f23c5e79-c688-420c-b287-01a3deef8ada","system_id":"levelo_inurba_marseille","lat":43.30593,"lon":5.37234,"is_reserved":false,"is_disabled":false,"rental_uris":{"android":"levelo://app?vid=f23c5e79-c688-420c-b287-01a3deef8ada","ios":"levelo://app?vid=f23c5e79-c688-420c-b287-01a3deef8ada"},"vehicle_type_id":"4","last_reported":1729930233,"current_range_meters":33200,"station_id":"ce4bgqh2rcd13ifvqc4g","pricing_plan_id":"cebpf4jnsgd1na2vs0mg"},{"bike_id":"3381cd79-1316-4c50-ad86-ee5056cd0e14","system_id":"levelo_inurba_marseille","lat":43.25117,"lon":5.40318,"is_reserved":false,"is_disabled":false,"rental_uris":{"android":"levelo://app?vid=3381cd79-1316-4c50-ad86-ee5056cd0e14","ios":"levelo://app?vid=3381cd79-1316-4c50-ad86-ee5056cd0e14"},"vehicle_type_id":"4","last_reported":1729930233,"current_range_meters":36800,"station_id":"ce4bhlh2rcd13ifvqgig","pricing_plan_id":"cebpf4jnsgd1na2vs0mg"},{"bike_id":"ef9d1303-b3a7-4f64-b1ea-62f7e508d231","system_id":"levelo_inurba_marseille","lat":43.2808,"lon":5.39659,"is_reserved":false,"is_disabled":false,"rental_uris":{"android":"levelo://app?vid=ef9d1303-b3a7-4f64-b1ea-62f7e508d231","ios":"levelo://app?vid=ef9d1303-b3a7-4f64-b1ea-62f7e508d231"},"vehicle_type_id":"4","last_reported":1729930233,"current_range_meters":28800,"station_id":"ce4bho12rcd13ifvqh2g","pricing_plan_id":"cebpf4jnsgd1na2vs0mg"},{"bike_id":"a047d5c0-2a41-4c65-963e-636f05a0bdff","system_id":"levelo_inurba_marseille","lat":43.309477,"lon":5.3903,"is_reserved":false,"is_disabled":false,"rental_uris":{"android":"levelo://app?vid=a047d5c0-2a41-4c65-963e-636f05a0bdff","ios":"levelo://app?vid=a047d5c0-2a41-4c65-963e-636f05a0bdff"},"vehicle_type_id":"4","last_reported":1729930233,"current_range_meters":23200,"station_id":"ce4bgup2rcd13ifvqco0","pricing_plan_id":"cebpf4jnsgd1na2vs0mg"},{"bike_id":"d33b21ec-4310-4291-b133-a0ac75f58382","system_id":"levelo_inurba_marseille","lat":43.30647,"lon":5.40086,"is_reserved":false,"is_disabled":false,"rental_uris":{"android":"levelo://app?vid=d33b21ec-4310-4291-b133-a0ac75f58382","ios":"levelo://app?vid=d33b21ec-4310-4291-b133-a0ac75f58382"},"vehicle_type_id":"4","last_reported":1729930233,"current_range_meters":39200,"station_id":"ce4bh112rcd13ifvqda0","pricing_plan_id":"cebpf4jnsgd1na2vs0mg"},{"bike_id":"1e6e2bfc-7583-41d7-8b7b-c4a99bfe72bb","system_id":"levelo_inurba_marseille","lat":43.28418,"lon":5.34992,"is_reserved":false,"is_disabled":false,"rental_uris":{"android":"levelo://app?vid=1e6e2bfc-7583-41d7-8b7b-c4a99bfe72bb","ios":"levelo://app?vid=1e6e2bfc-7583-41d7-8b7b-c4a99bfe72bb"},"vehicle_type_id":"4","last_reported":1729930233,"current_range_meters":38400,"station_id":"ce4bhbh2rcd13ifvqepg","pricing_plan_id":"cebpf4jnsgd1na2vs0mg"},{"bike_id":"cc51bb4d-27c9-43f3-9b27-a7713792c367","system_id":"levelo_inurba_marseille","lat":43.30141,"lon":5.3987,"is_reserved":false,"is_disabled":false,"rental_uris":{"android":"levelo://app?vid=cc51bb4d-27c9-43f3-9b27-a7713792c367","ios":"levelo://app?vid=cc51bb4d-27c9-43f3-9b27-a7713792c367"},"vehicle_type_id":"4","last_reported":1729930233,"current_range_meters":38400,"station_id":"ce4bh0h2rcd13ifvqd40","pricing_plan_id":"cebpf4jnsgd1na2vs0mg"},{"bike_id":"009167de-82aa-4847-aa5d-4d9051aafc64","system_id":"levelo_inurba_marseille","lat":43.311985,"lon":5.376826,"is_reserved":false,"is_disabled":false,"rental_uris":{"android":"levelo://app?vid=009167de-82aa-4847-aa5d-4d9051aafc64","ios":"levelo://app?vid=009167de-82aa-4847-aa5d-4d9051aafc64"},"vehicle_type_id":"4","last_reported":1729930233,"current_range_meters":20400,"station_id":"ce4bgpp2rcd13ifvqc3g","pricing_plan_id":"cebpf4jnsgd1na2vs0mg"},{"bike_id":"c31368c8-c9b7-4439-ba3d-d4b17f147166","system_id":"levelo_inurba_marseille","lat":43.26805,"lon":5.40257,"is_reserved":false,"is_disabled":false,"rental_uris":{"android":"levelo://app?vid=c31368c8-c9b7-4439-ba3d-d4b17f147166","ios":"levelo://app?vid=c31368c8-c9b7-4439-ba3d-d4b17f147166"},"vehicle_type_id":"4","last_reported":1729930233,"current_range_meters":26800,"station_id":"ce501612rcd8frsf0b60","pricing_plan_id":"cebpf4jnsgd1na2vs0mg"},{"bike_id":"0462abee-264b-422a-a654-1646838f0f9c","system_id":"levelo_inurba_marseille","lat":43.30596,"lon":5.37221,"is_reserved":false,"is_disabled":false,"rental_uris":{"android":"levelo://app?vid=0462abee-264b-422a-a654-1646838f0f9c","ios":"levelo://app?vid=0462abee-264b-422a-a654-1646838f0f9c"},"vehicle_type_id":"4","last_reported":1729930233,"current_range_meters":38800,"station_id":"ce4bgqh2rcd13ifvqc4g","pricing_plan_id":"cebpf4jnsgd1na2vs0mg"},{"bike_id":"f4db4e2d-65c3-48c6-b530-81ccdd24f818","system_id":"levelo_inurba_marseille","lat":43.307887,"lon":5.376501,"is_reserved":false,"is_disabled":false,"rental_uris":{"android":"levelo://app?vid=f4db4e2d-65c3-48c6-b530-81ccdd24f818","ios":"levelo://app?vid=f4db4e2d-65c3-48c6-b530-81ccdd24f818"},"vehicle_type_id":"4","last_reported":1729930233,"current_range_meters":16400,"station_id":"ce4bgup2rcd13ifvqco0","pricing_plan_id":"cebpf4jnsgd1na2vs0mg"},{"bike_id":"a5add820-9e4b-49c7-bd27-b9ddeb22681d","system_id":"levelo_inurba_marseille","lat":43.28279,"lon":5.3506,"is_reserved":false,"is_disabled":false,"rental_uris":{"android":"levelo://app?vid=a5add820-9e4b-49c7-bd27-b9ddeb22681d","ios":"levelo://app?vid=a5add820-9e4b-49c7-bd27-b9ddeb22681d"},"vehicle_type_id":"4","last_reported":1729930233,"current_range_meters":14400,"station_id":"ce4bhbp2rcd13ifvqerg","pricing_plan_id":"cebpf4jnsgd1na2vs0mg"},{"bike_id":"79bd2af5-c7a8-42a2-a85c-ece5c82e9b12","system_id":"levelo_inurba_marseille","lat":43.30151,"lon":5.38094,"is_reserved":false,"is_disabled":false,"rental_uris":{"android":"levelo://app?vid=79bd2af5-c7a8-42a2-a85c-ece5c82e9b12","ios":"levelo://app?vid=79bd2af5-c7a8-42a2-a85c-ece5c82e9b12"},"vehicle_type_id":"4","last_reported":1729930233,"current_range_meters":37600,"station_id":"ce4bgjp2rcd13ifvqbh0","pricing_plan_id":"cebpf4jnsgd1na2vs0mg"},{"bike_id":"c2d6b5fa-4156-45bc-b005-627f5b07c974","system_id":"levelo_inurba_marseille","lat":43.30189,"lon":5.36625,"is_reserved":false,"is_disabled":false,"rental_uris":{"android":"levelo://app?vid=c2d6b5fa-4156-45bc-b005-627f5b07c974","ios":"levelo://app?vid=c2d6b5fa-4156-45bc-b005-627f5b07c974"},"vehicle_type_id":"4","last_reported":1729930233,"current_range_meters":38400,"station_id":"ce4bgrh2rcd13ifvqc8g","pricing_plan_id":"cebpf4jnsgd1na2vs0mg"},{"bike_id":"633bdd84-8a27-486c-8d5a-62bd9dd56f9f","system_id":"levelo_inurba_marseille","lat":43.26944,"lon":5.40251,"is_reserved":false,"is_disabled":false,"rental_uris":{"android":"levelo://app?vid=633bdd84-8a27-486c-8d5a-62bd9dd56f9f","ios":"levelo://app?vid=633bdd84-8a27-486c-8d5a-62bd9dd56f9f"},"vehicle_type_id":"4","last_reported":1729930233,"current_range_meters":39200,"station_id":"cjm6bp8fraef2m0cb0m0","pricing_plan_id":"cebpf4jnsgd1na2vs0mg"},{"bike_id":"365042da-fe2f-49c8-bdd1-2a0373063ba3","system_id":"levelo_inurba_marseille","lat":43.29621,"lon":5.37164,"is_reserved":false,"is_disabled":false,"rental_uris":{"android":"levelo://app?vid=365042da-fe2f-49c8-bdd1-2a0373063ba3","ios":"levelo://app?vid=365042da-fe2f-49c8-bdd1-2a0373063ba3"},"vehicle_type_id":"4","last_reported":1729930233,"current_range_meters":32400,"station_id":"ce4bgnh2rcd13ifvqc0g","pricing_plan_id":"cebpf4jnsgd1na2vs0mg"},{"bike_id":"d8c1a563-0b45-402b-9ecd-f0b86bbfd33f","system_id":"levelo_inurba_marseille","lat":43.29417,"lon":5.38633,"is_reserved":false,"is_disabled":false,"rental_uris":{"android":"levelo://app?vid=d8c1a563-0b45-402b-9ecd-f0b86bbfd33f","ios":"levelo://app?vid=d8c1a563-0b45-402b-9ecd-f0b86bbfd33f"},"vehicle_type_id":"4","last_reported":1729930233,"current_range_meters":36800,"station_id":"ce4bh2h2rcd13ifvqdh0","pricing_plan_id":"cebpf4jnsgd1na2vs0mg"},{"bike_id":"bb721b29-9c7c-44ba-abeb-eb360f6a9944","system_id":"levelo_inurba_marseille","lat":43.288503,"lon":5.393013,"is_reserved":false,"is_disabled":false,"rental_uris":{"android":"levelo://app?vid=bb721b29-9c7c-44ba-abeb-eb360f6a9944","ios":"levelo://app?vid=bb721b29-9c7c-44ba-abeb-eb360f6a9944"},"vehicle_type_id":"4","last_reported":1729930233,"current_range_meters":30800,"station_id":"ce4bh2p2rcd13ifvqdi0","pricing_plan_id":"cebpf4jnsgd1na2vs0mg"},{"bike_id":"090d6208-0a1b-4739-846f-ee75a9ed97d4","system_id":"levelo_inurba_marseille","lat":43.27831,"lon":5.39213,"is_reserved":false,"is_disabled":false,"rental_uris":{"android":"levelo://app?vid=090d6208-0a1b-4739-846f-ee75a9ed97d4","ios":"levelo://app?vid=090d6208-0a1b-4739-846f-ee75a9ed97d4"},"vehicle_type_id":"4","last_reported":1729930233,"current_range_meters":38800,"station_id":"ce4bhjp2rcd13ifvqga0","pricing_plan_id":"cebpf4jnsgd1na2vs0mg"},{"bike_id":"dd6c780f-d10c-4c09-a3fe-5581d2735032","system_id":"levelo_inurba_marseille","lat":43.30144,"lon":5.3742,"is_reserved":false,"is_disabled":false,"rental_uris":{"android":"levelo://app?vid=dd6c780f-d10c-4c09-a3fe-5581d2735032","ios":"levelo://app?vid=dd6c780f-d10c-4c09-a3fe-5581d2735032"},"vehicle_type_id":"4","last_reported":1729930233,"current_range_meters":38800,"station_id":"ce4bgs92rcd13ifvqcc0","pricing_plan_id":"cebpf4jnsgd1na2vs0mg"},{"bike_id":"d44187ab-306f-4bed-b6aa-0d68527ab8c2","system_id":"levelo_inurba_marseille","lat":43.28411,"lon":5.34993,"is_reserved":false,"is_disabled":false,"rental_uris":{"android":"levelo://app?vid=d44187ab-306f-4bed-b6aa-0d68527ab8c2","ios":"levelo://app?vid=d44187ab-306f-4bed-b6aa-0d68527ab8c2"},"vehicle_type_id":"4","last_reported":1729930233,"current_range_meters":6000,"station_id":"ce4bhbh2rcd13ifvqepg","pricing_plan_id":"cebpf4jnsgd1na2vs0mg"},{"bike_id":"2acf30df-8280-459a-9517-b601c87d8e29","system_id":"levelo_inurba_marseille","lat":43.26489,"lon":5.39544,"is_reserved":false,"is_disabled":false,"rental_uris":{"android":"levelo://app?vid=2acf30df-8280-459a-9517-b601c87d8e29","ios":"levelo://app?vid=2acf30df-8280-459a-9517-b601c87d8e29"},"vehicle_type_id":"4","last_reported":1729930233,"current_range_meters":38800,"station_id":"ce4bhi12rcd13ifvqfq0","pricing_plan_id":"cebpf4jnsgd1na2vs0mg"},{"bike_id":"c8f33dbe-8d46-4679-b0bd-686b38e43e1d","system_id":"levelo_inurba_marseille","lat":43.24552,"lon":5.39523,"is_reserved":false,"is_disabled":false,"rental_uris":{"android":"levelo://app?vid=c8f33dbe-8d46-4679-b0bd-686b38e43e1d","ios":"levelo://app?vid=c8f33dbe-8d46-4679-b0bd-686b38e43e1d"},"vehicle_type_id":"4","last_reported":1729930233,"current_range_meters":36000,"station_id":"ce4bhlp2rcd13ifvqgjg","pricing_plan_id":"cebpf4jnsgd1na2vs0mg"},{"bike_id":"4620d99c-19e2-49fb-bee1-9dbb341f4db3","system_id":"levelo_inurba_marseille","lat":43.29573,"lon":5.39971,"is_reserved":false,"is_disabled":false,"rental_uris":{"android":"levelo://app?vid=4620d99c-19e2-49fb-bee1-9dbb341f4db3","ios":"levelo://app?vid=4620d99c-19e2-49fb-bee1-9dbb341f4db3"},"vehicle_type_id":"4","last_reported":1729930233,"current_range_meters":30400,"station_id":"ce4bh312rcd13ifvqdj0","pricing_plan_id":"cebpf4jnsgd1na2vs0mg"},{"bike_id":"000fc0fe-e8bd-4a5e-b999-7a06d3daf5c5","system_id":"levelo_inurba_marseille","lat":43.29536,"lon":5.39399,"is_reserved":false,"is_disabled":false,"rental_uris":{"android":"levelo://app?vid=000fc0fe-e8bd-4a5e-b999-7a06d3daf5c5","ios":"levelo://app?vid=000fc0fe-e8bd-4a5e-b999-7a06d3daf5c5"},"vehicle_type_id":"4","last_reported":1729930233,"current_range_meters":38800,"station_id":"ce4bh292rcd13ifvqdf0","pricing_plan_id":"cebpf4jnsgd1na2vs0mg"},{"bike_id":"20d98978-6927-43fc-85d7-a1284bab2e83","system_id":"levelo_inurba_marseille","lat":43.30547,"lon":5.36713,"is_reserved":false,"is_disabled":false,"rental_uris":{"android":"levelo://app?vid=20d98978-6927-43fc-85d7-a1284bab2e83","ios":"levelo://app?vid=20d98978-6927-43fc-85d7-a1284bab2e83"},"vehicle_type_id":"4","last_reported":1729930233,"current_range_meters":28400,"station_id":"ce4bgrp2rcd13ifvqc9g","pricing_plan_id":"cebpf4jnsgd1na2vs0mg"},{"bike_id":"b4c1c861-a75e-46c9-86c7-2e2349bb876d","system_id":"levelo_inurba_marseille","lat":43.25577,"lon":5.38249,"is_reserved":false,"is_disabled":false,"rental_uris":{"android":"levelo://app?vid=b4c1c861-a75e-46c9-86c7-2e2349bb876d","ios":"levelo://app?vid=b4c1c861-a75e-46c9-86c7-2e2349bb876d"},"vehicle_type_id":"4","last_reported":1729930233,"current_range_meters":29600,"station_id":"ce4bhih2rcd13ifvqfs0","pricing_plan_id":"cebpf4jnsgd1na2vs0mg"},{"bike_id":"76429545-d7a7-442d-b843-73497d82306d","system_id":"levelo_inurba_marseille","lat":43.26933,"lon":5.40253,"is_reserved":false,"is_disabled":false,"rental_uris":{"android":"levelo://app?vid=76429545-d7a7-442d-b843-73497d82306d","ios":"levelo://app?vid=76429545-d7a7-442d-b843-73497d82306d"},"vehicle_type_id":"4","last_reported":1729930233,"current_range_meters":24000,"station_id":"cjm6bp8fraef2m0cb0m0","pricing_plan_id":"cebpf4jnsgd1na2vs0mg"},{"bike_id":"195351c3-2982-4b38-a129-eb84836134a1","system_id":"levelo_inurba_marseille","lat":43.28607,"lon":5.37062,"is_reserved":false,"is_disabled":false,"rental_uris":{"android":"levelo://app?vid=195351c3-2982-4b38-a129-eb84836134a1","ios":"levelo://app?vid=195351c3-2982-4b38-a129-eb84836134a1"},"vehicle_type_id":"4","last_reported":1729930233,"current_range_meters":27600,"station_id":"ce4bht12rcd13ifvqi60","pricing_plan_id":"cebpf4jnsgd1na2vs0mg"},{"bike_id":"f77be28a-db00-41ab-8595-caf295ef5a3d","system_id":"levelo_inurba_marseille","lat":43.2903,"lon":5.39967,"is_reserved":false,"is_disabled":false,"rental_uris":{"android":"levelo://app?vid=f77be28a-db00-41ab-8595-caf295ef5a3d","ios":"levelo://app?vid=f77be28a-db00-41ab-8595-caf295ef5a3d"},"vehicle_type_id":"4","last_reported":1729930233,"current_range_meters":30000,"station_id":"ce4bh392rcd13ifvqdm0","pricing_plan_id":"cebpf4jnsgd1na2vs0mg"},{"bike_id":"cb0e4dd3-b4ba-4b08-bea1-04a42ff106ee","system_id":"levelo_inurba_marseille","lat":43.32037,"lon":5.41553,"is_reserved":false,"is_disabled":false,"rental_uris":{"android":"levelo://app?vid=cb0e4dd3-b4ba-4b08-bea1-04a42ff106ee","ios":"levelo://app?vid=cb0e4dd3-b4ba-4b08-bea1-04a42ff106ee"},"vehicle_type_id":"4","last_reported":1729930233,"current_range_meters":35600,"station_id":"ce4bhq92rcd13ifvqhkg","pricing_plan_id":"cebpf4jnsgd1na2vs0mg"},{"bike_id":"aba72a10-c3f8-4da7-96a6-b5b54ef2d818","system_id":"levelo_inurba_marseille","lat":43.30139,"lon":5.38787,"is_reserved":false,"is_disabled":false,"rental_uris":{"android":"levelo://app?vid=aba72a10-c3f8-4da7-96a6-b5b54ef2d818","ios":"levelo://app?vid=aba72a10-c3f8-4da7-96a6-b5b54ef2d818"},"vehicle_type_id":"4","last_reported":1729930233,"current_range_meters":36800,"station_id":"ce4bghh2rcd13ifvqb60","pricing_plan_id":"cebpf4jnsgd1na2vs0mg"},{"bike_id":"fa83ecf3-a6ef-4106-9cdb-5ab89addbba4","system_id":"levelo_inurba_marseille","lat":43.26939,"lon":5.40257,"is_reserved":false,"is_disabled":false,"rental_uris":{"android":"levelo://app?vid=fa83ecf3-a6ef-4106-9cdb-5ab89addbba4","ios":"levelo://app?vid=fa83ecf3-a6ef-4106-9cdb-5ab89addbba4"},"vehicle_type_id":"4","last_reported":1729930233,"current_range_meters":30800,"station_id":"cjm6bp8fraef2m0cb0m0","pricing_plan_id":"cebpf4jnsgd1na2vs0mg"},{"bike_id":"8d7879bf-6e8a-4118-976d-972762a646c6","system_id":"levelo_inurba_marseille","lat":43.27909,"lon":5.38003,"is_reserved":false,"is_disabled":false,"rental_uris":{"android":"levelo://app?vid=8d7879bf-6e8a-4118-976d-972762a646c6","ios":"levelo://app?vid=8d7879bf-6e8a-4118-976d-972762a646c6"},"vehicle_type_id":"4","last_reported":1729930233,"current_range_meters":32400,"station_id":"ce4bhf92rcd13ifvqf50","pricing_plan_id":"cebpf4jnsgd1na2vs0mg"},{"bike_id":"b24e0fd3-2a5f-4760-8d2c-03b817af8d22","system_id":"levelo_inurba_marseille","lat":43.32326,"lon":5.40622,"is_reserved":false,"is_disabled":false,"rental_uris":{"android":"levelo://app?vid=b24e0fd3-2a5f-4760-8d2c-03b817af8d22","ios":"levelo://app?vid=b24e0fd3-2a5f-4760-8d2c-03b817af8d22"},"vehicle_type_id":"4","last_reported":1729930233,"current_range_meters":24800,"station_id":"ce4bhq92rcd13ifvqhjg","pricing_plan_id":"cebpf4jnsgd1na2vs0mg"},{"bike_id":"38826f8a-7e66-4552-a71b-1e1ea44a9de8","system_id":"levelo_inurba_marseille","lat":43.29231,"lon":5.36068,"is_reserved":false,"is_disabled":false,"rental_uris":{"android":"levelo://app?vid=38826f8a-7e66-4552-a71b-1e1ea44a9de8","ios":"levelo://app?vid=38826f8a-7e66-4552-a71b-1e1ea44a9de8"},"vehicle_type_id":"4","last_reported":1729930233,"current_range_meters":38800,"station_id":"ce4bhbh2rcd13ifvqeqg","pricing_plan_id":"cebpf4jnsgd1na2vs0mg"},{"bike_id":"c3aa7bb4-1be5-4d6d-ab93-efb450cee9de","system_id":"levelo_inurba_marseille","lat":43.27554,"lon":5.38429,"is_reserved":false,"is_disabled":false,"rental_uris":{"android":"levelo://app?vid=c3aa7bb4-1be5-4d6d-ab93-efb450cee9de","ios":"levelo://app?vid=c3aa7bb4-1be5-4d6d-ab93-efb450cee9de"},"vehicle_type_id":"4","last_reported":1729930233,"current_range_meters":28800,"station_id":"ce4bhh92rcd13ifvqfi0","pricing_plan_id":"cebpf4jnsgd1na2vs0mg"},{"bike_id":"4e97e1ef-7b58-4fab-8dfa-d31ea6e2f3e8","system_id":"levelo_inurba_marseille","lat":43.29975,"lon":5.37178,"is_reserved":false,"is_disabled":false,"rental_uris":{"android":"levelo://app?vid=4e97e1ef-7b58-4fab-8dfa-d31ea6e2f3e8","ios":"levelo://app?vid=4e97e1ef-7b58-4fab-8dfa-d31ea6e2f3e8"},"vehicle_type_id":"4","last_reported":1729930233,"current_range_meters":38400,"station_id":"ce4bgr92rcd13ifvqc7g","pricing_plan_id":"cebpf4jnsgd1na2vs0mg"},{"bike_id":"e7360508-6978-487a-a79b-5e2dad5d0ea3","system_id":"levelo_inurba_marseille","lat":43.22928,"lon":5.3538,"is_reserved":false,"is_disabled":false,"rental_uris":{"android":"levelo://app?vid=e7360508-6978-487a-a79b-5e2dad5d0ea3","ios":"levelo://app?vid=e7360508-6978-487a-a79b-5e2dad5d0ea3"},"vehicle_type_id":"4","last_reported":1729930233,"current_range_meters":31200,"station_id":"cpo3532slgdg3j2ikp40","pricing_plan_id":"cebpf4jnsgd1na2vs0mg"},{"bike_id":"a2625f8e-dc7a-4e45-bf4e-2bf27039eb70","system_id":"levelo_inurba_marseille","lat":43.28613,"lon":5.35104,"is_reserved":false,"is_disabled":false,"rental_uris":{"android":"levelo://app?vid=a2625f8e-dc7a-4e45-bf4e-2bf27039eb70","ios":"levelo://app?vid=a2625f8e-dc7a-4e45-bf4e-2bf27039eb70"},"vehicle_type_id":"4","last_reported":1729930233,"current_range_meters":36800,"station_id":"ce4bhch2rcd13ifvqeug","pricing_plan_id":"cebpf4jnsgd1na2vs0mg"},{"bike_id":"b4b69ab5-bdb4-4bc3-b0d3-7919f51d903a","system_id":"levelo_inurba_marseille","lat":43.29184,"lon":5.39316,"is_reserved":false,"is_disabled":false,"rental_uris":{"android":"levelo://app?vid=b4b69ab5-bdb4-4bc3-b0d3-7919f51d903a","ios":"levelo://app?vid=b4b69ab5-bdb4-4bc3-b0d3-7919f51d903a"},"vehicle_type_id":"4","last_reported":1729930233,"current_range_meters":36800,"station_id":"ce4bh192rcd13ifvqdd0","pricing_plan_id":"cebpf4jnsgd1na2vs0mg"},{"bike_id":"65a0b432-1bb9-4e43-a87c-f8817a6ed636","system_id":"levelo_inurba_marseille","lat":43.24081,"lon":5.37753,"is_reserved":false,"is_disabled":false,"rental_uris":{"android":"levelo://app?vid=65a0b432-1bb9-4e43-a87c-f8817a6ed636","ios":"levelo://app?vid=65a0b432-1bb9-4e43-a87c-f8817a6ed636"},"vehicle_type_id":"4","last_reported":1729930233,"current_range_meters":16800,"station_id":"ce4bhnp2rcd13ifvqgvg","pricing_plan_id":"cebpf4jnsgd1na2vs0mg"},{"bike_id":"c7b3b05f-0a0b-4d84-b81d-7f655f063392","system_id":"levelo_inurba_marseille","lat":43.3035,"lon":5.41876,"is_reserved":false,"is_disabled":false,"rental_uris":{"android":"levelo://app?vid=c7b3b05f-0a0b-4d84-b81d-7f655f063392","ios":"levelo://app?vid=c7b3b05f-0a0b-4d84-b81d-7f655f063392"},"vehicle_type_id":"4","last_reported":1729930233,"current_range_meters":18000,"station_id":"ce4bhop2rcd13ifvqh7g","pricing_plan_id":"cebpf4jnsgd1na2vs0mg"},{"bike_id":"8ffa6f7a-757b-49e4-bffb-43853c476555","system_id":"levelo_inurba_marseille","lat":43.29724,"lon":5.37433,"is_reserved":false,"is_disabled":false,"rental_uris":{"android":"levelo://app?vid=8ffa6f7a-757b-49e4-bffb-43853c476555","ios":"levelo://app?vid=8ffa6f7a-757b-49e4-bffb-43853c476555"},"vehicle_type_id":"4","last_reported":1729930233,"current_range_meters":36000,"station_id":"ce4bgs92rcd13ifvqcc0","pricing_plan_id":"cebpf4jnsgd1na2vs0mg"},{"bike_id":"b516e2e5-f42c-4760-a162-f08352a9ab58","system_id":"levelo_inurba_marseille","lat":43.30138,"lon":5.3987,"is_reserved":false,"is_disabled":false,"rental_uris":{"android":"levelo://app?vid=b516e2e5-f42c-4760-a162-f08352a9ab58","ios":"levelo://app?vid=b516e2e5-f42c-4760-a162-f08352a9ab58"},"vehicle_type_id":"4","last_reported":1729930233,"current_range_meters":30400,"station_id":"ce4bh0h2rcd13ifvqd40","pricing_plan_id":"cebpf4jnsgd1na2vs0mg"},{"bike_id":"6925803b-ad34-4af7-be87-e1c380a12c9a","system_id":"levelo_inurba_marseille","lat":43.28729,"lon":5.36075,"is_reserved":false,"is_disabled":false,"rental_uris":{"android":"levelo://app?vid=6925803b-ad34-4af7-be87-e1c380a12c9a","ios":"levelo://app?vid=6925803b-ad34-4af7-be87-e1c380a12c9a"},"vehicle_type_id":"4","last_reported":1729930233,"current_range_meters":37600,"station_id":"cki0cbj6b192h4jlfktg","pricing_plan_id":"cebpf4jnsgd1na2vs0mg"},{"bike_id":"34c0b19e-e327-425b-bf09-25bec92dd9c4","system_id":"levelo_inurba_marseille","lat":43.29326,"lon":5.45472,"is_reserved":false,"is_disabled":false,"rental_uris":{"android":"levelo://app?vid=34c0b19e-e327-425b-bf09-25bec92dd9c4","ios":"levelo://app?vid=34c0b19e-e327-425b-bf09-25bec92dd9c4"},"vehicle_type_id":"4","last_reported":1729930233,"current_range_meters":19200,"station_id":"","pricing_plan_id":"cebpf4jnsgd1na2vs0mg"},{"bike_id":"1697e9af-5ecd-41e1-a327-ab3bf414c93f","system_id":"levelo_inurba_marseille","lat":43.28939,"lon":5.36634,"is_reserved":false,"is_disabled":false,"rental_uris":{"android":"levelo://app?vid=1697e9af-5ecd-41e1-a327-ab3bf414c93f","ios":"levelo://app?vid=1697e9af-5ecd-41e1-a327-ab3bf414c93f"},"vehicle_type_id":"4","last_reported":1729930233,"current_range_meters":28000,"station_id":"ce4bhap2rcd13ifvqek0","pricing_plan_id":"cebpf4jnsgd1na2vs0mg"},{"bike_id":"e835d4c8-7653-415c-9c95-ebedbb4d78f7","system_id":"levelo_inurba_marseille","lat":43.22935,"lon":5.35377,"is_reserved":false,"is_disabled":false,"rental_uris":{"android":"levelo://app?vid=e835d4c8-7653-415c-9c95-ebedbb4d78f7","ios":"levelo://app?vid=e835d4c8-7653-415c-9c95-ebedbb4d78f7"},"vehicle_type_id":"4","last_reported":1729930233,"current_range_meters":14800,"station_id":"cpo3532slgdg3j2ikp40","pricing_plan_id":"cebpf4jnsgd1na2vs0mg"},{"bike_id":"1d1d656f-4780-4c04-b7aa-1044f7f3ec42","system_id":"levelo_inurba_marseille","lat":43.31524,"lon":5.38044,"is_reserved":false,"is_disabled":false,"rental_uris":{"android":"levelo://app?vid=1d1d656f-4780-4c04-b7aa-1044f7f3ec42","ios":"levelo://app?vid=1d1d656f-4780-4c04-b7aa-1044f7f3ec42"},"vehicle_type_id":"4","last_reported":1729930233,"current_range_meters":38000,"station_id":"ce4bhsp2rcd13ifvqi50","pricing_plan_id":"cebpf4jnsgd1na2vs0mg"},{"bike_id":"6ab6570f-b6d3-49ee-a6b6-52e7d687799e","system_id":"levelo_inurba_marseille","lat":43.27201,"lon":5.38609,"is_reserved":false,"is_disabled":false,"rental_uris":{"android":"levelo://app?vid=6ab6570f-b6d3-49ee-a6b6-52e7d687799e","ios":"levelo://app?vid=6ab6570f-b6d3-49ee-a6b6-52e7d687799e"},"vehicle_type_id":"4","last_reported":1729930233,"current_range_meters":38400,"station_id":"ce4bhh92rcd13ifvqfj0","pricing_plan_id":"cebpf4jnsgd1na2vs0mg"},{"bike_id":"5063f4af-2df5-4a8d-971c-2e45b710db02","system_id":"levelo_inurba_marseille","lat":43.25581,"lon":5.38239,"is_reserved":false,"is_disabled":false,"rental_uris":{"android":"levelo://app?vid=5063f4af-2df5-4a8d-971c-2e45b710db02","ios":"levelo://app?vid=5063f4af-2df5-4a8d-971c-2e45b710db02"},"vehicle_type_id":"4","last_reported":1729930233,"current_range_meters":37600,"station_id":"ce4bhih2rcd13ifvqfs0","pricing_plan_id":"cebpf4jnsgd1na2vs0mg"},{"bike_id":"e16ba0fb-c8f9-4074-a1c8-ad626ad5602f","system_id":"levelo_inurba_marseille","lat":43.26941,"lon":5.4025,"is_reserved":false,"is_disabled":false,"rental_uris":{"android":"levelo://app?vid=e16ba0fb-c8f9-4074-a1c8-ad626ad5602f","ios":"levelo://app?vid=e16ba0fb-c8f9-4074-a1c8-ad626ad5602f"},"vehicle_type_id":"4","last_reported":1729930233,"current_range_meters":39200,"station_id":"cjm6bp8fraef2m0cb0m0","pricing_plan_id":"cebpf4jnsgd1na2vs0mg"},{"bike_id":"d442d14a-9d56-4dc0-bb62-0822a5b2b897","system_id":"levelo_inurba_marseille","lat":43.28572,"lon":5.39499,"is_reserved":false,"is_disabled":false,"rental_uris":{"android":"levelo://app?vid=d442d14a-9d56-4dc0-bb62-0822a5b2b897","ios":"levelo://app?vid=d442d14a-9d56-4dc0-bb62-0822a5b2b897"},"vehicle_type_id":"4","last_reported":1729930233,"current_range_meters":36000,"station_id":"ce4bh292rcd13ifvqdg0","pricing_plan_id":"cebpf4jnsgd1na2vs0mg"},{"bike_id":"6f3e4e8d-904a-4ca8-903f-1024e76f0255","system_id":"levelo_inurba_marseille","lat":43.26952,"lon":5.38632,"is_reserved":false,"is_disabled":false,"rental_uris":{"android":"levelo://app?vid=6f3e4e8d-904a-4ca8-903f-1024e76f0255","ios":"levelo://app?vid=6f3e4e8d-904a-4ca8-903f-1024e76f0255"},"vehicle_type_id":"4","last_reported":1729930233,"current_range_meters":34000,"station_id":"ce4bhh92rcd13ifvqfh0","pricing_plan_id":"cebpf4jnsgd1na2vs0mg"},{"bike_id":"88f0b2cc-53b3-42b9-84d9-bfcb4174f6d9","system_id":"levelo_inurba_marseille","lat":43.2873,"lon":5.36077,"is_reserved":false,"is_disabled":false,"rental_uris":{"android":"levelo://app?vid=88f0b2cc-53b3-42b9-84d9-bfcb4174f6d9","ios":"levelo://app?vid=88f0b2cc-53b3-42b9-84d9-bfcb4174f6d9"},"vehicle_type_id":"4","last_reported":1729930233,"current_range_meters":38800,"station_id":"cki0cbj6b192h4jlfktg","pricing_plan_id":"cebpf4jnsgd1na2vs0mg"},{"bike_id":"b0881bdd-5365-4764-89ed-3d6cfb647e2b","system_id":"levelo_inurba_marseille","lat":43.299103,"lon":5.384773,"is_reserved":false,"is_disabled":false,"rental_uris":{"android":"levelo://app?vid=b0881bdd-5365-4764-89ed-3d6cfb647e2b","ios":"levelo://app?vid=b0881bdd-5365-4764-89ed-3d6cfb647e2b"},"vehicle_type_id":"4","last_reported":1729930233,"current_range_meters":11200,"station_id":"ce4bgj92rcd13ifvqbd0","pricing_plan_id":"cebpf4jnsgd1na2vs0mg"},{"bike_id":"05f3612a-7bab-4410-9448-4f50dc6ad31b","system_id":"levelo_inurba_marseille","lat":43.24992,"lon":5.38942,"is_reserved":false,"is_disabled":false,"rental_uris":{"android":"levelo://app?vid=05f3612a-7bab-4410-9448-4f50dc6ad31b","ios":"levelo://app?vid=05f3612a-7bab-4410-9448-4f50dc6ad31b"},"vehicle_type_id":"4","last_reported":1729930233,"current_range_meters":36800,"station_id":"ce4bhgp2rcd13ifvqfd0","pricing_plan_id":"cebpf4jnsgd1na2vs0mg"},{"bike_id":"8f5de762-3d38-4fbf-ad46-7e38e402b2c1","system_id":"levelo_inurba_marseille","lat":43.30315,"lon":5.4045,"is_reserved":false,"is_disabled":false,"rental_uris":{"android":"levelo://app?vid=8f5de762-3d38-4fbf-ad46-7e38e402b2c1","ios":"levelo://app?vid=8f5de762-3d38-4fbf-ad46-7e38e402b2c1"},"vehicle_type_id":"4","last_reported":1729930233,"current_range_meters":26800,"station_id":"ce4bh012rcd13ifvqd10","pricing_plan_id":"cebpf4jnsgd1na2vs0mg"},{"bike_id":"81a79566-0322-46ac-900d-8d127f21c4ba","system_id":"levelo_inurba_marseille","lat":43.31757,"lon":5.39022,"is_reserved":false,"is_disabled":false,"rental_uris":{"android":"levelo://app?vid=81a79566-0322-46ac-900d-8d127f21c4ba","ios":"levelo://app?vid=81a79566-0322-46ac-900d-8d127f21c4ba"},"vehicle_type_id":"4","last_reported":1729930233,"current_range_meters":38800,"station_id":"ce4bhqp2rcd13ifvqhng","pricing_plan_id":"cebpf4jnsgd1na2vs0mg"},{"bike_id":"422509bb-657f-4af3-a452-01661c937b71","system_id":"levelo_inurba_marseille","lat":43.28439,"lon":5.39185,"is_reserved":false,"is_disabled":false,"rental_uris":{"android":"levelo://app?vid=422509bb-657f-4af3-a452-01661c937b71","ios":"levelo://app?vid=422509bb-657f-4af3-a452-01661c937b71"},"vehicle_type_id":"4","last_reported":1729930233,"current_range_meters":38800,"station_id":"ce4bhoh2rcd13ifvqh5g","pricing_plan_id":"cebpf4jnsgd1na2vs0mg"},{"bike_id":"0259f6d8-66cd-4178-a47f-0b7eb403ecb4","system_id":"levelo_inurba_marseille","lat":43.29551,"lon":5.36731,"is_reserved":false,"is_disabled":false,"rental_uris":{"android":"levelo://app?vid=0259f6d8-66cd-4178-a47f-0b7eb403ecb4","ios":"levelo://app?vid=0259f6d8-66cd-4178-a47f-0b7eb403ecb4"},"vehicle_type_id":"4","last_reported":1729930233,"current_range_meters":30000,"station_id":"ce4bgph2rcd13ifvqc2g","pricing_plan_id":"cebpf4jnsgd1na2vs0mg"},{"bike_id":"3a9bfb16-0c1d-4441-a397-be908d793bb9","system_id":"levelo_inurba_marseille","lat":43.2549,"lon":5.37649,"is_reserved":false,"is_disabled":false,"rental_uris":{"android":"levelo://app?vid=3a9bfb16-0c1d-4441-a397-be908d793bb9","ios":"levelo://app?vid=3a9bfb16-0c1d-4441-a397-be908d793bb9"},"vehicle_type_id":"4","last_reported":1729930233,"current_range_meters":34000,"station_id":"ce4bhh12rcd13ifvqff0","pricing_plan_id":"cebpf4jnsgd1na2vs0mg"},{"bike_id":"6c990c37-116e-41cb-a5de-cb44083ded54","system_id":"levelo_inurba_marseille","lat":43.28064,"lon":5.3964,"is_reserved":false,"is_disabled":false,"rental_uris":{"android":"levelo://app?vid=6c990c37-116e-41cb-a5de-cb44083ded54","ios":"levelo://app?vid=6c990c37-116e-41cb-a5de-cb44083ded54"},"vehicle_type_id":"4","last_reported":1729930233,"current_range_meters":39200,"station_id":"ce4bho12rcd13ifvqh2g","pricing_plan_id":"cebpf4jnsgd1na2vs0mg"},{"bike_id":"457011a0-e690-4a79-a04b-f72faa42e946","system_id":"levelo_inurba_marseille","lat":43.29297,"lon":5.37451,"is_reserved":false,"is_disabled":false,"rental_uris":{"android":"levelo://app?vid=457011a0-e690-4a79-a04b-f72faa42e946","ios":"levelo://app?vid=457011a0-e690-4a79-a04b-f72faa42e946"},"vehicle_type_id":"4","last_reported":1729930233,"current_range_meters":38800,"station_id":"ce4bgi12rcd13ifvqb70","pricing_plan_id":"cebpf4jnsgd1na2vs0mg"},{"bike_id":"5a2d60ec-7a22-4bee-9354-dac06b2e08b0","system_id":"levelo_inurba_marseille","lat":43.3054,"lon":5.38408,"is_reserved":false,"is_disabled":false,"rental_uris":{"android":"levelo://app?vid=5a2d60ec-7a22-4bee-9354-dac06b2e08b0","ios":"levelo://app?vid=5a2d60ec-7a22-4bee-9354-dac06b2e08b0"},"vehicle_type_id":"4","last_reported":1729930233,"current_range_meters":38800,"station_id":"ce4bgg92rcd13ifvqb30","pricing_plan_id":"cebpf4jnsgd1na2vs0mg"},{"bike_id":"ef41f448-5d02-4a4b-83b9-eb7c9dfe1fd4","system_id":"levelo_inurba_marseille","lat":43.28858,"lon":5.35846,"is_reserved":false,"is_disabled":false,"rental_uris":{"android":"levelo://app?vid=ef41f448-5d02-4a4b-83b9-eb7c9dfe1fd4","ios":"levelo://app?vid=ef41f448-5d02-4a4b-83b9-eb7c9dfe1fd4"},"vehicle_type_id":"4","last_reported":1729930233,"current_range_meters":26000,"station_id":"ce4bhb12rcd13ifvqem0","pricing_plan_id":"cebpf4jnsgd1na2vs0mg"},{"bike_id":"afb6496d-524d-4e4c-a835-a9db0d103750","system_id":"levelo_inurba_marseille","lat":43.33605,"lon":5.41015,"is_reserved":false,"is_disabled":false,"rental_uris":{"android":"levelo://app?vid=afb6496d-524d-4e4c-a835-a9db0d103750","ios":"levelo://app?vid=afb6496d-524d-4e4c-a835-a9db0d103750"},"vehicle_type_id":"4","last_reported":1729930233,"current_range_meters":38800,"station_id":"ce4bhqh2rcd13ifvqhmg","pricing_plan_id":"cebpf4jnsgd1na2vs0mg"},{"bike_id":"aa396cde-d0da-410d-9cdf-1538d4b7e19d","system_id":"levelo_inurba_marseille","lat":43.32448,"lon":5.38967,"is_reserved":false,"is_disabled":false,"rental_uris":{"android":"levelo://app?vid=aa396cde-d0da-410d-9cdf-1538d4b7e19d","ios":"levelo://app?vid=aa396cde-d0da-410d-9cdf-1538d4b7e19d"},"vehicle_type_id":"4","last_reported":1729930233,"current_range_meters":12400,"station_id":"","pricing_plan_id":"cebpf4jnsgd1na2vs0mg"},{"bike_id":"2c07bf12-9698-48a3-b58e-cca1f88b978d","system_id":"levelo_inurba_marseille","lat":43.29276,"lon":5.3685,"is_reserved":false,"is_disabled":false,"rental_uris":{"android":"levelo://app?vid=2c07bf12-9698-48a3-b58e-cca1f88b978d","ios":"levelo://app?vid=2c07bf12-9698-48a3-b58e-cca1f88b978d"},"vehicle_type_id":"4","last_reported":1729930233,"current_range_meters":27200,"station_id":"ce4bhbp2rcd13ifvqesg","pricing_plan_id":"cebpf4jnsgd1na2vs0mg"},{"bike_id":"073949a6-760d-41ad-99cd-aeba5d3f39da","system_id":"levelo_inurba_marseille","lat":43.25931,"lon":5.40909,"is_reserved":false,"is_disabled":false,"rental_uris":{"android":"levelo://app?vid=073949a6-760d-41ad-99cd-aeba5d3f39da","ios":"levelo://app?vid=073949a6-760d-41ad-99cd-aeba5d3f39da"},"vehicle_type_id":"4","last_reported":1729930233,"current_range_meters":36000,"station_id":"ce4bhm92rcd13ifvqglg","pricing_plan_id":"cebpf4jnsgd1na2vs0mg"},{"bike_id":"3656477c-b6ec-450a-9749-112d33db5b91","system_id":"levelo_inurba_marseille","lat":43.30467,"lon":5.37907,"is_reserved":false,"is_disabled":false,"rental_uris":{"android":"levelo://app?vid=3656477c-b6ec-450a-9749-112d33db5b91","ios":"levelo://app?vid=3656477c-b6ec-450a-9749-112d33db5b91"},"vehicle_type_id":"4","last_reported":1729930233,"current_range_meters":34800,"station_id":"ce4bgup2rcd13ifvqcn0","pricing_plan_id":"cebpf4jnsgd1na2vs0mg"},{"bike_id":"72d4fe02-7ad5-4cd4-aa12-822b9a78e2cb","system_id":"levelo_inurba_marseille","lat":43.309219,"lon":5.401507,"is_reserved":false,"is_disabled":false,"rental_uris":{"android":"levelo://app?vid=72d4fe02-7ad5-4cd4-aa12-822b9a78e2cb","ios":"levelo://app?vid=72d4fe02-7ad5-4cd4-aa12-822b9a78e2cb"},"vehicle_type_id":"4","last_reported":1729930233,"current_range_meters":37600,"station_id":"ce4bgvp2rcd13ifvqct0","pricing_plan_id":"cebpf4jnsgd1na2vs0mg"},{"bike_id":"c620abc8-2626-440f-878c-1efbd192a62e","system_id":"levelo_inurba_marseille","lat":43.25003,"lon":5.38929,"is_reserved":false,"is_disabled":false,"rental_uris":{"android":"levelo://app?vid=c620abc8-2626-440f-878c-1efbd192a62e","ios":"levelo://app?vid=c620abc8-2626-440f-878c-1efbd192a62e"},"vehicle_type_id":"4","last_reported":1729930233,"current_range_meters":38800,"station_id":"ce4bhgp2rcd13ifvqfd0","pricing_plan_id":"cebpf4jnsgd1na2vs0mg"},{"bike_id":"03c3662f-d9b5-485a-8a89-75c166e95f18","system_id":"levelo_inurba_marseille","lat":43.30155,"lon":5.38088,"is_reserved":false,"is_disabled":false,"rental_uris":{"android":"levelo://app?vid=03c3662f-d9b5-485a-8a89-75c166e95f18","ios":"levelo://app?vid=03c3662f-d9b5-485a-8a89-75c166e95f18"},"vehicle_type_id":"4","last_reported":1729930233,"current_range_meters":28000,"station_id":"ce4bgjp2rcd13ifvqbh0","pricing_plan_id":"cebpf4jnsgd1na2vs0mg"},{"bike_id":"48e86b98-5791-48d7-bd22-5c97543ca699","system_id":"levelo_inurba_marseille","lat":43.29583,"lon":5.36735,"is_reserved":false,"is_disabled":false,"rental_uris":{"android":"levelo://app?vid=48e86b98-5791-48d7-bd22-5c97543ca699","ios":"levelo://app?vid=48e86b98-5791-48d7-bd22-5c97543ca699"},"vehicle_type_id":"4","last_reported":1729930233,"current_range_meters":38400,"station_id":"ce4bgph2rcd13ifvqc2g","pricing_plan_id":"cebpf4jnsgd1na2vs0mg"},{"bike_id":"f73eb936-9c2a-478f-b577-3db04ff09a3e","system_id":"levelo_inurba_marseille","lat":43.29254,"lon":5.40905,"is_reserved":false,"is_disabled":false,"rental_uris":{"android":"levelo://app?vid=f73eb936-9c2a-478f-b577-3db04ff09a3e","ios":"levelo://app?vid=f73eb936-9c2a-478f-b577-3db04ff09a3e"},"vehicle_type_id":"4","last_reported":1729930233,"current_range_meters":37600,"station_id":"ce4bh192rcd13ifvqdc0","pricing_plan_id":"cebpf4jnsgd1na2vs0mg"},{"bike_id":"e00cefd2-b35f-4c6b-a657-0ed9ac2806c3","system_id":"levelo_inurba_marseille","lat":43.25112,"lon":5.40323,"is_reserved":false,"is_disabled":false,"rental_uris":{"android":"levelo://app?vid=e00cefd2-b35f-4c6b-a657-0ed9ac2806c3","ios":"levelo://app?vid=e00cefd2-b35f-4c6b-a657-0ed9ac2806c3"},"vehicle_type_id":"4","last_reported":1729930233,"current_range_meters":7200,"station_id":"ce4bhlh2rcd13ifvqgig","pricing_plan_id":"cebpf4jnsgd1na2vs0mg"},{"bike_id":"f4315c3d-1c70-4f5d-9cd1-2ff84d610473","system_id":"levelo_inurba_marseille","lat":43.26948,"lon":5.38645,"is_reserved":false,"is_disabled":false,"rental_uris":{"android":"levelo://app?vid=f4315c3d-1c70-4f5d-9cd1-2ff84d610473","ios":"levelo://app?vid=f4315c3d-1c70-4f5d-9cd1-2ff84d610473"},"vehicle_type_id":"4","last_reported":1729930233,"current_range_meters":35600,"station_id":"ce4bhh92rcd13ifvqfh0","pricing_plan_id":"cebpf4jnsgd1na2vs0mg"},{"bike_id":"0746b5ef-d14c-48d4-b50d-3a9822f0004c","system_id":"levelo_inurba_marseille","lat":43.22937,"lon":5.35378,"is_reserved":false,"is_disabled":false,"rental_uris":{"android":"levelo://app?vid=0746b5ef-d14c-48d4-b50d-3a9822f0004c","ios":"levelo://app?vid=0746b5ef-d14c-48d4-b50d-3a9822f0004c"},"vehicle_type_id":"4","last_reported":1729930233,"current_range_meters":37600,"station_id":"cpo3532slgdg3j2ikp40","pricing_plan_id":"cebpf4jnsgd1na2vs0mg"},{"bike_id":"914d2947-3b26-4608-bb0d-9b1e8fb3aa40","system_id":"levelo_inurba_marseille","lat":43.28155,"lon":5.42647,"is_reserved":false,"is_disabled":false,"rental_uris":{"android":"levelo://app?vid=914d2947-3b26-4608-bb0d-9b1e8fb3aa40","ios":"levelo://app?vid=914d2947-3b26-4608-bb0d-9b1e8fb3aa40"},"vehicle_type_id":"4","last_reported":1729930233,"current_range_meters":25600,"station_id":"ce4bhnh2rcd13ifvqgug","pricing_plan_id":"cebpf4jnsgd1na2vs0mg"},{"bike_id":"fcc3a32b-6373-425b-be0a-b1a445ac3c61","system_id":"levelo_inurba_marseille","lat":43.304859,"lon":5.401629,"is_reserved":false,"is_disabled":false,"rental_uris":{"android":"levelo://app?vid=fcc3a32b-6373-425b-be0a-b1a445ac3c61","ios":"levelo://app?vid=fcc3a32b-6373-425b-be0a-b1a445ac3c61"},"vehicle_type_id":"4","last_reported":1729930233,"current_range_meters":3600,"station_id":"ce4bgh92rcd13ifvqb50","pricing_plan_id":"cebpf4jnsgd1na2vs0mg"},{"bike_id":"81c7deda-6336-4578-a839-7ed7d808958d","system_id":"levelo_inurba_marseille","lat":43.305939,"lon":5.393678,"is_reserved":false,"is_disabled":false,"rental_uris":{"android":"levelo://app?vid=81c7deda-6336-4578-a839-7ed7d808958d","ios":"levelo://app?vid=81c7deda-6336-4578-a839-7ed7d808958d"},"vehicle_type_id":"4","last_reported":1729930233,"current_range_meters":24000,"station_id":"ce4bgr92rcd13ifvqc7g","pricing_plan_id":"cebpf4jnsgd1na2vs0mg"},{"bike_id":"9301cb24-76ce-463d-a0d4-e9352290ce27","system_id":"levelo_inurba_marseille","lat":43.25492,"lon":5.3765,"is_reserved":false,"is_disabled":false,"rental_uris":{"android":"levelo://app?vid=9301cb24-76ce-463d-a0d4-e9352290ce27","ios":"levelo://app?vid=9301cb24-76ce-463d-a0d4-e9352290ce27"},"vehicle_type_id":"4","last_reported":1729930233,"current_range_meters":38800,"station_id":"ce4bhh12rcd13ifvqff0","pricing_plan_id":"cebpf4jnsgd1na2vs0mg"},{"bike_id":"390643ba-64c4-4db5-ac2a-2b26eb43c28f","system_id":"levelo_inurba_marseille","lat":43.28034,"lon":5.36937,"is_reserved":false,"is_disabled":false,"rental_uris":{"android":"levelo://app?vid=390643ba-64c4-4db5-ac2a-2b26eb43c28f","ios":"levelo://app?vid=390643ba-64c4-4db5-ac2a-2b26eb43c28f"},"vehicle_type_id":"4","last_reported":1729930233,"current_range_meters":13600,"station_id":"ce4bha12rcd13ifvqef0","pricing_plan_id":"cebpf4jnsgd1na2vs0mg"},{"bike_id":"cc289784-ec6a-4911-8ff1-c9470d174337","system_id":"levelo_inurba_marseille","lat":43.30542,"lon":5.36534,"is_reserved":false,"is_disabled":false,"rental_uris":{"android":"levelo://app?vid=cc289784-ec6a-4911-8ff1-c9470d174337","ios":"levelo://app?vid=cc289784-ec6a-4911-8ff1-c9470d174337"},"vehicle_type_id":"4","last_reported":1729930233,"current_range_meters":31200,"station_id":"ce4bgs12rcd13ifvqcag","pricing_plan_id":"cebpf4jnsgd1na2vs0mg"},{"bike_id":"ef136fa5-257b-4ee5-bd73-f0de7405e6ba","system_id":"levelo_inurba_marseille","lat":43.24547,"lon":5.39524,"is_reserved":false,"is_disabled":false,"rental_uris":{"android":"levelo://app?vid=ef136fa5-257b-4ee5-bd73-f0de7405e6ba","ios":"levelo://app?vid=ef136fa5-257b-4ee5-bd73-f0de7405e6ba"},"vehicle_type_id":"4","last_reported":1729930233,"current_range_meters":30400,"station_id":"ce4bhlp2rcd13ifvqgjg","pricing_plan_id":"cebpf4jnsgd1na2vs0mg"},{"bike_id":"e256b553-dcf1-4269-9617-dc810ebecef1","system_id":"levelo_inurba_marseille","lat":43.30443,"lon":5.38895,"is_reserved":false,"is_disabled":false,"rental_uris":{"android":"levelo://app?vid=e256b553-dcf1-4269-9617-dc810ebecef1","ios":"levelo://app?vid=e256b553-dcf1-4269-9617-dc810ebecef1"},"vehicle_type_id":"4","last_reported":1729930233,"current_range_meters":30000,"station_id":"ce4bgk12rcd13ifvqbi0","pricing_plan_id":"cebpf4jnsgd1na2vs0mg"},{"bike_id":"5004519a-eca4-4739-9620-0c1d565549c1","system_id":"levelo_inurba_marseille","lat":43.23056,"lon":5.35498,"is_reserved":false,"is_disabled":false,"rental_uris":{"android":"levelo://app?vid=5004519a-eca4-4739-9620-0c1d565549c1","ios":"levelo://app?vid=5004519a-eca4-4739-9620-0c1d565549c1"},"vehicle_type_id":"4","last_reported":1729930233,"current_range_meters":16400,"station_id":"cpo3342slgdg3j2ifvpg","pricing_plan_id":"cebpf4jnsgd1na2vs0mg"},{"bike_id":"9488ca84-aa5e-4311-bde9-38d634703444","system_id":"levelo_inurba_marseille","lat":43.32478,"lon":5.36553,"is_reserved":false,"is_disabled":false,"rental_uris":{"android":"levelo://app?vid=9488ca84-aa5e-4311-bde9-38d634703444","ios":"levelo://app?vid=9488ca84-aa5e-4311-bde9-38d634703444"},"vehicle_type_id":"4","last_reported":1729930233,"current_range_meters":38000,"station_id":"ce4bhs12rcd13ifvqhvg","pricing_plan_id":"cebpf4jnsgd1na2vs0mg"},{"bike_id":"b83ce95a-eaaf-4c25-8adb-bc212fa6b570","system_id":"levelo_inurba_marseille","lat":43.24389,"lon":5.37055,"is_reserved":false,"is_disabled":false,"rental_uris":{"android":"levelo://app?vid=b83ce95a-eaaf-4c25-8adb-bc212fa6b570","ios":"levelo://app?vid=b83ce95a-eaaf-4c25-8adb-bc212fa6b570"},"vehicle_type_id":"4","last_reported":1729930233,"current_range_meters":36000,"station_id":"ce4bhhh2rcd13ifvqfk0","pricing_plan_id":"cebpf4jnsgd1na2vs0mg"},{"bike_id":"3c5ddb2f-20a7-4146-ac62-db8b76c8aa3c","system_id":"levelo_inurba_marseille","lat":43.26808,"lon":5.40257,"is_reserved":false,"is_disabled":false,"rental_uris":{"android":"levelo://app?vid=3c5ddb2f-20a7-4146-ac62-db8b76c8aa3c","ios":"levelo://app?vid=3c5ddb2f-20a7-4146-ac62-db8b76c8aa3c"},"vehicle_type_id":"4","last_reported":1729930233,"current_range_meters":28800,"station_id":"ce501612rcd8frsf0b60","pricing_plan_id":"cebpf4jnsgd1na2vs0mg"},{"bike_id":"19842355-7deb-4315-b718-98ced67fcc85","system_id":"levelo_inurba_marseille","lat":43.30416,"lon":5.39747,"is_reserved":false,"is_disabled":false,"rental_uris":{"android":"levelo://app?vid=19842355-7deb-4315-b718-98ced67fcc85","ios":"levelo://app?vid=19842355-7deb-4315-b718-98ced67fcc85"},"vehicle_type_id":"4","last_reported":1729930233,"current_range_meters":38800,"station_id":"ce4bh092rcd13ifvqd20","pricing_plan_id":"cebpf4jnsgd1na2vs0mg"},{"bike_id":"b4930aef-1e61-4824-8bc4-f63f1ec0274f","system_id":"levelo_inurba_marseille","lat":43.30609,"lon":5.37232,"is_reserved":false,"is_disabled":false,"rental_uris":{"android":"levelo://app?vid=b4930aef-1e61-4824-8bc4-f63f1ec0274f","ios":"levelo://app?vid=b4930aef-1e61-4824-8bc4-f63f1ec0274f"},"vehicle_type_id":"4","last_reported":1729930233,"current_range_meters":38800,"station_id":"ce4bgqh2rcd13ifvqc4g","pricing_plan_id":"cebpf4jnsgd1na2vs0mg"},{"bike_id":"a5c10523-9e0d-428e-859e-d6234f3b6b9f","system_id":"levelo_inurba_marseille","lat":43.298053,"lon":5.404053,"is_reserved":false,"is_disabled":false,"rental_uris":{"android":"levelo://app?vid=a5c10523-9e0d-428e-859e-d6234f3b6b9f","ios":"levelo://app?vid=a5c10523-9e0d-428e-859e-d6234f3b6b9f"},"vehicle_type_id":"4","last_reported":1729930233,"current_range_meters":38800,"station_id":"ce4bh112rcd13ifvqd90","pricing_plan_id":"cebpf4jnsgd1na2vs0mg"},{"bike_id":"601916c5-3274-4e01-863c-d96df39ce3b1","system_id":"levelo_inurba_marseille","lat":43.26563,"lon":5.39016,"is_reserved":false,"is_disabled":false,"rental_uris":{"android":"levelo://app?vid=601916c5-3274-4e01-863c-d96df39ce3b1","ios":"levelo://app?vid=601916c5-3274-4e01-863c-d96df39ce3b1"},"vehicle_type_id":"4","last_reported":1729930233,"current_range_meters":36800,"station_id":"ce4bhe12rcd13ifvqf30","pricing_plan_id":"cebpf4jnsgd1na2vs0mg"},{"bike_id":"14a76e75-36f8-4740-a470-b424aaf788f7","system_id":"levelo_inurba_marseille","lat":43.30466,"lon":5.379,"is_reserved":false,"is_disabled":false,"rental_uris":{"android":"levelo://app?vid=14a76e75-36f8-4740-a470-b424aaf788f7","ios":"levelo://app?vid=14a76e75-36f8-4740-a470-b424aaf788f7"},"vehicle_type_id":"4","last_reported":1729930233,"current_range_meters":38000,"station_id":"ce4bgup2rcd13ifvqcn0","pricing_plan_id":"cebpf4jnsgd1na2vs0mg"},{"bike_id":"dc72e49c-b26a-401b-87fe-367cb03380d0","system_id":"levelo_inurba_marseille","lat":43.28081,"lon":5.39649,"is_reserved":false,"is_disabled":false,"rental_uris":{"android":"levelo://app?vid=dc72e49c-b26a-401b-87fe-367cb03380d0","ios":"levelo://app?vid=dc72e49c-b26a-401b-87fe-367cb03380d0"},"vehicle_type_id":"4","last_reported":1729930233,"current_range_meters":18800,"station_id":"ce4bho12rcd13ifvqh2g","pricing_plan_id":"cebpf4jnsgd1na2vs0mg"},{"bike_id":"1fafbe93-2ba4-4077-bfcf-7b3992b30a25","system_id":"levelo_inurba_marseille","lat":43.29552,"lon":5.42279,"is_reserved":false,"is_disabled":false,"rental_uris":{"android":"levelo://app?vid=1fafbe93-2ba4-4077-bfcf-7b3992b30a25","ios":"levelo://app?vid=1fafbe93-2ba4-4077-bfcf-7b3992b30a25"},"vehicle_type_id":"4","last_reported":1729930233,"current_range_meters":38800,"station_id":"ce4bhph2rcd13ifvqhdg","pricing_plan_id":"cebpf4jnsgd1na2vs0mg"},{"bike_id":"7b9bb9f6-2747-4f5c-a936-06f552492e45","system_id":"levelo_inurba_marseille","lat":43.31723,"lon":5.42406,"is_reserved":false,"is_disabled":false,"rental_uris":{"android":"levelo://app?vid=7b9bb9f6-2747-4f5c-a936-06f552492e45","ios":"levelo://app?vid=7b9bb9f6-2747-4f5c-a936-06f552492e45"},"vehicle_type_id":"4","last_reported":1729930233,"current_range_meters":37600,"station_id":"ce4bhp92rcd13ifvqhbg","pricing_plan_id":"cebpf4jnsgd1na2vs0mg"},{"bike_id":"11cebba7-1aa4-4978-85a7-e76985581255","system_id":"levelo_inurba_marseille","lat":43.28943,"lon":5.3639,"is_reserved":false,"is_disabled":false,"rental_uris":{"android":"levelo://app?vid=11cebba7-1aa4-4978-85a7-e76985581255","ios":"levelo://app?vid=11cebba7-1aa4-4978-85a7-e76985581255"},"vehicle_type_id":"4","last_reported":1729930233,"current_range_meters":38000,"station_id":"ce4bhc92rcd13ifvqetg","pricing_plan_id":"cebpf4jnsgd1na2vs0mg"},{"bike_id":"a6a5412d-25cc-4ab7-8978-8b51410244f5","system_id":"levelo_inurba_marseille","lat":43.27909,"lon":5.39584,"is_reserved":false,"is_disabled":false,"rental_uris":{"android":"levelo://app?vid=a6a5412d-25cc-4ab7-8978-8b51410244f5","ios":"levelo://app?vid=a6a5412d-25cc-4ab7-8978-8b51410244f5"},"vehicle_type_id":"4","last_reported":1729930233,"current_range_meters":25200,"station_id":"ce4bhf92rcd13ifvqf40","pricing_plan_id":"cebpf4jnsgd1na2vs0mg"},{"bike_id":"096030e1-1159-49f0-8ef2-ade32ac0eadb","system_id":"levelo_inurba_marseille","lat":43.30137,"lon":5.39867,"is_reserved":false,"is_disabled":false,"rental_uris":{"android":"levelo://app?vid=096030e1-1159-49f0-8ef2-ade32ac0eadb","ios":"levelo://app?vid=096030e1-1159-49f0-8ef2-ade32ac0eadb"},"vehicle_type_id":"4","last_reported":1729930233,"current_range_meters":4800,"station_id":"ce4bh0h2rcd13ifvqd40","pricing_plan_id":"cebpf4jnsgd1na2vs0mg"},{"bike_id":"8a55373d-8f54-4890-9729-5db301ba9fa0","system_id":"levelo_inurba_marseille","lat":43.25006,"lon":5.38912,"is_reserved":false,"is_disabled":false,"rental_uris":{"android":"levelo://app?vid=8a55373d-8f54-4890-9729-5db301ba9fa0","ios":"levelo://app?vid=8a55373d-8f54-4890-9729-5db301ba9fa0"},"vehicle_type_id":"4","last_reported":1729930233,"current_range_meters":37600,"station_id":"ce4bhgp2rcd13ifvqfd0","pricing_plan_id":"cebpf4jnsgd1na2vs0mg"},{"bike_id":"b1e65eb1-5ea7-4ef4-9535-714de92c2353","system_id":"levelo_inurba_marseille","lat":43.29258,"lon":5.40902,"is_reserved":false,"is_disabled":false,"rental_uris":{"android":"levelo://app?vid=b1e65eb1-5ea7-4ef4-9535-714de92c2353","ios":"levelo://app?vid=b1e65eb1-5ea7-4ef4-9535-714de92c2353"},"vehicle_type_id":"4","last_reported":1729930233,"current_range_meters":38000,"station_id":"ce4bh192rcd13ifvqdc0","pricing_plan_id":"cebpf4jnsgd1na2vs0mg"},{"bike_id":"0b4b974f-f641-4d42-a918-a4bf5e5e1948","system_id":"levelo_inurba_marseille","lat":43.31325,"lon":5.39697,"is_reserved":false,"is_disabled":false,"rental_uris":{"android":"levelo://app?vid=0b4b974f-f641-4d42-a918-a4bf5e5e1948","ios":"levelo://app?vid=0b4b974f-f641-4d42-a918-a4bf5e5e1948"},"vehicle_type_id":"4","last_reported":1729930233,"current_range_meters":17200,"station_id":"ce4bgvp2rcd13ifvqcu0","pricing_plan_id":"cebpf4jnsgd1na2vs0mg"},{"bike_id":"da70e9bf-3d26-4094-a85b-3e437b201a37","system_id":"levelo_inurba_marseille","lat":43.28354,"lon":5.3811,"is_reserved":false,"is_disabled":false,"rental_uris":{"android":"levelo://app?vid=da70e9bf-3d26-4094-a85b-3e437b201a37","ios":"levelo://app?vid=da70e9bf-3d26-4094-a85b-3e437b201a37"},"vehicle_type_id":"4","last_reported":1729930233,"current_range_meters":10000,"station_id":"ce4bh412rcd13ifvqdr0","pricing_plan_id":"cebpf4jnsgd1na2vs0mg"},{"bike_id":"d69c50b6-009d-4b86-a209-155be199527e","system_id":"levelo_inurba_marseille","lat":43.31076,"lon":5.42431,"is_reserved":false,"is_disabled":false,"rental_uris":{"android":"levelo://app?vid=d69c50b6-009d-4b86-a209-155be199527e","ios":"levelo://app?vid=d69c50b6-009d-4b86-a209-155be199527e"},"vehicle_type_id":"4","last_reported":1729930233,"current_range_meters":38400,"station_id":"ce4bhp92rcd13ifvqhag","pricing_plan_id":"cebpf4jnsgd1na2vs0mg"},{"bike_id":"b1868a13-7208-439c-aa83-ff794adf1a87","system_id":"levelo_inurba_marseille","lat":43.26562,"lon":5.37286,"is_reserved":false,"is_disabled":false,"rental_uris":{"android":"levelo://app?vid=b1868a13-7208-439c-aa83-ff794adf1a87","ios":"levelo://app?vid=b1868a13-7208-439c-aa83-ff794adf1a87"},"vehicle_type_id":"4","last_reported":1729930233,"current_range_meters":31200,"station_id":"ce4bhg12rcd13ifvqf70","pricing_plan_id":"cebpf4jnsgd1na2vs0mg"},{"bike_id":"f52dc158-649d-4a31-90c8-1d3f191fd52c","system_id":"levelo_inurba_marseille","lat":43.27059,"lon":5.40262,"is_reserved":false,"is_disabled":false,"rental_uris":{"android":"levelo://app?vid=f52dc158-649d-4a31-90c8-1d3f191fd52c","ios":"levelo://app?vid=f52dc158-649d-4a31-90c8-1d3f191fd52c"},"vehicle_type_id":"4","last_reported":1729930233,"current_range_meters":7200,"station_id":"ce4bhk92rcd13ifvqgc0","pricing_plan_id":"cebpf4jnsgd1na2vs0mg"},{"bike_id":"5637d737-cee0-49b3-a5f5-cbb922172331","system_id":"levelo_inurba_marseille","lat":43.28033,"lon":5.36941,"is_reserved":false,"is_disabled":false,"rental_uris":{"android":"levelo://app?vid=5637d737-cee0-49b3-a5f5-cbb922172331","ios":"levelo://app?vid=5637d737-cee0-49b3-a5f5-cbb922172331"},"vehicle_type_id":"4","last_reported":1729930233,"current_range_meters":24400,"station_id":"ce4bha12rcd13ifvqef0","pricing_plan_id":"cebpf4jnsgd1na2vs0mg"},{"bike_id":"3dfc2240-d051-45c5-903a-cbe5b4c3094c","system_id":"levelo_inurba_marseille","lat":43.29162,"lon":5.37164,"is_reserved":false,"is_disabled":false,"rental_uris":{"android":"levelo://app?vid=3dfc2240-d051-45c5-903a-cbe5b4c3094c","ios":"levelo://app?vid=3dfc2240-d051-45c5-903a-cbe5b4c3094c"},"vehicle_type_id":"4","last_reported":1729930233,"current_range_meters":4000,"station_id":"ce4bha92rcd13ifvqeh0","pricing_plan_id":"cebpf4jnsgd1na2vs0mg"},{"bike_id":"1b59a9e3-68c1-4fbb-8907-893408c2c33a","system_id":"levelo_inurba_marseille","lat":43.30536,"lon":5.36533,"is_reserved":false,"is_disabled":false,"rental_uris":{"android":"levelo://app?vid=1b59a9e3-68c1-4fbb-8907-893408c2c33a","ios":"levelo://app?vid=1b59a9e3-68c1-4fbb-8907-893408c2c33a"},"vehicle_type_id":"4","last_reported":1729930233,"current_range_meters":38400,"station_id":"ce4bgs12rcd13ifvqcag","pricing_plan_id":"cebpf4jnsgd1na2vs0mg"},{"bike_id":"a57007c5-4677-4dd1-a320-66b5f5c3835a","system_id":"levelo_inurba_marseille","lat":43.29025,"lon":5.3756,"is_reserved":false,"is_disabled":false,"rental_uris":{"android":"levelo://app?vid=a57007c5-4677-4dd1-a320-66b5f5c3835a","ios":"levelo://app?vid=a57007c5-4677-4dd1-a320-66b5f5c3835a"},"vehicle_type_id":"4","last_reported":1729930233,"current_range_meters":22800,"station_id":"ce4bh692rcd13ifvqe90","pricing_plan_id":"cebpf4jnsgd1na2vs0mg"},{"bike_id":"dabf082d-dccc-49a8-894a-a1b30da61729","system_id":"levelo_inurba_marseille","lat":43.25573,"lon":5.3824,"is_reserved":false,"is_disabled":false,"rental_uris":{"android":"levelo://app?vid=dabf082d-dccc-49a8-894a-a1b30da61729","ios":"levelo://app?vid=dabf082d-dccc-49a8-894a-a1b30da61729"},"vehicle_type_id":"4","last_reported":1729930233,"current_range_meters":30800,"station_id":"ce4bhih2rcd13ifvqfs0","pricing_plan_id":"cebpf4jnsgd1na2vs0mg"},{"bike_id":"704ff70b-3044-4cc0-a1b3-72bc6b15acdb","system_id":"levelo_inurba_marseille","lat":43.28471,"lon":5.38541,"is_reserved":false,"is_disabled":false,"rental_uris":{"android":"levelo://app?vid=704ff70b-3044-4cc0-a1b3-72bc6b15acdb","ios":"levelo://app?vid=704ff70b-3044-4cc0-a1b3-72bc6b15acdb"},"vehicle_type_id":"4","last_reported":1729930233,"current_range_meters":38000,"station_id":"ce4bh8p2rcd13ifvqeb0","pricing_plan_id":"cebpf4jnsgd1na2vs0mg"},{"bike_id":"79c7ebe1-7a54-4b93-b68a-abae41a12b29","system_id":"levelo_inurba_marseille","lat":43.25008,"lon":5.38918,"is_reserved":false,"is_disabled":false,"rental_uris":{"android":"levelo://app?vid=79c7ebe1-7a54-4b93-b68a-abae41a12b29","ios":"levelo://app?vid=79c7ebe1-7a54-4b93-b68a-abae41a12b29"},"vehicle_type_id":"4","last_reported":1729930233,"current_range_meters":36800,"station_id":"ce4bhgp2rcd13ifvqfd0","pricing_plan_id":"cebpf4jnsgd1na2vs0mg"},{"bike_id":"53971d53-8b9e-434f-9a9c-03869e718154","system_id":"levelo_inurba_marseille","lat":43.30593,"lon":5.37214,"is_reserved":false,"is_disabled":false,"rental_uris":{"android":"levelo://app?vid=53971d53-8b9e-434f-9a9c-03869e718154","ios":"levelo://app?vid=53971d53-8b9e-434f-9a9c-03869e718154"},"vehicle_type_id":"4","last_reported":1729930233,"current_range_meters":34000,"station_id":"ce4bgqh2rcd13ifvqc4g","pricing_plan_id":"cebpf4jnsgd1na2vs0mg"},{"bike_id":"e60de47e-749c-435f-838a-f220bc14203d","system_id":"levelo_inurba_marseille","lat":43.30525,"lon":5.36731,"is_reserved":false,"is_disabled":false,"rental_uris":{"android":"levelo://app?vid=e60de47e-749c-435f-838a-f220bc14203d","ios":"levelo://app?vid=e60de47e-749c-435f-838a-f220bc14203d"},"vehicle_type_id":"4","last_reported":1729930233,"current_range_meters":38800,"station_id":"ce4bgrp2rcd13ifvqc9g","pricing_plan_id":"cebpf4jnsgd1na2vs0mg"},{"bike_id":"c3ebbc5b-25fd-4dd3-998f-772b34c825c0","system_id":"levelo_inurba_marseille","lat":43.23155,"lon":5.43705,"is_reserved":false,"is_disabled":false,"rental_uris":{"android":"levelo://app?vid=c3ebbc5b-25fd-4dd3-998f-772b34c825c0","ios":"levelo://app?vid=c3ebbc5b-25fd-4dd3-998f-772b34c825c0"},"vehicle_type_id":"4","last_reported":1729930233,"current_range_meters":23200,"station_id":"ce4bhmp2rcd13ifvqgog","pricing_plan_id":"cebpf4jnsgd1na2vs0mg"},{"bike_id":"5e840611-e92f-421a-a7b9-a27075e76721","system_id":"levelo_inurba_marseille","lat":43.27907,"lon":5.39582,"is_reserved":false,"is_disabled":false,"rental_uris":{"android":"levelo://app?vid=5e840611-e92f-421a-a7b9-a27075e76721","ios":"levelo://app?vid=5e840611-e92f-421a-a7b9-a27075e76721"},"vehicle_type_id":"4","last_reported":1729930233,"current_range_meters":28000,"station_id":"ce4bhf92rcd13ifvqf40","pricing_plan_id":"cebpf4jnsgd1na2vs0mg"},{"bike_id":"763f5dbb-276a-40ae-aed0-f11835e3b041","system_id":"levelo_inurba_marseille","lat":43.22936,"lon":5.35382,"is_reserved":false,"is_disabled":false,"rental_uris":{"android":"levelo://app?vid=763f5dbb-276a-40ae-aed0-f11835e3b041","ios":"levelo://app?vid=763f5dbb-276a-40ae-aed0-f11835e3b041"},"vehicle_type_id":"4","last_reported":1729930233,"current_range_meters":24000,"station_id":"cpo3532slgdg3j2ikp40","pricing_plan_id":"cebpf4jnsgd1na2vs0mg"},{"bike_id":"2859f777-21a7-4dd7-8510-e7ee4b93655d","system_id":"levelo_inurba_marseille","lat":43.291949,"lon":5.393259,"is_reserved":false,"is_disabled":false,"rental_uris":{"android":"levelo://app?vid=2859f777-21a7-4dd7-8510-e7ee4b93655d","ios":"levelo://app?vid=2859f777-21a7-4dd7-8510-e7ee4b93655d"},"vehicle_type_id":"4","last_reported":1729930233,"current_range_meters":28400,"station_id":"ce4bh192rcd13ifvqdd0","pricing_plan_id":"cebpf4jnsgd1na2vs0mg"},{"bike_id":"a4cdb9e2-dcee-478e-b833-1e72009d3ae3","system_id":"levelo_inurba_marseille","lat":43.30417,"lon":5.4128,"is_reserved":false,"is_disabled":false,"rental_uris":{"android":"levelo://app?vid=a4cdb9e2-dcee-478e-b833-1e72009d3ae3","ios":"levelo://app?vid=a4cdb9e2-dcee-478e-b833-1e72009d3ae3"},"vehicle_type_id":"4","last_reported":1729930233,"current_range_meters":6800,"station_id":"ce4bhop2rcd13ifvqh8g","pricing_plan_id":"cebpf4jnsgd1na2vs0mg"},{"bike_id":"e1ccd76e-2e57-40bf-9d19-91efe5b51e12","system_id":"levelo_inurba_marseille","lat":43.27956,"lon":5.3871,"is_reserved":false,"is_disabled":false,"rental_uris":{"android":"levelo://app?vid=e1ccd76e-2e57-40bf-9d19-91efe5b51e12","ios":"levelo://app?vid=e1ccd76e-2e57-40bf-9d19-91efe5b51e12"},"vehicle_type_id":"4","last_reported":1729930233,"current_range_meters":27600,"station_id":"ce4bhg12rcd13ifvqf80","pricing_plan_id":"cebpf4jnsgd1na2vs0mg"},{"bike_id":"8d3de022-1840-4394-b9b3-f80b84447bd1","system_id":"levelo_inurba_marseille","lat":43.288666,"lon":5.382223,"is_reserved":false,"is_disabled":false,"rental_uris":{"android":"levelo://app?vid=8d3de022-1840-4394-b9b3-f80b84447bd1","ios":"levelo://app?vid=8d3de022-1840-4394-b9b3-f80b84447bd1"},"vehicle_type_id":"4","last_reported":1729930233,"current_range_meters":36400,"station_id":"ce4bh4p2rcd13ifvqe1g","pricing_plan_id":"cebpf4jnsgd1na2vs0mg"},{"bike_id":"a1e6990a-5dc5-4a6d-b2aa-31a148a301d2","system_id":"levelo_inurba_marseille","lat":43.25864,"lon":5.39897,"is_reserved":false,"is_disabled":false,"rental_uris":{"android":"levelo://app?vid=a1e6990a-5dc5-4a6d-b2aa-31a148a301d2","ios":"levelo://app?vid=a1e6990a-5dc5-4a6d-b2aa-31a148a301d2"},"vehicle_type_id":"4","last_reported":1729930233,"current_range_meters":16400,"station_id":"ce4bhl92rcd13ifvqghg","pricing_plan_id":"cebpf4jnsgd1na2vs0mg"},{"bike_id":"d7ff7165-6d5c-4f76-865c-b2ea1a2a3c7a","system_id":"levelo_inurba_marseille","lat":43.27488,"lon":5.42458,"is_reserved":false,"is_disabled":false,"rental_uris":{"android":"levelo://app?vid=d7ff7165-6d5c-4f76-865c-b2ea1a2a3c7a","ios":"levelo://app?vid=d7ff7165-6d5c-4f76-865c-b2ea1a2a3c7a"},"vehicle_type_id":"4","last_reported":1729930233,"current_range_meters":11600,"station_id":"ce4bhn92rcd13ifvqgrg","pricing_plan_id":"cebpf4jnsgd1na2vs0mg"},{"bike_id":"8e42b3be-805b-441e-a13b-941040a51243","system_id":"levelo_inurba_marseille","lat":43.29221,"lon":5.36286,"is_reserved":false,"is_disabled":false,"rental_uris":{"android":"levelo://app?vid=8e42b3be-805b-441e-a13b-941040a51243","ios":"levelo://app?vid=8e42b3be-805b-441e-a13b-941040a51243"},"vehicle_type_id":"4","last_reported":1729930233,"current_range_meters":34800,"station_id":"","pricing_plan_id":"cebpf4jnsgd1na2vs0mg"},{"bike_id":"59c93f1a-0f0c-44ee-beca-fe425b8a5fc5","system_id":"levelo_inurba_marseille","lat":43.29231,"lon":5.36071,"is_reserved":false,"is_disabled":false,"rental_uris":{"android":"levelo://app?vid=59c93f1a-0f0c-44ee-beca-fe425b8a5fc5","ios":"levelo://app?vid=59c93f1a-0f0c-44ee-beca-fe425b8a5fc5"},"vehicle_type_id":"4","last_reported":1729930233,"current_range_meters":30800,"station_id":"ce4bhbh2rcd13ifvqeqg","pricing_plan_id":"cebpf4jnsgd1na2vs0mg"},{"bike_id":"6e741f56-2372-478e-abd8-56fec2a720be","system_id":"levelo_inurba_marseille","lat":43.30935,"lon":5.40143,"is_reserved":false,"is_disabled":false,"rental_uris":{"android":"levelo://app?vid=6e741f56-2372-478e-abd8-56fec2a720be","ios":"levelo://app?vid=6e741f56-2372-478e-abd8-56fec2a720be"},"vehicle_type_id":"4","last_reported":1729930233,"current_range_meters":38800,"station_id":"ce4bgvp2rcd13ifvqct0","pricing_plan_id":"cebpf4jnsgd1na2vs0mg"},{"bike_id":"8001b44d-9ab0-46f5-80ea-c34d9f92effc","system_id":"levelo_inurba_marseille","lat":43.26935,"lon":5.40251,"is_reserved":false,"is_disabled":false,"rental_uris":{"android":"levelo://app?vid=8001b44d-9ab0-46f5-80ea-c34d9f92effc","ios":"levelo://app?vid=8001b44d-9ab0-46f5-80ea-c34d9f92effc"},"vehicle_type_id":"4","last_reported":1729930233,"current_range_meters":39200,"station_id":"cjm6bp8fraef2m0cb0m0","pricing_plan_id":"cebpf4jnsgd1na2vs0mg"},{"bike_id":"17243270-b8a4-4820-bfc1-f4893a87f2a4","system_id":"levelo_inurba_marseille","lat":43.25014,"lon":5.38937,"is_reserved":false,"is_disabled":false,"rental_uris":{"android":"levelo://app?vid=17243270-b8a4-4820-bfc1-f4893a87f2a4","ios":"levelo://app?vid=17243270-b8a4-4820-bfc1-f4893a87f2a4"},"vehicle_type_id":"4","last_reported":1729930233,"current_range_meters":36400,"station_id":"ce4bhgp2rcd13ifvqfd0","pricing_plan_id":"cebpf4jnsgd1na2vs0mg"},{"bike_id":"646a0d82-bbd3-42a2-855d-b1dae65147bd","system_id":"levelo_inurba_marseille","lat":43.3008,"lon":5.39068,"is_reserved":false,"is_disabled":false,"rental_uris":{"android":"levelo://app?vid=646a0d82-bbd3-42a2-855d-b1dae65147bd","ios":"levelo://app?vid=646a0d82-bbd3-42a2-855d-b1dae65147bd"},"vehicle_type_id":"4","last_reported":1729930233,"current_range_meters":18800,"station_id":"ce4bh192rcd13ifvqdb0","pricing_plan_id":"cebpf4jnsgd1na2vs0mg"},{"bike_id":"28c3e1e4-e1b5-4e9c-b493-956ac9bd0c5f","system_id":"levelo_inurba_marseille","lat":43.28274,"lon":5.35075,"is_reserved":false,"is_disabled":false,"rental_uris":{"android":"levelo://app?vid=28c3e1e4-e1b5-4e9c-b493-956ac9bd0c5f","ios":"levelo://app?vid=28c3e1e4-e1b5-4e9c-b493-956ac9bd0c5f"},"vehicle_type_id":"4","last_reported":1729930233,"current_range_meters":24800,"station_id":"ce4bhbp2rcd13ifvqerg","pricing_plan_id":"cebpf4jnsgd1na2vs0mg"},{"bike_id":"2cfb003c-7d5b-45be-9b2f-27b2186dc8e4","system_id":"levelo_inurba_marseille","lat":43.30098,"lon":5.39081,"is_reserved":false,"is_disabled":false,"rental_uris":{"android":"levelo://app?vid=2cfb003c-7d5b-45be-9b2f-27b2186dc8e4","ios":"levelo://app?vid=2cfb003c-7d5b-45be-9b2f-27b2186dc8e4"},"vehicle_type_id":"4","last_reported":1729930233,"current_range_meters":27200,"station_id":"ce4bh192rcd13ifvqdb0","pricing_plan_id":"cebpf4jnsgd1na2vs0mg"},{"bike_id":"d4aec44f-ddca-4104-91b2-0d4ceaa50166","system_id":"levelo_inurba_marseille","lat":43.28078,"lon":5.39652,"is_reserved":false,"is_disabled":false,"rental_uris":{"android":"levelo://app?vid=d4aec44f-ddca-4104-91b2-0d4ceaa50166","ios":"levelo://app?vid=d4aec44f-ddca-4104-91b2-0d4ceaa50166"},"vehicle_type_id":"4","last_reported":1729930233,"current_range_meters":38800,"station_id":"ce4bho12rcd13ifvqh2g","pricing_plan_id":"cebpf4jnsgd1na2vs0mg"},{"bike_id":"3d52c75e-21c8-425b-a6d2-0cf7c2a167ed","system_id":"levelo_inurba_marseille","lat":43.28625,"lon":5.40778,"is_reserved":false,"is_disabled":false,"rental_uris":{"android":"levelo://app?vid=3d52c75e-21c8-425b-a6d2-0cf7c2a167ed","ios":"levelo://app?vid=3d52c75e-21c8-425b-a6d2-0cf7c2a167ed"},"vehicle_type_id":"4","last_reported":1729930233,"current_range_meters":10000,"station_id":"","pricing_plan_id":"cebpf4jnsgd1na2vs0mg"},{"bike_id":"f9dd0103-b045-4d3e-97f0-feaf4a2d3923","system_id":"levelo_inurba_marseille","lat":43.24999,"lon":5.38912,"is_reserved":false,"is_disabled":false,"rental_uris":{"android":"levelo://app?vid=f9dd0103-b045-4d3e-97f0-feaf4a2d3923","ios":"levelo://app?vid=f9dd0103-b045-4d3e-97f0-feaf4a2d3923"},"vehicle_type_id":"4","last_reported":1729930233,"current_range_meters":10000,"station_id":"ce4bhgp2rcd13ifvqfd0","pricing_plan_id":"cebpf4jnsgd1na2vs0mg"},{"bike_id":"225be540-bd75-4636-8a6a-362c5613f52a","system_id":"levelo_inurba_marseille","lat":43.27927,"lon":5.39586,"is_reserved":false,"is_disabled":false,"rental_uris":{"android":"levelo://app?vid=225be540-bd75-4636-8a6a-362c5613f52a","ios":"levelo://app?vid=225be540-bd75-4636-8a6a-362c5613f52a"},"vehicle_type_id":"4","last_reported":1729930233,"current_range_meters":18800,"station_id":"ce4bhf92rcd13ifvqf40","pricing_plan_id":"cebpf4jnsgd1na2vs0mg"},{"bike_id":"45762a51-15f0-4a01-8913-533a2ec0e59b","system_id":"levelo_inurba_marseille","lat":43.31081,"lon":5.42432,"is_reserved":false,"is_disabled":false,"rental_uris":{"android":"levelo://app?vid=45762a51-15f0-4a01-8913-533a2ec0e59b","ios":"levelo://app?vid=45762a51-15f0-4a01-8913-533a2ec0e59b"},"vehicle_type_id":"4","last_reported":1729930233,"current_range_meters":33600,"station_id":"ce4bhp92rcd13ifvqhag","pricing_plan_id":"cebpf4jnsgd1na2vs0mg"},{"bike_id":"e1ea2c5e-7a0f-4ae9-b338-6ca6bde018f8","system_id":"levelo_inurba_marseille","lat":43.29232,"lon":5.36063,"is_reserved":false,"is_disabled":false,"rental_uris":{"android":"levelo://app?vid=e1ea2c5e-7a0f-4ae9-b338-6ca6bde018f8","ios":"levelo://app?vid=e1ea2c5e-7a0f-4ae9-b338-6ca6bde018f8"},"vehicle_type_id":"4","last_reported":1729930233,"current_range_meters":27600,"station_id":"ce4bhbh2rcd13ifvqeqg","pricing_plan_id":"cebpf4jnsgd1na2vs0mg"},{"bike_id":"decdba8b-31d0-4eb2-8b10-c3fc588ba4d6","system_id":"levelo_inurba_marseille","lat":43.29979,"lon":5.38495,"is_reserved":false,"is_disabled":false,"rental_uris":{"android":"levelo://app?vid=decdba8b-31d0-4eb2-8b10-c3fc588ba4d6","ios":"levelo://app?vid=decdba8b-31d0-4eb2-8b10-c3fc588ba4d6"},"vehicle_type_id":"4","last_reported":1729930233,"current_range_meters":25200,"station_id":"ce4bgj92rcd13ifvqbd0","pricing_plan_id":"cebpf4jnsgd1na2vs0mg"},{"bike_id":"7817fd80-4bd6-4bd9-9d15-f5ea0c629181","system_id":"levelo_inurba_marseille","lat":43.30953,"lon":5.39056,"is_reserved":false,"is_disabled":false,"rental_uris":{"android":"levelo://app?vid=7817fd80-4bd6-4bd9-9d15-f5ea0c629181","ios":"levelo://app?vid=7817fd80-4bd6-4bd9-9d15-f5ea0c629181"},"vehicle_type_id":"4","last_reported":1729930233,"current_range_meters":40000,"station_id":"ce4bgup2rcd13ifvqco0","pricing_plan_id":"cebpf4jnsgd1na2vs0mg"},{"bike_id":"5c7cc9ca-785e-4c74-abc3-04fb91dbf0bc","system_id":"levelo_inurba_marseille","lat":43.2621,"lon":5.374636,"is_reserved":false,"is_disabled":false,"rental_uris":{"android":"levelo://app?vid=5c7cc9ca-785e-4c74-abc3-04fb91dbf0bc","ios":"levelo://app?vid=5c7cc9ca-785e-4c74-abc3-04fb91dbf0bc"},"vehicle_type_id":"4","last_reported":1729930233,"current_range_meters":38000,"station_id":"ce4bhgp2rcd13ifvqfc0","pricing_plan_id":"cebpf4jnsgd1na2vs0mg"},{"bike_id":"9710488d-6aae-4f66-a1e4-52e8e4c71cf2","system_id":"levelo_inurba_marseille","lat":43.32362,"lon":5.38882,"is_reserved":false,"is_disabled":false,"rental_uris":{"android":"levelo://app?vid=9710488d-6aae-4f66-a1e4-52e8e4c71cf2","ios":"levelo://app?vid=9710488d-6aae-4f66-a1e4-52e8e4c71cf2"},"vehicle_type_id":"4","last_reported":1729930233,"current_range_meters":9600,"station_id":"ce4bhqp2rcd13ifvqhog","pricing_plan_id":"cebpf4jnsgd1na2vs0mg"},{"bike_id":"e84e856c-cb91-40cb-8475-874a7429eb26","system_id":"levelo_inurba_marseille","lat":43.3171,"lon":5.37748,"is_reserved":false,"is_disabled":false,"rental_uris":{"android":"levelo://app?vid=e84e856c-cb91-40cb-8475-874a7429eb26","ios":"levelo://app?vid=e84e856c-cb91-40cb-8475-874a7429eb26"},"vehicle_type_id":"4","last_reported":1729930233,"current_range_meters":35200,"station_id":"ce4bgth2rcd13ifvqch0","pricing_plan_id":"cebpf4jnsgd1na2vs0mg"},{"bike_id":"02f22de0-43a3-419b-ab86-64ec1edb08c8","system_id":"levelo_inurba_marseille","lat":43.31327,"lon":5.39695,"is_reserved":false,"is_disabled":false,"rental_uris":{"android":"levelo://app?vid=02f22de0-43a3-419b-ab86-64ec1edb08c8","ios":"levelo://app?vid=02f22de0-43a3-419b-ab86-64ec1edb08c8"},"vehicle_type_id":"4","last_reported":1729930233,"current_range_meters":38800,"station_id":"ce4bgvp2rcd13ifvqcu0","pricing_plan_id":"cebpf4jnsgd1na2vs0mg"},{"bike_id":"5037e2e2-f258-48c6-a031-6f1a1dd240dc","system_id":"levelo_inurba_marseille","lat":43.30426,"lon":5.41281,"is_reserved":false,"is_disabled":false,"rental_uris":{"android":"levelo://app?vid=5037e2e2-f258-48c6-a031-6f1a1dd240dc","ios":"levelo://app?vid=5037e2e2-f258-48c6-a031-6f1a1dd240dc"},"vehicle_type_id":"4","last_reported":1729930233,"current_range_meters":39200,"station_id":"ce4bhop2rcd13ifvqh8g","pricing_plan_id":"cebpf4jnsgd1na2vs0mg"},{"bike_id":"f2cb81a4-6a11-4b7c-90b5-d7c4dd5956f0","system_id":"levelo_inurba_marseille","lat":43.272098,"lon":5.391849,"is_reserved":false,"is_disabled":false,"rental_uris":{"android":"levelo://app?vid=f2cb81a4-6a11-4b7c-90b5-d7c4dd5956f0","ios":"levelo://app?vid=f2cb81a4-6a11-4b7c-90b5-d7c4dd5956f0"},"vehicle_type_id":"4","last_reported":1729930233,"current_range_meters":38800,"station_id":"ce4bhhp2rcd13ifvqfm0","pricing_plan_id":"cebpf4jnsgd1na2vs0mg"},{"bike_id":"8472db42-f353-40ae-9055-b7489182c927","system_id":"levelo_inurba_marseille","lat":43.2737,"lon":5.36255,"is_reserved":false,"is_disabled":false,"rental_uris":{"android":"levelo://app?vid=8472db42-f353-40ae-9055-b7489182c927","ios":"levelo://app?vid=8472db42-f353-40ae-9055-b7489182c927"},"vehicle_type_id":"4","last_reported":1729930233,"current_range_meters":36000,"station_id":"ce4bhbh2rcd13ifvqeo0","pricing_plan_id":"cebpf4jnsgd1na2vs0mg"},{"bike_id":"7d588577-bc2a-4592-9242-f82e8e35c359","system_id":"levelo_inurba_marseille","lat":43.24803,"lon":5.37456,"is_reserved":false,"is_disabled":false,"rental_uris":{"android":"levelo://app?vid=7d588577-bc2a-4592-9242-f82e8e35c359","ios":"levelo://app?vid=7d588577-bc2a-4592-9242-f82e8e35c359"},"vehicle_type_id":"4","last_reported":1729930233,"current_range_meters":38800,"station_id":"ce4bhgh2rcd13ifvqfb0","pricing_plan_id":"cebpf4jnsgd1na2vs0mg"},{"bike_id":"e37957ed-f5f8-4cfe-a795-d93f2b341fe5","system_id":"levelo_inurba_marseille","lat":43.28444,"lon":5.39188,"is_reserved":false,"is_disabled":false,"rental_uris":{"android":"levelo://app?vid=e37957ed-f5f8-4cfe-a795-d93f2b341fe5","ios":"levelo://app?vid=e37957ed-f5f8-4cfe-a795-d93f2b341fe5"},"vehicle_type_id":"4","last_reported":1729930233,"current_range_meters":27600,"station_id":"ce4bhoh2rcd13ifvqh5g","pricing_plan_id":"cebpf4jnsgd1na2vs0mg"},{"bike_id":"f6a5ef30-cd45-4f33-acc1-40cc262286be","system_id":"levelo_inurba_marseille","lat":43.26947,"lon":5.40249,"is_reserved":false,"is_disabled":false,"rental_uris":{"android":"levelo://app?vid=f6a5ef30-cd45-4f33-acc1-40cc262286be","ios":"levelo://app?vid=f6a5ef30-cd45-4f33-acc1-40cc262286be"},"vehicle_type_id":"4","last_reported":1729930233,"current_range_meters":39200,"station_id":"cjm6bp8fraef2m0cb0m0","pricing_plan_id":"cebpf4jnsgd1na2vs0mg"},{"bike_id":"4746fe8f-a6ef-4e1b-aaef-5a4b9fc83054","system_id":"levelo_inurba_marseille","lat":43.29895,"lon":5.43667,"is_reserved":false,"is_disabled":false,"rental_uris":{"android":"levelo://app?vid=4746fe8f-a6ef-4e1b-aaef-5a4b9fc83054","ios":"levelo://app?vid=4746fe8f-a6ef-4e1b-aaef-5a4b9fc83054"},"vehicle_type_id":"4","last_reported":1729930233,"current_range_meters":38400,"station_id":"ce4bhpp2rcd13ifvqhfg","pricing_plan_id":"cebpf4jnsgd1na2vs0mg"},{"bike_id":"4e638b58-5cf0-405e-95fe-39dbe3c5f18c","system_id":"levelo_inurba_marseille","lat":43.2465,"lon":5.38896,"is_reserved":false,"is_disabled":false,"rental_uris":{"android":"levelo://app?vid=4e638b58-5cf0-405e-95fe-39dbe3c5f18c","ios":"levelo://app?vid=4e638b58-5cf0-405e-95fe-39dbe3c5f18c"},"vehicle_type_id":"4","last_reported":1729930233,"current_range_meters":16800,"station_id":"ce4bhg12rcd13ifvqf60","pricing_plan_id":"cebpf4jnsgd1na2vs0mg"},{"bike_id":"386c6a7e-cd6c-4112-aa78-c50040cf1776","system_id":"levelo_inurba_marseille","lat":43.25082,"lon":5.3952,"is_reserved":false,"is_disabled":false,"rental_uris":{"android":"levelo://app?vid=386c6a7e-cd6c-4112-aa78-c50040cf1776","ios":"levelo://app?vid=386c6a7e-cd6c-4112-aa78-c50040cf1776"},"vehicle_type_id":"4","last_reported":1729930233,"current_range_meters":38800,"station_id":"ce4bhm12rcd13ifvqgkg","pricing_plan_id":"cebpf4jnsgd1na2vs0mg"},{"bike_id":"1907d8d2-f943-4c83-ba60-72fc7bbe4b50","system_id":"levelo_inurba_marseille","lat":43.30472,"lon":5.37904,"is_reserved":false,"is_disabled":false,"rental_uris":{"android":"levelo://app?vid=1907d8d2-f943-4c83-ba60-72fc7bbe4b50","ios":"levelo://app?vid=1907d8d2-f943-4c83-ba60-72fc7bbe4b50"},"vehicle_type_id":"4","last_reported":1729930233,"current_range_meters":38000,"station_id":"ce4bgup2rcd13ifvqcn0","pricing_plan_id":"cebpf4jnsgd1na2vs0mg"},{"bike_id":"9befed88-9f8c-464c-b07b-093bd97066bb","system_id":"levelo_inurba_marseille","lat":43.29805,"lon":5.37136,"is_reserved":false,"is_disabled":false,"rental_uris":{"android":"levelo://app?vid=9befed88-9f8c-464c-b07b-093bd97066bb","ios":"levelo://app?vid=9befed88-9f8c-464c-b07b-093bd97066bb"},"vehicle_type_id":"4","last_reported":1729930233,"current_range_meters":25200,"station_id":"","pricing_plan_id":"cebpf4jnsgd1na2vs0mg"},{"bike_id":"d0637418-25a0-4407-98d1-47ab6883e34c","system_id":"levelo_inurba_marseille","lat":43.30137,"lon":5.37415,"is_reserved":false,"is_disabled":false,"rental_uris":{"android":"levelo://app?vid=d0637418-25a0-4407-98d1-47ab6883e34c","ios":"levelo://app?vid=d0637418-25a0-4407-98d1-47ab6883e34c"},"vehicle_type_id":"4","last_reported":1729930233,"current_range_meters":39200,"station_id":"ce4bgs92rcd13ifvqcc0","pricing_plan_id":"cebpf4jnsgd1na2vs0mg"},{"bike_id":"df9c8671-6383-46e2-af96-c49cea052fec","system_id":"levelo_inurba_marseille","lat":43.28442,"lon":5.39192,"is_reserved":false,"is_disabled":false,"rental_uris":{"android":"levelo://app?vid=df9c8671-6383-46e2-af96-c49cea052fec","ios":"levelo://app?vid=df9c8671-6383-46e2-af96-c49cea052fec"},"vehicle_type_id":"4","last_reported":1729930233,"current_range_meters":6400,"station_id":"ce4bhoh2rcd13ifvqh5g","pricing_plan_id":"cebpf4jnsgd1na2vs0mg"},{"bike_id":"b5c3b916-9cba-42bd-ac7b-7ae08a96e7eb","system_id":"levelo_inurba_marseille","lat":43.278353,"lon":5.392149,"is_reserved":false,"is_disabled":false,"rental_uris":{"android":"levelo://app?vid=b5c3b916-9cba-42bd-ac7b-7ae08a96e7eb","ios":"levelo://app?vid=b5c3b916-9cba-42bd-ac7b-7ae08a96e7eb"},"vehicle_type_id":"4","last_reported":1729930233,"current_range_meters":33600,"station_id":"ce4bhjp2rcd13ifvqga0","pricing_plan_id":"cebpf4jnsgd1na2vs0mg"},{"bike_id":"e846bf39-eb2c-4a09-9d40-ced19cf703d6","system_id":"levelo_inurba_marseille","lat":43.28857,"lon":5.39311,"is_reserved":false,"is_disabled":false,"rental_uris":{"android":"levelo://app?vid=e846bf39-eb2c-4a09-9d40-ced19cf703d6","ios":"levelo://app?vid=e846bf39-eb2c-4a09-9d40-ced19cf703d6"},"vehicle_type_id":"4","last_reported":1729930233,"current_range_meters":39200,"station_id":"ce4bh2p2rcd13ifvqdi0","pricing_plan_id":"cebpf4jnsgd1na2vs0mg"},{"bike_id":"3c962cc6-b107-4188-88be-2b8cdb861df0","system_id":"levelo_inurba_marseille","lat":43.29584,"lon":5.37508,"is_reserved":false,"is_disabled":false,"rental_uris":{"android":"levelo://app?vid=3c962cc6-b107-4188-88be-2b8cdb861df0","ios":"levelo://app?vid=3c962cc6-b107-4188-88be-2b8cdb861df0"},"vehicle_type_id":"4","last_reported":1729930233,"current_range_meters":38400,"station_id":"ce4bgh92rcd13ifvqb50","pricing_plan_id":"cebpf4jnsgd1na2vs0mg"},{"bike_id":"1178cda2-5c3a-4d86-b4d3-b676154bd669","system_id":"levelo_inurba_marseille","lat":43.2718,"lon":5.40987,"is_reserved":false,"is_disabled":false,"rental_uris":{"android":"levelo://app?vid=1178cda2-5c3a-4d86-b4d3-b676154bd669","ios":"levelo://app?vid=1178cda2-5c3a-4d86-b4d3-b676154bd669"},"vehicle_type_id":"4","last_reported":1729930233,"current_range_meters":38800,"station_id":"ce4bhl12rcd13ifvqgf0","pricing_plan_id":"cebpf4jnsgd1na2vs0mg"},{"bike_id":"9f741eb8-4308-4511-8be3-1cde4f07cf7e","system_id":"levelo_inurba_marseille","lat":43.25867,"lon":5.39902,"is_reserved":false,"is_disabled":false,"rental_uris":{"android":"levelo://app?vid=9f741eb8-4308-4511-8be3-1cde4f07cf7e","ios":"levelo://app?vid=9f741eb8-4308-4511-8be3-1cde4f07cf7e"},"vehicle_type_id":"4","last_reported":1729930233,"current_range_meters":34800,"station_id":"ce4bhl92rcd13ifvqghg","pricing_plan_id":"cebpf4jnsgd1na2vs0mg"},{"bike_id":"b8fbf6cb-4344-49f0-aa51-6bf07fd511fe","system_id":"levelo_inurba_marseille","lat":43.2549,"lon":5.37646,"is_reserved":false,"is_disabled":false,"rental_uris":{"android":"levelo://app?vid=b8fbf6cb-4344-49f0-aa51-6bf07fd511fe","ios":"levelo://app?vid=b8fbf6cb-4344-49f0-aa51-6bf07fd511fe"},"vehicle_type_id":"4","last_reported":1729930233,"current_range_meters":28400,"station_id":"ce4bhh12rcd13ifvqff0","pricing_plan_id":"cebpf4jnsgd1na2vs0mg"},{"bike_id":"dba5c0e4-c4fb-4939-bd85-1709479c42ed","system_id":"levelo_inurba_marseille","lat":43.28693,"lon":5.39976,"is_reserved":false,"is_disabled":false,"rental_uris":{"android":"levelo://app?vid=dba5c0e4-c4fb-4939-bd85-1709479c42ed","ios":"levelo://app?vid=dba5c0e4-c4fb-4939-bd85-1709479c42ed"},"vehicle_type_id":"4","last_reported":1729930233,"current_range_meters":36400,"station_id":"ce4bho92rcd13ifvqh3g","pricing_plan_id":"cebpf4jnsgd1na2vs0mg"},{"bike_id":"fa0d9b42-8430-42f7-b028-e598c8f32fe4","system_id":"levelo_inurba_marseille","lat":43.27557,"lon":5.38432,"is_reserved":false,"is_disabled":false,"rental_uris":{"android":"levelo://app?vid=fa0d9b42-8430-42f7-b028-e598c8f32fe4","ios":"levelo://app?vid=fa0d9b42-8430-42f7-b028-e598c8f32fe4"},"vehicle_type_id":"4","last_reported":1729930233,"current_range_meters":15200,"station_id":"ce4bhh92rcd13ifvqfi0","pricing_plan_id":"cebpf4jnsgd1na2vs0mg"},{"bike_id":"29a6c093-88d6-4372-9735-e054adbf6a09","system_id":"levelo_inurba_marseille","lat":43.29254,"lon":5.40905,"is_reserved":false,"is_disabled":false,"rental_uris":{"android":"levelo://app?vid=29a6c093-88d6-4372-9735-e054adbf6a09","ios":"levelo://app?vid=29a6c093-88d6-4372-9735-e054adbf6a09"},"vehicle_type_id":"4","last_reported":1729930233,"current_range_meters":27600,"station_id":"ce4bh192rcd13ifvqdc0","pricing_plan_id":"cebpf4jnsgd1na2vs0mg"},{"bike_id":"0f3c8ac4-6ddb-4ab9-bf74-403d7db9e9b9","system_id":"levelo_inurba_marseille","lat":43.24646,"lon":5.38893,"is_reserved":false,"is_disabled":false,"rental_uris":{"android":"levelo://app?vid=0f3c8ac4-6ddb-4ab9-bf74-403d7db9e9b9","ios":"levelo://app?vid=0f3c8ac4-6ddb-4ab9-bf74-403d7db9e9b9"},"vehicle_type_id":"4","last_reported":1729930233,"current_range_meters":38800,"station_id":"ce4bhg12rcd13ifvqf60","pricing_plan_id":"cebpf4jnsgd1na2vs0mg"},{"bike_id":"af90ebdf-9522-4db5-a4e7-d5ef3a45d9da","system_id":"levelo_inurba_marseille","lat":43.28265,"lon":5.35065,"is_reserved":false,"is_disabled":false,"rental_uris":{"android":"levelo://app?vid=af90ebdf-9522-4db5-a4e7-d5ef3a45d9da","ios":"levelo://app?vid=af90ebdf-9522-4db5-a4e7-d5ef3a45d9da"},"vehicle_type_id":"4","last_reported":1729930233,"current_range_meters":23200,"station_id":"ce4bhbp2rcd13ifvqerg","pricing_plan_id":"cebpf4jnsgd1na2vs0mg"},{"bike_id":"66194b2a-f144-4471-9d9e-acbadd78f0a4","system_id":"levelo_inurba_marseille","lat":43.300001,"lon":5.371959,"is_reserved":false,"is_disabled":false,"rental_uris":{"android":"levelo://app?vid=66194b2a-f144-4471-9d9e-acbadd78f0a4","ios":"levelo://app?vid=66194b2a-f144-4471-9d9e-acbadd78f0a4"},"vehicle_type_id":"4","last_reported":1729930233,"current_range_meters":32800,"station_id":"ce4bgr92rcd13ifvqc7g","pricing_plan_id":"cebpf4jnsgd1na2vs0mg"},{"bike_id":"5fca96f6-4381-412f-970b-5c099eb44323","system_id":"levelo_inurba_marseille","lat":43.30595,"lon":5.39352,"is_reserved":false,"is_disabled":false,"rental_uris":{"android":"levelo://app?vid=5fca96f6-4381-412f-970b-5c099eb44323","ios":"levelo://app?vid=5fca96f6-4381-412f-970b-5c099eb44323"},"vehicle_type_id":"4","last_reported":1729930233,"current_range_meters":36400,"station_id":"ce4bh0p2rcd13ifvqd80","pricing_plan_id":"cebpf4jnsgd1na2vs0mg"},{"bike_id":"f092f188-890e-415c-bcfe-54d392c6e1bb","system_id":"levelo_inurba_marseille","lat":43.30417,"lon":5.41278,"is_reserved":false,"is_disabled":false,"rental_uris":{"android":"levelo://app?vid=f092f188-890e-415c-bcfe-54d392c6e1bb","ios":"levelo://app?vid=f092f188-890e-415c-bcfe-54d392c6e1bb"},"vehicle_type_id":"4","last_reported":1729930233,"current_range_meters":38000,"station_id":"ce4bhop2rcd13ifvqh8g","pricing_plan_id":"cebpf4jnsgd1na2vs0mg"},{"bike_id":"b3445027-a8e2-4aea-a331-71ddc6fc9484","system_id":"levelo_inurba_marseille","lat":43.24652,"lon":5.38895,"is_reserved":false,"is_disabled":false,"rental_uris":{"android":"levelo://app?vid=b3445027-a8e2-4aea-a331-71ddc6fc9484","ios":"levelo://app?vid=b3445027-a8e2-4aea-a331-71ddc6fc9484"},"vehicle_type_id":"4","last_reported":1729930233,"current_range_meters":38800,"station_id":"ce4bhg12rcd13ifvqf60","pricing_plan_id":"cebpf4jnsgd1na2vs0mg"},{"bike_id":"3ae03342-7864-45cc-b526-255b882b8a68","system_id":"levelo_inurba_marseille","lat":43.28375,"lon":5.38628,"is_reserved":false,"is_disabled":false,"rental_uris":{"android":"levelo://app?vid=3ae03342-7864-45cc-b526-255b882b8a68","ios":"levelo://app?vid=3ae03342-7864-45cc-b526-255b882b8a68"},"vehicle_type_id":"4","last_reported":1729930233,"current_range_meters":12400,"station_id":"ce4bh492rcd13ifvqdvg","pricing_plan_id":"cebpf4jnsgd1na2vs0mg"},{"bike_id":"4043e083-f613-465b-be7d-e93776147c26","system_id":"levelo_inurba_marseille","lat":43.28368,"lon":5.38632,"is_reserved":false,"is_disabled":false,"rental_uris":{"android":"levelo://app?vid=4043e083-f613-465b-be7d-e93776147c26","ios":"levelo://app?vid=4043e083-f613-465b-be7d-e93776147c26"},"vehicle_type_id":"4","last_reported":1729930233,"current_range_meters":38800,"station_id":"ce4bh492rcd13ifvqdvg","pricing_plan_id":"cebpf4jnsgd1na2vs0mg"},{"bike_id":"ff0a3573-003d-4966-a881-5959109e57ba","system_id":"levelo_inurba_marseille","lat":43.30956,"lon":5.39061,"is_reserved":false,"is_disabled":false,"rental_uris":{"android":"levelo://app?vid=ff0a3573-003d-4966-a881-5959109e57ba","ios":"levelo://app?vid=ff0a3573-003d-4966-a881-5959109e57ba"},"vehicle_type_id":"4","last_reported":1729930233,"current_range_meters":38800,"station_id":"ce4bgup2rcd13ifvqco0","pricing_plan_id":"cebpf4jnsgd1na2vs0mg"},{"bike_id":"d3cc5ab0-9e3a-41ba-9860-c06c0ddb4613","system_id":"levelo_inurba_marseille","lat":43.22934,"lon":5.35379,"is_reserved":false,"is_disabled":false,"rental_uris":{"android":"levelo://app?vid=d3cc5ab0-9e3a-41ba-9860-c06c0ddb4613","ios":"levelo://app?vid=d3cc5ab0-9e3a-41ba-9860-c06c0ddb4613"},"vehicle_type_id":"4","last_reported":1729930233,"current_range_meters":36800,"station_id":"cpo3532slgdg3j2ikp40","pricing_plan_id":"cebpf4jnsgd1na2vs0mg"},{"bike_id":"b425a53a-2ca1-45d6-9375-1a007f59f76d","system_id":"levelo_inurba_marseille","lat":43.27423,"lon":5.39408,"is_reserved":false,"is_disabled":false,"rental_uris":{"android":"levelo://app?vid=b425a53a-2ca1-45d6-9375-1a007f59f76d","ios":"levelo://app?vid=b425a53a-2ca1-45d6-9375-1a007f59f76d"},"vehicle_type_id":"4","last_reported":1729930233,"current_range_meters":21600,"station_id":"ce4bhdp2rcd13ifvqf20","pricing_plan_id":"cebpf4jnsgd1na2vs0mg"},{"bike_id":"97829af9-492c-41b9-844b-4d7ec0b9af50","system_id":"levelo_inurba_marseille","lat":43.295804,"lon":5.375299,"is_reserved":false,"is_disabled":false,"rental_uris":{"android":"levelo://app?vid=97829af9-492c-41b9-844b-4d7ec0b9af50","ios":"levelo://app?vid=97829af9-492c-41b9-844b-4d7ec0b9af50"},"vehicle_type_id":"4","last_reported":1729930233,"current_range_meters":22400,"station_id":"","pricing_plan_id":"cebpf4jnsgd1na2vs0mg"},{"bike_id":"97bd6ba0-ba29-4ea1-9877-c1f7cfba9e3a","system_id":"levelo_inurba_marseille","lat":43.31371,"lon":5.385,"is_reserved":false,"is_disabled":false,"rental_uris":{"android":"levelo://app?vid=97bd6ba0-ba29-4ea1-9877-c1f7cfba9e3a","ios":"levelo://app?vid=97bd6ba0-ba29-4ea1-9877-c1f7cfba9e3a"},"vehicle_type_id":"4","last_reported":1729930233,"current_range_meters":6400,"station_id":"ce4bgt92rcd13ifvqcf0","pricing_plan_id":"cebpf4jnsgd1na2vs0mg"},{"bike_id":"fe843b57-dcca-4cb9-9d71-f358a66a0543","system_id":"levelo_inurba_marseille","lat":43.31374,"lon":5.38491,"is_reserved":false,"is_disabled":false,"rental_uris":{"android":"levelo://app?vid=fe843b57-dcca-4cb9-9d71-f358a66a0543","ios":"levelo://app?vid=fe843b57-dcca-4cb9-9d71-f358a66a0543"},"vehicle_type_id":"4","last_reported":1729930233,"current_range_meters":22000,"station_id":"ce4bgt92rcd13ifvqcf0","pricing_plan_id":"cebpf4jnsgd1na2vs0mg"},{"bike_id":"34d5956e-4ecb-4c56-a68a-84e4c1ad2440","system_id":"levelo_inurba_marseille","lat":43.28437,"lon":5.39195,"is_reserved":false,"is_disabled":false,"rental_uris":{"android":"levelo://app?vid=34d5956e-4ecb-4c56-a68a-84e4c1ad2440","ios":"levelo://app?vid=34d5956e-4ecb-4c56-a68a-84e4c1ad2440"},"vehicle_type_id":"4","last_reported":1729930233,"current_range_meters":3200,"station_id":"ce4bhoh2rcd13ifvqh5g","pricing_plan_id":"cebpf4jnsgd1na2vs0mg"},{"bike_id":"03cfc764-8b09-431b-aa2c-d9c196fc6ecd","system_id":"levelo_inurba_marseille","lat":43.30131,"lon":5.38791,"is_reserved":false,"is_disabled":false,"rental_uris":{"android":"levelo://app?vid=03cfc764-8b09-431b-aa2c-d9c196fc6ecd","ios":"levelo://app?vid=03cfc764-8b09-431b-aa2c-d9c196fc6ecd"},"vehicle_type_id":"4","last_reported":1729930233,"current_range_meters":38000,"station_id":"ce4bghh2rcd13ifvqb60","pricing_plan_id":"cebpf4jnsgd1na2vs0mg"},{"bike_id":"21eea48d-e62f-4ca4-9bd3-5a2692fb3968","system_id":"levelo_inurba_marseille","lat":43.24387,"lon":5.37056,"is_reserved":false,"is_disabled":false,"rental_uris":{"android":"levelo://app?vid=21eea48d-e62f-4ca4-9bd3-5a2692fb3968","ios":"levelo://app?vid=21eea48d-e62f-4ca4-9bd3-5a2692fb3968"},"vehicle_type_id":"4","last_reported":1729930233,"current_range_meters":3200,"station_id":"ce4bhhh2rcd13ifvqfk0","pricing_plan_id":"cebpf4jnsgd1na2vs0mg"},{"bike_id":"0b593b33-25d9-4ea4-9c34-ea51347771fc","system_id":"levelo_inurba_marseille","lat":43.29419,"lon":5.38611,"is_reserved":false,"is_disabled":false,"rental_uris":{"android":"levelo://app?vid=0b593b33-25d9-4ea4-9c34-ea51347771fc","ios":"levelo://app?vid=0b593b33-25d9-4ea4-9c34-ea51347771fc"},"vehicle_type_id":"4","last_reported":1729930233,"current_range_meters":14000,"station_id":"ce4bh2h2rcd13ifvqdh0","pricing_plan_id":"cebpf4jnsgd1na2vs0mg"},{"bike_id":"643afe4b-69f4-415d-bd52-8b3fdcbff784","system_id":"levelo_inurba_marseille","lat":43.27071,"lon":5.42276,"is_reserved":false,"is_disabled":false,"rental_uris":{"android":"levelo://app?vid=643afe4b-69f4-415d-bd52-8b3fdcbff784","ios":"levelo://app?vid=643afe4b-69f4-415d-bd52-8b3fdcbff784"},"vehicle_type_id":"4","last_reported":1729930233,"current_range_meters":28000,"station_id":"ce4bhk92rcd13ifvqgb0","pricing_plan_id":"cebpf4jnsgd1na2vs0mg"},{"bike_id":"cdfa48c3-5012-4759-be4f-341751955c38","system_id":"levelo_inurba_marseille","lat":43.29228,"lon":5.36063,"is_reserved":false,"is_disabled":false,"rental_uris":{"android":"levelo://app?vid=cdfa48c3-5012-4759-be4f-341751955c38","ios":"levelo://app?vid=cdfa48c3-5012-4759-be4f-341751955c38"},"vehicle_type_id":"4","last_reported":1729930233,"current_range_meters":23200,"station_id":"ce4bhbh2rcd13ifvqeqg","pricing_plan_id":"cebpf4jnsgd1na2vs0mg"},{"bike_id":"1f64965d-b6d0-4db2-9f67-5e1e698e47fb","system_id":"levelo_inurba_marseille","lat":43.27068,"lon":5.42275,"is_reserved":false,"is_disabled":false,"rental_uris":{"android":"levelo://app?vid=1f64965d-b6d0-4db2-9f67-5e1e698e47fb","ios":"levelo://app?vid=1f64965d-b6d0-4db2-9f67-5e1e698e47fb"},"vehicle_type_id":"4","last_reported":1729930233,"current_range_meters":32000,"station_id":"ce4bhk92rcd13ifvqgb0","pricing_plan_id":"cebpf4jnsgd1na2vs0mg"},{"bike_id":"ef9a6489-6ea5-4926-b339-2d6ab1e33efe","system_id":"levelo_inurba_marseille","lat":43.309482,"lon":5.401473,"is_reserved":false,"is_disabled":false,"rental_uris":{"android":"levelo://app?vid=ef9a6489-6ea5-4926-b339-2d6ab1e33efe","ios":"levelo://app?vid=ef9a6489-6ea5-4926-b339-2d6ab1e33efe"},"vehicle_type_id":"4","last_reported":1729930233,"current_range_meters":32800,"station_id":"ce4bgvp2rcd13ifvqct0","pricing_plan_id":"cebpf4jnsgd1na2vs0mg"},{"bike_id":"2ed66b04-9156-49de-8653-87e29eadce43","system_id":"levelo_inurba_marseille","lat":43.3046,"lon":5.37919,"is_reserved":false,"is_disabled":false,"rental_uris":{"android":"levelo://app?vid=2ed66b04-9156-49de-8653-87e29eadce43","ios":"levelo://app?vid=2ed66b04-9156-49de-8653-87e29eadce43"},"vehicle_type_id":"4","last_reported":1729930233,"current_range_meters":39200,"station_id":"ce4bgup2rcd13ifvqcn0","pricing_plan_id":"cebpf4jnsgd1na2vs0mg"},{"bike_id":"a0edbb10-9130-4358-947d-35f7f894f47c","system_id":"levelo_inurba_marseille","lat":43.23961,"lon":5.36639,"is_reserved":false,"is_disabled":false,"rental_uris":{"android":"levelo://app?vid=a0edbb10-9130-4358-947d-35f7f894f47c","ios":"levelo://app?vid=a0edbb10-9130-4358-947d-35f7f894f47c"},"vehicle_type_id":"4","last_reported":1729930233,"current_range_meters":29600,"station_id":"ce4bhi12rcd13ifvqfp0","pricing_plan_id":"cebpf4jnsgd1na2vs0mg"},{"bike_id":"a6b7d2fa-3f53-4444-86bd-8f561d8d9e92","system_id":"levelo_inurba_marseille","lat":43.29173,"lon":5.35805,"is_reserved":false,"is_disabled":false,"rental_uris":{"android":"levelo://app?vid=a6b7d2fa-3f53-4444-86bd-8f561d8d9e92","ios":"levelo://app?vid=a6b7d2fa-3f53-4444-86bd-8f561d8d9e92"},"vehicle_type_id":"4","last_reported":1729930233,"current_range_meters":29600,"station_id":"ce4bhb12rcd13ifvqel0","pricing_plan_id":"cebpf4jnsgd1na2vs0mg"},{"bike_id":"dc048d19-0041-428b-82ba-cae46d27302b","system_id":"levelo_inurba_marseille","lat":43.30154,"lon":5.38079,"is_reserved":false,"is_disabled":false,"rental_uris":{"android":"levelo://app?vid=dc048d19-0041-428b-82ba-cae46d27302b","ios":"levelo://app?vid=dc048d19-0041-428b-82ba-cae46d27302b"},"vehicle_type_id":"4","last_reported":1729930233,"current_range_meters":30400,"station_id":"ce4bgjp2rcd13ifvqbh0","pricing_plan_id":"cebpf4jnsgd1na2vs0mg"},{"bike_id":"f47c05dc-0e3b-4c0e-bb19-14f7a148dd4a","system_id":"levelo_inurba_marseille","lat":43.29046,"lon":5.39955,"is_reserved":false,"is_disabled":false,"rental_uris":{"android":"levelo://app?vid=f47c05dc-0e3b-4c0e-bb19-14f7a148dd4a","ios":"levelo://app?vid=f47c05dc-0e3b-4c0e-bb19-14f7a148dd4a"},"vehicle_type_id":"4","last_reported":1729930233,"current_range_meters":28000,"station_id":"ce4bh392rcd13ifvqdm0","pricing_plan_id":"cebpf4jnsgd1na2vs0mg"},{"bike_id":"db97a606-2f59-41c8-8cd6-75aba7fa29a7","system_id":"levelo_inurba_marseille","lat":43.24807,"lon":5.37458,"is_reserved":false,"is_disabled":false,"rental_uris":{"android":"levelo://app?vid=db97a606-2f59-41c8-8cd6-75aba7fa29a7","ios":"levelo://app?vid=db97a606-2f59-41c8-8cd6-75aba7fa29a7"},"vehicle_type_id":"4","last_reported":1729930233,"current_range_meters":39200,"station_id":"ce4bhgh2rcd13ifvqfb0","pricing_plan_id":"cebpf4jnsgd1na2vs0mg"},{"bike_id":"605335f0-66bd-4aca-b3d5-afc12b0957c5","system_id":"levelo_inurba_marseille","lat":43.29025,"lon":5.38644,"is_reserved":false,"is_disabled":false,"rental_uris":{"android":"levelo://app?vid=605335f0-66bd-4aca-b3d5-afc12b0957c5","ios":"levelo://app?vid=605335f0-66bd-4aca-b3d5-afc12b0957c5"},"vehicle_type_id":"4","last_reported":1729930233,"current_range_meters":16800,"station_id":"ce4bh4p2rcd13ifvqe0g","pricing_plan_id":"cebpf4jnsgd1na2vs0mg"},{"bike_id":"60528b55-e747-4a9e-8ca0-272ea3a19644","system_id":"levelo_inurba_marseille","lat":43.27826,"lon":5.39206,"is_reserved":false,"is_disabled":false,"rental_uris":{"android":"levelo://app?vid=60528b55-e747-4a9e-8ca0-272ea3a19644","ios":"levelo://app?vid=60528b55-e747-4a9e-8ca0-272ea3a19644"},"vehicle_type_id":"4","last_reported":1729930233,"current_range_meters":38800,"station_id":"ce4bhjp2rcd13ifvqga0","pricing_plan_id":"cebpf4jnsgd1na2vs0mg"},{"bike_id":"ac4425a3-7bbd-44bc-9bca-87edf86f66d7","system_id":"levelo_inurba_marseille","lat":43.28468,"lon":5.3841,"is_reserved":false,"is_disabled":false,"rental_uris":{"android":"levelo://app?vid=ac4425a3-7bbd-44bc-9bca-87edf86f66d7","ios":"levelo://app?vid=ac4425a3-7bbd-44bc-9bca-87edf86f66d7"},"vehicle_type_id":"4","last_reported":1729930233,"current_range_meters":4000,"station_id":"ce4bh512rcd13ifvqe3g","pricing_plan_id":"cebpf4jnsgd1na2vs0mg"},{"bike_id":"4475e448-ff5f-4d53-a231-0fc04263b1a5","system_id":"levelo_inurba_marseille","lat":43.23149,"lon":5.43714,"is_reserved":false,"is_disabled":false,"rental_uris":{"android":"levelo://app?vid=4475e448-ff5f-4d53-a231-0fc04263b1a5","ios":"levelo://app?vid=4475e448-ff5f-4d53-a231-0fc04263b1a5"},"vehicle_type_id":"4","last_reported":1729930233,"current_range_meters":6800,"station_id":"ce4bhmp2rcd13ifvqgog","pricing_plan_id":"cebpf4jnsgd1na2vs0mg"},{"bike_id":"aa6bb8d6-7238-409f-a553-1b48053943a9","system_id":"levelo_inurba_marseille","lat":43.33606,"lon":5.41032,"is_reserved":false,"is_disabled":false,"rental_uris":{"android":"levelo://app?vid=aa6bb8d6-7238-409f-a553-1b48053943a9","ios":"levelo://app?vid=aa6bb8d6-7238-409f-a553-1b48053943a9"},"vehicle_type_id":"4","last_reported":1729930233,"current_range_meters":38800,"station_id":"ce4bhqh2rcd13ifvqhmg","pricing_plan_id":"cebpf4jnsgd1na2vs0mg"},{"bike_id":"7d236414-b403-4694-a191-cc9acb65e0f9","system_id":"levelo_inurba_marseille","lat":43.27208,"lon":5.39182,"is_reserved":false,"is_disabled":false,"rental_uris":{"android":"levelo://app?vid=7d236414-b403-4694-a191-cc9acb65e0f9","ios":"levelo://app?vid=7d236414-b403-4694-a191-cc9acb65e0f9"},"vehicle_type_id":"4","last_reported":1729930233,"current_range_meters":34000,"station_id":"ce4bhhp2rcd13ifvqfm0","pricing_plan_id":"cebpf4jnsgd1na2vs0mg"},{"bike_id":"fbfa376d-0890-4f54-bcad-c769808cce92","system_id":"levelo_inurba_marseille","lat":43.31161,"lon":5.38722,"is_reserved":false,"is_disabled":false,"rental_uris":{"android":"levelo://app?vid=fbfa376d-0890-4f54-bcad-c769808cce92","ios":"levelo://app?vid=fbfa376d-0890-4f54-bcad-c769808cce92"},"vehicle_type_id":"4","last_reported":1729930233,"current_range_meters":32000,"station_id":"ce4bgv12rcd13ifvqcp0","pricing_plan_id":"cebpf4jnsgd1na2vs0mg"},{"bike_id":"960c25fd-a513-4486-9205-28e40f919a67","system_id":"levelo_inurba_marseille","lat":43.28441,"lon":5.39195,"is_reserved":false,"is_disabled":false,"rental_uris":{"android":"levelo://app?vid=960c25fd-a513-4486-9205-28e40f919a67","ios":"levelo://app?vid=960c25fd-a513-4486-9205-28e40f919a67"},"vehicle_type_id":"4","last_reported":1729930233,"current_range_meters":32400,"station_id":"ce4bhoh2rcd13ifvqh5g","pricing_plan_id":"cebpf4jnsgd1na2vs0mg"},{"bike_id":"374c6b0b-5583-4ed8-8e1b-71051917a33b","system_id":"levelo_inurba_marseille","lat":43.29981,"lon":5.37186,"is_reserved":false,"is_disabled":false,"rental_uris":{"android":"levelo://app?vid=374c6b0b-5583-4ed8-8e1b-71051917a33b","ios":"levelo://app?vid=374c6b0b-5583-4ed8-8e1b-71051917a33b"},"vehicle_type_id":"4","last_reported":1729930233,"current_range_meters":16800,"station_id":"ce4bgr92rcd13ifvqc7g","pricing_plan_id":"cebpf4jnsgd1na2vs0mg"},{"bike_id":"fe6829a4-6084-49d3-8f9b-b6d45d9de389","system_id":"levelo_inurba_marseille","lat":43.27222,"lon":5.39182,"is_reserved":false,"is_disabled":false,"rental_uris":{"android":"levelo://app?vid=fe6829a4-6084-49d3-8f9b-b6d45d9de389","ios":"levelo://app?vid=fe6829a4-6084-49d3-8f9b-b6d45d9de389"},"vehicle_type_id":"4","last_reported":1729930233,"current_range_meters":30800,"station_id":"ce4bhhp2rcd13ifvqfm0","pricing_plan_id":"cebpf4jnsgd1na2vs0mg"},{"bike_id":"984f24c4-a895-4434-9f90-c8aa3a1b2f26","system_id":"levelo_inurba_marseille","lat":43.29447,"lon":5.39747,"is_reserved":false,"is_disabled":false,"rental_uris":{"android":"levelo://app?vid=984f24c4-a895-4434-9f90-c8aa3a1b2f26","ios":"levelo://app?vid=984f24c4-a895-4434-9f90-c8aa3a1b2f26"},"vehicle_type_id":"4","last_reported":1729930233,"current_range_meters":31200,"station_id":"ce4bh3h2rcd13ifvqdo0","pricing_plan_id":"cebpf4jnsgd1na2vs0mg"},{"bike_id":"9710e734-c7c0-4b22-894d-dbb4b049ef72","system_id":"levelo_inurba_marseille","lat":43.30528,"lon":5.36716,"is_reserved":false,"is_disabled":false,"rental_uris":{"android":"levelo://app?vid=9710e734-c7c0-4b22-894d-dbb4b049ef72","ios":"levelo://app?vid=9710e734-c7c0-4b22-894d-dbb4b049ef72"},"vehicle_type_id":"4","last_reported":1729930233,"current_range_meters":17600,"station_id":"ce4bgrp2rcd13ifvqc9g","pricing_plan_id":"cebpf4jnsgd1na2vs0mg"},{"bike_id":"45b5e6d6-32fd-49dd-9328-597ec709b243","system_id":"levelo_inurba_marseille","lat":43.32482,"lon":5.36569,"is_reserved":false,"is_disabled":false,"rental_uris":{"android":"levelo://app?vid=45b5e6d6-32fd-49dd-9328-597ec709b243","ios":"levelo://app?vid=45b5e6d6-32fd-49dd-9328-597ec709b243"},"vehicle_type_id":"4","last_reported":1729930233,"current_range_meters":28800,"station_id":"ce4bhs12rcd13ifvqhvg","pricing_plan_id":"cebpf4jnsgd1na2vs0mg"},{"bike_id":"e8ff6e07-6eef-4e18-aa8b-2237221f8600","system_id":"levelo_inurba_marseille","lat":43.30464,"lon":5.379,"is_reserved":false,"is_disabled":false,"rental_uris":{"android":"levelo://app?vid=e8ff6e07-6eef-4e18-aa8b-2237221f8600","ios":"levelo://app?vid=e8ff6e07-6eef-4e18-aa8b-2237221f8600"},"vehicle_type_id":"4","last_reported":1729930233,"current_range_meters":38000,"station_id":"ce4bgup2rcd13ifvqcn0","pricing_plan_id":"cebpf4jnsgd1na2vs0mg"},{"bike_id":"e22794c1-a0c0-4f8b-b554-f9535faf083a","system_id":"levelo_inurba_marseille","lat":43.24075,"lon":5.37758,"is_reserved":false,"is_disabled":false,"rental_uris":{"android":"levelo://app?vid=e22794c1-a0c0-4f8b-b554-f9535faf083a","ios":"levelo://app?vid=e22794c1-a0c0-4f8b-b554-f9535faf083a"},"vehicle_type_id":"4","last_reported":1729930233,"current_range_meters":14000,"station_id":"ce4bhnp2rcd13ifvqgvg","pricing_plan_id":"cebpf4jnsgd1na2vs0mg"},{"bike_id":"4e349b29-9c0c-440e-89e4-c83ac0b1eb71","system_id":"levelo_inurba_marseille","lat":43.31701,"lon":5.37741,"is_reserved":false,"is_disabled":false,"rental_uris":{"android":"levelo://app?vid=4e349b29-9c0c-440e-89e4-c83ac0b1eb71","ios":"levelo://app?vid=4e349b29-9c0c-440e-89e4-c83ac0b1eb71"},"vehicle_type_id":"4","last_reported":1729930233,"current_range_meters":19200,"station_id":"ce4bgth2rcd13ifvqch0","pricing_plan_id":"cebpf4jnsgd1na2vs0mg"},