{"last_updated":1732000160,"ttl":60,"version":"2.2","data":{"bikes":[{"bike_id":"5aebcd90-3532-4ece-8e45-71cf1f4438b9","system_id":"levelo_inurba_marseille","lat":43.29808,"lon":5.38084,"is_reserved":false,"is_disabled":false,"rental_uris":{"android":"levelo://app?vid=5aebcd90-3532-4ece-8e45-71cf1f4438b9","ios":"levelo://app?vid=5aebcd90-3532-4ece-8e45-71cf1f4438b9"},"vehicle_type_id":"4","last_reported":1732000160,"current_range_meters":32000,"station_id":"ce4bgip2rcd13ifvqbb0","pricing_plan_id":"cebpf4jnsgd1na2vs0mg"},{"bike_id":"4ef715f0-7087-4d61-93c6-b8bd2a0b34d5","system_id":"levelo_inurba_marseille","lat":43.30149,"lon":5.38074,"is_reserved":false,"is_disabled":false,"rental_uris":{"android":"levelo://app?vid=4ef715f0-7087-4d61-93c6-b8bd2a0b34d5","ios":"levelo://app?vid=4ef715f0-7087-4d61-93c6-b8bd2a0b34d5"},"vehicle_type_id":"4","last_reported":1732000160,"current_range_meters":21600,"station_id":"ce4bgjp2rcd13ifvqbh0","pricing_plan_id":"cebpf4jnsgd1na2vs0mg"},{"bike_id":"983fb69d-fd74-4d65-bc1c-29a8a65f02b7","system_id":"levelo_inurba_marseille","lat":43.27944,"lon":5.41039,"is_reserved":false,"is_disabled":false,"rental_uris":{"android":"levelo://app?vid=983fb69d-fd74-4d65-bc1c-29a8a65f02b7","ios":"levelo://app?vid=983fb69d-fd74-4d65-bc1c-29a8a65f02b7"},"vehicle_type_id":"4","last_reported":1732000160,"current_range_meters":30400,"station_id":"ce4bhnp2rcd13ifvqh0g","pricing_plan_id":"cebpf4jnsgd1na2vs0mg"},{"bike_id":"75cc8757-90ec-44a2-b070-b9cc134f750e","system_id":"levelo_inurba_marseille","lat":43.25021,"lon":5.38061,"is_reserved":false,"is_disabled":false,"rental_uris":{"android":"levelo://app?vid=75cc8757-90ec-44a2-b070-b9cc134f750e","ios":"levelo://app?vid=75cc8757-90ec-44a2-b070-b9cc134f750e"},"vehicle_type_id":"4","last_reported":1732000160,"current_range_meters":35200,"station_id":"","pricing_plan_id":"cebpf4jnsgd1na2vs0mg"},{"bike_id":"56b1e23a-a8b6-4eed-a858-f200a5a0a62a","system_id":"levelo_inurba_marseille","lat":43.23148,"lon":5.43727,"is_reserved":false,"is_disabled":false,"rental_uris":{"android":"levelo://app?vid=56b1e23a-a8b6-4eed-a858-f200a5a0a62a","ios":"levelo://app?vid=56b1e23a-a8b6-4eed-a858-f200a5a0a62a"},"vehicle_type_id":"4","last_reported":1732000160,"current_range_meters":8000,"station_id":"ce4bhmp2rcd13ifvqgog","pricing_plan_id":"cebpf4jnsgd1na2vs0mg"},{"bike_id":"0bc2b4da-31a7-4cb4-95e9-3aa3825f7da9","system_id":"levelo_inurba_marseille","lat":43.279941,"lon":5.400116,"is_reserved":false,"is_disabled":false,"rental_uris":{"android":"levelo://app?vid=0bc2b4da-31a7-4cb4-95e9-3aa3825f7da9","ios":"levelo://app?vid=0bc2b4da-31a7-4cb4-95e9-3aa3825f7da9"},"vehicle_type_id":"4","last_reported":1732000160,"current_range_meters":11600,"station_id":"ce4bho92rcd13ifvqh4g","pricing_plan_id":"cebpf4jnsgd1na2vs0mg"},{"bike_id":"caec9a76-a780-4530-9ef7-bbc9e6969b19","system_id":"levelo_inurba_marseille","lat":43.27502,"lon":5.42463,"is_reserved":false,"is_disabled":true,"rental_uris":{"android":"levelo://app?vid=caec9a76-a780-4530-9ef7-bbc9e6969b19","ios":"levelo://app?vid=caec9a76-a780-4530-9ef7-bbc9e6969b19"},"vehicle_type_id":"4","last_reported":1732000160,"current_range_meters":0,"station_id":"ce4bhn92rcd13ifvqgrg","pricing_plan_id":"cebpf4jnsgd1na2vs0mg"},{"bike_id":"ab8b3dcb-d33d-4854-a37e-2243fffa6f29","system_id":"levelo_inurba_marseille","lat":43.30148,"lon":5.38079,"is_reserved":false,"is_disabled":false,"rental_uris":{"android":"levelo://app?vid=ab8b3dcb-d33d-4854-a37e-2243fffa6f29","ios":"levelo://app?vid=ab8b3dcb-d33d-4854-a37e-2243fffa6f29"},"vehicle_type_id":"4","last_reported":1732000160,"current_range_meters":36400,"station_id":"ce4bgjp2rcd13ifvqbh0","pricing_plan_id":"cebpf4jnsgd1na2vs0mg"},{"bike_id":"281782a5-0033-4575-ae14-b31fb6ccbbc1","system_id":"levelo_inurba_marseille","lat":43.29794,"lon":5.38091,"is_reserved":false,"is_disabled":false,"rental_uris":{"android":"levelo://app?vid=281782a5-0033-4575-ae14-b31fb6ccbbc1","ios":"levelo://app?vid=281782a5-0033-4575-ae14-b31fb6ccbbc1"},"vehicle_type_id":"4","last_reported":1732000160,"current_range_meters":38400,"station_id":"ce4bgip2rcd13ifvqbb0","pricing_plan_id":"cebpf4jnsgd1na2vs0mg"},{"bike_id":"5d0c8d35-0e61-4dd0-aca7-17266c07241d","system_id":"levelo_inurba_marseille","lat":43.26567,"lon":5.38992,"is_reserved":false,"is_disabled":false,"rental_uris":{"android":"levelo://app?vid=5d0c8d35-0e61-4dd0-aca7-17266c07241d","ios":"levelo://app?vid=5d0c8d35-0e61-4dd0-aca7-17266c07241d"},"vehicle_type_id":"4","last_reported":1732000160,"current_range_meters":27200,"station_id":"ce4bhe12rcd13ifvqf30","pricing_plan_id":"cebpf4jnsgd1na2vs0mg"},{"bike_id":"0483f6b4-b1f7-4f03-b703-9a41aa209a04","system_id":"levelo_inurba_marseille","lat":43.30465,"lon":5.37907,"is_reserved":false,"is_disabled":false,"rental_uris":{"android":"levelo://app?vid=0483f6b4-b1f7-4f03-b703-9a41aa209a04","ios":"levelo://app?vid=0483f6b4-b1f7-4f03-b703-9a41aa209a04"},"vehicle_type_id":"4","last_reported":1732000160,"current_range_meters":28000,"station_id":"ce4bgup2rcd13ifvqcn0","pricing_plan_id":"cebpf4jnsgd1na2vs0mg"},{"bike_id":"6c926eef-89ef-4421-9c04-3c9899f3173b","system_id":"levelo_inurba_marseille","lat":43.29901,"lon":5.43653,"is_reserved":false,"is_disabled":true,"rental_uris":{"android":"levelo://app?vid=6c926eef-89ef-4421-9c04-3c9899f3173b","ios":"levelo://app?vid=6c926eef-89ef-4421-9c04-3c9899f3173b"},"vehicle_type_id":"4","last_reported":1732000160,"current_range_meters":0,"station_id":"ce4bhpp2rcd13ifvqhfg","pricing_plan_id":"cebpf4jnsgd1na2vs0mg"},{"bike_id":"127efe80-b451-4258-b40a-516220894345","system_id":"levelo_inurba_marseille","lat":43.30877,"lon":5.37184,"is_reserved":false,"is_disabled":true,"rental_uris":{"android":"levelo://app?vid=127efe80-b451-4258-b40a-516220894345","ios":"levelo://app?vid=127efe80-b451-4258-b40a-516220894345"},"vehicle_type_id":"4","last_reported":1732000160,"current_range_meters":38800,"station_id":"ce4bguh2rcd13ifvqckg","pricing_plan_id":"cebpf4jnsgd1na2vs0mg"},{"bike_id":"f81fde2e-34ea-49d5-ae79-c78fcb259e75","system_id":"levelo_inurba_marseille","lat":43.28345,"lon":5.38106,"is_reserved":false,"is_disabled":false,"rental_uris":{"android":"levelo://app?vid=f81fde2e-34ea-49d5-ae79-c78fcb259e75","ios":"levelo://app?vid=f81fde2e-34ea-49d5-ae79-c78fcb259e75"},"vehicle_type_id":"4","last_reported":1732000160,"current_range_meters":25600,"station_id":"ce4bh412rcd13ifvqdr0","pricing_plan_id":"cebpf4jnsgd1na2vs0mg"},{"bike_id":"e08875d1-5eda-43a9-a5b5-ee3ebd16c83c","system_id":"levelo_inurba_marseille","lat":43.25006,"lon":5.38912,"is_reserved":false,"is_disabled":false,"rental_uris":{"android":"levelo://app?vid=e08875d1-5eda-43a9-a5b5-ee3ebd16c83c","ios":"levelo://app?vid=e08875d1-5eda-43a9-a5b5-ee3ebd16c83c"},"vehicle_type_id":"4","last_reported":1732000160,"current_range_meters":36800,"station_id":"ce4bhgp2rcd13ifvqfd0","pricing_plan_id":"cebpf4jnsgd1na2vs0mg"},{"bike_id":"b1879da0-4952-4a10-8d90-fd2192536eda","system_id":"levelo_inurba_marseille","lat":43.23154,"lon":5.43712,"is_reserved":false,"is_disabled":false,"rental_uris":{"android":"levelo://app?vid=b1879da0-4952-4a10-8d90-fd2192536eda","ios":"levelo://app?vid=b1879da0-4952-4a10-8d90-fd2192536eda"},"vehicle_type_id":"4","last_reported":1732000160,"current_range_meters":37600,"station_id":"ce4bhmp2rcd13ifvqgog","pricing_plan_id":"cebpf4jnsgd1na2vs0mg"},{"bike_id":"77a212bc-f633-48c1-a23c-f23e220afeb2","system_id":"levelo_inurba_marseille","lat":43.28338,"lon":5.38103,"is_reserved":false,"is_disabled":false,"rental_uris":{"android":"levelo://app?vid=77a212bc-f633-48c1-a23c-f23e220afeb2","ios":"levelo://app?vid=77a212bc-f633-48c1-a23c-f23e220afeb2"},"vehicle_type_id":"4","last_reported":1732000160,"current_range_meters":23200,"station_id":"ce4bh412rcd13ifvqdr0","pricing_plan_id":"cebpf4jnsgd1na2vs0mg"},{"bike_id":"bd511eef-5c6f-4ed4-8907-d04e9d8d371a","system_id":"levelo_inurba_marseille","lat":43.33599,"lon":5.4103,"is_reserved":false,"is_disabled":false,"rental_uris":{"android":"levelo://app?vid=bd511eef-5c6f-4ed4-8907-d04e9d8d371a","ios":"levelo://app?vid=bd511eef-5c6f-4ed4-8907-d04e9d8d371a"},"vehicle_type_id":"4","last_reported":1732000160,"current_range_meters":32800,"station_id":"ce4bhqh2rcd13ifvqhmg","pricing_plan_id":"cebpf4jnsgd1na2vs0mg"},{"bike_id":"1400a977-d564-4021-8c0d-c9d2168eb123","system_id":"levelo_inurba_marseille","lat":43.30589,"lon":5.39354,"is_reserved":false,"is_disabled":false,"rental_uris":{"android":"levelo://app?vid=1400a977-d564-4021-8c0d-c9d2168eb123","ios":"levelo://app?vid=1400a977-d564-4021-8c0d-c9d2168eb123"},"vehicle_type_id":"4","last_reported":1732000160,"current_range_meters":20800,"station_id":"ce4bh0p2rcd13ifvqd80","pricing_plan_id":"cebpf4jnsgd1na2vs0mg"},{"bike_id":"1dc270f8-c0fd-4cd3-abb0-026fecbae2de","system_id":"levelo_inurba_marseille","lat":43.24087,"lon":5.37749,"is_reserved":false,"is_disabled":false,"rental_uris":{"android":"levelo://app?vid=1dc270f8-c0fd-4cd3-abb0-026fecbae2de","ios":"levelo://app?vid=1dc270f8-c0fd-4cd3-abb0-026fecbae2de"},"vehicle_type_id":"4","last_reported":1732000160,"current_range_meters":24400,"station_id":"ce4bhnp2rcd13ifvqgvg","pricing_plan_id":"cebpf4jnsgd1na2vs0mg"},{"bike_id":"4e682c21-86be-4d76-a64b-638a60816da7","system_id":"levelo_inurba_marseille","lat":43.27815,"lon":5.40703,"is_reserved":false,"is_disabled":false,"rental_uris":{"android":"levelo://app?vid=4e682c21-86be-4d76-a64b-638a60816da7","ios":"levelo://app?vid=4e682c21-86be-4d76-a64b-638a60816da7"},"vehicle_type_id":"4","last_reported":1732000160,"current_range_meters":18800,"station_id":"ce4bhnh2rcd13ifvqgtg","pricing_plan_id":"cebpf4jnsgd1na2vs0mg"},{"bike_id":"1ceca4c0-e64b-47cd-84e8-4eaf493a34ff","system_id":"levelo_inurba_marseille","lat":43.30321,"lon":5.40257,"is_reserved":false,"is_disabled":true,"rental_uris":{"android":"levelo://app?vid=1ceca4c0-e64b-47cd-84e8-4eaf493a34ff","ios":"levelo://app?vid=1ceca4c0-e64b-47cd-84e8-4eaf493a34ff"},"vehicle_type_id":"4","last_reported":1732000160,"current_range_meters":0,"station_id":"","pricing_plan_id":"cebpf4jnsgd1na2vs0mg"},{"bike_id":"daca0b75-1bb0-48e0-847c-38b1ea139373","system_id":"levelo_inurba_marseille","lat":43.27997,"lon":5.41659,"is_reserved":false,"is_disabled":false,"rental_uris":{"android":"levelo://app?vid=daca0b75-1bb0-48e0-847c-38b1ea139373","ios":"levelo://app?vid=daca0b75-1bb0-48e0-847c-38b1ea139373"},"vehicle_type_id":"4","last_reported":1732000160,"current_range_meters":37600,"station_id":"ce4bho12rcd13ifvqh1g","pricing_plan_id":"cebpf4jnsgd1na2vs0mg"},{"bike_id":"908589c7-0195-46e2-9635-c2a80000b35f","system_id":"levelo_inurba_marseille","lat":43.23187,"lon":5.39987,"is_reserved":false,"is_disabled":false,"rental_uris":{"android":"levelo://app?vid=908589c7-0195-46e2-9635-c2a80000b35f","ios":"levelo://app?vid=908589c7-0195-46e2-9635-c2a80000b35f"},"vehicle_type_id":"4","last_reported":1732000160,"current_range_meters":6400,"station_id":"ce4bhn12rcd13ifvqgqg","pricing_plan_id":"cebpf4jnsgd1na2vs0mg"},{"bike_id":"636ad6ad-7ea2-4a54-b125-0c397f6550f8","system_id":"levelo_inurba_marseille","lat":43.28439,"lon":5.39179,"is_reserved":false,"is_disabled":true,"rental_uris":{"android":"levelo://app?vid=636ad6ad-7ea2-4a54-b125-0c397f6550f8","ios":"levelo://app?vid=636ad6ad-7ea2-4a54-b125-0c397f6550f8"},"vehicle_type_id":"4","last_reported":1732000160,"current_range_meters":38800,"station_id":"ce4bhoh2rcd13ifvqh5g","pricing_plan_id":"cebpf4jnsgd1na2vs0mg"},{"bike_id":"c909d17a-6117-477e-a413-6471255f018b","system_id":"levelo_inurba_marseille","lat":43.26964,"lon":5.38631,"is_reserved":false,"is_disabled":false,"rental_uris":{"android":"levelo://app?vid=c909d17a-6117-477e-a413-6471255f018b","ios":"levelo://app?vid=c909d17a-6117-477e-a413-6471255f018b"},"vehicle_type_id":"4","last_reported":1732000160,"current_range_meters":32000,"station_id":"ce4bhh92rcd13ifvqfh0","pricing_plan_id":"cebpf4jnsgd1na2vs0mg"},{"bike_id":"ca01303d-f653-4836-9270-17ae4ff6924e","system_id":"levelo_inurba_marseille","lat":43.26561,"lon":5.39132,"is_reserved":false,"is_disabled":false,"rental_uris":{"android":"levelo://app?vid=ca01303d-f653-4836-9270-17ae4ff6924e","ios":"levelo://app?vid=ca01303d-f653-4836-9270-17ae4ff6924e"},"vehicle_type_id":"4","last_reported":1732000160,"current_range_meters":36400,"station_id":"ce4bhe12rcd13ifvqf30","pricing_plan_id":"cebpf4jnsgd1na2vs0mg"},{"bike_id":"6ba2d3f3-c655-4e14-8211-bd7d1cb3d06a","system_id":"levelo_inurba_marseille","lat":43.29872,"lon":5.39739,"is_reserved":false,"is_disabled":false,"rental_uris":{"android":"levelo://app?vid=6ba2d3f3-c655-4e14-8211-bd7d1cb3d06a","ios":"levelo://app?vid=6ba2d3f3-c655-4e14-8211-bd7d1cb3d06a"},"vehicle_type_id":"4","last_reported":1732000160,"current_range_meters":37600,"station_id":"ce4bh0h2rcd13ifvqd50","pricing_plan_id":"cebpf4jnsgd1na2vs0mg"},{"bike_id":"49946a04-6f12-40d7-8e4b-a0a036bdde0b","system_id":"levelo_inurba_marseille","lat":43.30594,"lon":5.39356,"is_reserved":false,"is_disabled":false,"rental_uris":{"android":"levelo://app?vid=49946a04-6f12-40d7-8e4b-a0a036bdde0b","ios":"levelo://app?vid=49946a04-6f12-40d7-8e4b-a0a036bdde0b"},"vehicle_type_id":"4","last_reported":1732000160,"current_range_meters":9600,"station_id":"ce4bh0p2rcd13ifvqd80","pricing_plan_id":"cebpf4jnsgd1na2vs0mg"},{"bike_id":"56a1fbe8-7cb5-4a8f-81a8-27692ae76a70","system_id":"levelo_inurba_marseille","lat":43.26496,"lon":5.40976,"is_reserved":false,"is_disabled":false,"rental_uris":{"android":"levelo://app?vid=56a1fbe8-7cb5-4a8f-81a8-27692ae76a70","ios":"levelo://app?vid=56a1fbe8-7cb5-4a8f-81a8-27692ae76a70"},"vehicle_type_id":"4","last_reported":1732000160,"current_range_meters":28000,"station_id":"ce4bhk92rcd13ifvqgb0","pricing_plan_id":"cebpf4jnsgd1na2vs0mg"},{"bike_id":"bc122eef-c627-4c48-898c-81234e04e2bd","system_id":"levelo_inurba_marseille","lat":43.30594,"lon":5.39353,"is_reserved":false,"is_disabled":true,"rental_uris":{"android":"levelo://app?vid=bc122eef-c627-4c48-898c-81234e04e2bd","ios":"levelo://app?vid=bc122eef-c627-4c48-898c-81234e04e2bd"},"vehicle_type_id":"4","last_reported":1732000160,"current_range_meters":39200,"station_id":"ce4bh0p2rcd13ifvqd80","pricing_plan_id":"cebpf4jnsgd1na2vs0mg"},{"bike_id":"9ce67508-8b06-4b57-9464-c2d28878484d","system_id":"levelo_inurba_marseille","lat":43.34141,"lon":5.40913,"is_reserved":false,"is_disabled":false,"rental_uris":{"android":"levelo://app?vid=9ce67508-8b06-4b57-9464-c2d28878484d","ios":"levelo://app?vid=9ce67508-8b06-4b57-9464-c2d28878484d"},"vehicle_type_id":"4","last_reported":1732000160,"current_range_meters":17200,"station_id":"ce4bhqh2rcd13ifvqhlg","pricing_plan_id":"cebpf4jnsgd1na2vs0mg"},{"bike_id":"e37491b5-17fe-4389-a8a2-0030ae7f5463","system_id":"levelo_inurba_marseille","lat":43.30591,"lon":5.39353,"is_reserved":false,"is_disabled":false,"rental_uris":{"android":"levelo://app?vid=e37491b5-17fe-4389-a8a2-0030ae7f5463","ios":"levelo://app?vid=e37491b5-17fe-4389-a8a2-0030ae7f5463"},"vehicle_type_id":"4","last_reported":1732000160,"current_range_meters":38000,"station_id":"ce4bh0p2rcd13ifvqd80","pricing_plan_id":"cebpf4jnsgd1na2vs0mg"},{"bike_id":"1341a828-b981-4198-a789-8a5791ca7539","system_id":"levelo_inurba_marseille","lat":43.25011,"lon":5.38915,"is_reserved":false,"is_disabled":false,"rental_uris":{"android":"levelo://app?vid=1341a828-b981-4198-a789-8a5791ca7539","ios":"levelo://app?vid=1341a828-b981-4198-a789-8a5791ca7539"},"vehicle_type_id":"4","last_reported":1732000160,"current_range_meters":37600,"station_id":"ce4bhgp2rcd13ifvqfd0","pricing_plan_id":"cebpf4jnsgd1na2vs0mg"},{"bike_id":"423c94ef-b71b-4307-a3dd-5dfeaef4c110","system_id":"levelo_inurba_marseille","lat":43.28403,"lon":5.37524,"is_reserved":false,"is_disabled":false,"rental_uris":{"android":"levelo://app?vid=423c94ef-b71b-4307-a3dd-5dfeaef4c110","ios":"levelo://app?vid=423c94ef-b71b-4307-a3dd-5dfeaef4c110"},"vehicle_type_id":"4","last_reported":1732000160,"current_range_meters":29600,"station_id":"ce4bh412rcd13ifvqds0","pricing_plan_id":"cebpf4jnsgd1na2vs0mg"},{"bike_id":"5d26e81d-6dc6-4b0b-89b3-d188825ccd4b","system_id":"levelo_inurba_marseille","lat":43.31343,"lon":5.36715,"is_reserved":false,"is_disabled":false,"rental_uris":{"android":"levelo://app?vid=5d26e81d-6dc6-4b0b-89b3-d188825ccd4b","ios":"levelo://app?vid=5d26e81d-6dc6-4b0b-89b3-d188825ccd4b"},"vehicle_type_id":"4","last_reported":1732000160,"current_range_meters":39200,"station_id":"ce4bgr92rcd13ifvqc6g","pricing_plan_id":"cebpf4jnsgd1na2vs0mg"},{"bike_id":"e3511c0c-eb2b-4100-bb2d-c5ebcd644bea","system_id":"levelo_inurba_marseille","lat":43.23963,"lon":5.36623,"is_reserved":false,"is_disabled":true,"rental_uris":{"android":"levelo://app?vid=e3511c0c-eb2b-4100-bb2d-c5ebcd644bea","ios":"levelo://app?vid=e3511c0c-eb2b-4100-bb2d-c5ebcd644bea"},"vehicle_type_id":"4","last_reported":1732000160,"current_range_meters":36800,"station_id":"ce4bhi12rcd13ifvqfp0","pricing_plan_id":"cebpf4jnsgd1na2vs0mg"},{"bike_id":"08ffd31c-fe78-416e-b527-8f7725b133f1","system_id":"levelo_inurba_marseille","lat":43.27994,"lon":5.40011,"is_reserved":false,"is_disabled":false,"rental_uris":{"android":"levelo://app?vid=08ffd31c-fe78-416e-b527-8f7725b133f1","ios":"levelo://app?vid=08ffd31c-fe78-416e-b527-8f7725b133f1"},"vehicle_type_id":"4","last_reported":1732000160,"current_range_meters":35600,"station_id":"ce4bho92rcd13ifvqh4g","pricing_plan_id":"cebpf4jnsgd1na2vs0mg"},{"bike_id":"ef31495f-6a34-4d74-a72b-91bbac7371df","system_id":"levelo_inurba_marseille","lat":43.25926,"lon":5.40902,"is_reserved":false,"is_disabled":true,"rental_uris":{"android":"levelo://app?vid=ef31495f-6a34-4d74-a72b-91bbac7371df","ios":"levelo://app?vid=ef31495f-6a34-4d74-a72b-91bbac7371df"},"vehicle_type_id":"4","last_reported":1732000160,"current_range_meters":22000,"station_id":"ce4bhm92rcd13ifvqglg","pricing_plan_id":"cebpf4jnsgd1na2vs0mg"},{"bike_id":"d10c90fd-3c70-4bb6-bcaa-6d62b6ce4770","system_id":"levelo_inurba_marseille","lat":43.26069,"lon":5.39391,"is_reserved":false,"is_disabled":true,"rental_uris":{"android":"levelo://app?vid=d10c90fd-3c70-4bb6-bcaa-6d62b6ce4770","ios":"levelo://app?vid=d10c90fd-3c70-4bb6-bcaa-6d62b6ce4770"},"vehicle_type_id":"4","last_reported":1732000160,"current_range_meters":8800,"station_id":"ce4bhh92rcd13ifvqfj0","pricing_plan_id":"cebpf4jnsgd1na2vs0mg"},{"bike_id":"5917a06d-1a89-42ee-9c96-70b3e49f2520","system_id":"levelo_inurba_marseille","lat":43.31696,"lon":5.4047,"is_reserved":false,"is_disabled":true,"rental_uris":{"android":"levelo://app?vid=5917a06d-1a89-42ee-9c96-70b3e49f2520","ios":"levelo://app?vid=5917a06d-1a89-42ee-9c96-70b3e49f2520"},"vehicle_type_id":"4","last_reported":1732000160,"current_range_meters":14400,"station_id":"ce4bh012rcd13ifvqd00","pricing_plan_id":"cebpf4jnsgd1na2vs0mg"},{"bike_id":"2bf8462e-8d6e-4c88-b1ed-8176673e0667","system_id":"levelo_inurba_marseille","lat":43.29596,"lon":5.367527,"is_reserved":false,"is_disabled":false,"rental_uris":{"android":"levelo://app?vid=2bf8462e-8d6e-4c88-b1ed-8176673e0667","ios":"levelo://app?vid=2bf8462e-8d6e-4c88-b1ed-8176673e0667"},"vehicle_type_id":"4","last_reported":1732000160,"current_range_meters":33200,"station_id":"ce4bgph2rcd13ifvqc2g","pricing_plan_id":"cebpf4jnsgd1na2vs0mg"},{"bike_id":"0ae43ad8-7108-4495-908e-f716a5c3355b","system_id":"levelo_inurba_marseille","lat":43.25942,"lon":5.40905,"is_reserved":false,"is_disabled":false,"rental_uris":{"android":"levelo://app?vid=0ae43ad8-7108-4495-908e-f716a5c3355b","ios":"levelo://app?vid=0ae43ad8-7108-4495-908e-f716a5c3355b"},"vehicle_type_id":"4","last_reported":1732000160,"current_range_meters":39200,"station_id":"ce4bhm92rcd13ifvqglg","pricing_plan_id":"cebpf4jnsgd1na2vs0mg"},{"bike_id":"81886dc6-92c9-4dc8-94d6-2c0a04583316","system_id":"levelo_inurba_marseille","lat":43.30149,"lon":5.38075,"is_reserved":false,"is_disabled":false,"rental_uris":{"android":"levelo://app?vid=81886dc6-92c9-4dc8-94d6-2c0a04583316","ios":"levelo://app?vid=81886dc6-92c9-4dc8-94d6-2c0a04583316"},"vehicle_type_id":"4","last_reported":1732000160,"current_range_meters":1600,"station_id":"ce4bgjp2rcd13ifvqbh0","pricing_plan_id":"cebpf4jnsgd1na2vs0mg"},{"bike_id":"41b96929-0e85-4a6a-992d-5344c1420818","system_id":"levelo_inurba_marseille","lat":43.30918,"lon":5.36845,"is_reserved":false,"is_disabled":false,"rental_uris":{"android":"levelo://app?vid=41b96929-0e85-4a6a-992d-5344c1420818","ios":"levelo://app?vid=41b96929-0e85-4a6a-992d-5344c1420818"},"vehicle_type_id":"4","last_reported":1732000160,"current_range_meters":16800,"station_id":"ce4bgn92rcd13ifvqbvg","pricing_plan_id":"cebpf4jnsgd1na2vs0mg"},{"bike_id":"02c7140d-eb0a-4832-a8c4-16edc8f79941","system_id":"levelo_inurba_marseille","lat":43.23967,"lon":5.36634,"is_reserved":false,"is_disabled":false,"rental_uris":{"android":"levelo://app?vid=02c7140d-eb0a-4832-a8c4-16edc8f79941","ios":"levelo://app?vid=02c7140d-eb0a-4832-a8c4-16edc8f79941"},"vehicle_type_id":"4","last_reported":1732000160,"current_range_meters":22000,"station_id":"ce4bhi12rcd13ifvqfp0","pricing_plan_id":"cebpf4jnsgd1na2vs0mg"},{"bike_id":"0534ce24-46b6-4220-851d-cebdfec71164","system_id":"levelo_inurba_marseille","lat":43.23188,"lon":5.39979,"is_reserved":false,"is_disabled":false,"rental_uris":{"android":"levelo://app?vid=0534ce24-46b6-4220-851d-cebdfec71164","ios":"levelo://app?vid=0534ce24-46b6-4220-851d-cebdfec71164"},"vehicle_type_id":"4","last_reported":1732000160,"current_range_meters":38000,"station_id":"ce4bhn12rcd13ifvqgqg","pricing_plan_id":"cebpf4jnsgd1na2vs0mg"},{"bike_id":"90fa7479-5412-420f-b30a-a7ffd1d1c2f5","system_id":"levelo_inurba_marseille","lat":43.31117,"lon":5.37775,"is_reserved":false,"is_disabled":false,"rental_uris":{"android":"levelo://app?vid=90fa7479-5412-420f-b30a-a7ffd1d1c2f5","ios":"levelo://app?vid=90fa7479-5412-420f-b30a-a7ffd1d1c2f5"},"vehicle_type_id":"4","last_reported":1732000160,"current_range_meters":22400,"station_id":"ce4bgt92rcd13ifvqcg0","pricing_plan_id":"cebpf4jnsgd1na2vs0mg"},{"bike_id":"e4897b49-0f0e-49bf-9a7a-51d7117eac38","system_id":"levelo_inurba_marseille","lat":43.25937,"lon":5.40908,"is_reserved":false,"is_disabled":false,"rental_uris":{"android":"levelo://app?vid=e4897b49-0f0e-49bf-9a7a-51d7117eac38","ios":"levelo://app?vid=e4897b49-0f0e-49bf-9a7a-51d7117eac38"},"vehicle_type_id":"4","last_reported":1732000160,"current_range_meters":18000,"station_id":"ce4bhm92rcd13ifvqglg","pricing_plan_id":"cebpf4jnsgd1na2vs0mg"},{"bike_id":"80851460-2c7d-4d36-9c6e-80e3087e4e9c","system_id":"levelo_inurba_marseille","lat":43.28621,"lon":5.35098,"is_reserved":false,"is_disabled":false,"rental_uris":{"android":"levelo://app?vid=80851460-2c7d-4d36-9c6e-80e3087e4e9c","ios":"levelo://app?vid=80851460-2c7d-4d36-9c6e-80e3087e4e9c"},"vehicle_type_id":"4","last_reported":1732000160,"current_range_meters":30800,"station_id":"ce4bhch2rcd13ifvqeug","pricing_plan_id":"cebpf4jnsgd1na2vs0mg"},{"bike_id":"3f095bc8-9af8-4b0b-a298-157d8e949f36","system_id":"levelo_inurba_marseille","lat":43.27659,"lon":5.38897,"is_reserved":false,"is_disabled":true,"rental_uris":{"android":"levelo://app?vid=3f095bc8-9af8-4b0b-a298-157d8e949f36","ios":"levelo://app?vid=3f095bc8-9af8-4b0b-a298-157d8e949f36"},"vehicle_type_id":"4","last_reported":1732000160,"current_range_meters":7200,"station_id":"ce4bhi12rcd13ifvqfo0","pricing_plan_id":"cebpf4jnsgd1na2vs0mg"},{"bike_id":"7c407d42-b656-4801-b91f-c3365028215c","system_id":"levelo_inurba_marseille","lat":43.26215,"lon":5.3744,"is_reserved":false,"is_disabled":false,"rental_uris":{"android":"levelo://app?vid=7c407d42-b656-4801-b91f-c3365028215c","ios":"levelo://app?vid=7c407d42-b656-4801-b91f-c3365028215c"},"vehicle_type_id":"4","last_reported":1732000160,"current_range_meters":38400,"station_id":"ce4bhgp2rcd13ifvqfc0","pricing_plan_id":"cebpf4jnsgd1na2vs0mg"},{"bike_id":"d9191eb3-d044-4aba-ba0e-dd3c3b6c8bb3","system_id":"levelo_inurba_marseille","lat":43.31348,"lon":5.36699,"is_reserved":false,"is_disabled":false,"rental_uris":{"android":"levelo://app?vid=d9191eb3-d044-4aba-ba0e-dd3c3b6c8bb3","ios":"levelo://app?vid=d9191eb3-d044-4aba-ba0e-dd3c3b6c8bb3"},"vehicle_type_id":"4","last_reported":1732000160,"current_range_meters":36400,"station_id":"ce4bgr92rcd13ifvqc6g","pricing_plan_id":"cebpf4jnsgd1na2vs0mg"},{"bike_id":"04b58eaf-7db8-40e6-bc98-edbbcc534be4","system_id":"levelo_inurba_marseille","lat":43.25584,"lon":5.3824,"is_reserved":false,"is_disabled":false,"rental_uris":{"android":"levelo://app?vid=04b58eaf-7db8-40e6-bc98-edbbcc534be4","ios":"levelo://app?vid=04b58eaf-7db8-40e6-bc98-edbbcc534be4"},"vehicle_type_id":"4","last_reported":1732000160,"current_range_meters":15200,"station_id":"ce4bhih2rcd13ifvqfs0","pricing_plan_id":"cebpf4jnsgd1na2vs0mg"},{"bike_id":"b8e6c437-6e5a-47fb-baad-6fb34360001f","system_id":"levelo_inurba_marseille","lat":43.30553,"lon":5.38408,"is_reserved":false,"is_disabled":false,"rental_uris":{"android":"levelo://app?vid=b8e6c437-6e5a-47fb-baad-6fb34360001f","ios":"levelo://app?vid=b8e6c437-6e5a-47fb-baad-6fb34360001f"},"vehicle_type_id":"4","last_reported":1732000160,"current_range_meters":25600,"station_id":"ce4bgg92rcd13ifvqb30","pricing_plan_id":"cebpf4jnsgd1na2vs0mg"},{"bike_id":"d674a550-723f-4e20-a0c2-89aa344c2ade","system_id":"levelo_inurba_marseille","lat":43.282,"lon":5.443733,"is_reserved":false,"is_disabled":false,"rental_uris":{"android":"levelo://app?vid=d674a550-723f-4e20-a0c2-89aa344c2ade","ios":"levelo://app?vid=d674a550-723f-4e20-a0c2-89aa344c2ade"},"vehicle_type_id":"4","last_reported":1732000160,"current_range_meters":4000,"station_id":"","pricing_plan_id":"cebpf4jnsgd1na2vs0mg"},{"bike_id":"c2235a67-320f-43ca-ae2b-3d172dcde52e","system_id":"levelo_inurba_marseille","lat":43.30468,"lon":5.37916,"is_reserved":false,"is_disabled":false,"rental_uris":{"android":"levelo://app?vid=c2235a67-320f-43ca-ae2b-3d172dcde52e","ios":"levelo://app?vid=c2235a67-320f-43ca-ae2b-3d172dcde52e"},"vehicle_type_id":"4","last_reported":1732000160,"current_range_meters":27200,"station_id":"ce4bgup2rcd13ifvqcn0","pricing_plan_id":"cebpf4jnsgd1na2vs0mg"},{"bike_id":"f26f9ff4-6d82-459d-bc98-b8addb7fa0b2","system_id":"levelo_inurba_marseille","lat":43.28942,"lon":5.36632,"is_reserved":false,"is_disabled":true,"rental_uris":{"android":"levelo://app?vid=f26f9ff4-6d82-459d-bc98-b8addb7fa0b2","ios":"levelo://app?vid=f26f9ff4-6d82-459d-bc98-b8addb7fa0b2"},"vehicle_type_id":"4","last_reported":1732000160,"current_range_meters":0,"station_id":"ce4bhap2rcd13ifvqek0","pricing_plan_id":"cebpf4jnsgd1na2vs0mg"},{"bike_id":"6b820048-12f4-4da7-aee0-6c64c8a09952","system_id":"levelo_inurba_marseille","lat":43.31065,"lon":5.38185,"is_reserved":false,"is_disabled":false,"rental_uris":{"android":"levelo://app?vid=6b820048-12f4-4da7-aee0-6c64c8a09952","ios":"levelo://app?vid=6b820048-12f4-4da7-aee0-6c64c8a09952"},"vehicle_type_id":"4","last_reported":1732000160,"current_range_meters":27600,"station_id":"","pricing_plan_id":"cebpf4jnsgd1na2vs0mg"},{"bike_id":"b6d3f768-fc25-422c-9ba9-aa7cb1be9062","system_id":"levelo_inurba_marseille","lat":43.29805,"lon":5.38078,"is_reserved":false,"is_disabled":false,"rental_uris":{"android":"levelo://app?vid=b6d3f768-fc25-422c-9ba9-aa7cb1be9062","ios":"levelo://app?vid=b6d3f768-fc25-422c-9ba9-aa7cb1be9062"},"vehicle_type_id":"4","last_reported":1732000160,"current_range_meters":37600,"station_id":"ce4bgip2rcd13ifvqbb0","pricing_plan_id":"cebpf4jnsgd1na2vs0mg"},{"bike_id":"a10f0b15-49fa-476c-b8ca-b27c205c5ba2","system_id":"levelo_inurba_marseille","lat":43.30353,"lon":5.41884,"is_reserved":false,"is_disabled":false,"rental_uris":{"android":"levelo://app?vid=a10f0b15-49fa-476c-b8ca-b27c205c5ba2","ios":"levelo://app?vid=a10f0b15-49fa-476c-b8ca-b27c205c5ba2"},"vehicle_type_id":"4","last_reported":1732000160,"current_range_meters":37600,"station_id":"ce4bhop2rcd13ifvqh7g","pricing_plan_id":"cebpf4jnsgd1na2vs0mg"},{"bike_id":"6f15359a-2cd7-4087-bca5-085914606a58","system_id":"levelo_inurba_marseille","lat":43.26567,"lon":5.39005,"is_reserved":false,"is_disabled":false,"rental_uris":{"android":"levelo://app?vid=6f15359a-2cd7-4087-bca5-085914606a58","ios":"levelo://app?vid=6f15359a-2cd7-4087-bca5-085914606a58"},"vehicle_type_id":"4","last_reported":1732000160,"current_range_meters":38400,"station_id":"ce4bhe12rcd13ifvqf30","pricing_plan_id":"cebpf4jnsgd1na2vs0mg"},{"bike_id":"1f70a4f7-6a77-4e01-b6e0-5211b5248571","system_id":"levelo_inurba_marseille","lat":43.2908,"lon":5.37185,"is_reserved":false,"is_disabled":false,"rental_uris":{"android":"levelo://app?vid=1f70a4f7-6a77-4e01-b6e0-5211b5248571","ios":"levelo://app?vid=1f70a4f7-6a77-4e01-b6e0-5211b5248571"},"vehicle_type_id":"4","last_reported":1732000160,"current_range_meters":38000,"station_id":"ce4bh5p2rcd13ifvqe4g","pricing_plan_id":"cebpf4jnsgd1na2vs0mg"},{"bike_id":"5873cbbb-60e4-463a-a62f-14bc6adde5e8","system_id":"levelo_inurba_marseille","lat":43.28031,"lon":5.36945,"is_reserved":false,"is_disabled":false,"rental_uris":{"android":"levelo://app?vid=5873cbbb-60e4-463a-a62f-14bc6adde5e8","ios":"levelo://app?vid=5873cbbb-60e4-463a-a62f-14bc6adde5e8"},"vehicle_type_id":"4","last_reported":1732000160,"current_range_meters":5600,"station_id":"ce4bha12rcd13ifvqef0","pricing_plan_id":"cebpf4jnsgd1na2vs0mg"},{"bike_id":"a74ebd93-bc18-4c3e-aace-af4ac37176f1","system_id":"levelo_inurba_marseille","lat":43.32363,"lon":5.38869,"is_reserved":false,"is_disabled":false,"rental_uris":{"android":"levelo://app?vid=a74ebd93-bc18-4c3e-aace-af4ac37176f1","ios":"levelo://app?vid=a74ebd93-bc18-4c3e-aace-af4ac37176f1"},"vehicle_type_id":"4","last_reported":1732000160,"current_range_meters":29600,"station_id":"ce4bhqp2rcd13ifvqhog","pricing_plan_id":"cebpf4jnsgd1na2vs0mg"},{"bike_id":"9c82aec4-b25e-4e2d-90e6-c4e64e936483","system_id":"levelo_inurba_marseille","lat":43.24656,"lon":5.38899,"is_reserved":false,"is_disabled":false,"rental_uris":{"android":"levelo://app?vid=9c82aec4-b25e-4e2d-90e6-c4e64e936483","ios":"levelo://app?vid=9c82aec4-b25e-4e2d-90e6-c4e64e936483"},"vehicle_type_id":"4","last_reported":1732000160,"current_range_meters":19600,"station_id":"ce4bhg12rcd13ifvqf60","pricing_plan_id":"cebpf4jnsgd1na2vs0mg"},{"bike_id":"72a62a81-c57c-4015-88a9-053980511fe6","system_id":"levelo_inurba_marseille","lat":43.30473,"lon":5.37905,"is_reserved":false,"is_disabled":false,"rental_uris":{"android":"levelo://app?vid=72a62a81-c57c-4015-88a9-053980511fe6","ios":"levelo://app?vid=72a62a81-c57c-4015-88a9-053980511fe6"},"vehicle_type_id":"4","last_reported":1732000160,"current_range_meters":39200,"station_id":"ce4bgup2rcd13ifvqcn0","pricing_plan_id":"cebpf4jnsgd1na2vs0mg"},{"bike_id":"71663bdf-f25e-448b-bdec-7a93e09d88e3","system_id":"levelo_inurba_marseille","lat":43.28939,"lon":5.39635,"is_reserved":false,"is_disabled":false,"rental_uris":{"android":"levelo://app?vid=71663bdf-f25e-448b-bdec-7a93e09d88e3","ios":"levelo://app?vid=71663bdf-f25e-448b-bdec-7a93e09d88e3"},"vehicle_type_id":"4","last_reported":1732000160,"current_range_meters":32000,"station_id":"ce4bh3h2rcd13ifvqdn0","pricing_plan_id":"cebpf4jnsgd1na2vs0mg"},{"bike_id":"8c4a80e6-fe5d-4d67-934f-a61aacbace82","system_id":"levelo_inurba_marseille","lat":43.29041,"lon":5.39956,"is_reserved":false,"is_disabled":false,"rental_uris":{"android":"levelo://app?vid=8c4a80e6-fe5d-4d67-934f-a61aacbace82","ios":"levelo://app?vid=8c4a80e6-fe5d-4d67-934f-a61aacbace82"},"vehicle_type_id":"4","last_reported":1732000160,"current_range_meters":31200,"station_id":"ce4bh392rcd13ifvqdm0","pricing_plan_id":"cebpf4jnsgd1na2vs0mg"},{"bike_id":"23ad4a06-5bf9-48fc-8afa-375decf86b39","system_id":"levelo_inurba_marseille","lat":43.29927,"lon":5.36545,"is_reserved":false,"is_disabled":false,"rental_uris":{"android":"levelo://app?vid=23ad4a06-5bf9-48fc-8afa-375decf86b39","ios":"levelo://app?vid=23ad4a06-5bf9-48fc-8afa-375decf86b39"},"vehicle_type_id":"4","last_reported":1732000160,"current_range_meters":7200,"station_id":"ce4bgm92rcd13ifvqbr0","pricing_plan_id":"cebpf4jnsgd1na2vs0mg"},{"bike_id":"bc249293-6395-4334-b84a-652f70f197fc","system_id":"levelo_inurba_marseille","lat":43.27624,"lon":5.42638,"is_reserved":false,"is_disabled":true,"rental_uris":{"android":"levelo://app?vid=bc249293-6395-4334-b84a-652f70f197fc","ios":"levelo://app?vid=bc249293-6395-4334-b84a-652f70f197fc"},"vehicle_type_id":"4","last_reported":1732000160,"current_range_meters":1200,"station_id":"","pricing_plan_id":"cebpf4jnsgd1na2vs0mg"},{"bike_id":"c67c8bf8-98b3-499b-b132-d9be38caffe0","system_id":"levelo_inurba_marseille","lat":43.29228,"lon":5.36076,"is_reserved":false,"is_disabled":false,"rental_uris":{"android":"levelo://app?vid=c67c8bf8-98b3-499b-b132-d9be38caffe0","ios":"levelo://app?vid=c67c8bf8-98b3-499b-b132-d9be38caffe0"},"vehicle_type_id":"4","last_reported":1732000160,"current_range_meters":38400,"station_id":"ce4bhbh2rcd13ifvqeqg","pricing_plan_id":"cebpf4jnsgd1na2vs0mg"},{"bike_id":"5203ab47-a9f6-48ae-bdd3-3c5a5ab6ee25","system_id":"levelo_inurba_marseille","lat":43.299714,"lon":5.384902,"is_reserved":false,"is_disabled":true,"rental_uris":{"android":"levelo://app?vid=5203ab47-a9f6-48ae-bdd3-3c5a5ab6ee25","ios":"levelo://app?vid=5203ab47-a9f6-48ae-bdd3-3c5a5ab6ee25"},"vehicle_type_id":"4","last_reported":1732000160,"current_range_meters":36800,"station_id":"ce4bgj92rcd13ifvqbd0","pricing_plan_id":"cebpf4jnsgd1na2vs0mg"},{"bike_id":"be1dd5f8-91fc-4786-8461-76cd869dae13","system_id":"levelo_inurba_marseille","lat":43.31982,"lon":5.41584,"is_reserved":false,"is_disabled":false,"rental_uris":{"android":"levelo://app?vid=be1dd5f8-91fc-4786-8461-76cd869dae13","ios":"levelo://app?vid=be1dd5f8-91fc-4786-8461-76cd869dae13"},"vehicle_type_id":"4","last_reported":1732000160,"current_range_meters":27200,"station_id":"","pricing_plan_id":"cebpf4jnsgd1na2vs0mg"},{"bike_id":"faa3accd-82ad-4ab4-8459-e7f3d78bab6c","system_id":"levelo_inurba_marseille","lat":43.28158,"lon":5.42651,"is_reserved":false,"is_disabled":false,"rental_uris":{"android":"levelo://app?vid=faa3accd-82ad-4ab4-8459-e7f3d78bab6c","ios":"levelo://app?vid=faa3accd-82ad-4ab4-8459-e7f3d78bab6c"},"vehicle_type_id":"4","last_reported":1732000160,"current_range_meters":38800,"station_id":"ce4bhnh2rcd13ifvqgug","pricing_plan_id":"cebpf4jnsgd1na2vs0mg"},{"bike_id":"ee5ad2bc-dd93-4a60-9deb-ff629596020e","system_id":"levelo_inurba_marseille","lat":43.24183,"lon":5.39728,"is_reserved":false,"is_disabled":false,"rental_uris":{"android":"levelo://app?vid=ee5ad2bc-dd93-4a60-9deb-ff629596020e","ios":"levelo://app?vid=ee5ad2bc-dd93-4a60-9deb-ff629596020e"},"vehicle_type_id":"4","last_reported":1732000160,"current_range_meters":38800,"station_id":"ce4bhn12rcd13ifvqgpg","pricing_plan_id":"cebpf4jnsgd1na2vs0mg"},{"bike_id":"6d74e062-5fe2-4180-bf5a-81272d2cdbed","system_id":"levelo_inurba_marseille","lat":43.29974,"lon":5.38491,"is_reserved":false,"is_disabled":false,"rental_uris":{"android":"levelo://app?vid=6d74e062-5fe2-4180-bf5a-81272d2cdbed","ios":"levelo://app?vid=6d74e062-5fe2-4180-bf5a-81272d2cdbed"},"vehicle_type_id":"4","last_reported":1732000160,"current_range_meters":34800,"station_id":"ce4bgj92rcd13ifvqbd0","pricing_plan_id":"cebpf4jnsgd1na2vs0mg"},{"bike_id":"040df864-1d44-4716-9bba-b89e08f6be00","system_id":"levelo_inurba_marseille","lat":43.28622,"lon":5.35102,"is_reserved":false,"is_disabled":false,"rental_uris":{"android":"levelo://app?vid=040df864-1d44-4716-9bba-b89e08f6be00","ios":"levelo://app?vid=040df864-1d44-4716-9bba-b89e08f6be00"},"vehicle_type_id":"4","last_reported":1732000160,"current_range_meters":11200,"station_id":"ce4bhch2rcd13ifvqeug","pricing_plan_id":"cebpf4jnsgd1na2vs0mg"},{"bike_id":"e5e2248a-03d3-4b07-b4f7-fd61796e9419","system_id":"levelo_inurba_marseille","lat":43.29978,"lon":5.380767,"is_reserved":false,"is_disabled":true,"rental_uris":{"android":"levelo://app?vid=e5e2248a-03d3-4b07-b4f7-fd61796e9419","ios":"levelo://app?vid=e5e2248a-03d3-4b07-b4f7-fd61796e9419"},"vehicle_type_id":"4","last_reported":1732000160,"current_range_meters":0,"station_id":"","pricing_plan_id":"cebpf4jnsgd1na2vs0mg"},{"bike_id":"6ceef664-acd2-42e1-b843-e993f58ca8f0","system_id":"levelo_inurba_marseille","lat":43.33603,"lon":5.41032,"is_reserved":false,"is_disabled":false,"rental_uris":{"android":"levelo://app?vid=6ceef664-acd2-42e1-b843-e993f58ca8f0","ios":"levelo://app?vid=6ceef664-acd2-42e1-b843-e993f58ca8f0"},"vehicle_type_id":"4","last_reported":1732000160,"current_range_meters":18000,"station_id":"ce4bhqh2rcd13ifvqhmg","pricing_plan_id":"cebpf4jnsgd1na2vs0mg"},{"bike_id":"943d29dd-157b-4d65-a09d-417e1227f254","system_id":"levelo_inurba_marseille","lat":43.32659,"lon":5.4099,"is_reserved":false,"is_disabled":false,"rental_uris":{"android":"levelo://app?vid=943d29dd-157b-4d65-a09d-417e1227f254","ios":"levelo://app?vid=943d29dd-157b-4d65-a09d-417e1227f254"},"vehicle_type_id":"4","last_reported":1732000160,"current_range_meters":38400,"station_id":"ce4bhpp2rcd13ifvqhgg","pricing_plan_id":"cebpf4jnsgd1na2vs0mg"},{"bike_id":"56edd46b-d236-45f1-ba2f-1f7d8acc3af2","system_id":"levelo_inurba_marseille","lat":43.337444,"lon":5.374475,"is_reserved":false,"is_disabled":false,"rental_uris":{"android":"levelo://app?vid=56edd46b-d236-45f1-ba2f-1f7d8acc3af2","ios":"levelo://app?vid=56edd46b-d236-45f1-ba2f-1f7d8acc3af2"},"vehicle_type_id":"4","last_reported":1732000160,"current_range_meters":35600,"station_id":"","pricing_plan_id":"cebpf4jnsgd1na2vs0mg"},{"bike_id":"cd3ead8f-e453-49dc-8a7f-902dde01b246","system_id":"levelo_inurba_marseille","lat":43.28849,"lon":5.35856,"is_reserved":false,"is_disabled":false,"rental_uris":{"android":"levelo://app?vid=cd3ead8f-e453-49dc-8a7f-902dde01b246","ios":"levelo://app?vid=cd3ead8f-e453-49dc-8a7f-902dde01b246"},"vehicle_type_id":"4","last_reported":1732000160,"current_range_meters":24800,"station_id":"ce4bhb12rcd13ifvqem0","pricing_plan_id":"cebpf4jnsgd1na2vs0mg"},{"bike_id":"d6efe9b0-b4e9-4e49-baf5-57e7580b2300","system_id":"levelo_inurba_marseille","lat":43.26683,"lon":5.3827,"is_reserved":false,"is_disabled":false,"rental_uris":{"android":"levelo://app?vid=d6efe9b0-b4e9-4e49-baf5-57e7580b2300","ios":"levelo://app?vid=d6efe9b0-b4e9-4e49-baf5-57e7580b2300"},"vehicle_type_id":"4","last_reported":1732000160,"current_range_meters":6000,"station_id":"ce4bhg92rcd13ifvqf90","pricing_plan_id":"cebpf4jnsgd1na2vs0mg"},{"bike_id":"5bbcd2f3-be5f-45bd-b4a5-6aad5ec279d4","system_id":"levelo_inurba_marseille","lat":43.30809,"lon":5.38154,"is_reserved":false,"is_disabled":false,"rental_uris":{"android":"levelo://app?vid=5bbcd2f3-be5f-45bd-b4a5-6aad5ec279d4","ios":"levelo://app?vid=5bbcd2f3-be5f-45bd-b4a5-6aad5ec279d4"},"vehicle_type_id":"4","last_reported":1732000160,"current_range_meters":35600,"station_id":"ce4bgt12rcd13ifvqce0","pricing_plan_id":"cebpf4jnsgd1na2vs0mg"},{"bike_id":"fc17ff97-0220-4805-85da-62a3c731d502","system_id":"levelo_inurba_marseille","lat":43.30547,"lon":5.3841,"is_reserved":false,"is_disabled":true,"rental_uris":{"android":"levelo://app?vid=fc17ff97-0220-4805-85da-62a3c731d502","ios":"levelo://app?vid=fc17ff97-0220-4805-85da-62a3c731d502"},"vehicle_type_id":"4","last_reported":1732000160,"current_range_meters":0,"station_id":"ce4bgg92rcd13ifvqb30","pricing_plan_id":"cebpf4jnsgd1na2vs0mg"},{"bike_id":"d6a55675-38e9-4993-b62a-c8b613e92295","system_id":"levelo_inurba_marseille","lat":43.27498,"lon":5.42452,"is_reserved":false,"is_disabled":false,"rental_uris":{"android":"levelo://app?vid=d6a55675-38e9-4993-b62a-c8b613e92295","ios":"levelo://app?vid=d6a55675-38e9-4993-b62a-c8b613e92295"},"vehicle_type_id":"4","last_reported":1732000160,"current_range_meters":17200,"station_id":"ce4bhn92rcd13ifvqgrg","pricing_plan_id":"cebpf4jnsgd1na2vs0mg"},{"bike_id":"756bb2aa-068f-463e-9297-6710d258bf29","system_id":"levelo_inurba_marseille","lat":43.26959,"lon":5.38636,"is_reserved":false,"is_disabled":false,"rental_uris":{"android":"levelo://app?vid=756bb2aa-068f-463e-9297-6710d258bf29","ios":"levelo://app?vid=756bb2aa-068f-463e-9297-6710d258bf29"},"vehicle_type_id":"4","last_reported":1732000160,"current_range_meters":25600,"station_id":"ce4bhh92rcd13ifvqfh0","pricing_plan_id":"cebpf4jnsgd1na2vs0mg"},{"bike_id":"aa1254e8-ed2b-497a-a7fe-0f6f6a626404","system_id":"levelo_inurba_marseille","lat":43.30592,"lon":5.39355,"is_reserved":false,"is_disabled":false,"rental_uris":{"android":"levelo://app?vid=aa1254e8-ed2b-497a-a7fe-0f6f6a626404","ios":"levelo://app?vid=aa1254e8-ed2b-497a-a7fe-0f6f6a626404"},"vehicle_type_id":"4","last_reported":1732000160,"current_range_meters":21600,"station_id":"ce4bh0p2rcd13ifvqd80","pricing_plan_id":"cebpf4jnsgd1na2vs0mg"},{"bike_id":"809f7107-306a-42a4-ab85-f95168ef02b0","system_id":"levelo_inurba_marseille","lat":43.29201,"lon":5.39339,"is_reserved":false,"is_disabled":false,"rental_uris":{"android":"levelo://app?vid=809f7107-306a-42a4-ab85-f95168ef02b0","ios":"levelo://app?vid=809f7107-306a-42a4-ab85-f95168ef02b0"},"vehicle_type_id":"4","last_reported":1732000160,"current_range_meters":24400,"station_id":"ce4bh192rcd13ifvqdd0","pricing_plan_id":"cebpf4jnsgd1na2vs0mg"},{"bike_id":"00e31281-d352-4e28-ac1e-be3220a18b6e","system_id":"levelo_inurba_marseille","lat":43.30467,"lon":5.37903,"is_reserved":false,"is_disabled":false,"rental_uris":{"android":"levelo://app?vid=00e31281-d352-4e28-ac1e-be3220a18b6e","ios":"levelo://app?vid=00e31281-d352-4e28-ac1e-be3220a18b6e"},"vehicle_type_id":"4","last_reported":1732000160,"current_range_meters":14800,"station_id":"ce4bgup2rcd13ifvqcn0","pricing_plan_id":"cebpf4jnsgd1na2vs0mg"},{"bike_id":"189d655a-8092-41cb-8ea0-ca9bb7faa07b","system_id":"levelo_inurba_marseille","lat":43.26953,"lon":5.38632,"is_reserved":false,"is_disabled":false,"rental_uris":{"android":"levelo://app?vid=189d655a-8092-41cb-8ea0-ca9bb7faa07b","ios":"levelo://app?vid=189d655a-8092-41cb-8ea0-ca9bb7faa07b"},"vehicle_type_id":"4","last_reported":1732000160,"current_range_meters":5600,"station_id":"ce4bhh92rcd13ifvqfh0","pricing_plan_id":"cebpf4jnsgd1na2vs0mg"},{"bike_id":"0c21866d-64a6-48bd-84ec-2cdb016bb953","system_id":"levelo_inurba_marseille","lat":43.24391,"lon":5.37056,"is_reserved":false,"is_disabled":true,"rental_uris":{"android":"levelo://app?vid=0c21866d-64a6-48bd-84ec-2cdb016bb953","ios":"levelo://app?vid=0c21866d-64a6-48bd-84ec-2cdb016bb953"},"vehicle_type_id":"4","last_reported":1732000160,"current_range_meters":0,"station_id":"ce4bhhh2rcd13ifvqfk0","pricing_plan_id":"cebpf4jnsgd1na2vs0mg"},{"bike_id":"08d0498f-3ee0-4f75-a4d5-e1844ec1aa5c","system_id":"levelo_inurba_marseille","lat":43.31354,"lon":5.36707,"is_reserved":false,"is_disabled":false,"rental_uris":{"android":"levelo://app?vid=08d0498f-3ee0-4f75-a4d5-e1844ec1aa5c","ios":"levelo://app?vid=08d0498f-3ee0-4f75-a4d5-e1844ec1aa5c"},"vehicle_type_id":"4","last_reported":1732000160,"current_range_meters":36400,"station_id":"ce4bgr92rcd13ifvqc6g","pricing_plan_id":"cebpf4jnsgd1na2vs0mg"},{"bike_id":"8d9c7874-6ecd-4ea0-a9e8-ef53041c8d83","system_id":"levelo_inurba_marseille","lat":43.31354,"lon":5.38496,"is_reserved":false,"is_disabled":true,"rental_uris":{"android":"levelo://app?vid=8d9c7874-6ecd-4ea0-a9e8-ef53041c8d83","ios":"levelo://app?vid=8d9c7874-6ecd-4ea0-a9e8-ef53041c8d83"},"vehicle_type_id":"4","last_reported":1732000160,"current_range_meters":36800,"station_id":"ce4bgt92rcd13ifvqcf0","pricing_plan_id":"cebpf4jnsgd1na2vs0mg"},{"bike_id":"d6e54eb8-b569-4670-b12b-fc7e345ccec9","system_id":"levelo_inurba_marseille","lat":43.2974,"lon":5.37667,"is_reserved":false,"is_disabled":true,"rental_uris":{"android":"levelo://app?vid=d6e54eb8-b569-4670-b12b-fc7e345ccec9","ios":"levelo://app?vid=d6e54eb8-b569-4670-b12b-fc7e345ccec9"},"vehicle_type_id":"4","last_reported":1732000160,"current_range_meters":37600,"station_id":"ce4bgkh2rcd13ifvqbl0","pricing_plan_id":"cebpf4jnsgd1na2vs0mg"},{"bike_id":"7e66154f-c0d1-48da-b15a-17821824e4b2","system_id":"levelo_inurba_marseille","lat":43.31349,"lon":5.36715,"is_reserved":false,"is_disabled":false,"rental_uris":{"android":"levelo://app?vid=7e66154f-c0d1-48da-b15a-17821824e4b2","ios":"levelo://app?vid=7e66154f-c0d1-48da-b15a-17821824e4b2"},"vehicle_type_id":"4","last_reported":1732000160,"current_range_meters":17600,"station_id":"ce4bgr92rcd13ifvqc6g","pricing_plan_id":"cebpf4jnsgd1na2vs0mg"},{"bike_id":"cd75eccf-6644-4ce9-b3ae-17a02a26ec35","system_id":"levelo_inurba_marseille","lat":43.3136,"lon":5.36706,"is_reserved":false,"is_disabled":false,"rental_uris":{"android":"levelo://app?vid=cd75eccf-6644-4ce9-b3ae-17a02a26ec35","ios":"levelo://app?vid=cd75eccf-6644-4ce9-b3ae-17a02a26ec35"},"vehicle_type_id":"4","last_reported":1732000160,"current_range_meters":39200,"station_id":"ce4bgr92rcd13ifvqc6g","pricing_plan_id":"cebpf4jnsgd1na2vs0mg"},{"bike_id":"51bc85ab-9612-44a0-8e50-5ed5da90e43e","system_id":"levelo_inurba_marseille","lat":43.23183,"lon":5.39995,"is_reserved":false,"is_disabled":false,"rental_uris":{"android":"levelo://app?vid=51bc85ab-9612-44a0-8e50-5ed5da90e43e","ios":"levelo://app?vid=51bc85ab-9612-44a0-8e50-5ed5da90e43e"},"vehicle_type_id":"4","last_reported":1732000160,"current_range_meters":22400,"station_id":"ce4bhn12rcd13ifvqgqg","pricing_plan_id":"cebpf4jnsgd1na2vs0mg"},{"bike_id":"64a6dcb2-2c86-45bf-91f0-9495ab8e10df","system_id":"levelo_inurba_marseille","lat":43.28942,"lon":5.36632,"is_reserved":false,"is_disabled":false,"rental_uris":{"android":"levelo://app?vid=64a6dcb2-2c86-45bf-91f0-9495ab8e10df","ios":"levelo://app?vid=64a6dcb2-2c86-45bf-91f0-9495ab8e10df"},"vehicle_type_id":"4","last_reported":1732000160,"current_range_meters":25200,"station_id":"ce4bh692rcd13ifvqe90","pricing_plan_id":"cebpf4jnsgd1na2vs0mg"},{"bike_id":"10cdeb80-91be-444c-9ab8-8730d872b06d","system_id":"levelo_inurba_marseille","lat":43.29036,"lon":5.39977,"is_reserved":false,"is_disabled":true,"rental_uris":{"android":"levelo://app?vid=10cdeb80-91be-444c-9ab8-8730d872b06d","ios":"levelo://app?vid=10cdeb80-91be-444c-9ab8-8730d872b06d"},"vehicle_type_id":"4","last_reported":1732000160,"current_range_meters":20400,"station_id":"ce4bh392rcd13ifvqdm0","pricing_plan_id":"cebpf4jnsgd1na2vs0mg"},{"bike_id":"ec2ffaf5-de4d-420a-9fa5-ed414c6d3511","system_id":"levelo_inurba_marseille","lat":43.27491,"lon":5.42452,"is_reserved":false,"is_disabled":false,"rental_uris":{"android":"levelo://app?vid=ec2ffaf5-de4d-420a-9fa5-ed414c6d3511","ios":"levelo://app?vid=ec2ffaf5-de4d-420a-9fa5-ed414c6d3511"},"vehicle_type_id":"4","last_reported":1732000160,"current_range_meters":38000,"station_id":"ce4bhn92rcd13ifvqgrg","pricing_plan_id":"cebpf4jnsgd1na2vs0mg"},{"bike_id":"3005d60f-7c00-43d8-a3be-64a48f73604e","system_id":"levelo_inurba_marseille","lat":43.28941,"lon":5.36396,"is_reserved":false,"is_disabled":false,"rental_uris":{"android":"levelo://app?vid=3005d60f-7c00-43d8-a3be-64a48f73604e","ios":"levelo://app?vid=3005d60f-7c00-43d8-a3be-64a48f73604e"},"vehicle_type_id":"4","last_reported":1732000160,"current_range_meters":16000,"station_id":"ce4bhc92rcd13ifvqetg","pricing_plan_id":"cebpf4jnsgd1na2vs0mg"},{"bike_id":"0b733133-03c9-4766-961e-92b775b50bbc","system_id":"levelo_inurba_marseille","lat":43.28193,"lon":5.44267,"is_reserved":false,"is_disabled":true,"rental_uris":{"android":"levelo://app?vid=0b733133-03c9-4766-961e-92b775b50bbc","ios":"levelo://app?vid=0b733133-03c9-4766-961e-92b775b50bbc"},"vehicle_type_id":"4","last_reported":1732000160,"current_range_meters":0,"station_id":"","pricing_plan_id":"cebpf4jnsgd1na2vs0mg"},{"bike_id":"74eb70e9-b94e-49a5-9a48-368b4be133db","system_id":"levelo_inurba_marseille","lat":43.30794,"lon":5.43526,"is_reserved":false,"is_disabled":false,"rental_uris":{"android":"levelo://app?vid=74eb70e9-b94e-49a5-9a48-368b4be133db","ios":"levelo://app?vid=74eb70e9-b94e-49a5-9a48-368b4be133db"},"vehicle_type_id":"4","last_reported":1732000160,"current_range_meters":38800,"station_id":"ce4bhph2rcd13ifvqheg","pricing_plan_id":"cebpf4jnsgd1na2vs0mg"},{"bike_id":"4cba050b-d851-4ee5-8ce0-ea7f25d9c27b","system_id":"levelo_inurba_marseille","lat":43.27488,"lon":5.42449,"is_reserved":false,"is_disabled":true,"rental_uris":{"android":"levelo://app?vid=4cba050b-d851-4ee5-8ce0-ea7f25d9c27b","ios":"levelo://app?vid=4cba050b-d851-4ee5-8ce0-ea7f25d9c27b"},"vehicle_type_id":"4","last_reported":1732000160,"current_range_meters":38800,"station_id":"ce4bhn92rcd13ifvqgrg","pricing_plan_id":"cebpf4jnsgd1na2vs0mg"},{"bike_id":"7ade2017-8e55-4902-89a8-7105ad563f75","system_id":"levelo_inurba_marseille","lat":43.296,"lon":5.38109,"is_reserved":false,"is_disabled":false,"rental_uris":{"android":"levelo://app?vid=7ade2017-8e55-4902-89a8-7105ad563f75","ios":"levelo://app?vid=7ade2017-8e55-4902-89a8-7105ad563f75"},"vehicle_type_id":"4","last_reported":1732000160,"current_range_meters":16000,"station_id":"ce4bgl12rcd13ifvqbo0","pricing_plan_id":"cebpf4jnsgd1na2vs0mg"},{"bike_id":"6c2dd7f5-7f3e-4bb8-81f0-79c964fbb591","system_id":"levelo_inurba_marseille","lat":43.28267,"lon":5.35074,"is_reserved":false,"is_disabled":false,"rental_uris":{"android":"levelo://app?vid=6c2dd7f5-7f3e-4bb8-81f0-79c964fbb591","ios":"levelo://app?vid=6c2dd7f5-7f3e-4bb8-81f0-79c964fbb591"},"vehicle_type_id":"4","last_reported":1732000160,"current_range_meters":39200,"station_id":"ce4bhbp2rcd13ifvqerg","pricing_plan_id":"cebpf4jnsgd1na2vs0mg"},{"bike_id":"9082f350-f064-4220-a24a-7c400d315f3b","system_id":"levelo_inurba_marseille","lat":43.24078,"lon":5.37756,"is_reserved":false,"is_disabled":false,"rental_uris":{"android":"levelo://app?vid=9082f350-f064-4220-a24a-7c400d315f3b","ios":"levelo://app?vid=9082f350-f064-4220-a24a-7c400d315f3b"},"vehicle_type_id":"4","last_reported":1732000160,"current_range_meters":37600,"station_id":"ce4bhnp2rcd13ifvqgvg","pricing_plan_id":"cebpf4jnsgd1na2vs0mg"},{"bike_id":"8c0f7771-880b-4614-abc8-3e41755a48fc","system_id":"levelo_inurba_marseille","lat":43.29038,"lon":5.39968,"is_reserved":false,"is_disabled":true,"rental_uris":{"android":"levelo://app?vid=8c0f7771-880b-4614-abc8-3e41755a48fc","ios":"levelo://app?vid=8c0f7771-880b-4614-abc8-3e41755a48fc"},"vehicle_type_id":"4","last_reported":1732000160,"current_range_meters":800,"station_id":"ce4bh392rcd13ifvqdm0","pricing_plan_id":"cebpf4jnsgd1na2vs0mg"},{"bike_id":"ff78d3fd-1323-4be7-9b8e-cca0330f5550","system_id":"levelo_inurba_marseille","lat":43.30561,"lon":5.3669,"is_reserved":false,"is_disabled":false,"rental_uris":{"android":"levelo://app?vid=ff78d3fd-1323-4be7-9b8e-cca0330f5550","ios":"levelo://app?vid=ff78d3fd-1323-4be7-9b8e-cca0330f5550"},"vehicle_type_id":"4","last_reported":1732000160,"current_range_meters":34800,"station_id":"ce4bgrp2rcd13ifvqc9g","pricing_plan_id":"cebpf4jnsgd1na2vs0mg"},{"bike_id":"bf616fda-0885-4bcf-8258-bc47aa3041a1","system_id":"levelo_inurba_marseille","lat":43.32479,"lon":5.3656,"is_reserved":false,"is_disabled":false,"rental_uris":{"android":"levelo://app?vid=bf616fda-0885-4bcf-8258-bc47aa3041a1","ios":"levelo://app?vid=bf616fda-0885-4bcf-8258-bc47aa3041a1"},"vehicle_type_id":"4","last_reported":1732000160,"current_range_meters":35600,"station_id":"ce4bhs12rcd13ifvqhvg","pricing_plan_id":"cebpf4jnsgd1na2vs0mg"},{"bike_id":"a9dcac57-2418-4ac6-a68f-cd781b1ef405","system_id":"levelo_inurba_marseille","lat":43.25864,"lon":5.39899,"is_reserved":false,"is_disabled":false,"rental_uris":{"android":"levelo://app?vid=a9dcac57-2418-4ac6-a68f-cd781b1ef405","ios":"levelo://app?vid=a9dcac57-2418-4ac6-a68f-cd781b1ef405"},"vehicle_type_id":"4","last_reported":1732000160,"current_range_meters":32000,"station_id":"ce4bhl92rcd13ifvqghg","pricing_plan_id":"cebpf4jnsgd1na2vs0mg"},{"bike_id":"71324b49-1f17-4af6-89f7-e3218a4d4e19","system_id":"levelo_inurba_marseille","lat":43.24068,"lon":5.37763,"is_reserved":false,"is_disabled":false,"rental_uris":{"android":"levelo://app?vid=71324b49-1f17-4af6-89f7-e3218a4d4e19","ios":"levelo://app?vid=71324b49-1f17-4af6-89f7-e3218a4d4e19"},"vehicle_type_id":"4","last_reported":1732000160,"current_range_meters":39200,"station_id":"ce4bhnp2rcd13ifvqgvg","pricing_plan_id":"cebpf4jnsgd1na2vs0mg"},{"bike_id":"6799c54c-4cd6-4d25-a1cb-a4067a584a72","system_id":"levelo_inurba_marseille","lat":43.33721,"lon":5.39185,"is_reserved":false,"is_disabled":false,"rental_uris":{"android":"levelo://app?vid=6799c54c-4cd6-4d25-a1cb-a4067a584a72","ios":"levelo://app?vid=6799c54c-4cd6-4d25-a1cb-a4067a584a72"},"vehicle_type_id":"4","last_reported":1732000160,"current_range_meters":14400,"station_id":"ce4bhr92rcd13ifvqhsg","pricing_plan_id":"cebpf4jnsgd1na2vs0mg"},{"bike_id":"473246d8-2c75-4d60-bcd2-f9ef281d6149","system_id":"levelo_inurba_marseille","lat":43.28935,"lon":5.36633,"is_reserved":false,"is_disabled":false,"rental_uris":{"android":"levelo://app?vid=473246d8-2c75-4d60-bcd2-f9ef281d6149","ios":"levelo://app?vid=473246d8-2c75-4d60-bcd2-f9ef281d6149"},"vehicle_type_id":"4","last_reported":1732000160,"current_range_meters":11200,"station_id":"ce4bhap2rcd13ifvqek0","pricing_plan_id":"cebpf4jnsgd1na2vs0mg"},{"bike_id":"20d43469-0b35-4110-9c40-be0f1a781705","system_id":"levelo_inurba_marseille","lat":43.26212,"lon":5.37445,"is_reserved":false,"is_disabled":false,"rental_uris":{"android":"levelo://app?vid=20d43469-0b35-4110-9c40-be0f1a781705","ios":"levelo://app?vid=20d43469-0b35-4110-9c40-be0f1a781705"},"vehicle_type_id":"4","last_reported":1732000160,"current_range_meters":28400,"station_id":"ce4bhgp2rcd13ifvqfc0","pricing_plan_id":"cebpf4jnsgd1na2vs0mg"},{"bike_id":"31c6ac2e-212d-4eb3-b9e2-b3ac54be22f2","system_id":"levelo_inurba_marseille","lat":43.31485,"lon":5.37309,"is_reserved":false,"is_disabled":false,"rental_uris":{"android":"levelo://app?vid=31c6ac2e-212d-4eb3-b9e2-b3ac54be22f2","ios":"levelo://app?vid=31c6ac2e-212d-4eb3-b9e2-b3ac54be22f2"},"vehicle_type_id":"4","last_reported":1732000160,"current_range_meters":4400,"station_id":"ce4bgt12rcd13ifvqcd0","pricing_plan_id":"cebpf4jnsgd1na2vs0mg"},{"bike_id":"9f1dfffb-1213-4f6e-84d3-a2f0789a9ef3","system_id":"levelo_inurba_marseille","lat":43.27619,"lon":5.35878,"is_reserved":false,"is_disabled":true,"rental_uris":{"android":"levelo://app?vid=9f1dfffb-1213-4f6e-84d3-a2f0789a9ef3","ios":"levelo://app?vid=9f1dfffb-1213-4f6e-84d3-a2f0789a9ef3"},"vehicle_type_id":"4","last_reported":1732000160,"current_range_meters":0,"station_id":"","pricing_plan_id":"cebpf4jnsgd1na2vs0mg"},{"bike_id":"8dfe3502-1a44-41d0-93ec-2f8847296f61","system_id":"levelo_inurba_marseille","lat":43.29194,"lon":5.358,"is_reserved":false,"is_disabled":true,"rental_uris":{"android":"levelo://app?vid=8dfe3502-1a44-41d0-93ec-2f8847296f61","ios":"levelo://app?vid=8dfe3502-1a44-41d0-93ec-2f8847296f61"},"vehicle_type_id":"4","last_reported":1732000160,"current_range_meters":38800,"station_id":"ce4bhb12rcd13ifvqel0","pricing_plan_id":"cebpf4jnsgd1na2vs0mg"},{"bike_id":"954054ad-77ac-46c3-a1b5-c8fc266a522b","system_id":"levelo_inurba_marseille","lat":43.31725,"lon":5.42397,"is_reserved":false,"is_disabled":false,"rental_uris":{"android":"levelo://app?vid=954054ad-77ac-46c3-a1b5-c8fc266a522b","ios":"levelo://app?vid=954054ad-77ac-46c3-a1b5-c8fc266a522b"},"vehicle_type_id":"4","last_reported":1732000160,"current_range_meters":38800,"station_id":"ce4bhp92rcd13ifvqhbg","pricing_plan_id":"cebpf4jnsgd1na2vs0mg"},{"bike_id":"ece4b786-2217-4872-8559-46c3ba56aa40","system_id":"levelo_inurba_marseille","lat":43.30459,"lon":5.37903,"is_reserved":false,"is_disabled":false,"rental_uris":{"android":"levelo://app?vid=ece4b786-2217-4872-8559-46c3ba56aa40","ios":"levelo://app?vid=ece4b786-2217-4872-8559-46c3ba56aa40"},"vehicle_type_id":"4","last_reported":1732000160,"current_range_meters":39200,"station_id":"ce4bgup2rcd13ifvqcn0","pricing_plan_id":"cebpf4jnsgd1na2vs0mg"},{"bike_id":"3d8a906b-bc54-409f-946c-a9fd907f86c0","system_id":"levelo_inurba_marseille","lat":43.28455,"lon":5.3587,"is_reserved":false,"is_disabled":false,"rental_uris":{"android":"levelo://app?vid=3d8a906b-bc54-409f-946c-a9fd907f86c0","ios":"levelo://app?vid=3d8a906b-bc54-409f-946c-a9fd907f86c0"},"vehicle_type_id":"4","last_reported":1732000160,"current_range_meters":31200,"station_id":"ce4bhah2rcd13ifvqei0","pricing_plan_id":"cebpf4jnsgd1na2vs0mg"},{"bike_id":"a2ea4df3-602c-4a10-8034-248cd05e7a56","system_id":"levelo_inurba_marseille","lat":43.29529,"lon":5.38548,"is_reserved":false,"is_disabled":false,"rental_uris":{"android":"levelo://app?vid=a2ea4df3-602c-4a10-8034-248cd05e7a56","ios":"levelo://app?vid=a2ea4df3-602c-4a10-8034-248cd05e7a56"},"vehicle_type_id":"4","last_reported":1732000160,"current_range_meters":37600,"station_id":"ce4bgih2rcd13ifvqba0","pricing_plan_id":"cebpf4jnsgd1na2vs0mg"},{"bike_id":"2d983866-913c-4390-ae48-1873d10c9730","system_id":"levelo_inurba_marseille","lat":43.24812,"lon":5.37457,"is_reserved":false,"is_disabled":true,"rental_uris":{"android":"levelo://app?vid=2d983866-913c-4390-ae48-1873d10c9730","ios":"levelo://app?vid=2d983866-913c-4390-ae48-1873d10c9730"},"vehicle_type_id":"4","last_reported":1732000160,"current_range_meters":17600,"station_id":"ce4bhgh2rcd13ifvqfb0","pricing_plan_id":"cebpf4jnsgd1na2vs0mg"},{"bike_id":"6aa0b450-1c94-42bb-a688-82dc33a51e00","system_id":"levelo_inurba_marseille","lat":43.30597,"lon":5.39353,"is_reserved":false,"is_disabled":false,"rental_uris":{"android":"levelo://app?vid=6aa0b450-1c94-42bb-a688-82dc33a51e00","ios":"levelo://app?vid=6aa0b450-1c94-42bb-a688-82dc33a51e00"},"vehicle_type_id":"4","last_reported":1732000160,"current_range_meters":36800,"station_id":"ce4bh0p2rcd13ifvqd80","pricing_plan_id":"cebpf4jnsgd1na2vs0mg"},{"bike_id":"23652d48-f01f-4bbf-a184-4995db5230ae","system_id":"levelo_inurba_marseille","lat":43.30157,"lon":5.38091,"is_reserved":false,"is_disabled":false,"rental_uris":{"android":"levelo://app?vid=23652d48-f01f-4bbf-a184-4995db5230ae","ios":"levelo://app?vid=23652d48-f01f-4bbf-a184-4995db5230ae"},"vehicle_type_id":"4","last_reported":1732000160,"current_range_meters":24400,"station_id":"ce4bgjp2rcd13ifvqbh0","pricing_plan_id":"cebpf4jnsgd1na2vs0mg"},{"bike_id":"9066fef9-e2f9-4f08-861e-8d85aa25bdeb","system_id":"levelo_inurba_marseille","lat":43.29966,"lon":5.38502,"is_reserved":false,"is_disabled":false,"rental_uris":{"android":"levelo://app?vid=9066fef9-e2f9-4f08-861e-8d85aa25bdeb","ios":"levelo://app?vid=9066fef9-e2f9-4f08-861e-8d85aa25bdeb"},"vehicle_type_id":"4","last_reported":1732000160,"current_range_meters":32000,"station_id":"ce4bgj92rcd13ifvqbd0","pricing_plan_id":"cebpf4jnsgd1na2vs0mg"},{"bike_id":"63437fd1-6f50-4e77-a820-dcbc60915f76","system_id":"levelo_inurba_marseille","lat":43.24655,"lon":5.38893,"is_reserved":false,"is_disabled":false,"rental_uris":{"android":"levelo://app?vid=63437fd1-6f50-4e77-a820-dcbc60915f76","ios":"levelo://app?vid=63437fd1-6f50-4e77-a820-dcbc60915f76"},"vehicle_type_id":"4","last_reported":1732000160,"current_range_meters":6400,"station_id":"ce4bhg12rcd13ifvqf60","pricing_plan_id":"cebpf4jnsgd1na2vs0mg"},{"bike_id":"dc6d24e2-2777-4e90-a873-656596156e63","system_id":"levelo_inurba_marseille","lat":43.33597,"lon":5.41029,"is_reserved":false,"is_disabled":false,"rental_uris":{"android":"levelo://app?vid=dc6d24e2-2777-4e90-a873-656596156e63","ios":"levelo://app?vid=dc6d24e2-2777-4e90-a873-656596156e63"},"vehicle_type_id":"4","last_reported":1732000160,"current_range_meters":18800,"station_id":"ce4bhqh2rcd13ifvqhmg","pricing_plan_id":"cebpf4jnsgd1na2vs0mg"},{"bike_id":"3f2535ef-a383-4045-9ba4-aa662bf8b063","system_id":"levelo_inurba_marseille","lat":43.29898,"lon":5.4367,"is_reserved":false,"is_disabled":false,"rental_uris":{"android":"levelo://app?vid=3f2535ef-a383-4045-9ba4-aa662bf8b063","ios":"levelo://app?vid=3f2535ef-a383-4045-9ba4-aa662bf8b063"},"vehicle_type_id":"4","last_reported":1732000160,"current_range_meters":38000,"station_id":"ce4bhpp2rcd13ifvqhfg","pricing_plan_id":"cebpf4jnsgd1na2vs0mg"},{"bike_id":"4430c7fe-75c4-4750-ade5-2860cae79f17","system_id":"levelo_inurba_marseille","lat":43.23158,"lon":5.43711,"is_reserved":false,"is_disabled":false,"rental_uris":{"android":"levelo://app?vid=4430c7fe-75c4-4750-ade5-2860cae79f17","ios":"levelo://app?vid=4430c7fe-75c4-4750-ade5-2860cae79f17"},"vehicle_type_id":"4","last_reported":1732000160,"current_range_meters":10000,"station_id":"ce4bhmp2rcd13ifvqgog","pricing_plan_id":"cebpf4jnsgd1na2vs0mg"},{"bike_id":"23449ff7-e199-4843-9c3c-d124061001d3","system_id":"levelo_inurba_marseille","lat":43.28153,"lon":5.42645,"is_reserved":false,"is_disabled":false,"rental_uris":{"android":"levelo://app?vid=23449ff7-e199-4843-9c3c-d124061001d3","ios":"levelo://app?vid=23449ff7-e199-4843-9c3c-d124061001d3"},"vehicle_type_id":"4","last_reported":1732000160,"current_range_meters":29600,"station_id":"ce4bhnh2rcd13ifvqgug","pricing_plan_id":"cebpf4jnsgd1na2vs0mg"},{"bike_id":"e264033a-f915-4b27-a08a-2f42cfcf052a","system_id":"levelo_inurba_marseille","lat":43.337444,"lon":5.374475,"is_reserved":false,"is_disabled":false,"rental_uris":{"android":"levelo://app?vid=e264033a-f915-4b27-a08a-2f42cfcf052a","ios":"levelo://app?vid=e264033a-f915-4b27-a08a-2f42cfcf052a"},"vehicle_type_id":"4","last_reported":1732000160,"current_range_meters":34000,"station_id":"","pricing_plan_id":"cebpf4jnsgd1na2vs0mg"},{"bike_id":"affc6a42-c87f-4640-9297-4a4ea6bc3ad3","system_id":"levelo_inurba_marseille","lat":43.29553,"lon":5.42286,"is_reserved":false,"is_disabled":false,"rental_uris":{"android":"levelo://app?vid=affc6a42-c87f-4640-9297-4a4ea6bc3ad3","ios":"levelo://app?vid=affc6a42-c87f-4640-9297-4a4ea6bc3ad3"},"vehicle_type_id":"4","last_reported":1732000160,"current_range_meters":39200,"station_id":"ce4bhph2rcd13ifvqhdg","pricing_plan_id":"cebpf4jnsgd1na2vs0mg"},{"bike_id":"167bfcb2-34bc-4fde-9708-323115ef71c3","system_id":"levelo_inurba_marseille","lat":43.28023,"lon":5.38682,"is_reserved":false,"is_disabled":false,"rental_uris":{"android":"levelo://app?vid=167bfcb2-34bc-4fde-9708-323115ef71c3","ios":"levelo://app?vid=167bfcb2-34bc-4fde-9708-323115ef71c3"},"vehicle_type_id":"4","last_reported":1732000160,"current_range_meters":25600,"station_id":"ce4bhq92rcd13ifvqhjg","pricing_plan_id":"cebpf4jnsgd1na2vs0mg"},{"bike_id":"df900be8-2c12-453f-bc2b-7090adc12272","system_id":"levelo_inurba_marseille","lat":43.3013,"lon":5.38775,"is_reserved":false,"is_disabled":true,"rental_uris":{"android":"levelo://app?vid=df900be8-2c12-453f-bc2b-7090adc12272","ios":"levelo://app?vid=df900be8-2c12-453f-bc2b-7090adc12272"},"vehicle_type_id":"4","last_reported":1732000160,"current_range_meters":22800,"station_id":"ce4bghh2rcd13ifvqb60","pricing_plan_id":"cebpf4jnsgd1na2vs0mg"},{"bike_id":"123862ba-68e2-48f6-a477-31ab9dae8bd5","system_id":"levelo_inurba_marseille","lat":43.337444,"lon":5.374475,"is_reserved":false,"is_disabled":true,"rental_uris":{"android":"levelo://app?vid=123862ba-68e2-48f6-a477-31ab9dae8bd5","ios":"levelo://app?vid=123862ba-68e2-48f6-a477-31ab9dae8bd5"},"vehicle_type_id":"4","last_reported":1732000160,"current_range_meters":16800,"station_id":"","pricing_plan_id":"cebpf4jnsgd1na2vs0mg"},{"bike_id":"25ddf417-8230-4dbc-b38a-2b2cb1ba9d73","system_id":"levelo_inurba_marseille","lat":43.3028,"lon":5.37696,"is_reserved":false,"is_disabled":true,"rental_uris":{"android":"levelo://app?vid=25ddf417-8230-4dbc-b38a-2b2cb1ba9d73","ios":"levelo://app?vid=25ddf417-8230-4dbc-b38a-2b2cb1ba9d73"},"vehicle_type_id":"4","last_reported":1732000160,"current_range_meters":11600,"station_id":"ce4bguh2rcd13ifvqcj0","pricing_plan_id":"cebpf4jnsgd1na2vs0mg"},{"bike_id":"203aeef1-141c-4fdd-8aad-facad2087071","system_id":"levelo_inurba_marseille","lat":43.33758,"lon":5.37436,"is_reserved":false,"is_disabled":false,"rental_uris":{"android":"levelo://app?vid=203aeef1-141c-4fdd-8aad-facad2087071","ios":"levelo://app?vid=203aeef1-141c-4fdd-8aad-facad2087071"},"vehicle_type_id":"4","last_reported":1732000160,"current_range_meters":23200,"station_id":"","pricing_plan_id":"cebpf4jnsgd1na2vs0mg"},{"bike_id":"19713703-7774-44a9-ba68-649afa5d5fbb","system_id":"levelo_inurba_marseille","lat":43.2979,"lon":5.39348,"is_reserved":false,"is_disabled":false,"rental_uris":{"android":"levelo://app?vid=19713703-7774-44a9-ba68-649afa5d5fbb","ios":"levelo://app?vid=19713703-7774-44a9-ba68-649afa5d5fbb"},"vehicle_type_id":"4","last_reported":1732000160,"current_range_meters":38800,"station_id":"chh1huq6cuj3fo74tm60","pricing_plan_id":"cebpf4jnsgd1na2vs0mg"},{"bike_id":"015475d9-9369-4060-8bef-8b2a0db4bfee","system_id":"levelo_inurba_marseille","lat":43.29783,"lon":5.39353,"is_reserved":false,"is_disabled":false,"rental_uris":{"android":"levelo://app?vid=015475d9-9369-4060-8bef-8b2a0db4bfee","ios":"levelo://app?vid=015475d9-9369-4060-8bef-8b2a0db4bfee"},"vehicle_type_id":"4","last_reported":1732000160,"current_range_meters":39200,"station_id":"chh1huq6cuj3fo74tm60","pricing_plan_id":"cebpf4jnsgd1na2vs0mg"},{"bike_id":"f71dd268-05c9-40a4-8d18-b119b5d6e1bc","system_id":"levelo_inurba_marseille","lat":43.29954,"lon":5.41327,"is_reserved":false,"is_disabled":false,"rental_uris":{"android":"levelo://app?vid=f71dd268-05c9-40a4-8d18-b119b5d6e1bc","ios":"levelo://app?vid=f71dd268-05c9-40a4-8d18-b119b5d6e1bc"},"vehicle_type_id":"4","last_reported":1732000160,"current_range_meters":38800,"station_id":"ce4bhp12rcd13ifvqh9g","pricing_plan_id":"cebpf4jnsgd1na2vs0mg"},{"bike_id":"f1af11ea-ad5f-4b1b-aed2-8041c7d1a7b7","system_id":"levelo_inurba_marseille","lat":43.30537,"lon":5.36555,"is_reserved":false,"is_disabled":false,"rental_uris":{"android":"levelo://app?vid=f1af11ea-ad5f-4b1b-aed2-8041c7d1a7b7","ios":"levelo://app?vid=f1af11ea-ad5f-4b1b-aed2-8041c7d1a7b7"},"vehicle_type_id":"4","last_reported":1732000160,"current_range_meters":28400,"station_id":"ce4bgs12rcd13ifvqcag","pricing_plan_id":"cebpf4jnsgd1na2vs0mg"},{"bike_id":"32cea7ef-7e0d-489f-ad2f-1128114cbf70","system_id":"levelo_inurba_marseille","lat":43.30157,"lon":5.38081,"is_reserved":false,"is_disabled":false,"rental_uris":{"android":"levelo://app?vid=32cea7ef-7e0d-489f-ad2f-1128114cbf70","ios":"levelo://app?vid=32cea7ef-7e0d-489f-ad2f-1128114cbf70"},"vehicle_type_id":"4","last_reported":1732000160,"current_range_meters":35200,"station_id":"ce4bgjp2rcd13ifvqbh0","pricing_plan_id":"cebpf4jnsgd1na2vs0mg"},{"bike_id":"fd962322-f406-4bc8-a788-d51ccea84f20","system_id":"levelo_inurba_marseille","lat":43.27497,"lon":5.42449,"is_reserved":false,"is_disabled":false,"rental_uris":{"android":"levelo://app?vid=fd962322-f406-4bc8-a788-d51ccea84f20","ios":"levelo://app?vid=fd962322-f406-4bc8-a788-d51ccea84f20"},"vehicle_type_id":"4","last_reported":1732000160,"current_range_meters":32000,"station_id":"ce4bhn92rcd13ifvqgrg","pricing_plan_id":"cebpf4jnsgd1na2vs0mg"},{"bike_id":"902520de-201d-40c5-b252-e084c9103587","system_id":"levelo_inurba_marseille","lat":43.29706,"lon":5.36618,"is_reserved":false,"is_disabled":false,"rental_uris":{"android":"levelo://app?vid=902520de-201d-40c5-b252-e084c9103587","ios":"levelo://app?vid=902520de-201d-40c5-b252-e084c9103587"},"vehicle_type_id":"4","last_reported":1732000160,"current_range_meters":32000,"station_id":"ce4bgn12rcd13ifvqbt0","pricing_plan_id":"cebpf4jnsgd1na2vs0mg"},{"bike_id":"e1c45b81-f6d8-4231-9324-1addebd1a764","system_id":"levelo_inurba_marseille","lat":43.31013,"lon":5.38211,"is_reserved":false,"is_disabled":false,"rental_uris":{"android":"levelo://app?vid=e1c45b81-f6d8-4231-9324-1addebd1a764","ios":"levelo://app?vid=e1c45b81-f6d8-4231-9324-1addebd1a764"},"vehicle_type_id":"4","last_reported":1732000160,"current_range_meters":38400,"station_id":"","pricing_plan_id":"cebpf4jnsgd1na2vs0mg"},{"bike_id":"e11d9266-4c17-43cb-ad7c-3577bfef739d","system_id":"levelo_inurba_marseille","lat":43.29788,"lon":5.39334,"is_reserved":false,"is_disabled":false,"rental_uris":{"android":"levelo://app?vid=e11d9266-4c17-43cb-ad7c-3577bfef739d","ios":"levelo://app?vid=e11d9266-4c17-43cb-ad7c-3577bfef739d"},"vehicle_type_id":"4","last_reported":1732000160,"current_range_meters":38800,"station_id":"chh1huq6cuj3fo74tm60","pricing_plan_id":"cebpf4jnsgd1na2vs0mg"},{"bike_id":"4b1089fa-7b1e-4c9e-b4cc-042056d6026b","system_id":"levelo_inurba_marseille","lat":43.30217,"lon":5.39459,"is_reserved":false,"is_disabled":false,"rental_uris":{"android":"levelo://app?vid=4b1089fa-7b1e-4c9e-b4cc-042056d6026b","ios":"levelo://app?vid=4b1089fa-7b1e-4c9e-b4cc-042056d6026b"},"vehicle_type_id":"4","last_reported":1732000160,"current_range_meters":29600,"station_id":"ce4bh0p2rcd13ifvqd70","pricing_plan_id":"cebpf4jnsgd1na2vs0mg"},{"bike_id":"a85a5b1f-50dc-4aac-a0d9-b56d2d85990b","system_id":"levelo_inurba_marseille","lat":43.28948,"lon":5.39628,"is_reserved":false,"is_disabled":false,"rental_uris":{"android":"levelo://app?vid=a85a5b1f-50dc-4aac-a0d9-b56d2d85990b","ios":"levelo://app?vid=a85a5b1f-50dc-4aac-a0d9-b56d2d85990b"},"vehicle_type_id":"4","last_reported":1732000160,"current_range_meters":32800,"station_id":"ce4bh3h2rcd13ifvqdn0","pricing_plan_id":"cebpf4jnsgd1na2vs0mg"},{"bike_id":"9905ef4f-3f75-4d31-9022-cdad22d46d9a","system_id":"levelo_inurba_marseille","lat":43.30226,"lon":5.3948,"is_reserved":false,"is_disabled":false,"rental_uris":{"android":"levelo://app?vid=9905ef4f-3f75-4d31-9022-cdad22d46d9a","ios":"levelo://app?vid=9905ef4f-3f75-4d31-9022-cdad22d46d9a"},"vehicle_type_id":"4","last_reported":1732000160,"current_range_meters":39200,"station_id":"ce4bh0p2rcd13ifvqd70","pricing_plan_id":"cebpf4jnsgd1na2vs0mg"},{"bike_id":"a312e531-28c3-4d9a-84ea-4e7fcd9b0a73","system_id":"levelo_inurba_marseille","lat":43.24072,"lon":5.37764,"is_reserved":false,"is_disabled":false,"rental_uris":{"android":"levelo://app?vid=a312e531-28c3-4d9a-84ea-4e7fcd9b0a73","ios":"levelo://app?vid=a312e531-28c3-4d9a-84ea-4e7fcd9b0a73"},"vehicle_type_id":"4","last_reported":1732000160,"current_range_meters":8000,"station_id":"ce4bhnp2rcd13ifvqgvg","pricing_plan_id":"cebpf4jnsgd1na2vs0mg"},{"bike_id":"fbf50743-a751-4d22-8d7f-9047b9d72787","system_id":"levelo_inurba_marseille","lat":43.30466,"lon":5.37921,"is_reserved":false,"is_disabled":false,"rental_uris":{"android":"levelo://app?vid=fbf50743-a751-4d22-8d7f-9047b9d72787","ios":"levelo://app?vid=fbf50743-a751-4d22-8d7f-9047b9d72787"},"vehicle_type_id":"4","last_reported":1732000160,"current_range_meters":5600,"station_id":"ce4bgup2rcd13ifvqcn0","pricing_plan_id":"cebpf4jnsgd1na2vs0mg"},{"bike_id":"c404abd2-ecc4-48fb-a7ea-bc1d35a03f7f","system_id":"levelo_inurba_marseille","lat":43.28942,"lon":5.39622,"is_reserved":false,"is_disabled":false,"rental_uris":{"android":"levelo://app?vid=c404abd2-ecc4-48fb-a7ea-bc1d35a03f7f","ios":"levelo://app?vid=c404abd2-ecc4-48fb-a7ea-bc1d35a03f7f"},"vehicle_type_id":"4","last_reported":1732000160,"current_range_meters":14800,"station_id":"ce4bh3h2rcd13ifvqdn0","pricing_plan_id":"cebpf4jnsgd1na2vs0mg"},{"bike_id":"5ed0dcf0-c2ca-47d5-8497-b51c5d83f101","system_id":"levelo_inurba_marseille","lat":43.2669,"lon":5.38273,"is_reserved":false,"is_disabled":true,"rental_uris":{"android":"levelo://app?vid=5ed0dcf0-c2ca-47d5-8497-b51c5d83f101","ios":"levelo://app?vid=5ed0dcf0-c2ca-47d5-8497-b51c5d83f101"},"vehicle_type_id":"4","last_reported":1732000160,"current_range_meters":36800,"station_id":"ce4bhg92rcd13ifvqf90","pricing_plan_id":"cebpf4jnsgd1na2vs0mg"},{"bike_id":"e52b6bb0-b6ae-4647-a47c-6f072b378fd2","system_id":"levelo_inurba_marseille","lat":43.26497,"lon":5.39544,"is_reserved":false,"is_disabled":false,"rental_uris":{"android":"levelo://app?vid=e52b6bb0-b6ae-4647-a47c-6f072b378fd2","ios":"levelo://app?vid=e52b6bb0-b6ae-4647-a47c-6f072b378fd2"},"vehicle_type_id":"4","last_reported":1732000160,"current_range_meters":9200,"station_id":"ce4bhi12rcd13ifvqfq0","pricing_plan_id":"cebpf4jnsgd1na2vs0mg"},{"bike_id":"b2b44952-3fe0-4fba-b46f-83eb5230366f","system_id":"levelo_inurba_marseille","lat":43.28975,"lon":5.37821,"is_reserved":false,"is_disabled":false,"rental_uris":{"android":"levelo://app?vid=b2b44952-3fe0-4fba-b46f-83eb5230366f","ios":"levelo://app?vid=b2b44952-3fe0-4fba-b46f-83eb5230366f"},"vehicle_type_id":"4","last_reported":1732000160,"current_range_meters":28000,"station_id":"ce4bh9p2rcd13ifvqed0","pricing_plan_id":"cebpf4jnsgd1na2vs0mg"},{"bike_id":"9e1bd17c-8a0c-423e-8db2-5ed904580164","system_id":"levelo_inurba_marseille","lat":43.29371,"lon":5.37865,"is_reserved":false,"is_disabled":false,"rental_uris":{"android":"levelo://app?vid=9e1bd17c-8a0c-423e-8db2-5ed904580164","ios":"levelo://app?vid=9e1bd17c-8a0c-423e-8db2-5ed904580164"},"vehicle_type_id":"4","last_reported":1732000160,"current_range_meters":28400,"station_id":"ce4bgjh2rcd13ifvqbf0","pricing_plan_id":"cebpf4jnsgd1na2vs0mg"},{"bike_id":"f0e2f4e5-f602-4a1c-ba1a-aa1d1150f28c","system_id":"levelo_inurba_marseille","lat":43.29628,"lon":5.40595,"is_reserved":false,"is_disabled":false,"rental_uris":{"android":"levelo://app?vid=f0e2f4e5-f602-4a1c-ba1a-aa1d1150f28c","ios":"levelo://app?vid=f0e2f4e5-f602-4a1c-ba1a-aa1d1150f28c"},"vehicle_type_id":"4","last_reported":1732000160,"current_range_meters":39200,"station_id":"ce4bh0h2rcd13ifvqd60","pricing_plan_id":"cebpf4jnsgd1na2vs0mg"},{"bike_id":"628384db-a629-44bc-856e-9d5ee504cce9","system_id":"levelo_inurba_marseille","lat":43.25002,"lon":5.38925,"is_reserved":false,"is_disabled":true,"rental_uris":{"android":"levelo://app?vid=628384db-a629-44bc-856e-9d5ee504cce9","ios":"levelo://app?vid=628384db-a629-44bc-856e-9d5ee504cce9"},"vehicle_type_id":"4","last_reported":1732000160,"current_range_meters":38800,"station_id":"ce4bhgp2rcd13ifvqfd0","pricing_plan_id":"cebpf4jnsgd1na2vs0mg"},{"bike_id":"2c98f310-de06-47e1-8a5f-d38938934c83","system_id":"levelo_inurba_marseille","lat":43.23184,"lon":5.39981,"is_reserved":false,"is_disabled":false,"rental_uris":{"android":"levelo://app?vid=2c98f310-de06-47e1-8a5f-d38938934c83","ios":"levelo://app?vid=2c98f310-de06-47e1-8a5f-d38938934c83"},"vehicle_type_id":"4","last_reported":1732000160,"current_range_meters":37600,"station_id":"ce4bhn12rcd13ifvqgqg","pricing_plan_id":"cebpf4jnsgd1na2vs0mg"},{"bike_id":"23135125-383a-4861-98de-64bbe8a2d094","system_id":"levelo_inurba_marseille","lat":43.309268,"lon":5.401451,"is_reserved":false,"is_disabled":false,"rental_uris":{"android":"levelo://app?vid=23135125-383a-4861-98de-64bbe8a2d094","ios":"levelo://app?vid=23135125-383a-4861-98de-64bbe8a2d094"},"vehicle_type_id":"4","last_reported":1732000160,"current_range_meters":10000,"station_id":"ce4bgvp2rcd13ifvqct0","pricing_plan_id":"cebpf4jnsgd1na2vs0mg"},{"bike_id":"3f32c9d6-8aed-4b6d-92f4-88b3106e6e04","system_id":"levelo_inurba_marseille","lat":43.25852,"lon":5.39904,"is_reserved":false,"is_disabled":true,"rental_uris":{"android":"levelo://app?vid=3f32c9d6-8aed-4b6d-92f4-88b3106e6e04","ios":"levelo://app?vid=3f32c9d6-8aed-4b6d-92f4-88b3106e6e04"},"vehicle_type_id":"4","last_reported":1732000160,"current_range_meters":9200,"station_id":"ce4bhl92rcd13ifvqghg","pricing_plan_id":"cebpf4jnsgd1na2vs0mg"},{"bike_id":"dc35ffd3-a424-42e6-9839-fb433c4f0037","system_id":"levelo_inurba_marseille","lat":43.30293,"lon":5.36859,"is_reserved":false,"is_disabled":false,"rental_uris":{"android":"levelo://app?vid=dc35ffd3-a424-42e6-9839-fb433c4f0037","ios":"levelo://app?vid=dc35ffd3-a424-42e6-9839-fb433c4f0037"},"vehicle_type_id":"4","last_reported":1732000160,"current_range_meters":10800,"station_id":"ce4bgqh2rcd13ifvqc5g","pricing_plan_id":"cebpf4jnsgd1na2vs0mg"},{"bike_id":"7c5ea3a8-a728-4c0b-a06a-05abd113adfd","system_id":"levelo_inurba_marseille","lat":43.25824,"lon":5.39438,"is_reserved":false,"is_disabled":false,"rental_uris":{"android":"levelo://app?vid=7c5ea3a8-a728-4c0b-a06a-05abd113adfd","ios":"levelo://app?vid=7c5ea3a8-a728-4c0b-a06a-05abd113adfd"},"vehicle_type_id":"4","last_reported":1732000160,"current_range_meters":38400,"station_id":"ce4bhip2rcd13ifvqft0","pricing_plan_id":"cebpf4jnsgd1na2vs0mg"},{"bike_id":"0e0a29be-6ebe-4950-9e8b-5b5b350330ba","system_id":"levelo_inurba_marseille","lat":43.30299,"lon":5.39221,"is_reserved":false,"is_disabled":false,"rental_uris":{"android":"levelo://app?vid=0e0a29be-6ebe-4950-9e8b-5b5b350330ba","ios":"levelo://app?vid=0e0a29be-6ebe-4950-9e8b-5b5b350330ba"},"vehicle_type_id":"4","last_reported":1732000160,"current_range_meters":14400,"station_id":"ce4bgkh2rcd13ifvqbk0","pricing_plan_id":"cebpf4jnsgd1na2vs0mg"},{"bike_id":"209fb4d1-72f4-458c-8ec5-067e1928fc59","system_id":"levelo_inurba_marseille","lat":43.24081,"lon":5.37751,"is_reserved":false,"is_disabled":false,"rental_uris":{"android":"levelo://app?vid=209fb4d1-72f4-458c-8ec5-067e1928fc59","ios":"levelo://app?vid=209fb4d1-72f4-458c-8ec5-067e1928fc59"},"vehicle_type_id":"4","last_reported":1732000160,"current_range_meters":32000,"station_id":"ce4bhnp2rcd13ifvqgvg","pricing_plan_id":"cebpf4jnsgd1na2vs0mg"},{"bike_id":"8b27a381-eefd-4902-a8c1-f12f7e3259a2","system_id":"levelo_inurba_marseille","lat":43.27494,"lon":5.42452,"is_reserved":false,"is_disabled":false,"rental_uris":{"android":"levelo://app?vid=8b27a381-eefd-4902-a8c1-f12f7e3259a2","ios":"levelo://app?vid=8b27a381-eefd-4902-a8c1-f12f7e3259a2"},"vehicle_type_id":"4","last_reported":1732000160,"current_range_meters":22800,"station_id":"ce4bhn92rcd13ifvqgrg","pricing_plan_id":"cebpf4jnsgd1na2vs0mg"},{"bike_id":"4de41581-3b4d-48da-b235-99669862c70a","system_id":"levelo_inurba_marseille","lat":43.29612,"lon":5.37703,"is_reserved":false,"is_disabled":true,"rental_uris":{"android":"levelo://app?vid=4de41581-3b4d-48da-b235-99669862c70a","ios":"levelo://app?vid=4de41581-3b4d-48da-b235-99669862c70a"},"vehicle_type_id":"4","last_reported":1732000160,"current_range_meters":30000,"station_id":"ce4bgi92rcd13ifvqb90","pricing_plan_id":"cebpf4jnsgd1na2vs0mg"},{"bike_id":"5ecb1eb3-1928-464f-a010-dee373383154","system_id":"levelo_inurba_marseille","lat":43.27182,"lon":5.4099,"is_reserved":false,"is_disabled":false,"rental_uris":{"android":"levelo://app?vid=5ecb1eb3-1928-464f-a010-dee373383154","ios":"levelo://app?vid=5ecb1eb3-1928-464f-a010-dee373383154"},"vehicle_type_id":"4","last_reported":1732000160,"current_range_meters":15200,"station_id":"ce4bhl12rcd13ifvqgf0","pricing_plan_id":"cebpf4jnsgd1na2vs0mg"},{"bike_id":"d5d9e54f-5f5b-4dce-95f6-702ae9539a9a","system_id":"levelo_inurba_marseille","lat":43.29356,"lon":5.37862,"is_reserved":false,"is_disabled":false,"rental_uris":{"android":"levelo://app?vid=d5d9e54f-5f5b-4dce-95f6-702ae9539a9a","ios":"levelo://app?vid=d5d9e54f-5f5b-4dce-95f6-702ae9539a9a"},"vehicle_type_id":"4","last_reported":1732000160,"current_range_meters":38800,"station_id":"ce4bgjh2rcd13ifvqbf0","pricing_plan_id":"cebpf4jnsgd1na2vs0mg"},{"bike_id":"36b4c978-389b-4dc5-a97b-3ea3d1441aec","system_id":"levelo_inurba_marseille","lat":43.27662,"lon":5.38893,"is_reserved":false,"is_disabled":false,"rental_uris":{"android":"levelo://app?vid=36b4c978-389b-4dc5-a97b-3ea3d1441aec","ios":"levelo://app?vid=36b4c978-389b-4dc5-a97b-3ea3d1441aec"},"vehicle_type_id":"4","last_reported":1732000160,"current_range_meters":32400,"station_id":"ce4bhi12rcd13ifvqfo0","pricing_plan_id":"cebpf4jnsgd1na2vs0mg"},{"bike_id":"f4b89e3e-303f-4caf-bcc8-90e28cd64704","system_id":"levelo_inurba_marseille","lat":43.2846,"lon":5.35886,"is_reserved":false,"is_disabled":false,"rental_uris":{"android":"levelo://app?vid=f4b89e3e-303f-4caf-bcc8-90e28cd64704","ios":"levelo://app?vid=f4b89e3e-303f-4caf-bcc8-90e28cd64704"},"vehicle_type_id":"4","last_reported":1732000160,"current_range_meters":9200,"station_id":"ce4bhah2rcd13ifvqei0","pricing_plan_id":"cebpf4jnsgd1na2vs0mg"},{"bike_id":"4625fa83-a861-4489-a308-08edccfad0d1","system_id":"levelo_inurba_marseille","lat":43.29784,"lon":5.39348,"is_reserved":false,"is_disabled":false,"rental_uris":{"android":"levelo://app?vid=4625fa83-a861-4489-a308-08edccfad0d1","ios":"levelo://app?vid=4625fa83-a861-4489-a308-08edccfad0d1"},"vehicle_type_id":"4","last_reported":1732000160,"current_range_meters":38800,"station_id":"ce4bh412rcd13ifvqdr0","pricing_plan_id":"cebpf4jnsgd1na2vs0mg"},{"bike_id":"85782696-36f2-4c33-98b6-2d88f8670e2c","system_id":"levelo_inurba_marseille","lat":43.31081,"lon":5.42429,"is_reserved":false,"is_disabled":false,"rental_uris":{"android":"levelo://app?vid=85782696-36f2-4c33-98b6-2d88f8670e2c","ios":"levelo://app?vid=85782696-36f2-4c33-98b6-2d88f8670e2c"},"vehicle_type_id":"4","last_reported":1732000160,"current_range_meters":36800,"station_id":"ce4bhp92rcd13ifvqhag","pricing_plan_id":"cebpf4jnsgd1na2vs0mg"},{"bike_id":"ca02af96-9ec2-4895-b85f-dcec16a8f966","system_id":"levelo_inurba_marseille","lat":43.23194,"lon":5.39977,"is_reserved":false,"is_disabled":false,"rental_uris":{"android":"levelo://app?vid=ca02af96-9ec2-4895-b85f-dcec16a8f966","ios":"levelo://app?vid=ca02af96-9ec2-4895-b85f-dcec16a8f966"},"vehicle_type_id":"4","last_reported":1732000160,"current_range_meters":11600,"station_id":"ce4bhn12rcd13ifvqgqg","pricing_plan_id":"cebpf4jnsgd1na2vs0mg"},{"bike_id":"4ff195aa-0e94-4780-a4e9-74e0f4125314","system_id":"levelo_inurba_marseille","lat":43.29781,"lon":5.39359,"is_reserved":false,"is_disabled":true,"rental_uris":{"android":"levelo://app?vid=4ff195aa-0e94-4780-a4e9-74e0f4125314","ios":"levelo://app?vid=4ff195aa-0e94-4780-a4e9-74e0f4125314"},"vehicle_type_id":"4","last_reported":1732000160,"current_range_meters":36000,"station_id":"chh1huq6cuj3fo74tm60","pricing_plan_id":"cebpf4jnsgd1na2vs0mg"},{"bike_id":"7a1d8a89-2a7e-4939-ab1a-d9cdb7e81301","system_id":"levelo_inurba_marseille","lat":43.29862,"lon":5.36735,"is_reserved":false,"is_disabled":true,"rental_uris":{"android":"levelo://app?vid=7a1d8a89-2a7e-4939-ab1a-d9cdb7e81301","ios":"levelo://app?vid=7a1d8a89-2a7e-4939-ab1a-d9cdb7e81301"},"vehicle_type_id":"4","last_reported":1732000160,"current_range_meters":0,"station_id":"","pricing_plan_id":"cebpf4jnsgd1na2vs0mg"},{"bike_id":"fae3e366-4e72-453f-b7d4-c08e1949b9ec","system_id":"levelo_inurba_marseille","lat":43.31077,"lon":5.42432,"is_reserved":false,"is_disabled":false,"rental_uris":{"android":"levelo://app?vid=fae3e366-4e72-453f-b7d4-c08e1949b9ec","ios":"levelo://app?vid=fae3e366-4e72-453f-b7d4-c08e1949b9ec"},"vehicle_type_id":"4","last_reported":1732000160,"current_range_meters":4000,"station_id":"ce4bhp92rcd13ifvqhag","pricing_plan_id":"cebpf4jnsgd1na2vs0mg"},{"bike_id":"84add0bd-cb10-4dcb-82e1-3da91d21fda0","system_id":"levelo_inurba_marseille","lat":43.298978,"lon":5.436675,"is_reserved":false,"is_disabled":false,"rental_uris":{"android":"levelo://app?vid=84add0bd-cb10-4dcb-82e1-3da91d21fda0","ios":"levelo://app?vid=84add0bd-cb10-4dcb-82e1-3da91d21fda0"},"vehicle_type_id":"4","last_reported":1732000160,"current_range_meters":37600,"station_id":"ce4bhpp2rcd13ifvqhfg","pricing_plan_id":"cebpf4jnsgd1na2vs0mg"},{"bike_id":"b868869a-6cd6-4d7d-822a-50a37148dbe6","system_id":"levelo_inurba_marseille","lat":43.28572,"lon":5.39498,"is_reserved":false,"is_disabled":false,"rental_uris":{"android":"levelo://app?vid=b868869a-6cd6-4d7d-822a-50a37148dbe6","ios":"levelo://app?vid=b868869a-6cd6-4d7d-822a-50a37148dbe6"},"vehicle_type_id":"4","last_reported":1732000160,"current_range_meters":2800,"station_id":"ce4bh292rcd13ifvqdg0","pricing_plan_id":"cebpf4jnsgd1na2vs0mg"},{"bike_id":"51fd3607-da3e-4582-8387-875131cc154d","system_id":"levelo_inurba_marseille","lat":43.284638,"lon":5.358937,"is_reserved":false,"is_disabled":false,"rental_uris":{"android":"levelo://app?vid=51fd3607-da3e-4582-8387-875131cc154d","ios":"levelo://app?vid=51fd3607-da3e-4582-8387-875131cc154d"},"vehicle_type_id":"4","last_reported":1732000160,"current_range_meters":38000,"station_id":"ce4bhah2rcd13ifvqei0","pricing_plan_id":"cebpf4jnsgd1na2vs0mg"},{"bike_id":"d482b473-8011-43d1-9203-ef428f8af553","system_id":"levelo_inurba_marseille","lat":43.295526,"lon":5.422834,"is_reserved":false,"is_disabled":false,"rental_uris":{"android":"levelo://app?vid=d482b473-8011-43d1-9203-ef428f8af553","ios":"levelo://app?vid=d482b473-8011-43d1-9203-ef428f8af553"},"vehicle_type_id":"4","last_reported":1732000160,"current_range_meters":14000,"station_id":"ce4bhph2rcd13ifvqhdg","pricing_plan_id":"cebpf4jnsgd1na2vs0mg"},{"bike_id":"75a4dc29-43a0-43d4-a7f4-de95d0277d12","system_id":"levelo_inurba_marseille","lat":43.24998,"lon":5.38936,"is_reserved":false,"is_disabled":false,"rental_uris":{"android":"levelo://app?vid=75a4dc29-43a0-43d4-a7f4-de95d0277d12","ios":"levelo://app?vid=75a4dc29-43a0-43d4-a7f4-de95d0277d12"},"vehicle_type_id":"4","last_reported":1732000160,"current_range_meters":20800,"station_id":"ce4bhgp2rcd13ifvqfd0","pricing_plan_id":"cebpf4jnsgd1na2vs0mg"},{"bike_id":"cde5eb04-35f5-4971-aec4-8004f9b2dcd9","system_id":"levelo_inurba_marseille","lat":43.282695,"lon":5.350641,"is_reserved":false,"is_disabled":true,"rental_uris":{"android":"levelo://app?vid=cde5eb04-35f5-4971-aec4-8004f9b2dcd9","ios":"levelo://app?vid=cde5eb04-35f5-4971-aec4-8004f9b2dcd9"},"vehicle_type_id":"4","last_reported":1732000160,"current_range_meters":34800,"station_id":"ce4bhbp2rcd13ifvqerg","pricing_plan_id":"cebpf4jnsgd1na2vs0mg"},{"bike_id":"b2a03590-8732-4604-b0c0-abfd2677d0f3","system_id":"levelo_inurba_marseille","lat":43.31346,"lon":5.36709,"is_reserved":false,"is_disabled":false,"rental_uris":{"android":"levelo://app?vid=b2a03590-8732-4604-b0c0-abfd2677d0f3","ios":"levelo://app?vid=b2a03590-8732-4604-b0c0-abfd2677d0f3"},"vehicle_type_id":"4","last_reported":1732000160,"current_range_meters":36400,"station_id":"ce4bgr92rcd13ifvqc6g","pricing_plan_id":"cebpf4jnsgd1na2vs0mg"},{"bike_id":"d9aaa99c-543f-4857-a768-c5d47f66986e","system_id":"levelo_inurba_marseille","lat":43.23188,"lon":5.39981,"is_reserved":false,"is_disabled":false,"rental_uris":{"android":"levelo://app?vid=d9aaa99c-543f-4857-a768-c5d47f66986e","ios":"levelo://app?vid=d9aaa99c-543f-4857-a768-c5d47f66986e"},"vehicle_type_id":"4","last_reported":1732000160,"current_range_meters":27600,"station_id":"ce4bhn12rcd13ifvqgqg","pricing_plan_id":"cebpf4jnsgd1na2vs0mg"},{"bike_id":"c285c11f-9b36-4bc2-b2d9-efcee1febd1b","system_id":"levelo_inurba_marseille","lat":43.34144,"lon":5.40903,"is_reserved":false,"is_disabled":false,"rental_uris":{"android":"levelo://app?vid=c285c11f-9b36-4bc2-b2d9-efcee1febd1b","ios":"levelo://app?vid=c285c11f-9b36-4bc2-b2d9-efcee1febd1b"},"vehicle_type_id":"4","last_reported":1732000160,"current_range_meters":17200,"station_id":"ce4bhqh2rcd13ifvqhlg","pricing_plan_id":"cebpf4jnsgd1na2vs0mg"},{"bike_id":"46f32d27-7b4f-492c-a74f-9db63191b671","system_id":"levelo_inurba_marseille","lat":43.29009,"lon":5.35609,"is_reserved":false,"is_disabled":false,"rental_uris":{"android":"levelo://app?vid=46f32d27-7b4f-492c-a74f-9db63191b671","ios":"levelo://app?vid=46f32d27-7b4f-492c-a74f-9db63191b671"},"vehicle_type_id":"4","last_reported":1732000160,"current_range_meters":16400,"station_id":"ce4bhb92rcd13ifvqen0","pricing_plan_id":"cebpf4jnsgd1na2vs0mg"},{"bike_id":"584eddb4-eee5-41b0-9c40-03572e0e5400","system_id":"levelo_inurba_marseille","lat":43.30145,"lon":5.3742,"is_reserved":false,"is_disabled":false,"rental_uris":{"android":"levelo://app?vid=584eddb4-eee5-41b0-9c40-03572e0e5400","ios":"levelo://app?vid=584eddb4-eee5-41b0-9c40-03572e0e5400"},"vehicle_type_id":"4","last_reported":1732000160,"current_range_meters":33600,"station_id":"ce4bgs92rcd13ifvqcc0","pricing_plan_id":"cebpf4jnsgd1na2vs0mg"},{"bike_id":"6ebbdc8a-f3a1-40d2-968e-7409574b7edc","system_id":"levelo_inurba_marseille","lat":43.32541,"lon":5.41428,"is_reserved":false,"is_disabled":false,"rental_uris":{"android":"levelo://app?vid=6ebbdc8a-f3a1-40d2-968e-7409574b7edc","ios":"levelo://app?vid=6ebbdc8a-f3a1-40d2-968e-7409574b7edc"},"vehicle_type_id":"4","last_reported":1732000160,"current_range_meters":22000,"station_id":"ce4bhq12rcd13ifvqhhg","pricing_plan_id":"cebpf4jnsgd1na2vs0mg"},{"bike_id":"0e2bbe61-8f31-47ba-b582-6a82d0b052e0","system_id":"levelo_inurba_marseille","lat":43.29022,"lon":5.3835,"is_reserved":false,"is_disabled":false,"rental_uris":{"android":"levelo://app?vid=0e2bbe61-8f31-47ba-b582-6a82d0b052e0","ios":"levelo://app?vid=0e2bbe61-8f31-47ba-b582-6a82d0b052e0"},"vehicle_type_id":"4","last_reported":1732000160,"current_range_meters":30000,"station_id":"ce4bgip2rcd13ifvqbb0","pricing_plan_id":"cebpf4jnsgd1na2vs0mg"},{"bike_id":"bff402ee-970d-46d4-8d25-a5216fd3bac3","system_id":"levelo_inurba_marseille","lat":43.25007,"lon":5.3892,"is_reserved":false,"is_disabled":true,"rental_uris":{"android":"levelo://app?vid=bff402ee-970d-46d4-8d25-a5216fd3bac3","ios":"levelo://app?vid=bff402ee-970d-46d4-8d25-a5216fd3bac3"},"vehicle_type_id":"4","last_reported":1732000160,"current_range_meters":6000,"station_id":"ce4bhgp2rcd13ifvqfd0","pricing_plan_id":"cebpf4jnsgd1na2vs0mg"},{"bike_id":"c3bc0f64-f384-48a7-9517-04f95522a7e3","system_id":"levelo_inurba_marseille","lat":43.318242,"lon":5.37611,"is_reserved":false,"is_disabled":true,"rental_uris":{"android":"levelo://app?vid=c3bc0f64-f384-48a7-9517-04f95522a7e3","ios":"levelo://app?vid=c3bc0f64-f384-48a7-9517-04f95522a7e3"},"vehicle_type_id":"4","last_reported":1732000160,"current_range_meters":16800,"station_id":"","pricing_plan_id":"cebpf4jnsgd1na2vs0mg"},{"bike_id":"652c9e13-46c8-4c74-a9a3-d4ce31b5591f","system_id":"levelo_inurba_marseille","lat":43.31891,"lon":5.40727,"is_reserved":false,"is_disabled":false,"rental_uris":{"android":"levelo://app?vid=652c9e13-46c8-4c74-a9a3-d4ce31b5591f","ios":"levelo://app?vid=652c9e13-46c8-4c74-a9a3-d4ce31b5591f"},"vehicle_type_id":"4","last_reported":1732000160,"current_range_meters":38800,"station_id":"ce4bhq12rcd13ifvqhig","pricing_plan_id":"cebpf4jnsgd1na2vs0mg"},{"bike_id":"c3adda95-8823-44a7-ab6f-ce72306eabe1","system_id":"levelo_inurba_marseille","lat":43.27427,"lon":5.39406,"is_reserved":false,"is_disabled":true,"rental_uris":{"android":"levelo://app?vid=c3adda95-8823-44a7-ab6f-ce72306eabe1","ios":"levelo://app?vid=c3adda95-8823-44a7-ab6f-ce72306eabe1"},"vehicle_type_id":"4","last_reported":1732000160,"current_range_meters":37600,"station_id":"ce4bhdp2rcd13ifvqf20","pricing_plan_id":"cebpf4jnsgd1na2vs0mg"},{"bike_id":"0f7d3f82-6b41-4aca-b79e-c6aaeac6d97f","system_id":"levelo_inurba_marseille","lat":43.30546,"lon":5.36689,"is_reserved":false,"is_disabled":true,"rental_uris":{"android":"levelo://app?vid=0f7d3f82-6b41-4aca-b79e-c6aaeac6d97f","ios":"levelo://app?vid=0f7d3f82-6b41-4aca-b79e-c6aaeac6d97f"},"vehicle_type_id":"4","last_reported":1732000160,"current_range_meters":38800,"station_id":"ce4bgrp2rcd13ifvqc9g","pricing_plan_id":"cebpf4jnsgd1na2vs0mg"},{"bike_id":"516f73ff-0cad-406c-bce7-59fcdfc34992","system_id":"levelo_inurba_marseille","lat":43.23183,"lon":5.39987,"is_reserved":false,"is_disabled":false,"rental_uris":{"android":"levelo://app?vid=516f73ff-0cad-406c-bce7-59fcdfc34992","ios":"levelo://app?vid=516f73ff-0cad-406c-bce7-59fcdfc34992"},"vehicle_type_id":"4","last_reported":1732000160,"current_range_meters":8400,"station_id":"ce4bhn12rcd13ifvqgqg","pricing_plan_id":"cebpf4jnsgd1na2vs0mg"},{"bike_id":"46731ef7-efa9-4511-83cf-afa46ba542ba","system_id":"levelo_inurba_marseille","lat":43.30465,"lon":5.379,"is_reserved":false,"is_disabled":false,"rental_uris":{"android":"levelo://app?vid=46731ef7-efa9-4511-83cf-afa46ba542ba","ios":"levelo://app?vid=46731ef7-efa9-4511-83cf-afa46ba542ba"},"vehicle_type_id":"4","last_reported":1732000160,"current_range_meters":6000,"station_id":"ce4bgup2rcd13ifvqcn0","pricing_plan_id":"cebpf4jnsgd1na2vs0mg"},{"bike_id":"f88880d1-ac78-44c9-9b11-66bc479ffec7","system_id":"levelo_inurba_marseille","lat":43.284697,"lon":5.358683,"is_reserved":false,"is_disabled":false,"rental_uris":{"android":"levelo://app?vid=f88880d1-ac78-44c9-9b11-66bc479ffec7","ios":"levelo://app?vid=f88880d1-ac78-44c9-9b11-66bc479ffec7"},"vehicle_type_id":"4","last_reported":1732000160,"current_range_meters":12800,"station_id":"ce4bhah2rcd13ifvqei0","pricing_plan_id":"cebpf4jnsgd1na2vs0mg"},{"bike_id":"c4bf7afd-15aa-4094-8dd5-981d6c28cc87","system_id":"levelo_inurba_marseille","lat":43.30906,"lon":5.36844,"is_reserved":false,"is_disabled":false,"rental_uris":{"android":"levelo://app?vid=c4bf7afd-15aa-4094-8dd5-981d6c28cc87","ios":"levelo://app?vid=c4bf7afd-15aa-4094-8dd5-981d6c28cc87"},"vehicle_type_id":"4","last_reported":1732000160,"current_range_meters":37600,"station_id":"ce4bgn92rcd13ifvqbvg","pricing_plan_id":"cebpf4jnsgd1na2vs0mg"},{"bike_id":"02c4176e-f331-4d90-892e-a79efbd5b7c8","system_id":"levelo_inurba_marseille","lat":43.24077,"lon":5.37755,"is_reserved":false,"is_disabled":false,"rental_uris":{"android":"levelo://app?vid=02c4176e-f331-4d90-892e-a79efbd5b7c8","ios":"levelo://app?vid=02c4176e-f331-4d90-892e-a79efbd5b7c8"},"vehicle_type_id":"4","last_reported":1732000160,"current_range_meters":29600,"station_id":"ce4bhnp2rcd13ifvqgvg","pricing_plan_id":"cebpf4jnsgd1na2vs0mg"},{"bike_id":"729f081d-5184-4f31-801f-2b41f23e3a17","system_id":"levelo_inurba_marseille","lat":43.33112,"lon":5.3821,"is_reserved":false,"is_disabled":false,"rental_uris":{"android":"levelo://app?vid=729f081d-5184-4f31-801f-2b41f23e3a17","ios":"levelo://app?vid=729f081d-5184-4f31-801f-2b41f23e3a17"},"vehicle_type_id":"4","last_reported":1732000160,"current_range_meters":35600,"station_id":"","pricing_plan_id":"cebpf4jnsgd1na2vs0mg"},{"bike_id":"638f8d00-ceb3-4062-9f5f-ca647d7df496","system_id":"levelo_inurba_marseille","lat":43.27422,"lon":5.3941,"is_reserved":false,"is_disabled":true,"rental_uris":{"android":"levelo://app?vid=638f8d00-ceb3-4062-9f5f-ca647d7df496","ios":"levelo://app?vid=638f8d00-ceb3-4062-9f5f-ca647d7df496"},"vehicle_type_id":"4","last_reported":1732000160,"current_range_meters":28800,"station_id":"ce4bhdp2rcd13ifvqf20","pricing_plan_id":"cebpf4jnsgd1na2vs0mg"},{"bike_id":"1c9d5a2a-a677-45cf-ae90-9c944e700562","system_id":"levelo_inurba_marseille","lat":43.24165,"lon":5.36396,"is_reserved":false,"is_disabled":false,"rental_uris":{"android":"levelo://app?vid=1c9d5a2a-a677-45cf-ae90-9c944e700562","ios":"levelo://app?vid=1c9d5a2a-a677-45cf-ae90-9c944e700562"},"vehicle_type_id":"4","last_reported":1732000160,"current_range_meters":12000,"station_id":"cpo36qri1sfpv3e86is0","pricing_plan_id":"cebpf4jnsgd1na2vs0mg"},{"bike_id":"4a4eab77-725b-412c-9743-c096390a45fd","system_id":"levelo_inurba_marseille","lat":43.28022,"lon":5.36941,"is_reserved":false,"is_disabled":false,"rental_uris":{"android":"levelo://app?vid=4a4eab77-725b-412c-9743-c096390a45fd","ios":"levelo://app?vid=4a4eab77-725b-412c-9743-c096390a45fd"},"vehicle_type_id":"4","last_reported":1732000160,"current_range_meters":38000,"station_id":"ce4bha12rcd13ifvqef0","pricing_plan_id":"cebpf4jnsgd1na2vs0mg"},{"bike_id":"fc86b385-912d-4c41-84c7-adb8e8df3dc0","system_id":"levelo_inurba_marseille","lat":43.29557,"lon":5.42286,"is_reserved":false,"is_disabled":false,"rental_uris":{"android":"levelo://app?vid=fc86b385-912d-4c41-84c7-adb8e8df3dc0","ios":"levelo://app?vid=fc86b385-912d-4c41-84c7-adb8e8df3dc0"},"vehicle_type_id":"4","last_reported":1732000160,"current_range_meters":18800,"station_id":"ce4bhph2rcd13ifvqhdg","pricing_plan_id":"cebpf4jnsgd1na2vs0mg"},{"bike_id":"13737869-f9f0-4487-b2b5-cd7ea6096623","system_id":"levelo_inurba_marseille","lat":43.23964,"lon":5.3663,"is_reserved":false,"is_disabled":false,"rental_uris":{"android":"levelo://app?vid=13737869-f9f0-4487-b2b5-cd7ea6096623","ios":"levelo://app?vid=13737869-f9f0-4487-b2b5-cd7ea6096623"},"vehicle_type_id":"4","last_reported":1732000160,"current_range_meters":33600,"station_id":"ce4bhi12rcd13ifvqfp0","pricing_plan_id":"cebpf4jnsgd1na2vs0mg"},{"bike_id":"5b6bc891-12ea-456b-be38-303af3a6bc51","system_id":"levelo_inurba_marseille","lat":43.279962,"lon":5.400109,"is_reserved":false,"is_disabled":false,"rental_uris":{"android":"levelo://app?vid=5b6bc891-12ea-456b-be38-303af3a6bc51","ios":"levelo://app?vid=5b6bc891-12ea-456b-be38-303af3a6bc51"},"vehicle_type_id":"4","last_reported":1732000160,"current_range_meters":38400,"station_id":"ce4bho92rcd13ifvqh4g","pricing_plan_id":"cebpf4jnsgd1na2vs0mg"},{"bike_id":"3f2e793f-445d-48e7-aed6-2086ced939b2","system_id":"levelo_inurba_marseille","lat":43.26498,"lon":5.39544,"is_reserved":false,"is_disabled":true,"rental_uris":{"android":"levelo://app?vid=3f2e793f-445d-48e7-aed6-2086ced939b2","ios":"levelo://app?vid=3f2e793f-445d-48e7-aed6-2086ced939b2"},"vehicle_type_id":"4","last_reported":1732000160,"current_range_meters":0,"station_id":"ce4bhi12rcd13ifvqfq0","pricing_plan_id":"cebpf4jnsgd1na2vs0mg"},{"bike_id":"3d25d818-80cf-415a-996a-afc2d01ce97b","system_id":"levelo_inurba_marseille","lat":43.27792,"lon":5.40721,"is_reserved":false,"is_disabled":false,"rental_uris":{"android":"levelo://app?vid=3d25d818-80cf-415a-996a-afc2d01ce97b","ios":"levelo://app?vid=3d25d818-80cf-415a-996a-afc2d01ce97b"},"vehicle_type_id":"4","last_reported":1732000160,"current_range_meters":17200,"station_id":"ce4bhnh2rcd13ifvqgtg","pricing_plan_id":"cebpf4jnsgd1na2vs0mg"},{"bike_id":"64ed23a0-3533-4dca-8fb9-650aaf2586c1","system_id":"levelo_inurba_marseille","lat":43.3172,"lon":5.42406,"is_reserved":false,"is_disabled":false,"rental_uris":{"android":"levelo://app?vid=64ed23a0-3533-4dca-8fb9-650aaf2586c1","ios":"levelo://app?vid=64ed23a0-3533-4dca-8fb9-650aaf2586c1"},"vehicle_type_id":"4","last_reported":1732000160,"current_range_meters":38000,"station_id":"ce4bhp92rcd13ifvqhbg","pricing_plan_id":"cebpf4jnsgd1na2vs0mg"},{"bike_id":"88db3628-eb16-4781-800f-e7009628c5ac","system_id":"levelo_inurba_marseille","lat":43.29554,"lon":5.42288,"is_reserved":false,"is_disabled":false,"rental_uris":{"android":"levelo://app?vid=88db3628-eb16-4781-800f-e7009628c5ac","ios":"levelo://app?vid=88db3628-eb16-4781-800f-e7009628c5ac"},"vehicle_type_id":"4","last_reported":1732000160,"current_range_meters":39200,"station_id":"ce4bhph2rcd13ifvqhdg","pricing_plan_id":"cebpf4jnsgd1na2vs0mg"},{"bike_id":"5fbaf450-90c7-416c-a9b6-8e3b3003c75c","system_id":"levelo_inurba_marseille","lat":43.3249,"lon":5.36555,"is_reserved":false,"is_disabled":false,"rental_uris":{"android":"levelo://app?vid=5fbaf450-90c7-416c-a9b6-8e3b3003c75c","ios":"levelo://app?vid=5fbaf450-90c7-416c-a9b6-8e3b3003c75c"},"vehicle_type_id":"4","last_reported":1732000160,"current_range_meters":39200,"station_id":"ce4bhs12rcd13ifvqhvg","pricing_plan_id":"cebpf4jnsgd1na2vs0mg"},{"bike_id":"f43a8b99-5b07-49f5-a70f-a74da4f8ce4f","system_id":"levelo_inurba_marseille","lat":43.29899,"lon":5.43657,"is_reserved":false,"is_disabled":false,"rental_uris":{"android":"levelo://app?vid=f43a8b99-5b07-49f5-a70f-a74da4f8ce4f","ios":"levelo://app?vid=f43a8b99-5b07-49f5-a70f-a74da4f8ce4f"},"vehicle_type_id":"4","last_reported":1732000160,"current_range_meters":38800,"station_id":"ce4bhpp2rcd13ifvqhfg","pricing_plan_id":"cebpf4jnsgd1na2vs0mg"},{"bike_id":"a9d6b8ca-d92f-4d98-abb7-db8ad55b378e","system_id":"levelo_inurba_marseille","lat":43.341417,"lon":5.408062,"is_reserved":false,"is_disabled":false,"rental_uris":{"android":"levelo://app?vid=a9d6b8ca-d92f-4d98-abb7-db8ad55b378e","ios":"levelo://app?vid=a9d6b8ca-d92f-4d98-abb7-db8ad55b378e"},"vehicle_type_id":"4","last_reported":1732000160,"current_range_meters":36400,"station_id":"ce4bhqh2rcd13ifvqhlg","pricing_plan_id":"cebpf4jnsgd1na2vs0mg"},{"bike_id":"a1d84039-01ef-486c-ac5d-9c12c9df116b","system_id":"levelo_inurba_marseille","lat":43.24389,"lon":5.37055,"is_reserved":false,"is_disabled":false,"rental_uris":{"android":"levelo://app?vid=a1d84039-01ef-486c-ac5d-9c12c9df116b","ios":"levelo://app?vid=a1d84039-01ef-486c-ac5d-9c12c9df116b"},"vehicle_type_id":"4","last_reported":1732000160,"current_range_meters":27200,"station_id":"ce4bhhh2rcd13ifvqfk0","pricing_plan_id":"cebpf4jnsgd1na2vs0mg"},{"bike_id":"73434bc2-cc57-44fa-88a1-39cd6d37c40e","system_id":"levelo_inurba_marseille","lat":43.29902,"lon":5.38123,"is_reserved":false,"is_disabled":false,"rental_uris":{"android":"levelo://app?vid=73434bc2-cc57-44fa-88a1-39cd6d37c40e","ios":"levelo://app?vid=73434bc2-cc57-44fa-88a1-39cd6d37c40e"},"vehicle_type_id":"4","last_reported":1732000160,"current_range_meters":24400,"station_id":"ce4bgj12rcd13ifvqbc0","pricing_plan_id":"cebpf4jnsgd1na2vs0mg"},{"bike_id":"6fad3aed-55cd-4c54-b4c1-f7ce9c631195","system_id":"levelo_inurba_marseille","lat":43.29787,"lon":5.38117,"is_reserved":false,"is_disabled":true,"rental_uris":{"android":"levelo://app?vid=6fad3aed-55cd-4c54-b4c1-f7ce9c631195","ios":"levelo://app?vid=6fad3aed-55cd-4c54-b4c1-f7ce9c631195"},