{"last_updated":1743711054,"ttl":60,"version":"2.2","data":{"bikes":[{"bike_id":"299dacb6-5266-4b81-88b2-50fcdef62869","system_id":"levelo_inurba_marseille","lat":43.24583,"lon":5.41678,"is_reserved":false,"is_disabled":false,"rental_uris":{"android":"levelo://app?vid=299dacb6-5266-4b81-88b2-50fcdef62869","ios":"levelo://app?vid=299dacb6-5266-4b81-88b2-50fcdef62869"},"vehicle_type_id":"4","last_reported":1743711055,"current_range_meters":2800,"station_id":"","pricing_plan_id":"cebpf4jnsgd1na2vs0mg"},{"bike_id":"585b6e2c-d9b9-4d81-bf14-09f6bedafb61","system_id":"levelo_inurba_marseille","lat":43.30415,"lon":5.36863,"is_reserved":false,"is_disabled":false,"rental_uris":{"android":"levelo://app?vid=585b6e2c-d9b9-4d81-bf14-09f6bedafb61","ios":"levelo://app?vid=585b6e2c-d9b9-4d81-bf14-09f6bedafb61"},"vehicle_type_id":"4","last_reported":1743711055,"current_range_meters":2800,"station_id":"","pricing_plan_id":"cebpf4jnsgd1na2vs0mg"},{"bike_id":"e7775b61-b4d6-4ab3-8b5d-d3117de690be","system_id":"levelo_inurba_marseille","lat":43.31498,"lon":5.37296,"is_reserved":false,"is_disabled":false,"rental_uris":{"android":"levelo://app?vid=e7775b61-b4d6-4ab3-8b5d-d3117de690be","ios":"levelo://app?vid=e7775b61-b4d6-4ab3-8b5d-d3117de690be"},"vehicle_type_id":"4","last_reported":1743711055,"current_range_meters":3200,"station_id":"ce4bgt12rcd13ifvqcd0","pricing_plan_id":"cebpf4jnsgd1na2vs0mg"},{"bike_id":"d157a8ac-f1ea-480a-a1ee-9ac00962bb01","system_id":"levelo_inurba_marseille","lat":43.29547,"lon":5.42283,"is_reserved":false,"is_disabled":true,"rental_uris":{"android":"levelo://app?vid=d157a8ac-f1ea-480a-a1ee-9ac00962bb01","ios":"levelo://app?vid=d157a8ac-f1ea-480a-a1ee-9ac00962bb01"},"vehicle_type_id":"4","last_reported":1743711055,"current_range_meters":3200,"station_id":"ce4bhph2rcd13ifvqhdg","pricing_plan_id":"cebpf4jnsgd1na2vs0mg"},{"bike_id":"e78dd258-2a76-43fb-8894-50d5f34479f7","system_id":"levelo_inurba_marseille","lat":43.29508,"lon":5.39044,"is_reserved":false,"is_disabled":false,"rental_uris":{"android":"levelo://app?vid=e78dd258-2a76-43fb-8894-50d5f34479f7","ios":"levelo://app?vid=e78dd258-2a76-43fb-8894-50d5f34479f7"},"vehicle_type_id":"4","last_reported":1743711055,"current_range_meters":3200,"station_id":"ce4bh3p2rcd13ifvqdp0","pricing_plan_id":"cebpf4jnsgd1na2vs0mg"},{"bike_id":"062de6df-dcb7-46bb-91b2-60b4b03c6c53","system_id":"levelo_inurba_marseille","lat":43.29527,"lon":5.38547,"is_reserved":false,"is_disabled":true,"rental_uris":{"android":"levelo://app?vid=062de6df-dcb7-46bb-91b2-60b4b03c6c53","ios":"levelo://app?vid=062de6df-dcb7-46bb-91b2-60b4b03c6c53"},"vehicle_type_id":"4","last_reported":1743711055,"current_range_meters":3200,"station_id":"ce4bgih2rcd13ifvqba0","pricing_plan_id":"cebpf4jnsgd1na2vs0mg"},{"bike_id":"c62aeca6-5c59-4d5f-9993-0b4a3a09d379","system_id":"levelo_inurba_marseille","lat":43.3013,"lon":5.38783,"is_reserved":false,"is_disabled":false,"rental_uris":{"android":"levelo://app?vid=c62aeca6-5c59-4d5f-9993-0b4a3a09d379","ios":"levelo://app?vid=c62aeca6-5c59-4d5f-9993-0b4a3a09d379"},"vehicle_type_id":"4","last_reported":1743711055,"current_range_meters":3200,"station_id":"ce4bghh2rcd13ifvqb60","pricing_plan_id":"cebpf4jnsgd1na2vs0mg"},{"bike_id":"45575226-48e1-4eea-9978-1f2e14d978a7","system_id":"levelo_inurba_marseille","lat":43.27833,"lon":5.39209,"is_reserved":false,"is_disabled":false,"rental_uris":{"android":"levelo://app?vid=45575226-48e1-4eea-9978-1f2e14d978a7","ios":"levelo://app?vid=45575226-48e1-4eea-9978-1f2e14d978a7"},"vehicle_type_id":"4","last_reported":1743711055,"current_range_meters":3200,"station_id":"","pricing_plan_id":"cebpf4jnsgd1na2vs0mg"},{"bike_id":"f04d2fcc-f749-4211-8fd5-e09955ce434b","system_id":"levelo_inurba_marseille","lat":43.298818,"lon":5.38902,"is_reserved":false,"is_disabled":false,"rental_uris":{"android":"levelo://app?vid=f04d2fcc-f749-4211-8fd5-e09955ce434b","ios":"levelo://app?vid=f04d2fcc-f749-4211-8fd5-e09955ce434b"},"vehicle_type_id":"4","last_reported":1743711055,"current_range_meters":3200,"station_id":"ce4bh392rcd13ifvqdl0","pricing_plan_id":"cebpf4jnsgd1na2vs0mg"},{"bike_id":"d8fb7e39-2b01-4276-a43b-1b9fe210b950","system_id":"levelo_inurba_marseille","lat":43.29435,"lon":5.38636,"is_reserved":false,"is_disabled":false,"rental_uris":{"android":"levelo://app?vid=d8fb7e39-2b01-4276-a43b-1b9fe210b950","ios":"levelo://app?vid=d8fb7e39-2b01-4276-a43b-1b9fe210b950"},"vehicle_type_id":"4","last_reported":1743711055,"current_range_meters":3200,"station_id":"ce4bh2h2rcd13ifvqdh0","pricing_plan_id":"cebpf4jnsgd1na2vs0mg"},{"bike_id":"304af585-685e-4152-927a-d9853271fec2","system_id":"levelo_inurba_marseille","lat":43.29016,"lon":5.38644,"is_reserved":false,"is_disabled":false,"rental_uris":{"android":"levelo://app?vid=304af585-685e-4152-927a-d9853271fec2","ios":"levelo://app?vid=304af585-685e-4152-927a-d9853271fec2"},"vehicle_type_id":"4","last_reported":1743711055,"current_range_meters":3200,"station_id":"ce4bh4p2rcd13ifvqe0g","pricing_plan_id":"cebpf4jnsgd1na2vs0mg"},{"bike_id":"1f02d957-d66e-4839-9340-0cb45bcc21a6","system_id":"levelo_inurba_marseille","lat":43.31221,"lon":5.36871,"is_reserved":false,"is_disabled":false,"rental_uris":{"android":"levelo://app?vid=1f02d957-d66e-4839-9340-0cb45bcc21a6","ios":"levelo://app?vid=1f02d957-d66e-4839-9340-0cb45bcc21a6"},"vehicle_type_id":"4","last_reported":1743711055,"current_range_meters":3200,"station_id":"ce4bgl92rcd13ifvqbq0","pricing_plan_id":"cebpf4jnsgd1na2vs0mg"},{"bike_id":"f9d0782e-710e-484e-a1e4-648cb241bf89","system_id":"levelo_inurba_marseille","lat":43.30948,"lon":5.39032,"is_reserved":false,"is_disabled":false,"rental_uris":{"android":"levelo://app?vid=f9d0782e-710e-484e-a1e4-648cb241bf89","ios":"levelo://app?vid=f9d0782e-710e-484e-a1e4-648cb241bf89"},"vehicle_type_id":"4","last_reported":1743711055,"current_range_meters":3600,"station_id":"ce4bgup2rcd13ifvqco0","pricing_plan_id":"cebpf4jnsgd1na2vs0mg"},{"bike_id":"6e1c2fbe-d0e1-449c-ac83-d7d48e0bba41","system_id":"levelo_inurba_marseille","lat":43.30134,"lon":5.39879,"is_reserved":false,"is_disabled":false,"rental_uris":{"android":"levelo://app?vid=6e1c2fbe-d0e1-449c-ac83-d7d48e0bba41","ios":"levelo://app?vid=6e1c2fbe-d0e1-449c-ac83-d7d48e0bba41"},"vehicle_type_id":"4","last_reported":1743711055,"current_range_meters":3600,"station_id":"ce4bh0h2rcd13ifvqd40","pricing_plan_id":"cebpf4jnsgd1na2vs0mg"},{"bike_id":"794d3c44-7e25-41b4-9c32-884e0c45c396","system_id":"levelo_inurba_marseille","lat":43.28569,"lon":5.39502,"is_reserved":false,"is_disabled":false,"rental_uris":{"android":"levelo://app?vid=794d3c44-7e25-41b4-9c32-884e0c45c396","ios":"levelo://app?vid=794d3c44-7e25-41b4-9c32-884e0c45c396"},"vehicle_type_id":"4","last_reported":1743711055,"current_range_meters":2000,"station_id":"ce4bh292rcd13ifvqdg0","pricing_plan_id":"cebpf4jnsgd1na2vs0mg"},{"bike_id":"7c92247e-1090-458e-952c-b387c073a420","system_id":"levelo_inurba_marseille","lat":43.29415,"lon":5.38619,"is_reserved":false,"is_disabled":false,"rental_uris":{"android":"levelo://app?vid=7c92247e-1090-458e-952c-b387c073a420","ios":"levelo://app?vid=7c92247e-1090-458e-952c-b387c073a420"},"vehicle_type_id":"4","last_reported":1743711055,"current_range_meters":4400,"station_id":"ce4bh2h2rcd13ifvqdh0","pricing_plan_id":"cebpf4jnsgd1na2vs0mg"},{"bike_id":"b24f2b1b-d487-45cf-a2fc-2b63823c9a3d","system_id":"levelo_inurba_marseille","lat":43.28155,"lon":5.42645,"is_reserved":false,"is_disabled":false,"rental_uris":{"android":"levelo://app?vid=b24f2b1b-d487-45cf-a2fc-2b63823c9a3d","ios":"levelo://app?vid=b24f2b1b-d487-45cf-a2fc-2b63823c9a3d"},"vehicle_type_id":"4","last_reported":1743711055,"current_range_meters":4400,"station_id":"ce4bhnh2rcd13ifvqgug","pricing_plan_id":"cebpf4jnsgd1na2vs0mg"},{"bike_id":"f656fe50-61b1-4b6c-bde8-770244a23035","system_id":"levelo_inurba_marseille","lat":43.33005,"lon":5.39338,"is_reserved":false,"is_disabled":false,"rental_uris":{"android":"levelo://app?vid=f656fe50-61b1-4b6c-bde8-770244a23035","ios":"levelo://app?vid=f656fe50-61b1-4b6c-bde8-770244a23035"},"vehicle_type_id":"4","last_reported":1743711055,"current_range_meters":4400,"station_id":"","pricing_plan_id":"cebpf4jnsgd1na2vs0mg"},{"bike_id":"6b9e6fc8-338e-44b0-9539-c4206b8d9896","system_id":"levelo_inurba_marseille","lat":43.30433,"lon":5.38884,"is_reserved":false,"is_disabled":false,"rental_uris":{"android":"levelo://app?vid=6b9e6fc8-338e-44b0-9539-c4206b8d9896","ios":"levelo://app?vid=6b9e6fc8-338e-44b0-9539-c4206b8d9896"},"vehicle_type_id":"4","last_reported":1743711055,"current_range_meters":4400,"station_id":"ce4bgk12rcd13ifvqbi0","pricing_plan_id":"cebpf4jnsgd1na2vs0mg"},{"bike_id":"077c704b-db6f-49c8-8976-2831925d8b7c","system_id":"levelo_inurba_marseille","lat":43.292013,"lon":5.368613,"is_reserved":false,"is_disabled":false,"rental_uris":{"android":"levelo://app?vid=077c704b-db6f-49c8-8976-2831925d8b7c","ios":"levelo://app?vid=077c704b-db6f-49c8-8976-2831925d8b7c"},"vehicle_type_id":"4","last_reported":1743711055,"current_range_meters":4000,"station_id":"ce4bhap2rcd13ifvqek0","pricing_plan_id":"cebpf4jnsgd1na2vs0mg"},{"bike_id":"174a0272-f21c-42b9-afd8-a4b98233b8f9","system_id":"levelo_inurba_marseille","lat":43.31855,"lon":5.37388,"is_reserved":false,"is_disabled":false,"rental_uris":{"android":"levelo://app?vid=174a0272-f21c-42b9-afd8-a4b98233b8f9","ios":"levelo://app?vid=174a0272-f21c-42b9-afd8-a4b98233b8f9"},"vehicle_type_id":"4","last_reported":1743711055,"current_range_meters":4400,"station_id":"","pricing_plan_id":"cebpf4jnsgd1na2vs0mg"},{"bike_id":"782f2d77-d592-4ef7-a6f2-7929a70f693a","system_id":"levelo_inurba_marseille","lat":43.27614,"lon":5.36118,"is_reserved":false,"is_disabled":false,"rental_uris":{"android":"levelo://app?vid=782f2d77-d592-4ef7-a6f2-7929a70f693a","ios":"levelo://app?vid=782f2d77-d592-4ef7-a6f2-7929a70f693a"},"vehicle_type_id":"4","last_reported":1743711055,"current_range_meters":4400,"station_id":"ce4bgj92rcd13ifvqbe0","pricing_plan_id":"cebpf4jnsgd1na2vs0mg"},{"bike_id":"dfc10afb-6cae-4c57-a8de-38aa28a33d3b","system_id":"levelo_inurba_marseille","lat":43.28944,"lon":5.36628,"is_reserved":false,"is_disabled":false,"rental_uris":{"android":"levelo://app?vid=dfc10afb-6cae-4c57-a8de-38aa28a33d3b","ios":"levelo://app?vid=dfc10afb-6cae-4c57-a8de-38aa28a33d3b"},"vehicle_type_id":"4","last_reported":1743711055,"current_range_meters":4800,"station_id":"ce4bhap2rcd13ifvqek0","pricing_plan_id":"cebpf4jnsgd1na2vs0mg"},{"bike_id":"239bf79c-fd08-4264-ade6-4c76653660d1","system_id":"levelo_inurba_marseille","lat":43.31489,"lon":5.37298,"is_reserved":false,"is_disabled":false,"rental_uris":{"android":"levelo://app?vid=239bf79c-fd08-4264-ade6-4c76653660d1","ios":"levelo://app?vid=239bf79c-fd08-4264-ade6-4c76653660d1"},"vehicle_type_id":"4","last_reported":1743711055,"current_range_meters":4400,"station_id":"ce4bgt12rcd13ifvqcd0","pricing_plan_id":"cebpf4jnsgd1na2vs0mg"},{"bike_id":"22987ff2-118b-4b71-93b3-0a2bc3fe4d66","system_id":"levelo_inurba_marseille","lat":43.27956,"lon":5.41044,"is_reserved":false,"is_disabled":false,"rental_uris":{"android":"levelo://app?vid=22987ff2-118b-4b71-93b3-0a2bc3fe4d66","ios":"levelo://app?vid=22987ff2-118b-4b71-93b3-0a2bc3fe4d66"},"vehicle_type_id":"4","last_reported":1743711055,"current_range_meters":4800,"station_id":"ce4bhnp2rcd13ifvqh0g","pricing_plan_id":"cebpf4jnsgd1na2vs0mg"},{"bike_id":"aa2b10d5-4698-48b0-aa9a-57d64ed5d087","system_id":"levelo_inurba_marseille","lat":43.294159,"lon":5.3862,"is_reserved":false,"is_disabled":false,"rental_uris":{"android":"levelo://app?vid=aa2b10d5-4698-48b0-aa9a-57d64ed5d087","ios":"levelo://app?vid=aa2b10d5-4698-48b0-aa9a-57d64ed5d087"},"vehicle_type_id":"4","last_reported":1743711055,"current_range_meters":4800,"station_id":"ce4bh2h2rcd13ifvqdh0","pricing_plan_id":"cebpf4jnsgd1na2vs0mg"},{"bike_id":"4f289e29-f4e9-45d3-bd4f-83308745e543","system_id":"levelo_inurba_marseille","lat":43.23187,"lon":5.3556,"is_reserved":false,"is_disabled":false,"rental_uris":{"android":"levelo://app?vid=4f289e29-f4e9-45d3-bd4f-83308745e543","ios":"levelo://app?vid=4f289e29-f4e9-45d3-bd4f-83308745e543"},"vehicle_type_id":"4","last_reported":1743711055,"current_range_meters":4800,"station_id":"ce4bhu92rcd13ifvqi70","pricing_plan_id":"cebpf4jnsgd1na2vs0mg"},{"bike_id":"1516276c-f609-4b9c-98fe-e1495e380f18","system_id":"levelo_inurba_marseille","lat":43.31082,"lon":5.42432,"is_reserved":false,"is_disabled":false,"rental_uris":{"android":"levelo://app?vid=1516276c-f609-4b9c-98fe-e1495e380f18","ios":"levelo://app?vid=1516276c-f609-4b9c-98fe-e1495e380f18"},"vehicle_type_id":"4","last_reported":1743711055,"current_range_meters":4800,"station_id":"ce4bhp92rcd13ifvqhag","pricing_plan_id":"cebpf4jnsgd1na2vs0mg"},{"bike_id":"91b48a39-3350-42c9-9248-3028bd3ba181","system_id":"levelo_inurba_marseille","lat":43.239596,"lon":5.366267,"is_reserved":false,"is_disabled":false,"rental_uris":{"android":"levelo://app?vid=91b48a39-3350-42c9-9248-3028bd3ba181","ios":"levelo://app?vid=91b48a39-3350-42c9-9248-3028bd3ba181"},"vehicle_type_id":"4","last_reported":1743711055,"current_range_meters":5600,"station_id":"ce4bhi12rcd13ifvqfp0","pricing_plan_id":"cebpf4jnsgd1na2vs0mg"},{"bike_id":"27c537f0-7252-4d8a-9894-33018478135c","system_id":"levelo_inurba_marseille","lat":43.29017,"lon":5.38657,"is_reserved":false,"is_disabled":false,"rental_uris":{"android":"levelo://app?vid=27c537f0-7252-4d8a-9894-33018478135c","ios":"levelo://app?vid=27c537f0-7252-4d8a-9894-33018478135c"},"vehicle_type_id":"4","last_reported":1743711055,"current_range_meters":5600,"station_id":"ce4bh4p2rcd13ifvqe0g","pricing_plan_id":"cebpf4jnsgd1na2vs0mg"},{"bike_id":"f87e996c-206a-47d9-8697-84a2d463fdc3","system_id":"levelo_inurba_marseille","lat":43.23208,"lon":5.3555,"is_reserved":false,"is_disabled":false,"rental_uris":{"android":"levelo://app?vid=f87e996c-206a-47d9-8697-84a2d463fdc3","ios":"levelo://app?vid=f87e996c-206a-47d9-8697-84a2d463fdc3"},"vehicle_type_id":"4","last_reported":1743711055,"current_range_meters":5600,"station_id":"ce4bhu92rcd13ifvqi70","pricing_plan_id":"cebpf4jnsgd1na2vs0mg"},{"bike_id":"c6ff2404-452a-47eb-b320-1197f22480c6","system_id":"levelo_inurba_marseille","lat":43.26684,"lon":5.3826,"is_reserved":false,"is_disabled":false,"rental_uris":{"android":"levelo://app?vid=c6ff2404-452a-47eb-b320-1197f22480c6","ios":"levelo://app?vid=c6ff2404-452a-47eb-b320-1197f22480c6"},"vehicle_type_id":"4","last_reported":1743711055,"current_range_meters":4800,"station_id":"ce4bhg92rcd13ifvqf90","pricing_plan_id":"cebpf4jnsgd1na2vs0mg"},{"bike_id":"dcdc9c23-e51a-4b2e-b96f-8da64d8867e1","system_id":"levelo_inurba_marseille","lat":43.29539,"lon":5.38542,"is_reserved":false,"is_disabled":false,"rental_uris":{"android":"levelo://app?vid=dcdc9c23-e51a-4b2e-b96f-8da64d8867e1","ios":"levelo://app?vid=dcdc9c23-e51a-4b2e-b96f-8da64d8867e1"},"vehicle_type_id":"4","last_reported":1743711055,"current_range_meters":5600,"station_id":"ce4bgih2rcd13ifvqba0","pricing_plan_id":"cebpf4jnsgd1na2vs0mg"},{"bike_id":"2f5ebb33-56ac-48ac-8004-513ec8b3c9df","system_id":"levelo_inurba_marseille","lat":43.2593,"lon":5.40914,"is_reserved":false,"is_disabled":false,"rental_uris":{"android":"levelo://app?vid=2f5ebb33-56ac-48ac-8004-513ec8b3c9df","ios":"levelo://app?vid=2f5ebb33-56ac-48ac-8004-513ec8b3c9df"},"vehicle_type_id":"4","last_reported":1743711055,"current_range_meters":5600,"station_id":"ce4bhm92rcd13ifvqglg","pricing_plan_id":"cebpf4jnsgd1na2vs0mg"},{"bike_id":"4d3cfc11-7cb5-42c5-ab78-03eecd24fc7f","system_id":"levelo_inurba_marseille","lat":43.26236,"lon":5.40455,"is_reserved":false,"is_disabled":false,"rental_uris":{"android":"levelo://app?vid=4d3cfc11-7cb5-42c5-ab78-03eecd24fc7f","ios":"levelo://app?vid=4d3cfc11-7cb5-42c5-ab78-03eecd24fc7f"},"vehicle_type_id":"4","last_reported":1743711055,"current_range_meters":5600,"station_id":"ce4bhmh2rcd13ifvqgmg","pricing_plan_id":"cebpf4jnsgd1na2vs0mg"},{"bike_id":"ba661c0a-670a-490f-9739-a00dbf455d72","system_id":"levelo_inurba_marseille","lat":43.2721,"lon":5.39183,"is_reserved":false,"is_disabled":false,"rental_uris":{"android":"levelo://app?vid=ba661c0a-670a-490f-9739-a00dbf455d72","ios":"levelo://app?vid=ba661c0a-670a-490f-9739-a00dbf455d72"},"vehicle_type_id":"4","last_reported":1743711055,"current_range_meters":6000,"station_id":"ce4bhhp2rcd13ifvqfm0","pricing_plan_id":"cebpf4jnsgd1na2vs0mg"},{"bike_id":"5a4bba22-b8bd-485a-9124-e201f115a77b","system_id":"levelo_inurba_marseille","lat":43.248081,"lon":5.374641,"is_reserved":false,"is_disabled":true,"rental_uris":{"android":"levelo://app?vid=5a4bba22-b8bd-485a-9124-e201f115a77b","ios":"levelo://app?vid=5a4bba22-b8bd-485a-9124-e201f115a77b"},"vehicle_type_id":"4","last_reported":1743711055,"current_range_meters":6000,"station_id":"","pricing_plan_id":"cebpf4jnsgd1na2vs0mg"},{"bike_id":"f2c5b19a-c98a-4843-aa34-277bfa869efa","system_id":"levelo_inurba_marseille","lat":43.30261,"lon":5.40075,"is_reserved":false,"is_disabled":false,"rental_uris":{"android":"levelo://app?vid=f2c5b19a-c98a-4843-aa34-277bfa869efa","ios":"levelo://app?vid=f2c5b19a-c98a-4843-aa34-277bfa869efa"},"vehicle_type_id":"4","last_reported":1743711055,"current_range_meters":6000,"station_id":"ce4bgvh2rcd13ifvqcs0","pricing_plan_id":"cebpf4jnsgd1na2vs0mg"},{"bike_id":"32ad694e-be72-4176-b5c4-da90684edd37","system_id":"levelo_inurba_marseille","lat":43.30337,"lon":5.40407,"is_reserved":false,"is_disabled":false,"rental_uris":{"android":"levelo://app?vid=32ad694e-be72-4176-b5c4-da90684edd37","ios":"levelo://app?vid=32ad694e-be72-4176-b5c4-da90684edd37"},"vehicle_type_id":"4","last_reported":1743711055,"current_range_meters":6000,"station_id":"ce4bh012rcd13ifvqd10","pricing_plan_id":"cebpf4jnsgd1na2vs0mg"},{"bike_id":"ed910235-7712-4f43-a3a3-b84c24c262e1","system_id":"levelo_inurba_marseille","lat":43.28347,"lon":5.38113,"is_reserved":false,"is_disabled":false,"rental_uris":{"android":"levelo://app?vid=ed910235-7712-4f43-a3a3-b84c24c262e1","ios":"levelo://app?vid=ed910235-7712-4f43-a3a3-b84c24c262e1"},"vehicle_type_id":"4","last_reported":1743711055,"current_range_meters":6400,"station_id":"ce4bh412rcd13ifvqdr0","pricing_plan_id":"cebpf4jnsgd1na2vs0mg"},{"bike_id":"9d13c440-da3b-4535-b70d-8105619f88bd","system_id":"levelo_inurba_marseille","lat":43.32319,"lon":5.38951,"is_reserved":false,"is_disabled":true,"rental_uris":{"android":"levelo://app?vid=9d13c440-da3b-4535-b70d-8105619f88bd","ios":"levelo://app?vid=9d13c440-da3b-4535-b70d-8105619f88bd"},"vehicle_type_id":"4","last_reported":1743711055,"current_range_meters":6400,"station_id":"ce4bhqp2rcd13ifvqhog","pricing_plan_id":"cebpf4jnsgd1na2vs0mg"},{"bike_id":"73d80700-af3e-4b57-b471-6a30c2e59c3e","system_id":"levelo_inurba_marseille","lat":43.25671,"lon":5.39743,"is_reserved":false,"is_disabled":false,"rental_uris":{"android":"levelo://app?vid=73d80700-af3e-4b57-b471-6a30c2e59c3e","ios":"levelo://app?vid=73d80700-af3e-4b57-b471-6a30c2e59c3e"},"vehicle_type_id":"4","last_reported":1743711055,"current_range_meters":6400,"station_id":"","pricing_plan_id":"cebpf4jnsgd1na2vs0mg"},{"bike_id":"08f6f1d7-c056-4f53-ac38-e35ba24417bd","system_id":"levelo_inurba_marseille","lat":43.24386,"lon":5.37067,"is_reserved":false,"is_disabled":false,"rental_uris":{"android":"levelo://app?vid=08f6f1d7-c056-4f53-ac38-e35ba24417bd","ios":"levelo://app?vid=08f6f1d7-c056-4f53-ac38-e35ba24417bd"},"vehicle_type_id":"4","last_reported":1743711055,"current_range_meters":6400,"station_id":"ce4bhhh2rcd13ifvqfk0","pricing_plan_id":"cebpf4jnsgd1na2vs0mg"},{"bike_id":"5c95ba65-0793-454e-ae6a-822208d3bc6b","system_id":"levelo_inurba_marseille","lat":43.314929,"lon":5.373115,"is_reserved":false,"is_disabled":false,"rental_uris":{"android":"levelo://app?vid=5c95ba65-0793-454e-ae6a-822208d3bc6b","ios":"levelo://app?vid=5c95ba65-0793-454e-ae6a-822208d3bc6b"},"vehicle_type_id":"4","last_reported":1743711055,"current_range_meters":6400,"station_id":"ce4bgt12rcd13ifvqcd0","pricing_plan_id":"cebpf4jnsgd1na2vs0mg"},{"bike_id":"23151f32-0c4a-4733-813a-f11164282482","system_id":"levelo_inurba_marseille","lat":43.28365,"lon":5.38634,"is_reserved":false,"is_disabled":false,"rental_uris":{"android":"levelo://app?vid=23151f32-0c4a-4733-813a-f11164282482","ios":"levelo://app?vid=23151f32-0c4a-4733-813a-f11164282482"},"vehicle_type_id":"4","last_reported":1743711055,"current_range_meters":6400,"station_id":"","pricing_plan_id":"cebpf4jnsgd1na2vs0mg"},{"bike_id":"6e0ac892-eb5a-4e58-b40d-44ea2a6de718","system_id":"levelo_inurba_marseille","lat":43.2319,"lon":5.35555,"is_reserved":false,"is_disabled":false,"rental_uris":{"android":"levelo://app?vid=6e0ac892-eb5a-4e58-b40d-44ea2a6de718","ios":"levelo://app?vid=6e0ac892-eb5a-4e58-b40d-44ea2a6de718"},"vehicle_type_id":"4","last_reported":1743711055,"current_range_meters":6400,"station_id":"ce4bhu92rcd13ifvqi70","pricing_plan_id":"cebpf4jnsgd1na2vs0mg"},{"bike_id":"c0d09c70-7a0a-4180-ba6c-aa4ae759de34","system_id":"levelo_inurba_marseille","lat":43.30239,"lon":5.40041,"is_reserved":false,"is_disabled":false,"rental_uris":{"android":"levelo://app?vid=c0d09c70-7a0a-4180-ba6c-aa4ae759de34","ios":"levelo://app?vid=c0d09c70-7a0a-4180-ba6c-aa4ae759de34"},"vehicle_type_id":"4","last_reported":1743711055,"current_range_meters":6400,"station_id":"ce4bgvh2rcd13ifvqcs0","pricing_plan_id":"cebpf4jnsgd1na2vs0mg"},{"bike_id":"32597f0f-d49f-48cf-aa5d-2e1607ad69f2","system_id":"levelo_inurba_marseille","lat":43.26221,"lon":5.40445,"is_reserved":false,"is_disabled":false,"rental_uris":{"android":"levelo://app?vid=32597f0f-d49f-48cf-aa5d-2e1607ad69f2","ios":"levelo://app?vid=32597f0f-d49f-48cf-aa5d-2e1607ad69f2"},"vehicle_type_id":"4","last_reported":1743711055,"current_range_meters":6400,"station_id":"","pricing_plan_id":"cebpf4jnsgd1na2vs0mg"},{"bike_id":"83aa3c8e-91bd-485c-a041-0adac5639e00","system_id":"levelo_inurba_marseille","lat":43.30589,"lon":5.3712,"is_reserved":false,"is_disabled":false,"rental_uris":{"android":"levelo://app?vid=83aa3c8e-91bd-485c-a041-0adac5639e00","ios":"levelo://app?vid=83aa3c8e-91bd-485c-a041-0adac5639e00"},"vehicle_type_id":"4","last_reported":1743711055,"current_range_meters":6800,"station_id":"","pricing_plan_id":"cebpf4jnsgd1na2vs0mg"},{"bike_id":"590d7074-66ed-48f2-a6f6-157a475f7797","system_id":"levelo_inurba_marseille","lat":43.29441,"lon":5.38602,"is_reserved":false,"is_disabled":false,"rental_uris":{"android":"levelo://app?vid=590d7074-66ed-48f2-a6f6-157a475f7797","ios":"levelo://app?vid=590d7074-66ed-48f2-a6f6-157a475f7797"},"vehicle_type_id":"4","last_reported":1743711055,"current_range_meters":6800,"station_id":"ce4bh2h2rcd13ifvqdh0","pricing_plan_id":"cebpf4jnsgd1na2vs0mg"},{"bike_id":"b3be7bc8-62d7-47b2-ab03-5ffa18153039","system_id":"levelo_inurba_marseille","lat":43.29531,"lon":5.38557,"is_reserved":false,"is_disabled":false,"rental_uris":{"android":"levelo://app?vid=b3be7bc8-62d7-47b2-ab03-5ffa18153039","ios":"levelo://app?vid=b3be7bc8-62d7-47b2-ab03-5ffa18153039"},"vehicle_type_id":"4","last_reported":1743711055,"current_range_meters":6800,"station_id":"ce4bgih2rcd13ifvqba0","pricing_plan_id":"cebpf4jnsgd1na2vs0mg"},{"bike_id":"78d6b7cd-ac07-453b-bc94-98692716d8c6","system_id":"levelo_inurba_marseille","lat":43.23188,"lon":5.35566,"is_reserved":false,"is_disabled":false,"rental_uris":{"android":"levelo://app?vid=78d6b7cd-ac07-453b-bc94-98692716d8c6","ios":"levelo://app?vid=78d6b7cd-ac07-453b-bc94-98692716d8c6"},"vehicle_type_id":"4","last_reported":1743711055,"current_range_meters":6800,"station_id":"ce4bhu92rcd13ifvqi70","pricing_plan_id":"cebpf4jnsgd1na2vs0mg"},{"bike_id":"d7442a8d-ddb9-4595-80d2-d17d487026dd","system_id":"levelo_inurba_marseille","lat":43.24075,"lon":5.37742,"is_reserved":false,"is_disabled":false,"rental_uris":{"android":"levelo://app?vid=d7442a8d-ddb9-4595-80d2-d17d487026dd","ios":"levelo://app?vid=d7442a8d-ddb9-4595-80d2-d17d487026dd"},"vehicle_type_id":"4","last_reported":1743711055,"current_range_meters":6800,"station_id":"ce4bhnp2rcd13ifvqgvg","pricing_plan_id":"cebpf4jnsgd1na2vs0mg"},{"bike_id":"e15eb1e3-f59b-4224-85dc-18f082814a63","system_id":"levelo_inurba_marseille","lat":43.28353,"lon":5.38099,"is_reserved":false,"is_disabled":false,"rental_uris":{"android":"levelo://app?vid=e15eb1e3-f59b-4224-85dc-18f082814a63","ios":"levelo://app?vid=e15eb1e3-f59b-4224-85dc-18f082814a63"},"vehicle_type_id":"4","last_reported":1743711055,"current_range_meters":6800,"station_id":"ce4bh412rcd13ifvqdr0","pricing_plan_id":"cebpf4jnsgd1na2vs0mg"},{"bike_id":"32a978e0-d0c2-43d4-9b03-19a5c41c27de","system_id":"levelo_inurba_marseille","lat":43.310882,"lon":5.383658,"is_reserved":false,"is_disabled":true,"rental_uris":{"android":"levelo://app?vid=32a978e0-d0c2-43d4-9b03-19a5c41c27de","ios":"levelo://app?vid=32a978e0-d0c2-43d4-9b03-19a5c41c27de"},"vehicle_type_id":"4","last_reported":1743711055,"current_range_meters":6800,"station_id":"ce4bgv92rcd13ifvqcr0","pricing_plan_id":"cebpf4jnsgd1na2vs0mg"},{"bike_id":"ef3d362c-32e3-42b9-a96e-2a77377fa812","system_id":"levelo_inurba_marseille","lat":43.29571,"lon":5.39971,"is_reserved":false,"is_disabled":false,"rental_uris":{"android":"levelo://app?vid=ef3d362c-32e3-42b9-a96e-2a77377fa812","ios":"levelo://app?vid=ef3d362c-32e3-42b9-a96e-2a77377fa812"},"vehicle_type_id":"4","last_reported":1743711055,"current_range_meters":6800,"station_id":"ce4bh312rcd13ifvqdj0","pricing_plan_id":"cebpf4jnsgd1na2vs0mg"},{"bike_id":"e1bcd518-a3a1-4a25-9b9e-794fbd0bdf0a","system_id":"levelo_inurba_marseille","lat":43.23961,"lon":5.36631,"is_reserved":false,"is_disabled":false,"rental_uris":{"android":"levelo://app?vid=e1bcd518-a3a1-4a25-9b9e-794fbd0bdf0a","ios":"levelo://app?vid=e1bcd518-a3a1-4a25-9b9e-794fbd0bdf0a"},"vehicle_type_id":"4","last_reported":1743711055,"current_range_meters":6800,"station_id":"ce4bhi12rcd13ifvqfp0","pricing_plan_id":"cebpf4jnsgd1na2vs0mg"},{"bike_id":"75dae32f-059a-4b5b-a5e8-963c6eda2f66","system_id":"levelo_inurba_marseille","lat":43.27524,"lon":5.41019,"is_reserved":false,"is_disabled":false,"rental_uris":{"android":"levelo://app?vid=75dae32f-059a-4b5b-a5e8-963c6eda2f66","ios":"levelo://app?vid=75dae32f-059a-4b5b-a5e8-963c6eda2f66"},"vehicle_type_id":"4","last_reported":1743711055,"current_range_meters":6800,"station_id":"","pricing_plan_id":"cebpf4jnsgd1na2vs0mg"},{"bike_id":"7d141afa-81a2-450a-9eed-bb310deee473","system_id":"levelo_inurba_marseille","lat":43.28612,"lon":5.35107,"is_reserved":false,"is_disabled":false,"rental_uris":{"android":"levelo://app?vid=7d141afa-81a2-450a-9eed-bb310deee473","ios":"levelo://app?vid=7d141afa-81a2-450a-9eed-bb310deee473"},"vehicle_type_id":"4","last_reported":1743711055,"current_range_meters":7200,"station_id":"ce4bhch2rcd13ifvqeug","pricing_plan_id":"cebpf4jnsgd1na2vs0mg"},{"bike_id":"9c79b55e-051b-48fb-bee3-27dc039806f9","system_id":"levelo_inurba_marseille","lat":43.28662,"lon":5.36354,"is_reserved":false,"is_disabled":false,"rental_uris":{"android":"levelo://app?vid=9c79b55e-051b-48fb-bee3-27dc039806f9","ios":"levelo://app?vid=9c79b55e-051b-48fb-bee3-27dc039806f9"},"vehicle_type_id":"4","last_reported":1743711055,"current_range_meters":7200,"station_id":"ce4bhah2rcd13ifvqej0","pricing_plan_id":"cebpf4jnsgd1na2vs0mg"},{"bike_id":"7eec18f2-5c53-4d92-98a8-a618c48977aa","system_id":"levelo_inurba_marseille","lat":43.2953,"lon":5.39019,"is_reserved":false,"is_disabled":false,"rental_uris":{"android":"levelo://app?vid=7eec18f2-5c53-4d92-98a8-a618c48977aa","ios":"levelo://app?vid=7eec18f2-5c53-4d92-98a8-a618c48977aa"},"vehicle_type_id":"4","last_reported":1743711055,"current_range_meters":7200,"station_id":"ce4bh3p2rcd13ifvqdp0","pricing_plan_id":"cebpf4jnsgd1na2vs0mg"},{"bike_id":"3374421a-949f-40b6-870f-59a2d8ba0de4","system_id":"levelo_inurba_marseille","lat":43.2417,"lon":5.36401,"is_reserved":false,"is_disabled":false,"rental_uris":{"android":"levelo://app?vid=3374421a-949f-40b6-870f-59a2d8ba0de4","ios":"levelo://app?vid=3374421a-949f-40b6-870f-59a2d8ba0de4"},"vehicle_type_id":"4","last_reported":1743711055,"current_range_meters":7200,"station_id":"cpo36qri1sfpv3e86is0","pricing_plan_id":"cebpf4jnsgd1na2vs0mg"},{"bike_id":"5eeb5e50-0db0-41c6-afc4-e17fd1bc146e","system_id":"levelo_inurba_marseille","lat":43.31481,"lon":5.37309,"is_reserved":false,"is_disabled":false,"rental_uris":{"android":"levelo://app?vid=5eeb5e50-0db0-41c6-afc4-e17fd1bc146e","ios":"levelo://app?vid=5eeb5e50-0db0-41c6-afc4-e17fd1bc146e"},"vehicle_type_id":"4","last_reported":1743711055,"current_range_meters":7200,"station_id":"ce4bgt12rcd13ifvqcd0","pricing_plan_id":"cebpf4jnsgd1na2vs0mg"},{"bike_id":"8f4dbeba-0045-4c56-9357-ed9d6fb30aee","system_id":"levelo_inurba_marseille","lat":43.29278,"lon":5.36834,"is_reserved":false,"is_disabled":false,"rental_uris":{"android":"levelo://app?vid=8f4dbeba-0045-4c56-9357-ed9d6fb30aee","ios":"levelo://app?vid=8f4dbeba-0045-4c56-9357-ed9d6fb30aee"},"vehicle_type_id":"4","last_reported":1743711055,"current_range_meters":7200,"station_id":"ce4bhbp2rcd13ifvqesg","pricing_plan_id":"cebpf4jnsgd1na2vs0mg"},{"bike_id":"c71f15b6-2590-4f8b-9c5c-e81cc022cc3d","system_id":"levelo_inurba_marseille","lat":43.28418,"lon":5.35004,"is_reserved":false,"is_disabled":false,"rental_uris":{"android":"levelo://app?vid=c71f15b6-2590-4f8b-9c5c-e81cc022cc3d","ios":"levelo://app?vid=c71f15b6-2590-4f8b-9c5c-e81cc022cc3d"},"vehicle_type_id":"4","last_reported":1743711055,"current_range_meters":7200,"station_id":"ce4bhbh2rcd13ifvqepg","pricing_plan_id":"cebpf4jnsgd1na2vs0mg"},{"bike_id":"fede0e43-1609-4a28-9f97-913c3f149703","system_id":"levelo_inurba_marseille","lat":43.23187,"lon":5.35572,"is_reserved":false,"is_disabled":false,"rental_uris":{"android":"levelo://app?vid=fede0e43-1609-4a28-9f97-913c3f149703","ios":"levelo://app?vid=fede0e43-1609-4a28-9f97-913c3f149703"},"vehicle_type_id":"4","last_reported":1743711055,"current_range_meters":7200,"station_id":"ce4bhu92rcd13ifvqi70","pricing_plan_id":"cebpf4jnsgd1na2vs0mg"},{"bike_id":"15ea3e20-e3c1-434f-8b50-88d1ebba3f71","system_id":"levelo_inurba_marseille","lat":43.23187,"lon":5.35569,"is_reserved":false,"is_disabled":false,"rental_uris":{"android":"levelo://app?vid=15ea3e20-e3c1-434f-8b50-88d1ebba3f71","ios":"levelo://app?vid=15ea3e20-e3c1-434f-8b50-88d1ebba3f71"},"vehicle_type_id":"4","last_reported":1743711055,"current_range_meters":7200,"station_id":"ce4bhu92rcd13ifvqi70","pricing_plan_id":"cebpf4jnsgd1na2vs0mg"},{"bike_id":"bddd4ccf-1482-4a9d-a8d7-0870910ef155","system_id":"levelo_inurba_marseille","lat":43.27942,"lon":5.41045,"is_reserved":false,"is_disabled":false,"rental_uris":{"android":"levelo://app?vid=bddd4ccf-1482-4a9d-a8d7-0870910ef155","ios":"levelo://app?vid=bddd4ccf-1482-4a9d-a8d7-0870910ef155"},"vehicle_type_id":"4","last_reported":1743711055,"current_range_meters":8000,"station_id":"ce4bhnp2rcd13ifvqh0g","pricing_plan_id":"cebpf4jnsgd1na2vs0mg"},{"bike_id":"c2e6881a-04a3-4a38-9cc0-75cacf165e78","system_id":"levelo_inurba_marseille","lat":43.28832,"lon":5.364645,"is_reserved":false,"is_disabled":false,"rental_uris":{"android":"levelo://app?vid=c2e6881a-04a3-4a38-9cc0-75cacf165e78","ios":"levelo://app?vid=c2e6881a-04a3-4a38-9cc0-75cacf165e78"},"vehicle_type_id":"4","last_reported":1743711055,"current_range_meters":8000,"station_id":"","pricing_plan_id":"cebpf4jnsgd1na2vs0mg"},{"bike_id":"0890fa60-049f-44ea-96c8-ca3ae6292ced","system_id":"levelo_inurba_marseille","lat":43.24806,"lon":5.37463,"is_reserved":false,"is_disabled":false,"rental_uris":{"android":"levelo://app?vid=0890fa60-049f-44ea-96c8-ca3ae6292ced","ios":"levelo://app?vid=0890fa60-049f-44ea-96c8-ca3ae6292ced"},"vehicle_type_id":"4","last_reported":1743711055,"current_range_meters":8000,"station_id":"ce4bhgh2rcd13ifvqfb0","pricing_plan_id":"cebpf4jnsgd1na2vs0mg"},{"bike_id":"7aa5f3c2-0d52-4cbe-99da-6bee7ab8d6a8","system_id":"levelo_inurba_marseille","lat":43.22929,"lon":5.35376,"is_reserved":false,"is_disabled":false,"rental_uris":{"android":"levelo://app?vid=7aa5f3c2-0d52-4cbe-99da-6bee7ab8d6a8","ios":"levelo://app?vid=7aa5f3c2-0d52-4cbe-99da-6bee7ab8d6a8"},"vehicle_type_id":"4","last_reported":1743711055,"current_range_meters":8000,"station_id":"cpo3532slgdg3j2ikp40","pricing_plan_id":"cebpf4jnsgd1na2vs0mg"},{"bike_id":"b451dcd6-3b36-4a20-94c0-24f42eb3416a","system_id":"levelo_inurba_marseille","lat":43.27958,"lon":5.41039,"is_reserved":false,"is_disabled":false,"rental_uris":{"android":"levelo://app?vid=b451dcd6-3b36-4a20-94c0-24f42eb3416a","ios":"levelo://app?vid=b451dcd6-3b36-4a20-94c0-24f42eb3416a"},"vehicle_type_id":"4","last_reported":1743711055,"current_range_meters":8000,"station_id":"ce4bhnp2rcd13ifvqh0g","pricing_plan_id":"cebpf4jnsgd1na2vs0mg"},{"bike_id":"f157a817-50dd-4e08-91b0-5229f3e3f508","system_id":"levelo_inurba_marseille","lat":43.30159,"lon":5.38088,"is_reserved":false,"is_disabled":false,"rental_uris":{"android":"levelo://app?vid=f157a817-50dd-4e08-91b0-5229f3e3f508","ios":"levelo://app?vid=f157a817-50dd-4e08-91b0-5229f3e3f508"},"vehicle_type_id":"4","last_reported":1743711055,"current_range_meters":7200,"station_id":"ce4bgjp2rcd13ifvqbh0","pricing_plan_id":"cebpf4jnsgd1na2vs0mg"},{"bike_id":"404fa82c-0c69-4ddb-a05d-28ebacdc3ff4","system_id":"levelo_inurba_marseille","lat":43.30598,"lon":5.39359,"is_reserved":false,"is_disabled":false,"rental_uris":{"android":"levelo://app?vid=404fa82c-0c69-4ddb-a05d-28ebacdc3ff4","ios":"levelo://app?vid=404fa82c-0c69-4ddb-a05d-28ebacdc3ff4"},"vehicle_type_id":"4","last_reported":1743711055,"current_range_meters":8000,"station_id":"ce4bh0p2rcd13ifvqd80","pricing_plan_id":"cebpf4jnsgd1na2vs0mg"},{"bike_id":"71e55f99-90e5-4133-8167-5af8b2b35d7e","system_id":"levelo_inurba_marseille","lat":43.23062,"lon":5.3549,"is_reserved":false,"is_disabled":false,"rental_uris":{"android":"levelo://app?vid=71e55f99-90e5-4133-8167-5af8b2b35d7e","ios":"levelo://app?vid=71e55f99-90e5-4133-8167-5af8b2b35d7e"},"vehicle_type_id":"4","last_reported":1743711055,"current_range_meters":8000,"station_id":"cpo3342slgdg3j2ifvpg","pricing_plan_id":"cebpf4jnsgd1na2vs0mg"},{"bike_id":"2372448a-d7df-45c3-bd13-b9b4112577c4","system_id":"levelo_inurba_marseille","lat":43.29892,"lon":5.48554,"is_reserved":false,"is_disabled":false,"rental_uris":{"android":"levelo://app?vid=2372448a-d7df-45c3-bd13-b9b4112577c4","ios":"levelo://app?vid=2372448a-d7df-45c3-bd13-b9b4112577c4"},"vehicle_type_id":"4","last_reported":1743711055,"current_range_meters":8000,"station_id":"","pricing_plan_id":"cebpf4jnsgd1na2vs0mg"},{"bike_id":"14281758-0977-476b-99d7-af158faae060","system_id":"levelo_inurba_marseille","lat":43.258681,"lon":5.398917,"is_reserved":false,"is_disabled":false,"rental_uris":{"android":"levelo://app?vid=14281758-0977-476b-99d7-af158faae060","ios":"levelo://app?vid=14281758-0977-476b-99d7-af158faae060"},"vehicle_type_id":"4","last_reported":1743711055,"current_range_meters":8000,"station_id":"ce4bhl92rcd13ifvqghg","pricing_plan_id":"cebpf4jnsgd1na2vs0mg"},{"bike_id":"c9fb25a7-e723-41fe-abac-05d32f3d4f9d","system_id":"levelo_inurba_marseille","lat":43.26027,"lon":5.41744,"is_reserved":false,"is_disabled":false,"rental_uris":{"android":"levelo://app?vid=c9fb25a7-e723-41fe-abac-05d32f3d4f9d","ios":"levelo://app?vid=c9fb25a7-e723-41fe-abac-05d32f3d4f9d"},"vehicle_type_id":"4","last_reported":1743711055,"current_range_meters":8000,"station_id":"","pricing_plan_id":"cebpf4jnsgd1na2vs0mg"},{"bike_id":"4a8d215f-728c-4424-bfbf-5faa62888e2d","system_id":"levelo_inurba_marseille","lat":43.295101,"lon":5.394076,"is_reserved":false,"is_disabled":true,"rental_uris":{"android":"levelo://app?vid=4a8d215f-728c-4424-bfbf-5faa62888e2d","ios":"levelo://app?vid=4a8d215f-728c-4424-bfbf-5faa62888e2d"},"vehicle_type_id":"4","last_reported":1743711055,"current_range_meters":8000,"station_id":"ce4bh292rcd13ifvqdf0","pricing_plan_id":"cebpf4jnsgd1na2vs0mg"},{"bike_id":"b13d3432-293b-4902-a3f1-a51b231e2d99","system_id":"levelo_inurba_marseille","lat":43.28603,"lon":5.35116,"is_reserved":false,"is_disabled":false,"rental_uris":{"android":"levelo://app?vid=b13d3432-293b-4902-a3f1-a51b231e2d99","ios":"levelo://app?vid=b13d3432-293b-4902-a3f1-a51b231e2d99"},"vehicle_type_id":"4","last_reported":1743711055,"current_range_meters":8000,"station_id":"ce4bhch2rcd13ifvqeug","pricing_plan_id":"cebpf4jnsgd1na2vs0mg"},{"bike_id":"cd83c8ac-ed09-4369-9279-b6f36f2bbd3c","system_id":"levelo_inurba_marseille","lat":43.30801,"lon":5.38224,"is_reserved":false,"is_disabled":false,"rental_uris":{"android":"levelo://app?vid=cd83c8ac-ed09-4369-9279-b6f36f2bbd3c","ios":"levelo://app?vid=cd83c8ac-ed09-4369-9279-b6f36f2bbd3c"},"vehicle_type_id":"4","last_reported":1743711055,"current_range_meters":8400,"station_id":"","pricing_plan_id":"cebpf4jnsgd1na2vs0mg"},{"bike_id":"7707df33-072d-4f76-a3ac-ddfb12955935","system_id":"levelo_inurba_marseille","lat":43.27202,"lon":5.39174,"is_reserved":false,"is_disabled":true,"rental_uris":{"android":"levelo://app?vid=7707df33-072d-4f76-a3ac-ddfb12955935","ios":"levelo://app?vid=7707df33-072d-4f76-a3ac-ddfb12955935"},"vehicle_type_id":"4","last_reported":1743711055,"current_range_meters":8400,"station_id":"ce4bhhp2rcd13ifvqfm0","pricing_plan_id":"cebpf4jnsgd1na2vs0mg"},{"bike_id":"1e242d48-9324-42ec-aad7-ae17d33a202b","system_id":"levelo_inurba_marseille","lat":43.29232,"lon":5.40899,"is_reserved":false,"is_disabled":false,"rental_uris":{"android":"levelo://app?vid=1e242d48-9324-42ec-aad7-ae17d33a202b","ios":"levelo://app?vid=1e242d48-9324-42ec-aad7-ae17d33a202b"},"vehicle_type_id":"4","last_reported":1743711055,"current_range_meters":8400,"station_id":"ce4bh192rcd13ifvqdc0","pricing_plan_id":"cebpf4jnsgd1na2vs0mg"},{"bike_id":"9ab685a8-8c4c-4378-a03d-f71986d91d7b","system_id":"levelo_inurba_marseille","lat":43.29441,"lon":5.39745,"is_reserved":false,"is_disabled":false,"rental_uris":{"android":"levelo://app?vid=9ab685a8-8c4c-4378-a03d-f71986d91d7b","ios":"levelo://app?vid=9ab685a8-8c4c-4378-a03d-f71986d91d7b"},"vehicle_type_id":"4","last_reported":1743711055,"current_range_meters":8400,"station_id":"ce4bh3h2rcd13ifvqdo0","pricing_plan_id":"cebpf4jnsgd1na2vs0mg"},{"bike_id":"e590fe23-e0aa-4322-a597-417c816f1dd9","system_id":"levelo_inurba_marseille","lat":43.27932,"lon":5.4103,"is_reserved":false,"is_disabled":false,"rental_uris":{"android":"levelo://app?vid=e590fe23-e0aa-4322-a597-417c816f1dd9","ios":"levelo://app?vid=e590fe23-e0aa-4322-a597-417c816f1dd9"},"vehicle_type_id":"4","last_reported":1743711055,"current_range_meters":8400,"station_id":"ce4bhnp2rcd13ifvqh0g","pricing_plan_id":"cebpf4jnsgd1na2vs0mg"},{"bike_id":"5930c02f-c576-489b-b748-5a6ea8daa80b","system_id":"levelo_inurba_marseille","lat":43.33607,"lon":5.41038,"is_reserved":false,"is_disabled":false,"rental_uris":{"android":"levelo://app?vid=5930c02f-c576-489b-b748-5a6ea8daa80b","ios":"levelo://app?vid=5930c02f-c576-489b-b748-5a6ea8daa80b"},"vehicle_type_id":"4","last_reported":1743711055,"current_range_meters":8000,"station_id":"ce4bhqh2rcd13ifvqhmg","pricing_plan_id":"cebpf4jnsgd1na2vs0mg"},{"bike_id":"c135c5d1-a9f0-45c6-9e8f-943ce4e10bee","system_id":"levelo_inurba_marseille","lat":43.24418,"lon":5.3742,"is_reserved":false,"is_disabled":false,"rental_uris":{"android":"levelo://app?vid=c135c5d1-a9f0-45c6-9e8f-943ce4e10bee","ios":"levelo://app?vid=c135c5d1-a9f0-45c6-9e8f-943ce4e10bee"},"vehicle_type_id":"4","last_reported":1743711055,"current_range_meters":8400,"station_id":"","pricing_plan_id":"cebpf4jnsgd1na2vs0mg"},{"bike_id":"0e6952ad-0884-4656-b373-53655f7d546c","system_id":"levelo_inurba_marseille","lat":43.27173,"lon":5.41,"is_reserved":false,"is_disabled":false,"rental_uris":{"android":"levelo://app?vid=0e6952ad-0884-4656-b373-53655f7d546c","ios":"levelo://app?vid=0e6952ad-0884-4656-b373-53655f7d546c"},"vehicle_type_id":"4","last_reported":1743711055,"current_range_meters":8000,"station_id":"ce4bhl12rcd13ifvqgf0","pricing_plan_id":"cebpf4jnsgd1na2vs0mg"},{"bike_id":"f37d8f5c-d063-4e35-8e15-0215542ca205","system_id":"levelo_inurba_marseille","lat":43.2373,"lon":5.40398,"is_reserved":false,"is_disabled":false,"rental_uris":{"android":"levelo://app?vid=f37d8f5c-d063-4e35-8e15-0215542ca205","ios":"levelo://app?vid=f37d8f5c-d063-4e35-8e15-0215542ca205"},"vehicle_type_id":"4","last_reported":1743711055,"current_range_meters":8400,"station_id":"","pricing_plan_id":"cebpf4jnsgd1na2vs0mg"},{"bike_id":"ee59221b-775a-4e53-86a1-6b0e5e8562c0","system_id":"levelo_inurba_marseille","lat":43.31324,"lon":5.39686,"is_reserved":false,"is_disabled":false,"rental_uris":{"android":"levelo://app?vid=ee59221b-775a-4e53-86a1-6b0e5e8562c0","ios":"levelo://app?vid=ee59221b-775a-4e53-86a1-6b0e5e8562c0"},"vehicle_type_id":"4","last_reported":1743711055,"current_range_meters":8400,"station_id":"ce4bgvp2rcd13ifvqcu0","pricing_plan_id":"cebpf4jnsgd1na2vs0mg"},{"bike_id":"315a188f-34c4-4ccc-bf31-92868b8c117b","system_id":"levelo_inurba_marseille","lat":43.313292,"lon":5.39688,"is_reserved":false,"is_disabled":false,"rental_uris":{"android":"levelo://app?vid=315a188f-34c4-4ccc-bf31-92868b8c117b","ios":"levelo://app?vid=315a188f-34c4-4ccc-bf31-92868b8c117b"},"vehicle_type_id":"4","last_reported":1743711055,"current_range_meters":8400,"station_id":"ce4bgvp2rcd13ifvqcu0","pricing_plan_id":"cebpf4jnsgd1na2vs0mg"},{"bike_id":"2b4310f7-b23c-4aa9-bbb2-808936556e6a","system_id":"levelo_inurba_marseille","lat":43.28411,"lon":5.35,"is_reserved":false,"is_disabled":false,"rental_uris":{"android":"levelo://app?vid=2b4310f7-b23c-4aa9-bbb2-808936556e6a","ios":"levelo://app?vid=2b4310f7-b23c-4aa9-bbb2-808936556e6a"},"vehicle_type_id":"4","last_reported":1743711055,"current_range_meters":8800,"station_id":"ce4bhbh2rcd13ifvqepg","pricing_plan_id":"cebpf4jnsgd1na2vs0mg"},{"bike_id":"4f3eb7d3-6193-4152-af90-0b8ba47b65bc","system_id":"levelo_inurba_marseille","lat":43.28156,"lon":5.42643,"is_reserved":false,"is_disabled":false,"rental_uris":{"android":"levelo://app?vid=4f3eb7d3-6193-4152-af90-0b8ba47b65bc","ios":"levelo://app?vid=4f3eb7d3-6193-4152-af90-0b8ba47b65bc"},"vehicle_type_id":"4","last_reported":1743711055,"current_range_meters":8800,"station_id":"ce4bhnh2rcd13ifvqgug","pricing_plan_id":"cebpf4jnsgd1na2vs0mg"},{"bike_id":"56d5b368-6424-4562-8168-15a5d6491d73","system_id":"levelo_inurba_marseille","lat":43.28682,"lon":5.38662,"is_reserved":false,"is_disabled":false,"rental_uris":{"android":"levelo://app?vid=56d5b368-6424-4562-8168-15a5d6491d73","ios":"levelo://app?vid=56d5b368-6424-4562-8168-15a5d6491d73"},"vehicle_type_id":"4","last_reported":1743711055,"current_range_meters":8800,"station_id":"ce4bh492rcd13ifvqdug","pricing_plan_id":"cebpf4jnsgd1na2vs0mg"},{"bike_id":"809ab426-da69-405a-9ff2-30b58e1aceb6","system_id":"levelo_inurba_marseille","lat":43.29976,"lon":5.38688,"is_reserved":false,"is_disabled":false,"rental_uris":{"android":"levelo://app?vid=809ab426-da69-405a-9ff2-30b58e1aceb6","ios":"levelo://app?vid=809ab426-da69-405a-9ff2-30b58e1aceb6"},"vehicle_type_id":"4","last_reported":1743711055,"current_range_meters":8800,"station_id":"","pricing_plan_id":"cebpf4jnsgd1na2vs0mg"},{"bike_id":"131dafb3-0416-4bc5-b992-f5b1a1c2d479","system_id":"levelo_inurba_marseille","lat":43.28341,"lon":5.38108,"is_reserved":false,"is_disabled":false,"rental_uris":{"android":"levelo://app?vid=131dafb3-0416-4bc5-b992-f5b1a1c2d479","ios":"levelo://app?vid=131dafb3-0416-4bc5-b992-f5b1a1c2d479"},"vehicle_type_id":"4","last_reported":1743711055,"current_range_meters":8800,"station_id":"ce4bh412rcd13ifvqdr0","pricing_plan_id":"cebpf4jnsgd1na2vs0mg"},{"bike_id":"def5e07d-dbe2-4271-97c5-18d7a853ec5e","system_id":"levelo_inurba_marseille","lat":43.31274,"lon":5.40176,"is_reserved":false,"is_disabled":false,"rental_uris":{"android":"levelo://app?vid=def5e07d-dbe2-4271-97c5-18d7a853ec5e","ios":"levelo://app?vid=def5e07d-dbe2-4271-97c5-18d7a853ec5e"},"vehicle_type_id":"4","last_reported":1743711055,"current_range_meters":8800,"station_id":"ce4bh092rcd13ifvqd30","pricing_plan_id":"cebpf4jnsgd1na2vs0mg"},{"bike_id":"73c6623c-fdfd-460c-8460-f522c3f951af","system_id":"levelo_inurba_marseille","lat":43.30876,"lon":5.39664,"is_reserved":false,"is_disabled":false,"rental_uris":{"android":"levelo://app?vid=73c6623c-fdfd-460c-8460-f522c3f951af","ios":"levelo://app?vid=73c6623c-fdfd-460c-8460-f522c3f951af"},"vehicle_type_id":"4","last_reported":1743711055,"current_range_meters":8800,"station_id":"ce4bh012rcd13ifvqcv0","pricing_plan_id":"cebpf4jnsgd1na2vs0mg"},{"bike_id":"ca7f14b1-7bac-47a5-8f88-abcd7fe140af","system_id":"levelo_inurba_marseille","lat":43.301813,"lon":5.366186,"is_reserved":false,"is_disabled":false,"rental_uris":{"android":"levelo://app?vid=ca7f14b1-7bac-47a5-8f88-abcd7fe140af","ios":"levelo://app?vid=ca7f14b1-7bac-47a5-8f88-abcd7fe140af"},"vehicle_type_id":"4","last_reported":1743711055,"current_range_meters":8800,"station_id":"ce4bgrh2rcd13ifvqc8g","pricing_plan_id":"cebpf4jnsgd1na2vs0mg"},{"bike_id":"96b5f2ee-edbd-4adf-a1cb-b2ed2ce98b72","system_id":"levelo_inurba_marseille","lat":43.28106,"lon":5.37838,"is_reserved":false,"is_disabled":false,"rental_uris":{"android":"levelo://app?vid=96b5f2ee-edbd-4adf-a1cb-b2ed2ce98b72","ios":"levelo://app?vid=96b5f2ee-edbd-4adf-a1cb-b2ed2ce98b72"},"vehicle_type_id":"4","last_reported":1743711055,"current_range_meters":8800,"station_id":"ce4bha12rcd13ifvqee0","pricing_plan_id":"cebpf4jnsgd1na2vs0mg"},{"bike_id":"22f18dcb-9155-4af1-a93e-7c8d82c3f600","system_id":"levelo_inurba_marseille","lat":43.29541,"lon":5.38541,"is_reserved":false,"is_disabled":false,"rental_uris":{"android":"levelo://app?vid=22f18dcb-9155-4af1-a93e-7c8d82c3f600","ios":"levelo://app?vid=22f18dcb-9155-4af1-a93e-7c8d82c3f600"},"vehicle_type_id":"4","last_reported":1743711055,"current_range_meters":8800,"station_id":"ce4bgih2rcd13ifvqba0","pricing_plan_id":"cebpf4jnsgd1na2vs0mg"},{"bike_id":"ed4d7350-318a-444b-bf62-19f86e0514aa","system_id":"levelo_inurba_marseille","lat":43.27808,"lon":5.40713,"is_reserved":false,"is_disabled":false,"rental_uris":{"android":"levelo://app?vid=ed4d7350-318a-444b-bf62-19f86e0514aa","ios":"levelo://app?vid=ed4d7350-318a-444b-bf62-19f86e0514aa"},"vehicle_type_id":"4","last_reported":1743711055,"current_range_meters":8800,"station_id":"ce4bhnh2rcd13ifvqgtg","pricing_plan_id":"cebpf4jnsgd1na2vs0mg"},{"bike_id":"73d854ad-9eb6-4d68-8878-e9b2295ae65a","system_id":"levelo_inurba_marseille","lat":43.23066,"lon":5.35495,"is_reserved":false,"is_disabled":false,"rental_uris":{"android":"levelo://app?vid=73d854ad-9eb6-4d68-8878-e9b2295ae65a","ios":"levelo://app?vid=73d854ad-9eb6-4d68-8878-e9b2295ae65a"},"vehicle_type_id":"4","last_reported":1743711055,"current_range_meters":9200,"station_id":"cpo3342slgdg3j2ifvpg","pricing_plan_id":"cebpf4jnsgd1na2vs0mg"},{"bike_id":"43f8a739-4a90-4e15-94ff-cf809824dc21","system_id":"levelo_inurba_marseille","lat":43.290683,"lon":5.371711,"is_reserved":false,"is_disabled":false,"rental_uris":{"android":"levelo://app?vid=43f8a739-4a90-4e15-94ff-cf809824dc21","ios":"levelo://app?vid=43f8a739-4a90-4e15-94ff-cf809824dc21"},"vehicle_type_id":"4","last_reported":1743711055,"current_range_meters":12800,"station_id":"ce4bh5p2rcd13ifvqe4g","pricing_plan_id":"cebpf4jnsgd1na2vs0mg"},{"bike_id":"a7d00eb4-0ee1-423f-9fb0-ed399fbe0022","system_id":"levelo_inurba_marseille","lat":43.28156,"lon":5.426345,"is_reserved":false,"is_disabled":false,"rental_uris":{"android":"levelo://app?vid=a7d00eb4-0ee1-423f-9fb0-ed399fbe0022","ios":"levelo://app?vid=a7d00eb4-0ee1-423f-9fb0-ed399fbe0022"},"vehicle_type_id":"4","last_reported":1743711055,"current_range_meters":9200,"station_id":"ce4bhnh2rcd13ifvqgug","pricing_plan_id":"cebpf4jnsgd1na2vs0mg"},{"bike_id":"b4cb4e28-e514-44da-9db3-2c7d453900ef","system_id":"levelo_inurba_marseille","lat":43.28148,"lon":5.42646,"is_reserved":false,"is_disabled":false,"rental_uris":{"android":"levelo://app?vid=b4cb4e28-e514-44da-9db3-2c7d453900ef","ios":"levelo://app?vid=b4cb4e28-e514-44da-9db3-2c7d453900ef"},"vehicle_type_id":"4","last_reported":1743711055,"current_range_meters":9200,"station_id":"ce4bhnh2rcd13ifvqgug","pricing_plan_id":"cebpf4jnsgd1na2vs0mg"},{"bike_id":"2635283e-ffd4-4c1f-b9e8-1b146ac4c8cc","system_id":"levelo_inurba_marseille","lat":43.30214,"lon":5.41904,"is_reserved":false,"is_disabled":false,"rental_uris":{"android":"levelo://app?vid=2635283e-ffd4-4c1f-b9e8-1b146ac4c8cc","ios":"levelo://app?vid=2635283e-ffd4-4c1f-b9e8-1b146ac4c8cc"},"vehicle_type_id":"4","last_reported":1743711055,"current_range_meters":9200,"station_id":"","pricing_plan_id":"cebpf4jnsgd1na2vs0mg"},{"bike_id":"0dac6cbf-70aa-4c5b-9bd6-89ce0f38fbc3","system_id":"levelo_inurba_marseille","lat":43.31318,"lon":5.37331,"is_reserved":false,"is_disabled":false,"rental_uris":{"android":"levelo://app?vid=0dac6cbf-70aa-4c5b-9bd6-89ce0f38fbc3","ios":"levelo://app?vid=0dac6cbf-70aa-4c5b-9bd6-89ce0f38fbc3"},"vehicle_type_id":"4","last_reported":1743711055,"current_range_meters":9200,"station_id":"","pricing_plan_id":"cebpf4jnsgd1na2vs0mg"},{"bike_id":"2bdbe7ee-37bf-4a09-bb1c-db0d38b1b1f5","system_id":"levelo_inurba_marseille","lat":43.29515,"lon":5.38545,"is_reserved":false,"is_disabled":false,"rental_uris":{"android":"levelo://app?vid=2bdbe7ee-37bf-4a09-bb1c-db0d38b1b1f5","ios":"levelo://app?vid=2bdbe7ee-37bf-4a09-bb1c-db0d38b1b1f5"},"vehicle_type_id":"4","last_reported":1743711055,"current_range_meters":9200,"station_id":"ce4bgih2rcd13ifvqba0","pricing_plan_id":"cebpf4jnsgd1na2vs0mg"},{"bike_id":"1d8f627d-c1fb-46bf-84f3-66a8c1b2d6f5","system_id":"levelo_inurba_marseille","lat":43.29936,"lon":5.3651,"is_reserved":false,"is_disabled":false,"rental_uris":{"android":"levelo://app?vid=1d8f627d-c1fb-46bf-84f3-66a8c1b2d6f5","ios":"levelo://app?vid=1d8f627d-c1fb-46bf-84f3-66a8c1b2d6f5"},"vehicle_type_id":"4","last_reported":1743711055,"current_range_meters":9200,"station_id":"ce4bgm92rcd13ifvqbr0","pricing_plan_id":"cebpf4jnsgd1na2vs0mg"},{"bike_id":"c6dbfbad-c5e4-4444-9b15-94527aba01a5","system_id":"levelo_inurba_marseille","lat":43.30552,"lon":5.3665,"is_reserved":false,"is_disabled":true,"rental_uris":{"android":"levelo://app?vid=c6dbfbad-c5e4-4444-9b15-94527aba01a5","ios":"levelo://app?vid=c6dbfbad-c5e4-4444-9b15-94527aba01a5"},"vehicle_type_id":"4","last_reported":1743711055,"current_range_meters":9200,"station_id":"","pricing_plan_id":"cebpf4jnsgd1na2vs0mg"},{"bike_id":"4ea6037e-0e19-4bdd-9679-2a808c51a4ea","system_id":"levelo_inurba_marseille","lat":43.29171,"lon":5.37138,"is_reserved":false,"is_disabled":false,"rental_uris":{"android":"levelo://app?vid=4ea6037e-0e19-4bdd-9679-2a808c51a4ea","ios":"levelo://app?vid=4ea6037e-0e19-4bdd-9679-2a808c51a4ea"},"vehicle_type_id":"4","last_reported":1743711055,"current_range_meters":9200,"station_id":"ce4bha92rcd13ifvqeh0","pricing_plan_id":"cebpf4jnsgd1na2vs0mg"},{"bike_id":"9858b30e-3451-4944-858e-114878f41f05","system_id":"levelo_inurba_marseille","lat":43.30464,"lon":5.37906,"is_reserved":false,"is_disabled":false,"rental_uris":{"android":"levelo://app?vid=9858b30e-3451-4944-858e-114878f41f05","ios":"levelo://app?vid=9858b30e-3451-4944-858e-114878f41f05"},"vehicle_type_id":"4","last_reported":1743711055,"current_range_meters":9600,"station_id":"ce4bgup2rcd13ifvqcn0","pricing_plan_id":"cebpf4jnsgd1na2vs0mg"},{"bike_id":"ba28e64f-dbc8-4e95-a5f5-c76a3f102d40","system_id":"levelo_inurba_marseille","lat":43.29254,"lon":5.38434,"is_reserved":false,"is_disabled":false,"rental_uris":{"android":"levelo://app?vid=ba28e64f-dbc8-4e95-a5f5-c76a3f102d40","ios":"levelo://app?vid=ba28e64f-dbc8-4e95-a5f5-c76a3f102d40"},"vehicle_type_id":"4","last_reported":1743711055,"current_range_meters":9600,"station_id":"ce4bh692rcd13ifvqea0","pricing_plan_id":"cebpf4jnsgd1na2vs0mg"},{"bike_id":"7c5a3ac9-108c-42a2-a263-860d748dadb2","system_id":"levelo_inurba_marseille","lat":43.24808,"lon":5.37455,"is_reserved":false,"is_disabled":false,"rental_uris":{"android":"levelo://app?vid=7c5a3ac9-108c-42a2-a263-860d748dadb2","ios":"levelo://app?vid=7c5a3ac9-108c-42a2-a263-860d748dadb2"},"vehicle_type_id":"4","last_reported":1743711055,"current_range_meters":9600,"station_id":"ce4bhgh2rcd13ifvqfb0","pricing_plan_id":"cebpf4jnsgd1na2vs0mg"},{"bike_id":"d76832c4-3604-4de9-b7a5-182f7c6e995c","system_id":"levelo_inurba_marseille","lat":43.31355,"lon":5.38506,"is_reserved":false,"is_disabled":true,"rental_uris":{"android":"levelo://app?vid=d76832c4-3604-4de9-b7a5-182f7c6e995c","ios":"levelo://app?vid=d76832c4-3604-4de9-b7a5-182f7c6e995c"},"vehicle_type_id":"4","last_reported":1743711055,"current_range_meters":9600,"station_id":"ce4bgt92rcd13ifvqcf0","pricing_plan_id":"cebpf4jnsgd1na2vs0mg"},{"bike_id":"7f07618a-d589-4c35-aa91-6be5aa9213ab","system_id":"levelo_inurba_marseille","lat":43.28458,"lon":5.35884,"is_reserved":false,"is_disabled":false,"rental_uris":{"android":"levelo://app?vid=7f07618a-d589-4c35-aa91-6be5aa9213ab","ios":"levelo://app?vid=7f07618a-d589-4c35-aa91-6be5aa9213ab"},"vehicle_type_id":"4","last_reported":1743711055,"current_range_meters":9600,"station_id":"ce4bhah2rcd13ifvqei0","pricing_plan_id":"cebpf4jnsgd1na2vs0mg"},{"bike_id":"e3a29d38-a611-4b12-87ef-2fb8a21c41d5","system_id":"levelo_inurba_marseille","lat":43.2296,"lon":5.35389,"is_reserved":false,"is_disabled":false,"rental_uris":{"android":"levelo://app?vid=e3a29d38-a611-4b12-87ef-2fb8a21c41d5","ios":"levelo://app?vid=e3a29d38-a611-4b12-87ef-2fb8a21c41d5"},"vehicle_type_id":"4","last_reported":1743711055,"current_range_meters":9600,"station_id":"cpo3532slgdg3j2ikp40","pricing_plan_id":"cebpf4jnsgd1na2vs0mg"},{"bike_id":"e8f004e0-6d0f-41c6-a9b6-2ac722b5fcf2","system_id":"levelo_inurba_marseille","lat":43.29529,"lon":5.38539,"is_reserved":false,"is_disabled":false,"rental_uris":{"android":"levelo://app?vid=e8f004e0-6d0f-41c6-a9b6-2ac722b5fcf2","ios":"levelo://app?vid=e8f004e0-6d0f-41c6-a9b6-2ac722b5fcf2"},"vehicle_type_id":"4","last_reported":1743711055,"current_range_meters":9600,"station_id":"ce4bgih2rcd13ifvqba0","pricing_plan_id":"cebpf4jnsgd1na2vs0mg"},{"bike_id":"db2e7a57-3ca4-4f6d-b555-a0eb07155750","system_id":"levelo_inurba_marseille","lat":43.24643,"lon":5.38153,"is_reserved":false,"is_disabled":false,"rental_uris":{"android":"levelo://app?vid=db2e7a57-3ca4-4f6d-b555-a0eb07155750","ios":"levelo://app?vid=db2e7a57-3ca4-4f6d-b555-a0eb07155750"},"vehicle_type_id":"4","last_reported":1743711055,"current_range_meters":9600,"station_id":"ce4bhih2rcd13ifvqfr0","pricing_plan_id":"cebpf4jnsgd1na2vs0mg"},{"bike_id":"09acc38a-ce9e-4339-b410-bdafaf8d5a13","system_id":"levelo_inurba_marseille","lat":43.25102,"lon":5.39508,"is_reserved":false,"is_disabled":true,"rental_uris":{"android":"levelo://app?vid=09acc38a-ce9e-4339-b410-bdafaf8d5a13","ios":"levelo://app?vid=09acc38a-ce9e-4339-b410-bdafaf8d5a13"},"vehicle_type_id":"4","last_reported":1743711055,"current_range_meters":9600,"station_id":"ce4bhm12rcd13ifvqgkg","pricing_plan_id":"cebpf4jnsgd1na2vs0mg"},{"bike_id":"63c19073-a7de-46ed-a396-8639743b910e","system_id":"levelo_inurba_marseille","lat":43.23191,"lon":5.35555,"is_reserved":false,"is_disabled":false,"rental_uris":{"android":"levelo://app?vid=63c19073-a7de-46ed-a396-8639743b910e","ios":"levelo://app?vid=63c19073-a7de-46ed-a396-8639743b910e"},"vehicle_type_id":"4","last_reported":1743711055,"current_range_meters":9600,"station_id":"ce4bhu92rcd13ifvqi70","pricing_plan_id":"cebpf4jnsgd1na2vs0mg"},{"bike_id":"55a458b5-99f0-4a0e-bf15-969bb5b742d8","system_id":"levelo_inurba_marseille","lat":43.31642,"lon":5.3943,"is_reserved":false,"is_disabled":false,"rental_uris":{"android":"levelo://app?vid=55a458b5-99f0-4a0e-bf15-969bb5b742d8","ios":"levelo://app?vid=55a458b5-99f0-4a0e-bf15-969bb5b742d8"},"vehicle_type_id":"4","last_reported":1743711055,"current_range_meters":9600,"station_id":"","pricing_plan_id":"cebpf4jnsgd1na2vs0mg"},{"bike_id":"b82d69aa-68c3-4b80-a940-0c5536bd5e85","system_id":"levelo_inurba_marseille","lat":43.295624,"lon":5.399829,"is_reserved":false,"is_disabled":false,"rental_uris":{"android":"levelo://app?vid=b82d69aa-68c3-4b80-a940-0c5536bd5e85","ios":"levelo://app?vid=b82d69aa-68c3-4b80-a940-0c5536bd5e85"},"vehicle_type_id":"4","last_reported":1743711055,"current_range_meters":9600,"station_id":"ce4bgk12rcd13ifvqbi0","pricing_plan_id":"cebpf4jnsgd1na2vs0mg"},{"bike_id":"b46a5523-82ac-48f8-b308-2eea21b8359a","system_id":"levelo_inurba_marseille","lat":43.30306,"lon":5.39211,"is_reserved":false,"is_disabled":false,"rental_uris":{"android":"levelo://app?vid=b46a5523-82ac-48f8-b308-2eea21b8359a","ios":"levelo://app?vid=b46a5523-82ac-48f8-b308-2eea21b8359a"},"vehicle_type_id":"4","last_reported":1743711055,"current_range_meters":10000,"station_id":"ce4bgkh2rcd13ifvqbk0","pricing_plan_id":"cebpf4jnsgd1na2vs0mg"},{"bike_id":"06c14053-3a7f-4851-bac2-ca082d400ea4","system_id":"levelo_inurba_marseille","lat":43.29408,"lon":5.38631,"is_reserved":false,"is_disabled":false,"rental_uris":{"android":"levelo://app?vid=06c14053-3a7f-4851-bac2-ca082d400ea4","ios":"levelo://app?vid=06c14053-3a7f-4851-bac2-ca082d400ea4"},"vehicle_type_id":"4","last_reported":1743711055,"current_range_meters":10000,"station_id":"ce4bh2h2rcd13ifvqdh0","pricing_plan_id":"cebpf4jnsgd1na2vs0mg"},{"bike_id":"26939cea-6082-4c50-9db0-5fb7d77f378d","system_id":"levelo_inurba_marseille","lat":43.26938,"lon":5.40261,"is_reserved":false,"is_disabled":false,"rental_uris":{"android":"levelo://app?vid=26939cea-6082-4c50-9db0-5fb7d77f378d","ios":"levelo://app?vid=26939cea-6082-4c50-9db0-5fb7d77f378d"},"vehicle_type_id":"4","last_reported":1743711055,"current_range_meters":10000,"station_id":"cjm6bp8fraef2m0cb0m0","pricing_plan_id":"cebpf4jnsgd1na2vs0mg"},{"bike_id":"3cf22d29-90b6-4c79-a643-886bc3743ca7","system_id":"levelo_inurba_marseille","lat":43.33404,"lon":5.40091,"is_reserved":false,"is_disabled":false,"rental_uris":{"android":"levelo://app?vid=3cf22d29-90b6-4c79-a643-886bc3743ca7","ios":"levelo://app?vid=3cf22d29-90b6-4c79-a643-886bc3743ca7"},"vehicle_type_id":"4","last_reported":1743711055,"current_range_meters":10000,"station_id":"","pricing_plan_id":"cebpf4jnsgd1na2vs0mg"},{"bike_id":"95c6afc1-751b-4335-9455-2a5c25d7f064","system_id":"levelo_inurba_marseille","lat":43.28938,"lon":5.36633,"is_reserved":false,"is_disabled":false,"rental_uris":{"android":"levelo://app?vid=95c6afc1-751b-4335-9455-2a5c25d7f064","ios":"levelo://app?vid=95c6afc1-751b-4335-9455-2a5c25d7f064"},"vehicle_type_id":"4","last_reported":1743711055,"current_range_meters":10000,"station_id":"ce4bhap2rcd13ifvqek0","pricing_plan_id":"cebpf4jnsgd1na2vs0mg"},{"bike_id":"be19e26c-e8d6-41dc-9289-b6df129eb6b6","system_id":"levelo_inurba_marseille","lat":43.29261,"lon":5.40894,"is_reserved":false,"is_disabled":false,"rental_uris":{"android":"levelo://app?vid=be19e26c-e8d6-41dc-9289-b6df129eb6b6","ios":"levelo://app?vid=be19e26c-e8d6-41dc-9289-b6df129eb6b6"},"vehicle_type_id":"4","last_reported":1743711055,"current_range_meters":10000,"station_id":"ce4bh192rcd13ifvqdc0","pricing_plan_id":"cebpf4jnsgd1na2vs0mg"},{"bike_id":"dff07cb4-c60f-4c0e-9b86-1576ff98ca28","system_id":"levelo_inurba_marseille","lat":43.28705,"lon":5.37399,"is_reserved":false,"is_disabled":false,"rental_uris":{"android":"levelo://app?vid=dff07cb4-c60f-4c0e-9b86-1576ff98ca28","ios":"levelo://app?vid=dff07cb4-c60f-4c0e-9b86-1576ff98ca28"},"vehicle_type_id":"4","last_reported":1743711055,"current_range_meters":9600,"station_id":"ce4bh3p2rcd13ifvqdq0","pricing_plan_id":"cebpf4jnsgd1na2vs0mg"},{"bike_id":"6ed8edba-d95b-4cee-9a4d-61be5b2def52","system_id":"levelo_inurba_marseille","lat":43.29555,"lon":5.42295,"is_reserved":false,"is_disabled":false,"rental_uris":{"android":"levelo://app?vid=6ed8edba-d95b-4cee-9a4d-61be5b2def52","ios":"levelo://app?vid=6ed8edba-d95b-4cee-9a4d-61be5b2def52"},"vehicle_type_id":"4","last_reported":1743711055,"current_range_meters":10000,"station_id":"ce4bhph2rcd13ifvqhdg","pricing_plan_id":"cebpf4jnsgd1na2vs0mg"},{"bike_id":"561d0531-84a6-4234-8476-3c035e0e1017","system_id":"levelo_inurba_marseille","lat":43.286987,"lon":5.400161,"is_reserved":false,"is_disabled":false,"rental_uris":{"android":"levelo://app?vid=561d0531-84a6-4234-8476-3c035e0e1017","ios":"levelo://app?vid=561d0531-84a6-4234-8476-3c035e0e1017"},"vehicle_type_id":"4","last_reported":1743711055,"current_range_meters":10000,"station_id":"ce4bho92rcd13ifvqh3g","pricing_plan_id":"cebpf4jnsgd1na2vs0mg"},{"bike_id":"7d5a05fe-eb6b-447f-b990-3d8ef21e3f2a","system_id":"levelo_inurba_marseille","lat":43.30253,"lon":5.40079,"is_reserved":false,"is_disabled":false,"rental_uris":{"android":"levelo://app?vid=7d5a05fe-eb6b-447f-b990-3d8ef21e3f2a","ios":"levelo://app?vid=7d5a05fe-eb6b-447f-b990-3d8ef21e3f2a"},"vehicle_type_id":"4","last_reported":1743711055,"current_range_meters":10000,"station_id":"ce4bgvh2rcd13ifvqcs0","pricing_plan_id":"cebpf4jnsgd1na2vs0mg"},{"bike_id":"3fa7ac99-d6ab-4fbc-bf6e-e6cdc7863efe","system_id":"levelo_inurba_marseille","lat":43.29261,"lon":5.38427,"is_reserved":false,"is_disabled":false,"rental_uris":{"android":"levelo://app?vid=3fa7ac99-d6ab-4fbc-bf6e-e6cdc7863efe","ios":"levelo://app?vid=3fa7ac99-d6ab-4fbc-bf6e-e6cdc7863efe"},"vehicle_type_id":"4","last_reported":1743711055,"current_range_meters":10000,"station_id":"ce4bh692rcd13ifvqea0","pricing_plan_id":"cebpf4jnsgd1na2vs0mg"},{"bike_id":"efddeda7-6eb2-4c14-868d-fa0ce0b35ef3","system_id":"levelo_inurba_marseille","lat":43.3129,"lon":5.38277,"is_reserved":false,"is_disabled":false,"rental_uris":{"android":"levelo://app?vid=efddeda7-6eb2-4c14-868d-fa0ce0b35ef3","ios":"levelo://app?vid=efddeda7-6eb2-4c14-868d-fa0ce0b35ef3"},"vehicle_type_id":"4","last_reported":1743711055,"current_range_meters":10000,"station_id":"","pricing_plan_id":"cebpf4jnsgd1na2vs0mg"},{"bike_id":"4d021dc5-da23-461e-96b2-594066586ca8","system_id":"levelo_inurba_marseille","lat":43.2795,"lon":5.40865,"is_reserved":false,"is_disabled":false,"rental_uris":{"android":"levelo://app?vid=4d021dc5-da23-461e-96b2-594066586ca8","ios":"levelo://app?vid=4d021dc5-da23-461e-96b2-594066586ca8"},"vehicle_type_id":"4","last_reported":1743711055,"current_range_meters":10000,"station_id":"","pricing_plan_id":"cebpf4jnsgd1na2vs0mg"},{"bike_id":"69d96eab-d655-4e71-80af-adf26a43bf2a","system_id":"levelo_inurba_marseille","lat":43.28354,"lon":5.38124,"is_reserved":false,"is_disabled":false,"rental_uris":{"android":"levelo://app?vid=69d96eab-d655-4e71-80af-adf26a43bf2a","ios":"levelo://app?vid=69d96eab-d655-4e71-80af-adf26a43bf2a"},"vehicle_type_id":"4","last_reported":1743711055,"current_range_meters":10000,"station_id":"ce4bh412rcd13ifvqdr0","pricing_plan_id":"cebpf4jnsgd1na2vs0mg"},{"bike_id":"c13336a2-47ce-488c-b5b6-77c01a3ac1d1","system_id":"levelo_inurba_marseille","lat":43.31909,"lon":5.40738,"is_reserved":false,"is_disabled":true,"rental_uris":{"android":"levelo://app?vid=c13336a2-47ce-488c-b5b6-77c01a3ac1d1","ios":"levelo://app?vid=c13336a2-47ce-488c-b5b6-77c01a3ac1d1"},"vehicle_type_id":"4","last_reported":1743711055,"current_range_meters":10000,"station_id":"ce4bhq12rcd13ifvqhig","pricing_plan_id":"cebpf4jnsgd1na2vs0mg"},{"bike_id":"c4a45ad7-9db7-470d-ae0b-d274e54f9a26","system_id":"levelo_inurba_marseille","lat":43.29787,"lon":5.38115,"is_reserved":false,"is_disabled":false,"rental_uris":{"android":"levelo://app?vid=c4a45ad7-9db7-470d-ae0b-d274e54f9a26","ios":"levelo://app?vid=c4a45ad7-9db7-470d-ae0b-d274e54f9a26"},"vehicle_type_id":"4","last_reported":1743711055,"current_range_meters":10000,"station_id":"ce4bgip2rcd13ifvqbb0","pricing_plan_id":"cebpf4jnsgd1na2vs0mg"},{"bike_id":"b4ab96b8-b55f-442c-98bf-22ba91464e26","system_id":"levelo_inurba_marseille","lat":43.31703,"lon":5.42425,"is_reserved":false,"is_disabled":false,"rental_uris":{"android":"levelo://app?vid=b4ab96b8-b55f-442c-98bf-22ba91464e26","ios":"levelo://app?vid=b4ab96b8-b55f-442c-98bf-22ba91464e26"},"vehicle_type_id":"4","last_reported":1743711055,"current_range_meters":10000,"station_id":"ce4bhp92rcd13ifvqhbg","pricing_plan_id":"cebpf4jnsgd1na2vs0mg"},{"bike_id":"81296a64-2b77-42f6-8329-c4c8f1f0969e","system_id":"levelo_inurba_marseille","lat":43.28349,"lon":5.38106,"is_reserved":false,"is_disabled":false,"rental_uris":{"android":"levelo://app?vid=81296a64-2b77-42f6-8329-c4c8f1f0969e","ios":"levelo://app?vid=81296a64-2b77-42f6-8329-c4c8f1f0969e"},"vehicle_type_id":"4","last_reported":1743711055,"current_range_meters":10800,"station_id":"ce4bh412rcd13ifvqdr0","pricing_plan_id":"cebpf4jnsgd1na2vs0mg"},{"bike_id":"bf219784-3680-44e1-abb0-c19db8b8d5b7","system_id":"levelo_inurba_marseille","lat":43.28928,"lon":5.36637,"is_reserved":false,"is_disabled":false,"rental_uris":{"android":"levelo://app?vid=bf219784-3680-44e1-abb0-c19db8b8d5b7","ios":"levelo://app?vid=bf219784-3680-44e1-abb0-c19db8b8d5b7"},"vehicle_type_id":"4","last_reported":1743711055,"current_range_meters":10800,"station_id":"ce4bhap2rcd13ifvqek0","pricing_plan_id":"cebpf4jnsgd1na2vs0mg"},{"bike_id":"a688b4f6-cbd3-4540-9afd-68e12e85ba02","system_id":"levelo_inurba_marseille","lat":43.28349,"lon":5.38107,"is_reserved":false,"is_disabled":false,"rental_uris":{"android":"levelo://app?vid=a688b4f6-cbd3-4540-9afd-68e12e85ba02","ios":"levelo://app?vid=a688b4f6-cbd3-4540-9afd-68e12e85ba02"},"vehicle_type_id":"4","last_reported":1743711055,"current_range_meters":10800,"station_id":"ce4bh412rcd13ifvqdr0","pricing_plan_id":"cebpf4jnsgd1na2vs0mg"},{"bike_id":"cd0c5a84-9647-4fba-9dcf-2e415542b311","system_id":"levelo_inurba_marseille","lat":43.31165,"lon":5.38724,"is_reserved":false,"is_disabled":false,"rental_uris":{"android":"levelo://app?vid=cd0c5a84-9647-4fba-9dcf-2e415542b311","ios":"levelo://app?vid=cd0c5a84-9647-4fba-9dcf-2e415542b311"},"vehicle_type_id":"4","last_reported":1743711055,"current_range_meters":10800,"station_id":"ce4bgv12rcd13ifvqcp0","pricing_plan_id":"cebpf4jnsgd1na2vs0mg"},{"bike_id":"069feb28-9c06-4535-8070-12f86469d30d","system_id":"levelo_inurba_marseille","lat":43.28412,"lon":5.35005,"is_reserved":false,"is_disabled":false,"rental_uris":{"android":"levelo://app?vid=069feb28-9c06-4535-8070-12f86469d30d","ios":"levelo://app?vid=069feb28-9c06-4535-8070-12f86469d30d"},"vehicle_type_id":"4","last_reported":1743711055,"current_range_meters":10800,"station_id":"ce4bhbh2rcd13ifvqepg","pricing_plan_id":"cebpf4jnsgd1na2vs0mg"},{"bike_id":"1f0eb7ee-9ae9-4a48-900a-a369a578dfe7","system_id":"levelo_inurba_marseille","lat":43.29455,"lon":5.3975,"is_reserved":false,"is_disabled":false,"rental_uris":{"android":"levelo://app?vid=1f0eb7ee-9ae9-4a48-900a-a369a578dfe7","ios":"levelo://app?vid=1f0eb7ee-9ae9-4a48-900a-a369a578dfe7"},"vehicle_type_id":"4","last_reported":1743711055,"current_range_meters":10800,"station_id":"ce4bh3h2rcd13ifvqdo0","pricing_plan_id":"cebpf4jnsgd1na2vs0mg"},{"bike_id":"1e14d28a-d6be-4cb9-874f-4593dd2f684f","system_id":"levelo_inurba_marseille","lat":43.3021,"lon":5.39467,"is_reserved":false,"is_disabled":false,"rental_uris":{"android":"levelo://app?vid=1e14d28a-d6be-4cb9-874f-4593dd2f684f","ios":"levelo://app?vid=1e14d28a-d6be-4cb9-874f-4593dd2f684f"},"vehicle_type_id":"4","last_reported":1743711055,"current_range_meters":11200,"station_id":"ce4bh0p2rcd13ifvqd70","pricing_plan_id":"cebpf4jnsgd1na2vs0mg"},{"bike_id":"c532999d-8f27-488e-bb1a-b817f10a60bc","system_id":"levelo_inurba_marseille","lat":43.31701,"lon":5.37747,"is_reserved":false,"is_disabled":false,"rental_uris":{"android":"levelo://app?vid=c532999d-8f27-488e-bb1a-b817f10a60bc","ios":"levelo://app?vid=c532999d-8f27-488e-bb1a-b817f10a60bc"},"vehicle_type_id":"4","last_reported":1743711055,"current_range_meters":10800,"station_id":"ce4bgth2rcd13ifvqch0","pricing_plan_id":"cebpf4jnsgd1na2vs0mg"},{"bike_id":"0b88ccf3-9ffa-4517-a262-a42fd565186e","system_id":"levelo_inurba_marseille","lat":43.28407,"lon":5.34986,"is_reserved":false,"is_disabled":false,"rental_uris":{"android":"levelo://app?vid=0b88ccf3-9ffa-4517-a262-a42fd565186e","ios":"levelo://app?vid=0b88ccf3-9ffa-4517-a262-a42fd565186e"},"vehicle_type_id":"4","last_reported":1743711055,"current_range_meters":11200,"station_id":"ce4bhbh2rcd13ifvqepg","pricing_plan_id":"cebpf4jnsgd1na2vs0mg"},{"bike_id":"da3649e0-2b6f-425e-ac75-d70497e5c37e","system_id":"levelo_inurba_marseille","lat":43.29626,"lon":5.40606,"is_reserved":false,"is_disabled":false,"rental_uris":{"android":"levelo://app?vid=da3649e0-2b6f-425e-ac75-d70497e5c37e","ios":"levelo://app?vid=da3649e0-2b6f-425e-ac75-d70497e5c37e"},"vehicle_type_id":"4","last_reported":1743711055,"current_range_meters":11200,"station_id":"ce4bh0h2rcd13ifvqd60","pricing_plan_id":"cebpf4jnsgd1na2vs0mg"},{"bike_id":"becd4d9c-f5b2-4018-aadd-5312c9b4ec50","system_id":"levelo_inurba_marseille","lat":43.23963,"lon":5.36642,"is_reserved":false,"is_disabled":false,"rental_uris":{"android":"levelo://app?vid=becd4d9c-f5b2-4018-aadd-5312c9b4ec50","ios":"levelo://app?vid=becd4d9c-f5b2-4018-aadd-5312c9b4ec50"},"vehicle_type_id":"4","last_reported":1743711055,"current_range_meters":11200,"station_id":"ce4bhi12rcd13ifvqfp0","pricing_plan_id":"cebpf4jnsgd1na2vs0mg"},{"bike_id":"ebf1032e-aa27-4cc9-8ec9-45dcba03335c","system_id":"levelo_inurba_marseille","lat":43.29428,"lon":5.39762,"is_reserved":false,"is_disabled":false,"rental_uris":{"android":"levelo://app?vid=ebf1032e-aa27-4cc9-8ec9-45dcba03335c","ios":"levelo://app?vid=ebf1032e-aa27-4cc9-8ec9-45dcba03335c"},"vehicle_type_id":"4","last_reported":1743711055,"current_range_meters":10800,"station_id":"ce4bh3h2rcd13ifvqdo0","pricing_plan_id":"cebpf4jnsgd1na2vs0mg"},{"bike_id":"a9b01269-405c-41a7-ba47-7fb41de8cf0e","system_id":"levelo_inurba_marseille","lat":43.30143,"lon":5.38799,"is_reserved":false,"is_disabled":false,"rental_uris":{"android":"levelo://app?vid=a9b01269-405c-41a7-ba47-7fb41de8cf0e","ios":"levelo://app?vid=a9b01269-405c-41a7-ba47-7fb41de8cf0e"},"vehicle_type_id":"4","last_reported":1743711055,"current_range_meters":10800,"station_id":"ce4bghh2rcd13ifvqb60","pricing_plan_id":"cebpf4jnsgd1na2vs0mg"},{"bike_id":"63139285-137c-4e8d-8e95-6c2a275f8333","system_id":"levelo_inurba_marseille","lat":43.32138,"lon":5.36796,"is_reserved":false,"is_disabled":false,"rental_uris":{"android":"levelo://app?vid=63139285-137c-4e8d-8e95-6c2a275f8333","ios":"levelo://app?vid=63139285-137c-4e8d-8e95-6c2a275f8333"},"vehicle_type_id":"4","last_reported":1743711055,"current_range_meters":11200,"station_id":"ce4bhrh2rcd13ifvqhug","pricing_plan_id":"cebpf4jnsgd1na2vs0mg"},{"bike_id":"3f5ebb30-dcf6-4b00-8b80-13aa84fc699f","system_id":"levelo_inurba_marseille","lat":43.30146,"lon":5.38084,"is_reserved":false,"is_disabled":false,"rental_uris":{"android":"levelo://app?vid=3f5ebb30-dcf6-4b00-8b80-13aa84fc699f","ios":"levelo://app?vid=3f5ebb30-dcf6-4b00-8b80-13aa84fc699f"},"vehicle_type_id":"4","last_reported":1743711055,"current_range_meters":11200,"station_id":"ce4bgjp2rcd13ifvqbh0","pricing_plan_id":"cebpf4jnsgd1na2vs0mg"},{"bike_id":"69c0db05-6ded-4dc6-9720-2452c83c1020","system_id":"levelo_inurba_marseille","lat":43.22953,"lon":5.35402,"is_reserved":false,"is_disabled":false,"rental_uris":{"android":"levelo://app?vid=69c0db05-6ded-4dc6-9720-2452c83c1020","ios":"levelo://app?vid=69c0db05-6ded-4dc6-9720-2452c83c1020"},"vehicle_type_id":"4","last_reported":1743711055,"current_range_meters":11600,"station_id":"cpo3532slgdg3j2ikp40","pricing_plan_id":"cebpf4jnsgd1na2vs0mg"},{"bike_id":"f320bcfd-d3a7-4746-b26f-e416beaa874d","system_id":"levelo_inurba_marseille","lat":43.31537,"lon":5.38011,"is_reserved":false,"is_disabled":false,"rental_uris":{"android":"levelo://app?vid=f320bcfd-d3a7-4746-b26f-e416beaa874d","ios":"levelo://app?vid=f320bcfd-d3a7-4746-b26f-e416beaa874d"},"vehicle_type_id":"4","last_reported":1743711055,"current_range_meters":11600,"station_id":"ce4bhsp2rcd13ifvqi50","pricing_plan_id":"cebpf4jnsgd1na2vs0mg"},{"bike_id":"69e77ebb-26a2-4de2-ab93-c8f86436da8f","system_id":"levelo_inurba_marseille","lat":43.29318,"lon":5.37153,"is_reserved":false,"is_disabled":false,"rental_uris":{"android":"levelo://app?vid=69e77ebb-26a2-4de2-ab93-c8f86436da8f","ios":"levelo://app?vid=69e77ebb-26a2-4de2-ab93-c8f86436da8f"},"vehicle_type_id":"4","last_reported":1743711055,"current_range_meters":11600,"station_id":"ce4bgh92rcd13ifvqb40","pricing_plan_id":"cebpf4jnsgd1na2vs0mg"},{"bike_id":"82879d27-0917-4ef5-90f1-7ac1198bbedd","system_id":"levelo_inurba_marseille","lat":43.29631,"lon":5.40593,"is_reserved":false,"is_disabled":false,"rental_uris":{"android":"levelo://app?vid=82879d27-0917-4ef5-90f1-7ac1198bbedd","ios":"levelo://app?vid=82879d27-0917-4ef5-90f1-7ac1198bbedd"},"vehicle_type_id":"4","last_reported":1743711055,"current_range_meters":11200,"station_id":"ce4bh0h2rcd13ifvqd60","pricing_plan_id":"cebpf4jnsgd1na2vs0mg"},{"bike_id":"4e68dd37-5c68-4401-9d3e-83a00e605018","system_id":"levelo_inurba_marseille","lat":43.30883,"lon":5.39655,"is_reserved":false,"is_disabled":false,"rental_uris":{"android":"levelo://app?vid=4e68dd37-5c68-4401-9d3e-83a00e605018","ios":"levelo://app?vid=4e68dd37-5c68-4401-9d3e-83a00e605018"},"vehicle_type_id":"4","last_reported":1743711055,"current_range_meters":11600,"station_id":"ce4bh012rcd13ifvqcv0","pricing_plan_id":"cebpf4jnsgd1na2vs0mg"},{"bike_id":"498127d3-f5d6-4e1d-b24f-d6d5057f7fd9","system_id":"levelo_inurba_marseille","lat":43.29299,"lon":5.37176,"is_reserved":false,"is_disabled":false,"rental_uris":{"android":"levelo://app?vid=498127d3-f5d6-4e1d-b24f-d6d5057f7fd9","ios":"levelo://app?vid=498127d3-f5d6-4e1d-b24f-d6d5057f7fd9"},"vehicle_type_id":"4","last_reported":1743711055,"current_range_meters":11600,"station_id":"ce4bgh92rcd13ifvqb40","pricing_plan_id":"cebpf4jnsgd1na2vs0mg"},{"bike_id":"5f46717b-05d1-4f34-a220-8087932d755b","system_id":"levelo_inurba_marseille","lat":43.30088,"lon":5.3694,"is_reserved":false,"is_disabled":false,"rental_uris":{"android":"levelo://app?vid=5f46717b-05d1-4f34-a220-8087932d755b","ios":"levelo://app?vid=5f46717b-05d1-4f34-a220-8087932d755b"},"vehicle_type_id":"4","last_reported":1743711055,"current_range_meters":11600,"station_id":"","pricing_plan_id":"cebpf4jnsgd1na2vs0mg"},{"bike_id":"6009dbf4-2707-43fb-8921-5d5c5e9a2697","system_id":"levelo_inurba_marseille","lat":43.25498,"lon":5.37653,"is_reserved":false,"is_disabled":false,"rental_uris":{"android":"levelo://app?vid=6009dbf4-2707-43fb-8921-5d5c5e9a2697","ios":"levelo://app?vid=6009dbf4-2707-43fb-8921-5d5c5e9a2697"},"vehicle_type_id":"4","last_reported":1743711055,"current_range_meters":11600,"station_id":"ce4bhh12rcd13ifvqff0","pricing_plan_id":"cebpf4jnsgd1na2vs0mg"},{"bike_id":"a6303451-5b45-435c-bf0e-748f94cc010d","system_id":"levelo_inurba_marseille","lat":43.23188,"lon":5.35545,"is_reserved":false,"is_disabled":false,"rental_uris":{"android":"levelo://app?vid=a6303451-5b45-435c-bf0e-748f94cc010d","ios":"levelo://app?vid=a6303451-5b45-435c-bf0e-748f94cc010d"},"vehicle_type_id":"4","last_reported":1743711055,"current_range_meters":12000,"station_id":"ce4bhu92rcd13ifvqi70","pricing_plan_id":"cebpf4jnsgd1na2vs0mg"},{"bike_id":"7b0b835b-1c8f-4232-81c8-b9f326066d34","system_id":"levelo_inurba_marseille","lat":43.28455,"lon":5.35888,"is_reserved":false,"is_disabled":false,"rental_uris":{"android":"levelo://app?vid=7b0b835b-1c8f-4232-81c8-b9f326066d34","ios":"levelo://app?vid=7b0b835b-1c8f-4232-81c8-b9f326066d34"},"vehicle_type_id":"4","last_reported":1743711055,"current_range_meters":12000,"station_id":"ce4bhah2rcd13ifvqei0","pricing_plan_id":"cebpf4jnsgd1na2vs0mg"},{"bike_id":"c611372a-1bd7-4682-a269-9a02ba50eeab","system_id":"levelo_inurba_marseille","lat":43.29976,"lon":5.38497,"is_reserved":false,"is_disabled":true,"rental_uris":{"android":"levelo://app?vid=c611372a-1bd7-4682-a269-9a02ba50eeab","ios":"levelo://app?vid=c611372a-1bd7-4682-a269-9a02ba50eeab"},"vehicle_type_id":"4","last_reported":1743711055,"current_range_meters":12000,"station_id":"ce4bgj92rcd13ifvqbd0","pricing_plan_id":"cebpf4jnsgd1na2vs0mg"},{"bike_id":"998d479b-d8b9-466f-a388-673d59012d2a","system_id":"levelo_inurba_marseille","lat":43.29622,"lon":5.40603,"is_reserved":false,"is_disabled":false,"rental_uris":{"android":"levelo://app?vid=998d479b-d8b9-466f-a388-673d59012d2a","ios":"levelo://app?vid=998d479b-d8b9-466f-a388-673d59012d2a"},"vehicle_type_id":"4","last_reported":1743711055,"current_range_meters":12000,"station_id":"ce4bh0h2rcd13ifvqd60","pricing_plan_id":"cebpf4jnsgd1na2vs0mg"},{"bike_id":"93bdfa40-163b-4dec-b081-fca595de3694","system_id":"levelo_inurba_marseille","lat":43.29619,"lon":5.3717,"is_reserved":false,"is_disabled":false,"rental_uris":{"android":"levelo://app?vid=93bdfa40-163b-4dec-b081-fca595de3694","ios":"levelo://app?vid=93bdfa40-163b-4dec-b081-fca595de3694"},"vehicle_type_id":"4","last_reported":1743711055,"current_range_meters":12400,"station_id":"ce4bgnh2rcd13ifvqc0g","pricing_plan_id":"cebpf4jnsgd1na2vs0mg"},{"bike_id":"a2cc56b1-ff5c-4d49-8794-6951d2d93f41","system_id":"levelo_inurba_marseille","lat":43.23956,"lon":5.36638,"is_reserved":false,"is_disabled":false,"rental_uris":{"android":"levelo://app?vid=a2cc56b1-ff5c-4d49-8794-6951d2d93f41","ios":"levelo://app?vid=a2cc56b1-ff5c-4d49-8794-6951d2d93f41"},"vehicle_type_id":"4","last_reported":1743711055,"current_range_meters":12400,"station_id":"ce4bhi12rcd13ifvqfp0","pricing_plan_id":"cebpf4jnsgd1na2vs0mg"},{"bike_id":"7139d3fc-4d25-4184-9b63-b87110ac44d0","system_id":"levelo_inurba_marseille","lat":43.27065,"lon":5.40258,"is_reserved":false,"is_disabled":false,"rental_uris":{"android":"levelo://app?vid=7139d3fc-4d25-4184-9b63-b87110ac44d0","ios":"levelo://app?vid=7139d3fc-4d25-4184-9b63-b87110ac44d0"},"vehicle_type_id":"4","last_reported":1743711055,"current_range_meters":12400,"station_id":"ce4bhk92rcd13ifvqgc0","pricing_plan_id":"cebpf4jnsgd1na2vs0mg"},{"bike_id":"12a4927d-7630-458e-8378-d7c426acbf93","system_id":"levelo_inurba_marseille","lat":43.29411,"lon":5.38577,"is_reserved":false,"is_disabled":false,"rental_uris":{"android":"levelo://app?vid=12a4927d-7630-458e-8378-d7c426acbf93","ios":"levelo://app?vid=12a4927d-7630-458e-8378-d7c426acbf93"},"vehicle_type_id":"4","last_reported":1743711055,"current_range_meters":12400,"station_id":"ce4bh2h2rcd13ifvqdh0","pricing_plan_id":"cebpf4jnsgd1na2vs0mg"},{"bike_id":"c6060c5c-4f5d-4980-b306-4a15e194b898","system_id":"levelo_inurba_marseille","lat":43.28023,"lon":5.36949,"is_reserved":false,"is_disabled":false,"rental_uris":{"android":"levelo://app?vid=c6060c5c-4f5d-4980-b306-4a15e194b898","ios":"levelo://app?vid=c6060c5c-4f5d-4980-b306-4a15e194b898"},"vehicle_type_id":"4","last_reported":1743711055,"current_range_meters":12000,"station_id":"ce4bha12rcd13ifvqef0","pricing_plan_id":"cebpf4jnsgd1na2vs0mg"},{"bike_id":"5403de83-a7d4-41a4-a9f6-e96fd9e42b46","system_id":"levelo_inurba_marseille","lat":43.30149,"lon":5.38784,"is_reserved":false,"is_disabled":false,"rental_uris":{"android":"levelo://app?vid=5403de83-a7d4-41a4-a9f6-e96fd9e42b46","ios":"levelo://app?vid=5403de83-a7d4-41a4-a9f6-e96fd9e42b46"},"vehicle_type_id":"4","last_reported":1743711055,"current_range_meters":12000,"station_id":"ce4bghh2rcd13ifvqb60","pricing_plan_id":"cebpf4jnsgd1na2vs0mg"},{"bike_id":"98c952e9-dab2-4620-82fc-82fe9fbeb329","system_id":"levelo_inurba_marseille","lat":43.29532,"lon":5.3854,"is_reserved":false,"is_disabled":false,"rental_uris":{"android":"levelo://app?vid=98c952e9-dab2-4620-82fc-82fe9fbeb329","ios":"levelo://app?vid=98c952e9-dab2-4620-82fc-82fe9fbeb329"},"vehicle_type_id":"4","last_reported":1743711055,"current_range_meters":12400,"station_id":"ce4bgih2rcd13ifvqba0","pricing_plan_id":"cebpf4jnsgd1na2vs0mg"},{"bike_id":"ff1301e1-0d63-44b3-bce2-273444a65096","system_id":"levelo_inurba_marseille","lat":43.2926,"lon":5.38434,"is_reserved":false,"is_disabled":false,"rental_uris":{"android":"levelo://app?vid=ff1301e1-0d63-44b3-bce2-273444a65096","ios":"levelo://app?vid=ff1301e1-0d63-44b3-bce2-273444a65096"},"vehicle_type_id":"4","last_reported":1743711055,"current_range_meters":12400,"station_id":"ce4bh692rcd13ifvqea0","pricing_plan_id":"cebpf4jnsgd1na2vs0mg"},{"bike_id":"299e20c1-1dd9-48cb-aaaf-b9da564d5a05","system_id":"levelo_inurba_marseille","lat":43.3361,"lon":5.41036,"is_reserved":false,"is_disabled":false,"rental_uris":{"android":"levelo://app?vid=299e20c1-1dd9-48cb-aaaf-b9da564d5a05","ios":"levelo://app?vid=299e20c1-1dd9-48cb-aaaf-b9da564d5a05"},"vehicle_type_id":"4","last_reported":1743711055,"current_range_meters":12400,"station_id":"ce4bhqh2rcd13ifvqhmg","pricing_plan_id":"cebpf4jnsgd1na2vs0mg"},{"bike_id":"f1e5f20d-e5bb-4349-9a72-f7ab8a004414","system_id":"levelo_inurba_marseille","lat":43.30325,"lon":5.40441,"is_reserved":false,"is_disabled":true,"rental_uris":{"android":"levelo://app?vid=f1e5f20d-e5bb-4349-9a72-f7ab8a004414","ios":"levelo://app?vid=f1e5f20d-e5bb-4349-9a72-f7ab8a004414"},"vehicle_type_id":"4","last_reported":1743711055,"current_range_meters":12400,"station_id":"ce4bh012rcd13ifvqd10","pricing_plan_id":"cebpf4jnsgd1na2vs0mg"},{"bike_id":"2c64623e-68c9-45d8-8567-7859c8fa6ea0","system_id":"levelo_inurba_marseille","lat":43.28699,"lon":5.39985,"is_reserved":false,"is_disabled":false,"rental_uris":{"android":"levelo://app?vid=2c64623e-68c9-45d8-8567-7859c8fa6ea0","ios":"levelo://app?vid=2c64623e-68c9-45d8-8567-7859c8fa6ea0"},"vehicle_type_id":"4","last_reported":1743711055,"current_range_meters":12800,"station_id":"ce4bho92rcd13ifvqh3g","pricing_plan_id":"cebpf4jnsgd1na2vs0mg"},{"bike_id":"58ca22fb-77b9-4789-b9d9-7865abdbae86","system_id":"levelo_inurba_marseille","lat":43.28351,"lon":5.38096,"is_reserved":false,"is_disabled":false,"rental_uris":{"android":"levelo://app?vid=58ca22fb-77b9-4789-b9d9-7865abdbae86","ios":"levelo://app?vid=58ca22fb-77b9-4789-b9d9-7865abdbae86"},"vehicle_type_id":"4","last_reported":1743711055,"current_range_meters":12800,"station_id":"ce4bh412rcd13ifvqdr0","pricing_plan_id":"cebpf4jnsgd1na2vs0mg"},{"bike_id":"2907afc2-01ac-4aec-9b08-c3a75d8347bc","system_id":"levelo_inurba_marseille","lat":43.26226,"lon":5.40466,"is_reserved":false,"is_disabled":false,"rental_uris":{"android":"levelo://app?vid=2907afc2-01ac-4aec-9b08-c3a75d8347bc","ios":"levelo://app?vid=2907afc2-01ac-4aec-9b08-c3a75d8347bc"},"vehicle_type_id":"4","last_reported":1743711055,"current_range_meters":12800,"station_id":"ce4bhmh2rcd13ifvqgmg","pricing_plan_id":"cebpf4jnsgd1na2vs0mg"},{"bike_id":"0f30dc72-745c-4206-bc59-afb6cb600956","system_id":"levelo_inurba_marseille","lat":43.29906,"lon":5.48549,"is_reserved":false,"is_disabled":false,"rental_uris":{"android":"levelo://app?vid=0f30dc72-745c-4206-bc59-afb6cb600956","ios":"levelo://app?vid=0f30dc72-745c-4206-bc59-afb6cb600956"},"vehicle_type_id":"4","last_reported":1743711055,"current_range_meters":12800,"station_id":"","pricing_plan_id":"cebpf4jnsgd1na2vs0mg"},{"bike_id":"42f532f2-d7bd-4c2e-8810-585bc9998121","system_id":"levelo_inurba_marseille","lat":43.29267,"lon":5.38442,"is_reserved":false,"is_disabled":false,"rental_uris":{"android":"levelo://app?vid=42f532f2-d7bd-4c2e-8810-585bc9998121","ios":"levelo://app?vid=42f532f2-d7bd-4c2e-8810-585bc9998121"},"vehicle_type_id":"4","last_reported":1743711055,"current_range_meters":12800,"station_id":"ce4bh692rcd13ifvqea0","pricing_plan_id":"cebpf4jnsgd1na2vs0mg"},{"bike_id":"4463428e-f6c6-494a-931b-3e1bc5011a61","system_id":"levelo_inurba_marseille","lat":43.29243,"lon":5.38448,"is_reserved":false,"is_disabled":false,"rental_uris":{"android":"levelo://app?vid=4463428e-f6c6-494a-931b-3e1bc5011a61","ios":"levelo://app?vid=4463428e-f6c6-494a-931b-3e1bc5011a61"},"vehicle_type_id":"4","last_reported":1743711055,"current_range_meters":12800,"station_id":"ce4bh692rcd13ifvqea0","pricing_plan_id":"cebpf4jnsgd1na2vs0mg"},{"bike_id":"9d80da1b-975f-4ef1-a429-07c929862325","system_id":"levelo_inurba_marseille","lat":43.28661,"lon":5.3635,"is_reserved":false,"is_disabled":false,"rental_uris":{"android":"levelo://app?vid=9d80da1b-975f-4ef1-a429-07c929862325","ios":"levelo://app?vid=9d80da1b-975f-4ef1-a429-07c929862325"},"vehicle_type_id":"4","last_reported":1743711055,"current_range_meters":12400,"station_id":"ce4bhah2rcd13ifvqej0","pricing_plan_id":"cebpf4jnsgd1na2vs0mg"},{"bike_id":"65c86302-8ef0-46f4-ab6e-bac7149a2865","system_id":"levelo_inurba_marseille","lat":43.321,"lon":5.36771,"is_reserved":false,"is_disabled":false,"rental_uris":{"android":"levelo://app?vid=65c86302-8ef0-46f4-ab6e-bac7149a2865","ios":"levelo://app?vid=65c86302-8ef0-46f4-ab6e-bac7149a2865"},"vehicle_type_id":"4","last_reported":1743711055,"current_range_meters":12800,"station_id":"ce4bhrh2rcd13ifvqhug","pricing_plan_id":"cebpf4jnsgd1na2vs0mg"},{"bike_id":"74a13a18-430a-4f50-ba26-e7dfbad23482","system_id":"levelo_inurba_marseille","lat":43.23063,"lon":5.35499,"is_reserved":false,"is_disabled":false,"rental_uris":{"android":"levelo://app?vid=74a13a18-430a-4f50-ba26-e7dfbad23482","ios":"levelo://app?vid=74a13a18-430a-4f50-ba26-e7dfbad23482"},"vehicle_type_id":"4","last_reported":1743711055,"current_range_meters":12800,"station_id":"cpo3342slgdg3j2ifvpg","pricing_plan_id":"cebpf4jnsgd1na2vs0mg"},{"bike_id":"9396f31d-e485-4f45-a818-9888089b5bb6","system_id":"levelo_inurba_marseille","lat":43.23189,"lon":5.35567,"is_reserved":false,"is_disabled":false,"rental_uris":{"android":"levelo://app?vid=9396f31d-e485-4f45-a818-9888089b5bb6","ios":"levelo://app?vid=9396f31d-e485-4f45-a818-9888089b5bb6"},"vehicle_type_id":"4","last_reported":1743711055,"current_range_meters":12800,"station_id":"ce4bhu92rcd13ifvqi70","pricing_plan_id":"cebpf4jnsgd1na2vs0mg"},{"bike_id":"0da307f0-a737-4f3f-8786-4dd451d57e79","system_id":"levelo_inurba_marseille","lat":43.3084,"lon":5.36765,"is_reserved":false,"is_disabled":false,"rental_uris":{"android":"levelo://app?vid=0da307f0-a737-4f3f-8786-4dd451d57e79","ios":"levelo://app?vid=0da307f0-a737-4f3f-8786-4dd451d57e79"},"vehicle_type_id":"4","last_reported":1743711055,"current_range_meters":13600,"station_id":"","pricing_plan_id":"cebpf4jnsgd1na2vs0mg"},{"bike_id":"dc7ca0eb-2bff-499e-b598-32e5245c6538","system_id":"levelo_inurba_marseille","lat":43.31482,"lon":5.37298,"is_reserved":false,"is_disabled":false,"rental_uris":{"android":"levelo://app?vid=dc7ca0eb-2bff-499e-b598-32e5245c6538","ios":"levelo://app?vid=dc7ca0eb-2bff-499e-b598-32e5245c6538"},"vehicle_type_id":"4","last_reported":1743711055,"current_range_meters":12800,"station_id":"ce4bgt12rcd13ifvqcd0","pricing_plan_id":"cebpf4jnsgd1na2vs0mg"},{"bike_id":"ed034283-1492-4da7-9409-35bdead80f30","system_id":"levelo_inurba_marseille","lat":43.30137,"lon":5.3878,"is_reserved":false,"is_disabled":true,"rental_uris":{"android":"levelo://app?vid=ed034283-1492-4da7-9409-35bdead80f30","ios":"levelo://app?vid=ed034283-1492-4da7-9409-35bdead80f30"},"vehicle_type_id":"4","last_reported":1743711055,"current_range_meters":13600,"station_id":"ce4bghh2rcd13ifvqb60","pricing_plan_id":"cebpf4jnsgd1na2vs0mg"},{"bike_id":"19224d95-e048-4cbb-8884-43e0e6b3db9b","system_id":"levelo_inurba_marseille","lat":43.29881,"lon":5.39728,"is_reserved":false,"is_disabled":true,"rental_uris":{"android":"levelo://app?vid=19224d95-e048-4cbb-8884-43e0e6b3db9b","ios":"levelo://app?vid=19224d95-e048-4cbb-8884-43e0e6b3db9b"},"vehicle_type_id":"4","last_reported":1743711055,"current_range_meters":13600,"station_id":"ce4bh0h2rcd13ifvqd50","pricing_plan_id":"cebpf4jnsgd1na2vs0mg"},{"bike_id":"d9d6efbc-ee32-4abf-81ff-9e85f7c89a97","system_id":"levelo_inurba_marseille","lat":43.29973,"lon":5.37176,"is_reserved":false,"is_disabled":false,"rental_uris":{"android":"levelo://app?vid=d9d6efbc-ee32-4abf-81ff-9e85f7c89a97","ios":"levelo://app?vid=d9d6efbc-ee32-4abf-81ff-9e85f7c89a97"},"vehicle_type_id":"4","last_reported":1743711055,"current_range_meters":13600,"station_id":"ce4bgr92rcd13ifvqc7g","pricing_plan_id":"cebpf4jnsgd1na2vs0mg"},{"bike_id":"535f10f7-05c6-40e9-a314-71b0f673eef1","system_id":"levelo_inurba_marseille","lat":43.287201,"lon":5.360786,"is_reserved":false,"is_disabled":false,"rental_uris":{"android":"levelo://app?vid=535f10f7-05c6-40e9-a314-71b0f673eef1","ios":"levelo://app?vid=535f10f7-05c6-40e9-a314-71b0f673eef1"},"vehicle_type_id":"4","last_reported":1743711055,"current_range_meters":13600,"station_id":"cki0cbj6b192h4jlfktg","pricing_plan_id":"cebpf4jnsgd1na2vs0mg"},{"bike_id":"4d24834d-fe19-450f-a44f-80f05a555ede","system_id":"levelo_inurba_marseille","lat":43.29882,"lon":5.38894,"is_reserved":false,"is_disabled":false,"rental_uris":{"android":"levelo://app?vid=4d24834d-fe19-450f-a44f-80f05a555ede","ios":"levelo://app?vid=4d24834d-fe19-450f-a44f-80f05a555ede"},"vehicle_type_id":"4","last_reported":1743711055,"current_range_meters":13600,"station_id":"ce4bh392rcd13ifvqdl0","pricing_plan_id":"cebpf4jnsgd1na2vs0mg"},{"bike_id":"3a0b0f90-790c-4160-b50c-b4d5547d0490","system_id":"levelo_inurba_marseille","lat":43.30372,"lon":5.42481,"is_reserved":false,"is_disabled":false,"rental_uris":{"android":"levelo://app?vid=3a0b0f90-790c-4160-b50c-b4d5547d0490","ios":"levelo://app?vid=3a0b0f90-790c-4160-b50c-b4d5547d0490"},"vehicle_type_id":"4","last_reported":1743711055,"current_range_meters":14000,"station_id":"ce4bhoh2rcd13ifvqh6g","pricing_plan_id":"cebpf4jnsgd1na2vs0mg"},{"bike_id":"6bca0a29-b040-49bc-b07b-918965c53d85","system_id":"levelo_inurba_marseille","lat":43.28942,"lon":5.36394,"is_reserved":false,"is_disabled":false,"rental_uris":{"android":"levelo://app?vid=6bca0a29-b040-49bc-b07b-918965c53d85","ios":"levelo://app?vid=6bca0a29-b040-49bc-b07b-918965c53d85"},"vehicle_type_id":"4","last_reported":1743711055,"current_range_meters":14000,"station_id":"ce4bhc92rcd13ifvqetg","pricing_plan_id":"cebpf4jnsgd1na2vs0mg"},{"bike_id":"8357a04c-a6ab-43c0-8732-2e79a23e3c2a","system_id":"levelo_inurba_marseille","lat":43.30795,"lon":5.43541,"is_reserved":false,"is_disabled":false,"rental_uris":{"android":"levelo://app?vid=8357a04c-a6ab-43c0-8732-2e79a23e3c2a","ios":"levelo://app?vid=8357a04c-a6ab-43c0-8732-2e79a23e3c2a"},"vehicle_type_id":"4","last_reported":1743711055,"current_range_meters":14000,"station_id":"ce4bhph2rcd13ifvqheg","pricing_plan_id":"cebpf4jnsgd1na2vs0mg"},{"bike_id":"efed0187-4a0a-41f7-9431-fc326b620bac","system_id":"levelo_inurba_marseille","lat":43.24662,"lon":5.38164,"is_reserved":false,"is_disabled":false,"rental_uris":{"android":"levelo://app?vid=efed0187-4a0a-41f7-9431-fc326b620bac","ios":"levelo://app?vid=efed0187-4a0a-41f7-9431-fc326b620bac"},"vehicle_type_id":"4","last_reported":1743711055,"current_range_meters":14000,"station_id":"ce4bhih2rcd13ifvqfr0","pricing_plan_id":"cebpf4jnsgd1na2vs0mg"},{"bike_id":"42fadadd-58be-41f7-96ef-7397eccf4964","system_id":"levelo_inurba_marseille","lat":43.29423,"lon":5.3863,"is_reserved":false,"is_disabled":false,"rental_uris":{"android":"levelo://app?vid=42fadadd-58be-41f7-96ef-7397eccf4964","ios":"levelo://app?vid=42fadadd-58be-41f7-96ef-7397eccf4964"},"vehicle_type_id":"4","last_reported":1743711055,"current_range_meters":14000,"station_id":"ce4bh2h2rcd13ifvqdh0","pricing_plan_id":"cebpf4jnsgd1na2vs0mg"},{"bike_id":"758c2355-846a-4f3d-bcd8-eac4b3145cd6","system_id":"levelo_inurba_marseille","lat":43.23193,"lon":5.35586,"is_reserved":false,"is_disabled":false,"rental_uris":{"android":"levelo://app?vid=758c2355-846a-4f3d-bcd8-eac4b3145cd6","ios":"levelo://app?vid=758c2355-846a-4f3d-bcd8-eac4b3145cd6"},"vehicle_type_id":"4","last_reported":1743711055,"current_range_meters":14000,"station_id":"ce4bhu92rcd13ifvqi70","pricing_plan_id":"cebpf4jnsgd1na2vs0mg"},{"bike_id":"266c3b32-3559-493d-8f0a-9a6f7ea354d8","system_id":"levelo_inurba_marseille","lat":43.29412,"lon":5.38633,"is_reserved":false,"is_disabled":false,"rental_uris":{"android":"levelo://app?vid=266c3b32-3559-493d-8f0a-9a6f7ea354d8","ios":"levelo://app?vid=266c3b32-3559-493d-8f0a-9a6f7ea354d8"},"vehicle_type_id":"4","last_reported":1743711055,"current_range_meters":14000,"station_id":"ce4bh2h2rcd13ifvqdh0","pricing_plan_id":"cebpf4jnsgd1na2vs0mg"},{"bike_id":"1423e46b-aad1-4364-87cd-e9ef81c7fd9e","system_id":"levelo_inurba_marseille","lat":43.28161,"lon":5.4265,"is_reserved":false,"is_disabled":false,"rental_uris":{"android":"levelo://app?vid=1423e46b-aad1-4364-87cd-e9ef81c7fd9e","ios":"levelo://app?vid=1423e46b-aad1-4364-87cd-e9ef81c7fd9e"},"vehicle_type_id":"4","last_reported":1743711055,"current_range_meters":14000,"station_id":"ce4bhnh2rcd13ifvqgug","pricing_plan_id":"cebpf4jnsgd1na2vs0mg"},{"bike_id":"125b459e-6216-4283-9453-b4a09f7291d5","system_id":"levelo_inurba_marseille","lat":43.2954,"lon":5.42281,"is_reserved":false,"is_disabled":false,"rental_uris":{"android":"levelo://app?vid=125b459e-6216-4283-9453-b4a09f7291d5","ios":"levelo://app?vid=125b459e-6216-4283-9453-b4a09f7291d5"},"vehicle_type_id":"4","last_reported":1743711055,"current_range_meters":14000,"station_id":"ce4bhph2rcd13ifvqhdg","pricing_plan_id":"cebpf4jnsgd1na2vs0mg"},{"bike_id":"4e780dba-3e73-4663-a154-434733b18af4","system_id":"levelo_inurba_marseille","lat":43.28688,"lon":5.37394,"is_reserved":false,"is_disabled":false,"rental_uris":{"android":"levelo://app?vid=4e780dba-3e73-4663-a154-434733b18af4","ios":"levelo://app?vid=4e780dba-3e73-4663-a154-434733b18af4"},"vehicle_type_id":"4","last_reported":1743711055,"current_range_meters":14000,"station_id":"ce4bh3p2rcd13ifvqdq0","pricing_plan_id":"cebpf4jnsgd1na2vs0mg"},{"bike_id":"821620e4-ad6d-4bf4-9100-664ee25fd19f","system_id":"levelo_inurba_marseille","lat":43.29428,"lon":5.3862,"is_reserved":false,"is_disabled":false,"rental_uris":{"android":"levelo://app?vid=821620e4-ad6d-4bf4-9100-664ee25fd19f","ios":"levelo://app?vid=821620e4-ad6d-4bf4-9100-664ee25fd19f"},"vehicle_type_id":"4","last_reported":1743711055,"current_range_meters":14400,"station_id":"ce4bh2h2rcd13ifvqdh0","pricing_plan_id":"cebpf4jnsgd1na2vs0mg"},{"bike_id":"fb348b09-6abb-47a4-a266-91f2eeaee291","system_id":"levelo_inurba_marseille","lat":43.32109,"lon":5.36772,"is_reserved":false,"is_disabled":false,"rental_uris":{"android":"levelo://app?vid=fb348b09-6abb-47a4-a266-91f2eeaee291","ios":"levelo://app?vid=fb348b09-6abb-47a4-a266-91f2eeaee291"},"vehicle_type_id":"4","last_reported":1743711055,"current_range_meters":14400,"station_id":"ce4bhrh2rcd13ifvqhug","pricing_plan_id":"cebpf4jnsgd1na2vs0mg"},{"bike_id":"81f4fa39-fcae-4eb6-936b-4c640b5dd88e","system_id":"levelo_inurba_marseille","lat":43.23959,"lon":5.36624,"is_reserved":false,"is_disabled":false,"rental_uris":{"android":"levelo://app?vid=81f4fa39-fcae-4eb6-936b-4c640b5dd88e","ios":"levelo://app?vid=81f4fa39-fcae-4eb6-936b-4c640b5dd88e"},"vehicle_type_id":"4","last_reported":1743711055,"current_range_meters":14400,"station_id":"ce4bhi12rcd13ifvqfp0","pricing_plan_id":"cebpf4jnsgd1na2vs0mg"},{"bike_id":"aab85d2a-da53-45c7-ae9c-554ffa706d4a","system_id":"levelo_inurba_marseille","lat":43.28432,"lon":5.3751,"is_reserved":false,"is_disabled":false,"rental_uris":{"android":"levelo://app?vid=aab85d2a-da53-45c7-ae9c-554ffa706d4a","ios":"levelo://app?vid=aab85d2a-da53-45c7-ae9c-554ffa706d4a"},"vehicle_type_id":"4","last_reported":1743711055,"current_range_meters":14400,"station_id":"ce4bh412rcd13ifvqds0","pricing_plan_id":"cebpf4jnsgd1na2vs0mg"},{"bike_id":"49f0c2c4-fbb1-4288-b9de-418cfa539fef","system_id":"levelo_inurba_marseille","lat":43.27898,"lon":5.38019,"is_reserved":false,"is_disabled":false,"rental_uris":{"android":"levelo://app?vid=49f0c2c4-fbb1-4288-b9de-418cfa539fef","ios":"levelo://app?vid=49f0c2c4-fbb1-4288-b9de-418cfa539fef"},"vehicle_type_id":"4","last_reported":1743711055,"current_range_meters":14000,"station_id":"ce4bhf92rcd13ifvqf50","pricing_plan_id":"cebpf4jnsgd1na2vs0mg"},{"bike_id":"b82bba1a-8c72-4058-95d3-7a18eb5187df","system_id":"levelo_inurba_marseille","lat":43.30092,"lon":5.39072,"is_reserved":false,"is_disabled":false,"rental_uris":{"android":"levelo://app?vid=b82bba1a-8c72-4058-95d3-7a18eb5187df","ios":"levelo://app?vid=b82bba1a-8c72-4058-95d3-7a18eb5187df"},"vehicle_type_id":"4","last_reported":1743711055,"current_range_meters":14400,"station_id":"ce4bh192rcd13ifvqdb0","pricing_plan_id":"cebpf4jnsgd1na2vs0mg"},{"bike_id":"acebd640-791e-4ad8-9797-29796472b080","system_id":"levelo_inurba_marseille","lat":43.32655,"lon":5.40999,"is_reserved":false,"is_disabled":false,"rental_uris":{"android":"levelo://app?vid=acebd640-791e-4ad8-9797-29796472b080","ios":"levelo://app?vid=acebd640-791e-4ad8-9797-29796472b080"},"vehicle_type_id":"4","last_reported":1743711055,"current_range_meters":14000,"station_id":"ce4bhpp2rcd13ifvqhgg","pricing_plan_id":"cebpf4jnsgd1na2vs0mg"},{"bike_id":"66c2c0a7-7a5f-4c50-82a3-05307676e3ea","system_id":"levelo_inurba_marseille","lat":43.3031,"lon":5.36882,"is_reserved":false,"is_disabled":false,"rental_uris":{"android":"levelo://app?vid=66c2c0a7-7a5f-4c50-82a3-05307676e3ea","ios":"levelo://app?vid=66c2c0a7-7a5f-4c50-82a3-05307676e3ea"},"vehicle_type_id":"4","last_reported":1743711055,"current_range_meters":14400,"station_id":"ce4bgqh2rcd13ifvqc5g","pricing_plan_id":"cebpf4jnsgd1na2vs0mg"},{"bike_id":"880a2ca1-013b-4838-92d2-98d3f54434e1","system_id":"levelo_inurba_marseille","lat":43.26778,"lon":5.39417,"is_reserved":false,"is_disabled":true,"rental_uris":{"android":"levelo://app?vid=880a2ca1-013b-4838-92d2-98d3f54434e1","ios":"levelo://app?vid=880a2ca1-013b-4838-92d2-98d3f54434e1"},"vehicle_type_id":"4","last_reported":1743711055,"current_range_meters":14800,"station_id":"ce4bhh12rcd13ifvqfg0","pricing_plan_id":"cebpf4jnsgd1na2vs0mg"},{"bike_id":"c4e5b13a-dcda-49a8-8f79-7a1067389736","system_id":"levelo_inurba_marseille","lat":43.28333,"lon":5.38104,"is_reserved":false,"is_disabled":false,"rental_uris":{"android":"levelo://app?vid=c4e5b13a-dcda-49a8-8f79-7a1067389736","ios":"levelo://app?vid=c4e5b13a-dcda-49a8-8f79-7a1067389736"},"vehicle_type_id":"4","last_reported":1743711055,"current_range_meters":14800,"station_id":"ce4bh412rcd13ifvqdr0","pricing_plan_id":"cebpf4jnsgd1na2vs0mg"},{"bike_id":"dfd8fc12-4848-45bd-a773-42cc34e62942","system_id":"levelo_inurba_marseille","lat":43.28853,"lon":5.35845,"is_reserved":false,"is_disabled":false,"rental_uris":{"android":"levelo://app?vid=dfd8fc12-4848-45bd-a773-42cc34e62942","ios":"levelo://app?vid=dfd8fc12-4848-45bd-a773-42cc34e62942"},"vehicle_type_id":"4","last_reported":1743711055,"current_range_meters":14400,"station_id":"ce4bhb12rcd13ifvqem0","pricing_plan_id":"cebpf4jnsgd1na2vs0mg"},{"bike_id":"bd1c6b46-4ab6-49fb-9282-e990dea0e8f6","system_id":"levelo_inurba_marseille","lat":43.3177,"lon":5.39016,"is_reserved":false,"is_disabled":false,"rental_uris":{"android":"levelo://app?vid=bd1c6b46-4ab6-49fb-9282-e990dea0e8f6","ios":"levelo://app?vid=bd1c6b46-4ab6-49fb-9282-e990dea0e8f6"},"vehicle_type_id":"4","last_reported":1743711055,"current_range_meters":14800,"station_id":"ce4bhqp2rcd13ifvqhng","pricing_plan_id":"cebpf4jnsgd1na2vs0mg"},{"bike_id":"6bac6ef0-4f2d-414c-a951-8475db210d61","system_id":"levelo_inurba_marseille","lat":43.26497,"lon":5.39531,"is_reserved":false,"is_disabled":false,"rental_uris":{"android":"levelo://app?vid=6bac6ef0-4f2d-414c-a951-8475db210d61","ios":"levelo://app?vid=6bac6ef0-4f2d-414c-a951-8475db210d61"},"vehicle_type_id":"4","last_reported":1743711055,"current_range_meters":14800,"station_id":"ce4bhi12rcd13ifvqfq0","pricing_plan_id":"cebpf4jnsgd1na2vs0mg"},{"bike_id":"d53ddd9a-7629-4f22-9d29-8ac89e99a37b","system_id":"levelo_inurba_marseille","lat":43.25728,"lon":5.41108,"is_reserved":false,"is_disabled":false,"rental_uris":{"android":"levelo://app?vid=d53ddd9a-7629-4f22-9d29-8ac89e99a37b","ios":"levelo://app?vid=d53ddd9a-7629-4f22-9d29-8ac89e99a37b"},"vehicle_type_id":"4","last_reported":1743711055,"current_range_meters":14400,"station_id":"ce4bhkp2rcd13ifvqgd0","pricing_plan_id":"cebpf4jnsgd1na2vs0mg"},{"bike_id":"93c4d539-5a26-452d-932b-a9b403a887d2","system_id":"levelo_inurba_marseille","lat":43.29966,"lon":5.38069,"is_reserved":false,"is_disabled":true,"rental_uris":{"android":"levelo://app?vid=93c4d539-5a26-452d-932b-a9b403a887d2","ios":"levelo://app?vid=93c4d539-5a26-452d-932b-a9b403a887d2"},"vehicle_type_id":"4","last_reported":1743711055,"current_range_meters":15200,"station_id":"","pricing_plan_id":"cebpf4jnsgd1na2vs0mg"},