{"last_updated":1718730434,"ttl":30,"version":"2.2","data":{"bikes":[{"bike_id":"3b1bf77f-94f5-4843-9c1f-f5be9db08193","system_id":"levelo_inurba_marseille","lat":43.31506,"lon":5.37124,"is_reserved":false,"is_disabled":false,"rental_uris":{"android":"levelo://app?vid=3b1bf77f-94f5-4843-9c1f-f5be9db08193","ios":"levelo://app?vid=3b1bf77f-94f5-4843-9c1f-f5be9db08193"},"vehicle_type_id":"4","last_reported":1718730434,"current_range_meters":16400,"station_id":"","pricing_plan_id":"cebpf4jnsgd1na2vs0mg"},{"bike_id":"e0950f2d-e952-4dcc-9004-bf663a7ddc2b","system_id":"levelo_inurba_marseille","lat":43.309034,"lon":5.371783,"is_reserved":false,"is_disabled":false,"rental_uris":{"android":"levelo://app?vid=e0950f2d-e952-4dcc-9004-bf663a7ddc2b","ios":"levelo://app?vid=e0950f2d-e952-4dcc-9004-bf663a7ddc2b"},"vehicle_type_id":"4","last_reported":1718730434,"current_range_meters":31200,"station_id":"ce4bguh2rcd13ifvqckg","pricing_plan_id":"cebpf4jnsgd1na2vs0mg"},{"bike_id":"e1cc12e0-af2f-471c-8f2f-046b10b397c1","system_id":"levelo_inurba_marseille","lat":43.309034,"lon":5.371783,"is_reserved":false,"is_disabled":false,"rental_uris":{"android":"levelo://app?vid=e1cc12e0-af2f-471c-8f2f-046b10b397c1","ios":"levelo://app?vid=e1cc12e0-af2f-471c-8f2f-046b10b397c1"},"vehicle_type_id":"4","last_reported":1718730434,"current_range_meters":0,"station_id":"ce4bguh2rcd13ifvqckg","pricing_plan_id":"cebpf4jnsgd1na2vs0mg"},{"bike_id":"0c0ce760-77d7-4e50-bea3-a6eb09e74fdf","system_id":"levelo_inurba_marseille","lat":43.309034,"lon":5.371783,"is_reserved":false,"is_disabled":false,"rental_uris":{"android":"levelo://app?vid=0c0ce760-77d7-4e50-bea3-a6eb09e74fdf","ios":"levelo://app?vid=0c0ce760-77d7-4e50-bea3-a6eb09e74fdf"},"vehicle_type_id":"4","last_reported":1718730434,"current_range_meters":30800,"station_id":"ce4bguh2rcd13ifvqckg","pricing_plan_id":"cebpf4jnsgd1na2vs0mg"},{"bike_id":"dc0002b9-c31a-4fb2-85a3-e56b5a206ef5","system_id":"levelo_inurba_marseille","lat":43.313777,"lon":5.374207,"is_reserved":false,"is_disabled":false,"rental_uris":{"android":"levelo://app?vid=dc0002b9-c31a-4fb2-85a3-e56b5a206ef5","ios":"levelo://app?vid=dc0002b9-c31a-4fb2-85a3-e56b5a206ef5"},"vehicle_type_id":"4","last_reported":1718730434,"current_range_meters":15600,"station_id":"","pricing_plan_id":"cebpf4jnsgd1na2vs0mg"},{"bike_id":"90599dcc-4dba-4c01-9d35-0e6f2e550c5b","system_id":"levelo_inurba_marseille","lat":43.31391,"lon":5.37524,"is_reserved":false,"is_disabled":false,"rental_uris":{"android":"levelo://app?vid=90599dcc-4dba-4c01-9d35-0e6f2e550c5b","ios":"levelo://app?vid=90599dcc-4dba-4c01-9d35-0e6f2e550c5b"},"vehicle_type_id":"4","last_reported":1718730434,"current_range_meters":0,"station_id":"","pricing_plan_id":"cebpf4jnsgd1na2vs0mg"},{"bike_id":"a8d3e8ee-fd81-4120-b271-7ca5d0393f0d","system_id":"levelo_inurba_marseille","lat":43.305989,"lon":5.37225,"is_reserved":false,"is_disabled":false,"rental_uris":{"android":"levelo://app?vid=a8d3e8ee-fd81-4120-b271-7ca5d0393f0d","ios":"levelo://app?vid=a8d3e8ee-fd81-4120-b271-7ca5d0393f0d"},"vehicle_type_id":"4","last_reported":1718730434,"current_range_meters":4400,"station_id":"ce4bgqh2rcd13ifvqc4g","pricing_plan_id":"cebpf4jnsgd1na2vs0mg"},{"bike_id":"679596a2-3ee1-49a4-b36d-9747bf3c75e3","system_id":"levelo_inurba_marseille","lat":43.305989,"lon":5.37225,"is_reserved":false,"is_disabled":false,"rental_uris":{"android":"levelo://app?vid=679596a2-3ee1-49a4-b36d-9747bf3c75e3","ios":"levelo://app?vid=679596a2-3ee1-49a4-b36d-9747bf3c75e3"},"vehicle_type_id":"4","last_reported":1718730434,"current_range_meters":17600,"station_id":"ce4bgqh2rcd13ifvqc4g","pricing_plan_id":"cebpf4jnsgd1na2vs0mg"},{"bike_id":"d3f9c4fa-648c-4151-9733-b733c951696f","system_id":"levelo_inurba_marseille","lat":43.31116,"lon":5.37758,"is_reserved":false,"is_disabled":false,"rental_uris":{"android":"levelo://app?vid=d3f9c4fa-648c-4151-9733-b733c951696f","ios":"levelo://app?vid=d3f9c4fa-648c-4151-9733-b733c951696f"},"vehicle_type_id":"4","last_reported":1718730434,"current_range_meters":0,"station_id":"ce4bgt92rcd13ifvqcg0","pricing_plan_id":"cebpf4jnsgd1na2vs0mg"},{"bike_id":"5eb3f0ce-9032-4da7-8e1a-45fb7c261c50","system_id":"levelo_inurba_marseille","lat":43.311125,"lon":5.377624,"is_reserved":false,"is_disabled":false,"rental_uris":{"android":"levelo://app?vid=5eb3f0ce-9032-4da7-8e1a-45fb7c261c50","ios":"levelo://app?vid=5eb3f0ce-9032-4da7-8e1a-45fb7c261c50"},"vehicle_type_id":"4","last_reported":1718730434,"current_range_meters":1600,"station_id":"ce4bgt92rcd13ifvqcg0","pricing_plan_id":"cebpf4jnsgd1na2vs0mg"},{"bike_id":"f506806c-db51-43c9-9ce1-a8f4316813e3","system_id":"levelo_inurba_marseille","lat":43.311131,"lon":5.377651,"is_reserved":false,"is_disabled":false,"rental_uris":{"android":"levelo://app?vid=f506806c-db51-43c9-9ce1-a8f4316813e3","ios":"levelo://app?vid=f506806c-db51-43c9-9ce1-a8f4316813e3"},"vehicle_type_id":"4","last_reported":1718730434,"current_range_meters":30000,"station_id":"ce4bgt92rcd13ifvqcg0","pricing_plan_id":"cebpf4jnsgd1na2vs0mg"},{"bike_id":"76611d59-226f-4647-9dec-24863a20c8f0","system_id":"levelo_inurba_marseille","lat":43.32013,"lon":5.37157,"is_reserved":false,"is_disabled":false,"rental_uris":{"android":"levelo://app?vid=76611d59-226f-4647-9dec-24863a20c8f0","ios":"levelo://app?vid=76611d59-226f-4647-9dec-24863a20c8f0"},"vehicle_type_id":"4","last_reported":1718730434,"current_range_meters":29600,"station_id":"","pricing_plan_id":"cebpf4jnsgd1na2vs0mg"},{"bike_id":"be1fd26b-b639-4dea-aa74-f1003f411236","system_id":"levelo_inurba_marseille","lat":43.304537,"lon":5.368397,"is_reserved":false,"is_disabled":false,"rental_uris":{"android":"levelo://app?vid=be1fd26b-b639-4dea-aa74-f1003f411236","ios":"levelo://app?vid=be1fd26b-b639-4dea-aa74-f1003f411236"},"vehicle_type_id":"4","last_reported":1718730434,"current_range_meters":2400,"station_id":"","pricing_plan_id":"cebpf4jnsgd1na2vs0mg"},{"bike_id":"ff87c882-84bd-448e-9175-d25fb26801fa","system_id":"levelo_inurba_marseille","lat":43.307945,"lon":5.376487,"is_reserved":false,"is_disabled":false,"rental_uris":{"android":"levelo://app?vid=ff87c882-84bd-448e-9175-d25fb26801fa","ios":"levelo://app?vid=ff87c882-84bd-448e-9175-d25fb26801fa"},"vehicle_type_id":"4","last_reported":1718730434,"current_range_meters":0,"station_id":"ce4bgv92rcd13ifvqcq0","pricing_plan_id":"cebpf4jnsgd1na2vs0mg"},{"bike_id":"e82c8cb1-f9a5-4c38-adb3-36bdaf3f376f","system_id":"levelo_inurba_marseille","lat":43.307945,"lon":5.376487,"is_reserved":false,"is_disabled":false,"rental_uris":{"android":"levelo://app?vid=e82c8cb1-f9a5-4c38-adb3-36bdaf3f376f","ios":"levelo://app?vid=e82c8cb1-f9a5-4c38-adb3-36bdaf3f376f"},"vehicle_type_id":"4","last_reported":1718730434,"current_range_meters":6000,"station_id":"ce4bgv92rcd13ifvqcq0","pricing_plan_id":"cebpf4jnsgd1na2vs0mg"},{"bike_id":"bf05858c-2bc9-4cf6-a75a-40bc1d9d92fb","system_id":"levelo_inurba_marseille","lat":43.315289,"lon":5.380349,"is_reserved":false,"is_disabled":false,"rental_uris":{"android":"levelo://app?vid=bf05858c-2bc9-4cf6-a75a-40bc1d9d92fb","ios":"levelo://app?vid=bf05858c-2bc9-4cf6-a75a-40bc1d9d92fb"},"vehicle_type_id":"4","last_reported":1718730434,"current_range_meters":20000,"station_id":"ce4bhsp2rcd13ifvqi50","pricing_plan_id":"cebpf4jnsgd1na2vs0mg"},{"bike_id":"fd682138-ed00-4c91-a851-09d4eb85a943","system_id":"levelo_inurba_marseille","lat":43.315289,"lon":5.380349,"is_reserved":false,"is_disabled":false,"rental_uris":{"android":"levelo://app?vid=fd682138-ed00-4c91-a851-09d4eb85a943","ios":"levelo://app?vid=fd682138-ed00-4c91-a851-09d4eb85a943"},"vehicle_type_id":"4","last_reported":1718730434,"current_range_meters":8400,"station_id":"ce4bhsp2rcd13ifvqi50","pricing_plan_id":"cebpf4jnsgd1na2vs0mg"},{"bike_id":"58a089f0-b83d-47ae-8150-57ad2e6202bc","system_id":"levelo_inurba_marseille","lat":43.301939,"lon":5.366286,"is_reserved":false,"is_disabled":false,"rental_uris":{"android":"levelo://app?vid=58a089f0-b83d-47ae-8150-57ad2e6202bc","ios":"levelo://app?vid=58a089f0-b83d-47ae-8150-57ad2e6202bc"},"vehicle_type_id":"4","last_reported":1718730434,"current_range_meters":12400,"station_id":"ce4bgrh2rcd13ifvqc8g","pricing_plan_id":"cebpf4jnsgd1na2vs0mg"},{"bike_id":"b0ebf5e1-d6bd-4520-b96e-3d347ed575ea","system_id":"levelo_inurba_marseille","lat":43.308012,"lon":5.381511,"is_reserved":false,"is_disabled":false,"rental_uris":{"android":"levelo://app?vid=b0ebf5e1-d6bd-4520-b96e-3d347ed575ea","ios":"levelo://app?vid=b0ebf5e1-d6bd-4520-b96e-3d347ed575ea"},"vehicle_type_id":"4","last_reported":1718730434,"current_range_meters":30800,"station_id":"ce4bgt12rcd13ifvqce0","pricing_plan_id":"cebpf4jnsgd1na2vs0mg"},{"bike_id":"82ac417f-567f-4e62-a0c6-dd492d83909f","system_id":"levelo_inurba_marseille","lat":43.304606,"lon":5.379026,"is_reserved":false,"is_disabled":false,"rental_uris":{"android":"levelo://app?vid=82ac417f-567f-4e62-a0c6-dd492d83909f","ios":"levelo://app?vid=82ac417f-567f-4e62-a0c6-dd492d83909f"},"vehicle_type_id":"4","last_reported":1718730434,"current_range_meters":8000,"station_id":"ce4bgup2rcd13ifvqcn0","pricing_plan_id":"cebpf4jnsgd1na2vs0mg"},{"bike_id":"536cde55-0231-4ebc-bdf2-be4c6aeceab3","system_id":"levelo_inurba_marseille","lat":43.324771,"lon":5.36557,"is_reserved":false,"is_disabled":false,"rental_uris":{"android":"levelo://app?vid=536cde55-0231-4ebc-bdf2-be4c6aeceab3","ios":"levelo://app?vid=536cde55-0231-4ebc-bdf2-be4c6aeceab3"},"vehicle_type_id":"4","last_reported":1718730434,"current_range_meters":30400,"station_id":"ce4bhs12rcd13ifvqhvg","pricing_plan_id":"cebpf4jnsgd1na2vs0mg"},{"bike_id":"d38fc8fa-58ac-4693-b4da-b957b8a88541","system_id":"levelo_inurba_marseille","lat":43.32488,"lon":5.36562,"is_reserved":false,"is_disabled":false,"rental_uris":{"android":"levelo://app?vid=d38fc8fa-58ac-4693-b4da-b957b8a88541","ios":"levelo://app?vid=d38fc8fa-58ac-4693-b4da-b957b8a88541"},"vehicle_type_id":"4","last_reported":1718730434,"current_range_meters":25200,"station_id":"ce4bhs12rcd13ifvqhvg","pricing_plan_id":"cebpf4jnsgd1na2vs0mg"},{"bike_id":"d6e2233e-cdd2-45de-8193-f1031649c857","system_id":"levelo_inurba_marseille","lat":43.302784,"lon":5.377158,"is_reserved":false,"is_disabled":false,"rental_uris":{"android":"levelo://app?vid=d6e2233e-cdd2-45de-8193-f1031649c857","ios":"levelo://app?vid=d6e2233e-cdd2-45de-8193-f1031649c857"},"vehicle_type_id":"4","last_reported":1718730434,"current_range_meters":14400,"station_id":"ce4bguh2rcd13ifvqcj0","pricing_plan_id":"cebpf4jnsgd1na2vs0mg"},{"bike_id":"73f073f8-f0d6-444b-8295-56bb21838c8b","system_id":"levelo_inurba_marseille","lat":43.299724,"lon":5.371829,"is_reserved":false,"is_disabled":false,"rental_uris":{"android":"levelo://app?vid=73f073f8-f0d6-444b-8295-56bb21838c8b","ios":"levelo://app?vid=73f073f8-f0d6-444b-8295-56bb21838c8b"},"vehicle_type_id":"4","last_reported":1718730434,"current_range_meters":31200,"station_id":"ce4bgr92rcd13ifvqc7g","pricing_plan_id":"cebpf4jnsgd1na2vs0mg"},{"bike_id":"9d2324b8-ec86-4778-bb5d-847269eff428","system_id":"levelo_inurba_marseille","lat":43.311722,"lon":5.387247,"is_reserved":false,"is_disabled":false,"rental_uris":{"android":"levelo://app?vid=9d2324b8-ec86-4778-bb5d-847269eff428","ios":"levelo://app?vid=9d2324b8-ec86-4778-bb5d-847269eff428"},"vehicle_type_id":"4","last_reported":1718730434,"current_range_meters":27600,"station_id":"ce4bgv12rcd13ifvqcp0","pricing_plan_id":"cebpf4jnsgd1na2vs0mg"},{"bike_id":"3394914c-a530-40a1-944a-aca85a5c29e7","system_id":"levelo_inurba_marseille","lat":43.311722,"lon":5.387247,"is_reserved":false,"is_disabled":false,"rental_uris":{"android":"levelo://app?vid=3394914c-a530-40a1-944a-aca85a5c29e7","ios":"levelo://app?vid=3394914c-a530-40a1-944a-aca85a5c29e7"},"vehicle_type_id":"4","last_reported":1718730434,"current_range_meters":8400,"station_id":"ce4bgv12rcd13ifvqcp0","pricing_plan_id":"cebpf4jnsgd1na2vs0mg"},{"bike_id":"6c531d3f-6b86-4ec4-a6f2-02fc9a38c174","system_id":"levelo_inurba_marseille","lat":43.297774,"lon":5.370875,"is_reserved":false,"is_disabled":false,"rental_uris":{"android":"levelo://app?vid=6c531d3f-6b86-4ec4-a6f2-02fc9a38c174","ios":"levelo://app?vid=6c531d3f-6b86-4ec4-a6f2-02fc9a38c174"},"vehicle_type_id":"4","last_reported":1718730434,"current_range_meters":4400,"station_id":"ce4bgop2rcd13ifvqc1g","pricing_plan_id":"cebpf4jnsgd1na2vs0mg"},{"bike_id":"58c633ee-c106-451d-88ca-4fc810197566","system_id":"levelo_inurba_marseille","lat":43.29776,"lon":5.37095,"is_reserved":false,"is_disabled":false,"rental_uris":{"android":"levelo://app?vid=58c633ee-c106-451d-88ca-4fc810197566","ios":"levelo://app?vid=58c633ee-c106-451d-88ca-4fc810197566"},"vehicle_type_id":"4","last_reported":1718730434,"current_range_meters":0,"station_id":"ce4bgop2rcd13ifvqc1g","pricing_plan_id":"cebpf4jnsgd1na2vs0mg"},{"bike_id":"b0b5fd38-90cc-4975-b142-2aec1a922237","system_id":"levelo_inurba_marseille","lat":43.322872,"lon":5.382756,"is_reserved":false,"is_disabled":false,"rental_uris":{"android":"levelo://app?vid=b0b5fd38-90cc-4975-b142-2aec1a922237","ios":"levelo://app?vid=b0b5fd38-90cc-4975-b142-2aec1a922237"},"vehicle_type_id":"4","last_reported":1718730434,"current_range_meters":31600,"station_id":"ce4bhr12rcd13ifvqhqg","pricing_plan_id":"cebpf4jnsgd1na2vs0mg"},{"bike_id":"3b4bcc91-e6a9-4867-9a2b-00a19c430fdd","system_id":"levelo_inurba_marseille","lat":43.322872,"lon":5.382756,"is_reserved":false,"is_disabled":false,"rental_uris":{"android":"levelo://app?vid=3b4bcc91-e6a9-4867-9a2b-00a19c430fdd","ios":"levelo://app?vid=3b4bcc91-e6a9-4867-9a2b-00a19c430fdd"},"vehicle_type_id":"4","last_reported":1718730434,"current_range_meters":13200,"station_id":"ce4bhr12rcd13ifvqhqg","pricing_plan_id":"cebpf4jnsgd1na2vs0mg"},{"bike_id":"242b6bf5-a39d-46ea-bdd1-b74afe50ad9e","system_id":"levelo_inurba_marseille","lat":43.297163,"lon":5.365866,"is_reserved":false,"is_disabled":false,"rental_uris":{"android":"levelo://app?vid=242b6bf5-a39d-46ea-bdd1-b74afe50ad9e","ios":"levelo://app?vid=242b6bf5-a39d-46ea-bdd1-b74afe50ad9e"},"vehicle_type_id":"4","last_reported":1718730434,"current_range_meters":0,"station_id":"ce4bgn12rcd13ifvqbt0","pricing_plan_id":"cebpf4jnsgd1na2vs0mg"},{"bike_id":"2a42502e-4a26-4730-a36d-a07ad7c25a95","system_id":"levelo_inurba_marseille","lat":43.318391,"lon":5.387103,"is_reserved":false,"is_disabled":false,"rental_uris":{"android":"levelo://app?vid=2a42502e-4a26-4730-a36d-a07ad7c25a95","ios":"levelo://app?vid=2a42502e-4a26-4730-a36d-a07ad7c25a95"},"vehicle_type_id":"4","last_reported":1718730434,"current_range_meters":10400,"station_id":"","pricing_plan_id":"cebpf4jnsgd1na2vs0mg"},{"bike_id":"1420ba8d-1cc1-4f35-9dcc-028ebfef3e94","system_id":"levelo_inurba_marseille","lat":43.296131,"lon":5.370791,"is_reserved":false,"is_disabled":false,"rental_uris":{"android":"levelo://app?vid=1420ba8d-1cc1-4f35-9dcc-028ebfef3e94","ios":"levelo://app?vid=1420ba8d-1cc1-4f35-9dcc-028ebfef3e94"},"vehicle_type_id":"4","last_reported":1718730434,"current_range_meters":22000,"station_id":"ce4bgnh2rcd13ifvqc0g","pricing_plan_id":"cebpf4jnsgd1na2vs0mg"},{"bike_id":"a9b2687f-b7d3-45db-9aef-de5f7ee1cc19","system_id":"levelo_inurba_marseille","lat":43.29931,"lon":5.38131,"is_reserved":false,"is_disabled":false,"rental_uris":{"android":"levelo://app?vid=a9b2687f-b7d3-45db-9aef-de5f7ee1cc19","ios":"levelo://app?vid=a9b2687f-b7d3-45db-9aef-de5f7ee1cc19"},"vehicle_type_id":"4","last_reported":1718730434,"current_range_meters":0,"station_id":"ce4bgj12rcd13ifvqbc0","pricing_plan_id":"cebpf4jnsgd1na2vs0mg"},{"bike_id":"7e36b659-91be-41ab-8d10-8276e0c385a4","system_id":"levelo_inurba_marseille","lat":43.309589,"lon":5.390258,"is_reserved":false,"is_disabled":false,"rental_uris":{"android":"levelo://app?vid=7e36b659-91be-41ab-8d10-8276e0c385a4","ios":"levelo://app?vid=7e36b659-91be-41ab-8d10-8276e0c385a4"},"vehicle_type_id":"4","last_reported":1718730434,"current_range_meters":20400,"station_id":"ce4bgup2rcd13ifvqco0","pricing_plan_id":"cebpf4jnsgd1na2vs0mg"},{"bike_id":"7b17abff-a220-45ff-9e26-78f089b0bf43","system_id":"levelo_inurba_marseille","lat":43.31757,"lon":5.3901,"is_reserved":false,"is_disabled":false,"rental_uris":{"android":"levelo://app?vid=7b17abff-a220-45ff-9e26-78f089b0bf43","ios":"levelo://app?vid=7b17abff-a220-45ff-9e26-78f089b0bf43"},"vehicle_type_id":"4","last_reported":1718730434,"current_range_meters":1600,"station_id":"ce4bhqp2rcd13ifvqhng","pricing_plan_id":"cebpf4jnsgd1na2vs0mg"},{"bike_id":"c62619d2-86a3-46a9-b885-cea760e07d2f","system_id":"levelo_inurba_marseille","lat":43.298037,"lon":5.381066,"is_reserved":false,"is_disabled":false,"rental_uris":{"android":"levelo://app?vid=c62619d2-86a3-46a9-b885-cea760e07d2f","ios":"levelo://app?vid=c62619d2-86a3-46a9-b885-cea760e07d2f"},"vehicle_type_id":"4","last_reported":1718730434,"current_range_meters":0,"station_id":"ce4bgip2rcd13ifvqbb0","pricing_plan_id":"cebpf4jnsgd1na2vs0mg"},{"bike_id":"5c023301-a939-4b35-8238-a716cf182a6e","system_id":"levelo_inurba_marseille","lat":43.298037,"lon":5.381066,"is_reserved":false,"is_disabled":false,"rental_uris":{"android":"levelo://app?vid=5c023301-a939-4b35-8238-a716cf182a6e","ios":"levelo://app?vid=5c023301-a939-4b35-8238-a716cf182a6e"},"vehicle_type_id":"4","last_reported":1718730434,"current_range_meters":0,"station_id":"ce4bgip2rcd13ifvqbb0","pricing_plan_id":"cebpf4jnsgd1na2vs0mg"},{"bike_id":"652b8638-ea52-42a5-815d-62eda92a4f9d","system_id":"levelo_inurba_marseille","lat":43.304274,"lon":5.388873,"is_reserved":false,"is_disabled":false,"rental_uris":{"android":"levelo://app?vid=652b8638-ea52-42a5-815d-62eda92a4f9d","ios":"levelo://app?vid=652b8638-ea52-42a5-815d-62eda92a4f9d"},"vehicle_type_id":"4","last_reported":1718730434,"current_range_meters":10400,"station_id":"ce4bgk12rcd13ifvqbi0","pricing_plan_id":"cebpf4jnsgd1na2vs0mg"},{"bike_id":"d0e02465-ba4b-42ac-9a4f-cea0b18ebaec","system_id":"levelo_inurba_marseille","lat":43.295748,"lon":5.37522,"is_reserved":false,"is_disabled":false,"rental_uris":{"android":"levelo://app?vid=d0e02465-ba4b-42ac-9a4f-cea0b18ebaec","ios":"levelo://app?vid=d0e02465-ba4b-42ac-9a4f-cea0b18ebaec"},"vehicle_type_id":"4","last_reported":1718730434,"current_range_meters":19600,"station_id":"ce4bgh92rcd13ifvqb50","pricing_plan_id":"cebpf4jnsgd1na2vs0mg"},{"bike_id":"1280495b-c893-49aa-92a9-1d0911d32589","system_id":"levelo_inurba_marseille","lat":43.304274,"lon":5.388873,"is_reserved":false,"is_disabled":false,"rental_uris":{"android":"levelo://app?vid=1280495b-c893-49aa-92a9-1d0911d32589","ios":"levelo://app?vid=1280495b-c893-49aa-92a9-1d0911d32589"},"vehicle_type_id":"4","last_reported":1718730434,"current_range_meters":4000,"station_id":"ce4bgk12rcd13ifvqbi0","pricing_plan_id":"cebpf4jnsgd1na2vs0mg"},{"bike_id":"2e9c16af-118d-4753-890b-a7641e1be143","system_id":"levelo_inurba_marseille","lat":43.295279,"lon":5.375048,"is_reserved":false,"is_disabled":false,"rental_uris":{"android":"levelo://app?vid=2e9c16af-118d-4753-890b-a7641e1be143","ios":"levelo://app?vid=2e9c16af-118d-4753-890b-a7641e1be143"},"vehicle_type_id":"4","last_reported":1718730434,"current_range_meters":0,"station_id":"ce4bgkp2rcd13ifvqbmg","pricing_plan_id":"cebpf4jnsgd1na2vs0mg"},{"bike_id":"e702dc10-fa84-42a8-8dd5-2581bfb3bd14","system_id":"levelo_inurba_marseille","lat":43.295279,"lon":5.375048,"is_reserved":false,"is_disabled":false,"rental_uris":{"android":"levelo://app?vid=e702dc10-fa84-42a8-8dd5-2581bfb3bd14","ios":"levelo://app?vid=e702dc10-fa84-42a8-8dd5-2581bfb3bd14"},"vehicle_type_id":"4","last_reported":1718730434,"current_range_meters":0,"station_id":"ce4bgkp2rcd13ifvqbmg","pricing_plan_id":"cebpf4jnsgd1na2vs0mg"},{"bike_id":"b5ef0fa1-3675-498a-acce-cf4e4d5ce48f","system_id":"levelo_inurba_marseille","lat":43.299707,"lon":5.384859,"is_reserved":false,"is_disabled":false,"rental_uris":{"android":"levelo://app?vid=b5ef0fa1-3675-498a-acce-cf4e4d5ce48f","ios":"levelo://app?vid=b5ef0fa1-3675-498a-acce-cf4e4d5ce48f"},"vehicle_type_id":"4","last_reported":1718730434,"current_range_meters":29600,"station_id":"ce4bgj92rcd13ifvqbd0","pricing_plan_id":"cebpf4jnsgd1na2vs0mg"},{"bike_id":"3332100a-52c7-4d8c-b677-0dc4e09331b6","system_id":"levelo_inurba_marseille","lat":43.2997,"lon":5.38498,"is_reserved":false,"is_disabled":false,"rental_uris":{"android":"levelo://app?vid=3332100a-52c7-4d8c-b677-0dc4e09331b6","ios":"levelo://app?vid=3332100a-52c7-4d8c-b677-0dc4e09331b6"},"vehicle_type_id":"4","last_reported":1718730434,"current_range_meters":29600,"station_id":"ce4bgj92rcd13ifvqbd0","pricing_plan_id":"cebpf4jnsgd1na2vs0mg"},{"bike_id":"4e76cce4-674c-4887-af26-06394b7446d2","system_id":"levelo_inurba_marseille","lat":43.32371,"lon":5.38867,"is_reserved":false,"is_disabled":false,"rental_uris":{"android":"levelo://app?vid=4e76cce4-674c-4887-af26-06394b7446d2","ios":"levelo://app?vid=4e76cce4-674c-4887-af26-06394b7446d2"},"vehicle_type_id":"4","last_reported":1718730434,"current_range_meters":10800,"station_id":"ce4bhqp2rcd13ifvqhog","pricing_plan_id":"cebpf4jnsgd1na2vs0mg"},{"bike_id":"0c73c083-1f9f-4c1a-8fe0-d1fa064c70e6","system_id":"levelo_inurba_marseille","lat":43.32365,"lon":5.3888,"is_reserved":false,"is_disabled":false,"rental_uris":{"android":"levelo://app?vid=0c73c083-1f9f-4c1a-8fe0-d1fa064c70e6","ios":"levelo://app?vid=0c73c083-1f9f-4c1a-8fe0-d1fa064c70e6"},"vehicle_type_id":"4","last_reported":1718730434,"current_range_meters":6000,"station_id":"ce4bhqp2rcd13ifvqhog","pricing_plan_id":"cebpf4jnsgd1na2vs0mg"},{"bike_id":"65ffe4fb-29b6-4701-97ff-f99d874ee513","system_id":"levelo_inurba_marseille","lat":43.32365,"lon":5.38885,"is_reserved":false,"is_disabled":false,"rental_uris":{"android":"levelo://app?vid=65ffe4fb-29b6-4701-97ff-f99d874ee513","ios":"levelo://app?vid=65ffe4fb-29b6-4701-97ff-f99d874ee513"},"vehicle_type_id":"4","last_reported":1718730434,"current_range_meters":2800,"station_id":"ce4bhqp2rcd13ifvqhog","pricing_plan_id":"cebpf4jnsgd1na2vs0mg"},{"bike_id":"4076f5f0-ec8f-4ba6-bed0-fe33b3a91b16","system_id":"levelo_inurba_marseille","lat":43.32368,"lon":5.38885,"is_reserved":false,"is_disabled":false,"rental_uris":{"android":"levelo://app?vid=4076f5f0-ec8f-4ba6-bed0-fe33b3a91b16","ios":"levelo://app?vid=4076f5f0-ec8f-4ba6-bed0-fe33b3a91b16"},"vehicle_type_id":"4","last_reported":1718730434,"current_range_meters":3600,"station_id":"ce4bhqp2rcd13ifvqhog","pricing_plan_id":"cebpf4jnsgd1na2vs0mg"},{"bike_id":"937e6e76-8965-4256-a529-091c3c6e8ca9","system_id":"levelo_inurba_marseille","lat":43.295897,"lon":5.38101,"is_reserved":false,"is_disabled":false,"rental_uris":{"android":"levelo://app?vid=937e6e76-8965-4256-a529-091c3c6e8ca9","ios":"levelo://app?vid=937e6e76-8965-4256-a529-091c3c6e8ca9"},"vehicle_type_id":"4","last_reported":1718730434,"current_range_meters":0,"station_id":"ce4bgl12rcd13ifvqbo0","pricing_plan_id":"cebpf4jnsgd1na2vs0mg"},{"bike_id":"e999782a-9976-49b8-8c59-847824ac142c","system_id":"levelo_inurba_marseille","lat":43.293087,"lon":5.37175,"is_reserved":false,"is_disabled":false,"rental_uris":{"android":"levelo://app?vid=e999782a-9976-49b8-8c59-847824ac142c","ios":"levelo://app?vid=e999782a-9976-49b8-8c59-847824ac142c"},"vehicle_type_id":"4","last_reported":1718730434,"current_range_meters":0,"station_id":"ce4bgh92rcd13ifvqb40","pricing_plan_id":"cebpf4jnsgd1na2vs0mg"},{"bike_id":"6c45745e-bc24-4730-b762-1c13c33c07d1","system_id":"levelo_inurba_marseille","lat":43.292749,"lon":5.368402,"is_reserved":false,"is_disabled":false,"rental_uris":{"android":"levelo://app?vid=6c45745e-bc24-4730-b762-1c13c33c07d1","ios":"levelo://app?vid=6c45745e-bc24-4730-b762-1c13c33c07d1"},"vehicle_type_id":"4","last_reported":1718730434,"current_range_meters":800,"station_id":"ce4bhbp2rcd13ifvqesg","pricing_plan_id":"cebpf4jnsgd1na2vs0mg"},{"bike_id":"499d001c-ed0a-4eaf-a71d-08376a0151da","system_id":"levelo_inurba_marseille","lat":43.29274,"lon":5.36834,"is_reserved":false,"is_disabled":false,"rental_uris":{"android":"levelo://app?vid=499d001c-ed0a-4eaf-a71d-08376a0151da","ios":"levelo://app?vid=499d001c-ed0a-4eaf-a71d-08376a0151da"},"vehicle_type_id":"4","last_reported":1718730434,"current_range_meters":0,"station_id":"ce4bhbp2rcd13ifvqesg","pricing_plan_id":"cebpf4jnsgd1na2vs0mg"},{"bike_id":"1fb0e60d-eaaa-4b79-ba83-4846aa7e5aac","system_id":"levelo_inurba_marseille","lat":43.292749,"lon":5.368402,"is_reserved":false,"is_disabled":false,"rental_uris":{"android":"levelo://app?vid=1fb0e60d-eaaa-4b79-ba83-4846aa7e5aac","ios":"levelo://app?vid=1fb0e60d-eaaa-4b79-ba83-4846aa7e5aac"},"vehicle_type_id":"4","last_reported":1718730434,"current_range_meters":17200,"station_id":"ce4bhbp2rcd13ifvqesg","pricing_plan_id":"cebpf4jnsgd1na2vs0mg"},{"bike_id":"92a26f49-1036-4f4c-8bf6-3d2f5d7d192f","system_id":"levelo_inurba_marseille","lat":43.29269,"lon":5.36836,"is_reserved":false,"is_disabled":false,"rental_uris":{"android":"levelo://app?vid=92a26f49-1036-4f4c-8bf6-3d2f5d7d192f","ios":"levelo://app?vid=92a26f49-1036-4f4c-8bf6-3d2f5d7d192f"},"vehicle_type_id":"4","last_reported":1718730434,"current_range_meters":27200,"station_id":"ce4bhbp2rcd13ifvqesg","pricing_plan_id":"cebpf4jnsgd1na2vs0mg"},{"bike_id":"b8364baa-fdd6-443e-9a13-b0ffbd395675","system_id":"levelo_inurba_marseille","lat":43.29261,"lon":5.368458,"is_reserved":false,"is_disabled":false,"rental_uris":{"android":"levelo://app?vid=b8364baa-fdd6-443e-9a13-b0ffbd395675","ios":"levelo://app?vid=b8364baa-fdd6-443e-9a13-b0ffbd395675"},"vehicle_type_id":"4","last_reported":1718730434,"current_range_meters":0,"station_id":"ce4bhbp2rcd13ifvqesg","pricing_plan_id":"cebpf4jnsgd1na2vs0mg"},{"bike_id":"8b7a09d1-3ba3-44e5-b381-456674d17e53","system_id":"levelo_inurba_marseille","lat":43.30306,"lon":5.39212,"is_reserved":false,"is_disabled":false,"rental_uris":{"android":"levelo://app?vid=8b7a09d1-3ba3-44e5-b381-456674d17e53","ios":"levelo://app?vid=8b7a09d1-3ba3-44e5-b381-456674d17e53"},"vehicle_type_id":"4","last_reported":1718730434,"current_range_meters":2400,"station_id":"ce4bgkh2rcd13ifvqbk0","pricing_plan_id":"cebpf4jnsgd1na2vs0mg"},{"bike_id":"9be2307c-1bc2-487d-ba24-7fb44a36ba68","system_id":"levelo_inurba_marseille","lat":43.30295,"lon":5.39207,"is_reserved":false,"is_disabled":false,"rental_uris":{"android":"levelo://app?vid=9be2307c-1bc2-487d-ba24-7fb44a36ba68","ios":"levelo://app?vid=9be2307c-1bc2-487d-ba24-7fb44a36ba68"},"vehicle_type_id":"4","last_reported":1718730434,"current_range_meters":0,"station_id":"ce4bgkh2rcd13ifvqbk0","pricing_plan_id":"cebpf4jnsgd1na2vs0mg"},{"bike_id":"927679f0-8bd2-4d20-aade-17208a447158","system_id":"levelo_inurba_marseille","lat":43.30304,"lon":5.39215,"is_reserved":false,"is_disabled":false,"rental_uris":{"android":"levelo://app?vid=927679f0-8bd2-4d20-aade-17208a447158","ios":"levelo://app?vid=927679f0-8bd2-4d20-aade-17208a447158"},"vehicle_type_id":"4","last_reported":1718730434,"current_range_meters":24000,"station_id":"ce4bgkh2rcd13ifvqbk0","pricing_plan_id":"cebpf4jnsgd1na2vs0mg"},{"bike_id":"cd5f81b9-91cd-421c-b642-c53b74bd1a8f","system_id":"levelo_inurba_marseille","lat":43.30085,"lon":5.390856,"is_reserved":false,"is_disabled":false,"rental_uris":{"android":"levelo://app?vid=cd5f81b9-91cd-421c-b642-c53b74bd1a8f","ios":"levelo://app?vid=cd5f81b9-91cd-421c-b642-c53b74bd1a8f"},"vehicle_type_id":"4","last_reported":1718730434,"current_range_meters":18400,"station_id":"ce4bh192rcd13ifvqdb0","pricing_plan_id":"cebpf4jnsgd1na2vs0mg"},{"bike_id":"5be43506-5d89-4938-91e4-e7d6dbb677d1","system_id":"levelo_inurba_marseille","lat":43.292311,"lon":5.360731,"is_reserved":false,"is_disabled":false,"rental_uris":{"android":"levelo://app?vid=5be43506-5d89-4938-91e4-e7d6dbb677d1","ios":"levelo://app?vid=5be43506-5d89-4938-91e4-e7d6dbb677d1"},"vehicle_type_id":"4","last_reported":1718730434,"current_range_meters":19200,"station_id":"ce4bhbh2rcd13ifvqeqg","pricing_plan_id":"cebpf4jnsgd1na2vs0mg"},{"bike_id":"297e4930-7425-43fd-b1c6-4258695b8d87","system_id":"levelo_inurba_marseille","lat":43.298764,"lon":5.388973,"is_reserved":false,"is_disabled":false,"rental_uris":{"android":"levelo://app?vid=297e4930-7425-43fd-b1c6-4258695b8d87","ios":"levelo://app?vid=297e4930-7425-43fd-b1c6-4258695b8d87"},"vehicle_type_id":"4","last_reported":1718730434,"current_range_meters":400,"station_id":"ce4bh392rcd13ifvqdl0","pricing_plan_id":"cebpf4jnsgd1na2vs0mg"},{"bike_id":"e5f37b12-83ad-4f0c-a35d-aba0650fdd21","system_id":"levelo_inurba_marseille","lat":43.291671,"lon":5.371575,"is_reserved":false,"is_disabled":false,"rental_uris":{"android":"levelo://app?vid=e5f37b12-83ad-4f0c-a35d-aba0650fdd21","ios":"levelo://app?vid=e5f37b12-83ad-4f0c-a35d-aba0650fdd21"},"vehicle_type_id":"4","last_reported":1718730434,"current_range_meters":9600,"station_id":"ce4bha92rcd13ifvqeh0","pricing_plan_id":"cebpf4jnsgd1na2vs0mg"},{"bike_id":"c4dbb9a2-bd59-4833-a569-93b7a86b9d7c","system_id":"levelo_inurba_marseille","lat":43.313291,"lon":5.396838,"is_reserved":false,"is_disabled":false,"rental_uris":{"android":"levelo://app?vid=c4dbb9a2-bd59-4833-a569-93b7a86b9d7c","ios":"levelo://app?vid=c4dbb9a2-bd59-4833-a569-93b7a86b9d7c"},"vehicle_type_id":"4","last_reported":1718730434,"current_range_meters":31600,"station_id":"ce4bgvp2rcd13ifvqcu0","pricing_plan_id":"cebpf4jnsgd1na2vs0mg"},{"bike_id":"3c53f41a-9639-4381-b07a-51301f9d3fae","system_id":"levelo_inurba_marseille","lat":43.313291,"lon":5.396838,"is_reserved":false,"is_disabled":false,"rental_uris":{"android":"levelo://app?vid=3c53f41a-9639-4381-b07a-51301f9d3fae","ios":"levelo://app?vid=3c53f41a-9639-4381-b07a-51301f9d3fae"},"vehicle_type_id":"4","last_reported":1718730434,"current_range_meters":1600,"station_id":"ce4bgvp2rcd13ifvqcu0","pricing_plan_id":"cebpf4jnsgd1na2vs0mg"},{"bike_id":"136570a1-5ec1-4bb9-87df-3ea5a26497f5","system_id":"levelo_inurba_marseille","lat":43.2919,"lon":5.35809,"is_reserved":false,"is_disabled":false,"rental_uris":{"android":"levelo://app?vid=136570a1-5ec1-4bb9-87df-3ea5a26497f5","ios":"levelo://app?vid=136570a1-5ec1-4bb9-87df-3ea5a26497f5"},"vehicle_type_id":"4","last_reported":1718730434,"current_range_meters":0,"station_id":"ce4bhb12rcd13ifvqel0","pricing_plan_id":"cebpf4jnsgd1na2vs0mg"},{"bike_id":"ad373a5e-6923-4a4d-9759-57812e9e3789","system_id":"levelo_inurba_marseille","lat":43.313291,"lon":5.396838,"is_reserved":false,"is_disabled":false,"rental_uris":{"android":"levelo://app?vid=ad373a5e-6923-4a4d-9759-57812e9e3789","ios":"levelo://app?vid=ad373a5e-6923-4a4d-9759-57812e9e3789"},"vehicle_type_id":"4","last_reported":1718730434,"current_range_meters":18400,"station_id":"ce4bgvp2rcd13ifvqcu0","pricing_plan_id":"cebpf4jnsgd1na2vs0mg"},{"bike_id":"4724505f-b4a9-47c8-8ee0-1b2c78f2cc85","system_id":"levelo_inurba_marseille","lat":43.29191,"lon":5.35798,"is_reserved":false,"is_disabled":false,"rental_uris":{"android":"levelo://app?vid=4724505f-b4a9-47c8-8ee0-1b2c78f2cc85","ios":"levelo://app?vid=4724505f-b4a9-47c8-8ee0-1b2c78f2cc85"},"vehicle_type_id":"4","last_reported":1718730434,"current_range_meters":1200,"station_id":"ce4bhb12rcd13ifvqel0","pricing_plan_id":"cebpf4jnsgd1na2vs0mg"},{"bike_id":"ba0d0188-acab-4413-991d-7f5622bc8b0a","system_id":"levelo_inurba_marseille","lat":43.313291,"lon":5.396838,"is_reserved":false,"is_disabled":false,"rental_uris":{"android":"levelo://app?vid=ba0d0188-acab-4413-991d-7f5622bc8b0a","ios":"levelo://app?vid=ba0d0188-acab-4413-991d-7f5622bc8b0a"},"vehicle_type_id":"4","last_reported":1718730434,"current_range_meters":0,"station_id":"ce4bgvp2rcd13ifvqcu0","pricing_plan_id":"cebpf4jnsgd1na2vs0mg"},{"bike_id":"f1a88ec0-3add-4fc4-855e-756e45af3b59","system_id":"levelo_inurba_marseille","lat":43.313291,"lon":5.396838,"is_reserved":false,"is_disabled":false,"rental_uris":{"android":"levelo://app?vid=f1a88ec0-3add-4fc4-855e-756e45af3b59","ios":"levelo://app?vid=f1a88ec0-3add-4fc4-855e-756e45af3b59"},"vehicle_type_id":"4","last_reported":1718730434,"current_range_meters":0,"station_id":"ce4bgvp2rcd13ifvqcu0","pricing_plan_id":"cebpf4jnsgd1na2vs0mg"},{"bike_id":"15a87ee9-907a-4153-b510-3dd618a5f585","system_id":"levelo_inurba_marseille","lat":43.313291,"lon":5.396838,"is_reserved":false,"is_disabled":false,"rental_uris":{"android":"levelo://app?vid=15a87ee9-907a-4153-b510-3dd618a5f585","ios":"levelo://app?vid=15a87ee9-907a-4153-b510-3dd618a5f585"},"vehicle_type_id":"4","last_reported":1718730434,"current_range_meters":14000,"station_id":"ce4bgvp2rcd13ifvqcu0","pricing_plan_id":"cebpf4jnsgd1na2vs0mg"},{"bike_id":"c5a3453a-295f-4555-89f1-041aacafc297","system_id":"levelo_inurba_marseille","lat":43.308903,"lon":5.396497,"is_reserved":false,"is_disabled":false,"rental_uris":{"android":"levelo://app?vid=c5a3453a-295f-4555-89f1-041aacafc297","ios":"levelo://app?vid=c5a3453a-295f-4555-89f1-041aacafc297"},"vehicle_type_id":"4","last_reported":1718730434,"current_range_meters":0,"station_id":"ce4bh012rcd13ifvqcv0","pricing_plan_id":"cebpf4jnsgd1na2vs0mg"},{"bike_id":"69edb200-d195-4c45-a363-6b0fde35d638","system_id":"levelo_inurba_marseille","lat":43.313291,"lon":5.396838,"is_reserved":false,"is_disabled":false,"rental_uris":{"android":"levelo://app?vid=69edb200-d195-4c45-a363-6b0fde35d638","ios":"levelo://app?vid=69edb200-d195-4c45-a363-6b0fde35d638"},"vehicle_type_id":"4","last_reported":1718730434,"current_range_meters":10800,"station_id":"ce4bgvp2rcd13ifvqcu0","pricing_plan_id":"cebpf4jnsgd1na2vs0mg"},{"bike_id":"2a8a24a0-6912-4b69-b0e6-45f831f05bee","system_id":"levelo_inurba_marseille","lat":43.313291,"lon":5.396838,"is_reserved":false,"is_disabled":false,"rental_uris":{"android":"levelo://app?vid=2a8a24a0-6912-4b69-b0e6-45f831f05bee","ios":"levelo://app?vid=2a8a24a0-6912-4b69-b0e6-45f831f05bee"},"vehicle_type_id":"4","last_reported":1718730434,"current_range_meters":17200,"station_id":"ce4bgvp2rcd13ifvqcu0","pricing_plan_id":"cebpf4jnsgd1na2vs0mg"},{"bike_id":"3e094341-906b-4b9c-b88a-f01f04db2841","system_id":"levelo_inurba_marseille","lat":43.313291,"lon":5.396838,"is_reserved":false,"is_disabled":false,"rental_uris":{"android":"levelo://app?vid=3e094341-906b-4b9c-b88a-f01f04db2841","ios":"levelo://app?vid=3e094341-906b-4b9c-b88a-f01f04db2841"},"vehicle_type_id":"4","last_reported":1718730434,"current_range_meters":1600,"station_id":"ce4bgvp2rcd13ifvqcu0","pricing_plan_id":"cebpf4jnsgd1na2vs0mg"},{"bike_id":"8e0419e3-7618-4e1e-9ca9-acf2dc775bd3","system_id":"levelo_inurba_marseille","lat":43.294162,"lon":5.386292,"is_reserved":false,"is_disabled":false,"rental_uris":{"android":"levelo://app?vid=8e0419e3-7618-4e1e-9ca9-acf2dc775bd3","ios":"levelo://app?vid=8e0419e3-7618-4e1e-9ca9-acf2dc775bd3"},"vehicle_type_id":"4","last_reported":1718730434,"current_range_meters":0,"station_id":"ce4bh2h2rcd13ifvqdh0","pricing_plan_id":"cebpf4jnsgd1na2vs0mg"},{"bike_id":"6378ddbc-27c8-4c65-86e0-741c6a2328b0","system_id":"levelo_inurba_marseille","lat":43.29529,"lon":5.385581,"is_reserved":false,"is_disabled":false,"rental_uris":{"android":"levelo://app?vid=6378ddbc-27c8-4c65-86e0-741c6a2328b0","ios":"levelo://app?vid=6378ddbc-27c8-4c65-86e0-741c6a2328b0"},"vehicle_type_id":"4","last_reported":1718730434,"current_range_meters":800,"station_id":"ce4bgih2rcd13ifvqba0","pricing_plan_id":"cebpf4jnsgd1na2vs0mg"},{"bike_id":"4c280364-fe91-45f2-944d-fdef0b102da9","system_id":"levelo_inurba_marseille","lat":43.29529,"lon":5.385581,"is_reserved":false,"is_disabled":false,"rental_uris":{"android":"levelo://app?vid=4c280364-fe91-45f2-944d-fdef0b102da9","ios":"levelo://app?vid=4c280364-fe91-45f2-944d-fdef0b102da9"},"vehicle_type_id":"4","last_reported":1718730434,"current_range_meters":21200,"station_id":"ce4bgih2rcd13ifvqba0","pricing_plan_id":"cebpf4jnsgd1na2vs0mg"},{"bike_id":"90a4a2a9-9757-4fdf-b8e2-f21e225a293b","system_id":"levelo_inurba_marseille","lat":43.290779,"lon":5.371482,"is_reserved":false,"is_disabled":false,"rental_uris":{"android":"levelo://app?vid=90a4a2a9-9757-4fdf-b8e2-f21e225a293b","ios":"levelo://app?vid=90a4a2a9-9757-4fdf-b8e2-f21e225a293b"},"vehicle_type_id":"4","last_reported":1718730434,"current_range_meters":0,"station_id":"ce4bh5p2rcd13ifvqe4g","pricing_plan_id":"cebpf4jnsgd1na2vs0mg"},{"bike_id":"eb1c65af-b897-45c6-994f-3669d5b98edb","system_id":"levelo_inurba_marseille","lat":43.313291,"lon":5.396838,"is_reserved":false,"is_disabled":false,"rental_uris":{"android":"levelo://app?vid=eb1c65af-b897-45c6-994f-3669d5b98edb","ios":"levelo://app?vid=eb1c65af-b897-45c6-994f-3669d5b98edb"},"vehicle_type_id":"4","last_reported":1718730434,"current_range_meters":24000,"station_id":"ce4bgvp2rcd13ifvqcu0","pricing_plan_id":"cebpf4jnsgd1na2vs0mg"},{"bike_id":"e06c34f1-3c75-44e1-95d7-2c6ffbf4f62c","system_id":"levelo_inurba_marseille","lat":43.302008,"lon":5.394694,"is_reserved":false,"is_disabled":false,"rental_uris":{"android":"levelo://app?vid=e06c34f1-3c75-44e1-95d7-2c6ffbf4f62c","ios":"levelo://app?vid=e06c34f1-3c75-44e1-95d7-2c6ffbf4f62c"},"vehicle_type_id":"4","last_reported":1718730434,"current_range_meters":400,"station_id":"ce4bh0p2rcd13ifvqd70","pricing_plan_id":"cebpf4jnsgd1na2vs0mg"},{"bike_id":"05c1c740-0332-4cf8-8fa4-b08ab16cba4c","system_id":"levelo_inurba_marseille","lat":43.292646,"lon":5.382564,"is_reserved":false,"is_disabled":false,"rental_uris":{"android":"levelo://app?vid=05c1c740-0332-4cf8-8fa4-b08ab16cba4c","ios":"levelo://app?vid=05c1c740-0332-4cf8-8fa4-b08ab16cba4c"},"vehicle_type_id":"4","last_reported":1718730434,"current_range_meters":21600,"station_id":"","pricing_plan_id":"cebpf4jnsgd1na2vs0mg"},{"bike_id":"b10553c5-2959-4e16-a52d-8bbeb31935a1","system_id":"levelo_inurba_marseille","lat":43.290104,"lon":5.356111,"is_reserved":false,"is_disabled":false,"rental_uris":{"android":"levelo://app?vid=b10553c5-2959-4e16-a52d-8bbeb31935a1","ios":"levelo://app?vid=b10553c5-2959-4e16-a52d-8bbeb31935a1"},"vehicle_type_id":"4","last_reported":1718730434,"current_range_meters":4400,"station_id":"ce4bhb92rcd13ifvqen0","pricing_plan_id":"cebpf4jnsgd1na2vs0mg"},{"bike_id":"90cc7942-2e63-49dc-8fba-c55df1745e26","system_id":"levelo_inurba_marseille","lat":43.290327,"lon":5.375711,"is_reserved":false,"is_disabled":false,"rental_uris":{"android":"levelo://app?vid=90cc7942-2e63-49dc-8fba-c55df1745e26","ios":"levelo://app?vid=90cc7942-2e63-49dc-8fba-c55df1745e26"},"vehicle_type_id":"4","last_reported":1718730434,"current_range_meters":14000,"station_id":"ce4bh692rcd13ifvqe90","pricing_plan_id":"cebpf4jnsgd1na2vs0mg"},{"bike_id":"ba31ef58-cf61-4f1d-85ba-891b3e75900a","system_id":"levelo_inurba_marseille","lat":43.2942,"lon":5.38629,"is_reserved":false,"is_disabled":false,"rental_uris":{"android":"levelo://app?vid=ba31ef58-cf61-4f1d-85ba-891b3e75900a","ios":"levelo://app?vid=ba31ef58-cf61-4f1d-85ba-891b3e75900a"},"vehicle_type_id":"4","last_reported":1718730434,"current_range_meters":0,"station_id":"ce4bh2h2rcd13ifvqdh0","pricing_plan_id":"cebpf4jnsgd1na2vs0mg"},{"bike_id":"3c44c207-1214-4008-a8c2-b220821cbbaf","system_id":"levelo_inurba_marseille","lat":43.294153,"lon":5.386305,"is_reserved":false,"is_disabled":false,"rental_uris":{"android":"levelo://app?vid=3c44c207-1214-4008-a8c2-b220821cbbaf","ios":"levelo://app?vid=3c44c207-1214-4008-a8c2-b220821cbbaf"},"vehicle_type_id":"4","last_reported":1718730434,"current_range_meters":3600,"station_id":"ce4bh2h2rcd13ifvqdh0","pricing_plan_id":"cebpf4jnsgd1na2vs0mg"},{"bike_id":"4f097406-bef0-425e-b937-41d490600f04","system_id":"levelo_inurba_marseille","lat":43.294162,"lon":5.386292,"is_reserved":false,"is_disabled":false,"rental_uris":{"android":"levelo://app?vid=4f097406-bef0-425e-b937-41d490600f04","ios":"levelo://app?vid=4f097406-bef0-425e-b937-41d490600f04"},"vehicle_type_id":"4","last_reported":1718730434,"current_range_meters":0,"station_id":"ce4bh2h2rcd13ifvqdh0","pricing_plan_id":"cebpf4jnsgd1na2vs0mg"},{"bike_id":"f9ed231d-29e5-4b02-b4b4-39c4020f2c3e","system_id":"levelo_inurba_marseille","lat":43.289468,"lon":5.363719,"is_reserved":false,"is_disabled":false,"rental_uris":{"android":"levelo://app?vid=f9ed231d-29e5-4b02-b4b4-39c4020f2c3e","ios":"levelo://app?vid=f9ed231d-29e5-4b02-b4b4-39c4020f2c3e"},"vehicle_type_id":"4","last_reported":1718730434,"current_range_meters":14400,"station_id":"ce4bhc92rcd13ifvqetg","pricing_plan_id":"cebpf4jnsgd1na2vs0mg"},{"bike_id":"a0b1a423-66a4-4651-9df5-b1a21beda049","system_id":"levelo_inurba_marseille","lat":43.290327,"lon":5.375711,"is_reserved":false,"is_disabled":false,"rental_uris":{"android":"levelo://app?vid=a0b1a423-66a4-4651-9df5-b1a21beda049","ios":"levelo://app?vid=a0b1a423-66a4-4651-9df5-b1a21beda049"},"vehicle_type_id":"4","last_reported":1718730434,"current_range_meters":0,"station_id":"ce4bh692rcd13ifvqe90","pricing_plan_id":"cebpf4jnsgd1na2vs0mg"},{"bike_id":"c1d4f1c6-d078-42b7-9871-36e1995178b1","system_id":"levelo_inurba_marseille","lat":43.289184,"lon":5.366408,"is_reserved":false,"is_disabled":false,"rental_uris":{"android":"levelo://app?vid=c1d4f1c6-d078-42b7-9871-36e1995178b1","ios":"levelo://app?vid=c1d4f1c6-d078-42b7-9871-36e1995178b1"},"vehicle_type_id":"4","last_reported":1718730434,"current_range_meters":5600,"station_id":"ce4bhap2rcd13ifvqek0","pricing_plan_id":"cebpf4jnsgd1na2vs0mg"},{"bike_id":"ffe885e3-3178-4db5-9b55-caf03d6b685f","system_id":"levelo_inurba_marseille","lat":43.289184,"lon":5.366408,"is_reserved":false,"is_disabled":false,"rental_uris":{"android":"levelo://app?vid=ffe885e3-3178-4db5-9b55-caf03d6b685f","ios":"levelo://app?vid=ffe885e3-3178-4db5-9b55-caf03d6b685f"},"vehicle_type_id":"4","last_reported":1718730434,"current_range_meters":14800,"station_id":"ce4bhap2rcd13ifvqek0","pricing_plan_id":"cebpf4jnsgd1na2vs0mg"},{"bike_id":"4c15fce5-2b06-4f6d-a026-5afd3ea1526e","system_id":"levelo_inurba_marseille","lat":43.289468,"lon":5.363719,"is_reserved":false,"is_disabled":false,"rental_uris":{"android":"levelo://app?vid=4c15fce5-2b06-4f6d-a026-5afd3ea1526e","ios":"levelo://app?vid=4c15fce5-2b06-4f6d-a026-5afd3ea1526e"},"vehicle_type_id":"4","last_reported":1718730434,"current_range_meters":6400,"station_id":"ce4bhc92rcd13ifvqetg","pricing_plan_id":"cebpf4jnsgd1na2vs0mg"},{"bike_id":"3a114d62-eefd-42fa-b010-b21e108008c6","system_id":"levelo_inurba_marseille","lat":43.289468,"lon":5.363719,"is_reserved":false,"is_disabled":false,"rental_uris":{"android":"levelo://app?vid=3a114d62-eefd-42fa-b010-b21e108008c6","ios":"levelo://app?vid=3a114d62-eefd-42fa-b010-b21e108008c6"},"vehicle_type_id":"4","last_reported":1718730434,"current_range_meters":0,"station_id":"ce4bhc92rcd13ifvqetg","pricing_plan_id":"cebpf4jnsgd1na2vs0mg"},{"bike_id":"ed8a2769-e95a-4ee6-a472-2cef407a7cba","system_id":"levelo_inurba_marseille","lat":43.29269,"lon":5.38439,"is_reserved":false,"is_disabled":false,"rental_uris":{"android":"levelo://app?vid=ed8a2769-e95a-4ee6-a472-2cef407a7cba","ios":"levelo://app?vid=ed8a2769-e95a-4ee6-a472-2cef407a7cba"},"vehicle_type_id":"4","last_reported":1718730434,"current_range_meters":0,"station_id":"ce4bh692rcd13ifvqea0","pricing_plan_id":"cebpf4jnsgd1na2vs0mg"},{"bike_id":"068793f0-73cc-4a91-b267-3c350cc37a45","system_id":"levelo_inurba_marseille","lat":43.292642,"lon":5.384254,"is_reserved":false,"is_disabled":false,"rental_uris":{"android":"levelo://app?vid=068793f0-73cc-4a91-b267-3c350cc37a45","ios":"levelo://app?vid=068793f0-73cc-4a91-b267-3c350cc37a45"},"vehicle_type_id":"4","last_reported":1718730434,"current_range_meters":5200,"station_id":"ce4bh692rcd13ifvqea0","pricing_plan_id":"cebpf4jnsgd1na2vs0mg"},{"bike_id":"3fd26aca-f9a2-422a-9c4e-6c27b029993d","system_id":"levelo_inurba_marseille","lat":43.304274,"lon":5.397513,"is_reserved":false,"is_disabled":false,"rental_uris":{"android":"levelo://app?vid=3fd26aca-f9a2-422a-9c4e-6c27b029993d","ios":"levelo://app?vid=3fd26aca-f9a2-422a-9c4e-6c27b029993d"},"vehicle_type_id":"4","last_reported":1718730434,"current_range_meters":4800,"station_id":"ce4bh092rcd13ifvqd20","pricing_plan_id":"cebpf4jnsgd1na2vs0mg"},{"bike_id":"a034f65f-6d74-47df-ba8e-e1a5430a569c","system_id":"levelo_inurba_marseille","lat":43.292642,"lon":5.384254,"is_reserved":false,"is_disabled":false,"rental_uris":{"android":"levelo://app?vid=a034f65f-6d74-47df-ba8e-e1a5430a569c","ios":"levelo://app?vid=a034f65f-6d74-47df-ba8e-e1a5430a569c"},"vehicle_type_id":"4","last_reported":1718730434,"current_range_meters":25600,"station_id":"ce4bh692rcd13ifvqea0","pricing_plan_id":"cebpf4jnsgd1na2vs0mg"},{"bike_id":"8eb14213-f31c-4c78-92fd-96e7476da16c","system_id":"levelo_inurba_marseille","lat":43.29264,"lon":5.38446,"is_reserved":false,"is_disabled":false,"rental_uris":{"android":"levelo://app?vid=8eb14213-f31c-4c78-92fd-96e7476da16c","ios":"levelo://app?vid=8eb14213-f31c-4c78-92fd-96e7476da16c"},"vehicle_type_id":"4","last_reported":1718730434,"current_range_meters":0,"station_id":"ce4bh692rcd13ifvqea0","pricing_plan_id":"cebpf4jnsgd1na2vs0mg"},{"bike_id":"036d8ac6-1977-4fbc-9f51-5b256ff4d0a9","system_id":"levelo_inurba_marseille","lat":43.292644,"lon":5.384257,"is_reserved":false,"is_disabled":false,"rental_uris":{"android":"levelo://app?vid=036d8ac6-1977-4fbc-9f51-5b256ff4d0a9","ios":"levelo://app?vid=036d8ac6-1977-4fbc-9f51-5b256ff4d0a9"},"vehicle_type_id":"4","last_reported":1718730434,"current_range_meters":2400,"station_id":"ce4bh692rcd13ifvqea0","pricing_plan_id":"cebpf4jnsgd1na2vs0mg"},{"bike_id":"9aa03d8e-1667-4c54-89f3-6541ab8b82d9","system_id":"levelo_inurba_marseille","lat":43.304296,"lon":5.397513,"is_reserved":false,"is_disabled":false,"rental_uris":{"android":"levelo://app?vid=9aa03d8e-1667-4c54-89f3-6541ab8b82d9","ios":"levelo://app?vid=9aa03d8e-1667-4c54-89f3-6541ab8b82d9"},"vehicle_type_id":"4","last_reported":1718730434,"current_range_meters":400,"station_id":"ce4bh092rcd13ifvqd20","pricing_plan_id":"cebpf4jnsgd1na2vs0mg"},{"bike_id":"5c5ac4dc-fbe4-49c4-9075-e8abb470e1fd","system_id":"levelo_inurba_marseille","lat":43.292644,"lon":5.384257,"is_reserved":false,"is_disabled":false,"rental_uris":{"android":"levelo://app?vid=5c5ac4dc-fbe4-49c4-9075-e8abb470e1fd","ios":"levelo://app?vid=5c5ac4dc-fbe4-49c4-9075-e8abb470e1fd"},"vehicle_type_id":"4","last_reported":1718730434,"current_range_meters":800,"station_id":"ce4bh692rcd13ifvqea0","pricing_plan_id":"cebpf4jnsgd1na2vs0mg"},{"bike_id":"d2473832-58cc-4cea-a3ba-c57ec665243d","system_id":"levelo_inurba_marseille","lat":43.29254,"lon":5.38448,"is_reserved":false,"is_disabled":false,"rental_uris":{"android":"levelo://app?vid=d2473832-58cc-4cea-a3ba-c57ec665243d","ios":"levelo://app?vid=d2473832-58cc-4cea-a3ba-c57ec665243d"},"vehicle_type_id":"4","last_reported":1718730434,"current_range_meters":0,"station_id":"ce4bh692rcd13ifvqea0","pricing_plan_id":"cebpf4jnsgd1na2vs0mg"},{"bike_id":"0fb48327-ecdc-452c-95f4-548ee1f4e3d2","system_id":"levelo_inurba_marseille","lat":43.29254,"lon":5.38449,"is_reserved":false,"is_disabled":false,"rental_uris":{"android":"levelo://app?vid=0fb48327-ecdc-452c-95f4-548ee1f4e3d2","ios":"levelo://app?vid=0fb48327-ecdc-452c-95f4-548ee1f4e3d2"},"vehicle_type_id":"4","last_reported":1718730434,"current_range_meters":11600,"station_id":"ce4bh692rcd13ifvqea0","pricing_plan_id":"cebpf4jnsgd1na2vs0mg"},{"bike_id":"62d771d2-2578-4101-acb9-f6cb7c25ae4a","system_id":"levelo_inurba_marseille","lat":43.290103,"lon":5.356114,"is_reserved":false,"is_disabled":false,"rental_uris":{"android":"levelo://app?vid=62d771d2-2578-4101-acb9-f6cb7c25ae4a","ios":"levelo://app?vid=62d771d2-2578-4101-acb9-f6cb7c25ae4a"},"vehicle_type_id":"4","last_reported":1718730434,"current_range_meters":1200,"station_id":"ce4bhb92rcd13ifvqen0","pricing_plan_id":"cebpf4jnsgd1na2vs0mg"},{"bike_id":"3ad9167d-b79f-40eb-9d94-8280dd6e9d24","system_id":"levelo_inurba_marseille","lat":43.290104,"lon":5.356111,"is_reserved":false,"is_disabled":false,"rental_uris":{"android":"levelo://app?vid=3ad9167d-b79f-40eb-9d94-8280dd6e9d24","ios":"levelo://app?vid=3ad9167d-b79f-40eb-9d94-8280dd6e9d24"},"vehicle_type_id":"4","last_reported":1718730434,"current_range_meters":0,"station_id":"ce4bhb92rcd13ifvqen0","pricing_plan_id":"cebpf4jnsgd1na2vs0mg"},{"bike_id":"6f542c25-3e79-453d-ab4c-6bb95bb489db","system_id":"levelo_inurba_marseille","lat":43.290103,"lon":5.356114,"is_reserved":false,"is_disabled":false,"rental_uris":{"android":"levelo://app?vid=6f542c25-3e79-453d-ab4c-6bb95bb489db","ios":"levelo://app?vid=6f542c25-3e79-453d-ab4c-6bb95bb489db"},"vehicle_type_id":"4","last_reported":1718730434,"current_range_meters":2000,"station_id":"ce4bhb92rcd13ifvqen0","pricing_plan_id":"cebpf4jnsgd1na2vs0mg"},{"bike_id":"df72b646-8c16-4452-aaa5-9725e7641247","system_id":"levelo_inurba_marseille","lat":43.29001,"lon":5.35619,"is_reserved":false,"is_disabled":false,"rental_uris":{"android":"levelo://app?vid=df72b646-8c16-4452-aaa5-9725e7641247","ios":"levelo://app?vid=df72b646-8c16-4452-aaa5-9725e7641247"},"vehicle_type_id":"4","last_reported":1718730434,"current_range_meters":0,"station_id":"ce4bhb92rcd13ifvqen0","pricing_plan_id":"cebpf4jnsgd1na2vs0mg"},{"bike_id":"cf1b7a3a-87df-484f-95d7-cf61d94c8de6","system_id":"levelo_inurba_marseille","lat":43.290103,"lon":5.356114,"is_reserved":false,"is_disabled":false,"rental_uris":{"android":"levelo://app?vid=cf1b7a3a-87df-484f-95d7-cf61d94c8de6","ios":"levelo://app?vid=cf1b7a3a-87df-484f-95d7-cf61d94c8de6"},"vehicle_type_id":"4","last_reported":1718730434,"current_range_meters":2000,"station_id":"ce4bhb92rcd13ifvqen0","pricing_plan_id":"cebpf4jnsgd1na2vs0mg"},{"bike_id":"807491ed-f774-41f4-89ef-58cd88a353bd","system_id":"levelo_inurba_marseille","lat":43.290995,"lon":5.381361,"is_reserved":false,"is_disabled":false,"rental_uris":{"android":"levelo://app?vid=807491ed-f774-41f4-89ef-58cd88a353bd","ios":"levelo://app?vid=807491ed-f774-41f4-89ef-58cd88a353bd"},"vehicle_type_id":"4","last_reported":1718730434,"current_range_meters":0,"station_id":"ce4bh512rcd13ifvqe2g","pricing_plan_id":"cebpf4jnsgd1na2vs0mg"},{"bike_id":"655a1ab1-fc67-4ad5-8ec9-fa4382c3b3cb","system_id":"levelo_inurba_marseille","lat":43.295169,"lon":5.390426,"is_reserved":false,"is_disabled":false,"rental_uris":{"android":"levelo://app?vid=655a1ab1-fc67-4ad5-8ec9-fa4382c3b3cb","ios":"levelo://app?vid=655a1ab1-fc67-4ad5-8ec9-fa4382c3b3cb"},"vehicle_type_id":"4","last_reported":1718730434,"current_range_meters":0,"station_id":"ce4bh3p2rcd13ifvqdp0","pricing_plan_id":"cebpf4jnsgd1na2vs0mg"},{"bike_id":"70bbdc91-607f-4597-883e-1cc87c4380a6","system_id":"levelo_inurba_marseille","lat":43.289743,"lon":5.378304,"is_reserved":false,"is_disabled":false,"rental_uris":{"android":"levelo://app?vid=70bbdc91-607f-4597-883e-1cc87c4380a6","ios":"levelo://app?vid=70bbdc91-607f-4597-883e-1cc87c4380a6"},"vehicle_type_id":"4","last_reported":1718730434,"current_range_meters":0,"station_id":"ce4bh9p2rcd13ifvqed0","pricing_plan_id":"cebpf4jnsgd1na2vs0mg"},{"bike_id":"a00267b2-72e1-458d-9013-3032efe054c5","system_id":"levelo_inurba_marseille","lat":43.330442,"lon":5.389148,"is_reserved":false,"is_disabled":false,"rental_uris":{"android":"levelo://app?vid=a00267b2-72e1-458d-9013-3032efe054c5","ios":"levelo://app?vid=a00267b2-72e1-458d-9013-3032efe054c5"},"vehicle_type_id":"4","last_reported":1718730434,"current_range_meters":22400,"station_id":"ce4bhr92rcd13ifvqhrg","pricing_plan_id":"cebpf4jnsgd1na2vs0mg"},{"bike_id":"129ee821-40b6-4554-863c-9f6768f460a4","system_id":"levelo_inurba_marseille","lat":43.330442,"lon":5.389148,"is_reserved":false,"is_disabled":false,"rental_uris":{"android":"levelo://app?vid=129ee821-40b6-4554-863c-9f6768f460a4","ios":"levelo://app?vid=129ee821-40b6-4554-863c-9f6768f460a4"},"vehicle_type_id":"4","last_reported":1718730434,"current_range_meters":28000,"station_id":"ce4bhr92rcd13ifvqhrg","pricing_plan_id":"cebpf4jnsgd1na2vs0mg"},{"bike_id":"e233b5a9-7c39-40aa-a0e4-d86c5253ffed","system_id":"levelo_inurba_marseille","lat":43.295169,"lon":5.390426,"is_reserved":false,"is_disabled":false,"rental_uris":{"android":"levelo://app?vid=e233b5a9-7c39-40aa-a0e4-d86c5253ffed","ios":"levelo://app?vid=e233b5a9-7c39-40aa-a0e4-d86c5253ffed"},"vehicle_type_id":"4","last_reported":1718730434,"current_range_meters":3600,"station_id":"ce4bh3p2rcd13ifvqdp0","pricing_plan_id":"cebpf4jnsgd1na2vs0mg"},{"bike_id":"7e5f9103-7c01-48b1-92cd-f2f0434e4ea6","system_id":"levelo_inurba_marseille","lat":43.289743,"lon":5.378304,"is_reserved":false,"is_disabled":false,"rental_uris":{"android":"levelo://app?vid=7e5f9103-7c01-48b1-92cd-f2f0434e4ea6","ios":"levelo://app?vid=7e5f9103-7c01-48b1-92cd-f2f0434e4ea6"},"vehicle_type_id":"4","last_reported":1718730434,"current_range_meters":5200,"station_id":"ce4bh9p2rcd13ifvqed0","pricing_plan_id":"cebpf4jnsgd1na2vs0mg"},{"bike_id":"91d942f0-8f0e-47af-b467-5fda5a3ba290","system_id":"levelo_inurba_marseille","lat":43.310755,"lon":5.40095,"is_reserved":false,"is_disabled":false,"rental_uris":{"android":"levelo://app?vid=91d942f0-8f0e-47af-b467-5fda5a3ba290","ios":"levelo://app?vid=91d942f0-8f0e-47af-b467-5fda5a3ba290"},"vehicle_type_id":"4","last_reported":1718730434,"current_range_meters":24800,"station_id":"","pricing_plan_id":"cebpf4jnsgd1na2vs0mg"},{"bike_id":"2f1bddc2-b6cb-4983-9d57-d59e3d584d8f","system_id":"levelo_inurba_marseille","lat":43.2901,"lon":5.381269,"is_reserved":false,"is_disabled":false,"rental_uris":{"android":"levelo://app?vid=2f1bddc2-b6cb-4983-9d57-d59e3d584d8f","ios":"levelo://app?vid=2f1bddc2-b6cb-4983-9d57-d59e3d584d8f"},"vehicle_type_id":"4","last_reported":1718730434,"current_range_meters":0,"station_id":"ce4bh4p2rcd13ifvqe1g","pricing_plan_id":"cebpf4jnsgd1na2vs0mg"},{"bike_id":"461d1417-9e58-45cb-9796-1a86d907a6ff","system_id":"levelo_inurba_marseille","lat":43.28856,"lon":5.358371,"is_reserved":false,"is_disabled":false,"rental_uris":{"android":"levelo://app?vid=461d1417-9e58-45cb-9796-1a86d907a6ff","ios":"levelo://app?vid=461d1417-9e58-45cb-9796-1a86d907a6ff"},"vehicle_type_id":"4","last_reported":1718730434,"current_range_meters":21200,"station_id":"ce4bhb12rcd13ifvqem0","pricing_plan_id":"cebpf4jnsgd1na2vs0mg"},{"bike_id":"73583a0a-0d48-4706-9336-d178de548cbb","system_id":"levelo_inurba_marseille","lat":43.28856,"lon":5.358371,"is_reserved":false,"is_disabled":false,"rental_uris":{"android":"levelo://app?vid=73583a0a-0d48-4706-9336-d178de548cbb","ios":"levelo://app?vid=73583a0a-0d48-4706-9336-d178de548cbb"},"vehicle_type_id":"4","last_reported":1718730434,"current_range_meters":8800,"station_id":"ce4bhb12rcd13ifvqem0","pricing_plan_id":"cebpf4jnsgd1na2vs0mg"},{"bike_id":"bdd2bc33-c2f0-4f88-91d4-be006571ad92","system_id":"levelo_inurba_marseille","lat":43.28856,"lon":5.358371,"is_reserved":false,"is_disabled":false,"rental_uris":{"android":"levelo://app?vid=bdd2bc33-c2f0-4f88-91d4-be006571ad92","ios":"levelo://app?vid=bdd2bc33-c2f0-4f88-91d4-be006571ad92"},"vehicle_type_id":"4","last_reported":1718730434,"current_range_meters":13200,"station_id":"ce4bhb12rcd13ifvqem0","pricing_plan_id":"cebpf4jnsgd1na2vs0mg"},{"bike_id":"bdd6630f-2d96-4908-b5c9-845fa866a29a","system_id":"levelo_inurba_marseille","lat":43.28856,"lon":5.358371,"is_reserved":false,"is_disabled":false,"rental_uris":{"android":"levelo://app?vid=bdd6630f-2d96-4908-b5c9-845fa866a29a","ios":"levelo://app?vid=bdd6630f-2d96-4908-b5c9-845fa866a29a"},"vehicle_type_id":"4","last_reported":1718730434,"current_range_meters":25600,"station_id":"ce4bhb12rcd13ifvqem0","pricing_plan_id":"cebpf4jnsgd1na2vs0mg"},{"bike_id":"be076b53-3353-4335-8682-7d1175d10ff3","system_id":"levelo_inurba_marseille","lat":43.312609,"lon":5.401662,"is_reserved":false,"is_disabled":false,"rental_uris":{"android":"levelo://app?vid=be076b53-3353-4335-8682-7d1175d10ff3","ios":"levelo://app?vid=be076b53-3353-4335-8682-7d1175d10ff3"},"vehicle_type_id":"4","last_reported":1718730434,"current_range_meters":11200,"station_id":"ce4bh092rcd13ifvqd30","pricing_plan_id":"cebpf4jnsgd1na2vs0mg"},{"bike_id":"916b45de-b7ea-498a-9621-bf5345d1fcdd","system_id":"levelo_inurba_marseille","lat":43.309371,"lon":5.401449,"is_reserved":false,"is_disabled":false,"rental_uris":{"android":"levelo://app?vid=916b45de-b7ea-498a-9621-bf5345d1fcdd","ios":"levelo://app?vid=916b45de-b7ea-498a-9621-bf5345d1fcdd"},"vehicle_type_id":"4","last_reported":1718730434,"current_range_meters":400,"station_id":"ce4bgvp2rcd13ifvqct0","pricing_plan_id":"cebpf4jnsgd1na2vs0mg"},{"bike_id":"3d41e4d1-c9f5-45b6-97b2-0a76c8fc840b","system_id":"levelo_inurba_marseille","lat":43.312609,"lon":5.401662,"is_reserved":false,"is_disabled":false,"rental_uris":{"android":"levelo://app?vid=3d41e4d1-c9f5-45b6-97b2-0a76c8fc840b","ios":"levelo://app?vid=3d41e4d1-c9f5-45b6-97b2-0a76c8fc840b"},"vehicle_type_id":"4","last_reported":1718730434,"current_range_meters":3600,"station_id":"ce4bh092rcd13ifvqd30","pricing_plan_id":"cebpf4jnsgd1na2vs0mg"},{"bike_id":"4194dd78-daec-4bdb-9378-c74cb0272b04","system_id":"levelo_inurba_marseille","lat":43.30926,"lon":5.40156,"is_reserved":false,"is_disabled":false,"rental_uris":{"android":"levelo://app?vid=4194dd78-daec-4bdb-9378-c74cb0272b04","ios":"levelo://app?vid=4194dd78-daec-4bdb-9378-c74cb0272b04"},"vehicle_type_id":"4","last_reported":1718730434,"current_range_meters":0,"station_id":"ce4bgvp2rcd13ifvqct0","pricing_plan_id":"cebpf4jnsgd1na2vs0mg"},{"bike_id":"90216b6d-f2bc-489c-9396-4eba8d9e7c84","system_id":"levelo_inurba_marseille","lat":43.306412,"lon":5.401035,"is_reserved":false,"is_disabled":false,"rental_uris":{"android":"levelo://app?vid=90216b6d-f2bc-489c-9396-4eba8d9e7c84","ios":"levelo://app?vid=90216b6d-f2bc-489c-9396-4eba8d9e7c84"},"vehicle_type_id":"4","last_reported":1718730434,"current_range_meters":31600,"station_id":"ce4bh112rcd13ifvqda0","pricing_plan_id":"cebpf4jnsgd1na2vs0mg"},{"bike_id":"27981b02-1fe8-498a-af94-e20e90b2ee34","system_id":"levelo_inurba_marseille","lat":43.301117,"lon":5.398795,"is_reserved":false,"is_disabled":false,"rental_uris":{"android":"levelo://app?vid=27981b02-1fe8-498a-af94-e20e90b2ee34","ios":"levelo://app?vid=27981b02-1fe8-498a-af94-e20e90b2ee34"},"vehicle_type_id":"4","last_reported":1718730434,"current_range_meters":20400,"station_id":"ce4bh0h2rcd13ifvqd40","pricing_plan_id":"cebpf4jnsgd1na2vs0mg"},{"bike_id":"d4ea39a6-7eb8-41cf-8d0e-92021a60db28","system_id":"levelo_inurba_marseille","lat":43.286961,"lon":5.373785,"is_reserved":false,"is_disabled":false,"rental_uris":{"android":"levelo://app?vid=d4ea39a6-7eb8-41cf-8d0e-92021a60db28","ios":"levelo://app?vid=d4ea39a6-7eb8-41cf-8d0e-92021a60db28"},"vehicle_type_id":"4","last_reported":1718730434,"current_range_meters":23200,"station_id":"ce4bh3p2rcd13ifvqdq0","pricing_plan_id":"cebpf4jnsgd1na2vs0mg"},{"bike_id":"53053d22-8a4c-4266-bf4c-db282ea17d20","system_id":"levelo_inurba_marseille","lat":43.306412,"lon":5.401035,"is_reserved":false,"is_disabled":false,"rental_uris":{"android":"levelo://app?vid=53053d22-8a4c-4266-bf4c-db282ea17d20","ios":"levelo://app?vid=53053d22-8a4c-4266-bf4c-db282ea17d20"},"vehicle_type_id":"4","last_reported":1718730434,"current_range_meters":31600,"station_id":"ce4bh112rcd13ifvqda0","pricing_plan_id":"cebpf4jnsgd1na2vs0mg"},{"bike_id":"53511a5b-677a-4f01-a2a1-ec4f8740f3e7","system_id":"levelo_inurba_marseille","lat":43.28727,"lon":5.36078,"is_reserved":false,"is_disabled":false,"rental_uris":{"android":"levelo://app?vid=53511a5b-677a-4f01-a2a1-ec4f8740f3e7","ios":"levelo://app?vid=53511a5b-677a-4f01-a2a1-ec4f8740f3e7"},"vehicle_type_id":"4","last_reported":1718730434,"current_range_meters":0,"station_id":"cki0cbj6b192h4jlfktg","pricing_plan_id":"cebpf4jnsgd1na2vs0mg"},{"bike_id":"3e289cf2-d3d7-4cd8-bd79-eba1e68e753d","system_id":"levelo_inurba_marseille","lat":43.301117,"lon":5.398795,"is_reserved":false,"is_disabled":false,"rental_uris":{"android":"levelo://app?vid=3e289cf2-d3d7-4cd8-bd79-eba1e68e753d","ios":"levelo://app?vid=3e289cf2-d3d7-4cd8-bd79-eba1e68e753d"},"vehicle_type_id":"4","last_reported":1718730434,"current_range_meters":0,"station_id":"ce4bh0h2rcd13ifvqd40","pricing_plan_id":"cebpf4jnsgd1na2vs0mg"},{"bike_id":"8ae5f108-f513-4daa-ad85-261a855c8945","system_id":"levelo_inurba_marseille","lat":43.301117,"lon":5.398795,"is_reserved":false,"is_disabled":false,"rental_uris":{"android":"levelo://app?vid=8ae5f108-f513-4daa-ad85-261a855c8945","ios":"levelo://app?vid=8ae5f108-f513-4daa-ad85-261a855c8945"},"vehicle_type_id":"4","last_reported":1718730434,"current_range_meters":16400,"station_id":"ce4bh0h2rcd13ifvqd40","pricing_plan_id":"cebpf4jnsgd1na2vs0mg"},{"bike_id":"811a8de1-702e-4f89-bd03-a7e0d8c46d38","system_id":"levelo_inurba_marseille","lat":43.286961,"lon":5.373785,"is_reserved":false,"is_disabled":false,"rental_uris":{"android":"levelo://app?vid=811a8de1-702e-4f89-bd03-a7e0d8c46d38","ios":"levelo://app?vid=811a8de1-702e-4f89-bd03-a7e0d8c46d38"},"vehicle_type_id":"4","last_reported":1718730434,"current_range_meters":2800,"station_id":"ce4bh3p2rcd13ifvqdq0","pricing_plan_id":"cebpf4jnsgd1na2vs0mg"},{"bike_id":"bc6a0562-5602-4b24-bc74-20cd0bae39aa","system_id":"levelo_inurba_marseille","lat":43.301117,"lon":5.398795,"is_reserved":false,"is_disabled":false,"rental_uris":{"android":"levelo://app?vid=bc6a0562-5602-4b24-bc74-20cd0bae39aa","ios":"levelo://app?vid=bc6a0562-5602-4b24-bc74-20cd0bae39aa"},"vehicle_type_id":"4","last_reported":1718730434,"current_range_meters":22400,"station_id":"ce4bh0h2rcd13ifvqd40","pricing_plan_id":"cebpf4jnsgd1na2vs0mg"},{"bike_id":"f365957d-76f8-42ca-a8c6-7a01d26ee0ec","system_id":"levelo_inurba_marseille","lat":43.291177,"lon":5.386742,"is_reserved":false,"is_disabled":false,"rental_uris":{"android":"levelo://app?vid=f365957d-76f8-42ca-a8c6-7a01d26ee0ec","ios":"levelo://app?vid=f365957d-76f8-42ca-a8c6-7a01d26ee0ec"},"vehicle_type_id":"4","last_reported":1718730434,"current_range_meters":7200,"station_id":"","pricing_plan_id":"cebpf4jnsgd1na2vs0mg"},{"bike_id":"2e6b6c2c-111b-449c-aa4b-0de2982a8372","system_id":"levelo_inurba_marseille","lat":43.301117,"lon":5.398795,"is_reserved":false,"is_disabled":false,"rental_uris":{"android":"levelo://app?vid=2e6b6c2c-111b-449c-aa4b-0de2982a8372","ios":"levelo://app?vid=2e6b6c2c-111b-449c-aa4b-0de2982a8372"},"vehicle_type_id":"4","last_reported":1718730434,"current_range_meters":1600,"station_id":"ce4bh0h2rcd13ifvqd40","pricing_plan_id":"cebpf4jnsgd1na2vs0mg"},{"bike_id":"e2170e48-57b5-4746-9fff-08744f6e4148","system_id":"levelo_inurba_marseille","lat":43.298681,"lon":5.397225,"is_reserved":false,"is_disabled":false,"rental_uris":{"android":"levelo://app?vid=e2170e48-57b5-4746-9fff-08744f6e4148","ios":"levelo://app?vid=e2170e48-57b5-4746-9fff-08744f6e4148"},"vehicle_type_id":"4","last_reported":1718730434,"current_range_meters":5600,"station_id":"ce4bh0h2rcd13ifvqd50","pricing_plan_id":"cebpf4jnsgd1na2vs0mg"},{"bike_id":"d56a9493-68b2-4991-8fc7-5d63ee470f88","system_id":"levelo_inurba_marseille","lat":43.298681,"lon":5.397225,"is_reserved":false,"is_disabled":false,"rental_uris":{"android":"levelo://app?vid=d56a9493-68b2-4991-8fc7-5d63ee470f88","ios":"levelo://app?vid=d56a9493-68b2-4991-8fc7-5d63ee470f88"},"vehicle_type_id":"4","last_reported":1718730434,"current_range_meters":0,"station_id":"ce4bh0h2rcd13ifvqd50","pricing_plan_id":"cebpf4jnsgd1na2vs0mg"},{"bike_id":"d9139920-1391-4e41-bd88-081f8ddeccde","system_id":"levelo_inurba_marseille","lat":43.286961,"lon":5.373785,"is_reserved":false,"is_disabled":false,"rental_uris":{"android":"levelo://app?vid=d9139920-1391-4e41-bd88-081f8ddeccde","ios":"levelo://app?vid=d9139920-1391-4e41-bd88-081f8ddeccde"},"vehicle_type_id":"4","last_reported":1718730434,"current_range_meters":0,"station_id":"ce4bh3p2rcd13ifvqdq0","pricing_plan_id":"cebpf4jnsgd1na2vs0mg"},{"bike_id":"7b595c0d-7fb7-4d39-ac48-bb7ace58d1f0","system_id":"levelo_inurba_marseille","lat":43.298681,"lon":5.397225,"is_reserved":false,"is_disabled":false,"rental_uris":{"android":"levelo://app?vid=7b595c0d-7fb7-4d39-ac48-bb7ace58d1f0","ios":"levelo://app?vid=7b595c0d-7fb7-4d39-ac48-bb7ace58d1f0"},"vehicle_type_id":"4","last_reported":1718730434,"current_range_meters":14400,"station_id":"ce4bh0h2rcd13ifvqd50","pricing_plan_id":"cebpf4jnsgd1na2vs0mg"},{"bike_id":"9501a639-36b0-45bd-8503-7b52b9afabc1","system_id":"levelo_inurba_marseille","lat":43.287185,"lon":5.379373,"is_reserved":false,"is_disabled":false,"rental_uris":{"android":"levelo://app?vid=9501a639-36b0-45bd-8503-7b52b9afabc1","ios":"levelo://app?vid=9501a639-36b0-45bd-8503-7b52b9afabc1"},"vehicle_type_id":"4","last_reported":1718730434,"current_range_meters":4800,"station_id":"ce4bh9p2rcd13ifvqec0","pricing_plan_id":"cebpf4jnsgd1na2vs0mg"},{"bike_id":"64e9cc9f-5bd9-44b6-9e53-f60caf44225d","system_id":"levelo_inurba_marseille","lat":43.289307,"lon":5.38406,"is_reserved":false,"is_disabled":false,"rental_uris":{"android":"levelo://app?vid=64e9cc9f-5bd9-44b6-9e53-f60caf44225d","ios":"levelo://app?vid=64e9cc9f-5bd9-44b6-9e53-f60caf44225d"},"vehicle_type_id":"4","last_reported":1718730434,"current_range_meters":0,"station_id":"ce4bh612rcd13ifvqe6g","pricing_plan_id":"cebpf4jnsgd1na2vs0mg"},{"bike_id":"b22217d5-9448-4545-9ab5-6ad17392987d","system_id":"levelo_inurba_marseille","lat":43.289307,"lon":5.38406,"is_reserved":false,"is_disabled":false,"rental_uris":{"android":"levelo://app?vid=b22217d5-9448-4545-9ab5-6ad17392987d","ios":"levelo://app?vid=b22217d5-9448-4545-9ab5-6ad17392987d"},"vehicle_type_id":"4","last_reported":1718730434,"current_range_meters":19200,"station_id":"ce4bh612rcd13ifvqe6g","pricing_plan_id":"cebpf4jnsgd1na2vs0mg"},{"bike_id":"1f8de88a-14c7-4c6c-81c7-d00940d26d4f","system_id":"levelo_inurba_marseille","lat":43.295196,"lon":5.39397,"is_reserved":false,"is_disabled":false,"rental_uris":{"android":"levelo://app?vid=1f8de88a-14c7-4c6c-81c7-d00940d26d4f","ios":"levelo://app?vid=1f8de88a-14c7-4c6c-81c7-d00940d26d4f"},"vehicle_type_id":"4","last_reported":1718730434,"current_range_meters":4000,"station_id":"ce4bh292rcd13ifvqdf0","pricing_plan_id":"cebpf4jnsgd1na2vs0mg"},{"bike_id":"e45812e1-29cc-4dfa-867a-0841b59f0bac","system_id":"levelo_inurba_marseille","lat":43.290336,"lon":5.386425,"is_reserved":false,"is_disabled":false,"rental_uris":{"android":"levelo://app?vid=e45812e1-29cc-4dfa-867a-0841b59f0bac","ios":"levelo://app?vid=e45812e1-29cc-4dfa-867a-0841b59f0bac"},"vehicle_type_id":"4","last_reported":1718730434,"current_range_meters":0,"station_id":"ce4bh4p2rcd13ifvqe0g","pricing_plan_id":"cebpf4jnsgd1na2vs0mg"},{"bike_id":"b5b5f2b7-0d44-45c0-be4d-bc422c90fa97","system_id":"levelo_inurba_marseille","lat":43.286039,"lon":5.370679,"is_reserved":false,"is_disabled":false,"rental_uris":{"android":"levelo://app?vid=b5b5f2b7-0d44-45c0-be4d-bc422c90fa97","ios":"levelo://app?vid=b5b5f2b7-0d44-45c0-be4d-bc422c90fa97"},"vehicle_type_id":"4","last_reported":1718730434,"current_range_meters":20000,"station_id":"ce4bht12rcd13ifvqi60","pricing_plan_id":"cebpf4jnsgd1na2vs0mg"},{"bike_id":"1c41c1c5-3339-4a60-9cea-464e020e7594","system_id":"levelo_inurba_marseille","lat":43.302759,"lon":5.400793,"is_reserved":false,"is_disabled":false,"rental_uris":{"android":"levelo://app?vid=1c41c1c5-3339-4a60-9cea-464e020e7594","ios":"levelo://app?vid=1c41c1c5-3339-4a60-9cea-464e020e7594"},"vehicle_type_id":"4","last_reported":1718730434,"current_range_meters":22400,"station_id":"ce4bgvh2rcd13ifvqcs0","pricing_plan_id":"cebpf4jnsgd1na2vs0mg"},{"bike_id":"6a4286b1-1412-4e94-b453-c6c31a4723af","system_id":"levelo_inurba_marseille","lat":43.302759,"lon":5.400793,"is_reserved":false,"is_disabled":false,"rental_uris":{"android":"levelo://app?vid=6a4286b1-1412-4e94-b453-c6c31a4723af","ios":"levelo://app?vid=6a4286b1-1412-4e94-b453-c6c31a4723af"},"vehicle_type_id":"4","last_reported":1718730434,"current_range_meters":15600,"station_id":"ce4bgvh2rcd13ifvqcs0","pricing_plan_id":"cebpf4jnsgd1na2vs0mg"},{"bike_id":"7da52684-4ce0-443e-81e6-791b192affa9","system_id":"levelo_inurba_marseille","lat":43.286039,"lon":5.370681,"is_reserved":false,"is_disabled":false,"rental_uris":{"android":"levelo://app?vid=7da52684-4ce0-443e-81e6-791b192affa9","ios":"levelo://app?vid=7da52684-4ce0-443e-81e6-791b192affa9"},"vehicle_type_id":"4","last_reported":1718730434,"current_range_meters":1600,"station_id":"ce4bht12rcd13ifvqi60","pricing_plan_id":"cebpf4jnsgd1na2vs0mg"},{"bike_id":"fdb71d09-df42-4cb0-ae30-cfb49e150548","system_id":"levelo_inurba_marseille","lat":43.28731,"lon":5.37941,"is_reserved":false,"is_disabled":false,"rental_uris":{"android":"levelo://app?vid=fdb71d09-df42-4cb0-ae30-cfb49e150548","ios":"levelo://app?vid=fdb71d09-df42-4cb0-ae30-cfb49e150548"},"vehicle_type_id":"4","last_reported":1718730434,"current_range_meters":400,"station_id":"ce4bh9p2rcd13ifvqec0","pricing_plan_id":"cebpf4jnsgd1na2vs0mg"},{"bike_id":"0683be1b-ca9e-4dea-a422-10a0e3c3fa6e","system_id":"levelo_inurba_marseille","lat":43.287185,"lon":5.379373,"is_reserved":false,"is_disabled":false,"rental_uris":{"android":"levelo://app?vid=0683be1b-ca9e-4dea-a422-10a0e3c3fa6e","ios":"levelo://app?vid=0683be1b-ca9e-4dea-a422-10a0e3c3fa6e"},"vehicle_type_id":"4","last_reported":1718730434,"current_range_meters":0,"station_id":"ce4bh9p2rcd13ifvqec0","pricing_plan_id":"cebpf4jnsgd1na2vs0mg"},{"bike_id":"b2ae5a47-98c0-4b82-8cb7-40cf47bd8c16","system_id":"levelo_inurba_marseille","lat":43.28716,"lon":5.37948,"is_reserved":false,"is_disabled":false,"rental_uris":{"android":"levelo://app?vid=b2ae5a47-98c0-4b82-8cb7-40cf47bd8c16","ios":"levelo://app?vid=b2ae5a47-98c0-4b82-8cb7-40cf47bd8c16"},"vehicle_type_id":"4","last_reported":1718730434,"current_range_meters":10800,"station_id":"ce4bh9p2rcd13ifvqec0","pricing_plan_id":"cebpf4jnsgd1na2vs0mg"},{"bike_id":"950fb5ad-c56f-4a53-9b04-0da916c3f8d3","system_id":"levelo_inurba_marseille","lat":43.287185,"lon":5.379373,"is_reserved":false,"is_disabled":false,"rental_uris":{"android":"levelo://app?vid=950fb5ad-c56f-4a53-9b04-0da916c3f8d3","ios":"levelo://app?vid=950fb5ad-c56f-4a53-9b04-0da916c3f8d3"},"vehicle_type_id":"4","last_reported":1718730434,"current_range_meters":8800,"station_id":"ce4bh9p2rcd13ifvqec0","pricing_plan_id":"cebpf4jnsgd1na2vs0mg"},{"bike_id":"aa7fc5b7-2612-4273-a932-1f4288ae65c1","system_id":"levelo_inurba_marseille","lat":43.31688,"lon":5.40479,"is_reserved":false,"is_disabled":false,"rental_uris":{"android":"levelo://app?vid=aa7fc5b7-2612-4273-a932-1f4288ae65c1","ios":"levelo://app?vid=aa7fc5b7-2612-4273-a932-1f4288ae65c1"},"vehicle_type_id":"4","last_reported":1718730434,"current_range_meters":0,"station_id":"ce4bh012rcd13ifvqd00","pricing_plan_id":"cebpf4jnsgd1na2vs0mg"},{"bike_id":"fa9def6d-f207-4343-9602-58fc64b5f98e","system_id":"levelo_inurba_marseille","lat":43.30296,"lon":5.403151,"is_reserved":false,"is_disabled":false,"rental_uris":{"android":"levelo://app?vid=fa9def6d-f207-4343-9602-58fc64b5f98e","ios":"levelo://app?vid=fa9def6d-f207-4343-9602-58fc64b5f98e"},"vehicle_type_id":"4","last_reported":1718730434,"current_range_meters":14000,"station_id":"","pricing_plan_id":"cebpf4jnsgd1na2vs0mg"},{"bike_id":"3372f1b2-4c4a-4f0d-9f0c-51c6de559e59","system_id":"levelo_inurba_marseille","lat":43.29198,"lon":5.39315,"is_reserved":false,"is_disabled":false,"rental_uris":{"android":"levelo://app?vid=3372f1b2-4c4a-4f0d-9f0c-51c6de559e59","ios":"levelo://app?vid=3372f1b2-4c4a-4f0d-9f0c-51c6de559e59"},"vehicle_type_id":"4","last_reported":1718730434,"current_range_meters":0,"station_id":"ce4bh192rcd13ifvqdd0","pricing_plan_id":"cebpf4jnsgd1na2vs0mg"},{"bike_id":"66cd351d-6779-49c3-a819-3b68a9191fba","system_id":"levelo_inurba_marseille","lat":43.284534,"lon":5.358662,"is_reserved":false,"is_disabled":false,"rental_uris":{"android":"levelo://app?vid=66cd351d-6779-49c3-a819-3b68a9191fba","ios":"levelo://app?vid=66cd351d-6779-49c3-a819-3b68a9191fba"},"vehicle_type_id":"4","last_reported":1718730434,"current_range_meters":24000,"station_id":"ce4bhah2rcd13ifvqei0","pricing_plan_id":"cebpf4jnsgd1na2vs0mg"},{"bike_id":"1010da35-9a50-41e7-827f-fffac4d01c5d","system_id":"levelo_inurba_marseille","lat":43.284534,"lon":5.358662,"is_reserved":false,"is_disabled":false,"rental_uris":{"android":"levelo://app?vid=1010da35-9a50-41e7-827f-fffac4d01c5d","ios":"levelo://app?vid=1010da35-9a50-41e7-827f-fffac4d01c5d"},"vehicle_type_id":"4","last_reported":1718730434,"current_range_meters":4000,"station_id":"ce4bhah2rcd13ifvqei0","pricing_plan_id":"cebpf4jnsgd1na2vs0mg"},{"bike_id":"8ba9d74f-6c28-4e36-b975-9e0302302b2a","system_id":"levelo_inurba_marseille","lat":43.284534,"lon":5.358662,"is_reserved":false,"is_disabled":false,"rental_uris":{"android":"levelo://app?vid=8ba9d74f-6c28-4e36-b975-9e0302302b2a","ios":"levelo://app?vid=8ba9d74f-6c28-4e36-b975-9e0302302b2a"},"vehicle_type_id":"4","last_reported":1718730434,"current_range_meters":14400,"station_id":"ce4bhah2rcd13ifvqei0","pricing_plan_id":"cebpf4jnsgd1na2vs0mg"},{"bike_id":"514e9bcd-9809-407f-88f3-6b69bf6b8df1","system_id":"levelo_inurba_marseille","lat":43.28463,"lon":5.35882,"is_reserved":false,"is_disabled":false,"rental_uris":{"android":"levelo://app?vid=514e9bcd-9809-407f-88f3-6b69bf6b8df1","ios":"levelo://app?vid=514e9bcd-9809-407f-88f3-6b69bf6b8df1"},"vehicle_type_id":"4","last_reported":1718730434,"current_range_meters":13600,"station_id":"ce4bhah2rcd13ifvqei0","pricing_plan_id":"cebpf4jnsgd1na2vs0mg"},{"bike_id":"7e8530f0-055b-4ef4-945c-d1bf59935b01","system_id":"levelo_inurba_marseille","lat":43.284534,"lon":5.358662,"is_reserved":false,"is_disabled":false,"rental_uris":{"android":"levelo://app?vid=7e8530f0-055b-4ef4-945c-d1bf59935b01","ios":"levelo://app?vid=7e8530f0-055b-4ef4-945c-d1bf59935b01"},"vehicle_type_id":"4","last_reported":1718730434,"current_range_meters":5600,"station_id":"ce4bhah2rcd13ifvqei0","pricing_plan_id":"cebpf4jnsgd1na2vs0mg"},{"bike_id":"5d70bbe8-30b3-47db-a465-e8eff5ee1ed4","system_id":"levelo_inurba_marseille","lat":43.28459,"lon":5.35884,"is_reserved":false,"is_disabled":false,"rental_uris":{"android":"levelo://app?vid=5d70bbe8-30b3-47db-a465-e8eff5ee1ed4","ios":"levelo://app?vid=5d70bbe8-30b3-47db-a465-e8eff5ee1ed4"},"vehicle_type_id":"4","last_reported":1718730434,"current_range_meters":0,"station_id":"ce4bhah2rcd13ifvqei0","pricing_plan_id":"cebpf4jnsgd1na2vs0mg"},{"bike_id":"d7fd2fbd-f6cc-4247-a463-298dba3b5b39","system_id":"levelo_inurba_marseille","lat":43.28459,"lon":5.35877,"is_reserved":false,"is_disabled":false,"rental_uris":{"android":"levelo://app?vid=d7fd2fbd-f6cc-4247-a463-298dba3b5b39","ios":"levelo://app?vid=d7fd2fbd-f6cc-4247-a463-298dba3b5b39"},"vehicle_type_id":"4","last_reported":1718730434,"current_range_meters":800,"station_id":"ce4bhah2rcd13ifvqei0","pricing_plan_id":"cebpf4jnsgd1na2vs0mg"},{"bike_id":"9123222a-e152-4424-b12d-612c0f7fd10d","system_id":"levelo_inurba_marseille","lat":43.28618,"lon":5.35102,"is_reserved":false,"is_disabled":false,"rental_uris":{"android":"levelo://app?vid=9123222a-e152-4424-b12d-612c0f7fd10d","ios":"levelo://app?vid=9123222a-e152-4424-b12d-612c0f7fd10d"},"vehicle_type_id":"4","last_reported":1718730434,"current_range_meters":21600,"station_id":"ce4bhch2rcd13ifvqeug","pricing_plan_id":"cebpf4jnsgd1na2vs0mg"},{"bike_id":"b2d8724c-9051-4019-abcb-729f03602693","system_id":"levelo_inurba_marseille","lat":43.285856,"lon":5.350771,"is_reserved":false,"is_disabled":false,"rental_uris":{"android":"levelo://app?vid=b2d8724c-9051-4019-abcb-729f03602693","ios":"levelo://app?vid=b2d8724c-9051-4019-abcb-729f03602693"},"vehicle_type_id":"4","last_reported":1718730434,"current_range_meters":30000,"station_id":"ce4bhch2rcd13ifvqeug","pricing_plan_id":"cebpf4jnsgd1na2vs0mg"},{"bike_id":"9a0e838e-568b-4ee9-a26d-a6d4187768fe","system_id":"levelo_inurba_marseille","lat":43.28613,"lon":5.35107,"is_reserved":false,"is_disabled":false,"rental_uris":{"android":"levelo://app?vid=9a0e838e-568b-4ee9-a26d-a6d4187768fe","ios":"levelo://app?vid=9a0e838e-568b-4ee9-a26d-a6d4187768fe"},"vehicle_type_id":"4","last_reported":1718730434,"current_range_meters":0,"station_id":"ce4bhch2rcd13ifvqeug","pricing_plan_id":"cebpf4jnsgd1na2vs0mg"},{"bike_id":"60834d7c-a4ad-4416-b484-a06753089423","system_id":"levelo_inurba_marseille","lat":43.285848,"lon":5.350787,"is_reserved":false,"is_disabled":false,"rental_uris":{"android":"levelo://app?vid=60834d7c-a4ad-4416-b484-a06753089423","ios":"levelo://app?vid=60834d7c-a4ad-4416-b484-a06753089423"},"vehicle_type_id":"4","last_reported":1718730434,"current_range_meters":15600,"station_id":"ce4bhch2rcd13ifvqeug","pricing_plan_id":"cebpf4jnsgd1na2vs0mg"},{"bike_id":"b6b1ed98-c23b-467c-a656-e79024a78baf","system_id":"levelo_inurba_marseille","lat":43.285856,"lon":5.350771,"is_reserved":false,"is_disabled":false,"rental_uris":{"android":"levelo://app?vid=b6b1ed98-c23b-467c-a656-e79024a78baf","ios":"levelo://app?vid=b6b1ed98-c23b-467c-a656-e79024a78baf"},"vehicle_type_id":"4","last_reported":1718730434,"current_range_meters":3200,"station_id":"ce4bhch2rcd13ifvqeug","pricing_plan_id":"cebpf4jnsgd1na2vs0mg"},{"bike_id":"d58750c2-cd8b-41e2-bc2a-4b694cc8e6a4","system_id":"levelo_inurba_marseille","lat":43.28612,"lon":5.35104,"is_reserved":false,"is_disabled":false,"rental_uris":{"android":"levelo://app?vid=d58750c2-cd8b-41e2-bc2a-4b694cc8e6a4","ios":"levelo://app?vid=d58750c2-cd8b-41e2-bc2a-4b694cc8e6a4"},"vehicle_type_id":"4","last_reported":1718730434,"current_range_meters":6000,"station_id":"ce4bhch2rcd13ifvqeug","pricing_plan_id":"cebpf4jnsgd1na2vs0mg"},{"bike_id":"bc34a63e-ab91-4694-8063-e7da66b8b623","system_id":"levelo_inurba_marseille","lat":43.285856,"lon":5.350771,"is_reserved":false,"is_disabled":false,"rental_uris":{"android":"levelo://app?vid=bc34a63e-ab91-4694-8063-e7da66b8b623","ios":"levelo://app?vid=bc34a63e-ab91-4694-8063-e7da66b8b623"},"vehicle_type_id":"4","last_reported":1718730434,"current_range_meters":0,"station_id":"ce4bhch2rcd13ifvqeug","pricing_plan_id":"cebpf4jnsgd1na2vs0mg"},{"bike_id":"22398ad9-9ba8-4be9-b7ba-c18056c98e98","system_id":"levelo_inurba_marseille","lat":43.285856,"lon":5.350771,"is_reserved":false,"is_disabled":false,"rental_uris":{"android":"levelo://app?vid=22398ad9-9ba8-4be9-b7ba-c18056c98e98","ios":"levelo://app?vid=22398ad9-9ba8-4be9-b7ba-c18056c98e98"},"vehicle_type_id":"4","last_reported":1718730434,"current_range_meters":7600,"station_id":"ce4bhch2rcd13ifvqeug","pricing_plan_id":"cebpf4jnsgd1na2vs0mg"},{"bike_id":"65eea447-385d-4a26-b17c-ca1e2705fab5","system_id":"levelo_inurba_marseille","lat":43.28612,"lon":5.35099,"is_reserved":false,"is_disabled":false,"rental_uris":{"android":"levelo://app?vid=65eea447-385d-4a26-b17c-ca1e2705fab5","ios":"levelo://app?vid=65eea447-385d-4a26-b17c-ca1e2705fab5"},"vehicle_type_id":"4","last_reported":1718730434,"current_range_meters":20000,"station_id":"ce4bhch2rcd13ifvqeug","pricing_plan_id":"cebpf4jnsgd1na2vs0mg"},{"bike_id":"1d5105d0-2dd8-40aa-8a4b-d0b65378f500","system_id":"levelo_inurba_marseille","lat":43.28611,"lon":5.35102,"is_reserved":false,"is_disabled":false,"rental_uris":{"android":"levelo://app?vid=1d5105d0-2dd8-40aa-8a4b-d0b65378f500","ios":"levelo://app?vid=1d5105d0-2dd8-40aa-8a4b-d0b65378f500"},"vehicle_type_id":"4","last_reported":1718730434,"current_range_meters":23200,"station_id":"ce4bhch2rcd13ifvqeug","pricing_plan_id":"cebpf4jnsgd1na2vs0mg"},{"bike_id":"7990bb25-375a-48ae-8cc6-fd8269f362f3","system_id":"levelo_inurba_marseille","lat":43.2861,"lon":5.35104,"is_reserved":false,"is_disabled":false,"rental_uris":{"android":"levelo://app?vid=7990bb25-375a-48ae-8cc6-fd8269f362f3","ios":"levelo://app?vid=7990bb25-375a-48ae-8cc6-fd8269f362f3"},"vehicle_type_id":"4","last_reported":1718730434,"current_range_meters":19600,"station_id":"ce4bhch2rcd13ifvqeug","pricing_plan_id":"cebpf4jnsgd1na2vs0mg"},{"bike_id":"623bf7bf-ee04-4e68-9f10-9419b4aafd90","system_id":"levelo_inurba_marseille","lat":43.28608,"lon":5.35098,"is_reserved":false,"is_disabled":false,"rental_uris":{"android":"levelo://app?vid=623bf7bf-ee04-4e68-9f10-9419b4aafd90","ios":"levelo://app?vid=623bf7bf-ee04-4e68-9f10-9419b4aafd90"},"vehicle_type_id":"4","last_reported":1718730434,"current_range_meters":31200,"station_id":"ce4bhch2rcd13ifvqeug","pricing_plan_id":"cebpf4jnsgd1na2vs0mg"},{"bike_id":"af23bd4d-0870-41ed-ba5a-8af9e977eb9e","system_id":"levelo_inurba_marseille","lat":43.283998,"lon":5.375062,"is_reserved":false,"is_disabled":false,"rental_uris":{"android":"levelo://app?vid=af23bd4d-0870-41ed-ba5a-8af9e977eb9e","ios":"levelo://app?vid=af23bd4d-0870-41ed-ba5a-8af9e977eb9e"},"vehicle_type_id":"4","last_reported":1718730434,"current_range_meters":0,"station_id":"ce4bh412rcd13ifvqds0","pricing_plan_id":"cebpf4jnsgd1na2vs0mg"},{"bike_id":"3f48cd0b-0a77-42d2-8790-3f5d9da0c8bd","system_id":"levelo_inurba_marseille","lat":43.283998,"lon":5.375062,"is_reserved":false,"is_disabled":false,"rental_uris":{"android":"levelo://app?vid=3f48cd0b-0a77-42d2-8790-3f5d9da0c8bd","ios":"levelo://app?vid=3f48cd0b-0a77-42d2-8790-3f5d9da0c8bd"},"vehicle_type_id":"4","last_reported":1718730434,"current_range_meters":0,"station_id":"ce4bh412rcd13ifvqds0","pricing_plan_id":"cebpf4jnsgd1na2vs0mg"},{"bike_id":"b34581f6-8d8b-43ae-9836-749d17422370","system_id":"levelo_inurba_marseille","lat":43.295713,"lon":5.399639,"is_reserved":false,"is_disabled":false,"rental_uris":{"android":"levelo://app?vid=b34581f6-8d8b-43ae-9836-749d17422370","ios":"levelo://app?vid=b34581f6-8d8b-43ae-9836-749d17422370"},"vehicle_type_id":"4","last_reported":1718730434,"current_range_meters":20000,"station_id":"ce4bh312rcd13ifvqdj0","pricing_plan_id":"cebpf4jnsgd1na2vs0mg"},{"bike_id":"f4825476-5a9f-4ae2-b74d-3e4512a68f44","system_id":"levelo_inurba_marseille","lat":43.29574,"lon":5.39968,"is_reserved":false,"is_disabled":false,"rental_uris":{"android":"levelo://app?vid=f4825476-5a9f-4ae2-b74d-3e4512a68f44","ios":"levelo://app?vid=f4825476-5a9f-4ae2-b74d-3e4512a68f44"},"vehicle_type_id":"4","last_reported":1718730434,"current_range_meters":18000,"station_id":"","pricing_plan_id":"cebpf4jnsgd1na2vs0mg"},{"bike_id":"a86ac5d1-cf09-48a3-bcd2-2574527db4e0","system_id":"levelo_inurba_marseille","lat":43.283998,"lon":5.375062,"is_reserved":false,"is_disabled":false,"rental_uris":{"android":"levelo://app?vid=a86ac5d1-cf09-48a3-bcd2-2574527db4e0","ios":"levelo://app?vid=a86ac5d1-cf09-48a3-bcd2-2574527db4e0"},"vehicle_type_id":"4","last_reported":1718730434,"current_range_meters":11200,"station_id":"ce4bh412rcd13ifvqds0","pricing_plan_id":"cebpf4jnsgd1na2vs0mg"},{"bike_id":"4a477bca-c288-492d-a925-fd54d2272301","system_id":"levelo_inurba_marseille","lat":43.282744,"lon":5.350533,"is_reserved":false,"is_disabled":false,"rental_uris":{"android":"levelo://app?vid=4a477bca-c288-492d-a925-fd54d2272301","ios":"levelo://app?vid=4a477bca-c288-492d-a925-fd54d2272301"},"vehicle_type_id":"4","last_reported":1718730434,"current_range_meters":30800,"station_id":"ce4bhbp2rcd13ifvqerg","pricing_plan_id":"cebpf4jnsgd1na2vs0mg"},{"bike_id":"e39bd5c3-6b9c-4325-a6c6-8426935deab9","system_id":"levelo_inurba_marseille","lat":43.285846,"lon":5.384054,"is_reserved":false,"is_disabled":false,"rental_uris":{"android":"levelo://app?vid=e39bd5c3-6b9c-4325-a6c6-8426935deab9","ios":"levelo://app?vid=e39bd5c3-6b9c-4325-a6c6-8426935deab9"},"vehicle_type_id":"4","last_reported":1718730434,"current_range_meters":8000,"station_id":"","pricing_plan_id":"cebpf4jnsgd1na2vs0mg"},{"bike_id":"cb170ca8-6e4f-4794-907a-f0be425b132f","system_id":"levelo_inurba_marseille","lat":43.286595,"lon":5.386795,"is_reserved":false,"is_disabled":false,"rental_uris":{"android":"levelo://app?vid=cb170ca8-6e4f-4794-907a-f0be425b132f","ios":"levelo://app?vid=cb170ca8-6e4f-4794-907a-f0be425b132f"},"vehicle_type_id":"4","last_reported":1718730434,"current_range_meters":12400,"station_id":"ce4bh492rcd13ifvqdug","pricing_plan_id":"cebpf4jnsgd1na2vs0mg"},{"bike_id":"1708d113-7180-48aa-abaa-2578bd4c1e8e","system_id":"levelo_inurba_marseille","lat":43.283494,"lon":5.380945,"is_reserved":false,"is_disabled":false,"rental_uris":{"android":"levelo://app?vid=1708d113-7180-48aa-abaa-2578bd4c1e8e","ios":"levelo://app?vid=1708d113-7180-48aa-abaa-2578bd4c1e8e"},"vehicle_type_id":"4","last_reported":1718730434,"current_range_meters":0,"station_id":"ce4bh412rcd13ifvqdr0","pricing_plan_id":"cebpf4jnsgd1na2vs0mg"},{"bike_id":"7e37d85b-3d83-4cac-88fd-fe130eb1f1ed","system_id":"levelo_inurba_marseille","lat":43.284987,"lon":5.383373,"is_reserved":false,"is_disabled":false,"rental_uris":{"android":"levelo://app?vid=7e37d85b-3d83-4cac-88fd-fe130eb1f1ed","ios":"levelo://app?vid=7e37d85b-3d83-4cac-88fd-fe130eb1f1ed"},"vehicle_type_id":"4","last_reported":1718730434,"current_range_meters":0,"station_id":"","pricing_plan_id":"cebpf4jnsgd1na2vs0mg"},{"bike_id":"0ce19550-1d7a-4bef-87b5-8c492030bcd2","system_id":"levelo_inurba_marseille","lat":43.33717,"lon":5.391857,"is_reserved":false,"is_disabled":false,"rental_uris":{"android":"levelo://app?vid=0ce19550-1d7a-4bef-87b5-8c492030bcd2","ios":"levelo://app?vid=0ce19550-1d7a-4bef-87b5-8c492030bcd2"},"vehicle_type_id":"4","last_reported":1718730434,"current_range_meters":16400,"station_id":"ce4bhr92rcd13ifvqhsg","pricing_plan_id":"cebpf4jnsgd1na2vs0mg"},{"bike_id":"a293da62-e9d7-4122-9cbd-61fcd87324e5","system_id":"levelo_inurba_marseille","lat":43.33717,"lon":5.391857,"is_reserved":false,"is_disabled":false,"rental_uris":{"android":"levelo://app?vid=a293da62-e9d7-4122-9cbd-61fcd87324e5","ios":"levelo://app?vid=a293da62-e9d7-4122-9cbd-61fcd87324e5"},"vehicle_type_id":"4","last_reported":1718730434,"current_range_meters":10000,"station_id":"ce4bhr92rcd13ifvqhsg","pricing_plan_id":"cebpf4jnsgd1na2vs0mg"},{"bike_id":"03d645c0-b622-4f06-bfab-15c9f87058dc","system_id":"levelo_inurba_marseille","lat":43.32343,"lon":5.40619,"is_reserved":false,"is_disabled":false,"rental_uris":{"android":"levelo://app?vid=03d645c0-b622-4f06-bfab-15c9f87058dc","ios":"levelo://app?vid=03d645c0-b622-4f06-bfab-15c9f87058dc"},"vehicle_type_id":"4","last_reported":1718730434,"current_range_meters":17600,"station_id":"ce4bhq92rcd13ifvqhjg","pricing_plan_id":"cebpf4jnsgd1na2vs0mg"},{"bike_id":"2afec3c0-d05c-43c9-af44-f66068f4ba36","system_id":"levelo_inurba_marseille","lat":43.323464,"lon":5.406297,"is_reserved":false,"is_disabled":false,"rental_uris":{"android":"levelo://app?vid=2afec3c0-d05c-43c9-af44-f66068f4ba36","ios":"levelo://app?vid=2afec3c0-d05c-43c9-af44-f66068f4ba36"},"vehicle_type_id":"4","last_reported":1718730434,"current_range_meters":7600,"station_id":"ce4bhq92rcd13ifvqhjg","pricing_plan_id":"cebpf4jnsgd1na2vs0mg"},{"bike_id":"a28952db-7b4a-4942-903b-4c1d147cfc7b","system_id":"levelo_inurba_marseille","lat":43.33717,"lon":5.391857,"is_reserved":false,"is_disabled":false,"rental_uris":{"android":"levelo://app?vid=a28952db-7b4a-4942-903b-4c1d147cfc7b","ios":"levelo://app?vid=a28952db-7b4a-4942-903b-4c1d147cfc7b"},"vehicle_type_id":"4","last_reported":1718730434,"current_range_meters":0,"station_id":"ce4bhr92rcd13ifvqhsg","pricing_plan_id":"cebpf4jnsgd1na2vs0mg"},{"bike_id":"aca5e9d5-d1e8-4189-8347-e2b417a845e7","system_id":"levelo_inurba_marseille","lat":43.28472,"lon":5.38415,"is_reserved":false,"is_disabled":false,"rental_uris":{"android":"levelo://app?vid=aca5e9d5-d1e8-4189-8347-e2b417a845e7","ios":"levelo://app?vid=aca5e9d5-d1e8-4189-8347-e2b417a845e7"},"vehicle_type_id":"4","last_reported":1718730434,"current_range_meters":0,"station_id":"ce4bh512rcd13ifvqe3g","pricing_plan_id":"cebpf4jnsgd1na2vs0mg"},{"bike_id":"071bbf63-7c03-4f6b-82b7-f9d91bf27105","system_id":"levelo_inurba_marseille","lat":43.283498,"lon":5.380948,"is_reserved":false,"is_disabled":false,"rental_uris":{"android":"levelo://app?vid=071bbf63-7c03-4f6b-82b7-f9d91bf27105","ios":"levelo://app?vid=071bbf63-7c03-4f6b-82b7-f9d91bf27105"},"vehicle_type_id":"4","last_reported":1718730434,"current_range_meters":12800,"station_id":"ce4bh412rcd13ifvqdr0","pricing_plan_id":"cebpf4jnsgd1na2vs0mg"},{"bike_id":"80d9b299-b9b7-4e5b-a9b0-8cae34511100","system_id":"levelo_inurba_marseille","lat":43.283467,"lon":5.381063,"is_reserved":false,"is_disabled":false,"rental_uris":{"android":"levelo://app?vid=80d9b299-b9b7-4e5b-a9b0-8cae34511100","ios":"levelo://app?vid=80d9b299-b9b7-4e5b-a9b0-8cae34511100"},"vehicle_type_id":"4","last_reported":1718730434,"current_range_meters":0,"station_id":"ce4bh412rcd13ifvqdr0","pricing_plan_id":"cebpf4jnsgd1na2vs0mg"},{"bike_id":"d8f8cb83-614d-4f27-abc2-8a5bbc14c2a3","system_id":"levelo_inurba_marseille","lat":43.28426,"lon":5.34988,"is_reserved":false,"is_disabled":false,"rental_uris":{"android":"levelo://app?vid=d8f8cb83-614d-4f27-abc2-8a5bbc14c2a3","ios":"levelo://app?vid=d8f8cb83-614d-4f27-abc2-8a5bbc14c2a3"},"vehicle_type_id":"4","last_reported":1718730434,"current_range_meters":20000,"station_id":"ce4bhbh2rcd13ifvqepg","pricing_plan_id":"cebpf4jnsgd1na2vs0mg"},{"bike_id":"a40951db-5f0f-483b-b754-fb5163603da5","system_id":"levelo_inurba_marseille","lat":43.284226,"lon":5.349879,"is_reserved":false,"is_disabled":false,"rental_uris":{"android":"levelo://app?vid=a40951db-5f0f-483b-b754-fb5163603da5","ios":"levelo://app?vid=a40951db-5f0f-483b-b754-fb5163603da5"},"vehicle_type_id":"4","last_reported":1718730434,"current_range_meters":12000,"station_id":"ce4bhbh2rcd13ifvqepg","pricing_plan_id":"cebpf4jnsgd1na2vs0mg"},{"bike_id":"5412809f-8ef5-4a96-86c4-db368a7fc8b8","system_id":"levelo_inurba_marseille","lat":43.284214,"lon":5.349706,"is_reserved":false,"is_disabled":false,"rental_uris":{"android":"levelo://app?vid=5412809f-8ef5-4a96-86c4-db368a7fc8b8","ios":"levelo://app?vid=5412809f-8ef5-4a96-86c4-db368a7fc8b8"},"vehicle_type_id":"4","last_reported":1718730434,"current_range_meters":27200,"station_id":"ce4bhbh2rcd13ifvqepg","pricing_plan_id":"cebpf4jnsgd1na2vs0mg"},{"bike_id":"b4843cab-c350-44d7-bf0f-ee4804bb9544","system_id":"levelo_inurba_marseille","lat":43.284226,"lon":5.349876,"is_reserved":false,"is_disabled":false,"rental_uris":{"android":"levelo://app?vid=b4843cab-c350-44d7-bf0f-ee4804bb9544","ios":"levelo://app?vid=b4843cab-c350-44d7-bf0f-ee4804bb9544"},"vehicle_type_id":"4","last_reported":1718730434,"current_range_meters":13200,"station_id":"ce4bhbh2rcd13ifvqepg","pricing_plan_id":"cebpf4jnsgd1na2vs0mg"},{"bike_id":"ae69dff2-c6ef-4c85-a66b-2c8f5aa8ffbf","system_id":"levelo_inurba_marseille","lat":43.284229,"lon":5.349861,"is_reserved":false,"is_disabled":false,"rental_uris":{"android":"levelo://app?vid=ae69dff2-c6ef-4c85-a66b-2c8f5aa8ffbf","ios":"levelo://app?vid=ae69dff2-c6ef-4c85-a66b-2c8f5aa8ffbf"},"vehicle_type_id":"4","last_reported":1718730434,"current_range_meters":22000,"station_id":"ce4bhbh2rcd13ifvqepg","pricing_plan_id":"cebpf4jnsgd1na2vs0mg"},{"bike_id":"237d4d12-2aca-4f24-9283-6417abf84def","system_id":"levelo_inurba_marseille","lat":43.284217,"lon":5.349873,"is_reserved":false,"is_disabled":false,"rental_uris":{"android":"levelo://app?vid=237d4d12-2aca-4f24-9283-6417abf84def","ios":"levelo://app?vid=237d4d12-2aca-4f24-9283-6417abf84def"},"vehicle_type_id":"4","last_reported":1718730434,"current_range_meters":13200,"station_id":"ce4bhbh2rcd13ifvqepg","pricing_plan_id":"cebpf4jnsgd1na2vs0mg"},{"bike_id":"8214cd35-cdff-40d8-b487-ab17a7cba638","system_id":"levelo_inurba_marseille","lat":43.28421,"lon":5.349889,"is_reserved":false,"is_disabled":false,"rental_uris":{"android":"levelo://app?vid=8214cd35-cdff-40d8-b487-ab17a7cba638","ios":"levelo://app?vid=8214cd35-cdff-40d8-b487-ab17a7cba638"},"vehicle_type_id":"4","last_reported":1718730434,"current_range_meters":23600,"station_id":"ce4bhbh2rcd13ifvqepg","pricing_plan_id":"cebpf4jnsgd1na2vs0mg"},{"bike_id":"7a32a388-21e0-4e88-b357-7a3ae4b21bcc","system_id":"levelo_inurba_marseille","lat":43.28419,"lon":5.34995,"is_reserved":false,"is_disabled":false,"rental_uris":{"android":"levelo://app?vid=7a32a388-21e0-4e88-b357-7a3ae4b21bcc","ios":"levelo://app?vid=7a32a388-21e0-4e88-b357-7a3ae4b21bcc"},"vehicle_type_id":"4","last_reported":1718730434,"current_range_meters":20400,"station_id":"ce4bhbh2rcd13ifvqepg","pricing_plan_id":"cebpf4jnsgd1na2vs0mg"},{"bike_id":"713e9479-e7db-44e9-894a-857a552ad203","system_id":"levelo_inurba_marseille","lat":43.28424,"lon":5.349792,"is_reserved":false,"is_disabled":false,"rental_uris":{"android":"levelo://app?vid=713e9479-e7db-44e9-894a-857a552ad203","ios":"levelo://app?vid=713e9479-e7db-44e9-894a-857a552ad203"},"vehicle_type_id":"4","last_reported":1718730434,"current_range_meters":31200,"station_id":"ce4bhbh2rcd13ifvqepg","pricing_plan_id":"cebpf4jnsgd1na2vs0mg"},{"bike_id":"7797fbd6-1759-465f-a86b-72b9814ec850","system_id":"levelo_inurba_marseille","lat":43.2842,"lon":5.34985,"is_reserved":false,"is_disabled":false,"rental_uris":{"android":"levelo://app?vid=7797fbd6-1759-465f-a86b-72b9814ec850","ios":"levelo://app?vid=7797fbd6-1759-465f-a86b-72b9814ec850"},"vehicle_type_id":"4","last_reported":1718730434,"current_range_meters":23200,"station_id":"ce4bhbh2rcd13ifvqepg","pricing_plan_id":"cebpf4jnsgd1na2vs0mg"},{"bike_id":"cf0a6818-043a-49ef-b1d9-7b02bbd64523","system_id":"levelo_inurba_marseille","lat":43.28418,"lon":5.34988,"is_reserved":false,"is_disabled":false,"rental_uris":{"android":"levelo://app?vid=cf0a6818-043a-49ef-b1d9-7b02bbd64523","ios":"levelo://app?vid=cf0a6818-043a-49ef-b1d9-7b02bbd64523"},"vehicle_type_id":"4","last_reported":1718730434,"current_range_meters":0,"station_id":"ce4bhbh2rcd13ifvqepg","pricing_plan_id":"cebpf4jnsgd1na2vs0mg"},{"bike_id":"bf6e5879-af1a-419a-9b86-4af5615ac7a9","system_id":"levelo_inurba_marseille","lat":43.28418,"lon":5.34986,"is_reserved":false,"is_disabled":false,"rental_uris":{"android":"levelo://app?vid=bf6e5879-af1a-419a-9b86-4af5615ac7a9","ios":"levelo://app?vid=bf6e5879-af1a-419a-9b86-4af5615ac7a9"},"vehicle_type_id":"4","last_reported":1718730434,"current_range_meters":7600,"station_id":"ce4bhbh2rcd13ifvqepg","pricing_plan_id":"cebpf4jnsgd1na2vs0mg"},{"bike_id":"90e779b4-d0be-488c-a807-d163e8ed47b3","system_id":"levelo_inurba_marseille","lat":43.284214,"lon":5.349706,"is_reserved":false,"is_disabled":false,"rental_uris":{"android":"levelo://app?vid=90e779b4-d0be-488c-a807-d163e8ed47b3","ios":"levelo://app?vid=90e779b4-d0be-488c-a807-d163e8ed47b3"},"vehicle_type_id":"4","last_reported":1718730434,"current_range_meters":21600,"station_id":"ce4bhbh2rcd13ifvqepg","pricing_plan_id":"cebpf4jnsgd1na2vs0mg"},{"bike_id":"1ab7ac71-b9ee-404e-91b5-1405ee05ee88","system_id":"levelo_inurba_marseille","lat":43.28415,"lon":5.34993,"is_reserved":false,"is_disabled":false,"rental_uris":{"android":"levelo://app?vid=1ab7ac71-b9ee-404e-91b5-1405ee05ee88","ios":"levelo://app?vid=1ab7ac71-b9ee-404e-91b5-1405ee05ee88"},"vehicle_type_id":"4","last_reported":1718730434,"current_range_meters":18800,"station_id":"ce4bhbh2rcd13ifvqepg","pricing_plan_id":"cebpf4jnsgd1na2vs0mg"},{"bike_id":"f8fe7291-1099-495d-8996-9bf6de8e6844","system_id":"levelo_inurba_marseille","lat":43.284164,"lon":5.349868,"is_reserved":false,"is_disabled":false,"rental_uris":{"android":"levelo://app?vid=f8fe7291-1099-495d-8996-9bf6de8e6844","ios":"levelo://app?vid=f8fe7291-1099-495d-8996-9bf6de8e6844"},"vehicle_type_id":"4","last_reported":1718730434,"current_range_meters":14400,"station_id":"ce4bhbh2rcd13ifvqepg","pricing_plan_id":"cebpf4jnsgd1na2vs0mg"},{"bike_id":"3d83052d-bd39-4082-ace1-4f3f6f7eaa24","system_id":"levelo_inurba_marseille","lat":43.28416,"lon":5.34988,"is_reserved":false,"is_disabled":false,"rental_uris":{"android":"levelo://app?vid=3d83052d-bd39-4082-ace1-4f3f6f7eaa24","ios":"levelo://app?vid=3d83052d-bd39-4082-ace1-4f3f6f7eaa24"},"vehicle_type_id":"4","last_reported":1718730434,"current_range_meters":28800,"station_id":"ce4bhbh2rcd13ifvqepg","pricing_plan_id":"cebpf4jnsgd1na2vs0mg"},{"bike_id":"0b0466d0-5126-4db3-aca5-a035fef596f5","system_id":"levelo_inurba_marseille","lat":43.28417,"lon":5.34983,"is_reserved":false,"is_disabled":false,"rental_uris":{"android":"levelo://app?vid=0b0466d0-5126-4db3-aca5-a035fef596f5","ios":"levelo://app?vid=0b0466d0-5126-4db3-aca5-a035fef596f5"},"vehicle_type_id":"4","last_reported":1718730434,"current_range_meters":26400,"station_id":"ce4bhbh2rcd13ifvqepg","pricing_plan_id":"cebpf4jnsgd1na2vs0mg"},{"bike_id":"0a0d3a30-56b9-4ed7-a297-43c250d5e655","system_id":"levelo_inurba_marseille","lat":43.284148,"lon":5.349899,"is_reserved":false,"is_disabled":false,"rental_uris":{"android":"levelo://app?vid=0a0d3a30-56b9-4ed7-a297-43c250d5e655","ios":"levelo://app?vid=0a0d3a30-56b9-4ed7-a297-43c250d5e655"},"vehicle_type_id":"4","last_reported":1718730434,"current_range_meters":24000,"station_id":"ce4bhbh2rcd13ifvqepg","pricing_plan_id":"cebpf4jnsgd1na2vs0mg"},{"bike_id":"1e4118f0-bbc3-4c1c-9701-804c81e554a4","system_id":"levelo_inurba_marseille","lat":43.28417,"lon":5.34982,"is_reserved":false,"is_disabled":false,"rental_uris":{"android":"levelo://app?vid=1e4118f0-bbc3-4c1c-9701-804c81e554a4","ios":"levelo://app?vid=1e4118f0-bbc3-4c1c-9701-804c81e554a4"},"vehicle_type_id":"4","last_reported":1718730434,"current_range_meters":30000,"station_id":"ce4bhbh2rcd13ifvqepg","pricing_plan_id":"cebpf4jnsgd1na2vs0mg"},{"bike_id":"8ea05fe1-a083-4892-bc32-a67cc080ce2d","system_id":"levelo_inurba_marseille","lat":43.284217,"lon":5.349697,"is_reserved":false,"is_disabled":false,"rental_uris":{"android":"levelo://app?vid=8ea05fe1-a083-4892-bc32-a67cc080ce2d","ios":"levelo://app?vid=8ea05fe1-a083-4892-bc32-a67cc080ce2d"},"vehicle_type_id":"4","last_reported":1718730434,"current_range_meters":28000,"station_id":"ce4bhbh2rcd13ifvqepg","pricing_plan_id":"cebpf4jnsgd1na2vs0mg"},{"bike_id":"0c024007-58c6-490d-9fa5-82bc0d0bad03","system_id":"levelo_inurba_marseille","lat":43.28413,"lon":5.34993,"is_reserved":false,"is_disabled":false,"rental_uris":{"android":"levelo://app?vid=0c024007-58c6-490d-9fa5-82bc0d0bad03","ios":"levelo://app?vid=0c024007-58c6-490d-9fa5-82bc0d0bad03"},"vehicle_type_id":"4","last_reported":1718730434,"current_range_meters":0,"station_id":"ce4bhbh2rcd13ifvqepg","pricing_plan_id":"cebpf4jnsgd1na2vs0mg"},{"bike_id":"984ff8ee-5f81-45e9-873d-5eb7e4325282","system_id":"levelo_inurba_marseille","lat":43.284214,"lon":5.349706,"is_reserved":false,"is_disabled":false,"rental_uris":{"android":"levelo://app?vid=984ff8ee-5f81-45e9-873d-5eb7e4325282","ios":"levelo://app?vid=984ff8ee-5f81-45e9-873d-5eb7e4325282"},"vehicle_type_id":"4","last_reported":1718730434,"current_range_meters":2000,"station_id":"ce4bhbh2rcd13ifvqepg","pricing_plan_id":"cebpf4jnsgd1na2vs0mg"},{"bike_id":"a6275f60-bc0e-4f40-858b-09088888dc04","system_id":"levelo_inurba_marseille","lat":43.28415,"lon":5.34983,"is_reserved":false,"is_disabled":false,"rental_uris":{"android":"levelo://app?vid=a6275f60-bc0e-4f40-858b-09088888dc04","ios":"levelo://app?vid=a6275f60-bc0e-4f40-858b-09088888dc04"},"vehicle_type_id":"4","last_reported":1718730434,"current_range_meters":4000,"station_id":"ce4bhbh2rcd13ifvqepg","pricing_plan_id":"cebpf4jnsgd1na2vs0mg"},{"bike_id":"4f129a82-8db4-4e63-98f5-2a64e3a44e32","system_id":"levelo_inurba_marseille","lat":43.284136,"lon":5.349873,"is_reserved":false,"is_disabled":false,"rental_uris":{"android":"levelo://app?vid=4f129a82-8db4-4e63-98f5-2a64e3a44e32","ios":"levelo://app?vid=4f129a82-8db4-4e63-98f5-2a64e3a44e32"},"vehicle_type_id":"4","last_reported":1718730434,"current_range_meters":26400,"station_id":"ce4bhbh2rcd13ifvqepg","pricing_plan_id":"cebpf4jnsgd1na2vs0mg"},{"bike_id":"0d93f817-3221-4981-bb0e-aaeb885af4f1","system_id":"levelo_inurba_marseille","lat":43.284133,"lon":5.349869,"is_reserved":false,"is_disabled":false,"rental_uris":{"android":"levelo://app?vid=0d93f817-3221-4981-bb0e-aaeb885af4f1","ios":"levelo://app?vid=0d93f817-3221-4981-bb0e-aaeb885af4f1"},"vehicle_type_id":"4","last_reported":1718730434,"current_range_meters":31200,"station_id":"ce4bhbh2rcd13ifvqepg","pricing_plan_id":"cebpf4jnsgd1na2vs0mg"},{"bike_id":"ac435d7c-615f-4c76-bb74-23b6b1465097","system_id":"levelo_inurba_marseille","lat":43.28411,"lon":5.34994,"is_reserved":false,"is_disabled":false,"rental_uris":{"android":"levelo://app?vid=ac435d7c-615f-4c76-bb74-23b6b1465097","ios":"levelo://app?vid=ac435d7c-615f-4c76-bb74-23b6b1465097"},"vehicle_type_id":"4","last_reported":1718730434,"current_range_meters":26400,"station_id":"ce4bhbh2rcd13ifvqepg","pricing_plan_id":"cebpf4jnsgd1na2vs0mg"},