{"last_updated":1752847914,"ttl":60,"version":"2.2","data":{"bikes":[{"bike_id":"53b742a7-31ae-4272-9bba-7740339e2a2f","system_id":"levelo_inurba_marseille","lat":43.33747,"lon":5.37463,"is_reserved":false,"is_disabled":false,"rental_uris":{"android":"levelo://app?vid=53b742a7-31ae-4272-9bba-7740339e2a2f","ios":"levelo://app?vid=53b742a7-31ae-4272-9bba-7740339e2a2f"},"vehicle_type_id":"1","last_reported":1752847914,"current_range_meters":19600,"station_id":"","pricing_plan_id":"cebpf4jnsgd1na2vs0mg"},{"bike_id":"6d3301ff-7c85-45e6-b3fd-ebc2e872a2f3","system_id":"levelo_inurba_marseille","lat":43.28263,"lon":5.35076,"is_reserved":false,"is_disabled":false,"rental_uris":{"android":"levelo://app?vid=6d3301ff-7c85-45e6-b3fd-ebc2e872a2f3","ios":"levelo://app?vid=6d3301ff-7c85-45e6-b3fd-ebc2e872a2f3"},"vehicle_type_id":"4","last_reported":1752847914,"current_range_meters":2800,"station_id":"ce4bhbp2rcd13ifvqerg","pricing_plan_id":"cebpf4jnsgd1na2vs0mg"},{"bike_id":"aebb7017-7c1f-487d-b6d8-c874deefc003","system_id":"levelo_inurba_marseille","lat":43.295204,"lon":5.394012,"is_reserved":false,"is_disabled":false,"rental_uris":{"android":"levelo://app?vid=aebb7017-7c1f-487d-b6d8-c874deefc003","ios":"levelo://app?vid=aebb7017-7c1f-487d-b6d8-c874deefc003"},"vehicle_type_id":"4","last_reported":1752847914,"current_range_meters":3200,"station_id":"ce4bh292rcd13ifvqdf0","pricing_plan_id":"cebpf4jnsgd1na2vs0mg"},{"bike_id":"da581d50-8a7a-4fd1-b852-3e78907ad563","system_id":"levelo_inurba_marseille","lat":43.32473,"lon":5.40947,"is_reserved":false,"is_disabled":false,"rental_uris":{"android":"levelo://app?vid=da581d50-8a7a-4fd1-b852-3e78907ad563","ios":"levelo://app?vid=da581d50-8a7a-4fd1-b852-3e78907ad563"},"vehicle_type_id":"4","last_reported":1752847914,"current_range_meters":3200,"station_id":"","pricing_plan_id":"cebpf4jnsgd1na2vs0mg"},{"bike_id":"6d8ea1a7-77ae-44c5-95d0-2367d44c7821","system_id":"levelo_inurba_marseille","lat":43.28412,"lon":5.34979,"is_reserved":false,"is_disabled":false,"rental_uris":{"android":"levelo://app?vid=6d8ea1a7-77ae-44c5-95d0-2367d44c7821","ios":"levelo://app?vid=6d8ea1a7-77ae-44c5-95d0-2367d44c7821"},"vehicle_type_id":"4","last_reported":1752847914,"current_range_meters":3200,"station_id":"ce4bhbh2rcd13ifvqepg","pricing_plan_id":"cebpf4jnsgd1na2vs0mg"},{"bike_id":"c12d2b81-9528-46f7-92bf-db957fdf8fcd","system_id":"levelo_inurba_marseille","lat":43.31274,"lon":5.40171,"is_reserved":false,"is_disabled":false,"rental_uris":{"android":"levelo://app?vid=c12d2b81-9528-46f7-92bf-db957fdf8fcd","ios":"levelo://app?vid=c12d2b81-9528-46f7-92bf-db957fdf8fcd"},"vehicle_type_id":"4","last_reported":1752847914,"current_range_meters":3600,"station_id":"ce4bh092rcd13ifvqd30","pricing_plan_id":"cebpf4jnsgd1na2vs0mg"},{"bike_id":"5959404d-d5b5-4119-9ea5-e3898a49b718","system_id":"levelo_inurba_marseille","lat":43.28269,"lon":5.35059,"is_reserved":false,"is_disabled":false,"rental_uris":{"android":"levelo://app?vid=5959404d-d5b5-4119-9ea5-e3898a49b718","ios":"levelo://app?vid=5959404d-d5b5-4119-9ea5-e3898a49b718"},"vehicle_type_id":"4","last_reported":1752847914,"current_range_meters":3600,"station_id":"ce4bhbp2rcd13ifvqerg","pricing_plan_id":"cebpf4jnsgd1na2vs0mg"},{"bike_id":"aa6835bd-18ef-4b30-bf89-08a2350afe28","system_id":"levelo_inurba_marseille","lat":43.29269,"lon":5.38434,"is_reserved":false,"is_disabled":false,"rental_uris":{"android":"levelo://app?vid=aa6835bd-18ef-4b30-bf89-08a2350afe28","ios":"levelo://app?vid=aa6835bd-18ef-4b30-bf89-08a2350afe28"},"vehicle_type_id":"4","last_reported":1752847914,"current_range_meters":4000,"station_id":"ce4bh692rcd13ifvqea0","pricing_plan_id":"cebpf4jnsgd1na2vs0mg"},{"bike_id":"c6534913-cd05-48fd-ac30-7b4f2538fa99","system_id":"levelo_inurba_marseille","lat":43.225045,"lon":5.347816,"is_reserved":false,"is_disabled":false,"rental_uris":{"android":"levelo://app?vid=c6534913-cd05-48fd-ac30-7b4f2538fa99","ios":"levelo://app?vid=c6534913-cd05-48fd-ac30-7b4f2538fa99"},"vehicle_type_id":"4","last_reported":1752847914,"current_range_meters":4000,"station_id":"st_cvj5dfep6f1abm77gieg","pricing_plan_id":"cebpf4jnsgd1na2vs0mg"},{"bike_id":"c90e391b-ece5-4359-abd8-1b1e4cb9431b","system_id":"levelo_inurba_marseille","lat":43.31325,"lon":5.39698,"is_reserved":false,"is_disabled":false,"rental_uris":{"android":"levelo://app?vid=c90e391b-ece5-4359-abd8-1b1e4cb9431b","ios":"levelo://app?vid=c90e391b-ece5-4359-abd8-1b1e4cb9431b"},"vehicle_type_id":"4","last_reported":1752847914,"current_range_meters":4000,"station_id":"ce4bgvp2rcd13ifvqcu0","pricing_plan_id":"cebpf4jnsgd1na2vs0mg"},{"bike_id":"5da59d32-0767-4349-8937-4a18b5c98b85","system_id":"levelo_inurba_marseille","lat":43.2668,"lon":5.38272,"is_reserved":false,"is_disabled":false,"rental_uris":{"android":"levelo://app?vid=5da59d32-0767-4349-8937-4a18b5c98b85","ios":"levelo://app?vid=5da59d32-0767-4349-8937-4a18b5c98b85"},"vehicle_type_id":"4","last_reported":1752847914,"current_range_meters":4400,"station_id":"ce4bhg92rcd13ifvqf90","pricing_plan_id":"cebpf4jnsgd1na2vs0mg"},{"bike_id":"74f1f29c-8bc9-40f9-a01c-8809b1709c53","system_id":"levelo_inurba_marseille","lat":43.2841,"lon":5.349707,"is_reserved":false,"is_disabled":false,"rental_uris":{"android":"levelo://app?vid=74f1f29c-8bc9-40f9-a01c-8809b1709c53","ios":"levelo://app?vid=74f1f29c-8bc9-40f9-a01c-8809b1709c53"},"vehicle_type_id":"4","last_reported":1752847914,"current_range_meters":4800,"station_id":"ce4bhbh2rcd13ifvqepg","pricing_plan_id":"cebpf4jnsgd1na2vs0mg"},{"bike_id":"664f2f53-d838-4a6d-911e-79ad7488659d","system_id":"levelo_inurba_marseille","lat":43.2827,"lon":5.3506,"is_reserved":false,"is_disabled":false,"rental_uris":{"android":"levelo://app?vid=664f2f53-d838-4a6d-911e-79ad7488659d","ios":"levelo://app?vid=664f2f53-d838-4a6d-911e-79ad7488659d"},"vehicle_type_id":"4","last_reported":1752847914,"current_range_meters":5600,"station_id":"ce4bhbp2rcd13ifvqerg","pricing_plan_id":"cebpf4jnsgd1na2vs0mg"},{"bike_id":"9b620f40-17b0-4799-b535-be0846c32168","system_id":"levelo_inurba_marseille","lat":43.29097,"lon":5.38159,"is_reserved":false,"is_disabled":false,"rental_uris":{"android":"levelo://app?vid=9b620f40-17b0-4799-b535-be0846c32168","ios":"levelo://app?vid=9b620f40-17b0-4799-b535-be0846c32168"},"vehicle_type_id":"4","last_reported":1752847914,"current_range_meters":5600,"station_id":"ce4bh512rcd13ifvqe2g","pricing_plan_id":"cebpf4jnsgd1na2vs0mg"},{"bike_id":"f1055800-9312-4d7e-be14-d74653b9b6ee","system_id":"levelo_inurba_marseille","lat":43.28267,"lon":5.35059,"is_reserved":false,"is_disabled":false,"rental_uris":{"android":"levelo://app?vid=f1055800-9312-4d7e-be14-d74653b9b6ee","ios":"levelo://app?vid=f1055800-9312-4d7e-be14-d74653b9b6ee"},"vehicle_type_id":"4","last_reported":1752847914,"current_range_meters":6000,"station_id":"ce4bhbp2rcd13ifvqerg","pricing_plan_id":"cebpf4jnsgd1na2vs0mg"},{"bike_id":"a4fd652b-34f8-4c68-a6e6-032a5cc5e418","system_id":"levelo_inurba_marseille","lat":43.31244,"lon":5.36837,"is_reserved":false,"is_disabled":false,"rental_uris":{"android":"levelo://app?vid=a4fd652b-34f8-4c68-a6e6-032a5cc5e418","ios":"levelo://app?vid=a4fd652b-34f8-4c68-a6e6-032a5cc5e418"},"vehicle_type_id":"4","last_reported":1752847914,"current_range_meters":6000,"station_id":"ce4bgl92rcd13ifvqbq0","pricing_plan_id":"cebpf4jnsgd1na2vs0mg"},{"bike_id":"09a3826f-8890-4f62-8db5-98821c552abf","system_id":"levelo_inurba_marseille","lat":43.2902,"lon":5.38645,"is_reserved":false,"is_disabled":false,"rental_uris":{"android":"levelo://app?vid=09a3826f-8890-4f62-8db5-98821c552abf","ios":"levelo://app?vid=09a3826f-8890-4f62-8db5-98821c552abf"},"vehicle_type_id":"4","last_reported":1752847914,"current_range_meters":6000,"station_id":"ce4bh4p2rcd13ifvqe0g","pricing_plan_id":"cebpf4jnsgd1na2vs0mg"},{"bike_id":"36e027cf-b119-4179-9f59-b6af3c9b25a6","system_id":"levelo_inurba_marseille","lat":43.29794,"lon":5.381022,"is_reserved":false,"is_disabled":false,"rental_uris":{"android":"levelo://app?vid=36e027cf-b119-4179-9f59-b6af3c9b25a6","ios":"levelo://app?vid=36e027cf-b119-4179-9f59-b6af3c9b25a6"},"vehicle_type_id":"4","last_reported":1752847914,"current_range_meters":6000,"station_id":"ce4bgip2rcd13ifvqbb0","pricing_plan_id":"cebpf4jnsgd1na2vs0mg"},{"bike_id":"49597dd8-59c4-4e55-a025-f7e6829974e7","system_id":"levelo_inurba_marseille","lat":43.22929,"lon":5.35383,"is_reserved":false,"is_disabled":false,"rental_uris":{"android":"levelo://app?vid=49597dd8-59c4-4e55-a025-f7e6829974e7","ios":"levelo://app?vid=49597dd8-59c4-4e55-a025-f7e6829974e7"},"vehicle_type_id":"4","last_reported":1752847914,"current_range_meters":6400,"station_id":"cpo3532slgdg3j2ikp40","pricing_plan_id":"cebpf4jnsgd1na2vs0mg"},{"bike_id":"b880c6b7-2063-4129-8894-52f3350d86ea","system_id":"levelo_inurba_marseille","lat":43.28685,"lon":5.38632,"is_reserved":false,"is_disabled":false,"rental_uris":{"android":"levelo://app?vid=b880c6b7-2063-4129-8894-52f3350d86ea","ios":"levelo://app?vid=b880c6b7-2063-4129-8894-52f3350d86ea"},"vehicle_type_id":"4","last_reported":1752847914,"current_range_meters":6400,"station_id":"ce4bh492rcd13ifvqdug","pricing_plan_id":"cebpf4jnsgd1na2vs0mg"},{"bike_id":"155deb09-3dcb-4577-bc2b-e93e6e0e478c","system_id":"levelo_inurba_marseille","lat":43.282531,"lon":5.350756,"is_reserved":false,"is_disabled":false,"rental_uris":{"android":"levelo://app?vid=155deb09-3dcb-4577-bc2b-e93e6e0e478c","ios":"levelo://app?vid=155deb09-3dcb-4577-bc2b-e93e6e0e478c"},"vehicle_type_id":"4","last_reported":1752847914,"current_range_meters":6400,"station_id":"ce4bhb92rcd13ifvqen0","pricing_plan_id":"cebpf4jnsgd1na2vs0mg"},{"bike_id":"81f88721-00d0-431c-83bf-446e11578408","system_id":"levelo_inurba_marseille","lat":43.225038,"lon":5.347854,"is_reserved":false,"is_disabled":false,"rental_uris":{"android":"levelo://app?vid=81f88721-00d0-431c-83bf-446e11578408","ios":"levelo://app?vid=81f88721-00d0-431c-83bf-446e11578408"},"vehicle_type_id":"4","last_reported":1752847914,"current_range_meters":6400,"station_id":"st_cvj5dfep6f1abm77gieg","pricing_plan_id":"cebpf4jnsgd1na2vs0mg"},{"bike_id":"bb9434c3-4761-4a4a-b731-ea3dc348703f","system_id":"levelo_inurba_marseille","lat":43.26931,"lon":5.38914,"is_reserved":false,"is_disabled":false,"rental_uris":{"android":"levelo://app?vid=bb9434c3-4761-4a4a-b731-ea3dc348703f","ios":"levelo://app?vid=bb9434c3-4761-4a4a-b731-ea3dc348703f"},"vehicle_type_id":"4","last_reported":1752847914,"current_range_meters":6800,"station_id":"ce4bhhh2rcd13ifvqfl0","pricing_plan_id":"cebpf4jnsgd1na2vs0mg"},{"bike_id":"fc631248-7dd8-4499-aa15-b8ef92957f87","system_id":"levelo_inurba_marseille","lat":43.289787,"lon":5.378367,"is_reserved":false,"is_disabled":false,"rental_uris":{"android":"levelo://app?vid=fc631248-7dd8-4499-aa15-b8ef92957f87","ios":"levelo://app?vid=fc631248-7dd8-4499-aa15-b8ef92957f87"},"vehicle_type_id":"4","last_reported":1752847914,"current_range_meters":6800,"station_id":"ce4bh9p2rcd13ifvqed0","pricing_plan_id":"cebpf4jnsgd1na2vs0mg"},{"bike_id":"7cbc92e8-29b0-49af-8b7a-ee3331b961f7","system_id":"levelo_inurba_marseille","lat":43.304239,"lon":5.388837,"is_reserved":false,"is_disabled":false,"rental_uris":{"android":"levelo://app?vid=7cbc92e8-29b0-49af-8b7a-ee3331b961f7","ios":"levelo://app?vid=7cbc92e8-29b0-49af-8b7a-ee3331b961f7"},"vehicle_type_id":"4","last_reported":1752847914,"current_range_meters":6800,"station_id":"ce4bgk12rcd13ifvqbi0","pricing_plan_id":"cebpf4jnsgd1na2vs0mg"},{"bike_id":"b0d1f18b-4958-4a30-857a-6a86067467b9","system_id":"levelo_inurba_marseille","lat":43.28252,"lon":5.35061,"is_reserved":false,"is_disabled":false,"rental_uris":{"android":"levelo://app?vid=b0d1f18b-4958-4a30-857a-6a86067467b9","ios":"levelo://app?vid=b0d1f18b-4958-4a30-857a-6a86067467b9"},"vehicle_type_id":"4","last_reported":1752847914,"current_range_meters":6800,"station_id":"ce4bhbp2rcd13ifvqerg","pricing_plan_id":"cebpf4jnsgd1na2vs0mg"},{"bike_id":"f49d312b-67e5-480a-aee1-c0c990c76302","system_id":"levelo_inurba_marseille","lat":43.284116,"lon":5.349933,"is_reserved":false,"is_disabled":false,"rental_uris":{"android":"levelo://app?vid=f49d312b-67e5-480a-aee1-c0c990c76302","ios":"levelo://app?vid=f49d312b-67e5-480a-aee1-c0c990c76302"},"vehicle_type_id":"4","last_reported":1752847914,"current_range_meters":7200,"station_id":"ce4bhbh2rcd13ifvqepg","pricing_plan_id":"cebpf4jnsgd1na2vs0mg"},{"bike_id":"1937b3a7-3ff2-44b3-86ee-9eff877a74e3","system_id":"levelo_inurba_marseille","lat":43.29032,"lon":5.35923,"is_reserved":false,"is_disabled":false,"rental_uris":{"android":"levelo://app?vid=1937b3a7-3ff2-44b3-86ee-9eff877a74e3","ios":"levelo://app?vid=1937b3a7-3ff2-44b3-86ee-9eff877a74e3"},"vehicle_type_id":"4","last_reported":1752847914,"current_range_meters":7200,"station_id":"ce4bha92rcd13ifvqeg0","pricing_plan_id":"cebpf4jnsgd1na2vs0mg"},{"bike_id":"7daf96a4-504c-4243-a27e-a57394f7a5ff","system_id":"levelo_inurba_marseille","lat":43.24804,"lon":5.37454,"is_reserved":false,"is_disabled":false,"rental_uris":{"android":"levelo://app?vid=7daf96a4-504c-4243-a27e-a57394f7a5ff","ios":"levelo://app?vid=7daf96a4-504c-4243-a27e-a57394f7a5ff"},"vehicle_type_id":"4","last_reported":1752847914,"current_range_meters":7200,"station_id":"ce4bhgh2rcd13ifvqfb0","pricing_plan_id":"cebpf4jnsgd1na2vs0mg"},{"bike_id":"50e75c88-1825-41d2-b325-c8df5a39b2e5","system_id":"levelo_inurba_marseille","lat":43.28267,"lon":5.3507,"is_reserved":false,"is_disabled":false,"rental_uris":{"android":"levelo://app?vid=50e75c88-1825-41d2-b325-c8df5a39b2e5","ios":"levelo://app?vid=50e75c88-1825-41d2-b325-c8df5a39b2e5"},"vehicle_type_id":"4","last_reported":1752847914,"current_range_meters":7200,"station_id":"ce4bhbp2rcd13ifvqerg","pricing_plan_id":"cebpf4jnsgd1na2vs0mg"},{"bike_id":"a71eb2d0-d2bd-4a7c-9361-3826bcade5fa","system_id":"levelo_inurba_marseille","lat":43.21194,"lon":5.35072,"is_reserved":false,"is_disabled":false,"rental_uris":{"android":"levelo://app?vid=a71eb2d0-d2bd-4a7c-9361-3826bcade5fa","ios":"levelo://app?vid=a71eb2d0-d2bd-4a7c-9361-3826bcade5fa"},"vehicle_type_id":"4","last_reported":1752847914,"current_range_meters":7200,"station_id":"st_cvj6sg6p6f1abm77japg","pricing_plan_id":"cebpf4jnsgd1na2vs0mg"},{"bike_id":"4d45f1e9-194f-47b9-b021-5eab9e1c0b12","system_id":"levelo_inurba_marseille","lat":43.31237,"lon":5.36871,"is_reserved":false,"is_disabled":false,"rental_uris":{"android":"levelo://app?vid=4d45f1e9-194f-47b9-b021-5eab9e1c0b12","ios":"levelo://app?vid=4d45f1e9-194f-47b9-b021-5eab9e1c0b12"},"vehicle_type_id":"4","last_reported":1752847914,"current_range_meters":8000,"station_id":"ce4bgl92rcd13ifvqbq0","pricing_plan_id":"cebpf4jnsgd1na2vs0mg"},{"bike_id":"73ba7542-4162-45d9-a9cf-6bfffb2a1c49","system_id":"levelo_inurba_marseille","lat":43.29275,"lon":5.36842,"is_reserved":false,"is_disabled":false,"rental_uris":{"android":"levelo://app?vid=73ba7542-4162-45d9-a9cf-6bfffb2a1c49","ios":"levelo://app?vid=73ba7542-4162-45d9-a9cf-6bfffb2a1c49"},"vehicle_type_id":"4","last_reported":1752847914,"current_range_meters":8000,"station_id":"ce4bhbp2rcd13ifvqesg","pricing_plan_id":"cebpf4jnsgd1na2vs0mg"},{"bike_id":"a28d211f-852f-4067-b778-57e127b36ead","system_id":"levelo_inurba_marseille","lat":43.2862,"lon":5.35107,"is_reserved":false,"is_disabled":false,"rental_uris":{"android":"levelo://app?vid=a28d211f-852f-4067-b778-57e127b36ead","ios":"levelo://app?vid=a28d211f-852f-4067-b778-57e127b36ead"},"vehicle_type_id":"4","last_reported":1752847914,"current_range_meters":8000,"station_id":"ce4bhch2rcd13ifvqeug","pricing_plan_id":"cebpf4jnsgd1na2vs0mg"},{"bike_id":"e95b1477-33a1-48a7-a021-3878a6895222","system_id":"levelo_inurba_marseille","lat":43.21756,"lon":5.34597,"is_reserved":false,"is_disabled":false,"rental_uris":{"android":"levelo://app?vid=e95b1477-33a1-48a7-a021-3878a6895222","ios":"levelo://app?vid=e95b1477-33a1-48a7-a021-3878a6895222"},"vehicle_type_id":"4","last_reported":1752847914,"current_range_meters":8000,"station_id":"st_cvj6r9ubvosntc0bgbag","pricing_plan_id":"cebpf4jnsgd1na2vs0mg"},{"bike_id":"04d15a50-cb94-495c-969c-c09473f1fcda","system_id":"levelo_inurba_marseille","lat":43.296196,"lon":5.377039,"is_reserved":false,"is_disabled":true,"rental_uris":{"android":"levelo://app?vid=04d15a50-cb94-495c-969c-c09473f1fcda","ios":"levelo://app?vid=04d15a50-cb94-495c-969c-c09473f1fcda"},"vehicle_type_id":"4","last_reported":1752847914,"current_range_meters":8400,"station_id":"","pricing_plan_id":"cebpf4jnsgd1na2vs0mg"},{"bike_id":"3444bdc6-514a-4ba6-9650-f9073305e33d","system_id":"levelo_inurba_marseille","lat":43.29682,"lon":5.3698,"is_reserved":false,"is_disabled":false,"rental_uris":{"android":"levelo://app?vid=3444bdc6-514a-4ba6-9650-f9073305e33d","ios":"levelo://app?vid=3444bdc6-514a-4ba6-9650-f9073305e33d"},"vehicle_type_id":"4","last_reported":1752847914,"current_range_meters":8400,"station_id":"","pricing_plan_id":"cebpf4jnsgd1na2vs0mg"},{"bike_id":"555bc53e-5286-4fb6-9154-af42b3fd9792","system_id":"levelo_inurba_marseille","lat":43.300603,"lon":5.372971,"is_reserved":false,"is_disabled":false,"rental_uris":{"android":"levelo://app?vid=555bc53e-5286-4fb6-9154-af42b3fd9792","ios":"levelo://app?vid=555bc53e-5286-4fb6-9154-af42b3fd9792"},"vehicle_type_id":"4","last_reported":1752847914,"current_range_meters":8400,"station_id":"","pricing_plan_id":"cebpf4jnsgd1na2vs0mg"},{"bike_id":"f7f4ad16-f3f6-4c47-8a75-0b98a8021241","system_id":"levelo_inurba_marseille","lat":43.28419,"lon":5.34983,"is_reserved":false,"is_disabled":false,"rental_uris":{"android":"levelo://app?vid=f7f4ad16-f3f6-4c47-8a75-0b98a8021241","ios":"levelo://app?vid=f7f4ad16-f3f6-4c47-8a75-0b98a8021241"},"vehicle_type_id":"4","last_reported":1752847914,"current_range_meters":8400,"station_id":"ce4bhbh2rcd13ifvqepg","pricing_plan_id":"cebpf4jnsgd1na2vs0mg"},{"bike_id":"2010158f-76c1-4289-bd0b-d98a5437380a","system_id":"levelo_inurba_marseille","lat":43.31077,"lon":5.38348,"is_reserved":false,"is_disabled":false,"rental_uris":{"android":"levelo://app?vid=2010158f-76c1-4289-bd0b-d98a5437380a","ios":"levelo://app?vid=2010158f-76c1-4289-bd0b-d98a5437380a"},"vehicle_type_id":"4","last_reported":1752847914,"current_range_meters":8800,"station_id":"ce4bgv92rcd13ifvqcr0","pricing_plan_id":"cebpf4jnsgd1na2vs0mg"},{"bike_id":"d1b1ae6f-562f-42f0-a958-cbc912a1619d","system_id":"levelo_inurba_marseille","lat":43.27635,"lon":5.36102,"is_reserved":false,"is_disabled":true,"rental_uris":{"android":"levelo://app?vid=d1b1ae6f-562f-42f0-a958-cbc912a1619d","ios":"levelo://app?vid=d1b1ae6f-562f-42f0-a958-cbc912a1619d"},"vehicle_type_id":"4","last_reported":1752847914,"current_range_meters":8800,"station_id":"ce4bgj92rcd13ifvqbe0","pricing_plan_id":"cebpf4jnsgd1na2vs0mg"},{"bike_id":"28d27c17-e6ca-4cec-aec9-f1f6696b8a12","system_id":"levelo_inurba_marseille","lat":43.29925,"lon":5.43635,"is_reserved":false,"is_disabled":true,"rental_uris":{"android":"levelo://app?vid=28d27c17-e6ca-4cec-aec9-f1f6696b8a12","ios":"levelo://app?vid=28d27c17-e6ca-4cec-aec9-f1f6696b8a12"},"vehicle_type_id":"4","last_reported":1752847914,"current_range_meters":8800,"station_id":"","pricing_plan_id":"cebpf4jnsgd1na2vs0mg"},{"bike_id":"b315058f-ef7a-41a0-b37b-bd541cf7a96e","system_id":"levelo_inurba_marseille","lat":43.21742,"lon":5.34605,"is_reserved":false,"is_disabled":false,"rental_uris":{"android":"levelo://app?vid=b315058f-ef7a-41a0-b37b-bd541cf7a96e","ios":"levelo://app?vid=b315058f-ef7a-41a0-b37b-bd541cf7a96e"},"vehicle_type_id":"4","last_reported":1752847914,"current_range_meters":9200,"station_id":"st_cvj6r9ubvosntc0bgbag","pricing_plan_id":"cebpf4jnsgd1na2vs0mg"},{"bike_id":"79e00cba-979b-4370-b320-7e4857db9893","system_id":"levelo_inurba_marseille","lat":43.337444,"lon":5.374475,"is_reserved":false,"is_disabled":false,"rental_uris":{"android":"levelo://app?vid=79e00cba-979b-4370-b320-7e4857db9893","ios":"levelo://app?vid=79e00cba-979b-4370-b320-7e4857db9893"},"vehicle_type_id":"4","last_reported":1752847914,"current_range_meters":9200,"station_id":"","pricing_plan_id":"cebpf4jnsgd1na2vs0mg"},{"bike_id":"03a96cae-a45b-464d-a020-7fe1cf643dd0","system_id":"levelo_inurba_marseille","lat":43.27614,"lon":5.36102,"is_reserved":false,"is_disabled":false,"rental_uris":{"android":"levelo://app?vid=03a96cae-a45b-464d-a020-7fe1cf643dd0","ios":"levelo://app?vid=03a96cae-a45b-464d-a020-7fe1cf643dd0"},"vehicle_type_id":"4","last_reported":1752847914,"current_range_meters":9200,"station_id":"ce4bgj92rcd13ifvqbe0","pricing_plan_id":"cebpf4jnsgd1na2vs0mg"},{"bike_id":"6919f8a9-9e4d-44a0-a1c6-2a5bf761196c","system_id":"levelo_inurba_marseille","lat":43.28029,"lon":5.36937,"is_reserved":false,"is_disabled":false,"rental_uris":{"android":"levelo://app?vid=6919f8a9-9e4d-44a0-a1c6-2a5bf761196c","ios":"levelo://app?vid=6919f8a9-9e4d-44a0-a1c6-2a5bf761196c"},"vehicle_type_id":"4","last_reported":1752847914,"current_range_meters":9200,"station_id":"ce4bha12rcd13ifvqef0","pricing_plan_id":"cebpf4jnsgd1na2vs0mg"},{"bike_id":"633dc39f-0e9b-4d9d-801c-d50b238b2313","system_id":"levelo_inurba_marseille","lat":43.298855,"lon":5.38901,"is_reserved":false,"is_disabled":false,"rental_uris":{"android":"levelo://app?vid=633dc39f-0e9b-4d9d-801c-d50b238b2313","ios":"levelo://app?vid=633dc39f-0e9b-4d9d-801c-d50b238b2313"},"vehicle_type_id":"4","last_reported":1752847914,"current_range_meters":9600,"station_id":"ce4bh392rcd13ifvqdl0","pricing_plan_id":"cebpf4jnsgd1na2vs0mg"},{"bike_id":"5af2f58b-5079-4c07-9544-71b7853ffd8b","system_id":"levelo_inurba_marseille","lat":43.29968,"lon":5.38493,"is_reserved":false,"is_disabled":false,"rental_uris":{"android":"levelo://app?vid=5af2f58b-5079-4c07-9544-71b7853ffd8b","ios":"levelo://app?vid=5af2f58b-5079-4c07-9544-71b7853ffd8b"},"vehicle_type_id":"4","last_reported":1752847914,"current_range_meters":9600,"station_id":"ce4bgj92rcd13ifvqbd0","pricing_plan_id":"cebpf4jnsgd1na2vs0mg"},{"bike_id":"fcb43646-13dd-4cea-b3e4-460cae3cbed7","system_id":"levelo_inurba_marseille","lat":43.22505,"lon":5.34786,"is_reserved":false,"is_disabled":false,"rental_uris":{"android":"levelo://app?vid=fcb43646-13dd-4cea-b3e4-460cae3cbed7","ios":"levelo://app?vid=fcb43646-13dd-4cea-b3e4-460cae3cbed7"},"vehicle_type_id":"4","last_reported":1752847914,"current_range_meters":9600,"station_id":"st_cvj5dfep6f1abm77gieg","pricing_plan_id":"cebpf4jnsgd1na2vs0mg"},{"bike_id":"58f5a36d-9318-4c0d-90d1-e35e965d73a6","system_id":"levelo_inurba_marseille","lat":43.28696,"lon":5.3998,"is_reserved":false,"is_disabled":false,"rental_uris":{"android":"levelo://app?vid=58f5a36d-9318-4c0d-90d1-e35e965d73a6","ios":"levelo://app?vid=58f5a36d-9318-4c0d-90d1-e35e965d73a6"},"vehicle_type_id":"4","last_reported":1752847914,"current_range_meters":9600,"station_id":"ce4bho92rcd13ifvqh3g","pricing_plan_id":"cebpf4jnsgd1na2vs0mg"},{"bike_id":"ed2cd9da-cb00-49e6-ad7f-479341508288","system_id":"levelo_inurba_marseille","lat":43.299713,"lon":5.371748,"is_reserved":false,"is_disabled":false,"rental_uris":{"android":"levelo://app?vid=ed2cd9da-cb00-49e6-ad7f-479341508288","ios":"levelo://app?vid=ed2cd9da-cb00-49e6-ad7f-479341508288"},"vehicle_type_id":"4","last_reported":1752847914,"current_range_meters":9600,"station_id":"ce4bgr92rcd13ifvqc7g","pricing_plan_id":"cebpf4jnsgd1na2vs0mg"},{"bike_id":"07f5ae19-0925-43ef-aab4-48ec58bc62b9","system_id":"levelo_inurba_marseille","lat":43.31474,"lon":5.37453,"is_reserved":false,"is_disabled":false,"rental_uris":{"android":"levelo://app?vid=07f5ae19-0925-43ef-aab4-48ec58bc62b9","ios":"levelo://app?vid=07f5ae19-0925-43ef-aab4-48ec58bc62b9"},"vehicle_type_id":"4","last_reported":1752847914,"current_range_meters":9600,"station_id":"","pricing_plan_id":"cebpf4jnsgd1na2vs0mg"},{"bike_id":"c79508dc-29dd-456d-b724-ea650f38b057","system_id":"levelo_inurba_marseille","lat":43.30541,"lon":5.36515,"is_reserved":false,"is_disabled":false,"rental_uris":{"android":"levelo://app?vid=c79508dc-29dd-456d-b724-ea650f38b057","ios":"levelo://app?vid=c79508dc-29dd-456d-b724-ea650f38b057"},"vehicle_type_id":"4","last_reported":1752847914,"current_range_meters":10000,"station_id":"ce4bgs12rcd13ifvqcag","pricing_plan_id":"cebpf4jnsgd1na2vs0mg"},{"bike_id":"04d92065-80a0-4661-bcef-a922390ebdd1","system_id":"levelo_inurba_marseille","lat":43.22938,"lon":5.35379,"is_reserved":false,"is_disabled":false,"rental_uris":{"android":"levelo://app?vid=04d92065-80a0-4661-bcef-a922390ebdd1","ios":"levelo://app?vid=04d92065-80a0-4661-bcef-a922390ebdd1"},"vehicle_type_id":"4","last_reported":1752847914,"current_range_meters":10000,"station_id":"cpo3532slgdg3j2ikp40","pricing_plan_id":"cebpf4jnsgd1na2vs0mg"},{"bike_id":"e884d4ba-4fca-4048-b48f-5f2f0c66c3d7","system_id":"levelo_inurba_marseille","lat":43.29808,"lon":5.38084,"is_reserved":false,"is_disabled":false,"rental_uris":{"android":"levelo://app?vid=e884d4ba-4fca-4048-b48f-5f2f0c66c3d7","ios":"levelo://app?vid=e884d4ba-4fca-4048-b48f-5f2f0c66c3d7"},"vehicle_type_id":"4","last_reported":1752847914,"current_range_meters":10800,"station_id":"ce4bgip2rcd13ifvqbb0","pricing_plan_id":"cebpf4jnsgd1na2vs0mg"},{"bike_id":"2ac93549-5c94-4228-8eea-782a21384d10","system_id":"levelo_inurba_marseille","lat":43.29634,"lon":5.37793,"is_reserved":false,"is_disabled":false,"rental_uris":{"android":"levelo://app?vid=2ac93549-5c94-4228-8eea-782a21384d10","ios":"levelo://app?vid=2ac93549-5c94-4228-8eea-782a21384d10"},"vehicle_type_id":"4","last_reported":1752847914,"current_range_meters":10800,"station_id":"","pricing_plan_id":"cebpf4jnsgd1na2vs0mg"},{"bike_id":"1102e05f-f06e-414c-bc25-de937d56cb18","system_id":"levelo_inurba_marseille","lat":43.30278,"lon":5.37699,"is_reserved":false,"is_disabled":false,"rental_uris":{"android":"levelo://app?vid=1102e05f-f06e-414c-bc25-de937d56cb18","ios":"levelo://app?vid=1102e05f-f06e-414c-bc25-de937d56cb18"},"vehicle_type_id":"4","last_reported":1752847914,"current_range_meters":10800,"station_id":"ce4bguh2rcd13ifvqcj0","pricing_plan_id":"cebpf4jnsgd1na2vs0mg"},{"bike_id":"802a5d0b-ef38-48ed-9f9c-da6a392a4bc2","system_id":"levelo_inurba_marseille","lat":43.287211,"lon":5.360787,"is_reserved":false,"is_disabled":false,"rental_uris":{"android":"levelo://app?vid=802a5d0b-ef38-48ed-9f9c-da6a392a4bc2","ios":"levelo://app?vid=802a5d0b-ef38-48ed-9f9c-da6a392a4bc2"},"vehicle_type_id":"4","last_reported":1752847914,"current_range_meters":11200,"station_id":"cki0cbj6b192h4jlfktg","pricing_plan_id":"cebpf4jnsgd1na2vs0mg"},{"bike_id":"255f63b3-d391-461e-9168-7b692342f2c5","system_id":"levelo_inurba_marseille","lat":43.21177,"lon":5.35073,"is_reserved":false,"is_disabled":false,"rental_uris":{"android":"levelo://app?vid=255f63b3-d391-461e-9168-7b692342f2c5","ios":"levelo://app?vid=255f63b3-d391-461e-9168-7b692342f2c5"},"vehicle_type_id":"4","last_reported":1752847914,"current_range_meters":11200,"station_id":"st_cvj6sg6p6f1abm77japg","pricing_plan_id":"cebpf4jnsgd1na2vs0mg"},{"bike_id":"3578f760-a383-4508-b973-4301e15e0b04","system_id":"levelo_inurba_marseille","lat":43.28095,"lon":5.37851,"is_reserved":false,"is_disabled":false,"rental_uris":{"android":"levelo://app?vid=3578f760-a383-4508-b973-4301e15e0b04","ios":"levelo://app?vid=3578f760-a383-4508-b973-4301e15e0b04"},"vehicle_type_id":"4","last_reported":1752847914,"current_range_meters":11200,"station_id":"ce4bha12rcd13ifvqee0","pricing_plan_id":"cebpf4jnsgd1na2vs0mg"},{"bike_id":"da891840-0cec-4ccc-961c-48903736c6fa","system_id":"levelo_inurba_marseille","lat":43.31139,"lon":5.37692,"is_reserved":false,"is_disabled":false,"rental_uris":{"android":"levelo://app?vid=da891840-0cec-4ccc-961c-48903736c6fa","ios":"levelo://app?vid=da891840-0cec-4ccc-961c-48903736c6fa"},"vehicle_type_id":"4","last_reported":1752847914,"current_range_meters":11200,"station_id":"","pricing_plan_id":"cebpf4jnsgd1na2vs0mg"},{"bike_id":"5c3da04d-59d0-4e70-a354-e62cf46706a2","system_id":"levelo_inurba_marseille","lat":43.31482,"lon":5.37309,"is_reserved":false,"is_disabled":false,"rental_uris":{"android":"levelo://app?vid=5c3da04d-59d0-4e70-a354-e62cf46706a2","ios":"levelo://app?vid=5c3da04d-59d0-4e70-a354-e62cf46706a2"},"vehicle_type_id":"4","last_reported":1752847914,"current_range_meters":11200,"station_id":"ce4bgt12rcd13ifvqcd0","pricing_plan_id":"cebpf4jnsgd1na2vs0mg"},{"bike_id":"501c62ad-efda-4074-a75a-47e04606411b","system_id":"levelo_inurba_marseille","lat":43.28414,"lon":5.34993,"is_reserved":false,"is_disabled":false,"rental_uris":{"android":"levelo://app?vid=501c62ad-efda-4074-a75a-47e04606411b","ios":"levelo://app?vid=501c62ad-efda-4074-a75a-47e04606411b"},"vehicle_type_id":"4","last_reported":1752847914,"current_range_meters":11200,"station_id":"ce4bhbh2rcd13ifvqepg","pricing_plan_id":"cebpf4jnsgd1na2vs0mg"},{"bike_id":"8d636c2b-3039-4010-9ad3-43725312930f","system_id":"levelo_inurba_marseille","lat":43.29868,"lon":5.39733,"is_reserved":false,"is_disabled":false,"rental_uris":{"android":"levelo://app?vid=8d636c2b-3039-4010-9ad3-43725312930f","ios":"levelo://app?vid=8d636c2b-3039-4010-9ad3-43725312930f"},"vehicle_type_id":"4","last_reported":1752847914,"current_range_meters":11200,"station_id":"ce4bh0h2rcd13ifvqd50","pricing_plan_id":"cebpf4jnsgd1na2vs0mg"},{"bike_id":"e555b545-304c-4dce-8496-1643c0f2600e","system_id":"levelo_inurba_marseille","lat":43.337444,"lon":5.374475,"is_reserved":false,"is_disabled":false,"rental_uris":{"android":"levelo://app?vid=e555b545-304c-4dce-8496-1643c0f2600e","ios":"levelo://app?vid=e555b545-304c-4dce-8496-1643c0f2600e"},"vehicle_type_id":"4","last_reported":1752847914,"current_range_meters":11200,"station_id":"","pricing_plan_id":"cebpf4jnsgd1na2vs0mg"},{"bike_id":"531dca68-8617-41b0-a6cd-abffc94e1d45","system_id":"levelo_inurba_marseille","lat":43.312049,"lon":5.373185,"is_reserved":false,"is_disabled":false,"rental_uris":{"android":"levelo://app?vid=531dca68-8617-41b0-a6cd-abffc94e1d45","ios":"levelo://app?vid=531dca68-8617-41b0-a6cd-abffc94e1d45"},"vehicle_type_id":"4","last_reported":1752847914,"current_range_meters":11200,"station_id":"","pricing_plan_id":"cebpf4jnsgd1na2vs0mg"},{"bike_id":"5ad0867a-9f37-4db4-9d1f-0f8c11bc9d5e","system_id":"levelo_inurba_marseille","lat":43.278047,"lon":5.388368,"is_reserved":false,"is_disabled":false,"rental_uris":{"android":"levelo://app?vid=5ad0867a-9f37-4db4-9d1f-0f8c11bc9d5e","ios":"levelo://app?vid=5ad0867a-9f37-4db4-9d1f-0f8c11bc9d5e"},"vehicle_type_id":"4","last_reported":1752847914,"current_range_meters":11200,"station_id":"ce4bhi12rcd13ifvqfo0","pricing_plan_id":"cebpf4jnsgd1na2vs0mg"},{"bike_id":"9c837b99-081f-4caa-a8a3-7d6dc61e9d18","system_id":"levelo_inurba_marseille","lat":43.23092,"lon":5.35486,"is_reserved":false,"is_disabled":false,"rental_uris":{"android":"levelo://app?vid=9c837b99-081f-4caa-a8a3-7d6dc61e9d18","ios":"levelo://app?vid=9c837b99-081f-4caa-a8a3-7d6dc61e9d18"},"vehicle_type_id":"4","last_reported":1752847914,"current_range_meters":11600,"station_id":"cpo3342slgdg3j2ifvpg","pricing_plan_id":"cebpf4jnsgd1na2vs0mg"},{"bike_id":"9f041b94-e113-43f5-aa08-88e68c5302ee","system_id":"levelo_inurba_marseille","lat":43.30557,"lon":5.36531,"is_reserved":false,"is_disabled":false,"rental_uris":{"android":"levelo://app?vid=9f041b94-e113-43f5-aa08-88e68c5302ee","ios":"levelo://app?vid=9f041b94-e113-43f5-aa08-88e68c5302ee"},"vehicle_type_id":"4","last_reported":1752847914,"current_range_meters":11600,"station_id":"ce4bgs12rcd13ifvqcag","pricing_plan_id":"cebpf4jnsgd1na2vs0mg"},{"bike_id":"56ace694-3eb9-430d-9a1c-8d475da49acc","system_id":"levelo_inurba_marseille","lat":43.30959,"lon":5.3902,"is_reserved":false,"is_disabled":false,"rental_uris":{"android":"levelo://app?vid=56ace694-3eb9-430d-9a1c-8d475da49acc","ios":"levelo://app?vid=56ace694-3eb9-430d-9a1c-8d475da49acc"},"vehicle_type_id":"4","last_reported":1752847914,"current_range_meters":11600,"station_id":"ce4bgup2rcd13ifvqco0","pricing_plan_id":"cebpf4jnsgd1na2vs0mg"},{"bike_id":"e60d8b0c-b91e-4fe7-9a99-5219e381c134","system_id":"levelo_inurba_marseille","lat":43.32331,"lon":5.40622,"is_reserved":false,"is_disabled":false,"rental_uris":{"android":"levelo://app?vid=e60d8b0c-b91e-4fe7-9a99-5219e381c134","ios":"levelo://app?vid=e60d8b0c-b91e-4fe7-9a99-5219e381c134"},"vehicle_type_id":"4","last_reported":1752847914,"current_range_meters":11600,"station_id":"ce4bhq92rcd13ifvqhjg","pricing_plan_id":"cebpf4jnsgd1na2vs0mg"},{"bike_id":"0f4e4d12-da79-44de-bac6-fad94f092b38","system_id":"levelo_inurba_marseille","lat":43.287163,"lon":5.379405,"is_reserved":false,"is_disabled":false,"rental_uris":{"android":"levelo://app?vid=0f4e4d12-da79-44de-bac6-fad94f092b38","ios":"levelo://app?vid=0f4e4d12-da79-44de-bac6-fad94f092b38"},"vehicle_type_id":"4","last_reported":1752847914,"current_range_meters":11600,"station_id":"ce4bh9p2rcd13ifvqec0","pricing_plan_id":"cebpf4jnsgd1na2vs0mg"},{"bike_id":"f859fbeb-1aa3-4df4-b962-d208704dfe30","system_id":"levelo_inurba_marseille","lat":43.23194,"lon":5.3556,"is_reserved":false,"is_disabled":false,"rental_uris":{"android":"levelo://app?vid=f859fbeb-1aa3-4df4-b962-d208704dfe30","ios":"levelo://app?vid=f859fbeb-1aa3-4df4-b962-d208704dfe30"},"vehicle_type_id":"4","last_reported":1752847914,"current_range_meters":12000,"station_id":"ce4bhu92rcd13ifvqi70","pricing_plan_id":"cebpf4jnsgd1na2vs0mg"},{"bike_id":"5090a0ed-4b90-4524-8ca3-62abf873dc92","system_id":"levelo_inurba_marseille","lat":43.24387,"lon":5.37066,"is_reserved":false,"is_disabled":false,"rental_uris":{"android":"levelo://app?vid=5090a0ed-4b90-4524-8ca3-62abf873dc92","ios":"levelo://app?vid=5090a0ed-4b90-4524-8ca3-62abf873dc92"},"vehicle_type_id":"4","last_reported":1752847914,"current_range_meters":12000,"station_id":"ce4bhhh2rcd13ifvqfk0","pricing_plan_id":"cebpf4jnsgd1na2vs0mg"},{"bike_id":"0f5b6dba-f835-4ffb-9255-aac49a0a1e28","system_id":"levelo_inurba_marseille","lat":43.28275,"lon":5.35055,"is_reserved":false,"is_disabled":false,"rental_uris":{"android":"levelo://app?vid=0f5b6dba-f835-4ffb-9255-aac49a0a1e28","ios":"levelo://app?vid=0f5b6dba-f835-4ffb-9255-aac49a0a1e28"},"vehicle_type_id":"4","last_reported":1752847914,"current_range_meters":12000,"station_id":"ce4bhbp2rcd13ifvqerg","pricing_plan_id":"cebpf4jnsgd1na2vs0mg"},{"bike_id":"0d87ca24-976c-4967-995f-815e40a697aa","system_id":"levelo_inurba_marseille","lat":43.3212,"lon":5.36767,"is_reserved":false,"is_disabled":false,"rental_uris":{"android":"levelo://app?vid=0d87ca24-976c-4967-995f-815e40a697aa","ios":"levelo://app?vid=0d87ca24-976c-4967-995f-815e40a697aa"},"vehicle_type_id":"4","last_reported":1752847914,"current_range_meters":12000,"station_id":"ce4bhrh2rcd13ifvqhug","pricing_plan_id":"cebpf4jnsgd1na2vs0mg"},{"bike_id":"dcf92b68-f28c-492f-b52a-170d73e2a7d5","system_id":"levelo_inurba_marseille","lat":43.279486,"lon":5.410414,"is_reserved":false,"is_disabled":false,"rental_uris":{"android":"levelo://app?vid=dcf92b68-f28c-492f-b52a-170d73e2a7d5","ios":"levelo://app?vid=dcf92b68-f28c-492f-b52a-170d73e2a7d5"},"vehicle_type_id":"4","last_reported":1752847914,"current_range_meters":12000,"station_id":"ce4bhnp2rcd13ifvqh0g","pricing_plan_id":"cebpf4jnsgd1na2vs0mg"},{"bike_id":"9b7a5c76-646b-47e4-9aaf-9e0ac1e776a5","system_id":"levelo_inurba_marseille","lat":43.26932,"lon":5.40255,"is_reserved":false,"is_disabled":false,"rental_uris":{"android":"levelo://app?vid=9b7a5c76-646b-47e4-9aaf-9e0ac1e776a5","ios":"levelo://app?vid=9b7a5c76-646b-47e4-9aaf-9e0ac1e776a5"},"vehicle_type_id":"4","last_reported":1752847914,"current_range_meters":12000,"station_id":"cjm6bp8fraef2m0cb0m0","pricing_plan_id":"cebpf4jnsgd1na2vs0mg"},{"bike_id":"d5cd701a-ceb8-46e6-a52f-79025d4f9da9","system_id":"levelo_inurba_marseille","lat":43.242,"lon":5.36619,"is_reserved":false,"is_disabled":false,"rental_uris":{"android":"levelo://app?vid=d5cd701a-ceb8-46e6-a52f-79025d4f9da9","ios":"levelo://app?vid=d5cd701a-ceb8-46e6-a52f-79025d4f9da9"},"vehicle_type_id":"4","last_reported":1752847914,"current_range_meters":12000,"station_id":"","pricing_plan_id":"cebpf4jnsgd1na2vs0mg"},{"bike_id":"dc7c133c-e907-4027-9d37-ad17c07f01cc","system_id":"levelo_inurba_marseille","lat":43.28618,"lon":5.35105,"is_reserved":false,"is_disabled":false,"rental_uris":{"android":"levelo://app?vid=dc7c133c-e907-4027-9d37-ad17c07f01cc","ios":"levelo://app?vid=dc7c133c-e907-4027-9d37-ad17c07f01cc"},"vehicle_type_id":"4","last_reported":1752847914,"current_range_meters":12400,"station_id":"ce4bhch2rcd13ifvqeug","pricing_plan_id":"cebpf4jnsgd1na2vs0mg"},{"bike_id":"30c7b948-4367-416f-8f92-7b75ae67fda0","system_id":"levelo_inurba_marseille","lat":43.28635,"lon":5.35094,"is_reserved":false,"is_disabled":false,"rental_uris":{"android":"levelo://app?vid=30c7b948-4367-416f-8f92-7b75ae67fda0","ios":"levelo://app?vid=30c7b948-4367-416f-8f92-7b75ae67fda0"},"vehicle_type_id":"4","last_reported":1752847914,"current_range_meters":12400,"station_id":"ce4bhch2rcd13ifvqeug","pricing_plan_id":"cebpf4jnsgd1na2vs0mg"},{"bike_id":"aec6419c-5df3-46bb-a4fc-87eff011f951","system_id":"levelo_inurba_marseille","lat":43.28358,"lon":5.38628,"is_reserved":false,"is_disabled":false,"rental_uris":{"android":"levelo://app?vid=aec6419c-5df3-46bb-a4fc-87eff011f951","ios":"levelo://app?vid=aec6419c-5df3-46bb-a4fc-87eff011f951"},"vehicle_type_id":"4","last_reported":1752847914,"current_range_meters":12400,"station_id":"ce4bh492rcd13ifvqdvg","pricing_plan_id":"cebpf4jnsgd1na2vs0mg"},{"bike_id":"c657eca0-7786-4d09-a568-d94b65f566c7","system_id":"levelo_inurba_marseille","lat":43.23965,"lon":5.36621,"is_reserved":false,"is_disabled":false,"rental_uris":{"android":"levelo://app?vid=c657eca0-7786-4d09-a568-d94b65f566c7","ios":"levelo://app?vid=c657eca0-7786-4d09-a568-d94b65f566c7"},"vehicle_type_id":"4","last_reported":1752847914,"current_range_meters":12400,"station_id":"ce4bhi12rcd13ifvqfp0","pricing_plan_id":"cebpf4jnsgd1na2vs0mg"},{"bike_id":"5d95e05b-5d6f-4b0c-9387-1464fc6517b3","system_id":"levelo_inurba_marseille","lat":43.25497,"lon":5.37645,"is_reserved":false,"is_disabled":false,"rental_uris":{"android":"levelo://app?vid=5d95e05b-5d6f-4b0c-9387-1464fc6517b3","ios":"levelo://app?vid=5d95e05b-5d6f-4b0c-9387-1464fc6517b3"},"vehicle_type_id":"4","last_reported":1752847914,"current_range_meters":12800,"station_id":"ce4bhh12rcd13ifvqff0","pricing_plan_id":"cebpf4jnsgd1na2vs0mg"},{"bike_id":"8cbf67ac-351a-483f-a8fe-dcc5448138a6","system_id":"levelo_inurba_marseille","lat":43.27277,"lon":5.39193,"is_reserved":false,"is_disabled":false,"rental_uris":{"android":"levelo://app?vid=8cbf67ac-351a-483f-a8fe-dcc5448138a6","ios":"levelo://app?vid=8cbf67ac-351a-483f-a8fe-dcc5448138a6"},"vehicle_type_id":"4","last_reported":1752847914,"current_range_meters":12800,"station_id":"","pricing_plan_id":"cebpf4jnsgd1na2vs0mg"},{"bike_id":"b004baab-db70-453e-84a5-9312df4bd1d6","system_id":"levelo_inurba_marseille","lat":43.225,"lon":5.34776,"is_reserved":false,"is_disabled":false,"rental_uris":{"android":"levelo://app?vid=b004baab-db70-453e-84a5-9312df4bd1d6","ios":"levelo://app?vid=b004baab-db70-453e-84a5-9312df4bd1d6"},"vehicle_type_id":"4","last_reported":1752847914,"current_range_meters":12800,"station_id":"st_cvj5dfep6f1abm77gieg","pricing_plan_id":"cebpf4jnsgd1na2vs0mg"},{"bike_id":"80f1d1e5-1401-4b23-bcd3-a0d8710a0588","system_id":"levelo_inurba_marseille","lat":43.27377,"lon":5.36257,"is_reserved":false,"is_disabled":false,"rental_uris":{"android":"levelo://app?vid=80f1d1e5-1401-4b23-bcd3-a0d8710a0588","ios":"levelo://app?vid=80f1d1e5-1401-4b23-bcd3-a0d8710a0588"},"vehicle_type_id":"4","last_reported":1752847914,"current_range_meters":12800,"station_id":"ce4bhbh2rcd13ifvqeo0","pricing_plan_id":"cebpf4jnsgd1na2vs0mg"},{"bike_id":"2307d66e-62d9-4901-a074-bd95e6b5c83a","system_id":"levelo_inurba_marseille","lat":43.29074,"lon":5.37175,"is_reserved":false,"is_disabled":false,"rental_uris":{"android":"levelo://app?vid=2307d66e-62d9-4901-a074-bd95e6b5c83a","ios":"levelo://app?vid=2307d66e-62d9-4901-a074-bd95e6b5c83a"},"vehicle_type_id":"4","last_reported":1752847914,"current_range_meters":12800,"station_id":"ce4bh5p2rcd13ifvqe4g","pricing_plan_id":"cebpf4jnsgd1na2vs0mg"},{"bike_id":"3e3ea796-dba7-4b02-b380-ab58b77a4b41","system_id":"levelo_inurba_marseille","lat":43.323598,"lon":5.367619,"is_reserved":false,"is_disabled":false,"rental_uris":{"android":"levelo://app?vid=3e3ea796-dba7-4b02-b380-ab58b77a4b41","ios":"levelo://app?vid=3e3ea796-dba7-4b02-b380-ab58b77a4b41"},"vehicle_type_id":"4","last_reported":1752847914,"current_range_meters":12800,"station_id":"ce4bhsh2rcd13ifvqi2g","pricing_plan_id":"cebpf4jnsgd1na2vs0mg"},{"bike_id":"537df271-1e3d-4ffc-ad70-ada379266803","system_id":"levelo_inurba_marseille","lat":43.21734,"lon":5.34592,"is_reserved":false,"is_disabled":false,"rental_uris":{"android":"levelo://app?vid=537df271-1e3d-4ffc-ad70-ada379266803","ios":"levelo://app?vid=537df271-1e3d-4ffc-ad70-ada379266803"},"vehicle_type_id":"4","last_reported":1752847914,"current_range_meters":13600,"station_id":"st_cvj6r9ubvosntc0bgbag","pricing_plan_id":"cebpf4jnsgd1na2vs0mg"},{"bike_id":"c6db0f6a-96fe-4e1d-8ded-c2ef38c9bab4","system_id":"levelo_inurba_marseille","lat":43.304183,"lon":5.412838,"is_reserved":false,"is_disabled":true,"rental_uris":{"android":"levelo://app?vid=c6db0f6a-96fe-4e1d-8ded-c2ef38c9bab4","ios":"levelo://app?vid=c6db0f6a-96fe-4e1d-8ded-c2ef38c9bab4"},"vehicle_type_id":"4","last_reported":1752847914,"current_range_meters":13600,"station_id":"ce4bhop2rcd13ifvqh8g","pricing_plan_id":"cebpf4jnsgd1na2vs0mg"},{"bike_id":"00ecada3-8577-4c51-98e2-f760bc2bb718","system_id":"levelo_inurba_marseille","lat":43.29423,"lon":5.43225,"is_reserved":false,"is_disabled":false,"rental_uris":{"android":"levelo://app?vid=00ecada3-8577-4c51-98e2-f760bc2bb718","ios":"levelo://app?vid=00ecada3-8577-4c51-98e2-f760bc2bb718"},"vehicle_type_id":"4","last_reported":1752847914,"current_range_meters":13600,"station_id":"","pricing_plan_id":"cebpf4jnsgd1na2vs0mg"},{"bike_id":"5dda7472-9949-46fe-b9fa-ab272459a5d6","system_id":"levelo_inurba_marseille","lat":43.32355,"lon":5.36743,"is_reserved":false,"is_disabled":false,"rental_uris":{"android":"levelo://app?vid=5dda7472-9949-46fe-b9fa-ab272459a5d6","ios":"levelo://app?vid=5dda7472-9949-46fe-b9fa-ab272459a5d6"},"vehicle_type_id":"4","last_reported":1752847914,"current_range_meters":13600,"station_id":"ce4bhsh2rcd13ifvqi2g","pricing_plan_id":"cebpf4jnsgd1na2vs0mg"},{"bike_id":"647b4cd5-c883-45fe-8678-0bf4d025e967","system_id":"levelo_inurba_marseille","lat":43.29007,"lon":5.356088,"is_reserved":false,"is_disabled":false,"rental_uris":{"android":"levelo://app?vid=647b4cd5-c883-45fe-8678-0bf4d025e967","ios":"levelo://app?vid=647b4cd5-c883-45fe-8678-0bf4d025e967"},"vehicle_type_id":"4","last_reported":1752847914,"current_range_meters":14000,"station_id":"ce4bhb92rcd13ifvqen0","pricing_plan_id":"cebpf4jnsgd1na2vs0mg"},{"bike_id":"2d95b47d-d06f-40a4-bb6e-c13e954e3c8f","system_id":"levelo_inurba_marseille","lat":43.27722,"lon":5.41423,"is_reserved":false,"is_disabled":false,"rental_uris":{"android":"levelo://app?vid=2d95b47d-d06f-40a4-bb6e-c13e954e3c8f","ios":"levelo://app?vid=2d95b47d-d06f-40a4-bb6e-c13e954e3c8f"},"vehicle_type_id":"4","last_reported":1752847914,"current_range_meters":14000,"station_id":"","pricing_plan_id":"cebpf4jnsgd1na2vs0mg"},{"bike_id":"25faa4a1-8a56-4120-92c6-a8ba7ad14181","system_id":"levelo_inurba_marseille","lat":43.28414,"lon":5.34991,"is_reserved":false,"is_disabled":false,"rental_uris":{"android":"levelo://app?vid=25faa4a1-8a56-4120-92c6-a8ba7ad14181","ios":"levelo://app?vid=25faa4a1-8a56-4120-92c6-a8ba7ad14181"},"vehicle_type_id":"4","last_reported":1752847914,"current_range_meters":14000,"station_id":"ce4bhbh2rcd13ifvqepg","pricing_plan_id":"cebpf4jnsgd1na2vs0mg"},{"bike_id":"4607398c-5481-406b-ba58-548c4b76f331","system_id":"levelo_inurba_marseille","lat":43.271854,"lon":5.362776,"is_reserved":false,"is_disabled":false,"rental_uris":{"android":"levelo://app?vid=4607398c-5481-406b-ba58-548c4b76f331","ios":"levelo://app?vid=4607398c-5481-406b-ba58-548c4b76f331"},"vehicle_type_id":"4","last_reported":1752847914,"current_range_meters":14000,"station_id":"","pricing_plan_id":"cebpf4jnsgd1na2vs0mg"},{"bike_id":"f2484167-4c38-4146-abfd-ae6dfd486cbc","system_id":"levelo_inurba_marseille","lat":43.28416,"lon":5.3499,"is_reserved":false,"is_disabled":false,"rental_uris":{"android":"levelo://app?vid=f2484167-4c38-4146-abfd-ae6dfd486cbc","ios":"levelo://app?vid=f2484167-4c38-4146-abfd-ae6dfd486cbc"},"vehicle_type_id":"4","last_reported":1752847914,"current_range_meters":14000,"station_id":"ce4bhbh2rcd13ifvqepg","pricing_plan_id":"cebpf4jnsgd1na2vs0mg"},{"bike_id":"4fb3d39f-1f9c-4371-820d-5ce2bade34ba","system_id":"levelo_inurba_marseille","lat":43.2988,"lon":5.38906,"is_reserved":false,"is_disabled":false,"rental_uris":{"android":"levelo://app?vid=4fb3d39f-1f9c-4371-820d-5ce2bade34ba","ios":"levelo://app?vid=4fb3d39f-1f9c-4371-820d-5ce2bade34ba"},"vehicle_type_id":"4","last_reported":1752847914,"current_range_meters":14000,"station_id":"ce4bh392rcd13ifvqdl0","pricing_plan_id":"cebpf4jnsgd1na2vs0mg"},{"bike_id":"97226afb-7b4d-4dcb-a331-5e194d118f94","system_id":"levelo_inurba_marseille","lat":43.29613,"lon":5.38089,"is_reserved":false,"is_disabled":false,"rental_uris":{"android":"levelo://app?vid=97226afb-7b4d-4dcb-a331-5e194d118f94","ios":"levelo://app?vid=97226afb-7b4d-4dcb-a331-5e194d118f94"},"vehicle_type_id":"4","last_reported":1752847914,"current_range_meters":14000,"station_id":"ce4bgl12rcd13ifvqbo0","pricing_plan_id":"cebpf4jnsgd1na2vs0mg"},{"bike_id":"be60c88c-1453-4626-be80-200258f79626","system_id":"levelo_inurba_marseille","lat":43.23191,"lon":5.3556,"is_reserved":false,"is_disabled":false,"rental_uris":{"android":"levelo://app?vid=be60c88c-1453-4626-be80-200258f79626","ios":"levelo://app?vid=be60c88c-1453-4626-be80-200258f79626"},"vehicle_type_id":"4","last_reported":1752847914,"current_range_meters":14000,"station_id":"ce4bhu92rcd13ifvqi70","pricing_plan_id":"cebpf4jnsgd1na2vs0mg"},{"bike_id":"ce7bd25b-5213-4881-a28b-f582e6a1d712","system_id":"levelo_inurba_marseille","lat":43.3138,"lon":5.36699,"is_reserved":false,"is_disabled":true,"rental_uris":{"android":"levelo://app?vid=ce7bd25b-5213-4881-a28b-f582e6a1d712","ios":"levelo://app?vid=ce7bd25b-5213-4881-a28b-f582e6a1d712"},"vehicle_type_id":"4","last_reported":1752847914,"current_range_meters":14000,"station_id":"ce4bgr92rcd13ifvqc6g","pricing_plan_id":"cebpf4jnsgd1na2vs0mg"},{"bike_id":"b845130c-0fbf-48c7-8b7f-cde3eea74627","system_id":"levelo_inurba_marseille","lat":43.29542,"lon":5.39046,"is_reserved":false,"is_disabled":false,"rental_uris":{"android":"levelo://app?vid=b845130c-0fbf-48c7-8b7f-cde3eea74627","ios":"levelo://app?vid=b845130c-0fbf-48c7-8b7f-cde3eea74627"},"vehicle_type_id":"4","last_reported":1752847914,"current_range_meters":14000,"station_id":"ce4bh3p2rcd13ifvqdp0","pricing_plan_id":"cebpf4jnsgd1na2vs0mg"},{"bike_id":"5ac93e7c-286a-4c1e-b6c0-4e9963e5a9f8","system_id":"levelo_inurba_marseille","lat":43.211935,"lon":5.350755,"is_reserved":false,"is_disabled":false,"rental_uris":{"android":"levelo://app?vid=5ac93e7c-286a-4c1e-b6c0-4e9963e5a9f8","ios":"levelo://app?vid=5ac93e7c-286a-4c1e-b6c0-4e9963e5a9f8"},"vehicle_type_id":"4","last_reported":1752847914,"current_range_meters":14000,"station_id":"st_cvj6sg6p6f1abm77japg","pricing_plan_id":"cebpf4jnsgd1na2vs0mg"},{"bike_id":"9e46aa88-7b19-47c3-b789-71b8902b53cb","system_id":"levelo_inurba_marseille","lat":43.28144,"lon":5.42638,"is_reserved":false,"is_disabled":false,"rental_uris":{"android":"levelo://app?vid=9e46aa88-7b19-47c3-b789-71b8902b53cb","ios":"levelo://app?vid=9e46aa88-7b19-47c3-b789-71b8902b53cb"},"vehicle_type_id":"4","last_reported":1752847914,"current_range_meters":14400,"station_id":"ce4bhnh2rcd13ifvqgug","pricing_plan_id":"cebpf4jnsgd1na2vs0mg"},{"bike_id":"7bcae915-ac16-418a-9210-dc448e4e5db8","system_id":"levelo_inurba_marseille","lat":43.28268,"lon":5.35061,"is_reserved":false,"is_disabled":false,"rental_uris":{"android":"levelo://app?vid=7bcae915-ac16-418a-9210-dc448e4e5db8","ios":"levelo://app?vid=7bcae915-ac16-418a-9210-dc448e4e5db8"},"vehicle_type_id":"4","last_reported":1752847914,"current_range_meters":14400,"station_id":"ce4bhbp2rcd13ifvqerg","pricing_plan_id":"cebpf4jnsgd1na2vs0mg"},{"bike_id":"3060254f-c7c7-45d0-aa09-f6923ee54908","system_id":"levelo_inurba_marseille","lat":43.23973,"lon":5.36629,"is_reserved":false,"is_disabled":false,"rental_uris":{"android":"levelo://app?vid=3060254f-c7c7-45d0-aa09-f6923ee54908","ios":"levelo://app?vid=3060254f-c7c7-45d0-aa09-f6923ee54908"},"vehicle_type_id":"4","last_reported":1752847914,"current_range_meters":14400,"station_id":"ce4bhi12rcd13ifvqfp0","pricing_plan_id":"cebpf4jnsgd1na2vs0mg"},{"bike_id":"a6977ec0-ee99-4ff8-8f96-2b9245121c21","system_id":"levelo_inurba_marseille","lat":43.295727,"lon":5.375245,"is_reserved":false,"is_disabled":false,"rental_uris":{"android":"levelo://app?vid=a6977ec0-ee99-4ff8-8f96-2b9245121c21","ios":"levelo://app?vid=a6977ec0-ee99-4ff8-8f96-2b9245121c21"},"vehicle_type_id":"4","last_reported":1752847914,"current_range_meters":14800,"station_id":"ce4bgh92rcd13ifvqb50","pricing_plan_id":"cebpf4jnsgd1na2vs0mg"},{"bike_id":"fbf0b7f2-f884-4bd3-a5fa-255e32e8eeed","system_id":"levelo_inurba_marseille","lat":43.241783,"lon":5.363947,"is_reserved":false,"is_disabled":false,"rental_uris":{"android":"levelo://app?vid=fbf0b7f2-f884-4bd3-a5fa-255e32e8eeed","ios":"levelo://app?vid=fbf0b7f2-f884-4bd3-a5fa-255e32e8eeed"},"vehicle_type_id":"4","last_reported":1752847914,"current_range_meters":14800,"station_id":"cpo36qri1sfpv3e86is0","pricing_plan_id":"cebpf4jnsgd1na2vs0mg"},{"bike_id":"f90c974e-56ca-4c76-bce6-4fa0446c9e95","system_id":"levelo_inurba_marseille","lat":43.30595,"lon":5.36662,"is_reserved":false,"is_disabled":false,"rental_uris":{"android":"levelo://app?vid=f90c974e-56ca-4c76-bce6-4fa0446c9e95","ios":"levelo://app?vid=f90c974e-56ca-4c76-bce6-4fa0446c9e95"},"vehicle_type_id":"4","last_reported":1752847914,"current_range_meters":14800,"station_id":"","pricing_plan_id":"cebpf4jnsgd1na2vs0mg"},{"bike_id":"cfb52d04-9134-4c86-8269-771716b20f27","system_id":"levelo_inurba_marseille","lat":43.211916,"lon":5.350734,"is_reserved":false,"is_disabled":false,"rental_uris":{"android":"levelo://app?vid=cfb52d04-9134-4c86-8269-771716b20f27","ios":"levelo://app?vid=cfb52d04-9134-4c86-8269-771716b20f27"},"vehicle_type_id":"4","last_reported":1752847914,"current_range_meters":14800,"station_id":"st_cvj6sg6p6f1abm77japg","pricing_plan_id":"cebpf4jnsgd1na2vs0mg"},{"bike_id":"5340329c-8bc5-4f60-a63c-3f485b4630ab","system_id":"levelo_inurba_marseille","lat":43.28436,"lon":5.34981,"is_reserved":false,"is_disabled":false,"rental_uris":{"android":"levelo://app?vid=5340329c-8bc5-4f60-a63c-3f485b4630ab","ios":"levelo://app?vid=5340329c-8bc5-4f60-a63c-3f485b4630ab"},"vehicle_type_id":"4","last_reported":1752847914,"current_range_meters":14800,"station_id":"ce4bhbh2rcd13ifvqepg","pricing_plan_id":"cebpf4jnsgd1na2vs0mg"},{"bike_id":"c388bf5a-d7c8-4a3e-92eb-cc11ea3da57f","system_id":"levelo_inurba_marseille","lat":43.24669,"lon":5.38161,"is_reserved":false,"is_disabled":false,"rental_uris":{"android":"levelo://app?vid=c388bf5a-d7c8-4a3e-92eb-cc11ea3da57f","ios":"levelo://app?vid=c388bf5a-d7c8-4a3e-92eb-cc11ea3da57f"},"vehicle_type_id":"4","last_reported":1752847914,"current_range_meters":15200,"station_id":"ce4bhih2rcd13ifvqfr0","pricing_plan_id":"cebpf4jnsgd1na2vs0mg"},{"bike_id":"6cd13d7f-1155-433a-bba2-9bb2be544c72","system_id":"levelo_inurba_marseille","lat":43.27082,"lon":5.42285,"is_reserved":false,"is_disabled":false,"rental_uris":{"android":"levelo://app?vid=6cd13d7f-1155-433a-bba2-9bb2be544c72","ios":"levelo://app?vid=6cd13d7f-1155-433a-bba2-9bb2be544c72"},"vehicle_type_id":"4","last_reported":1752847914,"current_range_meters":15200,"station_id":"ce4bhk92rcd13ifvqgb0","pricing_plan_id":"cebpf4jnsgd1na2vs0mg"},{"bike_id":"2a7a98a9-267b-4553-b0e0-13837c4af786","system_id":"levelo_inurba_marseille","lat":43.23065,"lon":5.35493,"is_reserved":false,"is_disabled":false,"rental_uris":{"android":"levelo://app?vid=2a7a98a9-267b-4553-b0e0-13837c4af786","ios":"levelo://app?vid=2a7a98a9-267b-4553-b0e0-13837c4af786"},"vehicle_type_id":"4","last_reported":1752847914,"current_range_meters":15200,"station_id":"cpo3342slgdg3j2ifvpg","pricing_plan_id":"cebpf4jnsgd1na2vs0mg"},{"bike_id":"eef93a3e-050a-4594-bd86-e7830dc7a0d1","system_id":"levelo_inurba_marseille","lat":43.29608,"lon":5.3756,"is_reserved":false,"is_disabled":false,"rental_uris":{"android":"levelo://app?vid=eef93a3e-050a-4594-bd86-e7830dc7a0d1","ios":"levelo://app?vid=eef93a3e-050a-4594-bd86-e7830dc7a0d1"},"vehicle_type_id":"4","last_reported":1752847914,"current_range_meters":15200,"station_id":"ce4bgh92rcd13ifvqb50","pricing_plan_id":"cebpf4jnsgd1na2vs0mg"},{"bike_id":"d40bd538-ef08-4e32-ba9f-ec37ed6edd3e","system_id":"levelo_inurba_marseille","lat":43.29855,"lon":5.36284,"is_reserved":false,"is_disabled":false,"rental_uris":{"android":"levelo://app?vid=d40bd538-ef08-4e32-ba9f-ec37ed6edd3e","ios":"levelo://app?vid=d40bd538-ef08-4e32-ba9f-ec37ed6edd3e"},"vehicle_type_id":"4","last_reported":1752847914,"current_range_meters":16000,"station_id":"ce4bgpp2rcd13ifvqc3g","pricing_plan_id":"cebpf4jnsgd1na2vs0mg"},{"bike_id":"05ffb198-c524-4752-acdb-f6f37268b918","system_id":"levelo_inurba_marseille","lat":43.30282,"lon":5.37705,"is_reserved":false,"is_disabled":false,"rental_uris":{"android":"levelo://app?vid=05ffb198-c524-4752-acdb-f6f37268b918","ios":"levelo://app?vid=05ffb198-c524-4752-acdb-f6f37268b918"},"vehicle_type_id":"4","last_reported":1752847914,"current_range_meters":16000,"station_id":"ce4bguh2rcd13ifvqcj0","pricing_plan_id":"cebpf4jnsgd1na2vs0mg"},{"bike_id":"ac0ed4be-466c-4caa-b855-3c6bbe5a11b5","system_id":"levelo_inurba_marseille","lat":43.26749,"lon":5.37174,"is_reserved":false,"is_disabled":false,"rental_uris":{"android":"levelo://app?vid=ac0ed4be-466c-4caa-b855-3c6bbe5a11b5","ios":"levelo://app?vid=ac0ed4be-466c-4caa-b855-3c6bbe5a11b5"},"vehicle_type_id":"4","last_reported":1752847914,"current_range_meters":16000,"station_id":"","pricing_plan_id":"cebpf4jnsgd1na2vs0mg"},{"bike_id":"f310b61a-0922-4b58-99ec-3c007edcb4df","system_id":"levelo_inurba_marseille","lat":43.27922,"lon":5.39592,"is_reserved":false,"is_disabled":false,"rental_uris":{"android":"levelo://app?vid=f310b61a-0922-4b58-99ec-3c007edcb4df","ios":"levelo://app?vid=f310b61a-0922-4b58-99ec-3c007edcb4df"},"vehicle_type_id":"4","last_reported":1752847914,"current_range_meters":16000,"station_id":"ce4bhf92rcd13ifvqf40","pricing_plan_id":"cebpf4jnsgd1na2vs0mg"},{"bike_id":"fa265c5e-e73c-4e5b-8062-3bbc2a8e1d93","system_id":"levelo_inurba_marseille","lat":43.29257,"lon":5.36853,"is_reserved":false,"is_disabled":false,"rental_uris":{"android":"levelo://app?vid=fa265c5e-e73c-4e5b-8062-3bbc2a8e1d93","ios":"levelo://app?vid=fa265c5e-e73c-4e5b-8062-3bbc2a8e1d93"},"vehicle_type_id":"4","last_reported":1752847914,"current_range_meters":16000,"station_id":"ce4bhbp2rcd13ifvqesg","pricing_plan_id":"cebpf4jnsgd1na2vs0mg"},{"bike_id":"a67156ae-789e-45f5-ab3f-ed7d95b24540","system_id":"levelo_inurba_marseille","lat":43.21197,"lon":5.35078,"is_reserved":false,"is_disabled":false,"rental_uris":{"android":"levelo://app?vid=a67156ae-789e-45f5-ab3f-ed7d95b24540","ios":"levelo://app?vid=a67156ae-789e-45f5-ab3f-ed7d95b24540"},"vehicle_type_id":"4","last_reported":1752847914,"current_range_meters":16000,"station_id":"st_cvj6sg6p6f1abm77japg","pricing_plan_id":"cebpf4jnsgd1na2vs0mg"},{"bike_id":"edd0079d-996b-4ae3-9a31-d781f3a059ec","system_id":"levelo_inurba_marseille","lat":43.33786,"lon":5.37426,"is_reserved":false,"is_disabled":false,"rental_uris":{"android":"levelo://app?vid=edd0079d-996b-4ae3-9a31-d781f3a059ec","ios":"levelo://app?vid=edd0079d-996b-4ae3-9a31-d781f3a059ec"},"vehicle_type_id":"4","last_reported":1752847914,"current_range_meters":16000,"station_id":"","pricing_plan_id":"cebpf4jnsgd1na2vs0mg"},{"bike_id":"b7fe52dd-f025-4212-9e78-19e7f6f09593","system_id":"levelo_inurba_marseille","lat":43.21188,"lon":5.35084,"is_reserved":false,"is_disabled":false,"rental_uris":{"android":"levelo://app?vid=b7fe52dd-f025-4212-9e78-19e7f6f09593","ios":"levelo://app?vid=b7fe52dd-f025-4212-9e78-19e7f6f09593"},"vehicle_type_id":"4","last_reported":1752847914,"current_range_meters":16000,"station_id":"st_cvj6sg6p6f1abm77japg","pricing_plan_id":"cebpf4jnsgd1na2vs0mg"},{"bike_id":"9147b373-8aa0-450a-9753-e9fdee930fa1","system_id":"levelo_inurba_marseille","lat":43.29008,"lon":5.35613,"is_reserved":false,"is_disabled":false,"rental_uris":{"android":"levelo://app?vid=9147b373-8aa0-450a-9753-e9fdee930fa1","ios":"levelo://app?vid=9147b373-8aa0-450a-9753-e9fdee930fa1"},"vehicle_type_id":"4","last_reported":1752847914,"current_range_meters":16000,"station_id":"ce4bhb92rcd13ifvqen0","pricing_plan_id":"cebpf4jnsgd1na2vs0mg"},{"bike_id":"32f5afb1-15c9-4431-a998-25b3b86db8d1","system_id":"levelo_inurba_marseille","lat":43.27375,"lon":5.36259,"is_reserved":false,"is_disabled":false,"rental_uris":{"android":"levelo://app?vid=32f5afb1-15c9-4431-a998-25b3b86db8d1","ios":"levelo://app?vid=32f5afb1-15c9-4431-a998-25b3b86db8d1"},"vehicle_type_id":"4","last_reported":1752847914,"current_range_meters":16000,"station_id":"ce4bhbh2rcd13ifvqeo0","pricing_plan_id":"cebpf4jnsgd1na2vs0mg"},{"bike_id":"ef930538-d642-4a14-a663-3f472c20f536","system_id":"levelo_inurba_marseille","lat":43.231683,"lon":5.437139,"is_reserved":false,"is_disabled":false,"rental_uris":{"android":"levelo://app?vid=ef930538-d642-4a14-a663-3f472c20f536","ios":"levelo://app?vid=ef930538-d642-4a14-a663-3f472c20f536"},"vehicle_type_id":"4","last_reported":1752847914,"current_range_meters":16000,"station_id":"ce4bhmp2rcd13ifvqgog","pricing_plan_id":"cebpf4jnsgd1na2vs0mg"},{"bike_id":"6fd66afa-6637-4712-aa56-c95b48a08353","system_id":"levelo_inurba_marseille","lat":43.23161,"lon":5.43723,"is_reserved":false,"is_disabled":false,"rental_uris":{"android":"levelo://app?vid=6fd66afa-6637-4712-aa56-c95b48a08353","ios":"levelo://app?vid=6fd66afa-6637-4712-aa56-c95b48a08353"},"vehicle_type_id":"4","last_reported":1752847914,"current_range_meters":16400,"station_id":"ce4bhmp2rcd13ifvqgog","pricing_plan_id":"cebpf4jnsgd1na2vs0mg"},{"bike_id":"6f2b188d-268c-4dbe-b8a1-874e327f8d67","system_id":"levelo_inurba_marseille","lat":43.29939,"lon":5.36526,"is_reserved":false,"is_disabled":false,"rental_uris":{"android":"levelo://app?vid=6f2b188d-268c-4dbe-b8a1-874e327f8d67","ios":"levelo://app?vid=6f2b188d-268c-4dbe-b8a1-874e327f8d67"},"vehicle_type_id":"4","last_reported":1752847914,"current_range_meters":16400,"station_id":"ce4bgm92rcd13ifvqbr0","pricing_plan_id":"cebpf4jnsgd1na2vs0mg"},{"bike_id":"8ce9b80c-19c6-4985-81c6-50f285c26740","system_id":"levelo_inurba_marseille","lat":43.23966,"lon":5.36619,"is_reserved":false,"is_disabled":false,"rental_uris":{"android":"levelo://app?vid=8ce9b80c-19c6-4985-81c6-50f285c26740","ios":"levelo://app?vid=8ce9b80c-19c6-4985-81c6-50f285c26740"},"vehicle_type_id":"4","last_reported":1752847914,"current_range_meters":16400,"station_id":"ce4bhi12rcd13ifvqfp0","pricing_plan_id":"cebpf4jnsgd1na2vs0mg"},{"bike_id":"73371026-46a3-49ca-b5b5-2d6b90c8827c","system_id":"levelo_inurba_marseille","lat":43.29924,"lon":5.36523,"is_reserved":false,"is_disabled":false,"rental_uris":{"android":"levelo://app?vid=73371026-46a3-49ca-b5b5-2d6b90c8827c","ios":"levelo://app?vid=73371026-46a3-49ca-b5b5-2d6b90c8827c"},"vehicle_type_id":"4","last_reported":1752847914,"current_range_meters":16400,"station_id":"ce4bgm92rcd13ifvqbr0","pricing_plan_id":"cebpf4jnsgd1na2vs0mg"},{"bike_id":"ba9f3e38-527b-4abb-aed1-dabb2d5ce59f","system_id":"levelo_inurba_marseille","lat":43.26946,"lon":5.40257,"is_reserved":false,"is_disabled":false,"rental_uris":{"android":"levelo://app?vid=ba9f3e38-527b-4abb-aed1-dabb2d5ce59f","ios":"levelo://app?vid=ba9f3e38-527b-4abb-aed1-dabb2d5ce59f"},"vehicle_type_id":"4","last_reported":1752847914,"current_range_meters":16400,"station_id":"cjm6bp8fraef2m0cb0m0","pricing_plan_id":"cebpf4jnsgd1na2vs0mg"},{"bike_id":"4d6a38e2-6757-4ef9-94c5-7db75e45819d","system_id":"levelo_inurba_marseille","lat":43.25952,"lon":5.37534,"is_reserved":false,"is_disabled":false,"rental_uris":{"android":"levelo://app?vid=4d6a38e2-6757-4ef9-94c5-7db75e45819d","ios":"levelo://app?vid=4d6a38e2-6757-4ef9-94c5-7db75e45819d"},"vehicle_type_id":"4","last_reported":1752847914,"current_range_meters":16800,"station_id":"","pricing_plan_id":"cebpf4jnsgd1na2vs0mg"},{"bike_id":"29232b98-86da-4ebe-b6b8-36783a7238c1","system_id":"levelo_inurba_marseille","lat":43.30147,"lon":5.39875,"is_reserved":false,"is_disabled":false,"rental_uris":{"android":"levelo://app?vid=29232b98-86da-4ebe-b6b8-36783a7238c1","ios":"levelo://app?vid=29232b98-86da-4ebe-b6b8-36783a7238c1"},"vehicle_type_id":"4","last_reported":1752847914,"current_range_meters":16800,"station_id":"ce4bh0h2rcd13ifvqd40","pricing_plan_id":"cebpf4jnsgd1na2vs0mg"},{"bike_id":"dadd6356-567d-4390-b685-2bef0f59e600","system_id":"levelo_inurba_marseille","lat":43.30376,"lon":5.42487,"is_reserved":false,"is_disabled":false,"rental_uris":{"android":"levelo://app?vid=dadd6356-567d-4390-b685-2bef0f59e600","ios":"levelo://app?vid=dadd6356-567d-4390-b685-2bef0f59e600"},"vehicle_type_id":"4","last_reported":1752847914,"current_range_meters":16800,"station_id":"ce4bhoh2rcd13ifvqh6g","pricing_plan_id":"cebpf4jnsgd1na2vs0mg"},{"bike_id":"81b8982e-0de9-4985-b907-712e742b4afd","system_id":"levelo_inurba_marseille","lat":43.28164,"lon":5.40394,"is_reserved":false,"is_disabled":false,"rental_uris":{"android":"levelo://app?vid=81b8982e-0de9-4985-b907-712e742b4afd","ios":"levelo://app?vid=81b8982e-0de9-4985-b907-712e742b4afd"},"vehicle_type_id":"4","last_reported":1752847914,"current_range_meters":16800,"station_id":"","pricing_plan_id":"cebpf4jnsgd1na2vs0mg"},{"bike_id":"8e79a85b-71cd-44e2-9769-4ad285ff7c49","system_id":"levelo_inurba_marseille","lat":43.21747,"lon":5.34604,"is_reserved":false,"is_disabled":false,"rental_uris":{"android":"levelo://app?vid=8e79a85b-71cd-44e2-9769-4ad285ff7c49","ios":"levelo://app?vid=8e79a85b-71cd-44e2-9769-4ad285ff7c49"},"vehicle_type_id":"4","last_reported":1752847914,"current_range_meters":16800,"station_id":"st_cvj6r9ubvosntc0bgbag","pricing_plan_id":"cebpf4jnsgd1na2vs0mg"},{"bike_id":"978ef16f-2db4-4544-b66f-199c1f3b9d02","system_id":"levelo_inurba_marseille","lat":43.23143,"lon":5.43726,"is_reserved":false,"is_disabled":false,"rental_uris":{"android":"levelo://app?vid=978ef16f-2db4-4544-b66f-199c1f3b9d02","ios":"levelo://app?vid=978ef16f-2db4-4544-b66f-199c1f3b9d02"},"vehicle_type_id":"4","last_reported":1752847914,"current_range_meters":16800,"station_id":"ce4bhmp2rcd13ifvqgog","pricing_plan_id":"cebpf4jnsgd1na2vs0mg"},{"bike_id":"2450bd03-be48-47f8-991a-1fc11dfcf078","system_id":"levelo_inurba_marseille","lat":43.24988,"lon":5.38933,"is_reserved":false,"is_disabled":false,"rental_uris":{"android":"levelo://app?vid=2450bd03-be48-47f8-991a-1fc11dfcf078","ios":"levelo://app?vid=2450bd03-be48-47f8-991a-1fc11dfcf078"},"vehicle_type_id":"4","last_reported":1752847914,"current_range_meters":16800,"station_id":"ce4bhgp2rcd13ifvqfd0","pricing_plan_id":"cebpf4jnsgd1na2vs0mg"},{"bike_id":"9926ebb3-b641-4ad8-afc5-63a07c72a680","system_id":"levelo_inurba_marseille","lat":43.30603,"lon":5.37251,"is_reserved":false,"is_disabled":false,"rental_uris":{"android":"levelo://app?vid=9926ebb3-b641-4ad8-afc5-63a07c72a680","ios":"levelo://app?vid=9926ebb3-b641-4ad8-afc5-63a07c72a680"},"vehicle_type_id":"4","last_reported":1752847914,"current_range_meters":16800,"station_id":"ce4bgqh2rcd13ifvqc4g","pricing_plan_id":"cebpf4jnsgd1na2vs0mg"},{"bike_id":"fbd40d18-23c5-4949-b79a-4c8c789c9ae0","system_id":"levelo_inurba_marseille","lat":43.26575,"lon":5.37266,"is_reserved":false,"is_disabled":false,"rental_uris":{"android":"levelo://app?vid=fbd40d18-23c5-4949-b79a-4c8c789c9ae0","ios":"levelo://app?vid=fbd40d18-23c5-4949-b79a-4c8c789c9ae0"},"vehicle_type_id":"4","last_reported":1752847914,"current_range_meters":17200,"station_id":"ce4bhg12rcd13ifvqf70","pricing_plan_id":"cebpf4jnsgd1na2vs0mg"},{"bike_id":"5ed7e33c-75eb-4f80-9ced-f5eee5190af4","system_id":"levelo_inurba_marseille","lat":43.29559,"lon":5.42288,"is_reserved":false,"is_disabled":false,"rental_uris":{"android":"levelo://app?vid=5ed7e33c-75eb-4f80-9ced-f5eee5190af4","ios":"levelo://app?vid=5ed7e33c-75eb-4f80-9ced-f5eee5190af4"},"vehicle_type_id":"4","last_reported":1752847914,"current_range_meters":17200,"station_id":"ce4bhph2rcd13ifvqhdg","pricing_plan_id":"cebpf4jnsgd1na2vs0mg"},{"bike_id":"42525367-a877-4c70-a7a3-fe01fcc356af","system_id":"levelo_inurba_marseille","lat":43.307371,"lon":5.424339,"is_reserved":false,"is_disabled":false,"rental_uris":{"android":"levelo://app?vid=42525367-a877-4c70-a7a3-fe01fcc356af","ios":"levelo://app?vid=42525367-a877-4c70-a7a3-fe01fcc356af"},"vehicle_type_id":"4","last_reported":1752847914,"current_range_meters":17200,"station_id":"st_cvj6ca6bvosntc0bfgr0","pricing_plan_id":"cebpf4jnsgd1na2vs0mg"},{"bike_id":"96b68ee2-d486-4bf3-9bbc-e0fb11cf4a26","system_id":"levelo_inurba_marseille","lat":43.29309,"lon":5.37162,"is_reserved":false,"is_disabled":false,"rental_uris":{"android":"levelo://app?vid=96b68ee2-d486-4bf3-9bbc-e0fb11cf4a26","ios":"levelo://app?vid=96b68ee2-d486-4bf3-9bbc-e0fb11cf4a26"},"vehicle_type_id":"4","last_reported":1752847914,"current_range_meters":17200,"station_id":"ce4bgh92rcd13ifvqb40","pricing_plan_id":"cebpf4jnsgd1na2vs0mg"},{"bike_id":"785397ef-5945-44b2-b82e-d13a6bab261e","system_id":"levelo_inurba_marseille","lat":43.2992,"lon":5.37471,"is_reserved":false,"is_disabled":false,"rental_uris":{"android":"levelo://app?vid=785397ef-5945-44b2-b82e-d13a6bab261e","ios":"levelo://app?vid=785397ef-5945-44b2-b82e-d13a6bab261e"},"vehicle_type_id":"4","last_reported":1752847914,"current_range_meters":17200,"station_id":"ce4bgjh2rcd13ifvqbg0","pricing_plan_id":"cebpf4jnsgd1na2vs0mg"},{"bike_id":"5ddeae13-38a3-4013-ac4e-51f2922be8d3","system_id":"levelo_inurba_marseille","lat":43.23196,"lon":5.35551,"is_reserved":false,"is_disabled":false,"rental_uris":{"android":"levelo://app?vid=5ddeae13-38a3-4013-ac4e-51f2922be8d3","ios":"levelo://app?vid=5ddeae13-38a3-4013-ac4e-51f2922be8d3"},"vehicle_type_id":"4","last_reported":1752847914,"current_range_meters":17600,"station_id":"ce4bhu92rcd13ifvqi70","pricing_plan_id":"cebpf4jnsgd1na2vs0mg"},{"bike_id":"3e4c8d6f-8969-4135-91f6-ec7c852c7bee","system_id":"levelo_inurba_marseille","lat":43.231982,"lon":5.355456,"is_reserved":false,"is_disabled":false,"rental_uris":{"android":"levelo://app?vid=3e4c8d6f-8969-4135-91f6-ec7c852c7bee","ios":"levelo://app?vid=3e4c8d6f-8969-4135-91f6-ec7c852c7bee"},"vehicle_type_id":"4","last_reported":1752847914,"current_range_meters":17600,"station_id":"ce4bhu92rcd13ifvqi70","pricing_plan_id":"cebpf4jnsgd1na2vs0mg"},{"bike_id":"558434c8-b1b4-4034-93c4-037d67d00a87","system_id":"levelo_inurba_marseille","lat":43.25495,"lon":5.3765,"is_reserved":false,"is_disabled":false,"rental_uris":{"android":"levelo://app?vid=558434c8-b1b4-4034-93c4-037d67d00a87","ios":"levelo://app?vid=558434c8-b1b4-4034-93c4-037d67d00a87"},"vehicle_type_id":"4","last_reported":1752847914,"current_range_meters":17600,"station_id":"ce4bhh12rcd13ifvqff0","pricing_plan_id":"cebpf4jnsgd1na2vs0mg"},{"bike_id":"afc91c81-7042-4270-a28e-07e325ae83c9","system_id":"levelo_inurba_marseille","lat":43.21218,"lon":5.3505,"is_reserved":false,"is_disabled":false,"rental_uris":{"android":"levelo://app?vid=afc91c81-7042-4270-a28e-07e325ae83c9","ios":"levelo://app?vid=afc91c81-7042-4270-a28e-07e325ae83c9"},"vehicle_type_id":"4","last_reported":1752847914,"current_range_meters":17600,"station_id":"","pricing_plan_id":"cebpf4jnsgd1na2vs0mg"},{"bike_id":"06b46bd1-38ed-44f7-9ba1-67361d8158e7","system_id":"levelo_inurba_marseille","lat":43.28414,"lon":5.34994,"is_reserved":false,"is_disabled":false,"rental_uris":{"android":"levelo://app?vid=06b46bd1-38ed-44f7-9ba1-67361d8158e7","ios":"levelo://app?vid=06b46bd1-38ed-44f7-9ba1-67361d8158e7"},"vehicle_type_id":"4","last_reported":1752847914,"current_range_meters":17600,"station_id":"ce4bhbh2rcd13ifvqepg","pricing_plan_id":"cebpf4jnsgd1na2vs0mg"},{"bike_id":"1a794689-0399-4bd8-871c-778f85fe0438","system_id":"levelo_inurba_marseille","lat":43.274941,"lon":5.424538,"is_reserved":false,"is_disabled":false,"rental_uris":{"android":"levelo://app?vid=1a794689-0399-4bd8-871c-778f85fe0438","ios":"levelo://app?vid=1a794689-0399-4bd8-871c-778f85fe0438"},"vehicle_type_id":"4","last_reported":1752847914,"current_range_meters":17600,"station_id":"ce4bhn92rcd13ifvqgrg","pricing_plan_id":"cebpf4jnsgd1na2vs0mg"},{"bike_id":"990e9143-fd69-49d9-b070-30e43a09ff4f","system_id":"levelo_inurba_marseille","lat":43.28667,"lon":5.38659,"is_reserved":false,"is_disabled":false,"rental_uris":{"android":"levelo://app?vid=990e9143-fd69-49d9-b070-30e43a09ff4f","ios":"levelo://app?vid=990e9143-fd69-49d9-b070-30e43a09ff4f"},"vehicle_type_id":"4","last_reported":1752847914,"current_range_meters":17600,"station_id":"ce4bh492rcd13ifvqdug","pricing_plan_id":"cebpf4jnsgd1na2vs0mg"},{"bike_id":"52470091-5472-4809-9c1c-147f913cf782","system_id":"levelo_inurba_marseille","lat":43.301163,"lon":5.396161,"is_reserved":false,"is_disabled":false,"rental_uris":{"android":"levelo://app?vid=52470091-5472-4809-9c1c-147f913cf782","ios":"levelo://app?vid=52470091-5472-4809-9c1c-147f913cf782"},"vehicle_type_id":"4","last_reported":1752847914,"current_range_meters":17600,"station_id":"ce4bh0h2rcd13ifvqd50","pricing_plan_id":"cebpf4jnsgd1na2vs0mg"},{"bike_id":"492a342b-8b39-40f5-a9e9-f57955cb0c52","system_id":"levelo_inurba_marseille","lat":43.28725,"lon":5.3608,"is_reserved":false,"is_disabled":false,"rental_uris":{"android":"levelo://app?vid=492a342b-8b39-40f5-a9e9-f57955cb0c52","ios":"levelo://app?vid=492a342b-8b39-40f5-a9e9-f57955cb0c52"},"vehicle_type_id":"4","last_reported":1752847914,"current_range_meters":17600,"station_id":"cki0cbj6b192h4jlfktg","pricing_plan_id":"cebpf4jnsgd1na2vs0mg"},{"bike_id":"5016f77e-53a9-4155-a2d9-8f4505a7613a","system_id":"levelo_inurba_marseille","lat":43.257347,"lon":5.410945,"is_reserved":false,"is_disabled":false,"rental_uris":{"android":"levelo://app?vid=5016f77e-53a9-4155-a2d9-8f4505a7613a","ios":"levelo://app?vid=5016f77e-53a9-4155-a2d9-8f4505a7613a"},"vehicle_type_id":"4","last_reported":1752847914,"current_range_meters":17600,"station_id":"ce4bhkp2rcd13ifvqgd0","pricing_plan_id":"cebpf4jnsgd1na2vs0mg"},{"bike_id":"94c07cb2-0943-4d24-99f2-97bdab47aa3f","system_id":"levelo_inurba_marseille","lat":43.337444,"lon":5.374475,"is_reserved":false,"is_disabled":false,"rental_uris":{"android":"levelo://app?vid=94c07cb2-0943-4d24-99f2-97bdab47aa3f","ios":"levelo://app?vid=94c07cb2-0943-4d24-99f2-97bdab47aa3f"},"vehicle_type_id":"4","last_reported":1752847914,"current_range_meters":17600,"station_id":"","pricing_plan_id":"cebpf4jnsgd1na2vs0mg"},{"bike_id":"fb4debf2-1f8f-411c-bd26-e8013aa9592a","system_id":"levelo_inurba_marseille","lat":43.27351,"lon":5.39116,"is_reserved":false,"is_disabled":false,"rental_uris":{"android":"levelo://app?vid=fb4debf2-1f8f-411c-bd26-e8013aa9592a","ios":"levelo://app?vid=fb4debf2-1f8f-411c-bd26-e8013aa9592a"},"vehicle_type_id":"4","last_reported":1752847914,"current_range_meters":18000,"station_id":"ce4bhgp2rcd13ifvqfe0","pricing_plan_id":"cebpf4jnsgd1na2vs0mg"},{"bike_id":"2d99dfe1-c3de-439a-8750-d0f8b60b529a","system_id":"levelo_inurba_marseille","lat":43.26232,"lon":5.40451,"is_reserved":false,"is_disabled":false,"rental_uris":{"android":"levelo://app?vid=2d99dfe1-c3de-439a-8750-d0f8b60b529a","ios":"levelo://app?vid=2d99dfe1-c3de-439a-8750-d0f8b60b529a"},"vehicle_type_id":"4","last_reported":1752847914,"current_range_meters":18000,"station_id":"ce4bhmh2rcd13ifvqgmg","pricing_plan_id":"cebpf4jnsgd1na2vs0mg"},{"bike_id":"bd7f0af5-ae40-44b6-bc39-9b4e2b89534b","system_id":"levelo_inurba_marseille","lat":43.29868,"lon":5.39734,"is_reserved":false,"is_disabled":false,"rental_uris":{"android":"levelo://app?vid=bd7f0af5-ae40-44b6-bc39-9b4e2b89534b","ios":"levelo://app?vid=bd7f0af5-ae40-44b6-bc39-9b4e2b89534b"},"vehicle_type_id":"4","last_reported":1752847914,"current_range_meters":18000,"station_id":"","pricing_plan_id":"cebpf4jnsgd1na2vs0mg"},{"bike_id":"7fa8ed68-8cf6-4eac-8550-49e30b22f49e","system_id":"levelo_inurba_marseille","lat":43.30557,"lon":5.36525,"is_reserved":false,"is_disabled":false,"rental_uris":{"android":"levelo://app?vid=7fa8ed68-8cf6-4eac-8550-49e30b22f49e","ios":"levelo://app?vid=7fa8ed68-8cf6-4eac-8550-49e30b22f49e"},"vehicle_type_id":"4","last_reported":1752847914,"current_range_meters":18000,"station_id":"ce4bgs12rcd13ifvqcag","pricing_plan_id":"cebpf4jnsgd1na2vs0mg"},{"bike_id":"1bea52eb-b99a-43e3-8fce-07ed497a87d3","system_id":"levelo_inurba_marseille","lat":43.323338,"lon":5.406222,"is_reserved":false,"is_disabled":false,"rental_uris":{"android":"levelo://app?vid=1bea52eb-b99a-43e3-8fce-07ed497a87d3","ios":"levelo://app?vid=1bea52eb-b99a-43e3-8fce-07ed497a87d3"},"vehicle_type_id":"4","last_reported":1752847914,"current_range_meters":18000,"station_id":"ce4bhq92rcd13ifvqhjg","pricing_plan_id":"cebpf4jnsgd1na2vs0mg"},{"bike_id":"70932949-0810-4f53-a300-723f5bcb3ae5","system_id":"levelo_inurba_marseille","lat":43.225077,"lon":5.347837,"is_reserved":false,"is_disabled":false,"rental_uris":{"android":"levelo://app?vid=70932949-0810-4f53-a300-723f5bcb3ae5","ios":"levelo://app?vid=70932949-0810-4f53-a300-723f5bcb3ae5"},"vehicle_type_id":"4","last_reported":1752847914,"current_range_meters":18000,"station_id":"st_cvj5dfep6f1abm77gieg","pricing_plan_id":"cebpf4jnsgd1na2vs0mg"},{"bike_id":"1d219207-082f-4dad-98a2-fb16c401173b","system_id":"levelo_inurba_marseille","lat":43.26932,"lon":5.40253,"is_reserved":false,"is_disabled":false,"rental_uris":{"android":"levelo://app?vid=1d219207-082f-4dad-98a2-fb16c401173b","ios":"levelo://app?vid=1d219207-082f-4dad-98a2-fb16c401173b"},"vehicle_type_id":"4","last_reported":1752847914,"current_range_meters":18000,"station_id":"cjm6bp8fraef2m0cb0m0","pricing_plan_id":"cebpf4jnsgd1na2vs0mg"},{"bike_id":"e0174573-e125-416e-aeeb-930eb384c5e0","system_id":"levelo_inurba_marseille","lat":43.28611,"lon":5.37063,"is_reserved":false,"is_disabled":false,"rental_uris":{"android":"levelo://app?vid=e0174573-e125-416e-aeeb-930eb384c5e0","ios":"levelo://app?vid=e0174573-e125-416e-aeeb-930eb384c5e0"},"vehicle_type_id":"4","last_reported":1752847914,"current_range_meters":18000,"station_id":"ce4bht12rcd13ifvqi60","pricing_plan_id":"cebpf4jnsgd1na2vs0mg"},{"bike_id":"7360b2c1-827d-4a45-ba07-948ef7d2fc35","system_id":"levelo_inurba_marseille","lat":43.229295,"lon":5.353761,"is_reserved":false,"is_disabled":false,"rental_uris":{"android":"levelo://app?vid=7360b2c1-827d-4a45-ba07-948ef7d2fc35","ios":"levelo://app?vid=7360b2c1-827d-4a45-ba07-948ef7d2fc35"},"vehicle_type_id":"4","last_reported":1752847914,"current_range_meters":18000,"station_id":"","pricing_plan_id":"cebpf4jnsgd1na2vs0mg"},{"bike_id":"82fa2dd1-a60b-4609-896b-9efe58a19369","system_id":"levelo_inurba_marseille","lat":43.30561,"lon":5.36512,"is_reserved":false,"is_disabled":false,"rental_uris":{"android":"levelo://app?vid=82fa2dd1-a60b-4609-896b-9efe58a19369","ios":"levelo://app?vid=82fa2dd1-a60b-4609-896b-9efe58a19369"},"vehicle_type_id":"4","last_reported":1752847914,"current_range_meters":18000,"station_id":"ce4bgs12rcd13ifvqcag","pricing_plan_id":"cebpf4jnsgd1na2vs0mg"},{"bike_id":"d5cf0ddb-4301-4e01-9253-a4393d968d0a","system_id":"levelo_inurba_marseille","lat":43.22519,"lon":5.34777,"is_reserved":false,"is_disabled":false,"rental_uris":{"android":"levelo://app?vid=d5cf0ddb-4301-4e01-9253-a4393d968d0a","ios":"levelo://app?vid=d5cf0ddb-4301-4e01-9253-a4393d968d0a"},"vehicle_type_id":"4","last_reported":1752847914,"current_range_meters":18800,"station_id":"st_cvj5dfep6f1abm77gieg","pricing_plan_id":"cebpf4jnsgd1na2vs0mg"},{"bike_id":"f90f1efc-2add-4576-a300-db6e14a5c471","system_id":"levelo_inurba_marseille","lat":43.32122,"lon":5.36798,"is_reserved":false,"is_disabled":false,"rental_uris":{"android":"levelo://app?vid=f90f1efc-2add-4576-a300-db6e14a5c471","ios":"levelo://app?vid=f90f1efc-2add-4576-a300-db6e14a5c471"},"vehicle_type_id":"4","last_reported":1752847914,"current_range_meters":18800,"station_id":"ce4bhrh2rcd13ifvqhug","pricing_plan_id":"cebpf4jnsgd1na2vs0mg"},{"bike_id":"cbb3df1c-a8d8-41dd-9309-7ae040d6c10b","system_id":"levelo_inurba_marseille","lat":43.28857,"lon":5.35835,"is_reserved":false,"is_disabled":false,"rental_uris":{"android":"levelo://app?vid=cbb3df1c-a8d8-41dd-9309-7ae040d6c10b","ios":"levelo://app?vid=cbb3df1c-a8d8-41dd-9309-7ae040d6c10b"},"vehicle_type_id":"4","last_reported":1752847914,"current_range_meters":18800,"station_id":"ce4bhb12rcd13ifvqem0","pricing_plan_id":"cebpf4jnsgd1na2vs0mg"},{"bike_id":"6bc7dc9e-3227-44ae-8a5c-33ce43b209e3","system_id":"levelo_inurba_marseille","lat":43.30572,"lon":5.37244,"is_reserved":false,"is_disabled":false,"rental_uris":{"android":"levelo://app?vid=6bc7dc9e-3227-44ae-8a5c-33ce43b209e3","ios":"levelo://app?vid=6bc7dc9e-3227-44ae-8a5c-33ce43b209e3"},"vehicle_type_id":"4","last_reported":1752847914,"current_range_meters":18800,"station_id":"ce4bgqh2rcd13ifvqc4g","pricing_plan_id":"cebpf4jnsgd1na2vs0mg"},{"bike_id":"cb7b541b-4aa0-476b-ac1b-c83b6acaa65d","system_id":"levelo_inurba_marseille","lat":43.24175,"lon":5.36401,"is_reserved":false,"is_disabled":false,"rental_uris":{"android":"levelo://app?vid=cb7b541b-4aa0-476b-ac1b-c83b6acaa65d","ios":"levelo://app?vid=cb7b541b-4aa0-476b-ac1b-c83b6acaa65d"},"vehicle_type_id":"4","last_reported":1752847914,"current_range_meters":18800,"station_id":"cpo36qri1sfpv3e86is0","pricing_plan_id":"cebpf4jnsgd1na2vs0mg"},{"bike_id":"0c53139f-bfc2-448a-b761-a18f745164cc","system_id":"levelo_inurba_marseille","lat":43.29279,"lon":5.36843,"is_reserved":false,"is_disabled":false,"rental_uris":{"android":"levelo://app?vid=0c53139f-bfc2-448a-b761-a18f745164cc","ios":"levelo://app?vid=0c53139f-bfc2-448a-b761-a18f745164cc"},"vehicle_type_id":"4","last_reported":1752847914,"current_range_meters":18800,"station_id":"ce4bhbp2rcd13ifvqesg","pricing_plan_id":"cebpf4jnsgd1na2vs0mg"},{"bike_id":"96579d04-b9e9-484c-9b9a-af500e5e8552","system_id":"levelo_inurba_marseille","lat":43.32689,"lon":5.36403,"is_reserved":false,"is_disabled":false,"rental_uris":{"android":"levelo://app?vid=96579d04-b9e9-484c-9b9a-af500e5e8552","ios":"levelo://app?vid=96579d04-b9e9-484c-9b9a-af500e5e8552"},"vehicle_type_id":"4","last_reported":1752847914,"current_range_meters":18800,"station_id":"","pricing_plan_id":"cebpf4jnsgd1na2vs0mg"},{"bike_id":"0d42bb12-ee97-4a32-a074-be6bc1214c8d","system_id":"levelo_inurba_marseille","lat":43.28265,"lon":5.35071,"is_reserved":false,"is_disabled":false,"rental_uris":{"android":"levelo://app?vid=0d42bb12-ee97-4a32-a074-be6bc1214c8d","ios":"levelo://app?vid=0d42bb12-ee97-4a32-a074-be6bc1214c8d"},"vehicle_type_id":"4","last_reported":1752847914,"current_range_meters":19200,"station_id":"ce4bhbp2rcd13ifvqerg","pricing_plan_id":"cebpf4jnsgd1na2vs0mg"},{"bike_id":"55b8f1a7-7a1f-401c-bf5a-1d06ddf7c64c","system_id":"levelo_inurba_marseille","lat":43.301334,"lon":5.387727,"is_reserved":false,"is_disabled":false,"rental_uris":{"android":"levelo://app?vid=55b8f1a7-7a1f-401c-bf5a-1d06ddf7c64c","ios":"levelo://app?vid=55b8f1a7-7a1f-401c-bf5a-1d06ddf7c64c"},"vehicle_type_id":"4","last_reported":1752847914,"current_range_meters":19200,"station_id":"ce4bghh2rcd13ifvqb60","pricing_plan_id":"cebpf4jnsgd1na2vs0mg"},{"bike_id":"d26921fd-4bdd-464e-9d11-776a5055fe23","system_id":"levelo_inurba_marseille","lat":43.28276,"lon":5.35076,"is_reserved":false,"is_disabled":false,"rental_uris":{"android":"levelo://app?vid=d26921fd-4bdd-464e-9d11-776a5055fe23","ios":"levelo://app?vid=d26921fd-4bdd-464e-9d11-776a5055fe23"},"vehicle_type_id":"4","last_reported":1752847914,"current_range_meters":19200,"station_id":"ce4bhbp2rcd13ifvqerg","pricing_plan_id":"cebpf4jnsgd1na2vs0mg"},{"bike_id":"6b6a9480-15c5-491c-85cd-bc6a4033d806","system_id":"levelo_inurba_marseille","lat":43.24166,"lon":5.3641,"is_reserved":false,"is_disabled":false,"rental_uris":{"android":"levelo://app?vid=6b6a9480-15c5-491c-85cd-bc6a4033d806","ios":"levelo://app?vid=6b6a9480-15c5-491c-85cd-bc6a4033d806"},"vehicle_type_id":"4","last_reported":1752847914,"current_range_meters":19200,"station_id":"cpo36qri1sfpv3e86is0","pricing_plan_id":"cebpf4jnsgd1na2vs0mg"},{"bike_id":"75c386ec-2b11-4ceb-a42e-98a6dc1d6c01","system_id":"levelo_inurba_marseille","lat":43.212278,"lon":5.350539,"is_reserved":false,"is_disabled":false,"rental_uris":{"android":"levelo://app?vid=75c386ec-2b11-4ceb-a42e-98a6dc1d6c01","ios":"levelo://app?vid=75c386ec-2b11-4ceb-a42e-98a6dc1d6c01"},"vehicle_type_id":"4","last_reported":1752847914,"current_range_meters":19200,"station_id":"st_cvj6sg6p6f1abm77japg","pricing_plan_id":"cebpf4jnsgd1na2vs0mg"},{"bike_id":"070514fe-927a-4fb0-9ca7-d8af1cc39ae0","system_id":"levelo_inurba_marseille","lat":43.28302,"lon":5.35071,"is_reserved":false,"is_disabled":false,"rental_uris":{"android":"levelo://app?vid=070514fe-927a-4fb0-9ca7-d8af1cc39ae0","ios":"levelo://app?vid=070514fe-927a-4fb0-9ca7-d8af1cc39ae0"},"vehicle_type_id":"4","last_reported":1752847914,"current_range_meters":19200,"station_id":"ce4bhbp2rcd13ifvqerg","pricing_plan_id":"cebpf4jnsgd1na2vs0mg"},{"bike_id":"7a6648ef-3a2f-4bec-bcfd-b750a68219f0","system_id":"levelo_inurba_marseille","lat":43.30521,"lon":5.36541,"is_reserved":false,"is_disabled":false,"rental_uris":{"android":"levelo://app?vid=7a6648ef-3a2f-4bec-bcfd-b750a68219f0","ios":"levelo://app?vid=7a6648ef-3a2f-4bec-bcfd-b750a68219f0"},"vehicle_type_id":"4","last_reported":1752847914,"current_range_meters":19200,"station_id":"ce4bgs12rcd13ifvqcag","pricing_plan_id":"cebpf4jnsgd1na2vs0mg"},{"bike_id":"0e2d3030-b1e9-43ea-8039-3819b05ef00e","system_id":"levelo_inurba_marseille","lat":43.28624,"lon":5.35104,"is_reserved":false,"is_disabled":false,"rental_uris":{"android":"levelo://app?vid=0e2d3030-b1e9-43ea-8039-3819b05ef00e","ios":"levelo://app?vid=0e2d3030-b1e9-43ea-8039-3819b05ef00e"},"vehicle_type_id":"4","last_reported":1752847914,"current_range_meters":19200,"station_id":"ce4bhch2rcd13ifvqeug","pricing_plan_id":"cebpf4jnsgd1na2vs0mg"},{"bike_id":"a7b92e07-0d22-4b45-8ef1-b763127c437f","system_id":"levelo_inurba_marseille","lat":43.325297,"lon":5.375553,"is_reserved":false,"is_disabled":false,"rental_uris":{"android":"levelo://app?vid=a7b92e07-0d22-4b45-8ef1-b763127c437f","ios":"levelo://app?vid=a7b92e07-0d22-4b45-8ef1-b763127c437f"},"vehicle_type_id":"4","last_reported":1752847914,"current_range_meters":19200,"station_id":"","pricing_plan_id":"cebpf4jnsgd1na2vs0mg"},{"bike_id":"ac6fc0b0-cf70-43c5-9112-5782e24ecd30","system_id":"levelo_inurba_marseille","lat":43.282702,"lon":5.350564,"is_reserved":false,"is_disabled":false,"rental_uris":{"android":"levelo://app?vid=ac6fc0b0-cf70-43c5-9112-5782e24ecd30","ios":"levelo://app?vid=ac6fc0b0-cf70-43c5-9112-5782e24ecd30"},"vehicle_type_id":"4","last_reported":1752847914,"current_range_meters":20000,"station_id":"ce4bhbp2rcd13ifvqerg","pricing_plan_id":"cebpf4jnsgd1na2vs0mg"},{"bike_id":"10d391b5-c179-4f9b-944d-e8c56b01a775","system_id":"levelo_inurba_marseille","lat":43.21791,"lon":5.34589,"is_reserved":false,"is_disabled":false,"rental_uris":{"android":"levelo://app?vid=10d391b5-c179-4f9b-944d-e8c56b01a775","ios":"levelo://app?vid=10d391b5-c179-4f9b-944d-e8c56b01a775"},"vehicle_type_id":"4","last_reported":1752847914,"current_range_meters":19200,"station_id":"st_cvj6r9ubvosntc0bgbag","pricing_plan_id":"cebpf4jnsgd1na2vs0mg"},{"bike_id":"f6c97062-23b3-48e2-a347-34f6f8f3d30c","system_id":"levelo_inurba_marseille","lat":43.30426,"lon":5.41295,"is_reserved":false,"is_disabled":false,"rental_uris":{"android":"levelo://app?vid=f6c97062-23b3-48e2-a347-34f6f8f3d30c","ios":"levelo://app?vid=f6c97062-23b3-48e2-a347-34f6f8f3d30c"},"vehicle_type_id":"4","last_reported":1752847914,"current_range_meters":19200,"station_id":"ce4bhop2rcd13ifvqh8g","pricing_plan_id":"cebpf4jnsgd1na2vs0mg"},{"bike_id":"aacce92b-4365-4bf0-ae27-3a02b5869286","system_id":"levelo_inurba_marseille","lat":43.337234,"lon":5.3919,"is_reserved":false,"is_disabled":false,"rental_uris":{"android":"levelo://app?vid=aacce92b-4365-4bf0-ae27-3a02b5869286","ios":"levelo://app?vid=aacce92b-4365-4bf0-ae27-3a02b5869286"},"vehicle_type_id":"4","last_reported":1752847914,"current_range_meters":19600,"station_id":"ce4bhr92rcd13ifvqhsg","pricing_plan_id":"cebpf4jnsgd1na2vs0mg"},{"bike_id":"be81b189-e0bb-4526-9c55-1372b3b0b0f5","system_id":"levelo_inurba_marseille","lat":43.30565,"lon":5.36557,"is_reserved":false,"is_disabled":false,"rental_uris":{"android":"levelo://app?vid=be81b189-e0bb-4526-9c55-1372b3b0b0f5","ios":"levelo://app?vid=be81b189-e0bb-4526-9c55-1372b3b0b0f5"},"vehicle_type_id":"4","last_reported":1752847914,"current_range_meters":19600,"station_id":"ce4bgs12rcd13ifvqcag","pricing_plan_id":"cebpf4jnsgd1na2vs0mg"},{"bike_id":"081a5af0-2ba4-49db-a305-d863e9ad59b5","system_id":"levelo_inurba_marseille","lat":43.24398,"lon":5.37062,"is_reserved":false,"is_disabled":false,"rental_uris":{"android":"levelo://app?vid=081a5af0-2ba4-49db-a305-d863e9ad59b5","ios":"levelo://app?vid=081a5af0-2ba4-49db-a305-d863e9ad59b5"},"vehicle_type_id":"4","last_reported":1752847914,"current_range_meters":19600,"station_id":"ce4bhhh2rcd13ifvqfk0","pricing_plan_id":"cebpf4jnsgd1na2vs0mg"},{"bike_id":"9397a722-0a96-442c-a5aa-0819e7c5fdd6","system_id":"levelo_inurba_marseille","lat":43.2985,"lon":5.36287,"is_reserved":false,"is_disabled":false,"rental_uris":{"android":"levelo://app?vid=9397a722-0a96-442c-a5aa-0819e7c5fdd6","ios":"levelo://app?vid=9397a722-0a96-442c-a5aa-0819e7c5fdd6"},"vehicle_type_id":"4","last_reported":1752847914,"current_range_meters":19600,"station_id":"ce4bgpp2rcd13ifvqc3g","pricing_plan_id":"cebpf4jnsgd1na2vs0mg"},{"bike_id":"1bae1697-b22f-423c-8839-9ab6ff5a5f2b","system_id":"levelo_inurba_marseille","lat":43.30145,"lon":5.37418,"is_reserved":false,"is_disabled":false,"rental_uris":{"android":"levelo://app?vid=1bae1697-b22f-423c-8839-9ab6ff5a5f2b","ios":"levelo://app?vid=1bae1697-b22f-423c-8839-9ab6ff5a5f2b"},"vehicle_type_id":"4","last_reported":1752847914,"current_range_meters":19600,"station_id":"ce4bgs92rcd13ifvqcc0","pricing_plan_id":"cebpf4jnsgd1na2vs0mg"},{"bike_id":"102b902b-a163-4946-b9ee-44ae75e0ace1","system_id":"levelo_inurba_marseille","lat":43.2929,"lon":5.40124,"is_reserved":false,"is_disabled":false,"rental_uris":{"android":"levelo://app?vid=102b902b-a163-4946-b9ee-44ae75e0ace1","ios":"levelo://app?vid=102b902b-a163-4946-b9ee-44ae75e0ace1"},"vehicle_type_id":"4","last_reported":1752847914,"current_range_meters":19600,"station_id":"ce4bh312rcd13ifvqdk0","pricing_plan_id":"cebpf4jnsgd1na2vs0mg"},{"bike_id":"2af720e5-780f-4f16-9448-c411cf8f356e","system_id":"levelo_inurba_marseille","lat":43.30279,"lon":5.37692,"is_reserved":false,"is_disabled":false,"rental_uris":{"android":"levelo://app?vid=2af720e5-780f-4f16-9448-c411cf8f356e","ios":"levelo://app?vid=2af720e5-780f-4f16-9448-c411cf8f356e"},"vehicle_type_id":"4","last_reported":1752847914,"current_range_meters":19600,"station_id":"ce4bguh2rcd13ifvqcj0","pricing_plan_id":"cebpf4jnsgd1na2vs0mg"},{"bike_id":"c563397a-8e95-43de-9482-c447bf9c775e","system_id":"levelo_inurba_marseille","lat":43.29332,"lon":5.4117,"is_reserved":false,"is_disabled":false,"rental_uris":{"android":"levelo://app?vid=c563397a-8e95-43de-9482-c447bf9c775e","ios":"levelo://app?vid=c563397a-8e95-43de-9482-c447bf9c775e"},"vehicle_type_id":"4","last_reported":1752847914,"current_range_meters":19600,"station_id":"","pricing_plan_id":"cebpf4jnsgd1na2vs0mg"},{"bike_id":"f912b01d-5976-4c4a-8a8c-80f04d12620b","system_id":"levelo_inurba_marseille","lat":43.27642,"lon":5.36199,"is_reserved":false,"is_disabled":false,"rental_uris":{"android":"levelo://app?vid=f912b01d-5976-4c4a-8a8c-80f04d12620b","ios":"levelo://app?vid=f912b01d-5976-4c4a-8a8c-80f04d12620b"},"vehicle_type_id":"4","last_reported":1752847914,"current_range_meters":19600,"station_id":"ce4bgj92rcd13ifvqbe0","pricing_plan_id":"cebpf4jnsgd1na2vs0mg"},{"bike_id":"969960cd-1381-4e1b-80d9-79b96e1a4bc4","system_id":"levelo_inurba_marseille","lat":43.29964,"lon":5.37154,"is_reserved":false,"is_disabled":false,"rental_uris":{"android":"levelo://app?vid=969960cd-1381-4e1b-80d9-79b96e1a4bc4","ios":"levelo://app?vid=969960cd-1381-4e1b-80d9-79b96e1a4bc4"},"vehicle_type_id":"4","last_reported":1752847914,"current_range_meters":19600,"station_id":"ce4bgr92rcd13ifvqc7g","pricing_plan_id":"cebpf4jnsgd1na2vs0mg"},{"bike_id":"9eee562f-c74b-4c1a-8fa0-1792764207de","system_id":"levelo_inurba_marseille","lat":43.25487,"lon":5.37644,"is_reserved":false,"is_disabled":true,"rental_uris":{"android":"levelo://app?vid=9eee562f-c74b-4c1a-8fa0-1792764207de","ios":"levelo://app?vid=9eee562f-c74b-4c1a-8fa0-1792764207de"},"vehicle_type_id":"4","last_reported":1752847914,"current_range_meters":20000,"station_id":"ce4bhh12rcd13ifvqff0","pricing_plan_id":"cebpf4jnsgd1na2vs0mg"},{"bike_id":"33ab395a-ffc6-47bd-96a5-d8df1dd2d18e","system_id":"levelo_inurba_marseille","lat":43.21747,"lon":5.34595,"is_reserved":false,"is_disabled":false,"rental_uris":{"android":"levelo://app?vid=33ab395a-ffc6-47bd-96a5-d8df1dd2d18e","ios":"levelo://app?vid=33ab395a-ffc6-47bd-96a5-d8df1dd2d18e"},"vehicle_type_id":"4","last_reported":1752847914,"current_range_meters":20000,"station_id":"st_cvj6r9ubvosntc0bgbag","pricing_plan_id":"cebpf4jnsgd1na2vs0mg"},{"bike_id":"7380eac8-b78b-4951-9a14-602ffee19d22","system_id":"levelo_inurba_marseille","lat":43.28265,"lon":5.35067,"is_reserved":false,"is_disabled":false,"rental_uris":{"android":"levelo://app?vid=7380eac8-b78b-4951-9a14-602ffee19d22","ios":"levelo://app?vid=7380eac8-b78b-4951-9a14-602ffee19d22"},"vehicle_type_id":"4","last_reported":1752847914,"current_range_meters":20000,"station_id":"ce4bhbp2rcd13ifvqerg","pricing_plan_id":"cebpf4jnsgd1na2vs0mg"},{"bike_id":"45dea0eb-918d-49f1-8341-001e35c226f0","system_id":"levelo_inurba_marseille","lat":43.21185,"lon":5.35085,"is_reserved":false,"is_disabled":false,"rental_uris":{"android":"levelo://app?vid=45dea0eb-918d-49f1-8341-001e35c226f0","ios":"levelo://app?vid=45dea0eb-918d-49f1-8341-001e35c226f0"},"vehicle_type_id":"4","last_reported":1752847914,"current_range_meters":20000,"station_id":"st_cvj6sg6p6f1abm77japg","pricing_plan_id":"cebpf4jnsgd1na2vs0mg"},{"bike_id":"d2fa22aa-c34d-4a77-b023-d06add13aae8","system_id":"levelo_inurba_marseille","lat":43.24554,"lon":5.39506,"is_reserved":false,"is_disabled":false,"rental_uris":{"android":"levelo://app?vid=d2fa22aa-c34d-4a77-b023-d06add13aae8","ios":"levelo://app?vid=d2fa22aa-c34d-4a77-b023-d06add13aae8"},"vehicle_type_id":"4","last_reported":1752847914,"current_range_meters":20000,"station_id":"ce4bhlp2rcd13ifvqgjg","pricing_plan_id":"cebpf4jnsgd1na2vs0mg"},{"bike_id":"ae514fe1-85ea-4b12-b065-9e5a24663928","system_id":"levelo_inurba_marseille","lat":43.212,"lon":5.35081,"is_reserved":false,"is_disabled":false,"rental_uris":{"android":"levelo://app?vid=ae514fe1-85ea-4b12-b065-9e5a24663928","ios":"levelo://app?vid=ae514fe1-85ea-4b12-b065-9e5a24663928"},"vehicle_type_id":"4","last_reported":1752847914,"current_range_meters":20000,"station_id":"st_cvj6sg6p6f1abm77japg","pricing_plan_id":"cebpf4jnsgd1na2vs0mg"},{"bike_id":"53adf772-e559-4105-9924-292b35e64b0e","system_id":"levelo_inurba_marseille","lat":43.2826,"lon":5.35076,"is_reserved":false,"is_disabled":false,"rental_uris":{"android":"levelo://app?vid=53adf772-e559-4105-9924-292b35e64b0e","ios":"levelo://app?vid=53adf772-e559-4105-9924-292b35e64b0e"},"vehicle_type_id":"4","last_reported":1752847914,"current_range_meters":20000,"station_id":"ce4bhbp2rcd13ifvqerg","pricing_plan_id":"cebpf4jnsgd1na2vs0mg"},{"bike_id":"44e89ad7-16a2-4910-805f-061f2aee5ab7","system_id":"levelo_inurba_marseille","lat":43.2318,"lon":5.35575,"is_reserved":false,"is_disabled":false,"rental_uris":{"android":"levelo://app?vid=44e89ad7-16a2-4910-805f-061f2aee5ab7","ios":"levelo://app?vid=44e89ad7-16a2-4910-805f-061f2aee5ab7"},"vehicle_type_id":"4","last_reported":1752847914,"current_range_meters":20000,"station_id":"ce4bhu92rcd13ifvqi70","pricing_plan_id":"cebpf4jnsgd1na2vs0mg"},{"bike_id":"91243f73-e066-4646-a12b-37ceb2df5e2a","system_id":"levelo_inurba_marseille","lat":43.29703,"lon":5.36619,"is_reserved":false,"is_disabled":false,"rental_uris":{"android":"levelo://app?vid=91243f73-e066-4646-a12b-37ceb2df5e2a","ios":"levelo://app?vid=91243f73-e066-4646-a12b-37ceb2df5e2a"},"vehicle_type_id":"4","last_reported":1752847914,"current_range_meters":20000,"station_id":"ce4bgn12rcd13ifvqbt0","pricing_plan_id":"cebpf4jnsgd1na2vs0mg"},{"bike_id":"a2c797ac-91ff-4987-81ca-78f615ca3bf1","system_id":"levelo_inurba_marseille","lat":43.27579,"lon":5.38428,"is_reserved":false,"is_disabled":false,"rental_uris":{"android":"levelo://app?vid=a2c797ac-91ff-4987-81ca-78f615ca3bf1","ios":"levelo://app?vid=a2c797ac-91ff-4987-81ca-78f615ca3bf1"},"vehicle_type_id":"4","last_reported":1752847914,"current_range_meters":20000,"station_id":"ce4bhh92rcd13ifvqfi0","pricing_plan_id":"cebpf4jnsgd1na2vs0mg"},{"bike_id":"bd4f2166-3fd0-4dcc-b0eb-f1e53c57f556","system_id":"levelo_inurba_marseille","lat":43.21183,"lon":5.35077,"is_reserved":false,"is_disabled":false,"rental_uris":{"android":"levelo://app?vid=bd4f2166-3fd0-4dcc-b0eb-f1e53c57f556","ios":"levelo://app?vid=bd4f2166-3fd0-4dcc-b0eb-f1e53c57f556"},"vehicle_type_id":"4","last_reported":1752847914,"current_range_meters":20400,"station_id":"st_cvj6sg6p6f1abm77japg","pricing_plan_id":"cebpf4jnsgd1na2vs0mg"},{"bike_id":"375e3533-cdf7-473e-9397-6429cb654292","system_id":"levelo_inurba_marseille","lat":43.21192,"lon":5.35072,"is_reserved":false,"is_disabled":false,"rental_uris":{"android":"levelo://app?vid=375e3533-cdf7-473e-9397-6429cb654292","ios":"levelo://app?vid=375e3533-cdf7-473e-9397-6429cb654292"},"vehicle_type_id":"4","last_reported":1752847914,"current_range_meters":20400,"station_id":"st_cvj6sg6p6f1abm77japg","pricing_plan_id":"cebpf4jnsgd1na2vs0mg"},{"bike_id":"4a2af6fb-f040-4dff-9ff5-d70c4f952e83","system_id":"levelo_inurba_marseille","lat":43.31479,"lon":5.37303,"is_reserved":false,"is_disabled":true,"rental_uris":{"android":"levelo://app?vid=4a2af6fb-f040-4dff-9ff5-d70c4f952e83","ios":"levelo://app?vid=4a2af6fb-f040-4dff-9ff5-d70c4f952e83"},"vehicle_type_id":"4","last_reported":1752847914,"current_range_meters":20400,"station_id":"ce4bgt12rcd13ifvqcd0","pricing_plan_id":"cebpf4jnsgd1na2vs0mg"},{"bike_id":"e5591af4-5a8b-4fd9-8887-75dc668162e1","system_id":"levelo_inurba_marseille","lat":43.28718,"lon":5.37939,"is_reserved":false,"is_disabled":false,"rental_uris":{"android":"levelo://app?vid=e5591af4-5a8b-4fd9-8887-75dc668162e1","ios":"levelo://app?vid=e5591af4-5a8b-4fd9-8887-75dc668162e1"},"vehicle_type_id":"4","last_reported":1752847914,"current_range_meters":20400,"station_id":"ce4bh9p2rcd13ifvqec0","pricing_plan_id":"cebpf4jnsgd1na2vs0mg"},{"bike_id":"a9b046e7-1c02-41bf-8d76-981b301a9393","system_id":"levelo_inurba_marseille","lat":43.29968,"lon":5.37166,"is_reserved":false,"is_disabled":false,"rental_uris":{"android":"levelo://app?vid=a9b046e7-1c02-41bf-8d76-981b301a9393","ios":"levelo://app?vid=a9b046e7-1c02-41bf-8d76-981b301a9393"},"vehicle_type_id":"4","last_reported":1752847914,"current_range_meters":20400,"station_id":"ce4bgr92rcd13ifvqc7g","pricing_plan_id":"cebpf4jnsgd1na2vs0mg"},{"bike_id":"a0ce11cb-dffa-4348-8aba-0ff0b1ca7373","system_id":"levelo_inurba_marseille","lat":43.29706,"lon":5.36603,"is_reserved":false,"is_disabled":false,"rental_uris":{"android":"levelo://app?vid=a0ce11cb-dffa-4348-8aba-0ff0b1ca7373","ios":"levelo://app?vid=a0ce11cb-dffa-4348-8aba-0ff0b1ca7373"},"vehicle_type_id":"4","last_reported":1752847914,"current_range_meters":20400,"station_id":"ce4bgn12rcd13ifvqbt0","pricing_plan_id":"cebpf4jnsgd1na2vs0mg"},{"bike_id":"09d13043-df37-4413-93ff-aff079685f10","system_id":"levelo_inurba_marseille","lat":43.29528,"lon":5.38556,"is_reserved":false,"is_disabled":false,"rental_uris":{"android":"levelo://app?vid=09d13043-df37-4413-93ff-aff079685f10","ios":"levelo://app?vid=09d13043-df37-4413-93ff-aff079685f10"},"vehicle_type_id":"4","last_reported":1752847914,"current_range_meters":20400,"station_id":"ce4bgih2rcd13ifvqba0","pricing_plan_id":"cebpf4jnsgd1na2vs0mg"},{"bike_id":"3dd070e2-836d-44d7-97ce-a766b4bbafaa","system_id":"levelo_inurba_marseille","lat":43.290375,"lon":5.400019,"is_reserved":false,"is_disabled":false,"rental_uris":{"android":"levelo://app?vid=3dd070e2-836d-44d7-97ce-a766b4bbafaa","ios":"levelo://app?vid=3dd070e2-836d-44d7-97ce-a766b4bbafaa"},"vehicle_type_id":"4","last_reported":1752847914,"current_range_meters":20400,"station_id":"ce4bh392rcd13ifvqdm0","pricing_plan_id":"cebpf4jnsgd1na2vs0mg"},{"bike_id":"90d4f77e-262c-4d22-9803-80c7c88599a7","system_id":"levelo_inurba_marseille","lat":43.337444,"lon":5.374475,"is_reserved":false,"is_disabled":false,"rental_uris":{"android":"levelo://app?vid=90d4f77e-262c-4d22-9803-80c7c88599a7","ios":"levelo://app?vid=90d4f77e-262c-4d22-9803-80c7c88599a7"},"vehicle_type_id":"4","last_reported":1752847914,"current_range_meters":20400,"station_id":"","pricing_plan_id":"cebpf4jnsgd1na2vs0mg"},{"bike_id":"a168d389-ea1d-4756-ad9b-cf73a31ab442","system_id":"levelo_inurba_marseille","lat":43.288747,"lon":5.400098,"is_reserved":false,"is_disabled":false,"rental_uris":{"android":"levelo://app?vid=a168d389-ea1d-4756-ad9b-cf73a31ab442","ios":"levelo://app?vid=a168d389-ea1d-4756-ad9b-cf73a31ab442"},"vehicle_type_id":"4","last_reported":1752847914,"current_range_meters":20400,"station_id":"","pricing_plan_id":"cebpf4jnsgd1na2vs0mg"},{"bike_id":"764f53af-739b-43d6-bad4-a3231ab28e2c","system_id":"levelo_inurba_marseille","lat":43.255,"lon":5.37649,"is_reserved":false,"is_disabled":false,"rental_uris":{"android":"levelo://app?vid=764f53af-739b-43d6-bad4-a3231ab28e2c","ios":"levelo://app?vid=764f53af-739b-43d6-bad4-a3231ab28e2c"},"vehicle_type_id":"4","last_reported":1752847914,"current_range_meters":20400,"station_id":"ce4bhh12rcd13ifvqff0","pricing_plan_id":"cebpf4jnsgd1na2vs0mg"},{"bike_id":"74d2f326-c27e-45e5-8b48-ad99dfdc65ea","system_id":"levelo_inurba_marseille","lat":43.268027,"lon":5.402633,"is_reserved":false,"is_disabled":false,"rental_uris":{"android":"levelo://app?vid=74d2f326-c27e-45e5-8b48-ad99dfdc65ea","ios":"levelo://app?vid=74d2f326-c27e-45e5-8b48-ad99dfdc65ea"},"vehicle_type_id":"4","last_reported":1752847914,"current_range_meters":20400,"station_id":"ce501612rcd8frsf0b60","pricing_plan_id":"cebpf4jnsgd1na2vs0mg"},{"bike_id":"525c3d97-0d41-408f-89cf-33bc9228c5a8","system_id":"levelo_inurba_marseille","lat":43.28422,"lon":5.34989,"is_reserved":false,"is_disabled":false,"rental_uris":{"android":"levelo://app?vid=525c3d97-0d41-408f-89cf-33bc9228c5a8","ios":"levelo://app?vid=525c3d97-0d41-408f-89cf-33bc9228c5a8"},"vehicle_type_id":"4","last_reported":1752847914,"current_range_meters":20800,"station_id":"ce4bhbh2rcd13ifvqepg","pricing_plan_id":"cebpf4jnsgd1na2vs0mg"},{"bike_id":"c8261554-7f44-4191-920a-3554c98e1bde","system_id":"levelo_inurba_marseille","lat":43.30426,"lon":5.38891,"is_reserved":false,"is_disabled":false,"rental_uris":{"android":"levelo://app?vid=c8261554-7f44-4191-920a-3554c98e1bde","ios":"levelo://app?vid=c8261554-7f44-4191-920a-3554c98e1bde"},"vehicle_type_id":"4","last_reported":1752847914,"current_range_meters":20800,"station_id":"ce4bgk12rcd13ifvqbi0","pricing_plan_id":"cebpf4jnsgd1na2vs0mg"},{"bike_id":"9d374e2e-33fb-436c-a5cf-7a9bfb22f4b4","system_id":"levelo_inurba_marseille","lat":43.28416,"lon":5.35005,"is_reserved":false,"is_disabled":false,"rental_uris":{"android":"levelo://app?vid=9d374e2e-33fb-436c-a5cf-7a9bfb22f4b4","ios":"levelo://app?vid=9d374e2e-33fb-436c-a5cf-7a9bfb22f4b4"},