{"last_updated":1713974934,"ttl":30,"version":"2.2","data":{"bikes":[{"bike_id":"b3a60bb9-3075-4b06-a809-0ef524fe43cd","system_id":"levelo_inurba_marseille","lat":43.312239,"lon":5.368562,"is_reserved":false,"is_disabled":false,"rental_uris":{"android":"levelo://app?vid=b3a60bb9-3075-4b06-a809-0ef524fe43cd","ios":"levelo://app?vid=b3a60bb9-3075-4b06-a809-0ef524fe43cd"},"vehicle_type_id":"4","last_reported":1713974934,"current_range_meters":12000,"station_id":"ce4bgl92rcd13ifvqbq0","pricing_plan_id":"cebpf4jnsgd1na2vs0mg"},{"bike_id":"5de6ec13-359f-4082-ad83-0299fe801b74","system_id":"levelo_inurba_marseille","lat":43.309076,"lon":5.368465,"is_reserved":false,"is_disabled":false,"rental_uris":{"android":"levelo://app?vid=5de6ec13-359f-4082-ad83-0299fe801b74","ios":"levelo://app?vid=5de6ec13-359f-4082-ad83-0299fe801b74"},"vehicle_type_id":"4","last_reported":1713974934,"current_range_meters":19600,"station_id":"ce4bgn92rcd13ifvqbvg","pricing_plan_id":"cebpf4jnsgd1na2vs0mg"},{"bike_id":"aae95126-4efd-49ac-9684-cc00732a146f","system_id":"levelo_inurba_marseille","lat":43.309094,"lon":5.368558,"is_reserved":false,"is_disabled":false,"rental_uris":{"android":"levelo://app?vid=aae95126-4efd-49ac-9684-cc00732a146f","ios":"levelo://app?vid=aae95126-4efd-49ac-9684-cc00732a146f"},"vehicle_type_id":"4","last_reported":1713974934,"current_range_meters":23600,"station_id":"ce4bgn92rcd13ifvqbvg","pricing_plan_id":"cebpf4jnsgd1na2vs0mg"},{"bike_id":"ea522bff-76e8-42cf-9cd2-0f21be8b1591","system_id":"levelo_inurba_marseille","lat":43.298037,"lon":5.381066,"is_reserved":false,"is_disabled":false,"rental_uris":{"android":"levelo://app?vid=ea522bff-76e8-42cf-9cd2-0f21be8b1591","ios":"levelo://app?vid=ea522bff-76e8-42cf-9cd2-0f21be8b1591"},"vehicle_type_id":"4","last_reported":1713974934,"current_range_meters":16400,"station_id":"ce4bgip2rcd13ifvqbb0","pricing_plan_id":"cebpf4jnsgd1na2vs0mg"},{"bike_id":"5ec1b937-44f5-42f4-b9a8-fa9020654d99","system_id":"levelo_inurba_marseille","lat":43.314811,"lon":5.373103,"is_reserved":false,"is_disabled":false,"rental_uris":{"android":"levelo://app?vid=5ec1b937-44f5-42f4-b9a8-fa9020654d99","ios":"levelo://app?vid=5ec1b937-44f5-42f4-b9a8-fa9020654d99"},"vehicle_type_id":"4","last_reported":1713974934,"current_range_meters":18400,"station_id":"ce4bgt12rcd13ifvqcd0","pricing_plan_id":"cebpf4jnsgd1na2vs0mg"},{"bike_id":"4b188179-51c5-402d-960f-6500f27fd909","system_id":"levelo_inurba_marseille","lat":43.310804,"lon":5.38359,"is_reserved":false,"is_disabled":false,"rental_uris":{"android":"levelo://app?vid=4b188179-51c5-402d-960f-6500f27fd909","ios":"levelo://app?vid=4b188179-51c5-402d-960f-6500f27fd909"},"vehicle_type_id":"4","last_reported":1713974934,"current_range_meters":4800,"station_id":"ce4bgv92rcd13ifvqcr0","pricing_plan_id":"cebpf4jnsgd1na2vs0mg"},{"bike_id":"64708050-a5ed-4d16-ba78-c0916ee7d4c3","system_id":"levelo_inurba_marseille","lat":43.314811,"lon":5.373104,"is_reserved":false,"is_disabled":false,"rental_uris":{"android":"levelo://app?vid=64708050-a5ed-4d16-ba78-c0916ee7d4c3","ios":"levelo://app?vid=64708050-a5ed-4d16-ba78-c0916ee7d4c3"},"vehicle_type_id":"4","last_reported":1713974934,"current_range_meters":15200,"station_id":"ce4bgt12rcd13ifvqcd0","pricing_plan_id":"cebpf4jnsgd1na2vs0mg"},{"bike_id":"dfa8bb5e-76be-4be6-931a-d2f113b76c7d","system_id":"levelo_inurba_marseille","lat":43.305973,"lon":5.365499,"is_reserved":false,"is_disabled":false,"rental_uris":{"android":"levelo://app?vid=dfa8bb5e-76be-4be6-931a-d2f113b76c7d","ios":"levelo://app?vid=dfa8bb5e-76be-4be6-931a-d2f113b76c7d"},"vehicle_type_id":"4","last_reported":1713974934,"current_range_meters":26800,"station_id":"ce4bgs12rcd13ifvqcag","pricing_plan_id":"cebpf4jnsgd1na2vs0mg"},{"bike_id":"13f61263-0156-440b-b3d4-91132f71c74c","system_id":"levelo_inurba_marseille","lat":43.305989,"lon":5.37225,"is_reserved":false,"is_disabled":false,"rental_uris":{"android":"levelo://app?vid=13f61263-0156-440b-b3d4-91132f71c74c","ios":"levelo://app?vid=13f61263-0156-440b-b3d4-91132f71c74c"},"vehicle_type_id":"4","last_reported":1713974934,"current_range_meters":26800,"station_id":"ce4bgqh2rcd13ifvqc4g","pricing_plan_id":"cebpf4jnsgd1na2vs0mg"},{"bike_id":"e19b9c91-6fdf-449a-96ff-d60117d9a25f","system_id":"levelo_inurba_marseille","lat":43.299717,"lon":5.384845,"is_reserved":false,"is_disabled":false,"rental_uris":{"android":"levelo://app?vid=e19b9c91-6fdf-449a-96ff-d60117d9a25f","ios":"levelo://app?vid=e19b9c91-6fdf-449a-96ff-d60117d9a25f"},"vehicle_type_id":"4","last_reported":1713974934,"current_range_meters":13600,"station_id":"ce4bgj92rcd13ifvqbd0","pricing_plan_id":"cebpf4jnsgd1na2vs0mg"},{"bike_id":"5c60f455-9009-43d5-9708-fbc1507987ce","system_id":"levelo_inurba_marseille","lat":43.272116,"lon":5.391763,"is_reserved":false,"is_disabled":false,"rental_uris":{"android":"levelo://app?vid=5c60f455-9009-43d5-9708-fbc1507987ce","ios":"levelo://app?vid=5c60f455-9009-43d5-9708-fbc1507987ce"},"vehicle_type_id":"4","last_reported":1713974934,"current_range_meters":23200,"station_id":"ce4bhhp2rcd13ifvqfm0","pricing_plan_id":"cebpf4jnsgd1na2vs0mg"},{"bike_id":"16d92d29-7764-438b-9920-1dcabfe9b33e","system_id":"levelo_inurba_marseille","lat":43.30542,"lon":5.36547,"is_reserved":false,"is_disabled":false,"rental_uris":{"android":"levelo://app?vid=16d92d29-7764-438b-9920-1dcabfe9b33e","ios":"levelo://app?vid=16d92d29-7764-438b-9920-1dcabfe9b33e"},"vehicle_type_id":"4","last_reported":1713974934,"current_range_meters":20000,"station_id":"ce4bgs12rcd13ifvqcag","pricing_plan_id":"cebpf4jnsgd1na2vs0mg"},{"bike_id":"5a54f3a5-d982-49be-9b9d-91160d833d63","system_id":"levelo_inurba_marseille","lat":43.305706,"lon":5.365654,"is_reserved":false,"is_disabled":false,"rental_uris":{"android":"levelo://app?vid=5a54f3a5-d982-49be-9b9d-91160d833d63","ios":"levelo://app?vid=5a54f3a5-d982-49be-9b9d-91160d833d63"},"vehicle_type_id":"4","last_reported":1713974934,"current_range_meters":31200,"station_id":"ce4bgs12rcd13ifvqcag","pricing_plan_id":"cebpf4jnsgd1na2vs0mg"},{"bike_id":"9483a781-2ba3-4ae3-a8fb-8526bdb64e13","system_id":"levelo_inurba_marseille","lat":43.305706,"lon":5.365654,"is_reserved":false,"is_disabled":false,"rental_uris":{"android":"levelo://app?vid=9483a781-2ba3-4ae3-a8fb-8526bdb64e13","ios":"levelo://app?vid=9483a781-2ba3-4ae3-a8fb-8526bdb64e13"},"vehicle_type_id":"4","last_reported":1713974934,"current_range_meters":31200,"station_id":"ce4bgs12rcd13ifvqcag","pricing_plan_id":"cebpf4jnsgd1na2vs0mg"},{"bike_id":"ff558aa7-7fa3-44db-855e-ade14476d958","system_id":"levelo_inurba_marseille","lat":43.305989,"lon":5.37225,"is_reserved":false,"is_disabled":false,"rental_uris":{"android":"levelo://app?vid=ff558aa7-7fa3-44db-855e-ade14476d958","ios":"levelo://app?vid=ff558aa7-7fa3-44db-855e-ade14476d958"},"vehicle_type_id":"4","last_reported":1713974934,"current_range_meters":0,"station_id":"ce4bgqh2rcd13ifvqc4g","pricing_plan_id":"cebpf4jnsgd1na2vs0mg"},{"bike_id":"a6206a2a-5b3d-4ce0-bb6a-dc41a365e9e2","system_id":"levelo_inurba_marseille","lat":43.311125,"lon":5.377624,"is_reserved":false,"is_disabled":false,"rental_uris":{"android":"levelo://app?vid=a6206a2a-5b3d-4ce0-bb6a-dc41a365e9e2","ios":"levelo://app?vid=a6206a2a-5b3d-4ce0-bb6a-dc41a365e9e2"},"vehicle_type_id":"4","last_reported":1713974934,"current_range_meters":23600,"station_id":"ce4bgt92rcd13ifvqcg0","pricing_plan_id":"cebpf4jnsgd1na2vs0mg"},{"bike_id":"a4e75570-e0d8-4880-b4ae-45ff686259d7","system_id":"levelo_inurba_marseille","lat":43.311125,"lon":5.377624,"is_reserved":false,"is_disabled":false,"rental_uris":{"android":"levelo://app?vid=a4e75570-e0d8-4880-b4ae-45ff686259d7","ios":"levelo://app?vid=a4e75570-e0d8-4880-b4ae-45ff686259d7"},"vehicle_type_id":"4","last_reported":1713974934,"current_range_meters":18400,"station_id":"ce4bgt92rcd13ifvqcg0","pricing_plan_id":"cebpf4jnsgd1na2vs0mg"},{"bike_id":"9bb5a9dd-7b3f-4796-a59b-8b99eba5f26f","system_id":"levelo_inurba_marseille","lat":43.307945,"lon":5.376487,"is_reserved":false,"is_disabled":false,"rental_uris":{"android":"levelo://app?vid=9bb5a9dd-7b3f-4796-a59b-8b99eba5f26f","ios":"levelo://app?vid=9bb5a9dd-7b3f-4796-a59b-8b99eba5f26f"},"vehicle_type_id":"4","last_reported":1713974934,"current_range_meters":29600,"station_id":"ce4bgv92rcd13ifvqcq0","pricing_plan_id":"cebpf4jnsgd1na2vs0mg"},{"bike_id":"cf9c61ac-e243-404f-9042-75aeecd6c658","system_id":"levelo_inurba_marseille","lat":43.307945,"lon":5.376487,"is_reserved":false,"is_disabled":false,"rental_uris":{"android":"levelo://app?vid=cf9c61ac-e243-404f-9042-75aeecd6c658","ios":"levelo://app?vid=cf9c61ac-e243-404f-9042-75aeecd6c658"},"vehicle_type_id":"4","last_reported":1713974934,"current_range_meters":20800,"station_id":"ce4bgv92rcd13ifvqcq0","pricing_plan_id":"cebpf4jnsgd1na2vs0mg"},{"bike_id":"083c9090-18ab-4ed3-b831-6f31196fa0bd","system_id":"levelo_inurba_marseille","lat":43.307945,"lon":5.376487,"is_reserved":false,"is_disabled":false,"rental_uris":{"android":"levelo://app?vid=083c9090-18ab-4ed3-b831-6f31196fa0bd","ios":"levelo://app?vid=083c9090-18ab-4ed3-b831-6f31196fa0bd"},"vehicle_type_id":"4","last_reported":1713974934,"current_range_meters":7600,"station_id":"ce4bgv92rcd13ifvqcq0","pricing_plan_id":"cebpf4jnsgd1na2vs0mg"},{"bike_id":"d25b4c42-f49a-4146-b064-23c57dfb8b52","system_id":"levelo_inurba_marseille","lat":43.307945,"lon":5.376487,"is_reserved":false,"is_disabled":false,"rental_uris":{"android":"levelo://app?vid=d25b4c42-f49a-4146-b064-23c57dfb8b52","ios":"levelo://app?vid=d25b4c42-f49a-4146-b064-23c57dfb8b52"},"vehicle_type_id":"4","last_reported":1713974934,"current_range_meters":13200,"station_id":"ce4bgv92rcd13ifvqcq0","pricing_plan_id":"cebpf4jnsgd1na2vs0mg"},{"bike_id":"9d775bdf-dedf-4a01-be52-b802ae308a17","system_id":"levelo_inurba_marseille","lat":43.30782,"lon":5.37648,"is_reserved":false,"is_disabled":false,"rental_uris":{"android":"levelo://app?vid=9d775bdf-dedf-4a01-be52-b802ae308a17","ios":"levelo://app?vid=9d775bdf-dedf-4a01-be52-b802ae308a17"},"vehicle_type_id":"4","last_reported":1713974934,"current_range_meters":16400,"station_id":"ce4bgv92rcd13ifvqcq0","pricing_plan_id":"cebpf4jnsgd1na2vs0mg"},{"bike_id":"3346d7f7-fabe-41e2-9baa-829db4e6aec4","system_id":"levelo_inurba_marseille","lat":43.307945,"lon":5.376487,"is_reserved":false,"is_disabled":false,"rental_uris":{"android":"levelo://app?vid=3346d7f7-fabe-41e2-9baa-829db4e6aec4","ios":"levelo://app?vid=3346d7f7-fabe-41e2-9baa-829db4e6aec4"},"vehicle_type_id":"4","last_reported":1713974934,"current_range_meters":27600,"station_id":"ce4bgv92rcd13ifvqcq0","pricing_plan_id":"cebpf4jnsgd1na2vs0mg"},{"bike_id":"8317356f-eeba-4540-ac03-bc0b1447e768","system_id":"levelo_inurba_marseille","lat":43.317075,"lon":5.377367,"is_reserved":false,"is_disabled":false,"rental_uris":{"android":"levelo://app?vid=8317356f-eeba-4540-ac03-bc0b1447e768","ios":"levelo://app?vid=8317356f-eeba-4540-ac03-bc0b1447e768"},"vehicle_type_id":"4","last_reported":1713974934,"current_range_meters":26000,"station_id":"ce4bgth2rcd13ifvqch0","pricing_plan_id":"cebpf4jnsgd1na2vs0mg"},{"bike_id":"a7a40563-5c97-44f6-8629-fc885b291eaa","system_id":"levelo_inurba_marseille","lat":43.315289,"lon":5.380349,"is_reserved":false,"is_disabled":false,"rental_uris":{"android":"levelo://app?vid=a7a40563-5c97-44f6-8629-fc885b291eaa","ios":"levelo://app?vid=a7a40563-5c97-44f6-8629-fc885b291eaa"},"vehicle_type_id":"4","last_reported":1713974934,"current_range_meters":23600,"station_id":"ce4bhsp2rcd13ifvqi50","pricing_plan_id":"cebpf4jnsgd1na2vs0mg"},{"bike_id":"f82abc93-8401-4d4c-b760-b35ce10d19a1","system_id":"levelo_inurba_marseille","lat":43.315293,"lon":5.380349,"is_reserved":false,"is_disabled":false,"rental_uris":{"android":"levelo://app?vid=f82abc93-8401-4d4c-b760-b35ce10d19a1","ios":"levelo://app?vid=f82abc93-8401-4d4c-b760-b35ce10d19a1"},"vehicle_type_id":"4","last_reported":1713974934,"current_range_meters":23200,"station_id":"ce4bhsp2rcd13ifvqi50","pricing_plan_id":"cebpf4jnsgd1na2vs0mg"},{"bike_id":"f123d487-f35a-48ce-97a1-ad62e3d2dc9d","system_id":"levelo_inurba_marseille","lat":43.31534,"lon":5.38031,"is_reserved":false,"is_disabled":false,"rental_uris":{"android":"levelo://app?vid=f123d487-f35a-48ce-97a1-ad62e3d2dc9d","ios":"levelo://app?vid=f123d487-f35a-48ce-97a1-ad62e3d2dc9d"},"vehicle_type_id":"4","last_reported":1713974934,"current_range_meters":9600,"station_id":"ce4bhsp2rcd13ifvqi50","pricing_plan_id":"cebpf4jnsgd1na2vs0mg"},{"bike_id":"249a9f8e-fd74-4c44-9fa8-758e72603e6a","system_id":"levelo_inurba_marseille","lat":43.31532,"lon":5.38038,"is_reserved":false,"is_disabled":false,"rental_uris":{"android":"levelo://app?vid=249a9f8e-fd74-4c44-9fa8-758e72603e6a","ios":"levelo://app?vid=249a9f8e-fd74-4c44-9fa8-758e72603e6a"},"vehicle_type_id":"4","last_reported":1713974934,"current_range_meters":17200,"station_id":"ce4bhsp2rcd13ifvqi50","pricing_plan_id":"cebpf4jnsgd1na2vs0mg"},{"bike_id":"150feaf5-0d75-4858-80e4-8af240ff8b4a","system_id":"levelo_inurba_marseille","lat":43.315289,"lon":5.380349,"is_reserved":false,"is_disabled":false,"rental_uris":{"android":"levelo://app?vid=150feaf5-0d75-4858-80e4-8af240ff8b4a","ios":"levelo://app?vid=150feaf5-0d75-4858-80e4-8af240ff8b4a"},"vehicle_type_id":"4","last_reported":1713974934,"current_range_meters":16400,"station_id":"ce4bhsp2rcd13ifvqi50","pricing_plan_id":"cebpf4jnsgd1na2vs0mg"},{"bike_id":"b9f6138b-13e0-4102-ab92-5d35d259edfa","system_id":"levelo_inurba_marseille","lat":43.30195,"lon":5.36626,"is_reserved":false,"is_disabled":false,"rental_uris":{"android":"levelo://app?vid=b9f6138b-13e0-4102-ab92-5d35d259edfa","ios":"levelo://app?vid=b9f6138b-13e0-4102-ab92-5d35d259edfa"},"vehicle_type_id":"4","last_reported":1713974934,"current_range_meters":30800,"station_id":"ce4bgrh2rcd13ifvqc8g","pricing_plan_id":"cebpf4jnsgd1na2vs0mg"},{"bike_id":"367124ff-3c93-4451-a729-046d6375b55e","system_id":"levelo_inurba_marseille","lat":43.301939,"lon":5.366286,"is_reserved":false,"is_disabled":false,"rental_uris":{"android":"levelo://app?vid=367124ff-3c93-4451-a729-046d6375b55e","ios":"levelo://app?vid=367124ff-3c93-4451-a729-046d6375b55e"},"vehicle_type_id":"4","last_reported":1713974934,"current_range_meters":31200,"station_id":"ce4bgrh2rcd13ifvqc8g","pricing_plan_id":"cebpf4jnsgd1na2vs0mg"},{"bike_id":"0cfa084a-a591-47f6-8d90-bf9fb8957cc9","system_id":"levelo_inurba_marseille","lat":43.301405,"lon":5.365895,"is_reserved":false,"is_disabled":false,"rental_uris":{"android":"levelo://app?vid=0cfa084a-a591-47f6-8d90-bf9fb8957cc9","ios":"levelo://app?vid=0cfa084a-a591-47f6-8d90-bf9fb8957cc9"},"vehicle_type_id":"4","last_reported":1713974934,"current_range_meters":22800,"station_id":"ce4bh2h2rcd13ifvqdh0","pricing_plan_id":"cebpf4jnsgd1na2vs0mg"},{"bike_id":"f5364423-52f0-47a2-85f3-f869ed8b50ea","system_id":"levelo_inurba_marseille","lat":43.313571,"lon":5.384829,"is_reserved":false,"is_disabled":false,"rental_uris":{"android":"levelo://app?vid=f5364423-52f0-47a2-85f3-f869ed8b50ea","ios":"levelo://app?vid=f5364423-52f0-47a2-85f3-f869ed8b50ea"},"vehicle_type_id":"4","last_reported":1713974934,"current_range_meters":20800,"station_id":"ce4bgt92rcd13ifvqcf0","pricing_plan_id":"cebpf4jnsgd1na2vs0mg"},{"bike_id":"13746614-3a3a-4313-bb9c-1bc0219f6209","system_id":"levelo_inurba_marseille","lat":43.308012,"lon":5.381511,"is_reserved":false,"is_disabled":false,"rental_uris":{"android":"levelo://app?vid=13746614-3a3a-4313-bb9c-1bc0219f6209","ios":"levelo://app?vid=13746614-3a3a-4313-bb9c-1bc0219f6209"},"vehicle_type_id":"4","last_reported":1713974934,"current_range_meters":6400,"station_id":"ce4bgt12rcd13ifvqce0","pricing_plan_id":"cebpf4jnsgd1na2vs0mg"},{"bike_id":"0d57f86b-58f0-4daf-8ee0-f25d14128be3","system_id":"levelo_inurba_marseille","lat":43.304606,"lon":5.379026,"is_reserved":false,"is_disabled":false,"rental_uris":{"android":"levelo://app?vid=0d57f86b-58f0-4daf-8ee0-f25d14128be3","ios":"levelo://app?vid=0d57f86b-58f0-4daf-8ee0-f25d14128be3"},"vehicle_type_id":"4","last_reported":1713974934,"current_range_meters":23200,"station_id":"ce4bgup2rcd13ifvqcn0","pricing_plan_id":"cebpf4jnsgd1na2vs0mg"},{"bike_id":"080c4a3b-6c2e-457c-8fad-87fa7917123a","system_id":"levelo_inurba_marseille","lat":43.304606,"lon":5.379026,"is_reserved":false,"is_disabled":false,"rental_uris":{"android":"levelo://app?vid=080c4a3b-6c2e-457c-8fad-87fa7917123a","ios":"levelo://app?vid=080c4a3b-6c2e-457c-8fad-87fa7917123a"},"vehicle_type_id":"4","last_reported":1713974934,"current_range_meters":27600,"station_id":"ce4bgup2rcd13ifvqcn0","pricing_plan_id":"cebpf4jnsgd1na2vs0mg"},{"bike_id":"820e18b2-eaf2-451e-acaa-9b409049143b","system_id":"levelo_inurba_marseille","lat":43.324771,"lon":5.36557,"is_reserved":false,"is_disabled":false,"rental_uris":{"android":"levelo://app?vid=820e18b2-eaf2-451e-acaa-9b409049143b","ios":"levelo://app?vid=820e18b2-eaf2-451e-acaa-9b409049143b"},"vehicle_type_id":"4","last_reported":1713974934,"current_range_meters":27200,"station_id":"ce4bhs12rcd13ifvqhvg","pricing_plan_id":"cebpf4jnsgd1na2vs0mg"},{"bike_id":"451587ac-8541-4169-8188-5a4181ec02e9","system_id":"levelo_inurba_marseille","lat":43.324771,"lon":5.36557,"is_reserved":false,"is_disabled":false,"rental_uris":{"android":"levelo://app?vid=451587ac-8541-4169-8188-5a4181ec02e9","ios":"levelo://app?vid=451587ac-8541-4169-8188-5a4181ec02e9"},"vehicle_type_id":"4","last_reported":1713974934,"current_range_meters":17200,"station_id":"ce4bhs12rcd13ifvqhvg","pricing_plan_id":"cebpf4jnsgd1na2vs0mg"},{"bike_id":"603a40bd-6ce4-46be-8c2f-97b3034e541a","system_id":"levelo_inurba_marseille","lat":43.310804,"lon":5.38359,"is_reserved":false,"is_disabled":false,"rental_uris":{"android":"levelo://app?vid=603a40bd-6ce4-46be-8c2f-97b3034e541a","ios":"levelo://app?vid=603a40bd-6ce4-46be-8c2f-97b3034e541a"},"vehicle_type_id":"4","last_reported":1713974934,"current_range_meters":3200,"station_id":"ce4bgv92rcd13ifvqcr0","pricing_plan_id":"cebpf4jnsgd1na2vs0mg"},{"bike_id":"bc66dd69-549b-499c-977f-efc03f626010","system_id":"levelo_inurba_marseille","lat":43.310804,"lon":5.38359,"is_reserved":false,"is_disabled":false,"rental_uris":{"android":"levelo://app?vid=bc66dd69-549b-499c-977f-efc03f626010","ios":"levelo://app?vid=bc66dd69-549b-499c-977f-efc03f626010"},"vehicle_type_id":"4","last_reported":1713974934,"current_range_meters":400,"station_id":"ce4bgv92rcd13ifvqcr0","pricing_plan_id":"cebpf4jnsgd1na2vs0mg"},{"bike_id":"fbcd95d2-b1a4-4953-b202-591bf69d86ac","system_id":"levelo_inurba_marseille","lat":43.310804,"lon":5.38359,"is_reserved":false,"is_disabled":false,"rental_uris":{"android":"levelo://app?vid=fbcd95d2-b1a4-4953-b202-591bf69d86ac","ios":"levelo://app?vid=fbcd95d2-b1a4-4953-b202-591bf69d86ac"},"vehicle_type_id":"4","last_reported":1713974934,"current_range_meters":25200,"station_id":"ce4bgv92rcd13ifvqcr0","pricing_plan_id":"cebpf4jnsgd1na2vs0mg"},{"bike_id":"7055c905-a593-455b-8473-2b6944a86c3b","system_id":"levelo_inurba_marseille","lat":43.310804,"lon":5.38359,"is_reserved":false,"is_disabled":false,"rental_uris":{"android":"levelo://app?vid=7055c905-a593-455b-8473-2b6944a86c3b","ios":"levelo://app?vid=7055c905-a593-455b-8473-2b6944a86c3b"},"vehicle_type_id":"4","last_reported":1713974934,"current_range_meters":16800,"station_id":"ce4bgv92rcd13ifvqcr0","pricing_plan_id":"cebpf4jnsgd1na2vs0mg"},{"bike_id":"fdacd97e-84b3-4b89-a7c4-1b652d0d95c8","system_id":"levelo_inurba_marseille","lat":43.304606,"lon":5.379026,"is_reserved":false,"is_disabled":false,"rental_uris":{"android":"levelo://app?vid=fdacd97e-84b3-4b89-a7c4-1b652d0d95c8","ios":"levelo://app?vid=fdacd97e-84b3-4b89-a7c4-1b652d0d95c8"},"vehicle_type_id":"4","last_reported":1713974934,"current_range_meters":18000,"station_id":"ce4bgup2rcd13ifvqcn0","pricing_plan_id":"cebpf4jnsgd1na2vs0mg"},{"bike_id":"cd60dbcd-5255-467f-a0af-c6444ae4ce9d","system_id":"levelo_inurba_marseille","lat":43.301429,"lon":5.37413,"is_reserved":false,"is_disabled":false,"rental_uris":{"android":"levelo://app?vid=cd60dbcd-5255-467f-a0af-c6444ae4ce9d","ios":"levelo://app?vid=cd60dbcd-5255-467f-a0af-c6444ae4ce9d"},"vehicle_type_id":"4","last_reported":1713974934,"current_range_meters":0,"station_id":"ce4bgs92rcd13ifvqcc0","pricing_plan_id":"cebpf4jnsgd1na2vs0mg"},{"bike_id":"cc0c1577-ff1e-4916-84f7-0781fb2c68a0","system_id":"levelo_inurba_marseille","lat":43.302759,"lon":5.400793,"is_reserved":false,"is_disabled":false,"rental_uris":{"android":"levelo://app?vid=cc0c1577-ff1e-4916-84f7-0781fb2c68a0","ios":"levelo://app?vid=cc0c1577-ff1e-4916-84f7-0781fb2c68a0"},"vehicle_type_id":"4","last_reported":1713974934,"current_range_meters":16800,"station_id":"ce4bgvh2rcd13ifvqcs0","pricing_plan_id":"cebpf4jnsgd1na2vs0mg"},{"bike_id":"d4f815b0-c932-4cd2-9e56-8fd9ae52e920","system_id":"levelo_inurba_marseille","lat":43.295169,"lon":5.390426,"is_reserved":false,"is_disabled":false,"rental_uris":{"android":"levelo://app?vid=d4f815b0-c932-4cd2-9e56-8fd9ae52e920","ios":"levelo://app?vid=d4f815b0-c932-4cd2-9e56-8fd9ae52e920"},"vehicle_type_id":"4","last_reported":1713974934,"current_range_meters":19200,"station_id":"ce4bh3p2rcd13ifvqdp0","pricing_plan_id":"cebpf4jnsgd1na2vs0mg"},{"bike_id":"fa6a7f9c-bf8a-4a45-ab7d-c7d711376111","system_id":"levelo_inurba_marseille","lat":43.30142,"lon":5.37419,"is_reserved":false,"is_disabled":false,"rental_uris":{"android":"levelo://app?vid=fa6a7f9c-bf8a-4a45-ab7d-c7d711376111","ios":"levelo://app?vid=fa6a7f9c-bf8a-4a45-ab7d-c7d711376111"},"vehicle_type_id":"4","last_reported":1713974934,"current_range_meters":9600,"station_id":"ce4bhnp2rcd13ifvqgvg","pricing_plan_id":"cebpf4jnsgd1na2vs0mg"},{"bike_id":"0d298d88-138b-469f-b4e2-ca91f165c25e","system_id":"levelo_inurba_marseille","lat":43.313571,"lon":5.384829,"is_reserved":false,"is_disabled":false,"rental_uris":{"android":"levelo://app?vid=0d298d88-138b-469f-b4e2-ca91f165c25e","ios":"levelo://app?vid=0d298d88-138b-469f-b4e2-ca91f165c25e"},"vehicle_type_id":"4","last_reported":1713974934,"current_range_meters":3200,"station_id":"ce4bgt92rcd13ifvqcf0","pricing_plan_id":"cebpf4jnsgd1na2vs0mg"},{"bike_id":"2ba9bf34-5f25-4691-9d27-4e786723fa8a","system_id":"levelo_inurba_marseille","lat":43.294162,"lon":5.386292,"is_reserved":false,"is_disabled":false,"rental_uris":{"android":"levelo://app?vid=2ba9bf34-5f25-4691-9d27-4e786723fa8a","ios":"levelo://app?vid=2ba9bf34-5f25-4691-9d27-4e786723fa8a"},"vehicle_type_id":"4","last_reported":1713974934,"current_range_meters":11200,"station_id":"ce4bh2h2rcd13ifvqdh0","pricing_plan_id":"cebpf4jnsgd1na2vs0mg"},{"bike_id":"b6d1f3ad-7030-4662-8200-06ed8e5a6734","system_id":"levelo_inurba_marseille","lat":43.299724,"lon":5.371829,"is_reserved":false,"is_disabled":false,"rental_uris":{"android":"levelo://app?vid=b6d1f3ad-7030-4662-8200-06ed8e5a6734","ios":"levelo://app?vid=b6d1f3ad-7030-4662-8200-06ed8e5a6734"},"vehicle_type_id":"4","last_reported":1713974934,"current_range_meters":28000,"station_id":"ce4bgr92rcd13ifvqc7g","pricing_plan_id":"cebpf4jnsgd1na2vs0mg"},{"bike_id":"b5b5d2af-8e9c-439c-83ee-5237e4c68e18","system_id":"levelo_inurba_marseille","lat":43.299222,"lon":5.365554,"is_reserved":false,"is_disabled":false,"rental_uris":{"android":"levelo://app?vid=b5b5d2af-8e9c-439c-83ee-5237e4c68e18","ios":"levelo://app?vid=b5b5d2af-8e9c-439c-83ee-5237e4c68e18"},"vehicle_type_id":"4","last_reported":1713974934,"current_range_meters":29600,"station_id":"ce4bgm92rcd13ifvqbr0","pricing_plan_id":"cebpf4jnsgd1na2vs0mg"},{"bike_id":"cc8ca087-b52e-488f-a5bc-a68e2e684757","system_id":"levelo_inurba_marseille","lat":43.299724,"lon":5.371829,"is_reserved":false,"is_disabled":false,"rental_uris":{"android":"levelo://app?vid=cc8ca087-b52e-488f-a5bc-a68e2e684757","ios":"levelo://app?vid=cc8ca087-b52e-488f-a5bc-a68e2e684757"},"vehicle_type_id":"4","last_reported":1713974934,"current_range_meters":17600,"station_id":"ce4bgr92rcd13ifvqc7g","pricing_plan_id":"cebpf4jnsgd1na2vs0mg"},{"bike_id":"46780a7f-a54c-47f9-8570-e9d55963e7f4","system_id":"levelo_inurba_marseille","lat":43.299724,"lon":5.371829,"is_reserved":false,"is_disabled":false,"rental_uris":{"android":"levelo://app?vid=46780a7f-a54c-47f9-8570-e9d55963e7f4","ios":"levelo://app?vid=46780a7f-a54c-47f9-8570-e9d55963e7f4"},"vehicle_type_id":"4","last_reported":1713974934,"current_range_meters":20800,"station_id":"ce4bgr92rcd13ifvqc7g","pricing_plan_id":"cebpf4jnsgd1na2vs0mg"},{"bike_id":"b51d499f-493b-4714-9180-b761028a5791","system_id":"levelo_inurba_marseille","lat":43.29939,"lon":5.36541,"is_reserved":false,"is_disabled":false,"rental_uris":{"android":"levelo://app?vid=b51d499f-493b-4714-9180-b761028a5791","ios":"levelo://app?vid=b51d499f-493b-4714-9180-b761028a5791"},"vehicle_type_id":"4","last_reported":1713974934,"current_range_meters":18000,"station_id":"ce4bgm92rcd13ifvqbr0","pricing_plan_id":"cebpf4jnsgd1na2vs0mg"},{"bike_id":"934bddfc-4159-4fd8-9c20-330d8cde3336","system_id":"levelo_inurba_marseille","lat":43.29981,"lon":5.37183,"is_reserved":false,"is_disabled":false,"rental_uris":{"android":"levelo://app?vid=934bddfc-4159-4fd8-9c20-330d8cde3336","ios":"levelo://app?vid=934bddfc-4159-4fd8-9c20-330d8cde3336"},"vehicle_type_id":"4","last_reported":1713974934,"current_range_meters":30800,"station_id":"ce4bgr92rcd13ifvqc7g","pricing_plan_id":"cebpf4jnsgd1na2vs0mg"},{"bike_id":"662e069d-10f8-44d3-b784-24646e3c1599","system_id":"levelo_inurba_marseille","lat":43.299222,"lon":5.365554,"is_reserved":false,"is_disabled":false,"rental_uris":{"android":"levelo://app?vid=662e069d-10f8-44d3-b784-24646e3c1599","ios":"levelo://app?vid=662e069d-10f8-44d3-b784-24646e3c1599"},"vehicle_type_id":"4","last_reported":1713974934,"current_range_meters":27200,"station_id":"ce4bgm92rcd13ifvqbr0","pricing_plan_id":"cebpf4jnsgd1na2vs0mg"},{"bike_id":"b3001c27-f02f-4c9d-a855-f41fc21e74ae","system_id":"levelo_inurba_marseille","lat":43.299724,"lon":5.371829,"is_reserved":false,"is_disabled":false,"rental_uris":{"android":"levelo://app?vid=b3001c27-f02f-4c9d-a855-f41fc21e74ae","ios":"levelo://app?vid=b3001c27-f02f-4c9d-a855-f41fc21e74ae"},"vehicle_type_id":"4","last_reported":1713974934,"current_range_meters":11600,"station_id":"ce4bgr92rcd13ifvqc7g","pricing_plan_id":"cebpf4jnsgd1na2vs0mg"},{"bike_id":"1320cb17-2807-4885-8e4f-b465b36583ea","system_id":"levelo_inurba_marseille","lat":43.299724,"lon":5.371829,"is_reserved":false,"is_disabled":false,"rental_uris":{"android":"levelo://app?vid=1320cb17-2807-4885-8e4f-b465b36583ea","ios":"levelo://app?vid=1320cb17-2807-4885-8e4f-b465b36583ea"},"vehicle_type_id":"4","last_reported":1713974934,"current_range_meters":29600,"station_id":"ce4bgr92rcd13ifvqc7g","pricing_plan_id":"cebpf4jnsgd1na2vs0mg"},{"bike_id":"0072f49d-1686-4247-b14b-95f90949e5aa","system_id":"levelo_inurba_marseille","lat":43.299724,"lon":5.371829,"is_reserved":false,"is_disabled":false,"rental_uris":{"android":"levelo://app?vid=0072f49d-1686-4247-b14b-95f90949e5aa","ios":"levelo://app?vid=0072f49d-1686-4247-b14b-95f90949e5aa"},"vehicle_type_id":"4","last_reported":1713974934,"current_range_meters":13200,"station_id":"ce4bgr92rcd13ifvqc7g","pricing_plan_id":"cebpf4jnsgd1na2vs0mg"},{"bike_id":"55bd30d9-5f0d-418b-93ae-ee9060a02e5c","system_id":"levelo_inurba_marseille","lat":43.299731,"lon":5.371714,"is_reserved":false,"is_disabled":false,"rental_uris":{"android":"levelo://app?vid=55bd30d9-5f0d-418b-93ae-ee9060a02e5c","ios":"levelo://app?vid=55bd30d9-5f0d-418b-93ae-ee9060a02e5c"},"vehicle_type_id":"4","last_reported":1713974934,"current_range_meters":16800,"station_id":"ce4bgr92rcd13ifvqc7g","pricing_plan_id":"cebpf4jnsgd1na2vs0mg"},{"bike_id":"c3d0f188-c3cf-4c75-824d-8faf33882d7d","system_id":"levelo_inurba_marseille","lat":43.299749,"lon":5.371828,"is_reserved":false,"is_disabled":false,"rental_uris":{"android":"levelo://app?vid=c3d0f188-c3cf-4c75-824d-8faf33882d7d","ios":"levelo://app?vid=c3d0f188-c3cf-4c75-824d-8faf33882d7d"},"vehicle_type_id":"4","last_reported":1713974934,"current_range_meters":28800,"station_id":"ce4bgr92rcd13ifvqc7g","pricing_plan_id":"cebpf4jnsgd1na2vs0mg"},{"bike_id":"ba5b7ba3-a542-4787-b45d-92fefcab41ae","system_id":"levelo_inurba_marseille","lat":43.299724,"lon":5.371829,"is_reserved":false,"is_disabled":false,"rental_uris":{"android":"levelo://app?vid=ba5b7ba3-a542-4787-b45d-92fefcab41ae","ios":"levelo://app?vid=ba5b7ba3-a542-4787-b45d-92fefcab41ae"},"vehicle_type_id":"4","last_reported":1713974934,"current_range_meters":30000,"station_id":"ce4bgr92rcd13ifvqc7g","pricing_plan_id":"cebpf4jnsgd1na2vs0mg"},{"bike_id":"c160d93b-566a-4780-b47b-43bb628a0e99","system_id":"levelo_inurba_marseille","lat":43.299116,"lon":5.371912,"is_reserved":false,"is_disabled":false,"rental_uris":{"android":"levelo://app?vid=c160d93b-566a-4780-b47b-43bb628a0e99","ios":"levelo://app?vid=c160d93b-566a-4780-b47b-43bb628a0e99"},"vehicle_type_id":"4","last_reported":1713974934,"current_range_meters":17200,"station_id":"ce4bgr92rcd13ifvqc7g","pricing_plan_id":"cebpf4jnsgd1na2vs0mg"},{"bike_id":"ad0b7891-0970-4ca5-b4b2-808fad6764e5","system_id":"levelo_inurba_marseille","lat":43.298433,"lon":5.362774,"is_reserved":false,"is_disabled":false,"rental_uris":{"android":"levelo://app?vid=ad0b7891-0970-4ca5-b4b2-808fad6764e5","ios":"levelo://app?vid=ad0b7891-0970-4ca5-b4b2-808fad6764e5"},"vehicle_type_id":"4","last_reported":1713974934,"current_range_meters":26400,"station_id":"ce4bgpp2rcd13ifvqc3g","pricing_plan_id":"cebpf4jnsgd1na2vs0mg"},{"bike_id":"50faaf8e-5922-49d0-9f49-43f558bcc0bc","system_id":"levelo_inurba_marseille","lat":43.298433,"lon":5.362774,"is_reserved":false,"is_disabled":false,"rental_uris":{"android":"levelo://app?vid=50faaf8e-5922-49d0-9f49-43f558bcc0bc","ios":"levelo://app?vid=50faaf8e-5922-49d0-9f49-43f558bcc0bc"},"vehicle_type_id":"4","last_reported":1713974934,"current_range_meters":22800,"station_id":"ce4bgpp2rcd13ifvqc3g","pricing_plan_id":"cebpf4jnsgd1na2vs0mg"},{"bike_id":"1ed6e3e6-c121-4817-8cc6-96fdf600067b","system_id":"levelo_inurba_marseille","lat":43.305364,"lon":5.384119,"is_reserved":false,"is_disabled":false,"rental_uris":{"android":"levelo://app?vid=1ed6e3e6-c121-4817-8cc6-96fdf600067b","ios":"levelo://app?vid=1ed6e3e6-c121-4817-8cc6-96fdf600067b"},"vehicle_type_id":"4","last_reported":1713974934,"current_range_meters":9200,"station_id":"ce4bgg92rcd13ifvqb30","pricing_plan_id":"cebpf4jnsgd1na2vs0mg"},{"bike_id":"57e4318d-3e67-486c-a8fb-219e417975f3","system_id":"levelo_inurba_marseille","lat":43.298433,"lon":5.362774,"is_reserved":false,"is_disabled":false,"rental_uris":{"android":"levelo://app?vid=57e4318d-3e67-486c-a8fb-219e417975f3","ios":"levelo://app?vid=57e4318d-3e67-486c-a8fb-219e417975f3"},"vehicle_type_id":"4","last_reported":1713974934,"current_range_meters":25200,"station_id":"ce4bgpp2rcd13ifvqc3g","pricing_plan_id":"cebpf4jnsgd1na2vs0mg"},{"bike_id":"7f6f4b81-221b-404f-a1e8-71ed695a4b6f","system_id":"levelo_inurba_marseille","lat":43.305364,"lon":5.384119,"is_reserved":false,"is_disabled":false,"rental_uris":{"android":"levelo://app?vid=7f6f4b81-221b-404f-a1e8-71ed695a4b6f","ios":"levelo://app?vid=7f6f4b81-221b-404f-a1e8-71ed695a4b6f"},"vehicle_type_id":"4","last_reported":1713974934,"current_range_meters":26800,"station_id":"ce4bgg92rcd13ifvqb30","pricing_plan_id":"cebpf4jnsgd1na2vs0mg"},{"bike_id":"c80b4ed7-6b7c-4eb9-84d1-f009db4f382e","system_id":"levelo_inurba_marseille","lat":43.298433,"lon":5.362774,"is_reserved":false,"is_disabled":false,"rental_uris":{"android":"levelo://app?vid=c80b4ed7-6b7c-4eb9-84d1-f009db4f382e","ios":"levelo://app?vid=c80b4ed7-6b7c-4eb9-84d1-f009db4f382e"},"vehicle_type_id":"4","last_reported":1713974934,"current_range_meters":31600,"station_id":"ce4bgpp2rcd13ifvqc3g","pricing_plan_id":"cebpf4jnsgd1na2vs0mg"},{"bike_id":"d775a91b-d4d5-4408-80e5-7a343665c768","system_id":"levelo_inurba_marseille","lat":43.298433,"lon":5.362774,"is_reserved":false,"is_disabled":false,"rental_uris":{"android":"levelo://app?vid=d775a91b-d4d5-4408-80e5-7a343665c768","ios":"levelo://app?vid=d775a91b-d4d5-4408-80e5-7a343665c768"},"vehicle_type_id":"4","last_reported":1713974934,"current_range_meters":10400,"station_id":"ce4bgpp2rcd13ifvqc3g","pricing_plan_id":"cebpf4jnsgd1na2vs0mg"},{"bike_id":"f3bfd73d-dd03-419a-943f-a5743df360b2","system_id":"levelo_inurba_marseille","lat":43.29848,"lon":5.36274,"is_reserved":false,"is_disabled":false,"rental_uris":{"android":"levelo://app?vid=f3bfd73d-dd03-419a-943f-a5743df360b2","ios":"levelo://app?vid=f3bfd73d-dd03-419a-943f-a5743df360b2"},"vehicle_type_id":"4","last_reported":1713974934,"current_range_meters":7200,"station_id":"ce4bgpp2rcd13ifvqc3g","pricing_plan_id":"cebpf4jnsgd1na2vs0mg"},{"bike_id":"248e0f75-4835-4991-a206-f61a25fb8b15","system_id":"levelo_inurba_marseille","lat":43.298433,"lon":5.362774,"is_reserved":false,"is_disabled":false,"rental_uris":{"android":"levelo://app?vid=248e0f75-4835-4991-a206-f61a25fb8b15","ios":"levelo://app?vid=248e0f75-4835-4991-a206-f61a25fb8b15"},"vehicle_type_id":"4","last_reported":1713974934,"current_range_meters":28000,"station_id":"ce4bgpp2rcd13ifvqc3g","pricing_plan_id":"cebpf4jnsgd1na2vs0mg"},{"bike_id":"87594932-0791-4fec-81f0-a3aaafccf941","system_id":"levelo_inurba_marseille","lat":43.299243,"lon":5.374807,"is_reserved":false,"is_disabled":false,"rental_uris":{"android":"levelo://app?vid=87594932-0791-4fec-81f0-a3aaafccf941","ios":"levelo://app?vid=87594932-0791-4fec-81f0-a3aaafccf941"},"vehicle_type_id":"4","last_reported":1713974934,"current_range_meters":1200,"station_id":"ce4bgjh2rcd13ifvqbg0","pricing_plan_id":"cebpf4jnsgd1na2vs0mg"},{"bike_id":"31c6a0e1-1ca2-4421-a89b-0b7cc4096946","system_id":"levelo_inurba_marseille","lat":43.311722,"lon":5.387247,"is_reserved":false,"is_disabled":false,"rental_uris":{"android":"levelo://app?vid=31c6a0e1-1ca2-4421-a89b-0b7cc4096946","ios":"levelo://app?vid=31c6a0e1-1ca2-4421-a89b-0b7cc4096946"},"vehicle_type_id":"4","last_reported":1713974934,"current_range_meters":31200,"station_id":"ce4bgv12rcd13ifvqcp0","pricing_plan_id":"cebpf4jnsgd1na2vs0mg"},{"bike_id":"b4d8d6d0-9149-4607-9765-d587cd64a6b5","system_id":"levelo_inurba_marseille","lat":43.31172,"lon":5.3871,"is_reserved":false,"is_disabled":false,"rental_uris":{"android":"levelo://app?vid=b4d8d6d0-9149-4607-9765-d587cd64a6b5","ios":"levelo://app?vid=b4d8d6d0-9149-4607-9765-d587cd64a6b5"},"vehicle_type_id":"4","last_reported":1713974934,"current_range_meters":13600,"station_id":"ce4bgv12rcd13ifvqcp0","pricing_plan_id":"cebpf4jnsgd1na2vs0mg"},{"bike_id":"be4713b1-d54a-4738-ac47-7625e8dd5465","system_id":"levelo_inurba_marseille","lat":43.295748,"lon":5.37522,"is_reserved":false,"is_disabled":false,"rental_uris":{"android":"levelo://app?vid=be4713b1-d54a-4738-ac47-7625e8dd5465","ios":"levelo://app?vid=be4713b1-d54a-4738-ac47-7625e8dd5465"},"vehicle_type_id":"4","last_reported":1713974934,"current_range_meters":9200,"station_id":"ce4bgh92rcd13ifvqb50","pricing_plan_id":"cebpf4jnsgd1na2vs0mg"},{"bike_id":"0efbf5fa-aeb1-4af9-af91-6f0f913f9a61","system_id":"levelo_inurba_marseille","lat":43.3117,"lon":5.38717,"is_reserved":false,"is_disabled":false,"rental_uris":{"android":"levelo://app?vid=0efbf5fa-aeb1-4af9-af91-6f0f913f9a61","ios":"levelo://app?vid=0efbf5fa-aeb1-4af9-af91-6f0f913f9a61"},"vehicle_type_id":"4","last_reported":1713974934,"current_range_meters":5600,"station_id":"ce4bgv12rcd13ifvqcp0","pricing_plan_id":"cebpf4jnsgd1na2vs0mg"},{"bike_id":"2c5da08a-8d33-465f-a620-48b04c6cfa21","system_id":"levelo_inurba_marseille","lat":43.311702,"lon":5.387207,"is_reserved":false,"is_disabled":false,"rental_uris":{"android":"levelo://app?vid=2c5da08a-8d33-465f-a620-48b04c6cfa21","ios":"levelo://app?vid=2c5da08a-8d33-465f-a620-48b04c6cfa21"},"vehicle_type_id":"4","last_reported":1713974934,"current_range_meters":4400,"station_id":"ce4bgv12rcd13ifvqcp0","pricing_plan_id":"cebpf4jnsgd1na2vs0mg"},{"bike_id":"7f87027c-c81e-44fb-8271-403a727df065","system_id":"levelo_inurba_marseille","lat":43.29787,"lon":5.371084,"is_reserved":false,"is_disabled":false,"rental_uris":{"android":"levelo://app?vid=7f87027c-c81e-44fb-8271-403a727df065","ios":"levelo://app?vid=7f87027c-c81e-44fb-8271-403a727df065"},"vehicle_type_id":"4","last_reported":1713974934,"current_range_meters":5200,"station_id":"ce4bgop2rcd13ifvqc1g","pricing_plan_id":"cebpf4jnsgd1na2vs0mg"},{"bike_id":"ce606e76-a929-44dd-871a-0e678afe5f08","system_id":"levelo_inurba_marseille","lat":43.322872,"lon":5.382756,"is_reserved":false,"is_disabled":false,"rental_uris":{"android":"levelo://app?vid=ce606e76-a929-44dd-871a-0e678afe5f08","ios":"levelo://app?vid=ce606e76-a929-44dd-871a-0e678afe5f08"},"vehicle_type_id":"4","last_reported":1713974934,"current_range_meters":20800,"station_id":"ce4bhr12rcd13ifvqhqg","pricing_plan_id":"cebpf4jnsgd1na2vs0mg"},{"bike_id":"9e693039-4c31-4fa9-a1b6-06dea2c3d506","system_id":"levelo_inurba_marseille","lat":43.297163,"lon":5.365866,"is_reserved":false,"is_disabled":false,"rental_uris":{"android":"levelo://app?vid=9e693039-4c31-4fa9-a1b6-06dea2c3d506","ios":"levelo://app?vid=9e693039-4c31-4fa9-a1b6-06dea2c3d506"},"vehicle_type_id":"4","last_reported":1713974934,"current_range_meters":9200,"station_id":"ce4bgn12rcd13ifvqbt0","pricing_plan_id":"cebpf4jnsgd1na2vs0mg"},{"bike_id":"fe0b5675-a63e-475c-adf1-68df5930f4bc","system_id":"levelo_inurba_marseille","lat":43.297163,"lon":5.365866,"is_reserved":false,"is_disabled":false,"rental_uris":{"android":"levelo://app?vid=fe0b5675-a63e-475c-adf1-68df5930f4bc","ios":"levelo://app?vid=fe0b5675-a63e-475c-adf1-68df5930f4bc"},"vehicle_type_id":"4","last_reported":1713974934,"current_range_meters":10000,"station_id":"ce4bgn12rcd13ifvqbt0","pricing_plan_id":"cebpf4jnsgd1na2vs0mg"},{"bike_id":"8c50a091-7b89-4aaa-a09f-be452059e237","system_id":"levelo_inurba_marseille","lat":43.297163,"lon":5.365866,"is_reserved":false,"is_disabled":false,"rental_uris":{"android":"levelo://app?vid=8c50a091-7b89-4aaa-a09f-be452059e237","ios":"levelo://app?vid=8c50a091-7b89-4aaa-a09f-be452059e237"},"vehicle_type_id":"4","last_reported":1713974934,"current_range_meters":29200,"station_id":"ce4bgn12rcd13ifvqbt0","pricing_plan_id":"cebpf4jnsgd1na2vs0mg"},{"bike_id":"50565e5c-b2f0-4b1c-9abc-06c3aa5a41c2","system_id":"levelo_inurba_marseille","lat":43.296935,"lon":5.376544,"is_reserved":false,"is_disabled":false,"rental_uris":{"android":"levelo://app?vid=50565e5c-b2f0-4b1c-9abc-06c3aa5a41c2","ios":"levelo://app?vid=50565e5c-b2f0-4b1c-9abc-06c3aa5a41c2"},"vehicle_type_id":"4","last_reported":1713974934,"current_range_meters":27200,"station_id":"ce4bgkh2rcd13ifvqbl0","pricing_plan_id":"cebpf4jnsgd1na2vs0mg"},{"bike_id":"26043e4c-688f-4127-a2a0-de2f16815856","system_id":"levelo_inurba_marseille","lat":43.2968,"lon":5.37291,"is_reserved":false,"is_disabled":false,"rental_uris":{"android":"levelo://app?vid=26043e4c-688f-4127-a2a0-de2f16815856","ios":"levelo://app?vid=26043e4c-688f-4127-a2a0-de2f16815856"},"vehicle_type_id":"4","last_reported":1713974934,"current_range_meters":20800,"station_id":"ce4bgk12rcd13ifvqbj0","pricing_plan_id":"cebpf4jnsgd1na2vs0mg"},{"bike_id":"eb395d10-40bf-42dc-8ae0-174c9b674133","system_id":"levelo_inurba_marseille","lat":43.31731,"lon":5.38892,"is_reserved":false,"is_disabled":false,"rental_uris":{"android":"levelo://app?vid=eb395d10-40bf-42dc-8ae0-174c9b674133","ios":"levelo://app?vid=eb395d10-40bf-42dc-8ae0-174c9b674133"},"vehicle_type_id":"4","last_reported":1713974934,"current_range_meters":15200,"station_id":"","pricing_plan_id":"cebpf4jnsgd1na2vs0mg"},{"bike_id":"983ae50c-9c55-4e71-ba69-2c9ebd36e717","system_id":"levelo_inurba_marseille","lat":43.296131,"lon":5.370791,"is_reserved":false,"is_disabled":false,"rental_uris":{"android":"levelo://app?vid=983ae50c-9c55-4e71-ba69-2c9ebd36e717","ios":"levelo://app?vid=983ae50c-9c55-4e71-ba69-2c9ebd36e717"},"vehicle_type_id":"4","last_reported":1713974934,"current_range_meters":26800,"station_id":"ce4bgnh2rcd13ifvqc0g","pricing_plan_id":"cebpf4jnsgd1na2vs0mg"},{"bike_id":"7d2e663b-251a-46bb-929b-50633dff61de","system_id":"levelo_inurba_marseille","lat":43.296129,"lon":5.370777,"is_reserved":false,"is_disabled":false,"rental_uris":{"android":"levelo://app?vid=7d2e663b-251a-46bb-929b-50633dff61de","ios":"levelo://app?vid=7d2e663b-251a-46bb-929b-50633dff61de"},"vehicle_type_id":"4","last_reported":1713974934,"current_range_meters":18800,"station_id":"ce4bgnh2rcd13ifvqc0g","pricing_plan_id":"cebpf4jnsgd1na2vs0mg"},{"bike_id":"a584deee-4d54-40d6-9b80-99dfa034f3a9","system_id":"levelo_inurba_marseille","lat":43.296129,"lon":5.370777,"is_reserved":false,"is_disabled":false,"rental_uris":{"android":"levelo://app?vid=a584deee-4d54-40d6-9b80-99dfa034f3a9","ios":"levelo://app?vid=a584deee-4d54-40d6-9b80-99dfa034f3a9"},"vehicle_type_id":"4","last_reported":1713974934,"current_range_meters":28800,"station_id":"ce4bgnh2rcd13ifvqc0g","pricing_plan_id":"cebpf4jnsgd1na2vs0mg"},{"bike_id":"c8044499-bbb7-484b-af18-9fd7a568416d","system_id":"levelo_inurba_marseille","lat":43.29622,"lon":5.37164,"is_reserved":false,"is_disabled":false,"rental_uris":{"android":"levelo://app?vid=c8044499-bbb7-484b-af18-9fd7a568416d","ios":"levelo://app?vid=c8044499-bbb7-484b-af18-9fd7a568416d"},"vehicle_type_id":"4","last_reported":1713974934,"current_range_meters":14400,"station_id":"ce4bgnh2rcd13ifvqc0g","pricing_plan_id":"cebpf4jnsgd1na2vs0mg"},{"bike_id":"186b8226-9be1-412f-9bcd-4658a0cd716f","system_id":"levelo_inurba_marseille","lat":43.29622,"lon":5.37166,"is_reserved":false,"is_disabled":false,"rental_uris":{"android":"levelo://app?vid=186b8226-9be1-412f-9bcd-4658a0cd716f","ios":"levelo://app?vid=186b8226-9be1-412f-9bcd-4658a0cd716f"},"vehicle_type_id":"4","last_reported":1713974934,"current_range_meters":15200,"station_id":"ce4bgnh2rcd13ifvqc0g","pricing_plan_id":"cebpf4jnsgd1na2vs0mg"},{"bike_id":"df850e71-46d5-49a1-a424-5b38b3b2d874","system_id":"levelo_inurba_marseille","lat":43.296131,"lon":5.370773,"is_reserved":false,"is_disabled":false,"rental_uris":{"android":"levelo://app?vid=df850e71-46d5-49a1-a424-5b38b3b2d874","ios":"levelo://app?vid=df850e71-46d5-49a1-a424-5b38b3b2d874"},"vehicle_type_id":"4","last_reported":1713974934,"current_range_meters":31200,"station_id":"ce4bgnh2rcd13ifvqc0g","pricing_plan_id":"cebpf4jnsgd1na2vs0mg"},{"bike_id":"a10ac1cf-1647-44a3-a272-17f22032087e","system_id":"levelo_inurba_marseille","lat":43.29621,"lon":5.37163,"is_reserved":false,"is_disabled":false,"rental_uris":{"android":"levelo://app?vid=a10ac1cf-1647-44a3-a272-17f22032087e","ios":"levelo://app?vid=a10ac1cf-1647-44a3-a272-17f22032087e"},"vehicle_type_id":"4","last_reported":1713974934,"current_range_meters":12800,"station_id":"ce4bgnh2rcd13ifvqc0g","pricing_plan_id":"cebpf4jnsgd1na2vs0mg"},{"bike_id":"10baceb6-5b9f-45b6-979f-29874b28ad7e","system_id":"levelo_inurba_marseille","lat":43.29573,"lon":5.367355,"is_reserved":false,"is_disabled":false,"rental_uris":{"android":"levelo://app?vid=10baceb6-5b9f-45b6-979f-29874b28ad7e","ios":"levelo://app?vid=10baceb6-5b9f-45b6-979f-29874b28ad7e"},"vehicle_type_id":"4","last_reported":1713974934,"current_range_meters":18000,"station_id":"ce4bgph2rcd13ifvqc2g","pricing_plan_id":"cebpf4jnsgd1na2vs0mg"},{"bike_id":"33a6b9cb-de64-4b10-bb81-ffc8faff2f30","system_id":"levelo_inurba_marseille","lat":43.29573,"lon":5.367355,"is_reserved":false,"is_disabled":false,"rental_uris":{"android":"levelo://app?vid=33a6b9cb-de64-4b10-bb81-ffc8faff2f30","ios":"levelo://app?vid=33a6b9cb-de64-4b10-bb81-ffc8faff2f30"},"vehicle_type_id":"4","last_reported":1713974934,"current_range_meters":9600,"station_id":"ce4bgph2rcd13ifvqc2g","pricing_plan_id":"cebpf4jnsgd1na2vs0mg"},{"bike_id":"22ee16ca-a245-4dc1-ad8a-db06da73955c","system_id":"levelo_inurba_marseille","lat":43.29585,"lon":5.36878,"is_reserved":false,"is_disabled":false,"rental_uris":{"android":"levelo://app?vid=22ee16ca-a245-4dc1-ad8a-db06da73955c","ios":"levelo://app?vid=22ee16ca-a245-4dc1-ad8a-db06da73955c"},"vehicle_type_id":"4","last_reported":1713974934,"current_range_meters":8000,"station_id":"","pricing_plan_id":"cebpf4jnsgd1na2vs0mg"},{"bike_id":"92a90223-d165-41c8-b791-c8e28fc54076","system_id":"levelo_inurba_marseille","lat":43.29722,"lon":5.37695,"is_reserved":false,"is_disabled":false,"rental_uris":{"android":"levelo://app?vid=92a90223-d165-41c8-b791-c8e28fc54076","ios":"levelo://app?vid=92a90223-d165-41c8-b791-c8e28fc54076"},"vehicle_type_id":"4","last_reported":1713974934,"current_range_meters":17600,"station_id":"ce4bgkh2rcd13ifvqbl0","pricing_plan_id":"cebpf4jnsgd1na2vs0mg"},{"bike_id":"77145508-e031-48a4-8e00-9830033ed20c","system_id":"levelo_inurba_marseille","lat":43.296921,"lon":5.376579,"is_reserved":false,"is_disabled":false,"rental_uris":{"android":"levelo://app?vid=77145508-e031-48a4-8e00-9830033ed20c","ios":"levelo://app?vid=77145508-e031-48a4-8e00-9830033ed20c"},"vehicle_type_id":"4","last_reported":1713974934,"current_range_meters":30400,"station_id":"ce4bgkh2rcd13ifvqbl0","pricing_plan_id":"cebpf4jnsgd1na2vs0mg"},{"bike_id":"4b09b211-5702-46c9-9e8e-31a673e30644","system_id":"levelo_inurba_marseille","lat":43.295279,"lon":5.375048,"is_reserved":false,"is_disabled":false,"rental_uris":{"android":"levelo://app?vid=4b09b211-5702-46c9-9e8e-31a673e30644","ios":"levelo://app?vid=4b09b211-5702-46c9-9e8e-31a673e30644"},"vehicle_type_id":"4","last_reported":1713974934,"current_range_meters":18800,"station_id":"ce4bgkp2rcd13ifvqbmg","pricing_plan_id":"cebpf4jnsgd1na2vs0mg"},{"bike_id":"bf97b67a-2888-49e5-a812-156060adc683","system_id":"levelo_inurba_marseille","lat":43.299077,"lon":5.381448,"is_reserved":false,"is_disabled":false,"rental_uris":{"android":"levelo://app?vid=bf97b67a-2888-49e5-a812-156060adc683","ios":"levelo://app?vid=bf97b67a-2888-49e5-a812-156060adc683"},"vehicle_type_id":"4","last_reported":1713974934,"current_range_meters":800,"station_id":"ce4bgj12rcd13ifvqbc0","pricing_plan_id":"cebpf4jnsgd1na2vs0mg"},{"bike_id":"747714cb-0410-47cf-966b-b02c5819c7aa","system_id":"levelo_inurba_marseille","lat":43.309589,"lon":5.390258,"is_reserved":false,"is_disabled":false,"rental_uris":{"android":"levelo://app?vid=747714cb-0410-47cf-966b-b02c5819c7aa","ios":"levelo://app?vid=747714cb-0410-47cf-966b-b02c5819c7aa"},"vehicle_type_id":"4","last_reported":1713974934,"current_range_meters":25200,"station_id":"ce4bgup2rcd13ifvqco0","pricing_plan_id":"cebpf4jnsgd1na2vs0mg"},{"bike_id":"33690d40-eb5c-4cfe-b44d-c15fe50db787","system_id":"levelo_inurba_marseille","lat":43.299579,"lon":5.413255,"is_reserved":false,"is_disabled":false,"rental_uris":{"android":"levelo://app?vid=33690d40-eb5c-4cfe-b44d-c15fe50db787","ios":"levelo://app?vid=33690d40-eb5c-4cfe-b44d-c15fe50db787"},"vehicle_type_id":"4","last_reported":1713974934,"current_range_meters":4000,"station_id":"ce4bhp12rcd13ifvqh9g","pricing_plan_id":"cebpf4jnsgd1na2vs0mg"},{"bike_id":"71111ab0-4cae-406e-8fed-625525c9d3e4","system_id":"levelo_inurba_marseille","lat":43.309589,"lon":5.390258,"is_reserved":false,"is_disabled":false,"rental_uris":{"android":"levelo://app?vid=71111ab0-4cae-406e-8fed-625525c9d3e4","ios":"levelo://app?vid=71111ab0-4cae-406e-8fed-625525c9d3e4"},"vehicle_type_id":"4","last_reported":1713974934,"current_range_meters":18000,"station_id":"ce4bgup2rcd13ifvqco0","pricing_plan_id":"cebpf4jnsgd1na2vs0mg"},{"bike_id":"d9526408-abae-4f78-b20e-b394d833656a","system_id":"levelo_inurba_marseille","lat":43.299028,"lon":5.381509,"is_reserved":false,"is_disabled":false,"rental_uris":{"android":"levelo://app?vid=d9526408-abae-4f78-b20e-b394d833656a","ios":"levelo://app?vid=d9526408-abae-4f78-b20e-b394d833656a"},"vehicle_type_id":"4","last_reported":1713974934,"current_range_meters":31200,"station_id":"ce4bgj12rcd13ifvqbc0","pricing_plan_id":"cebpf4jnsgd1na2vs0mg"},{"bike_id":"8ec50842-6b10-43e2-9e80-506ccb523139","system_id":"levelo_inurba_marseille","lat":43.299028,"lon":5.381509,"is_reserved":false,"is_disabled":false,"rental_uris":{"android":"levelo://app?vid=8ec50842-6b10-43e2-9e80-506ccb523139","ios":"levelo://app?vid=8ec50842-6b10-43e2-9e80-506ccb523139"},"vehicle_type_id":"4","last_reported":1713974934,"current_range_meters":23200,"station_id":"ce4bgj12rcd13ifvqbc0","pricing_plan_id":"cebpf4jnsgd1na2vs0mg"},{"bike_id":"7cc61156-595f-4e4e-a33e-89f91602f767","system_id":"levelo_inurba_marseille","lat":43.317557,"lon":5.390173,"is_reserved":false,"is_disabled":false,"rental_uris":{"android":"levelo://app?vid=7cc61156-595f-4e4e-a33e-89f91602f767","ios":"levelo://app?vid=7cc61156-595f-4e4e-a33e-89f91602f767"},"vehicle_type_id":"4","last_reported":1713974934,"current_range_meters":12800,"station_id":"ce4bhqp2rcd13ifvqhng","pricing_plan_id":"cebpf4jnsgd1na2vs0mg"},{"bike_id":"3ddd29e4-7600-43e5-b6d0-b2af8c40141a","system_id":"levelo_inurba_marseille","lat":43.317557,"lon":5.390173,"is_reserved":false,"is_disabled":false,"rental_uris":{"android":"levelo://app?vid=3ddd29e4-7600-43e5-b6d0-b2af8c40141a","ios":"levelo://app?vid=3ddd29e4-7600-43e5-b6d0-b2af8c40141a"},"vehicle_type_id":"4","last_reported":1713974934,"current_range_meters":7600,"station_id":"ce4bhqp2rcd13ifvqhng","pricing_plan_id":"cebpf4jnsgd1na2vs0mg"},{"bike_id":"f52eb590-7c9d-4ee9-afda-aeb836bdd3dc","system_id":"levelo_inurba_marseille","lat":43.317557,"lon":5.390173,"is_reserved":false,"is_disabled":false,"rental_uris":{"android":"levelo://app?vid=f52eb590-7c9d-4ee9-afda-aeb836bdd3dc","ios":"levelo://app?vid=f52eb590-7c9d-4ee9-afda-aeb836bdd3dc"},"vehicle_type_id":"4","last_reported":1713974934,"current_range_meters":26800,"station_id":"ce4bhqp2rcd13ifvqhng","pricing_plan_id":"cebpf4jnsgd1na2vs0mg"},{"bike_id":"c007bef9-8802-41bb-8338-c0ddc6a2a353","system_id":"levelo_inurba_marseille","lat":43.317557,"lon":5.390173,"is_reserved":false,"is_disabled":false,"rental_uris":{"android":"levelo://app?vid=c007bef9-8802-41bb-8338-c0ddc6a2a353","ios":"levelo://app?vid=c007bef9-8802-41bb-8338-c0ddc6a2a353"},"vehicle_type_id":"4","last_reported":1713974934,"current_range_meters":12800,"station_id":"ce4bhqp2rcd13ifvqhng","pricing_plan_id":"cebpf4jnsgd1na2vs0mg"},{"bike_id":"009b6dbe-f06a-410e-9507-c1ecba6e1674","system_id":"levelo_inurba_marseille","lat":43.317557,"lon":5.390173,"is_reserved":false,"is_disabled":false,"rental_uris":{"android":"levelo://app?vid=009b6dbe-f06a-410e-9507-c1ecba6e1674","ios":"levelo://app?vid=009b6dbe-f06a-410e-9507-c1ecba6e1674"},"vehicle_type_id":"4","last_reported":1713974934,"current_range_meters":19600,"station_id":"ce4bhqp2rcd13ifvqhng","pricing_plan_id":"cebpf4jnsgd1na2vs0mg"},{"bike_id":"dd464ad1-5508-44ab-ba07-bb8a67869a59","system_id":"levelo_inurba_marseille","lat":43.298037,"lon":5.381066,"is_reserved":false,"is_disabled":false,"rental_uris":{"android":"levelo://app?vid=dd464ad1-5508-44ab-ba07-bb8a67869a59","ios":"levelo://app?vid=dd464ad1-5508-44ab-ba07-bb8a67869a59"},"vehicle_type_id":"4","last_reported":1713974934,"current_range_meters":22400,"station_id":"ce4bgip2rcd13ifvqbb0","pricing_plan_id":"cebpf4jnsgd1na2vs0mg"},{"bike_id":"8a16dd87-7097-4be4-922b-60a37ee54c61","system_id":"levelo_inurba_marseille","lat":43.298037,"lon":5.381066,"is_reserved":false,"is_disabled":false,"rental_uris":{"android":"levelo://app?vid=8a16dd87-7097-4be4-922b-60a37ee54c61","ios":"levelo://app?vid=8a16dd87-7097-4be4-922b-60a37ee54c61"},"vehicle_type_id":"4","last_reported":1713974934,"current_range_meters":0,"station_id":"ce4bgip2rcd13ifvqbb0","pricing_plan_id":"cebpf4jnsgd1na2vs0mg"},{"bike_id":"e176d8d7-b260-4094-bfab-2f20185a29ca","system_id":"levelo_inurba_marseille","lat":43.298037,"lon":5.381066,"is_reserved":false,"is_disabled":false,"rental_uris":{"android":"levelo://app?vid=e176d8d7-b260-4094-bfab-2f20185a29ca","ios":"levelo://app?vid=e176d8d7-b260-4094-bfab-2f20185a29ca"},"vehicle_type_id":"4","last_reported":1713974934,"current_range_meters":14400,"station_id":"ce4bgip2rcd13ifvqbb0","pricing_plan_id":"cebpf4jnsgd1na2vs0mg"},{"bike_id":"1df51914-f0f1-4339-b36a-18d989592ad2","system_id":"levelo_inurba_marseille","lat":43.298037,"lon":5.381066,"is_reserved":false,"is_disabled":false,"rental_uris":{"android":"levelo://app?vid=1df51914-f0f1-4339-b36a-18d989592ad2","ios":"levelo://app?vid=1df51914-f0f1-4339-b36a-18d989592ad2"},"vehicle_type_id":"4","last_reported":1713974934,"current_range_meters":20000,"station_id":"ce4bgip2rcd13ifvqbb0","pricing_plan_id":"cebpf4jnsgd1na2vs0mg"},{"bike_id":"416415ef-cf19-4d35-b20d-3a02cd3bcf68","system_id":"levelo_inurba_marseille","lat":43.298067,"lon":5.381003,"is_reserved":false,"is_disabled":false,"rental_uris":{"android":"levelo://app?vid=416415ef-cf19-4d35-b20d-3a02cd3bcf68","ios":"levelo://app?vid=416415ef-cf19-4d35-b20d-3a02cd3bcf68"},"vehicle_type_id":"4","last_reported":1713974934,"current_range_meters":10000,"station_id":"ce4bgip2rcd13ifvqbb0","pricing_plan_id":"cebpf4jnsgd1na2vs0mg"},{"bike_id":"240a5259-2544-4564-adcf-2414286d6799","system_id":"levelo_inurba_marseille","lat":43.298037,"lon":5.381066,"is_reserved":false,"is_disabled":false,"rental_uris":{"android":"levelo://app?vid=240a5259-2544-4564-adcf-2414286d6799","ios":"levelo://app?vid=240a5259-2544-4564-adcf-2414286d6799"},"vehicle_type_id":"4","last_reported":1713974934,"current_range_meters":31600,"station_id":"ce4bgip2rcd13ifvqbb0","pricing_plan_id":"cebpf4jnsgd1na2vs0mg"},{"bike_id":"a2c2d3d3-ea63-483e-8728-4fa6faaff914","system_id":"levelo_inurba_marseille","lat":43.298037,"lon":5.381066,"is_reserved":false,"is_disabled":false,"rental_uris":{"android":"levelo://app?vid=a2c2d3d3-ea63-483e-8728-4fa6faaff914","ios":"levelo://app?vid=a2c2d3d3-ea63-483e-8728-4fa6faaff914"},"vehicle_type_id":"4","last_reported":1713974934,"current_range_meters":400,"station_id":"ce4bgip2rcd13ifvqbb0","pricing_plan_id":"cebpf4jnsgd1na2vs0mg"},{"bike_id":"b9ea30e1-2ca8-404b-a9b7-e21fb67e22ff","system_id":"levelo_inurba_marseille","lat":43.298037,"lon":5.381066,"is_reserved":false,"is_disabled":false,"rental_uris":{"android":"levelo://app?vid=b9ea30e1-2ca8-404b-a9b7-e21fb67e22ff","ios":"levelo://app?vid=b9ea30e1-2ca8-404b-a9b7-e21fb67e22ff"},"vehicle_type_id":"4","last_reported":1713974934,"current_range_meters":0,"station_id":"ce4bgip2rcd13ifvqbb0","pricing_plan_id":"cebpf4jnsgd1na2vs0mg"},{"bike_id":"b6935ed5-ba60-4f70-b415-6c86b4dcc9fd","system_id":"levelo_inurba_marseille","lat":43.298037,"lon":5.381066,"is_reserved":false,"is_disabled":false,"rental_uris":{"android":"levelo://app?vid=b6935ed5-ba60-4f70-b415-6c86b4dcc9fd","ios":"levelo://app?vid=b6935ed5-ba60-4f70-b415-6c86b4dcc9fd"},"vehicle_type_id":"4","last_reported":1713974934,"current_range_meters":15600,"station_id":"ce4bgip2rcd13ifvqbb0","pricing_plan_id":"cebpf4jnsgd1na2vs0mg"},{"bike_id":"60702650-3072-4965-9ad6-473b0f792a82","system_id":"levelo_inurba_marseille","lat":43.298037,"lon":5.381066,"is_reserved":false,"is_disabled":false,"rental_uris":{"android":"levelo://app?vid=60702650-3072-4965-9ad6-473b0f792a82","ios":"levelo://app?vid=60702650-3072-4965-9ad6-473b0f792a82"},"vehicle_type_id":"4","last_reported":1713974934,"current_range_meters":21600,"station_id":"ce4bgip2rcd13ifvqbb0","pricing_plan_id":"cebpf4jnsgd1na2vs0mg"},{"bike_id":"7b41680c-98f6-4baf-a42e-04ea25018d54","system_id":"levelo_inurba_marseille","lat":43.298037,"lon":5.381066,"is_reserved":false,"is_disabled":false,"rental_uris":{"android":"levelo://app?vid=7b41680c-98f6-4baf-a42e-04ea25018d54","ios":"levelo://app?vid=7b41680c-98f6-4baf-a42e-04ea25018d54"},"vehicle_type_id":"4","last_reported":1713974934,"current_range_meters":26800,"station_id":"ce4bgip2rcd13ifvqbb0","pricing_plan_id":"cebpf4jnsgd1na2vs0mg"},{"bike_id":"00909e30-6070-4a1b-a5e4-7ff5b1e00f6f","system_id":"levelo_inurba_marseille","lat":43.298037,"lon":5.381066,"is_reserved":false,"is_disabled":false,"rental_uris":{"android":"levelo://app?vid=00909e30-6070-4a1b-a5e4-7ff5b1e00f6f","ios":"levelo://app?vid=00909e30-6070-4a1b-a5e4-7ff5b1e00f6f"},"vehicle_type_id":"4","last_reported":1713974934,"current_range_meters":31200,"station_id":"ce4bgip2rcd13ifvqbb0","pricing_plan_id":"cebpf4jnsgd1na2vs0mg"},{"bike_id":"3fe14f1c-b70c-4a66-8704-6e3e7444f610","system_id":"levelo_inurba_marseille","lat":43.298037,"lon":5.381066,"is_reserved":false,"is_disabled":false,"rental_uris":{"android":"levelo://app?vid=3fe14f1c-b70c-4a66-8704-6e3e7444f610","ios":"levelo://app?vid=3fe14f1c-b70c-4a66-8704-6e3e7444f610"},"vehicle_type_id":"4","last_reported":1713974934,"current_range_meters":20000,"station_id":"ce4bgip2rcd13ifvqbb0","pricing_plan_id":"cebpf4jnsgd1na2vs0mg"},{"bike_id":"7b7707cf-111a-4cd9-8c4e-ddb0cfa86554","system_id":"levelo_inurba_marseille","lat":43.298037,"lon":5.381066,"is_reserved":false,"is_disabled":false,"rental_uris":{"android":"levelo://app?vid=7b7707cf-111a-4cd9-8c4e-ddb0cfa86554","ios":"levelo://app?vid=7b7707cf-111a-4cd9-8c4e-ddb0cfa86554"},"vehicle_type_id":"4","last_reported":1713974934,"current_range_meters":5600,"station_id":"ce4bgip2rcd13ifvqbb0","pricing_plan_id":"cebpf4jnsgd1na2vs0mg"},{"bike_id":"bb5f166f-92a0-4333-a4d8-39d3b6c0b019","system_id":"levelo_inurba_marseille","lat":43.295748,"lon":5.37522,"is_reserved":false,"is_disabled":false,"rental_uris":{"android":"levelo://app?vid=bb5f166f-92a0-4333-a4d8-39d3b6c0b019","ios":"levelo://app?vid=bb5f166f-92a0-4333-a4d8-39d3b6c0b019"},"vehicle_type_id":"4","last_reported":1713974934,"current_range_meters":18000,"station_id":"ce4bgh92rcd13ifvqb50","pricing_plan_id":"cebpf4jnsgd1na2vs0mg"},{"bike_id":"074a855b-4fbf-4446-bbf7-16feaffbe876","system_id":"levelo_inurba_marseille","lat":43.30442,"lon":5.388883,"is_reserved":false,"is_disabled":false,"rental_uris":{"android":"levelo://app?vid=074a855b-4fbf-4446-bbf7-16feaffbe876","ios":"levelo://app?vid=074a855b-4fbf-4446-bbf7-16feaffbe876"},"vehicle_type_id":"4","last_reported":1713974934,"current_range_meters":28800,"station_id":"ce4bgk12rcd13ifvqbi0","pricing_plan_id":"cebpf4jnsgd1na2vs0mg"},{"bike_id":"c3a56c2b-bd49-48cd-876a-68c47efea700","system_id":"levelo_inurba_marseille","lat":43.298037,"lon":5.381066,"is_reserved":false,"is_disabled":false,"rental_uris":{"android":"levelo://app?vid=c3a56c2b-bd49-48cd-876a-68c47efea700","ios":"levelo://app?vid=c3a56c2b-bd49-48cd-876a-68c47efea700"},"vehicle_type_id":"4","last_reported":1713974934,"current_range_meters":9600,"station_id":"ce4bgip2rcd13ifvqbb0","pricing_plan_id":"cebpf4jnsgd1na2vs0mg"},{"bike_id":"ea6f5c7e-5558-46db-9dd6-d9f545270bad","system_id":"levelo_inurba_marseille","lat":43.304274,"lon":5.388873,"is_reserved":false,"is_disabled":false,"rental_uris":{"android":"levelo://app?vid=ea6f5c7e-5558-46db-9dd6-d9f545270bad","ios":"levelo://app?vid=ea6f5c7e-5558-46db-9dd6-d9f545270bad"},"vehicle_type_id":"4","last_reported":1713974934,"current_range_meters":10800,"station_id":"ce4bgk12rcd13ifvqbi0","pricing_plan_id":"cebpf4jnsgd1na2vs0mg"},{"bike_id":"adb2ec82-edb0-4893-9ed0-e0e5afaec84d","system_id":"levelo_inurba_marseille","lat":43.30437,"lon":5.38889,"is_reserved":false,"is_disabled":false,"rental_uris":{"android":"levelo://app?vid=adb2ec82-edb0-4893-9ed0-e0e5afaec84d","ios":"levelo://app?vid=adb2ec82-edb0-4893-9ed0-e0e5afaec84d"},"vehicle_type_id":"4","last_reported":1713974934,"current_range_meters":0,"station_id":"ce4bgk12rcd13ifvqbi0","pricing_plan_id":"cebpf4jnsgd1na2vs0mg"},{"bike_id":"b794a427-27be-4ec7-b0ed-baf9bb6da25b","system_id":"levelo_inurba_marseille","lat":43.304274,"lon":5.388873,"is_reserved":false,"is_disabled":false,"rental_uris":{"android":"levelo://app?vid=b794a427-27be-4ec7-b0ed-baf9bb6da25b","ios":"levelo://app?vid=b794a427-27be-4ec7-b0ed-baf9bb6da25b"},"vehicle_type_id":"4","last_reported":1713974934,"current_range_meters":2000,"station_id":"ce4bgk12rcd13ifvqbi0","pricing_plan_id":"cebpf4jnsgd1na2vs0mg"},{"bike_id":"e89d0b4e-bcec-4053-97b5-ba43378dc2ed","system_id":"levelo_inurba_marseille","lat":43.298037,"lon":5.381066,"is_reserved":false,"is_disabled":false,"rental_uris":{"android":"levelo://app?vid=e89d0b4e-bcec-4053-97b5-ba43378dc2ed","ios":"levelo://app?vid=e89d0b4e-bcec-4053-97b5-ba43378dc2ed"},"vehicle_type_id":"4","last_reported":1713974934,"current_range_meters":16400,"station_id":"ce4bgip2rcd13ifvqbb0","pricing_plan_id":"cebpf4jnsgd1na2vs0mg"},{"bike_id":"6484ac94-752e-49c6-829a-2a1ecb091717","system_id":"levelo_inurba_marseille","lat":43.29571,"lon":5.37517,"is_reserved":false,"is_disabled":false,"rental_uris":{"android":"levelo://app?vid=6484ac94-752e-49c6-829a-2a1ecb091717","ios":"levelo://app?vid=6484ac94-752e-49c6-829a-2a1ecb091717"},"vehicle_type_id":"4","last_reported":1713974934,"current_range_meters":30000,"station_id":"","pricing_plan_id":"cebpf4jnsgd1na2vs0mg"},{"bike_id":"640e0dd7-5ea1-4a5d-8424-4cc6cfb054a3","system_id":"levelo_inurba_marseille","lat":43.295748,"lon":5.37522,"is_reserved":false,"is_disabled":false,"rental_uris":{"android":"levelo://app?vid=640e0dd7-5ea1-4a5d-8424-4cc6cfb054a3","ios":"levelo://app?vid=640e0dd7-5ea1-4a5d-8424-4cc6cfb054a3"},"vehicle_type_id":"4","last_reported":1713974934,"current_range_meters":12000,"station_id":"ce4bgh92rcd13ifvqb50","pricing_plan_id":"cebpf4jnsgd1na2vs0mg"},{"bike_id":"759ea3f5-3991-4e4d-940f-b8f4633bcffb","system_id":"levelo_inurba_marseille","lat":43.29569,"lon":5.37517,"is_reserved":false,"is_disabled":false,"rental_uris":{"android":"levelo://app?vid=759ea3f5-3991-4e4d-940f-b8f4633bcffb","ios":"levelo://app?vid=759ea3f5-3991-4e4d-940f-b8f4633bcffb"},"vehicle_type_id":"4","last_reported":1713974934,"current_range_meters":26800,"station_id":"ce4bgh92rcd13ifvqb50","pricing_plan_id":"cebpf4jnsgd1na2vs0mg"},{"bike_id":"fd90508c-3118-4a48-be3c-e2219c07d649","system_id":"levelo_inurba_marseille","lat":43.295748,"lon":5.37522,"is_reserved":false,"is_disabled":false,"rental_uris":{"android":"levelo://app?vid=fd90508c-3118-4a48-be3c-e2219c07d649","ios":"levelo://app?vid=fd90508c-3118-4a48-be3c-e2219c07d649"},"vehicle_type_id":"4","last_reported":1713974934,"current_range_meters":31200,"station_id":"ce4bgh92rcd13ifvqb50","pricing_plan_id":"cebpf4jnsgd1na2vs0mg"},{"bike_id":"f676db58-0dcf-4c6e-a9e2-464b9f59c2a4","system_id":"levelo_inurba_marseille","lat":43.29785,"lon":5.381023,"is_reserved":false,"is_disabled":false,"rental_uris":{"android":"levelo://app?vid=f676db58-0dcf-4c6e-a9e2-464b9f59c2a4","ios":"levelo://app?vid=f676db58-0dcf-4c6e-a9e2-464b9f59c2a4"},"vehicle_type_id":"4","last_reported":1713974934,"current_range_meters":27200,"station_id":"ce4bgip2rcd13ifvqbb0","pricing_plan_id":"cebpf4jnsgd1na2vs0mg"},{"bike_id":"14a826b6-522d-4b15-ae37-87518d2228b4","system_id":"levelo_inurba_marseille","lat":43.29565,"lon":5.37508,"is_reserved":false,"is_disabled":false,"rental_uris":{"android":"levelo://app?vid=14a826b6-522d-4b15-ae37-87518d2228b4","ios":"levelo://app?vid=14a826b6-522d-4b15-ae37-87518d2228b4"},"vehicle_type_id":"4","last_reported":1713974934,"current_range_meters":14400,"station_id":"ce4bgh92rcd13ifvqb50","pricing_plan_id":"cebpf4jnsgd1na2vs0mg"},{"bike_id":"128ee3e4-2887-4b04-a30c-47b5344b40ad","system_id":"levelo_inurba_marseille","lat":43.295748,"lon":5.37522,"is_reserved":false,"is_disabled":false,"rental_uris":{"android":"levelo://app?vid=128ee3e4-2887-4b04-a30c-47b5344b40ad","ios":"levelo://app?vid=128ee3e4-2887-4b04-a30c-47b5344b40ad"},"vehicle_type_id":"4","last_reported":1713974934,"current_range_meters":25600,"station_id":"ce4bgh92rcd13ifvqb50","pricing_plan_id":"cebpf4jnsgd1na2vs0mg"},{"bike_id":"567a49ea-de01-4363-91c6-7b450512053d","system_id":"levelo_inurba_marseille","lat":43.30442,"lon":5.38907,"is_reserved":false,"is_disabled":false,"rental_uris":{"android":"levelo://app?vid=567a49ea-de01-4363-91c6-7b450512053d","ios":"levelo://app?vid=567a49ea-de01-4363-91c6-7b450512053d"},"vehicle_type_id":"4","last_reported":1713974934,"current_range_meters":0,"station_id":"ce4bgk12rcd13ifvqbi0","pricing_plan_id":"cebpf4jnsgd1na2vs0mg"},{"bike_id":"0d6b4786-03b9-47ec-8513-1e4cf0505878","system_id":"levelo_inurba_marseille","lat":43.29627,"lon":5.37743,"is_reserved":false,"is_disabled":false,"rental_uris":{"android":"levelo://app?vid=0d6b4786-03b9-47ec-8513-1e4cf0505878","ios":"levelo://app?vid=0d6b4786-03b9-47ec-8513-1e4cf0505878"},"vehicle_type_id":"4","last_reported":1713974934,"current_range_meters":16000,"station_id":"ce4bgi92rcd13ifvqb90","pricing_plan_id":"cebpf4jnsgd1na2vs0mg"},{"bike_id":"3689c71f-eb8c-49b5-83f0-8b20bad48f8d","system_id":"levelo_inurba_marseille","lat":43.298037,"lon":5.381066,"is_reserved":false,"is_disabled":false,"rental_uris":{"android":"levelo://app?vid=3689c71f-eb8c-49b5-83f0-8b20bad48f8d","ios":"levelo://app?vid=3689c71f-eb8c-49b5-83f0-8b20bad48f8d"},"vehicle_type_id":"4","last_reported":1713974934,"current_range_meters":19600,"station_id":"ce4bgip2rcd13ifvqbb0","pricing_plan_id":"cebpf4jnsgd1na2vs0mg"},{"bike_id":"0e02cd7e-3a1b-4889-b168-94c83f3127d7","system_id":"levelo_inurba_marseille","lat":43.29622,"lon":5.37729,"is_reserved":false,"is_disabled":false,"rental_uris":{"android":"levelo://app?vid=0e02cd7e-3a1b-4889-b168-94c83f3127d7","ios":"levelo://app?vid=0e02cd7e-3a1b-4889-b168-94c83f3127d7"},"vehicle_type_id":"4","last_reported":1713974934,"current_range_meters":1600,"station_id":"ce4bgi92rcd13ifvqb90","pricing_plan_id":"cebpf4jnsgd1na2vs0mg"},{"bike_id":"fa7ce6d7-8d0a-4e3d-87c3-2fab4eef67f0","system_id":"levelo_inurba_marseille","lat":43.304274,"lon":5.388873,"is_reserved":false,"is_disabled":false,"rental_uris":{"android":"levelo://app?vid=fa7ce6d7-8d0a-4e3d-87c3-2fab4eef67f0","ios":"levelo://app?vid=fa7ce6d7-8d0a-4e3d-87c3-2fab4eef67f0"},"vehicle_type_id":"4","last_reported":1713974934,"current_range_meters":6000,"station_id":"ce4bgk12rcd13ifvqbi0","pricing_plan_id":"cebpf4jnsgd1na2vs0mg"},{"bike_id":"7769e2bc-993b-4140-b371-62fc576485f4","system_id":"levelo_inurba_marseille","lat":43.296263,"lon":5.377094,"is_reserved":false,"is_disabled":false,"rental_uris":{"android":"levelo://app?vid=7769e2bc-993b-4140-b371-62fc576485f4","ios":"levelo://app?vid=7769e2bc-993b-4140-b371-62fc576485f4"},"vehicle_type_id":"4","last_reported":1713974934,"current_range_meters":13600,"station_id":"ce4bgi92rcd13ifvqb90","pricing_plan_id":"cebpf4jnsgd1na2vs0mg"},{"bike_id":"1cb6ce32-05fe-450d-80ce-017c8c552b3c","system_id":"levelo_inurba_marseille","lat":43.29553,"lon":5.37513,"is_reserved":false,"is_disabled":false,"rental_uris":{"android":"levelo://app?vid=1cb6ce32-05fe-450d-80ce-017c8c552b3c","ios":"levelo://app?vid=1cb6ce32-05fe-450d-80ce-017c8c552b3c"},"vehicle_type_id":"4","last_reported":1713974934,"current_range_meters":10000,"station_id":"ce4bgkp2rcd13ifvqbmg","pricing_plan_id":"cebpf4jnsgd1na2vs0mg"},{"bike_id":"b5989461-911a-4375-8628-31f932c98e33","system_id":"levelo_inurba_marseille","lat":43.296263,"lon":5.377094,"is_reserved":false,"is_disabled":false,"rental_uris":{"android":"levelo://app?vid=b5989461-911a-4375-8628-31f932c98e33","ios":"levelo://app?vid=b5989461-911a-4375-8628-31f932c98e33"},"vehicle_type_id":"4","last_reported":1713974934,"current_range_meters":17200,"station_id":"ce4bgi92rcd13ifvqb90","pricing_plan_id":"cebpf4jnsgd1na2vs0mg"},{"bike_id":"5c39b823-4ab4-4e82-989b-864d2c846dfd","system_id":"levelo_inurba_marseille","lat":43.29614,"lon":5.37733,"is_reserved":false,"is_disabled":false,"rental_uris":{"android":"levelo://app?vid=5c39b823-4ab4-4e82-989b-864d2c846dfd","ios":"levelo://app?vid=5c39b823-4ab4-4e82-989b-864d2c846dfd"},"vehicle_type_id":"4","last_reported":1713974934,"current_range_meters":8000,"station_id":"ce4bgi92rcd13ifvqb90","pricing_plan_id":"cebpf4jnsgd1na2vs0mg"},{"bike_id":"f52ffa1a-4a99-4534-b79c-31f30b7cedfb","system_id":"levelo_inurba_marseille","lat":43.295748,"lon":5.37522,"is_reserved":false,"is_disabled":false,"rental_uris":{"android":"levelo://app?vid=f52ffa1a-4a99-4534-b79c-31f30b7cedfb","ios":"levelo://app?vid=f52ffa1a-4a99-4534-b79c-31f30b7cedfb"},"vehicle_type_id":"4","last_reported":1713974934,"current_range_meters":24400,"station_id":"ce4bgh92rcd13ifvqb50","pricing_plan_id":"cebpf4jnsgd1na2vs0mg"},{"bike_id":"2f147b18-eff1-4ac8-a0d9-df1e3eeb6931","system_id":"levelo_inurba_marseille","lat":43.296074,"lon":5.377224,"is_reserved":false,"is_disabled":false,"rental_uris":{"android":"levelo://app?vid=2f147b18-eff1-4ac8-a0d9-df1e3eeb6931","ios":"levelo://app?vid=2f147b18-eff1-4ac8-a0d9-df1e3eeb6931"},"vehicle_type_id":"4","last_reported":1713974934,"current_range_meters":12400,"station_id":"ce4bgi92rcd13ifvqb90","pricing_plan_id":"cebpf4jnsgd1na2vs0mg"},{"bike_id":"4e64d402-0fd2-4235-adbd-632a0572bd0b","system_id":"levelo_inurba_marseille","lat":43.295483,"lon":5.375199,"is_reserved":false,"is_disabled":false,"rental_uris":{"android":"levelo://app?vid=4e64d402-0fd2-4235-adbd-632a0572bd0b","ios":"levelo://app?vid=4e64d402-0fd2-4235-adbd-632a0572bd0b"},"vehicle_type_id":"4","last_reported":1713974934,"current_range_meters":18800,"station_id":"ce4bgkp2rcd13ifvqbmg","pricing_plan_id":"cebpf4jnsgd1na2vs0mg"},{"bike_id":"5f1c17d7-407e-4001-85ef-67108e89bf79","system_id":"levelo_inurba_marseille","lat":43.296074,"lon":5.377355,"is_reserved":false,"is_disabled":false,"rental_uris":{"android":"levelo://app?vid=5f1c17d7-407e-4001-85ef-67108e89bf79","ios":"levelo://app?vid=5f1c17d7-407e-4001-85ef-67108e89bf79"},"vehicle_type_id":"4","last_reported":1713974934,"current_range_meters":24000,"station_id":"ce4bgi92rcd13ifvqb90","pricing_plan_id":"cebpf4jnsgd1na2vs0mg"},{"bike_id":"c0ce59a9-445e-4d57-8a5a-408d0cbbb30d","system_id":"levelo_inurba_marseille","lat":43.299707,"lon":5.384859,"is_reserved":false,"is_disabled":false,"rental_uris":{"android":"levelo://app?vid=c0ce59a9-445e-4d57-8a5a-408d0cbbb30d","ios":"levelo://app?vid=c0ce59a9-445e-4d57-8a5a-408d0cbbb30d"},"vehicle_type_id":"4","last_reported":1713974934,"current_range_meters":4400,"station_id":"ce4bgj92rcd13ifvqbd0","pricing_plan_id":"cebpf4jnsgd1na2vs0mg"},{"bike_id":"9d2c65ba-54a4-45bc-bde5-e8a56362a494","system_id":"levelo_inurba_marseille","lat":43.299707,"lon":5.384859,"is_reserved":false,"is_disabled":false,"rental_uris":{"android":"levelo://app?vid=9d2c65ba-54a4-45bc-bde5-e8a56362a494","ios":"levelo://app?vid=9d2c65ba-54a4-45bc-bde5-e8a56362a494"},"vehicle_type_id":"4","last_reported":1713974934,"current_range_meters":2800,"station_id":"ce4bgj92rcd13ifvqbd0","pricing_plan_id":"cebpf4jnsgd1na2vs0mg"},{"bike_id":"0b475d4a-461c-49e4-898b-d1107723aceb","system_id":"levelo_inurba_marseille","lat":43.299707,"lon":5.384859,"is_reserved":false,"is_disabled":false,"rental_uris":{"android":"levelo://app?vid=0b475d4a-461c-49e4-898b-d1107723aceb","ios":"levelo://app?vid=0b475d4a-461c-49e4-898b-d1107723aceb"},"vehicle_type_id":"4","last_reported":1713974934,"current_range_meters":16800,"station_id":"ce4bgj92rcd13ifvqbd0","pricing_plan_id":"cebpf4jnsgd1na2vs0mg"},{"bike_id":"7562122d-8e88-45f5-839a-79cf58f9025b","system_id":"levelo_inurba_marseille","lat":43.299707,"lon":5.384859,"is_reserved":false,"is_disabled":false,"rental_uris":{"android":"levelo://app?vid=7562122d-8e88-45f5-839a-79cf58f9025b","ios":"levelo://app?vid=7562122d-8e88-45f5-839a-79cf58f9025b"},"vehicle_type_id":"4","last_reported":1713974934,"current_range_meters":6000,"station_id":"ce4bgj92rcd13ifvqbd0","pricing_plan_id":"cebpf4jnsgd1na2vs0mg"},{"bike_id":"3df85dd7-9710-4039-b2fe-99aece6f56bc","system_id":"levelo_inurba_marseille","lat":43.299717,"lon":5.384845,"is_reserved":false,"is_disabled":false,"rental_uris":{"android":"levelo://app?vid=3df85dd7-9710-4039-b2fe-99aece6f56bc","ios":"levelo://app?vid=3df85dd7-9710-4039-b2fe-99aece6f56bc"},"vehicle_type_id":"4","last_reported":1713974934,"current_range_meters":3600,"station_id":"ce4bgj92rcd13ifvqbd0","pricing_plan_id":"cebpf4jnsgd1na2vs0mg"},{"bike_id":"289b0baa-6260-4ef5-b01a-209600a18b3f","system_id":"levelo_inurba_marseille","lat":43.29973,"lon":5.38493,"is_reserved":false,"is_disabled":false,"rental_uris":{"android":"levelo://app?vid=289b0baa-6260-4ef5-b01a-209600a18b3f","ios":"levelo://app?vid=289b0baa-6260-4ef5-b01a-209600a18b3f"},"vehicle_type_id":"4","last_reported":1713974934,"current_range_meters":28400,"station_id":"ce4bgj92rcd13ifvqbd0","pricing_plan_id":"cebpf4jnsgd1na2vs0mg"},{"bike_id":"e7bf1be5-f4cd-4307-bf62-a7a968ce1b29","system_id":"levelo_inurba_marseille","lat":43.299717,"lon":5.384845,"is_reserved":false,"is_disabled":false,"rental_uris":{"android":"levelo://app?vid=e7bf1be5-f4cd-4307-bf62-a7a968ce1b29","ios":"levelo://app?vid=e7bf1be5-f4cd-4307-bf62-a7a968ce1b29"},"vehicle_type_id":"4","last_reported":1713974934,"current_range_meters":16800,"station_id":"ce4bgj92rcd13ifvqbd0","pricing_plan_id":"cebpf4jnsgd1na2vs0mg"},{"bike_id":"219f5a31-cdf3-4b85-aec5-5d6a33ad5a60","system_id":"levelo_inurba_marseille","lat":43.29974,"lon":5.38498,"is_reserved":false,"is_disabled":false,"rental_uris":{"android":"levelo://app?vid=219f5a31-cdf3-4b85-aec5-5d6a33ad5a60","ios":"levelo://app?vid=219f5a31-cdf3-4b85-aec5-5d6a33ad5a60"},"vehicle_type_id":"4","last_reported":1713974934,"current_range_meters":8400,"station_id":"ce4bgj92rcd13ifvqbd0","pricing_plan_id":"cebpf4jnsgd1na2vs0mg"},{"bike_id":"1e836046-e8a9-4149-9dce-7885073f73cb","system_id":"levelo_inurba_marseille","lat":43.2901,"lon":5.381269,"is_reserved":false,"is_disabled":false,"rental_uris":{"android":"levelo://app?vid=1e836046-e8a9-4149-9dce-7885073f73cb","ios":"levelo://app?vid=1e836046-e8a9-4149-9dce-7885073f73cb"},"vehicle_type_id":"4","last_reported":1713974934,"current_range_meters":20400,"station_id":"ce4bh4p2rcd13ifvqe1g","pricing_plan_id":"cebpf4jnsgd1na2vs0mg"},{"bike_id":"3a52f4e0-d1c6-4ee1-9f58-5463720b6d76","system_id":"levelo_inurba_marseille","lat":43.29975,"lon":5.38503,"is_reserved":false,"is_disabled":false,"rental_uris":{"android":"levelo://app?vid=3a52f4e0-d1c6-4ee1-9f58-5463720b6d76","ios":"levelo://app?vid=3a52f4e0-d1c6-4ee1-9f58-5463720b6d76"},"vehicle_type_id":"4","last_reported":1713974934,"current_range_meters":29600,"station_id":"ce4bgj92rcd13ifvqbd0","pricing_plan_id":"cebpf4jnsgd1na2vs0mg"},{"bike_id":"62d3a2bf-94e5-4058-a042-61c2a28548a9","system_id":"levelo_inurba_marseille","lat":43.295279,"lon":5.375048,"is_reserved":false,"is_disabled":false,"rental_uris":{"android":"levelo://app?vid=62d3a2bf-94e5-4058-a042-61c2a28548a9","ios":"levelo://app?vid=62d3a2bf-94e5-4058-a042-61c2a28548a9"},"vehicle_type_id":"4","last_reported":1713974934,"current_range_meters":9600,"station_id":"ce4bgkp2rcd13ifvqbmg","pricing_plan_id":"cebpf4jnsgd1na2vs0mg"},{"bike_id":"ac0b5b64-5d0b-4c65-864e-e844410197a0","system_id":"levelo_inurba_marseille","lat":43.299717,"lon":5.384845,"is_reserved":false,"is_disabled":false,"rental_uris":{"android":"levelo://app?vid=ac0b5b64-5d0b-4c65-864e-e844410197a0","ios":"levelo://app?vid=ac0b5b64-5d0b-4c65-864e-e844410197a0"},"vehicle_type_id":"4","last_reported":1713974934,"current_range_meters":19600,"station_id":"ce4bgj92rcd13ifvqbd0","pricing_plan_id":"cebpf4jnsgd1na2vs0mg"},{"bike_id":"ac6689f7-5e5e-4d2f-b2f9-4f10ef08e711","system_id":"levelo_inurba_marseille","lat":43.299717,"lon":5.384845,"is_reserved":false,"is_disabled":false,"rental_uris":{"android":"levelo://app?vid=ac6689f7-5e5e-4d2f-b2f9-4f10ef08e711","ios":"levelo://app?vid=ac6689f7-5e5e-4d2f-b2f9-4f10ef08e711"},"vehicle_type_id":"4","last_reported":1713974934,"current_range_meters":22400,"station_id":"ce4bgj92rcd13ifvqbd0","pricing_plan_id":"cebpf4jnsgd1na2vs0mg"},{"bike_id":"da29cbfe-75db-47b2-9dc9-f5fcc8614c69","system_id":"levelo_inurba_marseille","lat":43.299717,"lon":5.384845,"is_reserved":false,"is_disabled":false,"rental_uris":{"android":"levelo://app?vid=da29cbfe-75db-47b2-9dc9-f5fcc8614c69","ios":"levelo://app?vid=da29cbfe-75db-47b2-9dc9-f5fcc8614c69"},"vehicle_type_id":"4","last_reported":1713974934,"current_range_meters":30000,"station_id":"ce4bgj92rcd13ifvqbd0","pricing_plan_id":"cebpf4jnsgd1na2vs0mg"},{"bike_id":"df8c8ade-0f80-4d8e-a010-f4986b3bcbdf","system_id":"levelo_inurba_marseille","lat":43.299717,"lon":5.384845,"is_reserved":false,"is_disabled":false,"rental_uris":{"android":"levelo://app?vid=df8c8ade-0f80-4d8e-a010-f4986b3bcbdf","ios":"levelo://app?vid=df8c8ade-0f80-4d8e-a010-f4986b3bcbdf"},"vehicle_type_id":"4","last_reported":1713974934,"current_range_meters":10000,"station_id":"ce4bgj92rcd13ifvqbd0","pricing_plan_id":"cebpf4jnsgd1na2vs0mg"},{"bike_id":"48c27deb-d264-4e05-af13-9de53cab2214","system_id":"levelo_inurba_marseille","lat":43.300319,"lon":5.385954,"is_reserved":false,"is_disabled":false,"rental_uris":{"android":"levelo://app?vid=48c27deb-d264-4e05-af13-9de53cab2214","ios":"levelo://app?vid=48c27deb-d264-4e05-af13-9de53cab2214"},"vehicle_type_id":"4","last_reported":1713974934,"current_range_meters":4800,"station_id":"ce4bgj92rcd13ifvqbd0","pricing_plan_id":"cebpf4jnsgd1na2vs0mg"},{"bike_id":"19e66640-89f6-439d-93d0-d48228eac6cb","system_id":"levelo_inurba_marseille","lat":43.295,"lon":5.375122,"is_reserved":false,"is_disabled":false,"rental_uris":{"android":"levelo://app?vid=19e66640-89f6-439d-93d0-d48228eac6cb","ios":"levelo://app?vid=19e66640-89f6-439d-93d0-d48228eac6cb"},"vehicle_type_id":"4","last_reported":1713974934,"current_range_meters":25600,"station_id":"ce4bgkp2rcd13ifvqbmg","pricing_plan_id":"cebpf4jnsgd1na2vs0mg"},{"bike_id":"508597bb-2c5f-42cc-8555-925ccadf2f1f","system_id":"levelo_inurba_marseille","lat":43.32367,"lon":5.388836,"is_reserved":false,"is_disabled":false,"rental_uris":{"android":"levelo://app?vid=508597bb-2c5f-42cc-8555-925ccadf2f1f","ios":"levelo://app?vid=508597bb-2c5f-42cc-8555-925ccadf2f1f"},"vehicle_type_id":"4","last_reported":1713974934,"current_range_meters":4800,"station_id":"ce4bhqp2rcd13ifvqhog","pricing_plan_id":"cebpf4jnsgd1na2vs0mg"},{"bike_id":"a427cf0f-fbdf-4374-bc50-c2d6b9d794ea","system_id":"levelo_inurba_marseille","lat":43.323464,"lon":5.406297,"is_reserved":false,"is_disabled":false,"rental_uris":{"android":"levelo://app?vid=a427cf0f-fbdf-4374-bc50-c2d6b9d794ea","ios":"levelo://app?vid=a427cf0f-fbdf-4374-bc50-c2d6b9d794ea"},"vehicle_type_id":"4","last_reported":1713974934,"current_range_meters":2000,"station_id":"ce4bhq92rcd13ifvqhjg","pricing_plan_id":"cebpf4jnsgd1na2vs0mg"},{"bike_id":"74633aec-d2b7-43f3-93d6-ccedcfaca046","system_id":"levelo_inurba_marseille","lat":43.29601,"lon":5.381084,"is_reserved":false,"is_disabled":false,"rental_uris":{"android":"levelo://app?vid=74633aec-d2b7-43f3-93d6-ccedcfaca046","ios":"levelo://app?vid=74633aec-d2b7-43f3-93d6-ccedcfaca046"},"vehicle_type_id":"4","last_reported":1713974934,"current_range_meters":22400,"station_id":"ce4bgl12rcd13ifvqbo0","pricing_plan_id":"cebpf4jnsgd1na2vs0mg"},{"bike_id":"ea0e4a66-9cb4-49c0-bc72-efcd584859a2","system_id":"levelo_inurba_marseille","lat":43.295169,"lon":5.390426,"is_reserved":false,"is_disabled":false,"rental_uris":{"android":"levelo://app?vid=ea0e4a66-9cb4-49c0-bc72-efcd584859a2","ios":"levelo://app?vid=ea0e4a66-9cb4-49c0-bc72-efcd584859a2"},"vehicle_type_id":"4","last_reported":1713974934,"current_range_meters":9200,"station_id":"ce4bh3p2rcd13ifvqdp0","pricing_plan_id":"cebpf4jnsgd1na2vs0mg"},{"bike_id":"26ec138a-0825-4657-81d7-fe225448c729","system_id":"levelo_inurba_marseille","lat":43.311125,"lon":5.377624,"is_reserved":false,"is_disabled":false,"rental_uris":{"android":"levelo://app?vid=26ec138a-0825-4657-81d7-fe225448c729","ios":"levelo://app?vid=26ec138a-0825-4657-81d7-fe225448c729"},"vehicle_type_id":"4","last_reported":1713974934,"current_range_meters":23600,"station_id":"ce4bgt92rcd13ifvqcg0","pricing_plan_id":"cebpf4jnsgd1na2vs0mg"},{"bike_id":"2c45533d-824e-49fb-8456-88f71d8c99a1","system_id":"levelo_inurba_marseille","lat":43.293067,"lon":5.371668,"is_reserved":false,"is_disabled":false,"rental_uris":{"android":"levelo://app?vid=2c45533d-824e-49fb-8456-88f71d8c99a1","ios":"levelo://app?vid=2c45533d-824e-49fb-8456-88f71d8c99a1"},"vehicle_type_id":"4","last_reported":1713974934,"current_range_meters":18800,"station_id":"ce4bgh92rcd13ifvqb40","pricing_plan_id":"cebpf4jnsgd1na2vs0mg"},{"bike_id":"79b7ae42-2469-41cc-b049-d2e41181d368","system_id":"levelo_inurba_marseille","lat":43.293259,"lon":5.371586,"is_reserved":false,"is_disabled":false,"rental_uris":{"android":"levelo://app?vid=79b7ae42-2469-41cc-b049-d2e41181d368","ios":"levelo://app?vid=79b7ae42-2469-41cc-b049-d2e41181d368"},"vehicle_type_id":"4","last_reported":1713974934,"current_range_meters":8800,"station_id":"ce4bgh92rcd13ifvqb40","pricing_plan_id":"cebpf4jnsgd1na2vs0mg"},{"bike_id":"d63c03b9-edc0-43bd-843d-91f0556eed6a","system_id":"levelo_inurba_marseille","lat":43.293259,"lon":5.371586,"is_reserved":false,"is_disabled":false,"rental_uris":{"android":"levelo://app?vid=d63c03b9-edc0-43bd-843d-91f0556eed6a","ios":"levelo://app?vid=d63c03b9-edc0-43bd-843d-91f0556eed6a"},"vehicle_type_id":"4","last_reported":1713974934,"current_range_meters":26000,"station_id":"ce4bgh92rcd13ifvqb40","pricing_plan_id":"cebpf4jnsgd1na2vs0mg"},{"bike_id":"e8f5e7cf-038a-4fca-af4b-3f807bea875f","system_id":"levelo_inurba_marseille","lat":43.29304,"lon":5.37164,"is_reserved":false,"is_disabled":false,"rental_uris":{"android":"levelo://app?vid=e8f5e7cf-038a-4fca-af4b-3f807bea875f","ios":"levelo://app?vid=e8f5e7cf-038a-4fca-af4b-3f807bea875f"},"vehicle_type_id":"4","last_reported":1713974934,"current_range_meters":9600,"station_id":"ce4bgh92rcd13ifvqb40","pricing_plan_id":"cebpf4jnsgd1na2vs0mg"},{"bike_id":"a447b51d-b3b8-4f3e-bee3-522c1d15783b","system_id":"levelo_inurba_marseille","lat":43.292749,"lon":5.368402,"is_reserved":false,"is_disabled":false,"rental_uris":{"android":"levelo://app?vid=a447b51d-b3b8-4f3e-bee3-522c1d15783b","ios":"levelo://app?vid=a447b51d-b3b8-4f3e-bee3-522c1d15783b"},"vehicle_type_id":"4","last_reported":1713974934,"current_range_meters":21200,"station_id":"ce4bhbp2rcd13ifvqesg","pricing_plan_id":"cebpf4jnsgd1na2vs0mg"},{"bike_id":"3190e011-9d54-48c3-8df4-24c375041388","system_id":"levelo_inurba_marseille","lat":43.292749,"lon":5.368402,"is_reserved":false,"is_disabled":false,"rental_uris":{"android":"levelo://app?vid=3190e011-9d54-48c3-8df4-24c375041388","ios":"levelo://app?vid=3190e011-9d54-48c3-8df4-24c375041388"},"vehicle_type_id":"4","last_reported":1713974934,"current_range_meters":23600,"station_id":"ce4bhbp2rcd13ifvqesg","pricing_plan_id":"cebpf4jnsgd1na2vs0mg"},{"bike_id":"3c9e5963-38f3-4470-8a61-0e6c504dc8ce","system_id":"levelo_inurba_marseille","lat":43.293009,"lon":5.374584,"is_reserved":false,"is_disabled":false,"rental_uris":{"android":"levelo://app?vid=3c9e5963-38f3-4470-8a61-0e6c504dc8ce","ios":"levelo://app?vid=3c9e5963-38f3-4470-8a61-0e6c504dc8ce"},"vehicle_type_id":"4","last_reported":1713974934,"current_range_meters":11600,"station_id":"ce4bgi12rcd13ifvqb70","pricing_plan_id":"cebpf4jnsgd1na2vs0mg"},{"bike_id":"a2a55b7d-1e67-40e4-a821-f033857ef65a","system_id":"levelo_inurba_marseille","lat":43.305994,"lon":5.393687,"is_reserved":false,"is_disabled":false,"rental_uris":{"android":"levelo://app?vid=a2a55b7d-1e67-40e4-a821-f033857ef65a","ios":"levelo://app?vid=a2a55b7d-1e67-40e4-a821-f033857ef65a"},"vehicle_type_id":"4","last_reported":1713974934,"current_range_meters":27200,"station_id":"ce4bh0p2rcd13ifvqd80","pricing_plan_id":"cebpf4jnsgd1na2vs0mg"},{"bike_id":"44af9386-2ece-4fe4-9c97-697542e985f8","system_id":"levelo_inurba_marseille","lat":43.293009,"lon":5.374584,"is_reserved":false,"is_disabled":false,"rental_uris":{"android":"levelo://app?vid=44af9386-2ece-4fe4-9c97-697542e985f8","ios":"levelo://app?vid=44af9386-2ece-4fe4-9c97-697542e985f8"},"vehicle_type_id":"4","last_reported":1713974934,"current_range_meters":10000,"station_id":"ce4bgi12rcd13ifvqb70","pricing_plan_id":"cebpf4jnsgd1na2vs0mg"},{"bike_id":"dde141ef-cd23-41e1-857a-3e782ad42f0d","system_id":"levelo_inurba_marseille","lat":43.293009,"lon":5.374584,"is_reserved":false,"is_disabled":false,"rental_uris":{"android":"levelo://app?vid=dde141ef-cd23-41e1-857a-3e782ad42f0d","ios":"levelo://app?vid=dde141ef-cd23-41e1-857a-3e782ad42f0d"},"vehicle_type_id":"4","last_reported":1713974934,"current_range_meters":25600,"station_id":"ce4bgi12rcd13ifvqb70","pricing_plan_id":"cebpf4jnsgd1na2vs0mg"},{"bike_id":"6fe45837-1caf-4b36-9451-6bb08740f631","system_id":"levelo_inurba_marseille","lat":43.293009,"lon":5.374584,"is_reserved":false,"is_disabled":false,"rental_uris":{"android":"levelo://app?vid=6fe45837-1caf-4b36-9451-6bb08740f631","ios":"levelo://app?vid=6fe45837-1caf-4b36-9451-6bb08740f631"},"vehicle_type_id":"4","last_reported":1713974934,"current_range_meters":27600,"station_id":"ce4bgi12rcd13ifvqb70","pricing_plan_id":"cebpf4jnsgd1na2vs0mg"},{"bike_id":"89d6ea35-a9bf-436c-a585-615ffa92d8eb","system_id":"levelo_inurba_marseille","lat":43.293009,"lon":5.374584,"is_reserved":false,"is_disabled":false,"rental_uris":{"android":"levelo://app?vid=89d6ea35-a9bf-436c-a585-615ffa92d8eb","ios":"levelo://app?vid=89d6ea35-a9bf-436c-a585-615ffa92d8eb"},"vehicle_type_id":"4","last_reported":1713974934,"current_range_meters":29600,"station_id":"ce4bgi12rcd13ifvqb70","pricing_plan_id":"cebpf4jnsgd1na2vs0mg"},{"bike_id":"c493ca5a-6108-4339-8311-de0bdc053a86","system_id":"levelo_inurba_marseille","lat":43.305994,"lon":5.393687,"is_reserved":false,"is_disabled":false,"rental_uris":{"android":"levelo://app?vid=c493ca5a-6108-4339-8311-de0bdc053a86","ios":"levelo://app?vid=c493ca5a-6108-4339-8311-de0bdc053a86"},"vehicle_type_id":"4","last_reported":1713974934,"current_range_meters":12000,"station_id":"ce4bh0p2rcd13ifvqd80","pricing_plan_id":"cebpf4jnsgd1na2vs0mg"},{"bike_id":"d5282069-3d86-497f-b630-ebe850576813","system_id":"levelo_inurba_marseille","lat":43.302992,"lon":5.392136,"is_reserved":false,"is_disabled":false,"rental_uris":{"android":"levelo://app?vid=d5282069-3d86-497f-b630-ebe850576813","ios":"levelo://app?vid=d5282069-3d86-497f-b630-ebe850576813"},"vehicle_type_id":"4","last_reported":1713974934,"current_range_meters":2800,"station_id":"ce4bgkh2rcd13ifvqbk0","pricing_plan_id":"cebpf4jnsgd1na2vs0mg"},{"bike_id":"c46f1244-5808-40f0-96ac-c4c2a991f0ec","system_id":"levelo_inurba_marseille","lat":43.303002,"lon":5.392142,"is_reserved":false,"is_disabled":false,"rental_uris":{"android":"levelo://app?vid=c46f1244-5808-40f0-96ac-c4c2a991f0ec","ios":"levelo://app?vid=c46f1244-5808-40f0-96ac-c4c2a991f0ec"},"vehicle_type_id":"4","last_reported":1713974934,"current_range_meters":3600,"station_id":"ce4bgkh2rcd13ifvqbk0","pricing_plan_id":"cebpf4jnsgd1na2vs0mg"},{"bike_id":"2dee5dff-725a-4e9b-8f8f-7a199e654d3f","system_id":"levelo_inurba_marseille","lat":43.302992,"lon":5.392136,"is_reserved":false,"is_disabled":false,"rental_uris":{"android":"levelo://app?vid=2dee5dff-725a-4e9b-8f8f-7a199e654d3f","ios":"levelo://app?vid=2dee5dff-725a-4e9b-8f8f-7a199e654d3f"},"vehicle_type_id":"4","last_reported":1713974934,"current_range_meters":23600,"station_id":"ce4bgkh2rcd13ifvqbk0","pricing_plan_id":"cebpf4jnsgd1na2vs0mg"},{"bike_id":"6424ef62-ab43-40b5-9403-637fc82732dc","system_id":"levelo_inurba_marseille","lat":43.302992,"lon":5.392136,"is_reserved":false,"is_disabled":false,"rental_uris":{"android":"levelo://app?vid=6424ef62-ab43-40b5-9403-637fc82732dc","ios":"levelo://app?vid=6424ef62-ab43-40b5-9403-637fc82732dc"},"vehicle_type_id":"4","last_reported":1713974934,"current_range_meters":30800,"station_id":"ce4bgkh2rcd13ifvqbk0","pricing_plan_id":"cebpf4jnsgd1na2vs0mg"},{"bike_id":"635f1242-84ef-4418-bcb4-ced3df25fd3f","system_id":"levelo_inurba_marseille","lat":43.303002,"lon":5.392142,"is_reserved":false,"is_disabled":false,"rental_uris":{"android":"levelo://app?vid=635f1242-84ef-4418-bcb4-ced3df25fd3f","ios":"levelo://app?vid=635f1242-84ef-4418-bcb4-ced3df25fd3f"},"vehicle_type_id":"4","last_reported":1713974934,"current_range_meters":10000,"station_id":"ce4bgkh2rcd13ifvqbk0","pricing_plan_id":"cebpf4jnsgd1na2vs0mg"},{"bike_id":"87d4ac53-ed83-4ae6-8f22-edb9759353e1","system_id":"levelo_inurba_marseille","lat":43.2936,"lon":5.37835,"is_reserved":false,"is_disabled":false,"rental_uris":{"android":"levelo://app?vid=87d4ac53-ed83-4ae6-8f22-edb9759353e1","ios":"levelo://app?vid=87d4ac53-ed83-4ae6-8f22-edb9759353e1"},"vehicle_type_id":"4","last_reported":1713974934,"current_range_meters":17200,"station_id":"ce4bgjh2rcd13ifvqbf0","pricing_plan_id":"cebpf4jnsgd1na2vs0mg"},{"bike_id":"4baa277d-49cb-44fb-a91c-22718c72f30f","system_id":"levelo_inurba_marseille","lat":43.302992,"lon":5.392136,"is_reserved":false,"is_disabled":false,"rental_uris":{"android":"levelo://app?vid=4baa277d-49cb-44fb-a91c-22718c72f30f","ios":"levelo://app?vid=4baa277d-49cb-44fb-a91c-22718c72f30f"},"vehicle_type_id":"4","last_reported":1713974934,"current_range_meters":17200,"station_id":"ce4bgkh2rcd13ifvqbk0","pricing_plan_id":"cebpf4jnsgd1na2vs0mg"},{"bike_id":"57629e9d-30e0-4473-b60e-ab3eb73c7adb","system_id":"levelo_inurba_marseille","lat":43.302759,"lon":5.400793,"is_reserved":false,"is_disabled":false,"rental_uris":{"android":"levelo://app?vid=57629e9d-30e0-4473-b60e-ab3eb73c7adb","ios":"levelo://app?vid=57629e9d-30e0-4473-b60e-ab3eb73c7adb"},"vehicle_type_id":"4","last_reported":1713974934,"current_range_meters":8400,"station_id":"ce4bgvh2rcd13ifvqcs0","pricing_plan_id":"cebpf4jnsgd1na2vs0mg"},{"bike_id":"64a875f7-1257-415d-a068-66636ed186ea","system_id":"levelo_inurba_marseille","lat":43.300852,"lon":5.390859,"is_reserved":false,"is_disabled":false,"rental_uris":{"android":"levelo://app?vid=64a875f7-1257-415d-a068-66636ed186ea","ios":"levelo://app?vid=64a875f7-1257-415d-a068-66636ed186ea"},"vehicle_type_id":"4","last_reported":1713974934,"current_range_meters":23600,"station_id":"ce4bh192rcd13ifvqdb0","pricing_plan_id":"cebpf4jnsgd1na2vs0mg"},{"bike_id":"c966738e-de65-42ac-b01e-e7a0af8a0099","system_id":"levelo_inurba_marseille","lat":43.300912,"lon":5.390778,"is_reserved":false,"is_disabled":false,"rental_uris":{"android":"levelo://app?vid=c966738e-de65-42ac-b01e-e7a0af8a0099","ios":"levelo://app?vid=c966738e-de65-42ac-b01e-e7a0af8a0099"},"vehicle_type_id":"4","last_reported":1713974934,"current_range_meters":20000,"station_id":"ce4bh192rcd13ifvqdb0","pricing_plan_id":"cebpf4jnsgd1na2vs0mg"},{"bike_id":"6b1dccdf-643c-42aa-830b-eda65405fb5d","system_id":"levelo_inurba_marseille","lat":43.292311,"lon":5.360731,"is_reserved":false,"is_disabled":false,"rental_uris":{"android":"levelo://app?vid=6b1dccdf-643c-42aa-830b-eda65405fb5d","ios":"levelo://app?vid=6b1dccdf-643c-42aa-830b-eda65405fb5d"},"vehicle_type_id":"4","last_reported":1713974934,"current_range_meters":30400,"station_id":"ce4bhbh2rcd13ifvqeqg","pricing_plan_id":"cebpf4jnsgd1na2vs0mg"},{"bike_id":"05d20577-2776-4720-ad26-7bfa26a2ba50","system_id":"levelo_inurba_marseille","lat":43.300852,"lon":5.390859,"is_reserved":false,"is_disabled":false,"rental_uris":{"android":"levelo://app?vid=05d20577-2776-4720-ad26-7bfa26a2ba50","ios":"levelo://app?vid=05d20577-2776-4720-ad26-7bfa26a2ba50"},"vehicle_type_id":"4","last_reported":1713974934,"current_range_meters":12400,"station_id":"ce4bh192rcd13ifvqdb0","pricing_plan_id":"cebpf4jnsgd1na2vs0mg"},{"bike_id":"2cdd345f-67e7-4b70-8920-299185914c8e","system_id":"levelo_inurba_marseille","lat":43.300852,"lon":5.390859,"is_reserved":false,"is_disabled":false,"rental_uris":{"android":"levelo://app?vid=2cdd345f-67e7-4b70-8920-299185914c8e","ios":"levelo://app?vid=2cdd345f-67e7-4b70-8920-299185914c8e"},"vehicle_type_id":"4","last_reported":1713974934,"current_range_meters":23200,"station_id":"ce4bh192rcd13ifvqdb0","pricing_plan_id":"cebpf4jnsgd1na2vs0mg"},{"bike_id":"86d14d78-bb8b-47c5-aaf7-e9066dfedd6b","system_id":"levelo_inurba_marseille","lat":43.30085,"lon":5.390856,"is_reserved":false,"is_disabled":false,"rental_uris":{"android":"levelo://app?vid=86d14d78-bb8b-47c5-aaf7-e9066dfedd6b","ios":"levelo://app?vid=86d14d78-bb8b-47c5-aaf7-e9066dfedd6b"},"vehicle_type_id":"4","last_reported":1713974934,"current_range_meters":16400,"station_id":"ce4bh192rcd13ifvqdb0","pricing_plan_id":"cebpf4jnsgd1na2vs0mg"},{"bike_id":"bd2de9f1-76eb-4954-9f42-81edbb9d81df","system_id":"levelo_inurba_marseille","lat":43.30085,"lon":5.390856,"is_reserved":false,"is_disabled":false,"rental_uris":{"android":"levelo://app?vid=bd2de9f1-76eb-4954-9f42-81edbb9d81df","ios":"levelo://app?vid=bd2de9f1-76eb-4954-9f42-81edbb9d81df"},"vehicle_type_id":"4","last_reported":1713974934,"current_range_meters":0,"station_id":"ce4bh192rcd13ifvqdb0","pricing_plan_id":"cebpf4jnsgd1na2vs0mg"},{"bike_id":"1c9b5e4a-3f8f-47fd-a3d2-49ced7fcc7ae","system_id":"levelo_inurba_marseille","lat":43.29892,"lon":5.38893,"is_reserved":false,"is_disabled":false,"rental_uris":{"android":"levelo://app?vid=1c9b5e4a-3f8f-47fd-a3d2-49ced7fcc7ae","ios":"levelo://app?vid=1c9b5e4a-3f8f-47fd-a3d2-49ced7fcc7ae"},"vehicle_type_id":"4","last_reported":1713974934,"current_range_meters":13200,"station_id":"ce4bh392rcd13ifvqdl0","pricing_plan_id":"cebpf4jnsgd1na2vs0mg"},{"bike_id":"41afca38-9d46-4e4d-b01f-aa4737117e82","system_id":"levelo_inurba_marseille","lat":43.29892,"lon":5.38896,"is_reserved":false,"is_disabled":false,"rental_uris":{"android":"levelo://app?vid=41afca38-9d46-4e4d-b01f-aa4737117e82","ios":"levelo://app?vid=41afca38-9d46-4e4d-b01f-aa4737117e82"},"vehicle_type_id":"4","last_reported":1713974934,"current_range_meters":14000,"station_id":"ce4bh392rcd13ifvqdl0","pricing_plan_id":"cebpf4jnsgd1na2vs0mg"},{"bike_id":"11119918-b667-46d4-b33f-18eb669e2c48","system_id":"levelo_inurba_marseille","lat":43.30085,"lon":5.390856,"is_reserved":false,"is_disabled":false,"rental_uris":{"android":"levelo://app?vid=11119918-b667-46d4-b33f-18eb669e2c48","ios":"levelo://app?vid=11119918-b667-46d4-b33f-18eb669e2c48"},"vehicle_type_id":"4","last_reported":1713974934,"current_range_meters":22800,"station_id":"ce4bh192rcd13ifvqdb0","pricing_plan_id":"cebpf4jnsgd1na2vs0mg"},{"bike_id":"4a33c082-d2ee-4532-9af3-1d1eb854d9ee","system_id":"levelo_inurba_marseille","lat":43.291671,"lon":5.371575,"is_reserved":false,"is_disabled":false,"rental_uris":{"android":"levelo://app?vid=4a33c082-d2ee-4532-9af3-1d1eb854d9ee","ios":"levelo://app?vid=4a33c082-d2ee-4532-9af3-1d1eb854d9ee"},"vehicle_type_id":"4","last_reported":1713974934,"current_range_meters":9200,"station_id":"ce4bha92rcd13ifvqeh0","pricing_plan_id":"cebpf4jnsgd1na2vs0mg"},{"bike_id":"3c956c24-d10a-4f5b-9ffd-3bf9297db600","system_id":"levelo_inurba_marseille","lat":43.298883,"lon":5.38904,"is_reserved":false,"is_disabled":false,"rental_uris":{"android":"levelo://app?vid=3c956c24-d10a-4f5b-9ffd-3bf9297db600","ios":"levelo://app?vid=3c956c24-d10a-4f5b-9ffd-3bf9297db600"},"vehicle_type_id":"4","last_reported":1713974934,"current_range_meters":15200,"station_id":"ce4bh392rcd13ifvqdl0","pricing_plan_id":"cebpf4jnsgd1na2vs0mg"},{"bike_id":"98a43146-e9fe-4468-a3df-2f39f959fae5","system_id":"levelo_inurba_marseille","lat":43.298764,"lon":5.388973,"is_reserved":false,"is_disabled":false,"rental_uris":{"android":"levelo://app?vid=98a43146-e9fe-4468-a3df-2f39f959fae5","ios":"levelo://app?vid=98a43146-e9fe-4468-a3df-2f39f959fae5"},"vehicle_type_id":"4","last_reported":1713974934,"current_range_meters":16000,"station_id":"ce4bh392rcd13ifvqdl0","pricing_plan_id":"cebpf4jnsgd1na2vs0mg"},{"bike_id":"0b28db4e-3c13-4c1a-a60d-27e32cff702e","system_id":"levelo_inurba_marseille","lat":43.291671,"lon":5.371575,"is_reserved":false,"is_disabled":false,"rental_uris":{"android":"levelo://app?vid=0b28db4e-3c13-4c1a-a60d-27e32cff702e","ios":"levelo://app?vid=0b28db4e-3c13-4c1a-a60d-27e32cff702e"},"vehicle_type_id":"4","last_reported":1713974934,"current_range_meters":20400,"station_id":"ce4bha92rcd13ifvqeh0","pricing_plan_id":"cebpf4jnsgd1na2vs0mg"},{"bike_id":"d7868c54-9dee-44a1-b6e4-d023ef3937f0","system_id":"levelo_inurba_marseille","lat":43.291671,"lon":5.371575,"is_reserved":false,"is_disabled":false,"rental_uris":{"android":"levelo://app?vid=d7868c54-9dee-44a1-b6e4-d023ef3937f0","ios":"levelo://app?vid=d7868c54-9dee-44a1-b6e4-d023ef3937f0"},"vehicle_type_id":"4","last_reported":1713974934,"current_range_meters":14800,"station_id":"ce4bha92rcd13ifvqeh0","pricing_plan_id":"cebpf4jnsgd1na2vs0mg"},{"bike_id":"c7021719-7316-4037-908e-62d6cfd26306","system_id":"levelo_inurba_marseille","lat":43.29883,"lon":5.38903,"is_reserved":false,"is_disabled":false,"rental_uris":{"android":"levelo://app?vid=c7021719-7316-4037-908e-62d6cfd26306","ios":"levelo://app?vid=c7021719-7316-4037-908e-62d6cfd26306"},"vehicle_type_id":"4","last_reported":1713974934,"current_range_meters":4000,"station_id":"ce4bh392rcd13ifvqdl0","pricing_plan_id":"cebpf4jnsgd1na2vs0mg"},{"bike_id":"701514b7-d2f4-4e5d-bb4f-b52d5dc44dd6","system_id":"levelo_inurba_marseille","lat":43.292577,"lon":5.376229,"is_reserved":false,"is_disabled":false,"rental_uris":{"android":"levelo://app?vid=701514b7-d2f4-4e5d-bb4f-b52d5dc44dd6","ios":"levelo://app?vid=701514b7-d2f4-4e5d-bb4f-b52d5dc44dd6"},"vehicle_type_id":"4","last_reported":1713974934,"current_range_meters":24800,"station_id":"","pricing_plan_id":"cebpf4jnsgd1na2vs0mg"},{"bike_id":"e4a2f833-d1b7-49a7-94e9-386f8d2235ee","system_id":"levelo_inurba_marseille","lat":43.29885,"lon":5.38907,"is_reserved":false,"is_disabled":false,"rental_uris":{"android":"levelo://app?vid=e4a2f833-d1b7-49a7-94e9-386f8d2235ee","ios":"levelo://app?vid=e4a2f833-d1b7-49a7-94e9-386f8d2235ee"},"vehicle_type_id":"4","last_reported":1713974934,"current_range_meters":21600,"station_id":"ce4bh392rcd13ifvqdl0","pricing_plan_id":"cebpf4jnsgd1na2vs0mg"},{"bike_id":"990af2e8-9d6a-43aa-a3d6-3913ffec3f4a","system_id":"levelo_inurba_marseille","lat":43.291671,"lon":5.371575,"is_reserved":false,"is_disabled":false,"rental_uris":{"android":"levelo://app?vid=990af2e8-9d6a-43aa-a3d6-3913ffec3f4a","ios":"levelo://app?vid=990af2e8-9d6a-43aa-a3d6-3913ffec3f4a"},"vehicle_type_id":"4","last_reported":1713974934,"current_range_meters":29200,"station_id":"ce4bha92rcd13ifvqeh0","pricing_plan_id":"cebpf4jnsgd1na2vs0mg"},{"bike_id":"ba186270-3020-46ff-8718-464d2fbeb48b","system_id":"levelo_inurba_marseille","lat":43.291671,"lon":5.371575,"is_reserved":false,"is_disabled":false,"rental_uris":{"android":"levelo://app?vid=ba186270-3020-46ff-8718-464d2fbeb48b","ios":"levelo://app?vid=ba186270-3020-46ff-8718-464d2fbeb48b"},"vehicle_type_id":"4","last_reported":1713974934,"current_range_meters":15200,"station_id":"ce4bha92rcd13ifvqeh0","pricing_plan_id":"cebpf4jnsgd1na2vs0mg"},{"bike_id":"3abefe89-f5a0-4803-a466-95ddc2cf9b0a","system_id":"levelo_inurba_marseille","lat":43.29874,"lon":5.38904,"is_reserved":false,"is_disabled":false,"rental_uris":{"android":"levelo://app?vid=3abefe89-f5a0-4803-a466-95ddc2cf9b0a","ios":"levelo://app?vid=3abefe89-f5a0-4803-a466-95ddc2cf9b0a"},"vehicle_type_id":"4","last_reported":1713974934,"current_range_meters":11200,"station_id":"ce4bh392rcd13ifvqdl0","pricing_plan_id":"cebpf4jnsgd1na2vs0mg"},{"bike_id":"cdf133bd-a3f4-4c6a-80a9-af52f2f5956b","system_id":"levelo_inurba_marseille","lat":43.291671,"lon":5.371575,"is_reserved":false,"is_disabled":false,"rental_uris":{"android":"levelo://app?vid=cdf133bd-a3f4-4c6a-80a9-af52f2f5956b","ios":"levelo://app?vid=cdf133bd-a3f4-4c6a-80a9-af52f2f5956b"},"vehicle_type_id":"4","last_reported":1713974934,"current_range_meters":22400,"station_id":"ce4bha92rcd13ifvqeh0","pricing_plan_id":"cebpf4jnsgd1na2vs0mg"},{"bike_id":"e2397925-7676-4692-8901-d440c077a4c9","system_id":"levelo_inurba_marseille","lat":43.309038,"lon":5.396546,"is_reserved":false,"is_disabled":false,"rental_uris":{"android":"levelo://app?vid=e2397925-7676-4692-8901-d440c077a4c9","ios":"levelo://app?vid=e2397925-7676-4692-8901-d440c077a4c9"},"vehicle_type_id":"4","last_reported":1713974934,"current_range_meters":31600,"station_id":"ce4bh012rcd13ifvqcv0","pricing_plan_id":"cebpf4jnsgd1na2vs0mg"},{"bike_id":"0b90223a-e9b8-4bcc-93b5-87b3d800070e","system_id":"levelo_inurba_marseille","lat":43.309047,"lon":5.396551,"is_reserved":false,"is_disabled":false,"rental_uris":{"android":"levelo://app?vid=0b90223a-e9b8-4bcc-93b5-87b3d800070e","ios":"levelo://app?vid=0b90223a-e9b8-4bcc-93b5-87b3d800070e"},"vehicle_type_id":"4","last_reported":1713974934,"current_range_meters":16400,"station_id":"ce4bh012rcd13ifvqcv0","pricing_plan_id":"cebpf4jnsgd1na2vs0mg"},