{"last_updated":1712783219,"ttl":30,"version":"2.2","data":{"bikes":[{"bike_id":"21f0d610-0193-4c98-9e89-602e428135de","system_id":"levelo_inurba_marseille","lat":43.31226,"lon":5.36858,"is_reserved":false,"is_disabled":false,"rental_uris":{"android":"levelo://app?vid=21f0d610-0193-4c98-9e89-602e428135de","ios":"levelo://app?vid=21f0d610-0193-4c98-9e89-602e428135de"},"vehicle_type_id":"4","last_reported":1712783219,"current_range_meters":0,"station_id":"ce4bgl92rcd13ifvqbq0","pricing_plan_id":"cebpf4jnsgd1na2vs0mg"},{"bike_id":"86d97752-603f-4789-802a-592f14bdcdfe","system_id":"levelo_inurba_marseille","lat":43.312239,"lon":5.368562,"is_reserved":false,"is_disabled":false,"rental_uris":{"android":"levelo://app?vid=86d97752-603f-4789-802a-592f14bdcdfe","ios":"levelo://app?vid=86d97752-603f-4789-802a-592f14bdcdfe"},"vehicle_type_id":"4","last_reported":1712783219,"current_range_meters":22400,"station_id":"ce4bgl92rcd13ifvqbq0","pricing_plan_id":"cebpf4jnsgd1na2vs0mg"},{"bike_id":"9313a1e8-13ff-4372-a3e1-0e478de12199","system_id":"levelo_inurba_marseille","lat":43.314811,"lon":5.373103,"is_reserved":false,"is_disabled":false,"rental_uris":{"android":"levelo://app?vid=9313a1e8-13ff-4372-a3e1-0e478de12199","ios":"levelo://app?vid=9313a1e8-13ff-4372-a3e1-0e478de12199"},"vehicle_type_id":"4","last_reported":1712783219,"current_range_meters":0,"station_id":"ce4bgt12rcd13ifvqcd0","pricing_plan_id":"cebpf4jnsgd1na2vs0mg"},{"bike_id":"122e6e0e-3c08-4c8a-86bc-c2ccbeff0880","system_id":"levelo_inurba_marseille","lat":43.314811,"lon":5.373103,"is_reserved":false,"is_disabled":false,"rental_uris":{"android":"levelo://app?vid=122e6e0e-3c08-4c8a-86bc-c2ccbeff0880","ios":"levelo://app?vid=122e6e0e-3c08-4c8a-86bc-c2ccbeff0880"},"vehicle_type_id":"4","last_reported":1712783219,"current_range_meters":18400,"station_id":"ce4bgt12rcd13ifvqcd0","pricing_plan_id":"cebpf4jnsgd1na2vs0mg"},{"bike_id":"eaafa282-a8ac-4cce-ad91-4c4f077819ac","system_id":"levelo_inurba_marseille","lat":43.309039,"lon":5.371797,"is_reserved":false,"is_disabled":false,"rental_uris":{"android":"levelo://app?vid=eaafa282-a8ac-4cce-ad91-4c4f077819ac","ios":"levelo://app?vid=eaafa282-a8ac-4cce-ad91-4c4f077819ac"},"vehicle_type_id":"4","last_reported":1712783219,"current_range_meters":13200,"station_id":"ce4bguh2rcd13ifvqckg","pricing_plan_id":"cebpf4jnsgd1na2vs0mg"},{"bike_id":"d5d507d9-1916-4865-845d-885aa888209f","system_id":"levelo_inurba_marseille","lat":43.309039,"lon":5.371797,"is_reserved":false,"is_disabled":false,"rental_uris":{"android":"levelo://app?vid=d5d507d9-1916-4865-845d-885aa888209f","ios":"levelo://app?vid=d5d507d9-1916-4865-845d-885aa888209f"},"vehicle_type_id":"4","last_reported":1712783219,"current_range_meters":10400,"station_id":"ce4bguh2rcd13ifvqckg","pricing_plan_id":"cebpf4jnsgd1na2vs0mg"},{"bike_id":"912c0c4a-05bb-4fcd-80c3-48f9a40cfeda","system_id":"levelo_inurba_marseille","lat":43.309039,"lon":5.371797,"is_reserved":false,"is_disabled":false,"rental_uris":{"android":"levelo://app?vid=912c0c4a-05bb-4fcd-80c3-48f9a40cfeda","ios":"levelo://app?vid=912c0c4a-05bb-4fcd-80c3-48f9a40cfeda"},"vehicle_type_id":"4","last_reported":1712783219,"current_range_meters":4000,"station_id":"ce4bguh2rcd13ifvqckg","pricing_plan_id":"cebpf4jnsgd1na2vs0mg"},{"bike_id":"d68459e6-f705-4189-8c69-c014df5f96bd","system_id":"levelo_inurba_marseille","lat":43.309034,"lon":5.371783,"is_reserved":false,"is_disabled":false,"rental_uris":{"android":"levelo://app?vid=d68459e6-f705-4189-8c69-c014df5f96bd","ios":"levelo://app?vid=d68459e6-f705-4189-8c69-c014df5f96bd"},"vehicle_type_id":"4","last_reported":1712783219,"current_range_meters":4400,"station_id":"ce4bguh2rcd13ifvqckg","pricing_plan_id":"cebpf4jnsgd1na2vs0mg"},{"bike_id":"f6fdd9d5-08b9-4292-bc3e-decd84f57dd2","system_id":"levelo_inurba_marseille","lat":43.317825,"lon":5.373233,"is_reserved":false,"is_disabled":false,"rental_uris":{"android":"levelo://app?vid=f6fdd9d5-08b9-4292-bc3e-decd84f57dd2","ios":"levelo://app?vid=f6fdd9d5-08b9-4292-bc3e-decd84f57dd2"},"vehicle_type_id":"4","last_reported":1712783219,"current_range_meters":6400,"station_id":"","pricing_plan_id":"cebpf4jnsgd1na2vs0mg"},{"bike_id":"749334f2-57e0-4d0b-b736-192c42228e9c","system_id":"levelo_inurba_marseille","lat":43.299707,"lon":5.384859,"is_reserved":false,"is_disabled":false,"rental_uris":{"android":"levelo://app?vid=749334f2-57e0-4d0b-b736-192c42228e9c","ios":"levelo://app?vid=749334f2-57e0-4d0b-b736-192c42228e9c"},"vehicle_type_id":"4","last_reported":1712783219,"current_range_meters":10000,"station_id":"ce4bgj92rcd13ifvqbd0","pricing_plan_id":"cebpf4jnsgd1na2vs0mg"},{"bike_id":"a452d28d-8ce5-4cfc-bc0c-9d8c0fc3e8e2","system_id":"levelo_inurba_marseille","lat":43.30543,"lon":5.36704,"is_reserved":false,"is_disabled":false,"rental_uris":{"android":"levelo://app?vid=a452d28d-8ce5-4cfc-bc0c-9d8c0fc3e8e2","ios":"levelo://app?vid=a452d28d-8ce5-4cfc-bc0c-9d8c0fc3e8e2"},"vehicle_type_id":"4","last_reported":1712783219,"current_range_meters":21600,"station_id":"ce4bgrp2rcd13ifvqc9g","pricing_plan_id":"cebpf4jnsgd1na2vs0mg"},{"bike_id":"16b21149-66cb-4227-a05f-6ea7c16abd4c","system_id":"levelo_inurba_marseille","lat":43.305706,"lon":5.365654,"is_reserved":false,"is_disabled":false,"rental_uris":{"android":"levelo://app?vid=16b21149-66cb-4227-a05f-6ea7c16abd4c","ios":"levelo://app?vid=16b21149-66cb-4227-a05f-6ea7c16abd4c"},"vehicle_type_id":"4","last_reported":1712783219,"current_range_meters":20000,"station_id":"ce4bgs12rcd13ifvqcag","pricing_plan_id":"cebpf4jnsgd1na2vs0mg"},{"bike_id":"0822d30e-25b8-42a8-a11d-2eae2618cd78","system_id":"levelo_inurba_marseille","lat":43.30607,"lon":5.37239,"is_reserved":false,"is_disabled":false,"rental_uris":{"android":"levelo://app?vid=0822d30e-25b8-42a8-a11d-2eae2618cd78","ios":"levelo://app?vid=0822d30e-25b8-42a8-a11d-2eae2618cd78"},"vehicle_type_id":"4","last_reported":1712783219,"current_range_meters":24400,"station_id":"ce4bgqh2rcd13ifvqc4g","pricing_plan_id":"cebpf4jnsgd1na2vs0mg"},{"bike_id":"a9c5d233-7abc-43c2-9ca7-22ef285b80bb","system_id":"levelo_inurba_marseille","lat":43.311131,"lon":5.377651,"is_reserved":false,"is_disabled":false,"rental_uris":{"android":"levelo://app?vid=a9c5d233-7abc-43c2-9ca7-22ef285b80bb","ios":"levelo://app?vid=a9c5d233-7abc-43c2-9ca7-22ef285b80bb"},"vehicle_type_id":"4","last_reported":1712783219,"current_range_meters":0,"station_id":"ce4bgt92rcd13ifvqcg0","pricing_plan_id":"cebpf4jnsgd1na2vs0mg"},{"bike_id":"79406393-fd4f-4829-89a7-102a3cf59290","system_id":"levelo_inurba_marseille","lat":43.311125,"lon":5.377624,"is_reserved":false,"is_disabled":false,"rental_uris":{"android":"levelo://app?vid=79406393-fd4f-4829-89a7-102a3cf59290","ios":"levelo://app?vid=79406393-fd4f-4829-89a7-102a3cf59290"},"vehicle_type_id":"4","last_reported":1712783219,"current_range_meters":24000,"station_id":"ce4bgt92rcd13ifvqcg0","pricing_plan_id":"cebpf4jnsgd1na2vs0mg"},{"bike_id":"d59f4cf1-18fd-4d8b-ba57-faece69aba28","system_id":"levelo_inurba_marseille","lat":43.311125,"lon":5.377624,"is_reserved":false,"is_disabled":false,"rental_uris":{"android":"levelo://app?vid=d59f4cf1-18fd-4d8b-ba57-faece69aba28","ios":"levelo://app?vid=d59f4cf1-18fd-4d8b-ba57-faece69aba28"},"vehicle_type_id":"4","last_reported":1712783219,"current_range_meters":7200,"station_id":"ce4bgt92rcd13ifvqcg0","pricing_plan_id":"cebpf4jnsgd1na2vs0mg"},{"bike_id":"eb0ce467-546e-46df-8f50-dad4698900dd","system_id":"levelo_inurba_marseille","lat":43.311125,"lon":5.377624,"is_reserved":false,"is_disabled":false,"rental_uris":{"android":"levelo://app?vid=eb0ce467-546e-46df-8f50-dad4698900dd","ios":"levelo://app?vid=eb0ce467-546e-46df-8f50-dad4698900dd"},"vehicle_type_id":"4","last_reported":1712783219,"current_range_meters":15600,"station_id":"ce4bgt92rcd13ifvqcg0","pricing_plan_id":"cebpf4jnsgd1na2vs0mg"},{"bike_id":"c8a63018-f66a-42d7-890d-a29373fa0a01","system_id":"levelo_inurba_marseille","lat":43.311131,"lon":5.377651,"is_reserved":false,"is_disabled":false,"rental_uris":{"android":"levelo://app?vid=c8a63018-f66a-42d7-890d-a29373fa0a01","ios":"levelo://app?vid=c8a63018-f66a-42d7-890d-a29373fa0a01"},"vehicle_type_id":"4","last_reported":1712783219,"current_range_meters":12000,"station_id":"ce4bgt92rcd13ifvqcg0","pricing_plan_id":"cebpf4jnsgd1na2vs0mg"},{"bike_id":"3c447942-0acd-41d7-990b-1adbb13f1bca","system_id":"levelo_inurba_marseille","lat":43.307945,"lon":5.376487,"is_reserved":false,"is_disabled":false,"rental_uris":{"android":"levelo://app?vid=3c447942-0acd-41d7-990b-1adbb13f1bca","ios":"levelo://app?vid=3c447942-0acd-41d7-990b-1adbb13f1bca"},"vehicle_type_id":"4","last_reported":1712783219,"current_range_meters":16400,"station_id":"ce4bgv92rcd13ifvqcq0","pricing_plan_id":"cebpf4jnsgd1na2vs0mg"},{"bike_id":"ad843087-3770-4806-bc90-5072ab1af49b","system_id":"levelo_inurba_marseille","lat":43.307945,"lon":5.376487,"is_reserved":false,"is_disabled":false,"rental_uris":{"android":"levelo://app?vid=ad843087-3770-4806-bc90-5072ab1af49b","ios":"levelo://app?vid=ad843087-3770-4806-bc90-5072ab1af49b"},"vehicle_type_id":"4","last_reported":1712783219,"current_range_meters":2400,"station_id":"ce4bgv92rcd13ifvqcq0","pricing_plan_id":"cebpf4jnsgd1na2vs0mg"},{"bike_id":"1fae1f44-4a63-4c8d-b7f9-7a5d97440fe3","system_id":"levelo_inurba_marseille","lat":43.307945,"lon":5.376487,"is_reserved":false,"is_disabled":false,"rental_uris":{"android":"levelo://app?vid=1fae1f44-4a63-4c8d-b7f9-7a5d97440fe3","ios":"levelo://app?vid=1fae1f44-4a63-4c8d-b7f9-7a5d97440fe3"},"vehicle_type_id":"4","last_reported":1712783219,"current_range_meters":14000,"station_id":"ce4bgv92rcd13ifvqcq0","pricing_plan_id":"cebpf4jnsgd1na2vs0mg"},{"bike_id":"800fa1b2-bc9d-4ab8-b5e6-d7dfd95627fe","system_id":"levelo_inurba_marseille","lat":43.30783,"lon":5.37652,"is_reserved":false,"is_disabled":false,"rental_uris":{"android":"levelo://app?vid=800fa1b2-bc9d-4ab8-b5e6-d7dfd95627fe","ios":"levelo://app?vid=800fa1b2-bc9d-4ab8-b5e6-d7dfd95627fe"},"vehicle_type_id":"4","last_reported":1712783219,"current_range_meters":0,"station_id":"ce4bgv92rcd13ifvqcq0","pricing_plan_id":"cebpf4jnsgd1na2vs0mg"},{"bike_id":"8c1d83df-7e2c-400a-a3ee-abd1b3f3d54d","system_id":"levelo_inurba_marseille","lat":43.309589,"lon":5.390258,"is_reserved":false,"is_disabled":false,"rental_uris":{"android":"levelo://app?vid=8c1d83df-7e2c-400a-a3ee-abd1b3f3d54d","ios":"levelo://app?vid=8c1d83df-7e2c-400a-a3ee-abd1b3f3d54d"},"vehicle_type_id":"4","last_reported":1712783219,"current_range_meters":28800,"station_id":"ce4bgup2rcd13ifvqco0","pricing_plan_id":"cebpf4jnsgd1na2vs0mg"},{"bike_id":"becdd994-fd95-4a9c-89e9-c64d349817a6","system_id":"levelo_inurba_marseille","lat":43.30781,"lon":5.37655,"is_reserved":false,"is_disabled":false,"rental_uris":{"android":"levelo://app?vid=becdd994-fd95-4a9c-89e9-c64d349817a6","ios":"levelo://app?vid=becdd994-fd95-4a9c-89e9-c64d349817a6"},"vehicle_type_id":"4","last_reported":1712783219,"current_range_meters":23200,"station_id":"ce4bgv92rcd13ifvqcq0","pricing_plan_id":"cebpf4jnsgd1na2vs0mg"},{"bike_id":"5ac17b3b-d013-4c28-813c-e2e714055aa6","system_id":"levelo_inurba_marseille","lat":43.305256,"lon":5.372716,"is_reserved":false,"is_disabled":false,"rental_uris":{"android":"levelo://app?vid=5ac17b3b-d013-4c28-813c-e2e714055aa6","ios":"levelo://app?vid=5ac17b3b-d013-4c28-813c-e2e714055aa6"},"vehicle_type_id":"4","last_reported":1712783219,"current_range_meters":2000,"station_id":"","pricing_plan_id":"cebpf4jnsgd1na2vs0mg"},{"bike_id":"761fa7cb-756e-42f1-8785-e79c3770ab86","system_id":"levelo_inurba_marseille","lat":43.3077,"lon":5.37653,"is_reserved":false,"is_disabled":false,"rental_uris":{"android":"levelo://app?vid=761fa7cb-756e-42f1-8785-e79c3770ab86","ios":"levelo://app?vid=761fa7cb-756e-42f1-8785-e79c3770ab86"},"vehicle_type_id":"4","last_reported":1712783219,"current_range_meters":14400,"station_id":"ce4bgv92rcd13ifvqcq0","pricing_plan_id":"cebpf4jnsgd1na2vs0mg"},{"bike_id":"6639d492-3bfa-4e76-83cf-33a634cbc4ba","system_id":"levelo_inurba_marseille","lat":43.319935,"lon":5.381699,"is_reserved":false,"is_disabled":false,"rental_uris":{"android":"levelo://app?vid=6639d492-3bfa-4e76-83cf-33a634cbc4ba","ios":"levelo://app?vid=6639d492-3bfa-4e76-83cf-33a634cbc4ba"},"vehicle_type_id":"4","last_reported":1712783219,"current_range_meters":2800,"station_id":"ce4bhr12rcd13ifvqhpg","pricing_plan_id":"cebpf4jnsgd1na2vs0mg"},{"bike_id":"4a09f8f3-7333-4d37-876e-1b95c73b6283","system_id":"levelo_inurba_marseille","lat":43.317075,"lon":5.377367,"is_reserved":false,"is_disabled":false,"rental_uris":{"android":"levelo://app?vid=4a09f8f3-7333-4d37-876e-1b95c73b6283","ios":"levelo://app?vid=4a09f8f3-7333-4d37-876e-1b95c73b6283"},"vehicle_type_id":"4","last_reported":1712783219,"current_range_meters":25200,"station_id":"ce4bgth2rcd13ifvqch0","pricing_plan_id":"cebpf4jnsgd1na2vs0mg"},{"bike_id":"5ebd1666-37b2-4611-86fd-f95196b15710","system_id":"levelo_inurba_marseille","lat":43.317075,"lon":5.377367,"is_reserved":false,"is_disabled":false,"rental_uris":{"android":"levelo://app?vid=5ebd1666-37b2-4611-86fd-f95196b15710","ios":"levelo://app?vid=5ebd1666-37b2-4611-86fd-f95196b15710"},"vehicle_type_id":"4","last_reported":1712783219,"current_range_meters":26000,"station_id":"ce4bgth2rcd13ifvqch0","pricing_plan_id":"cebpf4jnsgd1na2vs0mg"},{"bike_id":"fdf46a05-69b0-4923-8b38-c84b2765bf12","system_id":"levelo_inurba_marseille","lat":43.30304,"lon":5.368987,"is_reserved":false,"is_disabled":false,"rental_uris":{"android":"levelo://app?vid=fdf46a05-69b0-4923-8b38-c84b2765bf12","ios":"levelo://app?vid=fdf46a05-69b0-4923-8b38-c84b2765bf12"},"vehicle_type_id":"4","last_reported":1712783219,"current_range_meters":0,"station_id":"ce4bgqh2rcd13ifvqc5g","pricing_plan_id":"cebpf4jnsgd1na2vs0mg"},{"bike_id":"479686e7-e0b2-4a3b-92f5-024395d0a0d2","system_id":"levelo_inurba_marseille","lat":43.30304,"lon":5.36897,"is_reserved":false,"is_disabled":false,"rental_uris":{"android":"levelo://app?vid=479686e7-e0b2-4a3b-92f5-024395d0a0d2","ios":"levelo://app?vid=479686e7-e0b2-4a3b-92f5-024395d0a0d2"},"vehicle_type_id":"4","last_reported":1712783219,"current_range_meters":0,"station_id":"ce4bgqh2rcd13ifvqc5g","pricing_plan_id":"cebpf4jnsgd1na2vs0mg"},{"bike_id":"20941a98-a88c-4d0f-8f8a-b7614341e977","system_id":"levelo_inurba_marseille","lat":43.315293,"lon":5.380349,"is_reserved":false,"is_disabled":false,"rental_uris":{"android":"levelo://app?vid=20941a98-a88c-4d0f-8f8a-b7614341e977","ios":"levelo://app?vid=20941a98-a88c-4d0f-8f8a-b7614341e977"},"vehicle_type_id":"4","last_reported":1712783219,"current_range_meters":24800,"station_id":"ce4bhsp2rcd13ifvqi50","pricing_plan_id":"cebpf4jnsgd1na2vs0mg"},{"bike_id":"6d95c5d3-96fd-4d64-9e10-5c95b2a3875f","system_id":"levelo_inurba_marseille","lat":43.315293,"lon":5.380349,"is_reserved":false,"is_disabled":false,"rental_uris":{"android":"levelo://app?vid=6d95c5d3-96fd-4d64-9e10-5c95b2a3875f","ios":"levelo://app?vid=6d95c5d3-96fd-4d64-9e10-5c95b2a3875f"},"vehicle_type_id":"4","last_reported":1712783219,"current_range_meters":25200,"station_id":"ce4bhsp2rcd13ifvqi50","pricing_plan_id":"cebpf4jnsgd1na2vs0mg"},{"bike_id":"738d2e57-a4c7-4b80-91db-ae66c2993b24","system_id":"levelo_inurba_marseille","lat":43.315289,"lon":5.380349,"is_reserved":false,"is_disabled":false,"rental_uris":{"android":"levelo://app?vid=738d2e57-a4c7-4b80-91db-ae66c2993b24","ios":"levelo://app?vid=738d2e57-a4c7-4b80-91db-ae66c2993b24"},"vehicle_type_id":"4","last_reported":1712783219,"current_range_meters":30400,"station_id":"ce4bhsp2rcd13ifvqi50","pricing_plan_id":"cebpf4jnsgd1na2vs0mg"},{"bike_id":"6fe73ca8-dc68-4275-84dc-11fe578d628b","system_id":"levelo_inurba_marseille","lat":43.315293,"lon":5.380349,"is_reserved":false,"is_disabled":false,"rental_uris":{"android":"levelo://app?vid=6fe73ca8-dc68-4275-84dc-11fe578d628b","ios":"levelo://app?vid=6fe73ca8-dc68-4275-84dc-11fe578d628b"},"vehicle_type_id":"4","last_reported":1712783219,"current_range_meters":12400,"station_id":"ce4bhsp2rcd13ifvqi50","pricing_plan_id":"cebpf4jnsgd1na2vs0mg"},{"bike_id":"c5c399e5-edf4-40f9-bc04-a073ac878553","system_id":"levelo_inurba_marseille","lat":43.315289,"lon":5.380349,"is_reserved":false,"is_disabled":false,"rental_uris":{"android":"levelo://app?vid=c5c399e5-edf4-40f9-bc04-a073ac878553","ios":"levelo://app?vid=c5c399e5-edf4-40f9-bc04-a073ac878553"},"vehicle_type_id":"4","last_reported":1712783219,"current_range_meters":12800,"station_id":"ce4bhsp2rcd13ifvqi50","pricing_plan_id":"cebpf4jnsgd1na2vs0mg"},{"bike_id":"6b4426eb-658b-4254-a7f0-a1bdd3954621","system_id":"levelo_inurba_marseille","lat":43.315293,"lon":5.380349,"is_reserved":false,"is_disabled":false,"rental_uris":{"android":"levelo://app?vid=6b4426eb-658b-4254-a7f0-a1bdd3954621","ios":"levelo://app?vid=6b4426eb-658b-4254-a7f0-a1bdd3954621"},"vehicle_type_id":"4","last_reported":1712783219,"current_range_meters":14800,"station_id":"ce4bhsp2rcd13ifvqi50","pricing_plan_id":"cebpf4jnsgd1na2vs0mg"},{"bike_id":"4ee94b4a-5018-4c4b-a4c9-28da4394a458","system_id":"levelo_inurba_marseille","lat":43.301939,"lon":5.366286,"is_reserved":false,"is_disabled":false,"rental_uris":{"android":"levelo://app?vid=4ee94b4a-5018-4c4b-a4c9-28da4394a458","ios":"levelo://app?vid=4ee94b4a-5018-4c4b-a4c9-28da4394a458"},"vehicle_type_id":"4","last_reported":1712783219,"current_range_meters":15200,"station_id":"ce4bgrh2rcd13ifvqc8g","pricing_plan_id":"cebpf4jnsgd1na2vs0mg"},{"bike_id":"20c35d64-2516-4229-8438-1cced5aa3a98","system_id":"levelo_inurba_marseille","lat":43.301939,"lon":5.366286,"is_reserved":false,"is_disabled":false,"rental_uris":{"android":"levelo://app?vid=20c35d64-2516-4229-8438-1cced5aa3a98","ios":"levelo://app?vid=20c35d64-2516-4229-8438-1cced5aa3a98"},"vehicle_type_id":"4","last_reported":1712783219,"current_range_meters":400,"station_id":"ce4bgrh2rcd13ifvqc8g","pricing_plan_id":"cebpf4jnsgd1na2vs0mg"},{"bike_id":"3f635a2f-1c7e-4a91-810b-083b7f3a4928","system_id":"levelo_inurba_marseille","lat":43.296131,"lon":5.370773,"is_reserved":false,"is_disabled":false,"rental_uris":{"android":"levelo://app?vid=3f635a2f-1c7e-4a91-810b-083b7f3a4928","ios":"levelo://app?vid=3f635a2f-1c7e-4a91-810b-083b7f3a4928"},"vehicle_type_id":"4","last_reported":1712783219,"current_range_meters":8400,"station_id":"ce4bgnh2rcd13ifvqc0g","pricing_plan_id":"cebpf4jnsgd1na2vs0mg"},{"bike_id":"f564dea5-e033-401f-b2e1-52ab41c1d9a0","system_id":"levelo_inurba_marseille","lat":43.308012,"lon":5.381511,"is_reserved":false,"is_disabled":false,"rental_uris":{"android":"levelo://app?vid=f564dea5-e033-401f-b2e1-52ab41c1d9a0","ios":"levelo://app?vid=f564dea5-e033-401f-b2e1-52ab41c1d9a0"},"vehicle_type_id":"4","last_reported":1712783219,"current_range_meters":0,"station_id":"ce4bgt12rcd13ifvqce0","pricing_plan_id":"cebpf4jnsgd1na2vs0mg"},{"bike_id":"a0ec95a5-43c1-41b4-a179-0a676e2850c2","system_id":"levelo_inurba_marseille","lat":43.308012,"lon":5.381511,"is_reserved":false,"is_disabled":false,"rental_uris":{"android":"levelo://app?vid=a0ec95a5-43c1-41b4-a179-0a676e2850c2","ios":"levelo://app?vid=a0ec95a5-43c1-41b4-a179-0a676e2850c2"},"vehicle_type_id":"4","last_reported":1712783219,"current_range_meters":0,"station_id":"ce4bgt12rcd13ifvqce0","pricing_plan_id":"cebpf4jnsgd1na2vs0mg"},{"bike_id":"8e0079c5-cf9d-479d-b033-52446d9c3797","system_id":"levelo_inurba_marseille","lat":43.308012,"lon":5.381511,"is_reserved":false,"is_disabled":false,"rental_uris":{"android":"levelo://app?vid=8e0079c5-cf9d-479d-b033-52446d9c3797","ios":"levelo://app?vid=8e0079c5-cf9d-479d-b033-52446d9c3797"},"vehicle_type_id":"4","last_reported":1712783219,"current_range_meters":28400,"station_id":"ce4bgt12rcd13ifvqce0","pricing_plan_id":"cebpf4jnsgd1na2vs0mg"},{"bike_id":"470517a2-ae89-4cfa-ae63-24697b55ea62","system_id":"levelo_inurba_marseille","lat":43.308012,"lon":5.381511,"is_reserved":false,"is_disabled":false,"rental_uris":{"android":"levelo://app?vid=470517a2-ae89-4cfa-ae63-24697b55ea62","ios":"levelo://app?vid=470517a2-ae89-4cfa-ae63-24697b55ea62"},"vehicle_type_id":"4","last_reported":1712783219,"current_range_meters":3600,"station_id":"ce4bgt12rcd13ifvqce0","pricing_plan_id":"cebpf4jnsgd1na2vs0mg"},{"bike_id":"9ee4be5a-dd83-4d2d-9274-d95e77ab7422","system_id":"levelo_inurba_marseille","lat":43.308012,"lon":5.381511,"is_reserved":false,"is_disabled":false,"rental_uris":{"android":"levelo://app?vid=9ee4be5a-dd83-4d2d-9274-d95e77ab7422","ios":"levelo://app?vid=9ee4be5a-dd83-4d2d-9274-d95e77ab7422"},"vehicle_type_id":"4","last_reported":1712783219,"current_range_meters":16000,"station_id":"ce4bgt12rcd13ifvqce0","pricing_plan_id":"cebpf4jnsgd1na2vs0mg"},{"bike_id":"fd4b057b-9990-4cc8-a830-45e07c6a6747","system_id":"levelo_inurba_marseille","lat":43.304606,"lon":5.379026,"is_reserved":false,"is_disabled":false,"rental_uris":{"android":"levelo://app?vid=fd4b057b-9990-4cc8-a830-45e07c6a6747","ios":"levelo://app?vid=fd4b057b-9990-4cc8-a830-45e07c6a6747"},"vehicle_type_id":"4","last_reported":1712783219,"current_range_meters":6000,"station_id":"ce4bgup2rcd13ifvqcn0","pricing_plan_id":"cebpf4jnsgd1na2vs0mg"},{"bike_id":"6304b356-5718-49c0-9009-11c0cd0b6c8c","system_id":"levelo_inurba_marseille","lat":43.32475,"lon":5.36557,"is_reserved":false,"is_disabled":false,"rental_uris":{"android":"levelo://app?vid=6304b356-5718-49c0-9009-11c0cd0b6c8c","ios":"levelo://app?vid=6304b356-5718-49c0-9009-11c0cd0b6c8c"},"vehicle_type_id":"4","last_reported":1712783219,"current_range_meters":18400,"station_id":"ce4bhs12rcd13ifvqhvg","pricing_plan_id":"cebpf4jnsgd1na2vs0mg"},{"bike_id":"d621c504-833c-4dc0-8790-c219854bcb05","system_id":"levelo_inurba_marseille","lat":43.324771,"lon":5.36557,"is_reserved":false,"is_disabled":false,"rental_uris":{"android":"levelo://app?vid=d621c504-833c-4dc0-8790-c219854bcb05","ios":"levelo://app?vid=d621c504-833c-4dc0-8790-c219854bcb05"},"vehicle_type_id":"4","last_reported":1712783219,"current_range_meters":14000,"station_id":"ce4bhs12rcd13ifvqhvg","pricing_plan_id":"cebpf4jnsgd1na2vs0mg"},{"bike_id":"466fa14b-daa3-4177-b540-e71b4a8e6995","system_id":"levelo_inurba_marseille","lat":43.324771,"lon":5.36557,"is_reserved":false,"is_disabled":false,"rental_uris":{"android":"levelo://app?vid=466fa14b-daa3-4177-b540-e71b4a8e6995","ios":"levelo://app?vid=466fa14b-daa3-4177-b540-e71b4a8e6995"},"vehicle_type_id":"4","last_reported":1712783219,"current_range_meters":11200,"station_id":"ce4bhs12rcd13ifvqhvg","pricing_plan_id":"cebpf4jnsgd1na2vs0mg"},{"bike_id":"4d857a07-486f-4587-9836-943a854c8633","system_id":"levelo_inurba_marseille","lat":43.324766,"lon":5.365596,"is_reserved":false,"is_disabled":false,"rental_uris":{"android":"levelo://app?vid=4d857a07-486f-4587-9836-943a854c8633","ios":"levelo://app?vid=4d857a07-486f-4587-9836-943a854c8633"},"vehicle_type_id":"4","last_reported":1712783219,"current_range_meters":18400,"station_id":"ce4bhs12rcd13ifvqhvg","pricing_plan_id":"cebpf4jnsgd1na2vs0mg"},{"bike_id":"b61f5fce-3370-4eb2-9cfe-757ef3a5f155","system_id":"levelo_inurba_marseille","lat":43.324771,"lon":5.36557,"is_reserved":false,"is_disabled":false,"rental_uris":{"android":"levelo://app?vid=b61f5fce-3370-4eb2-9cfe-757ef3a5f155","ios":"levelo://app?vid=b61f5fce-3370-4eb2-9cfe-757ef3a5f155"},"vehicle_type_id":"4","last_reported":1712783219,"current_range_meters":16000,"station_id":"ce4bhs12rcd13ifvqhvg","pricing_plan_id":"cebpf4jnsgd1na2vs0mg"},{"bike_id":"472c3294-2803-4237-bcbf-54269798f6ec","system_id":"levelo_inurba_marseille","lat":43.324803,"lon":5.365631,"is_reserved":false,"is_disabled":false,"rental_uris":{"android":"levelo://app?vid=472c3294-2803-4237-bcbf-54269798f6ec","ios":"levelo://app?vid=472c3294-2803-4237-bcbf-54269798f6ec"},"vehicle_type_id":"4","last_reported":1712783219,"current_range_meters":13600,"station_id":"ce4bhs12rcd13ifvqhvg","pricing_plan_id":"cebpf4jnsgd1na2vs0mg"},{"bike_id":"dd1eeaf3-7ce5-435e-b6c8-fd616106d621","system_id":"levelo_inurba_marseille","lat":43.324771,"lon":5.36557,"is_reserved":false,"is_disabled":false,"rental_uris":{"android":"levelo://app?vid=dd1eeaf3-7ce5-435e-b6c8-fd616106d621","ios":"levelo://app?vid=dd1eeaf3-7ce5-435e-b6c8-fd616106d621"},"vehicle_type_id":"4","last_reported":1712783219,"current_range_meters":8800,"station_id":"ce4bhs12rcd13ifvqhvg","pricing_plan_id":"cebpf4jnsgd1na2vs0mg"},{"bike_id":"f65b581c-2d48-4e06-a836-c23797b8fa05","system_id":"levelo_inurba_marseille","lat":43.324771,"lon":5.36557,"is_reserved":false,"is_disabled":false,"rental_uris":{"android":"levelo://app?vid=f65b581c-2d48-4e06-a836-c23797b8fa05","ios":"levelo://app?vid=f65b581c-2d48-4e06-a836-c23797b8fa05"},"vehicle_type_id":"4","last_reported":1712783219,"current_range_meters":23200,"station_id":"ce4bhs12rcd13ifvqhvg","pricing_plan_id":"cebpf4jnsgd1na2vs0mg"},{"bike_id":"5cd49b38-4b4d-48c2-93a5-c1d29d9cf86c","system_id":"levelo_inurba_marseille","lat":43.324829,"lon":5.365664,"is_reserved":false,"is_disabled":false,"rental_uris":{"android":"levelo://app?vid=5cd49b38-4b4d-48c2-93a5-c1d29d9cf86c","ios":"levelo://app?vid=5cd49b38-4b4d-48c2-93a5-c1d29d9cf86c"},"vehicle_type_id":"4","last_reported":1712783219,"current_range_meters":9600,"station_id":"ce4bhs12rcd13ifvqhvg","pricing_plan_id":"cebpf4jnsgd1na2vs0mg"},{"bike_id":"52482f74-22f9-4f2a-90a6-8d36b1cdc8e1","system_id":"levelo_inurba_marseille","lat":43.32486,"lon":5.36576,"is_reserved":false,"is_disabled":false,"rental_uris":{"android":"levelo://app?vid=52482f74-22f9-4f2a-90a6-8d36b1cdc8e1","ios":"levelo://app?vid=52482f74-22f9-4f2a-90a6-8d36b1cdc8e1"},"vehicle_type_id":"4","last_reported":1712783219,"current_range_meters":21200,"station_id":"ce4bhs12rcd13ifvqhvg","pricing_plan_id":"cebpf4jnsgd1na2vs0mg"},{"bike_id":"62e90f59-e924-41f4-8c69-e31e14dfb6c0","system_id":"levelo_inurba_marseille","lat":43.301429,"lon":5.37413,"is_reserved":false,"is_disabled":false,"rental_uris":{"android":"levelo://app?vid=62e90f59-e924-41f4-8c69-e31e14dfb6c0","ios":"levelo://app?vid=62e90f59-e924-41f4-8c69-e31e14dfb6c0"},"vehicle_type_id":"4","last_reported":1712783219,"current_range_meters":28000,"station_id":"ce4bgs92rcd13ifvqcc0","pricing_plan_id":"cebpf4jnsgd1na2vs0mg"},{"bike_id":"394cf23c-e2db-411c-b3f2-a6f63ed34451","system_id":"levelo_inurba_marseille","lat":43.303571,"lon":5.378916,"is_reserved":false,"is_disabled":false,"rental_uris":{"android":"levelo://app?vid=394cf23c-e2db-411c-b3f2-a6f63ed34451","ios":"levelo://app?vid=394cf23c-e2db-411c-b3f2-a6f63ed34451"},"vehicle_type_id":"4","last_reported":1712783219,"current_range_meters":0,"station_id":"","pricing_plan_id":"cebpf4jnsgd1na2vs0mg"},{"bike_id":"0206ec8d-f991-4cde-99b6-8568dbd024d0","system_id":"levelo_inurba_marseille","lat":43.319935,"lon":5.381699,"is_reserved":false,"is_disabled":false,"rental_uris":{"android":"levelo://app?vid=0206ec8d-f991-4cde-99b6-8568dbd024d0","ios":"levelo://app?vid=0206ec8d-f991-4cde-99b6-8568dbd024d0"},"vehicle_type_id":"4","last_reported":1712783219,"current_range_meters":0,"station_id":"ce4bhr12rcd13ifvqhpg","pricing_plan_id":"cebpf4jnsgd1na2vs0mg"},{"bike_id":"3737b6f3-2a46-4d8f-bd05-f5e23beabb54","system_id":"levelo_inurba_marseille","lat":43.319935,"lon":5.381699,"is_reserved":false,"is_disabled":false,"rental_uris":{"android":"levelo://app?vid=3737b6f3-2a46-4d8f-bd05-f5e23beabb54","ios":"levelo://app?vid=3737b6f3-2a46-4d8f-bd05-f5e23beabb54"},"vehicle_type_id":"4","last_reported":1712783219,"current_range_meters":7600,"station_id":"ce4bhr12rcd13ifvqhpg","pricing_plan_id":"cebpf4jnsgd1na2vs0mg"},{"bike_id":"39abf3e5-19a3-4d90-9a21-dddd3092fa2e","system_id":"levelo_inurba_marseille","lat":43.313571,"lon":5.384829,"is_reserved":false,"is_disabled":false,"rental_uris":{"android":"levelo://app?vid=39abf3e5-19a3-4d90-9a21-dddd3092fa2e","ios":"levelo://app?vid=39abf3e5-19a3-4d90-9a21-dddd3092fa2e"},"vehicle_type_id":"4","last_reported":1712783219,"current_range_meters":21600,"station_id":"ce4bgt92rcd13ifvqcf0","pricing_plan_id":"cebpf4jnsgd1na2vs0mg"},{"bike_id":"5aa17555-1f5f-4986-b91b-2b09b5a9caff","system_id":"levelo_inurba_marseille","lat":43.313571,"lon":5.384829,"is_reserved":false,"is_disabled":false,"rental_uris":{"android":"levelo://app?vid=5aa17555-1f5f-4986-b91b-2b09b5a9caff","ios":"levelo://app?vid=5aa17555-1f5f-4986-b91b-2b09b5a9caff"},"vehicle_type_id":"4","last_reported":1712783219,"current_range_meters":5200,"station_id":"ce4bgt92rcd13ifvqcf0","pricing_plan_id":"cebpf4jnsgd1na2vs0mg"},{"bike_id":"318ada78-6121-4f9d-a98a-98f7ed0bc104","system_id":"levelo_inurba_marseille","lat":43.313571,"lon":5.384829,"is_reserved":false,"is_disabled":false,"rental_uris":{"android":"levelo://app?vid=318ada78-6121-4f9d-a98a-98f7ed0bc104","ios":"levelo://app?vid=318ada78-6121-4f9d-a98a-98f7ed0bc104"},"vehicle_type_id":"4","last_reported":1712783219,"current_range_meters":22800,"station_id":"ce4bgt92rcd13ifvqcf0","pricing_plan_id":"cebpf4jnsgd1na2vs0mg"},{"bike_id":"b275e685-3978-46e0-8f40-ec76f7b57fdc","system_id":"levelo_inurba_marseille","lat":43.313571,"lon":5.384829,"is_reserved":false,"is_disabled":false,"rental_uris":{"android":"levelo://app?vid=b275e685-3978-46e0-8f40-ec76f7b57fdc","ios":"levelo://app?vid=b275e685-3978-46e0-8f40-ec76f7b57fdc"},"vehicle_type_id":"4","last_reported":1712783219,"current_range_meters":21200,"station_id":"ce4bgt92rcd13ifvqcf0","pricing_plan_id":"cebpf4jnsgd1na2vs0mg"},{"bike_id":"32cda10b-82b5-496c-95b2-0de708fea757","system_id":"levelo_inurba_marseille","lat":43.313571,"lon":5.384829,"is_reserved":false,"is_disabled":false,"rental_uris":{"android":"levelo://app?vid=32cda10b-82b5-496c-95b2-0de708fea757","ios":"levelo://app?vid=32cda10b-82b5-496c-95b2-0de708fea757"},"vehicle_type_id":"4","last_reported":1712783219,"current_range_meters":8800,"station_id":"ce4bgt92rcd13ifvqcf0","pricing_plan_id":"cebpf4jnsgd1na2vs0mg"},{"bike_id":"8aceafc6-f67e-49b4-a48b-e7e828acc91e","system_id":"levelo_inurba_marseille","lat":43.313571,"lon":5.384829,"is_reserved":false,"is_disabled":false,"rental_uris":{"android":"levelo://app?vid=8aceafc6-f67e-49b4-a48b-e7e828acc91e","ios":"levelo://app?vid=8aceafc6-f67e-49b4-a48b-e7e828acc91e"},"vehicle_type_id":"4","last_reported":1712783219,"current_range_meters":12000,"station_id":"ce4bgt92rcd13ifvqcf0","pricing_plan_id":"cebpf4jnsgd1na2vs0mg"},{"bike_id":"768bbfa6-7cea-4363-bc5d-408c3858d699","system_id":"levelo_inurba_marseille","lat":43.313571,"lon":5.384829,"is_reserved":false,"is_disabled":false,"rental_uris":{"android":"levelo://app?vid=768bbfa6-7cea-4363-bc5d-408c3858d699","ios":"levelo://app?vid=768bbfa6-7cea-4363-bc5d-408c3858d699"},"vehicle_type_id":"4","last_reported":1712783219,"current_range_meters":8000,"station_id":"ce4bgt92rcd13ifvqcf0","pricing_plan_id":"cebpf4jnsgd1na2vs0mg"},{"bike_id":"d6fdea22-85f1-41ed-8e5e-167fed33e286","system_id":"levelo_inurba_marseille","lat":43.313571,"lon":5.384829,"is_reserved":false,"is_disabled":false,"rental_uris":{"android":"levelo://app?vid=d6fdea22-85f1-41ed-8e5e-167fed33e286","ios":"levelo://app?vid=d6fdea22-85f1-41ed-8e5e-167fed33e286"},"vehicle_type_id":"4","last_reported":1712783219,"current_range_meters":1200,"station_id":"ce4bgt92rcd13ifvqcf0","pricing_plan_id":"cebpf4jnsgd1na2vs0mg"},{"bike_id":"78838408-a778-4e8b-8815-7a904ab41499","system_id":"levelo_inurba_marseille","lat":43.31356,"lon":5.38507,"is_reserved":false,"is_disabled":false,"rental_uris":{"android":"levelo://app?vid=78838408-a778-4e8b-8815-7a904ab41499","ios":"levelo://app?vid=78838408-a778-4e8b-8815-7a904ab41499"},"vehicle_type_id":"4","last_reported":1712783219,"current_range_meters":0,"station_id":"ce4bgt92rcd13ifvqcf0","pricing_plan_id":"cebpf4jnsgd1na2vs0mg"},{"bike_id":"027a95ad-9021-4a8f-a451-db869c7716ac","system_id":"levelo_inurba_marseille","lat":43.299222,"lon":5.365554,"is_reserved":false,"is_disabled":false,"rental_uris":{"android":"levelo://app?vid=027a95ad-9021-4a8f-a451-db869c7716ac","ios":"levelo://app?vid=027a95ad-9021-4a8f-a451-db869c7716ac"},"vehicle_type_id":"4","last_reported":1712783219,"current_range_meters":21200,"station_id":"ce4bgm92rcd13ifvqbr0","pricing_plan_id":"cebpf4jnsgd1na2vs0mg"},{"bike_id":"b0a46bd7-c63b-4bc9-a197-0a7365627099","system_id":"levelo_inurba_marseille","lat":43.299222,"lon":5.365554,"is_reserved":false,"is_disabled":false,"rental_uris":{"android":"levelo://app?vid=b0a46bd7-c63b-4bc9-a197-0a7365627099","ios":"levelo://app?vid=b0a46bd7-c63b-4bc9-a197-0a7365627099"},"vehicle_type_id":"4","last_reported":1712783219,"current_range_meters":25200,"station_id":"ce4bgm92rcd13ifvqbr0","pricing_plan_id":"cebpf4jnsgd1na2vs0mg"},{"bike_id":"1fd14169-2a99-4af2-b8f3-45586bd548b6","system_id":"levelo_inurba_marseille","lat":43.299222,"lon":5.365554,"is_reserved":false,"is_disabled":false,"rental_uris":{"android":"levelo://app?vid=1fd14169-2a99-4af2-b8f3-45586bd548b6","ios":"levelo://app?vid=1fd14169-2a99-4af2-b8f3-45586bd548b6"},"vehicle_type_id":"4","last_reported":1712783219,"current_range_meters":20000,"station_id":"ce4bgm92rcd13ifvqbr0","pricing_plan_id":"cebpf4jnsgd1na2vs0mg"},{"bike_id":"fb07ecc0-9d5f-43bd-8d03-a8f68971b01a","system_id":"levelo_inurba_marseille","lat":43.298433,"lon":5.362774,"is_reserved":false,"is_disabled":false,"rental_uris":{"android":"levelo://app?vid=fb07ecc0-9d5f-43bd-8d03-a8f68971b01a","ios":"levelo://app?vid=fb07ecc0-9d5f-43bd-8d03-a8f68971b01a"},"vehicle_type_id":"4","last_reported":1712783219,"current_range_meters":31200,"station_id":"ce4bgpp2rcd13ifvqc3g","pricing_plan_id":"cebpf4jnsgd1na2vs0mg"},{"bike_id":"2ec4200b-4c12-4531-954f-6e99c54a5534","system_id":"levelo_inurba_marseille","lat":43.298433,"lon":5.362774,"is_reserved":false,"is_disabled":false,"rental_uris":{"android":"levelo://app?vid=2ec4200b-4c12-4531-954f-6e99c54a5534","ios":"levelo://app?vid=2ec4200b-4c12-4531-954f-6e99c54a5534"},"vehicle_type_id":"4","last_reported":1712783219,"current_range_meters":18000,"station_id":"ce4bgpp2rcd13ifvqc3g","pricing_plan_id":"cebpf4jnsgd1na2vs0mg"},{"bike_id":"86b1da5e-1e3c-42c2-bc2d-c0854178a50b","system_id":"levelo_inurba_marseille","lat":43.311722,"lon":5.387247,"is_reserved":false,"is_disabled":false,"rental_uris":{"android":"levelo://app?vid=86b1da5e-1e3c-42c2-bc2d-c0854178a50b","ios":"levelo://app?vid=86b1da5e-1e3c-42c2-bc2d-c0854178a50b"},"vehicle_type_id":"4","last_reported":1712783219,"current_range_meters":21200,"station_id":"ce4bgv12rcd13ifvqcp0","pricing_plan_id":"cebpf4jnsgd1na2vs0mg"},{"bike_id":"e2fa733f-37e3-4390-91ea-f90106b0a26c","system_id":"levelo_inurba_marseille","lat":43.305364,"lon":5.384119,"is_reserved":false,"is_disabled":false,"rental_uris":{"android":"levelo://app?vid=e2fa733f-37e3-4390-91ea-f90106b0a26c","ios":"levelo://app?vid=e2fa733f-37e3-4390-91ea-f90106b0a26c"},"vehicle_type_id":"4","last_reported":1712783219,"current_range_meters":14400,"station_id":"ce4bgg92rcd13ifvqb30","pricing_plan_id":"cebpf4jnsgd1na2vs0mg"},{"bike_id":"da329bea-5532-45bc-9096-322079ce094b","system_id":"levelo_inurba_marseille","lat":43.31168,"lon":5.38713,"is_reserved":false,"is_disabled":false,"rental_uris":{"android":"levelo://app?vid=da329bea-5532-45bc-9096-322079ce094b","ios":"levelo://app?vid=da329bea-5532-45bc-9096-322079ce094b"},"vehicle_type_id":"4","last_reported":1712783219,"current_range_meters":3200,"station_id":"ce4bgv12rcd13ifvqcp0","pricing_plan_id":"cebpf4jnsgd1na2vs0mg"},{"bike_id":"26275cf8-0a0b-4aa2-80a6-581003fb2a3d","system_id":"levelo_inurba_marseille","lat":43.299028,"lon":5.381509,"is_reserved":false,"is_disabled":false,"rental_uris":{"android":"levelo://app?vid=26275cf8-0a0b-4aa2-80a6-581003fb2a3d","ios":"levelo://app?vid=26275cf8-0a0b-4aa2-80a6-581003fb2a3d"},"vehicle_type_id":"4","last_reported":1712783219,"current_range_meters":6400,"station_id":"ce4bgj12rcd13ifvqbc0","pricing_plan_id":"cebpf4jnsgd1na2vs0mg"},{"bike_id":"17f54113-84e7-44b5-8e28-65c1b2db6535","system_id":"levelo_inurba_marseille","lat":43.311722,"lon":5.387247,"is_reserved":false,"is_disabled":false,"rental_uris":{"android":"levelo://app?vid=17f54113-84e7-44b5-8e28-65c1b2db6535","ios":"levelo://app?vid=17f54113-84e7-44b5-8e28-65c1b2db6535"},"vehicle_type_id":"4","last_reported":1712783219,"current_range_meters":7600,"station_id":"ce4bgv12rcd13ifvqcp0","pricing_plan_id":"cebpf4jnsgd1na2vs0mg"},{"bike_id":"c7634fc7-a014-47fd-b732-507a579767db","system_id":"levelo_inurba_marseille","lat":43.311722,"lon":5.387247,"is_reserved":false,"is_disabled":false,"rental_uris":{"android":"levelo://app?vid=c7634fc7-a014-47fd-b732-507a579767db","ios":"levelo://app?vid=c7634fc7-a014-47fd-b732-507a579767db"},"vehicle_type_id":"4","last_reported":1712783219,"current_range_meters":31200,"station_id":"ce4bgv12rcd13ifvqcp0","pricing_plan_id":"cebpf4jnsgd1na2vs0mg"},{"bike_id":"6ebe0c71-8c89-4f8f-8e46-a85c2b750375","system_id":"levelo_inurba_marseille","lat":43.311722,"lon":5.387247,"is_reserved":false,"is_disabled":false,"rental_uris":{"android":"levelo://app?vid=6ebe0c71-8c89-4f8f-8e46-a85c2b750375","ios":"levelo://app?vid=6ebe0c71-8c89-4f8f-8e46-a85c2b750375"},"vehicle_type_id":"4","last_reported":1712783219,"current_range_meters":29200,"station_id":"ce4bgv12rcd13ifvqcp0","pricing_plan_id":"cebpf4jnsgd1na2vs0mg"},{"bike_id":"519ddce8-57f2-44b8-81e0-dca489918d42","system_id":"levelo_inurba_marseille","lat":43.32287,"lon":5.38252,"is_reserved":false,"is_disabled":false,"rental_uris":{"android":"levelo://app?vid=519ddce8-57f2-44b8-81e0-dca489918d42","ios":"levelo://app?vid=519ddce8-57f2-44b8-81e0-dca489918d42"},"vehicle_type_id":"4","last_reported":1712783219,"current_range_meters":30400,"station_id":"ce4bhr12rcd13ifvqhqg","pricing_plan_id":"cebpf4jnsgd1na2vs0mg"},{"bike_id":"e5998518-0e1a-4bf4-95a8-01979c34124e","system_id":"levelo_inurba_marseille","lat":43.297774,"lon":5.370875,"is_reserved":false,"is_disabled":false,"rental_uris":{"android":"levelo://app?vid=e5998518-0e1a-4bf4-95a8-01979c34124e","ios":"levelo://app?vid=e5998518-0e1a-4bf4-95a8-01979c34124e"},"vehicle_type_id":"4","last_reported":1712783219,"current_range_meters":23600,"station_id":"ce4bgop2rcd13ifvqc1g","pricing_plan_id":"cebpf4jnsgd1na2vs0mg"},{"bike_id":"2db2644b-fc45-43ab-b53f-d60512bc0d43","system_id":"levelo_inurba_marseille","lat":43.322928,"lon":5.38258,"is_reserved":false,"is_disabled":false,"rental_uris":{"android":"levelo://app?vid=2db2644b-fc45-43ab-b53f-d60512bc0d43","ios":"levelo://app?vid=2db2644b-fc45-43ab-b53f-d60512bc0d43"},"vehicle_type_id":"4","last_reported":1712783219,"current_range_meters":30400,"station_id":"ce4bhr12rcd13ifvqhqg","pricing_plan_id":"cebpf4jnsgd1na2vs0mg"},{"bike_id":"ce926373-7e33-4165-8d3a-c4fc96028fc7","system_id":"levelo_inurba_marseille","lat":43.297774,"lon":5.370875,"is_reserved":false,"is_disabled":false,"rental_uris":{"android":"levelo://app?vid=ce926373-7e33-4165-8d3a-c4fc96028fc7","ios":"levelo://app?vid=ce926373-7e33-4165-8d3a-c4fc96028fc7"},"vehicle_type_id":"4","last_reported":1712783219,"current_range_meters":3200,"station_id":"ce4bgop2rcd13ifvqc1g","pricing_plan_id":"cebpf4jnsgd1na2vs0mg"},{"bike_id":"9bda79d3-93f7-41c5-8537-c7b5d8bf5b31","system_id":"levelo_inurba_marseille","lat":43.3229,"lon":5.382653,"is_reserved":false,"is_disabled":false,"rental_uris":{"android":"levelo://app?vid=9bda79d3-93f7-41c5-8537-c7b5d8bf5b31","ios":"levelo://app?vid=9bda79d3-93f7-41c5-8537-c7b5d8bf5b31"},"vehicle_type_id":"4","last_reported":1712783219,"current_range_meters":21600,"station_id":"ce4bhr12rcd13ifvqhqg","pricing_plan_id":"cebpf4jnsgd1na2vs0mg"},{"bike_id":"7c52fd0a-eaff-495f-bca7-bc007d5b8cdb","system_id":"levelo_inurba_marseille","lat":43.322872,"lon":5.382756,"is_reserved":false,"is_disabled":false,"rental_uris":{"android":"levelo://app?vid=7c52fd0a-eaff-495f-bca7-bc007d5b8cdb","ios":"levelo://app?vid=7c52fd0a-eaff-495f-bca7-bc007d5b8cdb"},"vehicle_type_id":"4","last_reported":1712783219,"current_range_meters":10000,"station_id":"ce4bhr12rcd13ifvqhqg","pricing_plan_id":"cebpf4jnsgd1na2vs0mg"},{"bike_id":"faa46ed1-9466-4a55-adfd-c5ccd993806f","system_id":"levelo_inurba_marseille","lat":43.322872,"lon":5.382756,"is_reserved":false,"is_disabled":false,"rental_uris":{"android":"levelo://app?vid=faa46ed1-9466-4a55-adfd-c5ccd993806f","ios":"levelo://app?vid=faa46ed1-9466-4a55-adfd-c5ccd993806f"},"vehicle_type_id":"4","last_reported":1712783219,"current_range_meters":0,"station_id":"ce4bhr12rcd13ifvqhqg","pricing_plan_id":"cebpf4jnsgd1na2vs0mg"},{"bike_id":"df83776a-bfc5-47e7-9b22-6f070ff90bc4","system_id":"levelo_inurba_marseille","lat":43.322872,"lon":5.382756,"is_reserved":false,"is_disabled":false,"rental_uris":{"android":"levelo://app?vid=df83776a-bfc5-47e7-9b22-6f070ff90bc4","ios":"levelo://app?vid=df83776a-bfc5-47e7-9b22-6f070ff90bc4"},"vehicle_type_id":"4","last_reported":1712783219,"current_range_meters":11200,"station_id":"ce4bhr12rcd13ifvqhqg","pricing_plan_id":"cebpf4jnsgd1na2vs0mg"},{"bike_id":"5bca900c-6f29-4ba1-af19-8e9ad3b2eb20","system_id":"levelo_inurba_marseille","lat":43.322872,"lon":5.382756,"is_reserved":false,"is_disabled":false,"rental_uris":{"android":"levelo://app?vid=5bca900c-6f29-4ba1-af19-8e9ad3b2eb20","ios":"levelo://app?vid=5bca900c-6f29-4ba1-af19-8e9ad3b2eb20"},"vehicle_type_id":"4","last_reported":1712783219,"current_range_meters":12000,"station_id":"ce4bhr12rcd13ifvqhqg","pricing_plan_id":"cebpf4jnsgd1na2vs0mg"},{"bike_id":"11ab4611-ad6f-46fd-9166-4a5cadbb251e","system_id":"levelo_inurba_marseille","lat":43.322872,"lon":5.382756,"is_reserved":false,"is_disabled":false,"rental_uris":{"android":"levelo://app?vid=11ab4611-ad6f-46fd-9166-4a5cadbb251e","ios":"levelo://app?vid=11ab4611-ad6f-46fd-9166-4a5cadbb251e"},"vehicle_type_id":"4","last_reported":1712783219,"current_range_meters":23600,"station_id":"ce4bhr12rcd13ifvqhqg","pricing_plan_id":"cebpf4jnsgd1na2vs0mg"},{"bike_id":"e0b728f5-f0e7-4276-89bb-134966b7be22","system_id":"levelo_inurba_marseille","lat":43.322872,"lon":5.382756,"is_reserved":false,"is_disabled":false,"rental_uris":{"android":"levelo://app?vid=e0b728f5-f0e7-4276-89bb-134966b7be22","ios":"levelo://app?vid=e0b728f5-f0e7-4276-89bb-134966b7be22"},"vehicle_type_id":"4","last_reported":1712783219,"current_range_meters":12800,"station_id":"ce4bhr12rcd13ifvqhqg","pricing_plan_id":"cebpf4jnsgd1na2vs0mg"},{"bike_id":"d4320a0a-a21d-4874-a3ca-40a16ce960bf","system_id":"levelo_inurba_marseille","lat":43.322872,"lon":5.382756,"is_reserved":false,"is_disabled":false,"rental_uris":{"android":"levelo://app?vid=d4320a0a-a21d-4874-a3ca-40a16ce960bf","ios":"levelo://app?vid=d4320a0a-a21d-4874-a3ca-40a16ce960bf"},"vehicle_type_id":"4","last_reported":1712783219,"current_range_meters":19600,"station_id":"ce4bhr12rcd13ifvqhqg","pricing_plan_id":"cebpf4jnsgd1na2vs0mg"},{"bike_id":"1eb4be2a-ed17-4680-bbb0-ebc6c4d92247","system_id":"levelo_inurba_marseille","lat":43.322872,"lon":5.382756,"is_reserved":false,"is_disabled":false,"rental_uris":{"android":"levelo://app?vid=1eb4be2a-ed17-4680-bbb0-ebc6c4d92247","ios":"levelo://app?vid=1eb4be2a-ed17-4680-bbb0-ebc6c4d92247"},"vehicle_type_id":"4","last_reported":1712783219,"current_range_meters":13200,"station_id":"ce4bhr12rcd13ifvqhqg","pricing_plan_id":"cebpf4jnsgd1na2vs0mg"},{"bike_id":"ece23af3-2672-4718-a730-e5385e6eeec5","system_id":"levelo_inurba_marseille","lat":43.322872,"lon":5.382756,"is_reserved":false,"is_disabled":false,"rental_uris":{"android":"levelo://app?vid=ece23af3-2672-4718-a730-e5385e6eeec5","ios":"levelo://app?vid=ece23af3-2672-4718-a730-e5385e6eeec5"},"vehicle_type_id":"4","last_reported":1712783219,"current_range_meters":6400,"station_id":"ce4bhr12rcd13ifvqhqg","pricing_plan_id":"cebpf4jnsgd1na2vs0mg"},{"bike_id":"94a7f555-7980-43de-8cb8-fded75b492aa","system_id":"levelo_inurba_marseille","lat":43.322872,"lon":5.382756,"is_reserved":false,"is_disabled":false,"rental_uris":{"android":"levelo://app?vid=94a7f555-7980-43de-8cb8-fded75b492aa","ios":"levelo://app?vid=94a7f555-7980-43de-8cb8-fded75b492aa"},"vehicle_type_id":"4","last_reported":1712783219,"current_range_meters":11600,"station_id":"ce4bhr12rcd13ifvqhqg","pricing_plan_id":"cebpf4jnsgd1na2vs0mg"},{"bike_id":"e3806fef-d512-46b9-be0d-b65e99ca7ae3","system_id":"levelo_inurba_marseille","lat":43.322872,"lon":5.382756,"is_reserved":false,"is_disabled":false,"rental_uris":{"android":"levelo://app?vid=e3806fef-d512-46b9-be0d-b65e99ca7ae3","ios":"levelo://app?vid=e3806fef-d512-46b9-be0d-b65e99ca7ae3"},"vehicle_type_id":"4","last_reported":1712783219,"current_range_meters":19600,"station_id":"ce4bhr12rcd13ifvqhqg","pricing_plan_id":"cebpf4jnsgd1na2vs0mg"},{"bike_id":"e4bc79db-39f7-4a0a-a5d0-c75beb928bbf","system_id":"levelo_inurba_marseille","lat":43.32291,"lon":5.38284,"is_reserved":false,"is_disabled":false,"rental_uris":{"android":"levelo://app?vid=e4bc79db-39f7-4a0a-a5d0-c75beb928bbf","ios":"levelo://app?vid=e4bc79db-39f7-4a0a-a5d0-c75beb928bbf"},"vehicle_type_id":"4","last_reported":1712783219,"current_range_meters":30000,"station_id":"ce4bhr12rcd13ifvqhqg","pricing_plan_id":"cebpf4jnsgd1na2vs0mg"},{"bike_id":"0a1e01ff-ae0a-4ac2-8fd4-234221efd548","system_id":"levelo_inurba_marseille","lat":43.297163,"lon":5.365866,"is_reserved":false,"is_disabled":false,"rental_uris":{"android":"levelo://app?vid=0a1e01ff-ae0a-4ac2-8fd4-234221efd548","ios":"levelo://app?vid=0a1e01ff-ae0a-4ac2-8fd4-234221efd548"},"vehicle_type_id":"4","last_reported":1712783219,"current_range_meters":13600,"station_id":"ce4bgn12rcd13ifvqbt0","pricing_plan_id":"cebpf4jnsgd1na2vs0mg"},{"bike_id":"b437af1a-cf2c-422c-a838-a2b236a8a86b","system_id":"levelo_inurba_marseille","lat":43.297163,"lon":5.365866,"is_reserved":false,"is_disabled":false,"rental_uris":{"android":"levelo://app?vid=b437af1a-cf2c-422c-a838-a2b236a8a86b","ios":"levelo://app?vid=b437af1a-cf2c-422c-a838-a2b236a8a86b"},"vehicle_type_id":"4","last_reported":1712783219,"current_range_meters":25200,"station_id":"ce4bgn12rcd13ifvqbt0","pricing_plan_id":"cebpf4jnsgd1na2vs0mg"},{"bike_id":"f654bd32-e75a-4d77-9ba6-24def1557a46","system_id":"levelo_inurba_marseille","lat":43.29709,"lon":5.3661,"is_reserved":false,"is_disabled":false,"rental_uris":{"android":"levelo://app?vid=f654bd32-e75a-4d77-9ba6-24def1557a46","ios":"levelo://app?vid=f654bd32-e75a-4d77-9ba6-24def1557a46"},"vehicle_type_id":"4","last_reported":1712783219,"current_range_meters":21200,"station_id":"ce4bgn12rcd13ifvqbt0","pricing_plan_id":"cebpf4jnsgd1na2vs0mg"},{"bike_id":"9abba15b-25a3-43d2-b285-8b6d0302a4e5","system_id":"levelo_inurba_marseille","lat":43.297163,"lon":5.365866,"is_reserved":false,"is_disabled":false,"rental_uris":{"android":"levelo://app?vid=9abba15b-25a3-43d2-b285-8b6d0302a4e5","ios":"levelo://app?vid=9abba15b-25a3-43d2-b285-8b6d0302a4e5"},"vehicle_type_id":"4","last_reported":1712783219,"current_range_meters":30800,"station_id":"ce4bgn12rcd13ifvqbt0","pricing_plan_id":"cebpf4jnsgd1na2vs0mg"},{"bike_id":"e028d82f-539a-4204-bf67-a4e5854a2671","system_id":"levelo_inurba_marseille","lat":43.297064,"lon":5.366122,"is_reserved":false,"is_disabled":false,"rental_uris":{"android":"levelo://app?vid=e028d82f-539a-4204-bf67-a4e5854a2671","ios":"levelo://app?vid=e028d82f-539a-4204-bf67-a4e5854a2671"},"vehicle_type_id":"4","last_reported":1712783219,"current_range_meters":29600,"station_id":"ce4bgn12rcd13ifvqbt0","pricing_plan_id":"cebpf4jnsgd1na2vs0mg"},{"bike_id":"c834cf07-0f9c-45eb-91ed-beb74fca2430","system_id":"levelo_inurba_marseille","lat":43.297163,"lon":5.365866,"is_reserved":false,"is_disabled":false,"rental_uris":{"android":"levelo://app?vid=c834cf07-0f9c-45eb-91ed-beb74fca2430","ios":"levelo://app?vid=c834cf07-0f9c-45eb-91ed-beb74fca2430"},"vehicle_type_id":"4","last_reported":1712783219,"current_range_meters":4000,"station_id":"ce4bgn12rcd13ifvqbt0","pricing_plan_id":"cebpf4jnsgd1na2vs0mg"},{"bike_id":"96418c00-e9a7-4ef9-a3a0-d215391b6c05","system_id":"levelo_inurba_marseille","lat":43.297163,"lon":5.365866,"is_reserved":false,"is_disabled":false,"rental_uris":{"android":"levelo://app?vid=96418c00-e9a7-4ef9-a3a0-d215391b6c05","ios":"levelo://app?vid=96418c00-e9a7-4ef9-a3a0-d215391b6c05"},"vehicle_type_id":"4","last_reported":1712783219,"current_range_meters":16800,"station_id":"ce4bgn12rcd13ifvqbt0","pricing_plan_id":"cebpf4jnsgd1na2vs0mg"},{"bike_id":"0431b7b5-8443-49dc-838f-8ca8f6991e44","system_id":"levelo_inurba_marseille","lat":43.29703,"lon":5.36607,"is_reserved":false,"is_disabled":false,"rental_uris":{"android":"levelo://app?vid=0431b7b5-8443-49dc-838f-8ca8f6991e44","ios":"levelo://app?vid=0431b7b5-8443-49dc-838f-8ca8f6991e44"},"vehicle_type_id":"4","last_reported":1712783219,"current_range_meters":14800,"station_id":"ce4bgn12rcd13ifvqbt0","pricing_plan_id":"cebpf4jnsgd1na2vs0mg"},{"bike_id":"c386b7bb-e3d2-4368-91fb-dd7af29dd126","system_id":"levelo_inurba_marseille","lat":43.297163,"lon":5.365866,"is_reserved":false,"is_disabled":false,"rental_uris":{"android":"levelo://app?vid=c386b7bb-e3d2-4368-91fb-dd7af29dd126","ios":"levelo://app?vid=c386b7bb-e3d2-4368-91fb-dd7af29dd126"},"vehicle_type_id":"4","last_reported":1712783219,"current_range_meters":19600,"station_id":"ce4bgn12rcd13ifvqbt0","pricing_plan_id":"cebpf4jnsgd1na2vs0mg"},{"bike_id":"18f65bd0-01de-479d-802e-a17fba1fa293","system_id":"levelo_inurba_marseille","lat":43.2968,"lon":5.37291,"is_reserved":false,"is_disabled":false,"rental_uris":{"android":"levelo://app?vid=18f65bd0-01de-479d-802e-a17fba1fa293","ios":"levelo://app?vid=18f65bd0-01de-479d-802e-a17fba1fa293"},"vehicle_type_id":"4","last_reported":1712783219,"current_range_meters":29200,"station_id":"ce4bgk12rcd13ifvqbj0","pricing_plan_id":"cebpf4jnsgd1na2vs0mg"},{"bike_id":"da48f446-d53f-4072-aefb-8a45a3a01bef","system_id":"levelo_inurba_marseille","lat":43.296129,"lon":5.370777,"is_reserved":false,"is_disabled":false,"rental_uris":{"android":"levelo://app?vid=da48f446-d53f-4072-aefb-8a45a3a01bef","ios":"levelo://app?vid=da48f446-d53f-4072-aefb-8a45a3a01bef"},"vehicle_type_id":"4","last_reported":1712783219,"current_range_meters":25600,"station_id":"ce4bgnh2rcd13ifvqc0g","pricing_plan_id":"cebpf4jnsgd1na2vs0mg"},{"bike_id":"852a254a-32b3-44c2-993d-648e8c1252fb","system_id":"levelo_inurba_marseille","lat":43.296129,"lon":5.370777,"is_reserved":false,"is_disabled":false,"rental_uris":{"android":"levelo://app?vid=852a254a-32b3-44c2-993d-648e8c1252fb","ios":"levelo://app?vid=852a254a-32b3-44c2-993d-648e8c1252fb"},"vehicle_type_id":"4","last_reported":1712783219,"current_range_meters":27200,"station_id":"ce4bgnh2rcd13ifvqc0g","pricing_plan_id":"cebpf4jnsgd1na2vs0mg"},{"bike_id":"49874b22-3f58-4c35-96e1-1814660c7281","system_id":"levelo_inurba_marseille","lat":43.29618,"lon":5.37152,"is_reserved":false,"is_disabled":false,"rental_uris":{"android":"levelo://app?vid=49874b22-3f58-4c35-96e1-1814660c7281","ios":"levelo://app?vid=49874b22-3f58-4c35-96e1-1814660c7281"},"vehicle_type_id":"4","last_reported":1712783219,"current_range_meters":28400,"station_id":"","pricing_plan_id":"cebpf4jnsgd1na2vs0mg"},{"bike_id":"4234c8f1-898d-4351-b505-a5f599dd6176","system_id":"levelo_inurba_marseille","lat":43.296129,"lon":5.370777,"is_reserved":false,"is_disabled":false,"rental_uris":{"android":"levelo://app?vid=4234c8f1-898d-4351-b505-a5f599dd6176","ios":"levelo://app?vid=4234c8f1-898d-4351-b505-a5f599dd6176"},"vehicle_type_id":"4","last_reported":1712783219,"current_range_meters":2000,"station_id":"ce4bgnh2rcd13ifvqc0g","pricing_plan_id":"cebpf4jnsgd1na2vs0mg"},{"bike_id":"0f5bcb0d-9ac3-4864-95c2-b42bec8f22db","system_id":"levelo_inurba_marseille","lat":43.304188,"lon":5.412904,"is_reserved":false,"is_disabled":false,"rental_uris":{"android":"levelo://app?vid=0f5bcb0d-9ac3-4864-95c2-b42bec8f22db","ios":"levelo://app?vid=0f5bcb0d-9ac3-4864-95c2-b42bec8f22db"},"vehicle_type_id":"4","last_reported":1712783219,"current_range_meters":12800,"station_id":"ce4bhop2rcd13ifvqh8g","pricing_plan_id":"cebpf4jnsgd1na2vs0mg"},{"bike_id":"542b0b5c-086c-42f6-a850-eacbd3e381f5","system_id":"levelo_inurba_marseille","lat":43.296921,"lon":5.376579,"is_reserved":false,"is_disabled":false,"rental_uris":{"android":"levelo://app?vid=542b0b5c-086c-42f6-a850-eacbd3e381f5","ios":"levelo://app?vid=542b0b5c-086c-42f6-a850-eacbd3e381f5"},"vehicle_type_id":"4","last_reported":1712783219,"current_range_meters":0,"station_id":"ce4bgkh2rcd13ifvqbl0","pricing_plan_id":"cebpf4jnsgd1na2vs0mg"},{"bike_id":"c20e2230-8038-452f-891c-44c8d95012e1","system_id":"levelo_inurba_marseille","lat":43.299132,"lon":5.381497,"is_reserved":false,"is_disabled":false,"rental_uris":{"android":"levelo://app?vid=c20e2230-8038-452f-891c-44c8d95012e1","ios":"levelo://app?vid=c20e2230-8038-452f-891c-44c8d95012e1"},"vehicle_type_id":"4","last_reported":1712783219,"current_range_meters":0,"station_id":"ce4bhch2rcd13ifvqeug","pricing_plan_id":"cebpf4jnsgd1na2vs0mg"},{"bike_id":"ca6db3e3-24a8-48b9-9474-14421a5f46d5","system_id":"levelo_inurba_marseille","lat":43.309589,"lon":5.390258,"is_reserved":false,"is_disabled":false,"rental_uris":{"android":"levelo://app?vid=ca6db3e3-24a8-48b9-9474-14421a5f46d5","ios":"levelo://app?vid=ca6db3e3-24a8-48b9-9474-14421a5f46d5"},"vehicle_type_id":"4","last_reported":1712783219,"current_range_meters":4000,"station_id":"ce4bgup2rcd13ifvqco0","pricing_plan_id":"cebpf4jnsgd1na2vs0mg"},{"bike_id":"fc7326d3-529b-4789-b58e-d93c050ef3a7","system_id":"levelo_inurba_marseille","lat":43.31752,"lon":5.39015,"is_reserved":false,"is_disabled":false,"rental_uris":{"android":"levelo://app?vid=fc7326d3-529b-4789-b58e-d93c050ef3a7","ios":"levelo://app?vid=fc7326d3-529b-4789-b58e-d93c050ef3a7"},"vehicle_type_id":"4","last_reported":1712783219,"current_range_meters":5600,"station_id":"ce4bhqp2rcd13ifvqhng","pricing_plan_id":"cebpf4jnsgd1na2vs0mg"},{"bike_id":"fc38a161-7886-47f3-a901-6c388649b31e","system_id":"levelo_inurba_marseille","lat":43.317557,"lon":5.390173,"is_reserved":false,"is_disabled":false,"rental_uris":{"android":"levelo://app?vid=fc38a161-7886-47f3-a901-6c388649b31e","ios":"levelo://app?vid=fc38a161-7886-47f3-a901-6c388649b31e"},"vehicle_type_id":"4","last_reported":1712783219,"current_range_meters":31200,"station_id":"ce4bhqp2rcd13ifvqhng","pricing_plan_id":"cebpf4jnsgd1na2vs0mg"},{"bike_id":"3d40a90f-de14-40f4-b43e-0606569923d0","system_id":"levelo_inurba_marseille","lat":43.31754,"lon":5.39022,"is_reserved":false,"is_disabled":false,"rental_uris":{"android":"levelo://app?vid=3d40a90f-de14-40f4-b43e-0606569923d0","ios":"levelo://app?vid=3d40a90f-de14-40f4-b43e-0606569923d0"},"vehicle_type_id":"4","last_reported":1712783219,"current_range_meters":7200,"station_id":"ce4bhqp2rcd13ifvqhng","pricing_plan_id":"cebpf4jnsgd1na2vs0mg"},{"bike_id":"93d5c5a9-8248-4ced-b494-8d2ee23c0491","system_id":"levelo_inurba_marseille","lat":43.304274,"lon":5.388873,"is_reserved":false,"is_disabled":false,"rental_uris":{"android":"levelo://app?vid=93d5c5a9-8248-4ced-b494-8d2ee23c0491","ios":"levelo://app?vid=93d5c5a9-8248-4ced-b494-8d2ee23c0491"},"vehicle_type_id":"4","last_reported":1712783219,"current_range_meters":11200,"station_id":"ce4bgk12rcd13ifvqbi0","pricing_plan_id":"cebpf4jnsgd1na2vs0mg"},{"bike_id":"f2cf6366-fa3d-46aa-a25c-8c6fa905dc27","system_id":"levelo_inurba_marseille","lat":43.304274,"lon":5.388873,"is_reserved":false,"is_disabled":false,"rental_uris":{"android":"levelo://app?vid=f2cf6366-fa3d-46aa-a25c-8c6fa905dc27","ios":"levelo://app?vid=f2cf6366-fa3d-46aa-a25c-8c6fa905dc27"},"vehicle_type_id":"4","last_reported":1712783219,"current_range_meters":18400,"station_id":"ce4bgk12rcd13ifvqbi0","pricing_plan_id":"cebpf4jnsgd1na2vs0mg"},{"bike_id":"5cca73a9-d7c4-4147-91cb-92e10f29038c","system_id":"levelo_inurba_marseille","lat":43.29789,"lon":5.38094,"is_reserved":false,"is_disabled":false,"rental_uris":{"android":"levelo://app?vid=5cca73a9-d7c4-4147-91cb-92e10f29038c","ios":"levelo://app?vid=5cca73a9-d7c4-4147-91cb-92e10f29038c"},"vehicle_type_id":"4","last_reported":1712783219,"current_range_meters":0,"station_id":"ce4bgip2rcd13ifvqbb0","pricing_plan_id":"cebpf4jnsgd1na2vs0mg"},{"bike_id":"4def5f39-e354-432a-aa7a-c9e688f17208","system_id":"levelo_inurba_marseille","lat":43.298037,"lon":5.381066,"is_reserved":false,"is_disabled":false,"rental_uris":{"android":"levelo://app?vid=4def5f39-e354-432a-aa7a-c9e688f17208","ios":"levelo://app?vid=4def5f39-e354-432a-aa7a-c9e688f17208"},"vehicle_type_id":"4","last_reported":1712783219,"current_range_meters":20400,"station_id":"ce4bgip2rcd13ifvqbb0","pricing_plan_id":"cebpf4jnsgd1na2vs0mg"},{"bike_id":"0539430b-b4bd-4044-bc2a-233f7cf39085","system_id":"levelo_inurba_marseille","lat":43.304274,"lon":5.388873,"is_reserved":false,"is_disabled":false,"rental_uris":{"android":"levelo://app?vid=0539430b-b4bd-4044-bc2a-233f7cf39085","ios":"levelo://app?vid=0539430b-b4bd-4044-bc2a-233f7cf39085"},"vehicle_type_id":"4","last_reported":1712783219,"current_range_meters":28000,"station_id":"ce4bgk12rcd13ifvqbi0","pricing_plan_id":"cebpf4jnsgd1na2vs0mg"},{"bike_id":"1f0a1a78-b6be-4752-85a7-71ffa83d1260","system_id":"levelo_inurba_marseille","lat":43.304274,"lon":5.388873,"is_reserved":false,"is_disabled":false,"rental_uris":{"android":"levelo://app?vid=1f0a1a78-b6be-4752-85a7-71ffa83d1260","ios":"levelo://app?vid=1f0a1a78-b6be-4752-85a7-71ffa83d1260"},"vehicle_type_id":"4","last_reported":1712783219,"current_range_meters":6400,"station_id":"ce4bgk12rcd13ifvqbi0","pricing_plan_id":"cebpf4jnsgd1na2vs0mg"},{"bike_id":"a95d9c63-ee54-4f29-a2fa-e69c1350fc99","system_id":"levelo_inurba_marseille","lat":43.304274,"lon":5.388873,"is_reserved":false,"is_disabled":false,"rental_uris":{"android":"levelo://app?vid=a95d9c63-ee54-4f29-a2fa-e69c1350fc99","ios":"levelo://app?vid=a95d9c63-ee54-4f29-a2fa-e69c1350fc99"},"vehicle_type_id":"4","last_reported":1712783219,"current_range_meters":10000,"station_id":"ce4bgk12rcd13ifvqbi0","pricing_plan_id":"cebpf4jnsgd1na2vs0mg"},{"bike_id":"9e93f9f7-68c6-4ab6-a911-1a67eac9f8f5","system_id":"levelo_inurba_marseille","lat":43.304278,"lon":5.388868,"is_reserved":false,"is_disabled":false,"rental_uris":{"android":"levelo://app?vid=9e93f9f7-68c6-4ab6-a911-1a67eac9f8f5","ios":"levelo://app?vid=9e93f9f7-68c6-4ab6-a911-1a67eac9f8f5"},"vehicle_type_id":"4","last_reported":1712783219,"current_range_meters":0,"station_id":"ce4bgk12rcd13ifvqbi0","pricing_plan_id":"cebpf4jnsgd1na2vs0mg"},{"bike_id":"2debd01e-94b8-4275-b944-8361c3a120e0","system_id":"levelo_inurba_marseille","lat":43.304274,"lon":5.388873,"is_reserved":false,"is_disabled":false,"rental_uris":{"android":"levelo://app?vid=2debd01e-94b8-4275-b944-8361c3a120e0","ios":"levelo://app?vid=2debd01e-94b8-4275-b944-8361c3a120e0"},"vehicle_type_id":"4","last_reported":1712783219,"current_range_meters":5200,"station_id":"ce4bgk12rcd13ifvqbi0","pricing_plan_id":"cebpf4jnsgd1na2vs0mg"},{"bike_id":"640d76bc-7561-4ad3-a5c2-1a47ebfa340a","system_id":"levelo_inurba_marseille","lat":43.304274,"lon":5.388873,"is_reserved":false,"is_disabled":false,"rental_uris":{"android":"levelo://app?vid=640d76bc-7561-4ad3-a5c2-1a47ebfa340a","ios":"levelo://app?vid=640d76bc-7561-4ad3-a5c2-1a47ebfa340a"},"vehicle_type_id":"4","last_reported":1712783219,"current_range_meters":5200,"station_id":"ce4bgk12rcd13ifvqbi0","pricing_plan_id":"cebpf4jnsgd1na2vs0mg"},{"bike_id":"28978b07-9166-41c2-9d9c-423cec1c5ce1","system_id":"levelo_inurba_marseille","lat":43.304274,"lon":5.388873,"is_reserved":false,"is_disabled":false,"rental_uris":{"android":"levelo://app?vid=28978b07-9166-41c2-9d9c-423cec1c5ce1","ios":"levelo://app?vid=28978b07-9166-41c2-9d9c-423cec1c5ce1"},"vehicle_type_id":"4","last_reported":1712783219,"current_range_meters":13200,"station_id":"ce4bgk12rcd13ifvqbi0","pricing_plan_id":"cebpf4jnsgd1na2vs0mg"},{"bike_id":"a1f525ca-b14a-425b-bc43-890c9d24001b","system_id":"levelo_inurba_marseille","lat":43.304274,"lon":5.388873,"is_reserved":false,"is_disabled":false,"rental_uris":{"android":"levelo://app?vid=a1f525ca-b14a-425b-bc43-890c9d24001b","ios":"levelo://app?vid=a1f525ca-b14a-425b-bc43-890c9d24001b"},"vehicle_type_id":"4","last_reported":1712783219,"current_range_meters":14400,"station_id":"ce4bgk12rcd13ifvqbi0","pricing_plan_id":"cebpf4jnsgd1na2vs0mg"},{"bike_id":"fdac61da-3bf2-45a4-91d2-f560dc7cf7c9","system_id":"levelo_inurba_marseille","lat":43.313571,"lon":5.384829,"is_reserved":false,"is_disabled":false,"rental_uris":{"android":"levelo://app?vid=fdac61da-3bf2-45a4-91d2-f560dc7cf7c9","ios":"levelo://app?vid=fdac61da-3bf2-45a4-91d2-f560dc7cf7c9"},"vehicle_type_id":"4","last_reported":1712783219,"current_range_meters":25600,"station_id":"ce4bgt92rcd13ifvqcf0","pricing_plan_id":"cebpf4jnsgd1na2vs0mg"},{"bike_id":"0e43efc2-2fb1-47c4-8881-1fbb2308ee59","system_id":"levelo_inurba_marseille","lat":43.299707,"lon":5.384859,"is_reserved":false,"is_disabled":false,"rental_uris":{"android":"levelo://app?vid=0e43efc2-2fb1-47c4-8881-1fbb2308ee59","ios":"levelo://app?vid=0e43efc2-2fb1-47c4-8881-1fbb2308ee59"},"vehicle_type_id":"4","last_reported":1712783219,"current_range_meters":13200,"station_id":"ce4bgj92rcd13ifvqbd0","pricing_plan_id":"cebpf4jnsgd1na2vs0mg"},{"bike_id":"f110a147-dfa8-4d26-ac30-26d2a757ba76","system_id":"levelo_inurba_marseille","lat":43.29525,"lon":5.37501,"is_reserved":false,"is_disabled":false,"rental_uris":{"android":"levelo://app?vid=f110a147-dfa8-4d26-ac30-26d2a757ba76","ios":"levelo://app?vid=f110a147-dfa8-4d26-ac30-26d2a757ba76"},"vehicle_type_id":"4","last_reported":1712783219,"current_range_meters":1200,"station_id":"","pricing_plan_id":"cebpf4jnsgd1na2vs0mg"},{"bike_id":"31dfc1ac-6320-4a72-aaa6-4d1c571935fb","system_id":"levelo_inurba_marseille","lat":43.309038,"lon":5.396546,"is_reserved":false,"is_disabled":false,"rental_uris":{"android":"levelo://app?vid=31dfc1ac-6320-4a72-aaa6-4d1c571935fb","ios":"levelo://app?vid=31dfc1ac-6320-4a72-aaa6-4d1c571935fb"},"vehicle_type_id":"4","last_reported":1712783219,"current_range_meters":16000,"station_id":"ce4bh012rcd13ifvqcv0","pricing_plan_id":"cebpf4jnsgd1na2vs0mg"},{"bike_id":"ba95910c-c11a-4da1-bd90-7693808462d6","system_id":"levelo_inurba_marseille","lat":43.314487,"lon":5.392887,"is_reserved":false,"is_disabled":false,"rental_uris":{"android":"levelo://app?vid=ba95910c-c11a-4da1-bd90-7693808462d6","ios":"levelo://app?vid=ba95910c-c11a-4da1-bd90-7693808462d6"},"vehicle_type_id":"4","last_reported":1712783219,"current_range_meters":23600,"station_id":"","pricing_plan_id":"cebpf4jnsgd1na2vs0mg"},{"bike_id":"ad8c1c25-cea1-4c81-994e-b8caa1b263b6","system_id":"levelo_inurba_marseille","lat":43.293249,"lon":5.371578,"is_reserved":false,"is_disabled":false,"rental_uris":{"android":"levelo://app?vid=ad8c1c25-cea1-4c81-994e-b8caa1b263b6","ios":"levelo://app?vid=ad8c1c25-cea1-4c81-994e-b8caa1b263b6"},"vehicle_type_id":"4","last_reported":1712783219,"current_range_meters":0,"station_id":"ce4bgh92rcd13ifvqb40","pricing_plan_id":"cebpf4jnsgd1na2vs0mg"},{"bike_id":"b69ff804-fa20-4c4a-a85f-1e46b52145a3","system_id":"levelo_inurba_marseille","lat":43.292749,"lon":5.368402,"is_reserved":false,"is_disabled":false,"rental_uris":{"android":"levelo://app?vid=b69ff804-fa20-4c4a-a85f-1e46b52145a3","ios":"levelo://app?vid=b69ff804-fa20-4c4a-a85f-1e46b52145a3"},"vehicle_type_id":"4","last_reported":1712783219,"current_range_meters":19600,"station_id":"ce4bhbp2rcd13ifvqesg","pricing_plan_id":"cebpf4jnsgd1na2vs0mg"},{"bike_id":"9c03c305-b7c3-4a5d-8131-09499be1e2ad","system_id":"levelo_inurba_marseille","lat":43.292005,"lon":5.357875,"is_reserved":false,"is_disabled":false,"rental_uris":{"android":"levelo://app?vid=9c03c305-b7c3-4a5d-8131-09499be1e2ad","ios":"levelo://app?vid=9c03c305-b7c3-4a5d-8131-09499be1e2ad"},"vehicle_type_id":"4","last_reported":1712783219,"current_range_meters":24000,"station_id":"ce4bhb12rcd13ifvqel0","pricing_plan_id":"cebpf4jnsgd1na2vs0mg"},{"bike_id":"5cfe6278-1034-45a5-b462-ec08fe3a241c","system_id":"levelo_inurba_marseille","lat":43.295447,"lon":5.38145,"is_reserved":false,"is_disabled":false,"rental_uris":{"android":"levelo://app?vid=5cfe6278-1034-45a5-b462-ec08fe3a241c","ios":"levelo://app?vid=5cfe6278-1034-45a5-b462-ec08fe3a241c"},"vehicle_type_id":"4","last_reported":1712783219,"current_range_meters":3600,"station_id":"","pricing_plan_id":"cebpf4jnsgd1na2vs0mg"},{"bike_id":"b1c0e98d-f6f2-4095-a1f4-fd2bd50257f5","system_id":"levelo_inurba_marseille","lat":43.30597,"lon":5.39323,"is_reserved":false,"is_disabled":false,"rental_uris":{"android":"levelo://app?vid=b1c0e98d-f6f2-4095-a1f4-fd2bd50257f5","ios":"levelo://app?vid=b1c0e98d-f6f2-4095-a1f4-fd2bd50257f5"},"vehicle_type_id":"4","last_reported":1712783219,"current_range_meters":0,"station_id":"ce4bh0p2rcd13ifvqd80","pricing_plan_id":"cebpf4jnsgd1na2vs0mg"},{"bike_id":"1a987e50-136c-4ea0-a2fc-4e768cc70987","system_id":"levelo_inurba_marseille","lat":43.305994,"lon":5.393687,"is_reserved":false,"is_disabled":false,"rental_uris":{"android":"levelo://app?vid=1a987e50-136c-4ea0-a2fc-4e768cc70987","ios":"levelo://app?vid=1a987e50-136c-4ea0-a2fc-4e768cc70987"},"vehicle_type_id":"4","last_reported":1712783219,"current_range_meters":0,"station_id":"ce4bh0p2rcd13ifvqd80","pricing_plan_id":"cebpf4jnsgd1na2vs0mg"},{"bike_id":"c9cf1a9a-1308-4703-8d96-1f9be10e9d5c","system_id":"levelo_inurba_marseille","lat":43.305994,"lon":5.393687,"is_reserved":false,"is_disabled":false,"rental_uris":{"android":"levelo://app?vid=c9cf1a9a-1308-4703-8d96-1f9be10e9d5c","ios":"levelo://app?vid=c9cf1a9a-1308-4703-8d96-1f9be10e9d5c"},"vehicle_type_id":"4","last_reported":1712783219,"current_range_meters":24800,"station_id":"ce4bh0p2rcd13ifvqd80","pricing_plan_id":"cebpf4jnsgd1na2vs0mg"},{"bike_id":"a532fad9-e433-47ce-bbcd-34bd983179dc","system_id":"levelo_inurba_marseille","lat":43.302992,"lon":5.392136,"is_reserved":false,"is_disabled":false,"rental_uris":{"android":"levelo://app?vid=a532fad9-e433-47ce-bbcd-34bd983179dc","ios":"levelo://app?vid=a532fad9-e433-47ce-bbcd-34bd983179dc"},"vehicle_type_id":"4","last_reported":1712783219,"current_range_meters":18400,"station_id":"ce4bgkh2rcd13ifvqbk0","pricing_plan_id":"cebpf4jnsgd1na2vs0mg"},{"bike_id":"bb98f995-906a-455d-bff2-9ad531a91383","system_id":"levelo_inurba_marseille","lat":43.305994,"lon":5.393687,"is_reserved":false,"is_disabled":false,"rental_uris":{"android":"levelo://app?vid=bb98f995-906a-455d-bff2-9ad531a91383","ios":"levelo://app?vid=bb98f995-906a-455d-bff2-9ad531a91383"},"vehicle_type_id":"4","last_reported":1712783219,"current_range_meters":3200,"station_id":"ce4bh0p2rcd13ifvqd80","pricing_plan_id":"cebpf4jnsgd1na2vs0mg"},{"bike_id":"624a0b17-7501-4f8a-896a-e46cbe156638","system_id":"levelo_inurba_marseille","lat":43.304278,"lon":5.388868,"is_reserved":false,"is_disabled":false,"rental_uris":{"android":"levelo://app?vid=624a0b17-7501-4f8a-896a-e46cbe156638","ios":"levelo://app?vid=624a0b17-7501-4f8a-896a-e46cbe156638"},"vehicle_type_id":"4","last_reported":1712783219,"current_range_meters":20400,"station_id":"ce4bgk12rcd13ifvqbi0","pricing_plan_id":"cebpf4jnsgd1na2vs0mg"},{"bike_id":"82701238-b904-461e-8392-f617faff15da","system_id":"levelo_inurba_marseille","lat":43.293687,"lon":5.378497,"is_reserved":false,"is_disabled":false,"rental_uris":{"android":"levelo://app?vid=82701238-b904-461e-8392-f617faff15da","ios":"levelo://app?vid=82701238-b904-461e-8392-f617faff15da"},"vehicle_type_id":"4","last_reported":1712783219,"current_range_meters":10400,"station_id":"","pricing_plan_id":"cebpf4jnsgd1na2vs0mg"},{"bike_id":"a7b65638-cb15-4759-995c-eccfa94f94bd","system_id":"levelo_inurba_marseille","lat":43.30085,"lon":5.390856,"is_reserved":false,"is_disabled":false,"rental_uris":{"android":"levelo://app?vid=a7b65638-cb15-4759-995c-eccfa94f94bd","ios":"levelo://app?vid=a7b65638-cb15-4759-995c-eccfa94f94bd"},"vehicle_type_id":"4","last_reported":1712783219,"current_range_meters":28400,"station_id":"ce4bh192rcd13ifvqdb0","pricing_plan_id":"cebpf4jnsgd1na2vs0mg"},{"bike_id":"b86ad6a0-35c4-4aa6-b023-c39f16067b29","system_id":"levelo_inurba_marseille","lat":43.300966,"lon":5.390772,"is_reserved":false,"is_disabled":false,"rental_uris":{"android":"levelo://app?vid=b86ad6a0-35c4-4aa6-b023-c39f16067b29","ios":"levelo://app?vid=b86ad6a0-35c4-4aa6-b023-c39f16067b29"},"vehicle_type_id":"4","last_reported":1712783219,"current_range_meters":22000,"station_id":"ce4bh192rcd13ifvqdb0","pricing_plan_id":"cebpf4jnsgd1na2vs0mg"},{"bike_id":"4a89884a-a9a8-4e87-9ad0-ed63314cb959","system_id":"levelo_inurba_marseille","lat":43.292311,"lon":5.360731,"is_reserved":false,"is_disabled":false,"rental_uris":{"android":"levelo://app?vid=4a89884a-a9a8-4e87-9ad0-ed63314cb959","ios":"levelo://app?vid=4a89884a-a9a8-4e87-9ad0-ed63314cb959"},"vehicle_type_id":"4","last_reported":1712783219,"current_range_meters":0,"station_id":"ce4bhbh2rcd13ifvqeqg","pricing_plan_id":"cebpf4jnsgd1na2vs0mg"},{"bike_id":"4061b47c-d5ae-4ac3-9f56-7ed9d80611e6","system_id":"levelo_inurba_marseille","lat":43.300966,"lon":5.390864,"is_reserved":false,"is_disabled":false,"rental_uris":{"android":"levelo://app?vid=4061b47c-d5ae-4ac3-9f56-7ed9d80611e6","ios":"levelo://app?vid=4061b47c-d5ae-4ac3-9f56-7ed9d80611e6"},"vehicle_type_id":"4","last_reported":1712783219,"current_range_meters":20800,"station_id":"","pricing_plan_id":"cebpf4jnsgd1na2vs0mg"},{"bike_id":"0fb9d8fe-bf24-4b2f-9724-ed5bc366a0a7","system_id":"levelo_inurba_marseille","lat":43.29264,"lon":5.376193,"is_reserved":false,"is_disabled":false,"rental_uris":{"android":"levelo://app?vid=0fb9d8fe-bf24-4b2f-9724-ed5bc366a0a7","ios":"levelo://app?vid=0fb9d8fe-bf24-4b2f-9724-ed5bc366a0a7"},"vehicle_type_id":"4","last_reported":1712783219,"current_range_meters":0,"station_id":"","pricing_plan_id":"cebpf4jnsgd1na2vs0mg"},{"bike_id":"8d3992e3-9810-4797-a145-22e609b496f8","system_id":"levelo_inurba_marseille","lat":43.298764,"lon":5.388973,"is_reserved":false,"is_disabled":false,"rental_uris":{"android":"levelo://app?vid=8d3992e3-9810-4797-a145-22e609b496f8","ios":"levelo://app?vid=8d3992e3-9810-4797-a145-22e609b496f8"},"vehicle_type_id":"4","last_reported":1712783219,"current_range_meters":14000,"station_id":"ce4bh392rcd13ifvqdl0","pricing_plan_id":"cebpf4jnsgd1na2vs0mg"},{"bike_id":"6322c7e5-3189-427b-8dca-5f7de375285a","system_id":"levelo_inurba_marseille","lat":43.29164,"lon":5.37148,"is_reserved":false,"is_disabled":false,"rental_uris":{"android":"levelo://app?vid=6322c7e5-3189-427b-8dca-5f7de375285a","ios":"levelo://app?vid=6322c7e5-3189-427b-8dca-5f7de375285a"},"vehicle_type_id":"4","last_reported":1712783219,"current_range_meters":5200,"station_id":"ce4bha92rcd13ifvqeh0","pricing_plan_id":"cebpf4jnsgd1na2vs0mg"},{"bike_id":"33b20880-b6b9-4909-ba29-3a9f6b6dc067","system_id":"levelo_inurba_marseille","lat":43.29868,"lon":5.38909,"is_reserved":false,"is_disabled":false,"rental_uris":{"android":"levelo://app?vid=33b20880-b6b9-4909-ba29-3a9f6b6dc067","ios":"levelo://app?vid=33b20880-b6b9-4909-ba29-3a9f6b6dc067"},"vehicle_type_id":"4","last_reported":1712783219,"current_range_meters":15200,"station_id":"ce4bh392rcd13ifvqdl0","pricing_plan_id":"cebpf4jnsgd1na2vs0mg"},{"bike_id":"bd563087-28be-476e-8192-fa4c1c2b7e6d","system_id":"levelo_inurba_marseille","lat":43.290995,"lon":5.381361,"is_reserved":false,"is_disabled":false,"rental_uris":{"android":"levelo://app?vid=bd563087-28be-476e-8192-fa4c1c2b7e6d","ios":"levelo://app?vid=bd563087-28be-476e-8192-fa4c1c2b7e6d"},"vehicle_type_id":"4","last_reported":1712783219,"current_range_meters":13600,"station_id":"ce4bh512rcd13ifvqe2g","pricing_plan_id":"cebpf4jnsgd1na2vs0mg"},{"bike_id":"3f03e714-6f62-4bb1-8a09-e976891f26e4","system_id":"levelo_inurba_marseille","lat":43.309038,"lon":5.396546,"is_reserved":false,"is_disabled":false,"rental_uris":{"android":"levelo://app?vid=3f03e714-6f62-4bb1-8a09-e976891f26e4","ios":"levelo://app?vid=3f03e714-6f62-4bb1-8a09-e976891f26e4"},"vehicle_type_id":"4","last_reported":1712783219,"current_range_meters":0,"station_id":"ce4bh012rcd13ifvqcv0","pricing_plan_id":"cebpf4jnsgd1na2vs0mg"},{"bike_id":"fb4868a4-1358-45bc-b6aa-10cc91e4d5ee","system_id":"levelo_inurba_marseille","lat":43.31331,"lon":5.39686,"is_reserved":false,"is_disabled":false,"rental_uris":{"android":"levelo://app?vid=fb4868a4-1358-45bc-b6aa-10cc91e4d5ee","ios":"levelo://app?vid=fb4868a4-1358-45bc-b6aa-10cc91e4d5ee"},"vehicle_type_id":"4","last_reported":1712783219,"current_range_meters":18800,"station_id":"ce4bgvp2rcd13ifvqcu0","pricing_plan_id":"cebpf4jnsgd1na2vs0mg"},{"bike_id":"912f5619-c4d6-4146-a1d2-15413f1be421","system_id":"levelo_inurba_marseille","lat":43.309038,"lon":5.396546,"is_reserved":false,"is_disabled":false,"rental_uris":{"android":"levelo://app?vid=912f5619-c4d6-4146-a1d2-15413f1be421","ios":"levelo://app?vid=912f5619-c4d6-4146-a1d2-15413f1be421"},"vehicle_type_id":"4","last_reported":1712783219,"current_range_meters":13600,"station_id":"ce4bh012rcd13ifvqcv0","pricing_plan_id":"cebpf4jnsgd1na2vs0mg"},{"bike_id":"9550d426-0ee3-4574-b943-45d038821619","system_id":"levelo_inurba_marseille","lat":43.313291,"lon":5.396838,"is_reserved":false,"is_disabled":false,"rental_uris":{"android":"levelo://app?vid=9550d426-0ee3-4574-b943-45d038821619","ios":"levelo://app?vid=9550d426-0ee3-4574-b943-45d038821619"},"vehicle_type_id":"4","last_reported":1712783219,"current_range_meters":6800,"station_id":"ce4bgvp2rcd13ifvqcu0","pricing_plan_id":"cebpf4jnsgd1na2vs0mg"},{"bike_id":"b2a9d68f-c15e-44e5-bf2a-6f284f53f425","system_id":"levelo_inurba_marseille","lat":43.309038,"lon":5.396546,"is_reserved":false,"is_disabled":false,"rental_uris":{"android":"levelo://app?vid=b2a9d68f-c15e-44e5-bf2a-6f284f53f425","ios":"levelo://app?vid=b2a9d68f-c15e-44e5-bf2a-6f284f53f425"},"vehicle_type_id":"4","last_reported":1712783219,"current_range_meters":3600,"station_id":"ce4bh012rcd13ifvqcv0","pricing_plan_id":"cebpf4jnsgd1na2vs0mg"},{"bike_id":"99b6595a-aa64-489c-bf57-5a6a9df60703","system_id":"levelo_inurba_marseille","lat":43.313291,"lon":5.396838,"is_reserved":false,"is_disabled":false,"rental_uris":{"android":"levelo://app?vid=99b6595a-aa64-489c-bf57-5a6a9df60703","ios":"levelo://app?vid=99b6595a-aa64-489c-bf57-5a6a9df60703"},"vehicle_type_id":"4","last_reported":1712783219,"current_range_meters":22400,"station_id":"ce4bgvp2rcd13ifvqcu0","pricing_plan_id":"cebpf4jnsgd1na2vs0mg"},{"bike_id":"61602e59-c378-494d-b6e7-889feefea6ef","system_id":"levelo_inurba_marseille","lat":43.309038,"lon":5.396546,"is_reserved":false,"is_disabled":false,"rental_uris":{"android":"levelo://app?vid=61602e59-c378-494d-b6e7-889feefea6ef","ios":"levelo://app?vid=61602e59-c378-494d-b6e7-889feefea6ef"},"vehicle_type_id":"4","last_reported":1712783219,"current_range_meters":30000,"station_id":"ce4bh012rcd13ifvqcv0","pricing_plan_id":"cebpf4jnsgd1na2vs0mg"},{"bike_id":"9fc8b7ad-76b2-471c-a4b1-7049925ac59a","system_id":"levelo_inurba_marseille","lat":43.309047,"lon":5.396551,"is_reserved":false,"is_disabled":false,"rental_uris":{"android":"levelo://app?vid=9fc8b7ad-76b2-471c-a4b1-7049925ac59a","ios":"levelo://app?vid=9fc8b7ad-76b2-471c-a4b1-7049925ac59a"},"vehicle_type_id":"4","last_reported":1712783219,"current_range_meters":8400,"station_id":"ce4bh012rcd13ifvqcv0","pricing_plan_id":"cebpf4jnsgd1na2vs0mg"},{"bike_id":"cf625daf-8743-433e-8a8b-cfc9634d075b","system_id":"levelo_inurba_marseille","lat":43.30869,"lon":5.3964,"is_reserved":false,"is_disabled":false,"rental_uris":{"android":"levelo://app?vid=cf625daf-8743-433e-8a8b-cfc9634d075b","ios":"levelo://app?vid=cf625daf-8743-433e-8a8b-cfc9634d075b"},"vehicle_type_id":"4","last_reported":1712783219,"current_range_meters":6800,"station_id":"ce4bh012rcd13ifvqcv0","pricing_plan_id":"cebpf4jnsgd1na2vs0mg"},{"bike_id":"e3b17a0f-3a3c-4638-b1c7-6895b6060a9a","system_id":"levelo_inurba_marseille","lat":43.309038,"lon":5.396546,"is_reserved":false,"is_disabled":false,"rental_uris":{"android":"levelo://app?vid=e3b17a0f-3a3c-4638-b1c7-6895b6060a9a","ios":"levelo://app?vid=e3b17a0f-3a3c-4638-b1c7-6895b6060a9a"},"vehicle_type_id":"4","last_reported":1712783219,"current_range_meters":16400,"station_id":"ce4bh012rcd13ifvqcv0","pricing_plan_id":"cebpf4jnsgd1na2vs0mg"},{"bike_id":"c43c2469-7393-4489-978a-e072086efad0","system_id":"levelo_inurba_marseille","lat":43.313291,"lon":5.396838,"is_reserved":false,"is_disabled":false,"rental_uris":{"android":"levelo://app?vid=c43c2469-7393-4489-978a-e072086efad0","ios":"levelo://app?vid=c43c2469-7393-4489-978a-e072086efad0"},"vehicle_type_id":"4","last_reported":1712783219,"current_range_meters":2000,"station_id":"ce4bgvp2rcd13ifvqcu0","pricing_plan_id":"cebpf4jnsgd1na2vs0mg"},{"bike_id":"360bd7f2-c34f-4813-b03b-907b8c18976c","system_id":"levelo_inurba_marseille","lat":43.313291,"lon":5.396838,"is_reserved":false,"is_disabled":false,"rental_uris":{"android":"levelo://app?vid=360bd7f2-c34f-4813-b03b-907b8c18976c","ios":"levelo://app?vid=360bd7f2-c34f-4813-b03b-907b8c18976c"},"vehicle_type_id":"4","last_reported":1712783219,"current_range_meters":23600,"station_id":"ce4bgvp2rcd13ifvqcu0","pricing_plan_id":"cebpf4jnsgd1na2vs0mg"},{"bike_id":"3801a13c-efba-46d3-a3ca-006af32948b0","system_id":"levelo_inurba_marseille","lat":43.313291,"lon":5.396838,"is_reserved":false,"is_disabled":false,"rental_uris":{"android":"levelo://app?vid=3801a13c-efba-46d3-a3ca-006af32948b0","ios":"levelo://app?vid=3801a13c-efba-46d3-a3ca-006af32948b0"},"vehicle_type_id":"4","last_reported":1712783219,"current_range_meters":20800,"station_id":"ce4bgvp2rcd13ifvqcu0","pricing_plan_id":"cebpf4jnsgd1na2vs0mg"},{"bike_id":"04d2f684-ac7e-4ea3-bef7-e614ea728b00","system_id":"levelo_inurba_marseille","lat":43.313291,"lon":5.396838,"is_reserved":false,"is_disabled":false,"rental_uris":{"android":"levelo://app?vid=04d2f684-ac7e-4ea3-bef7-e614ea728b00","ios":"levelo://app?vid=04d2f684-ac7e-4ea3-bef7-e614ea728b00"},"vehicle_type_id":"4","last_reported":1712783219,"current_range_meters":6000,"station_id":"ce4bgvp2rcd13ifvqcu0","pricing_plan_id":"cebpf4jnsgd1na2vs0mg"},{"bike_id":"fbeacab3-0c18-40ab-8b47-bcad4a1f1fb6","system_id":"levelo_inurba_marseille","lat":43.309047,"lon":5.396551,"is_reserved":false,"is_disabled":false,"rental_uris":{"android":"levelo://app?vid=fbeacab3-0c18-40ab-8b47-bcad4a1f1fb6","ios":"levelo://app?vid=fbeacab3-0c18-40ab-8b47-bcad4a1f1fb6"},"vehicle_type_id":"4","last_reported":1712783219,"current_range_meters":13200,"station_id":"ce4bh012rcd13ifvqcv0","pricing_plan_id":"cebpf4jnsgd1na2vs0mg"},{"bike_id":"4e18c65f-bb3f-42d2-834b-8fa970aa0306","system_id":"levelo_inurba_marseille","lat":43.309047,"lon":5.396551,"is_reserved":false,"is_disabled":false,"rental_uris":{"android":"levelo://app?vid=4e18c65f-bb3f-42d2-834b-8fa970aa0306","ios":"levelo://app?vid=4e18c65f-bb3f-42d2-834b-8fa970aa0306"},"vehicle_type_id":"4","last_reported":1712783219,"current_range_meters":22400,"station_id":"ce4bh012rcd13ifvqcv0","pricing_plan_id":"cebpf4jnsgd1na2vs0mg"},{"bike_id":"870aecad-be04-4c5b-89a3-897081b9d16e","system_id":"levelo_inurba_marseille","lat":43.309047,"lon":5.396551,"is_reserved":false,"is_disabled":false,"rental_uris":{"android":"levelo://app?vid=870aecad-be04-4c5b-89a3-897081b9d16e","ios":"levelo://app?vid=870aecad-be04-4c5b-89a3-897081b9d16e"},"vehicle_type_id":"4","last_reported":1712783219,"current_range_meters":9200,"station_id":"ce4bh012rcd13ifvqcv0","pricing_plan_id":"cebpf4jnsgd1na2vs0mg"},{"bike_id":"fc5fafb3-ccf3-4545-8731-e6a30bd6305d","system_id":"levelo_inurba_marseille","lat":43.309047,"lon":5.396551,"is_reserved":false,"is_disabled":false,"rental_uris":{"android":"levelo://app?vid=fc5fafb3-ccf3-4545-8731-e6a30bd6305d","ios":"levelo://app?vid=fc5fafb3-ccf3-4545-8731-e6a30bd6305d"},"vehicle_type_id":"4","last_reported":1712783219,"current_range_meters":12000,"station_id":"ce4bh012rcd13ifvqcv0","pricing_plan_id":"cebpf4jnsgd1na2vs0mg"},{"bike_id":"3aa1f022-df6b-4c9f-8290-d53ee60b49d7","system_id":"levelo_inurba_marseille","lat":43.309038,"lon":5.396546,"is_reserved":false,"is_disabled":false,"rental_uris":{"android":"levelo://app?vid=3aa1f022-df6b-4c9f-8290-d53ee60b49d7","ios":"levelo://app?vid=3aa1f022-df6b-4c9f-8290-d53ee60b49d7"},"vehicle_type_id":"4","last_reported":1712783219,"current_range_meters":14000,"station_id":"ce4bh012rcd13ifvqcv0","pricing_plan_id":"cebpf4jnsgd1na2vs0mg"},{"bike_id":"7429b7a6-be59-43dd-a35b-8536c8d7ad87","system_id":"levelo_inurba_marseille","lat":43.309047,"lon":5.396551,"is_reserved":false,"is_disabled":false,"rental_uris":{"android":"levelo://app?vid=7429b7a6-be59-43dd-a35b-8536c8d7ad87","ios":"levelo://app?vid=7429b7a6-be59-43dd-a35b-8536c8d7ad87"},"vehicle_type_id":"4","last_reported":1712783219,"current_range_meters":27600,"station_id":"ce4bh012rcd13ifvqcv0","pricing_plan_id":"cebpf4jnsgd1na2vs0mg"},{"bike_id":"19adfe8f-ced1-43c0-ae91-1c11e1d9821f","system_id":"levelo_inurba_marseille","lat":43.313291,"lon":5.396838,"is_reserved":false,"is_disabled":false,"rental_uris":{"android":"levelo://app?vid=19adfe8f-ced1-43c0-ae91-1c11e1d9821f","ios":"levelo://app?vid=19adfe8f-ced1-43c0-ae91-1c11e1d9821f"},"vehicle_type_id":"4","last_reported":1712783219,"current_range_meters":0,"station_id":"ce4bgvp2rcd13ifvqcu0","pricing_plan_id":"cebpf4jnsgd1na2vs0mg"},{"bike_id":"1fe221c3-8abb-4e3f-8bfa-78204e68dfe4","system_id":"levelo_inurba_marseille","lat":43.290779,"lon":5.371482,"is_reserved":false,"is_disabled":false,"rental_uris":{"android":"levelo://app?vid=1fe221c3-8abb-4e3f-8bfa-78204e68dfe4","ios":"levelo://app?vid=1fe221c3-8abb-4e3f-8bfa-78204e68dfe4"},"vehicle_type_id":"4","last_reported":1712783219,"current_range_meters":0,"station_id":"ce4bh5p2rcd13ifvqe4g","pricing_plan_id":"cebpf4jnsgd1na2vs0mg"},{"bike_id":"f6467a0b-0d06-4653-b0ad-e2f9675e5350","system_id":"levelo_inurba_marseille","lat":43.290779,"lon":5.371482,"is_reserved":false,"is_disabled":false,"rental_uris":{"android":"levelo://app?vid=f6467a0b-0d06-4653-b0ad-e2f9675e5350","ios":"levelo://app?vid=f6467a0b-0d06-4653-b0ad-e2f9675e5350"},"vehicle_type_id":"4","last_reported":1712783219,"current_range_meters":20800,"station_id":"ce4bh5p2rcd13ifvqe4g","pricing_plan_id":"cebpf4jnsgd1na2vs0mg"},{"bike_id":"30c74601-accd-4288-ba28-f000c1262ff1","system_id":"levelo_inurba_marseille","lat":43.29065,"lon":5.37167,"is_reserved":false,"is_disabled":false,"rental_uris":{"android":"levelo://app?vid=30c74601-accd-4288-ba28-f000c1262ff1","ios":"levelo://app?vid=30c74601-accd-4288-ba28-f000c1262ff1"},"vehicle_type_id":"4","last_reported":1712783219,"current_range_meters":17600,"station_id":"ce4bh5p2rcd13ifvqe4g","pricing_plan_id":"cebpf4jnsgd1na2vs0mg"},{"bike_id":"015bdb30-3344-4a7b-a58e-808328d7eaf8","system_id":"levelo_inurba_marseille","lat":43.302008,"lon":5.394694,"is_reserved":false,"is_disabled":false,"rental_uris":{"android":"levelo://app?vid=015bdb30-3344-4a7b-a58e-808328d7eaf8","ios":"levelo://app?vid=015bdb30-3344-4a7b-a58e-808328d7eaf8"},"vehicle_type_id":"4","last_reported":1712783219,"current_range_meters":26800,"station_id":"ce4bh0p2rcd13ifvqd70","pricing_plan_id":"cebpf4jnsgd1na2vs0mg"},{"bike_id":"7548da62-39d3-49dc-af28-2fbb866bf1ff","system_id":"levelo_inurba_marseille","lat":43.290624,"lon":5.359245,"is_reserved":false,"is_disabled":false,"rental_uris":{"android":"levelo://app?vid=7548da62-39d3-49dc-af28-2fbb866bf1ff","ios":"levelo://app?vid=7548da62-39d3-49dc-af28-2fbb866bf1ff"},"vehicle_type_id":"4","last_reported":1712783219,"current_range_meters":5200,"station_id":"ce4bha92rcd13ifvqeg0","pricing_plan_id":"cebpf4jnsgd1na2vs0mg"},{"bike_id":"338d0d84-3bb4-4ab8-bf3c-3488e28e4dd5","system_id":"levelo_inurba_marseille","lat":43.290624,"lon":5.359245,"is_reserved":false,"is_disabled":false,"rental_uris":{"android":"levelo://app?vid=338d0d84-3bb4-4ab8-bf3c-3488e28e4dd5","ios":"levelo://app?vid=338d0d84-3bb4-4ab8-bf3c-3488e28e4dd5"},"vehicle_type_id":"4","last_reported":1712783219,"current_range_meters":18800,"station_id":"ce4bha92rcd13ifvqeg0","pricing_plan_id":"cebpf4jnsgd1na2vs0mg"},{"bike_id":"4987e6d2-d594-47e2-a271-4bab3e86bc97","system_id":"levelo_inurba_marseille","lat":43.290624,"lon":5.359245,"is_reserved":false,"is_disabled":false,"rental_uris":{"android":"levelo://app?vid=4987e6d2-d594-47e2-a271-4bab3e86bc97","ios":"levelo://app?vid=4987e6d2-d594-47e2-a271-4bab3e86bc97"},"vehicle_type_id":"4","last_reported":1712783219,"current_range_meters":25200,"station_id":"ce4bha92rcd13ifvqeg0","pricing_plan_id":"cebpf4jnsgd1na2vs0mg"},{"bike_id":"322db478-6cc9-4684-915f-ced13d1f864e","system_id":"levelo_inurba_marseille","lat":43.290624,"lon":5.359245,"is_reserved":false,"is_disabled":false,"rental_uris":{"android":"levelo://app?vid=322db478-6cc9-4684-915f-ced13d1f864e","ios":"levelo://app?vid=322db478-6cc9-4684-915f-ced13d1f864e"},"vehicle_type_id":"4","last_reported":1712783219,"current_range_meters":16400,"station_id":"ce4bha92rcd13ifvqeg0","pricing_plan_id":"cebpf4jnsgd1na2vs0mg"},{"bike_id":"648ec94e-c7c5-4d30-9b06-701ca6fe1732","system_id":"levelo_inurba_marseille","lat":43.290631,"lon":5.359244,"is_reserved":false,"is_disabled":false,"rental_uris":{"android":"levelo://app?vid=648ec94e-c7c5-4d30-9b06-701ca6fe1732","ios":"levelo://app?vid=648ec94e-c7c5-4d30-9b06-701ca6fe1732"},"vehicle_type_id":"4","last_reported":1712783219,"current_range_meters":12000,"station_id":"ce4bha92rcd13ifvqeg0","pricing_plan_id":"cebpf4jnsgd1na2vs0mg"},{"bike_id":"4abef47f-7e80-472a-97fd-b0ad1ab0cc9d","system_id":"levelo_inurba_marseille","lat":43.296921,"lon":5.376579,"is_reserved":false,"is_disabled":false,"rental_uris":{"android":"levelo://app?vid=4abef47f-7e80-472a-97fd-b0ad1ab0cc9d","ios":"levelo://app?vid=4abef47f-7e80-472a-97fd-b0ad1ab0cc9d"},"vehicle_type_id":"4","last_reported":1712783219,"current_range_meters":26800,"station_id":"ce4bgkh2rcd13ifvqbl0","pricing_plan_id":"cebpf4jnsgd1na2vs0mg"},{"bike_id":"cba65904-5d71-4b41-bef4-5f137a02475a","system_id":"levelo_inurba_marseille","lat":43.294162,"lon":5.386292,"is_reserved":false,"is_disabled":false,"rental_uris":{"android":"levelo://app?vid=cba65904-5d71-4b41-bef4-5f137a02475a","ios":"levelo://app?vid=cba65904-5d71-4b41-bef4-5f137a02475a"},"vehicle_type_id":"4","last_reported":1712783219,"current_range_meters":2400,"station_id":"ce4bh2h2rcd13ifvqdh0","pricing_plan_id":"cebpf4jnsgd1na2vs0mg"},{"bike_id":"5cc9865f-337a-480a-9472-dfde4fa3ac43","system_id":"levelo_inurba_marseille","lat":43.29036,"lon":5.37567,"is_reserved":false,"is_disabled":false,"rental_uris":{"android":"levelo://app?vid=5cc9865f-337a-480a-9472-dfde4fa3ac43","ios":"levelo://app?vid=5cc9865f-337a-480a-9472-dfde4fa3ac43"},"vehicle_type_id":"4","last_reported":1712783219,"current_range_meters":22400,"station_id":"ce4bh692rcd13ifvqe90","pricing_plan_id":"cebpf4jnsgd1na2vs0mg"},{"bike_id":"3c5e1cf6-a39d-4149-9f7b-fd9b751d18be","system_id":"levelo_inurba_marseille","lat":43.29418,"lon":5.38623,"is_reserved":false,"is_disabled":false,"rental_uris":{"android":"levelo://app?vid=3c5e1cf6-a39d-4149-9f7b-fd9b751d18be","ios":"levelo://app?vid=3c5e1cf6-a39d-4149-9f7b-fd9b751d18be"},"vehicle_type_id":"4","last_reported":1712783219,"current_range_meters":0,"station_id":"ce4bh2h2rcd13ifvqdh0","pricing_plan_id":"cebpf4jnsgd1na2vs0mg"},{"bike_id":"37f6930f-1cc8-4f26-96a3-9f01a377703b","system_id":"levelo_inurba_marseille","lat":43.290319,"lon":5.375732,"is_reserved":false,"is_disabled":false,"rental_uris":{"android":"levelo://app?vid=37f6930f-1cc8-4f26-96a3-9f01a377703b","ios":"levelo://app?vid=37f6930f-1cc8-4f26-96a3-9f01a377703b"},"vehicle_type_id":"4","last_reported":1712783219,"current_range_meters":22800,"station_id":"ce4bh692rcd13ifvqe90","pricing_plan_id":"cebpf4jnsgd1na2vs0mg"},{"bike_id":"75fb47db-6b9a-4af9-b8b1-77adbe74b975","system_id":"levelo_inurba_marseille","lat":43.290327,"lon":5.375711,"is_reserved":false,"is_disabled":false,"rental_uris":{"android":"levelo://app?vid=75fb47db-6b9a-4af9-b8b1-77adbe74b975","ios":"levelo://app?vid=75fb47db-6b9a-4af9-b8b1-77adbe74b975"},"vehicle_type_id":"4","last_reported":1712783219,"current_range_meters":10400,"station_id":"ce4bh692rcd13ifvqe90","pricing_plan_id":"cebpf4jnsgd1na2vs0mg"},{"bike_id":"242058cf-b76c-484b-bf8a-b1c1c6db5020","system_id":"levelo_inurba_marseille","lat":43.279742,"lon":5.38744,"is_reserved":false,"is_disabled":false,"rental_uris":{"android":"levelo://app?vid=242058cf-b76c-484b-bf8a-b1c1c6db5020","ios":"levelo://app?vid=242058cf-b76c-484b-bf8a-b1c1c6db5020"},"vehicle_type_id":"4","last_reported":1712783219,"current_range_meters":27200,"station_id":"ce4bhg12rcd13ifvqf80","pricing_plan_id":"cebpf4jnsgd1na2vs0mg"},{"bike_id":"c2df452b-12fe-4136-8c71-637cd73e140f","system_id":"levelo_inurba_marseille","lat":43.289184,"lon":5.366408,"is_reserved":false,"is_disabled":false,"rental_uris":{"android":"levelo://app?vid=c2df452b-12fe-4136-8c71-637cd73e140f","ios":"levelo://app?vid=c2df452b-12fe-4136-8c71-637cd73e140f"},"vehicle_type_id":"4","last_reported":1712783219,"current_range_meters":28000,"station_id":"ce4bhap2rcd13ifvqek0","pricing_plan_id":"cebpf4jnsgd1na2vs0mg"},{"bike_id":"711e6f93-4330-4e1b-9005-a601f7f142e9","system_id":"levelo_inurba_marseille","lat":43.289184,"lon":5.366408,"is_reserved":false,"is_disabled":false,"rental_uris":{"android":"levelo://app?vid=711e6f93-4330-4e1b-9005-a601f7f142e9","ios":"levelo://app?vid=711e6f93-4330-4e1b-9005-a601f7f142e9"},"vehicle_type_id":"4","last_reported":1712783219,"current_range_meters":28800,"station_id":"ce4bhap2rcd13ifvqek0","pricing_plan_id":"cebpf4jnsgd1na2vs0mg"},{"bike_id":"1916a84e-f628-4e9f-89a2-a2034c9982ee","system_id":"levelo_inurba_marseille","lat":43.289468,"lon":5.363719,"is_reserved":false,"is_disabled":false,"rental_uris":{"android":"levelo://app?vid=1916a84e-f628-4e9f-89a2-a2034c9982ee","ios":"levelo://app?vid=1916a84e-f628-4e9f-89a2-a2034c9982ee"},"vehicle_type_id":"4","last_reported":1712783219,"current_range_meters":18000,"station_id":"ce4bhc92rcd13ifvqetg","pricing_plan_id":"cebpf4jnsgd1na2vs0mg"},{"bike_id":"c62e4764-7761-45d3-a688-e60f570446cd","system_id":"levelo_inurba_marseille","lat":43.289184,"lon":5.366408,"is_reserved":false,"is_disabled":false,"rental_uris":{"android":"levelo://app?vid=c62e4764-7761-45d3-a688-e60f570446cd","ios":"levelo://app?vid=c62e4764-7761-45d3-a688-e60f570446cd"},"vehicle_type_id":"4","last_reported":1712783219,"current_range_meters":2400,"station_id":"ce4bhap2rcd13ifvqek0","pricing_plan_id":"cebpf4jnsgd1na2vs0mg"},{"bike_id":"300d64d4-08f2-42ef-8260-241ef75405ff","system_id":"levelo_inurba_marseille","lat":43.290327,"lon":5.375711,"is_reserved":false,"is_disabled":false,"rental_uris":{"android":"levelo://app?vid=300d64d4-08f2-42ef-8260-241ef75405ff","ios":"levelo://app?vid=300d64d4-08f2-42ef-8260-241ef75405ff"},"vehicle_type_id":"4","last_reported":1712783219,"current_range_meters":16400,"station_id":"ce4bh692rcd13ifvqe90","pricing_plan_id":"cebpf4jnsgd1na2vs0mg"},{"bike_id":"7d5e467b-5b51-4db9-9b94-f77f983a1e9a","system_id":"levelo_inurba_marseille","lat":43.289184,"lon":5.366408,"is_reserved":false,"is_disabled":false,"rental_uris":{"android":"levelo://app?vid=7d5e467b-5b51-4db9-9b94-f77f983a1e9a","ios":"levelo://app?vid=7d5e467b-5b51-4db9-9b94-f77f983a1e9a"},"vehicle_type_id":"4","last_reported":1712783219,"current_range_meters":10800,"station_id":"ce4bhap2rcd13ifvqek0","pricing_plan_id":"cebpf4jnsgd1na2vs0mg"},{"bike_id":"b23f17c6-17ab-444d-83e1-6c08be939cf2","system_id":"levelo_inurba_marseille","lat":43.294123,"lon":5.38631,"is_reserved":false,"is_disabled":false,"rental_uris":{"android":"levelo://app?vid=b23f17c6-17ab-444d-83e1-6c08be939cf2","ios":"levelo://app?vid=b23f17c6-17ab-444d-83e1-6c08be939cf2"},"vehicle_type_id":"4","last_reported":1712783219,"current_range_meters":7200,"station_id":"ce4bh2h2rcd13ifvqdh0","pricing_plan_id":"cebpf4jnsgd1na2vs0mg"},{"bike_id":"c43f7891-de6c-4f10-abf7-08b5eec9933c","system_id":"levelo_inurba_marseille","lat":43.28936,"lon":5.36633,"is_reserved":false,"is_disabled":false,"rental_uris":{"android":"levelo://app?vid=c43f7891-de6c-4f10-abf7-08b5eec9933c","ios":"levelo://app?vid=c43f7891-de6c-4f10-abf7-08b5eec9933c"},"vehicle_type_id":"4","last_reported":1712783219,"current_range_meters":30400,"station_id":"ce4bhap2rcd13ifvqek0","pricing_plan_id":"cebpf4jnsgd1na2vs0mg"},{"bike_id":"34a77ac3-19b4-4465-affa-c7326b36f689","system_id":"levelo_inurba_marseille","lat":43.28935,"lon":5.36631,"is_reserved":false,"is_disabled":false,"rental_uris":{"android":"levelo://app?vid=34a77ac3-19b4-4465-affa-c7326b36f689","ios":"levelo://app?vid=34a77ac3-19b4-4465-affa-c7326b36f689"},"vehicle_type_id":"4","last_reported":1712783219,"current_range_meters":22400,"station_id":"ce4bhap2rcd13ifvqek0","pricing_plan_id":"cebpf4jnsgd1na2vs0mg"},{"bike_id":"1ac5bb84-9eb8-4238-9ef6-08c37f282f83","system_id":"levelo_inurba_marseille","lat":43.289468,"lon":5.363719,"is_reserved":false,"is_disabled":false,"rental_uris":{"android":"levelo://app?vid=1ac5bb84-9eb8-4238-9ef6-08c37f282f83","ios":"levelo://app?vid=1ac5bb84-9eb8-4238-9ef6-08c37f282f83"},"vehicle_type_id":"4","last_reported":1712783219,"current_range_meters":31200,"station_id":"ce4bhc92rcd13ifvqetg","pricing_plan_id":"cebpf4jnsgd1na2vs0mg"},{"bike_id":"e652dd0b-965c-45e1-8ba2-8bda87761e47","system_id":"levelo_inurba_marseille","lat":43.28926,"lon":5.36637,"is_reserved":false,"is_disabled":false,"rental_uris":{"android":"levelo://app?vid=e652dd0b-965c-45e1-8ba2-8bda87761e47","ios":"levelo://app?vid=e652dd0b-965c-45e1-8ba2-8bda87761e47"},"vehicle_type_id":"4","last_reported":1712783219,"current_range_meters":19200,"station_id":"ce4bhap2rcd13ifvqek0","pricing_plan_id":"cebpf4jnsgd1na2vs0mg"},{"bike_id":"471517d6-4d0b-4562-8906-ad916033a1a7","system_id":"levelo_inurba_marseille","lat":43.289468,"lon":5.363719,"is_reserved":false,"is_disabled":false,"rental_uris":{"android":"levelo://app?vid=471517d6-4d0b-4562-8906-ad916033a1a7","ios":"levelo://app?vid=471517d6-4d0b-4562-8906-ad916033a1a7"},"vehicle_type_id":"4","last_reported":1712783219,"current_range_meters":3200,"station_id":"ce4bhc92rcd13ifvqetg","pricing_plan_id":"cebpf4jnsgd1na2vs0mg"},{"bike_id":"4652eaad-9493-467d-bbf7-505d7070a658","system_id":"levelo_inurba_marseille","lat":43.289468,"lon":5.363719,"is_reserved":false,"is_disabled":false,"rental_uris":{"android":"levelo://app?vid=4652eaad-9493-467d-bbf7-505d7070a658","ios":"levelo://app?vid=4652eaad-9493-467d-bbf7-505d7070a658"},"vehicle_type_id":"4","last_reported":1712783219,"current_range_meters":12800,"station_id":"ce4bhc92rcd13ifvqetg","pricing_plan_id":"cebpf4jnsgd1na2vs0mg"},{"bike_id":"21e233d0-0904-4d7f-ae2e-9446f67b0d18","system_id":"levelo_inurba_marseille","lat":43.289468,"lon":5.363719,"is_reserved":false,"is_disabled":false,"rental_uris":{"android":"levelo://app?vid=21e233d0-0904-4d7f-ae2e-9446f67b0d18","ios":"levelo://app?vid=21e233d0-0904-4d7f-ae2e-9446f67b0d18"},"vehicle_type_id":"4","last_reported":1712783219,"current_range_meters":31200,"station_id":"ce4bhc92rcd13ifvqetg","pricing_plan_id":"cebpf4jnsgd1na2vs0mg"},{"bike_id":"732ee787-854e-4dbd-9d73-baab1cecbde8","system_id":"levelo_inurba_marseille","lat":43.292703,"lon":5.384297,"is_reserved":false,"is_disabled":false,"rental_uris":{"android":"levelo://app?vid=732ee787-854e-4dbd-9d73-baab1cecbde8","ios":"levelo://app?vid=732ee787-854e-4dbd-9d73-baab1cecbde8"},"vehicle_type_id":"4","last_reported":1712783219,"current_range_meters":0,"station_id":"ce4bh692rcd13ifvqea0","pricing_plan_id":"cebpf4jnsgd1na2vs0mg"},{"bike_id":"2313c6cf-be37-45f4-84b0-3c97ede34c05","system_id":"levelo_inurba_marseille","lat":43.29269,"lon":5.38439,"is_reserved":false,"is_disabled":false,"rental_uris":{"android":"levelo://app?vid=2313c6cf-be37-45f4-84b0-3c97ede34c05","ios":"levelo://app?vid=2313c6cf-be37-45f4-84b0-3c97ede34c05"},"vehicle_type_id":"4","last_reported":1712783219,"current_range_meters":0,"station_id":"ce4bh692rcd13ifvqea0","pricing_plan_id":"cebpf4jnsgd1na2vs0mg"},{"bike_id":"98d6a8f3-bba5-469f-a5b5-1e6cfcd4b22f","system_id":"levelo_inurba_marseille","lat":43.29271,"lon":5.38448,"is_reserved":false,"is_disabled":false,"rental_uris":{"android":"levelo://app?vid=98d6a8f3-bba5-469f-a5b5-1e6cfcd4b22f","ios":"levelo://app?vid=98d6a8f3-bba5-469f-a5b5-1e6cfcd4b22f"},"vehicle_type_id":"4","last_reported":1712783219,"current_range_meters":0,"station_id":"ce4bh692rcd13ifvqea0","pricing_plan_id":"cebpf4jnsgd1na2vs0mg"},{"bike_id":"00f55fea-9e87-42a7-91ff-b12bb7ba8c34","system_id":"levelo_inurba_marseille","lat":43.292642,"lon":5.384254,"is_reserved":false,"is_disabled":false,"rental_uris":{"android":"levelo://app?vid=00f55fea-9e87-42a7-91ff-b12bb7ba8c34","ios":"levelo://app?vid=00f55fea-9e87-42a7-91ff-b12bb7ba8c34"},"vehicle_type_id":"4","last_reported":1712783219,"current_range_meters":0,"station_id":"ce4bh692rcd13ifvqea0","pricing_plan_id":"cebpf4jnsgd1na2vs0mg"},{"bike_id":"d113a11c-00f7-46a2-a0d9-e59d3d3c2e6f","system_id":"levelo_inurba_marseille","lat":43.29257,"lon":5.3843,"is_reserved":false,"is_disabled":false,"rental_uris":{"android":"levelo://app?vid=d113a11c-00f7-46a2-a0d9-e59d3d3c2e6f","ios":"levelo://app?vid=d113a11c-00f7-46a2-a0d9-e59d3d3c2e6f"},"vehicle_type_id":"4","last_reported":1712783219,"current_range_meters":0,"station_id":"ce4bh692rcd13ifvqea0","pricing_plan_id":"cebpf4jnsgd1na2vs0mg"},{"bike_id":"9cf8b49a-ae7b-4b16-a059-a3e5c57a9119","system_id":"levelo_inurba_marseille","lat":43.29259,"lon":5.38436,"is_reserved":false,"is_disabled":false,"rental_uris":{"android":"levelo://app?vid=9cf8b49a-ae7b-4b16-a059-a3e5c57a9119","ios":"levelo://app?vid=9cf8b49a-ae7b-4b16-a059-a3e5c57a9119"},"vehicle_type_id":"4","last_reported":1712783219,"current_range_meters":0,"station_id":"ce4bh692rcd13ifvqea0","pricing_plan_id":"cebpf4jnsgd1na2vs0mg"},{"bike_id":"b166ee12-ab52-48db-bc8b-44dcf945f4f0","system_id":"levelo_inurba_marseille","lat":43.29257,"lon":5.38439,"is_reserved":false,"is_disabled":false,"rental_uris":{"android":"levelo://app?vid=b166ee12-ab52-48db-bc8b-44dcf945f4f0","ios":"levelo://app?vid=b166ee12-ab52-48db-bc8b-44dcf945f4f0"},"vehicle_type_id":"4","last_reported":1712783219,"current_range_meters":0,"station_id":"ce4bh692rcd13ifvqea0","pricing_plan_id":"cebpf4jnsgd1na2vs0mg"},{"bike_id":"8b5fb9a1-a236-42ff-be1e-a8a9804336d0","system_id":"levelo_inurba_marseille","lat":43.292642,"lon":5.384254,"is_reserved":false,"is_disabled":false,"rental_uris":{"android":"levelo://app?vid=8b5fb9a1-a236-42ff-be1e-a8a9804336d0","ios":"levelo://app?vid=8b5fb9a1-a236-42ff-be1e-a8a9804336d0"},"vehicle_type_id":"4","last_reported":1712783219,"current_range_meters":0,"station_id":"ce4bh692rcd13ifvqea0","pricing_plan_id":"cebpf4jnsgd1na2vs0mg"},{"bike_id":"bf9f5b30-ccad-4873-be0d-72e2ca2d189f","system_id":"levelo_inurba_marseille","lat":43.257079,"lon":5.411051,"is_reserved":false,"is_disabled":false,"rental_uris":{"android":"levelo://app?vid=bf9f5b30-ccad-4873-be0d-72e2ca2d189f","ios":"levelo://app?vid=bf9f5b30-ccad-4873-be0d-72e2ca2d189f"},"vehicle_type_id":"4","last_reported":1712783219,"current_range_meters":5200,"station_id":"ce4bhkp2rcd13ifvqgd0","pricing_plan_id":"cebpf4jnsgd1na2vs0mg"},{"bike_id":"346d00df-2860-4cb4-8c0e-f35e38066f2a","system_id":"levelo_inurba_marseille","lat":43.290103,"lon":5.356114,"is_reserved":false,"is_disabled":false,"rental_uris":{"android":"levelo://app?vid=346d00df-2860-4cb4-8c0e-f35e38066f2a","ios":"levelo://app?vid=346d00df-2860-4cb4-8c0e-f35e38066f2a"},"vehicle_type_id":"4","last_reported":1712783219,"current_range_meters":10400,"station_id":"ce4bhb92rcd13ifvqen0","pricing_plan_id":"cebpf4jnsgd1na2vs0mg"},{"bike_id":"0fbf92a6-d51d-4eab-ab8c-cee8c500ac0c","system_id":"levelo_inurba_marseille","lat":43.290103,"lon":5.356114,"is_reserved":false,"is_disabled":false,"rental_uris":{"android":"levelo://app?vid=0fbf92a6-d51d-4eab-ab8c-cee8c500ac0c","ios":"levelo://app?vid=0fbf92a6-d51d-4eab-ab8c-cee8c500ac0c"},"vehicle_type_id":"4","last_reported":1712783219,"current_range_meters":18800,"station_id":"ce4bhb92rcd13ifvqen0","pricing_plan_id":"cebpf4jnsgd1na2vs0mg"},{"bike_id":"91e6f41a-fa64-47dd-8187-47faf657b0b7","system_id":"levelo_inurba_marseille","lat":43.291003,"lon":5.381357,"is_reserved":false,"is_disabled":false,"rental_uris":{"android":"levelo://app?vid=91e6f41a-fa64-47dd-8187-47faf657b0b7","ios":"levelo://app?vid=91e6f41a-fa64-47dd-8187-47faf657b0b7"},