{"last_updated":1719075979,"ttl":30,"version":"2.2","data":{"bikes":[{"bike_id":"22d6a2a6-4c6f-4962-b15f-7cd715a60466","system_id":"levelo_inurba_marseille","lat":43.31341,"lon":5.367098,"is_reserved":false,"is_disabled":false,"rental_uris":{"android":"levelo://app?vid=22d6a2a6-4c6f-4962-b15f-7cd715a60466","ios":"levelo://app?vid=22d6a2a6-4c6f-4962-b15f-7cd715a60466"},"vehicle_type_id":"4","last_reported":1719075979,"current_range_meters":5600,"station_id":"ce4bgr92rcd13ifvqc6g","pricing_plan_id":"cebpf4jnsgd1na2vs0mg"},{"bike_id":"24d509b5-ef37-465b-b8cc-6a71986a5c4f","system_id":"levelo_inurba_marseille","lat":43.308736,"lon":5.368085,"is_reserved":false,"is_disabled":false,"rental_uris":{"android":"levelo://app?vid=24d509b5-ef37-465b-b8cc-6a71986a5c4f","ios":"levelo://app?vid=24d509b5-ef37-465b-b8cc-6a71986a5c4f"},"vehicle_type_id":"4","last_reported":1719075979,"current_range_meters":20400,"station_id":"","pricing_plan_id":"cebpf4jnsgd1na2vs0mg"},{"bike_id":"ed009acf-759d-4c44-9ea6-393bc5d8c0c2","system_id":"levelo_inurba_marseille","lat":43.314811,"lon":5.373104,"is_reserved":false,"is_disabled":false,"rental_uris":{"android":"levelo://app?vid=ed009acf-759d-4c44-9ea6-393bc5d8c0c2","ios":"levelo://app?vid=ed009acf-759d-4c44-9ea6-393bc5d8c0c2"},"vehicle_type_id":"4","last_reported":1719075979,"current_range_meters":6000,"station_id":"ce4bgt12rcd13ifvqcd0","pricing_plan_id":"cebpf4jnsgd1na2vs0mg"},{"bike_id":"74541641-7f7a-4efe-a604-c2b9d0b1a673","system_id":"levelo_inurba_marseille","lat":43.309039,"lon":5.371797,"is_reserved":false,"is_disabled":false,"rental_uris":{"android":"levelo://app?vid=74541641-7f7a-4efe-a604-c2b9d0b1a673","ios":"levelo://app?vid=74541641-7f7a-4efe-a604-c2b9d0b1a673"},"vehicle_type_id":"4","last_reported":1719075979,"current_range_meters":24800,"station_id":"ce4bguh2rcd13ifvqckg","pricing_plan_id":"cebpf4jnsgd1na2vs0mg"},{"bike_id":"20f31c62-307b-4c16-93b6-6fcc5accd677","system_id":"levelo_inurba_marseille","lat":43.31458,"lon":5.373641,"is_reserved":false,"is_disabled":false,"rental_uris":{"android":"levelo://app?vid=20f31c62-307b-4c16-93b6-6fcc5accd677","ios":"levelo://app?vid=20f31c62-307b-4c16-93b6-6fcc5accd677"},"vehicle_type_id":"4","last_reported":1719075979,"current_range_meters":15600,"station_id":"","pricing_plan_id":"cebpf4jnsgd1na2vs0mg"},{"bike_id":"50038cc0-9025-44a0-ae41-9c29dc49ab54","system_id":"levelo_inurba_marseille","lat":43.309034,"lon":5.371783,"is_reserved":false,"is_disabled":false,"rental_uris":{"android":"levelo://app?vid=50038cc0-9025-44a0-ae41-9c29dc49ab54","ios":"levelo://app?vid=50038cc0-9025-44a0-ae41-9c29dc49ab54"},"vehicle_type_id":"4","last_reported":1719075979,"current_range_meters":21600,"station_id":"ce4bguh2rcd13ifvqckg","pricing_plan_id":"cebpf4jnsgd1na2vs0mg"},{"bike_id":"21f56d9f-7fd4-42eb-aef3-7fcaa62eac9f","system_id":"levelo_inurba_marseille","lat":43.305714,"lon":5.365633,"is_reserved":false,"is_disabled":false,"rental_uris":{"android":"levelo://app?vid=21f56d9f-7fd4-42eb-aef3-7fcaa62eac9f","ios":"levelo://app?vid=21f56d9f-7fd4-42eb-aef3-7fcaa62eac9f"},"vehicle_type_id":"4","last_reported":1719075979,"current_range_meters":0,"station_id":"ce4bgs12rcd13ifvqcag","pricing_plan_id":"cebpf4jnsgd1na2vs0mg"},{"bike_id":"0fdec73f-d91a-44f6-ae92-223ba5863014","system_id":"levelo_inurba_marseille","lat":43.305714,"lon":5.365633,"is_reserved":false,"is_disabled":false,"rental_uris":{"android":"levelo://app?vid=0fdec73f-d91a-44f6-ae92-223ba5863014","ios":"levelo://app?vid=0fdec73f-d91a-44f6-ae92-223ba5863014"},"vehicle_type_id":"4","last_reported":1719075979,"current_range_meters":2000,"station_id":"ce4bgs12rcd13ifvqcag","pricing_plan_id":"cebpf4jnsgd1na2vs0mg"},{"bike_id":"a43e7e1e-e283-47ba-bb74-77104a25b45c","system_id":"levelo_inurba_marseille","lat":43.30532,"lon":5.36661,"is_reserved":false,"is_disabled":false,"rental_uris":{"android":"levelo://app?vid=a43e7e1e-e283-47ba-bb74-77104a25b45c","ios":"levelo://app?vid=a43e7e1e-e283-47ba-bb74-77104a25b45c"},"vehicle_type_id":"4","last_reported":1719075979,"current_range_meters":21600,"station_id":"","pricing_plan_id":"cebpf4jnsgd1na2vs0mg"},{"bike_id":"7039c476-5ab5-40b8-9da0-a831ec2fffe1","system_id":"levelo_inurba_marseille","lat":43.305368,"lon":5.367343,"is_reserved":false,"is_disabled":false,"rental_uris":{"android":"levelo://app?vid=7039c476-5ab5-40b8-9da0-a831ec2fffe1","ios":"levelo://app?vid=7039c476-5ab5-40b8-9da0-a831ec2fffe1"},"vehicle_type_id":"4","last_reported":1719075979,"current_range_meters":24400,"station_id":"ce4bgrp2rcd13ifvqc9g","pricing_plan_id":"cebpf4jnsgd1na2vs0mg"},{"bike_id":"a5604a79-3b62-4ae6-8fee-2b33596f944f","system_id":"levelo_inurba_marseille","lat":43.305368,"lon":5.367343,"is_reserved":false,"is_disabled":false,"rental_uris":{"android":"levelo://app?vid=a5604a79-3b62-4ae6-8fee-2b33596f944f","ios":"levelo://app?vid=a5604a79-3b62-4ae6-8fee-2b33596f944f"},"vehicle_type_id":"4","last_reported":1719075979,"current_range_meters":4800,"station_id":"ce4bgrp2rcd13ifvqc9g","pricing_plan_id":"cebpf4jnsgd1na2vs0mg"},{"bike_id":"2cd51ec7-b6ca-4502-90f1-ee33eefb9b73","system_id":"levelo_inurba_marseille","lat":43.31018,"lon":5.37726,"is_reserved":false,"is_disabled":false,"rental_uris":{"android":"levelo://app?vid=2cd51ec7-b6ca-4502-90f1-ee33eefb9b73","ios":"levelo://app?vid=2cd51ec7-b6ca-4502-90f1-ee33eefb9b73"},"vehicle_type_id":"4","last_reported":1719075979,"current_range_meters":31200,"station_id":"","pricing_plan_id":"cebpf4jnsgd1na2vs0mg"},{"bike_id":"b64d7b0e-069a-4fd9-86f3-18684b74c1bb","system_id":"levelo_inurba_marseille","lat":43.311125,"lon":5.377624,"is_reserved":false,"is_disabled":false,"rental_uris":{"android":"levelo://app?vid=b64d7b0e-069a-4fd9-86f3-18684b74c1bb","ios":"levelo://app?vid=b64d7b0e-069a-4fd9-86f3-18684b74c1bb"},"vehicle_type_id":"4","last_reported":1719075979,"current_range_meters":1600,"station_id":"ce4bgt92rcd13ifvqcg0","pricing_plan_id":"cebpf4jnsgd1na2vs0mg"},{"bike_id":"824177c3-beaa-4f4b-82b8-ffb5409801c7","system_id":"levelo_inurba_marseille","lat":43.307945,"lon":5.376487,"is_reserved":false,"is_disabled":false,"rental_uris":{"android":"levelo://app?vid=824177c3-beaa-4f4b-82b8-ffb5409801c7","ios":"levelo://app?vid=824177c3-beaa-4f4b-82b8-ffb5409801c7"},"vehicle_type_id":"4","last_reported":1719075979,"current_range_meters":14400,"station_id":"ce4bgv92rcd13ifvqcq0","pricing_plan_id":"cebpf4jnsgd1na2vs0mg"},{"bike_id":"8d974622-11ad-4574-a5ed-380f0e25b182","system_id":"levelo_inurba_marseille","lat":43.317075,"lon":5.377367,"is_reserved":false,"is_disabled":false,"rental_uris":{"android":"levelo://app?vid=8d974622-11ad-4574-a5ed-380f0e25b182","ios":"levelo://app?vid=8d974622-11ad-4574-a5ed-380f0e25b182"},"vehicle_type_id":"4","last_reported":1719075979,"current_range_meters":16400,"station_id":"ce4bgth2rcd13ifvqch0","pricing_plan_id":"cebpf4jnsgd1na2vs0mg"},{"bike_id":"667ef965-2885-42dc-8668-549122c528d7","system_id":"levelo_inurba_marseille","lat":43.303046,"lon":5.368981,"is_reserved":false,"is_disabled":false,"rental_uris":{"android":"levelo://app?vid=667ef965-2885-42dc-8668-549122c528d7","ios":"levelo://app?vid=667ef965-2885-42dc-8668-549122c528d7"},"vehicle_type_id":"4","last_reported":1719075979,"current_range_meters":25200,"station_id":"ce4bgqh2rcd13ifvqc5g","pricing_plan_id":"cebpf4jnsgd1na2vs0mg"},{"bike_id":"5b8007bb-0dd8-4352-b213-d088b8c4b4e0","system_id":"levelo_inurba_marseille","lat":43.31557,"lon":5.38011,"is_reserved":false,"is_disabled":false,"rental_uris":{"android":"levelo://app?vid=5b8007bb-0dd8-4352-b213-d088b8c4b4e0","ios":"levelo://app?vid=5b8007bb-0dd8-4352-b213-d088b8c4b4e0"},"vehicle_type_id":"4","last_reported":1719075979,"current_range_meters":8000,"station_id":"ce4bhsp2rcd13ifvqi50","pricing_plan_id":"cebpf4jnsgd1na2vs0mg"},{"bike_id":"d7febebb-f126-4a6e-8aad-951d2fc0b7cd","system_id":"levelo_inurba_marseille","lat":43.31557,"lon":5.38019,"is_reserved":false,"is_disabled":false,"rental_uris":{"android":"levelo://app?vid=d7febebb-f126-4a6e-8aad-951d2fc0b7cd","ios":"levelo://app?vid=d7febebb-f126-4a6e-8aad-951d2fc0b7cd"},"vehicle_type_id":"4","last_reported":1719075979,"current_range_meters":800,"station_id":"ce4bhsp2rcd13ifvqi50","pricing_plan_id":"cebpf4jnsgd1na2vs0mg"},{"bike_id":"1cc25914-2a72-4e23-8678-a9be8865271d","system_id":"levelo_inurba_marseille","lat":43.31526,"lon":5.38036,"is_reserved":false,"is_disabled":false,"rental_uris":{"android":"levelo://app?vid=1cc25914-2a72-4e23-8678-a9be8865271d","ios":"levelo://app?vid=1cc25914-2a72-4e23-8678-a9be8865271d"},"vehicle_type_id":"4","last_reported":1719075979,"current_range_meters":0,"station_id":"ce4bhsp2rcd13ifvqi50","pricing_plan_id":"cebpf4jnsgd1na2vs0mg"},{"bike_id":"374b75ad-ef9c-4801-ab0d-552e0ad47925","system_id":"levelo_inurba_marseille","lat":43.31533,"lon":5.38037,"is_reserved":false,"is_disabled":false,"rental_uris":{"android":"levelo://app?vid=374b75ad-ef9c-4801-ab0d-552e0ad47925","ios":"levelo://app?vid=374b75ad-ef9c-4801-ab0d-552e0ad47925"},"vehicle_type_id":"4","last_reported":1719075979,"current_range_meters":17200,"station_id":"ce4bhsp2rcd13ifvqi50","pricing_plan_id":"cebpf4jnsgd1na2vs0mg"},{"bike_id":"8ad2c816-bd4f-49c3-956c-e3a8d4f0112c","system_id":"levelo_inurba_marseille","lat":43.31529,"lon":5.38039,"is_reserved":false,"is_disabled":false,"rental_uris":{"android":"levelo://app?vid=8ad2c816-bd4f-49c3-956c-e3a8d4f0112c","ios":"levelo://app?vid=8ad2c816-bd4f-49c3-956c-e3a8d4f0112c"},"vehicle_type_id":"4","last_reported":1719075979,"current_range_meters":6000,"station_id":"ce4bhsp2rcd13ifvqi50","pricing_plan_id":"cebpf4jnsgd1na2vs0mg"},{"bike_id":"ba4e2ee4-99dc-4d25-8b2c-04eca4e00bb6","system_id":"levelo_inurba_marseille","lat":43.315453,"lon":5.380337,"is_reserved":false,"is_disabled":false,"rental_uris":{"android":"levelo://app?vid=ba4e2ee4-99dc-4d25-8b2c-04eca4e00bb6","ios":"levelo://app?vid=ba4e2ee4-99dc-4d25-8b2c-04eca4e00bb6"},"vehicle_type_id":"4","last_reported":1719075979,"current_range_meters":3600,"station_id":"ce4bhsp2rcd13ifvqi50","pricing_plan_id":"cebpf4jnsgd1na2vs0mg"},{"bike_id":"1aa9382d-bd55-4aff-8971-b23615fccdae","system_id":"levelo_inurba_marseille","lat":43.311,"lon":5.38145,"is_reserved":false,"is_disabled":false,"rental_uris":{"android":"levelo://app?vid=1aa9382d-bd55-4aff-8971-b23615fccdae","ios":"levelo://app?vid=1aa9382d-bd55-4aff-8971-b23615fccdae"},"vehicle_type_id":"4","last_reported":1719075979,"current_range_meters":4800,"station_id":"","pricing_plan_id":"cebpf4jnsgd1na2vs0mg"},{"bike_id":"c8d74784-cfa3-4dc0-a55e-c53d6b6b7590","system_id":"levelo_inurba_marseille","lat":43.31303,"lon":5.38184,"is_reserved":false,"is_disabled":false,"rental_uris":{"android":"levelo://app?vid=c8d74784-cfa3-4dc0-a55e-c53d6b6b7590","ios":"levelo://app?vid=c8d74784-cfa3-4dc0-a55e-c53d6b6b7590"},"vehicle_type_id":"4","last_reported":1719075979,"current_range_meters":16400,"station_id":"","pricing_plan_id":"cebpf4jnsgd1na2vs0mg"},{"bike_id":"7892e05d-37ef-41c3-8940-9faf08e7f6a3","system_id":"levelo_inurba_marseille","lat":43.308012,"lon":5.381511,"is_reserved":false,"is_disabled":false,"rental_uris":{"android":"levelo://app?vid=7892e05d-37ef-41c3-8940-9faf08e7f6a3","ios":"levelo://app?vid=7892e05d-37ef-41c3-8940-9faf08e7f6a3"},"vehicle_type_id":"4","last_reported":1719075979,"current_range_meters":16400,"station_id":"ce4bgt12rcd13ifvqce0","pricing_plan_id":"cebpf4jnsgd1na2vs0mg"},{"bike_id":"34019115-1489-452e-872c-cb1a57f18b80","system_id":"levelo_inurba_marseille","lat":43.30469,"lon":5.379,"is_reserved":false,"is_disabled":false,"rental_uris":{"android":"levelo://app?vid=34019115-1489-452e-872c-cb1a57f18b80","ios":"levelo://app?vid=34019115-1489-452e-872c-cb1a57f18b80"},"vehicle_type_id":"4","last_reported":1719075979,"current_range_meters":0,"station_id":"ce4bgup2rcd13ifvqcn0","pricing_plan_id":"cebpf4jnsgd1na2vs0mg"},{"bike_id":"ed14ec74-1f1c-4cfd-8d26-59aa92fdca8a","system_id":"levelo_inurba_marseille","lat":43.30082,"lon":5.367207,"is_reserved":false,"is_disabled":false,"rental_uris":{"android":"levelo://app?vid=ed14ec74-1f1c-4cfd-8d26-59aa92fdca8a","ios":"levelo://app?vid=ed14ec74-1f1c-4cfd-8d26-59aa92fdca8a"},"vehicle_type_id":"4","last_reported":1719075979,"current_range_meters":25200,"station_id":"","pricing_plan_id":"cebpf4jnsgd1na2vs0mg"},{"bike_id":"b4bef7df-047a-429f-b746-b32d1ebe7639","system_id":"levelo_inurba_marseille","lat":43.309885,"lon":5.382867,"is_reserved":false,"is_disabled":false,"rental_uris":{"android":"levelo://app?vid=b4bef7df-047a-429f-b746-b32d1ebe7639","ios":"levelo://app?vid=b4bef7df-047a-429f-b746-b32d1ebe7639"},"vehicle_type_id":"4","last_reported":1719075979,"current_range_meters":0,"station_id":"","pricing_plan_id":"cebpf4jnsgd1na2vs0mg"},{"bike_id":"4871a4fc-757c-4fde-8898-3f7e2966ca81","system_id":"levelo_inurba_marseille","lat":43.304606,"lon":5.379026,"is_reserved":false,"is_disabled":false,"rental_uris":{"android":"levelo://app?vid=4871a4fc-757c-4fde-8898-3f7e2966ca81","ios":"levelo://app?vid=4871a4fc-757c-4fde-8898-3f7e2966ca81"},"vehicle_type_id":"4","last_reported":1719075979,"current_range_meters":19600,"station_id":"ce4bgup2rcd13ifvqcn0","pricing_plan_id":"cebpf4jnsgd1na2vs0mg"},{"bike_id":"622aba51-688d-4596-a8fb-0d1b16f91d31","system_id":"levelo_inurba_marseille","lat":43.30461,"lon":5.37903,"is_reserved":false,"is_disabled":false,"rental_uris":{"android":"levelo://app?vid=622aba51-688d-4596-a8fb-0d1b16f91d31","ios":"levelo://app?vid=622aba51-688d-4596-a8fb-0d1b16f91d31"},"vehicle_type_id":"4","last_reported":1719075979,"current_range_meters":0,"station_id":"ce4bgup2rcd13ifvqcn0","pricing_plan_id":"cebpf4jnsgd1na2vs0mg"},{"bike_id":"cdbf83c5-51e3-44b2-b105-d08117c562ec","system_id":"levelo_inurba_marseille","lat":43.324771,"lon":5.36557,"is_reserved":false,"is_disabled":false,"rental_uris":{"android":"levelo://app?vid=cdbf83c5-51e3-44b2-b105-d08117c562ec","ios":"levelo://app?vid=cdbf83c5-51e3-44b2-b105-d08117c562ec"},"vehicle_type_id":"4","last_reported":1719075979,"current_range_meters":4000,"station_id":"ce4bhs12rcd13ifvqhvg","pricing_plan_id":"cebpf4jnsgd1na2vs0mg"},{"bike_id":"1a3b2049-3b40-43cc-805e-8cfb34f4287f","system_id":"levelo_inurba_marseille","lat":43.324771,"lon":5.36557,"is_reserved":false,"is_disabled":false,"rental_uris":{"android":"levelo://app?vid=1a3b2049-3b40-43cc-805e-8cfb34f4287f","ios":"levelo://app?vid=1a3b2049-3b40-43cc-805e-8cfb34f4287f"},"vehicle_type_id":"4","last_reported":1719075979,"current_range_meters":16800,"station_id":"ce4bhs12rcd13ifvqhvg","pricing_plan_id":"cebpf4jnsgd1na2vs0mg"},{"bike_id":"74f46ab5-4152-4562-9057-ef8072a235dc","system_id":"levelo_inurba_marseille","lat":43.310804,"lon":5.38359,"is_reserved":false,"is_disabled":false,"rental_uris":{"android":"levelo://app?vid=74f46ab5-4152-4562-9057-ef8072a235dc","ios":"levelo://app?vid=74f46ab5-4152-4562-9057-ef8072a235dc"},"vehicle_type_id":"4","last_reported":1719075979,"current_range_meters":16000,"station_id":"ce4bgv92rcd13ifvqcr0","pricing_plan_id":"cebpf4jnsgd1na2vs0mg"},{"bike_id":"56c038ac-3cda-436b-b22b-761f43a7fc0b","system_id":"levelo_inurba_marseille","lat":43.310804,"lon":5.38359,"is_reserved":false,"is_disabled":false,"rental_uris":{"android":"levelo://app?vid=56c038ac-3cda-436b-b22b-761f43a7fc0b","ios":"levelo://app?vid=56c038ac-3cda-436b-b22b-761f43a7fc0b"},"vehicle_type_id":"4","last_reported":1719075979,"current_range_meters":12800,"station_id":"ce4bgv92rcd13ifvqcr0","pricing_plan_id":"cebpf4jnsgd1na2vs0mg"},{"bike_id":"977267a5-f4db-4def-99f4-85b7f644d8ad","system_id":"levelo_inurba_marseille","lat":43.310804,"lon":5.38359,"is_reserved":false,"is_disabled":false,"rental_uris":{"android":"levelo://app?vid=977267a5-f4db-4def-99f4-85b7f644d8ad","ios":"levelo://app?vid=977267a5-f4db-4def-99f4-85b7f644d8ad"},"vehicle_type_id":"4","last_reported":1719075979,"current_range_meters":14400,"station_id":"ce4bgv92rcd13ifvqcr0","pricing_plan_id":"cebpf4jnsgd1na2vs0mg"},{"bike_id":"a181c2bd-cda8-4598-ac39-96d1771e05c7","system_id":"levelo_inurba_marseille","lat":43.310804,"lon":5.38359,"is_reserved":false,"is_disabled":false,"rental_uris":{"android":"levelo://app?vid=a181c2bd-cda8-4598-ac39-96d1771e05c7","ios":"levelo://app?vid=a181c2bd-cda8-4598-ac39-96d1771e05c7"},"vehicle_type_id":"4","last_reported":1719075979,"current_range_meters":5200,"station_id":"ce4bgv92rcd13ifvqcr0","pricing_plan_id":"cebpf4jnsgd1na2vs0mg"},{"bike_id":"5a5dc84c-070a-44b4-9c56-f2e56d8467d0","system_id":"levelo_inurba_marseille","lat":43.302784,"lon":5.377158,"is_reserved":false,"is_disabled":false,"rental_uris":{"android":"levelo://app?vid=5a5dc84c-070a-44b4-9c56-f2e56d8467d0","ios":"levelo://app?vid=5a5dc84c-070a-44b4-9c56-f2e56d8467d0"},"vehicle_type_id":"4","last_reported":1719075979,"current_range_meters":7200,"station_id":"ce4bguh2rcd13ifvqcj0","pricing_plan_id":"cebpf4jnsgd1na2vs0mg"},{"bike_id":"cb5efa55-78d3-4433-b5ef-dcdea7a6dac5","system_id":"levelo_inurba_marseille","lat":43.313571,"lon":5.384829,"is_reserved":false,"is_disabled":false,"rental_uris":{"android":"levelo://app?vid=cb5efa55-78d3-4433-b5ef-dcdea7a6dac5","ios":"levelo://app?vid=cb5efa55-78d3-4433-b5ef-dcdea7a6dac5"},"vehicle_type_id":"4","last_reported":1719075979,"current_range_meters":1200,"station_id":"ce4bgt92rcd13ifvqcf0","pricing_plan_id":"cebpf4jnsgd1na2vs0mg"},{"bike_id":"a6657aae-8dbd-44af-8ad3-c09be27ed74e","system_id":"levelo_inurba_marseille","lat":43.313571,"lon":5.384829,"is_reserved":false,"is_disabled":false,"rental_uris":{"android":"levelo://app?vid=a6657aae-8dbd-44af-8ad3-c09be27ed74e","ios":"levelo://app?vid=a6657aae-8dbd-44af-8ad3-c09be27ed74e"},"vehicle_type_id":"4","last_reported":1719075979,"current_range_meters":12000,"station_id":"ce4bgt92rcd13ifvqcf0","pricing_plan_id":"cebpf4jnsgd1na2vs0mg"},{"bike_id":"cdd36c50-a829-4ecb-8409-a8ade3b83426","system_id":"levelo_inurba_marseille","lat":43.31361,"lon":5.38496,"is_reserved":false,"is_disabled":false,"rental_uris":{"android":"levelo://app?vid=cdd36c50-a829-4ecb-8409-a8ade3b83426","ios":"levelo://app?vid=cdd36c50-a829-4ecb-8409-a8ade3b83426"},"vehicle_type_id":"4","last_reported":1719075979,"current_range_meters":14400,"station_id":"ce4bgt92rcd13ifvqcf0","pricing_plan_id":"cebpf4jnsgd1na2vs0mg"},{"bike_id":"1911681e-2582-4278-a595-9d0a2ee659f1","system_id":"levelo_inurba_marseille","lat":43.299724,"lon":5.371829,"is_reserved":false,"is_disabled":false,"rental_uris":{"android":"levelo://app?vid=1911681e-2582-4278-a595-9d0a2ee659f1","ios":"levelo://app?vid=1911681e-2582-4278-a595-9d0a2ee659f1"},"vehicle_type_id":"4","last_reported":1719075979,"current_range_meters":0,"station_id":"ce4bgr92rcd13ifvqc7g","pricing_plan_id":"cebpf4jnsgd1na2vs0mg"},{"bike_id":"9540ef16-ed34-409b-9810-87625091dff4","system_id":"levelo_inurba_marseille","lat":43.305364,"lon":5.384119,"is_reserved":false,"is_disabled":false,"rental_uris":{"android":"levelo://app?vid=9540ef16-ed34-409b-9810-87625091dff4","ios":"levelo://app?vid=9540ef16-ed34-409b-9810-87625091dff4"},"vehicle_type_id":"4","last_reported":1719075979,"current_range_meters":11600,"station_id":"ce4bgg92rcd13ifvqb30","pricing_plan_id":"cebpf4jnsgd1na2vs0mg"},{"bike_id":"bbcdb3f6-08b4-4aab-bfdb-786c9bf16686","system_id":"levelo_inurba_marseille","lat":43.298433,"lon":5.362774,"is_reserved":false,"is_disabled":false,"rental_uris":{"android":"levelo://app?vid=bbcdb3f6-08b4-4aab-bfdb-786c9bf16686","ios":"levelo://app?vid=bbcdb3f6-08b4-4aab-bfdb-786c9bf16686"},"vehicle_type_id":"4","last_reported":1719075979,"current_range_meters":18400,"station_id":"ce4bgpp2rcd13ifvqc3g","pricing_plan_id":"cebpf4jnsgd1na2vs0mg"},{"bike_id":"e0ab51a3-0962-42d4-844c-438021455691","system_id":"levelo_inurba_marseille","lat":43.311722,"lon":5.387247,"is_reserved":false,"is_disabled":false,"rental_uris":{"android":"levelo://app?vid=e0ab51a3-0962-42d4-844c-438021455691","ios":"levelo://app?vid=e0ab51a3-0962-42d4-844c-438021455691"},"vehicle_type_id":"4","last_reported":1719075979,"current_range_meters":21200,"station_id":"ce4bgv12rcd13ifvqcp0","pricing_plan_id":"cebpf4jnsgd1na2vs0mg"},{"bike_id":"ee945b35-45fd-4466-80fc-1824989b40e2","system_id":"levelo_inurba_marseille","lat":43.311722,"lon":5.387247,"is_reserved":false,"is_disabled":false,"rental_uris":{"android":"levelo://app?vid=ee945b35-45fd-4466-80fc-1824989b40e2","ios":"levelo://app?vid=ee945b35-45fd-4466-80fc-1824989b40e2"},"vehicle_type_id":"4","last_reported":1719075979,"current_range_meters":2000,"station_id":"ce4bgv12rcd13ifvqcp0","pricing_plan_id":"cebpf4jnsgd1na2vs0mg"},{"bike_id":"f6b5adc2-8b19-4bbb-b7fd-db2c4be5b204","system_id":"levelo_inurba_marseille","lat":43.299243,"lon":5.37481,"is_reserved":false,"is_disabled":false,"rental_uris":{"android":"levelo://app?vid=f6b5adc2-8b19-4bbb-b7fd-db2c4be5b204","ios":"levelo://app?vid=f6b5adc2-8b19-4bbb-b7fd-db2c4be5b204"},"vehicle_type_id":"4","last_reported":1719075979,"current_range_meters":28800,"station_id":"ce4bgjh2rcd13ifvqbg0","pricing_plan_id":"cebpf4jnsgd1na2vs0mg"},{"bike_id":"a83371aa-194d-4df8-9496-bf45dda26c80","system_id":"levelo_inurba_marseille","lat":43.3002,"lon":5.37815,"is_reserved":false,"is_disabled":false,"rental_uris":{"android":"levelo://app?vid=a83371aa-194d-4df8-9496-bf45dda26c80","ios":"levelo://app?vid=a83371aa-194d-4df8-9496-bf45dda26c80"},"vehicle_type_id":"4","last_reported":1719075979,"current_range_meters":21200,"station_id":"","pricing_plan_id":"cebpf4jnsgd1na2vs0mg"},{"bike_id":"a1c14c12-9ce6-4e37-aabc-b7a307d497cc","system_id":"levelo_inurba_marseille","lat":43.322872,"lon":5.382756,"is_reserved":false,"is_disabled":false,"rental_uris":{"android":"levelo://app?vid=a1c14c12-9ce6-4e37-aabc-b7a307d497cc","ios":"levelo://app?vid=a1c14c12-9ce6-4e37-aabc-b7a307d497cc"},"vehicle_type_id":"4","last_reported":1719075979,"current_range_meters":6800,"station_id":"ce4bhr12rcd13ifvqhqg","pricing_plan_id":"cebpf4jnsgd1na2vs0mg"},{"bike_id":"766dd230-9a0c-487b-80ac-57c912313f44","system_id":"levelo_inurba_marseille","lat":43.297163,"lon":5.365866,"is_reserved":false,"is_disabled":false,"rental_uris":{"android":"levelo://app?vid=766dd230-9a0c-487b-80ac-57c912313f44","ios":"levelo://app?vid=766dd230-9a0c-487b-80ac-57c912313f44"},"vehicle_type_id":"4","last_reported":1719075979,"current_range_meters":16400,"station_id":"ce4bgn12rcd13ifvqbt0","pricing_plan_id":"cebpf4jnsgd1na2vs0mg"},{"bike_id":"c425e2a6-6577-4a80-875a-a81a523ae4a0","system_id":"levelo_inurba_marseille","lat":43.29709,"lon":5.36614,"is_reserved":false,"is_disabled":false,"rental_uris":{"android":"levelo://app?vid=c425e2a6-6577-4a80-875a-a81a523ae4a0","ios":"levelo://app?vid=c425e2a6-6577-4a80-875a-a81a523ae4a0"},"vehicle_type_id":"4","last_reported":1719075979,"current_range_meters":20800,"station_id":"ce4bgn12rcd13ifvqbt0","pricing_plan_id":"cebpf4jnsgd1na2vs0mg"},{"bike_id":"5c43b99f-f6dc-46c1-83ed-c695c0fafea5","system_id":"levelo_inurba_marseille","lat":43.297163,"lon":5.365866,"is_reserved":false,"is_disabled":false,"rental_uris":{"android":"levelo://app?vid=5c43b99f-f6dc-46c1-83ed-c695c0fafea5","ios":"levelo://app?vid=5c43b99f-f6dc-46c1-83ed-c695c0fafea5"},"vehicle_type_id":"4","last_reported":1719075979,"current_range_meters":23600,"station_id":"ce4bgn12rcd13ifvqbt0","pricing_plan_id":"cebpf4jnsgd1na2vs0mg"},{"bike_id":"8b1485d4-af75-4b6a-b7db-0031881c2b5b","system_id":"levelo_inurba_marseille","lat":43.297163,"lon":5.365866,"is_reserved":false,"is_disabled":false,"rental_uris":{"android":"levelo://app?vid=8b1485d4-af75-4b6a-b7db-0031881c2b5b","ios":"levelo://app?vid=8b1485d4-af75-4b6a-b7db-0031881c2b5b"},"vehicle_type_id":"4","last_reported":1719075979,"current_range_meters":11200,"station_id":"ce4bgn12rcd13ifvqbt0","pricing_plan_id":"cebpf4jnsgd1na2vs0mg"},{"bike_id":"f814a71d-b24c-4d6c-be5e-ffb667b0a5a4","system_id":"levelo_inurba_marseille","lat":43.297163,"lon":5.365866,"is_reserved":false,"is_disabled":false,"rental_uris":{"android":"levelo://app?vid=f814a71d-b24c-4d6c-be5e-ffb667b0a5a4","ios":"levelo://app?vid=f814a71d-b24c-4d6c-be5e-ffb667b0a5a4"},"vehicle_type_id":"4","last_reported":1719075979,"current_range_meters":400,"station_id":"ce4bgn12rcd13ifvqbt0","pricing_plan_id":"cebpf4jnsgd1na2vs0mg"},{"bike_id":"b2f8c189-9044-422e-b64d-4a088a546d2e","system_id":"levelo_inurba_marseille","lat":43.29683,"lon":5.37286,"is_reserved":false,"is_disabled":false,"rental_uris":{"android":"levelo://app?vid=b2f8c189-9044-422e-b64d-4a088a546d2e","ios":"levelo://app?vid=b2f8c189-9044-422e-b64d-4a088a546d2e"},"vehicle_type_id":"4","last_reported":1719075979,"current_range_meters":30000,"station_id":"","pricing_plan_id":"cebpf4jnsgd1na2vs0mg"},{"bike_id":"29dc9921-e1e6-407d-ac0e-18b66adebcfb","system_id":"levelo_inurba_marseille","lat":43.2968,"lon":5.37291,"is_reserved":false,"is_disabled":false,"rental_uris":{"android":"levelo://app?vid=29dc9921-e1e6-407d-ac0e-18b66adebcfb","ios":"levelo://app?vid=29dc9921-e1e6-407d-ac0e-18b66adebcfb"},"vehicle_type_id":"4","last_reported":1719075979,"current_range_meters":12400,"station_id":"ce4bgk12rcd13ifvqbj0","pricing_plan_id":"cebpf4jnsgd1na2vs0mg"},{"bike_id":"b72300bf-8015-45c3-a0e0-885c12ec9e2f","system_id":"levelo_inurba_marseille","lat":43.2968,"lon":5.37291,"is_reserved":false,"is_disabled":false,"rental_uris":{"android":"levelo://app?vid=b72300bf-8015-45c3-a0e0-885c12ec9e2f","ios":"levelo://app?vid=b72300bf-8015-45c3-a0e0-885c12ec9e2f"},"vehicle_type_id":"4","last_reported":1719075979,"current_range_meters":10400,"station_id":"ce4bgk12rcd13ifvqbj0","pricing_plan_id":"cebpf4jnsgd1na2vs0mg"},{"bike_id":"416e81a1-edc1-4614-88fe-b222da2fe502","system_id":"levelo_inurba_marseille","lat":43.296129,"lon":5.370777,"is_reserved":false,"is_disabled":false,"rental_uris":{"android":"levelo://app?vid=416e81a1-edc1-4614-88fe-b222da2fe502","ios":"levelo://app?vid=416e81a1-edc1-4614-88fe-b222da2fe502"},"vehicle_type_id":"4","last_reported":1719075979,"current_range_meters":24000,"station_id":"ce4bgnh2rcd13ifvqc0g","pricing_plan_id":"cebpf4jnsgd1na2vs0mg"},{"bike_id":"58d4e877-4e3e-40f8-a3b4-d5ad296c95f0","system_id":"levelo_inurba_marseille","lat":43.309589,"lon":5.390258,"is_reserved":false,"is_disabled":false,"rental_uris":{"android":"levelo://app?vid=58d4e877-4e3e-40f8-a3b4-d5ad296c95f0","ios":"levelo://app?vid=58d4e877-4e3e-40f8-a3b4-d5ad296c95f0"},"vehicle_type_id":"4","last_reported":1719075979,"current_range_meters":0,"station_id":"ce4bgup2rcd13ifvqco0","pricing_plan_id":"cebpf4jnsgd1na2vs0mg"},{"bike_id":"d1f6b416-407a-4bb5-8878-b11d9371ccdb","system_id":"levelo_inurba_marseille","lat":43.299028,"lon":5.381509,"is_reserved":false,"is_disabled":false,"rental_uris":{"android":"levelo://app?vid=d1f6b416-407a-4bb5-8878-b11d9371ccdb","ios":"levelo://app?vid=d1f6b416-407a-4bb5-8878-b11d9371ccdb"},"vehicle_type_id":"4","last_reported":1719075979,"current_range_meters":5600,"station_id":"ce4bgj12rcd13ifvqbc0","pricing_plan_id":"cebpf4jnsgd1na2vs0mg"},{"bike_id":"08581f40-f28e-47b7-8ffb-79772d5f1d16","system_id":"levelo_inurba_marseille","lat":43.3095,"lon":5.39014,"is_reserved":false,"is_disabled":false,"rental_uris":{"android":"levelo://app?vid=08581f40-f28e-47b7-8ffb-79772d5f1d16","ios":"levelo://app?vid=08581f40-f28e-47b7-8ffb-79772d5f1d16"},"vehicle_type_id":"4","last_reported":1719075979,"current_range_meters":8000,"station_id":"ce4bgup2rcd13ifvqco0","pricing_plan_id":"cebpf4jnsgd1na2vs0mg"},{"bike_id":"4d565a44-d94c-4891-8694-11071f7a3d4a","system_id":"levelo_inurba_marseille","lat":43.309589,"lon":5.390258,"is_reserved":false,"is_disabled":false,"rental_uris":{"android":"levelo://app?vid=4d565a44-d94c-4891-8694-11071f7a3d4a","ios":"levelo://app?vid=4d565a44-d94c-4891-8694-11071f7a3d4a"},"vehicle_type_id":"4","last_reported":1719075979,"current_range_meters":31200,"station_id":"ce4bgup2rcd13ifvqco0","pricing_plan_id":"cebpf4jnsgd1na2vs0mg"},{"bike_id":"45c67c6e-3510-4945-a6c7-9f9ce5a524eb","system_id":"levelo_inurba_marseille","lat":43.296935,"lon":5.376544,"is_reserved":false,"is_disabled":false,"rental_uris":{"android":"levelo://app?vid=45c67c6e-3510-4945-a6c7-9f9ce5a524eb","ios":"levelo://app?vid=45c67c6e-3510-4945-a6c7-9f9ce5a524eb"},"vehicle_type_id":"4","last_reported":1719075979,"current_range_meters":14000,"station_id":"ce4bgkh2rcd13ifvqbl0","pricing_plan_id":"cebpf4jnsgd1na2vs0mg"},{"bike_id":"ed301a32-5173-4ed7-bc14-c310372600bb","system_id":"levelo_inurba_marseille","lat":43.309589,"lon":5.390258,"is_reserved":false,"is_disabled":false,"rental_uris":{"android":"levelo://app?vid=ed301a32-5173-4ed7-bc14-c310372600bb","ios":"levelo://app?vid=ed301a32-5173-4ed7-bc14-c310372600bb"},"vehicle_type_id":"4","last_reported":1719075979,"current_range_meters":1600,"station_id":"ce4bgup2rcd13ifvqco0","pricing_plan_id":"cebpf4jnsgd1na2vs0mg"},{"bike_id":"7835d13a-7c90-4380-b317-4ca3c66bf8d9","system_id":"levelo_inurba_marseille","lat":43.309589,"lon":5.390258,"is_reserved":false,"is_disabled":false,"rental_uris":{"android":"levelo://app?vid=7835d13a-7c90-4380-b317-4ca3c66bf8d9","ios":"levelo://app?vid=7835d13a-7c90-4380-b317-4ca3c66bf8d9"},"vehicle_type_id":"4","last_reported":1719075979,"current_range_meters":27200,"station_id":"ce4bgup2rcd13ifvqco0","pricing_plan_id":"cebpf4jnsgd1na2vs0mg"},{"bike_id":"dfa3d214-8c3d-4b5b-9dd0-703c647f3ba6","system_id":"levelo_inurba_marseille","lat":43.317557,"lon":5.390173,"is_reserved":false,"is_disabled":false,"rental_uris":{"android":"levelo://app?vid=dfa3d214-8c3d-4b5b-9dd0-703c647f3ba6","ios":"levelo://app?vid=dfa3d214-8c3d-4b5b-9dd0-703c647f3ba6"},"vehicle_type_id":"4","last_reported":1719075979,"current_range_meters":10000,"station_id":"ce4bhqp2rcd13ifvqhng","pricing_plan_id":"cebpf4jnsgd1na2vs0mg"},{"bike_id":"55228b43-5d2f-4c50-9911-90c776efa8bc","system_id":"levelo_inurba_marseille","lat":43.298037,"lon":5.381066,"is_reserved":false,"is_disabled":false,"rental_uris":{"android":"levelo://app?vid=55228b43-5d2f-4c50-9911-90c776efa8bc","ios":"levelo://app?vid=55228b43-5d2f-4c50-9911-90c776efa8bc"},"vehicle_type_id":"4","last_reported":1719075979,"current_range_meters":20800,"station_id":"ce4bgip2rcd13ifvqbb0","pricing_plan_id":"cebpf4jnsgd1na2vs0mg"},{"bike_id":"0b5eead2-750e-4a19-a1f1-de6098a4621d","system_id":"levelo_inurba_marseille","lat":43.295748,"lon":5.37522,"is_reserved":false,"is_disabled":false,"rental_uris":{"android":"levelo://app?vid=0b5eead2-750e-4a19-a1f1-de6098a4621d","ios":"levelo://app?vid=0b5eead2-750e-4a19-a1f1-de6098a4621d"},"vehicle_type_id":"4","last_reported":1719075979,"current_range_meters":800,"station_id":"ce4bgh92rcd13ifvqb50","pricing_plan_id":"cebpf4jnsgd1na2vs0mg"},{"bike_id":"8f840ca5-2061-4c28-947d-1efd0d8f26d7","system_id":"levelo_inurba_marseille","lat":43.304274,"lon":5.388873,"is_reserved":false,"is_disabled":false,"rental_uris":{"android":"levelo://app?vid=8f840ca5-2061-4c28-947d-1efd0d8f26d7","ios":"levelo://app?vid=8f840ca5-2061-4c28-947d-1efd0d8f26d7"},"vehicle_type_id":"4","last_reported":1719075979,"current_range_meters":5600,"station_id":"ce4bgk12rcd13ifvqbi0","pricing_plan_id":"cebpf4jnsgd1na2vs0mg"},{"bike_id":"631d7141-8a8f-43de-94ab-6d780b83e1e2","system_id":"levelo_inurba_marseille","lat":43.304274,"lon":5.388873,"is_reserved":false,"is_disabled":false,"rental_uris":{"android":"levelo://app?vid=631d7141-8a8f-43de-94ab-6d780b83e1e2","ios":"levelo://app?vid=631d7141-8a8f-43de-94ab-6d780b83e1e2"},"vehicle_type_id":"4","last_reported":1719075979,"current_range_meters":5200,"station_id":"ce4bgk12rcd13ifvqbi0","pricing_plan_id":"cebpf4jnsgd1na2vs0mg"},{"bike_id":"3cb72700-9b11-4375-9df6-116cdea82e24","system_id":"levelo_inurba_marseille","lat":43.304274,"lon":5.388873,"is_reserved":false,"is_disabled":false,"rental_uris":{"android":"levelo://app?vid=3cb72700-9b11-4375-9df6-116cdea82e24","ios":"levelo://app?vid=3cb72700-9b11-4375-9df6-116cdea82e24"},"vehicle_type_id":"4","last_reported":1719075979,"current_range_meters":8000,"station_id":"ce4bgk12rcd13ifvqbi0","pricing_plan_id":"cebpf4jnsgd1na2vs0mg"},{"bike_id":"bfdbe491-274e-4c71-bf77-28d44f8caa9a","system_id":"levelo_inurba_marseille","lat":43.304274,"lon":5.388873,"is_reserved":false,"is_disabled":false,"rental_uris":{"android":"levelo://app?vid=bfdbe491-274e-4c71-bf77-28d44f8caa9a","ios":"levelo://app?vid=bfdbe491-274e-4c71-bf77-28d44f8caa9a"},"vehicle_type_id":"4","last_reported":1719075979,"current_range_meters":25200,"station_id":"ce4bgk12rcd13ifvqbi0","pricing_plan_id":"cebpf4jnsgd1na2vs0mg"},{"bike_id":"a1879ace-738b-403a-b2db-3ca5c9549ba6","system_id":"levelo_inurba_marseille","lat":43.299707,"lon":5.384859,"is_reserved":false,"is_disabled":false,"rental_uris":{"android":"levelo://app?vid=a1879ace-738b-403a-b2db-3ca5c9549ba6","ios":"levelo://app?vid=a1879ace-738b-403a-b2db-3ca5c9549ba6"},"vehicle_type_id":"4","last_reported":1719075979,"current_range_meters":25200,"station_id":"ce4bgj92rcd13ifvqbd0","pricing_plan_id":"cebpf4jnsgd1na2vs0mg"},{"bike_id":"19af520e-ea38-4640-aa7e-08a0120645d6","system_id":"levelo_inurba_marseille","lat":43.299724,"lon":5.384848,"is_reserved":false,"is_disabled":false,"rental_uris":{"android":"levelo://app?vid=19af520e-ea38-4640-aa7e-08a0120645d6","ios":"levelo://app?vid=19af520e-ea38-4640-aa7e-08a0120645d6"},"vehicle_type_id":"4","last_reported":1719075979,"current_range_meters":5600,"station_id":"ce4bgj92rcd13ifvqbd0","pricing_plan_id":"cebpf4jnsgd1na2vs0mg"},{"bike_id":"ad27b20e-4629-480a-96e0-ecae82045d30","system_id":"levelo_inurba_marseille","lat":43.295279,"lon":5.375048,"is_reserved":false,"is_disabled":false,"rental_uris":{"android":"levelo://app?vid=ad27b20e-4629-480a-96e0-ecae82045d30","ios":"levelo://app?vid=ad27b20e-4629-480a-96e0-ecae82045d30"},"vehicle_type_id":"4","last_reported":1719075979,"current_range_meters":0,"station_id":"ce4bgkp2rcd13ifvqbmg","pricing_plan_id":"cebpf4jnsgd1na2vs0mg"},{"bike_id":"9e44dc5d-4527-488c-b412-d89ae3c94a8c","system_id":"levelo_inurba_marseille","lat":43.292749,"lon":5.368402,"is_reserved":false,"is_disabled":false,"rental_uris":{"android":"levelo://app?vid=9e44dc5d-4527-488c-b412-d89ae3c94a8c","ios":"levelo://app?vid=9e44dc5d-4527-488c-b412-d89ae3c94a8c"},"vehicle_type_id":"4","last_reported":1719075979,"current_range_meters":0,"station_id":"ce4bhbp2rcd13ifvqesg","pricing_plan_id":"cebpf4jnsgd1na2vs0mg"},{"bike_id":"e0f969c2-65fd-47aa-bbff-526e5976b61b","system_id":"levelo_inurba_marseille","lat":43.293259,"lon":5.371586,"is_reserved":false,"is_disabled":false,"rental_uris":{"android":"levelo://app?vid=e0f969c2-65fd-47aa-bbff-526e5976b61b","ios":"levelo://app?vid=e0f969c2-65fd-47aa-bbff-526e5976b61b"},"vehicle_type_id":"4","last_reported":1719075979,"current_range_meters":23200,"station_id":"ce4bgh92rcd13ifvqb40","pricing_plan_id":"cebpf4jnsgd1na2vs0mg"},{"bike_id":"58d02d95-e407-4ca4-bc6a-714ba5eda406","system_id":"levelo_inurba_marseille","lat":43.292749,"lon":5.368402,"is_reserved":false,"is_disabled":false,"rental_uris":{"android":"levelo://app?vid=58d02d95-e407-4ca4-bc6a-714ba5eda406","ios":"levelo://app?vid=58d02d95-e407-4ca4-bc6a-714ba5eda406"},"vehicle_type_id":"4","last_reported":1719075979,"current_range_meters":18400,"station_id":"ce4bhbp2rcd13ifvqesg","pricing_plan_id":"cebpf4jnsgd1na2vs0mg"},{"bike_id":"7c6fd91e-a933-46c6-a636-62342eacd882","system_id":"levelo_inurba_marseille","lat":43.293009,"lon":5.374584,"is_reserved":false,"is_disabled":false,"rental_uris":{"android":"levelo://app?vid=7c6fd91e-a933-46c6-a636-62342eacd882","ios":"levelo://app?vid=7c6fd91e-a933-46c6-a636-62342eacd882"},"vehicle_type_id":"4","last_reported":1719075979,"current_range_meters":24400,"station_id":"ce4bgi12rcd13ifvqb70","pricing_plan_id":"cebpf4jnsgd1na2vs0mg"},{"bike_id":"4beb057c-c6a8-4ad1-a61e-1a03fb441efe","system_id":"levelo_inurba_marseille","lat":43.305994,"lon":5.393687,"is_reserved":false,"is_disabled":false,"rental_uris":{"android":"levelo://app?vid=4beb057c-c6a8-4ad1-a61e-1a03fb441efe","ios":"levelo://app?vid=4beb057c-c6a8-4ad1-a61e-1a03fb441efe"},"vehicle_type_id":"4","last_reported":1719075979,"current_range_meters":0,"station_id":"ce4bh0p2rcd13ifvqd80","pricing_plan_id":"cebpf4jnsgd1na2vs0mg"},{"bike_id":"ce988017-c10a-43b2-a8af-80413cee902e","system_id":"levelo_inurba_marseille","lat":43.293009,"lon":5.374584,"is_reserved":false,"is_disabled":false,"rental_uris":{"android":"levelo://app?vid=ce988017-c10a-43b2-a8af-80413cee902e","ios":"levelo://app?vid=ce988017-c10a-43b2-a8af-80413cee902e"},"vehicle_type_id":"4","last_reported":1719075979,"current_range_meters":0,"station_id":"ce4bgi12rcd13ifvqb70","pricing_plan_id":"cebpf4jnsgd1na2vs0mg"},{"bike_id":"9275ff8b-f335-4cf4-a4a0-2044da468979","system_id":"levelo_inurba_marseille","lat":43.292935,"lon":5.37456,"is_reserved":false,"is_disabled":false,"rental_uris":{"android":"levelo://app?vid=9275ff8b-f335-4cf4-a4a0-2044da468979","ios":"levelo://app?vid=9275ff8b-f335-4cf4-a4a0-2044da468979"},"vehicle_type_id":"4","last_reported":1719075979,"current_range_meters":0,"station_id":"ce4bgi12rcd13ifvqb70","pricing_plan_id":"cebpf4jnsgd1na2vs0mg"},{"bike_id":"7f9d50e8-8c85-4c7a-adb9-ff69df751d9a","system_id":"levelo_inurba_marseille","lat":43.303002,"lon":5.392142,"is_reserved":false,"is_disabled":false,"rental_uris":{"android":"levelo://app?vid=7f9d50e8-8c85-4c7a-adb9-ff69df751d9a","ios":"levelo://app?vid=7f9d50e8-8c85-4c7a-adb9-ff69df751d9a"},"vehicle_type_id":"4","last_reported":1719075979,"current_range_meters":0,"station_id":"ce4bgkh2rcd13ifvqbk0","pricing_plan_id":"cebpf4jnsgd1na2vs0mg"},{"bike_id":"52f181eb-dac0-4c14-9cd8-7b7eca0e4a79","system_id":"levelo_inurba_marseille","lat":43.303002,"lon":5.392142,"is_reserved":false,"is_disabled":false,"rental_uris":{"android":"levelo://app?vid=52f181eb-dac0-4c14-9cd8-7b7eca0e4a79","ios":"levelo://app?vid=52f181eb-dac0-4c14-9cd8-7b7eca0e4a79"},"vehicle_type_id":"4","last_reported":1719075979,"current_range_meters":0,"station_id":"ce4bgkh2rcd13ifvqbk0","pricing_plan_id":"cebpf4jnsgd1na2vs0mg"},{"bike_id":"7bf0fdfb-6c7a-47fd-a264-021e6fc74c1f","system_id":"levelo_inurba_marseille","lat":43.302992,"lon":5.392136,"is_reserved":false,"is_disabled":false,"rental_uris":{"android":"levelo://app?vid=7bf0fdfb-6c7a-47fd-a264-021e6fc74c1f","ios":"levelo://app?vid=7bf0fdfb-6c7a-47fd-a264-021e6fc74c1f"},"vehicle_type_id":"4","last_reported":1719075979,"current_range_meters":22400,"station_id":"ce4bgkh2rcd13ifvqbk0","pricing_plan_id":"cebpf4jnsgd1na2vs0mg"},{"bike_id":"df0b3e62-e5c2-4241-b580-f305871ce845","system_id":"levelo_inurba_marseille","lat":43.2936,"lon":5.37837,"is_reserved":false,"is_disabled":false,"rental_uris":{"android":"levelo://app?vid=df0b3e62-e5c2-4241-b580-f305871ce845","ios":"levelo://app?vid=df0b3e62-e5c2-4241-b580-f305871ce845"},"vehicle_type_id":"4","last_reported":1719075979,"current_range_meters":4800,"station_id":"ce4bgjh2rcd13ifvqbf0","pricing_plan_id":"cebpf4jnsgd1na2vs0mg"},{"bike_id":"7328cb2f-c24e-413a-857f-4ca74af8873e","system_id":"levelo_inurba_marseille","lat":43.2936,"lon":5.37835,"is_reserved":false,"is_disabled":false,"rental_uris":{"android":"levelo://app?vid=7328cb2f-c24e-413a-857f-4ca74af8873e","ios":"levelo://app?vid=7328cb2f-c24e-413a-857f-4ca74af8873e"},"vehicle_type_id":"4","last_reported":1719075979,"current_range_meters":26000,"station_id":"ce4bgjh2rcd13ifvqbf0","pricing_plan_id":"cebpf4jnsgd1na2vs0mg"},{"bike_id":"67df7407-d259-49af-9c60-91658b4e0ac3","system_id":"levelo_inurba_marseille","lat":43.29212,"lon":5.36071,"is_reserved":false,"is_disabled":false,"rental_uris":{"android":"levelo://app?vid=67df7407-d259-49af-9c60-91658b4e0ac3","ios":"levelo://app?vid=67df7407-d259-49af-9c60-91658b4e0ac3"},"vehicle_type_id":"4","last_reported":1719075979,"current_range_meters":24000,"station_id":"ce4bhbh2rcd13ifvqeqg","pricing_plan_id":"cebpf4jnsgd1na2vs0mg"},{"bike_id":"6df759a1-be2e-4c0e-af8e-4d56879eb5c9","system_id":"levelo_inurba_marseille","lat":43.298764,"lon":5.388973,"is_reserved":false,"is_disabled":false,"rental_uris":{"android":"levelo://app?vid=6df759a1-be2e-4c0e-af8e-4d56879eb5c9","ios":"levelo://app?vid=6df759a1-be2e-4c0e-af8e-4d56879eb5c9"},"vehicle_type_id":"4","last_reported":1719075979,"current_range_meters":21600,"station_id":"ce4bh392rcd13ifvqdl0","pricing_plan_id":"cebpf4jnsgd1na2vs0mg"},{"bike_id":"29a080eb-a7cd-4d0b-8b7f-57b16ec82a21","system_id":"levelo_inurba_marseille","lat":43.291675,"lon":5.371583,"is_reserved":false,"is_disabled":false,"rental_uris":{"android":"levelo://app?vid=29a080eb-a7cd-4d0b-8b7f-57b16ec82a21","ios":"levelo://app?vid=29a080eb-a7cd-4d0b-8b7f-57b16ec82a21"},"vehicle_type_id":"4","last_reported":1719075979,"current_range_meters":1200,"station_id":"ce4bha92rcd13ifvqeh0","pricing_plan_id":"cebpf4jnsgd1na2vs0mg"},{"bike_id":"0f6dbbc7-2a70-477c-b86c-51b8efaffbd4","system_id":"levelo_inurba_marseille","lat":43.292005,"lon":5.357875,"is_reserved":false,"is_disabled":false,"rental_uris":{"android":"levelo://app?vid=0f6dbbc7-2a70-477c-b86c-51b8efaffbd4","ios":"levelo://app?vid=0f6dbbc7-2a70-477c-b86c-51b8efaffbd4"},"vehicle_type_id":"4","last_reported":1719075979,"current_range_meters":2000,"station_id":"ce4bhb12rcd13ifvqel0","pricing_plan_id":"cebpf4jnsgd1na2vs0mg"},{"bike_id":"9757eb5f-8545-40e4-b3ad-8b7b7fbc1677","system_id":"levelo_inurba_marseille","lat":43.313291,"lon":5.396838,"is_reserved":false,"is_disabled":false,"rental_uris":{"android":"levelo://app?vid=9757eb5f-8545-40e4-b3ad-8b7b7fbc1677","ios":"levelo://app?vid=9757eb5f-8545-40e4-b3ad-8b7b7fbc1677"},"vehicle_type_id":"4","last_reported":1719075979,"current_range_meters":10000,"station_id":"ce4bgvp2rcd13ifvqcu0","pricing_plan_id":"cebpf4jnsgd1na2vs0mg"},{"bike_id":"49667a19-6508-4358-a708-b2a4daa94938","system_id":"levelo_inurba_marseille","lat":43.30884,"lon":5.396378,"is_reserved":false,"is_disabled":false,"rental_uris":{"android":"levelo://app?vid=49667a19-6508-4358-a708-b2a4daa94938","ios":"levelo://app?vid=49667a19-6508-4358-a708-b2a4daa94938"},"vehicle_type_id":"4","last_reported":1719075979,"current_range_meters":0,"station_id":"ce4bh012rcd13ifvqcv0","pricing_plan_id":"cebpf4jnsgd1na2vs0mg"},{"bike_id":"1689ce21-ccaa-4d27-a2d0-acb9960ea856","system_id":"levelo_inurba_marseille","lat":43.291994,"lon":5.357886,"is_reserved":false,"is_disabled":false,"rental_uris":{"android":"levelo://app?vid=1689ce21-ccaa-4d27-a2d0-acb9960ea856","ios":"levelo://app?vid=1689ce21-ccaa-4d27-a2d0-acb9960ea856"},"vehicle_type_id":"4","last_reported":1719075979,"current_range_meters":15200,"station_id":"ce4bhb12rcd13ifvqel0","pricing_plan_id":"cebpf4jnsgd1na2vs0mg"},{"bike_id":"5fc37a5d-4aeb-41bd-9bf8-791cf173d33d","system_id":"levelo_inurba_marseille","lat":43.291994,"lon":5.357886,"is_reserved":false,"is_disabled":false,"rental_uris":{"android":"levelo://app?vid=5fc37a5d-4aeb-41bd-9bf8-791cf173d33d","ios":"levelo://app?vid=5fc37a5d-4aeb-41bd-9bf8-791cf173d33d"},"vehicle_type_id":"4","last_reported":1719075979,"current_range_meters":11200,"station_id":"ce4bhb12rcd13ifvqel0","pricing_plan_id":"cebpf4jnsgd1na2vs0mg"},{"bike_id":"d8b61ffe-86d6-4369-92bb-8253a6e36842","system_id":"levelo_inurba_marseille","lat":43.2919,"lon":5.35792,"is_reserved":false,"is_disabled":false,"rental_uris":{"android":"levelo://app?vid=d8b61ffe-86d6-4369-92bb-8253a6e36842","ios":"levelo://app?vid=d8b61ffe-86d6-4369-92bb-8253a6e36842"},"vehicle_type_id":"4","last_reported":1719075979,"current_range_meters":31200,"station_id":"ce4bhb12rcd13ifvqel0","pricing_plan_id":"cebpf4jnsgd1na2vs0mg"},{"bike_id":"50bbb250-9e39-41c8-a909-9eed2702ae95","system_id":"levelo_inurba_marseille","lat":43.29566,"lon":5.38567,"is_reserved":false,"is_disabled":false,"rental_uris":{"android":"levelo://app?vid=50bbb250-9e39-41c8-a909-9eed2702ae95","ios":"levelo://app?vid=50bbb250-9e39-41c8-a909-9eed2702ae95"},"vehicle_type_id":"4","last_reported":1719075979,"current_range_meters":18800,"station_id":"","pricing_plan_id":"cebpf4jnsgd1na2vs0mg"},{"bike_id":"79da91ba-86ce-4dfc-8980-8d1a94ba9a0d","system_id":"levelo_inurba_marseille","lat":43.309038,"lon":5.396546,"is_reserved":false,"is_disabled":false,"rental_uris":{"android":"levelo://app?vid=79da91ba-86ce-4dfc-8980-8d1a94ba9a0d","ios":"levelo://app?vid=79da91ba-86ce-4dfc-8980-8d1a94ba9a0d"},"vehicle_type_id":"4","last_reported":1719075979,"current_range_meters":7600,"station_id":"ce4bh012rcd13ifvqcv0","pricing_plan_id":"cebpf4jnsgd1na2vs0mg"},{"bike_id":"ab0e01ea-411a-4231-8534-cd9ff004c9e9","system_id":"levelo_inurba_marseille","lat":43.29529,"lon":5.385581,"is_reserved":false,"is_disabled":false,"rental_uris":{"android":"levelo://app?vid=ab0e01ea-411a-4231-8534-cd9ff004c9e9","ios":"levelo://app?vid=ab0e01ea-411a-4231-8534-cd9ff004c9e9"},"vehicle_type_id":"4","last_reported":1719075979,"current_range_meters":400,"station_id":"ce4bgih2rcd13ifvqba0","pricing_plan_id":"cebpf4jnsgd1na2vs0mg"},{"bike_id":"9c3efffe-ad52-47d7-a40c-71b7d5ee7994","system_id":"levelo_inurba_marseille","lat":43.2953,"lon":5.38551,"is_reserved":false,"is_disabled":false,"rental_uris":{"android":"levelo://app?vid=9c3efffe-ad52-47d7-a40c-71b7d5ee7994","ios":"levelo://app?vid=9c3efffe-ad52-47d7-a40c-71b7d5ee7994"},"vehicle_type_id":"4","last_reported":1719075979,"current_range_meters":0,"station_id":"ce4bgih2rcd13ifvqba0","pricing_plan_id":"cebpf4jnsgd1na2vs0mg"},{"bike_id":"ed6e00a2-ae30-4b74-9912-050303e7f51e","system_id":"levelo_inurba_marseille","lat":43.29529,"lon":5.385581,"is_reserved":false,"is_disabled":false,"rental_uris":{"android":"levelo://app?vid=ed6e00a2-ae30-4b74-9912-050303e7f51e","ios":"levelo://app?vid=ed6e00a2-ae30-4b74-9912-050303e7f51e"},"vehicle_type_id":"4","last_reported":1719075979,"current_range_meters":19600,"station_id":"ce4bgih2rcd13ifvqba0","pricing_plan_id":"cebpf4jnsgd1na2vs0mg"},{"bike_id":"80daf218-e373-4bff-a1ea-cfd8320644ee","system_id":"levelo_inurba_marseille","lat":43.290779,"lon":5.371482,"is_reserved":false,"is_disabled":false,"rental_uris":{"android":"levelo://app?vid=80daf218-e373-4bff-a1ea-cfd8320644ee","ios":"levelo://app?vid=80daf218-e373-4bff-a1ea-cfd8320644ee"},"vehicle_type_id":"4","last_reported":1719075979,"current_range_meters":0,"station_id":"ce4bh5p2rcd13ifvqe4g","pricing_plan_id":"cebpf4jnsgd1na2vs0mg"},{"bike_id":"ea22c26a-5add-42ee-8545-a66996b96718","system_id":"levelo_inurba_marseille","lat":43.302065,"lon":5.394605,"is_reserved":false,"is_disabled":false,"rental_uris":{"android":"levelo://app?vid=ea22c26a-5add-42ee-8545-a66996b96718","ios":"levelo://app?vid=ea22c26a-5add-42ee-8545-a66996b96718"},"vehicle_type_id":"4","last_reported":1719075979,"current_range_meters":23200,"station_id":"ce4bh0p2rcd13ifvqd70","pricing_plan_id":"cebpf4jnsgd1na2vs0mg"},{"bike_id":"67047250-8321-4261-b8de-8c095a8ce691","system_id":"levelo_inurba_marseille","lat":43.295,"lon":5.3871,"is_reserved":false,"is_disabled":false,"rental_uris":{"android":"levelo://app?vid=67047250-8321-4261-b8de-8c095a8ce691","ios":"levelo://app?vid=67047250-8321-4261-b8de-8c095a8ce691"},"vehicle_type_id":"4","last_reported":1719075979,"current_range_meters":9200,"station_id":"","pricing_plan_id":"cebpf4jnsgd1na2vs0mg"},{"bike_id":"813af253-4678-4a21-b499-cf4e041821c0","system_id":"levelo_inurba_marseille","lat":43.290624,"lon":5.359245,"is_reserved":false,"is_disabled":false,"rental_uris":{"android":"levelo://app?vid=813af253-4678-4a21-b499-cf4e041821c0","ios":"levelo://app?vid=813af253-4678-4a21-b499-cf4e041821c0"},"vehicle_type_id":"4","last_reported":1719075979,"current_range_meters":14800,"station_id":"ce4bha92rcd13ifvqeg0","pricing_plan_id":"cebpf4jnsgd1na2vs0mg"},{"bike_id":"431e69aa-4ba9-4ab5-9a7b-2ab15f4bf911","system_id":"levelo_inurba_marseille","lat":43.294153,"lon":5.386305,"is_reserved":false,"is_disabled":false,"rental_uris":{"android":"levelo://app?vid=431e69aa-4ba9-4ab5-9a7b-2ab15f4bf911","ios":"levelo://app?vid=431e69aa-4ba9-4ab5-9a7b-2ab15f4bf911"},"vehicle_type_id":"4","last_reported":1719075979,"current_range_meters":3600,"station_id":"ce4bh2h2rcd13ifvqdh0","pricing_plan_id":"cebpf4jnsgd1na2vs0mg"},{"bike_id":"f347532e-7952-4298-bff7-62d2e73e269e","system_id":"levelo_inurba_marseille","lat":43.290624,"lon":5.359245,"is_reserved":false,"is_disabled":false,"rental_uris":{"android":"levelo://app?vid=f347532e-7952-4298-bff7-62d2e73e269e","ios":"levelo://app?vid=f347532e-7952-4298-bff7-62d2e73e269e"},"vehicle_type_id":"4","last_reported":1719075979,"current_range_meters":0,"station_id":"ce4bha92rcd13ifvqeg0","pricing_plan_id":"cebpf4jnsgd1na2vs0mg"},{"bike_id":"b538feb5-b07a-42e2-9520-12c9192c6b0e","system_id":"levelo_inurba_marseille","lat":43.29418,"lon":5.38623,"is_reserved":false,"is_disabled":false,"rental_uris":{"android":"levelo://app?vid=b538feb5-b07a-42e2-9520-12c9192c6b0e","ios":"levelo://app?vid=b538feb5-b07a-42e2-9520-12c9192c6b0e"},"vehicle_type_id":"4","last_reported":1719075979,"current_range_meters":0,"station_id":"ce4bh2h2rcd13ifvqdh0","pricing_plan_id":"cebpf4jnsgd1na2vs0mg"},{"bike_id":"9b6d4d53-bdb3-46cf-9ede-54d509ba5275","system_id":"levelo_inurba_marseille","lat":43.2903,"lon":5.37555,"is_reserved":false,"is_disabled":false,"rental_uris":{"android":"levelo://app?vid=9b6d4d53-bdb3-46cf-9ede-54d509ba5275","ios":"levelo://app?vid=9b6d4d53-bdb3-46cf-9ede-54d509ba5275"},"vehicle_type_id":"4","last_reported":1719075979,"current_range_meters":6000,"station_id":"ce4bh692rcd13ifvqe90","pricing_plan_id":"cebpf4jnsgd1na2vs0mg"},{"bike_id":"a50bda89-ed35-4517-adb4-46194ea02f8f","system_id":"levelo_inurba_marseille","lat":43.29416,"lon":5.38627,"is_reserved":false,"is_disabled":false,"rental_uris":{"android":"levelo://app?vid=a50bda89-ed35-4517-adb4-46194ea02f8f","ios":"levelo://app?vid=a50bda89-ed35-4517-adb4-46194ea02f8f"},"vehicle_type_id":"4","last_reported":1719075979,"current_range_meters":0,"station_id":"ce4bh2h2rcd13ifvqdh0","pricing_plan_id":"cebpf4jnsgd1na2vs0mg"},{"bike_id":"82bb4196-f832-4b0a-a134-44a567d36de6","system_id":"levelo_inurba_marseille","lat":43.289184,"lon":5.366408,"is_reserved":false,"is_disabled":false,"rental_uris":{"android":"levelo://app?vid=82bb4196-f832-4b0a-a134-44a567d36de6","ios":"levelo://app?vid=82bb4196-f832-4b0a-a134-44a567d36de6"},"vehicle_type_id":"4","last_reported":1719075979,"current_range_meters":5200,"station_id":"ce4bhap2rcd13ifvqek0","pricing_plan_id":"cebpf4jnsgd1na2vs0mg"},{"bike_id":"6c74f27f-e90f-417e-a84a-d6e91b4edd98","system_id":"levelo_inurba_marseille","lat":43.289363,"lon":5.363743,"is_reserved":false,"is_disabled":false,"rental_uris":{"android":"levelo://app?vid=6c74f27f-e90f-417e-a84a-d6e91b4edd98","ios":"levelo://app?vid=6c74f27f-e90f-417e-a84a-d6e91b4edd98"},"vehicle_type_id":"4","last_reported":1719075979,"current_range_meters":30400,"station_id":"ce4bhc92rcd13ifvqetg","pricing_plan_id":"cebpf4jnsgd1na2vs0mg"},{"bike_id":"a81737a1-a25c-49de-bf0c-8ea6d6f16ea7","system_id":"levelo_inurba_marseille","lat":43.28932,"lon":5.36396,"is_reserved":false,"is_disabled":false,"rental_uris":{"android":"levelo://app?vid=a81737a1-a25c-49de-bf0c-8ea6d6f16ea7","ios":"levelo://app?vid=a81737a1-a25c-49de-bf0c-8ea6d6f16ea7"},"vehicle_type_id":"4","last_reported":1719075979,"current_range_meters":2400,"station_id":"ce4bhc92rcd13ifvqetg","pricing_plan_id":"cebpf4jnsgd1na2vs0mg"},{"bike_id":"99af35f9-90d9-4053-8099-5507c82916e3","system_id":"levelo_inurba_marseille","lat":43.29277,"lon":5.38435,"is_reserved":false,"is_disabled":false,"rental_uris":{"android":"levelo://app?vid=99af35f9-90d9-4053-8099-5507c82916e3","ios":"levelo://app?vid=99af35f9-90d9-4053-8099-5507c82916e3"},"vehicle_type_id":"4","last_reported":1719075979,"current_range_meters":0,"station_id":"ce4bh692rcd13ifvqea0","pricing_plan_id":"cebpf4jnsgd1na2vs0mg"},{"bike_id":"f61ed46e-2a08-4661-a637-b80364b6ccf0","system_id":"levelo_inurba_marseille","lat":43.292642,"lon":5.384254,"is_reserved":false,"is_disabled":false,"rental_uris":{"android":"levelo://app?vid=f61ed46e-2a08-4661-a637-b80364b6ccf0","ios":"levelo://app?vid=f61ed46e-2a08-4661-a637-b80364b6ccf0"},"vehicle_type_id":"4","last_reported":1719075979,"current_range_meters":16400,"station_id":"ce4bh692rcd13ifvqea0","pricing_plan_id":"cebpf4jnsgd1na2vs0mg"},{"bike_id":"10a4aa54-0e06-4893-b636-469b32570788","system_id":"levelo_inurba_marseille","lat":43.304274,"lon":5.397513,"is_reserved":false,"is_disabled":false,"rental_uris":{"android":"levelo://app?vid=10a4aa54-0e06-4893-b636-469b32570788","ios":"levelo://app?vid=10a4aa54-0e06-4893-b636-469b32570788"},"vehicle_type_id":"4","last_reported":1719075979,"current_range_meters":24000,"station_id":"ce4bh092rcd13ifvqd20","pricing_plan_id":"cebpf4jnsgd1na2vs0mg"},{"bike_id":"807610e5-fd48-4d2f-a86b-79ec1ff50526","system_id":"levelo_inurba_marseille","lat":43.292642,"lon":5.384254,"is_reserved":false,"is_disabled":false,"rental_uris":{"android":"levelo://app?vid=807610e5-fd48-4d2f-a86b-79ec1ff50526","ios":"levelo://app?vid=807610e5-fd48-4d2f-a86b-79ec1ff50526"},"vehicle_type_id":"4","last_reported":1719075979,"current_range_meters":0,"station_id":"ce4bh692rcd13ifvqea0","pricing_plan_id":"cebpf4jnsgd1na2vs0mg"},{"bike_id":"b98cb22f-a83b-49a2-b484-3065f212293d","system_id":"levelo_inurba_marseille","lat":43.304274,"lon":5.397513,"is_reserved":false,"is_disabled":false,"rental_uris":{"android":"levelo://app?vid=b98cb22f-a83b-49a2-b484-3065f212293d","ios":"levelo://app?vid=b98cb22f-a83b-49a2-b484-3065f212293d"},"vehicle_type_id":"4","last_reported":1719075979,"current_range_meters":17200,"station_id":"ce4bh092rcd13ifvqd20","pricing_plan_id":"cebpf4jnsgd1na2vs0mg"},{"bike_id":"672cea88-5736-4e9d-8f8f-b024be691fb4","system_id":"levelo_inurba_marseille","lat":43.290103,"lon":5.356114,"is_reserved":false,"is_disabled":false,"rental_uris":{"android":"levelo://app?vid=672cea88-5736-4e9d-8f8f-b024be691fb4","ios":"levelo://app?vid=672cea88-5736-4e9d-8f8f-b024be691fb4"},"vehicle_type_id":"4","last_reported":1719075979,"current_range_meters":8000,"station_id":"ce4bhb92rcd13ifvqen0","pricing_plan_id":"cebpf4jnsgd1na2vs0mg"},{"bike_id":"3d51333e-3c3e-46b1-bd12-5e5a4b33b1fb","system_id":"levelo_inurba_marseille","lat":43.295169,"lon":5.390426,"is_reserved":false,"is_disabled":false,"rental_uris":{"android":"levelo://app?vid=3d51333e-3c3e-46b1-bd12-5e5a4b33b1fb","ios":"levelo://app?vid=3d51333e-3c3e-46b1-bd12-5e5a4b33b1fb"},"vehicle_type_id":"4","last_reported":1719075979,"current_range_meters":0,"station_id":"ce4bh3p2rcd13ifvqdp0","pricing_plan_id":"cebpf4jnsgd1na2vs0mg"},{"bike_id":"3d476d49-d78f-4c84-8a52-a9a05b467114","system_id":"levelo_inurba_marseille","lat":43.290995,"lon":5.381361,"is_reserved":false,"is_disabled":false,"rental_uris":{"android":"levelo://app?vid=3d476d49-d78f-4c84-8a52-a9a05b467114","ios":"levelo://app?vid=3d476d49-d78f-4c84-8a52-a9a05b467114"},"vehicle_type_id":"4","last_reported":1719075979,"current_range_meters":0,"station_id":"ce4bh512rcd13ifvqe2g","pricing_plan_id":"cebpf4jnsgd1na2vs0mg"},{"bike_id":"cb3efdca-6510-4db0-bba7-a4992cbeaade","system_id":"levelo_inurba_marseille","lat":43.330442,"lon":5.389148,"is_reserved":false,"is_disabled":false,"rental_uris":{"android":"levelo://app?vid=cb3efdca-6510-4db0-bba7-a4992cbeaade","ios":"levelo://app?vid=cb3efdca-6510-4db0-bba7-a4992cbeaade"},"vehicle_type_id":"4","last_reported":1719075979,"current_range_meters":3200,"station_id":"ce4bhr92rcd13ifvqhrg","pricing_plan_id":"cebpf4jnsgd1na2vs0mg"},{"bike_id":"726d8072-8bce-439c-8127-42a7e7680b7b","system_id":"levelo_inurba_marseille","lat":43.330442,"lon":5.389148,"is_reserved":false,"is_disabled":false,"rental_uris":{"android":"levelo://app?vid=726d8072-8bce-439c-8127-42a7e7680b7b","ios":"levelo://app?vid=726d8072-8bce-439c-8127-42a7e7680b7b"},"vehicle_type_id":"4","last_reported":1719075979,"current_range_meters":14000,"station_id":"ce4bhr92rcd13ifvqhrg","pricing_plan_id":"cebpf4jnsgd1na2vs0mg"},{"bike_id":"4f01d720-4bcf-40b0-b2e6-e8385abb8717","system_id":"levelo_inurba_marseille","lat":43.289741,"lon":5.378306,"is_reserved":false,"is_disabled":false,"rental_uris":{"android":"levelo://app?vid=4f01d720-4bcf-40b0-b2e6-e8385abb8717","ios":"levelo://app?vid=4f01d720-4bcf-40b0-b2e6-e8385abb8717"},"vehicle_type_id":"4","last_reported":1719075979,"current_range_meters":1200,"station_id":"ce4bh9p2rcd13ifvqed0","pricing_plan_id":"cebpf4jnsgd1na2vs0mg"},{"bike_id":"0231023e-baf4-4ebc-8ee8-74833ecdd672","system_id":"levelo_inurba_marseille","lat":43.295169,"lon":5.390426,"is_reserved":false,"is_disabled":false,"rental_uris":{"android":"levelo://app?vid=0231023e-baf4-4ebc-8ee8-74833ecdd672","ios":"levelo://app?vid=0231023e-baf4-4ebc-8ee8-74833ecdd672"},"vehicle_type_id":"4","last_reported":1719075979,"current_range_meters":24800,"station_id":"ce4bh3p2rcd13ifvqdp0","pricing_plan_id":"cebpf4jnsgd1na2vs0mg"},{"bike_id":"759bd280-4cad-4573-86dc-d1d6e0bee126","system_id":"levelo_inurba_marseille","lat":43.2901,"lon":5.381269,"is_reserved":false,"is_disabled":false,"rental_uris":{"android":"levelo://app?vid=759bd280-4cad-4573-86dc-d1d6e0bee126","ios":"levelo://app?vid=759bd280-4cad-4573-86dc-d1d6e0bee126"},"vehicle_type_id":"4","last_reported":1719075979,"current_range_meters":14400,"station_id":"ce4bh4p2rcd13ifvqe1g","pricing_plan_id":"cebpf4jnsgd1na2vs0mg"},{"bike_id":"b174c820-d271-462a-a5be-11d6f7ad8c18","system_id":"levelo_inurba_marseille","lat":43.290094,"lon":5.381264,"is_reserved":false,"is_disabled":false,"rental_uris":{"android":"levelo://app?vid=b174c820-d271-462a-a5be-11d6f7ad8c18","ios":"levelo://app?vid=b174c820-d271-462a-a5be-11d6f7ad8c18"},"vehicle_type_id":"4","last_reported":1719075979,"current_range_meters":0,"station_id":"ce4bh4p2rcd13ifvqe1g","pricing_plan_id":"cebpf4jnsgd1na2vs0mg"},{"bike_id":"13c6072f-23cb-4f84-ac90-715022f088bc","system_id":"levelo_inurba_marseille","lat":43.2901,"lon":5.381269,"is_reserved":false,"is_disabled":false,"rental_uris":{"android":"levelo://app?vid=13c6072f-23cb-4f84-ac90-715022f088bc","ios":"levelo://app?vid=13c6072f-23cb-4f84-ac90-715022f088bc"},"vehicle_type_id":"4","last_reported":1719075979,"current_range_meters":0,"station_id":"ce4bh4p2rcd13ifvqe1g","pricing_plan_id":"cebpf4jnsgd1na2vs0mg"},{"bike_id":"b7db00b0-1bd5-4952-9687-38ef3d6e7f26","system_id":"levelo_inurba_marseille","lat":43.291694,"lon":5.386093,"is_reserved":false,"is_disabled":false,"rental_uris":{"android":"levelo://app?vid=b7db00b0-1bd5-4952-9687-38ef3d6e7f26","ios":"levelo://app?vid=b7db00b0-1bd5-4952-9687-38ef3d6e7f26"},"vehicle_type_id":"4","last_reported":1719075979,"current_range_meters":0,"station_id":"","pricing_plan_id":"cebpf4jnsgd1na2vs0mg"},{"bike_id":"05092e03-5cef-41c3-9575-df5db7507ebd","system_id":"levelo_inurba_marseille","lat":43.33739,"lon":5.37464,"is_reserved":false,"is_disabled":false,"rental_uris":{"android":"levelo://app?vid=05092e03-5cef-41c3-9575-df5db7507ebd","ios":"levelo://app?vid=05092e03-5cef-41c3-9575-df5db7507ebd"},"vehicle_type_id":"4","last_reported":1719075979,"current_range_meters":18800,"station_id":"","pricing_plan_id":"cebpf4jnsgd1na2vs0mg"},{"bike_id":"7355d68a-5012-4ae6-9979-10b1229883a7","system_id":"levelo_inurba_marseille","lat":43.312609,"lon":5.401662,"is_reserved":false,"is_disabled":false,"rental_uris":{"android":"levelo://app?vid=7355d68a-5012-4ae6-9979-10b1229883a7","ios":"levelo://app?vid=7355d68a-5012-4ae6-9979-10b1229883a7"},"vehicle_type_id":"4","last_reported":1719075979,"current_range_meters":8400,"station_id":"ce4bh092rcd13ifvqd30","pricing_plan_id":"cebpf4jnsgd1na2vs0mg"},{"bike_id":"dddf62d1-ca34-477b-b822-5ebe287dfc04","system_id":"levelo_inurba_marseille","lat":43.309371,"lon":5.401449,"is_reserved":false,"is_disabled":false,"rental_uris":{"android":"levelo://app?vid=dddf62d1-ca34-477b-b822-5ebe287dfc04","ios":"levelo://app?vid=dddf62d1-ca34-477b-b822-5ebe287dfc04"},"vehicle_type_id":"4","last_reported":1719075979,"current_range_meters":12000,"station_id":"ce4bgvp2rcd13ifvqct0","pricing_plan_id":"cebpf4jnsgd1na2vs0mg"},{"bike_id":"b6579735-49e4-4c4f-a77d-0228bca34d62","system_id":"levelo_inurba_marseille","lat":43.309371,"lon":5.401449,"is_reserved":false,"is_disabled":false,"rental_uris":{"android":"levelo://app?vid=b6579735-49e4-4c4f-a77d-0228bca34d62","ios":"levelo://app?vid=b6579735-49e4-4c4f-a77d-0228bca34d62"},"vehicle_type_id":"4","last_reported":1719075979,"current_range_meters":2000,"station_id":"ce4bgvp2rcd13ifvqct0","pricing_plan_id":"cebpf4jnsgd1na2vs0mg"},{"bike_id":"ac41396e-dc70-47a4-be54-231fe3cad8bb","system_id":"levelo_inurba_marseille","lat":43.309371,"lon":5.401449,"is_reserved":false,"is_disabled":false,"rental_uris":{"android":"levelo://app?vid=ac41396e-dc70-47a4-be54-231fe3cad8bb","ios":"levelo://app?vid=ac41396e-dc70-47a4-be54-231fe3cad8bb"},"vehicle_type_id":"4","last_reported":1719075979,"current_range_meters":13600,"station_id":"ce4bgvp2rcd13ifvqct0","pricing_plan_id":"cebpf4jnsgd1na2vs0mg"},{"bike_id":"fb4504ce-d70a-4ad1-859d-a449de24c505","system_id":"levelo_inurba_marseille","lat":43.309371,"lon":5.401449,"is_reserved":false,"is_disabled":false,"rental_uris":{"android":"levelo://app?vid=fb4504ce-d70a-4ad1-859d-a449de24c505","ios":"levelo://app?vid=fb4504ce-d70a-4ad1-859d-a449de24c505"},"vehicle_type_id":"4","last_reported":1719075979,"current_range_meters":19600,"station_id":"ce4bgvp2rcd13ifvqct0","pricing_plan_id":"cebpf4jnsgd1na2vs0mg"},{"bike_id":"7a42c666-a731-41e7-b8a5-507658aa0a34","system_id":"levelo_inurba_marseille","lat":43.309371,"lon":5.401449,"is_reserved":false,"is_disabled":false,"rental_uris":{"android":"levelo://app?vid=7a42c666-a731-41e7-b8a5-507658aa0a34","ios":"levelo://app?vid=7a42c666-a731-41e7-b8a5-507658aa0a34"},"vehicle_type_id":"4","last_reported":1719075979,"current_range_meters":0,"station_id":"ce4bgvp2rcd13ifvqct0","pricing_plan_id":"cebpf4jnsgd1na2vs0mg"},{"bike_id":"b96c5d51-82b0-4b78-bde4-3aaef404bf1b","system_id":"levelo_inurba_marseille","lat":43.309371,"lon":5.401449,"is_reserved":false,"is_disabled":false,"rental_uris":{"android":"levelo://app?vid=b96c5d51-82b0-4b78-bde4-3aaef404bf1b","ios":"levelo://app?vid=b96c5d51-82b0-4b78-bde4-3aaef404bf1b"},"vehicle_type_id":"4","last_reported":1719075979,"current_range_meters":0,"station_id":"ce4bgvp2rcd13ifvqct0","pricing_plan_id":"cebpf4jnsgd1na2vs0mg"},{"bike_id":"5b5cae36-09e1-4bd0-aeb4-83d37c064d16","system_id":"levelo_inurba_marseille","lat":43.33754,"lon":5.37462,"is_reserved":false,"is_disabled":false,"rental_uris":{"android":"levelo://app?vid=5b5cae36-09e1-4bd0-aeb4-83d37c064d16","ios":"levelo://app?vid=5b5cae36-09e1-4bd0-aeb4-83d37c064d16"},"vehicle_type_id":"4","last_reported":1719075979,"current_range_meters":26000,"station_id":"","pricing_plan_id":"cebpf4jnsgd1na2vs0mg"},{"bike_id":"a00c218c-138a-4388-aca4-2952a6961815","system_id":"levelo_inurba_marseille","lat":43.33753,"lon":5.37478,"is_reserved":false,"is_disabled":false,"rental_uris":{"android":"levelo://app?vid=a00c218c-138a-4388-aca4-2952a6961815","ios":"levelo://app?vid=a00c218c-138a-4388-aca4-2952a6961815"},"vehicle_type_id":"4","last_reported":1719075979,"current_range_meters":28400,"station_id":"","pricing_plan_id":"cebpf4jnsgd1na2vs0mg"},{"bike_id":"0e11bbab-a5d9-4098-a6f1-624d89f27c59","system_id":"levelo_inurba_marseille","lat":43.337572,"lon":5.374546,"is_reserved":false,"is_disabled":false,"rental_uris":{"android":"levelo://app?vid=0e11bbab-a5d9-4098-a6f1-624d89f27c59","ios":"levelo://app?vid=0e11bbab-a5d9-4098-a6f1-624d89f27c59"},"vehicle_type_id":"4","last_reported":1719075979,"current_range_meters":23600,"station_id":"","pricing_plan_id":"cebpf4jnsgd1na2vs0mg"},{"bike_id":"db534928-e6a2-47cc-a852-558fe66ed50c","system_id":"levelo_inurba_marseille","lat":43.337583,"lon":5.374633,"is_reserved":false,"is_disabled":false,"rental_uris":{"android":"levelo://app?vid=db534928-e6a2-47cc-a852-558fe66ed50c","ios":"levelo://app?vid=db534928-e6a2-47cc-a852-558fe66ed50c"},"vehicle_type_id":"4","last_reported":1719075979,"current_range_meters":22000,"station_id":"","pricing_plan_id":"cebpf4jnsgd1na2vs0mg"},{"bike_id":"65d996ac-e732-4f9b-a26c-563eb25be7c3","system_id":"levelo_inurba_marseille","lat":43.30642,"lon":5.401031,"is_reserved":false,"is_disabled":false,"rental_uris":{"android":"levelo://app?vid=65d996ac-e732-4f9b-a26c-563eb25be7c3","ios":"levelo://app?vid=65d996ac-e732-4f9b-a26c-563eb25be7c3"},"vehicle_type_id":"4","last_reported":1719075979,"current_range_meters":22000,"station_id":"ce4bh112rcd13ifvqda0","pricing_plan_id":"cebpf4jnsgd1na2vs0mg"},{"bike_id":"d5b1bcda-3c62-482a-ae86-d44542cf6db8","system_id":"levelo_inurba_marseille","lat":43.306412,"lon":5.401035,"is_reserved":false,"is_disabled":false,"rental_uris":{"android":"levelo://app?vid=d5b1bcda-3c62-482a-ae86-d44542cf6db8","ios":"levelo://app?vid=d5b1bcda-3c62-482a-ae86-d44542cf6db8"},"vehicle_type_id":"4","last_reported":1719075979,"current_range_meters":26000,"station_id":"ce4bh112rcd13ifvqda0","pricing_plan_id":"cebpf4jnsgd1na2vs0mg"},{"bike_id":"e7be790b-07e4-40f3-b60f-da683b157943","system_id":"levelo_inurba_marseille","lat":43.33033,"lon":5.39238,"is_reserved":false,"is_disabled":false,"rental_uris":{"android":"levelo://app?vid=e7be790b-07e4-40f3-b60f-da683b157943","ios":"levelo://app?vid=e7be790b-07e4-40f3-b60f-da683b157943"},"vehicle_type_id":"4","last_reported":1719075979,"current_range_meters":18400,"station_id":"","pricing_plan_id":"cebpf4jnsgd1na2vs0mg"},{"bike_id":"a77bf3f1-dc55-4e35-8fe0-6292cee970ef","system_id":"levelo_inurba_marseille","lat":43.33035,"lon":5.39239,"is_reserved":false,"is_disabled":false,"rental_uris":{"android":"levelo://app?vid=a77bf3f1-dc55-4e35-8fe0-6292cee970ef","ios":"levelo://app?vid=a77bf3f1-dc55-4e35-8fe0-6292cee970ef"},"vehicle_type_id":"4","last_reported":1719075979,"current_range_meters":20800,"station_id":"","pricing_plan_id":"cebpf4jnsgd1na2vs0mg"},{"bike_id":"85e0cfd4-61db-4991-9403-33a0a5f234bb","system_id":"levelo_inurba_marseille","lat":43.306412,"lon":5.401035,"is_reserved":false,"is_disabled":false,"rental_uris":{"android":"levelo://app?vid=85e0cfd4-61db-4991-9403-33a0a5f234bb","ios":"levelo://app?vid=85e0cfd4-61db-4991-9403-33a0a5f234bb"},"vehicle_type_id":"4","last_reported":1719075979,"current_range_meters":18800,"station_id":"ce4bh112rcd13ifvqda0","pricing_plan_id":"cebpf4jnsgd1na2vs0mg"},{"bike_id":"b6f79ec0-0513-4664-9999-f2a97d90cb56","system_id":"levelo_inurba_marseille","lat":43.301117,"lon":5.398795,"is_reserved":false,"is_disabled":false,"rental_uris":{"android":"levelo://app?vid=b6f79ec0-0513-4664-9999-f2a97d90cb56","ios":"levelo://app?vid=b6f79ec0-0513-4664-9999-f2a97d90cb56"},"vehicle_type_id":"4","last_reported":1719075979,"current_range_meters":31200,"station_id":"ce4bh0h2rcd13ifvqd40","pricing_plan_id":"cebpf4jnsgd1na2vs0mg"},{"bike_id":"81cceb3f-ffb3-47fd-aec7-9012ed529faa","system_id":"levelo_inurba_marseille","lat":43.301117,"lon":5.398795,"is_reserved":false,"is_disabled":false,"rental_uris":{"android":"levelo://app?vid=81cceb3f-ffb3-47fd-aec7-9012ed529faa","ios":"levelo://app?vid=81cceb3f-ffb3-47fd-aec7-9012ed529faa"},"vehicle_type_id":"4","last_reported":1719075979,"current_range_meters":31200,"station_id":"ce4bh0h2rcd13ifvqd40","pricing_plan_id":"cebpf4jnsgd1na2vs0mg"},{"bike_id":"71b98033-d6c4-4deb-a047-306792019bdd","system_id":"levelo_inurba_marseille","lat":43.301117,"lon":5.398795,"is_reserved":false,"is_disabled":false,"rental_uris":{"android":"levelo://app?vid=71b98033-d6c4-4deb-a047-306792019bdd","ios":"levelo://app?vid=71b98033-d6c4-4deb-a047-306792019bdd"},"vehicle_type_id":"4","last_reported":1719075979,"current_range_meters":5600,"station_id":"ce4bh0h2rcd13ifvqd40","pricing_plan_id":"cebpf4jnsgd1na2vs0mg"},{"bike_id":"1529575d-3c24-4053-9dc4-3fc753c20a3e","system_id":"levelo_inurba_marseille","lat":43.3304,"lon":5.39281,"is_reserved":false,"is_disabled":false,"rental_uris":{"android":"levelo://app?vid=1529575d-3c24-4053-9dc4-3fc753c20a3e","ios":"levelo://app?vid=1529575d-3c24-4053-9dc4-3fc753c20a3e"},"vehicle_type_id":"4","last_reported":1719075979,"current_range_meters":1200,"station_id":"","pricing_plan_id":"cebpf4jnsgd1na2vs0mg"},{"bike_id":"02e12abe-cef8-42f4-89a0-d1408769a1fb","system_id":"levelo_inurba_marseille","lat":43.28725,"lon":5.36076,"is_reserved":false,"is_disabled":false,"rental_uris":{"android":"levelo://app?vid=02e12abe-cef8-42f4-89a0-d1408769a1fb","ios":"levelo://app?vid=02e12abe-cef8-42f4-89a0-d1408769a1fb"},"vehicle_type_id":"4","last_reported":1719075979,"current_range_meters":21600,"station_id":"cki0cbj6b192h4jlfktg","pricing_plan_id":"cebpf4jnsgd1na2vs0mg"},{"bike_id":"642b05f1-b6a9-490e-8c1f-d12fafe6e8d5","system_id":"levelo_inurba_marseille","lat":43.286593,"lon":5.363346,"is_reserved":false,"is_disabled":false,"rental_uris":{"android":"levelo://app?vid=642b05f1-b6a9-490e-8c1f-d12fafe6e8d5","ios":"levelo://app?vid=642b05f1-b6a9-490e-8c1f-d12fafe6e8d5"},"vehicle_type_id":"4","last_reported":1719075979,"current_range_meters":11600,"station_id":"ce4bhah2rcd13ifvqej0","pricing_plan_id":"cebpf4jnsgd1na2vs0mg"},{"bike_id":"9ad5696d-2c6c-46da-b768-4b49953c99f7","system_id":"levelo_inurba_marseille","lat":43.286593,"lon":5.363346,"is_reserved":false,"is_disabled":false,"rental_uris":{"android":"levelo://app?vid=9ad5696d-2c6c-46da-b768-4b49953c99f7","ios":"levelo://app?vid=9ad5696d-2c6c-46da-b768-4b49953c99f7"},"vehicle_type_id":"4","last_reported":1719075979,"current_range_meters":29600,"station_id":"ce4bhah2rcd13ifvqej0","pricing_plan_id":"cebpf4jnsgd1na2vs0mg"},{"bike_id":"4cdca967-d717-41c6-aad8-8bc6882cd8b4","system_id":"levelo_inurba_marseille","lat":43.295196,"lon":5.39397,"is_reserved":false,"is_disabled":false,"rental_uris":{"android":"levelo://app?vid=4cdca967-d717-41c6-aad8-8bc6882cd8b4","ios":"levelo://app?vid=4cdca967-d717-41c6-aad8-8bc6882cd8b4"},"vehicle_type_id":"4","last_reported":1719075979,"current_range_meters":19600,"station_id":"ce4bh292rcd13ifvqdf0","pricing_plan_id":"cebpf4jnsgd1na2vs0mg"},{"bike_id":"52c00303-bc31-459d-8cc1-b347be0999fa","system_id":"levelo_inurba_marseille","lat":43.28663,"lon":5.363563,"is_reserved":false,"is_disabled":false,"rental_uris":{"android":"levelo://app?vid=52c00303-bc31-459d-8cc1-b347be0999fa","ios":"levelo://app?vid=52c00303-bc31-459d-8cc1-b347be0999fa"},"vehicle_type_id":"4","last_reported":1719075979,"current_range_meters":0,"station_id":"ce4bhah2rcd13ifvqej0","pricing_plan_id":"cebpf4jnsgd1na2vs0mg"},{"bike_id":"9a21e60e-5f02-46d2-b3b6-b327e6ebfeed","system_id":"levelo_inurba_marseille","lat":43.295196,"lon":5.39397,"is_reserved":false,"is_disabled":false,"rental_uris":{"android":"levelo://app?vid=9a21e60e-5f02-46d2-b3b6-b327e6ebfeed","ios":"levelo://app?vid=9a21e60e-5f02-46d2-b3b6-b327e6ebfeed"},"vehicle_type_id":"4","last_reported":1719075979,"current_range_meters":15200,"station_id":"ce4bh292rcd13ifvqdf0","pricing_plan_id":"cebpf4jnsgd1na2vs0mg"},{"bike_id":"a05f59ef-e028-472a-9c07-5cbad973850c","system_id":"levelo_inurba_marseille","lat":43.290345,"lon":5.38646,"is_reserved":false,"is_disabled":false,"rental_uris":{"android":"levelo://app?vid=a05f59ef-e028-472a-9c07-5cbad973850c","ios":"levelo://app?vid=a05f59ef-e028-472a-9c07-5cbad973850c"},"vehicle_type_id":"4","last_reported":1719075979,"current_range_meters":25600,"station_id":"ce4bh4p2rcd13ifvqe0g","pricing_plan_id":"cebpf4jnsgd1na2vs0mg"},{"bike_id":"f8265834-a70f-43cc-9c41-483bd867091f","system_id":"levelo_inurba_marseille","lat":43.295194,"lon":5.39397,"is_reserved":false,"is_disabled":false,"rental_uris":{"android":"levelo://app?vid=f8265834-a70f-43cc-9c41-483bd867091f","ios":"levelo://app?vid=f8265834-a70f-43cc-9c41-483bd867091f"},"vehicle_type_id":"4","last_reported":1719075979,"current_range_meters":3200,"station_id":"ce4bh292rcd13ifvqdf0","pricing_plan_id":"cebpf4jnsgd1na2vs0mg"},{"bike_id":"cbd99a0d-8299-4805-9796-1cf054148af6","system_id":"levelo_inurba_marseille","lat":43.290345,"lon":5.38646,"is_reserved":false,"is_disabled":false,"rental_uris":{"android":"levelo://app?vid=cbd99a0d-8299-4805-9796-1cf054148af6","ios":"levelo://app?vid=cbd99a0d-8299-4805-9796-1cf054148af6"},"vehicle_type_id":"4","last_reported":1719075979,"current_range_meters":24000,"station_id":"ce4bh4p2rcd13ifvqe0g","pricing_plan_id":"cebpf4jnsgd1na2vs0mg"},{"bike_id":"4aa3bfbd-56f5-48ff-b746-04bf6b51355f","system_id":"levelo_inurba_marseille","lat":43.290336,"lon":5.386425,"is_reserved":false,"is_disabled":false,"rental_uris":{"android":"levelo://app?vid=4aa3bfbd-56f5-48ff-b746-04bf6b51355f","ios":"levelo://app?vid=4aa3bfbd-56f5-48ff-b746-04bf6b51355f"},"vehicle_type_id":"4","last_reported":1719075979,"current_range_meters":31200,"station_id":"ce4bh4p2rcd13ifvqe0g","pricing_plan_id":"cebpf4jnsgd1na2vs0mg"},{"bike_id":"43b926e3-9d51-4668-980c-e7f33f915e23","system_id":"levelo_inurba_marseille","lat":43.290336,"lon":5.386425,"is_reserved":false,"is_disabled":false,"rental_uris":{"android":"levelo://app?vid=43b926e3-9d51-4668-980c-e7f33f915e23","ios":"levelo://app?vid=43b926e3-9d51-4668-980c-e7f33f915e23"},"vehicle_type_id":"4","last_reported":1719075979,"current_range_meters":10800,"station_id":"ce4bh4p2rcd13ifvqe0g","pricing_plan_id":"cebpf4jnsgd1na2vs0mg"},{"bike_id":"cdc573b9-0bb9-4e94-b512-4482abad5b07","system_id":"levelo_inurba_marseille","lat":43.290336,"lon":5.386425,"is_reserved":false,"is_disabled":false,"rental_uris":{"android":"levelo://app?vid=cdc573b9-0bb9-4e94-b512-4482abad5b07","ios":"levelo://app?vid=cdc573b9-0bb9-4e94-b512-4482abad5b07"},"vehicle_type_id":"4","last_reported":1719075979,"current_range_meters":31200,"station_id":"ce4bh4p2rcd13ifvqe0g","pricing_plan_id":"cebpf4jnsgd1na2vs0mg"},{"bike_id":"4e88485a-390b-4936-b90d-6f461837c27d","system_id":"levelo_inurba_marseille","lat":43.290336,"lon":5.386425,"is_reserved":false,"is_disabled":false,"rental_uris":{"android":"levelo://app?vid=4e88485a-390b-4936-b90d-6f461837c27d","ios":"levelo://app?vid=4e88485a-390b-4936-b90d-6f461837c27d"},"vehicle_type_id":"4","last_reported":1719075979,"current_range_meters":31200,"station_id":"ce4bh4p2rcd13ifvqe0g","pricing_plan_id":"cebpf4jnsgd1na2vs0mg"},{"bike_id":"2dff52f1-1155-4272-a3d1-6fb0897389fd","system_id":"levelo_inurba_marseille","lat":43.286961,"lon":5.373785,"is_reserved":false,"is_disabled":false,"rental_uris":{"android":"levelo://app?vid=2dff52f1-1155-4272-a3d1-6fb0897389fd","ios":"levelo://app?vid=2dff52f1-1155-4272-a3d1-6fb0897389fd"},"vehicle_type_id":"4","last_reported":1719075979,"current_range_meters":14800,"station_id":"ce4bh3p2rcd13ifvqdq0","pricing_plan_id":"cebpf4jnsgd1na2vs0mg"},{"bike_id":"8b3f586b-fe4d-44d3-934d-4232dd35a065","system_id":"levelo_inurba_marseille","lat":43.286039,"lon":5.370681,"is_reserved":false,"is_disabled":false,"rental_uris":{"android":"levelo://app?vid=8b3f586b-fe4d-44d3-934d-4232dd35a065","ios":"levelo://app?vid=8b3f586b-fe4d-44d3-934d-4232dd35a065"},"vehicle_type_id":"4","last_reported":1719075979,"current_range_meters":0,"station_id":"ce4bht12rcd13ifvqi60","pricing_plan_id":"cebpf4jnsgd1na2vs0mg"},{"bike_id":"8b6fd7f7-37ac-4b71-917c-4480baa3228f","system_id":"levelo_inurba_marseille","lat":43.286039,"lon":5.370679,"is_reserved":false,"is_disabled":false,"rental_uris":{"android":"levelo://app?vid=8b6fd7f7-37ac-4b71-917c-4480baa3228f","ios":"levelo://app?vid=8b6fd7f7-37ac-4b71-917c-4480baa3228f"},"vehicle_type_id":"4","last_reported":1719075979,"current_range_meters":2800,"station_id":"ce4bht12rcd13ifvqi60","pricing_plan_id":"cebpf4jnsgd1na2vs0mg"},{"bike_id":"6148cf36-7426-42e0-97e5-300e326a7ff7","system_id":"levelo_inurba_marseille","lat":43.286039,"lon":5.370679,"is_reserved":false,"is_disabled":false,"rental_uris":{"android":"levelo://app?vid=6148cf36-7426-42e0-97e5-300e326a7ff7","ios":"levelo://app?vid=6148cf36-7426-42e0-97e5-300e326a7ff7"},"vehicle_type_id":"4","last_reported":1719075979,"current_range_meters":6800,"station_id":"ce4bht12rcd13ifvqi60","pricing_plan_id":"cebpf4jnsgd1na2vs0mg"},{"bike_id":"041f1fd4-36d2-4f13-9a00-0a91faa1681a","system_id":"levelo_inurba_marseille","lat":43.286039,"lon":5.370681,"is_reserved":false,"is_disabled":false,"rental_uris":{"android":"levelo://app?vid=041f1fd4-36d2-4f13-9a00-0a91faa1681a","ios":"levelo://app?vid=041f1fd4-36d2-4f13-9a00-0a91faa1681a"},"vehicle_type_id":"4","last_reported":1719075979,"current_range_meters":3200,"station_id":"ce4bht12rcd13ifvqi60","pricing_plan_id":"cebpf4jnsgd1na2vs0mg"},{"bike_id":"82ba0d88-77be-4a0b-8417-981e137042b3","system_id":"levelo_inurba_marseille","lat":43.286039,"lon":5.370681,"is_reserved":false,"is_disabled":false,"rental_uris":{"android":"levelo://app?vid=82ba0d88-77be-4a0b-8417-981e137042b3","ios":"levelo://app?vid=82ba0d88-77be-4a0b-8417-981e137042b3"},"vehicle_type_id":"4","last_reported":1719075979,"current_range_meters":30000,"station_id":"ce4bht12rcd13ifvqi60","pricing_plan_id":"cebpf4jnsgd1na2vs0mg"},{"bike_id":"ca6e1855-ea02-4630-a292-dcc8037574c8","system_id":"levelo_inurba_marseille","lat":43.286039,"lon":5.370679,"is_reserved":false,"is_disabled":false,"rental_uris":{"android":"levelo://app?vid=ca6e1855-ea02-4630-a292-dcc8037574c8","ios":"levelo://app?vid=ca6e1855-ea02-4630-a292-dcc8037574c8"},"vehicle_type_id":"4","last_reported":1719075979,"current_range_meters":15600,"station_id":"ce4bht12rcd13ifvqi60","pricing_plan_id":"cebpf4jnsgd1na2vs0mg"},{"bike_id":"179b14a0-1314-4e12-be18-3ec2dae01f60","system_id":"levelo_inurba_marseille","lat":43.286039,"lon":5.370679,"is_reserved":false,"is_disabled":false,"rental_uris":{"android":"levelo://app?vid=179b14a0-1314-4e12-be18-3ec2dae01f60","ios":"levelo://app?vid=179b14a0-1314-4e12-be18-3ec2dae01f60"},"vehicle_type_id":"4","last_reported":1719075979,"current_range_meters":31200,"station_id":"ce4bht12rcd13ifvqi60","pricing_plan_id":"cebpf4jnsgd1na2vs0mg"},{"bike_id":"e4711e0c-9f7b-4872-bc50-0f4baac2f70c","system_id":"levelo_inurba_marseille","lat":43.287184,"lon":5.37937,"is_reserved":false,"is_disabled":false,"rental_uris":{"android":"levelo://app?vid=e4711e0c-9f7b-4872-bc50-0f4baac2f70c","ios":"levelo://app?vid=e4711e0c-9f7b-4872-bc50-0f4baac2f70c"},"vehicle_type_id":"4","last_reported":1719075979,"current_range_meters":8000,"station_id":"ce4bh9p2rcd13ifvqec0","pricing_plan_id":"cebpf4jnsgd1na2vs0mg"},{"bike_id":"97c984e6-5218-4a80-92f0-c410a85389b9","system_id":"levelo_inurba_marseille","lat":43.287184,"lon":5.37937,"is_reserved":false,"is_disabled":false,"rental_uris":{"android":"levelo://app?vid=97c984e6-5218-4a80-92f0-c410a85389b9","ios":"levelo://app?vid=97c984e6-5218-4a80-92f0-c410a85389b9"},"vehicle_type_id":"4","last_reported":1719075979,"current_range_meters":10800,"station_id":"ce4bh9p2rcd13ifvqec0","pricing_plan_id":"cebpf4jnsgd1na2vs0mg"},{"bike_id":"9e5e01f3-0c57-4ada-8b3f-ab37a2cc5c65","system_id":"levelo_inurba_marseille","lat":43.316821,"lon":5.404737,"is_reserved":false,"is_disabled":false,"rental_uris":{"android":"levelo://app?vid=9e5e01f3-0c57-4ada-8b3f-ab37a2cc5c65","ios":"levelo://app?vid=9e5e01f3-0c57-4ada-8b3f-ab37a2cc5c65"},"vehicle_type_id":"4","last_reported":1719075979,"current_range_meters":13600,"station_id":"ce4bh012rcd13ifvqd00","pricing_plan_id":"cebpf4jnsgd1na2vs0mg"},{"bike_id":"e0b333ae-ccbb-4c87-b580-2549e6fe3c55","system_id":"levelo_inurba_marseille","lat":43.316821,"lon":5.404737,"is_reserved":false,"is_disabled":false,"rental_uris":{"android":"levelo://app?vid=e0b333ae-ccbb-4c87-b580-2549e6fe3c55","ios":"levelo://app?vid=e0b333ae-ccbb-4c87-b580-2549e6fe3c55"},"vehicle_type_id":"4","last_reported":1719075979,"current_range_meters":2800,"station_id":"ce4bh012rcd13ifvqd00","pricing_plan_id":"cebpf4jnsgd1na2vs0mg"},{"bike_id":"7251ad22-7477-4c62-9700-93fa399ac852","system_id":"levelo_inurba_marseille","lat":43.29198,"lon":5.39318,"is_reserved":false,"is_disabled":false,"rental_uris":{"android":"levelo://app?vid=7251ad22-7477-4c62-9700-93fa399ac852","ios":"levelo://app?vid=7251ad22-7477-4c62-9700-93fa399ac852"},"vehicle_type_id":"4","last_reported":1719075979,"current_range_meters":22400,"station_id":"ce4bh192rcd13ifvqdd0","pricing_plan_id":"cebpf4jnsgd1na2vs0mg"},{"bike_id":"9d4638aa-5c0e-43ac-92ae-f6ad83208110","system_id":"levelo_inurba_marseille","lat":43.29196,"lon":5.39331,"is_reserved":false,"is_disabled":false,"rental_uris":{"android":"levelo://app?vid=9d4638aa-5c0e-43ac-92ae-f6ad83208110","ios":"levelo://app?vid=9d4638aa-5c0e-43ac-92ae-f6ad83208110"},"vehicle_type_id":"4","last_reported":1719075979,"current_range_meters":24000,"station_id":"ce4bh192rcd13ifvqdd0","pricing_plan_id":"cebpf4jnsgd1na2vs0mg"},{"bike_id":"669c453b-2c62-42fd-b860-6fa3d4c2d86b","system_id":"levelo_inurba_marseille","lat":43.294314,"lon":5.397498,"is_reserved":false,"is_disabled":false,"rental_uris":{"android":"levelo://app?vid=669c453b-2c62-42fd-b860-6fa3d4c2d86b","ios":"levelo://app?vid=669c453b-2c62-42fd-b860-6fa3d4c2d86b"},"vehicle_type_id":"4","last_reported":1719075979,"current_range_meters":14800,"station_id":"ce4bh3h2rcd13ifvqdo0","pricing_plan_id":"cebpf4jnsgd1na2vs0mg"},{"bike_id":"0928f6c2-5100-4822-ae0a-0dabd86bd1d8","system_id":"levelo_inurba_marseille","lat":43.285856,"lon":5.350771,"is_reserved":false,"is_disabled":false,"rental_uris":{"android":"levelo://app?vid=0928f6c2-5100-4822-ae0a-0dabd86bd1d8","ios":"levelo://app?vid=0928f6c2-5100-4822-ae0a-0dabd86bd1d8"},"vehicle_type_id":"4","last_reported":1719075979,"current_range_meters":0,"station_id":"ce4bhch2rcd13ifvqeug","pricing_plan_id":"cebpf4jnsgd1na2vs0mg"},{"bike_id":"282263fa-27ec-404f-ae60-3bab36a6461d","system_id":"levelo_inurba_marseille","lat":43.285856,"lon":5.350771,"is_reserved":false,"is_disabled":false,"rental_uris":{"android":"levelo://app?vid=282263fa-27ec-404f-ae60-3bab36a6461d","ios":"levelo://app?vid=282263fa-27ec-404f-ae60-3bab36a6461d"},"vehicle_type_id":"4","last_reported":1719075979,"current_range_meters":30400,"station_id":"ce4bhch2rcd13ifvqeug","pricing_plan_id":"cebpf4jnsgd1na2vs0mg"},{"bike_id":"86d3e3cf-8332-46a8-8e69-3d8cb2d20c87","system_id":"levelo_inurba_marseille","lat":43.283998,"lon":5.375062,"is_reserved":false,"is_disabled":false,"rental_uris":{"android":"levelo://app?vid=86d3e3cf-8332-46a8-8e69-3d8cb2d20c87","ios":"levelo://app?vid=86d3e3cf-8332-46a8-8e69-3d8cb2d20c87"},"vehicle_type_id":"4","last_reported":1719075979,"current_range_meters":2000,"station_id":"ce4bh412rcd13ifvqds0","pricing_plan_id":"cebpf4jnsgd1na2vs0mg"},{"bike_id":"ac473af8-a0ff-46df-8c4e-c2c9d6419871","system_id":"levelo_inurba_marseille","lat":43.283998,"lon":5.375062,"is_reserved":false,"is_disabled":false,"rental_uris":{"android":"levelo://app?vid=ac473af8-a0ff-46df-8c4e-c2c9d6419871","ios":"levelo://app?vid=ac473af8-a0ff-46df-8c4e-c2c9d6419871"},"vehicle_type_id":"4","last_reported":1719075979,"current_range_meters":19200,"station_id":"ce4bh412rcd13ifvqds0","pricing_plan_id":"cebpf4jnsgd1na2vs0mg"},{"bike_id":"ecd22e9d-2673-46db-974b-5d6b36d386d9","system_id":"levelo_inurba_marseille","lat":43.283998,"lon":5.375062,"is_reserved":false,"is_disabled":false,"rental_uris":{"android":"levelo://app?vid=ecd22e9d-2673-46db-974b-5d6b36d386d9","ios":"levelo://app?vid=ecd22e9d-2673-46db-974b-5d6b36d386d9"},"vehicle_type_id":"4","last_reported":1719075979,"current_range_meters":29600,"station_id":"ce4bh412rcd13ifvqds0","pricing_plan_id":"cebpf4jnsgd1na2vs0mg"},{"bike_id":"6ffcf0d1-8f01-401f-8833-30fbe7864e07","system_id":"levelo_inurba_marseille","lat":43.283998,"lon":5.375062,"is_reserved":false,"is_disabled":false,"rental_uris":{"android":"levelo://app?vid=6ffcf0d1-8f01-401f-8833-30fbe7864e07","ios":"levelo://app?vid=6ffcf0d1-8f01-401f-8833-30fbe7864e07"},"vehicle_type_id":"4","last_reported":1719075979,"current_range_meters":28400,"station_id":"ce4bh412rcd13ifvqds0","pricing_plan_id":"cebpf4jnsgd1na2vs0mg"},{"bike_id":"191545e7-f3a3-431c-9552-b872f88baceb","system_id":"levelo_inurba_marseille","lat":43.28401,"lon":5.37527,"is_reserved":false,"is_disabled":false,"rental_uris":{"android":"levelo://app?vid=191545e7-f3a3-431c-9552-b872f88baceb","ios":"levelo://app?vid=191545e7-f3a3-431c-9552-b872f88baceb"},"vehicle_type_id":"4","last_reported":1719075979,"current_range_meters":30400,"station_id":"ce4bh412rcd13ifvqds0","pricing_plan_id":"cebpf4jnsgd1na2vs0mg"},{"bike_id":"c964f9dc-3afe-43db-97d8-16f246a08f58","system_id":"levelo_inurba_marseille","lat":43.28395,"lon":5.37513,"is_reserved":false,"is_disabled":false,"rental_uris":{"android":"levelo://app?vid=c964f9dc-3afe-43db-97d8-16f246a08f58","ios":"levelo://app?vid=c964f9dc-3afe-43db-97d8-16f246a08f58"},"vehicle_type_id":"4","last_reported":1719075979,"current_range_meters":15600,"station_id":"ce4bh412rcd13ifvqds0","pricing_plan_id":"cebpf4jnsgd1na2vs0mg"},{"bike_id":"032bffaa-86aa-497f-9c81-7a0743f22c7e","system_id":"levelo_inurba_marseille","lat":43.28389,"lon":5.375242,"is_reserved":false,"is_disabled":false,"rental_uris":{"android":"levelo://app?vid=032bffaa-86aa-497f-9c81-7a0743f22c7e","ios":"levelo://app?vid=032bffaa-86aa-497f-9c81-7a0743f22c7e"},"vehicle_type_id":"4","last_reported":1719075979,"current_range_meters":6000,"station_id":"ce4bh412rcd13ifvqds0","pricing_plan_id":"cebpf4jnsgd1na2vs0mg"},{"bike_id":"e1d5aa9f-ae72-41ae-9d84-192d61a20c07","system_id":"levelo_inurba_marseille","lat":43.319179,"lon":5.407725,"is_reserved":false,"is_disabled":false,"rental_uris":{"android":"levelo://app?vid=e1d5aa9f-ae72-41ae-9d84-192d61a20c07","ios":"levelo://app?vid=e1d5aa9f-ae72-41ae-9d84-192d61a20c07"},"vehicle_type_id":"4","last_reported":1719075979,"current_range_meters":31200,"station_id":"ce4bhq12rcd13ifvqhig","pricing_plan_id":"cebpf4jnsgd1na2vs0mg"},{"bike_id":"b5e8a22e-534d-41c5-bc6b-1d3573782d86","system_id":"levelo_inurba_marseille","lat":43.319179,"lon":5.407725,"is_reserved":false,"is_disabled":false,"rental_uris":{"android":"levelo://app?vid=b5e8a22e-534d-41c5-bc6b-1d3573782d86","ios":"levelo://app?vid=b5e8a22e-534d-41c5-bc6b-1d3573782d86"},"vehicle_type_id":"4","last_reported":1719075979,"current_range_meters":3200,"station_id":"ce4bhq12rcd13ifvqhig","pricing_plan_id":"cebpf4jnsgd1na2vs0mg"},{"bike_id":"7c936375-8047-451b-9f95-3c06bd01c0f6","system_id":"levelo_inurba_marseille","lat":43.33717,"lon":5.391857,"is_reserved":false,"is_disabled":false,"rental_uris":{"android":"levelo://app?vid=7c936375-8047-451b-9f95-3c06bd01c0f6","ios":"levelo://app?vid=7c936375-8047-451b-9f95-3c06bd01c0f6"},"vehicle_type_id":"4","last_reported":1719075979,"current_range_meters":10800,"station_id":"ce4bhr92rcd13ifvqhsg","pricing_plan_id":"cebpf4jnsgd1na2vs0mg"},{"bike_id":"6094dc14-cc5b-45cb-91f3-423fc85359a5","system_id":"levelo_inurba_marseille","lat":43.33717,"lon":5.391857,"is_reserved":false,"is_disabled":false,"rental_uris":{"android":"levelo://app?vid=6094dc14-cc5b-45cb-91f3-423fc85359a5","ios":"levelo://app?vid=6094dc14-cc5b-45cb-91f3-423fc85359a5"},"vehicle_type_id":"4","last_reported":1719075979,"current_range_meters":25200,"station_id":"ce4bhr92rcd13ifvqhsg","pricing_plan_id":"cebpf4jnsgd1na2vs0mg"},{"bike_id":"a3bf49b6-b621-429b-b232-dd130cc03585","system_id":"levelo_inurba_marseille","lat":43.33717,"lon":5.391857,"is_reserved":false,"is_disabled":false,"rental_uris":{"android":"levelo://app?vid=a3bf49b6-b621-429b-b232-dd130cc03585","ios":"levelo://app?vid=a3bf49b6-b621-429b-b232-dd130cc03585"},"vehicle_type_id":"4","last_reported":1719075979,"current_range_meters":13200,"station_id":"ce4bhr92rcd13ifvqhsg","pricing_plan_id":"cebpf4jnsgd1na2vs0mg"},{"bike_id":"3720418d-da95-43ab-883e-5ec4534758a0","system_id":"levelo_inurba_marseille","lat":43.337254,"lon":5.391794,"is_reserved":false,"is_disabled":false,"rental_uris":{"android":"levelo://app?vid=3720418d-da95-43ab-883e-5ec4534758a0","ios":"levelo://app?vid=3720418d-da95-43ab-883e-5ec4534758a0"},"vehicle_type_id":"4","last_reported":1719075979,"current_range_meters":11600,"station_id":"ce4bhr92rcd13ifvqhsg","pricing_plan_id":"cebpf4jnsgd1na2vs0mg"},{"bike_id":"4994081a-bd75-43fa-8dee-57529a55b1a9","system_id":"levelo_inurba_marseille","lat":43.33717,"lon":5.391857,"is_reserved":false,"is_disabled":false,"rental_uris":{"android":"levelo://app?vid=4994081a-bd75-43fa-8dee-57529a55b1a9","ios":"levelo://app?vid=4994081a-bd75-43fa-8dee-57529a55b1a9"},"vehicle_type_id":"4","last_reported":1719075979,"current_range_meters":4000,"station_id":"ce4bhr92rcd13ifvqhsg","pricing_plan_id":"cebpf4jnsgd1na2vs0mg"},{"bike_id":"776e68e9-11d6-44ef-bc66-b28dcb947d9a","system_id":"levelo_inurba_marseille","lat":43.33717,"lon":5.391857,"is_reserved":false,"is_disabled":false,"rental_uris":{"android":"levelo://app?vid=776e68e9-11d6-44ef-bc66-b28dcb947d9a","ios":"levelo://app?vid=776e68e9-11d6-44ef-bc66-b28dcb947d9a"},"vehicle_type_id":"4","last_reported":1719075979,"current_range_meters":18000,"station_id":"ce4bhr92rcd13ifvqhsg","pricing_plan_id":"cebpf4jnsgd1na2vs0mg"},{"bike_id":"4c9b30ff-4316-455e-bf24-573bb09c5d93","system_id":"levelo_inurba_marseille","lat":43.288501,"lon":5.393087,"is_reserved":false,"is_disabled":false,"rental_uris":{"android":"levelo://app?vid=4c9b30ff-4316-455e-bf24-573bb09c5d93","ios":"levelo://app?vid=4c9b30ff-4316-455e-bf24-573bb09c5d93"},"vehicle_type_id":"4","last_reported":1719075979,"current_range_meters":400,"station_id":"ce4bh2p2rcd13ifvqdi0","pricing_plan_id":"cebpf4jnsgd1na2vs0mg"},{"bike_id":"9ca50892-d1ea-4c89-862f-ea8d458f9900","system_id":"levelo_inurba_marseille","lat":43.276769,"lon":5.388787,"is_reserved":false,"is_disabled":false,"rental_uris":{"android":"levelo://app?vid=9ca50892-d1ea-4c89-862f-ea8d458f9900","ios":"levelo://app?vid=9ca50892-d1ea-4c89-862f-ea8d458f9900"},"vehicle_type_id":"4","last_reported":1719075979,"current_range_meters":18800,"station_id":"ce4bhi12rcd13ifvqfo0","pricing_plan_id":"cebpf4jnsgd1na2vs0mg"},{"bike_id":"8b6d4b0f-e905-4ed1-8b74-7f5a2acb09b8","system_id":"levelo_inurba_marseille","lat":43.284776,"lon":5.385603,"is_reserved":false,"is_disabled":false,"rental_uris":{"android":"levelo://app?vid=8b6d4b0f-e905-4ed1-8b74-7f5a2acb09b8","ios":"levelo://app?vid=8b6d4b0f-e905-4ed1-8b74-7f5a2acb09b8"},"vehicle_type_id":"4","last_reported":1719075979,"current_range_meters":10800,"station_id":"ce4bh8p2rcd13ifvqeb0","pricing_plan_id":"cebpf4jnsgd1na2vs0mg"},{"bike_id":"35609a37-a38a-4a91-9f91-96cd104e50ce","system_id":"levelo_inurba_marseille","lat":43.284551,"lon":5.384793,"is_reserved":false,"is_disabled":false,"rental_uris":{"android":"levelo://app?vid=35609a37-a38a-4a91-9f91-96cd104e50ce","ios":"levelo://app?vid=35609a37-a38a-4a91-9f91-96cd104e50ce"},"vehicle_type_id":"4","last_reported":1719075979,"current_range_meters":26000,"station_id":"","pricing_plan_id":"cebpf4jnsgd1na2vs0mg"},{"bike_id":"8d6e69f5-9e5c-49a4-a616-b5ed6e5bc0c7","system_id":"levelo_inurba_marseille","lat":43.284776,"lon":5.385603,"is_reserved":false,"is_disabled":false,"rental_uris":{"android":"levelo://app?vid=8d6e69f5-9e5c-49a4-a616-b5ed6e5bc0c7","ios":"levelo://app?vid=8d6e69f5-9e5c-49a4-a616-b5ed6e5bc0c7"},"vehicle_type_id":"4","last_reported":1719075979,"current_range_meters":8000,"station_id":"ce4bh8p2rcd13ifvqeb0","pricing_plan_id":"cebpf4jnsgd1na2vs0mg"},{"bike_id":"ebd01647-4578-409a-83c8-fb943fbbef1f","system_id":"levelo_inurba_marseille","lat":43.284776,"lon":5.385603,"is_reserved":false,"is_disabled":false,"rental_uris":{"android":"levelo://app?vid=ebd01647-4578-409a-83c8-fb943fbbef1f","ios":"levelo://app?vid=ebd01647-4578-409a-83c8-fb943fbbef1f"},"vehicle_type_id":"4","last_reported":1719075979,"current_range_meters":0,"station_id":"ce4bh8p2rcd13ifvqeb0","pricing_plan_id":"cebpf4jnsgd1na2vs0mg"},{"bike_id":"66618c51-9875-4951-a01a-8c72da28f65c","system_id":"levelo_inurba_marseille","lat":43.284217,"lon":5.349697,"is_reserved":false,"is_disabled":false,"rental_uris":{"android":"levelo://app?vid=66618c51-9875-4951-a01a-8c72da28f65c","ios":"levelo://app?vid=66618c51-9875-4951-a01a-8c72da28f65c"},"vehicle_type_id":"4","last_reported":1719075979,"current_range_meters":0,"station_id":"ce4bhbh2rcd13ifvqepg","pricing_plan_id":"cebpf4jnsgd1na2vs0mg"},{"bike_id":"cadcc946-98f6-4b32-a6ba-f37fe280e968","system_id":"levelo_inurba_marseille","lat":43.292724,"lon":5.401131,"is_reserved":false,"is_disabled":false,"rental_uris":{"android":"levelo://app?vid=cadcc946-98f6-4b32-a6ba-f37fe280e968","ios":"levelo://app?vid=cadcc946-98f6-4b32-a6ba-f37fe280e968"},"vehicle_type_id":"4","last_reported":1719075979,"current_range_meters":30800,"station_id":"ce4bh312rcd13ifvqdk0","pricing_plan_id":"cebpf4jnsgd1na2vs0mg"},{"bike_id":"779f22e7-8d1f-42a9-b9db-c8b65a4033d9","system_id":"levelo_inurba_marseille","lat":43.28368,"lon":5.3862,"is_reserved":false,"is_disabled":false,"rental_uris":{"android":"levelo://app?vid=779f22e7-8d1f-42a9-b9db-c8b65a4033d9","ios":"levelo://app?vid=779f22e7-8d1f-42a9-b9db-c8b65a4033d9"},"vehicle_type_id":"4","last_reported":1719075979,"current_range_meters":18000,"station_id":"ce4bh492rcd13ifvqdvg","pricing_plan_id":"cebpf4jnsgd1na2vs0mg"},{"bike_id":"0d6bd763-8350-46f1-8f16-d63920a253fb","system_id":"levelo_inurba_marseille","lat":43.28269,"lon":5.35075,"is_reserved":false,"is_disabled":false,"rental_uris":{"android":"levelo://app?vid=0d6bd763-8350-46f1-8f16-d63920a253fb","ios":"levelo://app?vid=0d6bd763-8350-46f1-8f16-d63920a253fb"},"vehicle_type_id":"4","last_reported":1719075979,"current_range_meters":0,"station_id":"ce4bhbp2rcd13ifvqerg","pricing_plan_id":"cebpf4jnsgd1na2vs0mg"},{"bike_id":"a1efdd2a-70e1-459e-b4b7-9a73bc9f5f2d","system_id":"levelo_inurba_marseille","lat":43.283502,"lon":5.386471,"is_reserved":false,"is_disabled":false,"rental_uris":{"android":"levelo://app?vid=a1efdd2a-70e1-459e-b4b7-9a73bc9f5f2d","ios":"levelo://app?vid=a1efdd2a-70e1-459e-b4b7-9a73bc9f5f2d"},"vehicle_type_id":"4","last_reported":1719075979,"current_range_meters":5600,"station_id":"ce4bh492rcd13ifvqdvg","pricing_plan_id":"cebpf4jnsgd1na2vs0mg"},{"bike_id":"8464f51a-cf7c-4423-8dfa-5864457138d1","system_id":"levelo_inurba_marseille","lat":43.28266,"lon":5.35078,"is_reserved":false,"is_disabled":false,"rental_uris":{"android":"levelo://app?vid=8464f51a-cf7c-4423-8dfa-5864457138d1","ios":"levelo://app?vid=8464f51a-cf7c-4423-8dfa-5864457138d1"},"vehicle_type_id":"4","last_reported":1719075979,"current_range_meters":0,"station_id":"ce4bhbp2rcd13ifvqerg","pricing_plan_id":"cebpf4jnsgd1na2vs0mg"},{"bike_id":"6881ac50-9155-4b60-941a-da2c2b06e736","system_id":"levelo_inurba_marseille","lat":43.283502,"lon":5.386471,"is_reserved":false,"is_disabled":false,"rental_uris":{"android":"levelo://app?vid=6881ac50-9155-4b60-941a-da2c2b06e736","ios":"levelo://app?vid=6881ac50-9155-4b60-941a-da2c2b06e736"},"vehicle_type_id":"4","last_reported":1719075979,"current_range_meters":800,"station_id":"ce4bh492rcd13ifvqdvg","pricing_plan_id":"cebpf4jnsgd1na2vs0mg"},{"bike_id":"e9573aeb-9407-4b5b-ac06-8af858d44371","system_id":"levelo_inurba_marseille","lat":43.28362,"lon":5.38621,"is_reserved":false,"is_disabled":false,"rental_uris":{"android":"levelo://app?vid=e9573aeb-9407-4b5b-ac06-8af858d44371","ios":"levelo://app?vid=e9573aeb-9407-4b5b-ac06-8af858d44371"},"vehicle_type_id":"4","last_reported":1719075979,"current_range_meters":7200,"station_id":"ce4bh492rcd13ifvqdvg","pricing_plan_id":"cebpf4jnsgd1na2vs0mg"},{"bike_id":"23cd607f-ade7-4cf4-9de4-037f67376fd5","system_id":"levelo_inurba_marseille","lat":43.28362,"lon":5.38624,"is_reserved":false,"is_disabled":false,"rental_uris":{"android":"levelo://app?vid=23cd607f-ade7-4cf4-9de4-037f67376fd5","ios":"levelo://app?vid=23cd607f-ade7-4cf4-9de4-037f67376fd5"},"vehicle_type_id":"4","last_reported":1719075979,"current_range_meters":6000,"station_id":"ce4bh492rcd13ifvqdvg","pricing_plan_id":"cebpf4jnsgd1na2vs0mg"},{"bike_id":"8184e683-fb25-4cc4-b9a3-d82cdb0fa8cc","system_id":"levelo_inurba_marseille","lat":43.283502,"lon":5.386471,"is_reserved":false,"is_disabled":false,"rental_uris":{"android":"levelo://app?vid=8184e683-fb25-4cc4-b9a3-d82cdb0fa8cc","ios":"levelo://app?vid=8184e683-fb25-4cc4-b9a3-d82cdb0fa8cc"},"vehicle_type_id":"4","last_reported":1719075979,"current_range_meters":1600,"station_id":"ce4bh492rcd13ifvqdvg","pricing_plan_id":"cebpf4jnsgd1na2vs0mg"},{"bike_id":"7e1d7691-7662-4a22-b60d-0f6b7280e95c","system_id":"levelo_inurba_marseille","lat":43.28038,"lon":5.36942,"is_reserved":false,"is_disabled":false,"rental_uris":{"android":"levelo://app?vid=7e1d7691-7662-4a22-b60d-0f6b7280e95c","ios":"levelo://app?vid=7e1d7691-7662-4a22-b60d-0f6b7280e95c"},"vehicle_type_id":"4","last_reported":1719075979,"current_range_meters":24400,"station_id":"ce4bha12rcd13ifvqef0","pricing_plan_id":"cebpf4jnsgd1na2vs0mg"},{"bike_id":"eef4235b-32fa-46bd-b91b-9d272641f6f3","system_id":"levelo_inurba_marseille","lat":43.28039,"lon":5.369297,"is_reserved":false,"is_disabled":false,"rental_uris":{"android":"levelo://app?vid=eef4235b-32fa-46bd-b91b-9d272641f6f3","ios":"levelo://app?vid=eef4235b-32fa-46bd-b91b-9d272641f6f3"},"vehicle_type_id":"4","last_reported":1719075979,"current_range_meters":22000,"station_id":"ce4bha12rcd13ifvqef0","pricing_plan_id":"cebpf4jnsgd1na2vs0mg"},{"bike_id":"b03f2b46-7fa2-4167-b30e-bf2025720f94","system_id":"levelo_inurba_marseille","lat":43.280382,"lon":5.369291,"is_reserved":false,"is_disabled":false,"rental_uris":{"android":"levelo://app?vid=b03f2b46-7fa2-4167-b30e-bf2025720f94","ios":"levelo://app?vid=b03f2b46-7fa2-4167-b30e-bf2025720f94"},"vehicle_type_id":"4","last_reported":1719075979,"current_range_meters":15600,"station_id":"ce4bha12rcd13ifvqef0","pricing_plan_id":"cebpf4jnsgd1na2vs0mg"},{"bike_id":"d11e7eb8-9345-490c-9e5e-f3d8d894f6f8","system_id":"levelo_inurba_marseille","lat":43.28261,"lon":5.35047,"is_reserved":false,"is_disabled":false,"rental_uris":{"android":"levelo://app?vid=d11e7eb8-9345-490c-9e5e-f3d8d894f6f8","ios":"levelo://app?vid=d11e7eb8-9345-490c-9e5e-f3d8d894f6f8"},"vehicle_type_id":"4","last_reported":1719075979,"current_range_meters":29600,"station_id":"ce4bhbp2rcd13ifvqerg","pricing_plan_id":"cebpf4jnsgd1na2vs0mg"},{"bike_id":"f40a9037-b4a8-41b3-bdb9-b184bdd909ed","system_id":"levelo_inurba_marseille","lat":43.28039,"lon":5.369297,"is_reserved":false,"is_disabled":false,"rental_uris":{"android":"levelo://app?vid=f40a9037-b4a8-41b3-bdb9-b184bdd909ed","ios":"levelo://app?vid=f40a9037-b4a8-41b3-bdb9-b184bdd909ed"},"vehicle_type_id":"4","last_reported":1719075979,"current_range_meters":13200,"station_id":"ce4bha12rcd13ifvqef0","pricing_plan_id":"cebpf4jnsgd1na2vs0mg"},{"bike_id":"424ef641-e619-4b51-bfe6-7b8525c15f49","system_id":"levelo_inurba_marseille","lat":43.280382,"lon":5.369291,"is_reserved":false,"is_disabled":false,"rental_uris":{"android":"levelo://app?vid=424ef641-e619-4b51-bfe6-7b8525c15f49","ios":"levelo://app?vid=424ef641-e619-4b51-bfe6-7b8525c15f49"},"vehicle_type_id":"4","last_reported":1719075979,"current_range_meters":21200,"station_id":"ce4bha12rcd13ifvqef0","pricing_plan_id":"cebpf4jnsgd1na2vs0mg"},{"bike_id":"fe3ba71e-7dc4-4ccf-ae88-8fa74bc521e2","system_id":"levelo_inurba_marseille","lat":43.280382,"lon":5.369291,"is_reserved":false,"is_disabled":false,"rental_uris":{"android":"levelo://app?vid=fe3ba71e-7dc4-4ccf-ae88-8fa74bc521e2","ios":"levelo://app?vid=fe3ba71e-7dc4-4ccf-ae88-8fa74bc521e2"},"vehicle_type_id":"4","last_reported":1719075979,"current_range_meters":11600,"station_id":"ce4bha12rcd13ifvqef0","pricing_plan_id":"cebpf4jnsgd1na2vs0mg"},{"bike_id":"b7ac955a-9ed0-45fa-b39e-7b11d1a4cd2a","system_id":"levelo_inurba_marseille","lat":43.28357,"lon":5.38647,"is_reserved":false,"is_disabled":false,"rental_uris":{"android":"levelo://app?vid=b7ac955a-9ed0-45fa-b39e-7b11d1a4cd2a","ios":"levelo://app?vid=b7ac955a-9ed0-45fa-b39e-7b11d1a4cd2a"},"vehicle_type_id":"4","last_reported":1719075979,"current_range_meters":8800,"station_id":"ce4bh492rcd13ifvqdvg","pricing_plan_id":"cebpf4jnsgd1na2vs0mg"},{"bike_id":"9d57d8ff-c11e-40c6-adc5-6ce76a680c00","system_id":"levelo_inurba_marseille","lat":43.28039,"lon":5.369297,"is_reserved":false,"is_disabled":false,"rental_uris":{"android":"levelo://app?vid=9d57d8ff-c11e-40c6-adc5-6ce76a680c00","ios":"levelo://app?vid=9d57d8ff-c11e-40c6-adc5-6ce76a680c00"},"vehicle_type_id":"4","last_reported":1719075979,"current_range_meters":12400,"station_id":"ce4bha12rcd13ifvqef0","pricing_plan_id":"cebpf4jnsgd1na2vs0mg"},