{"last_updated":1701965354,"ttl":30,"version":"2.2","data":{"bikes":[{"bike_id":"a329e026-c7fe-4df4-a275-0be22be93b89","system_id":"levelo_inurba_marseille","lat":43.314881,"lon":5.372948,"is_reserved":false,"is_disabled":false,"rental_uris":{"android":"levelo://app?vid=a329e026-c7fe-4df4-a275-0be22be93b89","ios":"levelo://app?vid=a329e026-c7fe-4df4-a275-0be22be93b89"},"vehicle_type_id":"4","last_reported":1701965354,"current_range_meters":16800,"station_id":"ce4bgt12rcd13ifvqcd0","pricing_plan_id":"free"},{"bike_id":"97853c4d-c076-4e94-95a7-7cb82c996533","system_id":"levelo_inurba_marseille","lat":43.314811,"lon":5.373103,"is_reserved":false,"is_disabled":false,"rental_uris":{"android":"levelo://app?vid=97853c4d-c076-4e94-95a7-7cb82c996533","ios":"levelo://app?vid=97853c4d-c076-4e94-95a7-7cb82c996533"},"vehicle_type_id":"4","last_reported":1701965354,"current_range_meters":9200,"station_id":"ce4bgt12rcd13ifvqcd0","pricing_plan_id":"free"},{"bike_id":"f70c95df-3927-4244-b8f3-3fdbac1b7e00","system_id":"levelo_inurba_marseille","lat":43.309039,"lon":5.371797,"is_reserved":false,"is_disabled":false,"rental_uris":{"android":"levelo://app?vid=f70c95df-3927-4244-b8f3-3fdbac1b7e00","ios":"levelo://app?vid=f70c95df-3927-4244-b8f3-3fdbac1b7e00"},"vehicle_type_id":"4","last_reported":1701965354,"current_range_meters":18000,"station_id":"ce4bguh2rcd13ifvqckg","pricing_plan_id":"free"},{"bike_id":"90af0c89-6825-42f3-b241-2baf6dca6b01","system_id":"levelo_inurba_marseille","lat":43.299717,"lon":5.384845,"is_reserved":false,"is_disabled":false,"rental_uris":{"android":"levelo://app?vid=90af0c89-6825-42f3-b241-2baf6dca6b01","ios":"levelo://app?vid=90af0c89-6825-42f3-b241-2baf6dca6b01"},"vehicle_type_id":"4","last_reported":1701965354,"current_range_meters":21600,"station_id":"ce4bgj92rcd13ifvqbd0","pricing_plan_id":"free"},{"bike_id":"5651faab-dc03-4d44-9c00-ae19f27da0d8","system_id":"levelo_inurba_marseille","lat":43.30535,"lon":5.36725,"is_reserved":false,"is_disabled":false,"rental_uris":{"android":"levelo://app?vid=5651faab-dc03-4d44-9c00-ae19f27da0d8","ios":"levelo://app?vid=5651faab-dc03-4d44-9c00-ae19f27da0d8"},"vehicle_type_id":"4","last_reported":1701965354,"current_range_meters":0,"station_id":"ce4bgrp2rcd13ifvqc9g","pricing_plan_id":"free"},{"bike_id":"5efc5f0c-f2a8-4a4f-9e7e-bf5fe1a638c9","system_id":"levelo_inurba_marseille","lat":43.305989,"lon":5.37225,"is_reserved":false,"is_disabled":false,"rental_uris":{"android":"levelo://app?vid=5efc5f0c-f2a8-4a4f-9e7e-bf5fe1a638c9","ios":"levelo://app?vid=5efc5f0c-f2a8-4a4f-9e7e-bf5fe1a638c9"},"vehicle_type_id":"4","last_reported":1701965354,"current_range_meters":24400,"station_id":"ce4bgqh2rcd13ifvqc4g","pricing_plan_id":"free"},{"bike_id":"b21f2da0-17dd-40c6-95cb-ff005bf87885","system_id":"levelo_inurba_marseille","lat":43.31117,"lon":5.37774,"is_reserved":false,"is_disabled":false,"rental_uris":{"android":"levelo://app?vid=b21f2da0-17dd-40c6-95cb-ff005bf87885","ios":"levelo://app?vid=b21f2da0-17dd-40c6-95cb-ff005bf87885"},"vehicle_type_id":"4","last_reported":1701965354,"current_range_meters":800,"station_id":"ce4bgt92rcd13ifvqcg0","pricing_plan_id":"free"},{"bike_id":"adf146c5-e4e1-4668-9a33-042940925130","system_id":"levelo_inurba_marseille","lat":43.31351,"lon":5.37909,"is_reserved":false,"is_disabled":false,"rental_uris":{"android":"levelo://app?vid=adf146c5-e4e1-4668-9a33-042940925130","ios":"levelo://app?vid=adf146c5-e4e1-4668-9a33-042940925130"},"vehicle_type_id":"4","last_reported":1701965354,"current_range_meters":2000,"station_id":"","pricing_plan_id":"free"},{"bike_id":"aa87d3fc-96c0-4f39-acbf-b68520008766","system_id":"levelo_inurba_marseille","lat":43.30304,"lon":5.368987,"is_reserved":false,"is_disabled":false,"rental_uris":{"android":"levelo://app?vid=aa87d3fc-96c0-4f39-acbf-b68520008766","ios":"levelo://app?vid=aa87d3fc-96c0-4f39-acbf-b68520008766"},"vehicle_type_id":"4","last_reported":1701965354,"current_range_meters":28000,"station_id":"ce4bgqh2rcd13ifvqc5g","pricing_plan_id":"free"},{"bike_id":"bbb29161-b09e-45d4-b9e5-634aa5f0264b","system_id":"levelo_inurba_marseille","lat":43.303046,"lon":5.368981,"is_reserved":false,"is_disabled":false,"rental_uris":{"android":"levelo://app?vid=bbb29161-b09e-45d4-b9e5-634aa5f0264b","ios":"levelo://app?vid=bbb29161-b09e-45d4-b9e5-634aa5f0264b"},"vehicle_type_id":"4","last_reported":1701965354,"current_range_meters":14000,"station_id":"ce4bgqh2rcd13ifvqc5g","pricing_plan_id":"free"},{"bike_id":"1ea60f58-75f7-4484-b705-1156df4b02ad","system_id":"levelo_inurba_marseille","lat":43.302758,"lon":5.373466,"is_reserved":false,"is_disabled":false,"rental_uris":{"android":"levelo://app?vid=1ea60f58-75f7-4484-b705-1156df4b02ad","ios":"levelo://app?vid=1ea60f58-75f7-4484-b705-1156df4b02ad"},"vehicle_type_id":"4","last_reported":1701965354,"current_range_meters":4800,"station_id":"","pricing_plan_id":"free"},{"bike_id":"1c3409b6-3ef7-4201-9477-ace56ebe0ee1","system_id":"levelo_inurba_marseille","lat":43.304637,"lon":5.37899,"is_reserved":false,"is_disabled":false,"rental_uris":{"android":"levelo://app?vid=1c3409b6-3ef7-4201-9477-ace56ebe0ee1","ios":"levelo://app?vid=1c3409b6-3ef7-4201-9477-ace56ebe0ee1"},"vehicle_type_id":"4","last_reported":1701965354,"current_range_meters":0,"station_id":"ce4bgup2rcd13ifvqcn0","pricing_plan_id":"free"},{"bike_id":"9ee0ef7a-8d9c-4d78-8ae5-64e12b708d26","system_id":"levelo_inurba_marseille","lat":43.319997,"lon":5.381594,"is_reserved":false,"is_disabled":false,"rental_uris":{"android":"levelo://app?vid=9ee0ef7a-8d9c-4d78-8ae5-64e12b708d26","ios":"levelo://app?vid=9ee0ef7a-8d9c-4d78-8ae5-64e12b708d26"},"vehicle_type_id":"4","last_reported":1701965354,"current_range_meters":0,"station_id":"ce4bhr12rcd13ifvqhpg","pricing_plan_id":"free"},{"bike_id":"2af5647b-bd55-4141-9958-c299e6516927","system_id":"levelo_inurba_marseille","lat":43.32005,"lon":5.38172,"is_reserved":false,"is_disabled":false,"rental_uris":{"android":"levelo://app?vid=2af5647b-bd55-4141-9958-c299e6516927","ios":"levelo://app?vid=2af5647b-bd55-4141-9958-c299e6516927"},"vehicle_type_id":"4","last_reported":1701965354,"current_range_meters":28000,"station_id":"ce4bhr12rcd13ifvqhpg","pricing_plan_id":"free"},{"bike_id":"e3b383da-c6fa-4d8e-9429-24bb3a62025c","system_id":"levelo_inurba_marseille","lat":43.29987,"lon":5.37179,"is_reserved":false,"is_disabled":false,"rental_uris":{"android":"levelo://app?vid=e3b383da-c6fa-4d8e-9429-24bb3a62025c","ios":"levelo://app?vid=e3b383da-c6fa-4d8e-9429-24bb3a62025c"},"vehicle_type_id":"4","last_reported":1701965354,"current_range_meters":22800,"station_id":"ce4bgr92rcd13ifvqc7g","pricing_plan_id":"free"},{"bike_id":"a4a2755c-60f4-4492-935f-662a0fad8443","system_id":"levelo_inurba_marseille","lat":43.299222,"lon":5.365554,"is_reserved":false,"is_disabled":false,"rental_uris":{"android":"levelo://app?vid=a4a2755c-60f4-4492-935f-662a0fad8443","ios":"levelo://app?vid=a4a2755c-60f4-4492-935f-662a0fad8443"},"vehicle_type_id":"4","last_reported":1701965354,"current_range_meters":0,"station_id":"ce4bgm92rcd13ifvqbr0","pricing_plan_id":"free"},{"bike_id":"d1d4f032-692f-4f2c-abbc-a337176848b8","system_id":"levelo_inurba_marseille","lat":43.299724,"lon":5.371829,"is_reserved":false,"is_disabled":false,"rental_uris":{"android":"levelo://app?vid=d1d4f032-692f-4f2c-abbc-a337176848b8","ios":"levelo://app?vid=d1d4f032-692f-4f2c-abbc-a337176848b8"},"vehicle_type_id":"4","last_reported":1701965354,"current_range_meters":15200,"station_id":"ce4bgr92rcd13ifvqc7g","pricing_plan_id":"free"},{"bike_id":"866f0c7f-3cac-4620-903d-b15064f4b9f5","system_id":"levelo_inurba_marseille","lat":43.299243,"lon":5.374807,"is_reserved":false,"is_disabled":false,"rental_uris":{"android":"levelo://app?vid=866f0c7f-3cac-4620-903d-b15064f4b9f5","ios":"levelo://app?vid=866f0c7f-3cac-4620-903d-b15064f4b9f5"},"vehicle_type_id":"4","last_reported":1701965354,"current_range_meters":28800,"station_id":"ce4bgjh2rcd13ifvqbg0","pricing_plan_id":"free"},{"bike_id":"b67fba65-c7a2-47f0-9f52-5169b2d6706d","system_id":"levelo_inurba_marseille","lat":43.299243,"lon":5.374807,"is_reserved":false,"is_disabled":false,"rental_uris":{"android":"levelo://app?vid=b67fba65-c7a2-47f0-9f52-5169b2d6706d","ios":"levelo://app?vid=b67fba65-c7a2-47f0-9f52-5169b2d6706d"},"vehicle_type_id":"4","last_reported":1701965354,"current_range_meters":13600,"station_id":"ce4bgjh2rcd13ifvqbg0","pricing_plan_id":"free"},{"bike_id":"378f5b5b-3a7e-4a68-a055-5875a62e7ea5","system_id":"levelo_inurba_marseille","lat":43.311722,"lon":5.387247,"is_reserved":false,"is_disabled":false,"rental_uris":{"android":"levelo://app?vid=378f5b5b-3a7e-4a68-a055-5875a62e7ea5","ios":"levelo://app?vid=378f5b5b-3a7e-4a68-a055-5875a62e7ea5"},"vehicle_type_id":"4","last_reported":1701965354,"current_range_meters":4400,"station_id":"ce4bgv12rcd13ifvqcp0","pricing_plan_id":"free"},{"bike_id":"60efc2ce-e715-429e-89d8-c6dd7f31645f","system_id":"levelo_inurba_marseille","lat":43.297959,"lon":5.371663,"is_reserved":false,"is_disabled":false,"rental_uris":{"android":"levelo://app?vid=60efc2ce-e715-429e-89d8-c6dd7f31645f","ios":"levelo://app?vid=60efc2ce-e715-429e-89d8-c6dd7f31645f"},"vehicle_type_id":"4","last_reported":1701965354,"current_range_meters":30800,"station_id":"","pricing_plan_id":"free"},{"bike_id":"3dcd4a73-468d-493a-bf11-93ceddd109f8","system_id":"levelo_inurba_marseille","lat":43.322872,"lon":5.382756,"is_reserved":false,"is_disabled":false,"rental_uris":{"android":"levelo://app?vid=3dcd4a73-468d-493a-bf11-93ceddd109f8","ios":"levelo://app?vid=3dcd4a73-468d-493a-bf11-93ceddd109f8"},"vehicle_type_id":"4","last_reported":1701965354,"current_range_meters":6400,"station_id":"ce4bhr12rcd13ifvqhqg","pricing_plan_id":"free"},{"bike_id":"4eabd40d-7f61-4763-a024-5eabd57f2486","system_id":"levelo_inurba_marseille","lat":43.32832,"lon":5.3669,"is_reserved":false,"is_disabled":false,"rental_uris":{"android":"levelo://app?vid=4eabd40d-7f61-4763-a024-5eabd57f2486","ios":"levelo://app?vid=4eabd40d-7f61-4763-a024-5eabd57f2486"},"vehicle_type_id":"4","last_reported":1701965354,"current_range_meters":24800,"station_id":"ce4bhs92rcd13ifvqi0g","pricing_plan_id":"free"},{"bike_id":"9190eb99-d6ca-4501-a2a4-7ed7fc8df97e","system_id":"levelo_inurba_marseille","lat":43.32833,"lon":5.36682,"is_reserved":false,"is_disabled":false,"rental_uris":{"android":"levelo://app?vid=9190eb99-d6ca-4501-a2a4-7ed7fc8df97e","ios":"levelo://app?vid=9190eb99-d6ca-4501-a2a4-7ed7fc8df97e"},"vehicle_type_id":"4","last_reported":1701965354,"current_range_meters":18400,"station_id":"ce4bhs92rcd13ifvqi0g","pricing_plan_id":"free"},{"bike_id":"6a264d4e-3b4b-410f-baf8-bd9c14a4ec2e","system_id":"levelo_inurba_marseille","lat":43.297163,"lon":5.365866,"is_reserved":false,"is_disabled":false,"rental_uris":{"android":"levelo://app?vid=6a264d4e-3b4b-410f-baf8-bd9c14a4ec2e","ios":"levelo://app?vid=6a264d4e-3b4b-410f-baf8-bd9c14a4ec2e"},"vehicle_type_id":"4","last_reported":1701965354,"current_range_meters":29200,"station_id":"ce4bgn12rcd13ifvqbt0","pricing_plan_id":"free"},{"bike_id":"ef08f774-2713-46c7-ac61-11066468225e","system_id":"levelo_inurba_marseille","lat":43.295922,"lon":5.367364,"is_reserved":false,"is_disabled":false,"rental_uris":{"android":"levelo://app?vid=ef08f774-2713-46c7-ac61-11066468225e","ios":"levelo://app?vid=ef08f774-2713-46c7-ac61-11066468225e"},"vehicle_type_id":"4","last_reported":1701965354,"current_range_meters":26000,"station_id":"ce4bgph2rcd13ifvqc2g","pricing_plan_id":"free"},{"bike_id":"92dc65d6-6823-4de3-93d4-056f738f090c","system_id":"levelo_inurba_marseille","lat":43.316538,"lon":5.38954,"is_reserved":false,"is_disabled":false,"rental_uris":{"android":"levelo://app?vid=92dc65d6-6823-4de3-93d4-056f738f090c","ios":"levelo://app?vid=92dc65d6-6823-4de3-93d4-056f738f090c"},"vehicle_type_id":"4","last_reported":1701965354,"current_range_meters":5200,"station_id":"","pricing_plan_id":"free"},{"bike_id":"34220a8c-d0cd-4f6f-bd06-037f0880766f","system_id":"levelo_inurba_marseille","lat":43.299028,"lon":5.381509,"is_reserved":false,"is_disabled":false,"rental_uris":{"android":"levelo://app?vid=34220a8c-d0cd-4f6f-bd06-037f0880766f","ios":"levelo://app?vid=34220a8c-d0cd-4f6f-bd06-037f0880766f"},"vehicle_type_id":"4","last_reported":1701965354,"current_range_meters":22800,"station_id":"ce4bgj12rcd13ifvqbc0","pricing_plan_id":"free"},{"bike_id":"cd877b3e-cae9-4767-b618-93e42398ac39","system_id":"levelo_inurba_marseille","lat":43.317557,"lon":5.390173,"is_reserved":false,"is_disabled":false,"rental_uris":{"android":"levelo://app?vid=cd877b3e-cae9-4767-b618-93e42398ac39","ios":"levelo://app?vid=cd877b3e-cae9-4767-b618-93e42398ac39"},"vehicle_type_id":"4","last_reported":1701965354,"current_range_meters":7200,"station_id":"ce4bhqp2rcd13ifvqhng","pricing_plan_id":"free"},{"bike_id":"b29bb8ce-4e85-45d8-860e-8f316152b547","system_id":"levelo_inurba_marseille","lat":43.317557,"lon":5.390173,"is_reserved":false,"is_disabled":false,"rental_uris":{"android":"levelo://app?vid=b29bb8ce-4e85-45d8-860e-8f316152b547","ios":"levelo://app?vid=b29bb8ce-4e85-45d8-860e-8f316152b547"},"vehicle_type_id":"4","last_reported":1701965354,"current_range_meters":0,"station_id":"ce4bhqp2rcd13ifvqhng","pricing_plan_id":"free"},{"bike_id":"55311dec-ec61-4646-8d1a-4ddd89532043","system_id":"levelo_inurba_marseille","lat":43.330323,"lon":5.369827,"is_reserved":false,"is_disabled":false,"rental_uris":{"android":"levelo://app?vid=55311dec-ec61-4646-8d1a-4ddd89532043","ios":"levelo://app?vid=55311dec-ec61-4646-8d1a-4ddd89532043"},"vehicle_type_id":"4","last_reported":1701965354,"current_range_meters":24000,"station_id":"","pricing_plan_id":"free"},{"bike_id":"939df909-61ad-47d2-9a24-279eade37c8c","system_id":"levelo_inurba_marseille","lat":43.29578,"lon":5.37502,"is_reserved":false,"is_disabled":false,"rental_uris":{"android":"levelo://app?vid=939df909-61ad-47d2-9a24-279eade37c8c","ios":"levelo://app?vid=939df909-61ad-47d2-9a24-279eade37c8c"},"vehicle_type_id":"4","last_reported":1701965354,"current_range_meters":0,"station_id":"ce4bgh92rcd13ifvqb50","pricing_plan_id":"free"},{"bike_id":"4425f8d2-87a5-4286-8502-1908d3e6fb63","system_id":"levelo_inurba_marseille","lat":43.298037,"lon":5.381066,"is_reserved":false,"is_disabled":false,"rental_uris":{"android":"levelo://app?vid=4425f8d2-87a5-4286-8502-1908d3e6fb63","ios":"levelo://app?vid=4425f8d2-87a5-4286-8502-1908d3e6fb63"},"vehicle_type_id":"4","last_reported":1701965354,"current_range_meters":8000,"station_id":"ce4bgip2rcd13ifvqbb0","pricing_plan_id":"free"},{"bike_id":"fc264b3f-3320-4cc5-b6c9-33d6dd892c87","system_id":"levelo_inurba_marseille","lat":43.33055,"lon":5.370549,"is_reserved":false,"is_disabled":false,"rental_uris":{"android":"levelo://app?vid=fc264b3f-3320-4cc5-b6c9-33d6dd892c87","ios":"levelo://app?vid=fc264b3f-3320-4cc5-b6c9-33d6dd892c87"},"vehicle_type_id":"4","last_reported":1701965354,"current_range_meters":20400,"station_id":"","pricing_plan_id":"free"},{"bike_id":"fe4888ca-0279-4481-aee2-769968dcd543","system_id":"levelo_inurba_marseille","lat":43.29561,"lon":5.37501,"is_reserved":false,"is_disabled":false,"rental_uris":{"android":"levelo://app?vid=fe4888ca-0279-4481-aee2-769968dcd543","ios":"levelo://app?vid=fe4888ca-0279-4481-aee2-769968dcd543"},"vehicle_type_id":"4","last_reported":1701965354,"current_range_meters":0,"station_id":"ce4bgh92rcd13ifvqb50","pricing_plan_id":"free"},{"bike_id":"26fc0c47-e5ee-49d2-911f-b4135c252acd","system_id":"levelo_inurba_marseille","lat":43.330692,"lon":5.370698,"is_reserved":false,"is_disabled":false,"rental_uris":{"android":"levelo://app?vid=26fc0c47-e5ee-49d2-911f-b4135c252acd","ios":"levelo://app?vid=26fc0c47-e5ee-49d2-911f-b4135c252acd"},"vehicle_type_id":"4","last_reported":1701965354,"current_range_meters":28400,"station_id":"","pricing_plan_id":"free"},{"bike_id":"dce37017-dc14-47c0-b768-d200a7c1f01c","system_id":"levelo_inurba_marseille","lat":43.32367,"lon":5.388836,"is_reserved":false,"is_disabled":false,"rental_uris":{"android":"levelo://app?vid=dce37017-dc14-47c0-b768-d200a7c1f01c","ios":"levelo://app?vid=dce37017-dc14-47c0-b768-d200a7c1f01c"},"vehicle_type_id":"4","last_reported":1701965354,"current_range_meters":16800,"station_id":"ce4bhqp2rcd13ifvqhog","pricing_plan_id":"free"},{"bike_id":"dbbc9210-432e-444d-9710-06231a86e267","system_id":"levelo_inurba_marseille","lat":43.29601,"lon":5.381084,"is_reserved":false,"is_disabled":false,"rental_uris":{"android":"levelo://app?vid=dbbc9210-432e-444d-9710-06231a86e267","ios":"levelo://app?vid=dbbc9210-432e-444d-9710-06231a86e267"},"vehicle_type_id":"4","last_reported":1701965354,"current_range_meters":1600,"station_id":"ce4bgl12rcd13ifvqbo0","pricing_plan_id":"free"},{"bike_id":"bac32701-2fa9-4a32-9f38-8f49a7c455cf","system_id":"levelo_inurba_marseille","lat":43.305994,"lon":5.393687,"is_reserved":false,"is_disabled":false,"rental_uris":{"android":"levelo://app?vid=bac32701-2fa9-4a32-9f38-8f49a7c455cf","ios":"levelo://app?vid=bac32701-2fa9-4a32-9f38-8f49a7c455cf"},"vehicle_type_id":"4","last_reported":1701965354,"current_range_meters":2800,"station_id":"ce4bh0p2rcd13ifvqd80","pricing_plan_id":"free"},{"bike_id":"de778943-bdfb-48e2-8bb1-eb8a919c2ffc","system_id":"levelo_inurba_marseille","lat":43.309047,"lon":5.396551,"is_reserved":false,"is_disabled":false,"rental_uris":{"android":"levelo://app?vid=de778943-bdfb-48e2-8bb1-eb8a919c2ffc","ios":"levelo://app?vid=de778943-bdfb-48e2-8bb1-eb8a919c2ffc"},"vehicle_type_id":"4","last_reported":1701965354,"current_range_meters":21200,"station_id":"ce4bh012rcd13ifvqcv0","pricing_plan_id":"free"},{"bike_id":"2def678e-fbbc-497d-9923-ed9408bc7097","system_id":"levelo_inurba_marseille","lat":43.309038,"lon":5.396546,"is_reserved":false,"is_disabled":false,"rental_uris":{"android":"levelo://app?vid=2def678e-fbbc-497d-9923-ed9408bc7097","ios":"levelo://app?vid=2def678e-fbbc-497d-9923-ed9408bc7097"},"vehicle_type_id":"4","last_reported":1701965354,"current_range_meters":24800,"station_id":"ce4bh012rcd13ifvqcv0","pricing_plan_id":"free"},{"bike_id":"9fd20faf-3cca-434f-a9fe-7e19a6bf40fc","system_id":"levelo_inurba_marseille","lat":43.309038,"lon":5.396546,"is_reserved":false,"is_disabled":false,"rental_uris":{"android":"levelo://app?vid=9fd20faf-3cca-434f-a9fe-7e19a6bf40fc","ios":"levelo://app?vid=9fd20faf-3cca-434f-a9fe-7e19a6bf40fc"},"vehicle_type_id":"4","last_reported":1701965354,"current_range_meters":15600,"station_id":"ce4bh012rcd13ifvqcv0","pricing_plan_id":"free"},{"bike_id":"d7638122-2104-4048-85dd-92239e965c15","system_id":"levelo_inurba_marseille","lat":43.29529,"lon":5.385581,"is_reserved":false,"is_disabled":false,"rental_uris":{"android":"levelo://app?vid=d7638122-2104-4048-85dd-92239e965c15","ios":"levelo://app?vid=d7638122-2104-4048-85dd-92239e965c15"},"vehicle_type_id":"4","last_reported":1701965354,"current_range_meters":2400,"station_id":"ce4bgih2rcd13ifvqba0","pricing_plan_id":"free"},{"bike_id":"d1a97d2d-2440-4a46-a2db-291f4e45c149","system_id":"levelo_inurba_marseille","lat":43.29253,"lon":5.38023,"is_reserved":false,"is_disabled":false,"rental_uris":{"android":"levelo://app?vid=d1a97d2d-2440-4a46-a2db-291f4e45c149","ios":"levelo://app?vid=d1a97d2d-2440-4a46-a2db-291f4e45c149"},"vehicle_type_id":"4","last_reported":1701965354,"current_range_meters":21200,"station_id":"","pricing_plan_id":"free"},{"bike_id":"7a118b74-7ca6-441a-81a8-654cabfc74fe","system_id":"levelo_inurba_marseille","lat":43.294153,"lon":5.386305,"is_reserved":false,"is_disabled":false,"rental_uris":{"android":"levelo://app?vid=7a118b74-7ca6-441a-81a8-654cabfc74fe","ios":"levelo://app?vid=7a118b74-7ca6-441a-81a8-654cabfc74fe"},"vehicle_type_id":"4","last_reported":1701965354,"current_range_meters":31200,"station_id":"ce4bh2h2rcd13ifvqdh0","pricing_plan_id":"free"},{"bike_id":"e035d36f-1d5f-4389-8673-ad0c29e30072","system_id":"levelo_inurba_marseille","lat":43.29418,"lon":5.38631,"is_reserved":false,"is_disabled":false,"rental_uris":{"android":"levelo://app?vid=e035d36f-1d5f-4389-8673-ad0c29e30072","ios":"levelo://app?vid=e035d36f-1d5f-4389-8673-ad0c29e30072"},"vehicle_type_id":"4","last_reported":1701965354,"current_range_meters":31200,"station_id":"ce4bh2h2rcd13ifvqdh0","pricing_plan_id":"free"},{"bike_id":"87b3f588-2d72-488e-b0d7-f3a34ebbb0bb","system_id":"levelo_inurba_marseille","lat":43.290327,"lon":5.375711,"is_reserved":false,"is_disabled":false,"rental_uris":{"android":"levelo://app?vid=87b3f588-2d72-488e-b0d7-f3a34ebbb0bb","ios":"levelo://app?vid=87b3f588-2d72-488e-b0d7-f3a34ebbb0bb"},"vehicle_type_id":"4","last_reported":1701965354,"current_range_meters":20800,"station_id":"ce4bh692rcd13ifvqe90","pricing_plan_id":"free"},{"bike_id":"a02a1b20-1fb1-4951-988a-77389649024d","system_id":"levelo_inurba_marseille","lat":43.289259,"lon":5.366364,"is_reserved":false,"is_disabled":false,"rental_uris":{"android":"levelo://app?vid=a02a1b20-1fb1-4951-988a-77389649024d","ios":"levelo://app?vid=a02a1b20-1fb1-4951-988a-77389649024d"},"vehicle_type_id":"4","last_reported":1701965354,"current_range_meters":19200,"station_id":"","pricing_plan_id":"free"},{"bike_id":"c12df127-f915-48f4-85a1-4011b4c894ae","system_id":"levelo_inurba_marseille","lat":43.33038,"lon":5.38921,"is_reserved":false,"is_disabled":false,"rental_uris":{"android":"levelo://app?vid=c12df127-f915-48f4-85a1-4011b4c894ae","ios":"levelo://app?vid=c12df127-f915-48f4-85a1-4011b4c894ae"},"vehicle_type_id":"4","last_reported":1701965354,"current_range_meters":15600,"station_id":"ce4bhr92rcd13ifvqhrg","pricing_plan_id":"free"},{"bike_id":"a2ab8936-2f7f-4b07-962e-4a9ee65f9307","system_id":"levelo_inurba_marseille","lat":43.33042,"lon":5.3892,"is_reserved":false,"is_disabled":false,"rental_uris":{"android":"levelo://app?vid=a2ab8936-2f7f-4b07-962e-4a9ee65f9307","ios":"levelo://app?vid=a2ab8936-2f7f-4b07-962e-4a9ee65f9307"},"vehicle_type_id":"4","last_reported":1701965354,"current_range_meters":7200,"station_id":"ce4bhr92rcd13ifvqhrg","pricing_plan_id":"free"},{"bike_id":"cbf30d00-04b0-4a97-8c63-538b96876885","system_id":"levelo_inurba_marseille","lat":43.33046,"lon":5.38923,"is_reserved":false,"is_disabled":false,"rental_uris":{"android":"levelo://app?vid=cbf30d00-04b0-4a97-8c63-538b96876885","ios":"levelo://app?vid=cbf30d00-04b0-4a97-8c63-538b96876885"},"vehicle_type_id":"4","last_reported":1701965354,"current_range_meters":13200,"station_id":"ce4bhr92rcd13ifvqhrg","pricing_plan_id":"free"},{"bike_id":"d5661a6a-5a6d-4138-9859-714d61cadbfa","system_id":"levelo_inurba_marseille","lat":43.290995,"lon":5.381361,"is_reserved":false,"is_disabled":false,"rental_uris":{"android":"levelo://app?vid=d5661a6a-5a6d-4138-9859-714d61cadbfa","ios":"levelo://app?vid=d5661a6a-5a6d-4138-9859-714d61cadbfa"},"vehicle_type_id":"4","last_reported":1701965354,"current_range_meters":21200,"station_id":"ce4bh512rcd13ifvqe2g","pricing_plan_id":"free"},{"bike_id":"4fb6563b-b1b2-414c-ad15-733cb0db5bdf","system_id":"levelo_inurba_marseille","lat":43.2903,"lon":5.38135,"is_reserved":false,"is_disabled":false,"rental_uris":{"android":"levelo://app?vid=4fb6563b-b1b2-414c-ad15-733cb0db5bdf","ios":"levelo://app?vid=4fb6563b-b1b2-414c-ad15-733cb0db5bdf"},"vehicle_type_id":"4","last_reported":1701965354,"current_range_meters":0,"station_id":"ce4bh4p2rcd13ifvqe1g","pricing_plan_id":"free"},{"bike_id":"fbd1df5f-10e5-46b4-bda3-2c614f8efc75","system_id":"levelo_inurba_marseille","lat":43.288577,"lon":5.358592,"is_reserved":false,"is_disabled":false,"rental_uris":{"android":"levelo://app?vid=fbd1df5f-10e5-46b4-bda3-2c614f8efc75","ios":"levelo://app?vid=fbd1df5f-10e5-46b4-bda3-2c614f8efc75"},"vehicle_type_id":"4","last_reported":1701965354,"current_range_meters":0,"station_id":"","pricing_plan_id":"free"},{"bike_id":"78eca33c-58e0-448e-9460-9d548b32c34e","system_id":"levelo_inurba_marseille","lat":43.288558,"lon":5.358635,"is_reserved":false,"is_disabled":false,"rental_uris":{"android":"levelo://app?vid=78eca33c-58e0-448e-9460-9d548b32c34e","ios":"levelo://app?vid=78eca33c-58e0-448e-9460-9d548b32c34e"},"vehicle_type_id":"4","last_reported":1701965354,"current_range_meters":27600,"station_id":"","pricing_plan_id":"free"},{"bike_id":"d0962889-0bbc-433e-9708-f41ea6d23569","system_id":"levelo_inurba_marseille","lat":43.337489,"lon":5.374447,"is_reserved":false,"is_disabled":false,"rental_uris":{"android":"levelo://app?vid=d0962889-0bbc-433e-9708-f41ea6d23569","ios":"levelo://app?vid=d0962889-0bbc-433e-9708-f41ea6d23569"},"vehicle_type_id":"4","last_reported":1701965354,"current_range_meters":30000,"station_id":"","pricing_plan_id":"free"},{"bike_id":"d172e848-b6de-4170-bd78-2ea3b827d317","system_id":"levelo_inurba_marseille","lat":43.33751,"lon":5.37475,"is_reserved":false,"is_disabled":false,"rental_uris":{"android":"levelo://app?vid=d172e848-b6de-4170-bd78-2ea3b827d317","ios":"levelo://app?vid=d172e848-b6de-4170-bd78-2ea3b827d317"},"vehicle_type_id":"4","last_reported":1701965354,"current_range_meters":28400,"station_id":"","pricing_plan_id":"free"},{"bike_id":"631c8d75-ac11-4ca1-92e8-4a0791838285","system_id":"levelo_inurba_marseille","lat":43.33755,"lon":5.37468,"is_reserved":false,"is_disabled":false,"rental_uris":{"android":"levelo://app?vid=631c8d75-ac11-4ca1-92e8-4a0791838285","ios":"levelo://app?vid=631c8d75-ac11-4ca1-92e8-4a0791838285"},"vehicle_type_id":"4","last_reported":1701965354,"current_range_meters":30400,"station_id":"","pricing_plan_id":"free"},{"bike_id":"bac41afa-2247-4345-b395-258a18435704","system_id":"levelo_inurba_marseille","lat":43.33769,"lon":5.37479,"is_reserved":false,"is_disabled":false,"rental_uris":{"android":"levelo://app?vid=bac41afa-2247-4345-b395-258a18435704","ios":"levelo://app?vid=bac41afa-2247-4345-b395-258a18435704"},"vehicle_type_id":"4","last_reported":1701965354,"current_range_meters":20800,"station_id":"","pricing_plan_id":"free"},{"bike_id":"5912104e-11aa-46c1-abd8-b7d7af19036e","system_id":"levelo_inurba_marseille","lat":43.30642,"lon":5.401031,"is_reserved":false,"is_disabled":false,"rental_uris":{"android":"levelo://app?vid=5912104e-11aa-46c1-abd8-b7d7af19036e","ios":"levelo://app?vid=5912104e-11aa-46c1-abd8-b7d7af19036e"},"vehicle_type_id":"4","last_reported":1701965354,"current_range_meters":14400,"station_id":"ce4bh112rcd13ifvqda0","pricing_plan_id":"free"},{"bike_id":"d2d9a2ed-1294-4aea-88be-0275baf6f967","system_id":"levelo_inurba_marseille","lat":43.301117,"lon":5.398795,"is_reserved":false,"is_disabled":false,"rental_uris":{"android":"levelo://app?vid=d2d9a2ed-1294-4aea-88be-0275baf6f967","ios":"levelo://app?vid=d2d9a2ed-1294-4aea-88be-0275baf6f967"},"vehicle_type_id":"4","last_reported":1701965354,"current_range_meters":13600,"station_id":"ce4bh0h2rcd13ifvqd40","pricing_plan_id":"free"},{"bike_id":"8b6b8706-a2e9-49b4-8591-35eb2dd81ca3","system_id":"levelo_inurba_marseille","lat":43.298681,"lon":5.397225,"is_reserved":false,"is_disabled":false,"rental_uris":{"android":"levelo://app?vid=8b6b8706-a2e9-49b4-8591-35eb2dd81ca3","ios":"levelo://app?vid=8b6b8706-a2e9-49b4-8591-35eb2dd81ca3"},"vehicle_type_id":"4","last_reported":1701965354,"current_range_meters":31200,"station_id":"ce4bh0h2rcd13ifvqd50","pricing_plan_id":"free"},{"bike_id":"6fc1c0e0-49ce-44f4-acf1-b5cc4e99c6e7","system_id":"levelo_inurba_marseille","lat":43.29028,"lon":5.3864,"is_reserved":false,"is_disabled":false,"rental_uris":{"android":"levelo://app?vid=6fc1c0e0-49ce-44f4-acf1-b5cc4e99c6e7","ios":"levelo://app?vid=6fc1c0e0-49ce-44f4-acf1-b5cc4e99c6e7"},"vehicle_type_id":"4","last_reported":1701965354,"current_range_meters":0,"station_id":"ce4bh4p2rcd13ifvqe0g","pricing_plan_id":"free"},{"bike_id":"316f8bdb-b43a-4b8b-aade-340d15b7b257","system_id":"levelo_inurba_marseille","lat":43.286039,"lon":5.370679,"is_reserved":false,"is_disabled":false,"rental_uris":{"android":"levelo://app?vid=316f8bdb-b43a-4b8b-aade-340d15b7b257","ios":"levelo://app?vid=316f8bdb-b43a-4b8b-aade-340d15b7b257"},"vehicle_type_id":"4","last_reported":1701965354,"current_range_meters":14000,"station_id":"ce4bht12rcd13ifvqi60","pricing_plan_id":"free"},{"bike_id":"25a0aa27-a8d1-4766-868a-cfaf9543fab5","system_id":"levelo_inurba_marseille","lat":43.286039,"lon":5.370681,"is_reserved":false,"is_disabled":false,"rental_uris":{"android":"levelo://app?vid=25a0aa27-a8d1-4766-868a-cfaf9543fab5","ios":"levelo://app?vid=25a0aa27-a8d1-4766-868a-cfaf9543fab5"},"vehicle_type_id":"4","last_reported":1701965354,"current_range_meters":26400,"station_id":"ce4bht12rcd13ifvqi60","pricing_plan_id":"free"},{"bike_id":"60a23bc5-99e1-4668-a276-7791a5efbcf3","system_id":"levelo_inurba_marseille","lat":43.302759,"lon":5.400793,"is_reserved":false,"is_disabled":false,"rental_uris":{"android":"levelo://app?vid=60a23bc5-99e1-4668-a276-7791a5efbcf3","ios":"levelo://app?vid=60a23bc5-99e1-4668-a276-7791a5efbcf3"},"vehicle_type_id":"4","last_reported":1701965354,"current_range_meters":0,"station_id":"ce4bgvh2rcd13ifvqcs0","pricing_plan_id":"free"},{"bike_id":"a5d13238-a60e-4907-b15c-05b9b476718a","system_id":"levelo_inurba_marseille","lat":43.286039,"lon":5.370679,"is_reserved":false,"is_disabled":false,"rental_uris":{"android":"levelo://app?vid=a5d13238-a60e-4907-b15c-05b9b476718a","ios":"levelo://app?vid=a5d13238-a60e-4907-b15c-05b9b476718a"},"vehicle_type_id":"4","last_reported":1701965354,"current_range_meters":22000,"station_id":"ce4bht12rcd13ifvqi60","pricing_plan_id":"free"},{"bike_id":"a0d1e37f-774f-4377-92d2-ca2c1c62c913","system_id":"levelo_inurba_marseille","lat":43.286039,"lon":5.370679,"is_reserved":false,"is_disabled":false,"rental_uris":{"android":"levelo://app?vid=a0d1e37f-774f-4377-92d2-ca2c1c62c913","ios":"levelo://app?vid=a0d1e37f-774f-4377-92d2-ca2c1c62c913"},"vehicle_type_id":"4","last_reported":1701965354,"current_range_meters":26000,"station_id":"ce4bht12rcd13ifvqi60","pricing_plan_id":"free"},{"bike_id":"e490cfdf-e551-48c8-8b1d-e1e5a1fca671","system_id":"levelo_inurba_marseille","lat":43.316523,"lon":5.404367,"is_reserved":false,"is_disabled":false,"rental_uris":{"android":"levelo://app?vid=e490cfdf-e551-48c8-8b1d-e1e5a1fca671","ios":"levelo://app?vid=e490cfdf-e551-48c8-8b1d-e1e5a1fca671"},"vehicle_type_id":"4","last_reported":1701965354,"current_range_meters":19600,"station_id":"ce4bh012rcd13ifvqd00","pricing_plan_id":"free"},{"bike_id":"d63aa88d-5f72-4eeb-a506-813024fd736c","system_id":"levelo_inurba_marseille","lat":43.284538,"lon":5.358657,"is_reserved":false,"is_disabled":false,"rental_uris":{"android":"levelo://app?vid=d63aa88d-5f72-4eeb-a506-813024fd736c","ios":"levelo://app?vid=d63aa88d-5f72-4eeb-a506-813024fd736c"},"vehicle_type_id":"4","last_reported":1701965354,"current_range_meters":19200,"station_id":"ce4bhah2rcd13ifvqei0","pricing_plan_id":"free"},{"bike_id":"93c04bd3-5011-4e29-b818-f3734292d61e","system_id":"levelo_inurba_marseille","lat":43.284538,"lon":5.358657,"is_reserved":false,"is_disabled":false,"rental_uris":{"android":"levelo://app?vid=93c04bd3-5011-4e29-b818-f3734292d61e","ios":"levelo://app?vid=93c04bd3-5011-4e29-b818-f3734292d61e"},"vehicle_type_id":"4","last_reported":1701965354,"current_range_meters":14000,"station_id":"ce4bhah2rcd13ifvqei0","pricing_plan_id":"free"},{"bike_id":"a622bccd-b0ae-42e0-8492-950721eefa65","system_id":"levelo_inurba_marseille","lat":43.294314,"lon":5.397498,"is_reserved":false,"is_disabled":false,"rental_uris":{"android":"levelo://app?vid=a622bccd-b0ae-42e0-8492-950721eefa65","ios":"levelo://app?vid=a622bccd-b0ae-42e0-8492-950721eefa65"},"vehicle_type_id":"4","last_reported":1701965354,"current_range_meters":20000,"station_id":"ce4bh3h2rcd13ifvqdo0","pricing_plan_id":"free"},{"bike_id":"c8b0f123-5990-4d2d-b94f-9e8fb2802d8c","system_id":"levelo_inurba_marseille","lat":43.283998,"lon":5.375062,"is_reserved":false,"is_disabled":false,"rental_uris":{"android":"levelo://app?vid=c8b0f123-5990-4d2d-b94f-9e8fb2802d8c","ios":"levelo://app?vid=c8b0f123-5990-4d2d-b94f-9e8fb2802d8c"},"vehicle_type_id":"4","last_reported":1701965354,"current_range_meters":2000,"station_id":"ce4bh412rcd13ifvqds0","pricing_plan_id":"free"},{"bike_id":"ab35a2f2-f918-4558-963b-805798e7fe1d","system_id":"levelo_inurba_marseille","lat":43.33717,"lon":5.391857,"is_reserved":false,"is_disabled":false,"rental_uris":{"android":"levelo://app?vid=ab35a2f2-f918-4558-963b-805798e7fe1d","ios":"levelo://app?vid=ab35a2f2-f918-4558-963b-805798e7fe1d"},"vehicle_type_id":"4","last_reported":1701965354,"current_range_meters":14400,"station_id":"ce4bhr92rcd13ifvqhsg","pricing_plan_id":"free"},{"bike_id":"56ac9cc9-bb61-47d5-bb32-c23299a9fd93","system_id":"levelo_inurba_marseille","lat":43.323464,"lon":5.406297,"is_reserved":false,"is_disabled":false,"rental_uris":{"android":"levelo://app?vid=56ac9cc9-bb61-47d5-bb32-c23299a9fd93","ios":"levelo://app?vid=56ac9cc9-bb61-47d5-bb32-c23299a9fd93"},"vehicle_type_id":"4","last_reported":1701965354,"current_range_meters":26800,"station_id":"ce4bhq92rcd13ifvqhjg","pricing_plan_id":"free"},{"bike_id":"b0e7298d-5203-4983-b7f7-60b8fee86899","system_id":"levelo_inurba_marseille","lat":43.33717,"lon":5.391857,"is_reserved":false,"is_disabled":false,"rental_uris":{"android":"levelo://app?vid=b0e7298d-5203-4983-b7f7-60b8fee86899","ios":"levelo://app?vid=b0e7298d-5203-4983-b7f7-60b8fee86899"},"vehicle_type_id":"4","last_reported":1701965354,"current_range_meters":28000,"station_id":"ce4bhr92rcd13ifvqhsg","pricing_plan_id":"free"},{"bike_id":"ae979899-8018-4c84-8e58-f62e1989f317","system_id":"levelo_inurba_marseille","lat":43.282754,"lon":5.350519,"is_reserved":false,"is_disabled":false,"rental_uris":{"android":"levelo://app?vid=ae979899-8018-4c84-8e58-f62e1989f317","ios":"levelo://app?vid=ae979899-8018-4c84-8e58-f62e1989f317"},"vehicle_type_id":"4","last_reported":1701965354,"current_range_meters":7600,"station_id":"ce4bhbp2rcd13ifvqerg","pricing_plan_id":"free"},{"bike_id":"e0765cd6-c3e8-4ceb-9dec-4eb9126b84c4","system_id":"levelo_inurba_marseille","lat":43.282744,"lon":5.350533,"is_reserved":false,"is_disabled":false,"rental_uris":{"android":"levelo://app?vid=e0765cd6-c3e8-4ceb-9dec-4eb9126b84c4","ios":"levelo://app?vid=e0765cd6-c3e8-4ceb-9dec-4eb9126b84c4"},"vehicle_type_id":"4","last_reported":1701965354,"current_range_meters":22000,"station_id":"ce4bhbp2rcd13ifvqerg","pricing_plan_id":"free"},{"bike_id":"197805a0-5797-4083-a4f1-d62991ad7f85","system_id":"levelo_inurba_marseille","lat":43.28045,"lon":5.36952,"is_reserved":false,"is_disabled":false,"rental_uris":{"android":"levelo://app?vid=197805a0-5797-4083-a4f1-d62991ad7f85","ios":"levelo://app?vid=197805a0-5797-4083-a4f1-d62991ad7f85"},"vehicle_type_id":"4","last_reported":1701965354,"current_range_meters":16400,"station_id":"","pricing_plan_id":"free"},{"bike_id":"a383b531-0765-4fcd-8d16-a9e5acc282fd","system_id":"levelo_inurba_marseille","lat":43.280382,"lon":5.369291,"is_reserved":false,"is_disabled":false,"rental_uris":{"android":"levelo://app?vid=a383b531-0765-4fcd-8d16-a9e5acc282fd","ios":"levelo://app?vid=a383b531-0765-4fcd-8d16-a9e5acc282fd"},"vehicle_type_id":"4","last_reported":1701965354,"current_range_meters":26800,"station_id":"ce4bha12rcd13ifvqef0","pricing_plan_id":"free"},{"bike_id":"2bf4f874-fcf1-4325-ab78-4e4bd8e58a55","system_id":"levelo_inurba_marseille","lat":43.296263,"lon":5.40601,"is_reserved":false,"is_disabled":false,"rental_uris":{"android":"levelo://app?vid=2bf4f874-fcf1-4325-ab78-4e4bd8e58a55","ios":"levelo://app?vid=2bf4f874-fcf1-4325-ab78-4e4bd8e58a55"},"vehicle_type_id":"4","last_reported":1701965354,"current_range_meters":6000,"station_id":"ce4bh0h2rcd13ifvqd60","pricing_plan_id":"free"},{"bike_id":"9239ec91-b552-4632-91b8-07de67fb8073","system_id":"levelo_inurba_marseille","lat":43.296263,"lon":5.40601,"is_reserved":false,"is_disabled":false,"rental_uris":{"android":"levelo://app?vid=9239ec91-b552-4632-91b8-07de67fb8073","ios":"levelo://app?vid=9239ec91-b552-4632-91b8-07de67fb8073"},"vehicle_type_id":"4","last_reported":1701965354,"current_range_meters":11600,"station_id":"ce4bh0h2rcd13ifvqd60","pricing_plan_id":"free"},{"bike_id":"b69e29dc-913e-4adc-83e2-abcb1536e34e","system_id":"levelo_inurba_marseille","lat":43.27618,"lon":5.361009,"is_reserved":false,"is_disabled":false,"rental_uris":{"android":"levelo://app?vid=b69e29dc-913e-4adc-83e2-abcb1536e34e","ios":"levelo://app?vid=b69e29dc-913e-4adc-83e2-abcb1536e34e"},"vehicle_type_id":"4","last_reported":1701965354,"current_range_meters":4400,"station_id":"ce4bgj92rcd13ifvqbe0","pricing_plan_id":"free"},{"bike_id":"4971eebd-8d01-4803-a39a-bbff90b1a6a1","system_id":"levelo_inurba_marseille","lat":43.304188,"lon":5.412904,"is_reserved":false,"is_disabled":false,"rental_uris":{"android":"levelo://app?vid=4971eebd-8d01-4803-a39a-bbff90b1a6a1","ios":"levelo://app?vid=4971eebd-8d01-4803-a39a-bbff90b1a6a1"},"vehicle_type_id":"4","last_reported":1701965354,"current_range_meters":20000,"station_id":"ce4bhop2rcd13ifvqh8g","pricing_plan_id":"free"},{"bike_id":"0cef3c83-d963-4dd8-81ed-4cffe86f3a32","system_id":"levelo_inurba_marseille","lat":43.279742,"lon":5.38744,"is_reserved":false,"is_disabled":false,"rental_uris":{"android":"levelo://app?vid=0cef3c83-d963-4dd8-81ed-4cffe86f3a32","ios":"levelo://app?vid=0cef3c83-d963-4dd8-81ed-4cffe86f3a32"},"vehicle_type_id":"4","last_reported":1701965354,"current_range_meters":11600,"station_id":"ce4bhg12rcd13ifvqf80","pricing_plan_id":"free"},{"bike_id":"5fb35a19-a6c5-40c3-85d4-0094fc41b583","system_id":"levelo_inurba_marseille","lat":43.292571,"lon":5.409107,"is_reserved":false,"is_disabled":false,"rental_uris":{"android":"levelo://app?vid=5fb35a19-a6c5-40c3-85d4-0094fc41b583","ios":"levelo://app?vid=5fb35a19-a6c5-40c3-85d4-0094fc41b583"},"vehicle_type_id":"4","last_reported":1701965354,"current_range_meters":6800,"station_id":"ce4bh192rcd13ifvqdc0","pricing_plan_id":"free"},{"bike_id":"0f51c962-76f5-4dea-ae88-29330a75c160","system_id":"levelo_inurba_marseille","lat":43.292569,"lon":5.409107,"is_reserved":false,"is_disabled":false,"rental_uris":{"android":"levelo://app?vid=0f51c962-76f5-4dea-ae88-29330a75c160","ios":"levelo://app?vid=0f51c962-76f5-4dea-ae88-29330a75c160"},"vehicle_type_id":"4","last_reported":1701965354,"current_range_meters":20800,"station_id":"ce4bh192rcd13ifvqdc0","pricing_plan_id":"free"},{"bike_id":"76b50045-e09d-45f5-a477-58c69bf9d002","system_id":"levelo_inurba_marseille","lat":43.292571,"lon":5.409107,"is_reserved":false,"is_disabled":false,"rental_uris":{"android":"levelo://app?vid=76b50045-e09d-45f5-a477-58c69bf9d002","ios":"levelo://app?vid=76b50045-e09d-45f5-a477-58c69bf9d002"},"vehicle_type_id":"4","last_reported":1701965354,"current_range_meters":24000,"station_id":"ce4bh192rcd13ifvqdc0","pricing_plan_id":"free"},{"bike_id":"fd8cd521-2ecb-4347-a21e-6daaea84ce3c","system_id":"levelo_inurba_marseille","lat":43.292569,"lon":5.409107,"is_reserved":false,"is_disabled":false,"rental_uris":{"android":"levelo://app?vid=fd8cd521-2ecb-4347-a21e-6daaea84ce3c","ios":"levelo://app?vid=fd8cd521-2ecb-4347-a21e-6daaea84ce3c"},"vehicle_type_id":"4","last_reported":1701965354,"current_range_meters":29200,"station_id":"ce4bh192rcd13ifvqdc0","pricing_plan_id":"free"},{"bike_id":"e917aa4e-55d1-45a6-aa33-346959a729a6","system_id":"levelo_inurba_marseille","lat":43.280784,"lon":5.396622,"is_reserved":false,"is_disabled":false,"rental_uris":{"android":"levelo://app?vid=e917aa4e-55d1-45a6-aa33-346959a729a6","ios":"levelo://app?vid=e917aa4e-55d1-45a6-aa33-346959a729a6"},"vehicle_type_id":"4","last_reported":1701965354,"current_range_meters":16000,"station_id":"ce4bho12rcd13ifvqh2g","pricing_plan_id":"free"},{"bike_id":"572310e3-8359-4ce4-979e-e40697e7110f","system_id":"levelo_inurba_marseille","lat":43.303837,"lon":5.418724,"is_reserved":false,"is_disabled":false,"rental_uris":{"android":"levelo://app?vid=572310e3-8359-4ce4-979e-e40697e7110f","ios":"levelo://app?vid=572310e3-8359-4ce4-979e-e40697e7110f"},"vehicle_type_id":"4","last_reported":1701965354,"current_range_meters":27600,"station_id":"ce4bhop2rcd13ifvqh7g","pricing_plan_id":"free"},{"bike_id":"811ce54e-b255-4a56-903f-9ebf365c4ee1","system_id":"levelo_inurba_marseille","lat":43.278401,"lon":5.392152,"is_reserved":false,"is_disabled":false,"rental_uris":{"android":"levelo://app?vid=811ce54e-b255-4a56-903f-9ebf365c4ee1","ios":"levelo://app?vid=811ce54e-b255-4a56-903f-9ebf365c4ee1"},"vehicle_type_id":"4","last_reported":1701965354,"current_range_meters":29600,"station_id":"ce4bhjp2rcd13ifvqga0","pricing_plan_id":"free"},{"bike_id":"a4c8502c-3567-46b5-ac70-f747f2231a67","system_id":"levelo_inurba_marseille","lat":43.276769,"lon":5.388787,"is_reserved":false,"is_disabled":false,"rental_uris":{"android":"levelo://app?vid=a4c8502c-3567-46b5-ac70-f747f2231a67","ios":"levelo://app?vid=a4c8502c-3567-46b5-ac70-f747f2231a67"},"vehicle_type_id":"4","last_reported":1701965354,"current_range_meters":10800,"station_id":"ce4bhi12rcd13ifvqfo0","pricing_plan_id":"free"},{"bike_id":"4fc766a7-844f-4e5f-b68c-5e22c5ac980b","system_id":"levelo_inurba_marseille","lat":43.276771,"lon":5.388799,"is_reserved":false,"is_disabled":false,"rental_uris":{"android":"levelo://app?vid=4fc766a7-844f-4e5f-b68c-5e22c5ac980b","ios":"levelo://app?vid=4fc766a7-844f-4e5f-b68c-5e22c5ac980b"},"vehicle_type_id":"4","last_reported":1701965354,"current_range_meters":13200,"station_id":"ce4bhi12rcd13ifvqfo0","pricing_plan_id":"free"},{"bike_id":"ab75f025-8cc9-4ee0-9788-7046f97a10dd","system_id":"levelo_inurba_marseille","lat":43.279952,"lon":5.400085,"is_reserved":false,"is_disabled":false,"rental_uris":{"android":"levelo://app?vid=ab75f025-8cc9-4ee0-9788-7046f97a10dd","ios":"levelo://app?vid=ab75f025-8cc9-4ee0-9788-7046f97a10dd"},"vehicle_type_id":"4","last_reported":1701965354,"current_range_meters":24800,"station_id":"ce4bho92rcd13ifvqh4g","pricing_plan_id":"free"},{"bike_id":"f2d0cdfb-5903-48ce-979d-363406bb33d4","system_id":"levelo_inurba_marseille","lat":43.279952,"lon":5.400085,"is_reserved":false,"is_disabled":false,"rental_uris":{"android":"levelo://app?vid=f2d0cdfb-5903-48ce-979d-363406bb33d4","ios":"levelo://app?vid=f2d0cdfb-5903-48ce-979d-363406bb33d4"},"vehicle_type_id":"4","last_reported":1701965354,"current_range_meters":31200,"station_id":"ce4bho92rcd13ifvqh4g","pricing_plan_id":"free"},{"bike_id":"876464a3-64d6-490f-8b66-340384d03407","system_id":"levelo_inurba_marseille","lat":43.340804,"lon":5.410219,"is_reserved":false,"is_disabled":false,"rental_uris":{"android":"levelo://app?vid=876464a3-64d6-490f-8b66-340384d03407","ios":"levelo://app?vid=876464a3-64d6-490f-8b66-340384d03407"},"vehicle_type_id":"4","last_reported":1701965354,"current_range_meters":19200,"station_id":"ce4bhqh2rcd13ifvqhlg","pricing_plan_id":"free"},{"bike_id":"2b7a6143-930a-48c7-926e-629d00d46bab","system_id":"levelo_inurba_marseille","lat":43.30413,"lon":5.42544,"is_reserved":false,"is_disabled":false,"rental_uris":{"android":"levelo://app?vid=2b7a6143-930a-48c7-926e-629d00d46bab","ios":"levelo://app?vid=2b7a6143-930a-48c7-926e-629d00d46bab"},"vehicle_type_id":"4","last_reported":1701965354,"current_range_meters":0,"station_id":"ce4bhoh2rcd13ifvqh6g","pricing_plan_id":"free"},{"bike_id":"5fc6d5f5-35f8-4699-8d95-5d2621b1a4ba","system_id":"levelo_inurba_marseille","lat":43.304145,"lon":5.425466,"is_reserved":false,"is_disabled":false,"rental_uris":{"android":"levelo://app?vid=5fc6d5f5-35f8-4699-8d95-5d2621b1a4ba","ios":"levelo://app?vid=5fc6d5f5-35f8-4699-8d95-5d2621b1a4ba"},"vehicle_type_id":"4","last_reported":1701965354,"current_range_meters":23600,"station_id":"ce4bhoh2rcd13ifvqh6g","pricing_plan_id":"free"},{"bike_id":"88fb8b94-54f8-4094-9c66-e5e760a3e70a","system_id":"levelo_inurba_marseille","lat":43.295523,"lon":5.422926,"is_reserved":false,"is_disabled":false,"rental_uris":{"android":"levelo://app?vid=88fb8b94-54f8-4094-9c66-e5e760a3e70a","ios":"levelo://app?vid=88fb8b94-54f8-4094-9c66-e5e760a3e70a"},"vehicle_type_id":"4","last_reported":1701965354,"current_range_meters":27200,"station_id":"ce4bhph2rcd13ifvqhdg","pricing_plan_id":"free"},{"bike_id":"11bdb2f6-f1a7-499a-856a-a31d9ba546dd","system_id":"levelo_inurba_marseille","lat":43.29558,"lon":5.42295,"is_reserved":false,"is_disabled":false,"rental_uris":{"android":"levelo://app?vid=11bdb2f6-f1a7-499a-856a-a31d9ba546dd","ios":"levelo://app?vid=11bdb2f6-f1a7-499a-856a-a31d9ba546dd"},"vehicle_type_id":"4","last_reported":1701965354,"current_range_meters":28400,"station_id":"ce4bhph2rcd13ifvqhdg","pricing_plan_id":"free"},{"bike_id":"244007ef-c228-4bba-82ec-d3e3635b2a31","system_id":"levelo_inurba_marseille","lat":43.29553,"lon":5.42302,"is_reserved":false,"is_disabled":false,"rental_uris":{"android":"levelo://app?vid=244007ef-c228-4bba-82ec-d3e3635b2a31","ios":"levelo://app?vid=244007ef-c228-4bba-82ec-d3e3635b2a31"},"vehicle_type_id":"4","last_reported":1701965354,"current_range_meters":6400,"station_id":"ce4bhph2rcd13ifvqhdg","pricing_plan_id":"free"},{"bike_id":"77e2df1b-d75a-48fe-a6ad-744dfbe91f1d","system_id":"levelo_inurba_marseille","lat":43.27214,"lon":5.3925,"is_reserved":false,"is_disabled":false,"rental_uris":{"android":"levelo://app?vid=77e2df1b-d75a-48fe-a6ad-744dfbe91f1d","ios":"levelo://app?vid=77e2df1b-d75a-48fe-a6ad-744dfbe91f1d"},"vehicle_type_id":"4","last_reported":1701965354,"current_range_meters":8800,"station_id":"","pricing_plan_id":"free"},{"bike_id":"8d8592b5-d675-47f0-9007-1b69225bf544","system_id":"levelo_inurba_marseille","lat":43.278128,"lon":5.407195,"is_reserved":false,"is_disabled":false,"rental_uris":{"android":"levelo://app?vid=8d8592b5-d675-47f0-9007-1b69225bf544","ios":"levelo://app?vid=8d8592b5-d675-47f0-9007-1b69225bf544"},"vehicle_type_id":"4","last_reported":1701965354,"current_range_meters":11200,"station_id":"ce4bhnh2rcd13ifvqgtg","pricing_plan_id":"free"},{"bike_id":"8a8bc4d6-0029-4fbf-9728-a692a0316877","system_id":"levelo_inurba_marseille","lat":43.2701,"lon":5.392946,"is_reserved":false,"is_disabled":false,"rental_uris":{"android":"levelo://app?vid=8a8bc4d6-0029-4fbf-9728-a692a0316877","ios":"levelo://app?vid=8a8bc4d6-0029-4fbf-9728-a692a0316877"},"vehicle_type_id":"4","last_reported":1701965354,"current_range_meters":3600,"station_id":"","pricing_plan_id":"free"},{"bike_id":"b3bad145-3ab4-4bd2-9bf5-01699fdf21cb","system_id":"levelo_inurba_marseille","lat":43.279881,"lon":5.416579,"is_reserved":false,"is_disabled":false,"rental_uris":{"android":"levelo://app?vid=b3bad145-3ab4-4bd2-9bf5-01699fdf21cb","ios":"levelo://app?vid=b3bad145-3ab4-4bd2-9bf5-01699fdf21cb"},"vehicle_type_id":"4","last_reported":1701965354,"current_range_meters":9200,"station_id":"ce4bho12rcd13ifvqh1g","pricing_plan_id":"free"},{"bike_id":"5c62f0fe-2a68-4f0e-8c5e-1c3be35b64ff","system_id":"levelo_inurba_marseille","lat":43.29285,"lon":5.42843,"is_reserved":false,"is_disabled":false,"rental_uris":{"android":"levelo://app?vid=5c62f0fe-2a68-4f0e-8c5e-1c3be35b64ff","ios":"levelo://app?vid=5c62f0fe-2a68-4f0e-8c5e-1c3be35b64ff"},"vehicle_type_id":"4","last_reported":1701965354,"current_range_meters":14800,"station_id":"","pricing_plan_id":"free"},{"bike_id":"eeeb25ba-6826-4b14-8176-f41e59febf89","system_id":"levelo_inurba_marseille","lat":43.267966,"lon":5.393976,"is_reserved":false,"is_disabled":false,"rental_uris":{"android":"levelo://app?vid=eeeb25ba-6826-4b14-8176-f41e59febf89","ios":"levelo://app?vid=eeeb25ba-6826-4b14-8176-f41e59febf89"},"vehicle_type_id":"4","last_reported":1701965354,"current_range_meters":14000,"station_id":"ce4bhh12rcd13ifvqfg0","pricing_plan_id":"free"},{"bike_id":"a9f32905-4660-4c03-bf2b-da103a0088a6","system_id":"levelo_inurba_marseille","lat":43.26192,"lon":5.37449,"is_reserved":false,"is_disabled":false,"rental_uris":{"android":"levelo://app?vid=a9f32905-4660-4c03-bf2b-da103a0088a6","ios":"levelo://app?vid=a9f32905-4660-4c03-bf2b-da103a0088a6"},"vehicle_type_id":"4","last_reported":1701965354,"current_range_meters":30000,"station_id":"ce4bhgp2rcd13ifvqfc0","pricing_plan_id":"free"},{"bike_id":"4ff4d6b7-aae4-4b6c-9403-50d9610115ee","system_id":"levelo_inurba_marseille","lat":43.261782,"lon":5.374515,"is_reserved":false,"is_disabled":false,"rental_uris":{"android":"levelo://app?vid=4ff4d6b7-aae4-4b6c-9403-50d9610115ee","ios":"levelo://app?vid=4ff4d6b7-aae4-4b6c-9403-50d9610115ee"},"vehicle_type_id":"4","last_reported":1701965354,"current_range_meters":25600,"station_id":"ce4bhgp2rcd13ifvqfc0","pricing_plan_id":"free"},{"bike_id":"a1d09714-814c-4539-82cb-88be009cc6a0","system_id":"levelo_inurba_marseille","lat":43.26186,"lon":5.37444,"is_reserved":false,"is_disabled":false,"rental_uris":{"android":"levelo://app?vid=a1d09714-814c-4539-82cb-88be009cc6a0","ios":"levelo://app?vid=a1d09714-814c-4539-82cb-88be009cc6a0"},"vehicle_type_id":"4","last_reported":1701965354,"current_range_meters":26000,"station_id":"ce4bhgp2rcd13ifvqfc0","pricing_plan_id":"free"},{"bike_id":"d666e0f6-a04e-4950-ab19-7179582306eb","system_id":"levelo_inurba_marseille","lat":43.261858,"lon":5.374472,"is_reserved":false,"is_disabled":false,"rental_uris":{"android":"levelo://app?vid=d666e0f6-a04e-4950-ab19-7179582306eb","ios":"levelo://app?vid=d666e0f6-a04e-4950-ab19-7179582306eb"},"vehicle_type_id":"4","last_reported":1701965354,"current_range_meters":29200,"station_id":"ce4bhgp2rcd13ifvqfc0","pricing_plan_id":"free"},{"bike_id":"132a56eb-1e67-44ed-8ed0-e860eb83cdc3","system_id":"levelo_inurba_marseille","lat":43.26182,"lon":5.37446,"is_reserved":false,"is_disabled":false,"rental_uris":{"android":"levelo://app?vid=132a56eb-1e67-44ed-8ed0-e860eb83cdc3","ios":"levelo://app?vid=132a56eb-1e67-44ed-8ed0-e860eb83cdc3"},"vehicle_type_id":"4","last_reported":1701965354,"current_range_meters":29600,"station_id":"ce4bhgp2rcd13ifvqfc0","pricing_plan_id":"free"},{"bike_id":"26d41f51-f5a0-4f69-beca-46f0d64df0a6","system_id":"levelo_inurba_marseille","lat":43.317104,"lon":5.436818,"is_reserved":false,"is_disabled":false,"rental_uris":{"android":"levelo://app?vid=26d41f51-f5a0-4f69-beca-46f0d64df0a6","ios":"levelo://app?vid=26d41f51-f5a0-4f69-beca-46f0d64df0a6"},"vehicle_type_id":"4","last_reported":1701965354,"current_range_meters":2800,"station_id":"ce4bhp92rcd13ifvqhcg","pricing_plan_id":"free"},{"bike_id":"a5125499-1e18-4415-bbe5-5ab936f64e91","system_id":"levelo_inurba_marseille","lat":43.317104,"lon":5.436818,"is_reserved":false,"is_disabled":false,"rental_uris":{"android":"levelo://app?vid=a5125499-1e18-4415-bbe5-5ab936f64e91","ios":"levelo://app?vid=a5125499-1e18-4415-bbe5-5ab936f64e91"},"vehicle_type_id":"4","last_reported":1701965354,"current_range_meters":31200,"station_id":"ce4bhp92rcd13ifvqhcg","pricing_plan_id":"free"},{"bike_id":"bf83d38a-55dd-4793-9b1d-35f0d91c4a37","system_id":"levelo_inurba_marseille","lat":43.317104,"lon":5.436818,"is_reserved":false,"is_disabled":false,"rental_uris":{"android":"levelo://app?vid=bf83d38a-55dd-4793-9b1d-35f0d91c4a37","ios":"levelo://app?vid=bf83d38a-55dd-4793-9b1d-35f0d91c4a37"},"vehicle_type_id":"4","last_reported":1701965354,"current_range_meters":7200,"station_id":"ce4bhp92rcd13ifvqhcg","pricing_plan_id":"free"},{"bike_id":"8471752e-201c-4af1-a649-5460938d4a5d","system_id":"levelo_inurba_marseille","lat":43.26202,"lon":5.379299,"is_reserved":false,"is_disabled":false,"rental_uris":{"android":"levelo://app?vid=8471752e-201c-4af1-a649-5460938d4a5d","ios":"levelo://app?vid=8471752e-201c-4af1-a649-5460938d4a5d"},"vehicle_type_id":"4","last_reported":1701965354,"current_range_meters":17200,"station_id":"ce4bhjp2rcd13ifvqg90","pricing_plan_id":"free"},{"bike_id":"5f4b8111-4912-4db6-acf7-d1017b5928ce","system_id":"levelo_inurba_marseille","lat":43.271368,"lon":5.40928,"is_reserved":false,"is_disabled":false,"rental_uris":{"android":"levelo://app?vid=5f4b8111-4912-4db6-acf7-d1017b5928ce","ios":"levelo://app?vid=5f4b8111-4912-4db6-acf7-d1017b5928ce"},"vehicle_type_id":"4","last_reported":1701965354,"current_range_meters":16400,"station_id":"ce4bhl12rcd13ifvqgf0","pricing_plan_id":"free"},{"bike_id":"3f6bee2a-73cf-4e60-a770-59f23b37fddf","system_id":"levelo_inurba_marseille","lat":43.271388,"lon":5.409269,"is_reserved":false,"is_disabled":false,"rental_uris":{"android":"levelo://app?vid=3f6bee2a-73cf-4e60-a770-59f23b37fddf","ios":"levelo://app?vid=3f6bee2a-73cf-4e60-a770-59f23b37fddf"},"vehicle_type_id":"4","last_reported":1701965354,"current_range_meters":23600,"station_id":"ce4bhl12rcd13ifvqgf0","pricing_plan_id":"free"},{"bike_id":"c1c633b1-949d-4123-8171-c197a14e353e","system_id":"levelo_inurba_marseille","lat":43.27172,"lon":5.40999,"is_reserved":false,"is_disabled":false,"rental_uris":{"android":"levelo://app?vid=c1c633b1-949d-4123-8171-c197a14e353e","ios":"levelo://app?vid=c1c633b1-949d-4123-8171-c197a14e353e"},"vehicle_type_id":"4","last_reported":1701965354,"current_range_meters":10000,"station_id":"ce4bhl12rcd13ifvqgf0","pricing_plan_id":"free"},{"bike_id":"193733e5-74ea-4942-b8f5-05ea996177ad","system_id":"levelo_inurba_marseille","lat":43.26806,"lon":5.40274,"is_reserved":false,"is_disabled":false,"rental_uris":{"android":"levelo://app?vid=193733e5-74ea-4942-b8f5-05ea996177ad","ios":"levelo://app?vid=193733e5-74ea-4942-b8f5-05ea996177ad"},"vehicle_type_id":"4","last_reported":1701965354,"current_range_meters":26800,"station_id":"","pricing_plan_id":"free"},{"bike_id":"4f68f183-a711-4386-a731-e8ea8e2f115e","system_id":"levelo_inurba_marseille","lat":43.298768,"lon":5.43643,"is_reserved":false,"is_disabled":false,"rental_uris":{"android":"levelo://app?vid=4f68f183-a711-4386-a731-e8ea8e2f115e","ios":"levelo://app?vid=4f68f183-a711-4386-a731-e8ea8e2f115e"},"vehicle_type_id":"4","last_reported":1701965354,"current_range_meters":26800,"station_id":"ce4bhpp2rcd13ifvqhfg","pricing_plan_id":"free"},{"bike_id":"83e2018e-7127-4415-8bbf-2e347a9c6750","system_id":"levelo_inurba_marseille","lat":43.29892,"lon":5.43664,"is_reserved":false,"is_disabled":false,"rental_uris":{"android":"levelo://app?vid=83e2018e-7127-4415-8bbf-2e347a9c6750","ios":"levelo://app?vid=83e2018e-7127-4415-8bbf-2e347a9c6750"},"vehicle_type_id":"4","last_reported":1701965354,"current_range_meters":7600,"station_id":"ce4bhpp2rcd13ifvqhfg","pricing_plan_id":"free"},{"bike_id":"0a3af9fe-4495-4765-a364-07e789cdace4","system_id":"levelo_inurba_marseille","lat":43.298768,"lon":5.43643,"is_reserved":false,"is_disabled":false,"rental_uris":{"android":"levelo://app?vid=0a3af9fe-4495-4765-a364-07e789cdace4","ios":"levelo://app?vid=0a3af9fe-4495-4765-a364-07e789cdace4"},"vehicle_type_id":"4","last_reported":1701965354,"current_range_meters":24800,"station_id":"ce4bhpp2rcd13ifvqhfg","pricing_plan_id":"free"},{"bike_id":"3df765db-4093-4d77-9af9-b85f29ca32ec","system_id":"levelo_inurba_marseille","lat":43.281548,"lon":5.42643,"is_reserved":false,"is_disabled":false,"rental_uris":{"android":"levelo://app?vid=3df765db-4093-4d77-9af9-b85f29ca32ec","ios":"levelo://app?vid=3df765db-4093-4d77-9af9-b85f29ca32ec"},"vehicle_type_id":"4","last_reported":1701965354,"current_range_meters":30000,"station_id":"ce4bhnh2rcd13ifvqgug","pricing_plan_id":"free"},{"bike_id":"69101cc6-bf80-4640-9a9d-07d2ed7f1ed3","system_id":"levelo_inurba_marseille","lat":43.281548,"lon":5.42643,"is_reserved":false,"is_disabled":false,"rental_uris":{"android":"levelo://app?vid=69101cc6-bf80-4640-9a9d-07d2ed7f1ed3","ios":"levelo://app?vid=69101cc6-bf80-4640-9a9d-07d2ed7f1ed3"},"vehicle_type_id":"4","last_reported":1701965354,"current_range_meters":5200,"station_id":"ce4bhnh2rcd13ifvqgug","pricing_plan_id":"free"},{"bike_id":"b13d38ce-5f53-4fd8-a1c9-e1f1d0d516e7","system_id":"levelo_inurba_marseille","lat":43.281548,"lon":5.42643,"is_reserved":false,"is_disabled":false,"rental_uris":{"android":"levelo://app?vid=b13d38ce-5f53-4fd8-a1c9-e1f1d0d516e7","ios":"levelo://app?vid=b13d38ce-5f53-4fd8-a1c9-e1f1d0d516e7"},"vehicle_type_id":"4","last_reported":1701965354,"current_range_meters":20400,"station_id":"ce4bhnh2rcd13ifvqgug","pricing_plan_id":"free"},{"bike_id":"1751bdf2-66b5-4c3a-9691-b9490e972b61","system_id":"levelo_inurba_marseille","lat":43.281548,"lon":5.42643,"is_reserved":false,"is_disabled":false,"rental_uris":{"android":"levelo://app?vid=1751bdf2-66b5-4c3a-9691-b9490e972b61","ios":"levelo://app?vid=1751bdf2-66b5-4c3a-9691-b9490e972b61"},"vehicle_type_id":"4","last_reported":1701965354,"current_range_meters":22800,"station_id":"ce4bhnh2rcd13ifvqgug","pricing_plan_id":"free"},{"bike_id":"87b7c900-4fdf-402b-9a4f-1db2c554e37f","system_id":"levelo_inurba_marseille","lat":43.281548,"lon":5.42643,"is_reserved":false,"is_disabled":false,"rental_uris":{"android":"levelo://app?vid=87b7c900-4fdf-402b-9a4f-1db2c554e37f","ios":"levelo://app?vid=87b7c900-4fdf-402b-9a4f-1db2c554e37f"},"vehicle_type_id":"4","last_reported":1701965354,"current_range_meters":6800,"station_id":"ce4bhnh2rcd13ifvqgug","pricing_plan_id":"free"},{"bike_id":"4eb3ac54-332a-43bb-be02-0944594a50ab","system_id":"levelo_inurba_marseille","lat":43.274099,"lon":5.394019,"is_reserved":false,"is_disabled":false,"rental_uris":{"android":"levelo://app?vid=4eb3ac54-332a-43bb-be02-0944594a50ab","ios":"levelo://app?vid=4eb3ac54-332a-43bb-be02-0944594a50ab"},"vehicle_type_id":"4","last_reported":1701965354,"current_range_meters":24400,"station_id":"ce4bhdp2rcd13ifvqf20","pricing_plan_id":"free"},{"bike_id":"3d228cee-8a03-4247-9850-97f4cc1f9c59","system_id":"levelo_inurba_marseille","lat":43.2607,"lon":5.393983,"is_reserved":false,"is_disabled":false,"rental_uris":{"android":"levelo://app?vid=3d228cee-8a03-4247-9850-97f4cc1f9c59","ios":"levelo://app?vid=3d228cee-8a03-4247-9850-97f4cc1f9c59"},"vehicle_type_id":"4","last_reported":1701965354,"current_range_meters":0,"station_id":"ce4bhh92rcd13ifvqfj0","pricing_plan_id":"free"},{"bike_id":"a22a557d-8eb1-485b-9d4b-7b2ac622e353","system_id":"levelo_inurba_marseille","lat":43.25578,"lon":5.38229,"is_reserved":false,"is_disabled":false,"rental_uris":{"android":"levelo://app?vid=a22a557d-8eb1-485b-9d4b-7b2ac622e353","ios":"levelo://app?vid=a22a557d-8eb1-485b-9d4b-7b2ac622e353"},"vehicle_type_id":"4","last_reported":1701965354,"current_range_meters":22800,"station_id":"ce4bhih2rcd13ifvqfs0","pricing_plan_id":"free"},{"bike_id":"2e6a6de0-7849-48d8-9475-224f66df9cc8","system_id":"levelo_inurba_marseille","lat":43.2557,"lon":5.38226,"is_reserved":false,"is_disabled":false,"rental_uris":{"android":"levelo://app?vid=2e6a6de0-7849-48d8-9475-224f66df9cc8","ios":"levelo://app?vid=2e6a6de0-7849-48d8-9475-224f66df9cc8"},"vehicle_type_id":"4","last_reported":1701965354,"current_range_meters":27600,"station_id":"ce4bhih2rcd13ifvqfs0","pricing_plan_id":"free"},{"bike_id":"7a21e5ef-01dc-4a1f-865a-4f3c002b5f8d","system_id":"levelo_inurba_marseille","lat":43.254947,"lon":5.376454,"is_reserved":false,"is_disabled":false,"rental_uris":{"android":"levelo://app?vid=7a21e5ef-01dc-4a1f-865a-4f3c002b5f8d","ios":"levelo://app?vid=7a21e5ef-01dc-4a1f-865a-4f3c002b5f8d"},"vehicle_type_id":"4","last_reported":1701965354,"current_range_meters":23600,"station_id":"ce4bhh12rcd13ifvqff0","pricing_plan_id":"free"},{"bike_id":"8fa5a27f-5900-433f-9b02-45b2a375450c","system_id":"levelo_inurba_marseille","lat":43.254947,"lon":5.376454,"is_reserved":false,"is_disabled":false,"rental_uris":{"android":"levelo://app?vid=8fa5a27f-5900-433f-9b02-45b2a375450c","ios":"levelo://app?vid=8fa5a27f-5900-433f-9b02-45b2a375450c"},"vehicle_type_id":"4","last_reported":1701965354,"current_range_meters":13200,"station_id":"ce4bhh12rcd13ifvqff0","pricing_plan_id":"free"},{"bike_id":"a73ba760-c49c-4d7a-821b-fb68d8c89ba8","system_id":"levelo_inurba_marseille","lat":43.270721,"lon":5.422764,"is_reserved":false,"is_disabled":false,"rental_uris":{"android":"levelo://app?vid=a73ba760-c49c-4d7a-821b-fb68d8c89ba8","ios":"levelo://app?vid=a73ba760-c49c-4d7a-821b-fb68d8c89ba8"},"vehicle_type_id":"4","last_reported":1701965354,"current_range_meters":22000,"station_id":"ce4bhk92rcd13ifvqgb0","pricing_plan_id":"free"},{"bike_id":"5f1d7e7a-fe24-4c6e-95a5-5d1a3e4af3db","system_id":"levelo_inurba_marseille","lat":43.25933,"lon":5.40917,"is_reserved":false,"is_disabled":false,"rental_uris":{"android":"levelo://app?vid=5f1d7e7a-fe24-4c6e-95a5-5d1a3e4af3db","ios":"levelo://app?vid=5f1d7e7a-fe24-4c6e-95a5-5d1a3e4af3db"},"vehicle_type_id":"4","last_reported":1701965354,"current_range_meters":18800,"station_id":"ce4bhm92rcd13ifvqglg","pricing_plan_id":"free"},{"bike_id":"e3a41aa4-990b-48bf-9f53-69c7265c2e7c","system_id":"levelo_inurba_marseille","lat":43.25721,"lon":5.41115,"is_reserved":false,"is_disabled":false,"rental_uris":{"android":"levelo://app?vid=e3a41aa4-990b-48bf-9f53-69c7265c2e7c","ios":"levelo://app?vid=e3a41aa4-990b-48bf-9f53-69c7265c2e7c"},"vehicle_type_id":"4","last_reported":1701965354,"current_range_meters":27200,"station_id":"","pricing_plan_id":"free"},{"bike_id":"dfbbe508-e82f-4b9b-8235-50101894da4b","system_id":"levelo_inurba_marseille","lat":43.25717,"lon":5.41119,"is_reserved":false,"is_disabled":false,"rental_uris":{"android":"levelo://app?vid=dfbbe508-e82f-4b9b-8235-50101894da4b","ios":"levelo://app?vid=dfbbe508-e82f-4b9b-8235-50101894da4b"},"vehicle_type_id":"4","last_reported":1701965354,"current_range_meters":15600,"station_id":"ce4bhkp2rcd13ifvqgd0","pricing_plan_id":"free"},{"bike_id":"5f0e4eb0-0bd8-442b-b131-910ad31540be","system_id":"levelo_inurba_marseille","lat":43.24693,"lon":5.382096,"is_reserved":false,"is_disabled":false,"rental_uris":{"android":"levelo://app?vid=5f0e4eb0-0bd8-442b-b131-910ad31540be","ios":"levelo://app?vid=5f0e4eb0-0bd8-442b-b131-910ad31540be"},"vehicle_type_id":"4","last_reported":1701965354,"current_range_meters":30800,"station_id":"ce4bhih2rcd13ifvqfr0","pricing_plan_id":"free"},{"bike_id":"2337d007-222b-47d8-aab7-f930b16db77f","system_id":"levelo_inurba_marseille","lat":43.24664,"lon":5.381641,"is_reserved":false,"is_disabled":false,"rental_uris":{"android":"levelo://app?vid=2337d007-222b-47d8-aab7-f930b16db77f","ios":"levelo://app?vid=2337d007-222b-47d8-aab7-f930b16db77f"},"vehicle_type_id":"4","last_reported":1701965354,"current_range_meters":30400,"station_id":"ce4bhih2rcd13ifvqfr0","pricing_plan_id":"free"},{"bike_id":"ca43b863-6d89-4fe6-b40f-747497e66e43","system_id":"levelo_inurba_marseille","lat":43.24184,"lon":5.3972,"is_reserved":false,"is_disabled":false,"rental_uris":{"android":"levelo://app?vid=ca43b863-6d89-4fe6-b40f-747497e66e43","ios":"levelo://app?vid=ca43b863-6d89-4fe6-b40f-747497e66e43"},"vehicle_type_id":"4","last_reported":1701965354,"current_range_meters":2400,"station_id":"ce4bhn12rcd13ifvqgpg","pricing_plan_id":"free"},{"bike_id":"dd63cba7-f29f-461a-b998-a819cd38bd76","system_id":"levelo_inurba_marseille","lat":43.241782,"lon":5.397264,"is_reserved":false,"is_disabled":false,"rental_uris":{"android":"levelo://app?vid=dd63cba7-f29f-461a-b998-a819cd38bd76","ios":"levelo://app?vid=dd63cba7-f29f-461a-b998-a819cd38bd76"},"vehicle_type_id":"4","last_reported":1701965354,"current_range_meters":16800,"station_id":"ce4bhn12rcd13ifvqgpg","pricing_plan_id":"free"},{"bike_id":"0d76db8b-53e5-4638-b28d-b6c496e985a9","system_id":"levelo_inurba_marseille","lat":43.24181,"lon":5.39727,"is_reserved":false,"is_disabled":false,"rental_uris":{"android":"levelo://app?vid=0d76db8b-53e5-4638-b28d-b6c496e985a9","ios":"levelo://app?vid=0d76db8b-53e5-4638-b28d-b6c496e985a9"},"vehicle_type_id":"4","last_reported":1701965354,"current_range_meters":19200,"station_id":"ce4bhn12rcd13ifvqgpg","pricing_plan_id":"free"}]}}