{"last_updated":1711318077,"ttl":30,"version":"2.2","data":{"bikes":[{"bike_id":"e092e207-b0db-458d-bb27-a2ed46331867","system_id":"levelo_inurba_marseille","lat":43.309076,"lon":5.368465,"is_reserved":false,"is_disabled":false,"rental_uris":{"android":"levelo://app?vid=e092e207-b0db-458d-bb27-a2ed46331867","ios":"levelo://app?vid=e092e207-b0db-458d-bb27-a2ed46331867"},"vehicle_type_id":"4","last_reported":1711318077,"current_range_meters":0,"station_id":"ce4bgn92rcd13ifvqbvg","pricing_plan_id":"cebpf4jnsgd1na2vs0mg"},{"bike_id":"77bf500a-ad90-48ff-a39f-2e1541bf658e","system_id":"levelo_inurba_marseille","lat":43.314811,"lon":5.373103,"is_reserved":false,"is_disabled":false,"rental_uris":{"android":"levelo://app?vid=77bf500a-ad90-48ff-a39f-2e1541bf658e","ios":"levelo://app?vid=77bf500a-ad90-48ff-a39f-2e1541bf658e"},"vehicle_type_id":"4","last_reported":1711318077,"current_range_meters":4400,"station_id":"ce4bgt12rcd13ifvqcd0","pricing_plan_id":"cebpf4jnsgd1na2vs0mg"},{"bike_id":"927fe6c4-2adb-4bde-83f9-d55dcd304e7c","system_id":"levelo_inurba_marseille","lat":43.31484,"lon":5.37305,"is_reserved":false,"is_disabled":false,"rental_uris":{"android":"levelo://app?vid=927fe6c4-2adb-4bde-83f9-d55dcd304e7c","ios":"levelo://app?vid=927fe6c4-2adb-4bde-83f9-d55dcd304e7c"},"vehicle_type_id":"4","last_reported":1711318077,"current_range_meters":0,"station_id":"ce4bgt12rcd13ifvqcd0","pricing_plan_id":"cebpf4jnsgd1na2vs0mg"},{"bike_id":"26fc14ca-8d65-4ecd-afd7-0a1e28d1e3f8","system_id":"levelo_inurba_marseille","lat":43.314811,"lon":5.373103,"is_reserved":false,"is_disabled":false,"rental_uris":{"android":"levelo://app?vid=26fc14ca-8d65-4ecd-afd7-0a1e28d1e3f8","ios":"levelo://app?vid=26fc14ca-8d65-4ecd-afd7-0a1e28d1e3f8"},"vehicle_type_id":"4","last_reported":1711318077,"current_range_meters":7600,"station_id":"ce4bgt12rcd13ifvqcd0","pricing_plan_id":"cebpf4jnsgd1na2vs0mg"},{"bike_id":"360c19ec-5260-4156-83e2-0518c87891ee","system_id":"levelo_inurba_marseille","lat":43.314811,"lon":5.373104,"is_reserved":false,"is_disabled":false,"rental_uris":{"android":"levelo://app?vid=360c19ec-5260-4156-83e2-0518c87891ee","ios":"levelo://app?vid=360c19ec-5260-4156-83e2-0518c87891ee"},"vehicle_type_id":"4","last_reported":1711318077,"current_range_meters":4800,"station_id":"ce4bgt12rcd13ifvqcd0","pricing_plan_id":"cebpf4jnsgd1na2vs0mg"},{"bike_id":"80eec124-62db-49dd-8eba-c92281aba383","system_id":"levelo_inurba_marseille","lat":43.309039,"lon":5.371797,"is_reserved":false,"is_disabled":false,"rental_uris":{"android":"levelo://app?vid=80eec124-62db-49dd-8eba-c92281aba383","ios":"levelo://app?vid=80eec124-62db-49dd-8eba-c92281aba383"},"vehicle_type_id":"4","last_reported":1711318077,"current_range_meters":6400,"station_id":"ce4bguh2rcd13ifvqckg","pricing_plan_id":"cebpf4jnsgd1na2vs0mg"},{"bike_id":"7e0695be-d6f8-4437-ab27-6e7a47d32ea4","system_id":"levelo_inurba_marseille","lat":43.309039,"lon":5.371797,"is_reserved":false,"is_disabled":false,"rental_uris":{"android":"levelo://app?vid=7e0695be-d6f8-4437-ab27-6e7a47d32ea4","ios":"levelo://app?vid=7e0695be-d6f8-4437-ab27-6e7a47d32ea4"},"vehicle_type_id":"4","last_reported":1711318077,"current_range_meters":20000,"station_id":"ce4bguh2rcd13ifvqckg","pricing_plan_id":"cebpf4jnsgd1na2vs0mg"},{"bike_id":"d8fa94b9-4926-4e4c-ba44-02e01e14379d","system_id":"levelo_inurba_marseille","lat":43.31431,"lon":5.37427,"is_reserved":false,"is_disabled":false,"rental_uris":{"android":"levelo://app?vid=d8fa94b9-4926-4e4c-ba44-02e01e14379d","ios":"levelo://app?vid=d8fa94b9-4926-4e4c-ba44-02e01e14379d"},"vehicle_type_id":"4","last_reported":1711318077,"current_range_meters":11200,"station_id":"","pricing_plan_id":"cebpf4jnsgd1na2vs0mg"},{"bike_id":"4f006df7-4021-4894-a978-e7fbd68140e6","system_id":"levelo_inurba_marseille","lat":43.313718,"lon":5.377009,"is_reserved":false,"is_disabled":false,"rental_uris":{"android":"levelo://app?vid=4f006df7-4021-4894-a978-e7fbd68140e6","ios":"levelo://app?vid=4f006df7-4021-4894-a978-e7fbd68140e6"},"vehicle_type_id":"4","last_reported":1711318077,"current_range_meters":6400,"station_id":"","pricing_plan_id":"cebpf4jnsgd1na2vs0mg"},{"bike_id":"bbc2696f-9d38-4e37-bd21-2b901ec6e508","system_id":"levelo_inurba_marseille","lat":43.305368,"lon":5.367343,"is_reserved":false,"is_disabled":false,"rental_uris":{"android":"levelo://app?vid=bbc2696f-9d38-4e37-bd21-2b901ec6e508","ios":"levelo://app?vid=bbc2696f-9d38-4e37-bd21-2b901ec6e508"},"vehicle_type_id":"4","last_reported":1711318077,"current_range_meters":6800,"station_id":"ce4bgrp2rcd13ifvqc9g","pricing_plan_id":"cebpf4jnsgd1na2vs0mg"},{"bike_id":"44721306-1a87-4c45-be43-c82077ea7be5","system_id":"levelo_inurba_marseille","lat":43.305537,"lon":5.36973,"is_reserved":false,"is_disabled":false,"rental_uris":{"android":"levelo://app?vid=44721306-1a87-4c45-be43-c82077ea7be5","ios":"levelo://app?vid=44721306-1a87-4c45-be43-c82077ea7be5"},"vehicle_type_id":"4","last_reported":1711318077,"current_range_meters":0,"station_id":"","pricing_plan_id":"cebpf4jnsgd1na2vs0mg"},{"bike_id":"bec96b44-684c-4a46-b659-18fe43912205","system_id":"levelo_inurba_marseille","lat":43.305989,"lon":5.37225,"is_reserved":false,"is_disabled":false,"rental_uris":{"android":"levelo://app?vid=bec96b44-684c-4a46-b659-18fe43912205","ios":"levelo://app?vid=bec96b44-684c-4a46-b659-18fe43912205"},"vehicle_type_id":"4","last_reported":1711318077,"current_range_meters":7600,"station_id":"ce4bgqh2rcd13ifvqc4g","pricing_plan_id":"cebpf4jnsgd1na2vs0mg"},{"bike_id":"baf7d100-ecda-43ff-bf79-04b26554e095","system_id":"levelo_inurba_marseille","lat":43.311125,"lon":5.377624,"is_reserved":false,"is_disabled":false,"rental_uris":{"android":"levelo://app?vid=baf7d100-ecda-43ff-bf79-04b26554e095","ios":"levelo://app?vid=baf7d100-ecda-43ff-bf79-04b26554e095"},"vehicle_type_id":"4","last_reported":1711318077,"current_range_meters":15600,"station_id":"ce4bgt92rcd13ifvqcg0","pricing_plan_id":"cebpf4jnsgd1na2vs0mg"},{"bike_id":"f8ecb559-939a-41f2-a843-b61bff54163b","system_id":"levelo_inurba_marseille","lat":43.311125,"lon":5.377624,"is_reserved":false,"is_disabled":false,"rental_uris":{"android":"levelo://app?vid=f8ecb559-939a-41f2-a843-b61bff54163b","ios":"levelo://app?vid=f8ecb559-939a-41f2-a843-b61bff54163b"},"vehicle_type_id":"4","last_reported":1711318077,"current_range_meters":12800,"station_id":"ce4bgt92rcd13ifvqcg0","pricing_plan_id":"cebpf4jnsgd1na2vs0mg"},{"bike_id":"0ec07dfe-0dfe-4a14-9abd-6ebef2cc0e53","system_id":"levelo_inurba_marseille","lat":43.311125,"lon":5.377624,"is_reserved":false,"is_disabled":false,"rental_uris":{"android":"levelo://app?vid=0ec07dfe-0dfe-4a14-9abd-6ebef2cc0e53","ios":"levelo://app?vid=0ec07dfe-0dfe-4a14-9abd-6ebef2cc0e53"},"vehicle_type_id":"4","last_reported":1711318077,"current_range_meters":31600,"station_id":"ce4bgt92rcd13ifvqcg0","pricing_plan_id":"cebpf4jnsgd1na2vs0mg"},{"bike_id":"dfa5cea6-054a-4dcb-968d-7117c1d5a31a","system_id":"levelo_inurba_marseille","lat":43.311125,"lon":5.377624,"is_reserved":false,"is_disabled":false,"rental_uris":{"android":"levelo://app?vid=dfa5cea6-054a-4dcb-968d-7117c1d5a31a","ios":"levelo://app?vid=dfa5cea6-054a-4dcb-968d-7117c1d5a31a"},"vehicle_type_id":"4","last_reported":1711318077,"current_range_meters":13200,"station_id":"ce4bgt92rcd13ifvqcg0","pricing_plan_id":"cebpf4jnsgd1na2vs0mg"},{"bike_id":"13987250-71d6-45ff-88b0-ae739c954815","system_id":"levelo_inurba_marseille","lat":43.311125,"lon":5.377624,"is_reserved":false,"is_disabled":false,"rental_uris":{"android":"levelo://app?vid=13987250-71d6-45ff-88b0-ae739c954815","ios":"levelo://app?vid=13987250-71d6-45ff-88b0-ae739c954815"},"vehicle_type_id":"4","last_reported":1711318077,"current_range_meters":14400,"station_id":"ce4bgt92rcd13ifvqcg0","pricing_plan_id":"cebpf4jnsgd1na2vs0mg"},{"bike_id":"0195e764-f7a9-4a20-9f96-ce6298e16a4d","system_id":"levelo_inurba_marseille","lat":43.31115,"lon":5.37783,"is_reserved":false,"is_disabled":false,"rental_uris":{"android":"levelo://app?vid=0195e764-f7a9-4a20-9f96-ce6298e16a4d","ios":"levelo://app?vid=0195e764-f7a9-4a20-9f96-ce6298e16a4d"},"vehicle_type_id":"4","last_reported":1711318077,"current_range_meters":4000,"station_id":"","pricing_plan_id":"cebpf4jnsgd1na2vs0mg"},{"bike_id":"d9710817-9b78-4c39-b029-ffaf370d0ca6","system_id":"levelo_inurba_marseille","lat":43.311125,"lon":5.377624,"is_reserved":false,"is_disabled":false,"rental_uris":{"android":"levelo://app?vid=d9710817-9b78-4c39-b029-ffaf370d0ca6","ios":"levelo://app?vid=d9710817-9b78-4c39-b029-ffaf370d0ca6"},"vehicle_type_id":"4","last_reported":1711318077,"current_range_meters":14000,"station_id":"ce4bgt92rcd13ifvqcg0","pricing_plan_id":"cebpf4jnsgd1na2vs0mg"},{"bike_id":"ca79c3fc-c0b1-4666-888e-edb18b1b4c0f","system_id":"levelo_inurba_marseille","lat":43.307945,"lon":5.376487,"is_reserved":false,"is_disabled":false,"rental_uris":{"android":"levelo://app?vid=ca79c3fc-c0b1-4666-888e-edb18b1b4c0f","ios":"levelo://app?vid=ca79c3fc-c0b1-4666-888e-edb18b1b4c0f"},"vehicle_type_id":"4","last_reported":1711318077,"current_range_meters":18000,"station_id":"ce4bgv92rcd13ifvqcq0","pricing_plan_id":"cebpf4jnsgd1na2vs0mg"},{"bike_id":"9185e00e-cca7-4667-bc9e-e845acd3e465","system_id":"levelo_inurba_marseille","lat":43.307945,"lon":5.376487,"is_reserved":false,"is_disabled":false,"rental_uris":{"android":"levelo://app?vid=9185e00e-cca7-4667-bc9e-e845acd3e465","ios":"levelo://app?vid=9185e00e-cca7-4667-bc9e-e845acd3e465"},"vehicle_type_id":"4","last_reported":1711318077,"current_range_meters":11200,"station_id":"ce4bgv92rcd13ifvqcq0","pricing_plan_id":"cebpf4jnsgd1na2vs0mg"},{"bike_id":"b916e65d-9470-4670-a63f-7acc05595928","system_id":"levelo_inurba_marseille","lat":43.31943,"lon":5.37437,"is_reserved":false,"is_disabled":false,"rental_uris":{"android":"levelo://app?vid=b916e65d-9470-4670-a63f-7acc05595928","ios":"levelo://app?vid=b916e65d-9470-4670-a63f-7acc05595928"},"vehicle_type_id":"4","last_reported":1711318077,"current_range_meters":20000,"station_id":"","pricing_plan_id":"cebpf4jnsgd1na2vs0mg"},{"bike_id":"61bbc9f3-e131-4b5a-b222-5d71425ea4ea","system_id":"levelo_inurba_marseille","lat":43.317075,"lon":5.377367,"is_reserved":false,"is_disabled":false,"rental_uris":{"android":"levelo://app?vid=61bbc9f3-e131-4b5a-b222-5d71425ea4ea","ios":"levelo://app?vid=61bbc9f3-e131-4b5a-b222-5d71425ea4ea"},"vehicle_type_id":"4","last_reported":1711318077,"current_range_meters":2000,"station_id":"ce4bgth2rcd13ifvqch0","pricing_plan_id":"cebpf4jnsgd1na2vs0mg"},{"bike_id":"667ee725-54ef-4a32-afbc-6809523fbc2b","system_id":"levelo_inurba_marseille","lat":43.317075,"lon":5.377367,"is_reserved":false,"is_disabled":false,"rental_uris":{"android":"levelo://app?vid=667ee725-54ef-4a32-afbc-6809523fbc2b","ios":"levelo://app?vid=667ee725-54ef-4a32-afbc-6809523fbc2b"},"vehicle_type_id":"4","last_reported":1711318077,"current_range_meters":27200,"station_id":"ce4bgth2rcd13ifvqch0","pricing_plan_id":"cebpf4jnsgd1na2vs0mg"},{"bike_id":"719acdf2-42cc-4939-a7df-b31e3f8811fd","system_id":"levelo_inurba_marseille","lat":43.317075,"lon":5.377367,"is_reserved":false,"is_disabled":false,"rental_uris":{"android":"levelo://app?vid=719acdf2-42cc-4939-a7df-b31e3f8811fd","ios":"levelo://app?vid=719acdf2-42cc-4939-a7df-b31e3f8811fd"},"vehicle_type_id":"4","last_reported":1711318077,"current_range_meters":14000,"station_id":"ce4bgth2rcd13ifvqch0","pricing_plan_id":"cebpf4jnsgd1na2vs0mg"},{"bike_id":"238ecaa1-31b2-4d16-b3bb-7e6befbf3378","system_id":"levelo_inurba_marseille","lat":43.31374,"lon":5.37941,"is_reserved":false,"is_disabled":false,"rental_uris":{"android":"levelo://app?vid=238ecaa1-31b2-4d16-b3bb-7e6befbf3378","ios":"levelo://app?vid=238ecaa1-31b2-4d16-b3bb-7e6befbf3378"},"vehicle_type_id":"4","last_reported":1711318077,"current_range_meters":16400,"station_id":"","pricing_plan_id":"cebpf4jnsgd1na2vs0mg"},{"bike_id":"0c090971-c985-462e-a011-be74508a8414","system_id":"levelo_inurba_marseille","lat":43.315289,"lon":5.380349,"is_reserved":false,"is_disabled":false,"rental_uris":{"android":"levelo://app?vid=0c090971-c985-462e-a011-be74508a8414","ios":"levelo://app?vid=0c090971-c985-462e-a011-be74508a8414"},"vehicle_type_id":"4","last_reported":1711318077,"current_range_meters":24000,"station_id":"ce4bhsp2rcd13ifvqi50","pricing_plan_id":"cebpf4jnsgd1na2vs0mg"},{"bike_id":"47f1d9c1-d937-439e-b1e6-f9b95ea4d2ca","system_id":"levelo_inurba_marseille","lat":43.315328,"lon":5.380408,"is_reserved":false,"is_disabled":false,"rental_uris":{"android":"levelo://app?vid=47f1d9c1-d937-439e-b1e6-f9b95ea4d2ca","ios":"levelo://app?vid=47f1d9c1-d937-439e-b1e6-f9b95ea4d2ca"},"vehicle_type_id":"4","last_reported":1711318077,"current_range_meters":18000,"station_id":"ce4bhsp2rcd13ifvqi50","pricing_plan_id":"cebpf4jnsgd1na2vs0mg"},{"bike_id":"02f93d4e-1997-4aa4-8efc-3c261ebf1d2d","system_id":"levelo_inurba_marseille","lat":43.31533,"lon":5.38043,"is_reserved":false,"is_disabled":false,"rental_uris":{"android":"levelo://app?vid=02f93d4e-1997-4aa4-8efc-3c261ebf1d2d","ios":"levelo://app?vid=02f93d4e-1997-4aa4-8efc-3c261ebf1d2d"},"vehicle_type_id":"4","last_reported":1711318077,"current_range_meters":26400,"station_id":"ce4bhsp2rcd13ifvqi50","pricing_plan_id":"cebpf4jnsgd1na2vs0mg"},{"bike_id":"95d90618-068e-443c-a87f-7cc064d316b7","system_id":"levelo_inurba_marseille","lat":43.301939,"lon":5.366286,"is_reserved":false,"is_disabled":false,"rental_uris":{"android":"levelo://app?vid=95d90618-068e-443c-a87f-7cc064d316b7","ios":"levelo://app?vid=95d90618-068e-443c-a87f-7cc064d316b7"},"vehicle_type_id":"4","last_reported":1711318077,"current_range_meters":0,"station_id":"ce4bgrh2rcd13ifvqc8g","pricing_plan_id":"cebpf4jnsgd1na2vs0mg"},{"bike_id":"ab939959-6cef-462f-99b2-5b5b8c5b25ec","system_id":"levelo_inurba_marseille","lat":43.301939,"lon":5.366286,"is_reserved":false,"is_disabled":false,"rental_uris":{"android":"levelo://app?vid=ab939959-6cef-462f-99b2-5b5b8c5b25ec","ios":"levelo://app?vid=ab939959-6cef-462f-99b2-5b5b8c5b25ec"},"vehicle_type_id":"4","last_reported":1711318077,"current_range_meters":0,"station_id":"ce4bgrh2rcd13ifvqc8g","pricing_plan_id":"cebpf4jnsgd1na2vs0mg"},{"bike_id":"01b153b3-39ae-4dea-b730-89796f2fb703","system_id":"levelo_inurba_marseille","lat":43.301939,"lon":5.366286,"is_reserved":false,"is_disabled":false,"rental_uris":{"android":"levelo://app?vid=01b153b3-39ae-4dea-b730-89796f2fb703","ios":"levelo://app?vid=01b153b3-39ae-4dea-b730-89796f2fb703"},"vehicle_type_id":"4","last_reported":1711318077,"current_range_meters":25600,"station_id":"ce4bgrh2rcd13ifvqc8g","pricing_plan_id":"cebpf4jnsgd1na2vs0mg"},{"bike_id":"8a1912de-b56d-4217-a83a-fce5af5235c6","system_id":"levelo_inurba_marseille","lat":43.308012,"lon":5.381511,"is_reserved":false,"is_disabled":false,"rental_uris":{"android":"levelo://app?vid=8a1912de-b56d-4217-a83a-fce5af5235c6","ios":"levelo://app?vid=8a1912de-b56d-4217-a83a-fce5af5235c6"},"vehicle_type_id":"4","last_reported":1711318077,"current_range_meters":27200,"station_id":"ce4bgt12rcd13ifvqce0","pricing_plan_id":"cebpf4jnsgd1na2vs0mg"},{"bike_id":"bddec9d4-77a8-47f8-be2e-8a5a2c91745a","system_id":"levelo_inurba_marseille","lat":43.308012,"lon":5.381511,"is_reserved":false,"is_disabled":false,"rental_uris":{"android":"levelo://app?vid=bddec9d4-77a8-47f8-be2e-8a5a2c91745a","ios":"levelo://app?vid=bddec9d4-77a8-47f8-be2e-8a5a2c91745a"},"vehicle_type_id":"4","last_reported":1711318077,"current_range_meters":400,"station_id":"ce4bgt12rcd13ifvqce0","pricing_plan_id":"cebpf4jnsgd1na2vs0mg"},{"bike_id":"6a0f4add-865f-489d-92f5-4666b9ea4997","system_id":"levelo_inurba_marseille","lat":43.308012,"lon":5.381511,"is_reserved":false,"is_disabled":false,"rental_uris":{"android":"levelo://app?vid=6a0f4add-865f-489d-92f5-4666b9ea4997","ios":"levelo://app?vid=6a0f4add-865f-489d-92f5-4666b9ea4997"},"vehicle_type_id":"4","last_reported":1711318077,"current_range_meters":9200,"station_id":"ce4bgt12rcd13ifvqce0","pricing_plan_id":"cebpf4jnsgd1na2vs0mg"},{"bike_id":"57cf1346-e067-472d-9b2d-1e071e1ebb0c","system_id":"levelo_inurba_marseille","lat":43.307993,"lon":5.381495,"is_reserved":false,"is_disabled":false,"rental_uris":{"android":"levelo://app?vid=57cf1346-e067-472d-9b2d-1e071e1ebb0c","ios":"levelo://app?vid=57cf1346-e067-472d-9b2d-1e071e1ebb0c"},"vehicle_type_id":"4","last_reported":1711318077,"current_range_meters":21200,"station_id":"ce4bgt12rcd13ifvqce0","pricing_plan_id":"cebpf4jnsgd1na2vs0mg"},{"bike_id":"6edb5fe7-a95c-4fa9-8e8d-d3a1b0359d8a","system_id":"levelo_inurba_marseille","lat":43.308012,"lon":5.381511,"is_reserved":false,"is_disabled":false,"rental_uris":{"android":"levelo://app?vid=6edb5fe7-a95c-4fa9-8e8d-d3a1b0359d8a","ios":"levelo://app?vid=6edb5fe7-a95c-4fa9-8e8d-d3a1b0359d8a"},"vehicle_type_id":"4","last_reported":1711318077,"current_range_meters":25600,"station_id":"ce4bgt12rcd13ifvqce0","pricing_plan_id":"cebpf4jnsgd1na2vs0mg"},{"bike_id":"09db5d1c-3238-4a2f-8223-f6bb6e4292b6","system_id":"levelo_inurba_marseille","lat":43.308012,"lon":5.381511,"is_reserved":false,"is_disabled":false,"rental_uris":{"android":"levelo://app?vid=09db5d1c-3238-4a2f-8223-f6bb6e4292b6","ios":"levelo://app?vid=09db5d1c-3238-4a2f-8223-f6bb6e4292b6"},"vehicle_type_id":"4","last_reported":1711318077,"current_range_meters":30800,"station_id":"ce4bgt12rcd13ifvqce0","pricing_plan_id":"cebpf4jnsgd1na2vs0mg"},{"bike_id":"886c8848-84bd-47ff-a896-929bd84df0e5","system_id":"levelo_inurba_marseille","lat":43.308012,"lon":5.381511,"is_reserved":false,"is_disabled":false,"rental_uris":{"android":"levelo://app?vid=886c8848-84bd-47ff-a896-929bd84df0e5","ios":"levelo://app?vid=886c8848-84bd-47ff-a896-929bd84df0e5"},"vehicle_type_id":"4","last_reported":1711318077,"current_range_meters":31200,"station_id":"ce4bgt12rcd13ifvqce0","pricing_plan_id":"cebpf4jnsgd1na2vs0mg"},{"bike_id":"c2767835-0627-4dd2-a94d-e3ce6ce4d8d8","system_id":"levelo_inurba_marseille","lat":43.308012,"lon":5.381511,"is_reserved":false,"is_disabled":false,"rental_uris":{"android":"levelo://app?vid=c2767835-0627-4dd2-a94d-e3ce6ce4d8d8","ios":"levelo://app?vid=c2767835-0627-4dd2-a94d-e3ce6ce4d8d8"},"vehicle_type_id":"4","last_reported":1711318077,"current_range_meters":7600,"station_id":"ce4bgt12rcd13ifvqce0","pricing_plan_id":"cebpf4jnsgd1na2vs0mg"},{"bike_id":"cba927e1-47fe-4aea-8089-24636ca87051","system_id":"levelo_inurba_marseille","lat":43.308012,"lon":5.381511,"is_reserved":false,"is_disabled":false,"rental_uris":{"android":"levelo://app?vid=cba927e1-47fe-4aea-8089-24636ca87051","ios":"levelo://app?vid=cba927e1-47fe-4aea-8089-24636ca87051"},"vehicle_type_id":"4","last_reported":1711318077,"current_range_meters":28000,"station_id":"ce4bgt12rcd13ifvqce0","pricing_plan_id":"cebpf4jnsgd1na2vs0mg"},{"bike_id":"2cdbb9cd-830e-44e5-a0c9-96b4d5f44b7b","system_id":"levelo_inurba_marseille","lat":43.308012,"lon":5.381511,"is_reserved":false,"is_disabled":false,"rental_uris":{"android":"levelo://app?vid=2cdbb9cd-830e-44e5-a0c9-96b4d5f44b7b","ios":"levelo://app?vid=2cdbb9cd-830e-44e5-a0c9-96b4d5f44b7b"},"vehicle_type_id":"4","last_reported":1711318077,"current_range_meters":21600,"station_id":"ce4bgt12rcd13ifvqce0","pricing_plan_id":"cebpf4jnsgd1na2vs0mg"},{"bike_id":"32a1abc3-5608-425d-8d00-d1977653324d","system_id":"levelo_inurba_marseille","lat":43.308012,"lon":5.381511,"is_reserved":false,"is_disabled":false,"rental_uris":{"android":"levelo://app?vid=32a1abc3-5608-425d-8d00-d1977653324d","ios":"levelo://app?vid=32a1abc3-5608-425d-8d00-d1977653324d"},"vehicle_type_id":"4","last_reported":1711318077,"current_range_meters":9600,"station_id":"ce4bgt12rcd13ifvqce0","pricing_plan_id":"cebpf4jnsgd1na2vs0mg"},{"bike_id":"fbce19ef-dac3-4e29-9fbe-d5d79f5c54f6","system_id":"levelo_inurba_marseille","lat":43.308012,"lon":5.381511,"is_reserved":false,"is_disabled":false,"rental_uris":{"android":"levelo://app?vid=fbce19ef-dac3-4e29-9fbe-d5d79f5c54f6","ios":"levelo://app?vid=fbce19ef-dac3-4e29-9fbe-d5d79f5c54f6"},"vehicle_type_id":"4","last_reported":1711318077,"current_range_meters":25200,"station_id":"ce4bgt12rcd13ifvqce0","pricing_plan_id":"cebpf4jnsgd1na2vs0mg"},{"bike_id":"23b8a8cc-868d-4406-abe1-0fd547090f97","system_id":"levelo_inurba_marseille","lat":43.304606,"lon":5.379026,"is_reserved":false,"is_disabled":false,"rental_uris":{"android":"levelo://app?vid=23b8a8cc-868d-4406-abe1-0fd547090f97","ios":"levelo://app?vid=23b8a8cc-868d-4406-abe1-0fd547090f97"},"vehicle_type_id":"4","last_reported":1711318077,"current_range_meters":20000,"station_id":"ce4bgup2rcd13ifvqcn0","pricing_plan_id":"cebpf4jnsgd1na2vs0mg"},{"bike_id":"e93ff52a-e91d-490b-b7ce-6be5a7df203a","system_id":"levelo_inurba_marseille","lat":43.324771,"lon":5.36557,"is_reserved":false,"is_disabled":false,"rental_uris":{"android":"levelo://app?vid=e93ff52a-e91d-490b-b7ce-6be5a7df203a","ios":"levelo://app?vid=e93ff52a-e91d-490b-b7ce-6be5a7df203a"},"vehicle_type_id":"4","last_reported":1711318077,"current_range_meters":10800,"station_id":"ce4bhs12rcd13ifvqhvg","pricing_plan_id":"cebpf4jnsgd1na2vs0mg"},{"bike_id":"388f4dbe-d00f-41ae-80a1-e90d5fd40bfc","system_id":"levelo_inurba_marseille","lat":43.324771,"lon":5.36557,"is_reserved":false,"is_disabled":false,"rental_uris":{"android":"levelo://app?vid=388f4dbe-d00f-41ae-80a1-e90d5fd40bfc","ios":"levelo://app?vid=388f4dbe-d00f-41ae-80a1-e90d5fd40bfc"},"vehicle_type_id":"4","last_reported":1711318077,"current_range_meters":12400,"station_id":"ce4bhs12rcd13ifvqhvg","pricing_plan_id":"cebpf4jnsgd1na2vs0mg"},{"bike_id":"1da5e40e-58a0-4d1b-a7e7-2641b7356d14","system_id":"levelo_inurba_marseille","lat":43.324831,"lon":5.365582,"is_reserved":false,"is_disabled":false,"rental_uris":{"android":"levelo://app?vid=1da5e40e-58a0-4d1b-a7e7-2641b7356d14","ios":"levelo://app?vid=1da5e40e-58a0-4d1b-a7e7-2641b7356d14"},"vehicle_type_id":"4","last_reported":1711318077,"current_range_meters":0,"station_id":"ce4bhs12rcd13ifvqhvg","pricing_plan_id":"cebpf4jnsgd1na2vs0mg"},{"bike_id":"fa05d3e5-f409-4e05-ace7-f6f819e528e8","system_id":"levelo_inurba_marseille","lat":43.324842,"lon":5.365767,"is_reserved":false,"is_disabled":false,"rental_uris":{"android":"levelo://app?vid=fa05d3e5-f409-4e05-ace7-f6f819e528e8","ios":"levelo://app?vid=fa05d3e5-f409-4e05-ace7-f6f819e528e8"},"vehicle_type_id":"4","last_reported":1711318077,"current_range_meters":0,"station_id":"ce4bhs12rcd13ifvqhvg","pricing_plan_id":"cebpf4jnsgd1na2vs0mg"},{"bike_id":"336f0deb-d3ca-47f4-bb53-06b808624733","system_id":"levelo_inurba_marseille","lat":43.324771,"lon":5.36557,"is_reserved":false,"is_disabled":false,"rental_uris":{"android":"levelo://app?vid=336f0deb-d3ca-47f4-bb53-06b808624733","ios":"levelo://app?vid=336f0deb-d3ca-47f4-bb53-06b808624733"},"vehicle_type_id":"4","last_reported":1711318077,"current_range_meters":20800,"station_id":"ce4bhs12rcd13ifvqhvg","pricing_plan_id":"cebpf4jnsgd1na2vs0mg"},{"bike_id":"02ed60ba-e126-4346-af5a-15d6cded049a","system_id":"levelo_inurba_marseille","lat":43.324771,"lon":5.36557,"is_reserved":false,"is_disabled":false,"rental_uris":{"android":"levelo://app?vid=02ed60ba-e126-4346-af5a-15d6cded049a","ios":"levelo://app?vid=02ed60ba-e126-4346-af5a-15d6cded049a"},"vehicle_type_id":"4","last_reported":1711318077,"current_range_meters":2800,"station_id":"ce4bhs12rcd13ifvqhvg","pricing_plan_id":"cebpf4jnsgd1na2vs0mg"},{"bike_id":"4fdd6a97-32ed-47a3-8f14-e91089c32b29","system_id":"levelo_inurba_marseille","lat":43.310804,"lon":5.38359,"is_reserved":false,"is_disabled":false,"rental_uris":{"android":"levelo://app?vid=4fdd6a97-32ed-47a3-8f14-e91089c32b29","ios":"levelo://app?vid=4fdd6a97-32ed-47a3-8f14-e91089c32b29"},"vehicle_type_id":"4","last_reported":1711318077,"current_range_meters":7600,"station_id":"ce4bgv92rcd13ifvqcr0","pricing_plan_id":"cebpf4jnsgd1na2vs0mg"},{"bike_id":"f683880a-2053-4e09-9d87-67a72235fd6e","system_id":"levelo_inurba_marseille","lat":43.31075,"lon":5.383563,"is_reserved":false,"is_disabled":false,"rental_uris":{"android":"levelo://app?vid=f683880a-2053-4e09-9d87-67a72235fd6e","ios":"levelo://app?vid=f683880a-2053-4e09-9d87-67a72235fd6e"},"vehicle_type_id":"4","last_reported":1711318077,"current_range_meters":0,"station_id":"ce4bgv92rcd13ifvqcr0","pricing_plan_id":"cebpf4jnsgd1na2vs0mg"},{"bike_id":"fb6ec6a0-a71d-4ad4-a8ec-52892176c9fa","system_id":"levelo_inurba_marseille","lat":43.310804,"lon":5.38359,"is_reserved":false,"is_disabled":false,"rental_uris":{"android":"levelo://app?vid=fb6ec6a0-a71d-4ad4-a8ec-52892176c9fa","ios":"levelo://app?vid=fb6ec6a0-a71d-4ad4-a8ec-52892176c9fa"},"vehicle_type_id":"4","last_reported":1711318077,"current_range_meters":10400,"station_id":"ce4bgv92rcd13ifvqcr0","pricing_plan_id":"cebpf4jnsgd1na2vs0mg"},{"bike_id":"8fc4410e-6c80-4222-84fd-13b63b721f35","system_id":"levelo_inurba_marseille","lat":43.310774,"lon":5.383602,"is_reserved":false,"is_disabled":false,"rental_uris":{"android":"levelo://app?vid=8fc4410e-6c80-4222-84fd-13b63b721f35","ios":"levelo://app?vid=8fc4410e-6c80-4222-84fd-13b63b721f35"},"vehicle_type_id":"4","last_reported":1711318077,"current_range_meters":19200,"station_id":"ce4bgv92rcd13ifvqcr0","pricing_plan_id":"cebpf4jnsgd1na2vs0mg"},{"bike_id":"ccf954a3-296a-4815-a4de-6c7541079642","system_id":"levelo_inurba_marseille","lat":43.302773,"lon":5.377063,"is_reserved":false,"is_disabled":false,"rental_uris":{"android":"levelo://app?vid=ccf954a3-296a-4815-a4de-6c7541079642","ios":"levelo://app?vid=ccf954a3-296a-4815-a4de-6c7541079642"},"vehicle_type_id":"4","last_reported":1711318077,"current_range_meters":5600,"station_id":"ce4bguh2rcd13ifvqcj0","pricing_plan_id":"cebpf4jnsgd1na2vs0mg"},{"bike_id":"a45e055d-e019-4aca-81d1-e2b81144e9dc","system_id":"levelo_inurba_marseille","lat":43.30143,"lon":5.37413,"is_reserved":false,"is_disabled":false,"rental_uris":{"android":"levelo://app?vid=a45e055d-e019-4aca-81d1-e2b81144e9dc","ios":"levelo://app?vid=a45e055d-e019-4aca-81d1-e2b81144e9dc"},"vehicle_type_id":"4","last_reported":1711318077,"current_range_meters":22000,"station_id":"ce4bgs92rcd13ifvqcc0","pricing_plan_id":"cebpf4jnsgd1na2vs0mg"},{"bike_id":"fb2dbb66-bb42-4593-8a43-4d970a924dc3","system_id":"levelo_inurba_marseille","lat":43.319935,"lon":5.381699,"is_reserved":false,"is_disabled":false,"rental_uris":{"android":"levelo://app?vid=fb2dbb66-bb42-4593-8a43-4d970a924dc3","ios":"levelo://app?vid=fb2dbb66-bb42-4593-8a43-4d970a924dc3"},"vehicle_type_id":"4","last_reported":1711318077,"current_range_meters":2400,"station_id":"ce4bhr12rcd13ifvqhpg","pricing_plan_id":"cebpf4jnsgd1na2vs0mg"},{"bike_id":"ba709437-82b5-4c74-974c-4c50a356b816","system_id":"levelo_inurba_marseille","lat":43.319935,"lon":5.381699,"is_reserved":false,"is_disabled":false,"rental_uris":{"android":"levelo://app?vid=ba709437-82b5-4c74-974c-4c50a356b816","ios":"levelo://app?vid=ba709437-82b5-4c74-974c-4c50a356b816"},"vehicle_type_id":"4","last_reported":1711318077,"current_range_meters":13600,"station_id":"ce4bhr12rcd13ifvqhpg","pricing_plan_id":"cebpf4jnsgd1na2vs0mg"},{"bike_id":"6c1e3c51-cd5a-469b-a350-c7f83832aa8a","system_id":"levelo_inurba_marseille","lat":43.319935,"lon":5.381699,"is_reserved":false,"is_disabled":false,"rental_uris":{"android":"levelo://app?vid=6c1e3c51-cd5a-469b-a350-c7f83832aa8a","ios":"levelo://app?vid=6c1e3c51-cd5a-469b-a350-c7f83832aa8a"},"vehicle_type_id":"4","last_reported":1711318077,"current_range_meters":3200,"station_id":"ce4bhr12rcd13ifvqhpg","pricing_plan_id":"cebpf4jnsgd1na2vs0mg"},{"bike_id":"21660b84-8be3-4777-93a0-11e5924fbbc6","system_id":"levelo_inurba_marseille","lat":43.313591,"lon":5.384898,"is_reserved":false,"is_disabled":false,"rental_uris":{"android":"levelo://app?vid=21660b84-8be3-4777-93a0-11e5924fbbc6","ios":"levelo://app?vid=21660b84-8be3-4777-93a0-11e5924fbbc6"},"vehicle_type_id":"4","last_reported":1711318077,"current_range_meters":400,"station_id":"ce4bgt92rcd13ifvqcf0","pricing_plan_id":"cebpf4jnsgd1na2vs0mg"},{"bike_id":"83453f11-41a4-4fde-aa79-60acf092cd02","system_id":"levelo_inurba_marseille","lat":43.313571,"lon":5.384829,"is_reserved":false,"is_disabled":false,"rental_uris":{"android":"levelo://app?vid=83453f11-41a4-4fde-aa79-60acf092cd02","ios":"levelo://app?vid=83453f11-41a4-4fde-aa79-60acf092cd02"},"vehicle_type_id":"4","last_reported":1711318077,"current_range_meters":15200,"station_id":"ce4bgt92rcd13ifvqcf0","pricing_plan_id":"cebpf4jnsgd1na2vs0mg"},{"bike_id":"94ea72db-201e-4c2e-ad28-bde98bdff7ba","system_id":"levelo_inurba_marseille","lat":43.313571,"lon":5.384829,"is_reserved":false,"is_disabled":false,"rental_uris":{"android":"levelo://app?vid=94ea72db-201e-4c2e-ad28-bde98bdff7ba","ios":"levelo://app?vid=94ea72db-201e-4c2e-ad28-bde98bdff7ba"},"vehicle_type_id":"4","last_reported":1711318077,"current_range_meters":18400,"station_id":"ce4bgt92rcd13ifvqcf0","pricing_plan_id":"cebpf4jnsgd1na2vs0mg"},{"bike_id":"0554eb69-bf32-496d-a64b-fd417a56d6b5","system_id":"levelo_inurba_marseille","lat":43.313571,"lon":5.384829,"is_reserved":false,"is_disabled":false,"rental_uris":{"android":"levelo://app?vid=0554eb69-bf32-496d-a64b-fd417a56d6b5","ios":"levelo://app?vid=0554eb69-bf32-496d-a64b-fd417a56d6b5"},"vehicle_type_id":"4","last_reported":1711318077,"current_range_meters":15200,"station_id":"ce4bgt92rcd13ifvqcf0","pricing_plan_id":"cebpf4jnsgd1na2vs0mg"},{"bike_id":"c75beb3d-4c90-4cf1-919e-c9c3ae495771","system_id":"levelo_inurba_marseille","lat":43.313571,"lon":5.384829,"is_reserved":false,"is_disabled":false,"rental_uris":{"android":"levelo://app?vid=c75beb3d-4c90-4cf1-919e-c9c3ae495771","ios":"levelo://app?vid=c75beb3d-4c90-4cf1-919e-c9c3ae495771"},"vehicle_type_id":"4","last_reported":1711318077,"current_range_meters":25600,"station_id":"ce4bgt92rcd13ifvqcf0","pricing_plan_id":"cebpf4jnsgd1na2vs0mg"},{"bike_id":"9e5d9d2c-6565-4fc5-b8cc-4633d1c7c001","system_id":"levelo_inurba_marseille","lat":43.29989,"lon":5.371845,"is_reserved":false,"is_disabled":false,"rental_uris":{"android":"levelo://app?vid=9e5d9d2c-6565-4fc5-b8cc-4633d1c7c001","ios":"levelo://app?vid=9e5d9d2c-6565-4fc5-b8cc-4633d1c7c001"},"vehicle_type_id":"4","last_reported":1711318077,"current_range_meters":23200,"station_id":"ce4bgr92rcd13ifvqc7g","pricing_plan_id":"cebpf4jnsgd1na2vs0mg"},{"bike_id":"ecf314a8-16bb-47fc-a86a-ac4782dab9b8","system_id":"levelo_inurba_marseille","lat":43.29984,"lon":5.37172,"is_reserved":false,"is_disabled":false,"rental_uris":{"android":"levelo://app?vid=ecf314a8-16bb-47fc-a86a-ac4782dab9b8","ios":"levelo://app?vid=ecf314a8-16bb-47fc-a86a-ac4782dab9b8"},"vehicle_type_id":"4","last_reported":1711318077,"current_range_meters":14800,"station_id":"ce4bgr92rcd13ifvqc7g","pricing_plan_id":"cebpf4jnsgd1na2vs0mg"},{"bike_id":"fc8c41fe-b39c-4ca6-9f36-bb917a32fe24","system_id":"levelo_inurba_marseille","lat":43.29981,"lon":5.37173,"is_reserved":false,"is_disabled":false,"rental_uris":{"android":"levelo://app?vid=fc8c41fe-b39c-4ca6-9f36-bb917a32fe24","ios":"levelo://app?vid=fc8c41fe-b39c-4ca6-9f36-bb917a32fe24"},"vehicle_type_id":"4","last_reported":1711318077,"current_range_meters":15200,"station_id":"ce4bgr92rcd13ifvqc7g","pricing_plan_id":"cebpf4jnsgd1na2vs0mg"},{"bike_id":"77862199-2a8a-4ea3-8817-fc00745b2b9f","system_id":"levelo_inurba_marseille","lat":43.299797,"lon":5.37179,"is_reserved":false,"is_disabled":false,"rental_uris":{"android":"levelo://app?vid=77862199-2a8a-4ea3-8817-fc00745b2b9f","ios":"levelo://app?vid=77862199-2a8a-4ea3-8817-fc00745b2b9f"},"vehicle_type_id":"4","last_reported":1711318077,"current_range_meters":3600,"station_id":"ce4bgr92rcd13ifvqc7g","pricing_plan_id":"cebpf4jnsgd1na2vs0mg"},{"bike_id":"d247e48c-edeb-46f6-a8fb-1dff16ea7a82","system_id":"levelo_inurba_marseille","lat":43.299773,"lon":5.371787,"is_reserved":false,"is_disabled":false,"rental_uris":{"android":"levelo://app?vid=d247e48c-edeb-46f6-a8fb-1dff16ea7a82","ios":"levelo://app?vid=d247e48c-edeb-46f6-a8fb-1dff16ea7a82"},"vehicle_type_id":"4","last_reported":1711318077,"current_range_meters":16800,"station_id":"ce4bgr92rcd13ifvqc7g","pricing_plan_id":"cebpf4jnsgd1na2vs0mg"},{"bike_id":"e500e8f9-a3c3-4b05-a2b3-64573a6de804","system_id":"levelo_inurba_marseille","lat":43.299724,"lon":5.371829,"is_reserved":false,"is_disabled":false,"rental_uris":{"android":"levelo://app?vid=e500e8f9-a3c3-4b05-a2b3-64573a6de804","ios":"levelo://app?vid=e500e8f9-a3c3-4b05-a2b3-64573a6de804"},"vehicle_type_id":"4","last_reported":1711318077,"current_range_meters":25200,"station_id":"ce4bgr92rcd13ifvqc7g","pricing_plan_id":"cebpf4jnsgd1na2vs0mg"},{"bike_id":"52296648-4e91-4dea-98e6-555ca5c7f475","system_id":"levelo_inurba_marseille","lat":43.29977,"lon":5.37184,"is_reserved":false,"is_disabled":false,"rental_uris":{"android":"levelo://app?vid=52296648-4e91-4dea-98e6-555ca5c7f475","ios":"levelo://app?vid=52296648-4e91-4dea-98e6-555ca5c7f475"},"vehicle_type_id":"4","last_reported":1711318077,"current_range_meters":4000,"station_id":"ce4bgr92rcd13ifvqc7g","pricing_plan_id":"cebpf4jnsgd1na2vs0mg"},{"bike_id":"87e73152-e8f1-41c2-9e0c-697b60c394f3","system_id":"levelo_inurba_marseille","lat":43.299724,"lon":5.371829,"is_reserved":false,"is_disabled":false,"rental_uris":{"android":"levelo://app?vid=87e73152-e8f1-41c2-9e0c-697b60c394f3","ios":"levelo://app?vid=87e73152-e8f1-41c2-9e0c-697b60c394f3"},"vehicle_type_id":"4","last_reported":1711318077,"current_range_meters":2800,"station_id":"ce4bgr92rcd13ifvqc7g","pricing_plan_id":"cebpf4jnsgd1na2vs0mg"},{"bike_id":"1f5a3cb0-78d2-4b4f-9d49-9cdcbb810130","system_id":"levelo_inurba_marseille","lat":43.299375,"lon":5.371902,"is_reserved":false,"is_disabled":false,"rental_uris":{"android":"levelo://app?vid=1f5a3cb0-78d2-4b4f-9d49-9cdcbb810130","ios":"levelo://app?vid=1f5a3cb0-78d2-4b4f-9d49-9cdcbb810130"},"vehicle_type_id":"4","last_reported":1711318077,"current_range_meters":13200,"station_id":"ce4bgr92rcd13ifvqc7g","pricing_plan_id":"cebpf4jnsgd1na2vs0mg"},{"bike_id":"52239f62-1634-4550-b32c-c62fc5d93cdc","system_id":"levelo_inurba_marseille","lat":43.311722,"lon":5.387247,"is_reserved":false,"is_disabled":false,"rental_uris":{"android":"levelo://app?vid=52239f62-1634-4550-b32c-c62fc5d93cdc","ios":"levelo://app?vid=52239f62-1634-4550-b32c-c62fc5d93cdc"},"vehicle_type_id":"4","last_reported":1711318077,"current_range_meters":31600,"station_id":"ce4bgv12rcd13ifvqcp0","pricing_plan_id":"cebpf4jnsgd1na2vs0mg"},{"bike_id":"bb93665b-9d4d-4464-9588-ee4ff9385ea6","system_id":"levelo_inurba_marseille","lat":43.3116,"lon":5.38705,"is_reserved":false,"is_disabled":false,"rental_uris":{"android":"levelo://app?vid=bb93665b-9d4d-4464-9588-ee4ff9385ea6","ios":"levelo://app?vid=bb93665b-9d4d-4464-9588-ee4ff9385ea6"},"vehicle_type_id":"4","last_reported":1711318077,"current_range_meters":24800,"station_id":"ce4bgv12rcd13ifvqcp0","pricing_plan_id":"cebpf4jnsgd1na2vs0mg"},{"bike_id":"e5d73ee1-d9ad-41e7-a06b-e701b6466ada","system_id":"levelo_inurba_marseille","lat":43.31174,"lon":5.38711,"is_reserved":false,"is_disabled":false,"rental_uris":{"android":"levelo://app?vid=e5d73ee1-d9ad-41e7-a06b-e701b6466ada","ios":"levelo://app?vid=e5d73ee1-d9ad-41e7-a06b-e701b6466ada"},"vehicle_type_id":"4","last_reported":1711318077,"current_range_meters":0,"station_id":"ce4bgv12rcd13ifvqcp0","pricing_plan_id":"cebpf4jnsgd1na2vs0mg"},{"bike_id":"84079d58-e81e-4c9f-99a9-3663322b443f","system_id":"levelo_inurba_marseille","lat":43.305364,"lon":5.384119,"is_reserved":false,"is_disabled":false,"rental_uris":{"android":"levelo://app?vid=84079d58-e81e-4c9f-99a9-3663322b443f","ios":"levelo://app?vid=84079d58-e81e-4c9f-99a9-3663322b443f"},"vehicle_type_id":"4","last_reported":1711318077,"current_range_meters":20800,"station_id":"ce4bgg92rcd13ifvqb30","pricing_plan_id":"cebpf4jnsgd1na2vs0mg"},{"bike_id":"bb87d668-1f57-42fb-93f6-0ee72c9e0e04","system_id":"levelo_inurba_marseille","lat":43.29911,"lon":5.37472,"is_reserved":false,"is_disabled":false,"rental_uris":{"android":"levelo://app?vid=bb87d668-1f57-42fb-93f6-0ee72c9e0e04","ios":"levelo://app?vid=bb87d668-1f57-42fb-93f6-0ee72c9e0e04"},"vehicle_type_id":"4","last_reported":1711318077,"current_range_meters":29600,"station_id":"ce4bgjh2rcd13ifvqbg0","pricing_plan_id":"cebpf4jnsgd1na2vs0mg"},{"bike_id":"e992a99a-1b9d-4c64-a379-47e8fe0d13e1","system_id":"levelo_inurba_marseille","lat":43.299243,"lon":5.37481,"is_reserved":false,"is_disabled":false,"rental_uris":{"android":"levelo://app?vid=e992a99a-1b9d-4c64-a379-47e8fe0d13e1","ios":"levelo://app?vid=e992a99a-1b9d-4c64-a379-47e8fe0d13e1"},"vehicle_type_id":"4","last_reported":1711318077,"current_range_meters":12000,"station_id":"ce4bgjh2rcd13ifvqbg0","pricing_plan_id":"cebpf4jnsgd1na2vs0mg"},{"bike_id":"8bd367f2-c6b2-4226-9adf-512a7aee5a3a","system_id":"levelo_inurba_marseille","lat":43.31175,"lon":5.38718,"is_reserved":false,"is_disabled":false,"rental_uris":{"android":"levelo://app?vid=8bd367f2-c6b2-4226-9adf-512a7aee5a3a","ios":"levelo://app?vid=8bd367f2-c6b2-4226-9adf-512a7aee5a3a"},"vehicle_type_id":"4","last_reported":1711318077,"current_range_meters":0,"station_id":"ce4bgv12rcd13ifvqcp0","pricing_plan_id":"cebpf4jnsgd1na2vs0mg"},{"bike_id":"fd654fbf-11ea-4576-b9c7-b1c4a39d9577","system_id":"levelo_inurba_marseille","lat":43.311722,"lon":5.387247,"is_reserved":false,"is_disabled":false,"rental_uris":{"android":"levelo://app?vid=fd654fbf-11ea-4576-b9c7-b1c4a39d9577","ios":"levelo://app?vid=fd654fbf-11ea-4576-b9c7-b1c4a39d9577"},"vehicle_type_id":"4","last_reported":1711318077,"current_range_meters":1600,"station_id":"ce4bgv12rcd13ifvqcp0","pricing_plan_id":"cebpf4jnsgd1na2vs0mg"},{"bike_id":"cc97f521-62f6-4956-b866-7b9d64eb5632","system_id":"levelo_inurba_marseille","lat":43.297774,"lon":5.370875,"is_reserved":false,"is_disabled":false,"rental_uris":{"android":"levelo://app?vid=cc97f521-62f6-4956-b866-7b9d64eb5632","ios":"levelo://app?vid=cc97f521-62f6-4956-b866-7b9d64eb5632"},"vehicle_type_id":"4","last_reported":1711318077,"current_range_meters":18800,"station_id":"ce4bgop2rcd13ifvqc1g","pricing_plan_id":"cebpf4jnsgd1na2vs0mg"},{"bike_id":"7563a040-af0c-4ada-9cf8-1af32594318f","system_id":"levelo_inurba_marseille","lat":43.297774,"lon":5.370875,"is_reserved":false,"is_disabled":false,"rental_uris":{"android":"levelo://app?vid=7563a040-af0c-4ada-9cf8-1af32594318f","ios":"levelo://app?vid=7563a040-af0c-4ada-9cf8-1af32594318f"},"vehicle_type_id":"4","last_reported":1711318077,"current_range_meters":18000,"station_id":"ce4bgop2rcd13ifvqc1g","pricing_plan_id":"cebpf4jnsgd1na2vs0mg"},{"bike_id":"e8017139-164b-49c5-9314-04837a5221c9","system_id":"levelo_inurba_marseille","lat":43.297794,"lon":5.370888,"is_reserved":false,"is_disabled":false,"rental_uris":{"android":"levelo://app?vid=e8017139-164b-49c5-9314-04837a5221c9","ios":"levelo://app?vid=e8017139-164b-49c5-9314-04837a5221c9"},"vehicle_type_id":"4","last_reported":1711318077,"current_range_meters":9200,"station_id":"ce4bgop2rcd13ifvqc1g","pricing_plan_id":"cebpf4jnsgd1na2vs0mg"},{"bike_id":"feead7e7-9cee-4c57-94a6-da647512767c","system_id":"levelo_inurba_marseille","lat":43.322896,"lon":5.382515,"is_reserved":false,"is_disabled":false,"rental_uris":{"android":"levelo://app?vid=feead7e7-9cee-4c57-94a6-da647512767c","ios":"levelo://app?vid=feead7e7-9cee-4c57-94a6-da647512767c"},"vehicle_type_id":"4","last_reported":1711318077,"current_range_meters":2000,"station_id":"ce4bhr12rcd13ifvqhqg","pricing_plan_id":"cebpf4jnsgd1na2vs0mg"},{"bike_id":"207cdac5-b3e6-4d55-8f97-75f17398d943","system_id":"levelo_inurba_marseille","lat":43.322872,"lon":5.382756,"is_reserved":false,"is_disabled":false,"rental_uris":{"android":"levelo://app?vid=207cdac5-b3e6-4d55-8f97-75f17398d943","ios":"levelo://app?vid=207cdac5-b3e6-4d55-8f97-75f17398d943"},"vehicle_type_id":"4","last_reported":1711318077,"current_range_meters":5600,"station_id":"ce4bhr12rcd13ifvqhqg","pricing_plan_id":"cebpf4jnsgd1na2vs0mg"},{"bike_id":"5387bba9-250f-4a59-ad81-4995f8725e20","system_id":"levelo_inurba_marseille","lat":43.32292,"lon":5.38262,"is_reserved":false,"is_disabled":false,"rental_uris":{"android":"levelo://app?vid=5387bba9-250f-4a59-ad81-4995f8725e20","ios":"levelo://app?vid=5387bba9-250f-4a59-ad81-4995f8725e20"},"vehicle_type_id":"4","last_reported":1711318077,"current_range_meters":17600,"station_id":"ce4bhr12rcd13ifvqhqg","pricing_plan_id":"cebpf4jnsgd1na2vs0mg"},{"bike_id":"3ff125a5-dff1-4591-b6cc-449dc2424878","system_id":"levelo_inurba_marseille","lat":43.32287,"lon":5.38269,"is_reserved":false,"is_disabled":false,"rental_uris":{"android":"levelo://app?vid=3ff125a5-dff1-4591-b6cc-449dc2424878","ios":"levelo://app?vid=3ff125a5-dff1-4591-b6cc-449dc2424878"},"vehicle_type_id":"4","last_reported":1711318077,"current_range_meters":400,"station_id":"ce4bhr12rcd13ifvqhqg","pricing_plan_id":"cebpf4jnsgd1na2vs0mg"},{"bike_id":"5a8af2e0-bd88-4f66-892c-33841408b461","system_id":"levelo_inurba_marseille","lat":43.32293,"lon":5.38264,"is_reserved":false,"is_disabled":false,"rental_uris":{"android":"levelo://app?vid=5a8af2e0-bd88-4f66-892c-33841408b461","ios":"levelo://app?vid=5a8af2e0-bd88-4f66-892c-33841408b461"},"vehicle_type_id":"4","last_reported":1711318077,"current_range_meters":5600,"station_id":"ce4bhr12rcd13ifvqhqg","pricing_plan_id":"cebpf4jnsgd1na2vs0mg"},{"bike_id":"5d8768c3-c16c-4f03-812d-0467d2c881f1","system_id":"levelo_inurba_marseille","lat":43.322872,"lon":5.382756,"is_reserved":false,"is_disabled":false,"rental_uris":{"android":"levelo://app?vid=5d8768c3-c16c-4f03-812d-0467d2c881f1","ios":"levelo://app?vid=5d8768c3-c16c-4f03-812d-0467d2c881f1"},"vehicle_type_id":"4","last_reported":1711318077,"current_range_meters":18800,"station_id":"ce4bhr12rcd13ifvqhqg","pricing_plan_id":"cebpf4jnsgd1na2vs0mg"},{"bike_id":"85d4d71c-b2c1-426a-b0b8-be8461195f7e","system_id":"levelo_inurba_marseille","lat":43.322872,"lon":5.382756,"is_reserved":false,"is_disabled":false,"rental_uris":{"android":"levelo://app?vid=85d4d71c-b2c1-426a-b0b8-be8461195f7e","ios":"levelo://app?vid=85d4d71c-b2c1-426a-b0b8-be8461195f7e"},"vehicle_type_id":"4","last_reported":1711318077,"current_range_meters":31200,"station_id":"ce4bhr12rcd13ifvqhqg","pricing_plan_id":"cebpf4jnsgd1na2vs0mg"},{"bike_id":"9607cebd-f2b1-4cda-94e6-b812c1eeae5d","system_id":"levelo_inurba_marseille","lat":43.322872,"lon":5.382756,"is_reserved":false,"is_disabled":false,"rental_uris":{"android":"levelo://app?vid=9607cebd-f2b1-4cda-94e6-b812c1eeae5d","ios":"levelo://app?vid=9607cebd-f2b1-4cda-94e6-b812c1eeae5d"},"vehicle_type_id":"4","last_reported":1711318077,"current_range_meters":29200,"station_id":"ce4bhr12rcd13ifvqhqg","pricing_plan_id":"cebpf4jnsgd1na2vs0mg"},{"bike_id":"a2ee1e43-dd55-4286-9b87-053cf67c3419","system_id":"levelo_inurba_marseille","lat":43.322872,"lon":5.382756,"is_reserved":false,"is_disabled":false,"rental_uris":{"android":"levelo://app?vid=a2ee1e43-dd55-4286-9b87-053cf67c3419","ios":"levelo://app?vid=a2ee1e43-dd55-4286-9b87-053cf67c3419"},"vehicle_type_id":"4","last_reported":1711318077,"current_range_meters":25200,"station_id":"ce4bhr12rcd13ifvqhqg","pricing_plan_id":"cebpf4jnsgd1na2vs0mg"},{"bike_id":"7b4c39dd-df38-41ab-b889-e331e5e57978","system_id":"levelo_inurba_marseille","lat":43.29716,"lon":5.36605,"is_reserved":false,"is_disabled":false,"rental_uris":{"android":"levelo://app?vid=7b4c39dd-df38-41ab-b889-e331e5e57978","ios":"levelo://app?vid=7b4c39dd-df38-41ab-b889-e331e5e57978"},"vehicle_type_id":"4","last_reported":1711318077,"current_range_meters":31200,"station_id":"ce4bgn12rcd13ifvqbt0","pricing_plan_id":"cebpf4jnsgd1na2vs0mg"},{"bike_id":"aab4ae90-4b30-4cbe-a482-2c15f7f027f2","system_id":"levelo_inurba_marseille","lat":43.29709,"lon":5.366073,"is_reserved":false,"is_disabled":false,"rental_uris":{"android":"levelo://app?vid=aab4ae90-4b30-4cbe-a482-2c15f7f027f2","ios":"levelo://app?vid=aab4ae90-4b30-4cbe-a482-2c15f7f027f2"},"vehicle_type_id":"4","last_reported":1711318077,"current_range_meters":24800,"station_id":"ce4bgn12rcd13ifvqbt0","pricing_plan_id":"cebpf4jnsgd1na2vs0mg"},{"bike_id":"d9cb7167-f937-48c8-993e-b1a7a7255db1","system_id":"levelo_inurba_marseille","lat":43.297163,"lon":5.365866,"is_reserved":false,"is_disabled":false,"rental_uris":{"android":"levelo://app?vid=d9cb7167-f937-48c8-993e-b1a7a7255db1","ios":"levelo://app?vid=d9cb7167-f937-48c8-993e-b1a7a7255db1"},"vehicle_type_id":"4","last_reported":1711318077,"current_range_meters":0,"station_id":"ce4bgn12rcd13ifvqbt0","pricing_plan_id":"cebpf4jnsgd1na2vs0mg"},{"bike_id":"12e6ae6b-1850-46ad-bca1-ac93fd961258","system_id":"levelo_inurba_marseille","lat":43.2968,"lon":5.37291,"is_reserved":false,"is_disabled":false,"rental_uris":{"android":"levelo://app?vid=12e6ae6b-1850-46ad-bca1-ac93fd961258","ios":"levelo://app?vid=12e6ae6b-1850-46ad-bca1-ac93fd961258"},"vehicle_type_id":"4","last_reported":1711318077,"current_range_meters":29200,"station_id":"ce4bgk12rcd13ifvqbj0","pricing_plan_id":"cebpf4jnsgd1na2vs0mg"},{"bike_id":"cbd8699a-2784-4c9c-a35e-61fd233bfebb","system_id":"levelo_inurba_marseille","lat":43.2968,"lon":5.37291,"is_reserved":false,"is_disabled":false,"rental_uris":{"android":"levelo://app?vid=cbd8699a-2784-4c9c-a35e-61fd233bfebb","ios":"levelo://app?vid=cbd8699a-2784-4c9c-a35e-61fd233bfebb"},"vehicle_type_id":"4","last_reported":1711318077,"current_range_meters":22000,"station_id":"ce4bgk12rcd13ifvqbj0","pricing_plan_id":"cebpf4jnsgd1na2vs0mg"},{"bike_id":"fd46c1a1-c98f-4b56-aa5e-2906a1e2ba82","system_id":"levelo_inurba_marseille","lat":43.29592,"lon":5.36797,"is_reserved":false,"is_disabled":false,"rental_uris":{"android":"levelo://app?vid=fd46c1a1-c98f-4b56-aa5e-2906a1e2ba82","ios":"levelo://app?vid=fd46c1a1-c98f-4b56-aa5e-2906a1e2ba82"},"vehicle_type_id":"4","last_reported":1711318077,"current_range_meters":6000,"station_id":"ce4bgph2rcd13ifvqc2g","pricing_plan_id":"cebpf4jnsgd1na2vs0mg"},{"bike_id":"95557902-804f-43d9-9b96-1e33256db0e3","system_id":"levelo_inurba_marseille","lat":43.29588,"lon":5.36798,"is_reserved":false,"is_disabled":false,"rental_uris":{"android":"levelo://app?vid=95557902-804f-43d9-9b96-1e33256db0e3","ios":"levelo://app?vid=95557902-804f-43d9-9b96-1e33256db0e3"},"vehicle_type_id":"4","last_reported":1711318077,"current_range_meters":14400,"station_id":"","pricing_plan_id":"cebpf4jnsgd1na2vs0mg"},{"bike_id":"3ec0ad60-5a91-4ffb-990a-3ce3b27476b7","system_id":"levelo_inurba_marseille","lat":43.299028,"lon":5.381509,"is_reserved":false,"is_disabled":false,"rental_uris":{"android":"levelo://app?vid=3ec0ad60-5a91-4ffb-990a-3ce3b27476b7","ios":"levelo://app?vid=3ec0ad60-5a91-4ffb-990a-3ce3b27476b7"},"vehicle_type_id":"4","last_reported":1711318077,"current_range_meters":26800,"station_id":"ce4bgj12rcd13ifvqbc0","pricing_plan_id":"cebpf4jnsgd1na2vs0mg"},{"bike_id":"dd5b468e-03ef-4537-84e8-7a396e482c32","system_id":"levelo_inurba_marseille","lat":43.29907,"lon":5.38152,"is_reserved":false,"is_disabled":false,"rental_uris":{"android":"levelo://app?vid=dd5b468e-03ef-4537-84e8-7a396e482c32","ios":"levelo://app?vid=dd5b468e-03ef-4537-84e8-7a396e482c32"},"vehicle_type_id":"4","last_reported":1711318077,"current_range_meters":0,"station_id":"ce4bgj12rcd13ifvqbc0","pricing_plan_id":"cebpf4jnsgd1na2vs0mg"},{"bike_id":"85f6d6f1-df56-47d3-8d15-9355da4cd1b2","system_id":"levelo_inurba_marseille","lat":43.309589,"lon":5.390258,"is_reserved":false,"is_disabled":false,"rental_uris":{"android":"levelo://app?vid=85f6d6f1-df56-47d3-8d15-9355da4cd1b2","ios":"levelo://app?vid=85f6d6f1-df56-47d3-8d15-9355da4cd1b2"},"vehicle_type_id":"4","last_reported":1711318077,"current_range_meters":9200,"station_id":"ce4bgup2rcd13ifvqco0","pricing_plan_id":"cebpf4jnsgd1na2vs0mg"},{"bike_id":"ac534005-bd33-4c23-910b-49e182ad97da","system_id":"levelo_inurba_marseille","lat":43.309589,"lon":5.390258,"is_reserved":false,"is_disabled":false,"rental_uris":{"android":"levelo://app?vid=ac534005-bd33-4c23-910b-49e182ad97da","ios":"levelo://app?vid=ac534005-bd33-4c23-910b-49e182ad97da"},"vehicle_type_id":"4","last_reported":1711318077,"current_range_meters":12000,"station_id":"ce4bgup2rcd13ifvqco0","pricing_plan_id":"cebpf4jnsgd1na2vs0mg"},{"bike_id":"548e4105-178b-4a57-81b5-d522a35f9759","system_id":"levelo_inurba_marseille","lat":43.298949,"lon":5.381601,"is_reserved":false,"is_disabled":false,"rental_uris":{"android":"levelo://app?vid=548e4105-178b-4a57-81b5-d522a35f9759","ios":"levelo://app?vid=548e4105-178b-4a57-81b5-d522a35f9759"},"vehicle_type_id":"4","last_reported":1711318077,"current_range_meters":0,"station_id":"ce4bgj12rcd13ifvqbc0","pricing_plan_id":"cebpf4jnsgd1na2vs0mg"},{"bike_id":"2127399f-d128-416b-8ad4-76d643702b2b","system_id":"levelo_inurba_marseille","lat":43.317557,"lon":5.390173,"is_reserved":false,"is_disabled":false,"rental_uris":{"android":"levelo://app?vid=2127399f-d128-416b-8ad4-76d643702b2b","ios":"levelo://app?vid=2127399f-d128-416b-8ad4-76d643702b2b"},"vehicle_type_id":"4","last_reported":1711318077,"current_range_meters":28800,"station_id":"ce4bhqp2rcd13ifvqhng","pricing_plan_id":"cebpf4jnsgd1na2vs0mg"},{"bike_id":"2d5fb3dd-8046-40dd-829f-546b5b6801ec","system_id":"levelo_inurba_marseille","lat":43.31757,"lon":5.39014,"is_reserved":false,"is_disabled":false,"rental_uris":{"android":"levelo://app?vid=2d5fb3dd-8046-40dd-829f-546b5b6801ec","ios":"levelo://app?vid=2d5fb3dd-8046-40dd-829f-546b5b6801ec"},"vehicle_type_id":"4","last_reported":1711318077,"current_range_meters":14000,"station_id":"ce4bhqp2rcd13ifvqhng","pricing_plan_id":"cebpf4jnsgd1na2vs0mg"},{"bike_id":"3f7e5382-25ee-43e5-bbfc-00c7e9280b3d","system_id":"levelo_inurba_marseille","lat":43.317557,"lon":5.390173,"is_reserved":false,"is_disabled":false,"rental_uris":{"android":"levelo://app?vid=3f7e5382-25ee-43e5-bbfc-00c7e9280b3d","ios":"levelo://app?vid=3f7e5382-25ee-43e5-bbfc-00c7e9280b3d"},"vehicle_type_id":"4","last_reported":1711318077,"current_range_meters":8800,"station_id":"ce4bhqp2rcd13ifvqhng","pricing_plan_id":"cebpf4jnsgd1na2vs0mg"},{"bike_id":"6754a9e9-66e4-4669-85ef-d70f15e7e6a9","system_id":"levelo_inurba_marseille","lat":43.31751,"lon":5.39018,"is_reserved":false,"is_disabled":false,"rental_uris":{"android":"levelo://app?vid=6754a9e9-66e4-4669-85ef-d70f15e7e6a9","ios":"levelo://app?vid=6754a9e9-66e4-4669-85ef-d70f15e7e6a9"},"vehicle_type_id":"4","last_reported":1711318077,"current_range_meters":3600,"station_id":"ce4bhqp2rcd13ifvqhng","pricing_plan_id":"cebpf4jnsgd1na2vs0mg"},{"bike_id":"a84494ff-e488-44c6-9347-0b89aeb12141","system_id":"levelo_inurba_marseille","lat":43.31755,"lon":5.39017,"is_reserved":false,"is_disabled":false,"rental_uris":{"android":"levelo://app?vid=a84494ff-e488-44c6-9347-0b89aeb12141","ios":"levelo://app?vid=a84494ff-e488-44c6-9347-0b89aeb12141"},"vehicle_type_id":"4","last_reported":1711318077,"current_range_meters":4000,"station_id":"ce4bhqp2rcd13ifvqhng","pricing_plan_id":"cebpf4jnsgd1na2vs0mg"},{"bike_id":"655aa1d0-cd5b-4fe3-baa3-fa62dfaf2660","system_id":"levelo_inurba_marseille","lat":43.317557,"lon":5.390173,"is_reserved":false,"is_disabled":false,"rental_uris":{"android":"levelo://app?vid=655aa1d0-cd5b-4fe3-baa3-fa62dfaf2660","ios":"levelo://app?vid=655aa1d0-cd5b-4fe3-baa3-fa62dfaf2660"},"vehicle_type_id":"4","last_reported":1711318077,"current_range_meters":27200,"station_id":"ce4bhqp2rcd13ifvqhng","pricing_plan_id":"cebpf4jnsgd1na2vs0mg"},{"bike_id":"64faaf0e-8299-47ab-9335-1274f7d2f7f6","system_id":"levelo_inurba_marseille","lat":43.31753,"lon":5.39021,"is_reserved":false,"is_disabled":false,"rental_uris":{"android":"levelo://app?vid=64faaf0e-8299-47ab-9335-1274f7d2f7f6","ios":"levelo://app?vid=64faaf0e-8299-47ab-9335-1274f7d2f7f6"},"vehicle_type_id":"4","last_reported":1711318077,"current_range_meters":6400,"station_id":"ce4bhqp2rcd13ifvqhng","pricing_plan_id":"cebpf4jnsgd1na2vs0mg"},{"bike_id":"d82f7987-e846-442b-9405-1b4dbe04d52c","system_id":"levelo_inurba_marseille","lat":43.31753,"lon":5.39023,"is_reserved":false,"is_disabled":false,"rental_uris":{"android":"levelo://app?vid=d82f7987-e846-442b-9405-1b4dbe04d52c","ios":"levelo://app?vid=d82f7987-e846-442b-9405-1b4dbe04d52c"},"vehicle_type_id":"4","last_reported":1711318077,"current_range_meters":4400,"station_id":"ce4bhqp2rcd13ifvqhng","pricing_plan_id":"cebpf4jnsgd1na2vs0mg"},{"bike_id":"9c00e332-e493-41ed-bbf7-57fae36097c1","system_id":"levelo_inurba_marseille","lat":43.31758,"lon":5.39025,"is_reserved":false,"is_disabled":false,"rental_uris":{"android":"levelo://app?vid=9c00e332-e493-41ed-bbf7-57fae36097c1","ios":"levelo://app?vid=9c00e332-e493-41ed-bbf7-57fae36097c1"},"vehicle_type_id":"4","last_reported":1711318077,"current_range_meters":0,"station_id":"ce4bhqp2rcd13ifvqhng","pricing_plan_id":"cebpf4jnsgd1na2vs0mg"},{"bike_id":"ceace010-13a8-4d77-9c8c-733f246cd8f3","system_id":"levelo_inurba_marseille","lat":43.297466,"lon":5.379235,"is_reserved":false,"is_disabled":false,"rental_uris":{"android":"levelo://app?vid=ceace010-13a8-4d77-9c8c-733f246cd8f3","ios":"levelo://app?vid=ceace010-13a8-4d77-9c8c-733f246cd8f3"},"vehicle_type_id":"4","last_reported":1711318077,"current_range_meters":1200,"station_id":"","pricing_plan_id":"cebpf4jnsgd1na2vs0mg"},{"bike_id":"882bcdfe-53eb-4f6a-bfbe-951d4ed93c90","system_id":"levelo_inurba_marseille","lat":43.298037,"lon":5.381066,"is_reserved":false,"is_disabled":false,"rental_uris":{"android":"levelo://app?vid=882bcdfe-53eb-4f6a-bfbe-951d4ed93c90","ios":"levelo://app?vid=882bcdfe-53eb-4f6a-bfbe-951d4ed93c90"},"vehicle_type_id":"4","last_reported":1711318077,"current_range_meters":25600,"station_id":"ce4bgip2rcd13ifvqbb0","pricing_plan_id":"cebpf4jnsgd1na2vs0mg"},{"bike_id":"c5608d65-deed-4df0-ba77-39bcc3a8c1b6","system_id":"levelo_inurba_marseille","lat":43.304274,"lon":5.388873,"is_reserved":false,"is_disabled":false,"rental_uris":{"android":"levelo://app?vid=c5608d65-deed-4df0-ba77-39bcc3a8c1b6","ios":"levelo://app?vid=c5608d65-deed-4df0-ba77-39bcc3a8c1b6"},"vehicle_type_id":"4","last_reported":1711318077,"current_range_meters":0,"station_id":"ce4bgk12rcd13ifvqbi0","pricing_plan_id":"cebpf4jnsgd1na2vs0mg"},{"bike_id":"717a6247-a60c-4089-a19d-44bcc39af7dc","system_id":"levelo_inurba_marseille","lat":43.304274,"lon":5.388873,"is_reserved":false,"is_disabled":false,"rental_uris":{"android":"levelo://app?vid=717a6247-a60c-4089-a19d-44bcc39af7dc","ios":"levelo://app?vid=717a6247-a60c-4089-a19d-44bcc39af7dc"},"vehicle_type_id":"4","last_reported":1711318077,"current_range_meters":13600,"station_id":"ce4bgk12rcd13ifvqbi0","pricing_plan_id":"cebpf4jnsgd1na2vs0mg"},{"bike_id":"2c864b8f-45e6-4378-914b-5f0293c6372b","system_id":"levelo_inurba_marseille","lat":43.304278,"lon":5.388868,"is_reserved":false,"is_disabled":false,"rental_uris":{"android":"levelo://app?vid=2c864b8f-45e6-4378-914b-5f0293c6372b","ios":"levelo://app?vid=2c864b8f-45e6-4378-914b-5f0293c6372b"},"vehicle_type_id":"4","last_reported":1711318077,"current_range_meters":10400,"station_id":"ce4bgk12rcd13ifvqbi0","pricing_plan_id":"cebpf4jnsgd1na2vs0mg"},{"bike_id":"c7b6608b-f19c-4139-a9f2-e5f1abb9d5e1","system_id":"levelo_inurba_marseille","lat":43.304278,"lon":5.388868,"is_reserved":false,"is_disabled":false,"rental_uris":{"android":"levelo://app?vid=c7b6608b-f19c-4139-a9f2-e5f1abb9d5e1","ios":"levelo://app?vid=c7b6608b-f19c-4139-a9f2-e5f1abb9d5e1"},"vehicle_type_id":"4","last_reported":1711318077,"current_range_meters":7200,"station_id":"ce4bgk12rcd13ifvqbi0","pricing_plan_id":"cebpf4jnsgd1na2vs0mg"},{"bike_id":"7c7927ef-dff8-4073-a937-dd6062b8abc2","system_id":"levelo_inurba_marseille","lat":43.304278,"lon":5.388868,"is_reserved":false,"is_disabled":false,"rental_uris":{"android":"levelo://app?vid=7c7927ef-dff8-4073-a937-dd6062b8abc2","ios":"levelo://app?vid=7c7927ef-dff8-4073-a937-dd6062b8abc2"},"vehicle_type_id":"4","last_reported":1711318077,"current_range_meters":20000,"station_id":"ce4bgk12rcd13ifvqbi0","pricing_plan_id":"cebpf4jnsgd1na2vs0mg"},{"bike_id":"d8a6fa24-0ae1-4e18-9f3a-5d1ee56263a4","system_id":"levelo_inurba_marseille","lat":43.298037,"lon":5.381066,"is_reserved":false,"is_disabled":false,"rental_uris":{"android":"levelo://app?vid=d8a6fa24-0ae1-4e18-9f3a-5d1ee56263a4","ios":"levelo://app?vid=d8a6fa24-0ae1-4e18-9f3a-5d1ee56263a4"},"vehicle_type_id":"4","last_reported":1711318077,"current_range_meters":400,"station_id":"ce4bgip2rcd13ifvqbb0","pricing_plan_id":"cebpf4jnsgd1na2vs0mg"},{"bike_id":"ba6147ca-cdbd-46c0-9f6f-1a5d5eabfc15","system_id":"levelo_inurba_marseille","lat":43.308012,"lon":5.381511,"is_reserved":false,"is_disabled":false,"rental_uris":{"android":"levelo://app?vid=ba6147ca-cdbd-46c0-9f6f-1a5d5eabfc15","ios":"levelo://app?vid=ba6147ca-cdbd-46c0-9f6f-1a5d5eabfc15"},"vehicle_type_id":"4","last_reported":1711318077,"current_range_meters":26000,"station_id":"ce4bgt12rcd13ifvqce0","pricing_plan_id":"cebpf4jnsgd1na2vs0mg"},{"bike_id":"bfe274c8-62bc-4229-a592-6d263a819b7e","system_id":"levelo_inurba_marseille","lat":43.304274,"lon":5.388873,"is_reserved":false,"is_disabled":false,"rental_uris":{"android":"levelo://app?vid=bfe274c8-62bc-4229-a592-6d263a819b7e","ios":"levelo://app?vid=bfe274c8-62bc-4229-a592-6d263a819b7e"},"vehicle_type_id":"4","last_reported":1711318077,"current_range_meters":14800,"station_id":"ce4bgk12rcd13ifvqbi0","pricing_plan_id":"cebpf4jnsgd1na2vs0mg"},{"bike_id":"b485d69e-09ac-4141-a1de-35f5300256ba","system_id":"levelo_inurba_marseille","lat":43.304274,"lon":5.388873,"is_reserved":false,"is_disabled":false,"rental_uris":{"android":"levelo://app?vid=b485d69e-09ac-4141-a1de-35f5300256ba","ios":"levelo://app?vid=b485d69e-09ac-4141-a1de-35f5300256ba"},"vehicle_type_id":"4","last_reported":1711318077,"current_range_meters":2000,"station_id":"ce4bgk12rcd13ifvqbi0","pricing_plan_id":"cebpf4jnsgd1na2vs0mg"},{"bike_id":"f958375e-d616-45a5-b8bb-a533c27e5db3","system_id":"levelo_inurba_marseille","lat":43.304274,"lon":5.388873,"is_reserved":false,"is_disabled":false,"rental_uris":{"android":"levelo://app?vid=f958375e-d616-45a5-b8bb-a533c27e5db3","ios":"levelo://app?vid=f958375e-d616-45a5-b8bb-a533c27e5db3"},"vehicle_type_id":"4","last_reported":1711318077,"current_range_meters":12000,"station_id":"ce4bgk12rcd13ifvqbi0","pricing_plan_id":"cebpf4jnsgd1na2vs0mg"},{"bike_id":"6d772d20-7b4d-44b2-9abb-5e9c8b10a5d8","system_id":"levelo_inurba_marseille","lat":43.295748,"lon":5.37522,"is_reserved":false,"is_disabled":false,"rental_uris":{"android":"levelo://app?vid=6d772d20-7b4d-44b2-9abb-5e9c8b10a5d8","ios":"levelo://app?vid=6d772d20-7b4d-44b2-9abb-5e9c8b10a5d8"},"vehicle_type_id":"4","last_reported":1711318077,"current_range_meters":0,"station_id":"ce4bgh92rcd13ifvqb50","pricing_plan_id":"cebpf4jnsgd1na2vs0mg"},{"bike_id":"e8e26ba2-93d6-440a-828c-d285cfe4003e","system_id":"levelo_inurba_marseille","lat":43.286961,"lon":5.373785,"is_reserved":false,"is_disabled":false,"rental_uris":{"android":"levelo://app?vid=e8e26ba2-93d6-440a-828c-d285cfe4003e","ios":"levelo://app?vid=e8e26ba2-93d6-440a-828c-d285cfe4003e"},"vehicle_type_id":"4","last_reported":1711318077,"current_range_meters":4400,"station_id":"ce4bh3p2rcd13ifvqdq0","pricing_plan_id":"cebpf4jnsgd1na2vs0mg"},{"bike_id":"bc2d5b4b-02c4-4a68-991f-54a5b20faf6d","system_id":"levelo_inurba_marseille","lat":43.29559,"lon":5.37521,"is_reserved":false,"is_disabled":false,"rental_uris":{"android":"levelo://app?vid=bc2d5b4b-02c4-4a68-991f-54a5b20faf6d","ios":"levelo://app?vid=bc2d5b4b-02c4-4a68-991f-54a5b20faf6d"},"vehicle_type_id":"4","last_reported":1711318077,"current_range_meters":5600,"station_id":"ce4bgh92rcd13ifvqb50","pricing_plan_id":"cebpf4jnsgd1na2vs0mg"},{"bike_id":"617b0e6f-676e-40f0-bbaf-c9395e5b4dcd","system_id":"levelo_inurba_marseille","lat":43.3146,"lon":5.392104,"is_reserved":false,"is_disabled":false,"rental_uris":{"android":"levelo://app?vid=617b0e6f-676e-40f0-bbaf-c9395e5b4dcd","ios":"levelo://app?vid=617b0e6f-676e-40f0-bbaf-c9395e5b4dcd"},"vehicle_type_id":"4","last_reported":1711318077,"current_range_meters":5600,"station_id":"","pricing_plan_id":"cebpf4jnsgd1na2vs0mg"},{"bike_id":"7999b2f4-4b43-4b7e-a43b-eb97cf74ab75","system_id":"levelo_inurba_marseille","lat":43.295279,"lon":5.375048,"is_reserved":false,"is_disabled":false,"rental_uris":{"android":"levelo://app?vid=7999b2f4-4b43-4b7e-a43b-eb97cf74ab75","ios":"levelo://app?vid=7999b2f4-4b43-4b7e-a43b-eb97cf74ab75"},"vehicle_type_id":"4","last_reported":1711318077,"current_range_meters":6000,"station_id":"ce4bgkp2rcd13ifvqbmg","pricing_plan_id":"cebpf4jnsgd1na2vs0mg"},{"bike_id":"bf9bf615-bce6-4b76-a67d-ae2385bcd89c","system_id":"levelo_inurba_marseille","lat":43.31455,"lon":5.39218,"is_reserved":false,"is_disabled":false,"rental_uris":{"android":"levelo://app?vid=bf9bf615-bce6-4b76-a67d-ae2385bcd89c","ios":"levelo://app?vid=bf9bf615-bce6-4b76-a67d-ae2385bcd89c"},"vehicle_type_id":"4","last_reported":1711318077,"current_range_meters":31200,"station_id":"","pricing_plan_id":"cebpf4jnsgd1na2vs0mg"},{"bike_id":"3c9dfb89-fa8c-41db-88ed-f6fffc463c9d","system_id":"levelo_inurba_marseille","lat":43.32367,"lon":5.388836,"is_reserved":false,"is_disabled":false,"rental_uris":{"android":"levelo://app?vid=3c9dfb89-fa8c-41db-88ed-f6fffc463c9d","ios":"levelo://app?vid=3c9dfb89-fa8c-41db-88ed-f6fffc463c9d"},"vehicle_type_id":"4","last_reported":1711318077,"current_range_meters":9600,"station_id":"ce4bhqp2rcd13ifvqhog","pricing_plan_id":"cebpf4jnsgd1na2vs0mg"},{"bike_id":"32a8d61d-f3bf-4bec-a1a3-1c4d4de72d82","system_id":"levelo_inurba_marseille","lat":43.32367,"lon":5.388836,"is_reserved":false,"is_disabled":false,"rental_uris":{"android":"levelo://app?vid=32a8d61d-f3bf-4bec-a1a3-1c4d4de72d82","ios":"levelo://app?vid=32a8d61d-f3bf-4bec-a1a3-1c4d4de72d82"},"vehicle_type_id":"4","last_reported":1711318077,"current_range_meters":0,"station_id":"ce4bhqp2rcd13ifvqhog","pricing_plan_id":"cebpf4jnsgd1na2vs0mg"},{"bike_id":"4a3df1e6-d90c-4e48-b8ff-ad7fdfe779c9","system_id":"levelo_inurba_marseille","lat":43.32368,"lon":5.38888,"is_reserved":false,"is_disabled":false,"rental_uris":{"android":"levelo://app?vid=4a3df1e6-d90c-4e48-b8ff-ad7fdfe779c9","ios":"levelo://app?vid=4a3df1e6-d90c-4e48-b8ff-ad7fdfe779c9"},"vehicle_type_id":"4","last_reported":1711318077,"current_range_meters":0,"station_id":"ce4bhqp2rcd13ifvqhog","pricing_plan_id":"cebpf4jnsgd1na2vs0mg"},{"bike_id":"c9a3c98e-7cac-4856-b507-897618b57146","system_id":"levelo_inurba_marseille","lat":43.323669,"lon":5.388956,"is_reserved":false,"is_disabled":false,"rental_uris":{"android":"levelo://app?vid=c9a3c98e-7cac-4856-b507-897618b57146","ios":"levelo://app?vid=c9a3c98e-7cac-4856-b507-897618b57146"},"vehicle_type_id":"4","last_reported":1711318077,"current_range_meters":3600,"station_id":"ce4bhqp2rcd13ifvqhog","pricing_plan_id":"cebpf4jnsgd1na2vs0mg"},{"bike_id":"ac48490b-b28b-4a6e-86f7-beb7dd33312b","system_id":"levelo_inurba_marseille","lat":43.29602,"lon":5.381084,"is_reserved":false,"is_disabled":false,"rental_uris":{"android":"levelo://app?vid=ac48490b-b28b-4a6e-86f7-beb7dd33312b","ios":"levelo://app?vid=ac48490b-b28b-4a6e-86f7-beb7dd33312b"},"vehicle_type_id":"4","last_reported":1711318077,"current_range_meters":16000,"station_id":"ce4bgl12rcd13ifvqbo0","pricing_plan_id":"cebpf4jnsgd1na2vs0mg"},{"bike_id":"5fa3f5ea-f140-48ed-ba05-1bb2e0cdfa5e","system_id":"levelo_inurba_marseille","lat":43.29601,"lon":5.381084,"is_reserved":false,"is_disabled":false,"rental_uris":{"android":"levelo://app?vid=5fa3f5ea-f140-48ed-ba05-1bb2e0cdfa5e","ios":"levelo://app?vid=5fa3f5ea-f140-48ed-ba05-1bb2e0cdfa5e"},"vehicle_type_id":"4","last_reported":1711318077,"current_range_meters":21600,"station_id":"ce4bgl12rcd13ifvqbo0","pricing_plan_id":"cebpf4jnsgd1na2vs0mg"},{"bike_id":"5f64c8f7-0508-4282-a046-ed90eb561669","system_id":"levelo_inurba_marseille","lat":43.29602,"lon":5.381084,"is_reserved":false,"is_disabled":false,"rental_uris":{"android":"levelo://app?vid=5f64c8f7-0508-4282-a046-ed90eb561669","ios":"levelo://app?vid=5f64c8f7-0508-4282-a046-ed90eb561669"},"vehicle_type_id":"4","last_reported":1711318077,"current_range_meters":11600,"station_id":"ce4bgl12rcd13ifvqbo0","pricing_plan_id":"cebpf4jnsgd1na2vs0mg"},{"bike_id":"40f3fc12-09d6-4938-a2de-f31351b62be0","system_id":"levelo_inurba_marseille","lat":43.29601,"lon":5.381084,"is_reserved":false,"is_disabled":false,"rental_uris":{"android":"levelo://app?vid=40f3fc12-09d6-4938-a2de-f31351b62be0","ios":"levelo://app?vid=40f3fc12-09d6-4938-a2de-f31351b62be0"},"vehicle_type_id":"4","last_reported":1711318077,"current_range_meters":28000,"station_id":"ce4bgl12rcd13ifvqbo0","pricing_plan_id":"cebpf4jnsgd1na2vs0mg"},{"bike_id":"af20fe1b-1205-495a-ae29-c78e2bd2f7ff","system_id":"levelo_inurba_marseille","lat":43.295923,"lon":5.38103,"is_reserved":false,"is_disabled":false,"rental_uris":{"android":"levelo://app?vid=af20fe1b-1205-495a-ae29-c78e2bd2f7ff","ios":"levelo://app?vid=af20fe1b-1205-495a-ae29-c78e2bd2f7ff"},"vehicle_type_id":"4","last_reported":1711318077,"current_range_meters":0,"station_id":"ce4bgl12rcd13ifvqbo0","pricing_plan_id":"cebpf4jnsgd1na2vs0mg"},{"bike_id":"b83e59b8-746e-4834-8444-55d624f71a3c","system_id":"levelo_inurba_marseille","lat":43.293249,"lon":5.371578,"is_reserved":false,"is_disabled":false,"rental_uris":{"android":"levelo://app?vid=b83e59b8-746e-4834-8444-55d624f71a3c","ios":"levelo://app?vid=b83e59b8-746e-4834-8444-55d624f71a3c"},"vehicle_type_id":"4","last_reported":1711318077,"current_range_meters":6800,"station_id":"ce4bgh92rcd13ifvqb40","pricing_plan_id":"cebpf4jnsgd1na2vs0mg"},{"bike_id":"0834031b-0601-45c1-88c6-948014e80046","system_id":"levelo_inurba_marseille","lat":43.293009,"lon":5.374584,"is_reserved":false,"is_disabled":false,"rental_uris":{"android":"levelo://app?vid=0834031b-0601-45c1-88c6-948014e80046","ios":"levelo://app?vid=0834031b-0601-45c1-88c6-948014e80046"},"vehicle_type_id":"4","last_reported":1711318077,"current_range_meters":29200,"station_id":"ce4bgi12rcd13ifvqb70","pricing_plan_id":"cebpf4jnsgd1na2vs0mg"},{"bike_id":"fd15f54b-9ceb-47c3-a29c-3bb1c7684836","system_id":"levelo_inurba_marseille","lat":43.305994,"lon":5.393687,"is_reserved":false,"is_disabled":false,"rental_uris":{"android":"levelo://app?vid=fd15f54b-9ceb-47c3-a29c-3bb1c7684836","ios":"levelo://app?vid=fd15f54b-9ceb-47c3-a29c-3bb1c7684836"},"vehicle_type_id":"4","last_reported":1711318077,"current_range_meters":27200,"station_id":"ce4bh0p2rcd13ifvqd80","pricing_plan_id":"cebpf4jnsgd1na2vs0mg"},{"bike_id":"5aa9f1d3-d1ee-44e0-bdb0-7ca2f99a2712","system_id":"levelo_inurba_marseille","lat":43.293009,"lon":5.374584,"is_reserved":false,"is_disabled":false,"rental_uris":{"android":"levelo://app?vid=5aa9f1d3-d1ee-44e0-bdb0-7ca2f99a2712","ios":"levelo://app?vid=5aa9f1d3-d1ee-44e0-bdb0-7ca2f99a2712"},"vehicle_type_id":"4","last_reported":1711318077,"current_range_meters":4800,"station_id":"ce4bgi12rcd13ifvqb70","pricing_plan_id":"cebpf4jnsgd1na2vs0mg"},{"bike_id":"d808d336-62f6-4165-825b-d075199f24ce","system_id":"levelo_inurba_marseille","lat":43.302992,"lon":5.392136,"is_reserved":false,"is_disabled":false,"rental_uris":{"android":"levelo://app?vid=d808d336-62f6-4165-825b-d075199f24ce","ios":"levelo://app?vid=d808d336-62f6-4165-825b-d075199f24ce"},"vehicle_type_id":"4","last_reported":1711318077,"current_range_meters":31200,"station_id":"ce4bgkh2rcd13ifvqbk0","pricing_plan_id":"cebpf4jnsgd1na2vs0mg"},{"bike_id":"a4b99bf9-b003-4a98-9ed8-7806be131bae","system_id":"levelo_inurba_marseille","lat":43.2936,"lon":5.37835,"is_reserved":false,"is_disabled":false,"rental_uris":{"android":"levelo://app?vid=a4b99bf9-b003-4a98-9ed8-7806be131bae","ios":"levelo://app?vid=a4b99bf9-b003-4a98-9ed8-7806be131bae"},"vehicle_type_id":"4","last_reported":1711318077,"current_range_meters":24400,"station_id":"ce4bgjh2rcd13ifvqbf0","pricing_plan_id":"cebpf4jnsgd1na2vs0mg"},{"bike_id":"a99fadac-f039-40b3-bb88-3b12444a059b","system_id":"levelo_inurba_marseille","lat":43.302992,"lon":5.392136,"is_reserved":false,"is_disabled":false,"rental_uris":{"android":"levelo://app?vid=a99fadac-f039-40b3-bb88-3b12444a059b","ios":"levelo://app?vid=a99fadac-f039-40b3-bb88-3b12444a059b"},"vehicle_type_id":"4","last_reported":1711318077,"current_range_meters":400,"station_id":"ce4bgkh2rcd13ifvqbk0","pricing_plan_id":"cebpf4jnsgd1na2vs0mg"},{"bike_id":"09a54d30-564d-4df6-8e05-798766d495cc","system_id":"levelo_inurba_marseille","lat":43.293716,"lon":5.378573,"is_reserved":false,"is_disabled":false,"rental_uris":{"android":"levelo://app?vid=09a54d30-564d-4df6-8e05-798766d495cc","ios":"levelo://app?vid=09a54d30-564d-4df6-8e05-798766d495cc"},"vehicle_type_id":"4","last_reported":1711318077,"current_range_meters":0,"station_id":"ce4bgjh2rcd13ifvqbf0","pricing_plan_id":"cebpf4jnsgd1na2vs0mg"},{"bike_id":"990a543c-a485-4d26-9256-166dc7641d31","system_id":"levelo_inurba_marseille","lat":43.302992,"lon":5.392136,"is_reserved":false,"is_disabled":false,"rental_uris":{"android":"levelo://app?vid=990a543c-a485-4d26-9256-166dc7641d31","ios":"levelo://app?vid=990a543c-a485-4d26-9256-166dc7641d31"},"vehicle_type_id":"4","last_reported":1711318077,"current_range_meters":28400,"station_id":"ce4bgkh2rcd13ifvqbk0","pricing_plan_id":"cebpf4jnsgd1na2vs0mg"},{"bike_id":"7f25e0d9-bcde-4f18-9e40-239d0e338e61","system_id":"levelo_inurba_marseille","lat":43.292311,"lon":5.360731,"is_reserved":false,"is_disabled":false,"rental_uris":{"android":"levelo://app?vid=7f25e0d9-bcde-4f18-9e40-239d0e338e61","ios":"levelo://app?vid=7f25e0d9-bcde-4f18-9e40-239d0e338e61"},"vehicle_type_id":"4","last_reported":1711318077,"current_range_meters":23200,"station_id":"ce4bhbh2rcd13ifvqeqg","pricing_plan_id":"cebpf4jnsgd1na2vs0mg"},{"bike_id":"3d97b71b-fd6f-49cd-966d-a9ead491b8b1","system_id":"levelo_inurba_marseille","lat":43.292645,"lon":5.376228,"is_reserved":false,"is_disabled":false,"rental_uris":{"android":"levelo://app?vid=3d97b71b-fd6f-49cd-966d-a9ead491b8b1","ios":"levelo://app?vid=3d97b71b-fd6f-49cd-966d-a9ead491b8b1"},"vehicle_type_id":"4","last_reported":1711318077,"current_range_meters":13600,"station_id":"","pricing_plan_id":"cebpf4jnsgd1na2vs0mg"},{"bike_id":"49f7b429-fd3b-412a-b06c-938c88f7545b","system_id":"levelo_inurba_marseille","lat":43.298764,"lon":5.388973,"is_reserved":false,"is_disabled":false,"rental_uris":{"android":"levelo://app?vid=49f7b429-fd3b-412a-b06c-938c88f7545b","ios":"levelo://app?vid=49f7b429-fd3b-412a-b06c-938c88f7545b"},"vehicle_type_id":"4","last_reported":1711318077,"current_range_meters":2000,"station_id":"ce4bh392rcd13ifvqdl0","pricing_plan_id":"cebpf4jnsgd1na2vs0mg"},{"bike_id":"f930cdc3-fa9d-4e07-9d5a-a2232e593c01","system_id":"levelo_inurba_marseille","lat":43.291671,"lon":5.371575,"is_reserved":false,"is_disabled":false,"rental_uris":{"android":"levelo://app?vid=f930cdc3-fa9d-4e07-9d5a-a2232e593c01","ios":"levelo://app?vid=f930cdc3-fa9d-4e07-9d5a-a2232e593c01"},"vehicle_type_id":"4","last_reported":1711318077,"current_range_meters":20000,"station_id":"ce4bha92rcd13ifvqeh0","pricing_plan_id":"cebpf4jnsgd1na2vs0mg"},{"bike_id":"95706434-a502-4a7f-8034-da9c5d360171","system_id":"levelo_inurba_marseille","lat":43.2917,"lon":5.37144,"is_reserved":false,"is_disabled":false,"rental_uris":{"android":"levelo://app?vid=95706434-a502-4a7f-8034-da9c5d360171","ios":"levelo://app?vid=95706434-a502-4a7f-8034-da9c5d360171"},"vehicle_type_id":"4","last_reported":1711318077,"current_range_meters":22000,"station_id":"ce4bha92rcd13ifvqeh0","pricing_plan_id":"cebpf4jnsgd1na2vs0mg"},{"bike_id":"19d04b22-664a-405f-8716-32996279d08c","system_id":"levelo_inurba_marseille","lat":43.291675,"lon":5.371583,"is_reserved":false,"is_disabled":false,"rental_uris":{"android":"levelo://app?vid=19d04b22-664a-405f-8716-32996279d08c","ios":"levelo://app?vid=19d04b22-664a-405f-8716-32996279d08c"},"vehicle_type_id":"4","last_reported":1711318077,"current_range_meters":18400,"station_id":"ce4bha92rcd13ifvqeh0","pricing_plan_id":"cebpf4jnsgd1na2vs0mg"},{"bike_id":"be726605-b133-4f14-91fe-63a6f13a9f87","system_id":"levelo_inurba_marseille","lat":43.291675,"lon":5.371583,"is_reserved":false,"is_disabled":false,"rental_uris":{"android":"levelo://app?vid=be726605-b133-4f14-91fe-63a6f13a9f87","ios":"levelo://app?vid=be726605-b133-4f14-91fe-63a6f13a9f87"},"vehicle_type_id":"4","last_reported":1711318077,"current_range_meters":28000,"station_id":"ce4bha92rcd13ifvqeh0","pricing_plan_id":"cebpf4jnsgd1na2vs0mg"},{"bike_id":"c570446a-fc1a-4b8b-bae9-56d96ee5ffa1","system_id":"levelo_inurba_marseille","lat":43.298764,"lon":5.388973,"is_reserved":false,"is_disabled":false,"rental_uris":{"android":"levelo://app?vid=c570446a-fc1a-4b8b-bae9-56d96ee5ffa1","ios":"levelo://app?vid=c570446a-fc1a-4b8b-bae9-56d96ee5ffa1"},"vehicle_type_id":"4","last_reported":1711318077,"current_range_meters":0,"station_id":"ce4bh392rcd13ifvqdl0","pricing_plan_id":"cebpf4jnsgd1na2vs0mg"},{"bike_id":"c5ba5147-9647-4daf-b5f7-6ad188a061b8","system_id":"levelo_inurba_marseille","lat":43.298764,"lon":5.388973,"is_reserved":false,"is_disabled":false,"rental_uris":{"android":"levelo://app?vid=c5ba5147-9647-4daf-b5f7-6ad188a061b8","ios":"levelo://app?vid=c5ba5147-9647-4daf-b5f7-6ad188a061b8"},"vehicle_type_id":"4","last_reported":1711318077,"current_range_meters":0,"station_id":"ce4bh392rcd13ifvqdl0","pricing_plan_id":"cebpf4jnsgd1na2vs0mg"},{"bike_id":"94605962-3ca2-4a7a-8236-9981f7bb73cb","system_id":"levelo_inurba_marseille","lat":43.298764,"lon":5.388973,"is_reserved":false,"is_disabled":false,"rental_uris":{"android":"levelo://app?vid=94605962-3ca2-4a7a-8236-9981f7bb73cb","ios":"levelo://app?vid=94605962-3ca2-4a7a-8236-9981f7bb73cb"},"vehicle_type_id":"4","last_reported":1711318077,"current_range_meters":32000,"station_id":"ce4bh392rcd13ifvqdl0","pricing_plan_id":"cebpf4jnsgd1na2vs0mg"},{"bike_id":"501bde02-5377-4406-8aa8-56fceaae0671","system_id":"levelo_inurba_marseille","lat":43.29161,"lon":5.37147,"is_reserved":false,"is_disabled":false,"rental_uris":{"android":"levelo://app?vid=501bde02-5377-4406-8aa8-56fceaae0671","ios":"levelo://app?vid=501bde02-5377-4406-8aa8-56fceaae0671"},"vehicle_type_id":"4","last_reported":1711318077,"current_range_meters":0,"station_id":"ce4bha92rcd13ifvqeh0","pricing_plan_id":"cebpf4jnsgd1na2vs0mg"},{"bike_id":"b604a993-cde2-4f9f-9ded-ad54b25a5384","system_id":"levelo_inurba_marseille","lat":43.291671,"lon":5.371575,"is_reserved":false,"is_disabled":false,"rental_uris":{"android":"levelo://app?vid=b604a993-cde2-4f9f-9ded-ad54b25a5384","ios":"levelo://app?vid=b604a993-cde2-4f9f-9ded-ad54b25a5384"},"vehicle_type_id":"4","last_reported":1711318077,"current_range_meters":22400,"station_id":"ce4bha92rcd13ifvqeh0","pricing_plan_id":"cebpf4jnsgd1na2vs0mg"},{"bike_id":"476bc37a-abf3-4429-b7cd-f8dffcc2dc5e","system_id":"levelo_inurba_marseille","lat":43.29195,"lon":5.35802,"is_reserved":false,"is_disabled":false,"rental_uris":{"android":"levelo://app?vid=476bc37a-abf3-4429-b7cd-f8dffcc2dc5e","ios":"levelo://app?vid=476bc37a-abf3-4429-b7cd-f8dffcc2dc5e"},"vehicle_type_id":"4","last_reported":1711318077,"current_range_meters":0,"station_id":"ce4bhb12rcd13ifvqel0","pricing_plan_id":"cebpf4jnsgd1na2vs0mg"},{"bike_id":"eed036a8-7bbc-4b94-82e6-875246a9783e","system_id":"levelo_inurba_marseille","lat":43.291994,"lon":5.357886,"is_reserved":false,"is_disabled":false,"rental_uris":{"android":"levelo://app?vid=eed036a8-7bbc-4b94-82e6-875246a9783e","ios":"levelo://app?vid=eed036a8-7bbc-4b94-82e6-875246a9783e"},"vehicle_type_id":"4","last_reported":1711318077,"current_range_meters":22800,"station_id":"ce4bhb12rcd13ifvqel0","pricing_plan_id":"cebpf4jnsgd1na2vs0mg"},{"bike_id":"376de0c9-ae70-4038-8f86-156ff007aae1","system_id":"levelo_inurba_marseille","lat":43.291994,"lon":5.357886,"is_reserved":false,"is_disabled":false,"rental_uris":{"android":"levelo://app?vid=376de0c9-ae70-4038-8f86-156ff007aae1","ios":"levelo://app?vid=376de0c9-ae70-4038-8f86-156ff007aae1"},"vehicle_type_id":"4","last_reported":1711318077,"current_range_meters":21600,"station_id":"ce4bhb12rcd13ifvqel0","pricing_plan_id":"cebpf4jnsgd1na2vs0mg"},{"bike_id":"3798347e-e047-45b3-9622-ef48c12b607c","system_id":"levelo_inurba_marseille","lat":43.291994,"lon":5.357886,"is_reserved":false,"is_disabled":false,"rental_uris":{"android":"levelo://app?vid=3798347e-e047-45b3-9622-ef48c12b607c","ios":"levelo://app?vid=3798347e-e047-45b3-9622-ef48c12b607c"},"vehicle_type_id":"4","last_reported":1711318077,"current_range_meters":7600,"station_id":"ce4bhb12rcd13ifvqel0","pricing_plan_id":"cebpf4jnsgd1na2vs0mg"},{"bike_id":"ef91743d-ccc0-4c56-b1b9-c3c5a32e9dd9","system_id":"levelo_inurba_marseille","lat":43.313291,"lon":5.396838,"is_reserved":false,"is_disabled":false,"rental_uris":{"android":"levelo://app?vid=ef91743d-ccc0-4c56-b1b9-c3c5a32e9dd9","ios":"levelo://app?vid=ef91743d-ccc0-4c56-b1b9-c3c5a32e9dd9"},"vehicle_type_id":"4","last_reported":1711318077,"current_range_meters":12400,"station_id":"ce4bgvp2rcd13ifvqcu0","pricing_plan_id":"cebpf4jnsgd1na2vs0mg"},{"bike_id":"376923cd-9dd8-4ad1-914c-52d87d6fa346","system_id":"levelo_inurba_marseille","lat":43.309038,"lon":5.396546,"is_reserved":false,"is_disabled":false,"rental_uris":{"android":"levelo://app?vid=376923cd-9dd8-4ad1-914c-52d87d6fa346","ios":"levelo://app?vid=376923cd-9dd8-4ad1-914c-52d87d6fa346"},"vehicle_type_id":"4","last_reported":1711318077,"current_range_meters":23200,"station_id":"ce4bh012rcd13ifvqcv0","pricing_plan_id":"cebpf4jnsgd1na2vs0mg"},{"bike_id":"9b0950ce-14a9-4495-8e37-1f70ae31bb1f","system_id":"levelo_inurba_marseille","lat":43.313291,"lon":5.396838,"is_reserved":false,"is_disabled":false,"rental_uris":{"android":"levelo://app?vid=9b0950ce-14a9-4495-8e37-1f70ae31bb1f","ios":"levelo://app?vid=9b0950ce-14a9-4495-8e37-1f70ae31bb1f"},"vehicle_type_id":"4","last_reported":1711318077,"current_range_meters":10400,"station_id":"ce4bgvp2rcd13ifvqcu0","pricing_plan_id":"cebpf4jnsgd1na2vs0mg"},{"bike_id":"9f8aa523-cc03-4866-a137-c0d2a5b7c2dd","system_id":"levelo_inurba_marseille","lat":43.309038,"lon":5.396546,"is_reserved":false,"is_disabled":false,"rental_uris":{"android":"levelo://app?vid=9f8aa523-cc03-4866-a137-c0d2a5b7c2dd","ios":"levelo://app?vid=9f8aa523-cc03-4866-a137-c0d2a5b7c2dd"},"vehicle_type_id":"4","last_reported":1711318077,"current_range_meters":20000,"station_id":"ce4bh012rcd13ifvqcv0","pricing_plan_id":"cebpf4jnsgd1na2vs0mg"},{"bike_id":"bf4788b9-267c-43f6-976e-305dd38c534d","system_id":"levelo_inurba_marseille","lat":43.309047,"lon":5.396551,"is_reserved":false,"is_disabled":false,"rental_uris":{"android":"levelo://app?vid=bf4788b9-267c-43f6-976e-305dd38c534d","ios":"levelo://app?vid=bf4788b9-267c-43f6-976e-305dd38c534d"},"vehicle_type_id":"4","last_reported":1711318077,"current_range_meters":27200,"station_id":"ce4bh012rcd13ifvqcv0","pricing_plan_id":"cebpf4jnsgd1na2vs0mg"},{"bike_id":"739ea645-cacf-436b-a383-15ab5ee37d04","system_id":"levelo_inurba_marseille","lat":43.313291,"lon":5.396838,"is_reserved":false,"is_disabled":false,"rental_uris":{"android":"levelo://app?vid=739ea645-cacf-436b-a383-15ab5ee37d04","ios":"levelo://app?vid=739ea645-cacf-436b-a383-15ab5ee37d04"},"vehicle_type_id":"4","last_reported":1711318077,"current_range_meters":0,"station_id":"ce4bgvp2rcd13ifvqcu0","pricing_plan_id":"cebpf4jnsgd1na2vs0mg"},{"bike_id":"d44c6ff9-4715-4809-b7d1-4ab411ed921d","system_id":"levelo_inurba_marseille","lat":43.309047,"lon":5.396551,"is_reserved":false,"is_disabled":false,"rental_uris":{"android":"levelo://app?vid=d44c6ff9-4715-4809-b7d1-4ab411ed921d","ios":"levelo://app?vid=d44c6ff9-4715-4809-b7d1-4ab411ed921d"},"vehicle_type_id":"4","last_reported":1711318077,"current_range_meters":18000,"station_id":"ce4bh012rcd13ifvqcv0","pricing_plan_id":"cebpf4jnsgd1na2vs0mg"},{"bike_id":"e34bcaf2-c122-4646-8e32-2df863f13b55","system_id":"levelo_inurba_marseille","lat":43.309047,"lon":5.396551,"is_reserved":false,"is_disabled":false,"rental_uris":{"android":"levelo://app?vid=e34bcaf2-c122-4646-8e32-2df863f13b55","ios":"levelo://app?vid=e34bcaf2-c122-4646-8e32-2df863f13b55"},"vehicle_type_id":"4","last_reported":1711318077,"current_range_meters":14400,"station_id":"ce4bh012rcd13ifvqcv0","pricing_plan_id":"cebpf4jnsgd1na2vs0mg"},{"bike_id":"a9862dbe-b03c-4c00-82c1-0668ccaafebf","system_id":"levelo_inurba_marseille","lat":43.295357,"lon":5.385353,"is_reserved":false,"is_disabled":false,"rental_uris":{"android":"levelo://app?vid=a9862dbe-b03c-4c00-82c1-0668ccaafebf","ios":"levelo://app?vid=a9862dbe-b03c-4c00-82c1-0668ccaafebf"},"vehicle_type_id":"4","last_reported":1711318077,"current_range_meters":0,"station_id":"ce4bgih2rcd13ifvqba0","pricing_plan_id":"cebpf4jnsgd1na2vs0mg"},{"bike_id":"c4a2ceca-0c3b-4a51-8517-0ef83a79342b","system_id":"levelo_inurba_marseille","lat":43.309047,"lon":5.396551,"is_reserved":false,"is_disabled":false,"rental_uris":{"android":"levelo://app?vid=c4a2ceca-0c3b-4a51-8517-0ef83a79342b","ios":"levelo://app?vid=c4a2ceca-0c3b-4a51-8517-0ef83a79342b"},"vehicle_type_id":"4","last_reported":1711318077,"current_range_meters":18400,"station_id":"ce4bh012rcd13ifvqcv0","pricing_plan_id":"cebpf4jnsgd1na2vs0mg"},{"bike_id":"1fb82d2e-9fc3-4c5b-8897-c1b42ea9b285","system_id":"levelo_inurba_marseille","lat":43.313291,"lon":5.396838,"is_reserved":false,"is_disabled":false,"rental_uris":{"android":"levelo://app?vid=1fb82d2e-9fc3-4c5b-8897-c1b42ea9b285","ios":"levelo://app?vid=1fb82d2e-9fc3-4c5b-8897-c1b42ea9b285"},"vehicle_type_id":"4","last_reported":1711318077,"current_range_meters":1200,"station_id":"ce4bgvp2rcd13ifvqcu0","pricing_plan_id":"cebpf4jnsgd1na2vs0mg"},{"bike_id":"553be6ba-c65d-4cef-80a9-9bd5e9dea82e","system_id":"levelo_inurba_marseille","lat":43.328077,"lon":5.388814,"is_reserved":false,"is_disabled":false,"rental_uris":{"android":"levelo://app?vid=553be6ba-c65d-4cef-80a9-9bd5e9dea82e","ios":"levelo://app?vid=553be6ba-c65d-4cef-80a9-9bd5e9dea82e"},"vehicle_type_id":"4","last_reported":1711318077,"current_range_meters":30000,"station_id":"","pricing_plan_id":"cebpf4jnsgd1na2vs0mg"},{"bike_id":"932c1674-9e7f-43ae-8667-237ac5f11d10","system_id":"levelo_inurba_marseille","lat":43.290779,"lon":5.371482,"is_reserved":false,"is_disabled":false,"rental_uris":{"android":"levelo://app?vid=932c1674-9e7f-43ae-8667-237ac5f11d10","ios":"levelo://app?vid=932c1674-9e7f-43ae-8667-237ac5f11d10"},"vehicle_type_id":"4","last_reported":1711318077,"current_range_meters":25200,"station_id":"ce4bh5p2rcd13ifvqe4g","pricing_plan_id":"cebpf4jnsgd1na2vs0mg"},{"bike_id":"1ed88598-09a2-4751-b246-7d22d8b423e0","system_id":"levelo_inurba_marseille","lat":43.290779,"lon":5.371482,"is_reserved":false,"is_disabled":false,"rental_uris":{"android":"levelo://app?vid=1ed88598-09a2-4751-b246-7d22d8b423e0","ios":"levelo://app?vid=1ed88598-09a2-4751-b246-7d22d8b423e0"},"vehicle_type_id":"4","last_reported":1711318077,"current_range_meters":22400,"station_id":"ce4bh5p2rcd13ifvqe4g","pricing_plan_id":"cebpf4jnsgd1na2vs0mg"},{"bike_id":"8bc91653-44bc-4e8d-9461-dae6438d1123","system_id":"levelo_inurba_marseille","lat":43.296375,"lon":5.387806,"is_reserved":false,"is_disabled":false,"rental_uris":{"android":"levelo://app?vid=8bc91653-44bc-4e8d-9461-dae6438d1123","ios":"levelo://app?vid=8bc91653-44bc-4e8d-9461-dae6438d1123"},"vehicle_type_id":"4","last_reported":1711318077,"current_range_meters":18400,"station_id":"","pricing_plan_id":"cebpf4jnsgd1na2vs0mg"},{"bike_id":"b4589abe-d197-44ec-8b1b-a98a0a6a5583","system_id":"levelo_inurba_marseille","lat":43.290779,"lon":5.371482,"is_reserved":false,"is_disabled":false,"rental_uris":{"android":"levelo://app?vid=b4589abe-d197-44ec-8b1b-a98a0a6a5583","ios":"levelo://app?vid=b4589abe-d197-44ec-8b1b-a98a0a6a5583"},"vehicle_type_id":"4","last_reported":1711318077,"current_range_meters":20800,"station_id":"ce4bh5p2rcd13ifvqe4g","pricing_plan_id":"cebpf4jnsgd1na2vs0mg"},{"bike_id":"a9d837d0-d194-47f2-b812-516431e69eea","system_id":"levelo_inurba_marseille","lat":43.290779,"lon":5.371482,"is_reserved":false,"is_disabled":false,"rental_uris":{"android":"levelo://app?vid=a9d837d0-d194-47f2-b812-516431e69eea","ios":"levelo://app?vid=a9d837d0-d194-47f2-b812-516431e69eea"},"vehicle_type_id":"4","last_reported":1711318077,"current_range_meters":22000,"station_id":"ce4bh5p2rcd13ifvqe4g","pricing_plan_id":"cebpf4jnsgd1na2vs0mg"},{"bike_id":"1e0e7557-36a1-4468-bc55-eb260fa16c82","system_id":"levelo_inurba_marseille","lat":43.290779,"lon":5.371482,"is_reserved":false,"is_disabled":false,"rental_uris":{"android":"levelo://app?vid=1e0e7557-36a1-4468-bc55-eb260fa16c82","ios":"levelo://app?vid=1e0e7557-36a1-4468-bc55-eb260fa16c82"},"vehicle_type_id":"4","last_reported":1711318077,"current_range_meters":0,"station_id":"ce4bh5p2rcd13ifvqe4g","pricing_plan_id":"cebpf4jnsgd1na2vs0mg"},{"bike_id":"a151ddc1-c58f-441b-8d7d-6d935c1d88ee","system_id":"levelo_inurba_marseille","lat":43.302008,"lon":5.394694,"is_reserved":false,"is_disabled":false,"rental_uris":{"android":"levelo://app?vid=a151ddc1-c58f-441b-8d7d-6d935c1d88ee","ios":"levelo://app?vid=a151ddc1-c58f-441b-8d7d-6d935c1d88ee"},"vehicle_type_id":"4","last_reported":1711318077,"current_range_meters":24800,"station_id":"ce4bh0p2rcd13ifvqd70","pricing_plan_id":"cebpf4jnsgd1na2vs0mg"},{"bike_id":"f788eac8-b006-4ea1-9b6a-961e24647be4","system_id":"levelo_inurba_marseille","lat":43.290631,"lon":5.359244,"is_reserved":false,"is_disabled":false,"rental_uris":{"android":"levelo://app?vid=f788eac8-b006-4ea1-9b6a-961e24647be4","ios":"levelo://app?vid=f788eac8-b006-4ea1-9b6a-961e24647be4"},"vehicle_type_id":"4","last_reported":1711318077,"current_range_meters":16000,"station_id":"ce4bha92rcd13ifvqeg0","pricing_plan_id":"cebpf4jnsgd1na2vs0mg"},{"bike_id":"aa248dd8-cc9a-4089-bcb9-32a0c6b3cdc1","system_id":"levelo_inurba_marseille","lat":43.294162,"lon":5.386292,"is_reserved":false,"is_disabled":false,"rental_uris":{"android":"levelo://app?vid=aa248dd8-cc9a-4089-bcb9-32a0c6b3cdc1","ios":"levelo://app?vid=aa248dd8-cc9a-4089-bcb9-32a0c6b3cdc1"},"vehicle_type_id":"4","last_reported":1711318077,"current_range_meters":0,"station_id":"ce4bh2h2rcd13ifvqdh0","pricing_plan_id":"cebpf4jnsgd1na2vs0mg"},{"bike_id":"69e7ae1b-d1b6-4ae2-9043-0ead08a6d8ff","system_id":"levelo_inurba_marseille","lat":43.289514,"lon":5.364171,"is_reserved":false,"is_disabled":false,"rental_uris":{"android":"levelo://app?vid=69e7ae1b-d1b6-4ae2-9043-0ead08a6d8ff","ios":"levelo://app?vid=69e7ae1b-d1b6-4ae2-9043-0ead08a6d8ff"},"vehicle_type_id":"4","last_reported":1711318077,"current_range_meters":30400,"station_id":"ce4bhc92rcd13ifvqetg","pricing_plan_id":"cebpf4jnsgd1na2vs0mg"},{"bike_id":"ff5d7d0c-dad8-419d-81e7-81ea67274e14","system_id":"levelo_inurba_marseille","lat":43.289468,"lon":5.363719,"is_reserved":false,"is_disabled":false,"rental_uris":{"android":"levelo://app?vid=ff5d7d0c-dad8-419d-81e7-81ea67274e14","ios":"levelo://app?vid=ff5d7d0c-dad8-419d-81e7-81ea67274e14"},"vehicle_type_id":"4","last_reported":1711318077,"current_range_meters":7600,"station_id":"ce4bhc92rcd13ifvqetg","pricing_plan_id":"cebpf4jnsgd1na2vs0mg"},{"bike_id":"baaa32ab-33fa-4e4b-8e5e-b9be93568f52","system_id":"levelo_inurba_marseille","lat":43.289357,"lon":5.363838,"is_reserved":false,"is_disabled":false,"rental_uris":{"android":"levelo://app?vid=baaa32ab-33fa-4e4b-8e5e-b9be93568f52","ios":"levelo://app?vid=baaa32ab-33fa-4e4b-8e5e-b9be93568f52"},"vehicle_type_id":"4","last_reported":1711318077,"current_range_meters":27600,"station_id":"ce4bhc92rcd13ifvqetg","pricing_plan_id":"cebpf4jnsgd1na2vs0mg"},{"bike_id":"c206c47e-fe10-44f5-93cd-8439cf32c3c5","system_id":"levelo_inurba_marseille","lat":43.304296,"lon":5.397513,"is_reserved":false,"is_disabled":false,"rental_uris":{"android":"levelo://app?vid=c206c47e-fe10-44f5-93cd-8439cf32c3c5","ios":"levelo://app?vid=c206c47e-fe10-44f5-93cd-8439cf32c3c5"},"vehicle_type_id":"4","last_reported":1711318077,"current_range_meters":29200,"station_id":"ce4bh092rcd13ifvqd20","pricing_plan_id":"cebpf4jnsgd1na2vs0mg"},{"bike_id":"3b667a48-705f-4f31-b936-e077336f9d3c","system_id":"levelo_inurba_marseille","lat":43.292642,"lon":5.384254,"is_reserved":false,"is_disabled":false,"rental_uris":{"android":"levelo://app?vid=3b667a48-705f-4f31-b936-e077336f9d3c","ios":"levelo://app?vid=3b667a48-705f-4f31-b936-e077336f9d3c"},"vehicle_type_id":"4","last_reported":1711318077,"current_range_meters":4000,"station_id":"ce4bh692rcd13ifvqea0","pricing_plan_id":"cebpf4jnsgd1na2vs0mg"},{"bike_id":"3cb3b291-bea4-4eaf-8a31-319f56db0ca3","system_id":"levelo_inurba_marseille","lat":43.304296,"lon":5.397513,"is_reserved":false,"is_disabled":false,"rental_uris":{"android":"levelo://app?vid=3cb3b291-bea4-4eaf-8a31-319f56db0ca3","ios":"levelo://app?vid=3cb3b291-bea4-4eaf-8a31-319f56db0ca3"},"vehicle_type_id":"4","last_reported":1711318077,"current_range_meters":16800,"station_id":"ce4bh092rcd13ifvqd20","pricing_plan_id":"cebpf4jnsgd1na2vs0mg"},{"bike_id":"58789a4d-a7ec-4ef8-a84c-b843ee28ab9f","system_id":"levelo_inurba_marseille","lat":43.290995,"lon":5.381361,"is_reserved":false,"is_disabled":false,"rental_uris":{"android":"levelo://app?vid=58789a4d-a7ec-4ef8-a84c-b843ee28ab9f","ios":"levelo://app?vid=58789a4d-a7ec-4ef8-a84c-b843ee28ab9f"},"vehicle_type_id":"4","last_reported":1711318077,"current_range_meters":400,"station_id":"ce4bh512rcd13ifvqe2g","pricing_plan_id":"cebpf4jnsgd1na2vs0mg"},{"bike_id":"8e2776fd-8533-4375-be5a-9ff5a5a3f037","system_id":"levelo_inurba_marseille","lat":43.289743,"lon":5.378304,"is_reserved":false,"is_disabled":false,"rental_uris":{"android":"levelo://app?vid=8e2776fd-8533-4375-be5a-9ff5a5a3f037","ios":"levelo://app?vid=8e2776fd-8533-4375-be5a-9ff5a5a3f037"},"vehicle_type_id":"4","last_reported":1711318077,"current_range_meters":25200,"station_id":"ce4bh9p2rcd13ifvqed0","pricing_plan_id":"cebpf4jnsgd1na2vs0mg"},{"bike_id":"910ef323-d493-4b40-85a8-7689c3baa5c4","system_id":"levelo_inurba_marseille","lat":43.330442,"lon":5.389148,"is_reserved":false,"is_disabled":false,"rental_uris":{"android":"levelo://app?vid=910ef323-d493-4b40-85a8-7689c3baa5c4","ios":"levelo://app?vid=910ef323-d493-4b40-85a8-7689c3baa5c4"},"vehicle_type_id":"4","last_reported":1711318077,"current_range_meters":9200,"station_id":"ce4bhr92rcd13ifvqhrg","pricing_plan_id":"cebpf4jnsgd1na2vs0mg"},{"bike_id":"b936aa08-1447-4a5e-99ae-f6d3c8dfba2e","system_id":"levelo_inurba_marseille","lat":43.330442,"lon":5.389148,"is_reserved":false,"is_disabled":false,"rental_uris":{"android":"levelo://app?vid=b936aa08-1447-4a5e-99ae-f6d3c8dfba2e","ios":"levelo://app?vid=b936aa08-1447-4a5e-99ae-f6d3c8dfba2e"},"vehicle_type_id":"4","last_reported":1711318077,"current_range_meters":31200,"station_id":"ce4bhr92rcd13ifvqhrg","pricing_plan_id":"cebpf4jnsgd1na2vs0mg"},{"bike_id":"86f84148-0c23-4afc-93e8-72871ae66d58","system_id":"levelo_inurba_marseille","lat":43.295169,"lon":5.390426,"is_reserved":false,"is_disabled":false,"rental_uris":{"android":"levelo://app?vid=86f84148-0c23-4afc-93e8-72871ae66d58","ios":"levelo://app?vid=86f84148-0c23-4afc-93e8-72871ae66d58"},"vehicle_type_id":"4","last_reported":1711318077,"current_range_meters":30800,"station_id":"ce4bh3p2rcd13ifvqdp0","pricing_plan_id":"cebpf4jnsgd1na2vs0mg"},{"bike_id":"787ceb86-efae-494a-8b39-5abcd17943e3","system_id":"levelo_inurba_marseille","lat":43.295169,"lon":5.390426,"is_reserved":false,"is_disabled":false,"rental_uris":{"android":"levelo://app?vid=787ceb86-efae-494a-8b39-5abcd17943e3","ios":"levelo://app?vid=787ceb86-efae-494a-8b39-5abcd17943e3"},"vehicle_type_id":"4","last_reported":1711318077,"current_range_meters":16000,"station_id":"ce4bh3p2rcd13ifvqdp0","pricing_plan_id":"cebpf4jnsgd1na2vs0mg"},{"bike_id":"2fb083d6-1a91-4eaa-a744-e1f8deab11b3","system_id":"levelo_inurba_marseille","lat":43.330442,"lon":5.389148,"is_reserved":false,"is_disabled":false,"rental_uris":{"android":"levelo://app?vid=2fb083d6-1a91-4eaa-a744-e1f8deab11b3","ios":"levelo://app?vid=2fb083d6-1a91-4eaa-a744-e1f8deab11b3"},"vehicle_type_id":"4","last_reported":1711318077,"current_range_meters":5200,"station_id":"ce4bhr92rcd13ifvqhrg","pricing_plan_id":"cebpf4jnsgd1na2vs0mg"},{"bike_id":"637bd5ab-af0b-4f7f-994a-b79aa29e9418","system_id":"levelo_inurba_marseille","lat":43.28856,"lon":5.358371,"is_reserved":false,"is_disabled":false,"rental_uris":{"android":"levelo://app?vid=637bd5ab-af0b-4f7f-994a-b79aa29e9418","ios":"levelo://app?vid=637bd5ab-af0b-4f7f-994a-b79aa29e9418"},"vehicle_type_id":"4","last_reported":1711318077,"current_range_meters":18800,"station_id":"ce4bhb12rcd13ifvqem0","pricing_plan_id":"cebpf4jnsgd1na2vs0mg"},{"bike_id":"21f3efd8-f3f6-4666-ae40-14f213f4a326","system_id":"levelo_inurba_marseille","lat":43.28856,"lon":5.358371,"is_reserved":false,"is_disabled":false,"rental_uris":{"android":"levelo://app?vid=21f3efd8-f3f6-4666-ae40-14f213f4a326","ios":"levelo://app?vid=21f3efd8-f3f6-4666-ae40-14f213f4a326"},"vehicle_type_id":"4","last_reported":1711318077,"current_range_meters":13200,"station_id":"ce4bhb12rcd13ifvqem0","pricing_plan_id":"cebpf4jnsgd1na2vs0mg"},{"bike_id":"294cc28c-e41e-47ad-be51-3d12ab54dd19","system_id":"levelo_inurba_marseille","lat":43.28856,"lon":5.358371,"is_reserved":false,"is_disabled":false,"rental_uris":{"android":"levelo://app?vid=294cc28c-e41e-47ad-be51-3d12ab54dd19","ios":"levelo://app?vid=294cc28c-e41e-47ad-be51-3d12ab54dd19"},"vehicle_type_id":"4","last_reported":1711318077,"current_range_meters":26800,"station_id":"ce4bhb12rcd13ifvqem0","pricing_plan_id":"cebpf4jnsgd1na2vs0mg"},{"bike_id":"3f0ac827-8edc-4c35-a17e-fd8059554b7b","system_id":"levelo_inurba_marseille","lat":43.28856,"lon":5.358371,"is_reserved":false,"is_disabled":false,"rental_uris":{"android":"levelo://app?vid=3f0ac827-8edc-4c35-a17e-fd8059554b7b","ios":"levelo://app?vid=3f0ac827-8edc-4c35-a17e-fd8059554b7b"},"vehicle_type_id":"4","last_reported":1711318077,"current_range_meters":27200,"station_id":"ce4bhb12rcd13ifvqem0","pricing_plan_id":"cebpf4jnsgd1na2vs0mg"},{"bike_id":"91d9d5e9-b49f-4138-b263-99bb44794c80","system_id":"levelo_inurba_marseille","lat":43.28856,"lon":5.358371,"is_reserved":false,"is_disabled":false,"rental_uris":{"android":"levelo://app?vid=91d9d5e9-b49f-4138-b263-99bb44794c80","ios":"levelo://app?vid=91d9d5e9-b49f-4138-b263-99bb44794c80"},"vehicle_type_id":"4","last_reported":1711318077,"current_range_meters":29200,"station_id":"ce4bhb12rcd13ifvqem0","pricing_plan_id":"cebpf4jnsgd1na2vs0mg"},{"bike_id":"79679616-cf6d-4be0-8dd8-edd374177ed5","system_id":"levelo_inurba_marseille","lat":43.28856,"lon":5.358371,"is_reserved":false,"is_disabled":false,"rental_uris":{"android":"levelo://app?vid=79679616-cf6d-4be0-8dd8-edd374177ed5","ios":"levelo://app?vid=79679616-cf6d-4be0-8dd8-edd374177ed5"},"vehicle_type_id":"4","last_reported":1711318077,"current_range_meters":20400,"station_id":"ce4bhb12rcd13ifvqem0","pricing_plan_id":"cebpf4jnsgd1na2vs0mg"},{"bike_id":"38d4fba7-ea8d-4576-8184-17d147c9696b","system_id":"levelo_inurba_marseille","lat":43.28856,"lon":5.358371,"is_reserved":false,"is_disabled":false,"rental_uris":{"android":"levelo://app?vid=38d4fba7-ea8d-4576-8184-17d147c9696b","ios":"levelo://app?vid=38d4fba7-ea8d-4576-8184-17d147c9696b"},"vehicle_type_id":"4","last_reported":1711318077,"current_range_meters":0,"station_id":"ce4bhb12rcd13ifvqem0","pricing_plan_id":"cebpf4jnsgd1na2vs0mg"},{"bike_id":"7176f37f-b0fb-41c9-96ce-8891ef9c27ff","system_id":"levelo_inurba_marseille","lat":43.312609,"lon":5.401662,"is_reserved":false,"is_disabled":false,"rental_uris":{"android":"levelo://app?vid=7176f37f-b0fb-41c9-96ce-8891ef9c27ff","ios":"levelo://app?vid=7176f37f-b0fb-41c9-96ce-8891ef9c27ff"},"vehicle_type_id":"4","last_reported":1711318077,"current_range_meters":23200,"station_id":"ce4bh092rcd13ifvqd30","pricing_plan_id":"cebpf4jnsgd1na2vs0mg"},{"bike_id":"aa7d2db0-c86a-4743-807d-5dbc383c4fa9","system_id":"levelo_inurba_marseille","lat":43.28856,"lon":5.358371,"is_reserved":false,"is_disabled":false,"rental_uris":{"android":"levelo://app?vid=aa7d2db0-c86a-4743-807d-5dbc383c4fa9","ios":"levelo://app?vid=aa7d2db0-c86a-4743-807d-5dbc383c4fa9"},"vehicle_type_id":"4","last_reported":1711318077,"current_range_meters":24800,"station_id":"ce4bhb12rcd13ifvqem0","pricing_plan_id":"cebpf4jnsgd1na2vs0mg"},{"bike_id":"885d4fcc-92b0-4e20-b2c8-cc9eea643d65","system_id":"levelo_inurba_marseille","lat":43.312609,"lon":5.401662,"is_reserved":false,"is_disabled":false,"rental_uris":{"android":"levelo://app?vid=885d4fcc-92b0-4e20-b2c8-cc9eea643d65","ios":"levelo://app?vid=885d4fcc-92b0-4e20-b2c8-cc9eea643d65"},"vehicle_type_id":"4","last_reported":1711318077,"current_range_meters":18000,"station_id":"ce4bh092rcd13ifvqd30","pricing_plan_id":"cebpf4jnsgd1na2vs0mg"},{"bike_id":"f6594e3b-0d78-4f4e-914b-2180377449a9","system_id":"levelo_inurba_marseille","lat":43.312609,"lon":5.401662,"is_reserved":false,"is_disabled":false,"rental_uris":{"android":"levelo://app?vid=f6594e3b-0d78-4f4e-914b-2180377449a9","ios":"levelo://app?vid=f6594e3b-0d78-4f4e-914b-2180377449a9"},"vehicle_type_id":"4","last_reported":1711318077,"current_range_meters":24800,"station_id":"ce4bh092rcd13ifvqd30","pricing_plan_id":"cebpf4jnsgd1na2vs0mg"},{"bike_id":"708008c7-670e-4075-948f-59833fe40e4d","system_id":"levelo_inurba_marseille","lat":43.312609,"lon":5.401662,"is_reserved":false,"is_disabled":false,"rental_uris":{"android":"levelo://app?vid=708008c7-670e-4075-948f-59833fe40e4d","ios":"levelo://app?vid=708008c7-670e-4075-948f-59833fe40e4d"},"vehicle_type_id":"4","last_reported":1711318077,"current_range_meters":5200,"station_id":"ce4bh092rcd13ifvqd30","pricing_plan_id":"cebpf4jnsgd1na2vs0mg"},{"bike_id":"0a511bf8-403b-4835-a69d-8845b0587042","system_id":"levelo_inurba_marseille","lat":43.33743,"lon":5.37474,"is_reserved":false,"is_disabled":false,"rental_uris":{"android":"levelo://app?vid=0a511bf8-403b-4835-a69d-8845b0587042","ios":"levelo://app?vid=0a511bf8-403b-4835-a69d-8845b0587042"},"vehicle_type_id":"4","last_reported":1711318077,"current_range_meters":9600,"station_id":"","pricing_plan_id":"cebpf4jnsgd1na2vs0mg"},{"bike_id":"0b127886-2af5-4850-a0a8-224f8840dbab","system_id":"levelo_inurba_marseille","lat":43.30937,"lon":5.40147,"is_reserved":false,"is_disabled":false,"rental_uris":{"android":"levelo://app?vid=0b127886-2af5-4850-a0a8-224f8840dbab","ios":"levelo://app?vid=0b127886-2af5-4850-a0a8-224f8840dbab"},"vehicle_type_id":"4","last_reported":1711318077,"current_range_meters":0,"station_id":"ce4bgvp2rcd13ifvqct0","pricing_plan_id":"cebpf4jnsgd1na2vs0mg"},{"bike_id":"3fe2865a-5bb4-4a73-b79b-8d5e1ef341e6","system_id":"levelo_inurba_marseille","lat":43.306412,"lon":5.401035,"is_reserved":false,"is_disabled":false,"rental_uris":{"android":"levelo://app?vid=3fe2865a-5bb4-4a73-b79b-8d5e1ef341e6","ios":"levelo://app?vid=3fe2865a-5bb4-4a73-b79b-8d5e1ef341e6"},"vehicle_type_id":"4","last_reported":1711318077,"current_range_meters":5600,"station_id":"ce4bh112rcd13ifvqda0","pricing_plan_id":"cebpf4jnsgd1na2vs0mg"},{"bike_id":"84b1b6c6-f4f7-4d56-869a-ae969a5256d5","system_id":"levelo_inurba_marseille","lat":43.3014,"lon":5.39866,"is_reserved":false,"is_disabled":false,"rental_uris":{"android":"levelo://app?vid=84b1b6c6-f4f7-4d56-869a-ae969a5256d5","ios":"levelo://app?vid=84b1b6c6-f4f7-4d56-869a-ae969a5256d5"},"vehicle_type_id":"4","last_reported":1711318077,"current_range_meters":1600,"station_id":"ce4bh0h2rcd13ifvqd40","pricing_plan_id":"cebpf4jnsgd1na2vs0mg"},{"bike_id":"a798c0ce-3b06-4729-adc8-1aab11f14a54","system_id":"levelo_inurba_marseille","lat":43.301117,"lon":5.398795,"is_reserved":false,"is_disabled":false,"rental_uris":{"android":"levelo://app?vid=a798c0ce-3b06-4729-adc8-1aab11f14a54","ios":"levelo://app?vid=a798c0ce-3b06-4729-adc8-1aab11f14a54"},"vehicle_type_id":"4","last_reported":1711318077,"current_range_meters":28400,"station_id":"ce4bh0h2rcd13ifvqd40","pricing_plan_id":"cebpf4jnsgd1na2vs0mg"},{"bike_id":"c09b6e0e-f769-460b-bb55-5b33c856ffc0","system_id":"levelo_inurba_marseille","lat":43.301117,"lon":5.398795,"is_reserved":false,"is_disabled":false,"rental_uris":{"android":"levelo://app?vid=c09b6e0e-f769-460b-bb55-5b33c856ffc0","ios":"levelo://app?vid=c09b6e0e-f769-460b-bb55-5b33c856ffc0"},