{"last_updated":1729631298,"ttl":60,"version":"2.2","data":{"bikes":[{"bike_id":"3d609b06-0043-46ec-8f8e-404a741182cf","system_id":"levelo_inurba_marseille","lat":43.29089,"lon":5.38139,"is_reserved":false,"is_disabled":false,"rental_uris":{"android":"levelo://app?vid=3d609b06-0043-46ec-8f8e-404a741182cf","ios":"levelo://app?vid=3d609b06-0043-46ec-8f8e-404a741182cf"},"vehicle_type_id":"4","last_reported":1729631298,"current_range_meters":36400,"station_id":"ce4bh512rcd13ifvqe2g","pricing_plan_id":"cebpf4jnsgd1na2vs0mg"},{"bike_id":"79329ba9-5b1a-4233-89ba-629a52267df1","system_id":"levelo_inurba_marseille","lat":43.30307,"lon":5.386161,"is_reserved":false,"is_disabled":false,"rental_uris":{"android":"levelo://app?vid=79329ba9-5b1a-4233-89ba-629a52267df1","ios":"levelo://app?vid=79329ba9-5b1a-4233-89ba-629a52267df1"},"vehicle_type_id":"4","last_reported":1729631298,"current_range_meters":28400,"station_id":"ce4bhbh2rcd13ifvqeo0","pricing_plan_id":"cebpf4jnsgd1na2vs0mg"},{"bike_id":"f94fab34-b972-4784-b079-71558966e9cc","system_id":"levelo_inurba_marseille","lat":43.29892,"lon":5.4366,"is_reserved":false,"is_disabled":false,"rental_uris":{"android":"levelo://app?vid=f94fab34-b972-4784-b079-71558966e9cc","ios":"levelo://app?vid=f94fab34-b972-4784-b079-71558966e9cc"},"vehicle_type_id":"4","last_reported":1729631298,"current_range_meters":22800,"station_id":"ce4bhpp2rcd13ifvqhfg","pricing_plan_id":"cebpf4jnsgd1na2vs0mg"},{"bike_id":"50f1ec05-4d59-4332-8aca-ecfd573a5bf5","system_id":"levelo_inurba_marseille","lat":43.27063,"lon":5.42272,"is_reserved":false,"is_disabled":false,"rental_uris":{"android":"levelo://app?vid=50f1ec05-4d59-4332-8aca-ecfd573a5bf5","ios":"levelo://app?vid=50f1ec05-4d59-4332-8aca-ecfd573a5bf5"},"vehicle_type_id":"4","last_reported":1729631298,"current_range_meters":38800,"station_id":"ce4bhk92rcd13ifvqgb0","pricing_plan_id":"cebpf4jnsgd1na2vs0mg"},{"bike_id":"72d6c2b2-5351-4fce-8683-2cb75795724d","system_id":"levelo_inurba_marseille","lat":43.29163,"lon":5.37157,"is_reserved":false,"is_disabled":false,"rental_uris":{"android":"levelo://app?vid=72d6c2b2-5351-4fce-8683-2cb75795724d","ios":"levelo://app?vid=72d6c2b2-5351-4fce-8683-2cb75795724d"},"vehicle_type_id":"4","last_reported":1729631298,"current_range_meters":38000,"station_id":"ce4bha92rcd13ifvqeh0","pricing_plan_id":"cebpf4jnsgd1na2vs0mg"},{"bike_id":"b149ce4e-51e1-44d1-a677-e09dc3311ba7","system_id":"levelo_inurba_marseille","lat":43.24394,"lon":5.37058,"is_reserved":false,"is_disabled":false,"rental_uris":{"android":"levelo://app?vid=b149ce4e-51e1-44d1-a677-e09dc3311ba7","ios":"levelo://app?vid=b149ce4e-51e1-44d1-a677-e09dc3311ba7"},"vehicle_type_id":"4","last_reported":1729631298,"current_range_meters":38800,"station_id":"ce4bhhh2rcd13ifvqfk0","pricing_plan_id":"cebpf4jnsgd1na2vs0mg"},{"bike_id":"b4cc9679-1889-4d52-9d59-6fc564d9e1c9","system_id":"levelo_inurba_marseille","lat":43.24388,"lon":5.37063,"is_reserved":false,"is_disabled":false,"rental_uris":{"android":"levelo://app?vid=b4cc9679-1889-4d52-9d59-6fc564d9e1c9","ios":"levelo://app?vid=b4cc9679-1889-4d52-9d59-6fc564d9e1c9"},"vehicle_type_id":"4","last_reported":1729631298,"current_range_meters":30800,"station_id":"ce4bhhh2rcd13ifvqfk0","pricing_plan_id":"cebpf4jnsgd1na2vs0mg"},{"bike_id":"baa10e2b-d4f0-4675-8f88-4972c21d950c","system_id":"levelo_inurba_marseille","lat":43.30657,"lon":5.40086,"is_reserved":false,"is_disabled":false,"rental_uris":{"android":"levelo://app?vid=baa10e2b-d4f0-4675-8f88-4972c21d950c","ios":"levelo://app?vid=baa10e2b-d4f0-4675-8f88-4972c21d950c"},"vehicle_type_id":"4","last_reported":1729631298,"current_range_meters":19200,"station_id":"ce4bh112rcd13ifvqda0","pricing_plan_id":"cebpf4jnsgd1na2vs0mg"},{"bike_id":"29e33d02-f85a-4d17-be65-24241968e69c","system_id":"levelo_inurba_marseille","lat":43.239619,"lon":5.366293,"is_reserved":false,"is_disabled":false,"rental_uris":{"android":"levelo://app?vid=29e33d02-f85a-4d17-be65-24241968e69c","ios":"levelo://app?vid=29e33d02-f85a-4d17-be65-24241968e69c"},"vehicle_type_id":"4","last_reported":1729631298,"current_range_meters":38800,"station_id":"ce4bhi12rcd13ifvqfp0","pricing_plan_id":"cebpf4jnsgd1na2vs0mg"},{"bike_id":"f959c94a-3644-4ed9-b7ed-65e914e837b3","system_id":"levelo_inurba_marseille","lat":43.31334,"lon":5.39698,"is_reserved":false,"is_disabled":false,"rental_uris":{"android":"levelo://app?vid=f959c94a-3644-4ed9-b7ed-65e914e837b3","ios":"levelo://app?vid=f959c94a-3644-4ed9-b7ed-65e914e837b3"},"vehicle_type_id":"4","last_reported":1729631298,"current_range_meters":38800,"station_id":"ce4bgvp2rcd13ifvqcu0","pricing_plan_id":"cebpf4jnsgd1na2vs0mg"},{"bike_id":"914cc107-ea1e-4f41-83e1-aecc18587371","system_id":"levelo_inurba_marseille","lat":43.29795,"lon":5.37105,"is_reserved":false,"is_disabled":false,"rental_uris":{"android":"levelo://app?vid=914cc107-ea1e-4f41-83e1-aecc18587371","ios":"levelo://app?vid=914cc107-ea1e-4f41-83e1-aecc18587371"},"vehicle_type_id":"4","last_reported":1729631298,"current_range_meters":33600,"station_id":"ce4bgop2rcd13ifvqc1g","pricing_plan_id":"cebpf4jnsgd1na2vs0mg"},{"bike_id":"b03294c8-9cb7-4473-a06d-d3d5618a8319","system_id":"levelo_inurba_marseille","lat":43.28072,"lon":5.3964,"is_reserved":false,"is_disabled":false,"rental_uris":{"android":"levelo://app?vid=b03294c8-9cb7-4473-a06d-d3d5618a8319","ios":"levelo://app?vid=b03294c8-9cb7-4473-a06d-d3d5618a8319"},"vehicle_type_id":"4","last_reported":1729631298,"current_range_meters":24000,"station_id":"ce4bho12rcd13ifvqh2g","pricing_plan_id":"cebpf4jnsgd1na2vs0mg"},{"bike_id":"02b1a1b0-58be-4c7a-9d6c-10343c353689","system_id":"levelo_inurba_marseille","lat":43.29439,"lon":5.39755,"is_reserved":false,"is_disabled":false,"rental_uris":{"android":"levelo://app?vid=02b1a1b0-58be-4c7a-9d6c-10343c353689","ios":"levelo://app?vid=02b1a1b0-58be-4c7a-9d6c-10343c353689"},"vehicle_type_id":"4","last_reported":1729631298,"current_range_meters":29600,"station_id":"ce4bh3h2rcd13ifvqdo0","pricing_plan_id":"cebpf4jnsgd1na2vs0mg"},{"bike_id":"bf3cdac8-1828-4c5b-88c1-7d178598dc6a","system_id":"levelo_inurba_marseille","lat":43.30038,"lon":5.37296,"is_reserved":false,"is_disabled":false,"rental_uris":{"android":"levelo://app?vid=bf3cdac8-1828-4c5b-88c1-7d178598dc6a","ios":"levelo://app?vid=bf3cdac8-1828-4c5b-88c1-7d178598dc6a"},"vehicle_type_id":"4","last_reported":1729631298,"current_range_meters":16800,"station_id":"","pricing_plan_id":"cebpf4jnsgd1na2vs0mg"},{"bike_id":"60b8bae4-0b0d-4e98-88fd-f5c5969866c8","system_id":"levelo_inurba_marseille","lat":43.28434,"lon":5.39204,"is_reserved":false,"is_disabled":false,"rental_uris":{"android":"levelo://app?vid=60b8bae4-0b0d-4e98-88fd-f5c5969866c8","ios":"levelo://app?vid=60b8bae4-0b0d-4e98-88fd-f5c5969866c8"},"vehicle_type_id":"4","last_reported":1729631298,"current_range_meters":21600,"station_id":"ce4bhoh2rcd13ifvqh5g","pricing_plan_id":"cebpf4jnsgd1na2vs0mg"},{"bike_id":"cc18a4d8-2225-494f-9654-865d61d7ebfd","system_id":"levelo_inurba_marseille","lat":43.2481,"lon":5.37457,"is_reserved":false,"is_disabled":false,"rental_uris":{"android":"levelo://app?vid=cc18a4d8-2225-494f-9654-865d61d7ebfd","ios":"levelo://app?vid=cc18a4d8-2225-494f-9654-865d61d7ebfd"},"vehicle_type_id":"4","last_reported":1729631298,"current_range_meters":10800,"station_id":"ce4bhgh2rcd13ifvqfb0","pricing_plan_id":"cebpf4jnsgd1na2vs0mg"},{"bike_id":"5c449356-4ac4-4d08-a405-c433fbe21a80","system_id":"levelo_inurba_marseille","lat":43.33737,"lon":5.37458,"is_reserved":false,"is_disabled":false,"rental_uris":{"android":"levelo://app?vid=5c449356-4ac4-4d08-a405-c433fbe21a80","ios":"levelo://app?vid=5c449356-4ac4-4d08-a405-c433fbe21a80"},"vehicle_type_id":"4","last_reported":1729631298,"current_range_meters":32400,"station_id":"","pricing_plan_id":"cebpf4jnsgd1na2vs0mg"},{"bike_id":"3853d5bd-8459-46a7-bbe5-6408c6930fa1","system_id":"levelo_inurba_marseille","lat":43.3026,"lon":5.40074,"is_reserved":false,"is_disabled":false,"rental_uris":{"android":"levelo://app?vid=3853d5bd-8459-46a7-bbe5-6408c6930fa1","ios":"levelo://app?vid=3853d5bd-8459-46a7-bbe5-6408c6930fa1"},"vehicle_type_id":"4","last_reported":1729631298,"current_range_meters":38800,"station_id":"ce4bgvh2rcd13ifvqcs0","pricing_plan_id":"cebpf4jnsgd1na2vs0mg"},{"bike_id":"80f01561-4f78-4d59-98de-f130f22341eb","system_id":"levelo_inurba_marseille","lat":43.28154,"lon":5.42641,"is_reserved":false,"is_disabled":false,"rental_uris":{"android":"levelo://app?vid=80f01561-4f78-4d59-98de-f130f22341eb","ios":"levelo://app?vid=80f01561-4f78-4d59-98de-f130f22341eb"},"vehicle_type_id":"4","last_reported":1729631298,"current_range_meters":6800,"station_id":"ce4bhnh2rcd13ifvqgug","pricing_plan_id":"cebpf4jnsgd1na2vs0mg"},{"bike_id":"0c6b11eb-50a7-4dc0-bff2-d8026011ec1d","system_id":"levelo_inurba_marseille","lat":43.24392,"lon":5.37057,"is_reserved":false,"is_disabled":false,"rental_uris":{"android":"levelo://app?vid=0c6b11eb-50a7-4dc0-bff2-d8026011ec1d","ios":"levelo://app?vid=0c6b11eb-50a7-4dc0-bff2-d8026011ec1d"},"vehicle_type_id":"4","last_reported":1729631298,"current_range_meters":38800,"station_id":"ce4bhhh2rcd13ifvqfk0","pricing_plan_id":"cebpf4jnsgd1na2vs0mg"},{"bike_id":"df217360-aff1-4e07-a318-80500917e1e2","system_id":"levelo_inurba_marseille","lat":43.297954,"lon":5.393357,"is_reserved":false,"is_disabled":false,"rental_uris":{"android":"levelo://app?vid=df217360-aff1-4e07-a318-80500917e1e2","ios":"levelo://app?vid=df217360-aff1-4e07-a318-80500917e1e2"},"vehicle_type_id":"4","last_reported":1729631298,"current_range_meters":38800,"station_id":"chh1huq6cuj3fo74tm60","pricing_plan_id":"cebpf4jnsgd1na2vs0mg"},{"bike_id":"762fd4a9-14c8-433e-adfb-a3dfa394164f","system_id":"levelo_inurba_marseille","lat":43.30913,"lon":5.36847,"is_reserved":false,"is_disabled":false,"rental_uris":{"android":"levelo://app?vid=762fd4a9-14c8-433e-adfb-a3dfa394164f","ios":"levelo://app?vid=762fd4a9-14c8-433e-adfb-a3dfa394164f"},"vehicle_type_id":"4","last_reported":1729631298,"current_range_meters":14400,"station_id":"ce4bgn92rcd13ifvqbvg","pricing_plan_id":"cebpf4jnsgd1na2vs0mg"},{"bike_id":"4882a116-5452-4f97-bdbd-13df4cccb9d6","system_id":"levelo_inurba_marseille","lat":43.30606,"lon":5.37228,"is_reserved":false,"is_disabled":false,"rental_uris":{"android":"levelo://app?vid=4882a116-5452-4f97-bdbd-13df4cccb9d6","ios":"levelo://app?vid=4882a116-5452-4f97-bdbd-13df4cccb9d6"},"vehicle_type_id":"4","last_reported":1729631298,"current_range_meters":33200,"station_id":"ce4bgqh2rcd13ifvqc4g","pricing_plan_id":"cebpf4jnsgd1na2vs0mg"},{"bike_id":"15bcbd62-a207-40a4-95bb-9c92b4f24e54","system_id":"levelo_inurba_marseille","lat":43.3089,"lon":5.37181,"is_reserved":false,"is_disabled":false,"rental_uris":{"android":"levelo://app?vid=15bcbd62-a207-40a4-95bb-9c92b4f24e54","ios":"levelo://app?vid=15bcbd62-a207-40a4-95bb-9c92b4f24e54"},"vehicle_type_id":"4","last_reported":1729631298,"current_range_meters":16000,"station_id":"ce4bguh2rcd13ifvqckg","pricing_plan_id":"cebpf4jnsgd1na2vs0mg"},{"bike_id":"1124aa99-a4cf-4abb-81d2-6a98e5a17338","system_id":"levelo_inurba_marseille","lat":43.27833,"lon":5.39201,"is_reserved":false,"is_disabled":false,"rental_uris":{"android":"levelo://app?vid=1124aa99-a4cf-4abb-81d2-6a98e5a17338","ios":"levelo://app?vid=1124aa99-a4cf-4abb-81d2-6a98e5a17338"},"vehicle_type_id":"4","last_reported":1729631298,"current_range_meters":25200,"station_id":"ce4bhjp2rcd13ifvqga0","pricing_plan_id":"cebpf4jnsgd1na2vs0mg"},{"bike_id":"0ff94d28-664b-4713-aca2-dc212e08b8d1","system_id":"levelo_inurba_marseille","lat":43.30648,"lon":5.40097,"is_reserved":false,"is_disabled":false,"rental_uris":{"android":"levelo://app?vid=0ff94d28-664b-4713-aca2-dc212e08b8d1","ios":"levelo://app?vid=0ff94d28-664b-4713-aca2-dc212e08b8d1"},"vehicle_type_id":"4","last_reported":1729631298,"current_range_meters":22000,"station_id":"ce4bh112rcd13ifvqda0","pricing_plan_id":"cebpf4jnsgd1na2vs0mg"},{"bike_id":"57633249-3b48-4b3f-9fc9-74faaaf52100","system_id":"levelo_inurba_marseille","lat":43.2841,"lon":5.37515,"is_reserved":false,"is_disabled":false,"rental_uris":{"android":"levelo://app?vid=57633249-3b48-4b3f-9fc9-74faaaf52100","ios":"levelo://app?vid=57633249-3b48-4b3f-9fc9-74faaaf52100"},"vehicle_type_id":"4","last_reported":1729631298,"current_range_meters":36800,"station_id":"ce4bh412rcd13ifvqds0","pricing_plan_id":"cebpf4jnsgd1na2vs0mg"},{"bike_id":"bea937fc-1784-4161-9e16-8007cb736aa1","system_id":"levelo_inurba_marseille","lat":43.30299,"lon":5.39203,"is_reserved":false,"is_disabled":false,"rental_uris":{"android":"levelo://app?vid=bea937fc-1784-4161-9e16-8007cb736aa1","ios":"levelo://app?vid=bea937fc-1784-4161-9e16-8007cb736aa1"},"vehicle_type_id":"4","last_reported":1729631298,"current_range_meters":38800,"station_id":"ce4bgkh2rcd13ifvqbk0","pricing_plan_id":"cebpf4jnsgd1na2vs0mg"},{"bike_id":"ebeea3a0-5e71-4305-b861-0686ff11b7c4","system_id":"levelo_inurba_marseille","lat":43.29795,"lon":5.37097,"is_reserved":false,"is_disabled":false,"rental_uris":{"android":"levelo://app?vid=ebeea3a0-5e71-4305-b861-0686ff11b7c4","ios":"levelo://app?vid=ebeea3a0-5e71-4305-b861-0686ff11b7c4"},"vehicle_type_id":"4","last_reported":1729631298,"current_range_meters":28400,"station_id":"ce4bgop2rcd13ifvqc1g","pricing_plan_id":"cebpf4jnsgd1na2vs0mg"},{"bike_id":"0cbcace8-8e1b-4e6e-a772-b3a166cc34ce","system_id":"levelo_inurba_marseille","lat":43.23195,"lon":5.35551,"is_reserved":false,"is_disabled":false,"rental_uris":{"android":"levelo://app?vid=0cbcace8-8e1b-4e6e-a772-b3a166cc34ce","ios":"levelo://app?vid=0cbcace8-8e1b-4e6e-a772-b3a166cc34ce"},"vehicle_type_id":"4","last_reported":1729631298,"current_range_meters":17200,"station_id":"ce4bhu92rcd13ifvqi70","pricing_plan_id":"cebpf4jnsgd1na2vs0mg"},{"bike_id":"abd43a03-2238-41df-8508-8d7d721d4b96","system_id":"levelo_inurba_marseille","lat":43.24386,"lon":5.3705,"is_reserved":false,"is_disabled":false,"rental_uris":{"android":"levelo://app?vid=abd43a03-2238-41df-8508-8d7d721d4b96","ios":"levelo://app?vid=abd43a03-2238-41df-8508-8d7d721d4b96"},"vehicle_type_id":"4","last_reported":1729631298,"current_range_meters":38800,"station_id":"ce4bhhh2rcd13ifvqfk0","pricing_plan_id":"cebpf4jnsgd1na2vs0mg"},{"bike_id":"1ea124ab-c637-4a04-aed9-d714d24b568c","system_id":"levelo_inurba_marseille","lat":43.32339,"lon":5.40618,"is_reserved":false,"is_disabled":false,"rental_uris":{"android":"levelo://app?vid=1ea124ab-c637-4a04-aed9-d714d24b568c","ios":"levelo://app?vid=1ea124ab-c637-4a04-aed9-d714d24b568c"},"vehicle_type_id":"4","last_reported":1729631298,"current_range_meters":38800,"station_id":"ce4bhq92rcd13ifvqhjg","pricing_plan_id":"cebpf4jnsgd1na2vs0mg"},{"bike_id":"bde5a3e1-2b27-4680-add5-25f6634f00df","system_id":"levelo_inurba_marseille","lat":43.27991,"lon":5.41655,"is_reserved":false,"is_disabled":false,"rental_uris":{"android":"levelo://app?vid=bde5a3e1-2b27-4680-add5-25f6634f00df","ios":"levelo://app?vid=bde5a3e1-2b27-4680-add5-25f6634f00df"},"vehicle_type_id":"4","last_reported":1729631298,"current_range_meters":8800,"station_id":"ce4bho12rcd13ifvqh1g","pricing_plan_id":"cebpf4jnsgd1na2vs0mg"},{"bike_id":"f0220362-e7c7-423a-a587-85c77fbcabb6","system_id":"levelo_inurba_marseille","lat":43.27071,"lon":5.42277,"is_reserved":false,"is_disabled":false,"rental_uris":{"android":"levelo://app?vid=f0220362-e7c7-423a-a587-85c77fbcabb6","ios":"levelo://app?vid=f0220362-e7c7-423a-a587-85c77fbcabb6"},"vehicle_type_id":"4","last_reported":1729631298,"current_range_meters":38000,"station_id":"ce4bhk92rcd13ifvqgb0","pricing_plan_id":"cebpf4jnsgd1na2vs0mg"},{"bike_id":"22675db0-28b2-4ef9-a53f-b0764f3ea9dc","system_id":"levelo_inurba_marseille","lat":43.3199,"lon":5.38147,"is_reserved":false,"is_disabled":false,"rental_uris":{"android":"levelo://app?vid=22675db0-28b2-4ef9-a53f-b0764f3ea9dc","ios":"levelo://app?vid=22675db0-28b2-4ef9-a53f-b0764f3ea9dc"},"vehicle_type_id":"4","last_reported":1729631298,"current_range_meters":24000,"station_id":"ce4bhr12rcd13ifvqhpg","pricing_plan_id":"cebpf4jnsgd1na2vs0mg"},{"bike_id":"aed9d1d1-2a65-4883-abe7-d9075bcca871","system_id":"levelo_inurba_marseille","lat":43.29304,"lon":5.37176,"is_reserved":false,"is_disabled":false,"rental_uris":{"android":"levelo://app?vid=aed9d1d1-2a65-4883-abe7-d9075bcca871","ios":"levelo://app?vid=aed9d1d1-2a65-4883-abe7-d9075bcca871"},"vehicle_type_id":"4","last_reported":1729631298,"current_range_meters":38800,"station_id":"ce4bgh92rcd13ifvqb40","pricing_plan_id":"cebpf4jnsgd1na2vs0mg"},{"bike_id":"d08ac600-b85a-4a44-84b0-ee33725e24f7","system_id":"levelo_inurba_marseille","lat":43.32367,"lon":5.38882,"is_reserved":false,"is_disabled":false,"rental_uris":{"android":"levelo://app?vid=d08ac600-b85a-4a44-84b0-ee33725e24f7","ios":"levelo://app?vid=d08ac600-b85a-4a44-84b0-ee33725e24f7"},"vehicle_type_id":"4","last_reported":1729631298,"current_range_meters":33200,"station_id":"ce4bhqp2rcd13ifvqhog","pricing_plan_id":"cebpf4jnsgd1na2vs0mg"},{"bike_id":"6a3d026e-f423-4e19-905c-b73e2bbde2ea","system_id":"levelo_inurba_marseille","lat":43.27177,"lon":5.40995,"is_reserved":false,"is_disabled":false,"rental_uris":{"android":"levelo://app?vid=6a3d026e-f423-4e19-905c-b73e2bbde2ea","ios":"levelo://app?vid=6a3d026e-f423-4e19-905c-b73e2bbde2ea"},"vehicle_type_id":"4","last_reported":1729631298,"current_range_meters":21600,"station_id":"ce4bhl12rcd13ifvqgf0","pricing_plan_id":"cebpf4jnsgd1na2vs0mg"},{"bike_id":"48626366-6c4d-4e93-86eb-59d9c4e5dfba","system_id":"levelo_inurba_marseille","lat":43.28938,"lon":5.39637,"is_reserved":false,"is_disabled":false,"rental_uris":{"android":"levelo://app?vid=48626366-6c4d-4e93-86eb-59d9c4e5dfba","ios":"levelo://app?vid=48626366-6c4d-4e93-86eb-59d9c4e5dfba"},"vehicle_type_id":"4","last_reported":1729631298,"current_range_meters":12000,"station_id":"ce4bh3h2rcd13ifvqdn0","pricing_plan_id":"cebpf4jnsgd1na2vs0mg"},{"bike_id":"3e874096-f707-4e4f-918f-d88b9ad69dbe","system_id":"levelo_inurba_marseille","lat":43.309,"lon":5.39655,"is_reserved":false,"is_disabled":false,"rental_uris":{"android":"levelo://app?vid=3e874096-f707-4e4f-918f-d88b9ad69dbe","ios":"levelo://app?vid=3e874096-f707-4e4f-918f-d88b9ad69dbe"},"vehicle_type_id":"4","last_reported":1729631298,"current_range_meters":26000,"station_id":"ce4bh012rcd13ifvqcv0","pricing_plan_id":"cebpf4jnsgd1na2vs0mg"},{"bike_id":"7baa1c5f-c288-4d45-b2f5-55d5e42fd91a","system_id":"levelo_inurba_marseille","lat":43.30145,"lon":5.37414,"is_reserved":false,"is_disabled":false,"rental_uris":{"android":"levelo://app?vid=7baa1c5f-c288-4d45-b2f5-55d5e42fd91a","ios":"levelo://app?vid=7baa1c5f-c288-4d45-b2f5-55d5e42fd91a"},"vehicle_type_id":"4","last_reported":1729631298,"current_range_meters":38000,"station_id":"ce4bgs92rcd13ifvqcc0","pricing_plan_id":"cebpf4jnsgd1na2vs0mg"},{"bike_id":"bc9631c6-7c83-4810-9206-3d8a9a29a4a9","system_id":"levelo_inurba_marseille","lat":43.25582,"lon":5.38252,"is_reserved":false,"is_disabled":false,"rental_uris":{"android":"levelo://app?vid=bc9631c6-7c83-4810-9206-3d8a9a29a4a9","ios":"levelo://app?vid=bc9631c6-7c83-4810-9206-3d8a9a29a4a9"},"vehicle_type_id":"4","last_reported":1729631298,"current_range_meters":27600,"station_id":"ce4bhih2rcd13ifvqfs0","pricing_plan_id":"cebpf4jnsgd1na2vs0mg"},{"bike_id":"bd7520bc-f08d-466c-9170-ab51ca67bdb0","system_id":"levelo_inurba_marseille","lat":43.31082,"lon":5.40077,"is_reserved":false,"is_disabled":false,"rental_uris":{"android":"levelo://app?vid=bd7520bc-f08d-466c-9170-ab51ca67bdb0","ios":"levelo://app?vid=bd7520bc-f08d-466c-9170-ab51ca67bdb0"},"vehicle_type_id":"4","last_reported":1729631298,"current_range_meters":11600,"station_id":"","pricing_plan_id":"cebpf4jnsgd1na2vs0mg"},{"bike_id":"89728f51-7b51-4f13-acea-3ab0d67e58d7","system_id":"levelo_inurba_marseille","lat":43.28564,"lon":5.39496,"is_reserved":false,"is_disabled":false,"rental_uris":{"android":"levelo://app?vid=89728f51-7b51-4f13-acea-3ab0d67e58d7","ios":"levelo://app?vid=89728f51-7b51-4f13-acea-3ab0d67e58d7"},"vehicle_type_id":"4","last_reported":1729631298,"current_range_meters":17200,"station_id":"ce4bh292rcd13ifvqdg0","pricing_plan_id":"cebpf4jnsgd1na2vs0mg"},{"bike_id":"20e7c36a-90bd-4572-8543-6491ffe2f43e","system_id":"levelo_inurba_marseille","lat":43.24083,"lon":5.37741,"is_reserved":false,"is_disabled":false,"rental_uris":{"android":"levelo://app?vid=20e7c36a-90bd-4572-8543-6491ffe2f43e","ios":"levelo://app?vid=20e7c36a-90bd-4572-8543-6491ffe2f43e"},"vehicle_type_id":"4","last_reported":1729631298,"current_range_meters":38400,"station_id":"ce4bhnp2rcd13ifvqgvg","pricing_plan_id":"cebpf4jnsgd1na2vs0mg"},{"bike_id":"9b87b773-e061-40be-b290-ce236cd5d49c","system_id":"levelo_inurba_marseille","lat":43.28398,"lon":5.37508,"is_reserved":false,"is_disabled":false,"rental_uris":{"android":"levelo://app?vid=9b87b773-e061-40be-b290-ce236cd5d49c","ios":"levelo://app?vid=9b87b773-e061-40be-b290-ce236cd5d49c"},"vehicle_type_id":"4","last_reported":1729631298,"current_range_meters":14000,"station_id":"ce4bh412rcd13ifvqds0","pricing_plan_id":"cebpf4jnsgd1na2vs0mg"},{"bike_id":"f4f4cedb-ee30-4d0e-addd-0835963f6da5","system_id":"levelo_inurba_marseille","lat":43.29476,"lon":5.44396,"is_reserved":false,"is_disabled":false,"rental_uris":{"android":"levelo://app?vid=f4f4cedb-ee30-4d0e-addd-0835963f6da5","ios":"levelo://app?vid=f4f4cedb-ee30-4d0e-addd-0835963f6da5"},"vehicle_type_id":"4","last_reported":1729631298,"current_range_meters":5600,"station_id":"","pricing_plan_id":"cebpf4jnsgd1na2vs0mg"},{"bike_id":"cdb20d8b-1e09-4429-a929-bb3e312a0da6","system_id":"levelo_inurba_marseille","lat":43.32933,"lon":5.365549,"is_reserved":false,"is_disabled":false,"rental_uris":{"android":"levelo://app?vid=cdb20d8b-1e09-4429-a929-bb3e312a0da6","ios":"levelo://app?vid=cdb20d8b-1e09-4429-a929-bb3e312a0da6"},"vehicle_type_id":"4","last_reported":1729631298,"current_range_meters":24800,"station_id":"","pricing_plan_id":"cebpf4jnsgd1na2vs0mg"},{"bike_id":"744a3036-377a-4be3-af71-6f5c833e31f2","system_id":"levelo_inurba_marseille","lat":43.30668,"lon":5.40092,"is_reserved":false,"is_disabled":false,"rental_uris":{"android":"levelo://app?vid=744a3036-377a-4be3-af71-6f5c833e31f2","ios":"levelo://app?vid=744a3036-377a-4be3-af71-6f5c833e31f2"},"vehicle_type_id":"4","last_reported":1729631298,"current_range_meters":39200,"station_id":"ce4bh112rcd13ifvqda0","pricing_plan_id":"cebpf4jnsgd1na2vs0mg"},{"bike_id":"f2186f38-989e-47e9-a7e5-165d7320bcd7","system_id":"levelo_inurba_marseille","lat":43.29619,"lon":5.37725,"is_reserved":false,"is_disabled":false,"rental_uris":{"android":"levelo://app?vid=f2186f38-989e-47e9-a7e5-165d7320bcd7","ios":"levelo://app?vid=f2186f38-989e-47e9-a7e5-165d7320bcd7"},"vehicle_type_id":"4","last_reported":1729631298,"current_range_meters":35200,"station_id":"ce4bgi92rcd13ifvqb90","pricing_plan_id":"cebpf4jnsgd1na2vs0mg"},{"bike_id":"81db9c70-bce4-4764-86a6-8d25b1c25e6d","system_id":"levelo_inurba_marseille","lat":43.24647,"lon":5.38887,"is_reserved":false,"is_disabled":false,"rental_uris":{"android":"levelo://app?vid=81db9c70-bce4-4764-86a6-8d25b1c25e6d","ios":"levelo://app?vid=81db9c70-bce4-4764-86a6-8d25b1c25e6d"},"vehicle_type_id":"4","last_reported":1729631298,"current_range_meters":38800,"station_id":"ce4bhg12rcd13ifvqf60","pricing_plan_id":"cebpf4jnsgd1na2vs0mg"},{"bike_id":"36f29174-278d-4a36-8d64-2c490ae15868","system_id":"levelo_inurba_marseille","lat":43.27497,"lon":5.42459,"is_reserved":false,"is_disabled":false,"rental_uris":{"android":"levelo://app?vid=36f29174-278d-4a36-8d64-2c490ae15868","ios":"levelo://app?vid=36f29174-278d-4a36-8d64-2c490ae15868"},"vehicle_type_id":"4","last_reported":1729631298,"current_range_meters":33600,"station_id":"ce4bhn92rcd13ifvqgrg","pricing_plan_id":"cebpf4jnsgd1na2vs0mg"},{"bike_id":"63d546d5-3fac-4df0-acc7-024b2ae59266","system_id":"levelo_inurba_marseille","lat":43.30931,"lon":5.40145,"is_reserved":false,"is_disabled":false,"rental_uris":{"android":"levelo://app?vid=63d546d5-3fac-4df0-acc7-024b2ae59266","ios":"levelo://app?vid=63d546d5-3fac-4df0-acc7-024b2ae59266"},"vehicle_type_id":"4","last_reported":1729631298,"current_range_meters":16400,"station_id":"ce4bgvp2rcd13ifvqct0","pricing_plan_id":"cebpf4jnsgd1na2vs0mg"},{"bike_id":"2d00c0a8-1b2c-4f67-ab84-fa0b2a2be82d","system_id":"levelo_inurba_marseille","lat":43.28702,"lon":5.3739,"is_reserved":false,"is_disabled":false,"rental_uris":{"android":"levelo://app?vid=2d00c0a8-1b2c-4f67-ab84-fa0b2a2be82d","ios":"levelo://app?vid=2d00c0a8-1b2c-4f67-ab84-fa0b2a2be82d"},"vehicle_type_id":"4","last_reported":1729631298,"current_range_meters":37600,"station_id":"ce4bh3p2rcd13ifvqdq0","pricing_plan_id":"cebpf4jnsgd1na2vs0mg"},{"bike_id":"58bd31dc-894d-49ad-8ea8-599306c1b2f3","system_id":"levelo_inurba_marseille","lat":43.31171,"lon":5.38722,"is_reserved":false,"is_disabled":false,"rental_uris":{"android":"levelo://app?vid=58bd31dc-894d-49ad-8ea8-599306c1b2f3","ios":"levelo://app?vid=58bd31dc-894d-49ad-8ea8-599306c1b2f3"},"vehicle_type_id":"4","last_reported":1729631298,"current_range_meters":11200,"station_id":"ce4bgv12rcd13ifvqcp0","pricing_plan_id":"cebpf4jnsgd1na2vs0mg"},{"bike_id":"a6bdef88-770e-4f37-8f5f-221f0cf85086","system_id":"levelo_inurba_marseille","lat":43.31532,"lon":5.38022,"is_reserved":false,"is_disabled":false,"rental_uris":{"android":"levelo://app?vid=a6bdef88-770e-4f37-8f5f-221f0cf85086","ios":"levelo://app?vid=a6bdef88-770e-4f37-8f5f-221f0cf85086"},"vehicle_type_id":"4","last_reported":1729631298,"current_range_meters":32000,"station_id":"ce4bhsp2rcd13ifvqi50","pricing_plan_id":"cebpf4jnsgd1na2vs0mg"},{"bike_id":"f9ff8621-7700-4553-abac-ad15b1938a2c","system_id":"levelo_inurba_marseille","lat":43.31182,"lon":5.3871,"is_reserved":false,"is_disabled":false,"rental_uris":{"android":"levelo://app?vid=f9ff8621-7700-4553-abac-ad15b1938a2c","ios":"levelo://app?vid=f9ff8621-7700-4553-abac-ad15b1938a2c"},"vehicle_type_id":"4","last_reported":1729631298,"current_range_meters":37600,"station_id":"ce4bgv12rcd13ifvqcp0","pricing_plan_id":"cebpf4jnsgd1na2vs0mg"},{"bike_id":"c2ce141d-6e76-44dc-931b-253d09157587","system_id":"levelo_inurba_marseille","lat":43.25006,"lon":5.38924,"is_reserved":false,"is_disabled":false,"rental_uris":{"android":"levelo://app?vid=c2ce141d-6e76-44dc-931b-253d09157587","ios":"levelo://app?vid=c2ce141d-6e76-44dc-931b-253d09157587"},"vehicle_type_id":"4","last_reported":1729631298,"current_range_meters":38800,"station_id":"ce4bhgp2rcd13ifvqfd0","pricing_plan_id":"cebpf4jnsgd1na2vs0mg"},{"bike_id":"11256fd2-b537-43fb-8f2f-2312433c9979","system_id":"levelo_inurba_marseille","lat":43.28104,"lon":5.37839,"is_reserved":false,"is_disabled":false,"rental_uris":{"android":"levelo://app?vid=11256fd2-b537-43fb-8f2f-2312433c9979","ios":"levelo://app?vid=11256fd2-b537-43fb-8f2f-2312433c9979"},"vehicle_type_id":"4","last_reported":1729631298,"current_range_meters":8000,"station_id":"ce4bha12rcd13ifvqee0","pricing_plan_id":"cebpf4jnsgd1na2vs0mg"},{"bike_id":"813128ba-ddc9-477c-a8e9-7526962554cc","system_id":"levelo_inurba_marseille","lat":43.24803,"lon":5.37455,"is_reserved":false,"is_disabled":false,"rental_uris":{"android":"levelo://app?vid=813128ba-ddc9-477c-a8e9-7526962554cc","ios":"levelo://app?vid=813128ba-ddc9-477c-a8e9-7526962554cc"},"vehicle_type_id":"4","last_reported":1729631298,"current_range_meters":38000,"station_id":"ce4bhgh2rcd13ifvqfb0","pricing_plan_id":"cebpf4jnsgd1na2vs0mg"},{"bike_id":"408223fe-0604-4879-9b68-36acb12c66f7","system_id":"levelo_inurba_marseille","lat":43.28417,"lon":5.37521,"is_reserved":false,"is_disabled":false,"rental_uris":{"android":"levelo://app?vid=408223fe-0604-4879-9b68-36acb12c66f7","ios":"levelo://app?vid=408223fe-0604-4879-9b68-36acb12c66f7"},"vehicle_type_id":"4","last_reported":1729631298,"current_range_meters":38800,"station_id":"ce4bh412rcd13ifvqds0","pricing_plan_id":"cebpf4jnsgd1na2vs0mg"},{"bike_id":"8cc9b489-a2de-4b20-aa93-f1879e7ab37b","system_id":"levelo_inurba_marseille","lat":43.30638,"lon":5.40081,"is_reserved":false,"is_disabled":false,"rental_uris":{"android":"levelo://app?vid=8cc9b489-a2de-4b20-aa93-f1879e7ab37b","ios":"levelo://app?vid=8cc9b489-a2de-4b20-aa93-f1879e7ab37b"},"vehicle_type_id":"4","last_reported":1729631298,"current_range_meters":36400,"station_id":"ce4bh112rcd13ifvqda0","pricing_plan_id":"cebpf4jnsgd1na2vs0mg"},{"bike_id":"88be6b93-3a21-44a9-bfdc-ac9990eccef9","system_id":"levelo_inurba_marseille","lat":43.29544,"lon":5.42283,"is_reserved":false,"is_disabled":false,"rental_uris":{"android":"levelo://app?vid=88be6b93-3a21-44a9-bfdc-ac9990eccef9","ios":"levelo://app?vid=88be6b93-3a21-44a9-bfdc-ac9990eccef9"},"vehicle_type_id":"4","last_reported":1729631298,"current_range_meters":27600,"station_id":"ce4bhph2rcd13ifvqhdg","pricing_plan_id":"cebpf4jnsgd1na2vs0mg"},{"bike_id":"864575c1-85b8-4008-92ba-391073d4ed51","system_id":"levelo_inurba_marseille","lat":43.23189,"lon":5.35542,"is_reserved":false,"is_disabled":false,"rental_uris":{"android":"levelo://app?vid=864575c1-85b8-4008-92ba-391073d4ed51","ios":"levelo://app?vid=864575c1-85b8-4008-92ba-391073d4ed51"},"vehicle_type_id":"4","last_reported":1729631298,"current_range_meters":22800,"station_id":"ce4bhu92rcd13ifvqi70","pricing_plan_id":"cebpf4jnsgd1na2vs0mg"},{"bike_id":"0e505ea1-d652-4273-9fce-2670943b7d63","system_id":"levelo_inurba_marseille","lat":43.27368,"lon":5.36245,"is_reserved":false,"is_disabled":false,"rental_uris":{"android":"levelo://app?vid=0e505ea1-d652-4273-9fce-2670943b7d63","ios":"levelo://app?vid=0e505ea1-d652-4273-9fce-2670943b7d63"},"vehicle_type_id":"4","last_reported":1729631298,"current_range_meters":38800,"station_id":"ce4bhbh2rcd13ifvqeo0","pricing_plan_id":"cebpf4jnsgd1na2vs0mg"},{"bike_id":"41f75c63-5a1e-4adb-bcc3-29aa8accf432","system_id":"levelo_inurba_marseille","lat":43.27495,"lon":5.42452,"is_reserved":false,"is_disabled":false,"rental_uris":{"android":"levelo://app?vid=41f75c63-5a1e-4adb-bcc3-29aa8accf432","ios":"levelo://app?vid=41f75c63-5a1e-4adb-bcc3-29aa8accf432"},"vehicle_type_id":"4","last_reported":1729631298,"current_range_meters":36000,"station_id":"ce4bhn92rcd13ifvqgrg","pricing_plan_id":"cebpf4jnsgd1na2vs0mg"},{"bike_id":"4bed37e0-2190-4912-a2db-22244b715df8","system_id":"levelo_inurba_marseille","lat":43.24993,"lon":5.38933,"is_reserved":false,"is_disabled":false,"rental_uris":{"android":"levelo://app?vid=4bed37e0-2190-4912-a2db-22244b715df8","ios":"levelo://app?vid=4bed37e0-2190-4912-a2db-22244b715df8"},"vehicle_type_id":"4","last_reported":1729631298,"current_range_meters":38800,"station_id":"ce4bhgp2rcd13ifvqfd0","pricing_plan_id":"cebpf4jnsgd1na2vs0mg"},{"bike_id":"a657c797-5c0b-49f4-85d8-43c6a9598562","system_id":"levelo_inurba_marseille","lat":43.28947,"lon":5.36396,"is_reserved":false,"is_disabled":false,"rental_uris":{"android":"levelo://app?vid=a657c797-5c0b-49f4-85d8-43c6a9598562","ios":"levelo://app?vid=a657c797-5c0b-49f4-85d8-43c6a9598562"},"vehicle_type_id":"4","last_reported":1729631298,"current_range_meters":3200,"station_id":"ce4bhc92rcd13ifvqetg","pricing_plan_id":"cebpf4jnsgd1na2vs0mg"},{"bike_id":"5b58dcfb-5507-4a17-8cb8-8f66d7e06861","system_id":"levelo_inurba_marseille","lat":43.23182,"lon":5.39986,"is_reserved":false,"is_disabled":false,"rental_uris":{"android":"levelo://app?vid=5b58dcfb-5507-4a17-8cb8-8f66d7e06861","ios":"levelo://app?vid=5b58dcfb-5507-4a17-8cb8-8f66d7e06861"},"vehicle_type_id":"4","last_reported":1729631298,"current_range_meters":14400,"station_id":"ce4bhn12rcd13ifvqgqg","pricing_plan_id":"cebpf4jnsgd1na2vs0mg"},{"bike_id":"a178491a-33d3-4268-a641-931e849c7355","system_id":"levelo_inurba_marseille","lat":43.26682,"lon":5.38266,"is_reserved":false,"is_disabled":false,"rental_uris":{"android":"levelo://app?vid=a178491a-33d3-4268-a641-931e849c7355","ios":"levelo://app?vid=a178491a-33d3-4268-a641-931e849c7355"},"vehicle_type_id":"4","last_reported":1729631298,"current_range_meters":32800,"station_id":"ce4bhg92rcd13ifvqf90","pricing_plan_id":"cebpf4jnsgd1na2vs0mg"},{"bike_id":"319d84de-4253-4521-b702-80c5b91da581","system_id":"levelo_inurba_marseille","lat":43.295656,"lon":5.37523,"is_reserved":false,"is_disabled":false,"rental_uris":{"android":"levelo://app?vid=319d84de-4253-4521-b702-80c5b91da581","ios":"levelo://app?vid=319d84de-4253-4521-b702-80c5b91da581"},"vehicle_type_id":"4","last_reported":1729631298,"current_range_meters":28400,"station_id":"ce4bhf92rcd13ifvqf50","pricing_plan_id":"cebpf4jnsgd1na2vs0mg"},{"bike_id":"3fe96bb3-d27a-492d-825f-9bc77dafe8c4","system_id":"levelo_inurba_marseille","lat":43.28081,"lon":5.39664,"is_reserved":false,"is_disabled":false,"rental_uris":{"android":"levelo://app?vid=3fe96bb3-d27a-492d-825f-9bc77dafe8c4","ios":"levelo://app?vid=3fe96bb3-d27a-492d-825f-9bc77dafe8c4"},"vehicle_type_id":"4","last_reported":1729631298,"current_range_meters":30800,"station_id":"ce4bho12rcd13ifvqh2g","pricing_plan_id":"cebpf4jnsgd1na2vs0mg"},{"bike_id":"e64f917e-39a9-4324-8dd2-09ac776b9a36","system_id":"levelo_inurba_marseille","lat":43.27839,"lon":5.39209,"is_reserved":false,"is_disabled":false,"rental_uris":{"android":"levelo://app?vid=e64f917e-39a9-4324-8dd2-09ac776b9a36","ios":"levelo://app?vid=e64f917e-39a9-4324-8dd2-09ac776b9a36"},"vehicle_type_id":"4","last_reported":1729631298,"current_range_meters":38000,"station_id":"ce4bhjp2rcd13ifvqga0","pricing_plan_id":"cebpf4jnsgd1na2vs0mg"},{"bike_id":"79a1e020-318b-42a1-a8c0-a424b1daf69e","system_id":"levelo_inurba_marseille","lat":43.296,"lon":5.36142,"is_reserved":false,"is_disabled":false,"rental_uris":{"android":"levelo://app?vid=79a1e020-318b-42a1-a8c0-a424b1daf69e","ios":"levelo://app?vid=79a1e020-318b-42a1-a8c0-a424b1daf69e"},"vehicle_type_id":"4","last_reported":1729631298,"current_range_meters":4400,"station_id":"","pricing_plan_id":"cebpf4jnsgd1na2vs0mg"},{"bike_id":"135cebe9-ffee-4a96-8e19-ff8188d72ddd","system_id":"levelo_inurba_marseille","lat":43.24391,"lon":5.37062,"is_reserved":false,"is_disabled":false,"rental_uris":{"android":"levelo://app?vid=135cebe9-ffee-4a96-8e19-ff8188d72ddd","ios":"levelo://app?vid=135cebe9-ffee-4a96-8e19-ff8188d72ddd"},"vehicle_type_id":"4","last_reported":1729631298,"current_range_meters":38800,"station_id":"ce4bhhh2rcd13ifvqfk0","pricing_plan_id":"cebpf4jnsgd1na2vs0mg"},{"bike_id":"d56e9fd9-8d24-4e8b-8b32-985de23111c3","system_id":"levelo_inurba_marseille","lat":43.30939,"lon":5.40144,"is_reserved":false,"is_disabled":false,"rental_uris":{"android":"levelo://app?vid=d56e9fd9-8d24-4e8b-8b32-985de23111c3","ios":"levelo://app?vid=d56e9fd9-8d24-4e8b-8b32-985de23111c3"},"vehicle_type_id":"4","last_reported":1729631298,"current_range_meters":12400,"station_id":"ce4bgvp2rcd13ifvqct0","pricing_plan_id":"cebpf4jnsgd1na2vs0mg"},{"bike_id":"e20eacab-28c4-4862-9c97-caa408edf48c","system_id":"levelo_inurba_marseille","lat":43.23182,"lon":5.39992,"is_reserved":false,"is_disabled":false,"rental_uris":{"android":"levelo://app?vid=e20eacab-28c4-4862-9c97-caa408edf48c","ios":"levelo://app?vid=e20eacab-28c4-4862-9c97-caa408edf48c"},"vehicle_type_id":"4","last_reported":1729631298,"current_range_meters":26000,"station_id":"ce4bhn12rcd13ifvqgqg","pricing_plan_id":"cebpf4jnsgd1na2vs0mg"},{"bike_id":"f5da133b-0b84-44cf-a1a7-15acb250ebad","system_id":"levelo_inurba_marseille","lat":43.2892,"lon":5.36647,"is_reserved":false,"is_disabled":false,"rental_uris":{"android":"levelo://app?vid=f5da133b-0b84-44cf-a1a7-15acb250ebad","ios":"levelo://app?vid=f5da133b-0b84-44cf-a1a7-15acb250ebad"},"vehicle_type_id":"4","last_reported":1729631298,"current_range_meters":30000,"station_id":"ce4bhap2rcd13ifvqek0","pricing_plan_id":"cebpf4jnsgd1na2vs0mg"},{"bike_id":"f46fe9a0-89d0-4be4-88bd-16cceea878aa","system_id":"levelo_inurba_marseille","lat":43.294112,"lon":5.386224,"is_reserved":false,"is_disabled":false,"rental_uris":{"android":"levelo://app?vid=f46fe9a0-89d0-4be4-88bd-16cceea878aa","ios":"levelo://app?vid=f46fe9a0-89d0-4be4-88bd-16cceea878aa"},"vehicle_type_id":"4","last_reported":1729631298,"current_range_meters":36400,"station_id":"ce4bgup2rcd13ifvqcn0","pricing_plan_id":"cebpf4jnsgd1na2vs0mg"},{"bike_id":"1cb83924-fa4e-469e-a9f1-5e7168b2f7d6","system_id":"levelo_inurba_marseille","lat":43.23199,"lon":5.35551,"is_reserved":false,"is_disabled":false,"rental_uris":{"android":"levelo://app?vid=1cb83924-fa4e-469e-a9f1-5e7168b2f7d6","ios":"levelo://app?vid=1cb83924-fa4e-469e-a9f1-5e7168b2f7d6"},"vehicle_type_id":"4","last_reported":1729631298,"current_range_meters":7200,"station_id":"ce4bhu92rcd13ifvqi70","pricing_plan_id":"cebpf4jnsgd1na2vs0mg"},{"bike_id":"d9118632-c9a0-41b3-ad39-341e2e25d6e7","system_id":"levelo_inurba_marseille","lat":43.30261,"lon":5.40075,"is_reserved":false,"is_disabled":false,"rental_uris":{"android":"levelo://app?vid=d9118632-c9a0-41b3-ad39-341e2e25d6e7","ios":"levelo://app?vid=d9118632-c9a0-41b3-ad39-341e2e25d6e7"},"vehicle_type_id":"4","last_reported":1729631298,"current_range_meters":38000,"station_id":"ce4bgvh2rcd13ifvqcs0","pricing_plan_id":"cebpf4jnsgd1na2vs0mg"},{"bike_id":"ab582f8d-cee2-41e0-9a9c-eee3c83bb08d","system_id":"levelo_inurba_marseille","lat":43.29977,"lon":5.3718,"is_reserved":false,"is_disabled":false,"rental_uris":{"android":"levelo://app?vid=ab582f8d-cee2-41e0-9a9c-eee3c83bb08d","ios":"levelo://app?vid=ab582f8d-cee2-41e0-9a9c-eee3c83bb08d"},"vehicle_type_id":"4","last_reported":1729631298,"current_range_meters":38000,"station_id":"ce4bgr92rcd13ifvqc7g","pricing_plan_id":"cebpf4jnsgd1na2vs0mg"},{"bike_id":"46db9711-f6dd-4786-803b-84501bae3cf3","system_id":"levelo_inurba_marseille","lat":43.30646,"lon":5.40091,"is_reserved":false,"is_disabled":false,"rental_uris":{"android":"levelo://app?vid=46db9711-f6dd-4786-803b-84501bae3cf3","ios":"levelo://app?vid=46db9711-f6dd-4786-803b-84501bae3cf3"},"vehicle_type_id":"4","last_reported":1729631298,"current_range_meters":11600,"station_id":"ce4bh112rcd13ifvqda0","pricing_plan_id":"cebpf4jnsgd1na2vs0mg"},{"bike_id":"f381a9cd-6e92-44ca-a979-5a35ffe3ac7d","system_id":"levelo_inurba_marseille","lat":43.2955,"lon":5.42281,"is_reserved":false,"is_disabled":false,"rental_uris":{"android":"levelo://app?vid=f381a9cd-6e92-44ca-a979-5a35ffe3ac7d","ios":"levelo://app?vid=f381a9cd-6e92-44ca-a979-5a35ffe3ac7d"},"vehicle_type_id":"4","last_reported":1729631298,"current_range_meters":6000,"station_id":"ce4bhph2rcd13ifvqhdg","pricing_plan_id":"cebpf4jnsgd1na2vs0mg"},{"bike_id":"303058a0-13bc-44e6-b6c1-852a80be8e65","system_id":"levelo_inurba_marseille","lat":43.31882,"lon":5.407337,"is_reserved":false,"is_disabled":false,"rental_uris":{"android":"levelo://app?vid=303058a0-13bc-44e6-b6c1-852a80be8e65","ios":"levelo://app?vid=303058a0-13bc-44e6-b6c1-852a80be8e65"},"vehicle_type_id":"4","last_reported":1729631298,"current_range_meters":23200,"station_id":"ce4bhq12rcd13ifvqhig","pricing_plan_id":"cebpf4jnsgd1na2vs0mg"},{"bike_id":"34be8e3a-eefe-496b-810d-162ce65754e0","system_id":"levelo_inurba_marseille","lat":43.23194,"lon":5.35557,"is_reserved":false,"is_disabled":false,"rental_uris":{"android":"levelo://app?vid=34be8e3a-eefe-496b-810d-162ce65754e0","ios":"levelo://app?vid=34be8e3a-eefe-496b-810d-162ce65754e0"},"vehicle_type_id":"4","last_reported":1729631298,"current_range_meters":38800,"station_id":"ce4bhu92rcd13ifvqi70","pricing_plan_id":"cebpf4jnsgd1na2vs0mg"},{"bike_id":"6f41eea1-82b9-4f57-9729-6d5b1a182422","system_id":"levelo_inurba_marseille","lat":43.31375,"lon":5.385,"is_reserved":false,"is_disabled":false,"rental_uris":{"android":"levelo://app?vid=6f41eea1-82b9-4f57-9729-6d5b1a182422","ios":"levelo://app?vid=6f41eea1-82b9-4f57-9729-6d5b1a182422"},"vehicle_type_id":"4","last_reported":1729631298,"current_range_meters":16400,"station_id":"ce4bgt92rcd13ifvqcf0","pricing_plan_id":"cebpf4jnsgd1na2vs0mg"},{"bike_id":"58caf4a9-c5eb-4aa8-837a-bb08b4463502","system_id":"levelo_inurba_marseille","lat":43.308,"lon":5.3814,"is_reserved":false,"is_disabled":false,"rental_uris":{"android":"levelo://app?vid=58caf4a9-c5eb-4aa8-837a-bb08b4463502","ios":"levelo://app?vid=58caf4a9-c5eb-4aa8-837a-bb08b4463502"},"vehicle_type_id":"4","last_reported":1729631298,"current_range_meters":38800,"station_id":"ce4bgt12rcd13ifvqce0","pricing_plan_id":"cebpf4jnsgd1na2vs0mg"},{"bike_id":"8e40ff46-40ee-4202-a615-be27d36b4e1d","system_id":"levelo_inurba_marseille","lat":43.33722,"lon":5.39183,"is_reserved":false,"is_disabled":false,"rental_uris":{"android":"levelo://app?vid=8e40ff46-40ee-4202-a615-be27d36b4e1d","ios":"levelo://app?vid=8e40ff46-40ee-4202-a615-be27d36b4e1d"},"vehicle_type_id":"4","last_reported":1729631298,"current_range_meters":30400,"station_id":"ce4bhr92rcd13ifvqhsg","pricing_plan_id":"cebpf4jnsgd1na2vs0mg"},{"bike_id":"cc2bf40a-c3a9-4fb3-8f4c-0570e51bda77","system_id":"levelo_inurba_marseille","lat":43.2842,"lon":5.37509,"is_reserved":false,"is_disabled":false,"rental_uris":{"android":"levelo://app?vid=cc2bf40a-c3a9-4fb3-8f4c-0570e51bda77","ios":"levelo://app?vid=cc2bf40a-c3a9-4fb3-8f4c-0570e51bda77"},"vehicle_type_id":"4","last_reported":1729631298,"current_range_meters":10800,"station_id":"ce4bh412rcd13ifvqds0","pricing_plan_id":"cebpf4jnsgd1na2vs0mg"},{"bike_id":"a8fd90e1-0f06-42a3-906b-c91cb727d214","system_id":"levelo_inurba_marseille","lat":43.26821,"lon":5.41113,"is_reserved":false,"is_disabled":false,"rental_uris":{"android":"levelo://app?vid=a8fd90e1-0f06-42a3-906b-c91cb727d214","ios":"levelo://app?vid=a8fd90e1-0f06-42a3-906b-c91cb727d214"},"vehicle_type_id":"4","last_reported":1729631298,"current_range_meters":12000,"station_id":"","pricing_plan_id":"cebpf4jnsgd1na2vs0mg"},{"bike_id":"1e4f408a-7823-4f21-aceb-d6709974f1c5","system_id":"levelo_inurba_marseille","lat":43.23189,"lon":5.35544,"is_reserved":false,"is_disabled":false,"rental_uris":{"android":"levelo://app?vid=1e4f408a-7823-4f21-aceb-d6709974f1c5","ios":"levelo://app?vid=1e4f408a-7823-4f21-aceb-d6709974f1c5"},"vehicle_type_id":"4","last_reported":1729631298,"current_range_meters":24400,"station_id":"ce4bhu92rcd13ifvqi70","pricing_plan_id":"cebpf4jnsgd1na2vs0mg"},{"bike_id":"2385c890-da0c-4bca-88cc-969d8e158487","system_id":"levelo_inurba_marseille","lat":43.26802,"lon":5.40259,"is_reserved":false,"is_disabled":false,"rental_uris":{"android":"levelo://app?vid=2385c890-da0c-4bca-88cc-969d8e158487","ios":"levelo://app?vid=2385c890-da0c-4bca-88cc-969d8e158487"},"vehicle_type_id":"4","last_reported":1729631298,"current_range_meters":12000,"station_id":"ce501612rcd8frsf0b60","pricing_plan_id":"cebpf4jnsgd1na2vs0mg"},{"bike_id":"29665abb-bb05-4470-bec8-a92af688bd5f","system_id":"levelo_inurba_marseille","lat":43.29553,"lon":5.42282,"is_reserved":false,"is_disabled":false,"rental_uris":{"android":"levelo://app?vid=29665abb-bb05-4470-bec8-a92af688bd5f","ios":"levelo://app?vid=29665abb-bb05-4470-bec8-a92af688bd5f"},"vehicle_type_id":"4","last_reported":1729631298,"current_range_meters":32400,"station_id":"ce4bhph2rcd13ifvqhdg","pricing_plan_id":"cebpf4jnsgd1na2vs0mg"},{"bike_id":"c3945b60-e38d-4106-8f18-92c7f436cc4f","system_id":"levelo_inurba_marseille","lat":43.33757,"lon":5.37448,"is_reserved":false,"is_disabled":false,"rental_uris":{"android":"levelo://app?vid=c3945b60-e38d-4106-8f18-92c7f436cc4f","ios":"levelo://app?vid=c3945b60-e38d-4106-8f18-92c7f436cc4f"},"vehicle_type_id":"4","last_reported":1729631298,"current_range_meters":30400,"station_id":"","pricing_plan_id":"cebpf4jnsgd1na2vs0mg"},{"bike_id":"96a7dace-0668-4ecd-b200-08d009b00073","system_id":"levelo_inurba_marseille","lat":43.30925,"lon":5.40148,"is_reserved":false,"is_disabled":false,"rental_uris":{"android":"levelo://app?vid=96a7dace-0668-4ecd-b200-08d009b00073","ios":"levelo://app?vid=96a7dace-0668-4ecd-b200-08d009b00073"},"vehicle_type_id":"4","last_reported":1729631298,"current_range_meters":9200,"station_id":"ce4bgvp2rcd13ifvqct0","pricing_plan_id":"cebpf4jnsgd1na2vs0mg"},{"bike_id":"38c7d2f0-6a74-4bb5-8e4f-a06f32ddcf78","system_id":"levelo_inurba_marseille","lat":43.27376,"lon":5.36257,"is_reserved":false,"is_disabled":false,"rental_uris":{"android":"levelo://app?vid=38c7d2f0-6a74-4bb5-8e4f-a06f32ddcf78","ios":"levelo://app?vid=38c7d2f0-6a74-4bb5-8e4f-a06f32ddcf78"},"vehicle_type_id":"4","last_reported":1729631298,"current_range_meters":3600,"station_id":"ce4bhbh2rcd13ifvqeo0","pricing_plan_id":"cebpf4jnsgd1na2vs0mg"},{"bike_id":"054f98d4-2683-4ee1-9d6b-9b0b8ce093a8","system_id":"levelo_inurba_marseille","lat":43.24534,"lon":5.39519,"is_reserved":false,"is_disabled":false,"rental_uris":{"android":"levelo://app?vid=054f98d4-2683-4ee1-9d6b-9b0b8ce093a8","ios":"levelo://app?vid=054f98d4-2683-4ee1-9d6b-9b0b8ce093a8"},"vehicle_type_id":"4","last_reported":1729631298,"current_range_meters":38800,"station_id":"ce4bhlp2rcd13ifvqgjg","pricing_plan_id":"cebpf4jnsgd1na2vs0mg"},{"bike_id":"83020668-29ad-4780-ace0-7400c7c0d708","system_id":"levelo_inurba_marseille","lat":43.291999,"lon":5.358116,"is_reserved":false,"is_disabled":false,"rental_uris":{"android":"levelo://app?vid=83020668-29ad-4780-ace0-7400c7c0d708","ios":"levelo://app?vid=83020668-29ad-4780-ace0-7400c7c0d708"},"vehicle_type_id":"4","last_reported":1729631298,"current_range_meters":38000,"station_id":"ce4bhb12rcd13ifvqel0","pricing_plan_id":"cebpf4jnsgd1na2vs0mg"},{"bike_id":"5304e6d2-a025-4504-9ff2-0054277e008d","system_id":"levelo_inurba_marseille","lat":43.27374,"lon":5.36258,"is_reserved":false,"is_disabled":false,"rental_uris":{"android":"levelo://app?vid=5304e6d2-a025-4504-9ff2-0054277e008d","ios":"levelo://app?vid=5304e6d2-a025-4504-9ff2-0054277e008d"},"vehicle_type_id":"4","last_reported":1729631298,"current_range_meters":36400,"station_id":"ce4bhbh2rcd13ifvqeo0","pricing_plan_id":"cebpf4jnsgd1na2vs0mg"},{"bike_id":"b5b609ce-7b52-4ecc-ac41-15740c93a3b0","system_id":"levelo_inurba_marseille","lat":43.29197,"lon":5.39315,"is_reserved":false,"is_disabled":false,"rental_uris":{"android":"levelo://app?vid=b5b609ce-7b52-4ecc-ac41-15740c93a3b0","ios":"levelo://app?vid=b5b609ce-7b52-4ecc-ac41-15740c93a3b0"},"vehicle_type_id":"4","last_reported":1729631298,"current_range_meters":36800,"station_id":"ce4bh192rcd13ifvqdd0","pricing_plan_id":"cebpf4jnsgd1na2vs0mg"},{"bike_id":"deb4a077-2cb4-4d1a-b1fe-922c520bcc2f","system_id":"levelo_inurba_marseille","lat":43.29703,"lon":5.366093,"is_reserved":false,"is_disabled":false,"rental_uris":{"android":"levelo://app?vid=deb4a077-2cb4-4d1a-b1fe-922c520bcc2f","ios":"levelo://app?vid=deb4a077-2cb4-4d1a-b1fe-922c520bcc2f"},"vehicle_type_id":"4","last_reported":1729631298,"current_range_meters":38000,"station_id":"ce4bgn12rcd13ifvqbt0","pricing_plan_id":"cebpf4jnsgd1na2vs0mg"},{"bike_id":"1135af4d-b7d7-4190-b0cb-6113c69ae2ea","system_id":"levelo_inurba_marseille","lat":43.27374,"lon":5.36248,"is_reserved":false,"is_disabled":false,"rental_uris":{"android":"levelo://app?vid=1135af4d-b7d7-4190-b0cb-6113c69ae2ea","ios":"levelo://app?vid=1135af4d-b7d7-4190-b0cb-6113c69ae2ea"},"vehicle_type_id":"4","last_reported":1729631298,"current_range_meters":38800,"station_id":"ce4bhbh2rcd13ifvqeo0","pricing_plan_id":"cebpf4jnsgd1na2vs0mg"},{"bike_id":"3af337b1-4096-493c-9221-0107a2ba6d39","system_id":"levelo_inurba_marseille","lat":43.31167,"lon":5.38708,"is_reserved":false,"is_disabled":false,"rental_uris":{"android":"levelo://app?vid=3af337b1-4096-493c-9221-0107a2ba6d39","ios":"levelo://app?vid=3af337b1-4096-493c-9221-0107a2ba6d39"},"vehicle_type_id":"4","last_reported":1729631298,"current_range_meters":32000,"station_id":"ce4bgv12rcd13ifvqcp0","pricing_plan_id":"cebpf4jnsgd1na2vs0mg"},{"bike_id":"6b1ecc0c-056f-4212-8517-100734512bbc","system_id":"levelo_inurba_marseille","lat":43.29967,"lon":5.37176,"is_reserved":false,"is_disabled":false,"rental_uris":{"android":"levelo://app?vid=6b1ecc0c-056f-4212-8517-100734512bbc","ios":"levelo://app?vid=6b1ecc0c-056f-4212-8517-100734512bbc"},"vehicle_type_id":"4","last_reported":1729631298,"current_range_meters":38800,"station_id":"ce4bgr92rcd13ifvqc7g","pricing_plan_id":"cebpf4jnsgd1na2vs0mg"},{"bike_id":"81d97d25-6b95-4a79-9a7f-f6f9ad475c13","system_id":"levelo_inurba_marseille","lat":43.28454,"lon":5.35885,"is_reserved":false,"is_disabled":false,"rental_uris":{"android":"levelo://app?vid=81d97d25-6b95-4a79-9a7f-f6f9ad475c13","ios":"levelo://app?vid=81d97d25-6b95-4a79-9a7f-f6f9ad475c13"},"vehicle_type_id":"4","last_reported":1729631298,"current_range_meters":38400,"station_id":"ce4bhah2rcd13ifvqei0","pricing_plan_id":"cebpf4jnsgd1na2vs0mg"},{"bike_id":"8f34dca2-e523-475a-85e5-be2164d16e3c","system_id":"levelo_inurba_marseille","lat":43.28107,"lon":5.37838,"is_reserved":false,"is_disabled":false,"rental_uris":{"android":"levelo://app?vid=8f34dca2-e523-475a-85e5-be2164d16e3c","ios":"levelo://app?vid=8f34dca2-e523-475a-85e5-be2164d16e3c"},"vehicle_type_id":"4","last_reported":1729631298,"current_range_meters":38800,"station_id":"ce4bha12rcd13ifvqee0","pricing_plan_id":"cebpf4jnsgd1na2vs0mg"},{"bike_id":"0fd99554-833b-46fb-9e64-efde1a86fc9e","system_id":"levelo_inurba_marseille","lat":43.24661,"lon":5.38168,"is_reserved":false,"is_disabled":false,"rental_uris":{"android":"levelo://app?vid=0fd99554-833b-46fb-9e64-efde1a86fc9e","ios":"levelo://app?vid=0fd99554-833b-46fb-9e64-efde1a86fc9e"},"vehicle_type_id":"4","last_reported":1729631298,"current_range_meters":18800,"station_id":"ce4bhih2rcd13ifvqfr0","pricing_plan_id":"cebpf4jnsgd1na2vs0mg"},{"bike_id":"f15c7b2e-2f5a-4c38-8166-9501d32f99b8","system_id":"levelo_inurba_marseille","lat":43.2762,"lon":5.36113,"is_reserved":false,"is_disabled":false,"rental_uris":{"android":"levelo://app?vid=f15c7b2e-2f5a-4c38-8166-9501d32f99b8","ios":"levelo://app?vid=f15c7b2e-2f5a-4c38-8166-9501d32f99b8"},"vehicle_type_id":"4","last_reported":1729631298,"current_range_meters":22000,"station_id":"ce4bgj92rcd13ifvqbe0","pricing_plan_id":"cebpf4jnsgd1na2vs0mg"},{"bike_id":"19e883b4-425c-45c7-978d-9d490b31f0af","system_id":"levelo_inurba_marseille","lat":43.29257,"lon":5.40901,"is_reserved":false,"is_disabled":false,"rental_uris":{"android":"levelo://app?vid=19e883b4-425c-45c7-978d-9d490b31f0af","ios":"levelo://app?vid=19e883b4-425c-45c7-978d-9d490b31f0af"},"vehicle_type_id":"4","last_reported":1729631298,"current_range_meters":16000,"station_id":"ce4bh192rcd13ifvqdc0","pricing_plan_id":"cebpf4jnsgd1na2vs0mg"},{"bike_id":"ad19b7e1-6781-4cc2-80fb-992556f26605","system_id":"levelo_inurba_marseille","lat":43.31718,"lon":5.4047,"is_reserved":false,"is_disabled":false,"rental_uris":{"android":"levelo://app?vid=ad19b7e1-6781-4cc2-80fb-992556f26605","ios":"levelo://app?vid=ad19b7e1-6781-4cc2-80fb-992556f26605"},"vehicle_type_id":"4","last_reported":1729631298,"current_range_meters":28800,"station_id":"ce4bh012rcd13ifvqd00","pricing_plan_id":"cebpf4jnsgd1na2vs0mg"},{"bike_id":"8f597326-b58b-49c5-9c76-b746910bf8ca","system_id":"levelo_inurba_marseille","lat":43.28629,"lon":5.40426,"is_reserved":false,"is_disabled":false,"rental_uris":{"android":"levelo://app?vid=8f597326-b58b-49c5-9c76-b746910bf8ca","ios":"levelo://app?vid=8f597326-b58b-49c5-9c76-b746910bf8ca"},"vehicle_type_id":"4","last_reported":1729631298,"current_range_meters":12000,"station_id":"","pricing_plan_id":"cebpf4jnsgd1na2vs0mg"},{"bike_id":"4a7abcc4-a1fa-417b-8ffa-a28e55985c43","system_id":"levelo_inurba_marseille","lat":43.24082,"lon":5.37755,"is_reserved":false,"is_disabled":false,"rental_uris":{"android":"levelo://app?vid=4a7abcc4-a1fa-417b-8ffa-a28e55985c43","ios":"levelo://app?vid=4a7abcc4-a1fa-417b-8ffa-a28e55985c43"},"vehicle_type_id":"4","last_reported":1729631298,"current_range_meters":38800,"station_id":"ce4bhnp2rcd13ifvqgvg","pricing_plan_id":"cebpf4jnsgd1na2vs0mg"},{"bike_id":"cdba8dd9-10d6-4358-97ce-fe5c3999d55d","system_id":"levelo_inurba_marseille","lat":43.3035,"lon":5.41872,"is_reserved":false,"is_disabled":false,"rental_uris":{"android":"levelo://app?vid=cdba8dd9-10d6-4358-97ce-fe5c3999d55d","ios":"levelo://app?vid=cdba8dd9-10d6-4358-97ce-fe5c3999d55d"},"vehicle_type_id":"4","last_reported":1729631298,"current_range_meters":39200,"station_id":"ce4bhop2rcd13ifvqh7g","pricing_plan_id":"cebpf4jnsgd1na2vs0mg"},{"bike_id":"fd57e210-0cdc-4006-846d-96114f8f6035","system_id":"levelo_inurba_marseille","lat":43.26564,"lon":5.38995,"is_reserved":false,"is_disabled":false,"rental_uris":{"android":"levelo://app?vid=fd57e210-0cdc-4006-846d-96114f8f6035","ios":"levelo://app?vid=fd57e210-0cdc-4006-846d-96114f8f6035"},"vehicle_type_id":"4","last_reported":1729631298,"current_range_meters":16800,"station_id":"ce4bhe12rcd13ifvqf30","pricing_plan_id":"cebpf4jnsgd1na2vs0mg"},{"bike_id":"68c38d48-9f12-4097-a852-9f644dcc9766","system_id":"levelo_inurba_marseille","lat":43.2953,"lon":5.39394,"is_reserved":false,"is_disabled":false,"rental_uris":{"android":"levelo://app?vid=68c38d48-9f12-4097-a852-9f644dcc9766","ios":"levelo://app?vid=68c38d48-9f12-4097-a852-9f644dcc9766"},"vehicle_type_id":"4","last_reported":1729631298,"current_range_meters":36400,"station_id":"ce4bh292rcd13ifvqdf0","pricing_plan_id":"cebpf4jnsgd1na2vs0mg"},{"bike_id":"af39c80e-bebc-45d4-b1ab-aa2ef6cf1545","system_id":"levelo_inurba_marseille","lat":43.30879,"lon":5.39622,"is_reserved":false,"is_disabled":false,"rental_uris":{"android":"levelo://app?vid=af39c80e-bebc-45d4-b1ab-aa2ef6cf1545","ios":"levelo://app?vid=af39c80e-bebc-45d4-b1ab-aa2ef6cf1545"},"vehicle_type_id":"4","last_reported":1729631298,"current_range_meters":24800,"station_id":"ce4bh012rcd13ifvqcv0","pricing_plan_id":"cebpf4jnsgd1na2vs0mg"},{"bike_id":"0c8f5239-515f-446b-bbb1-16b6bc17d341","system_id":"levelo_inurba_marseille","lat":43.29795,"lon":5.40397,"is_reserved":false,"is_disabled":false,"rental_uris":{"android":"levelo://app?vid=0c8f5239-515f-446b-bbb1-16b6bc17d341","ios":"levelo://app?vid=0c8f5239-515f-446b-bbb1-16b6bc17d341"},"vehicle_type_id":"4","last_reported":1729631298,"current_range_meters":30400,"station_id":"ce4bh112rcd13ifvqd90","pricing_plan_id":"cebpf4jnsgd1na2vs0mg"},{"bike_id":"31048178-3d90-4915-a347-3344f65390b5","system_id":"levelo_inurba_marseille","lat":43.31335,"lon":5.39697,"is_reserved":false,"is_disabled":false,"rental_uris":{"android":"levelo://app?vid=31048178-3d90-4915-a347-3344f65390b5","ios":"levelo://app?vid=31048178-3d90-4915-a347-3344f65390b5"},"vehicle_type_id":"4","last_reported":1729631298,"current_range_meters":12400,"station_id":"ce4bgvp2rcd13ifvqcu0","pricing_plan_id":"cebpf4jnsgd1na2vs0mg"},{"bike_id":"f8c9153a-d6b1-44f0-8fca-47821217ff1c","system_id":"levelo_inurba_marseille","lat":43.26567,"lon":5.38996,"is_reserved":false,"is_disabled":false,"rental_uris":{"android":"levelo://app?vid=f8c9153a-d6b1-44f0-8fca-47821217ff1c","ios":"levelo://app?vid=f8c9153a-d6b1-44f0-8fca-47821217ff1c"},"vehicle_type_id":"4","last_reported":1729631298,"current_range_meters":30800,"station_id":"ce4bhe12rcd13ifvqf30","pricing_plan_id":"cebpf4jnsgd1na2vs0mg"},{"bike_id":"6f3c99f6-25c2-4dd4-ba80-ca7e8e0ba65e","system_id":"levelo_inurba_marseille","lat":43.28155,"lon":5.42645,"is_reserved":false,"is_disabled":false,"rental_uris":{"android":"levelo://app?vid=6f3c99f6-25c2-4dd4-ba80-ca7e8e0ba65e","ios":"levelo://app?vid=6f3c99f6-25c2-4dd4-ba80-ca7e8e0ba65e"},"vehicle_type_id":"4","last_reported":1729631298,"current_range_meters":9600,"station_id":"ce4bhnh2rcd13ifvqgug","pricing_plan_id":"cebpf4jnsgd1na2vs0mg"},{"bike_id":"ddcad89d-c359-4519-9ad3-11ae4772aae7","system_id":"levelo_inurba_marseille","lat":43.28155,"lon":5.42647,"is_reserved":false,"is_disabled":false,"rental_uris":{"android":"levelo://app?vid=ddcad89d-c359-4519-9ad3-11ae4772aae7","ios":"levelo://app?vid=ddcad89d-c359-4519-9ad3-11ae4772aae7"},"vehicle_type_id":"4","last_reported":1729631298,"current_range_meters":25200,"station_id":"ce4bhnh2rcd13ifvqgug","pricing_plan_id":"cebpf4jnsgd1na2vs0mg"},{"bike_id":"01678755-0ad9-4bb7-8723-5a8d7c4420fc","system_id":"levelo_inurba_marseille","lat":43.28065,"lon":5.40982,"is_reserved":false,"is_disabled":false,"rental_uris":{"android":"levelo://app?vid=01678755-0ad9-4bb7-8723-5a8d7c4420fc","ios":"levelo://app?vid=01678755-0ad9-4bb7-8723-5a8d7c4420fc"},"vehicle_type_id":"4","last_reported":1729631298,"current_range_meters":18800,"station_id":"","pricing_plan_id":"cebpf4jnsgd1na2vs0mg"},{"bike_id":"4a17de49-0eb0-4f62-b4f3-5313bdc17ba8","system_id":"levelo_inurba_marseille","lat":43.30647,"lon":5.40084,"is_reserved":false,"is_disabled":false,"rental_uris":{"android":"levelo://app?vid=4a17de49-0eb0-4f62-b4f3-5313bdc17ba8","ios":"levelo://app?vid=4a17de49-0eb0-4f62-b4f3-5313bdc17ba8"},"vehicle_type_id":"4","last_reported":1729631298,"current_range_meters":29600,"station_id":"ce4bh112rcd13ifvqda0","pricing_plan_id":"cebpf4jnsgd1na2vs0mg"},{"bike_id":"3dee495a-7a37-40c3-9d5a-0edc49499f73","system_id":"levelo_inurba_marseille","lat":43.27913,"lon":5.38006,"is_reserved":false,"is_disabled":false,"rental_uris":{"android":"levelo://app?vid=3dee495a-7a37-40c3-9d5a-0edc49499f73","ios":"levelo://app?vid=3dee495a-7a37-40c3-9d5a-0edc49499f73"},"vehicle_type_id":"4","last_reported":1729631298,"current_range_meters":28400,"station_id":"ce4bhf92rcd13ifvqf50","pricing_plan_id":"cebpf4jnsgd1na2vs0mg"},{"bike_id":"0d66885d-85c4-4297-beb3-a0057b8663cf","system_id":"levelo_inurba_marseille","lat":43.2439,"lon":5.3706,"is_reserved":false,"is_disabled":false,"rental_uris":{"android":"levelo://app?vid=0d66885d-85c4-4297-beb3-a0057b8663cf","ios":"levelo://app?vid=0d66885d-85c4-4297-beb3-a0057b8663cf"},"vehicle_type_id":"4","last_reported":1729631298,"current_range_meters":32400,"station_id":"ce4bhhh2rcd13ifvqfk0","pricing_plan_id":"cebpf4jnsgd1na2vs0mg"},{"bike_id":"dba43ce0-3039-474c-ba19-4117b90efe9a","system_id":"levelo_inurba_marseille","lat":43.30937,"lon":5.40138,"is_reserved":false,"is_disabled":false,"rental_uris":{"android":"levelo://app?vid=dba43ce0-3039-474c-ba19-4117b90efe9a","ios":"levelo://app?vid=dba43ce0-3039-474c-ba19-4117b90efe9a"},"vehicle_type_id":"4","last_reported":1729631298,"current_range_meters":38800,"station_id":"ce4bgvp2rcd13ifvqct0","pricing_plan_id":"cebpf4jnsgd1na2vs0mg"},{"bike_id":"e68074ff-f5e2-424b-ac9b-aa2b95174368","system_id":"levelo_inurba_marseille","lat":43.28163,"lon":5.42648,"is_reserved":false,"is_disabled":false,"rental_uris":{"android":"levelo://app?vid=e68074ff-f5e2-424b-ac9b-aa2b95174368","ios":"levelo://app?vid=e68074ff-f5e2-424b-ac9b-aa2b95174368"},"vehicle_type_id":"4","last_reported":1729631298,"current_range_meters":28800,"station_id":"ce4bhnh2rcd13ifvqgug","pricing_plan_id":"cebpf4jnsgd1na2vs0mg"},{"bike_id":"735a2476-fda6-486b-84ef-88a4c55ff9ea","system_id":"levelo_inurba_marseille","lat":43.28672,"lon":5.36348,"is_reserved":false,"is_disabled":false,"rental_uris":{"android":"levelo://app?vid=735a2476-fda6-486b-84ef-88a4c55ff9ea","ios":"levelo://app?vid=735a2476-fda6-486b-84ef-88a4c55ff9ea"},"vehicle_type_id":"4","last_reported":1729631298,"current_range_meters":2800,"station_id":"ce4bhah2rcd13ifvqej0","pricing_plan_id":"cebpf4jnsgd1na2vs0mg"},{"bike_id":"815dd284-1bd2-4bb9-992a-b2116e2485bc","system_id":"levelo_inurba_marseille","lat":43.32896,"lon":5.36425,"is_reserved":false,"is_disabled":false,"rental_uris":{"android":"levelo://app?vid=815dd284-1bd2-4bb9-992a-b2116e2485bc","ios":"levelo://app?vid=815dd284-1bd2-4bb9-992a-b2116e2485bc"},"vehicle_type_id":"4","last_reported":1729631298,"current_range_meters":32000,"station_id":"","pricing_plan_id":"cebpf4jnsgd1na2vs0mg"},{"bike_id":"470a6ebe-193c-4df5-89dc-4c0d25de3ba7","system_id":"levelo_inurba_marseille","lat":43.26061,"lon":5.39398,"is_reserved":false,"is_disabled":false,"rental_uris":{"android":"levelo://app?vid=470a6ebe-193c-4df5-89dc-4c0d25de3ba7","ios":"levelo://app?vid=470a6ebe-193c-4df5-89dc-4c0d25de3ba7"},"vehicle_type_id":"4","last_reported":1729631298,"current_range_meters":38800,"station_id":"ce4bhh92rcd13ifvqfj0","pricing_plan_id":"cebpf4jnsgd1na2vs0mg"},{"bike_id":"9ff64a80-fbeb-434b-b02d-660129a509df","system_id":"levelo_inurba_marseille","lat":43.28401,"lon":5.37517,"is_reserved":false,"is_disabled":false,"rental_uris":{"android":"levelo://app?vid=9ff64a80-fbeb-434b-b02d-660129a509df","ios":"levelo://app?vid=9ff64a80-fbeb-434b-b02d-660129a509df"},"vehicle_type_id":"4","last_reported":1729631298,"current_range_meters":22000,"station_id":"ce4bh412rcd13ifvqds0","pricing_plan_id":"cebpf4jnsgd1na2vs0mg"},{"bike_id":"062b9e58-b28b-44e4-b456-ab4a97b9bab5","system_id":"levelo_inurba_marseille","lat":43.279325,"lon":5.410385,"is_reserved":false,"is_disabled":false,"rental_uris":{"android":"levelo://app?vid=062b9e58-b28b-44e4-b456-ab4a97b9bab5","ios":"levelo://app?vid=062b9e58-b28b-44e4-b456-ab4a97b9bab5"},"vehicle_type_id":"4","last_reported":1729631298,"current_range_meters":10800,"station_id":"ce4bhnp2rcd13ifvqh0g","pricing_plan_id":"cebpf4jnsgd1na2vs0mg"},{"bike_id":"385732b5-951b-4468-ab4e-08834700dc72","system_id":"levelo_inurba_marseille","lat":43.28704,"lon":5.37931,"is_reserved":false,"is_disabled":false,"rental_uris":{"android":"levelo://app?vid=385732b5-951b-4468-ab4e-08834700dc72","ios":"levelo://app?vid=385732b5-951b-4468-ab4e-08834700dc72"},"vehicle_type_id":"4","last_reported":1729631298,"current_range_meters":2800,"station_id":"ce4bhdp2rcd13ifvqf20","pricing_plan_id":"cebpf4jnsgd1na2vs0mg"},{"bike_id":"70f5c988-d736-45a0-9b49-4ca642435bb6","system_id":"levelo_inurba_marseille","lat":43.24165,"lon":5.36397,"is_reserved":false,"is_disabled":false,"rental_uris":{"android":"levelo://app?vid=70f5c988-d736-45a0-9b49-4ca642435bb6","ios":"levelo://app?vid=70f5c988-d736-45a0-9b49-4ca642435bb6"},"vehicle_type_id":"4","last_reported":1729631298,"current_range_meters":16800,"station_id":"cpo36qri1sfpv3e86is0","pricing_plan_id":"cebpf4jnsgd1na2vs0mg"},{"bike_id":"a0545925-3b6d-4434-845b-340010e89217","system_id":"levelo_inurba_marseille","lat":43.3302,"lon":5.39042,"is_reserved":false,"is_disabled":false,"rental_uris":{"android":"levelo://app?vid=a0545925-3b6d-4434-845b-340010e89217","ios":"levelo://app?vid=a0545925-3b6d-4434-845b-340010e89217"},"vehicle_type_id":"4","last_reported":1729631298,"current_range_meters":17600,"station_id":"ce4bhr92rcd13ifvqhrg","pricing_plan_id":"cebpf4jnsgd1na2vs0mg"},{"bike_id":"2fdf0f16-1fcc-43ed-b66f-9d0275fb667b","system_id":"levelo_inurba_marseille","lat":43.29517,"lon":5.39044,"is_reserved":false,"is_disabled":false,"rental_uris":{"android":"levelo://app?vid=2fdf0f16-1fcc-43ed-b66f-9d0275fb667b","ios":"levelo://app?vid=2fdf0f16-1fcc-43ed-b66f-9d0275fb667b"},"vehicle_type_id":"4","last_reported":1729631298,"current_range_meters":38800,"station_id":"ce4bh3p2rcd13ifvqdp0","pricing_plan_id":"cebpf4jnsgd1na2vs0mg"},{"bike_id":"336ef542-48c3-42b7-a62f-e3614fdd507a","system_id":"levelo_inurba_marseille","lat":43.29258,"lon":5.40898,"is_reserved":false,"is_disabled":false,"rental_uris":{"android":"levelo://app?vid=336ef542-48c3-42b7-a62f-e3614fdd507a","ios":"levelo://app?vid=336ef542-48c3-42b7-a62f-e3614fdd507a"},"vehicle_type_id":"4","last_reported":1729631298,"current_range_meters":7200,"station_id":"ce4bh192rcd13ifvqdc0","pricing_plan_id":"cebpf4jnsgd1na2vs0mg"},{"bike_id":"ce26414e-cf4f-4228-969f-0f32a95f8de8","system_id":"levelo_inurba_marseille","lat":43.28028,"lon":5.34979,"is_reserved":false,"is_disabled":false,"rental_uris":{"android":"levelo://app?vid=ce26414e-cf4f-4228-969f-0f32a95f8de8","ios":"levelo://app?vid=ce26414e-cf4f-4228-969f-0f32a95f8de8"},"vehicle_type_id":"4","last_reported":1729631298,"current_range_meters":25200,"station_id":"","pricing_plan_id":"cebpf4jnsgd1na2vs0mg"},{"bike_id":"fb75c1a8-45fb-423e-b89b-b2d7ce0691d7","system_id":"levelo_inurba_marseille","lat":43.24551,"lon":5.39521,"is_reserved":false,"is_disabled":false,"rental_uris":{"android":"levelo://app?vid=fb75c1a8-45fb-423e-b89b-b2d7ce0691d7","ios":"levelo://app?vid=fb75c1a8-45fb-423e-b89b-b2d7ce0691d7"},"vehicle_type_id":"4","last_reported":1729631298,"current_range_meters":38800,"station_id":"ce4bhlp2rcd13ifvqgjg","pricing_plan_id":"cebpf4jnsgd1na2vs0mg"},{"bike_id":"f866c524-d8d4-4c6f-bd33-2c0a046a90a7","system_id":"levelo_inurba_marseille","lat":43.25721,"lon":5.41111,"is_reserved":false,"is_disabled":false,"rental_uris":{"android":"levelo://app?vid=f866c524-d8d4-4c6f-bd33-2c0a046a90a7","ios":"levelo://app?vid=f866c524-d8d4-4c6f-bd33-2c0a046a90a7"},"vehicle_type_id":"4","last_reported":1729631298,"current_range_meters":37600,"station_id":"ce4bhkp2rcd13ifvqgd0","pricing_plan_id":"cebpf4jnsgd1na2vs0mg"},{"bike_id":"6071a2ca-329e-4392-9ed9-36b03692e9b7","system_id":"levelo_inurba_marseille","lat":43.297,"lon":5.36596,"is_reserved":false,"is_disabled":false,"rental_uris":{"android":"levelo://app?vid=6071a2ca-329e-4392-9ed9-36b03692e9b7","ios":"levelo://app?vid=6071a2ca-329e-4392-9ed9-36b03692e9b7"},"vehicle_type_id":"4","last_reported":1729631298,"current_range_meters":27600,"station_id":"ce4bgn12rcd13ifvqbt0","pricing_plan_id":"cebpf4jnsgd1na2vs0mg"},{"bike_id":"6b74d3f7-e59a-46dc-9422-b847f0d194b1","system_id":"levelo_inurba_marseille","lat":43.27494,"lon":5.42448,"is_reserved":false,"is_disabled":false,"rental_uris":{"android":"levelo://app?vid=6b74d3f7-e59a-46dc-9422-b847f0d194b1","ios":"levelo://app?vid=6b74d3f7-e59a-46dc-9422-b847f0d194b1"},"vehicle_type_id":"4","last_reported":1729631298,"current_range_meters":12000,"station_id":"ce4bhn92rcd13ifvqgrg","pricing_plan_id":"cebpf4jnsgd1na2vs0mg"},{"bike_id":"3d6a3feb-7e35-426e-871c-a4761783b09e","system_id":"levelo_inurba_marseille","lat":43.289337,"lon":5.366422,"is_reserved":false,"is_disabled":false,"rental_uris":{"android":"levelo://app?vid=3d6a3feb-7e35-426e-871c-a4761783b09e","ios":"levelo://app?vid=3d6a3feb-7e35-426e-871c-a4761783b09e"},"vehicle_type_id":"4","last_reported":1729631298,"current_range_meters":36000,"station_id":"ce4bh5p2rcd13ifvqe4g","pricing_plan_id":"cebpf4jnsgd1na2vs0mg"},{"bike_id":"eef83462-dd52-4fd3-a7c3-003ddd40fa75","system_id":"levelo_inurba_marseille","lat":43.25792,"lon":5.41055,"is_reserved":false,"is_disabled":false,"rental_uris":{"android":"levelo://app?vid=eef83462-dd52-4fd3-a7c3-003ddd40fa75","ios":"levelo://app?vid=eef83462-dd52-4fd3-a7c3-003ddd40fa75"},"vehicle_type_id":"4","last_reported":1729631298,"current_range_meters":3600,"station_id":"ce4bhkp2rcd13ifvqgd0","pricing_plan_id":"cebpf4jnsgd1na2vs0mg"},{"bike_id":"733087d4-bf8a-4c87-ae8d-f616e1335984","system_id":"levelo_inurba_marseille","lat":43.29297,"lon":5.37463,"is_reserved":false,"is_disabled":false,"rental_uris":{"android":"levelo://app?vid=733087d4-bf8a-4c87-ae8d-f616e1335984","ios":"levelo://app?vid=733087d4-bf8a-4c87-ae8d-f616e1335984"},"vehicle_type_id":"4","last_reported":1729631298,"current_range_meters":6800,"station_id":"ce4bgi12rcd13ifvqb70","pricing_plan_id":"cebpf4jnsgd1na2vs0mg"},{"bike_id":"f713dbc9-d56d-40cd-87d9-2ee7c0932103","system_id":"levelo_inurba_marseille","lat":43.26684,"lon":5.38273,"is_reserved":false,"is_disabled":false,"rental_uris":{"android":"levelo://app?vid=f713dbc9-d56d-40cd-87d9-2ee7c0932103","ios":"levelo://app?vid=f713dbc9-d56d-40cd-87d9-2ee7c0932103"},"vehicle_type_id":"4","last_reported":1729631298,"current_range_meters":37600,"station_id":"ce4bhg92rcd13ifvqf90","pricing_plan_id":"cebpf4jnsgd1na2vs0mg"},{"bike_id":"18eed99c-266e-45f5-8dfd-4901bf1bc11e","system_id":"levelo_inurba_marseille","lat":43.31329,"lon":5.39697,"is_reserved":false,"is_disabled":false,"rental_uris":{"android":"levelo://app?vid=18eed99c-266e-45f5-8dfd-4901bf1bc11e","ios":"levelo://app?vid=18eed99c-266e-45f5-8dfd-4901bf1bc11e"},"vehicle_type_id":"4","last_reported":1729631298,"current_range_meters":12400,"station_id":"ce4bgvp2rcd13ifvqcu0","pricing_plan_id":"cebpf4jnsgd1na2vs0mg"},{"bike_id":"6fbd6335-d27c-478e-8240-0b255a553481","system_id":"levelo_inurba_marseille","lat":43.31332,"lon":5.39702,"is_reserved":false,"is_disabled":false,"rental_uris":{"android":"levelo://app?vid=6fbd6335-d27c-478e-8240-0b255a553481","ios":"levelo://app?vid=6fbd6335-d27c-478e-8240-0b255a553481"},"vehicle_type_id":"4","last_reported":1729631298,"current_range_meters":38400,"station_id":"ce4bgvp2rcd13ifvqcu0","pricing_plan_id":"cebpf4jnsgd1na2vs0mg"},{"bike_id":"3c18da75-067c-4d59-8574-d9e83f4b8bc5","system_id":"levelo_inurba_marseille","lat":43.292664,"lon":5.408843,"is_reserved":false,"is_disabled":false,"rental_uris":{"android":"levelo://app?vid=3c18da75-067c-4d59-8574-d9e83f4b8bc5","ios":"levelo://app?vid=3c18da75-067c-4d59-8574-d9e83f4b8bc5"},"vehicle_type_id":"4","last_reported":1729631298,"current_range_meters":31200,"station_id":"ce4bh192rcd13ifvqdc0","pricing_plan_id":"cebpf4jnsgd1na2vs0mg"},{"bike_id":"22fc431c-b57c-465f-994e-166d81585d45","system_id":"levelo_inurba_marseille","lat":43.23967,"lon":5.36633,"is_reserved":false,"is_disabled":false,"rental_uris":{"android":"levelo://app?vid=22fc431c-b57c-465f-994e-166d81585d45","ios":"levelo://app?vid=22fc431c-b57c-465f-994e-166d81585d45"},"vehicle_type_id":"4","last_reported":1729631298,"current_range_meters":38800,"station_id":"ce4bhi12rcd13ifvqfp0","pricing_plan_id":"cebpf4jnsgd1na2vs0mg"},{"bike_id":"fa618194-aa57-430e-9304-eee71474a25c","system_id":"levelo_inurba_marseille","lat":43.30812,"lon":5.38158,"is_reserved":false,"is_disabled":false,"rental_uris":{"android":"levelo://app?vid=fa618194-aa57-430e-9304-eee71474a25c","ios":"levelo://app?vid=fa618194-aa57-430e-9304-eee71474a25c"},"vehicle_type_id":"4","last_reported":1729631298,"current_range_meters":8400,"station_id":"ce4bgt12rcd13ifvqce0","pricing_plan_id":"cebpf4jnsgd1na2vs0mg"},{"bike_id":"0290ab5a-42d3-4476-9fc4-3caaf6899b72","system_id":"levelo_inurba_marseille","lat":43.29874,"lon":5.39735,"is_reserved":false,"is_disabled":false,"rental_uris":{"android":"levelo://app?vid=0290ab5a-42d3-4476-9fc4-3caaf6899b72","ios":"levelo://app?vid=0290ab5a-42d3-4476-9fc4-3caaf6899b72"},"vehicle_type_id":"4","last_reported":1729631298,"current_range_meters":30400,"station_id":"ce4bh0h2rcd13ifvqd50","pricing_plan_id":"cebpf4jnsgd1na2vs0mg"},{"bike_id":"f801a972-c648-424a-a7e1-9d8a4bf001b1","system_id":"levelo_inurba_marseille","lat":43.2804,"lon":5.36945,"is_reserved":false,"is_disabled":false,"rental_uris":{"android":"levelo://app?vid=f801a972-c648-424a-a7e1-9d8a4bf001b1","ios":"levelo://app?vid=f801a972-c648-424a-a7e1-9d8a4bf001b1"},"vehicle_type_id":"4","last_reported":1729631298,"current_range_meters":37600,"station_id":"ce4bha12rcd13ifvqef0","pricing_plan_id":"cebpf4jnsgd1na2vs0mg"},{"bike_id":"83dd2c6b-679c-4f62-a311-51f14c6cd316","system_id":"levelo_inurba_marseille","lat":43.2865,"lon":5.36355,"is_reserved":false,"is_disabled":false,"rental_uris":{"android":"levelo://app?vid=83dd2c6b-679c-4f62-a311-51f14c6cd316","ios":"levelo://app?vid=83dd2c6b-679c-4f62-a311-51f14c6cd316"},"vehicle_type_id":"4","last_reported":1729631298,"current_range_meters":24400,"station_id":"ce4bhah2rcd13ifvqej0","pricing_plan_id":"cebpf4jnsgd1na2vs0mg"},{"bike_id":"2cdf5722-0992-422b-b8c9-f0bdbeea1331","system_id":"levelo_inurba_marseille","lat":43.27065,"lon":5.42272,"is_reserved":false,"is_disabled":false,"rental_uris":{"android":"levelo://app?vid=2cdf5722-0992-422b-b8c9-f0bdbeea1331","ios":"levelo://app?vid=2cdf5722-0992-422b-b8c9-f0bdbeea1331"},"vehicle_type_id":"4","last_reported":1729631298,"current_range_meters":29600,"station_id":"ce4bhk92rcd13ifvqgb0","pricing_plan_id":"cebpf4jnsgd1na2vs0mg"},{"bike_id":"0f8fcea2-a548-4eec-88b1-83ebcf53f1a8","system_id":"levelo_inurba_marseille","lat":43.3229,"lon":5.38277,"is_reserved":false,"is_disabled":false,"rental_uris":{"android":"levelo://app?vid=0f8fcea2-a548-4eec-88b1-83ebcf53f1a8","ios":"levelo://app?vid=0f8fcea2-a548-4eec-88b1-83ebcf53f1a8"},"vehicle_type_id":"4","last_reported":1729631298,"current_range_meters":38800,"station_id":"ce4bhr12rcd13ifvqhqg","pricing_plan_id":"cebpf4jnsgd1na2vs0mg"},{"bike_id":"9a2d7ecc-4c20-4dbb-9624-fff7a182bb77","system_id":"levelo_inurba_marseille","lat":43.299622,"lon":5.384943,"is_reserved":false,"is_disabled":false,"rental_uris":{"android":"levelo://app?vid=9a2d7ecc-4c20-4dbb-9624-fff7a182bb77","ios":"levelo://app?vid=9a2d7ecc-4c20-4dbb-9624-fff7a182bb77"},"vehicle_type_id":"4","last_reported":1729631298,"current_range_meters":33600,"station_id":"ce4bh0h2rcd13ifvqd40","pricing_plan_id":"cebpf4jnsgd1na2vs0mg"},{"bike_id":"9a5e67ac-2a0f-452a-90d1-1c4c31765aa0","system_id":"levelo_inurba_marseille","lat":43.27905,"lon":5.38003,"is_reserved":false,"is_disabled":false,"rental_uris":{"android":"levelo://app?vid=9a5e67ac-2a0f-452a-90d1-1c4c31765aa0","ios":"levelo://app?vid=9a5e67ac-2a0f-452a-90d1-1c4c31765aa0"},"vehicle_type_id":"4","last_reported":1729631298,"current_range_meters":38400,"station_id":"ce4bhf92rcd13ifvqf50","pricing_plan_id":"cebpf4jnsgd1na2vs0mg"},{"bike_id":"ea81553d-b885-4862-8f2d-c1b86e563ea7","system_id":"levelo_inurba_marseille","lat":43.28461,"lon":5.35889,"is_reserved":false,"is_disabled":false,"rental_uris":{"android":"levelo://app?vid=ea81553d-b885-4862-8f2d-c1b86e563ea7","ios":"levelo://app?vid=ea81553d-b885-4862-8f2d-c1b86e563ea7"},"vehicle_type_id":"4","last_reported":1729631298,"current_range_meters":28400,"station_id":"ce4bhah2rcd13ifvqei0","pricing_plan_id":"cebpf4jnsgd1na2vs0mg"},{"bike_id":"8957c51c-188f-421f-940c-13e3e082bd9e","system_id":"levelo_inurba_marseille","lat":43.2957,"lon":5.39982,"is_reserved":false,"is_disabled":false,"rental_uris":{"android":"levelo://app?vid=8957c51c-188f-421f-940c-13e3e082bd9e","ios":"levelo://app?vid=8957c51c-188f-421f-940c-13e3e082bd9e"},"vehicle_type_id":"4","last_reported":1729631298,"current_range_meters":9600,"station_id":"ce4bh312rcd13ifvqdj0","pricing_plan_id":"cebpf4jnsgd1na2vs0mg"},{"bike_id":"7f1270d2-3ee0-4809-b548-722a0e652500","system_id":"levelo_inurba_marseille","lat":43.28699,"lon":5.39978,"is_reserved":false,"is_disabled":false,"rental_uris":{"android":"levelo://app?vid=7f1270d2-3ee0-4809-b548-722a0e652500","ios":"levelo://app?vid=7f1270d2-3ee0-4809-b548-722a0e652500"},"vehicle_type_id":"4","last_reported":1729631298,"current_range_meters":6000,"station_id":"ce4bho92rcd13ifvqh3g","pricing_plan_id":"cebpf4jnsgd1na2vs0mg"},{"bike_id":"2b80f943-bf35-49c7-9584-ea1845fd1d05","system_id":"levelo_inurba_marseille","lat":43.23187,"lon":5.35539,"is_reserved":false,"is_disabled":false,"rental_uris":{"android":"levelo://app?vid=2b80f943-bf35-49c7-9584-ea1845fd1d05","ios":"levelo://app?vid=2b80f943-bf35-49c7-9584-ea1845fd1d05"},"vehicle_type_id":"4","last_reported":1729631298,"current_range_meters":8400,"station_id":"ce4bhu92rcd13ifvqi70","pricing_plan_id":"cebpf4jnsgd1na2vs0mg"},{"bike_id":"d4be358b-41a1-4e5d-a11f-e010c6bddcd5","system_id":"levelo_inurba_marseille","lat":43.23192,"lon":5.35554,"is_reserved":false,"is_disabled":false,"rental_uris":{"android":"levelo://app?vid=d4be358b-41a1-4e5d-a11f-e010c6bddcd5","ios":"levelo://app?vid=d4be358b-41a1-4e5d-a11f-e010c6bddcd5"},"vehicle_type_id":"4","last_reported":1729631298,"current_range_meters":30400,"station_id":"ce4bhu92rcd13ifvqi70","pricing_plan_id":"cebpf4jnsgd1na2vs0mg"},{"bike_id":"5da38c6c-7954-4a76-8b1f-8b7cd914f187","system_id":"levelo_inurba_marseille","lat":43.279,"lon":5.41213,"is_reserved":false,"is_disabled":false,"rental_uris":{"android":"levelo://app?vid=5da38c6c-7954-4a76-8b1f-8b7cd914f187","ios":"levelo://app?vid=5da38c6c-7954-4a76-8b1f-8b7cd914f187"},"vehicle_type_id":"4","last_reported":1729631298,"current_range_meters":19600,"station_id":"","pricing_plan_id":"cebpf4jnsgd1na2vs0mg"},{"bike_id":"0ba002b8-e108-4a2b-b69b-9d62a94756b7","system_id":"levelo_inurba_marseille","lat":43.25002,"lon":5.38928,"is_reserved":false,"is_disabled":false,"rental_uris":{"android":"levelo://app?vid=0ba002b8-e108-4a2b-b69b-9d62a94756b7","ios":"levelo://app?vid=0ba002b8-e108-4a2b-b69b-9d62a94756b7"},"vehicle_type_id":"4","last_reported":1729631298,"current_range_meters":38800,"station_id":"ce4bhgp2rcd13ifvqfd0","pricing_plan_id":"cebpf4jnsgd1na2vs0mg"},{"bike_id":"250ac974-4810-406d-9164-349ff4ee0953","system_id":"levelo_inurba_marseille","lat":43.25866,"lon":5.39899,"is_reserved":false,"is_disabled":false,"rental_uris":{"android":"levelo://app?vid=250ac974-4810-406d-9164-349ff4ee0953","ios":"levelo://app?vid=250ac974-4810-406d-9164-349ff4ee0953"},"vehicle_type_id":"4","last_reported":1729631298,"current_range_meters":7200,"station_id":"ce4bhl92rcd13ifvqghg","pricing_plan_id":"cebpf4jnsgd1na2vs0mg"},{"bike_id":"0ffc2f82-2e60-4170-b220-6dbe077701e5","system_id":"levelo_inurba_marseille","lat":43.29547,"lon":5.37423,"is_reserved":false,"is_disabled":false,"rental_uris":{"android":"levelo://app?vid=0ffc2f82-2e60-4170-b220-6dbe077701e5","ios":"levelo://app?vid=0ffc2f82-2e60-4170-b220-6dbe077701e5"},"vehicle_type_id":"4","last_reported":1729631298,"current_range_meters":38400,"station_id":"","pricing_plan_id":"cebpf4jnsgd1na2vs0mg"},{"bike_id":"669bf473-ea4a-4c7d-acc6-14a612b65c49","system_id":"levelo_inurba_marseille","lat":43.30886,"lon":5.39632,"is_reserved":false,"is_disabled":false,"rental_uris":{"android":"levelo://app?vid=669bf473-ea4a-4c7d-acc6-14a612b65c49","ios":"levelo://app?vid=669bf473-ea4a-4c7d-acc6-14a612b65c49"},"vehicle_type_id":"4","last_reported":1729631298,"current_range_meters":38800,"station_id":"ce4bh012rcd13ifvqcv0","pricing_plan_id":"cebpf4jnsgd1na2vs0mg"},{"bike_id":"8b3fb690-85c6-4703-86e3-f27a8f80559c","system_id":"levelo_inurba_marseille","lat":43.27371,"lon":5.36247,"is_reserved":false,"is_disabled":false,"rental_uris":{"android":"levelo://app?vid=8b3fb690-85c6-4703-86e3-f27a8f80559c","ios":"levelo://app?vid=8b3fb690-85c6-4703-86e3-f27a8f80559c"},"vehicle_type_id":"4","last_reported":1729631298,"current_range_meters":26800,"station_id":"ce4bhbh2rcd13ifvqeo0","pricing_plan_id":"cebpf4jnsgd1na2vs0mg"},{"bike_id":"7da9d9f0-d727-48e4-a79c-d492a6edfc26","system_id":"levelo_inurba_marseille","lat":43.28412,"lon":5.37518,"is_reserved":false,"is_disabled":false,"rental_uris":{"android":"levelo://app?vid=7da9d9f0-d727-48e4-a79c-d492a6edfc26","ios":"levelo://app?vid=7da9d9f0-d727-48e4-a79c-d492a6edfc26"},"vehicle_type_id":"4","last_reported":1729631298,"current_range_meters":8000,"station_id":"ce4bh412rcd13ifvqds0","pricing_plan_id":"cebpf4jnsgd1na2vs0mg"},{"bike_id":"627c6540-d7df-46a3-8354-a24156ff4b61","system_id":"levelo_inurba_marseille","lat":43.30144,"lon":5.3988,"is_reserved":false,"is_disabled":false,"rental_uris":{"android":"levelo://app?vid=627c6540-d7df-46a3-8354-a24156ff4b61","ios":"levelo://app?vid=627c6540-d7df-46a3-8354-a24156ff4b61"},"vehicle_type_id":"4","last_reported":1729631298,"current_range_meters":38000,"station_id":"ce4bh0h2rcd13ifvqd40","pricing_plan_id":"cebpf4jnsgd1na2vs0mg"},{"bike_id":"9200f059-e673-4c15-ac4f-15fe74d24d34","system_id":"levelo_inurba_marseille","lat":43.32285,"lon":5.38256,"is_reserved":false,"is_disabled":false,"rental_uris":{"android":"levelo://app?vid=9200f059-e673-4c15-ac4f-15fe74d24d34","ios":"levelo://app?vid=9200f059-e673-4c15-ac4f-15fe74d24d34"},"vehicle_type_id":"4","last_reported":1729631298,"current_range_meters":25600,"station_id":"ce4bhr12rcd13ifvqhqg","pricing_plan_id":"cebpf4jnsgd1na2vs0mg"},{"bike_id":"1d641339-da0e-40b4-a6b6-63fb681403d7","system_id":"levelo_inurba_marseille","lat":43.296295,"lon":5.368346,"is_reserved":false,"is_disabled":false,"rental_uris":{"android":"levelo://app?vid=1d641339-da0e-40b4-a6b6-63fb681403d7","ios":"levelo://app?vid=1d641339-da0e-40b4-a6b6-63fb681403d7"},"vehicle_type_id":"4","last_reported":1729631298,"current_range_meters":12000,"station_id":"ce4bgv92rcd13ifvqcq0","pricing_plan_id":"cebpf4jnsgd1na2vs0mg"},{"bike_id":"53b12870-d6bd-43ee-b2dd-33f023b61796","system_id":"levelo_inurba_marseille","lat":43.27176,"lon":5.40995,"is_reserved":false,"is_disabled":false,"rental_uris":{"android":"levelo://app?vid=53b12870-d6bd-43ee-b2dd-33f023b61796","ios":"levelo://app?vid=53b12870-d6bd-43ee-b2dd-33f023b61796"},"vehicle_type_id":"4","last_reported":1729631298,"current_range_meters":37600,"station_id":"ce4bhl12rcd13ifvqgf0","pricing_plan_id":"cebpf4jnsgd1na2vs0mg"},{"bike_id":"716a0e95-4458-49a6-ad86-13182cc543d9","system_id":"levelo_inurba_marseille","lat":43.28273,"lon":5.35062,"is_reserved":false,"is_disabled":false,"rental_uris":{"android":"levelo://app?vid=716a0e95-4458-49a6-ad86-13182cc543d9","ios":"levelo://app?vid=716a0e95-4458-49a6-ad86-13182cc543d9"},"vehicle_type_id":"4","last_reported":1729631298,"current_range_meters":38400,"station_id":"ce4bhbp2rcd13ifvqerg","pricing_plan_id":"cebpf4jnsgd1na2vs0mg"},{"bike_id":"b60f3ad7-a2dc-4c4e-be72-2592f69cb464","system_id":"levelo_inurba_marseille","lat":43.29707,"lon":5.36609,"is_reserved":false,"is_disabled":false,"rental_uris":{"android":"levelo://app?vid=b60f3ad7-a2dc-4c4e-be72-2592f69cb464","ios":"levelo://app?vid=b60f3ad7-a2dc-4c4e-be72-2592f69cb464"},"vehicle_type_id":"4","last_reported":1729631298,"current_range_meters":38800,"station_id":"ce4bgn12rcd13ifvqbt0","pricing_plan_id":"cebpf4jnsgd1na2vs0mg"},{"bike_id":"a75a3609-f31f-4624-81d4-7bc2dbfedcb7","system_id":"levelo_inurba_marseille","lat":43.29873,"lon":5.39731,"is_reserved":false,"is_disabled":false,"rental_uris":{"android":"levelo://app?vid=a75a3609-f31f-4624-81d4-7bc2dbfedcb7","ios":"levelo://app?vid=a75a3609-f31f-4624-81d4-7bc2dbfedcb7"},"vehicle_type_id":"4","last_reported":1729631298,"current_range_meters":38000,"station_id":"ce4bh0h2rcd13ifvqd50","pricing_plan_id":"cebpf4jnsgd1na2vs0mg"},{"bike_id":"f1720f56-fc53-460f-9452-3135857c1f39","system_id":"levelo_inurba_marseille","lat":43.28662,"lon":5.36346,"is_reserved":false,"is_disabled":false,"rental_uris":{"android":"levelo://app?vid=f1720f56-fc53-460f-9452-3135857c1f39","ios":"levelo://app?vid=f1720f56-fc53-460f-9452-3135857c1f39"},"vehicle_type_id":"4","last_reported":1729631298,"current_range_meters":17600,"station_id":"ce4bhah2rcd13ifvqej0","pricing_plan_id":"cebpf4jnsgd1na2vs0mg"},{"bike_id":"c2632a56-eb49-4576-89f2-24ffcb35cebd","system_id":"levelo_inurba_marseille","lat":43.26998,"lon":5.3657,"is_reserved":false,"is_disabled":false,"rental_uris":{"android":"levelo://app?vid=c2632a56-eb49-4576-89f2-24ffcb35cebd","ios":"levelo://app?vid=c2632a56-eb49-4576-89f2-24ffcb35cebd"},"vehicle_type_id":"4","last_reported":1729631298,"current_range_meters":30000,"station_id":"","pricing_plan_id":"cebpf4jnsgd1na2vs0mg"},{"bike_id":"1b2938f5-6022-42e3-8759-190207d01f72","system_id":"levelo_inurba_marseille","lat":43.28102,"lon":5.37842,"is_reserved":false,"is_disabled":false,"rental_uris":{"android":"levelo://app?vid=1b2938f5-6022-42e3-8759-190207d01f72","ios":"levelo://app?vid=1b2938f5-6022-42e3-8759-190207d01f72"},"vehicle_type_id":"4","last_reported":1729631298,"current_range_meters":38000,"station_id":"ce4bha12rcd13ifvqee0","pricing_plan_id":"cebpf4jnsgd1na2vs0mg"},{"bike_id":"d3d13885-3855-4129-a307-e147ecd1cb7e","system_id":"levelo_inurba_marseille","lat":43.28855,"lon":5.35847,"is_reserved":false,"is_disabled":false,"rental_uris":{"android":"levelo://app?vid=d3d13885-3855-4129-a307-e147ecd1cb7e","ios":"levelo://app?vid=d3d13885-3855-4129-a307-e147ecd1cb7e"},"vehicle_type_id":"4","last_reported":1729631298,"current_range_meters":27200,"station_id":"ce4bhb12rcd13ifvqem0","pricing_plan_id":"cebpf4jnsgd1na2vs0mg"},{"bike_id":"a978e2de-cedc-4d2f-8c4a-882ab53f1bfa","system_id":"levelo_inurba_marseille","lat":43.24662,"lon":5.38157,"is_reserved":false,"is_disabled":false,"rental_uris":{"android":"levelo://app?vid=a978e2de-cedc-4d2f-8c4a-882ab53f1bfa","ios":"levelo://app?vid=a978e2de-cedc-4d2f-8c4a-882ab53f1bfa"},"vehicle_type_id":"4","last_reported":1729631298,"current_range_meters":38800,"station_id":"ce4bhih2rcd13ifvqfr0","pricing_plan_id":"cebpf4jnsgd1na2vs0mg"},{"bike_id":"8347d519-bc8f-4feb-9fa9-70853a696682","system_id":"levelo_inurba_marseille","lat":43.31164,"lon":5.38718,"is_reserved":false,"is_disabled":false,"rental_uris":{"android":"levelo://app?vid=8347d519-bc8f-4feb-9fa9-70853a696682","ios":"levelo://app?vid=8347d519-bc8f-4feb-9fa9-70853a696682"},"vehicle_type_id":"4","last_reported":1729631298,"current_range_meters":9200,"station_id":"ce4bgv12rcd13ifvqcp0","pricing_plan_id":"cebpf4jnsgd1na2vs0mg"},{"bike_id":"a7d17c5e-fa4e-4389-8c32-1b0d87b0877a","system_id":"levelo_inurba_marseille","lat":43.281074,"lon":5.406374,"is_reserved":false,"is_disabled":false,"rental_uris":{"android":"levelo://app?vid=a7d17c5e-fa4e-4389-8c32-1b0d87b0877a","ios":"levelo://app?vid=a7d17c5e-fa4e-4389-8c32-1b0d87b0877a"},"vehicle_type_id":"4","last_reported":1729631298,"current_range_meters":8800,"station_id":"","pricing_plan_id":"cebpf4jnsgd1na2vs0mg"},{"bike_id":"f81397e9-332a-4e70-b4c4-245849512d52","system_id":"levelo_inurba_marseille","lat":43.30884,"lon":5.39643,"is_reserved":false,"is_disabled":false,"rental_uris":{"android":"levelo://app?vid=f81397e9-332a-4e70-b4c4-245849512d52","ios":"levelo://app?vid=f81397e9-332a-4e70-b4c4-245849512d52"},"vehicle_type_id":"4","last_reported":1729631298,"current_range_meters":38800,"station_id":"ce4bh012rcd13ifvqcv0","pricing_plan_id":"cebpf4jnsgd1na2vs0mg"},{"bike_id":"df6a7230-1222-4a82-9956-f05fad1a23f8","system_id":"levelo_inurba_marseille","lat":43.31277,"lon":5.40167,"is_reserved":false,"is_disabled":false,"rental_uris":{"android":"levelo://app?vid=df6a7230-1222-4a82-9956-f05fad1a23f8","ios":"levelo://app?vid=df6a7230-1222-4a82-9956-f05fad1a23f8"},"vehicle_type_id":"4","last_reported":1729631298,"current_range_meters":20000,"station_id":"ce4bh092rcd13ifvqd30","pricing_plan_id":"cebpf4jnsgd1na2vs0mg"},{"bike_id":"698e7e25-a7a9-40c9-8778-a19bd6969eba","system_id":"levelo_inurba_marseille","lat":43.28977,"lon":5.37834,"is_reserved":false,"is_disabled":false,"rental_uris":{"android":"levelo://app?vid=698e7e25-a7a9-40c9-8778-a19bd6969eba","ios":"levelo://app?vid=698e7e25-a7a9-40c9-8778-a19bd6969eba"},"vehicle_type_id":"4","last_reported":1729631298,"current_range_meters":28400,"station_id":"ce4bh9p2rcd13ifvqed0","pricing_plan_id":"cebpf4jnsgd1na2vs0mg"},{"bike_id":"21649c6a-3472-47b9-935b-27f05e7dc30d","system_id":"levelo_inurba_marseille","lat":43.29921,"lon":5.37469,"is_reserved":false,"is_disabled":false,"rental_uris":{"android":"levelo://app?vid=21649c6a-3472-47b9-935b-27f05e7dc30d","ios":"levelo://app?vid=21649c6a-3472-47b9-935b-27f05e7dc30d"},"vehicle_type_id":"4","last_reported":1729631298,"current_range_meters":35200,"station_id":"ce4bgjh2rcd13ifvqbg0","pricing_plan_id":"cebpf4jnsgd1na2vs0mg"},{"bike_id":"76383aa6-aa47-459e-8999-4eb660303f1b","system_id":"levelo_inurba_marseille","lat":43.309448,"lon":5.390298,"is_reserved":false,"is_disabled":false,"rental_uris":{"android":"levelo://app?vid=76383aa6-aa47-459e-8999-4eb660303f1b","ios":"levelo://app?vid=76383aa6-aa47-459e-8999-4eb660303f1b"},"vehicle_type_id":"4","last_reported":1729631298,"current_range_meters":38800,"station_id":"ce4bgup2rcd13ifvqco0","pricing_plan_id":"cebpf4jnsgd1na2vs0mg"},{"bike_id":"4fd58da0-abb4-42f4-bca0-fe212874e085","system_id":"levelo_inurba_marseille","lat":43.31367,"lon":5.38494,"is_reserved":false,"is_disabled":false,"rental_uris":{"android":"levelo://app?vid=4fd58da0-abb4-42f4-bca0-fe212874e085","ios":"levelo://app?vid=4fd58da0-abb4-42f4-bca0-fe212874e085"},"vehicle_type_id":"4","last_reported":1729631298,"current_range_meters":24000,"station_id":"ce4bgt92rcd13ifvqcf0","pricing_plan_id":"cebpf4jnsgd1na2vs0mg"},{"bike_id":"c7adb1c2-1405-40d7-be80-1962d50b2a8f","system_id":"levelo_inurba_marseille","lat":43.30091,"lon":5.39079,"is_reserved":false,"is_disabled":false,"rental_uris":{"android":"levelo://app?vid=c7adb1c2-1405-40d7-be80-1962d50b2a8f","ios":"levelo://app?vid=c7adb1c2-1405-40d7-be80-1962d50b2a8f"},"vehicle_type_id":"4","last_reported":1729631298,"current_range_meters":6800,"station_id":"ce4bh192rcd13ifvqdb0","pricing_plan_id":"cebpf4jnsgd1na2vs0mg"},{"bike_id":"da9899f0-8123-465f-9fe0-da9743e183fe","system_id":"levelo_inurba_marseille","lat":43.30195,"lon":5.36624,"is_reserved":false,"is_disabled":false,"rental_uris":{"android":"levelo://app?vid=da9899f0-8123-465f-9fe0-da9743e183fe","ios":"levelo://app?vid=da9899f0-8123-465f-9fe0-da9743e183fe"},"vehicle_type_id":"4","last_reported":1729631298,"current_range_meters":33600,"station_id":"ce4bgrh2rcd13ifvqc8g","pricing_plan_id":"cebpf4jnsgd1na2vs0mg"},{"bike_id":"fd48b4a5-21e0-4357-af2d-13f8a366950c","system_id":"levelo_inurba_marseille","lat":43.28105,"lon":5.37841,"is_reserved":false,"is_disabled":false,"rental_uris":{"android":"levelo://app?vid=fd48b4a5-21e0-4357-af2d-13f8a366950c","ios":"levelo://app?vid=fd48b4a5-21e0-4357-af2d-13f8a366950c"},"vehicle_type_id":"4","last_reported":1729631298,"current_range_meters":6000,"station_id":"ce4bha12rcd13ifvqee0","pricing_plan_id":"cebpf4jnsgd1na2vs0mg"},{"bike_id":"63cd7cee-7402-43f4-8766-a50eb955ab2d","system_id":"levelo_inurba_marseille","lat":43.27919,"lon":5.39575,"is_reserved":false,"is_disabled":false,"rental_uris":{"android":"levelo://app?vid=63cd7cee-7402-43f4-8766-a50eb955ab2d","ios":"levelo://app?vid=63cd7cee-7402-43f4-8766-a50eb955ab2d"},"vehicle_type_id":"4","last_reported":1729631298,"current_range_meters":33200,"station_id":"ce4bhf92rcd13ifvqf40","pricing_plan_id":"cebpf4jnsgd1na2vs0mg"},{"bike_id":"cc6b42ff-594f-4c90-839a-340020db1ebd","system_id":"levelo_inurba_marseille","lat":43.28104,"lon":5.37829,"is_reserved":false,"is_disabled":false,"rental_uris":{"android":"levelo://app?vid=cc6b42ff-594f-4c90-839a-340020db1ebd","ios":"levelo://app?vid=cc6b42ff-594f-4c90-839a-340020db1ebd"},"vehicle_type_id":"4","last_reported":1729631298,"current_range_meters":22000,"station_id":"ce4bha12rcd13ifvqee0","pricing_plan_id":"cebpf4jnsgd1na2vs0mg"},{"bike_id":"44107a62-c94e-4384-9dc1-fe0ea293084c","system_id":"levelo_inurba_marseille","lat":43.32657,"lon":5.40984,"is_reserved":false,"is_disabled":false,"rental_uris":{"android":"levelo://app?vid=44107a62-c94e-4384-9dc1-fe0ea293084c","ios":"levelo://app?vid=44107a62-c94e-4384-9dc1-fe0ea293084c"},"vehicle_type_id":"4","last_reported":1729631298,"current_range_meters":17200,"station_id":"ce4bhpp2rcd13ifvqhgg","pricing_plan_id":"cebpf4jnsgd1na2vs0mg"},{"bike_id":"6618dba9-6c5b-496f-ad09-56d5e0606d22","system_id":"levelo_inurba_marseille","lat":43.25579,"lon":5.38241,"is_reserved":false,"is_disabled":false,"rental_uris":{"android":"levelo://app?vid=6618dba9-6c5b-496f-ad09-56d5e0606d22","ios":"levelo://app?vid=6618dba9-6c5b-496f-ad09-56d5e0606d22"},"vehicle_type_id":"4","last_reported":1729631298,"current_range_meters":3200,"station_id":"ce4bhih2rcd13ifvqfs0","pricing_plan_id":"cebpf4jnsgd1na2vs0mg"},{"bike_id":"a28ad3ab-9649-4926-8c85-a1f47d2212e3","system_id":"levelo_inurba_marseille","lat":43.250994,"lon":5.395297,"is_reserved":false,"is_disabled":false,"rental_uris":{"android":"levelo://app?vid=a28ad3ab-9649-4926-8c85-a1f47d2212e3","ios":"levelo://app?vid=a28ad3ab-9649-4926-8c85-a1f47d2212e3"},"vehicle_type_id":"4","last_reported":1729631298,"current_range_meters":38800,"station_id":"ce4bhm12rcd13ifvqgkg","pricing_plan_id":"cebpf4jnsgd1na2vs0mg"},{"bike_id":"0ba4e3c5-b87d-4744-8718-f2a911b55d87","system_id":"levelo_inurba_marseille","lat":43.28562,"lon":5.39498,"is_reserved":false,"is_disabled":false,"rental_uris":{"android":"levelo://app?vid=0ba4e3c5-b87d-4744-8718-f2a911b55d87","ios":"levelo://app?vid=0ba4e3c5-b87d-4744-8718-f2a911b55d87"},"vehicle_type_id":"4","last_reported":1729631298,"current_range_meters":34800,"station_id":"ce4bh292rcd13ifvqdg0","pricing_plan_id":"cebpf4jnsgd1na2vs0mg"},{"bike_id":"29f0831f-3855-4f21-b9dc-0517256c814b","system_id":"levelo_inurba_marseille","lat":43.26785,"lon":5.39415,"is_reserved":false,"is_disabled":false,"rental_uris":{"android":"levelo://app?vid=29f0831f-3855-4f21-b9dc-0517256c814b","ios":"levelo://app?vid=29f0831f-3855-4f21-b9dc-0517256c814b"},"vehicle_type_id":"4","last_reported":1729631298,"current_range_meters":38000,"station_id":"ce4bhh12rcd13ifvqfg0","pricing_plan_id":"cebpf4jnsgd1na2vs0mg"},{"bike_id":"ceb5f2f6-96e0-4d5a-8844-170101311292","system_id":"levelo_inurba_marseille","lat":43.24803,"lon":5.37454,"is_reserved":false,"is_disabled":false,"rental_uris":{"android":"levelo://app?vid=ceb5f2f6-96e0-4d5a-8844-170101311292","ios":"levelo://app?vid=ceb5f2f6-96e0-4d5a-8844-170101311292"},"vehicle_type_id":"4","last_reported":1729631298,"current_range_meters":11200,"station_id":"ce4bhgh2rcd13ifvqfb0","pricing_plan_id":"cebpf4jnsgd1na2vs0mg"},{"bike_id":"446149b9-01cd-48e0-985b-be796821234b","system_id":"levelo_inurba_marseille","lat":43.29275,"lon":5.36845,"is_reserved":false,"is_disabled":false,"rental_uris":{"android":"levelo://app?vid=446149b9-01cd-48e0-985b-be796821234b","ios":"levelo://app?vid=446149b9-01cd-48e0-985b-be796821234b"},"vehicle_type_id":"4","last_reported":1729631298,"current_range_meters":34000,"station_id":"ce4bhbp2rcd13ifvqesg","pricing_plan_id":"cebpf4jnsgd1na2vs0mg"},{"bike_id":"52010cbd-8a65-4667-b639-f5e9c093948f","system_id":"levelo_inurba_marseille","lat":43.28465,"lon":5.35893,"is_reserved":false,"is_disabled":false,"rental_uris":{"android":"levelo://app?vid=52010cbd-8a65-4667-b639-f5e9c093948f","ios":"levelo://app?vid=52010cbd-8a65-4667-b639-f5e9c093948f"},"vehicle_type_id":"4","last_reported":1729631298,"current_range_meters":32400,"station_id":"ce4bhah2rcd13ifvqei0","pricing_plan_id":"cebpf4jnsgd1na2vs0mg"},{"bike_id":"f16ab6f1-4404-453f-90fa-0446c9b37335","system_id":"levelo_inurba_marseille","lat":43.273228,"lon":5.390689,"is_reserved":false,"is_disabled":false,"rental_uris":{"android":"levelo://app?vid=f16ab6f1-4404-453f-90fa-0446c9b37335","ios":"levelo://app?vid=f16ab6f1-4404-453f-90fa-0446c9b37335"},"vehicle_type_id":"4","last_reported":1729631298,"current_range_meters":26000,"station_id":"ce4bhgp2rcd13ifvqfe0","pricing_plan_id":"cebpf4jnsgd1na2vs0mg"},{"bike_id":"df6f69c0-7ceb-4f2d-bbe7-1066717d0c4c","system_id":"levelo_inurba_marseille","lat":43.28454,"lon":5.35885,"is_reserved":false,"is_disabled":false,"rental_uris":{"android":"levelo://app?vid=df6f69c0-7ceb-4f2d-bbe7-1066717d0c4c","ios":"levelo://app?vid=df6f69c0-7ceb-4f2d-bbe7-1066717d0c4c"},"vehicle_type_id":"4","last_reported":1729631298,"current_range_meters":9600,"station_id":"ce4bhah2rcd13ifvqei0","pricing_plan_id":"cebpf4jnsgd1na2vs0mg"},{"bike_id":"ebdeeeea-dc70-4ded-8da1-ed50a880b858","system_id":"levelo_inurba_marseille","lat":43.243891,"lon":5.370606,"is_reserved":false,"is_disabled":false,"rental_uris":{"android":"levelo://app?vid=ebdeeeea-dc70-4ded-8da1-ed50a880b858","ios":"levelo://app?vid=ebdeeeea-dc70-4ded-8da1-ed50a880b858"},"vehicle_type_id":"4","last_reported":1729631298,"current_range_meters":36400,"station_id":"ce4bhhh2rcd13ifvqfk0","pricing_plan_id":"cebpf4jnsgd1na2vs0mg"},{"bike_id":"0c4c3419-d7ca-4aa4-aa74-fab169a7d2df","system_id":"levelo_inurba_marseille","lat":43.26567,"lon":5.39006,"is_reserved":false,"is_disabled":false,"rental_uris":{"android":"levelo://app?vid=0c4c3419-d7ca-4aa4-aa74-fab169a7d2df","ios":"levelo://app?vid=0c4c3419-d7ca-4aa4-aa74-fab169a7d2df"},"vehicle_type_id":"4","last_reported":1729631298,"current_range_meters":16400,"station_id":"ce4bhe12rcd13ifvqf30","pricing_plan_id":"cebpf4jnsgd1na2vs0mg"},{"bike_id":"eea9caed-bf63-4c95-a630-a7c9de83721e","system_id":"levelo_inurba_marseille","lat":43.24803,"lon":5.37451,"is_reserved":false,"is_disabled":false,"rental_uris":{"android":"levelo://app?vid=eea9caed-bf63-4c95-a630-a7c9de83721e","ios":"levelo://app?vid=eea9caed-bf63-4c95-a630-a7c9de83721e"},"vehicle_type_id":"4","last_reported":1729631298,"current_range_meters":22000,"station_id":"ce4bhgh2rcd13ifvqfb0","pricing_plan_id":"cebpf4jnsgd1na2vs0mg"},{"bike_id":"35b0e5d5-c955-459a-897b-1d5096f00083","system_id":"levelo_inurba_marseille","lat":43.28078,"lon":5.39663,"is_reserved":false,"is_disabled":false,"rental_uris":{"android":"levelo://app?vid=35b0e5d5-c955-459a-897b-1d5096f00083","ios":"levelo://app?vid=35b0e5d5-c955-459a-897b-1d5096f00083"},"vehicle_type_id":"4","last_reported":1729631298,"current_range_meters":27600,"station_id":"ce4bho12rcd13ifvqh2g","pricing_plan_id":"cebpf4jnsgd1na2vs0mg"},{"bike_id":"1498fe31-bf90-4f58-8a7e-1a31732faa3b","system_id":"levelo_inurba_marseille","lat":43.28404,"lon":5.37517,"is_reserved":false,"is_disabled":false,"rental_uris":{"android":"levelo://app?vid=1498fe31-bf90-4f58-8a7e-1a31732faa3b","ios":"levelo://app?vid=1498fe31-bf90-4f58-8a7e-1a31732faa3b"},"vehicle_type_id":"4","last_reported":1729631298,"current_range_meters":24000,"station_id":"ce4bh412rcd13ifvqds0","pricing_plan_id":"cebpf4jnsgd1na2vs0mg"},{"bike_id":"24d007ad-bb64-4151-b11a-c4de685fae65","system_id":"levelo_inurba_marseille","lat":43.32336,"lon":5.40624,"is_reserved":false,"is_disabled":false,"rental_uris":{"android":"levelo://app?vid=24d007ad-bb64-4151-b11a-c4de685fae65","ios":"levelo://app?vid=24d007ad-bb64-4151-b11a-c4de685fae65"},"vehicle_type_id":"4","last_reported":1729631298,"current_range_meters":38800,"station_id":"ce4bhq92rcd13ifvqhjg","pricing_plan_id":"cebpf4jnsgd1na2vs0mg"},{"bike_id":"4e6a7fb2-f161-4bed-a25b-e30db643a941","system_id":"levelo_inurba_marseille","lat":43.2962,"lon":5.37172,"is_reserved":false,"is_disabled":false,"rental_uris":{"android":"levelo://app?vid=4e6a7fb2-f161-4bed-a25b-e30db643a941","ios":"levelo://app?vid=4e6a7fb2-f161-4bed-a25b-e30db643a941"},"vehicle_type_id":"4","last_reported":1729631298,"current_range_meters":38800,"station_id":"ce4bgnh2rcd13ifvqc0g","pricing_plan_id":"cebpf4jnsgd1na2vs0mg"},{"bike_id":"484b4ee3-f16a-46e6-b05f-a63580ad3d69","system_id":"levelo_inurba_marseille","lat":43.24389,"lon":5.37059,"is_reserved":false,"is_disabled":false,"rental_uris":{"android":"levelo://app?vid=484b4ee3-f16a-46e6-b05f-a63580ad3d69","ios":"levelo://app?vid=484b4ee3-f16a-46e6-b05f-a63580ad3d69"},"vehicle_type_id":"4","last_reported":1729631298,"current_range_meters":38800,"station_id":"ce4bhhh2rcd13ifvqfk0","pricing_plan_id":"cebpf4jnsgd1na2vs0mg"},{"bike_id":"d90d114b-5dfe-432d-a238-d644dcb44273","system_id":"levelo_inurba_marseille","lat":43.29192,"lon":5.3931,"is_reserved":false,"is_disabled":false,"rental_uris":{"android":"levelo://app?vid=d90d114b-5dfe-432d-a238-d644dcb44273","ios":"levelo://app?vid=d90d114b-5dfe-432d-a238-d644dcb44273"},"vehicle_type_id":"4","last_reported":1729631298,"current_range_meters":20000,"station_id":"ce4bh192rcd13ifvqdd0","pricing_plan_id":"cebpf4jnsgd1na2vs0mg"},{"bike_id":"245aad33-3217-477e-b036-8d264219805b","system_id":"levelo_inurba_marseille","lat":43.3065,"lon":5.40094,"is_reserved":false,"is_disabled":false,"rental_uris":{"android":"levelo://app?vid=245aad33-3217-477e-b036-8d264219805b","ios":"levelo://app?vid=245aad33-3217-477e-b036-8d264219805b"},"vehicle_type_id":"4","last_reported":1729631298,"current_range_meters":27600,"station_id":"ce4bh112rcd13ifvqda0","pricing_plan_id":"cebpf4jnsgd1na2vs0mg"},{"bike_id":"36156996-45e5-46cb-8a8d-381e1f24a4b5","system_id":"levelo_inurba_marseille","lat":43.28151,"lon":5.4264,"is_reserved":false,"is_disabled":false,"rental_uris":{"android":"levelo://app?vid=36156996-45e5-46cb-8a8d-381e1f24a4b5","ios":"levelo://app?vid=36156996-45e5-46cb-8a8d-381e1f24a4b5"},"vehicle_type_id":"4","last_reported":1729631298,"current_range_meters":14000,"station_id":"ce4bhnh2rcd13ifvqgug","pricing_plan_id":"cebpf4jnsgd1na2vs0mg"},{"bike_id":"41c7cb2b-fbbd-4393-860e-7f67203a6179","system_id":"levelo_inurba_marseille","lat":43.27619,"lon":5.36111,"is_reserved":false,"is_disabled":false,"rental_uris":{"android":"levelo://app?vid=41c7cb2b-fbbd-4393-860e-7f67203a6179","ios":"levelo://app?vid=41c7cb2b-fbbd-4393-860e-7f67203a6179"},"vehicle_type_id":"4","last_reported":1729631298,"current_range_meters":39200,"station_id":"ce4bgj92rcd13ifvqbe0","pricing_plan_id":"cebpf4jnsgd1na2vs0mg"},{"bike_id":"115c7d55-d46f-4f51-9475-79fbdb9af917","system_id":"levelo_inurba_marseille","lat":43.30783,"lon":5.37657,"is_reserved":false,"is_disabled":false,"rental_uris":{"android":"levelo://app?vid=115c7d55-d46f-4f51-9475-79fbdb9af917","ios":"levelo://app?vid=115c7d55-d46f-4f51-9475-79fbdb9af917"},"vehicle_type_id":"4","last_reported":1729631298,"current_range_meters":38800,"station_id":"ce4bgv92rcd13ifvqcq0","pricing_plan_id":"cebpf4jnsgd1na2vs0mg"},