{"last_updated":1741094294,"ttl":60,"version":"2.2","data":{"bikes":[{"bike_id":"0b7a449f-e74a-45e3-ba7c-5c67e5b8a397","system_id":"levelo_inurba_marseille","lat":43.26203,"lon":5.37933,"is_reserved":false,"is_disabled":false,"rental_uris":{"android":"levelo://app?vid=0b7a449f-e74a-45e3-ba7c-5c67e5b8a397","ios":"levelo://app?vid=0b7a449f-e74a-45e3-ba7c-5c67e5b8a397"},"vehicle_type_id":"4","last_reported":1741094294,"current_range_meters":2800,"station_id":"ce4bhjp2rcd13ifvqg90","pricing_plan_id":"cebpf4jnsgd1na2vs0mg"},{"bike_id":"a77f72c1-4c9a-4272-bd73-1a2d6ff02827","system_id":"levelo_inurba_marseille","lat":43.30423,"lon":5.41292,"is_reserved":false,"is_disabled":false,"rental_uris":{"android":"levelo://app?vid=a77f72c1-4c9a-4272-bd73-1a2d6ff02827","ios":"levelo://app?vid=a77f72c1-4c9a-4272-bd73-1a2d6ff02827"},"vehicle_type_id":"4","last_reported":1741094294,"current_range_meters":2800,"station_id":"ce4bhop2rcd13ifvqh8g","pricing_plan_id":"cebpf4jnsgd1na2vs0mg"},{"bike_id":"5d24c2bb-ede2-4c81-a63d-6bda6dbdd3be","system_id":"levelo_inurba_marseille","lat":43.28344,"lon":5.38109,"is_reserved":false,"is_disabled":false,"rental_uris":{"android":"levelo://app?vid=5d24c2bb-ede2-4c81-a63d-6bda6dbdd3be","ios":"levelo://app?vid=5d24c2bb-ede2-4c81-a63d-6bda6dbdd3be"},"vehicle_type_id":"4","last_reported":1741094294,"current_range_meters":3200,"station_id":"ce4bh412rcd13ifvqdr0","pricing_plan_id":"cebpf4jnsgd1na2vs0mg"},{"bike_id":"bcf6da8d-c59a-4bfd-8e70-31f062b9e36f","system_id":"levelo_inurba_marseille","lat":43.27555,"lon":5.38431,"is_reserved":false,"is_disabled":false,"rental_uris":{"android":"levelo://app?vid=bcf6da8d-c59a-4bfd-8e70-31f062b9e36f","ios":"levelo://app?vid=bcf6da8d-c59a-4bfd-8e70-31f062b9e36f"},"vehicle_type_id":"4","last_reported":1741094294,"current_range_meters":2800,"station_id":"ce4bhh92rcd13ifvqfi0","pricing_plan_id":"cebpf4jnsgd1na2vs0mg"},{"bike_id":"eb3477d3-e423-4bfa-8137-9e0de0b3c3a7","system_id":"levelo_inurba_marseille","lat":43.27053,"lon":5.40263,"is_reserved":false,"is_disabled":false,"rental_uris":{"android":"levelo://app?vid=eb3477d3-e423-4bfa-8137-9e0de0b3c3a7","ios":"levelo://app?vid=eb3477d3-e423-4bfa-8137-9e0de0b3c3a7"},"vehicle_type_id":"4","last_reported":1741094294,"current_range_meters":3200,"station_id":"ce4bhk92rcd13ifvqgc0","pricing_plan_id":"cebpf4jnsgd1na2vs0mg"},{"bike_id":"b1c70dbf-8777-4562-8025-ce83894fc740","system_id":"levelo_inurba_marseille","lat":43.29788,"lon":5.38111,"is_reserved":false,"is_disabled":false,"rental_uris":{"android":"levelo://app?vid=b1c70dbf-8777-4562-8025-ce83894fc740","ios":"levelo://app?vid=b1c70dbf-8777-4562-8025-ce83894fc740"},"vehicle_type_id":"4","last_reported":1741094294,"current_range_meters":3200,"station_id":"ce4bgip2rcd13ifvqbb0","pricing_plan_id":"cebpf4jnsgd1na2vs0mg"},{"bike_id":"c63e4666-0481-411d-9846-210970fff690","system_id":"levelo_inurba_marseille","lat":43.30949,"lon":5.39035,"is_reserved":false,"is_disabled":false,"rental_uris":{"android":"levelo://app?vid=c63e4666-0481-411d-9846-210970fff690","ios":"levelo://app?vid=c63e4666-0481-411d-9846-210970fff690"},"vehicle_type_id":"4","last_reported":1741094294,"current_range_meters":3600,"station_id":"ce4bgup2rcd13ifvqco0","pricing_plan_id":"cebpf4jnsgd1na2vs0mg"},{"bike_id":"46073e4d-be2e-4408-b571-418089ad6b0f","system_id":"levelo_inurba_marseille","lat":43.27912,"lon":5.39584,"is_reserved":false,"is_disabled":false,"rental_uris":{"android":"levelo://app?vid=46073e4d-be2e-4408-b571-418089ad6b0f","ios":"levelo://app?vid=46073e4d-be2e-4408-b571-418089ad6b0f"},"vehicle_type_id":"4","last_reported":1741094294,"current_range_meters":3600,"station_id":"ce4bhf92rcd13ifvqf40","pricing_plan_id":"cebpf4jnsgd1na2vs0mg"},{"bike_id":"0ffd8aab-92fe-4a39-9f31-f7c7bf90e861","system_id":"levelo_inurba_marseille","lat":43.30237,"lon":5.37714,"is_reserved":false,"is_disabled":false,"rental_uris":{"android":"levelo://app?vid=0ffd8aab-92fe-4a39-9f31-f7c7bf90e861","ios":"levelo://app?vid=0ffd8aab-92fe-4a39-9f31-f7c7bf90e861"},"vehicle_type_id":"4","last_reported":1741094294,"current_range_meters":3600,"station_id":"ce4bguh2rcd13ifvqcj0","pricing_plan_id":"cebpf4jnsgd1na2vs0mg"},{"bike_id":"29415fec-9296-4c8f-b0f7-9a124cf8b45e","system_id":"levelo_inurba_marseille","lat":43.28946,"lon":5.39646,"is_reserved":false,"is_disabled":false,"rental_uris":{"android":"levelo://app?vid=29415fec-9296-4c8f-b0f7-9a124cf8b45e","ios":"levelo://app?vid=29415fec-9296-4c8f-b0f7-9a124cf8b45e"},"vehicle_type_id":"4","last_reported":1741094294,"current_range_meters":4000,"station_id":"ce4bh3h2rcd13ifvqdn0","pricing_plan_id":"cebpf4jnsgd1na2vs0mg"},{"bike_id":"34e716ef-4bee-4556-a8fc-25d383afc03e","system_id":"levelo_inurba_marseille","lat":43.26804,"lon":5.40274,"is_reserved":false,"is_disabled":false,"rental_uris":{"android":"levelo://app?vid=34e716ef-4bee-4556-a8fc-25d383afc03e","ios":"levelo://app?vid=34e716ef-4bee-4556-a8fc-25d383afc03e"},"vehicle_type_id":"4","last_reported":1741094294,"current_range_meters":4000,"station_id":"ce501612rcd8frsf0b60","pricing_plan_id":"cebpf4jnsgd1na2vs0mg"},{"bike_id":"73681137-6538-4684-87ec-aa9b29720d1e","system_id":"levelo_inurba_marseille","lat":43.23204,"lon":5.35532,"is_reserved":false,"is_disabled":true,"rental_uris":{"android":"levelo://app?vid=73681137-6538-4684-87ec-aa9b29720d1e","ios":"levelo://app?vid=73681137-6538-4684-87ec-aa9b29720d1e"},"vehicle_type_id":"4","last_reported":1741094294,"current_range_meters":4000,"station_id":"ce4bhu92rcd13ifvqi70","pricing_plan_id":"cebpf4jnsgd1na2vs0mg"},{"bike_id":"f3bed0aa-b267-4140-bfcb-0b7418ea4742","system_id":"levelo_inurba_marseille","lat":43.26575,"lon":5.39018,"is_reserved":false,"is_disabled":false,"rental_uris":{"android":"levelo://app?vid=f3bed0aa-b267-4140-bfcb-0b7418ea4742","ios":"levelo://app?vid=f3bed0aa-b267-4140-bfcb-0b7418ea4742"},"vehicle_type_id":"4","last_reported":1741094294,"current_range_meters":4000,"station_id":"ce4bhe12rcd13ifvqf30","pricing_plan_id":"cebpf4jnsgd1na2vs0mg"},{"bike_id":"658d9279-09b9-48d7-b3e0-1ec028d2c1fb","system_id":"levelo_inurba_marseille","lat":43.2928,"lon":5.40117,"is_reserved":false,"is_disabled":false,"rental_uris":{"android":"levelo://app?vid=658d9279-09b9-48d7-b3e0-1ec028d2c1fb","ios":"levelo://app?vid=658d9279-09b9-48d7-b3e0-1ec028d2c1fb"},"vehicle_type_id":"4","last_reported":1741094294,"current_range_meters":4000,"station_id":"ce4bh312rcd13ifvqdk0","pricing_plan_id":"cebpf4jnsgd1na2vs0mg"},{"bike_id":"f381c9bd-14fa-41ab-b589-3ecebd6dfe48","system_id":"levelo_inurba_marseille","lat":43.32359,"lon":5.36772,"is_reserved":false,"is_disabled":false,"rental_uris":{"android":"levelo://app?vid=f381c9bd-14fa-41ab-b589-3ecebd6dfe48","ios":"levelo://app?vid=f381c9bd-14fa-41ab-b589-3ecebd6dfe48"},"vehicle_type_id":"4","last_reported":1741094294,"current_range_meters":4400,"station_id":"ce4bhsh2rcd13ifvqi2g","pricing_plan_id":"cebpf4jnsgd1na2vs0mg"},{"bike_id":"5cb000cb-94ab-45df-b896-d83a8e702c78","system_id":"levelo_inurba_marseille","lat":43.276361,"lon":5.358308,"is_reserved":false,"is_disabled":false,"rental_uris":{"android":"levelo://app?vid=5cb000cb-94ab-45df-b896-d83a8e702c78","ios":"levelo://app?vid=5cb000cb-94ab-45df-b896-d83a8e702c78"},"vehicle_type_id":"4","last_reported":1741094294,"current_range_meters":4800,"station_id":"ce4bhbh2rcd13ifvqeo0","pricing_plan_id":"cebpf4jnsgd1na2vs0mg"},{"bike_id":"2d4e1c3e-7392-4616-b3cf-646345a17bd5","system_id":"levelo_inurba_marseille","lat":43.29546,"lon":5.42287,"is_reserved":false,"is_disabled":true,"rental_uris":{"android":"levelo://app?vid=2d4e1c3e-7392-4616-b3cf-646345a17bd5","ios":"levelo://app?vid=2d4e1c3e-7392-4616-b3cf-646345a17bd5"},"vehicle_type_id":"4","last_reported":1741094294,"current_range_meters":4800,"station_id":"ce4bhph2rcd13ifvqhdg","pricing_plan_id":"cebpf4jnsgd1na2vs0mg"},{"bike_id":"048b7088-ff22-41db-86c7-bc5b75624564","system_id":"levelo_inurba_marseille","lat":43.28458,"lon":5.35898,"is_reserved":false,"is_disabled":false,"rental_uris":{"android":"levelo://app?vid=048b7088-ff22-41db-86c7-bc5b75624564","ios":"levelo://app?vid=048b7088-ff22-41db-86c7-bc5b75624564"},"vehicle_type_id":"4","last_reported":1741094294,"current_range_meters":4800,"station_id":"ce4bhah2rcd13ifvqei0","pricing_plan_id":"cebpf4jnsgd1na2vs0mg"},{"bike_id":"70f37dfb-9af9-4c61-aae9-5acea82f36f1","system_id":"levelo_inurba_marseille","lat":43.26573,"lon":5.3901,"is_reserved":false,"is_disabled":false,"rental_uris":{"android":"levelo://app?vid=70f37dfb-9af9-4c61-aae9-5acea82f36f1","ios":"levelo://app?vid=70f37dfb-9af9-4c61-aae9-5acea82f36f1"},"vehicle_type_id":"4","last_reported":1741094294,"current_range_meters":4800,"station_id":"ce4bhe12rcd13ifvqf30","pricing_plan_id":"cebpf4jnsgd1na2vs0mg"},{"bike_id":"9db49163-1bcf-4cb4-975b-b1e9ddf4e6d9","system_id":"levelo_inurba_marseille","lat":43.27161,"lon":5.40969,"is_reserved":false,"is_disabled":false,"rental_uris":{"android":"levelo://app?vid=9db49163-1bcf-4cb4-975b-b1e9ddf4e6d9","ios":"levelo://app?vid=9db49163-1bcf-4cb4-975b-b1e9ddf4e6d9"},"vehicle_type_id":"4","last_reported":1741094294,"current_range_meters":4800,"station_id":"ce4bhl12rcd13ifvqgf0","pricing_plan_id":"cebpf4jnsgd1na2vs0mg"},{"bike_id":"16d03f73-d4e4-4e41-940d-c993ab74c408","system_id":"levelo_inurba_marseille","lat":43.31345,"lon":5.36712,"is_reserved":false,"is_disabled":false,"rental_uris":{"android":"levelo://app?vid=16d03f73-d4e4-4e41-940d-c993ab74c408","ios":"levelo://app?vid=16d03f73-d4e4-4e41-940d-c993ab74c408"},"vehicle_type_id":"4","last_reported":1741094294,"current_range_meters":5600,"station_id":"ce4bgr92rcd13ifvqc6g","pricing_plan_id":"cebpf4jnsgd1na2vs0mg"},{"bike_id":"ec399295-0396-49ea-86f4-08153a6a926e","system_id":"levelo_inurba_marseille","lat":43.29045,"lon":5.37569,"is_reserved":false,"is_disabled":false,"rental_uris":{"android":"levelo://app?vid=ec399295-0396-49ea-86f4-08153a6a926e","ios":"levelo://app?vid=ec399295-0396-49ea-86f4-08153a6a926e"},"vehicle_type_id":"4","last_reported":1741094294,"current_range_meters":5600,"station_id":"ce4bh692rcd13ifvqe90","pricing_plan_id":"cebpf4jnsgd1na2vs0mg"},{"bike_id":"ba75bb7b-ce14-4432-9558-127d77078741","system_id":"levelo_inurba_marseille","lat":43.29782,"lon":5.38102,"is_reserved":false,"is_disabled":false,"rental_uris":{"android":"levelo://app?vid=ba75bb7b-ce14-4432-9558-127d77078741","ios":"levelo://app?vid=ba75bb7b-ce14-4432-9558-127d77078741"},"vehicle_type_id":"4","last_reported":1741094294,"current_range_meters":5600,"station_id":"ce4bgip2rcd13ifvqbb0","pricing_plan_id":"cebpf4jnsgd1na2vs0mg"},{"bike_id":"40323d2b-7fa4-44fa-8afd-3105efa74518","system_id":"levelo_inurba_marseille","lat":43.24166,"lon":5.39712,"is_reserved":false,"is_disabled":false,"rental_uris":{"android":"levelo://app?vid=40323d2b-7fa4-44fa-8afd-3105efa74518","ios":"levelo://app?vid=40323d2b-7fa4-44fa-8afd-3105efa74518"},"vehicle_type_id":"4","last_reported":1741094294,"current_range_meters":6000,"station_id":"ce4bhn12rcd13ifvqgpg","pricing_plan_id":"cebpf4jnsgd1na2vs0mg"},{"bike_id":"351a78a5-52e0-4fcc-968c-d2f55f5b2d81","system_id":"levelo_inurba_marseille","lat":43.2593,"lon":5.40907,"is_reserved":false,"is_disabled":false,"rental_uris":{"android":"levelo://app?vid=351a78a5-52e0-4fcc-968c-d2f55f5b2d81","ios":"levelo://app?vid=351a78a5-52e0-4fcc-968c-d2f55f5b2d81"},"vehicle_type_id":"4","last_reported":1741094294,"current_range_meters":6000,"station_id":"ce4bhm92rcd13ifvqglg","pricing_plan_id":"cebpf4jnsgd1na2vs0mg"},{"bike_id":"ee0a00ad-7f25-42c3-957f-131d553fb260","system_id":"levelo_inurba_marseille","lat":43.298705,"lon":5.397236,"is_reserved":false,"is_disabled":false,"rental_uris":{"android":"levelo://app?vid=ee0a00ad-7f25-42c3-957f-131d553fb260","ios":"levelo://app?vid=ee0a00ad-7f25-42c3-957f-131d553fb260"},"vehicle_type_id":"4","last_reported":1741094294,"current_range_meters":6000,"station_id":"ce4bh0h2rcd13ifvqd50","pricing_plan_id":"cebpf4jnsgd1na2vs0mg"},{"bike_id":"56beb6e4-d867-4dda-87d4-855cd34962a5","system_id":"levelo_inurba_marseille","lat":43.29095,"lon":5.38147,"is_reserved":false,"is_disabled":true,"rental_uris":{"android":"levelo://app?vid=56beb6e4-d867-4dda-87d4-855cd34962a5","ios":"levelo://app?vid=56beb6e4-d867-4dda-87d4-855cd34962a5"},"vehicle_type_id":"4","last_reported":1741094294,"current_range_meters":6000,"station_id":"ce4bh512rcd13ifvqe2g","pricing_plan_id":"cebpf4jnsgd1na2vs0mg"},{"bike_id":"a871155e-7c7d-4b47-b2a3-a06b23015503","system_id":"levelo_inurba_marseille","lat":43.30252,"lon":5.40041,"is_reserved":false,"is_disabled":false,"rental_uris":{"android":"levelo://app?vid=a871155e-7c7d-4b47-b2a3-a06b23015503","ios":"levelo://app?vid=a871155e-7c7d-4b47-b2a3-a06b23015503"},"vehicle_type_id":"4","last_reported":1741094294,"current_range_meters":6400,"station_id":"ce4bgvh2rcd13ifvqcs0","pricing_plan_id":"cebpf4jnsgd1na2vs0mg"},{"bike_id":"8a6b9671-76fd-4131-bfc8-58dba74e3691","system_id":"levelo_inurba_marseille","lat":43.34148,"lon":5.40895,"is_reserved":false,"is_disabled":false,"rental_uris":{"android":"levelo://app?vid=8a6b9671-76fd-4131-bfc8-58dba74e3691","ios":"levelo://app?vid=8a6b9671-76fd-4131-bfc8-58dba74e3691"},"vehicle_type_id":"4","last_reported":1741094294,"current_range_meters":6400,"station_id":"ce4bhqh2rcd13ifvqhlg","pricing_plan_id":"cebpf4jnsgd1na2vs0mg"},{"bike_id":"f529156e-5e03-4074-aaba-cc0ac2fc4171","system_id":"levelo_inurba_marseille","lat":43.28414,"lon":5.37515,"is_reserved":false,"is_disabled":false,"rental_uris":{"android":"levelo://app?vid=f529156e-5e03-4074-aaba-cc0ac2fc4171","ios":"levelo://app?vid=f529156e-5e03-4074-aaba-cc0ac2fc4171"},"vehicle_type_id":"4","last_reported":1741094294,"current_range_meters":6400,"station_id":"ce4bh412rcd13ifvqds0","pricing_plan_id":"cebpf4jnsgd1na2vs0mg"},{"bike_id":"fd216777-e5f8-4933-af9a-ee54e7b450a1","system_id":"levelo_inurba_marseille","lat":43.30309,"lon":5.36907,"is_reserved":false,"is_disabled":false,"rental_uris":{"android":"levelo://app?vid=fd216777-e5f8-4933-af9a-ee54e7b450a1","ios":"levelo://app?vid=fd216777-e5f8-4933-af9a-ee54e7b450a1"},"vehicle_type_id":"4","last_reported":1741094294,"current_range_meters":6400,"station_id":"ce4bgqh2rcd13ifvqc5g","pricing_plan_id":"cebpf4jnsgd1na2vs0mg"},{"bike_id":"69539ccb-ca63-4555-bd43-968ddad5c3c6","system_id":"levelo_inurba_marseille","lat":43.25007,"lon":5.38915,"is_reserved":false,"is_disabled":false,"rental_uris":{"android":"levelo://app?vid=69539ccb-ca63-4555-bd43-968ddad5c3c6","ios":"levelo://app?vid=69539ccb-ca63-4555-bd43-968ddad5c3c6"},"vehicle_type_id":"4","last_reported":1741094294,"current_range_meters":6400,"station_id":"ce4bhgp2rcd13ifvqfd0","pricing_plan_id":"cebpf4jnsgd1na2vs0mg"},{"bike_id":"68f2cf00-5830-4f85-b26c-e986e321ba3b","system_id":"levelo_inurba_marseille","lat":43.25078,"lon":5.39531,"is_reserved":false,"is_disabled":false,"rental_uris":{"android":"levelo://app?vid=68f2cf00-5830-4f85-b26c-e986e321ba3b","ios":"levelo://app?vid=68f2cf00-5830-4f85-b26c-e986e321ba3b"},"vehicle_type_id":"4","last_reported":1741094294,"current_range_meters":6800,"station_id":"ce4bhm12rcd13ifvqgkg","pricing_plan_id":"cebpf4jnsgd1na2vs0mg"},{"bike_id":"2153cca3-a190-4982-9370-a46f24ffe4b0","system_id":"levelo_inurba_marseille","lat":43.27058,"lon":5.40267,"is_reserved":false,"is_disabled":false,"rental_uris":{"android":"levelo://app?vid=2153cca3-a190-4982-9370-a46f24ffe4b0","ios":"levelo://app?vid=2153cca3-a190-4982-9370-a46f24ffe4b0"},"vehicle_type_id":"4","last_reported":1741094294,"current_range_meters":6800,"station_id":"ce4bhk92rcd13ifvqgc0","pricing_plan_id":"cebpf4jnsgd1na2vs0mg"},{"bike_id":"d48e5ae8-161a-4ddc-b1a1-6ebbbbd65acd","system_id":"levelo_inurba_marseille","lat":43.30138,"lon":5.37422,"is_reserved":false,"is_disabled":false,"rental_uris":{"android":"levelo://app?vid=d48e5ae8-161a-4ddc-b1a1-6ebbbbd65acd","ios":"levelo://app?vid=d48e5ae8-161a-4ddc-b1a1-6ebbbbd65acd"},"vehicle_type_id":"4","last_reported":1741094294,"current_range_meters":6800,"station_id":"ce4bgs92rcd13ifvqcc0","pricing_plan_id":"cebpf4jnsgd1na2vs0mg"},{"bike_id":"b8e7c25f-6fc2-4f70-b853-c497f91f3ec2","system_id":"levelo_inurba_marseille","lat":43.31492,"lon":5.37312,"is_reserved":false,"is_disabled":false,"rental_uris":{"android":"levelo://app?vid=b8e7c25f-6fc2-4f70-b853-c497f91f3ec2","ios":"levelo://app?vid=b8e7c25f-6fc2-4f70-b853-c497f91f3ec2"},"vehicle_type_id":"4","last_reported":1741094294,"current_range_meters":6800,"station_id":"ce4bgt12rcd13ifvqcd0","pricing_plan_id":"cebpf4jnsgd1na2vs0mg"},{"bike_id":"94bcb792-6f62-48b0-a232-3543910aed4c","system_id":"levelo_inurba_marseille","lat":43.23957,"lon":5.36638,"is_reserved":false,"is_disabled":false,"rental_uris":{"android":"levelo://app?vid=94bcb792-6f62-48b0-a232-3543910aed4c","ios":"levelo://app?vid=94bcb792-6f62-48b0-a232-3543910aed4c"},"vehicle_type_id":"4","last_reported":1741094294,"current_range_meters":6800,"station_id":"ce4bhi12rcd13ifvqfp0","pricing_plan_id":"cebpf4jnsgd1na2vs0mg"},{"bike_id":"4e9114a6-9327-4619-b114-00e483817824","system_id":"levelo_inurba_marseille","lat":43.23955,"lon":5.36622,"is_reserved":false,"is_disabled":false,"rental_uris":{"android":"levelo://app?vid=4e9114a6-9327-4619-b114-00e483817824","ios":"levelo://app?vid=4e9114a6-9327-4619-b114-00e483817824"},"vehicle_type_id":"4","last_reported":1741094294,"current_range_meters":6800,"station_id":"","pricing_plan_id":"cebpf4jnsgd1na2vs0mg"},{"bike_id":"4d388f18-b15f-4dbb-b391-1116df1d827d","system_id":"levelo_inurba_marseille","lat":43.28099,"lon":5.37836,"is_reserved":false,"is_disabled":false,"rental_uris":{"android":"levelo://app?vid=4d388f18-b15f-4dbb-b391-1116df1d827d","ios":"levelo://app?vid=4d388f18-b15f-4dbb-b391-1116df1d827d"},"vehicle_type_id":"4","last_reported":1741094294,"current_range_meters":6800,"station_id":"ce4bha12rcd13ifvqee0","pricing_plan_id":"cebpf4jnsgd1na2vs0mg"},{"bike_id":"bc0d733a-761d-421f-a1de-1712be64d328","system_id":"levelo_inurba_marseille","lat":43.23179,"lon":5.40002,"is_reserved":false,"is_disabled":false,"rental_uris":{"android":"levelo://app?vid=bc0d733a-761d-421f-a1de-1712be64d328","ios":"levelo://app?vid=bc0d733a-761d-421f-a1de-1712be64d328"},"vehicle_type_id":"4","last_reported":1741094294,"current_range_meters":6800,"station_id":"ce4bhn12rcd13ifvqgqg","pricing_plan_id":"cebpf4jnsgd1na2vs0mg"},{"bike_id":"1b3dc662-eef7-467b-a94c-270e76e0d5ba","system_id":"levelo_inurba_marseille","lat":43.31212,"lon":5.36854,"is_reserved":false,"is_disabled":false,"rental_uris":{"android":"levelo://app?vid=1b3dc662-eef7-467b-a94c-270e76e0d5ba","ios":"levelo://app?vid=1b3dc662-eef7-467b-a94c-270e76e0d5ba"},"vehicle_type_id":"4","last_reported":1741094294,"current_range_meters":6800,"station_id":"ce4bgl92rcd13ifvqbq0","pricing_plan_id":"cebpf4jnsgd1na2vs0mg"},{"bike_id":"7a9b6d37-895a-4651-9839-8c3d9ede4779","system_id":"levelo_inurba_marseille","lat":43.32471,"lon":5.36562,"is_reserved":false,"is_disabled":false,"rental_uris":{"android":"levelo://app?vid=7a9b6d37-895a-4651-9839-8c3d9ede4779","ios":"levelo://app?vid=7a9b6d37-895a-4651-9839-8c3d9ede4779"},"vehicle_type_id":"4","last_reported":1741094294,"current_range_meters":6800,"station_id":"ce4bhs12rcd13ifvqhvg","pricing_plan_id":"cebpf4jnsgd1na2vs0mg"},{"bike_id":"3fdc9a7e-2885-4db2-b302-c77e590b4771","system_id":"levelo_inurba_marseille","lat":43.3103,"lon":5.37558,"is_reserved":false,"is_disabled":false,"rental_uris":{"android":"levelo://app?vid=3fdc9a7e-2885-4db2-b302-c77e590b4771","ios":"levelo://app?vid=3fdc9a7e-2885-4db2-b302-c77e590b4771"},"vehicle_type_id":"4","last_reported":1741094294,"current_range_meters":6800,"station_id":"","pricing_plan_id":"cebpf4jnsgd1na2vs0mg"},{"bike_id":"90a47c55-7d0c-4b6b-94e5-81e21155469e","system_id":"levelo_inurba_marseille","lat":43.2314,"lon":5.43743,"is_reserved":false,"is_disabled":false,"rental_uris":{"android":"levelo://app?vid=90a47c55-7d0c-4b6b-94e5-81e21155469e","ios":"levelo://app?vid=90a47c55-7d0c-4b6b-94e5-81e21155469e"},"vehicle_type_id":"4","last_reported":1741094294,"current_range_meters":6800,"station_id":"ce4bhmp2rcd13ifvqgog","pricing_plan_id":"cebpf4jnsgd1na2vs0mg"},{"bike_id":"ce8ef3d2-07e3-4512-8813-bcde53a01429","system_id":"levelo_inurba_marseille","lat":43.24181,"lon":5.36433,"is_reserved":false,"is_disabled":false,"rental_uris":{"android":"levelo://app?vid=ce8ef3d2-07e3-4512-8813-bcde53a01429","ios":"levelo://app?vid=ce8ef3d2-07e3-4512-8813-bcde53a01429"},"vehicle_type_id":"4","last_reported":1741094294,"current_range_meters":7200,"station_id":"cpo36qri1sfpv3e86is0","pricing_plan_id":"cebpf4jnsgd1na2vs0mg"},{"bike_id":"8853f3b9-20a3-4480-9c1d-81721e27d9f9","system_id":"levelo_inurba_marseille","lat":43.26072,"lon":5.39384,"is_reserved":false,"is_disabled":false,"rental_uris":{"android":"levelo://app?vid=8853f3b9-20a3-4480-9c1d-81721e27d9f9","ios":"levelo://app?vid=8853f3b9-20a3-4480-9c1d-81721e27d9f9"},"vehicle_type_id":"4","last_reported":1741094294,"current_range_meters":7200,"station_id":"ce4bhh92rcd13ifvqfj0","pricing_plan_id":"cebpf4jnsgd1na2vs0mg"},{"bike_id":"785f65cf-1424-422b-aa1e-c33d7d9ad805","system_id":"levelo_inurba_marseille","lat":43.33613,"lon":5.41033,"is_reserved":false,"is_disabled":false,"rental_uris":{"android":"levelo://app?vid=785f65cf-1424-422b-aa1e-c33d7d9ad805","ios":"levelo://app?vid=785f65cf-1424-422b-aa1e-c33d7d9ad805"},"vehicle_type_id":"4","last_reported":1741094294,"current_range_meters":7200,"station_id":"ce4bhqh2rcd13ifvqhmg","pricing_plan_id":"cebpf4jnsgd1na2vs0mg"},{"bike_id":"d20d4ac0-3e72-4d7c-b740-440a0b15f885","system_id":"levelo_inurba_marseille","lat":43.24179,"lon":5.39724,"is_reserved":false,"is_disabled":false,"rental_uris":{"android":"levelo://app?vid=d20d4ac0-3e72-4d7c-b740-440a0b15f885","ios":"levelo://app?vid=d20d4ac0-3e72-4d7c-b740-440a0b15f885"},"vehicle_type_id":"4","last_reported":1741094294,"current_range_meters":7200,"station_id":"ce4bhn12rcd13ifvqgpg","pricing_plan_id":"cebpf4jnsgd1na2vs0mg"},{"bike_id":"0297d564-d125-496f-996d-8355f6cb58c3","system_id":"levelo_inurba_marseille","lat":43.30903,"lon":5.36845,"is_reserved":false,"is_disabled":false,"rental_uris":{"android":"levelo://app?vid=0297d564-d125-496f-996d-8355f6cb58c3","ios":"levelo://app?vid=0297d564-d125-496f-996d-8355f6cb58c3"},"vehicle_type_id":"4","last_reported":1741094294,"current_range_meters":7200,"station_id":"ce4bgn92rcd13ifvqbvg","pricing_plan_id":"cebpf4jnsgd1na2vs0mg"},{"bike_id":"8a7f7dec-8ac4-4ac7-9f33-b53621825235","system_id":"levelo_inurba_marseille","lat":43.27844,"lon":5.40699,"is_reserved":false,"is_disabled":false,"rental_uris":{"android":"levelo://app?vid=8a7f7dec-8ac4-4ac7-9f33-b53621825235","ios":"levelo://app?vid=8a7f7dec-8ac4-4ac7-9f33-b53621825235"},"vehicle_type_id":"4","last_reported":1741094294,"current_range_meters":7200,"station_id":"ce4bhnh2rcd13ifvqgtg","pricing_plan_id":"cebpf4jnsgd1na2vs0mg"},{"bike_id":"a9a034a4-3a69-43bb-a20c-2b80820769b7","system_id":"levelo_inurba_marseille","lat":43.31229,"lon":5.36848,"is_reserved":false,"is_disabled":false,"rental_uris":{"android":"levelo://app?vid=a9a034a4-3a69-43bb-a20c-2b80820769b7","ios":"levelo://app?vid=a9a034a4-3a69-43bb-a20c-2b80820769b7"},"vehicle_type_id":"4","last_reported":1741094294,"current_range_meters":7200,"station_id":"ce4bgl92rcd13ifvqbq0","pricing_plan_id":"cebpf4jnsgd1na2vs0mg"},{"bike_id":"604a2051-4916-4a21-97fc-d1f4532cfc04","system_id":"levelo_inurba_marseille","lat":43.2396,"lon":5.36638,"is_reserved":false,"is_disabled":false,"rental_uris":{"android":"levelo://app?vid=604a2051-4916-4a21-97fc-d1f4532cfc04","ios":"levelo://app?vid=604a2051-4916-4a21-97fc-d1f4532cfc04"},"vehicle_type_id":"4","last_reported":1741094294,"current_range_meters":7200,"station_id":"ce4bhi12rcd13ifvqfp0","pricing_plan_id":"cebpf4jnsgd1na2vs0mg"},{"bike_id":"2718e268-74ea-4dae-9670-4dd113fa12c9","system_id":"levelo_inurba_marseille","lat":43.27033,"lon":5.40277,"is_reserved":false,"is_disabled":false,"rental_uris":{"android":"levelo://app?vid=2718e268-74ea-4dae-9670-4dd113fa12c9","ios":"levelo://app?vid=2718e268-74ea-4dae-9670-4dd113fa12c9"},"vehicle_type_id":"4","last_reported":1741094294,"current_range_meters":8000,"station_id":"ce4bhk92rcd13ifvqgc0","pricing_plan_id":"cebpf4jnsgd1na2vs0mg"},{"bike_id":"e599aac0-c825-4643-aeb1-c2d8b1ae00e8","system_id":"levelo_inurba_marseille","lat":43.24175,"lon":5.39726,"is_reserved":false,"is_disabled":false,"rental_uris":{"android":"levelo://app?vid=e599aac0-c825-4643-aeb1-c2d8b1ae00e8","ios":"levelo://app?vid=e599aac0-c825-4643-aeb1-c2d8b1ae00e8"},"vehicle_type_id":"4","last_reported":1741094294,"current_range_meters":8000,"station_id":"ce4bhn12rcd13ifvqgpg","pricing_plan_id":"cebpf4jnsgd1na2vs0mg"},{"bike_id":"a4c17de7-96a1-43c2-bdae-83bdfc136c5a","system_id":"levelo_inurba_marseille","lat":43.28702,"lon":5.37385,"is_reserved":false,"is_disabled":false,"rental_uris":{"android":"levelo://app?vid=a4c17de7-96a1-43c2-bdae-83bdfc136c5a","ios":"levelo://app?vid=a4c17de7-96a1-43c2-bdae-83bdfc136c5a"},"vehicle_type_id":"4","last_reported":1741094294,"current_range_meters":8000,"station_id":"ce4bh3p2rcd13ifvqdq0","pricing_plan_id":"cebpf4jnsgd1na2vs0mg"},{"bike_id":"10d61af2-a218-4397-b179-939c5dec9f2f","system_id":"levelo_inurba_marseille","lat":43.2649,"lon":5.39574,"is_reserved":false,"is_disabled":false,"rental_uris":{"android":"levelo://app?vid=10d61af2-a218-4397-b179-939c5dec9f2f","ios":"levelo://app?vid=10d61af2-a218-4397-b179-939c5dec9f2f"},"vehicle_type_id":"4","last_reported":1741094294,"current_range_meters":8000,"station_id":"ce4bhi12rcd13ifvqfq0","pricing_plan_id":"cebpf4jnsgd1na2vs0mg"},{"bike_id":"f77f6f36-a3e8-4eac-9705-d385924f98db","system_id":"levelo_inurba_marseille","lat":43.30459,"lon":5.36991,"is_reserved":false,"is_disabled":false,"rental_uris":{"android":"levelo://app?vid=f77f6f36-a3e8-4eac-9705-d385924f98db","ios":"levelo://app?vid=f77f6f36-a3e8-4eac-9705-d385924f98db"},"vehicle_type_id":"4","last_reported":1741094294,"current_range_meters":8000,"station_id":"","pricing_plan_id":"cebpf4jnsgd1na2vs0mg"},{"bike_id":"ea0d95a0-50d3-44c0-816c-57fff13fd871","system_id":"levelo_inurba_marseille","lat":43.29031,"lon":5.3756,"is_reserved":false,"is_disabled":false,"rental_uris":{"android":"levelo://app?vid=ea0d95a0-50d3-44c0-816c-57fff13fd871","ios":"levelo://app?vid=ea0d95a0-50d3-44c0-816c-57fff13fd871"},"vehicle_type_id":"4","last_reported":1741094294,"current_range_meters":8000,"station_id":"ce4bh692rcd13ifvqe90","pricing_plan_id":"cebpf4jnsgd1na2vs0mg"},{"bike_id":"69cd3787-0277-4a5c-be2d-c41c86958702","system_id":"levelo_inurba_marseille","lat":43.24182,"lon":5.3973,"is_reserved":false,"is_disabled":false,"rental_uris":{"android":"levelo://app?vid=69cd3787-0277-4a5c-be2d-c41c86958702","ios":"levelo://app?vid=69cd3787-0277-4a5c-be2d-c41c86958702"},"vehicle_type_id":"4","last_reported":1741094294,"current_range_meters":8000,"station_id":"ce4bhn12rcd13ifvqgpg","pricing_plan_id":"cebpf4jnsgd1na2vs0mg"},{"bike_id":"89024182-e09d-42c9-843b-e9bbd6258306","system_id":"levelo_inurba_marseille","lat":43.29001,"lon":5.35608,"is_reserved":false,"is_disabled":false,"rental_uris":{"android":"levelo://app?vid=89024182-e09d-42c9-843b-e9bbd6258306","ios":"levelo://app?vid=89024182-e09d-42c9-843b-e9bbd6258306"},"vehicle_type_id":"4","last_reported":1741094294,"current_range_meters":7200,"station_id":"ce4bhb92rcd13ifvqen0","pricing_plan_id":"cebpf4jnsgd1na2vs0mg"},{"bike_id":"205d8030-9fdc-48c7-b2cf-049e73e30d73","system_id":"levelo_inurba_marseille","lat":43.2594,"lon":5.40904,"is_reserved":false,"is_disabled":false,"rental_uris":{"android":"levelo://app?vid=205d8030-9fdc-48c7-b2cf-049e73e30d73","ios":"levelo://app?vid=205d8030-9fdc-48c7-b2cf-049e73e30d73"},"vehicle_type_id":"4","last_reported":1741094294,"current_range_meters":8000,"station_id":"ce4bhm92rcd13ifvqglg","pricing_plan_id":"cebpf4jnsgd1na2vs0mg"},{"bike_id":"5f6058f8-17d6-41f9-bf21-73aab62a2071","system_id":"levelo_inurba_marseille","lat":43.25823,"lon":5.39433,"is_reserved":false,"is_disabled":false,"rental_uris":{"android":"levelo://app?vid=5f6058f8-17d6-41f9-bf21-73aab62a2071","ios":"levelo://app?vid=5f6058f8-17d6-41f9-bf21-73aab62a2071"},"vehicle_type_id":"4","last_reported":1741094294,"current_range_meters":8400,"station_id":"ce4bhip2rcd13ifvqft0","pricing_plan_id":"cebpf4jnsgd1na2vs0mg"},{"bike_id":"a9d79ea4-1a9f-411e-ac34-ccf7e691d6af","system_id":"levelo_inurba_marseille","lat":43.30605,"lon":5.39305,"is_reserved":false,"is_disabled":false,"rental_uris":{"android":"levelo://app?vid=a9d79ea4-1a9f-411e-ac34-ccf7e691d6af","ios":"levelo://app?vid=a9d79ea4-1a9f-411e-ac34-ccf7e691d6af"},"vehicle_type_id":"4","last_reported":1741094294,"current_range_meters":8400,"station_id":"","pricing_plan_id":"cebpf4jnsgd1na2vs0mg"},{"bike_id":"853e9f93-6f18-4242-b269-d87025e7bb93","system_id":"levelo_inurba_marseille","lat":43.30755,"lon":5.37103,"is_reserved":false,"is_disabled":false,"rental_uris":{"android":"levelo://app?vid=853e9f93-6f18-4242-b269-d87025e7bb93","ios":"levelo://app?vid=853e9f93-6f18-4242-b269-d87025e7bb93"},"vehicle_type_id":"4","last_reported":1741094294,"current_range_meters":8400,"station_id":"","pricing_plan_id":"cebpf4jnsgd1na2vs0mg"},{"bike_id":"11acab4f-36f9-4188-9aa7-279f10cedd25","system_id":"levelo_inurba_marseille","lat":43.30935,"lon":5.40137,"is_reserved":false,"is_disabled":false,"rental_uris":{"android":"levelo://app?vid=11acab4f-36f9-4188-9aa7-279f10cedd25","ios":"levelo://app?vid=11acab4f-36f9-4188-9aa7-279f10cedd25"},"vehicle_type_id":"4","last_reported":1741094294,"current_range_meters":8400,"station_id":"ce4bgvp2rcd13ifvqct0","pricing_plan_id":"cebpf4jnsgd1na2vs0mg"},{"bike_id":"a0762477-ae9c-49bf-85fb-5f87d2d3e704","system_id":"levelo_inurba_marseille","lat":43.31687,"lon":5.40468,"is_reserved":false,"is_disabled":false,"rental_uris":{"android":"levelo://app?vid=a0762477-ae9c-49bf-85fb-5f87d2d3e704","ios":"levelo://app?vid=a0762477-ae9c-49bf-85fb-5f87d2d3e704"},"vehicle_type_id":"4","last_reported":1741094294,"current_range_meters":8400,"station_id":"ce4bh012rcd13ifvqd00","pricing_plan_id":"cebpf4jnsgd1na2vs0mg"},{"bike_id":"0fe02f61-8785-4a9f-aace-42e3339724bf","system_id":"levelo_inurba_marseille","lat":43.27972,"lon":5.38733,"is_reserved":false,"is_disabled":false,"rental_uris":{"android":"levelo://app?vid=0fe02f61-8785-4a9f-aace-42e3339724bf","ios":"levelo://app?vid=0fe02f61-8785-4a9f-aace-42e3339724bf"},"vehicle_type_id":"4","last_reported":1741094294,"current_range_meters":8400,"station_id":"ce4bhg12rcd13ifvqf80","pricing_plan_id":"cebpf4jnsgd1na2vs0mg"},{"bike_id":"424db515-7f33-43c8-a877-f351274ed959","system_id":"levelo_inurba_marseille","lat":43.3014,"lon":5.37419,"is_reserved":false,"is_disabled":false,"rental_uris":{"android":"levelo://app?vid=424db515-7f33-43c8-a877-f351274ed959","ios":"levelo://app?vid=424db515-7f33-43c8-a877-f351274ed959"},"vehicle_type_id":"4","last_reported":1741094294,"current_range_meters":8400,"station_id":"ce4bgs92rcd13ifvqcc0","pricing_plan_id":"cebpf4jnsgd1na2vs0mg"},{"bike_id":"21b31cfb-c79e-4014-abe6-d6f4171298b2","system_id":"levelo_inurba_marseille","lat":43.23175,"lon":5.40004,"is_reserved":false,"is_disabled":false,"rental_uris":{"android":"levelo://app?vid=21b31cfb-c79e-4014-abe6-d6f4171298b2","ios":"levelo://app?vid=21b31cfb-c79e-4014-abe6-d6f4171298b2"},"vehicle_type_id":"4","last_reported":1741094294,"current_range_meters":8400,"station_id":"ce4bhn12rcd13ifvqgqg","pricing_plan_id":"cebpf4jnsgd1na2vs0mg"},{"bike_id":"c41af804-f6e0-42e0-aab3-91ed38e0e8d8","system_id":"levelo_inurba_marseille","lat":43.29964,"lon":5.37182,"is_reserved":false,"is_disabled":false,"rental_uris":{"android":"levelo://app?vid=c41af804-f6e0-42e0-aab3-91ed38e0e8d8","ios":"levelo://app?vid=c41af804-f6e0-42e0-aab3-91ed38e0e8d8"},"vehicle_type_id":"4","last_reported":1741094294,"current_range_meters":8400,"station_id":"ce4bgr92rcd13ifvqc7g","pricing_plan_id":"cebpf4jnsgd1na2vs0mg"},{"bike_id":"346e7e1e-f5ad-4199-8951-d75428932c29","system_id":"levelo_inurba_marseille","lat":43.32459,"lon":5.3657,"is_reserved":false,"is_disabled":false,"rental_uris":{"android":"levelo://app?vid=346e7e1e-f5ad-4199-8951-d75428932c29","ios":"levelo://app?vid=346e7e1e-f5ad-4199-8951-d75428932c29"},"vehicle_type_id":"4","last_reported":1741094294,"current_range_meters":8400,"station_id":"ce4bhs12rcd13ifvqhvg","pricing_plan_id":"cebpf4jnsgd1na2vs0mg"},{"bike_id":"b59cb226-698e-406e-b327-85d4cc16eef5","system_id":"levelo_inurba_marseille","lat":43.310711,"lon":5.383532,"is_reserved":false,"is_disabled":false,"rental_uris":{"android":"levelo://app?vid=b59cb226-698e-406e-b327-85d4cc16eef5","ios":"levelo://app?vid=b59cb226-698e-406e-b327-85d4cc16eef5"},"vehicle_type_id":"4","last_reported":1741094294,"current_range_meters":8400,"station_id":"ce4bgs12rcd13ifvqcag","pricing_plan_id":"cebpf4jnsgd1na2vs0mg"},{"bike_id":"9694718a-36e5-44ea-a288-6931ca6a50c7","system_id":"levelo_inurba_marseille","lat":43.29973,"lon":5.38498,"is_reserved":false,"is_disabled":false,"rental_uris":{"android":"levelo://app?vid=9694718a-36e5-44ea-a288-6931ca6a50c7","ios":"levelo://app?vid=9694718a-36e5-44ea-a288-6931ca6a50c7"},"vehicle_type_id":"4","last_reported":1741094294,"current_range_meters":8800,"station_id":"ce4bgj92rcd13ifvqbd0","pricing_plan_id":"cebpf4jnsgd1na2vs0mg"},{"bike_id":"cfdf7e80-3812-4e98-a273-da0e514d0097","system_id":"levelo_inurba_marseille","lat":43.27313,"lon":5.3906,"is_reserved":false,"is_disabled":false,"rental_uris":{"android":"levelo://app?vid=cfdf7e80-3812-4e98-a273-da0e514d0097","ios":"levelo://app?vid=cfdf7e80-3812-4e98-a273-da0e514d0097"},"vehicle_type_id":"4","last_reported":1741094294,"current_range_meters":8800,"station_id":"ce4bhgp2rcd13ifvqfe0","pricing_plan_id":"cebpf4jnsgd1na2vs0mg"},{"bike_id":"0b818497-4d97-451b-b637-cef3d02b5c9d","system_id":"levelo_inurba_marseille","lat":43.31712,"lon":5.43702,"is_reserved":false,"is_disabled":true,"rental_uris":{"android":"levelo://app?vid=0b818497-4d97-451b-b637-cef3d02b5c9d","ios":"levelo://app?vid=0b818497-4d97-451b-b637-cef3d02b5c9d"},"vehicle_type_id":"4","last_reported":1741094294,"current_range_meters":8800,"station_id":"ce4bhp92rcd13ifvqhcg","pricing_plan_id":"cebpf4jnsgd1na2vs0mg"},{"bike_id":"caedf473-9313-4874-87c8-230b4a1efdb8","system_id":"levelo_inurba_marseille","lat":43.32473,"lon":5.36541,"is_reserved":false,"is_disabled":false,"rental_uris":{"android":"levelo://app?vid=caedf473-9313-4874-87c8-230b4a1efdb8","ios":"levelo://app?vid=caedf473-9313-4874-87c8-230b4a1efdb8"},"vehicle_type_id":"4","last_reported":1741094294,"current_range_meters":8800,"station_id":"ce4bhs12rcd13ifvqhvg","pricing_plan_id":"cebpf4jnsgd1na2vs0mg"},{"bike_id":"41ed89d3-77cd-4311-8513-748a0ca63c4f","system_id":"levelo_inurba_marseille","lat":43.21261,"lon":5.35342,"is_reserved":false,"is_disabled":false,"rental_uris":{"android":"levelo://app?vid=41ed89d3-77cd-4311-8513-748a0ca63c4f","ios":"levelo://app?vid=41ed89d3-77cd-4311-8513-748a0ca63c4f"},"vehicle_type_id":"4","last_reported":1741094294,"current_range_meters":8800,"station_id":"","pricing_plan_id":"cebpf4jnsgd1na2vs0mg"},{"bike_id":"ee3c9ec4-fd1e-41b3-9911-557f49971d62","system_id":"levelo_inurba_marseille","lat":43.27498,"lon":5.42452,"is_reserved":false,"is_disabled":false,"rental_uris":{"android":"levelo://app?vid=ee3c9ec4-fd1e-41b3-9911-557f49971d62","ios":"levelo://app?vid=ee3c9ec4-fd1e-41b3-9911-557f49971d62"},"vehicle_type_id":"4","last_reported":1741094294,"current_range_meters":8800,"station_id":"ce4bhn92rcd13ifvqgrg","pricing_plan_id":"cebpf4jnsgd1na2vs0mg"},{"bike_id":"64953142-7637-42b4-b0d1-c449e63f1db7","system_id":"levelo_inurba_marseille","lat":43.29635,"lon":5.36066,"is_reserved":false,"is_disabled":false,"rental_uris":{"android":"levelo://app?vid=64953142-7637-42b4-b0d1-c449e63f1db7","ios":"levelo://app?vid=64953142-7637-42b4-b0d1-c449e63f1db7"},"vehicle_type_id":"4","last_reported":1741094294,"current_range_meters":8800,"station_id":"","pricing_plan_id":"cebpf4jnsgd1na2vs0mg"},{"bike_id":"dcfa2f0e-db79-4040-b546-44c992702b64","system_id":"levelo_inurba_marseille","lat":43.3073,"lon":5.38455,"is_reserved":false,"is_disabled":false,"rental_uris":{"android":"levelo://app?vid=dcfa2f0e-db79-4040-b546-44c992702b64","ios":"levelo://app?vid=dcfa2f0e-db79-4040-b546-44c992702b64"},"vehicle_type_id":"4","last_reported":1741094294,"current_range_meters":8800,"station_id":"","pricing_plan_id":"cebpf4jnsgd1na2vs0mg"},{"bike_id":"6717721c-5eb4-44e0-aad4-df31d77c8a69","system_id":"levelo_inurba_marseille","lat":43.25017,"lon":5.38918,"is_reserved":false,"is_disabled":false,"rental_uris":{"android":"levelo://app?vid=6717721c-5eb4-44e0-aad4-df31d77c8a69","ios":"levelo://app?vid=6717721c-5eb4-44e0-aad4-df31d77c8a69"},"vehicle_type_id":"4","last_reported":1741094294,"current_range_meters":8800,"station_id":"ce4bhgp2rcd13ifvqfd0","pricing_plan_id":"cebpf4jnsgd1na2vs0mg"},{"bike_id":"631c96fe-5a07-408b-ae8d-5cd73adbe3e3","system_id":"levelo_inurba_marseille","lat":43.28613,"lon":5.393355,"is_reserved":false,"is_disabled":false,"rental_uris":{"android":"levelo://app?vid=631c96fe-5a07-408b-ae8d-5cd73adbe3e3","ios":"levelo://app?vid=631c96fe-5a07-408b-ae8d-5cd73adbe3e3"},"vehicle_type_id":"4","last_reported":1741094294,"current_range_meters":8800,"station_id":"ce4bh292rcd13ifvqdg0","pricing_plan_id":"cebpf4jnsgd1na2vs0mg"},{"bike_id":"afafe1f8-c066-4e5c-a075-7fde3facc8c7","system_id":"levelo_inurba_marseille","lat":43.29417,"lon":5.38623,"is_reserved":false,"is_disabled":false,"rental_uris":{"android":"levelo://app?vid=afafe1f8-c066-4e5c-a075-7fde3facc8c7","ios":"levelo://app?vid=afafe1f8-c066-4e5c-a075-7fde3facc8c7"},"vehicle_type_id":"4","last_reported":1741094294,"current_range_meters":8400,"station_id":"ce4bh2h2rcd13ifvqdh0","pricing_plan_id":"cebpf4jnsgd1na2vs0mg"},{"bike_id":"99467996-6ccb-4eef-b49b-5dfc2926ad57","system_id":"levelo_inurba_marseille","lat":43.24178,"lon":5.39729,"is_reserved":false,"is_disabled":false,"rental_uris":{"android":"levelo://app?vid=99467996-6ccb-4eef-b49b-5dfc2926ad57","ios":"levelo://app?vid=99467996-6ccb-4eef-b49b-5dfc2926ad57"},"vehicle_type_id":"4","last_reported":1741094294,"current_range_meters":8800,"station_id":"ce4bhn12rcd13ifvqgpg","pricing_plan_id":"cebpf4jnsgd1na2vs0mg"},{"bike_id":"317906ae-2942-41c7-b52a-a821972ae42c","system_id":"levelo_inurba_marseille","lat":43.26783,"lon":5.39414,"is_reserved":false,"is_disabled":false,"rental_uris":{"android":"levelo://app?vid=317906ae-2942-41c7-b52a-a821972ae42c","ios":"levelo://app?vid=317906ae-2942-41c7-b52a-a821972ae42c"},"vehicle_type_id":"4","last_reported":1741094294,"current_range_meters":9200,"station_id":"ce4bhh12rcd13ifvqfg0","pricing_plan_id":"cebpf4jnsgd1na2vs0mg"},{"bike_id":"7d57eed4-7af7-4012-8c20-4723a24b8de6","system_id":"levelo_inurba_marseille","lat":43.23149,"lon":5.43718,"is_reserved":false,"is_disabled":false,"rental_uris":{"android":"levelo://app?vid=7d57eed4-7af7-4012-8c20-4723a24b8de6","ios":"levelo://app?vid=7d57eed4-7af7-4012-8c20-4723a24b8de6"},"vehicle_type_id":"4","last_reported":1741094294,"current_range_meters":9200,"station_id":"ce4bhmp2rcd13ifvqgog","pricing_plan_id":"cebpf4jnsgd1na2vs0mg"},{"bike_id":"d80ecf34-d102-4b6e-91bb-ec13418740d4","system_id":"levelo_inurba_marseille","lat":43.28842,"lon":5.35855,"is_reserved":false,"is_disabled":false,"rental_uris":{"android":"levelo://app?vid=d80ecf34-d102-4b6e-91bb-ec13418740d4","ios":"levelo://app?vid=d80ecf34-d102-4b6e-91bb-ec13418740d4"},"vehicle_type_id":"4","last_reported":1741094294,"current_range_meters":8800,"station_id":"ce4bhb12rcd13ifvqem0","pricing_plan_id":"cebpf4jnsgd1na2vs0mg"},{"bike_id":"b1ac49be-b33f-4f69-b362-4775c4ca5949","system_id":"levelo_inurba_marseille","lat":43.2315,"lon":5.43722,"is_reserved":false,"is_disabled":false,"rental_uris":{"android":"levelo://app?vid=b1ac49be-b33f-4f69-b362-4775c4ca5949","ios":"levelo://app?vid=b1ac49be-b33f-4f69-b362-4775c4ca5949"},"vehicle_type_id":"4","last_reported":1741094294,"current_range_meters":9200,"station_id":"ce4bhmp2rcd13ifvqgog","pricing_plan_id":"cebpf4jnsgd1na2vs0mg"},{"bike_id":"9de42f25-f760-4086-9a08-2934eee1b520","system_id":"levelo_inurba_marseille","lat":43.21248,"lon":5.35345,"is_reserved":false,"is_disabled":false,"rental_uris":{"android":"levelo://app?vid=9de42f25-f760-4086-9a08-2934eee1b520","ios":"levelo://app?vid=9de42f25-f760-4086-9a08-2934eee1b520"},"vehicle_type_id":"4","last_reported":1741094294,"current_range_meters":9600,"station_id":"","pricing_plan_id":"cebpf4jnsgd1na2vs0mg"},{"bike_id":"9560dc65-15a1-4b73-885f-8860303d50ff","system_id":"levelo_inurba_marseille","lat":43.3171,"lon":5.3774,"is_reserved":false,"is_disabled":false,"rental_uris":{"android":"levelo://app?vid=9560dc65-15a1-4b73-885f-8860303d50ff","ios":"levelo://app?vid=9560dc65-15a1-4b73-885f-8860303d50ff"},"vehicle_type_id":"4","last_reported":1741094294,"current_range_meters":9200,"station_id":"ce4bgth2rcd13ifvqch0","pricing_plan_id":"cebpf4jnsgd1na2vs0mg"},{"bike_id":"398e8d45-10ef-4087-8c0d-13d92611c497","system_id":"levelo_inurba_marseille","lat":43.28705,"lon":5.37945,"is_reserved":false,"is_disabled":false,"rental_uris":{"android":"levelo://app?vid=398e8d45-10ef-4087-8c0d-13d92611c497","ios":"levelo://app?vid=398e8d45-10ef-4087-8c0d-13d92611c497"},"vehicle_type_id":"4","last_reported":1741094294,"current_range_meters":9600,"station_id":"ce4bh9p2rcd13ifvqec0","pricing_plan_id":"cebpf4jnsgd1na2vs0mg"},{"bike_id":"02984c24-f543-4d24-8c9e-3afa9d92984f","system_id":"levelo_inurba_marseille","lat":43.2558,"lon":5.38239,"is_reserved":false,"is_disabled":false,"rental_uris":{"android":"levelo://app?vid=02984c24-f543-4d24-8c9e-3afa9d92984f","ios":"levelo://app?vid=02984c24-f543-4d24-8c9e-3afa9d92984f"},"vehicle_type_id":"4","last_reported":1741094294,"current_range_meters":9600,"station_id":"ce4bhih2rcd13ifvqfs0","pricing_plan_id":"cebpf4jnsgd1na2vs0mg"},{"bike_id":"74576acd-c16b-449f-845b-c04e7d7ef2bc","system_id":"levelo_inurba_marseille","lat":43.30303,"lon":5.36874,"is_reserved":false,"is_disabled":false,"rental_uris":{"android":"levelo://app?vid=74576acd-c16b-449f-845b-c04e7d7ef2bc","ios":"levelo://app?vid=74576acd-c16b-449f-845b-c04e7d7ef2bc"},"vehicle_type_id":"4","last_reported":1741094294,"current_range_meters":9600,"station_id":"ce4bgqh2rcd13ifvqc5g","pricing_plan_id":"cebpf4jnsgd1na2vs0mg"},{"bike_id":"3b73d8d4-923a-4308-81e5-52ed233d2804","system_id":"levelo_inurba_marseille","lat":43.23142,"lon":5.4372,"is_reserved":false,"is_disabled":false,"rental_uris":{"android":"levelo://app?vid=3b73d8d4-923a-4308-81e5-52ed233d2804","ios":"levelo://app?vid=3b73d8d4-923a-4308-81e5-52ed233d2804"},"vehicle_type_id":"4","last_reported":1741094294,"current_range_meters":9600,"station_id":"ce4bhmp2rcd13ifvqgog","pricing_plan_id":"cebpf4jnsgd1na2vs0mg"},{"bike_id":"1093c63c-75cd-4d7d-8540-78e4958851a9","system_id":"levelo_inurba_marseille","lat":43.30543,"lon":5.36531,"is_reserved":false,"is_disabled":false,"rental_uris":{"android":"levelo://app?vid=1093c63c-75cd-4d7d-8540-78e4958851a9","ios":"levelo://app?vid=1093c63c-75cd-4d7d-8540-78e4958851a9"},"vehicle_type_id":"4","last_reported":1741094294,"current_range_meters":9600,"station_id":"ce4bgs12rcd13ifvqcag","pricing_plan_id":"cebpf4jnsgd1na2vs0mg"},{"bike_id":"1df35f19-b958-4496-b6a2-8cf32facfaa7","system_id":"levelo_inurba_marseille","lat":43.29061,"lon":5.37155,"is_reserved":false,"is_disabled":false,"rental_uris":{"android":"levelo://app?vid=1df35f19-b958-4496-b6a2-8cf32facfaa7","ios":"levelo://app?vid=1df35f19-b958-4496-b6a2-8cf32facfaa7"},"vehicle_type_id":"4","last_reported":1741094294,"current_range_meters":9200,"station_id":"ce4bh5p2rcd13ifvqe4g","pricing_plan_id":"cebpf4jnsgd1na2vs0mg"},{"bike_id":"59cade9d-44cb-4f7e-abb6-79d136be8155","system_id":"levelo_inurba_marseille","lat":43.30298,"lon":5.3922,"is_reserved":false,"is_disabled":false,"rental_uris":{"android":"levelo://app?vid=59cade9d-44cb-4f7e-abb6-79d136be8155","ios":"levelo://app?vid=59cade9d-44cb-4f7e-abb6-79d136be8155"},"vehicle_type_id":"4","last_reported":1741094294,"current_range_meters":9600,"station_id":"ce4bgkh2rcd13ifvqbk0","pricing_plan_id":"cebpf4jnsgd1na2vs0mg"},{"bike_id":"4aeb8d54-ca9f-42d1-962c-f4d94620b833","system_id":"levelo_inurba_marseille","lat":43.28698,"lon":5.37415,"is_reserved":false,"is_disabled":false,"rental_uris":{"android":"levelo://app?vid=4aeb8d54-ca9f-42d1-962c-f4d94620b833","ios":"levelo://app?vid=4aeb8d54-ca9f-42d1-962c-f4d94620b833"},"vehicle_type_id":"4","last_reported":1741094294,"current_range_meters":10000,"station_id":"ce4bh3p2rcd13ifvqdq0","pricing_plan_id":"cebpf4jnsgd1na2vs0mg"},{"bike_id":"e7ec1ac1-2323-47bd-a2b5-7cd3afb282cf","system_id":"levelo_inurba_marseille","lat":43.26568,"lon":5.37264,"is_reserved":false,"is_disabled":false,"rental_uris":{"android":"levelo://app?vid=e7ec1ac1-2323-47bd-a2b5-7cd3afb282cf","ios":"levelo://app?vid=e7ec1ac1-2323-47bd-a2b5-7cd3afb282cf"},"vehicle_type_id":"4","last_reported":1741094294,"current_range_meters":10000,"station_id":"ce4bhg12rcd13ifvqf70","pricing_plan_id":"cebpf4jnsgd1na2vs0mg"},{"bike_id":"c2908053-ff74-4208-93a2-3160ddf389f2","system_id":"levelo_inurba_marseille","lat":43.30136,"lon":5.39874,"is_reserved":false,"is_disabled":false,"rental_uris":{"android":"levelo://app?vid=c2908053-ff74-4208-93a2-3160ddf389f2","ios":"levelo://app?vid=c2908053-ff74-4208-93a2-3160ddf389f2"},"vehicle_type_id":"4","last_reported":1741094294,"current_range_meters":10000,"station_id":"ce4bh0h2rcd13ifvqd40","pricing_plan_id":"cebpf4jnsgd1na2vs0mg"},{"bike_id":"a9e8e38c-7fc9-4337-b605-a211a3c03801","system_id":"levelo_inurba_marseille","lat":43.28263,"lon":5.35058,"is_reserved":false,"is_disabled":false,"rental_uris":{"android":"levelo://app?vid=a9e8e38c-7fc9-4337-b605-a211a3c03801","ios":"levelo://app?vid=a9e8e38c-7fc9-4337-b605-a211a3c03801"},"vehicle_type_id":"4","last_reported":1741094294,"current_range_meters":9600,"station_id":"ce4bhbp2rcd13ifvqerg","pricing_plan_id":"cebpf4jnsgd1na2vs0mg"},{"bike_id":"335604bd-ea78-4cf3-aa43-1f89d2b0ca79","system_id":"levelo_inurba_marseille","lat":43.29302,"lon":5.37176,"is_reserved":false,"is_disabled":false,"rental_uris":{"android":"levelo://app?vid=335604bd-ea78-4cf3-aa43-1f89d2b0ca79","ios":"levelo://app?vid=335604bd-ea78-4cf3-aa43-1f89d2b0ca79"},"vehicle_type_id":"4","last_reported":1741094294,"current_range_meters":9600,"station_id":"ce4bgh92rcd13ifvqb40","pricing_plan_id":"cebpf4jnsgd1na2vs0mg"},{"bike_id":"53370df7-9791-4141-8ab6-479eee9f8d86","system_id":"levelo_inurba_marseille","lat":43.29893,"lon":5.43657,"is_reserved":false,"is_disabled":false,"rental_uris":{"android":"levelo://app?vid=53370df7-9791-4141-8ab6-479eee9f8d86","ios":"levelo://app?vid=53370df7-9791-4141-8ab6-479eee9f8d86"},"vehicle_type_id":"4","last_reported":1741094294,"current_range_meters":10000,"station_id":"ce4bhpp2rcd13ifvqhfg","pricing_plan_id":"cebpf4jnsgd1na2vs0mg"},{"bike_id":"ee1d2ad1-36ca-49dd-a328-f2a9a9994ecb","system_id":"levelo_inurba_marseille","lat":43.31095,"lon":5.38138,"is_reserved":false,"is_disabled":false,"rental_uris":{"android":"levelo://app?vid=ee1d2ad1-36ca-49dd-a328-f2a9a9994ecb","ios":"levelo://app?vid=ee1d2ad1-36ca-49dd-a328-f2a9a9994ecb"},"vehicle_type_id":"4","last_reported":1741094294,"current_range_meters":10800,"station_id":"","pricing_plan_id":"cebpf4jnsgd1na2vs0mg"},{"bike_id":"cb8f727b-eaac-4758-85d8-1909d9bf8a69","system_id":"levelo_inurba_marseille","lat":43.28156,"lon":5.42638,"is_reserved":false,"is_disabled":false,"rental_uris":{"android":"levelo://app?vid=cb8f727b-eaac-4758-85d8-1909d9bf8a69","ios":"levelo://app?vid=cb8f727b-eaac-4758-85d8-1909d9bf8a69"},"vehicle_type_id":"4","last_reported":1741094294,"current_range_meters":10000,"station_id":"ce4bhnh2rcd13ifvqgug","pricing_plan_id":"cebpf4jnsgd1na2vs0mg"},{"bike_id":"d397688b-ab73-448f-92b9-a2a9588b40a4","system_id":"levelo_inurba_marseille","lat":43.23989,"lon":5.39704,"is_reserved":false,"is_disabled":false,"rental_uris":{"android":"levelo://app?vid=d397688b-ab73-448f-92b9-a2a9588b40a4","ios":"levelo://app?vid=d397688b-ab73-448f-92b9-a2a9588b40a4"},"vehicle_type_id":"4","last_reported":1741094294,"current_range_meters":10800,"station_id":"","pricing_plan_id":"cebpf4jnsgd1na2vs0mg"},{"bike_id":"44a7153b-0fd7-4509-836b-676bbf84fb06","system_id":"levelo_inurba_marseille","lat":43.2318,"lon":5.35571,"is_reserved":false,"is_disabled":false,"rental_uris":{"android":"levelo://app?vid=44a7153b-0fd7-4509-836b-676bbf84fb06","ios":"levelo://app?vid=44a7153b-0fd7-4509-836b-676bbf84fb06"},"vehicle_type_id":"4","last_reported":1741094294,"current_range_meters":10800,"station_id":"ce4bhu92rcd13ifvqi70","pricing_plan_id":"cebpf4jnsgd1na2vs0mg"},{"bike_id":"8d87db73-830b-4a1a-b357-2fa35f25b1f5","system_id":"levelo_inurba_marseille","lat":43.23208,"lon":5.43667,"is_reserved":false,"is_disabled":false,"rental_uris":{"android":"levelo://app?vid=8d87db73-830b-4a1a-b357-2fa35f25b1f5","ios":"levelo://app?vid=8d87db73-830b-4a1a-b357-2fa35f25b1f5"},"vehicle_type_id":"4","last_reported":1741094294,"current_range_meters":11200,"station_id":"ce4bhmp2rcd13ifvqgog","pricing_plan_id":"cebpf4jnsgd1na2vs0mg"},{"bike_id":"e7accf6d-1bb3-4ef5-938d-3be4aa01137f","system_id":"levelo_inurba_marseille","lat":43.28143,"lon":5.4266,"is_reserved":false,"is_disabled":false,"rental_uris":{"android":"levelo://app?vid=e7accf6d-1bb3-4ef5-938d-3be4aa01137f","ios":"levelo://app?vid=e7accf6d-1bb3-4ef5-938d-3be4aa01137f"},"vehicle_type_id":"4","last_reported":1741094294,"current_range_meters":11200,"station_id":"ce4bhnh2rcd13ifvqgug","pricing_plan_id":"cebpf4jnsgd1na2vs0mg"},{"bike_id":"4a9e675e-b653-464e-9dd6-11c8e63f4a62","system_id":"levelo_inurba_marseille","lat":43.28105,"lon":5.39864,"is_reserved":false,"is_disabled":false,"rental_uris":{"android":"levelo://app?vid=4a9e675e-b653-464e-9dd6-11c8e63f4a62","ios":"levelo://app?vid=4a9e675e-b653-464e-9dd6-11c8e63f4a62"},"vehicle_type_id":"4","last_reported":1741094294,"current_range_meters":11200,"station_id":"","pricing_plan_id":"cebpf4jnsgd1na2vs0mg"},{"bike_id":"4c85df50-c025-438a-a144-e05aa8bf92c7","system_id":"levelo_inurba_marseille","lat":43.29701,"lon":5.36619,"is_reserved":false,"is_disabled":false,"rental_uris":{"android":"levelo://app?vid=4c85df50-c025-438a-a144-e05aa8bf92c7","ios":"levelo://app?vid=4c85df50-c025-438a-a144-e05aa8bf92c7"},"vehicle_type_id":"4","last_reported":1741094294,"current_range_meters":11200,"station_id":"ce4bgn12rcd13ifvqbt0","pricing_plan_id":"cebpf4jnsgd1na2vs0mg"},{"bike_id":"6e03686a-145a-45de-8d42-7f0cfcfb94ce","system_id":"levelo_inurba_marseille","lat":43.3014,"lon":5.37414,"is_reserved":false,"is_disabled":false,"rental_uris":{"android":"levelo://app?vid=6e03686a-145a-45de-8d42-7f0cfcfb94ce","ios":"levelo://app?vid=6e03686a-145a-45de-8d42-7f0cfcfb94ce"},"vehicle_type_id":"4","last_reported":1741094294,"current_range_meters":11200,"station_id":"ce4bgs92rcd13ifvqcc0","pricing_plan_id":"cebpf4jnsgd1na2vs0mg"},{"bike_id":"35482dac-1312-4f0e-90ed-4aea1d786cf7","system_id":"levelo_inurba_marseille","lat":43.23155,"lon":5.4372,"is_reserved":false,"is_disabled":false,"rental_uris":{"android":"levelo://app?vid=35482dac-1312-4f0e-90ed-4aea1d786cf7","ios":"levelo://app?vid=35482dac-1312-4f0e-90ed-4aea1d786cf7"},"vehicle_type_id":"4","last_reported":1741094294,"current_range_meters":11200,"station_id":"ce4bhmp2rcd13ifvqgog","pricing_plan_id":"cebpf4jnsgd1na2vs0mg"},{"bike_id":"e36f30c3-3fdf-4624-8046-214faf335221","system_id":"levelo_inurba_marseille","lat":43.30533,"lon":5.36537,"is_reserved":false,"is_disabled":false,"rental_uris":{"android":"levelo://app?vid=e36f30c3-3fdf-4624-8046-214faf335221","ios":"levelo://app?vid=e36f30c3-3fdf-4624-8046-214faf335221"},"vehicle_type_id":"4","last_reported":1741094294,"current_range_meters":11200,"station_id":"ce4bgs12rcd13ifvqcag","pricing_plan_id":"cebpf4jnsgd1na2vs0mg"},{"bike_id":"b9ea6d85-c2a4-441c-aaea-068a88bef297","system_id":"levelo_inurba_marseille","lat":43.29864,"lon":5.39731,"is_reserved":false,"is_disabled":false,"rental_uris":{"android":"levelo://app?vid=b9ea6d85-c2a4-441c-aaea-068a88bef297","ios":"levelo://app?vid=b9ea6d85-c2a4-441c-aaea-068a88bef297"},"vehicle_type_id":"4","last_reported":1741094294,"current_range_meters":11600,"station_id":"ce4bh0h2rcd13ifvqd50","pricing_plan_id":"cebpf4jnsgd1na2vs0mg"},{"bike_id":"495ee3de-b09b-4b41-a9e7-c29dbd353055","system_id":"levelo_inurba_marseille","lat":43.23971,"lon":5.36613,"is_reserved":false,"is_disabled":false,"rental_uris":{"android":"levelo://app?vid=495ee3de-b09b-4b41-a9e7-c29dbd353055","ios":"levelo://app?vid=495ee3de-b09b-4b41-a9e7-c29dbd353055"},"vehicle_type_id":"4","last_reported":1741094294,"current_range_meters":11600,"station_id":"ce4bhi12rcd13ifvqfp0","pricing_plan_id":"cebpf4jnsgd1na2vs0mg"},{"bike_id":"a2e9312b-d692-42a0-9823-fe0aab56075b","system_id":"levelo_inurba_marseille","lat":43.23147,"lon":5.43732,"is_reserved":false,"is_disabled":true,"rental_uris":{"android":"levelo://app?vid=a2e9312b-d692-42a0-9823-fe0aab56075b","ios":"levelo://app?vid=a2e9312b-d692-42a0-9823-fe0aab56075b"},"vehicle_type_id":"4","last_reported":1741094294,"current_range_meters":11600,"station_id":"ce4bhmp2rcd13ifvqgog","pricing_plan_id":"cebpf4jnsgd1na2vs0mg"},{"bike_id":"d3a96749-dcc9-4b47-8bc6-8fbfbac02ce2","system_id":"levelo_inurba_marseille","lat":43.33614,"lon":5.41039,"is_reserved":false,"is_disabled":false,"rental_uris":{"android":"levelo://app?vid=d3a96749-dcc9-4b47-8bc6-8fbfbac02ce2","ios":"levelo://app?vid=d3a96749-dcc9-4b47-8bc6-8fbfbac02ce2"},"vehicle_type_id":"4","last_reported":1741094294,"current_range_meters":11600,"station_id":"ce4bhqh2rcd13ifvqhmg","pricing_plan_id":"cebpf4jnsgd1na2vs0mg"},{"bike_id":"2dbded27-cfd5-464f-81ee-322375038aec","system_id":"levelo_inurba_marseille","lat":43.29964,"lon":5.38505,"is_reserved":false,"is_disabled":false,"rental_uris":{"android":"levelo://app?vid=2dbded27-cfd5-464f-81ee-322375038aec","ios":"levelo://app?vid=2dbded27-cfd5-464f-81ee-322375038aec"},"vehicle_type_id":"4","last_reported":1741094294,"current_range_meters":11600,"station_id":"ce4bgj92rcd13ifvqbd0","pricing_plan_id":"cebpf4jnsgd1na2vs0mg"},{"bike_id":"78e2894e-5177-49fc-8b96-9e92bd23679c","system_id":"levelo_inurba_marseille","lat":43.2894,"lon":5.36641,"is_reserved":false,"is_disabled":false,"rental_uris":{"android":"levelo://app?vid=78e2894e-5177-49fc-8b96-9e92bd23679c","ios":"levelo://app?vid=78e2894e-5177-49fc-8b96-9e92bd23679c"},"vehicle_type_id":"4","last_reported":1741094294,"current_range_meters":11600,"station_id":"ce4bhap2rcd13ifvqek0","pricing_plan_id":"cebpf4jnsgd1na2vs0mg"},{"bike_id":"9f4d1ef0-9332-4a70-8e69-c2fa3a555aed","system_id":"levelo_inurba_marseille","lat":43.26943,"lon":5.38635,"is_reserved":false,"is_disabled":false,"rental_uris":{"android":"levelo://app?vid=9f4d1ef0-9332-4a70-8e69-c2fa3a555aed","ios":"levelo://app?vid=9f4d1ef0-9332-4a70-8e69-c2fa3a555aed"},"vehicle_type_id":"4","last_reported":1741094294,"current_range_meters":12000,"station_id":"ce4bhh92rcd13ifvqfh0","pricing_plan_id":"cebpf4jnsgd1na2vs0mg"},{"bike_id":"3f5058b3-9bb9-498a-9db7-4a6df899d048","system_id":"levelo_inurba_marseille","lat":43.309519,"lon":5.390224,"is_reserved":false,"is_disabled":false,"rental_uris":{"android":"levelo://app?vid=3f5058b3-9bb9-498a-9db7-4a6df899d048","ios":"levelo://app?vid=3f5058b3-9bb9-498a-9db7-4a6df899d048"},"vehicle_type_id":"4","last_reported":1741094294,"current_range_meters":12000,"station_id":"ce4bgup2rcd13ifvqco0","pricing_plan_id":"cebpf4jnsgd1na2vs0mg"},{"bike_id":"fc890f05-5811-465b-af51-46eb46e95a90","system_id":"levelo_inurba_marseille","lat":43.25024,"lon":5.38885,"is_reserved":false,"is_disabled":false,"rental_uris":{"android":"levelo://app?vid=fc890f05-5811-465b-af51-46eb46e95a90","ios":"levelo://app?vid=fc890f05-5811-465b-af51-46eb46e95a90"},"vehicle_type_id":"4","last_reported":1741094294,"current_range_meters":12000,"station_id":"ce4bhgp2rcd13ifvqfd0","pricing_plan_id":"cebpf4jnsgd1na2vs0mg"},{"bike_id":"96534ab7-4f6f-4c1c-9eeb-a2113adfd031","system_id":"levelo_inurba_marseille","lat":43.272,"lon":5.40994,"is_reserved":false,"is_disabled":false,"rental_uris":{"android":"levelo://app?vid=96534ab7-4f6f-4c1c-9eeb-a2113adfd031","ios":"levelo://app?vid=96534ab7-4f6f-4c1c-9eeb-a2113adfd031"},"vehicle_type_id":"4","last_reported":1741094294,"current_range_meters":12000,"station_id":"ce4bhl12rcd13ifvqgf0","pricing_plan_id":"cebpf4jnsgd1na2vs0mg"},{"bike_id":"5e58b71c-5e5d-496e-8776-c5043b3a85a0","system_id":"levelo_inurba_marseille","lat":43.30131,"lon":5.3743,"is_reserved":false,"is_disabled":false,"rental_uris":{"android":"levelo://app?vid=5e58b71c-5e5d-496e-8776-c5043b3a85a0","ios":"levelo://app?vid=5e58b71c-5e5d-496e-8776-c5043b3a85a0"},"vehicle_type_id":"4","last_reported":1741094294,"current_range_meters":12000,"station_id":"ce4bgs92rcd13ifvqcc0","pricing_plan_id":"cebpf4jnsgd1na2vs0mg"},{"bike_id":"3337f8d3-294f-4174-abe7-8175587d9446","system_id":"levelo_inurba_marseille","lat":43.27053,"lon":5.40261,"is_reserved":false,"is_disabled":false,"rental_uris":{"android":"levelo://app?vid=3337f8d3-294f-4174-abe7-8175587d9446","ios":"levelo://app?vid=3337f8d3-294f-4174-abe7-8175587d9446"},"vehicle_type_id":"4","last_reported":1741094294,"current_range_meters":12000,"station_id":"ce4bhk92rcd13ifvqgc0","pricing_plan_id":"cebpf4jnsgd1na2vs0mg"},{"bike_id":"6aedba2b-cb94-4a7b-a620-6e8ee215138e","system_id":"levelo_inurba_marseille","lat":43.27899,"lon":5.38,"is_reserved":false,"is_disabled":false,"rental_uris":{"android":"levelo://app?vid=6aedba2b-cb94-4a7b-a620-6e8ee215138e","ios":"levelo://app?vid=6aedba2b-cb94-4a7b-a620-6e8ee215138e"},"vehicle_type_id":"4","last_reported":1741094294,"current_range_meters":12000,"station_id":"ce4bhf92rcd13ifvqf50","pricing_plan_id":"cebpf4jnsgd1na2vs0mg"},{"bike_id":"21b19842-9ad9-4db0-bc46-3d2827c0069e","system_id":"levelo_inurba_marseille","lat":43.23194,"lon":5.35563,"is_reserved":false,"is_disabled":false,"rental_uris":{"android":"levelo://app?vid=21b19842-9ad9-4db0-bc46-3d2827c0069e","ios":"levelo://app?vid=21b19842-9ad9-4db0-bc46-3d2827c0069e"},"vehicle_type_id":"4","last_reported":1741094294,"current_range_meters":12000,"station_id":"ce4bhu92rcd13ifvqi70","pricing_plan_id":"cebpf4jnsgd1na2vs0mg"},{"bike_id":"d78f6f90-64a3-4609-b387-e5c1981a529b","system_id":"levelo_inurba_marseille","lat":43.24071,"lon":5.37766,"is_reserved":false,"is_disabled":false,"rental_uris":{"android":"levelo://app?vid=d78f6f90-64a3-4609-b387-e5c1981a529b","ios":"levelo://app?vid=d78f6f90-64a3-4609-b387-e5c1981a529b"},"vehicle_type_id":"4","last_reported":1741094294,"current_range_meters":12000,"station_id":"ce4bhnp2rcd13ifvqgvg","pricing_plan_id":"cebpf4jnsgd1na2vs0mg"},{"bike_id":"212be3cc-09ae-4063-9d09-83b8b6c708f5","system_id":"levelo_inurba_marseille","lat":43.27066,"lon":5.40265,"is_reserved":false,"is_disabled":false,"rental_uris":{"android":"levelo://app?vid=212be3cc-09ae-4063-9d09-83b8b6c708f5","ios":"levelo://app?vid=212be3cc-09ae-4063-9d09-83b8b6c708f5"},"vehicle_type_id":"4","last_reported":1741094294,"current_range_meters":12400,"station_id":"ce4bhk92rcd13ifvqgc0","pricing_plan_id":"cebpf4jnsgd1na2vs0mg"},{"bike_id":"a857b47b-2396-4f69-8bde-feaa688e4bfb","system_id":"levelo_inurba_marseille","lat":43.28344,"lon":5.38105,"is_reserved":false,"is_disabled":false,"rental_uris":{"android":"levelo://app?vid=a857b47b-2396-4f69-8bde-feaa688e4bfb","ios":"levelo://app?vid=a857b47b-2396-4f69-8bde-feaa688e4bfb"},"vehicle_type_id":"4","last_reported":1741094294,"current_range_meters":12400,"station_id":"ce4bh412rcd13ifvqdr0","pricing_plan_id":"cebpf4jnsgd1na2vs0mg"},{"bike_id":"9158c83d-aae6-4f40-adf3-15d2d242233b","system_id":"levelo_inurba_marseille","lat":43.27055,"lon":5.40256,"is_reserved":false,"is_disabled":false,"rental_uris":{"android":"levelo://app?vid=9158c83d-aae6-4f40-adf3-15d2d242233b","ios":"levelo://app?vid=9158c83d-aae6-4f40-adf3-15d2d242233b"},"vehicle_type_id":"4","last_reported":1741094294,"current_range_meters":12400,"station_id":"ce4bhk92rcd13ifvqgc0","pricing_plan_id":"cebpf4jnsgd1na2vs0mg"},{"bike_id":"9ab0baf9-c2c7-4fa7-9b33-6ab5adc722c3","system_id":"levelo_inurba_marseille","lat":43.24795,"lon":5.37454,"is_reserved":false,"is_disabled":false,"rental_uris":{"android":"levelo://app?vid=9ab0baf9-c2c7-4fa7-9b33-6ab5adc722c3","ios":"levelo://app?vid=9ab0baf9-c2c7-4fa7-9b33-6ab5adc722c3"},"vehicle_type_id":"4","last_reported":1741094294,"current_range_meters":12800,"station_id":"ce4bhgh2rcd13ifvqfb0","pricing_plan_id":"cebpf4jnsgd1na2vs0mg"},{"bike_id":"dd70e415-320e-4575-be7b-efcd0b298b37","system_id":"levelo_inurba_marseille","lat":43.29775,"lon":5.39338,"is_reserved":false,"is_disabled":false,"rental_uris":{"android":"levelo://app?vid=dd70e415-320e-4575-be7b-efcd0b298b37","ios":"levelo://app?vid=dd70e415-320e-4575-be7b-efcd0b298b37"},"vehicle_type_id":"4","last_reported":1741094294,"current_range_meters":12800,"station_id":"chh1huq6cuj3fo74tm60","pricing_plan_id":"cebpf4jnsgd1na2vs0mg"},{"bike_id":"27a00b35-b347-4c02-8ea7-68380df81ea7","system_id":"levelo_inurba_marseille","lat":43.24383,"lon":5.37061,"is_reserved":false,"is_disabled":false,"rental_uris":{"android":"levelo://app?vid=27a00b35-b347-4c02-8ea7-68380df81ea7","ios":"levelo://app?vid=27a00b35-b347-4c02-8ea7-68380df81ea7"},"vehicle_type_id":"4","last_reported":1741094294,"current_range_meters":12800,"station_id":"ce4bhhh2rcd13ifvqfk0","pricing_plan_id":"cebpf4jnsgd1na2vs0mg"},{"bike_id":"ebdd20df-967d-4d62-9608-54006cfcb6fa","system_id":"levelo_inurba_marseille","lat":43.26492,"lon":5.3956,"is_reserved":false,"is_disabled":false,"rental_uris":{"android":"levelo://app?vid=ebdd20df-967d-4d62-9608-54006cfcb6fa","ios":"levelo://app?vid=ebdd20df-967d-4d62-9608-54006cfcb6fa"},"vehicle_type_id":"4","last_reported":1741094294,"current_range_meters":12800,"station_id":"ce4bhi12rcd13ifvqfq0","pricing_plan_id":"cebpf4jnsgd1na2vs0mg"},{"bike_id":"2d820158-cdc9-4926-8289-9dabc8812ca3","system_id":"levelo_inurba_marseille","lat":43.23161,"lon":5.43719,"is_reserved":false,"is_disabled":false,"rental_uris":{"android":"levelo://app?vid=2d820158-cdc9-4926-8289-9dabc8812ca3","ios":"levelo://app?vid=2d820158-cdc9-4926-8289-9dabc8812ca3"},"vehicle_type_id":"4","last_reported":1741094294,"current_range_meters":12800,"station_id":"ce4bhmp2rcd13ifvqgog","pricing_plan_id":"cebpf4jnsgd1na2vs0mg"},{"bike_id":"18ffc8ee-572f-4f9f-aea0-f99d011c795b","system_id":"levelo_inurba_marseille","lat":43.27065,"lon":5.40261,"is_reserved":false,"is_disabled":false,"rental_uris":{"android":"levelo://app?vid=18ffc8ee-572f-4f9f-aea0-f99d011c795b","ios":"levelo://app?vid=18ffc8ee-572f-4f9f-aea0-f99d011c795b"},"vehicle_type_id":"4","last_reported":1741094294,"current_range_meters":12800,"station_id":"ce4bhk92rcd13ifvqgc0","pricing_plan_id":"cebpf4jnsgd1na2vs0mg"},{"bike_id":"29888267-c32a-4b4c-94a1-334a1eb072d5","system_id":"levelo_inurba_marseille","lat":43.326575,"lon":5.40991,"is_reserved":false,"is_disabled":false,"rental_uris":{"android":"levelo://app?vid=29888267-c32a-4b4c-94a1-334a1eb072d5","ios":"levelo://app?vid=29888267-c32a-4b4c-94a1-334a1eb072d5"},"vehicle_type_id":"4","last_reported":1741094294,"current_range_meters":12400,"station_id":"ce4bhpp2rcd13ifvqhgg","pricing_plan_id":"cebpf4jnsgd1na2vs0mg"},{"bike_id":"95e78016-f0c4-493e-a34d-250e6be396b3","system_id":"levelo_inurba_marseille","lat":43.23195,"lon":5.35547,"is_reserved":false,"is_disabled":false,"rental_uris":{"android":"levelo://app?vid=95e78016-f0c4-493e-a34d-250e6be396b3","ios":"levelo://app?vid=95e78016-f0c4-493e-a34d-250e6be396b3"},"vehicle_type_id":"4","last_reported":1741094294,"current_range_meters":12800,"station_id":"ce4bhu92rcd13ifvqi70","pricing_plan_id":"cebpf4jnsgd1na2vs0mg"},{"bike_id":"fca0b775-20ea-49a8-aadf-ad59ce9611fa","system_id":"levelo_inurba_marseille","lat":43.30882,"lon":5.39625,"is_reserved":false,"is_disabled":false,"rental_uris":{"android":"levelo://app?vid=fca0b775-20ea-49a8-aadf-ad59ce9611fa","ios":"levelo://app?vid=fca0b775-20ea-49a8-aadf-ad59ce9611fa"},"vehicle_type_id":"4","last_reported":1741094294,"current_range_meters":13600,"station_id":"ce4bh012rcd13ifvqcv0","pricing_plan_id":"cebpf4jnsgd1na2vs0mg"},{"bike_id":"2c5a92f4-a231-41f0-933a-ac5f26be730a","system_id":"levelo_inurba_marseille","lat":43.301412,"lon":5.374137,"is_reserved":false,"is_disabled":false,"rental_uris":{"android":"levelo://app?vid=2c5a92f4-a231-41f0-933a-ac5f26be730a","ios":"levelo://app?vid=2c5a92f4-a231-41f0-933a-ac5f26be730a"},"vehicle_type_id":"4","last_reported":1741094294,"current_range_meters":13600,"station_id":"ce4bgs92rcd13ifvqcc0","pricing_plan_id":"cebpf4jnsgd1na2vs0mg"},{"bike_id":"5e8b46a3-f56e-4c74-99c6-8907371b416a","system_id":"levelo_inurba_marseille","lat":43.23185,"lon":5.39987,"is_reserved":false,"is_disabled":false,"rental_uris":{"android":"levelo://app?vid=5e8b46a3-f56e-4c74-99c6-8907371b416a","ios":"levelo://app?vid=5e8b46a3-f56e-4c74-99c6-8907371b416a"},"vehicle_type_id":"4","last_reported":1741094294,"current_range_meters":13600,"station_id":"ce4bhn12rcd13ifvqgqg","pricing_plan_id":"cebpf4jnsgd1na2vs0mg"},{"bike_id":"d9cf9890-acc3-44b6-8072-79fa090cedb5","system_id":"levelo_inurba_marseille","lat":43.303,"lon":5.36866,"is_reserved":false,"is_disabled":false,"rental_uris":{"android":"levelo://app?vid=d9cf9890-acc3-44b6-8072-79fa090cedb5","ios":"levelo://app?vid=d9cf9890-acc3-44b6-8072-79fa090cedb5"},"vehicle_type_id":"4","last_reported":1741094294,"current_range_meters":13600,"station_id":"ce4bgqh2rcd13ifvqc5g","pricing_plan_id":"cebpf4jnsgd1na2vs0mg"},{"bike_id":"c68ff3d4-d75b-4f90-8a75-7218228ed30f","system_id":"levelo_inurba_marseille","lat":43.25818,"lon":5.39428,"is_reserved":false,"is_disabled":false,"rental_uris":{"android":"levelo://app?vid=c68ff3d4-d75b-4f90-8a75-7218228ed30f","ios":"levelo://app?vid=c68ff3d4-d75b-4f90-8a75-7218228ed30f"},"vehicle_type_id":"4","last_reported":1741094294,"current_range_meters":13600,"station_id":"ce4bhip2rcd13ifvqft0","pricing_plan_id":"cebpf4jnsgd1na2vs0mg"},{"bike_id":"e1eaefa0-1b27-429c-8106-1b58c97f5e91","system_id":"levelo_inurba_marseille","lat":43.2691,"lon":5.42067,"is_reserved":false,"is_disabled":false,"rental_uris":{"android":"levelo://app?vid=e1eaefa0-1b27-429c-8106-1b58c97f5e91","ios":"levelo://app?vid=e1eaefa0-1b27-429c-8106-1b58c97f5e91"},"vehicle_type_id":"4","last_reported":1741094294,"current_range_meters":13600,"station_id":"ce4bhk92rcd13ifvqgb0","pricing_plan_id":"cebpf4jnsgd1na2vs0mg"},{"bike_id":"51f6f578-8898-487a-9da7-ff3d6d379d1b","system_id":"levelo_inurba_marseille","lat":43.32135,"lon":5.36767,"is_reserved":false,"is_disabled":false,"rental_uris":{"android":"levelo://app?vid=51f6f578-8898-487a-9da7-ff3d6d379d1b","ios":"levelo://app?vid=51f6f578-8898-487a-9da7-ff3d6d379d1b"},"vehicle_type_id":"4","last_reported":1741094294,"current_range_meters":13600,"station_id":"ce4bhrh2rcd13ifvqhug","pricing_plan_id":"cebpf4jnsgd1na2vs0mg"},{"bike_id":"69f1d854-fe58-43e1-96c7-9bfe722dfe7e","system_id":"levelo_inurba_marseille","lat":43.32562,"lon":5.41448,"is_reserved":false,"is_disabled":false,"rental_uris":{"android":"levelo://app?vid=69f1d854-fe58-43e1-96c7-9bfe722dfe7e","ios":"levelo://app?vid=69f1d854-fe58-43e1-96c7-9bfe722dfe7e"},"vehicle_type_id":"4","last_reported":1741094294,"current_range_meters":13600,"station_id":"ce4bhq12rcd13ifvqhhg","pricing_plan_id":"cebpf4jnsgd1na2vs0mg"},{"bike_id":"81b5e9a6-4d3a-41bc-a414-3c89288fd7d6","system_id":"levelo_inurba_marseille","lat":43.29532,"lon":5.38546,"is_reserved":false,"is_disabled":true,"rental_uris":{"android":"levelo://app?vid=81b5e9a6-4d3a-41bc-a414-3c89288fd7d6","ios":"levelo://app?vid=81b5e9a6-4d3a-41bc-a414-3c89288fd7d6"},"vehicle_type_id":"4","last_reported":1741094294,"current_range_meters":14000,"station_id":"ce4bgih2rcd13ifvqba0","pricing_plan_id":"cebpf4jnsgd1na2vs0mg"},{"bike_id":"53b35001-fee4-4ffd-9b8c-e9c7a76700c3","system_id":"levelo_inurba_marseille","lat":43.23149,"lon":5.43696,"is_reserved":false,"is_disabled":false,"rental_uris":{"android":"levelo://app?vid=53b35001-fee4-4ffd-9b8c-e9c7a76700c3","ios":"levelo://app?vid=53b35001-fee4-4ffd-9b8c-e9c7a76700c3"},"vehicle_type_id":"4","last_reported":1741094294,"current_range_meters":14000,"station_id":"ce4bhmp2rcd13ifvqgog","pricing_plan_id":"cebpf4jnsgd1na2vs0mg"},{"bike_id":"a2b9d686-216a-4f50-ae4b-e7710a444cd6","system_id":"levelo_inurba_marseille","lat":43.24998,"lon":5.38923,"is_reserved":false,"is_disabled":false,"rental_uris":{"android":"levelo://app?vid=a2b9d686-216a-4f50-ae4b-e7710a444cd6","ios":"levelo://app?vid=a2b9d686-216a-4f50-ae4b-e7710a444cd6"},"vehicle_type_id":"4","last_reported":1741094294,"current_range_meters":14000,"station_id":"ce4bhgp2rcd13ifvqfd0","pricing_plan_id":"cebpf4jnsgd1na2vs0mg"},{"bike_id":"ab07aa7b-1b88-47ac-904b-9738dbea3094","system_id":"levelo_inurba_marseille","lat":43.29004,"lon":5.35618,"is_reserved":false,"is_disabled":false,"rental_uris":{"android":"levelo://app?vid=ab07aa7b-1b88-47ac-904b-9738dbea3094","ios":"levelo://app?vid=ab07aa7b-1b88-47ac-904b-9738dbea3094"},"vehicle_type_id":"4","last_reported":1741094294,"current_range_meters":14000,"station_id":"ce4bhb92rcd13ifvqen0","pricing_plan_id":"cebpf4jnsgd1na2vs0mg"},{"bike_id":"656d8d11-eb5e-4999-aa0f-88b10b5a9d47","system_id":"levelo_inurba_marseille","lat":43.27613,"lon":5.36104,"is_reserved":false,"is_disabled":false,"rental_uris":{"android":"levelo://app?vid=656d8d11-eb5e-4999-aa0f-88b10b5a9d47","ios":"levelo://app?vid=656d8d11-eb5e-4999-aa0f-88b10b5a9d47"},"vehicle_type_id":"4","last_reported":1741094294,"current_range_meters":14400,"station_id":"ce4bgj92rcd13ifvqbe0","pricing_plan_id":"cebpf4jnsgd1na2vs0mg"},{"bike_id":"b2739caf-39fc-4b3d-90ab-4a81a5790b7d","system_id":"levelo_inurba_marseille","lat":43.2466,"lon":5.38168,"is_reserved":false,"is_disabled":false,"rental_uris":{"android":"levelo://app?vid=b2739caf-39fc-4b3d-90ab-4a81a5790b7d","ios":"levelo://app?vid=b2739caf-39fc-4b3d-90ab-4a81a5790b7d"},"vehicle_type_id":"4","last_reported":1741094294,"current_range_meters":14400,"station_id":"ce4bhih2rcd13ifvqfr0","pricing_plan_id":"cebpf4jnsgd1na2vs0mg"},{"bike_id":"e165cb9c-7ce4-4697-a9a2-7f0cac595e9c","system_id":"levelo_inurba_marseille","lat":43.30543,"lon":5.36698,"is_reserved":false,"is_disabled":false,"rental_uris":{"android":"levelo://app?vid=e165cb9c-7ce4-4697-a9a2-7f0cac595e9c","ios":"levelo://app?vid=e165cb9c-7ce4-4697-a9a2-7f0cac595e9c"},"vehicle_type_id":"4","last_reported":1741094294,"current_range_meters":14400,"station_id":"ce4bgrp2rcd13ifvqc9g","pricing_plan_id":"cebpf4jnsgd1na2vs0mg"},{"bike_id":"bfca680c-b039-42cb-9c68-3e2589274110","system_id":"levelo_inurba_marseille","lat":43.32049,"lon":5.41554,"is_reserved":false,"is_disabled":false,"rental_uris":{"android":"levelo://app?vid=bfca680c-b039-42cb-9c68-3e2589274110","ios":"levelo://app?vid=bfca680c-b039-42cb-9c68-3e2589274110"},"vehicle_type_id":"4","last_reported":1741094294,"current_range_meters":14800,"station_id":"ce4bhq92rcd13ifvqhkg","pricing_plan_id":"cebpf4jnsgd1na2vs0mg"},{"bike_id":"eb017b8f-3af5-4ac8-a48a-db029d6a5993","system_id":"levelo_inurba_marseille","lat":43.31395,"lon":5.4028,"is_reserved":false,"is_disabled":false,"rental_uris":{"android":"levelo://app?vid=eb017b8f-3af5-4ac8-a48a-db029d6a5993","ios":"levelo://app?vid=eb017b8f-3af5-4ac8-a48a-db029d6a5993"},"vehicle_type_id":"4","last_reported":1741094294,"current_range_meters":14800,"station_id":"","pricing_plan_id":"cebpf4jnsgd1na2vs0mg"},{"bike_id":"e25be92b-5823-4c40-a333-518c81e1dda2","system_id":"levelo_inurba_marseille","lat":43.29265,"lon":5.37603,"is_reserved":false,"is_disabled":false,"rental_uris":{"android":"levelo://app?vid=e25be92b-5823-4c40-a333-518c81e1dda2","ios":"levelo://app?vid=e25be92b-5823-4c40-a333-518c81e1dda2"},"vehicle_type_id":"4","last_reported":1741094294,"current_range_meters":14800,"station_id":"ce4bgi12rcd13ifvqb80","pricing_plan_id":"cebpf4jnsgd1na2vs0mg"},{"bike_id":"b4f28f2a-407f-4a05-af20-780477c6fe00","system_id":"levelo_inurba_marseille","lat":43.25017,"lon":5.38914,"is_reserved":false,"is_disabled":false,"rental_uris":{"android":"levelo://app?vid=b4f28f2a-407f-4a05-af20-780477c6fe00","ios":"levelo://app?vid=b4f28f2a-407f-4a05-af20-780477c6fe00"},"vehicle_type_id":"4","last_reported":1741094294,"current_range_meters":14800,"station_id":"ce4bhgp2rcd13ifvqfd0","pricing_plan_id":"cebpf4jnsgd1na2vs0mg"},{"bike_id":"4fc6e71c-d012-4f69-b598-c961f4c7820c","system_id":"levelo_inurba_marseille","lat":43.26493,"lon":5.39551,"is_reserved":false,"is_disabled":false,"rental_uris":{"android":"levelo://app?vid=4fc6e71c-d012-4f69-b598-c961f4c7820c","ios":"levelo://app?vid=4fc6e71c-d012-4f69-b598-c961f4c7820c"},"vehicle_type_id":"4","last_reported":1741094294,"current_range_meters":14800,"station_id":"ce4bhi12rcd13ifvqfq0","pricing_plan_id":"cebpf4jnsgd1na2vs0mg"},{"bike_id":"c840bf67-8766-42fa-a793-52a0ccbd5077","system_id":"levelo_inurba_marseille","lat":43.31378,"lon":5.36685,"is_reserved":false,"is_disabled":false,"rental_uris":{"android":"levelo://app?vid=c840bf67-8766-42fa-a793-52a0ccbd5077","ios":"levelo://app?vid=c840bf67-8766-42fa-a793-52a0ccbd5077"},"vehicle_type_id":"4","last_reported":1741094294,"current_range_meters":14800,"station_id":"ce4bgr92rcd13ifvqc6g","pricing_plan_id":"cebpf4jnsgd1na2vs0mg"},{"bike_id":"f8b34b05-3ce8-4023-b46a-493d367bd4f6","system_id":"levelo_inurba_marseille","lat":43.27191,"lon":5.40987,"is_reserved":false,"is_disabled":false,"rental_uris":{"android":"levelo://app?vid=f8b34b05-3ce8-4023-b46a-493d367bd4f6","ios":"levelo://app?vid=f8b34b05-3ce8-4023-b46a-493d367bd4f6"},"vehicle_type_id":"4","last_reported":1741094294,"current_range_meters":14800,"station_id":"ce4bhl12rcd13ifvqgf0","pricing_plan_id":"cebpf4jnsgd1na2vs0mg"},{"bike_id":"e71f5a64-a997-4811-9f57-17d8837038de","system_id":"levelo_inurba_marseille","lat":43.28399,"lon":5.37524,"is_reserved":false,"is_disabled":false,"rental_uris":{"android":"levelo://app?vid=e71f5a64-a997-4811-9f57-17d8837038de","ios":"levelo://app?vid=e71f5a64-a997-4811-9f57-17d8837038de"},"vehicle_type_id":"4","last_reported":1741094294,"current_range_meters":14800,"station_id":"ce4bh412rcd13ifvqds0","pricing_plan_id":"cebpf4jnsgd1na2vs0mg"},{"bike_id":"0eb9fef3-83c8-47c8-ad9e-cfe2998c47d1","system_id":"levelo_inurba_marseille","lat":43.31056,"lon":5.37563,"is_reserved":false,"is_disabled":false,"rental_uris":{"android":"levelo://app?vid=0eb9fef3-83c8-47c8-ad9e-cfe2998c47d1","ios":"levelo://app?vid=0eb9fef3-83c8-47c8-ad9e-cfe2998c47d1"},"vehicle_type_id":"4","last_reported":1741094294,"current_range_meters":15200,"station_id":"","pricing_plan_id":"cebpf4jnsgd1na2vs0mg"},{"bike_id":"8ef12c96-4a02-4ab6-af53-ca8fd7864c6a","system_id":"levelo_inurba_marseille","lat":43.30939,"lon":5.38985,"is_reserved":false,"is_disabled":false,"rental_uris":{"android":"levelo://app?vid=8ef12c96-4a02-4ab6-af53-ca8fd7864c6a","ios":"levelo://app?vid=8ef12c96-4a02-4ab6-af53-ca8fd7864c6a"},"vehicle_type_id":"4","last_reported":1741094294,"current_range_meters":15200,"station_id":"ce4bgup2rcd13ifvqco0","pricing_plan_id":"cebpf4jnsgd1na2vs0mg"},{"bike_id":"d4781131-97f9-4c2b-9f21-cc40dcda1d9e","system_id":"levelo_inurba_marseille","lat":43.24018,"lon":5.37692,"is_reserved":false,"is_disabled":false,"rental_uris":{"android":"levelo://app?vid=d4781131-97f9-4c2b-9f21-cc40dcda1d9e","ios":"levelo://app?vid=d4781131-97f9-4c2b-9f21-cc40dcda1d9e"},"vehicle_type_id":"4","last_reported":1741094294,"current_range_meters":15200,"station_id":"","pricing_plan_id":"cebpf4jnsgd1na2vs0mg"},{"bike_id":"e2561f86-c403-4b29-a057-bfc8bac05a51","system_id":"levelo_inurba_marseille","lat":43.30141,"lon":5.37364,"is_reserved":false,"is_disabled":false,"rental_uris":{"android":"levelo://app?vid=e2561f86-c403-4b29-a057-bfc8bac05a51","ios":"levelo://app?vid=e2561f86-c403-4b29-a057-bfc8bac05a51"},"vehicle_type_id":"4","last_reported":1741094294,"current_range_meters":15200,"station_id":"ce4bgs92rcd13ifvqcc0","pricing_plan_id":"cebpf4jnsgd1na2vs0mg"},{"bike_id":"af2792c1-6e79-45cb-af48-3a030d597509","system_id":"levelo_inurba_marseille","lat":43.27051,"lon":5.40262,"is_reserved":false,"is_disabled":false,"rental_uris":{"android":"levelo://app?vid=af2792c1-6e79-45cb-af48-3a030d597509","ios":"levelo://app?vid=af2792c1-6e79-45cb-af48-3a030d597509"},"vehicle_type_id":"4","last_reported":1741094294,"current_range_meters":15200,"station_id":"ce4bhk92rcd13ifvqgc0","pricing_plan_id":"cebpf4jnsgd1na2vs0mg"},{"bike_id":"9b1b4e15-5352-4f47-b22b-101c1223001a","system_id":"levelo_inurba_marseille","lat":43.28477,"lon":5.38559,"is_reserved":false,"is_disabled":false,"rental_uris":{"android":"levelo://app?vid=9b1b4e15-5352-4f47-b22b-101c1223001a","ios":"levelo://app?vid=9b1b4e15-5352-4f47-b22b-101c1223001a"},"vehicle_type_id":"4","last_reported":1741094294,"current_range_meters":15200,"station_id":"ce4bh8p2rcd13ifvqeb0","pricing_plan_id":"cebpf4jnsgd1na2vs0mg"},{"bike_id":"3e7808f3-0c04-4991-9bad-c2eb66a1ffd3","system_id":"levelo_inurba_marseille","lat":43.23137,"lon":5.43716,"is_reserved":false,"is_disabled":false,"rental_uris":{"android":"levelo://app?vid=3e7808f3-0c04-4991-9bad-c2eb66a1ffd3","ios":"levelo://app?vid=3e7808f3-0c04-4991-9bad-c2eb66a1ffd3"},"vehicle_type_id":"4","last_reported":1741094294,"current_range_meters":15200,"station_id":"ce4bhmp2rcd13ifvqgog","pricing_plan_id":"cebpf4jnsgd1na2vs0mg"},{"bike_id":"6406426b-271e-4c15-9a38-01416d8ce390","system_id":"levelo_inurba_marseille","lat":43.28616,"lon":5.3511,"is_reserved":false,"is_disabled":false,"rental_uris":{"android":"levelo://app?vid=6406426b-271e-4c15-9a38-01416d8ce390","ios":"levelo://app?vid=6406426b-271e-4c15-9a38-01416d8ce390"},"vehicle_type_id":"4","last_reported":1741094294,"current_range_meters":15200,"station_id":"ce4bhch2rcd13ifvqeug","pricing_plan_id":"cebpf4jnsgd1na2vs0mg"},{"bike_id":"08e28076-e4cc-4bb3-b2d6-53a65e282a52","system_id":"levelo_inurba_marseille","lat":43.2316,"lon":5.43702,"is_reserved":false,"is_disabled":false,"rental_uris":{"android":"levelo://app?vid=08e28076-e4cc-4bb3-b2d6-53a65e282a52","ios":"levelo://app?vid=08e28076-e4cc-4bb3-b2d6-53a65e282a52"},"vehicle_type_id":"4","last_reported":1741094294,"current_range_meters":16000,"station_id":"ce4bhmp2rcd13ifvqgog","pricing_plan_id":"cebpf4jnsgd1na2vs0mg"},{"bike_id":"48a285ca-186e-4702-b73d-eff66aa5f54d","system_id":"levelo_inurba_marseille","lat":43.27065,"lon":5.40257,"is_reserved":false,"is_disabled":false,"rental_uris":{"android":"levelo://app?vid=48a285ca-186e-4702-b73d-eff66aa5f54d","ios":"levelo://app?vid=48a285ca-186e-4702-b73d-eff66aa5f54d"},"vehicle_type_id":"4","last_reported":1741094294,"current_range_meters":16000,"station_id":"ce4bhk92rcd13ifvqgc0","pricing_plan_id":"cebpf4jnsgd1na2vs0mg"},{"bike_id":"6dcbfb2b-4676-4562-8867-6903e4380b81","system_id":"levelo_inurba_marseille","lat":43.29873,"lon":5.3973,"is_reserved":false,"is_disabled":false,"rental_uris":{"android":"levelo://app?vid=6dcbfb2b-4676-4562-8867-6903e4380b81","ios":"levelo://app?vid=6dcbfb2b-4676-4562-8867-6903e4380b81"},"vehicle_type_id":"4","last_reported":1741094294,"current_range_meters":16000,"station_id":"ce4bh0h2rcd13ifvqd50","pricing_plan_id":"cebpf4jnsgd1na2vs0mg"},{"bike_id":"7cd5e07c-ad2a-4af8-99d9-77c41335ce79","system_id":"levelo_inurba_marseille","lat":43.2416,"lon":5.36399,"is_reserved":false,"is_disabled":false,"rental_uris":{"android":"levelo://app?vid=7cd5e07c-ad2a-4af8-99d9-77c41335ce79","ios":"levelo://app?vid=7cd5e07c-ad2a-4af8-99d9-77c41335ce79"},"vehicle_type_id":"4","last_reported":1741094294,"current_range_meters":16000,"station_id":"cpo36qri1sfpv3e86is0","pricing_plan_id":"cebpf4jnsgd1na2vs0mg"},{"bike_id":"d571166c-77a4-4a91-b051-9cc34ad31336","system_id":"levelo_inurba_marseille","lat":43.30211,"lon":5.3931,"is_reserved":false,"is_disabled":false,"rental_uris":{"android":"levelo://app?vid=d571166c-77a4-4a91-b051-9cc34ad31336","ios":"levelo://app?vid=d571166c-77a4-4a91-b051-9cc34ad31336"},"vehicle_type_id":"4","last_reported":1741094294,"current_range_meters":16000,"station_id":"","pricing_plan_id":"cebpf4jnsgd1na2vs0mg"},{"bike_id":"03d5bd23-db2c-4a3d-9573-a1403447f741","system_id":"levelo_inurba_marseille","lat":43.27822,"lon":5.40713,"is_reserved":false,"is_disabled":false,"rental_uris":{"android":"levelo://app?vid=03d5bd23-db2c-4a3d-9573-a1403447f741","ios":"levelo://app?vid=03d5bd23-db2c-4a3d-9573-a1403447f741"},"vehicle_type_id":"4","last_reported":1741094294,"current_range_meters":16000,"station_id":"ce4bhnh2rcd13ifvqgtg","pricing_plan_id":"cebpf4jnsgd1na2vs0mg"},{"bike_id":"4167f6bd-40b7-45c1-950d-68f467926bd6","system_id":"levelo_inurba_marseille","lat":43.28975,"lon":5.37845,"is_reserved":false,"is_disabled":true,"rental_uris":{"android":"levelo://app?vid=4167f6bd-40b7-45c1-950d-68f467926bd6","ios":"levelo://app?vid=4167f6bd-40b7-45c1-950d-68f467926bd6"},"vehicle_type_id":"4","last_reported":1741094294,"current_range_meters":16000,"station_id":"ce4bh9p2rcd13ifvqed0","pricing_plan_id":"cebpf4jnsgd1na2vs0mg"},{"bike_id":"4136c3a3-e2c9-40d6-88ac-a5d6131f349a","system_id":"levelo_inurba_marseille","lat":43.29796,"lon":5.38105,"is_reserved":false,"is_disabled":false,"rental_uris":{"android":"levelo://app?vid=4136c3a3-e2c9-40d6-88ac-a5d6131f349a","ios":"levelo://app?vid=4136c3a3-e2c9-40d6-88ac-a5d6131f349a"},"vehicle_type_id":"4","last_reported":1741094294,"current_range_meters":16000,"station_id":"ce4bgip2rcd13ifvqbb0","pricing_plan_id":"cebpf4jnsgd1na2vs0mg"},{"bike_id":"2ce061b9-e530-464d-b6bc-965d4a9c7be8","system_id":"levelo_inurba_marseille","lat":43.33412,"lon":5.40051,"is_reserved":false,"is_disabled":false,"rental_uris":{"android":"levelo://app?vid=2ce061b9-e530-464d-b6bc-965d4a9c7be8","ios":"levelo://app?vid=2ce061b9-e530-464d-b6bc-965d4a9c7be8"},"vehicle_type_id":"4","last_reported":1741094294,"current_range_meters":16000,"station_id":"","pricing_plan_id":"cebpf4jnsgd1na2vs0mg"},{"bike_id":"e96e0c5f-d0e5-478b-b4aa-43a39d7ff26e","system_id":"levelo_inurba_marseille","lat":43.32356,"lon":5.36758,"is_reserved":false,"is_disabled":false,"rental_uris":{"android":"levelo://app?vid=e96e0c5f-d0e5-478b-b4aa-43a39d7ff26e","ios":"levelo://app?vid=e96e0c5f-d0e5-478b-b4aa-43a39d7ff26e"},"vehicle_type_id":"4","last_reported":1741094294,"current_range_meters":16000,"station_id":"ce4bhsh2rcd13ifvqi2g","pricing_plan_id":"cebpf4jnsgd1na2vs0mg"},{"bike_id":"d2b82835-4deb-49e7-b234-0075ac4edbda","system_id":"levelo_inurba_marseille","lat":43.31325,"lon":5.39696,"is_reserved":false,"is_disabled":false,"rental_uris":{"android":"levelo://app?vid=d2b82835-4deb-49e7-b234-0075ac4edbda","ios":"levelo://app?vid=d2b82835-4deb-49e7-b234-0075ac4edbda"},"vehicle_type_id":"4","last_reported":1741094294,"current_range_meters":15200,"station_id":"ce4bgvp2rcd13ifvqcu0","pricing_plan_id":"cebpf4jnsgd1na2vs0mg"},{"bike_id":"d1dfb0b4-7760-400b-b437-85c24c17b5f7","system_id":"levelo_inurba_marseille","lat":43.23971,"lon":5.36619,"is_reserved":false,"is_disabled":false,"rental_uris":{"android":"levelo://app?vid=d1dfb0b4-7760-400b-b437-85c24c17b5f7","ios":"levelo://app?vid=d1dfb0b4-7760-400b-b437-85c24c17b5f7"},"vehicle_type_id":"4","last_reported":1741094294,"current_range_meters":16000,"station_id":"ce4bhi12rcd13ifvqfp0","pricing_plan_id":"cebpf4jnsgd1na2vs0mg"},{"bike_id":"4ead3cf7-030a-48ef-8e3f-f442056c69b3","system_id":"levelo_inurba_marseille","lat":43.30473,"lon":5.37922,"is_reserved":false,"is_disabled":false,"rental_uris":{"android":"levelo://app?vid=4ead3cf7-030a-48ef-8e3f-f442056c69b3","ios":"levelo://app?vid=4ead3cf7-030a-48ef-8e3f-f442056c69b3"},"vehicle_type_id":"4","last_reported":1741094294,"current_range_meters":16400,"station_id":"ce4bgup2rcd13ifvqcn0","pricing_plan_id":"cebpf4jnsgd1na2vs0mg"},{"bike_id":"56f807c6-3a2a-48f0-b6b7-8d1081332169","system_id":"levelo_inurba_marseille","lat":43.31428,"lon":5.36619,"is_reserved":false,"is_disabled":false,"rental_uris":{"android":"levelo://app?vid=56f807c6-3a2a-48f0-b6b7-8d1081332169","ios":"levelo://app?vid=56f807c6-3a2a-48f0-b6b7-8d1081332169"},"vehicle_type_id":"4","last_reported":1741094294,"current_range_meters":16400,"station_id":"","pricing_plan_id":"cebpf4jnsgd1na2vs0mg"},{"bike_id":"3c7dd7dc-5dfd-4a01-914a-712e6bf81f06","system_id":"levelo_inurba_marseille","lat":43.26788,"lon":5.39415,"is_reserved":false,"is_disabled":false,"rental_uris":{"android":"levelo://app?vid=3c7dd7dc-5dfd-4a01-914a-712e6bf81f06","ios":"levelo://app?vid=3c7dd7dc-5dfd-4a01-914a-712e6bf81f06"},"vehicle_type_id":"4","last_reported":1741094294,"current_range_meters":16400,"station_id":"ce4bhh12rcd13ifvqfg0","pricing_plan_id":"cebpf4jnsgd1na2vs0mg"},{"bike_id":"28096b7f-96ae-4ea2-8ceb-2396385a6306","system_id":"levelo_inurba_marseille","lat":43.24646,"lon":5.38901,"is_reserved":false,"is_disabled":true,"rental_uris":{"android":"levelo://app?vid=28096b7f-96ae-4ea2-8ceb-2396385a6306","ios":"levelo://app?vid=28096b7f-96ae-4ea2-8ceb-2396385a6306"},"vehicle_type_id":"4","last_reported":1741094294,"current_range_meters":16400,"station_id":"ce4bhg12rcd13ifvqf60","pricing_plan_id":"cebpf4jnsgd1na2vs0mg"},{"bike_id":"25e0801b-5bf7-4692-a6f0-70efbfeef5b6","system_id":"levelo_inurba_marseille","lat":43.30154,"lon":5.38094,"is_reserved":false,"is_disabled":false,"rental_uris":{"android":"levelo://app?vid=25e0801b-5bf7-4692-a6f0-70efbfeef5b6","ios":"levelo://app?vid=25e0801b-5bf7-4692-a6f0-70efbfeef5b6"},"vehicle_type_id":"4","last_reported":1741094294,"current_range_meters":16400,"station_id":"ce4bgjp2rcd13ifvqbh0","pricing_plan_id":"cebpf4jnsgd1na2vs0mg"},{"bike_id":"9a6b1dcb-3594-4bb4-ab0b-6b30c24a905b","system_id":"levelo_inurba_marseille","lat":43.23149,"lon":5.43716,"is_reserved":false,"is_disabled":false,"rental_uris":{"android":"levelo://app?vid=9a6b1dcb-3594-4bb4-ab0b-6b30c24a905b","ios":"levelo://app?vid=9a6b1dcb-3594-4bb4-ab0b-6b30c24a905b"},"vehicle_type_id":"4","last_reported":1741094294,"current_range_meters":16400,"station_id":"ce4bhmp2rcd13ifvqgog","pricing_plan_id":"cebpf4jnsgd1na2vs0mg"},{"bike_id":"bdc1923f-1e1e-432c-9ad8-6f64ddc3107b","system_id":"levelo_inurba_marseille","lat":43.30885,"lon":5.37189,"is_reserved":false,"is_disabled":false,"rental_uris":{"android":"levelo://app?vid=bdc1923f-1e1e-432c-9ad8-6f64ddc3107b","ios":"levelo://app?vid=bdc1923f-1e1e-432c-9ad8-6f64ddc3107b"},"vehicle_type_id":"4","last_reported":1741094294,"current_range_meters":16400,"station_id":"ce4bguh2rcd13ifvqckg","pricing_plan_id":"cebpf4jnsgd1na2vs0mg"},{"bike_id":"47c864c0-d281-4491-94bc-a766b53224b7","system_id":"levelo_inurba_marseille","lat":43.27052,"lon":5.4027,"is_reserved":false,"is_disabled":false,"rental_uris":{"android":"levelo://app?vid=47c864c0-d281-4491-94bc-a766b53224b7","ios":"levelo://app?vid=47c864c0-d281-4491-94bc-a766b53224b7"},"vehicle_type_id":"4","last_reported":1741094294,"current_range_meters":16400,"station_id":"ce4bhk92rcd13ifvqgc0","pricing_plan_id":"cebpf4jnsgd1na2vs0mg"},{"bike_id":"d84f5cf5-18c9-4ae2-afdb-e75de9700c50","system_id":"levelo_inurba_marseille","lat":43.31321,"lon":5.39702,"is_reserved":false,"is_disabled":false,"rental_uris":{"android":"levelo://app?vid=d84f5cf5-18c9-4ae2-afdb-e75de9700c50","ios":"levelo://app?vid=d84f5cf5-18c9-4ae2-afdb-e75de9700c50"},"vehicle_type_id":"4","last_reported":1741094294,"current_range_meters":16400,"station_id":"ce4bgvp2rcd13ifvqcu0","pricing_plan_id":"cebpf4jnsgd1na2vs0mg"},{"bike_id":"4d4e5c64-3576-46f5-a6ab-213eaa69e385","system_id":"levelo_inurba_marseille","lat":43.2583,"lon":5.39445,"is_reserved":false,"is_disabled":false,"rental_uris":{"android":"levelo://app?vid=4d4e5c64-3576-46f5-a6ab-213eaa69e385","ios":"levelo://app?vid=4d4e5c64-3576-46f5-a6ab-213eaa69e385"},"vehicle_type_id":"4","last_reported":1741094294,"current_range_meters":16800,"station_id":"ce4bhip2rcd13ifvqft0","pricing_plan_id":"cebpf4jnsgd1na2vs0mg"},{"bike_id":"3e135175-a584-45b5-9af8-a6d6ed2c40d5","system_id":"levelo_inurba_marseille","lat":43.3021,"lon":5.39469,"is_reserved":false,"is_disabled":false,"rental_uris":{"android":"levelo://app?vid=3e135175-a584-45b5-9af8-a6d6ed2c40d5","ios":"levelo://app?vid=3e135175-a584-45b5-9af8-a6d6ed2c40d5"},"vehicle_type_id":"4","last_reported":1741094294,"current_range_meters":16800,"station_id":"ce4bh0p2rcd13ifvqd70","pricing_plan_id":"cebpf4jnsgd1na2vs0mg"},{"bike_id":"3511f932-d437-4441-ad29-aa2f3b0e5a4c","system_id":"levelo_inurba_marseille","lat":43.25105,"lon":5.40336,"is_reserved":false,"is_disabled":false,"rental_uris":{"android":"levelo://app?vid=3511f932-d437-4441-ad29-aa2f3b0e5a4c","ios":"levelo://app?vid=3511f932-d437-4441-ad29-aa2f3b0e5a4c"},"vehicle_type_id":"4","last_reported":1741094294,"current_range_meters":16800,"station_id":"ce4bhlh2rcd13ifvqgig","pricing_plan_id":"cebpf4jnsgd1na2vs0mg"},{"bike_id":"8b7b3e92-fc3d-4aa6-9b62-d67a99ca8207","system_id":"levelo_inurba_marseille","lat":43.27503,"lon":5.42451,"is_reserved":false,"is_disabled":false,"rental_uris":{"android":"levelo://app?vid=8b7b3e92-fc3d-4aa6-9b62-d67a99ca8207","ios":"levelo://app?vid=8b7b3e92-fc3d-4aa6-9b62-d67a99ca8207"},"vehicle_type_id":"4","last_reported":1741094294,"current_range_meters":16800,"station_id":"ce4bhn92rcd13ifvqgrg","pricing_plan_id":"cebpf4jnsgd1na2vs0mg"},{"bike_id":"7836f074-3f4d-42b5-8f12-ea5479fcfeb1","system_id":"levelo_inurba_marseille","lat":43.29798,"lon":5.38095,"is_reserved":false,"is_disabled":false,"rental_uris":{"android":"levelo://app?vid=7836f074-3f4d-42b5-8f12-ea5479fcfeb1","ios":"levelo://app?vid=7836f074-3f4d-42b5-8f12-ea5479fcfeb1"},"vehicle_type_id":"4","last_reported":1741094294,"current_range_meters":16800,"station_id":"ce4bgip2rcd13ifvqbb0","pricing_plan_id":"cebpf4jnsgd1na2vs0mg"},{"bike_id":"2039b274-c2a6-4750-b58f-1d0abeb58b83","system_id":"levelo_inurba_marseille","lat":43.26782,"lon":5.39416,"is_reserved":false,"is_disabled":false,"rental_uris":{"android":"levelo://app?vid=2039b274-c2a6-4750-b58f-1d0abeb58b83","ios":"levelo://app?vid=2039b274-c2a6-4750-b58f-1d0abeb58b83"},"vehicle_type_id":"4","last_reported":1741094294,"current_range_meters":16800,"station_id":"ce4bhh12rcd13ifvqfg0","pricing_plan_id":"cebpf4jnsgd1na2vs0mg"},{"bike_id":"8d94d7f0-3252-44b9-9309-679a2cecae6f","system_id":"levelo_inurba_marseille","lat":43.29918,"lon":5.37496,"is_reserved":false,"is_disabled":false,"rental_uris":{"android":"levelo://app?vid=8d94d7f0-3252-44b9-9309-679a2cecae6f","ios":"levelo://app?vid=8d94d7f0-3252-44b9-9309-679a2cecae6f"},"vehicle_type_id":"4","last_reported":1741094294,"current_range_meters":16800,"station_id":"ce4bgjh2rcd13ifvqbg0","pricing_plan_id":"cebpf4jnsgd1na2vs0mg"},{"bike_id":"02b1e3d8-8bcd-4f45-9092-35fca0678b97","system_id":"levelo_inurba_marseille","lat":43.279846,"lon":5.386791,"is_reserved":false,"is_disabled":false,"rental_uris":{"android":"levelo://app?vid=02b1e3d8-8bcd-4f45-9092-35fca0678b97","ios":"levelo://app?vid=02b1e3d8-8bcd-4f45-9092-35fca0678b97"},"vehicle_type_id":"4","last_reported":1741094294,"current_range_meters":16800,"station_id":"ce4bhg12rcd13ifvqf80","pricing_plan_id":"cebpf4jnsgd1na2vs0mg"},{"bike_id":"0887995a-7163-48cf-a17f-e3237da9ea00","system_id":"levelo_inurba_marseille","lat":43.2318,"lon":5.40014,"is_reserved":false,"is_disabled":false,"rental_uris":{"android":"levelo://app?vid=0887995a-7163-48cf-a17f-e3237da9ea00","ios":"levelo://app?vid=0887995a-7163-48cf-a17f-e3237da9ea00"},"vehicle_type_id":"4","last_reported":1741094294,"current_range_meters":16800,"station_id":"ce4bhn12rcd13ifvqgqg","pricing_plan_id":"cebpf4jnsgd1na2vs0mg"},{"bike_id":"224fd018-a86f-4534-8e05-384a5cd3669a","system_id":"levelo_inurba_marseille","lat":43.31163,"lon":5.38722,"is_reserved":false,"is_disabled":false,"rental_uris":{"android":"levelo://app?vid=224fd018-a86f-4534-8e05-384a5cd3669a","ios":"levelo://app?vid=224fd018-a86f-4534-8e05-384a5cd3669a"},"vehicle_type_id":"4","last_reported":1741094294,"current_range_meters":17200,"station_id":"ce4bgv12rcd13ifvqcp0","pricing_plan_id":"cebpf4jnsgd1na2vs0mg"},{"bike_id":"9f20310a-b1cd-41c7-9836-f34f4f924ab7","system_id":"levelo_inurba_marseille","lat":43.30928,"lon":5.36838,"is_reserved":false,"is_disabled":false,"rental_uris":{"android":"levelo://app?vid=9f20310a-b1cd-41c7-9836-f34f4f924ab7","ios":"levelo://app?vid=9f20310a-b1cd-41c7-9836-f34f4f924ab7"},"vehicle_type_id":"4","last_reported":1741094294,"current_range_meters":17200,"station_id":"ce4bgn92rcd13ifvqbvg","pricing_plan_id":"cebpf4jnsgd1na2vs0mg"},{"bike_id":"d5645a69-7a5f-4024-9cb5-22e03948e850","system_id":"levelo_inurba_marseille","lat":43.29003,"lon":5.35612,"is_reserved":false,"is_disabled":false,"rental_uris":{"android":"levelo://app?vid=d5645a69-7a5f-4024-9cb5-22e03948e850","ios":"levelo://app?vid=d5645a69-7a5f-4024-9cb5-22e03948e850"},"vehicle_type_id":"4","last_reported":1741094294,"current_range_meters":16800,"station_id":"ce4bhb92rcd13ifvqen0","pricing_plan_id":"cebpf4jnsgd1na2vs0mg"},{"bike_id":"c6c2bf89-3ab5-44c3-b4e1-477d02d66d17","system_id":"levelo_inurba_marseille","lat":43.28079,"lon":5.39662,"is_reserved":false,"is_disabled":false,"rental_uris":{"android":"levelo://app?vid=c6c2bf89-3ab5-44c3-b4e1-477d02d66d17","ios":"levelo://app?vid=c6c2bf89-3ab5-44c3-b4e1-477d02d66d17"},"vehicle_type_id":"4","last_reported":1741094294,"current_range_meters":16800,"station_id":"ce4bho12rcd13ifvqh2g","pricing_plan_id":"cebpf4jnsgd1na2vs0mg"},{"bike_id":"22b507dc-75c6-49d7-b84b-513dedaad7cf","system_id":"levelo_inurba_marseille","lat":43.23157,"lon":5.43713,"is_reserved":false,"is_disabled":false,"rental_uris":{"android":"levelo://app?vid=22b507dc-75c6-49d7-b84b-513dedaad7cf","ios":"levelo://app?vid=22b507dc-75c6-49d7-b84b-513dedaad7cf"},"vehicle_type_id":"4","last_reported":1741094294,"current_range_meters":17200,"station_id":"ce4bhmp2rcd13ifvqgog","pricing_plan_id":"cebpf4jnsgd1na2vs0mg"},{"bike_id":"59913f31-a035-4f89-97de-5554ff6a5b2e","system_id":"levelo_inurba_marseille","lat":43.2669,"lon":5.38277,"is_reserved":false,"is_disabled":false,"rental_uris":{"android":"levelo://app?vid=59913f31-a035-4f89-97de-5554ff6a5b2e","ios":"levelo://app?vid=59913f31-a035-4f89-97de-5554ff6a5b2e"},"vehicle_type_id":"4","last_reported":1741094294,"current_range_meters":17200,"station_id":"ce4bhg92rcd13ifvqf90","pricing_plan_id":"cebpf4jnsgd1na2vs0mg"},{"bike_id":"330426bc-0af9-4c3e-8e4c-6ec10833df11","system_id":"levelo_inurba_marseille","lat":43.29903,"lon":5.43686,"is_reserved":false,"is_disabled":false,"rental_uris":{"android":"levelo://app?vid=330426bc-0af9-4c3e-8e4c-6ec10833df11","ios":"levelo://app?vid=330426bc-0af9-4c3e-8e4c-6ec10833df11"},"vehicle_type_id":"4","last_reported":1741094294,"current_range_meters":17200,"station_id":"ce4bhpp2rcd13ifvqhfg","pricing_plan_id":"cebpf4jnsgd1na2vs0mg"},{"bike_id":"b172a1af-b71c-4a2c-8d00-490eb5f19552","system_id":"levelo_inurba_marseille","lat":43.27208,"lon":5.39191,"is_reserved":false,"is_disabled":false,"rental_uris":{"android":"levelo://app?vid=b172a1af-b71c-4a2c-8d00-490eb5f19552","ios":"levelo://app?vid=b172a1af-b71c-4a2c-8d00-490eb5f19552"},"vehicle_type_id":"4","last_reported":1741094294,"current_range_meters":17200,"station_id":"ce4bhhp2rcd13ifvqfm0","pricing_plan_id":"cebpf4jnsgd1na2vs0mg"},{"bike_id":"2aa42611-b92d-451f-9264-4ee7f9248f4e","system_id":"levelo_inurba_marseille","lat":43.30527,"lon":5.3653,"is_reserved":false,"is_disabled":false,"rental_uris":{"android":"levelo://app?vid=2aa42611-b92d-451f-9264-4ee7f9248f4e","ios":"levelo://app?vid=2aa42611-b92d-451f-9264-4ee7f9248f4e"},"vehicle_type_id":"4","last_reported":1741094294,"current_range_meters":17200,"station_id":"ce4bgs12rcd13ifvqcag","pricing_plan_id":"cebpf4jnsgd1na2vs0mg"},{"bike_id":"c6762606-6123-4176-98c0-430a38ac0378","system_id":"levelo_inurba_marseille","lat":43.24789,"lon":5.41202,"is_reserved":false,"is_disabled":false,"rental_uris":{"android":"levelo://app?vid=c6762606-6123-4176-98c0-430a38ac0378","ios":"levelo://app?vid=c6762606-6123-4176-98c0-430a38ac0378"},"vehicle_type_id":"4","last_reported":1741094294,"current_range_meters":17200,"station_id":"","pricing_plan_id":"cebpf4jnsgd1na2vs0mg"},{"bike_id":"ac7baa31-ae66-4425-aba3-960378510363","system_id":"levelo_inurba_marseille","lat":43.33604,"lon":5.41022,"is_reserved":false,"is_disabled":false,"rental_uris":{"android":"levelo://app?vid=ac7baa31-ae66-4425-aba3-960378510363","ios":"levelo://app?vid=ac7baa31-ae66-4425-aba3-960378510363"},"vehicle_type_id":"4","last_reported":1741094294,"current_range_meters":17600,"station_id":"ce4bhqh2rcd13ifvqhmg","pricing_plan_id":"cebpf4jnsgd1na2vs0mg"},{"bike_id":"249e0524-c2cd-4999-9b23-43883eb47095","system_id":"levelo_inurba_marseille","lat":43.29796,"lon":5.38087,"is_reserved":false,"is_disabled":false,"rental_uris":{"android":"levelo://app?vid=249e0524-c2cd-4999-9b23-43883eb47095","ios":"levelo://app?vid=249e0524-c2cd-4999-9b23-43883eb47095"},"vehicle_type_id":"4","last_reported":1741094294,"current_range_meters":17600,"station_id":"ce4bgip2rcd13ifvqbb0","pricing_plan_id":"cebpf4jnsgd1na2vs0mg"},{"bike_id":"cb043aa5-b12e-4484-aef6-71f3828425d0","system_id":"levelo_inurba_marseille","lat":43.27932,"lon":5.41034,"is_reserved":false,"is_disabled":false,"rental_uris":{"android":"levelo://app?vid=cb043aa5-b12e-4484-aef6-71f3828425d0","ios":"levelo://app?vid=cb043aa5-b12e-4484-aef6-71f3828425d0"},"vehicle_type_id":"4","last_reported":1741094294,"current_range_meters":17600,"station_id":"ce4bhnp2rcd13ifvqh0g","pricing_plan_id":"cebpf4jnsgd1na2vs0mg"},{"bike_id":"c9aedfbd-ed4f-4da5-9011-bb295af4e39f","system_id":"levelo_inurba_marseille","lat":43.25927,"lon":5.40903,"is_reserved":false,"is_disabled":false,"rental_uris":{"android":"levelo://app?vid=c9aedfbd-ed4f-4da5-9011-bb295af4e39f","ios":"levelo://app?vid=c9aedfbd-ed4f-4da5-9011-bb295af4e39f"},"vehicle_type_id":"4","last_reported":1741094294,"current_range_meters":17600,"station_id":"ce4bhm92rcd13ifvqglg","pricing_plan_id":"cebpf4jnsgd1na2vs0mg"},{"bike_id":"abfb12fc-aafa-40e9-9f22-17a0dae7031f","system_id":"levelo_inurba_marseille","lat":43.29599,"lon":5.38096,"is_reserved":false,"is_disabled":false,"rental_uris":{"android":"levelo://app?vid=abfb12fc-aafa-40e9-9f22-17a0dae7031f","ios":"levelo://app?vid=abfb12fc-aafa-40e9-9f22-17a0dae7031f"},"vehicle_type_id":"4","last_reported":1741094294,"current_range_meters":17600,"station_id":"ce4bgl12rcd13ifvqbo0","pricing_plan_id":"cebpf4jnsgd1na2vs0mg"},{"bike_id":"52bdb518-b152-48b9-8dfc-5dc8ba501dd9","system_id":"levelo_inurba_marseille","lat":43.30213,"lon":5.39462,"is_reserved":false,"is_disabled":false,"rental_uris":{"android":"levelo://app?vid=52bdb518-b152-48b9-8dfc-5dc8ba501dd9","ios":"levelo://app?vid=52bdb518-b152-48b9-8dfc-5dc8ba501dd9"},"vehicle_type_id":"4","last_reported":1741094294,"current_range_meters":17600,"station_id":"ce4bh0p2rcd13ifvqd70","pricing_plan_id":"cebpf4jnsgd1na2vs0mg"},{"bike_id":"8489dcd2-5990-4a4d-b379-2029d539a5d5","system_id":"levelo_inurba_marseille","lat":43.27835,"lon":5.39216,"is_reserved":false,"is_disabled":false,"rental_uris":{"android":"levelo://app?vid=8489dcd2-5990-4a4d-b379-2029d539a5d5","ios":"levelo://app?vid=8489dcd2-5990-4a4d-b379-2029d539a5d5"},"vehicle_type_id":"4","last_reported":1741094294,"current_range_meters":17200,"station_id":"ce4bhjp2rcd13ifvqga0","pricing_plan_id":"cebpf4jnsgd1na2vs0mg"},{"bike_id":"f6b8e3ef-8327-4bfe-82d9-17fd528df4d1","system_id":"levelo_inurba_marseille","lat":43.28721,"lon":5.37945,"is_reserved":false,"is_disabled":false,"rental_uris":{"android":"levelo://app?vid=f6b8e3ef-8327-4bfe-82d9-17fd528df4d1","ios":"levelo://app?vid=f6b8e3ef-8327-4bfe-82d9-17fd528df4d1"},"vehicle_type_id":"4","last_reported":1741094294,"current_range_meters":18000,"station_id":"ce4bh9p2rcd13ifvqec0","pricing_plan_id":"cebpf4jnsgd1na2vs0mg"},{"bike_id":"ceafbcb3-5253-467f-8d5b-15203ddf6911","system_id":"levelo_inurba_marseille","lat":43.26687,"lon":5.38261,"is_reserved":false,"is_disabled":false,"rental_uris":{"android":"levelo://app?vid=ceafbcb3-5253-467f-8d5b-15203ddf6911","ios":"levelo://app?vid=ceafbcb3-5253-467f-8d5b-15203ddf6911"},