{"last_updated":1753380963,"ttl":60,"version":"2.2","data":{"bikes":[{"bike_id":"86d9b615-762a-42fb-b7c8-9bdec9fbbfc4","system_id":"levelo_inurba_marseille","lat":43.29173,"lon":5.37151,"is_reserved":false,"is_disabled":false,"rental_uris":{"android":"levelo://app?vid=86d9b615-762a-42fb-b7c8-9bdec9fbbfc4","ios":"levelo://app?vid=86d9b615-762a-42fb-b7c8-9bdec9fbbfc4"},"vehicle_type_id":"4","last_reported":1753380964,"current_range_meters":2800,"station_id":"ce4bha92rcd13ifvqeh0","pricing_plan_id":"cebpf4jnsgd1na2vs0mg"},{"bike_id":"d991e267-8093-477d-aa33-51357254af0d","system_id":"levelo_inurba_marseille","lat":43.29526,"lon":5.38532,"is_reserved":false,"is_disabled":false,"rental_uris":{"android":"levelo://app?vid=d991e267-8093-477d-aa33-51357254af0d","ios":"levelo://app?vid=d991e267-8093-477d-aa33-51357254af0d"},"vehicle_type_id":"4","last_reported":1753380964,"current_range_meters":2800,"station_id":"ce4bgih2rcd13ifvqba0","pricing_plan_id":"cebpf4jnsgd1na2vs0mg"},{"bike_id":"8d5859b5-ffb5-470e-9dcc-5d68d46b1015","system_id":"levelo_inurba_marseille","lat":43.28936,"lon":5.36637,"is_reserved":false,"is_disabled":false,"rental_uris":{"android":"levelo://app?vid=8d5859b5-ffb5-470e-9dcc-5d68d46b1015","ios":"levelo://app?vid=8d5859b5-ffb5-470e-9dcc-5d68d46b1015"},"vehicle_type_id":"4","last_reported":1753380964,"current_range_meters":2800,"station_id":"ce4bhap2rcd13ifvqek0","pricing_plan_id":"cebpf4jnsgd1na2vs0mg"},{"bike_id":"452593e4-a068-489b-885d-af0d60935b28","system_id":"levelo_inurba_marseille","lat":43.301509,"lon":5.380932,"is_reserved":false,"is_disabled":false,"rental_uris":{"android":"levelo://app?vid=452593e4-a068-489b-885d-af0d60935b28","ios":"levelo://app?vid=452593e4-a068-489b-885d-af0d60935b28"},"vehicle_type_id":"4","last_reported":1753380964,"current_range_meters":2800,"station_id":"ce4bgjp2rcd13ifvqbh0","pricing_plan_id":"cebpf4jnsgd1na2vs0mg"},{"bike_id":"9ae7d50c-a3ea-4136-8080-315c191e000a","system_id":"levelo_inurba_marseille","lat":43.28755,"lon":5.38417,"is_reserved":false,"is_disabled":false,"rental_uris":{"android":"levelo://app?vid=9ae7d50c-a3ea-4136-8080-315c191e000a","ios":"levelo://app?vid=9ae7d50c-a3ea-4136-8080-315c191e000a"},"vehicle_type_id":"4","last_reported":1753380964,"current_range_meters":3200,"station_id":"","pricing_plan_id":"cebpf4jnsgd1na2vs0mg"},{"bike_id":"1cbae63a-8cc1-4638-8c65-7a60f104e322","system_id":"levelo_inurba_marseille","lat":43.29707,"lon":5.3661,"is_reserved":false,"is_disabled":false,"rental_uris":{"android":"levelo://app?vid=1cbae63a-8cc1-4638-8c65-7a60f104e322","ios":"levelo://app?vid=1cbae63a-8cc1-4638-8c65-7a60f104e322"},"vehicle_type_id":"4","last_reported":1753380964,"current_range_meters":3200,"station_id":"ce4bgn12rcd13ifvqbt0","pricing_plan_id":"cebpf4jnsgd1na2vs0mg"},{"bike_id":"25b8a70c-c443-49f4-b895-9da98007cbfc","system_id":"levelo_inurba_marseille","lat":43.2924,"lon":5.3762,"is_reserved":false,"is_disabled":false,"rental_uris":{"android":"levelo://app?vid=25b8a70c-c443-49f4-b895-9da98007cbfc","ios":"levelo://app?vid=25b8a70c-c443-49f4-b895-9da98007cbfc"},"vehicle_type_id":"4","last_reported":1753380964,"current_range_meters":3200,"station_id":"ce4bgi12rcd13ifvqb80","pricing_plan_id":"cebpf4jnsgd1na2vs0mg"},{"bike_id":"c8cbe188-8c80-4aac-881d-65feb870e521","system_id":"levelo_inurba_marseille","lat":43.32984,"lon":5.38507,"is_reserved":false,"is_disabled":false,"rental_uris":{"android":"levelo://app?vid=c8cbe188-8c80-4aac-881d-65feb870e521","ios":"levelo://app?vid=c8cbe188-8c80-4aac-881d-65feb870e521"},"vehicle_type_id":"4","last_reported":1753380964,"current_range_meters":3200,"station_id":"","pricing_plan_id":"cebpf4jnsgd1na2vs0mg"},{"bike_id":"f347dbd5-96fc-4462-ac6d-ce70103ac70b","system_id":"levelo_inurba_marseille","lat":43.292763,"lon":5.368413,"is_reserved":false,"is_disabled":false,"rental_uris":{"android":"levelo://app?vid=f347dbd5-96fc-4462-ac6d-ce70103ac70b","ios":"levelo://app?vid=f347dbd5-96fc-4462-ac6d-ce70103ac70b"},"vehicle_type_id":"4","last_reported":1753380964,"current_range_meters":3200,"station_id":"","pricing_plan_id":"cebpf4jnsgd1na2vs0mg"},{"bike_id":"12aa18e6-54b4-4f17-8d75-27573f932a0c","system_id":"levelo_inurba_marseille","lat":43.296823,"lon":5.372723,"is_reserved":false,"is_disabled":true,"rental_uris":{"android":"levelo://app?vid=12aa18e6-54b4-4f17-8d75-27573f932a0c","ios":"levelo://app?vid=12aa18e6-54b4-4f17-8d75-27573f932a0c"},"vehicle_type_id":"4","last_reported":1753380964,"current_range_meters":3600,"station_id":"ce4bgk12rcd13ifvqbj0","pricing_plan_id":"cebpf4jnsgd1na2vs0mg"},{"bike_id":"4023483f-3ba3-4c42-9344-97a39fb1ff87","system_id":"levelo_inurba_marseille","lat":43.22504,"lon":5.3478,"is_reserved":false,"is_disabled":false,"rental_uris":{"android":"levelo://app?vid=4023483f-3ba3-4c42-9344-97a39fb1ff87","ios":"levelo://app?vid=4023483f-3ba3-4c42-9344-97a39fb1ff87"},"vehicle_type_id":"4","last_reported":1753380964,"current_range_meters":3600,"station_id":"st_cvj5dfep6f1abm77gieg","pricing_plan_id":"cebpf4jnsgd1na2vs0mg"},{"bike_id":"e835de07-2a0f-4b43-ba70-e4ea7031d392","system_id":"levelo_inurba_marseille","lat":43.22927,"lon":5.35374,"is_reserved":false,"is_disabled":false,"rental_uris":{"android":"levelo://app?vid=e835de07-2a0f-4b43-ba70-e4ea7031d392","ios":"levelo://app?vid=e835de07-2a0f-4b43-ba70-e4ea7031d392"},"vehicle_type_id":"4","last_reported":1753380964,"current_range_meters":3600,"station_id":"cpo3532slgdg3j2ikp40","pricing_plan_id":"cebpf4jnsgd1na2vs0mg"},{"bike_id":"830c320d-0c2c-4fe1-b918-2e20ad536ec5","system_id":"levelo_inurba_marseille","lat":43.28704,"lon":5.37373,"is_reserved":false,"is_disabled":false,"rental_uris":{"android":"levelo://app?vid=830c320d-0c2c-4fe1-b918-2e20ad536ec5","ios":"levelo://app?vid=830c320d-0c2c-4fe1-b918-2e20ad536ec5"},"vehicle_type_id":"4","last_reported":1753380964,"current_range_meters":4000,"station_id":"ce4bh3p2rcd13ifvqdq0","pricing_plan_id":"cebpf4jnsgd1na2vs0mg"},{"bike_id":"ad2b3286-6cc0-43be-83e4-4aab5f18e0e2","system_id":"levelo_inurba_marseille","lat":43.296,"lon":5.381,"is_reserved":false,"is_disabled":false,"rental_uris":{"android":"levelo://app?vid=ad2b3286-6cc0-43be-83e4-4aab5f18e0e2","ios":"levelo://app?vid=ad2b3286-6cc0-43be-83e4-4aab5f18e0e2"},"vehicle_type_id":"4","last_reported":1753380964,"current_range_meters":4000,"station_id":"ce4bgl12rcd13ifvqbo0","pricing_plan_id":"cebpf4jnsgd1na2vs0mg"},{"bike_id":"fc6f1a72-a6b5-4140-9e02-04ac89ed6acb","system_id":"levelo_inurba_marseille","lat":43.251106,"lon":5.403261,"is_reserved":false,"is_disabled":false,"rental_uris":{"android":"levelo://app?vid=fc6f1a72-a6b5-4140-9e02-04ac89ed6acb","ios":"levelo://app?vid=fc6f1a72-a6b5-4140-9e02-04ac89ed6acb"},"vehicle_type_id":"4","last_reported":1753380964,"current_range_meters":4000,"station_id":"ce4bhlh2rcd13ifvqgig","pricing_plan_id":"cebpf4jnsgd1na2vs0mg"},{"bike_id":"9a129edb-b330-4752-9d55-e06811e151ad","system_id":"levelo_inurba_marseille","lat":43.30308,"lon":5.392,"is_reserved":false,"is_disabled":false,"rental_uris":{"android":"levelo://app?vid=9a129edb-b330-4752-9d55-e06811e151ad","ios":"levelo://app?vid=9a129edb-b330-4752-9d55-e06811e151ad"},"vehicle_type_id":"4","last_reported":1753380964,"current_range_meters":4400,"station_id":"ce4bgkh2rcd13ifvqbk0","pricing_plan_id":"cebpf4jnsgd1na2vs0mg"},{"bike_id":"16bbf903-68ef-45a7-a333-245c26006cfb","system_id":"levelo_inurba_marseille","lat":43.28967,"lon":5.3781,"is_reserved":false,"is_disabled":false,"rental_uris":{"android":"levelo://app?vid=16bbf903-68ef-45a7-a333-245c26006cfb","ios":"levelo://app?vid=16bbf903-68ef-45a7-a333-245c26006cfb"},"vehicle_type_id":"4","last_reported":1753380964,"current_range_meters":4000,"station_id":"ce4bh9p2rcd13ifvqed0","pricing_plan_id":"cebpf4jnsgd1na2vs0mg"},{"bike_id":"25174b8c-9ea0-47dc-83ba-83e45c5f35b5","system_id":"levelo_inurba_marseille","lat":43.28617,"lon":5.35104,"is_reserved":false,"is_disabled":false,"rental_uris":{"android":"levelo://app?vid=25174b8c-9ea0-47dc-83ba-83e45c5f35b5","ios":"levelo://app?vid=25174b8c-9ea0-47dc-83ba-83e45c5f35b5"},"vehicle_type_id":"4","last_reported":1753380964,"current_range_meters":4400,"station_id":"ce4bhch2rcd13ifvqeug","pricing_plan_id":"cebpf4jnsgd1na2vs0mg"},{"bike_id":"e65e3d84-ff72-4334-a44e-07c4a595911c","system_id":"levelo_inurba_marseille","lat":43.29768,"lon":5.37103,"is_reserved":false,"is_disabled":false,"rental_uris":{"android":"levelo://app?vid=e65e3d84-ff72-4334-a44e-07c4a595911c","ios":"levelo://app?vid=e65e3d84-ff72-4334-a44e-07c4a595911c"},"vehicle_type_id":"4","last_reported":1753380964,"current_range_meters":4800,"station_id":"ce4bgop2rcd13ifvqc1g","pricing_plan_id":"cebpf4jnsgd1na2vs0mg"},{"bike_id":"e355fcb0-c359-48e7-94a5-35a9e7a88bb4","system_id":"levelo_inurba_marseille","lat":43.30127,"lon":5.39862,"is_reserved":false,"is_disabled":false,"rental_uris":{"android":"levelo://app?vid=e355fcb0-c359-48e7-94a5-35a9e7a88bb4","ios":"levelo://app?vid=e355fcb0-c359-48e7-94a5-35a9e7a88bb4"},"vehicle_type_id":"4","last_reported":1753380964,"current_range_meters":4800,"station_id":"ce4bh0h2rcd13ifvqd40","pricing_plan_id":"cebpf4jnsgd1na2vs0mg"},{"bike_id":"c9dbd36b-479c-4a5c-b200-3aa7673340d9","system_id":"levelo_inurba_marseille","lat":43.241448,"lon":5.363743,"is_reserved":false,"is_disabled":false,"rental_uris":{"android":"levelo://app?vid=c9dbd36b-479c-4a5c-b200-3aa7673340d9","ios":"levelo://app?vid=c9dbd36b-479c-4a5c-b200-3aa7673340d9"},"vehicle_type_id":"4","last_reported":1753380964,"current_range_meters":4800,"station_id":"","pricing_plan_id":"cebpf4jnsgd1na2vs0mg"},{"bike_id":"99cf6049-38a6-49e3-bf31-d249e367169c","system_id":"levelo_inurba_marseille","lat":43.30088,"lon":5.39078,"is_reserved":false,"is_disabled":false,"rental_uris":{"android":"levelo://app?vid=99cf6049-38a6-49e3-bf31-d249e367169c","ios":"levelo://app?vid=99cf6049-38a6-49e3-bf31-d249e367169c"},"vehicle_type_id":"4","last_reported":1753380964,"current_range_meters":4800,"station_id":"ce4bh192rcd13ifvqdb0","pricing_plan_id":"cebpf4jnsgd1na2vs0mg"},{"bike_id":"819f8bc7-a9b7-41a0-8c5b-a0a5eabb5ab4","system_id":"levelo_inurba_marseille","lat":43.295259,"lon":5.385496,"is_reserved":false,"is_disabled":false,"rental_uris":{"android":"levelo://app?vid=819f8bc7-a9b7-41a0-8c5b-a0a5eabb5ab4","ios":"levelo://app?vid=819f8bc7-a9b7-41a0-8c5b-a0a5eabb5ab4"},"vehicle_type_id":"4","last_reported":1753380964,"current_range_meters":4800,"station_id":"ce4bgih2rcd13ifvqba0","pricing_plan_id":"cebpf4jnsgd1na2vs0mg"},{"bike_id":"48e44b6b-f36a-41ef-8a3f-d9403f8b407d","system_id":"levelo_inurba_marseille","lat":43.28607,"lon":5.3707,"is_reserved":false,"is_disabled":false,"rental_uris":{"android":"levelo://app?vid=48e44b6b-f36a-41ef-8a3f-d9403f8b407d","ios":"levelo://app?vid=48e44b6b-f36a-41ef-8a3f-d9403f8b407d"},"vehicle_type_id":"4","last_reported":1753380964,"current_range_meters":4800,"station_id":"ce4bht12rcd13ifvqi60","pricing_plan_id":"cebpf4jnsgd1na2vs0mg"},{"bike_id":"90528acb-cace-4e30-8576-d990808531cc","system_id":"levelo_inurba_marseille","lat":43.29556,"lon":5.37498,"is_reserved":false,"is_disabled":false,"rental_uris":{"android":"levelo://app?vid=90528acb-cace-4e30-8576-d990808531cc","ios":"levelo://app?vid=90528acb-cace-4e30-8576-d990808531cc"},"vehicle_type_id":"4","last_reported":1753380964,"current_range_meters":5600,"station_id":"ce4bgh92rcd13ifvqb50","pricing_plan_id":"cebpf4jnsgd1na2vs0mg"},{"bike_id":"67e42834-21ca-43db-92b2-181e9f37a490","system_id":"levelo_inurba_marseille","lat":43.29368,"lon":5.37827,"is_reserved":false,"is_disabled":false,"rental_uris":{"android":"levelo://app?vid=67e42834-21ca-43db-92b2-181e9f37a490","ios":"levelo://app?vid=67e42834-21ca-43db-92b2-181e9f37a490"},"vehicle_type_id":"4","last_reported":1753380964,"current_range_meters":5600,"station_id":"ce4bgjh2rcd13ifvqbf0","pricing_plan_id":"cebpf4jnsgd1na2vs0mg"},{"bike_id":"6b181032-44c7-4a32-8ef7-475e3f051732","system_id":"levelo_inurba_marseille","lat":43.29006,"lon":5.35617,"is_reserved":false,"is_disabled":false,"rental_uris":{"android":"levelo://app?vid=6b181032-44c7-4a32-8ef7-475e3f051732","ios":"levelo://app?vid=6b181032-44c7-4a32-8ef7-475e3f051732"},"vehicle_type_id":"4","last_reported":1753380964,"current_range_meters":5600,"station_id":"ce4bhb92rcd13ifvqen0","pricing_plan_id":"cebpf4jnsgd1na2vs0mg"},{"bike_id":"a50aeb9e-6c5e-438c-a0e0-cbbcc7d57530","system_id":"levelo_inurba_marseille","lat":43.2861,"lon":5.351,"is_reserved":false,"is_disabled":false,"rental_uris":{"android":"levelo://app?vid=a50aeb9e-6c5e-438c-a0e0-cbbcc7d57530","ios":"levelo://app?vid=a50aeb9e-6c5e-438c-a0e0-cbbcc7d57530"},"vehicle_type_id":"4","last_reported":1753380964,"current_range_meters":5600,"station_id":"ce4bhch2rcd13ifvqeug","pricing_plan_id":"cebpf4jnsgd1na2vs0mg"},{"bike_id":"da78b292-17e6-49d9-95af-ed72efca9d6c","system_id":"levelo_inurba_marseille","lat":43.28846,"lon":5.39307,"is_reserved":false,"is_disabled":false,"rental_uris":{"android":"levelo://app?vid=da78b292-17e6-49d9-95af-ed72efca9d6c","ios":"levelo://app?vid=da78b292-17e6-49d9-95af-ed72efca9d6c"},"vehicle_type_id":"4","last_reported":1753380964,"current_range_meters":5600,"station_id":"ce4bh2p2rcd13ifvqdi0","pricing_plan_id":"cebpf4jnsgd1na2vs0mg"},{"bike_id":"54797169-8205-4989-925e-b9a15899942c","system_id":"levelo_inurba_marseille","lat":43.29526,"lon":5.39028,"is_reserved":false,"is_disabled":false,"rental_uris":{"android":"levelo://app?vid=54797169-8205-4989-925e-b9a15899942c","ios":"levelo://app?vid=54797169-8205-4989-925e-b9a15899942c"},"vehicle_type_id":"4","last_reported":1753380964,"current_range_meters":6000,"station_id":"ce4bh3p2rcd13ifvqdp0","pricing_plan_id":"cebpf4jnsgd1na2vs0mg"},{"bike_id":"055fd4b7-09b9-4dea-a348-674b1d2b4392","system_id":"levelo_inurba_marseille","lat":43.3061,"lon":5.39309,"is_reserved":false,"is_disabled":false,"rental_uris":{"android":"levelo://app?vid=055fd4b7-09b9-4dea-a348-674b1d2b4392","ios":"levelo://app?vid=055fd4b7-09b9-4dea-a348-674b1d2b4392"},"vehicle_type_id":"4","last_reported":1753380964,"current_range_meters":6400,"station_id":"ce4bh0p2rcd13ifvqd80","pricing_plan_id":"cebpf4jnsgd1na2vs0mg"},{"bike_id":"4833d2cf-c0e4-486d-ab28-e47d2d76399e","system_id":"levelo_inurba_marseille","lat":43.29261,"lon":5.38439,"is_reserved":false,"is_disabled":false,"rental_uris":{"android":"levelo://app?vid=4833d2cf-c0e4-486d-ab28-e47d2d76399e","ios":"levelo://app?vid=4833d2cf-c0e4-486d-ab28-e47d2d76399e"},"vehicle_type_id":"4","last_reported":1753380964,"current_range_meters":3600,"station_id":"ce4bh692rcd13ifvqea0","pricing_plan_id":"cebpf4jnsgd1na2vs0mg"},{"bike_id":"feacb564-f858-4aa0-8523-7cc16e25331f","system_id":"levelo_inurba_marseille","lat":43.27924,"lon":5.41192,"is_reserved":false,"is_disabled":false,"rental_uris":{"android":"levelo://app?vid=feacb564-f858-4aa0-8523-7cc16e25331f","ios":"levelo://app?vid=feacb564-f858-4aa0-8523-7cc16e25331f"},"vehicle_type_id":"4","last_reported":1753380964,"current_range_meters":6400,"station_id":"","pricing_plan_id":"cebpf4jnsgd1na2vs0mg"},{"bike_id":"a4bd8a96-2bb9-4e62-b563-4fd33a52cd04","system_id":"levelo_inurba_marseille","lat":43.28853,"lon":5.35858,"is_reserved":false,"is_disabled":false,"rental_uris":{"android":"levelo://app?vid=a4bd8a96-2bb9-4e62-b563-4fd33a52cd04","ios":"levelo://app?vid=a4bd8a96-2bb9-4e62-b563-4fd33a52cd04"},"vehicle_type_id":"4","last_reported":1753380964,"current_range_meters":6000,"station_id":"ce4bhb12rcd13ifvqem0","pricing_plan_id":"cebpf4jnsgd1na2vs0mg"},{"bike_id":"0beb52b4-209d-4131-8511-0fbc1b67efba","system_id":"levelo_inurba_marseille","lat":43.283676,"lon":5.386334,"is_reserved":false,"is_disabled":false,"rental_uris":{"android":"levelo://app?vid=0beb52b4-209d-4131-8511-0fbc1b67efba","ios":"levelo://app?vid=0beb52b4-209d-4131-8511-0fbc1b67efba"},"vehicle_type_id":"4","last_reported":1753380964,"current_range_meters":6800,"station_id":"ce4bh492rcd13ifvqdvg","pricing_plan_id":"cebpf4jnsgd1na2vs0mg"},{"bike_id":"59a15ad2-15d7-4154-b27a-a8773758dd23","system_id":"levelo_inurba_marseille","lat":43.298182,"lon":5.370916,"is_reserved":false,"is_disabled":true,"rental_uris":{"android":"levelo://app?vid=59a15ad2-15d7-4154-b27a-a8773758dd23","ios":"levelo://app?vid=59a15ad2-15d7-4154-b27a-a8773758dd23"},"vehicle_type_id":"4","last_reported":1753380964,"current_range_meters":6800,"station_id":"","pricing_plan_id":"cebpf4jnsgd1na2vs0mg"},{"bike_id":"05a6c877-acd1-424b-857e-0d7810ee4b3c","system_id":"levelo_inurba_marseille","lat":43.29628,"lon":5.37137,"is_reserved":false,"is_disabled":false,"rental_uris":{"android":"levelo://app?vid=05a6c877-acd1-424b-857e-0d7810ee4b3c","ios":"levelo://app?vid=05a6c877-acd1-424b-857e-0d7810ee4b3c"},"vehicle_type_id":"4","last_reported":1753380964,"current_range_meters":6800,"station_id":"ce4bgnh2rcd13ifvqc0g","pricing_plan_id":"cebpf4jnsgd1na2vs0mg"},{"bike_id":"c88588e7-a87c-421a-878f-7b3e644411ee","system_id":"levelo_inurba_marseille","lat":43.311175,"lon":5.377875,"is_reserved":false,"is_disabled":false,"rental_uris":{"android":"levelo://app?vid=c88588e7-a87c-421a-878f-7b3e644411ee","ios":"levelo://app?vid=c88588e7-a87c-421a-878f-7b3e644411ee"},"vehicle_type_id":"4","last_reported":1753380964,"current_range_meters":6800,"station_id":"ce4bgt92rcd13ifvqcg0","pricing_plan_id":"cebpf4jnsgd1na2vs0mg"},{"bike_id":"18999358-c523-4dcc-87c2-b72974362612","system_id":"levelo_inurba_marseille","lat":43.29005,"lon":5.35622,"is_reserved":false,"is_disabled":false,"rental_uris":{"android":"levelo://app?vid=18999358-c523-4dcc-87c2-b72974362612","ios":"levelo://app?vid=18999358-c523-4dcc-87c2-b72974362612"},"vehicle_type_id":"4","last_reported":1753380964,"current_range_meters":6800,"station_id":"ce4bhb92rcd13ifvqen0","pricing_plan_id":"cebpf4jnsgd1na2vs0mg"},{"bike_id":"08ba0ab4-7f5f-4a7f-a677-c0c611084fb1","system_id":"levelo_inurba_marseille","lat":43.26027,"lon":5.37552,"is_reserved":false,"is_disabled":false,"rental_uris":{"android":"levelo://app?vid=08ba0ab4-7f5f-4a7f-a677-c0c611084fb1","ios":"levelo://app?vid=08ba0ab4-7f5f-4a7f-a677-c0c611084fb1"},"vehicle_type_id":"4","last_reported":1753380964,"current_range_meters":7200,"station_id":"ce4bhgh2rcd13ifvqfa0","pricing_plan_id":"cebpf4jnsgd1na2vs0mg"},{"bike_id":"bcd010b3-9e12-47d4-b42b-67aa917517a6","system_id":"levelo_inurba_marseille","lat":43.29035,"lon":5.39964,"is_reserved":false,"is_disabled":false,"rental_uris":{"android":"levelo://app?vid=bcd010b3-9e12-47d4-b42b-67aa917517a6","ios":"levelo://app?vid=bcd010b3-9e12-47d4-b42b-67aa917517a6"},"vehicle_type_id":"4","last_reported":1753380964,"current_range_meters":6800,"station_id":"ce4bh392rcd13ifvqdm0","pricing_plan_id":"cebpf4jnsgd1na2vs0mg"},{"bike_id":"bb69495b-0254-442a-a165-849c466c8bd9","system_id":"levelo_inurba_marseille","lat":43.28079,"lon":5.39664,"is_reserved":false,"is_disabled":false,"rental_uris":{"android":"levelo://app?vid=bb69495b-0254-442a-a165-849c466c8bd9","ios":"levelo://app?vid=bb69495b-0254-442a-a165-849c466c8bd9"},"vehicle_type_id":"4","last_reported":1753380964,"current_range_meters":8000,"station_id":"ce4bho12rcd13ifvqh2g","pricing_plan_id":"cebpf4jnsgd1na2vs0mg"},{"bike_id":"da053e6a-15f2-492e-8bc1-42b1d66cc329","system_id":"levelo_inurba_marseille","lat":43.28369,"lon":5.43247,"is_reserved":false,"is_disabled":false,"rental_uris":{"android":"levelo://app?vid=da053e6a-15f2-492e-8bc1-42b1d66cc329","ios":"levelo://app?vid=da053e6a-15f2-492e-8bc1-42b1d66cc329"},"vehicle_type_id":"4","last_reported":1753380964,"current_range_meters":8000,"station_id":"","pricing_plan_id":"cebpf4jnsgd1na2vs0mg"},{"bike_id":"a61c3ffa-f010-453d-a8ff-d64e52ad67dc","system_id":"levelo_inurba_marseille","lat":43.29598,"lon":5.3802,"is_reserved":false,"is_disabled":false,"rental_uris":{"android":"levelo://app?vid=a61c3ffa-f010-453d-a8ff-d64e52ad67dc","ios":"levelo://app?vid=a61c3ffa-f010-453d-a8ff-d64e52ad67dc"},"vehicle_type_id":"4","last_reported":1753380964,"current_range_meters":8000,"station_id":"","pricing_plan_id":"cebpf4jnsgd1na2vs0mg"},{"bike_id":"da2df4a6-37fa-450b-8ae0-8eda034b7f05","system_id":"levelo_inurba_marseille","lat":43.30245,"lon":5.4004,"is_reserved":false,"is_disabled":false,"rental_uris":{"android":"levelo://app?vid=da2df4a6-37fa-450b-8ae0-8eda034b7f05","ios":"levelo://app?vid=da2df4a6-37fa-450b-8ae0-8eda034b7f05"},"vehicle_type_id":"4","last_reported":1753380964,"current_range_meters":7200,"station_id":"ce4bgvh2rcd13ifvqcs0","pricing_plan_id":"cebpf4jnsgd1na2vs0mg"},{"bike_id":"9e3939fb-1e7a-43d4-a356-5ce168f9567d","system_id":"levelo_inurba_marseille","lat":43.26194,"lon":5.37436,"is_reserved":false,"is_disabled":false,"rental_uris":{"android":"levelo://app?vid=9e3939fb-1e7a-43d4-a356-5ce168f9567d","ios":"levelo://app?vid=9e3939fb-1e7a-43d4-a356-5ce168f9567d"},"vehicle_type_id":"4","last_reported":1753380964,"current_range_meters":8000,"station_id":"ce4bhgp2rcd13ifvqfc0","pricing_plan_id":"cebpf4jnsgd1na2vs0mg"},{"bike_id":"8d4c0420-d0a3-4380-bcc1-62c045f8d4b9","system_id":"levelo_inurba_marseille","lat":43.26564,"lon":5.39003,"is_reserved":false,"is_disabled":true,"rental_uris":{"android":"levelo://app?vid=8d4c0420-d0a3-4380-bcc1-62c045f8d4b9","ios":"levelo://app?vid=8d4c0420-d0a3-4380-bcc1-62c045f8d4b9"},"vehicle_type_id":"4","last_reported":1753380964,"current_range_meters":8000,"station_id":"ce4bhe12rcd13ifvqf30","pricing_plan_id":"cebpf4jnsgd1na2vs0mg"},{"bike_id":"e0f4556b-1525-4eff-ac19-a1270436371d","system_id":"levelo_inurba_marseille","lat":43.278189,"lon":5.397954,"is_reserved":false,"is_disabled":false,"rental_uris":{"android":"levelo://app?vid=e0f4556b-1525-4eff-ac19-a1270436371d","ios":"levelo://app?vid=e0f4556b-1525-4eff-ac19-a1270436371d"},"vehicle_type_id":"4","last_reported":1753380964,"current_range_meters":8400,"station_id":"","pricing_plan_id":"cebpf4jnsgd1na2vs0mg"},{"bike_id":"66286e34-23c7-4396-9e2a-365dcfcdfbdf","system_id":"levelo_inurba_marseille","lat":43.30878,"lon":5.39668,"is_reserved":false,"is_disabled":false,"rental_uris":{"android":"levelo://app?vid=66286e34-23c7-4396-9e2a-365dcfcdfbdf","ios":"levelo://app?vid=66286e34-23c7-4396-9e2a-365dcfcdfbdf"},"vehicle_type_id":"4","last_reported":1753380964,"current_range_meters":8400,"station_id":"ce4bh012rcd13ifvqcv0","pricing_plan_id":"cebpf4jnsgd1na2vs0mg"},{"bike_id":"7b7524ae-8ecd-499f-93b7-a6de3bab91d4","system_id":"levelo_inurba_marseille","lat":43.298993,"lon":5.436609,"is_reserved":false,"is_disabled":false,"rental_uris":{"android":"levelo://app?vid=7b7524ae-8ecd-499f-93b7-a6de3bab91d4","ios":"levelo://app?vid=7b7524ae-8ecd-499f-93b7-a6de3bab91d4"},"vehicle_type_id":"4","last_reported":1753380964,"current_range_meters":8400,"station_id":"ce4bhpp2rcd13ifvqhfg","pricing_plan_id":"cebpf4jnsgd1na2vs0mg"},{"bike_id":"94dc1855-7692-48a2-a0d8-f950c9bad25c","system_id":"levelo_inurba_marseille","lat":43.30544,"lon":5.384,"is_reserved":false,"is_disabled":false,"rental_uris":{"android":"levelo://app?vid=94dc1855-7692-48a2-a0d8-f950c9bad25c","ios":"levelo://app?vid=94dc1855-7692-48a2-a0d8-f950c9bad25c"},"vehicle_type_id":"4","last_reported":1753380964,"current_range_meters":8400,"station_id":"ce4bgg92rcd13ifvqb30","pricing_plan_id":"cebpf4jnsgd1na2vs0mg"},{"bike_id":"ffe778ab-df90-44ba-bd77-740898b5bdbe","system_id":"levelo_inurba_marseille","lat":43.29626,"lon":5.37717,"is_reserved":false,"is_disabled":false,"rental_uris":{"android":"levelo://app?vid=ffe778ab-df90-44ba-bd77-740898b5bdbe","ios":"levelo://app?vid=ffe778ab-df90-44ba-bd77-740898b5bdbe"},"vehicle_type_id":"4","last_reported":1753380964,"current_range_meters":8400,"station_id":"ce4bgi92rcd13ifvqb90","pricing_plan_id":"cebpf4jnsgd1na2vs0mg"},{"bike_id":"985a044d-b9e5-4dea-89e6-6834504b7c3c","system_id":"levelo_inurba_marseille","lat":43.28006,"lon":5.36934,"is_reserved":false,"is_disabled":false,"rental_uris":{"android":"levelo://app?vid=985a044d-b9e5-4dea-89e6-6834504b7c3c","ios":"levelo://app?vid=985a044d-b9e5-4dea-89e6-6834504b7c3c"},"vehicle_type_id":"4","last_reported":1753380964,"current_range_meters":8400,"station_id":"ce4bha12rcd13ifvqef0","pricing_plan_id":"cebpf4jnsgd1na2vs0mg"},{"bike_id":"ce0ffc32-a366-4e8b-b135-ca54d0fd6cbb","system_id":"levelo_inurba_marseille","lat":43.26188,"lon":5.37443,"is_reserved":false,"is_disabled":true,"rental_uris":{"android":"levelo://app?vid=ce0ffc32-a366-4e8b-b135-ca54d0fd6cbb","ios":"levelo://app?vid=ce0ffc32-a366-4e8b-b135-ca54d0fd6cbb"},"vehicle_type_id":"4","last_reported":1753380964,"current_range_meters":8800,"station_id":"ce4bhgp2rcd13ifvqfc0","pricing_plan_id":"cebpf4jnsgd1na2vs0mg"},{"bike_id":"87d9cc9e-fb09-41d9-ab2e-0f924589aaeb","system_id":"levelo_inurba_marseille","lat":43.31229,"lon":5.368657,"is_reserved":false,"is_disabled":true,"rental_uris":{"android":"levelo://app?vid=87d9cc9e-fb09-41d9-ab2e-0f924589aaeb","ios":"levelo://app?vid=87d9cc9e-fb09-41d9-ab2e-0f924589aaeb"},"vehicle_type_id":"4","last_reported":1753380964,"current_range_meters":8800,"station_id":"ce4bgl92rcd13ifvqbq0","pricing_plan_id":"cebpf4jnsgd1na2vs0mg"},{"bike_id":"fb9750f2-c887-4965-a008-0d58a938a146","system_id":"levelo_inurba_marseille","lat":43.31728,"lon":5.42387,"is_reserved":false,"is_disabled":false,"rental_uris":{"android":"levelo://app?vid=fb9750f2-c887-4965-a008-0d58a938a146","ios":"levelo://app?vid=fb9750f2-c887-4965-a008-0d58a938a146"},"vehicle_type_id":"4","last_reported":1753380964,"current_range_meters":8800,"station_id":"ce4bhp92rcd13ifvqhbg","pricing_plan_id":"cebpf4jnsgd1na2vs0mg"},{"bike_id":"b982e5a3-88f5-4403-a53a-38d90073ed80","system_id":"levelo_inurba_marseille","lat":43.2943,"lon":5.43177,"is_reserved":false,"is_disabled":false,"rental_uris":{"android":"levelo://app?vid=b982e5a3-88f5-4403-a53a-38d90073ed80","ios":"levelo://app?vid=b982e5a3-88f5-4403-a53a-38d90073ed80"},"vehicle_type_id":"4","last_reported":1753380964,"current_range_meters":8800,"station_id":"","pricing_plan_id":"cebpf4jnsgd1na2vs0mg"},{"bike_id":"e99d514c-ca86-4042-ac23-cccf9f18b69a","system_id":"levelo_inurba_marseille","lat":43.29261,"lon":5.38428,"is_reserved":false,"is_disabled":false,"rental_uris":{"android":"levelo://app?vid=e99d514c-ca86-4042-ac23-cccf9f18b69a","ios":"levelo://app?vid=e99d514c-ca86-4042-ac23-cccf9f18b69a"},"vehicle_type_id":"4","last_reported":1753380964,"current_range_meters":8800,"station_id":"ce4bh692rcd13ifvqea0","pricing_plan_id":"cebpf4jnsgd1na2vs0mg"},{"bike_id":"edc12296-0897-47c7-a72b-cd0d8321ee23","system_id":"levelo_inurba_marseille","lat":43.26493,"lon":5.39541,"is_reserved":false,"is_disabled":false,"rental_uris":{"android":"levelo://app?vid=edc12296-0897-47c7-a72b-cd0d8321ee23","ios":"levelo://app?vid=edc12296-0897-47c7-a72b-cd0d8321ee23"},"vehicle_type_id":"4","last_reported":1753380964,"current_range_meters":8800,"station_id":"ce4bhi12rcd13ifvqfq0","pricing_plan_id":"cebpf4jnsgd1na2vs0mg"},{"bike_id":"8c98f7a6-d191-45cb-80c0-8d5e826afa29","system_id":"levelo_inurba_marseille","lat":43.30092,"lon":5.39066,"is_reserved":false,"is_disabled":false,"rental_uris":{"android":"levelo://app?vid=8c98f7a6-d191-45cb-80c0-8d5e826afa29","ios":"levelo://app?vid=8c98f7a6-d191-45cb-80c0-8d5e826afa29"},"vehicle_type_id":"4","last_reported":1753380964,"current_range_meters":9200,"station_id":"ce4bh192rcd13ifvqdb0","pricing_plan_id":"cebpf4jnsgd1na2vs0mg"},{"bike_id":"629a8c5a-969c-4341-8268-ff1cd308a1c9","system_id":"levelo_inurba_marseille","lat":43.25823,"lon":5.39435,"is_reserved":false,"is_disabled":false,"rental_uris":{"android":"levelo://app?vid=629a8c5a-969c-4341-8268-ff1cd308a1c9","ios":"levelo://app?vid=629a8c5a-969c-4341-8268-ff1cd308a1c9"},"vehicle_type_id":"4","last_reported":1753380964,"current_range_meters":9200,"station_id":"ce4bhip2rcd13ifvqft0","pricing_plan_id":"cebpf4jnsgd1na2vs0mg"},{"bike_id":"511cba7a-1908-456a-8d33-005fb634328f","system_id":"levelo_inurba_marseille","lat":43.29269,"lon":5.38431,"is_reserved":false,"is_disabled":false,"rental_uris":{"android":"levelo://app?vid=511cba7a-1908-456a-8d33-005fb634328f","ios":"levelo://app?vid=511cba7a-1908-456a-8d33-005fb634328f"},"vehicle_type_id":"4","last_reported":1753380964,"current_range_meters":9200,"station_id":"ce4bh692rcd13ifvqea0","pricing_plan_id":"cebpf4jnsgd1na2vs0mg"},{"bike_id":"1f973f22-62e9-49d0-a308-a828a36aadf4","system_id":"levelo_inurba_marseille","lat":43.29621,"lon":5.37153,"is_reserved":false,"is_disabled":false,"rental_uris":{"android":"levelo://app?vid=1f973f22-62e9-49d0-a308-a828a36aadf4","ios":"levelo://app?vid=1f973f22-62e9-49d0-a308-a828a36aadf4"},"vehicle_type_id":"4","last_reported":1753380964,"current_range_meters":9200,"station_id":"ce4bgnh2rcd13ifvqc0g","pricing_plan_id":"cebpf4jnsgd1na2vs0mg"},{"bike_id":"f3217e35-0bb5-43ab-beb0-dd5e233a7114","system_id":"levelo_inurba_marseille","lat":43.25578,"lon":5.382244,"is_reserved":false,"is_disabled":true,"rental_uris":{"android":"levelo://app?vid=f3217e35-0bb5-43ab-beb0-dd5e233a7114","ios":"levelo://app?vid=f3217e35-0bb5-43ab-beb0-dd5e233a7114"},"vehicle_type_id":"4","last_reported":1753380964,"current_range_meters":9200,"station_id":"ce4bhih2rcd13ifvqfs0","pricing_plan_id":"cebpf4jnsgd1na2vs0mg"},{"bike_id":"417c3358-fa11-4228-8c5b-7b00a8df3050","system_id":"levelo_inurba_marseille","lat":43.282623,"lon":5.350621,"is_reserved":false,"is_disabled":false,"rental_uris":{"android":"levelo://app?vid=417c3358-fa11-4228-8c5b-7b00a8df3050","ios":"levelo://app?vid=417c3358-fa11-4228-8c5b-7b00a8df3050"},"vehicle_type_id":"4","last_reported":1753380964,"current_range_meters":8800,"station_id":"ce4bhbp2rcd13ifvqerg","pricing_plan_id":"cebpf4jnsgd1na2vs0mg"},{"bike_id":"8fc40684-9b2f-4471-90f0-d80318962260","system_id":"levelo_inurba_marseille","lat":43.28833,"lon":5.38327,"is_reserved":false,"is_disabled":false,"rental_uris":{"android":"levelo://app?vid=8fc40684-9b2f-4471-90f0-d80318962260","ios":"levelo://app?vid=8fc40684-9b2f-4471-90f0-d80318962260"},"vehicle_type_id":"4","last_reported":1753380964,"current_range_meters":9200,"station_id":"","pricing_plan_id":"cebpf4jnsgd1na2vs0mg"},{"bike_id":"2936456c-77f6-4f82-a181-4bc2dd541746","system_id":"levelo_inurba_marseille","lat":43.291951,"lon":5.357931,"is_reserved":false,"is_disabled":true,"rental_uris":{"android":"levelo://app?vid=2936456c-77f6-4f82-a181-4bc2dd541746","ios":"levelo://app?vid=2936456c-77f6-4f82-a181-4bc2dd541746"},"vehicle_type_id":"4","last_reported":1753380964,"current_range_meters":9600,"station_id":"ce4bhb12rcd13ifvqel0","pricing_plan_id":"cebpf4jnsgd1na2vs0mg"},{"bike_id":"7af2f0f8-99a1-45bf-bb00-366862ccacb8","system_id":"levelo_inurba_marseille","lat":43.29272,"lon":5.38435,"is_reserved":false,"is_disabled":false,"rental_uris":{"android":"levelo://app?vid=7af2f0f8-99a1-45bf-bb00-366862ccacb8","ios":"levelo://app?vid=7af2f0f8-99a1-45bf-bb00-366862ccacb8"},"vehicle_type_id":"4","last_reported":1753380964,"current_range_meters":9600,"station_id":"ce4bh692rcd13ifvqea0","pricing_plan_id":"cebpf4jnsgd1na2vs0mg"},{"bike_id":"194f5408-2400-4a00-96bd-c7d3571a09b7","system_id":"levelo_inurba_marseille","lat":43.311495,"lon":5.387688,"is_reserved":false,"is_disabled":false,"rental_uris":{"android":"levelo://app?vid=194f5408-2400-4a00-96bd-c7d3571a09b7","ios":"levelo://app?vid=194f5408-2400-4a00-96bd-c7d3571a09b7"},"vehicle_type_id":"4","last_reported":1753380964,"current_range_meters":9600,"station_id":"ce4bgv12rcd13ifvqcp0","pricing_plan_id":"cebpf4jnsgd1na2vs0mg"},{"bike_id":"bbc2b271-396f-4875-9f1d-0fcc163d87b6","system_id":"levelo_inurba_marseille","lat":43.29067,"lon":5.39896,"is_reserved":false,"is_disabled":false,"rental_uris":{"android":"levelo://app?vid=bbc2b271-396f-4875-9f1d-0fcc163d87b6","ios":"levelo://app?vid=bbc2b271-396f-4875-9f1d-0fcc163d87b6"},"vehicle_type_id":"4","last_reported":1753380964,"current_range_meters":9600,"station_id":"","pricing_plan_id":"cebpf4jnsgd1na2vs0mg"},{"bike_id":"7250624a-63df-4e44-9e5a-1056e5f8a90f","system_id":"levelo_inurba_marseille","lat":43.29484,"lon":5.40754,"is_reserved":false,"is_disabled":false,"rental_uris":{"android":"levelo://app?vid=7250624a-63df-4e44-9e5a-1056e5f8a90f","ios":"levelo://app?vid=7250624a-63df-4e44-9e5a-1056e5f8a90f"},"vehicle_type_id":"4","last_reported":1753380964,"current_range_meters":9600,"station_id":"","pricing_plan_id":"cebpf4jnsgd1na2vs0mg"},{"bike_id":"06667231-9491-402b-a9ce-661f9818def9","system_id":"levelo_inurba_marseille","lat":43.231917,"lon":5.355496,"is_reserved":false,"is_disabled":true,"rental_uris":{"android":"levelo://app?vid=06667231-9491-402b-a9ce-661f9818def9","ios":"levelo://app?vid=06667231-9491-402b-a9ce-661f9818def9"},"vehicle_type_id":"4","last_reported":1753380964,"current_range_meters":9600,"station_id":"ce4bhu92rcd13ifvqi70","pricing_plan_id":"cebpf4jnsgd1na2vs0mg"},{"bike_id":"98d81ccc-d5a8-49fb-be26-1aa0d7cea6bd","system_id":"levelo_inurba_marseille","lat":43.28627,"lon":5.35104,"is_reserved":false,"is_disabled":false,"rental_uris":{"android":"levelo://app?vid=98d81ccc-d5a8-49fb-be26-1aa0d7cea6bd","ios":"levelo://app?vid=98d81ccc-d5a8-49fb-be26-1aa0d7cea6bd"},"vehicle_type_id":"4","last_reported":1753380964,"current_range_meters":9600,"station_id":"ce4bhch2rcd13ifvqeug","pricing_plan_id":"cebpf4jnsgd1na2vs0mg"},{"bike_id":"06db357d-3e62-429a-80b2-74c0dc5eab89","system_id":"levelo_inurba_marseille","lat":43.28839,"lon":5.38322,"is_reserved":false,"is_disabled":false,"rental_uris":{"android":"levelo://app?vid=06db357d-3e62-429a-80b2-74c0dc5eab89","ios":"levelo://app?vid=06db357d-3e62-429a-80b2-74c0dc5eab89"},"vehicle_type_id":"4","last_reported":1753380964,"current_range_meters":9600,"station_id":"","pricing_plan_id":"cebpf4jnsgd1na2vs0mg"},{"bike_id":"97b34eea-3ae9-424b-89b2-6fa7dcf25e38","system_id":"levelo_inurba_marseille","lat":43.303049,"lon":5.392047,"is_reserved":false,"is_disabled":false,"rental_uris":{"android":"levelo://app?vid=97b34eea-3ae9-424b-89b2-6fa7dcf25e38","ios":"levelo://app?vid=97b34eea-3ae9-424b-89b2-6fa7dcf25e38"},"vehicle_type_id":"4","last_reported":1753380964,"current_range_meters":9600,"station_id":"","pricing_plan_id":"cebpf4jnsgd1na2vs0mg"},{"bike_id":"a4b946b9-d774-4aa8-a674-ad0eb8d743ec","system_id":"levelo_inurba_marseille","lat":43.29065,"lon":5.37164,"is_reserved":false,"is_disabled":false,"rental_uris":{"android":"levelo://app?vid=a4b946b9-d774-4aa8-a674-ad0eb8d743ec","ios":"levelo://app?vid=a4b946b9-d774-4aa8-a674-ad0eb8d743ec"},"vehicle_type_id":"4","last_reported":1753380964,"current_range_meters":9600,"station_id":"ce4bh5p2rcd13ifvqe4g","pricing_plan_id":"cebpf4jnsgd1na2vs0mg"},{"bike_id":"97978bf7-d39d-4d0e-bc6b-2e1f0dc3eae8","system_id":"levelo_inurba_marseille","lat":43.29579,"lon":5.37511,"is_reserved":false,"is_disabled":false,"rental_uris":{"android":"levelo://app?vid=97978bf7-d39d-4d0e-bc6b-2e1f0dc3eae8","ios":"levelo://app?vid=97978bf7-d39d-4d0e-bc6b-2e1f0dc3eae8"},"vehicle_type_id":"4","last_reported":1753380964,"current_range_meters":10000,"station_id":"ce4bgh92rcd13ifvqb50","pricing_plan_id":"cebpf4jnsgd1na2vs0mg"},{"bike_id":"b96c42cc-f372-4d75-91ab-f7d6111838b9","system_id":"levelo_inurba_marseille","lat":43.29257,"lon":5.38429,"is_reserved":false,"is_disabled":false,"rental_uris":{"android":"levelo://app?vid=b96c42cc-f372-4d75-91ab-f7d6111838b9","ios":"levelo://app?vid=b96c42cc-f372-4d75-91ab-f7d6111838b9"},"vehicle_type_id":"4","last_reported":1753380964,"current_range_meters":9600,"station_id":"ce4bh692rcd13ifvqea0","pricing_plan_id":"cebpf4jnsgd1na2vs0mg"},{"bike_id":"b5ce8d93-17c0-45a5-b2b1-eefce45c2d79","system_id":"levelo_inurba_marseille","lat":43.29283,"lon":5.44583,"is_reserved":false,"is_disabled":false,"rental_uris":{"android":"levelo://app?vid=b5ce8d93-17c0-45a5-b2b1-eefce45c2d79","ios":"levelo://app?vid=b5ce8d93-17c0-45a5-b2b1-eefce45c2d79"},"vehicle_type_id":"4","last_reported":1753380964,"current_range_meters":10000,"station_id":"","pricing_plan_id":"cebpf4jnsgd1na2vs0mg"},{"bike_id":"edb36b36-eaf7-4018-8421-c879d7d3b5fc","system_id":"levelo_inurba_marseille","lat":43.30726,"lon":5.42449,"is_reserved":false,"is_disabled":false,"rental_uris":{"android":"levelo://app?vid=edb36b36-eaf7-4018-8421-c879d7d3b5fc","ios":"levelo://app?vid=edb36b36-eaf7-4018-8421-c879d7d3b5fc"},"vehicle_type_id":"4","last_reported":1753380964,"current_range_meters":10000,"station_id":"st_cvj6ca6bvosntc0bfgr0","pricing_plan_id":"cebpf4jnsgd1na2vs0mg"},{"bike_id":"5e64d8b9-df26-4e01-a1fe-0ccbff720b69","system_id":"levelo_inurba_marseille","lat":43.2846,"lon":5.35884,"is_reserved":false,"is_disabled":false,"rental_uris":{"android":"levelo://app?vid=5e64d8b9-df26-4e01-a1fe-0ccbff720b69","ios":"levelo://app?vid=5e64d8b9-df26-4e01-a1fe-0ccbff720b69"},"vehicle_type_id":"4","last_reported":1753380964,"current_range_meters":10000,"station_id":"ce4bhah2rcd13ifvqei0","pricing_plan_id":"cebpf4jnsgd1na2vs0mg"},{"bike_id":"8ba45697-1722-4ff5-a18f-71d78a11beef","system_id":"levelo_inurba_marseille","lat":43.2952,"lon":5.37495,"is_reserved":false,"is_disabled":false,"rental_uris":{"android":"levelo://app?vid=8ba45697-1722-4ff5-a18f-71d78a11beef","ios":"levelo://app?vid=8ba45697-1722-4ff5-a18f-71d78a11beef"},"vehicle_type_id":"4","last_reported":1753380964,"current_range_meters":10000,"station_id":"ce4bgkp2rcd13ifvqbmg","pricing_plan_id":"cebpf4jnsgd1na2vs0mg"},{"bike_id":"ccac290e-559c-4b77-9fb4-d25a68cd8d04","system_id":"levelo_inurba_marseille","lat":43.297825,"lon":5.370805,"is_reserved":false,"is_disabled":false,"rental_uris":{"android":"levelo://app?vid=ccac290e-559c-4b77-9fb4-d25a68cd8d04","ios":"levelo://app?vid=ccac290e-559c-4b77-9fb4-d25a68cd8d04"},"vehicle_type_id":"4","last_reported":1753380964,"current_range_meters":10000,"station_id":"ce4bgop2rcd13ifvqc1g","pricing_plan_id":"cebpf4jnsgd1na2vs0mg"},{"bike_id":"fbff8f0e-d0d6-4715-8692-f47546d626b9","system_id":"levelo_inurba_marseille","lat":43.288545,"lon":5.358527,"is_reserved":false,"is_disabled":false,"rental_uris":{"android":"levelo://app?vid=fbff8f0e-d0d6-4715-8692-f47546d626b9","ios":"levelo://app?vid=fbff8f0e-d0d6-4715-8692-f47546d626b9"},"vehicle_type_id":"4","last_reported":1753380964,"current_range_meters":10000,"station_id":"","pricing_plan_id":"cebpf4jnsgd1na2vs0mg"},{"bike_id":"f9392d6c-b35e-40bc-b1a7-ee8e2382d230","system_id":"levelo_inurba_marseille","lat":43.30548,"lon":5.36687,"is_reserved":false,"is_disabled":true,"rental_uris":{"android":"levelo://app?vid=f9392d6c-b35e-40bc-b1a7-ee8e2382d230","ios":"levelo://app?vid=f9392d6c-b35e-40bc-b1a7-ee8e2382d230"},"vehicle_type_id":"4","last_reported":1753380964,"current_range_meters":10000,"station_id":"ce4bgrp2rcd13ifvqc9g","pricing_plan_id":"cebpf4jnsgd1na2vs0mg"},{"bike_id":"7fd53b70-a08f-4df7-b543-81a9c225c34f","system_id":"levelo_inurba_marseille","lat":43.28034,"lon":5.36949,"is_reserved":false,"is_disabled":false,"rental_uris":{"android":"levelo://app?vid=7fd53b70-a08f-4df7-b543-81a9c225c34f","ios":"levelo://app?vid=7fd53b70-a08f-4df7-b543-81a9c225c34f"},"vehicle_type_id":"4","last_reported":1753380964,"current_range_meters":10000,"station_id":"ce4bha12rcd13ifvqef0","pricing_plan_id":"cebpf4jnsgd1na2vs0mg"},{"bike_id":"1fabf65a-b053-4378-9248-f4bcfa37e335","system_id":"levelo_inurba_marseille","lat":43.29517,"lon":5.39043,"is_reserved":false,"is_disabled":false,"rental_uris":{"android":"levelo://app?vid=1fabf65a-b053-4378-9248-f4bcfa37e335","ios":"levelo://app?vid=1fabf65a-b053-4378-9248-f4bcfa37e335"},"vehicle_type_id":"4","last_reported":1753380964,"current_range_meters":10000,"station_id":"ce4bh3p2rcd13ifvqdp0","pricing_plan_id":"cebpf4jnsgd1na2vs0mg"},{"bike_id":"27a75d8d-a43d-4fea-a876-5382ce8f9584","system_id":"levelo_inurba_marseille","lat":43.29783,"lon":5.37104,"is_reserved":false,"is_disabled":false,"rental_uris":{"android":"levelo://app?vid=27a75d8d-a43d-4fea-a876-5382ce8f9584","ios":"levelo://app?vid=27a75d8d-a43d-4fea-a876-5382ce8f9584"},"vehicle_type_id":"4","last_reported":1753380964,"current_range_meters":10000,"station_id":"ce4bgop2rcd13ifvqc1g","pricing_plan_id":"cebpf4jnsgd1na2vs0mg"},{"bike_id":"60987afe-797d-46f6-9d00-11303a25353f","system_id":"levelo_inurba_marseille","lat":43.299744,"lon":5.384839,"is_reserved":false,"is_disabled":false,"rental_uris":{"android":"levelo://app?vid=60987afe-797d-46f6-9d00-11303a25353f","ios":"levelo://app?vid=60987afe-797d-46f6-9d00-11303a25353f"},"vehicle_type_id":"4","last_reported":1753380964,"current_range_meters":10800,"station_id":"ce4bh292rcd13ifvqdg0","pricing_plan_id":"cebpf4jnsgd1na2vs0mg"},{"bike_id":"20b3ac39-d220-4d0b-8848-1b7f328b0525","system_id":"levelo_inurba_marseille","lat":43.262263,"lon":5.404557,"is_reserved":false,"is_disabled":true,"rental_uris":{"android":"levelo://app?vid=20b3ac39-d220-4d0b-8848-1b7f328b0525","ios":"levelo://app?vid=20b3ac39-d220-4d0b-8848-1b7f328b0525"},"vehicle_type_id":"4","last_reported":1753380964,"current_range_meters":10800,"station_id":"ce4bhmh2rcd13ifvqgmg","pricing_plan_id":"cebpf4jnsgd1na2vs0mg"},{"bike_id":"300a4756-01bd-4e0c-90d5-87daadcf6e14","system_id":"levelo_inurba_marseille","lat":43.290972,"lon":5.359105,"is_reserved":false,"is_disabled":true,"rental_uris":{"android":"levelo://app?vid=300a4756-01bd-4e0c-90d5-87daadcf6e14","ios":"levelo://app?vid=300a4756-01bd-4e0c-90d5-87daadcf6e14"},"vehicle_type_id":"4","last_reported":1753380964,"current_range_meters":10800,"station_id":"","pricing_plan_id":"cebpf4jnsgd1na2vs0mg"},{"bike_id":"ae131367-d818-44a0-9e1d-4aa65dcdb16a","system_id":"levelo_inurba_marseille","lat":43.27501,"lon":5.39646,"is_reserved":false,"is_disabled":false,"rental_uris":{"android":"levelo://app?vid=ae131367-d818-44a0-9e1d-4aa65dcdb16a","ios":"levelo://app?vid=ae131367-d818-44a0-9e1d-4aa65dcdb16a"},"vehicle_type_id":"4","last_reported":1753380964,"current_range_meters":10800,"station_id":"","pricing_plan_id":"cebpf4jnsgd1na2vs0mg"},{"bike_id":"3cd09fc8-9554-4236-8496-0931a7be09d1","system_id":"levelo_inurba_marseille","lat":43.211918,"lon":5.350701,"is_reserved":false,"is_disabled":false,"rental_uris":{"android":"levelo://app?vid=3cd09fc8-9554-4236-8496-0931a7be09d1","ios":"levelo://app?vid=3cd09fc8-9554-4236-8496-0931a7be09d1"},"vehicle_type_id":"4","last_reported":1753380964,"current_range_meters":10800,"station_id":"st_cvj6sg6p6f1abm77japg","pricing_plan_id":"cebpf4jnsgd1na2vs0mg"},{"bike_id":"e76dae55-25f5-4544-a450-7488ccc6deb5","system_id":"levelo_inurba_marseille","lat":43.29269,"lon":5.36847,"is_reserved":false,"is_disabled":false,"rental_uris":{"android":"levelo://app?vid=e76dae55-25f5-4544-a450-7488ccc6deb5","ios":"levelo://app?vid=e76dae55-25f5-4544-a450-7488ccc6deb5"},"vehicle_type_id":"4","last_reported":1753380964,"current_range_meters":10800,"station_id":"ce4bhbp2rcd13ifvqesg","pricing_plan_id":"cebpf4jnsgd1na2vs0mg"},{"bike_id":"276a2451-1daf-4f46-abea-55fc341b9e1e","system_id":"levelo_inurba_marseille","lat":43.31083,"lon":5.42431,"is_reserved":false,"is_disabled":false,"rental_uris":{"android":"levelo://app?vid=276a2451-1daf-4f46-abea-55fc341b9e1e","ios":"levelo://app?vid=276a2451-1daf-4f46-abea-55fc341b9e1e"},"vehicle_type_id":"4","last_reported":1753380964,"current_range_meters":10800,"station_id":"ce4bhp92rcd13ifvqhag","pricing_plan_id":"cebpf4jnsgd1na2vs0mg"},{"bike_id":"2ae83899-90fd-4b59-b691-4169c75aef1a","system_id":"levelo_inurba_marseille","lat":43.33757,"lon":5.37448,"is_reserved":false,"is_disabled":false,"rental_uris":{"android":"levelo://app?vid=2ae83899-90fd-4b59-b691-4169c75aef1a","ios":"levelo://app?vid=2ae83899-90fd-4b59-b691-4169c75aef1a"},"vehicle_type_id":"4","last_reported":1753380964,"current_range_meters":10800,"station_id":"","pricing_plan_id":"cebpf4jnsgd1na2vs0mg"},{"bike_id":"b7b1026a-bb88-436b-b87c-e08c0877def6","system_id":"levelo_inurba_marseille","lat":43.28353,"lon":5.38108,"is_reserved":false,"is_disabled":false,"rental_uris":{"android":"levelo://app?vid=b7b1026a-bb88-436b-b87c-e08c0877def6","ios":"levelo://app?vid=b7b1026a-bb88-436b-b87c-e08c0877def6"},"vehicle_type_id":"4","last_reported":1753380964,"current_range_meters":11200,"station_id":"ce4bh412rcd13ifvqdr0","pricing_plan_id":"cebpf4jnsgd1na2vs0mg"},{"bike_id":"3af86f1f-3af3-455f-b94b-6aba855b61c9","system_id":"levelo_inurba_marseille","lat":43.28447,"lon":5.39167,"is_reserved":false,"is_disabled":false,"rental_uris":{"android":"levelo://app?vid=3af86f1f-3af3-455f-b94b-6aba855b61c9","ios":"levelo://app?vid=3af86f1f-3af3-455f-b94b-6aba855b61c9"},"vehicle_type_id":"4","last_reported":1753380964,"current_range_meters":11200,"station_id":"ce4bhoh2rcd13ifvqh5g","pricing_plan_id":"cebpf4jnsgd1na2vs0mg"},{"bike_id":"6359de3b-9f89-4e54-8e67-a1509f11442f","system_id":"levelo_inurba_marseille","lat":43.29633,"lon":5.40597,"is_reserved":false,"is_disabled":false,"rental_uris":{"android":"levelo://app?vid=6359de3b-9f89-4e54-8e67-a1509f11442f","ios":"levelo://app?vid=6359de3b-9f89-4e54-8e67-a1509f11442f"},"vehicle_type_id":"4","last_reported":1753380964,"current_range_meters":11200,"station_id":"ce4bh0h2rcd13ifvqd60","pricing_plan_id":"cebpf4jnsgd1na2vs0mg"},{"bike_id":"b2595d51-83b5-4d43-847d-52f1d04ed6aa","system_id":"levelo_inurba_marseille","lat":43.29058,"lon":5.35904,"is_reserved":false,"is_disabled":false,"rental_uris":{"android":"levelo://app?vid=b2595d51-83b5-4d43-847d-52f1d04ed6aa","ios":"levelo://app?vid=b2595d51-83b5-4d43-847d-52f1d04ed6aa"},"vehicle_type_id":"4","last_reported":1753380964,"current_range_meters":11200,"station_id":"ce4bha92rcd13ifvqeg0","pricing_plan_id":"cebpf4jnsgd1na2vs0mg"},{"bike_id":"4be58d17-bfe3-4c40-a36a-0bff7a8cd21d","system_id":"levelo_inurba_marseille","lat":43.2962,"lon":5.37171,"is_reserved":false,"is_disabled":false,"rental_uris":{"android":"levelo://app?vid=4be58d17-bfe3-4c40-a36a-0bff7a8cd21d","ios":"levelo://app?vid=4be58d17-bfe3-4c40-a36a-0bff7a8cd21d"},"vehicle_type_id":"4","last_reported":1753380964,"current_range_meters":11200,"station_id":"ce4bgnh2rcd13ifvqc0g","pricing_plan_id":"cebpf4jnsgd1na2vs0mg"},{"bike_id":"b89d6267-55af-48a1-8887-3f0adc5ff195","system_id":"levelo_inurba_marseille","lat":43.301319,"lon":5.39874,"is_reserved":false,"is_disabled":false,"rental_uris":{"android":"levelo://app?vid=b89d6267-55af-48a1-8887-3f0adc5ff195","ios":"levelo://app?vid=b89d6267-55af-48a1-8887-3f0adc5ff195"},"vehicle_type_id":"4","last_reported":1753380964,"current_range_meters":11200,"station_id":"","pricing_plan_id":"cebpf4jnsgd1na2vs0mg"},{"bike_id":"2006d6ab-c619-4a15-b9f3-97c1160843f0","system_id":"levelo_inurba_marseille","lat":43.28159,"lon":5.361,"is_reserved":false,"is_disabled":false,"rental_uris":{"android":"levelo://app?vid=2006d6ab-c619-4a15-b9f3-97c1160843f0","ios":"levelo://app?vid=2006d6ab-c619-4a15-b9f3-97c1160843f0"},"vehicle_type_id":"4","last_reported":1753380964,"current_range_meters":11200,"station_id":"","pricing_plan_id":"cebpf4jnsgd1na2vs0mg"},{"bike_id":"267f4910-1bdc-4245-91d1-eb939277dcd7","system_id":"levelo_inurba_marseille","lat":43.30207,"lon":5.39468,"is_reserved":false,"is_disabled":false,"rental_uris":{"android":"levelo://app?vid=267f4910-1bdc-4245-91d1-eb939277dcd7","ios":"levelo://app?vid=267f4910-1bdc-4245-91d1-eb939277dcd7"},"vehicle_type_id":"4","last_reported":1753380964,"current_range_meters":11200,"station_id":"ce4bh0p2rcd13ifvqd70","pricing_plan_id":"cebpf4jnsgd1na2vs0mg"},{"bike_id":"75921511-23bf-408f-9470-1062209789d6","system_id":"levelo_inurba_marseille","lat":43.25578,"lon":5.38221,"is_reserved":false,"is_disabled":false,"rental_uris":{"android":"levelo://app?vid=75921511-23bf-408f-9470-1062209789d6","ios":"levelo://app?vid=75921511-23bf-408f-9470-1062209789d6"},"vehicle_type_id":"4","last_reported":1753380964,"current_range_meters":11600,"station_id":"ce4bhih2rcd13ifvqfs0","pricing_plan_id":"cebpf4jnsgd1na2vs0mg"},{"bike_id":"26eb56a6-55c7-41a6-8958-89888a2c1960","system_id":"levelo_inurba_marseille","lat":43.28458,"lon":5.35883,"is_reserved":false,"is_disabled":false,"rental_uris":{"android":"levelo://app?vid=26eb56a6-55c7-41a6-8958-89888a2c1960","ios":"levelo://app?vid=26eb56a6-55c7-41a6-8958-89888a2c1960"},"vehicle_type_id":"4","last_reported":1753380964,"current_range_meters":11200,"station_id":"ce4bhah2rcd13ifvqei0","pricing_plan_id":"cebpf4jnsgd1na2vs0mg"},{"bike_id":"0836f668-bebb-41e9-a6dd-df53647bdc7f","system_id":"levelo_inurba_marseille","lat":43.25594,"lon":5.38221,"is_reserved":false,"is_disabled":false,"rental_uris":{"android":"levelo://app?vid=0836f668-bebb-41e9-a6dd-df53647bdc7f","ios":"levelo://app?vid=0836f668-bebb-41e9-a6dd-df53647bdc7f"},"vehicle_type_id":"4","last_reported":1753380964,"current_range_meters":11600,"station_id":"ce4bhih2rcd13ifvqfs0","pricing_plan_id":"cebpf4jnsgd1na2vs0mg"},{"bike_id":"5ac85406-65d0-4336-aa89-4b04b2e6689e","system_id":"levelo_inurba_marseille","lat":43.33263,"lon":5.41949,"is_reserved":false,"is_disabled":false,"rental_uris":{"android":"levelo://app?vid=5ac85406-65d0-4336-aa89-4b04b2e6689e","ios":"levelo://app?vid=5ac85406-65d0-4336-aa89-4b04b2e6689e"},"vehicle_type_id":"4","last_reported":1753380964,"current_range_meters":11600,"station_id":"","pricing_plan_id":"cebpf4jnsgd1na2vs0mg"},{"bike_id":"c056311f-78c9-4e18-8685-91c659ddb125","system_id":"levelo_inurba_marseille","lat":43.31605,"lon":5.38962,"is_reserved":false,"is_disabled":false,"rental_uris":{"android":"levelo://app?vid=c056311f-78c9-4e18-8685-91c659ddb125","ios":"levelo://app?vid=c056311f-78c9-4e18-8685-91c659ddb125"},"vehicle_type_id":"4","last_reported":1753380964,"current_range_meters":11600,"station_id":"","pricing_plan_id":"cebpf4jnsgd1na2vs0mg"},{"bike_id":"b38596bd-a4cc-44dd-88f9-0473e1e571c1","system_id":"levelo_inurba_marseille","lat":43.27369,"lon":5.36268,"is_reserved":false,"is_disabled":false,"rental_uris":{"android":"levelo://app?vid=b38596bd-a4cc-44dd-88f9-0473e1e571c1","ios":"levelo://app?vid=b38596bd-a4cc-44dd-88f9-0473e1e571c1"},"vehicle_type_id":"4","last_reported":1753380964,"current_range_meters":11600,"station_id":"ce4bhbh2rcd13ifvqeo0","pricing_plan_id":"cebpf4jnsgd1na2vs0mg"},{"bike_id":"672fb618-dfc9-4113-9e8d-6418c5b1d606","system_id":"levelo_inurba_marseille","lat":43.287249,"lon":5.360852,"is_reserved":false,"is_disabled":false,"rental_uris":{"android":"levelo://app?vid=672fb618-dfc9-4113-9e8d-6418c5b1d606","ios":"levelo://app?vid=672fb618-dfc9-4113-9e8d-6418c5b1d606"},"vehicle_type_id":"4","last_reported":1753380964,"current_range_meters":11600,"station_id":"cki0cbj6b192h4jlfktg","pricing_plan_id":"cebpf4jnsgd1na2vs0mg"},{"bike_id":"e5cef987-139d-432d-84ad-45946cf1b688","system_id":"levelo_inurba_marseille","lat":43.25575,"lon":5.38247,"is_reserved":false,"is_disabled":false,"rental_uris":{"android":"levelo://app?vid=e5cef987-139d-432d-84ad-45946cf1b688","ios":"levelo://app?vid=e5cef987-139d-432d-84ad-45946cf1b688"},"vehicle_type_id":"4","last_reported":1753380964,"current_range_meters":11600,"station_id":"ce4bhih2rcd13ifvqfs0","pricing_plan_id":"cebpf4jnsgd1na2vs0mg"},{"bike_id":"5a68ab07-40c9-43d8-b7b1-b21682d8d32a","system_id":"levelo_inurba_marseille","lat":43.23961,"lon":5.36631,"is_reserved":false,"is_disabled":false,"rental_uris":{"android":"levelo://app?vid=5a68ab07-40c9-43d8-b7b1-b21682d8d32a","ios":"levelo://app?vid=5a68ab07-40c9-43d8-b7b1-b21682d8d32a"},"vehicle_type_id":"4","last_reported":1753380964,"current_range_meters":12000,"station_id":"ce4bhi12rcd13ifvqfp0","pricing_plan_id":"cebpf4jnsgd1na2vs0mg"},{"bike_id":"c5d9939b-206a-4b58-bc12-856622d1d364","system_id":"levelo_inurba_marseille","lat":43.23155,"lon":5.43712,"is_reserved":false,"is_disabled":false,"rental_uris":{"android":"levelo://app?vid=c5d9939b-206a-4b58-bc12-856622d1d364","ios":"levelo://app?vid=c5d9939b-206a-4b58-bc12-856622d1d364"},"vehicle_type_id":"4","last_reported":1753380964,"current_range_meters":12000,"station_id":"ce4bhmp2rcd13ifvqgog","pricing_plan_id":"cebpf4jnsgd1na2vs0mg"},{"bike_id":"86af42ab-f6da-449c-b18c-4cb444d241db","system_id":"levelo_inurba_marseille","lat":43.30889,"lon":5.39633,"is_reserved":false,"is_disabled":false,"rental_uris":{"android":"levelo://app?vid=86af42ab-f6da-449c-b18c-4cb444d241db","ios":"levelo://app?vid=86af42ab-f6da-449c-b18c-4cb444d241db"},"vehicle_type_id":"4","last_reported":1753380964,"current_range_meters":12000,"station_id":"ce4bh012rcd13ifvqcv0","pricing_plan_id":"cebpf4jnsgd1na2vs0mg"},{"bike_id":"6bb1f31c-9335-4f39-9585-31374a4775f9","system_id":"levelo_inurba_marseille","lat":43.325583,"lon":5.379059,"is_reserved":false,"is_disabled":false,"rental_uris":{"android":"levelo://app?vid=6bb1f31c-9335-4f39-9585-31374a4775f9","ios":"levelo://app?vid=6bb1f31c-9335-4f39-9585-31374a4775f9"},"vehicle_type_id":"4","last_reported":1753380964,"current_range_meters":12000,"station_id":"","pricing_plan_id":"cebpf4jnsgd1na2vs0mg"},{"bike_id":"6a95c831-81fc-4eff-8256-834e950cede6","system_id":"levelo_inurba_marseille","lat":43.26559,"lon":5.3729,"is_reserved":false,"is_disabled":false,"rental_uris":{"android":"levelo://app?vid=6a95c831-81fc-4eff-8256-834e950cede6","ios":"levelo://app?vid=6a95c831-81fc-4eff-8256-834e950cede6"},"vehicle_type_id":"4","last_reported":1753380964,"current_range_meters":12000,"station_id":"","pricing_plan_id":"cebpf4jnsgd1na2vs0mg"},{"bike_id":"3ac9e330-1df6-4fa0-8e3b-17f5d696b48c","system_id":"levelo_inurba_marseille","lat":43.27382,"lon":5.36254,"is_reserved":false,"is_disabled":false,"rental_uris":{"android":"levelo://app?vid=3ac9e330-1df6-4fa0-8e3b-17f5d696b48c","ios":"levelo://app?vid=3ac9e330-1df6-4fa0-8e3b-17f5d696b48c"},"vehicle_type_id":"4","last_reported":1753380964,"current_range_meters":12400,"station_id":"ce4bhbh2rcd13ifvqeo0","pricing_plan_id":"cebpf4jnsgd1na2vs0mg"},{"bike_id":"dead0002-8c83-4a50-b038-9734e3b1808b","system_id":"levelo_inurba_marseille","lat":43.23193,"lon":5.35551,"is_reserved":false,"is_disabled":false,"rental_uris":{"android":"levelo://app?vid=dead0002-8c83-4a50-b038-9734e3b1808b","ios":"levelo://app?vid=dead0002-8c83-4a50-b038-9734e3b1808b"},"vehicle_type_id":"4","last_reported":1753380964,"current_range_meters":12400,"station_id":"","pricing_plan_id":"cebpf4jnsgd1na2vs0mg"},{"bike_id":"18b86593-4f21-41ed-81b3-f3a5b378dc91","system_id":"levelo_inurba_marseille","lat":43.31193,"lon":5.38125,"is_reserved":false,"is_disabled":false,"rental_uris":{"android":"levelo://app?vid=18b86593-4f21-41ed-81b3-f3a5b378dc91","ios":"levelo://app?vid=18b86593-4f21-41ed-81b3-f3a5b378dc91"},"vehicle_type_id":"4","last_reported":1753380964,"current_range_meters":12400,"station_id":"","pricing_plan_id":"cebpf4jnsgd1na2vs0mg"},{"bike_id":"76669790-85aa-49ee-99cf-dbbae55c2eca","system_id":"levelo_inurba_marseille","lat":43.27903,"lon":5.38013,"is_reserved":false,"is_disabled":false,"rental_uris":{"android":"levelo://app?vid=76669790-85aa-49ee-99cf-dbbae55c2eca","ios":"levelo://app?vid=76669790-85aa-49ee-99cf-dbbae55c2eca"},"vehicle_type_id":"4","last_reported":1753380964,"current_range_meters":12000,"station_id":"ce4bhf92rcd13ifvqf50","pricing_plan_id":"cebpf4jnsgd1na2vs0mg"},{"bike_id":"36799b19-e189-4088-a755-ad25a34791b7","system_id":"levelo_inurba_marseille","lat":43.30439,"lon":5.38887,"is_reserved":false,"is_disabled":false,"rental_uris":{"android":"levelo://app?vid=36799b19-e189-4088-a755-ad25a34791b7","ios":"levelo://app?vid=36799b19-e189-4088-a755-ad25a34791b7"},"vehicle_type_id":"4","last_reported":1753380964,"current_range_meters":12000,"station_id":"ce4bgk12rcd13ifvqbi0","pricing_plan_id":"cebpf4jnsgd1na2vs0mg"},{"bike_id":"959c968c-1c72-43d7-8981-f0484be1c298","system_id":"levelo_inurba_marseille","lat":43.27077,"lon":5.42255,"is_reserved":false,"is_disabled":false,"rental_uris":{"android":"levelo://app?vid=959c968c-1c72-43d7-8981-f0484be1c298","ios":"levelo://app?vid=959c968c-1c72-43d7-8981-f0484be1c298"},"vehicle_type_id":"4","last_reported":1753380964,"current_range_meters":12400,"station_id":"ce4bhk92rcd13ifvqgb0","pricing_plan_id":"cebpf4jnsgd1na2vs0mg"},{"bike_id":"d07f4742-d63f-4bfd-a6bb-0c253a6a69e2","system_id":"levelo_inurba_marseille","lat":43.29513,"lon":5.39411,"is_reserved":false,"is_disabled":false,"rental_uris":{"android":"levelo://app?vid=d07f4742-d63f-4bfd-a6bb-0c253a6a69e2","ios":"levelo://app?vid=d07f4742-d63f-4bfd-a6bb-0c253a6a69e2"},"vehicle_type_id":"4","last_reported":1753380964,"current_range_meters":12400,"station_id":"ce4bh292rcd13ifvqdf0","pricing_plan_id":"cebpf4jnsgd1na2vs0mg"},{"bike_id":"15764e5c-9dbf-4127-b7d5-4ec1473657e5","system_id":"levelo_inurba_marseille","lat":43.2894,"lon":5.36408,"is_reserved":false,"is_disabled":false,"rental_uris":{"android":"levelo://app?vid=15764e5c-9dbf-4127-b7d5-4ec1473657e5","ios":"levelo://app?vid=15764e5c-9dbf-4127-b7d5-4ec1473657e5"},"vehicle_type_id":"4","last_reported":1753380964,"current_range_meters":12400,"station_id":"ce4bhc92rcd13ifvqetg","pricing_plan_id":"cebpf4jnsgd1na2vs0mg"},{"bike_id":"1ad257b5-7f83-42c1-867f-92635ff1abbf","system_id":"levelo_inurba_marseille","lat":43.22932,"lon":5.35384,"is_reserved":false,"is_disabled":false,"rental_uris":{"android":"levelo://app?vid=1ad257b5-7f83-42c1-867f-92635ff1abbf","ios":"levelo://app?vid=1ad257b5-7f83-42c1-867f-92635ff1abbf"},"vehicle_type_id":"4","last_reported":1753380964,"current_range_meters":12400,"station_id":"cpo3532slgdg3j2ikp40","pricing_plan_id":"cebpf4jnsgd1na2vs0mg"},{"bike_id":"b913c24d-ffa7-4a46-9ee5-97549d6a74ee","system_id":"levelo_inurba_marseille","lat":43.26777,"lon":5.39427,"is_reserved":false,"is_disabled":true,"rental_uris":{"android":"levelo://app?vid=b913c24d-ffa7-4a46-9ee5-97549d6a74ee","ios":"levelo://app?vid=b913c24d-ffa7-4a46-9ee5-97549d6a74ee"},"vehicle_type_id":"4","last_reported":1753380964,"current_range_meters":12800,"station_id":"ce4bhh12rcd13ifvqfg0","pricing_plan_id":"cebpf4jnsgd1na2vs0mg"},{"bike_id":"939aed78-fbd4-40a3-bf23-4b0c73f437c9","system_id":"levelo_inurba_marseille","lat":43.28938,"lon":5.36401,"is_reserved":false,"is_disabled":false,"rental_uris":{"android":"levelo://app?vid=939aed78-fbd4-40a3-bf23-4b0c73f437c9","ios":"levelo://app?vid=939aed78-fbd4-40a3-bf23-4b0c73f437c9"},"vehicle_type_id":"4","last_reported":1753380964,"current_range_meters":12800,"station_id":"ce4bhc92rcd13ifvqetg","pricing_plan_id":"cebpf4jnsgd1na2vs0mg"},{"bike_id":"7ae4980d-ac6a-47ed-8d0d-1fa6aeceec9b","system_id":"levelo_inurba_marseille","lat":43.29275,"lon":5.38432,"is_reserved":false,"is_disabled":false,"rental_uris":{"android":"levelo://app?vid=7ae4980d-ac6a-47ed-8d0d-1fa6aeceec9b","ios":"levelo://app?vid=7ae4980d-ac6a-47ed-8d0d-1fa6aeceec9b"},"vehicle_type_id":"4","last_reported":1753380964,"current_range_meters":12800,"station_id":"ce4bh692rcd13ifvqea0","pricing_plan_id":"cebpf4jnsgd1na2vs0mg"},{"bike_id":"76c65f84-3b49-4269-890c-8259fe6ade74","system_id":"levelo_inurba_marseille","lat":43.3236,"lon":5.36743,"is_reserved":false,"is_disabled":false,"rental_uris":{"android":"levelo://app?vid=76c65f84-3b49-4269-890c-8259fe6ade74","ios":"levelo://app?vid=76c65f84-3b49-4269-890c-8259fe6ade74"},"vehicle_type_id":"4","last_reported":1753380964,"current_range_meters":12800,"station_id":"ce4bhsh2rcd13ifvqi2g","pricing_plan_id":"cebpf4jnsgd1na2vs0mg"},{"bike_id":"9437277c-d886-4a0b-9535-11724bd91051","system_id":"levelo_inurba_marseille","lat":43.27094,"lon":5.42262,"is_reserved":false,"is_disabled":false,"rental_uris":{"android":"levelo://app?vid=9437277c-d886-4a0b-9535-11724bd91051","ios":"levelo://app?vid=9437277c-d886-4a0b-9535-11724bd91051"},"vehicle_type_id":"4","last_reported":1753380964,"current_range_meters":12800,"station_id":"ce4bhk92rcd13ifvqgb0","pricing_plan_id":"cebpf4jnsgd1na2vs0mg"},{"bike_id":"89a8529e-8879-4124-8039-b907686611bc","system_id":"levelo_inurba_marseille","lat":43.29534,"lon":5.38517,"is_reserved":false,"is_disabled":false,"rental_uris":{"android":"levelo://app?vid=89a8529e-8879-4124-8039-b907686611bc","ios":"levelo://app?vid=89a8529e-8879-4124-8039-b907686611bc"},"vehicle_type_id":"4","last_reported":1753380964,"current_range_meters":13600,"station_id":"ce4bgih2rcd13ifvqba0","pricing_plan_id":"cebpf4jnsgd1na2vs0mg"},{"bike_id":"195c5262-e71b-4dcd-9bae-55d2d13824b4","system_id":"levelo_inurba_marseille","lat":43.30899,"lon":5.37183,"is_reserved":false,"is_disabled":false,"rental_uris":{"android":"levelo://app?vid=195c5262-e71b-4dcd-9bae-55d2d13824b4","ios":"levelo://app?vid=195c5262-e71b-4dcd-9bae-55d2d13824b4"},"vehicle_type_id":"4","last_reported":1753380964,"current_range_meters":13600,"station_id":"ce4bguh2rcd13ifvqckg","pricing_plan_id":"cebpf4jnsgd1na2vs0mg"},{"bike_id":"a5ec0df8-a141-453d-bf18-19268a53af5b","system_id":"levelo_inurba_marseille","lat":43.28143,"lon":5.42636,"is_reserved":false,"is_disabled":false,"rental_uris":{"android":"levelo://app?vid=a5ec0df8-a141-453d-bf18-19268a53af5b","ios":"levelo://app?vid=a5ec0df8-a141-453d-bf18-19268a53af5b"},"vehicle_type_id":"4","last_reported":1753380964,"current_range_meters":13600,"station_id":"ce4bhnh2rcd13ifvqgug","pricing_plan_id":"cebpf4jnsgd1na2vs0mg"},{"bike_id":"80754b1b-2f92-42f4-aad9-91cbd9623958","system_id":"levelo_inurba_marseille","lat":43.29625,"lon":5.37166,"is_reserved":false,"is_disabled":false,"rental_uris":{"android":"levelo://app?vid=80754b1b-2f92-42f4-aad9-91cbd9623958","ios":"levelo://app?vid=80754b1b-2f92-42f4-aad9-91cbd9623958"},"vehicle_type_id":"4","last_reported":1753380964,"current_range_meters":13600,"station_id":"ce4bgnh2rcd13ifvqc0g","pricing_plan_id":"cebpf4jnsgd1na2vs0mg"},{"bike_id":"57801d36-0853-4266-9286-ddb8f43caff5","system_id":"levelo_inurba_marseille","lat":43.29261,"lon":5.38442,"is_reserved":false,"is_disabled":false,"rental_uris":{"android":"levelo://app?vid=57801d36-0853-4266-9286-ddb8f43caff5","ios":"levelo://app?vid=57801d36-0853-4266-9286-ddb8f43caff5"},"vehicle_type_id":"4","last_reported":1753380964,"current_range_meters":12800,"station_id":"ce4bh692rcd13ifvqea0","pricing_plan_id":"cebpf4jnsgd1na2vs0mg"},{"bike_id":"3bebb7c7-3de2-4cc9-867e-5f7515d17bec","system_id":"levelo_inurba_marseille","lat":43.296967,"lon":5.36606,"is_reserved":false,"is_disabled":true,"rental_uris":{"android":"levelo://app?vid=3bebb7c7-3de2-4cc9-867e-5f7515d17bec","ios":"levelo://app?vid=3bebb7c7-3de2-4cc9-867e-5f7515d17bec"},"vehicle_type_id":"4","last_reported":1753380964,"current_range_meters":13600,"station_id":"ce4bgn12rcd13ifvqbt0","pricing_plan_id":"cebpf4jnsgd1na2vs0mg"},{"bike_id":"09f126c2-99ac-4df6-b2ae-4c0aa75756e5","system_id":"levelo_inurba_marseille","lat":43.3037,"lon":5.42477,"is_reserved":false,"is_disabled":false,"rental_uris":{"android":"levelo://app?vid=09f126c2-99ac-4df6-b2ae-4c0aa75756e5","ios":"levelo://app?vid=09f126c2-99ac-4df6-b2ae-4c0aa75756e5"},"vehicle_type_id":"4","last_reported":1753380964,"current_range_meters":13600,"station_id":"ce4bhoh2rcd13ifvqh6g","pricing_plan_id":"cebpf4jnsgd1na2vs0mg"},{"bike_id":"7f911594-af57-4477-9d29-6e5895a8d144","system_id":"levelo_inurba_marseille","lat":43.26941,"lon":5.40255,"is_reserved":false,"is_disabled":false,"rental_uris":{"android":"levelo://app?vid=7f911594-af57-4477-9d29-6e5895a8d144","ios":"levelo://app?vid=7f911594-af57-4477-9d29-6e5895a8d144"},"vehicle_type_id":"4","last_reported":1753380964,"current_range_meters":13600,"station_id":"cjm6bp8fraef2m0cb0m0","pricing_plan_id":"cebpf4jnsgd1na2vs0mg"},{"bike_id":"b2887e69-9798-4b8f-93fc-cf1498a3e398","system_id":"levelo_inurba_marseille","lat":43.2971,"lon":5.36606,"is_reserved":false,"is_disabled":false,"rental_uris":{"android":"levelo://app?vid=b2887e69-9798-4b8f-93fc-cf1498a3e398","ios":"levelo://app?vid=b2887e69-9798-4b8f-93fc-cf1498a3e398"},"vehicle_type_id":"4","last_reported":1753380964,"current_range_meters":14000,"station_id":"ce4bgn12rcd13ifvqbt0","pricing_plan_id":"cebpf4jnsgd1na2vs0mg"},{"bike_id":"94e19354-1470-4340-a37a-f5011500b7b4","system_id":"levelo_inurba_marseille","lat":43.303,"lon":5.39218,"is_reserved":false,"is_disabled":false,"rental_uris":{"android":"levelo://app?vid=94e19354-1470-4340-a37a-f5011500b7b4","ios":"levelo://app?vid=94e19354-1470-4340-a37a-f5011500b7b4"},"vehicle_type_id":"4","last_reported":1753380964,"current_range_meters":14000,"station_id":"ce4bgkh2rcd13ifvqbk0","pricing_plan_id":"cebpf4jnsgd1na2vs0mg"},{"bike_id":"942481ee-1a01-4826-8a9f-dfcf76c0fbe3","system_id":"levelo_inurba_marseille","lat":43.30133,"lon":5.38779,"is_reserved":false,"is_disabled":false,"rental_uris":{"android":"levelo://app?vid=942481ee-1a01-4826-8a9f-dfcf76c0fbe3","ios":"levelo://app?vid=942481ee-1a01-4826-8a9f-dfcf76c0fbe3"},"vehicle_type_id":"4","last_reported":1753380964,"current_range_meters":14000,"station_id":"ce4bghh2rcd13ifvqb60","pricing_plan_id":"cebpf4jnsgd1na2vs0mg"},{"bike_id":"4de9a30f-2408-4636-a906-9f9a9345ca1b","system_id":"levelo_inurba_marseille","lat":43.273702,"lon":5.362388,"is_reserved":false,"is_disabled":false,"rental_uris":{"android":"levelo://app?vid=4de9a30f-2408-4636-a906-9f9a9345ca1b","ios":"levelo://app?vid=4de9a30f-2408-4636-a906-9f9a9345ca1b"},"vehicle_type_id":"4","last_reported":1753380964,"current_range_meters":14000,"station_id":"ce4bhbh2rcd13ifvqeo0","pricing_plan_id":"cebpf4jnsgd1na2vs0mg"},{"bike_id":"5f824980-27aa-4ef2-856d-b766bebead8a","system_id":"levelo_inurba_marseille","lat":43.2251,"lon":5.34776,"is_reserved":false,"is_disabled":false,"rental_uris":{"android":"levelo://app?vid=5f824980-27aa-4ef2-856d-b766bebead8a","ios":"levelo://app?vid=5f824980-27aa-4ef2-856d-b766bebead8a"},"vehicle_type_id":"4","last_reported":1753380964,"current_range_meters":14000,"station_id":"st_cvj5dfep6f1abm77gieg","pricing_plan_id":"cebpf4jnsgd1na2vs0mg"},{"bike_id":"8731043a-0c63-441b-9010-bfd03f99b25d","system_id":"levelo_inurba_marseille","lat":43.30884,"lon":5.39647,"is_reserved":false,"is_disabled":false,"rental_uris":{"android":"levelo://app?vid=8731043a-0c63-441b-9010-bfd03f99b25d","ios":"levelo://app?vid=8731043a-0c63-441b-9010-bfd03f99b25d"},"vehicle_type_id":"4","last_reported":1753380964,"current_range_meters":14000,"station_id":"ce4bh012rcd13ifvqcv0","pricing_plan_id":"cebpf4jnsgd1na2vs0mg"},{"bike_id":"46e5b704-0f49-498f-92f3-b52af67ca47c","system_id":"levelo_inurba_marseille","lat":43.29593,"lon":5.38097,"is_reserved":false,"is_disabled":false,"rental_uris":{"android":"levelo://app?vid=46e5b704-0f49-498f-92f3-b52af67ca47c","ios":"levelo://app?vid=46e5b704-0f49-498f-92f3-b52af67ca47c"},"vehicle_type_id":"4","last_reported":1753380964,"current_range_meters":14000,"station_id":"ce4bgl12rcd13ifvqbo0","pricing_plan_id":"cebpf4jnsgd1na2vs0mg"},{"bike_id":"15631bab-34a4-4c5d-8239-f49c5baac66f","system_id":"levelo_inurba_marseille","lat":43.292672,"lon":5.384278,"is_reserved":false,"is_disabled":false,"rental_uris":{"android":"levelo://app?vid=15631bab-34a4-4c5d-8239-f49c5baac66f","ios":"levelo://app?vid=15631bab-34a4-4c5d-8239-f49c5baac66f"},"vehicle_type_id":"4","last_reported":1753380964,"current_range_meters":14000,"station_id":"ce4bh692rcd13ifvqea0","pricing_plan_id":"cebpf4jnsgd1na2vs0mg"},{"bike_id":"dc008758-769a-488d-b61a-508ebeb335f1","system_id":"levelo_inurba_marseille","lat":43.29965,"lon":5.38495,"is_reserved":false,"is_disabled":false,"rental_uris":{"android":"levelo://app?vid=dc008758-769a-488d-b61a-508ebeb335f1","ios":"levelo://app?vid=dc008758-769a-488d-b61a-508ebeb335f1"},"vehicle_type_id":"4","last_reported":1753380964,"current_range_meters":14000,"station_id":"ce4bgj92rcd13ifvqbd0","pricing_plan_id":"cebpf4jnsgd1na2vs0mg"},{"bike_id":"de993af1-8c6e-4fcd-aa11-3cbf2991a890","system_id":"levelo_inurba_marseille","lat":43.23191,"lon":5.35577,"is_reserved":false,"is_disabled":false,"rental_uris":{"android":"levelo://app?vid=de993af1-8c6e-4fcd-aa11-3cbf2991a890","ios":"levelo://app?vid=de993af1-8c6e-4fcd-aa11-3cbf2991a890"},"vehicle_type_id":"4","last_reported":1753380964,"current_range_meters":14000,"station_id":"ce4bhu92rcd13ifvqi70","pricing_plan_id":"cebpf4jnsgd1na2vs0mg"},{"bike_id":"9ac4302d-c05c-4652-b8dd-881e1b72c38a","system_id":"levelo_inurba_marseille","lat":43.2962,"lon":5.37169,"is_reserved":false,"is_disabled":false,"rental_uris":{"android":"levelo://app?vid=9ac4302d-c05c-4652-b8dd-881e1b72c38a","ios":"levelo://app?vid=9ac4302d-c05c-4652-b8dd-881e1b72c38a"},"vehicle_type_id":"4","last_reported":1753380964,"current_range_meters":13600,"station_id":"ce4bgnh2rcd13ifvqc0g","pricing_plan_id":"cebpf4jnsgd1na2vs0mg"},{"bike_id":"3d970b41-ca64-42c3-8fd3-4009aeace65d","system_id":"levelo_inurba_marseille","lat":43.29271,"lon":5.38424,"is_reserved":false,"is_disabled":false,"rental_uris":{"android":"levelo://app?vid=3d970b41-ca64-42c3-8fd3-4009aeace65d","ios":"levelo://app?vid=3d970b41-ca64-42c3-8fd3-4009aeace65d"},"vehicle_type_id":"4","last_reported":1753380964,"current_range_meters":14400,"station_id":"ce4bh692rcd13ifvqea0","pricing_plan_id":"cebpf4jnsgd1na2vs0mg"},{"bike_id":"eaea15aa-98ae-4f78-b37a-80e2e4524837","system_id":"levelo_inurba_marseille","lat":43.297916,"lon":5.381026,"is_reserved":false,"is_disabled":false,"rental_uris":{"android":"levelo://app?vid=eaea15aa-98ae-4f78-b37a-80e2e4524837","ios":"levelo://app?vid=eaea15aa-98ae-4f78-b37a-80e2e4524837"},"vehicle_type_id":"4","last_reported":1753380964,"current_range_meters":14400,"station_id":"","pricing_plan_id":"cebpf4jnsgd1na2vs0mg"},{"bike_id":"8bdb7f56-e47d-4ebf-85c0-a9ee2f1f0abb","system_id":"levelo_inurba_marseille","lat":43.29276,"lon":5.36844,"is_reserved":false,"is_disabled":false,"rental_uris":{"android":"levelo://app?vid=8bdb7f56-e47d-4ebf-85c0-a9ee2f1f0abb","ios":"levelo://app?vid=8bdb7f56-e47d-4ebf-85c0-a9ee2f1f0abb"},"vehicle_type_id":"4","last_reported":1753380964,"current_range_meters":14400,"station_id":"ce4bhbp2rcd13ifvqesg","pricing_plan_id":"cebpf4jnsgd1na2vs0mg"},{"bike_id":"35a86048-76dd-4de0-afb2-7da8772fad44","system_id":"levelo_inurba_marseille","lat":43.21547,"lon":5.34672,"is_reserved":false,"is_disabled":false,"rental_uris":{"android":"levelo://app?vid=35a86048-76dd-4de0-afb2-7da8772fad44","ios":"levelo://app?vid=35a86048-76dd-4de0-afb2-7da8772fad44"},"vehicle_type_id":"4","last_reported":1753380964,"current_range_meters":14400,"station_id":"","pricing_plan_id":"cebpf4jnsgd1na2vs0mg"},{"bike_id":"b048a43c-fdcd-4f62-8720-3f8e275a6522","system_id":"levelo_inurba_marseille","lat":43.28851,"lon":5.35861,"is_reserved":false,"is_disabled":false,"rental_uris":{"android":"levelo://app?vid=b048a43c-fdcd-4f62-8720-3f8e275a6522","ios":"levelo://app?vid=b048a43c-fdcd-4f62-8720-3f8e275a6522"},"vehicle_type_id":"4","last_reported":1753380964,"current_range_meters":14400,"station_id":"ce4bhb12rcd13ifvqem0","pricing_plan_id":"cebpf4jnsgd1na2vs0mg"},{"bike_id":"14e3ef8e-2649-4e46-a7af-e3534e8c8749","system_id":"levelo_inurba_marseille","lat":43.268022,"lon":5.402654,"is_reserved":false,"is_disabled":false,"rental_uris":{"android":"levelo://app?vid=14e3ef8e-2649-4e46-a7af-e3534e8c8749","ios":"levelo://app?vid=14e3ef8e-2649-4e46-a7af-e3534e8c8749"},"vehicle_type_id":"4","last_reported":1753380964,"current_range_meters":14800,"station_id":"ce501612rcd8frsf0b60","pricing_plan_id":"cebpf4jnsgd1na2vs0mg"},{"bike_id":"5c065319-7bce-4701-8360-5998afec05d0","system_id":"levelo_inurba_marseille","lat":43.29887,"lon":5.39723,"is_reserved":false,"is_disabled":false,"rental_uris":{"android":"levelo://app?vid=5c065319-7bce-4701-8360-5998afec05d0","ios":"levelo://app?vid=5c065319-7bce-4701-8360-5998afec05d0"},"vehicle_type_id":"4","last_reported":1753380964,"current_range_meters":14800,"station_id":"ce4bh0h2rcd13ifvqd50","pricing_plan_id":"cebpf4jnsgd1na2vs0mg"},{"bike_id":"22dbe153-e10d-4309-a819-a23df942fef9","system_id":"levelo_inurba_marseille","lat":43.29578,"lon":5.36747,"is_reserved":false,"is_disabled":false,"rental_uris":{"android":"levelo://app?vid=22dbe153-e10d-4309-a819-a23df942fef9","ios":"levelo://app?vid=22dbe153-e10d-4309-a819-a23df942fef9"},"vehicle_type_id":"4","last_reported":1753380964,"current_range_meters":14800,"station_id":"ce4bgph2rcd13ifvqc2g","pricing_plan_id":"cebpf4jnsgd1na2vs0mg"},{"bike_id":"f7f07796-c7c9-4a74-80e9-fb85744448b8","system_id":"levelo_inurba_marseille","lat":43.22935,"lon":5.35328,"is_reserved":false,"is_disabled":false,"rental_uris":{"android":"levelo://app?vid=f7f07796-c7c9-4a74-80e9-fb85744448b8","ios":"levelo://app?vid=f7f07796-c7c9-4a74-80e9-fb85744448b8"},"vehicle_type_id":"4","last_reported":1753380964,"current_range_meters":14800,"station_id":"cpo3532slgdg3j2ikp40","pricing_plan_id":"cebpf4jnsgd1na2vs0mg"},{"bike_id":"8ec965d1-09d7-4663-a986-051ebcbee4a1","system_id":"levelo_inurba_marseille","lat":43.29259,"lon":5.38435,"is_reserved":false,"is_disabled":false,"rental_uris":{"android":"levelo://app?vid=8ec965d1-09d7-4663-a986-051ebcbee4a1","ios":"levelo://app?vid=8ec965d1-09d7-4663-a986-051ebcbee4a1"},"vehicle_type_id":"4","last_reported":1753380964,"current_range_meters":14800,"station_id":"ce4bh692rcd13ifvqea0","pricing_plan_id":"cebpf4jnsgd1na2vs0mg"},{"bike_id":"5b60f57d-b8df-45b1-a77e-1a26de4cd1e1","system_id":"levelo_inurba_marseille","lat":43.30773,"lon":5.37638,"is_reserved":false,"is_disabled":false,"rental_uris":{"android":"levelo://app?vid=5b60f57d-b8df-45b1-a77e-1a26de4cd1e1","ios":"levelo://app?vid=5b60f57d-b8df-45b1-a77e-1a26de4cd1e1"},"vehicle_type_id":"4","last_reported":1753380964,"current_range_meters":14800,"station_id":"ce4bgv92rcd13ifvqcq0","pricing_plan_id":"cebpf4jnsgd1na2vs0mg"},{"bike_id":"27b5acbc-b1fd-4385-9be5-bae49e9e4f6a","system_id":"levelo_inurba_marseille","lat":43.24809,"lon":5.37461,"is_reserved":false,"is_disabled":false,"rental_uris":{"android":"levelo://app?vid=27b5acbc-b1fd-4385-9be5-bae49e9e4f6a","ios":"levelo://app?vid=27b5acbc-b1fd-4385-9be5-bae49e9e4f6a"},"vehicle_type_id":"4","last_reported":1753380964,"current_range_meters":14800,"station_id":"ce4bhgh2rcd13ifvqfb0","pricing_plan_id":"cebpf4jnsgd1na2vs0mg"},{"bike_id":"fbda76a5-068e-4d90-b9ba-25721acd9298","system_id":"levelo_inurba_marseille","lat":43.29036,"lon":5.4397,"is_reserved":false,"is_disabled":false,"rental_uris":{"android":"levelo://app?vid=fbda76a5-068e-4d90-b9ba-25721acd9298","ios":"levelo://app?vid=fbda76a5-068e-4d90-b9ba-25721acd9298"},"vehicle_type_id":"4","last_reported":1753380964,"current_range_meters":15200,"station_id":"","pricing_plan_id":"cebpf4jnsgd1na2vs0mg"},{"bike_id":"1f39eb17-34c7-4235-9069-0f68f613789c","system_id":"levelo_inurba_marseille","lat":43.26886,"lon":5.36871,"is_reserved":false,"is_disabled":false,"rental_uris":{"android":"levelo://app?vid=1f39eb17-34c7-4235-9069-0f68f613789c","ios":"levelo://app?vid=1f39eb17-34c7-4235-9069-0f68f613789c"},"vehicle_type_id":"4","last_reported":1753380964,"current_range_meters":15200,"station_id":"","pricing_plan_id":"cebpf4jnsgd1na2vs0mg"},{"bike_id":"e5bf55b9-9f32-4dd8-a992-e1214ea95438","system_id":"levelo_inurba_marseille","lat":43.29306,"lon":5.37172,"is_reserved":false,"is_disabled":false,"rental_uris":{"android":"levelo://app?vid=e5bf55b9-9f32-4dd8-a992-e1214ea95438","ios":"levelo://app?vid=e5bf55b9-9f32-4dd8-a992-e1214ea95438"},"vehicle_type_id":"4","last_reported":1753380964,"current_range_meters":15200,"station_id":"ce4bgh92rcd13ifvqb40","pricing_plan_id":"cebpf4jnsgd1na2vs0mg"},{"bike_id":"cd46d7a3-2aff-40e0-9e50-73919cfa0e11","system_id":"levelo_inurba_marseille","lat":43.27375,"lon":5.36258,"is_reserved":false,"is_disabled":false,"rental_uris":{"android":"levelo://app?vid=cd46d7a3-2aff-40e0-9e50-73919cfa0e11","ios":"levelo://app?vid=cd46d7a3-2aff-40e0-9e50-73919cfa0e11"},"vehicle_type_id":"4","last_reported":1753380964,"current_range_meters":15200,"station_id":"ce4bhbh2rcd13ifvqeo0","pricing_plan_id":"cebpf4jnsgd1na2vs0mg"},{"bike_id":"3bbe661b-090d-492c-a06c-4150d5afc5d0","system_id":"levelo_inurba_marseille","lat":43.33023,"lon":5.39054,"is_reserved":false,"is_disabled":false,"rental_uris":{"android":"levelo://app?vid=3bbe661b-090d-492c-a06c-4150d5afc5d0","ios":"levelo://app?vid=3bbe661b-090d-492c-a06c-4150d5afc5d0"},"vehicle_type_id":"4","last_reported":1753380964,"current_range_meters":15200,"station_id":"ce4bhr92rcd13ifvqhrg","pricing_plan_id":"cebpf4jnsgd1na2vs0mg"},{"bike_id":"f7f2157f-effd-43ab-80cb-e8fe0ec86a59","system_id":"levelo_inurba_marseille","lat":43.29527,"lon":5.38534,"is_reserved":false,"is_disabled":false,"rental_uris":{"android":"levelo://app?vid=f7f2157f-effd-43ab-80cb-e8fe0ec86a59","ios":"levelo://app?vid=f7f2157f-effd-43ab-80cb-e8fe0ec86a59"},"vehicle_type_id":"4","last_reported":1753380964,"current_range_meters":15200,"station_id":"ce4bgih2rcd13ifvqba0","pricing_plan_id":"cebpf4jnsgd1na2vs0mg"},{"bike_id":"4fcf3c38-df43-4c9d-ad27-d332d189192f","system_id":"levelo_inurba_marseille","lat":43.27325,"lon":5.39066,"is_reserved":false,"is_disabled":false,"rental_uris":{"android":"levelo://app?vid=4fcf3c38-df43-4c9d-ad27-d332d189192f","ios":"levelo://app?vid=4fcf3c38-df43-4c9d-ad27-d332d189192f"},"vehicle_type_id":"4","last_reported":1753380964,"current_range_meters":15200,"station_id":"ce4bhgp2rcd13ifvqfe0","pricing_plan_id":"cebpf4jnsgd1na2vs0mg"},{"bike_id":"122db401-befd-4e57-8c3a-263cad1ffc3b","system_id":"levelo_inurba_marseille","lat":43.28709,"lon":5.37391,"is_reserved":false,"is_disabled":false,"rental_uris":{"android":"levelo://app?vid=122db401-befd-4e57-8c3a-263cad1ffc3b","ios":"levelo://app?vid=122db401-befd-4e57-8c3a-263cad1ffc3b"},"vehicle_type_id":"4","last_reported":1753380964,"current_range_meters":15200,"station_id":"ce4bh3p2rcd13ifvqdq0","pricing_plan_id":"cebpf4jnsgd1na2vs0mg"},{"bike_id":"df52031d-f6ba-4af3-a318-cddaa787b97a","system_id":"levelo_inurba_marseille","lat":43.2706,"lon":5.4026,"is_reserved":false,"is_disabled":false,"rental_uris":{"android":"levelo://app?vid=df52031d-f6ba-4af3-a318-cddaa787b97a","ios":"levelo://app?vid=df52031d-f6ba-4af3-a318-cddaa787b97a"},"vehicle_type_id":"4","last_reported":1753380964,"current_range_meters":15200,"station_id":"ce4bhk92rcd13ifvqgc0","pricing_plan_id":"cebpf4jnsgd1na2vs0mg"},{"bike_id":"17a985d5-d275-4396-995d-fa7cf5985a85","system_id":"levelo_inurba_marseille","lat":43.25597,"lon":5.38204,"is_reserved":false,"is_disabled":false,"rental_uris":{"android":"levelo://app?vid=17a985d5-d275-4396-995d-fa7cf5985a85","ios":"levelo://app?vid=17a985d5-d275-4396-995d-fa7cf5985a85"},"vehicle_type_id":"4","last_reported":1753380964,"current_range_meters":16000,"station_id":"ce4bhih2rcd13ifvqfs0","pricing_plan_id":"cebpf4jnsgd1na2vs0mg"},{"bike_id":"fea062ea-59b5-44d0-8c33-c7780ad56581","system_id":"levelo_inurba_marseille","lat":43.29276,"lon":5.36841,"is_reserved":false,"is_disabled":false,"rental_uris":{"android":"levelo://app?vid=fea062ea-59b5-44d0-8c33-c7780ad56581","ios":"levelo://app?vid=fea062ea-59b5-44d0-8c33-c7780ad56581"},"vehicle_type_id":"4","last_reported":1753380964,"current_range_meters":16000,"station_id":"ce4bhbp2rcd13ifvqesg","pricing_plan_id":"cebpf4jnsgd1na2vs0mg"},{"bike_id":"cf776233-7766-4109-aadc-a0d3c334d400","system_id":"levelo_inurba_marseille","lat":43.24078,"lon":5.3774,"is_reserved":false,"is_disabled":false,"rental_uris":{"android":"levelo://app?vid=cf776233-7766-4109-aadc-a0d3c334d400","ios":"levelo://app?vid=cf776233-7766-4109-aadc-a0d3c334d400"},"vehicle_type_id":"4","last_reported":1753380964,"current_range_meters":16000,"station_id":"ce4bhnp2rcd13ifvqgvg","pricing_plan_id":"cebpf4jnsgd1na2vs0mg"},{"bike_id":"b836f732-fadf-4dd7-9d43-a353c19e2b6a","system_id":"levelo_inurba_marseille","lat":43.25726,"lon":5.41108,"is_reserved":false,"is_disabled":false,"rental_uris":{"android":"levelo://app?vid=b836f732-fadf-4dd7-9d43-a353c19e2b6a","ios":"levelo://app?vid=b836f732-fadf-4dd7-9d43-a353c19e2b6a"},"vehicle_type_id":"4","last_reported":1753380964,"current_range_meters":16000,"station_id":"ce4bhkp2rcd13ifvqgd0","pricing_plan_id":"cebpf4jnsgd1na2vs0mg"},{"bike_id":"b7aefba6-2680-4a56-9834-4caf2af8a956","system_id":"levelo_inurba_marseille","lat":43.30545,"lon":5.3842,"is_reserved":false,"is_disabled":false,"rental_uris":{"android":"levelo://app?vid=b7aefba6-2680-4a56-9834-4caf2af8a956","ios":"levelo://app?vid=b7aefba6-2680-4a56-9834-4caf2af8a956"},"vehicle_type_id":"4","last_reported":1753380964,"current_range_meters":16000,"station_id":"ce4bgg92rcd13ifvqb30","pricing_plan_id":"cebpf4jnsgd1na2vs0mg"},{"bike_id":"0328ec12-5a05-4c30-bd25-27f5ce8bb3b4","system_id":"levelo_inurba_marseille","lat":43.31076,"lon":5.40081,"is_reserved":false,"is_disabled":false,"rental_uris":{"android":"levelo://app?vid=0328ec12-5a05-4c30-bd25-27f5ce8bb3b4","ios":"levelo://app?vid=0328ec12-5a05-4c30-bd25-27f5ce8bb3b4"},"vehicle_type_id":"4","last_reported":1753380964,"current_range_meters":16000,"station_id":"","pricing_plan_id":"cebpf4jnsgd1na2vs0mg"},{"bike_id":"d55a5cdc-296e-49e7-896b-34c218b094b5","system_id":"levelo_inurba_marseille","lat":43.30535,"lon":5.38432,"is_reserved":false,"is_disabled":false,"rental_uris":{"android":"levelo://app?vid=d55a5cdc-296e-49e7-896b-34c218b094b5","ios":"levelo://app?vid=d55a5cdc-296e-49e7-896b-34c218b094b5"},"vehicle_type_id":"4","last_reported":1753380964,"current_range_meters":16000,"station_id":"ce4bgg92rcd13ifvqb30","pricing_plan_id":"cebpf4jnsgd1na2vs0mg"},{"bike_id":"969f185e-88cb-4be7-82a5-4ed5c80b0afb","system_id":"levelo_inurba_marseille","lat":43.29793,"lon":5.38109,"is_reserved":false,"is_disabled":false,"rental_uris":{"android":"levelo://app?vid=969f185e-88cb-4be7-82a5-4ed5c80b0afb","ios":"levelo://app?vid=969f185e-88cb-4be7-82a5-4ed5c80b0afb"},"vehicle_type_id":"4","last_reported":1753380964,"current_range_meters":16000,"station_id":"ce4bgip2rcd13ifvqbb0","pricing_plan_id":"cebpf4jnsgd1na2vs0mg"},{"bike_id":"e6dcb66e-be02-410f-9d4e-272f8b50c235","system_id":"levelo_inurba_marseille","lat":43.29622,"lon":5.37154,"is_reserved":false,"is_disabled":false,"rental_uris":{"android":"levelo://app?vid=e6dcb66e-be02-410f-9d4e-272f8b50c235","ios":"levelo://app?vid=e6dcb66e-be02-410f-9d4e-272f8b50c235"},"vehicle_type_id":"4","last_reported":1753380964,"current_range_meters":16000,"station_id":"ce4bgnh2rcd13ifvqc0g","pricing_plan_id":"cebpf4jnsgd1na2vs0mg"},{"bike_id":"0aa2d153-96d1-4d69-83b8-d39119aa9dd5","system_id":"levelo_inurba_marseille","lat":43.33523,"lon":5.36229,"is_reserved":false,"is_disabled":false,"rental_uris":{"android":"levelo://app?vid=0aa2d153-96d1-4d69-83b8-d39119aa9dd5","ios":"levelo://app?vid=0aa2d153-96d1-4d69-83b8-d39119aa9dd5"},"vehicle_type_id":"4","last_reported":1753380964,"current_range_meters":16000,"station_id":"","pricing_plan_id":"cebpf4jnsgd1na2vs0mg"},{"bike_id":"ad25e224-b15c-4949-92a3-53289b1bd1fb","system_id":"levelo_inurba_marseille","lat":43.28766,"lon":5.38477,"is_reserved":false,"is_disabled":false,"rental_uris":{"android":"levelo://app?vid=ad25e224-b15c-4949-92a3-53289b1bd1fb","ios":"levelo://app?vid=ad25e224-b15c-4949-92a3-53289b1bd1fb"},"vehicle_type_id":"4","last_reported":1753380964,"current_range_meters":16000,"station_id":"","pricing_plan_id":"cebpf4jnsgd1na2vs0mg"},{"bike_id":"d2c1d56d-6a3a-4ae3-b7ab-84022ad7ad84","system_id":"levelo_inurba_marseille","lat":43.29827,"lon":5.37614,"is_reserved":false,"is_disabled":false,"rental_uris":{"android":"levelo://app?vid=d2c1d56d-6a3a-4ae3-b7ab-84022ad7ad84","ios":"levelo://app?vid=d2c1d56d-6a3a-4ae3-b7ab-84022ad7ad84"},"vehicle_type_id":"4","last_reported":1753380964,"current_range_meters":16000,"station_id":"","pricing_plan_id":"cebpf4jnsgd1na2vs0mg"},{"bike_id":"5f7521e0-e526-4e2b-9746-26208b083d07","system_id":"levelo_inurba_marseille","lat":43.3118,"lon":5.38721,"is_reserved":false,"is_disabled":false,"rental_uris":{"android":"levelo://app?vid=5f7521e0-e526-4e2b-9746-26208b083d07","ios":"levelo://app?vid=5f7521e0-e526-4e2b-9746-26208b083d07"},"vehicle_type_id":"4","last_reported":1753380964,"current_range_meters":16000,"station_id":"ce4bgv12rcd13ifvqcp0","pricing_plan_id":"cebpf4jnsgd1na2vs0mg"},{"bike_id":"d40c33a9-f40e-45aa-b3fa-af49177afd3d","system_id":"levelo_inurba_marseille","lat":43.26209,"lon":5.37437,"is_reserved":false,"is_disabled":false,"rental_uris":{"android":"levelo://app?vid=d40c33a9-f40e-45aa-b3fa-af49177afd3d","ios":"levelo://app?vid=d40c33a9-f40e-45aa-b3fa-af49177afd3d"},"vehicle_type_id":"4","last_reported":1753380964,"current_range_meters":16400,"station_id":"ce4bhgp2rcd13ifvqfc0","pricing_plan_id":"cebpf4jnsgd1na2vs0mg"},{"bike_id":"adf04dd0-b050-4ac6-9f1d-0e169c595bf8","system_id":"levelo_inurba_marseille","lat":43.32366,"lon":5.38901,"is_reserved":false,"is_disabled":false,"rental_uris":{"android":"levelo://app?vid=adf04dd0-b050-4ac6-9f1d-0e169c595bf8","ios":"levelo://app?vid=adf04dd0-b050-4ac6-9f1d-0e169c595bf8"},"vehicle_type_id":"4","last_reported":1753380964,"current_range_meters":16400,"station_id":"ce4bhqp2rcd13ifvqhog","pricing_plan_id":"cebpf4jnsgd1na2vs0mg"},{"bike_id":"d8ab8225-ebfc-48f1-9981-f15e3b9960ea","system_id":"levelo_inurba_marseille","lat":43.22922,"lon":5.35372,"is_reserved":false,"is_disabled":false,"rental_uris":{"android":"levelo://app?vid=d8ab8225-ebfc-48f1-9981-f15e3b9960ea","ios":"levelo://app?vid=d8ab8225-ebfc-48f1-9981-f15e3b9960ea"},"vehicle_type_id":"4","last_reported":1753380964,"current_range_meters":16400,"station_id":"cpo3532slgdg3j2ikp40","pricing_plan_id":"cebpf4jnsgd1na2vs0mg"},{"bike_id":"481351de-e3d5-4a6f-aa67-c1762e7ed223","system_id":"levelo_inurba_marseille","lat":43.27062,"lon":5.42253,"is_reserved":false,"is_disabled":false,"rental_uris":{"android":"levelo://app?vid=481351de-e3d5-4a6f-aa67-c1762e7ed223","ios":"levelo://app?vid=481351de-e3d5-4a6f-aa67-c1762e7ed223"},"vehicle_type_id":"4","last_reported":1753380964,"current_range_meters":16400,"station_id":"ce4bhk92rcd13ifvqgb0","pricing_plan_id":"cebpf4jnsgd1na2vs0mg"},{"bike_id":"0a7e2862-d8ec-4c77-89d9-cfcdd51f8d75","system_id":"levelo_inurba_marseille","lat":43.318138,"lon":5.37288,"is_reserved":false,"is_disabled":false,"rental_uris":{"android":"levelo://app?vid=0a7e2862-d8ec-4c77-89d9-cfcdd51f8d75","ios":"levelo://app?vid=0a7e2862-d8ec-4c77-89d9-cfcdd51f8d75"},"vehicle_type_id":"4","last_reported":1753380964,"current_range_meters":16400,"station_id":"","pricing_plan_id":"cebpf4jnsgd1na2vs0mg"},{"bike_id":"4f8d1ece-d46b-4568-8d3d-da00e229215a","system_id":"levelo_inurba_marseille","lat":43.30244,"lon":5.40051,"is_reserved":false,"is_disabled":false,"rental_uris":{"android":"levelo://app?vid=4f8d1ece-d46b-4568-8d3d-da00e229215a","ios":"levelo://app?vid=4f8d1ece-d46b-4568-8d3d-da00e229215a"},"vehicle_type_id":"4","last_reported":1753380964,"current_range_meters":16400,"station_id":"ce4bgvh2rcd13ifvqcs0","pricing_plan_id":"cebpf4jnsgd1na2vs0mg"},{"bike_id":"ce193c8e-90e0-4599-95e2-d02b7d163b03","system_id":"levelo_inurba_marseille","lat":43.24085,"lon":5.37724,"is_reserved":false,"is_disabled":false,"rental_uris":{"android":"levelo://app?vid=ce193c8e-90e0-4599-95e2-d02b7d163b03","ios":"levelo://app?vid=ce193c8e-90e0-4599-95e2-d02b7d163b03"},"vehicle_type_id":"4","last_reported":1753380964,"current_range_meters":16800,"station_id":"ce4bhnp2rcd13ifvqgvg","pricing_plan_id":"cebpf4jnsgd1na2vs0mg"},{"bike_id":"c2aa24e1-ffa0-4738-9779-885f98cdb3cb","system_id":"levelo_inurba_marseille","lat":43.29598,"lon":5.36747,"is_reserved":false,"is_disabled":false,"rental_uris":{"android":"levelo://app?vid=c2aa24e1-ffa0-4738-9779-885f98cdb3cb","ios":"levelo://app?vid=c2aa24e1-ffa0-4738-9779-885f98cdb3cb"},"vehicle_type_id":"4","last_reported":1753380964,"current_range_meters":16800,"station_id":"ce4bgph2rcd13ifvqc2g","pricing_plan_id":"cebpf4jnsgd1na2vs0mg"},{"bike_id":"4c6ad4c9-6a81-4793-9103-a3cd02319b5f","system_id":"levelo_inurba_marseille","lat":43.28999,"lon":5.35613,"is_reserved":false,"is_disabled":false,"rental_uris":{"android":"levelo://app?vid=4c6ad4c9-6a81-4793-9103-a3cd02319b5f","ios":"levelo://app?vid=4c6ad4c9-6a81-4793-9103-a3cd02319b5f"},"vehicle_type_id":"4","last_reported":1753380964,"current_range_meters":16800,"station_id":"ce4bhb92rcd13ifvqen0","pricing_plan_id":"cebpf4jnsgd1na2vs0mg"},{"bike_id":"39d5d8c8-01b0-4a59-91a6-074cb7825aee","system_id":"levelo_inurba_marseille","lat":43.29063,"lon":5.3716,"is_reserved":false,"is_disabled":false,"rental_uris":{"android":"levelo://app?vid=39d5d8c8-01b0-4a59-91a6-074cb7825aee","ios":"levelo://app?vid=39d5d8c8-01b0-4a59-91a6-074cb7825aee"},"vehicle_type_id":"4","last_reported":1753380964,"current_range_meters":16800,"station_id":"ce4bh5p2rcd13ifvqe4g","pricing_plan_id":"cebpf4jnsgd1na2vs0mg"},{"bike_id":"a2239537-51b4-47ae-ba19-1fc071660984","system_id":"levelo_inurba_marseille","lat":43.29579,"lon":5.36744,"is_reserved":false,"is_disabled":false,"rental_uris":{"android":"levelo://app?vid=a2239537-51b4-47ae-ba19-1fc071660984","ios":"levelo://app?vid=a2239537-51b4-47ae-ba19-1fc071660984"},"vehicle_type_id":"4","last_reported":1753380964,"current_range_meters":16400,"station_id":"ce4bgph2rcd13ifvqc2g","pricing_plan_id":"cebpf4jnsgd1na2vs0mg"},{"bike_id":"77200674-b07a-4178-a077-b5d01d08d800","system_id":"levelo_inurba_marseille","lat":43.29189,"lon":5.39327,"is_reserved":false,"is_disabled":false,"rental_uris":{"android":"levelo://app?vid=77200674-b07a-4178-a077-b5d01d08d800","ios":"levelo://app?vid=77200674-b07a-4178-a077-b5d01d08d800"},"vehicle_type_id":"4","last_reported":1753380964,"current_range_meters":16800,"station_id":"ce4bh192rcd13ifvqdd0","pricing_plan_id":"cebpf4jnsgd1na2vs0mg"},{"bike_id":"7d13fe42-b739-4978-b9d9-ec890d93bd79","system_id":"levelo_inurba_marseille","lat":43.28722,"lon":5.36091,"is_reserved":false,"is_disabled":false,"rental_uris":{"android":"levelo://app?vid=7d13fe42-b739-4978-b9d9-ec890d93bd79","ios":"levelo://app?vid=7d13fe42-b739-4978-b9d9-ec890d93bd79"},"vehicle_type_id":"4","last_reported":1753380964,"current_range_meters":16800,"station_id":"cki0cbj6b192h4jlfktg","pricing_plan_id":"cebpf4jnsgd1na2vs0mg"},{"bike_id":"6b4ebec4-52b1-484d-b344-50b095939dd7","system_id":"levelo_inurba_marseille","lat":43.28724,"lon":5.36083,"is_reserved":false,"is_disabled":false,"rental_uris":{"android":"levelo://app?vid=6b4ebec4-52b1-484d-b344-50b095939dd7","ios":"levelo://app?vid=6b4ebec4-52b1-484d-b344-50b095939dd7"},"vehicle_type_id":"4","last_reported":1753380964,"current_range_meters":16800,"station_id":"cki0cbj6b192h4jlfktg","pricing_plan_id":"cebpf4jnsgd1na2vs0mg"},{"bike_id":"b63b11be-5ecd-48c8-a48d-2b0558b136c7","system_id":"levelo_inurba_marseille","lat":43.292395,"lon":5.360445,"is_reserved":false,"is_disabled":false,"rental_uris":{"android":"levelo://app?vid=b63b11be-5ecd-48c8-a48d-2b0558b136c7","ios":"levelo://app?vid=b63b11be-5ecd-48c8-a48d-2b0558b136c7"},"vehicle_type_id":"4","last_reported":1753380964,"current_range_meters":16800,"station_id":"ce4bhbh2rcd13ifvqeqg","pricing_plan_id":"cebpf4jnsgd1na2vs0mg"},{"bike_id":"53a26903-464f-4fc4-9933-61532f3dde60","system_id":"levelo_inurba_marseille","lat":43.26558,"lon":5.37293,"is_reserved":false,"is_disabled":false,"rental_uris":{"android":"levelo://app?vid=53a26903-464f-4fc4-9933-61532f3dde60","ios":"levelo://app?vid=53a26903-464f-4fc4-9933-61532f3dde60"},"vehicle_type_id":"4","last_reported":1753380964,"current_range_meters":16800,"station_id":"ce4bhg12rcd13ifvqf70","pricing_plan_id":"cebpf4jnsgd1na2vs0mg"},{"bike_id":"0a2aa375-1039-49db-9de4-cbd9a97ca2a5","system_id":"levelo_inurba_marseille","lat":43.25573,"lon":5.38233,"is_reserved":false,"is_disabled":false,"rental_uris":{"android":"levelo://app?vid=0a2aa375-1039-49db-9de4-cbd9a97ca2a5","ios":"levelo://app?vid=0a2aa375-1039-49db-9de4-cbd9a97ca2a5"},"vehicle_type_id":"4","last_reported":1753380964,"current_range_meters":17200,"station_id":"ce4bhih2rcd13ifvqfs0","pricing_plan_id":"cebpf4jnsgd1na2vs0mg"},{"bike_id":"eee05789-f787-4601-865f-9112c2e8e323","system_id":"levelo_inurba_marseille","lat":43.296463,"lon":5.371835,"is_reserved":false,"is_disabled":false,"rental_uris":{"android":"levelo://app?vid=eee05789-f787-4601-865f-9112c2e8e323","ios":"levelo://app?vid=eee05789-f787-4601-865f-9112c2e8e323"},"vehicle_type_id":"4","last_reported":1753380964,"current_range_meters":17200,"station_id":"ce4bgnh2rcd13ifvqc0g","pricing_plan_id":"cebpf4jnsgd1na2vs0mg"},{"bike_id":"f2ca3887-7e82-498b-8c49-e80cd18a3051","system_id":"levelo_inurba_marseille","lat":43.2397,"lon":5.36616,"is_reserved":false,"is_disabled":false,"rental_uris":{"android":"levelo://app?vid=f2ca3887-7e82-498b-8c49-e80cd18a3051","ios":"levelo://app?vid=f2ca3887-7e82-498b-8c49-e80cd18a3051"},"vehicle_type_id":"4","last_reported":1753380964,"current_range_meters":17200,"station_id":"ce4bhi12rcd13ifvqfp0","pricing_plan_id":"cebpf4jnsgd1na2vs0mg"},{"bike_id":"a7742abf-ead4-402b-a427-c8cbc9c3c6ef","system_id":"levelo_inurba_marseille","lat":43.29307,"lon":5.36835,"is_reserved":false,"is_disabled":false,"rental_uris":{"android":"levelo://app?vid=a7742abf-ead4-402b-a427-c8cbc9c3c6ef","ios":"levelo://app?vid=a7742abf-ead4-402b-a427-c8cbc9c3c6ef"},"vehicle_type_id":"4","last_reported":1753380964,"current_range_meters":17200,"station_id":"ce4bhbp2rcd13ifvqesg","pricing_plan_id":"cebpf4jnsgd1na2vs0mg"},{"bike_id":"40cfdebd-3144-4f64-9ccd-fcc8e367a18f","system_id":"levelo_inurba_marseille","lat":43.29072,"lon":5.37178,"is_reserved":false,"is_disabled":false,"rental_uris":{"android":"levelo://app?vid=40cfdebd-3144-4f64-9ccd-fcc8e367a18f","ios":"levelo://app?vid=40cfdebd-3144-4f64-9ccd-fcc8e367a18f"},"vehicle_type_id":"4","last_reported":1753380964,"current_range_meters":17200,"station_id":"ce4bh5p2rcd13ifvqe4g","pricing_plan_id":"cebpf4jnsgd1na2vs0mg"},{"bike_id":"607a6e67-0094-43e5-8623-e79b8c7c9d8a","system_id":"levelo_inurba_marseille","lat":43.24799,"lon":5.37432,"is_reserved":false,"is_disabled":false,"rental_uris":{"android":"levelo://app?vid=607a6e67-0094-43e5-8623-e79b8c7c9d8a","ios":"levelo://app?vid=607a6e67-0094-43e5-8623-e79b8c7c9d8a"},"vehicle_type_id":"4","last_reported":1753380964,"current_range_meters":17200,"station_id":"ce4bhgh2rcd13ifvqfb0","pricing_plan_id":"cebpf4jnsgd1na2vs0mg"},{"bike_id":"d7454a35-a055-43c7-b67f-9f29aa7c80f5","system_id":"levelo_inurba_marseille","lat":43.29035,"lon":5.37564,"is_reserved":false,"is_disabled":false,"rental_uris":{"android":"levelo://app?vid=d7454a35-a055-43c7-b67f-9f29aa7c80f5","ios":"levelo://app?vid=d7454a35-a055-43c7-b67f-9f29aa7c80f5"},"vehicle_type_id":"4","last_reported":1753380964,"current_range_meters":17200,"station_id":"ce4bh692rcd13ifvqe90","pricing_plan_id":"cebpf4jnsgd1na2vs0mg"},{"bike_id":"261d4bb0-7bb9-4c80-93f3-cd6f68b7285e","system_id":"levelo_inurba_marseille","lat":43.31499,"lon":5.36919,"is_reserved":false,"is_disabled":false,"rental_uris":{"android":"levelo://app?vid=261d4bb0-7bb9-4c80-93f3-cd6f68b7285e","ios":"levelo://app?vid=261d4bb0-7bb9-4c80-93f3-cd6f68b7285e"},"vehicle_type_id":"4","last_reported":1753380964,"current_range_meters":17200,"station_id":"","pricing_plan_id":"cebpf4jnsgd1na2vs0mg"},{"bike_id":"22832dd9-6f40-41f0-84f7-20d5b045fc09","system_id":"levelo_inurba_marseille","lat":43.30369,"lon":5.42472,"is_reserved":false,"is_disabled":false,"rental_uris":{"android":"levelo://app?vid=22832dd9-6f40-41f0-84f7-20d5b045fc09","ios":"levelo://app?vid=22832dd9-6f40-41f0-84f7-20d5b045fc09"},"vehicle_type_id":"4","last_reported":1753380964,"current_range_meters":17200,"station_id":"ce4bhoh2rcd13ifvqh6g","pricing_plan_id":"cebpf4jnsgd1na2vs0mg"},{"bike_id":"3b1f94f1-9936-4306-b48a-4378e63a03be","system_id":"levelo_inurba_marseille","lat":43.28623,"lon":5.3511,"is_reserved":false,"is_disabled":false,"rental_uris":{"android":"levelo://app?vid=3b1f94f1-9936-4306-b48a-4378e63a03be","ios":"levelo://app?vid=3b1f94f1-9936-4306-b48a-4378e63a03be"},"vehicle_type_id":"4","last_reported":1753380964,"current_range_meters":17200,"station_id":"ce4bhch2rcd13ifvqeug","pricing_plan_id":"cebpf4jnsgd1na2vs0mg"},{"bike_id":"81474463-c9a3-4302-9f42-6736a4d2dda3","system_id":"levelo_inurba_marseille","lat":43.33028,"lon":5.39043,"is_reserved":false,"is_disabled":false,"rental_uris":{"android":"levelo://app?vid=81474463-c9a3-4302-9f42-6736a4d2dda3","ios":"levelo://app?vid=81474463-c9a3-4302-9f42-6736a4d2dda3"},"vehicle_type_id":"4","last_reported":1753380964,"current_range_meters":17200,"station_id":"ce4bhr92rcd13ifvqhrg","pricing_plan_id":"cebpf4jnsgd1na2vs0mg"},{"bike_id":"64c3cc42-bb50-4106-88c2-d942a51e31e1","system_id":"levelo_inurba_marseille","lat":43.29532,"lon":5.38546,"is_reserved":false,"is_disabled":false,"rental_uris":{"android":"levelo://app?vid=64c3cc42-bb50-4106-88c2-d942a51e31e1","ios":"levelo://app?vid=64c3cc42-bb50-4106-88c2-d942a51e31e1"},"vehicle_type_id":"4","last_reported":1753380964,"current_range_meters":17200,"station_id":"ce4bgih2rcd13ifvqba0","pricing_plan_id":"cebpf4jnsgd1na2vs0mg"},{"bike_id":"64f1a12c-8bf7-4ec7-aae6-0282a601514a","system_id":"levelo_inurba_marseille","lat":43.30596,"lon":5.37235,"is_reserved":false,"is_disabled":false,"rental_uris":{"android":"levelo://app?vid=64f1a12c-8bf7-4ec7-aae6-0282a601514a","ios":"levelo://app?vid=64f1a12c-8bf7-4ec7-aae6-0282a601514a"},"vehicle_type_id":"4","last_reported":1753380964,"current_range_meters":17200,"station_id":"ce4bgqh2rcd13ifvqc4g","pricing_plan_id":"cebpf4jnsgd1na2vs0mg"},{"bike_id":"f1f42999-da97-4ded-a74e-e45f39cb7fe1","system_id":"levelo_inurba_marseille","lat":43.291901,"lon":5.357989,"is_reserved":false,"is_disabled":false,"rental_uris":{"android":"levelo://app?vid=f1f42999-da97-4ded-a74e-e45f39cb7fe1","ios":"levelo://app?vid=f1f42999-da97-4ded-a74e-e45f39cb7fe1"},"vehicle_type_id":"4","last_reported":1753380964,"current_range_meters":17600,"station_id":"ce4bhb12rcd13ifvqel0","pricing_plan_id":"cebpf4jnsgd1na2vs0mg"},{"bike_id":"a1ad3c9e-215a-4d27-92bf-75f450f81a17","system_id":"levelo_inurba_marseille","lat":43.27176,"lon":5.40989,"is_reserved":false,"is_disabled":false,"rental_uris":{"android":"levelo://app?vid=a1ad3c9e-215a-4d27-92bf-75f450f81a17","ios":"levelo://app?vid=a1ad3c9e-215a-4d27-92bf-75f450f81a17"},"vehicle_type_id":"4","last_reported":1753380964,"current_range_meters":17600,"station_id":"ce4bhl12rcd13ifvqgf0","pricing_plan_id":"cebpf4jnsgd1na2vs0mg"},{"bike_id":"e3b0b757-1939-49b6-a62c-fda12ca45ae6","system_id":"levelo_inurba_marseille","lat":43.30878,"lon":5.37185,"is_reserved":false,"is_disabled":false,"rental_uris":{"android":"levelo://app?vid=e3b0b757-1939-49b6-a62c-fda12ca45ae6","ios":"levelo://app?vid=e3b0b757-1939-49b6-a62c-fda12ca45ae6"},"vehicle_type_id":"4","last_reported":1753380964,"current_range_meters":17600,"station_id":"ce4bguh2rcd13ifvqckg","pricing_plan_id":"cebpf4jnsgd1na2vs0mg"},{"bike_id":"31950a22-06e6-4fd7-947e-ed0356e9a53f","system_id":"levelo_inurba_marseille","lat":43.24182,"lon":5.39724,"is_reserved":false,"is_disabled":false,"rental_uris":{"android":"levelo://app?vid=31950a22-06e6-4fd7-947e-ed0356e9a53f","ios":"levelo://app?vid=31950a22-06e6-4fd7-947e-ed0356e9a53f"},"vehicle_type_id":"4","last_reported":1753380964,"current_range_meters":17600,"station_id":"ce4bhn12rcd13ifvqgpg","pricing_plan_id":"cebpf4jnsgd1na2vs0mg"},{"bike_id":"1e9cf983-3afc-4620-a4d4-2dd094704fd1","system_id":"levelo_inurba_marseille","lat":43.22501,"lon":5.34774,"is_reserved":false,"is_disabled":false,"rental_uris":{"android":"levelo://app?vid=1e9cf983-3afc-4620-a4d4-2dd094704fd1","ios":"levelo://app?vid=1e9cf983-3afc-4620-a4d4-2dd094704fd1"},"vehicle_type_id":"4","last_reported":1753380964,"current_range_meters":17600,"station_id":"st_cvj5dfep6f1abm77gieg","pricing_plan_id":"cebpf4jnsgd1na2vs0mg"},{"bike_id":"dddbef83-b47e-460f-a4ac-beade05833f1","system_id":"levelo_inurba_marseille","lat":43.22961,"lon":5.35355,"is_reserved":false,"is_disabled":false,"rental_uris":{"android":"levelo://app?vid=dddbef83-b47e-460f-a4ac-beade05833f1","ios":"levelo://app?vid=dddbef83-b47e-460f-a4ac-beade05833f1"},"vehicle_type_id":"4","last_reported":1753380964,"current_range_meters":17600,"station_id":"cpo3532slgdg3j2ikp40","pricing_plan_id":"cebpf4jnsgd1na2vs0mg"},{"bike_id":"81214a4c-aec9-4439-9ab4-8d3754022513","system_id":"levelo_inurba_marseille","lat":43.23192,"lon":5.35568,"is_reserved":false,"is_disabled":true,"rental_uris":{"android":"levelo://app?vid=81214a4c-aec9-4439-9ab4-8d3754022513","ios":"levelo://app?vid=81214a4c-aec9-4439-9ab4-8d3754022513"},"vehicle_type_id":"4","last_reported":1753380964,"current_range_meters":17600,"station_id":"ce4bhu92rcd13ifvqi70","pricing_plan_id":"cebpf4jnsgd1na2vs0mg"},