{"last_updated":1733083767,"ttl":60,"version":"2.2","data":{"bikes":[{"bike_id":"92b23b60-0174-4ee0-926b-6c47f6ecf19c","system_id":"levelo_inurba_marseille","lat":43.28101,"lon":5.37844,"is_reserved":false,"is_disabled":false,"rental_uris":{"android":"levelo://app?vid=92b23b60-0174-4ee0-926b-6c47f6ecf19c","ios":"levelo://app?vid=92b23b60-0174-4ee0-926b-6c47f6ecf19c"},"vehicle_type_id":"4","last_reported":1733083767,"current_range_meters":13600,"station_id":"ce4bha12rcd13ifvqee0","pricing_plan_id":"cebpf4jnsgd1na2vs0mg"},{"bike_id":"9eb9ee9b-532a-4e66-9337-6742bfb3d802","system_id":"levelo_inurba_marseille","lat":43.2799,"lon":5.41662,"is_reserved":false,"is_disabled":true,"rental_uris":{"android":"levelo://app?vid=9eb9ee9b-532a-4e66-9337-6742bfb3d802","ios":"levelo://app?vid=9eb9ee9b-532a-4e66-9337-6742bfb3d802"},"vehicle_type_id":"4","last_reported":1733083767,"current_range_meters":28800,"station_id":"ce4bho12rcd13ifvqh1g","pricing_plan_id":"cebpf4jnsgd1na2vs0mg"},{"bike_id":"a8240cfa-6b36-44f3-899a-4807a01486bd","system_id":"levelo_inurba_marseille","lat":43.29551,"lon":5.42274,"is_reserved":false,"is_disabled":false,"rental_uris":{"android":"levelo://app?vid=a8240cfa-6b36-44f3-899a-4807a01486bd","ios":"levelo://app?vid=a8240cfa-6b36-44f3-899a-4807a01486bd"},"vehicle_type_id":"4","last_reported":1733083767,"current_range_meters":24800,"station_id":"ce4bhph2rcd13ifvqhdg","pricing_plan_id":"cebpf4jnsgd1na2vs0mg"},{"bike_id":"3f08722c-49a5-4c33-9b59-3f62f9134a3d","system_id":"levelo_inurba_marseille","lat":43.30152,"lon":5.38102,"is_reserved":false,"is_disabled":true,"rental_uris":{"android":"levelo://app?vid=3f08722c-49a5-4c33-9b59-3f62f9134a3d","ios":"levelo://app?vid=3f08722c-49a5-4c33-9b59-3f62f9134a3d"},"vehicle_type_id":"4","last_reported":1733083767,"current_range_meters":0,"station_id":"ce4bgjp2rcd13ifvqbh0","pricing_plan_id":"cebpf4jnsgd1na2vs0mg"},{"bike_id":"7ff9ed7d-51d4-4c0b-aef0-61969fefb411","system_id":"levelo_inurba_marseille","lat":43.24153,"lon":5.364,"is_reserved":false,"is_disabled":false,"rental_uris":{"android":"levelo://app?vid=7ff9ed7d-51d4-4c0b-aef0-61969fefb411","ios":"levelo://app?vid=7ff9ed7d-51d4-4c0b-aef0-61969fefb411"},"vehicle_type_id":"4","last_reported":1733083767,"current_range_meters":24400,"station_id":"cpo36qri1sfpv3e86is0","pricing_plan_id":"cebpf4jnsgd1na2vs0mg"},{"bike_id":"de419430-922b-4b83-bb2f-564d28e38a22","system_id":"levelo_inurba_marseille","lat":43.30305,"lon":5.36875,"is_reserved":false,"is_disabled":false,"rental_uris":{"android":"levelo://app?vid=de419430-922b-4b83-bb2f-564d28e38a22","ios":"levelo://app?vid=de419430-922b-4b83-bb2f-564d28e38a22"},"vehicle_type_id":"4","last_reported":1733083767,"current_range_meters":36000,"station_id":"ce4bgqh2rcd13ifvqc5g","pricing_plan_id":"cebpf4jnsgd1na2vs0mg"},{"bike_id":"304c3c23-006c-47a7-be41-53df15bd78fa","system_id":"levelo_inurba_marseille","lat":43.29423,"lon":5.38608,"is_reserved":false,"is_disabled":true,"rental_uris":{"android":"levelo://app?vid=304c3c23-006c-47a7-be41-53df15bd78fa","ios":"levelo://app?vid=304c3c23-006c-47a7-be41-53df15bd78fa"},"vehicle_type_id":"4","last_reported":1733083767,"current_range_meters":26800,"station_id":"ce4bh2h2rcd13ifvqdh0","pricing_plan_id":"cebpf4jnsgd1na2vs0mg"},{"bike_id":"3f3572f8-5522-43a7-8be3-c51500aeef11","system_id":"levelo_inurba_marseille","lat":43.27899,"lon":5.37997,"is_reserved":false,"is_disabled":false,"rental_uris":{"android":"levelo://app?vid=3f3572f8-5522-43a7-8be3-c51500aeef11","ios":"levelo://app?vid=3f3572f8-5522-43a7-8be3-c51500aeef11"},"vehicle_type_id":"4","last_reported":1733083767,"current_range_meters":38000,"station_id":"ce4bhf92rcd13ifvqf50","pricing_plan_id":"cebpf4jnsgd1na2vs0mg"},{"bike_id":"13d578ea-4641-468a-b3e8-68a33d2e687a","system_id":"levelo_inurba_marseille","lat":43.23198,"lon":5.39975,"is_reserved":false,"is_disabled":false,"rental_uris":{"android":"levelo://app?vid=13d578ea-4641-468a-b3e8-68a33d2e687a","ios":"levelo://app?vid=13d578ea-4641-468a-b3e8-68a33d2e687a"},"vehicle_type_id":"4","last_reported":1733083767,"current_range_meters":13600,"station_id":"ce4bhn12rcd13ifvqgqg","pricing_plan_id":"cebpf4jnsgd1na2vs0mg"},{"bike_id":"19f58c32-0660-4b7e-bf69-b1a32634d14e","system_id":"levelo_inurba_marseille","lat":43.26941,"lon":5.40247,"is_reserved":false,"is_disabled":false,"rental_uris":{"android":"levelo://app?vid=19f58c32-0660-4b7e-bf69-b1a32634d14e","ios":"levelo://app?vid=19f58c32-0660-4b7e-bf69-b1a32634d14e"},"vehicle_type_id":"4","last_reported":1733083767,"current_range_meters":33600,"station_id":"cjm6bp8fraef2m0cb0m0","pricing_plan_id":"cebpf4jnsgd1na2vs0mg"},{"bike_id":"6c3702ca-81e8-4155-999e-4c84b14b6a45","system_id":"levelo_inurba_marseille","lat":43.28104,"lon":5.37836,"is_reserved":false,"is_disabled":false,"rental_uris":{"android":"levelo://app?vid=6c3702ca-81e8-4155-999e-4c84b14b6a45","ios":"levelo://app?vid=6c3702ca-81e8-4155-999e-4c84b14b6a45"},"vehicle_type_id":"4","last_reported":1733083767,"current_range_meters":16800,"station_id":"ce4bha12rcd13ifvqee0","pricing_plan_id":"cebpf4jnsgd1na2vs0mg"},{"bike_id":"b65688fa-b1c3-40d7-a238-e0b81dcc7be7","system_id":"levelo_inurba_marseille","lat":43.23187,"lon":5.39979,"is_reserved":false,"is_disabled":false,"rental_uris":{"android":"levelo://app?vid=b65688fa-b1c3-40d7-a238-e0b81dcc7be7","ios":"levelo://app?vid=b65688fa-b1c3-40d7-a238-e0b81dcc7be7"},"vehicle_type_id":"4","last_reported":1733083767,"current_range_meters":36800,"station_id":"ce4bhn12rcd13ifvqgqg","pricing_plan_id":"cebpf4jnsgd1na2vs0mg"},{"bike_id":"34086af6-1b80-4187-b713-36da4e85ff96","system_id":"levelo_inurba_marseille","lat":43.3372,"lon":5.39185,"is_reserved":false,"is_disabled":false,"rental_uris":{"android":"levelo://app?vid=34086af6-1b80-4187-b713-36da4e85ff96","ios":"levelo://app?vid=34086af6-1b80-4187-b713-36da4e85ff96"},"vehicle_type_id":"4","last_reported":1733083767,"current_range_meters":38400,"station_id":"ce4bhr92rcd13ifvqhsg","pricing_plan_id":"cebpf4jnsgd1na2vs0mg"},{"bike_id":"8fd803fc-89d9-487d-806d-e2282c5e6b74","system_id":"levelo_inurba_marseille","lat":43.27539,"lon":5.384,"is_reserved":false,"is_disabled":false,"rental_uris":{"android":"levelo://app?vid=8fd803fc-89d9-487d-806d-e2282c5e6b74","ios":"levelo://app?vid=8fd803fc-89d9-487d-806d-e2282c5e6b74"},"vehicle_type_id":"4","last_reported":1733083767,"current_range_meters":16800,"station_id":"ce4bhh92rcd13ifvqfi0","pricing_plan_id":"cebpf4jnsgd1na2vs0mg"},{"bike_id":"967e9a74-8d35-43a8-bb3f-b2f2942f3b6d","system_id":"levelo_inurba_marseille","lat":43.30546,"lon":5.36699,"is_reserved":false,"is_disabled":true,"rental_uris":{"android":"levelo://app?vid=967e9a74-8d35-43a8-bb3f-b2f2942f3b6d","ios":"levelo://app?vid=967e9a74-8d35-43a8-bb3f-b2f2942f3b6d"},"vehicle_type_id":"4","last_reported":1733083767,"current_range_meters":32400,"station_id":"ce4bgrp2rcd13ifvqc9g","pricing_plan_id":"cebpf4jnsgd1na2vs0mg"},{"bike_id":"966791e8-cdff-4838-a42b-c9b609a533a7","system_id":"levelo_inurba_marseille","lat":43.27446,"lon":5.40053,"is_reserved":false,"is_disabled":true,"rental_uris":{"android":"levelo://app?vid=966791e8-cdff-4838-a42b-c9b609a533a7","ios":"levelo://app?vid=966791e8-cdff-4838-a42b-c9b609a533a7"},"vehicle_type_id":"4","last_reported":1733083767,"current_range_meters":0,"station_id":"","pricing_plan_id":"cebpf4jnsgd1na2vs0mg"},{"bike_id":"085f9433-f674-4072-90e7-a9c07c125450","system_id":"levelo_inurba_marseille","lat":43.29267,"lon":5.36849,"is_reserved":false,"is_disabled":false,"rental_uris":{"android":"levelo://app?vid=085f9433-f674-4072-90e7-a9c07c125450","ios":"levelo://app?vid=085f9433-f674-4072-90e7-a9c07c125450"},"vehicle_type_id":"4","last_reported":1733083767,"current_range_meters":35200,"station_id":"ce4bhbp2rcd13ifvqesg","pricing_plan_id":"cebpf4jnsgd1na2vs0mg"},{"bike_id":"6138538e-f6a2-4bfb-9f67-ded88c1c0899","system_id":"levelo_inurba_marseille","lat":43.30794,"lon":5.38167,"is_reserved":false,"is_disabled":false,"rental_uris":{"android":"levelo://app?vid=6138538e-f6a2-4bfb-9f67-ded88c1c0899","ios":"levelo://app?vid=6138538e-f6a2-4bfb-9f67-ded88c1c0899"},"vehicle_type_id":"4","last_reported":1733083767,"current_range_meters":27200,"station_id":"ce4bgt12rcd13ifvqce0","pricing_plan_id":"cebpf4jnsgd1na2vs0mg"},{"bike_id":"4d7fdb1a-3c69-40fc-8982-b108801d25c7","system_id":"levelo_inurba_marseille","lat":43.26937,"lon":5.40254,"is_reserved":false,"is_disabled":false,"rental_uris":{"android":"levelo://app?vid=4d7fdb1a-3c69-40fc-8982-b108801d25c7","ios":"levelo://app?vid=4d7fdb1a-3c69-40fc-8982-b108801d25c7"},"vehicle_type_id":"4","last_reported":1733083767,"current_range_meters":19200,"station_id":"cjm6bp8fraef2m0cb0m0","pricing_plan_id":"cebpf4jnsgd1na2vs0mg"},{"bike_id":"157a3d81-cf27-4d67-b0f6-ba9e7fc15397","system_id":"levelo_inurba_marseille","lat":43.30182,"lon":5.3663,"is_reserved":false,"is_disabled":true,"rental_uris":{"android":"levelo://app?vid=157a3d81-cf27-4d67-b0f6-ba9e7fc15397","ios":"levelo://app?vid=157a3d81-cf27-4d67-b0f6-ba9e7fc15397"},"vehicle_type_id":"4","last_reported":1733083767,"current_range_meters":8400,"station_id":"ce4bgrh2rcd13ifvqc8g","pricing_plan_id":"cebpf4jnsgd1na2vs0mg"},{"bike_id":"ca74138b-5393-4893-b5a1-6ccdd64dcf78","system_id":"levelo_inurba_marseille","lat":43.2678,"lon":5.39419,"is_reserved":false,"is_disabled":false,"rental_uris":{"android":"levelo://app?vid=ca74138b-5393-4893-b5a1-6ccdd64dcf78","ios":"levelo://app?vid=ca74138b-5393-4893-b5a1-6ccdd64dcf78"},"vehicle_type_id":"4","last_reported":1733083767,"current_range_meters":22800,"station_id":"ce4bhh12rcd13ifvqfg0","pricing_plan_id":"cebpf4jnsgd1na2vs0mg"},{"bike_id":"335d2e68-7f75-4c2c-966c-b05f46ff8f44","system_id":"levelo_inurba_marseille","lat":43.27208,"lon":5.39172,"is_reserved":false,"is_disabled":false,"rental_uris":{"android":"levelo://app?vid=335d2e68-7f75-4c2c-966c-b05f46ff8f44","ios":"levelo://app?vid=335d2e68-7f75-4c2c-966c-b05f46ff8f44"},"vehicle_type_id":"4","last_reported":1733083767,"current_range_meters":22400,"station_id":"ce4bhhp2rcd13ifvqfm0","pricing_plan_id":"cebpf4jnsgd1na2vs0mg"},{"bike_id":"a72bb7e7-e17c-4b79-9623-226fe5b542bf","system_id":"levelo_inurba_marseille","lat":43.27209,"lon":5.39182,"is_reserved":false,"is_disabled":false,"rental_uris":{"android":"levelo://app?vid=a72bb7e7-e17c-4b79-9623-226fe5b542bf","ios":"levelo://app?vid=a72bb7e7-e17c-4b79-9623-226fe5b542bf"},"vehicle_type_id":"4","last_reported":1733083767,"current_range_meters":4400,"station_id":"ce4bhhp2rcd13ifvqfm0","pricing_plan_id":"cebpf4jnsgd1na2vs0mg"},{"bike_id":"6a865aca-c23a-4fe9-b544-0aa9c8a247e1","system_id":"levelo_inurba_marseille","lat":43.28101,"lon":5.37846,"is_reserved":false,"is_disabled":false,"rental_uris":{"android":"levelo://app?vid=6a865aca-c23a-4fe9-b544-0aa9c8a247e1","ios":"levelo://app?vid=6a865aca-c23a-4fe9-b544-0aa9c8a247e1"},"vehicle_type_id":"4","last_reported":1733083767,"current_range_meters":38800,"station_id":"ce4bha12rcd13ifvqee0","pricing_plan_id":"cebpf4jnsgd1na2vs0mg"},{"bike_id":"c8540c9d-7dc3-44fa-a0f8-7263d3d70bb8","system_id":"levelo_inurba_marseille","lat":43.24646,"lon":5.38891,"is_reserved":false,"is_disabled":true,"rental_uris":{"android":"levelo://app?vid=c8540c9d-7dc3-44fa-a0f8-7263d3d70bb8","ios":"levelo://app?vid=c8540c9d-7dc3-44fa-a0f8-7263d3d70bb8"},"vehicle_type_id":"4","last_reported":1733083767,"current_range_meters":0,"station_id":"ce4bhg12rcd13ifvqf60","pricing_plan_id":"cebpf4jnsgd1na2vs0mg"},{"bike_id":"34553e4f-2bbe-4e94-8740-7b5a4682f76a","system_id":"levelo_inurba_marseille","lat":43.31129,"lon":5.37772,"is_reserved":false,"is_disabled":true,"rental_uris":{"android":"levelo://app?vid=34553e4f-2bbe-4e94-8740-7b5a4682f76a","ios":"levelo://app?vid=34553e4f-2bbe-4e94-8740-7b5a4682f76a"},"vehicle_type_id":"4","last_reported":1733083767,"current_range_meters":33600,"station_id":"ce4bgt92rcd13ifvqcg0","pricing_plan_id":"cebpf4jnsgd1na2vs0mg"},{"bike_id":"87a177cf-8a72-43d2-ad9b-470961f3e5dc","system_id":"levelo_inurba_marseille","lat":43.30014,"lon":5.37652,"is_reserved":false,"is_disabled":true,"rental_uris":{"android":"levelo://app?vid=87a177cf-8a72-43d2-ad9b-470961f3e5dc","ios":"levelo://app?vid=87a177cf-8a72-43d2-ad9b-470961f3e5dc"},"vehicle_type_id":"4","last_reported":1733083767,"current_range_meters":0,"station_id":"","pricing_plan_id":"cebpf4jnsgd1na2vs0mg"},{"bike_id":"ffc3eeb6-6bf5-4a72-99c1-23a99957f6b4","system_id":"levelo_inurba_marseille","lat":43.23184,"lon":5.39983,"is_reserved":false,"is_disabled":false,"rental_uris":{"android":"levelo://app?vid=ffc3eeb6-6bf5-4a72-99c1-23a99957f6b4","ios":"levelo://app?vid=ffc3eeb6-6bf5-4a72-99c1-23a99957f6b4"},"vehicle_type_id":"4","last_reported":1733083767,"current_range_meters":38800,"station_id":"ce4bhn12rcd13ifvqgqg","pricing_plan_id":"cebpf4jnsgd1na2vs0mg"},{"bike_id":"1f0719d9-481b-4e50-bc00-96a331258c20","system_id":"levelo_inurba_marseille","lat":43.2768,"lon":5.38912,"is_reserved":false,"is_disabled":false,"rental_uris":{"android":"levelo://app?vid=1f0719d9-481b-4e50-bc00-96a331258c20","ios":"levelo://app?vid=1f0719d9-481b-4e50-bc00-96a331258c20"},"vehicle_type_id":"4","last_reported":1733083767,"current_range_meters":22800,"station_id":"ce4bhi12rcd13ifvqfo0","pricing_plan_id":"cebpf4jnsgd1na2vs0mg"},{"bike_id":"b0bd4cdf-7308-45f0-8e99-a0d5811907ff","system_id":"levelo_inurba_marseille","lat":43.25455,"lon":5.38133,"is_reserved":false,"is_disabled":true,"rental_uris":{"android":"levelo://app?vid=b0bd4cdf-7308-45f0-8e99-a0d5811907ff","ios":"levelo://app?vid=b0bd4cdf-7308-45f0-8e99-a0d5811907ff"},"vehicle_type_id":"4","last_reported":1733083767,"current_range_meters":0,"station_id":"","pricing_plan_id":"cebpf4jnsgd1na2vs0mg"},{"bike_id":"13341a5c-709a-42b3-984a-1db82542f4c6","system_id":"levelo_inurba_marseille","lat":43.29903,"lon":5.40299,"is_reserved":false,"is_disabled":true,"rental_uris":{"android":"levelo://app?vid=13341a5c-709a-42b3-984a-1db82542f4c6","ios":"levelo://app?vid=13341a5c-709a-42b3-984a-1db82542f4c6"},"vehicle_type_id":"4","last_reported":1733083767,"current_range_meters":0,"station_id":"","pricing_plan_id":"cebpf4jnsgd1na2vs0mg"},{"bike_id":"8bcd172f-5475-4607-a4e7-44d7749b12a1","system_id":"levelo_inurba_marseille","lat":43.337252,"lon":5.391908,"is_reserved":false,"is_disabled":true,"rental_uris":{"android":"levelo://app?vid=8bcd172f-5475-4607-a4e7-44d7749b12a1","ios":"levelo://app?vid=8bcd172f-5475-4607-a4e7-44d7749b12a1"},"vehicle_type_id":"4","last_reported":1733083767,"current_range_meters":2000,"station_id":"ce4bhr92rcd13ifvqhsg","pricing_plan_id":"cebpf4jnsgd1na2vs0mg"},{"bike_id":"f2cc114c-6c9b-4393-884b-2ddc57f96b7d","system_id":"levelo_inurba_marseille","lat":43.27063,"lon":5.42274,"is_reserved":false,"is_disabled":false,"rental_uris":{"android":"levelo://app?vid=f2cc114c-6c9b-4393-884b-2ddc57f96b7d","ios":"levelo://app?vid=f2cc114c-6c9b-4393-884b-2ddc57f96b7d"},"vehicle_type_id":"4","last_reported":1733083767,"current_range_meters":26000,"station_id":"ce4bhk92rcd13ifvqgb0","pricing_plan_id":"cebpf4jnsgd1na2vs0mg"},{"bike_id":"6174999a-ede4-4333-92b7-f5cb44bee7f2","system_id":"levelo_inurba_marseille","lat":43.30151,"lon":5.3985,"is_reserved":false,"is_disabled":false,"rental_uris":{"android":"levelo://app?vid=6174999a-ede4-4333-92b7-f5cb44bee7f2","ios":"levelo://app?vid=6174999a-ede4-4333-92b7-f5cb44bee7f2"},"vehicle_type_id":"4","last_reported":1733083767,"current_range_meters":16400,"station_id":"ce4bh0h2rcd13ifvqd40","pricing_plan_id":"cebpf4jnsgd1na2vs0mg"},{"bike_id":"c5d5b72b-b599-4e68-96b9-aa6af1e698a1","system_id":"levelo_inurba_marseille","lat":43.27205,"lon":5.39188,"is_reserved":false,"is_disabled":false,"rental_uris":{"android":"levelo://app?vid=c5d5b72b-b599-4e68-96b9-aa6af1e698a1","ios":"levelo://app?vid=c5d5b72b-b599-4e68-96b9-aa6af1e698a1"},"vehicle_type_id":"4","last_reported":1733083767,"current_range_meters":8800,"station_id":"ce4bhhp2rcd13ifvqfm0","pricing_plan_id":"cebpf4jnsgd1na2vs0mg"},{"bike_id":"6f7949e1-de87-4a49-8620-fec27e04447f","system_id":"levelo_inurba_marseille","lat":43.33733,"lon":5.39185,"is_reserved":false,"is_disabled":false,"rental_uris":{"android":"levelo://app?vid=6f7949e1-de87-4a49-8620-fec27e04447f","ios":"levelo://app?vid=6f7949e1-de87-4a49-8620-fec27e04447f"},"vehicle_type_id":"4","last_reported":1733083767,"current_range_meters":22800,"station_id":"ce4bhr92rcd13ifvqhsg","pricing_plan_id":"cebpf4jnsgd1na2vs0mg"},{"bike_id":"2104e893-2634-49a0-b516-fc2c3ccdf681","system_id":"levelo_inurba_marseille","lat":43.32533,"lon":5.41425,"is_reserved":false,"is_disabled":false,"rental_uris":{"android":"levelo://app?vid=2104e893-2634-49a0-b516-fc2c3ccdf681","ios":"levelo://app?vid=2104e893-2634-49a0-b516-fc2c3ccdf681"},"vehicle_type_id":"4","last_reported":1733083767,"current_range_meters":7200,"station_id":"ce4bhq12rcd13ifvqhhg","pricing_plan_id":"cebpf4jnsgd1na2vs0mg"},{"bike_id":"7c1520fb-1cfb-4079-b606-6291e64dc0d2","system_id":"levelo_inurba_marseille","lat":43.31328,"lon":5.39681,"is_reserved":false,"is_disabled":false,"rental_uris":{"android":"levelo://app?vid=7c1520fb-1cfb-4079-b606-6291e64dc0d2","ios":"levelo://app?vid=7c1520fb-1cfb-4079-b606-6291e64dc0d2"},"vehicle_type_id":"4","last_reported":1733083767,"current_range_meters":38000,"station_id":"ce4bgvp2rcd13ifvqcu0","pricing_plan_id":"cebpf4jnsgd1na2vs0mg"},{"bike_id":"7066298c-8444-4dbb-8e5a-afa45f0890f5","system_id":"levelo_inurba_marseille","lat":43.288589,"lon":5.393155,"is_reserved":false,"is_disabled":true,"rental_uris":{"android":"levelo://app?vid=7066298c-8444-4dbb-8e5a-afa45f0890f5","ios":"levelo://app?vid=7066298c-8444-4dbb-8e5a-afa45f0890f5"},"vehicle_type_id":"4","last_reported":1733083767,"current_range_meters":7200,"station_id":"ce4bh2p2rcd13ifvqdi0","pricing_plan_id":"cebpf4jnsgd1na2vs0mg"},{"bike_id":"79da6e11-068f-4f85-891a-bf5d6033ae1b","system_id":"levelo_inurba_marseille","lat":43.29203,"lon":5.39311,"is_reserved":false,"is_disabled":true,"rental_uris":{"android":"levelo://app?vid=79da6e11-068f-4f85-891a-bf5d6033ae1b","ios":"levelo://app?vid=79da6e11-068f-4f85-891a-bf5d6033ae1b"},"vehicle_type_id":"4","last_reported":1733083767,"current_range_meters":16800,"station_id":"ce4bh192rcd13ifvqdd0","pricing_plan_id":"cebpf4jnsgd1na2vs0mg"},{"bike_id":"0d7f424e-49f2-49a1-8d15-4d35991edfe1","system_id":"levelo_inurba_marseille","lat":43.268,"lon":5.40267,"is_reserved":false,"is_disabled":false,"rental_uris":{"android":"levelo://app?vid=0d7f424e-49f2-49a1-8d15-4d35991edfe1","ios":"levelo://app?vid=0d7f424e-49f2-49a1-8d15-4d35991edfe1"},"vehicle_type_id":"4","last_reported":1733083767,"current_range_meters":3600,"station_id":"ce501612rcd8frsf0b60","pricing_plan_id":"cebpf4jnsgd1na2vs0mg"},{"bike_id":"d8c0738f-3b57-4efa-a27b-af99b6076143","system_id":"levelo_inurba_marseille","lat":43.2407,"lon":5.37761,"is_reserved":false,"is_disabled":false,"rental_uris":{"android":"levelo://app?vid=d8c0738f-3b57-4efa-a27b-af99b6076143","ios":"levelo://app?vid=d8c0738f-3b57-4efa-a27b-af99b6076143"},"vehicle_type_id":"4","last_reported":1733083767,"current_range_meters":31200,"station_id":"ce4bhnp2rcd13ifvqgvg","pricing_plan_id":"cebpf4jnsgd1na2vs0mg"},{"bike_id":"ba1004dc-35f2-44b6-be8a-9e7f7f4df912","system_id":"levelo_inurba_marseille","lat":43.31262,"lon":5.40169,"is_reserved":false,"is_disabled":false,"rental_uris":{"android":"levelo://app?vid=ba1004dc-35f2-44b6-be8a-9e7f7f4df912","ios":"levelo://app?vid=ba1004dc-35f2-44b6-be8a-9e7f7f4df912"},"vehicle_type_id":"4","last_reported":1733083767,"current_range_meters":26000,"station_id":"ce4bh092rcd13ifvqd30","pricing_plan_id":"cebpf4jnsgd1na2vs0mg"},{"bike_id":"92051607-4e3b-4669-afe6-4a074d7fb31a","system_id":"levelo_inurba_marseille","lat":43.27426,"lon":5.39409,"is_reserved":false,"is_disabled":false,"rental_uris":{"android":"levelo://app?vid=92051607-4e3b-4669-afe6-4a074d7fb31a","ios":"levelo://app?vid=92051607-4e3b-4669-afe6-4a074d7fb31a"},"vehicle_type_id":"4","last_reported":1733083767,"current_range_meters":6400,"station_id":"ce4bhdp2rcd13ifvqf20","pricing_plan_id":"cebpf4jnsgd1na2vs0mg"},{"bike_id":"4a7fc826-17a1-42cc-8188-ae00ef92a0a2","system_id":"levelo_inurba_marseille","lat":43.29629,"lon":5.40594,"is_reserved":false,"is_disabled":false,"rental_uris":{"android":"levelo://app?vid=4a7fc826-17a1-42cc-8188-ae00ef92a0a2","ios":"levelo://app?vid=4a7fc826-17a1-42cc-8188-ae00ef92a0a2"},"vehicle_type_id":"4","last_reported":1733083767,"current_range_meters":38800,"station_id":"ce4bh0h2rcd13ifvqd60","pricing_plan_id":"cebpf4jnsgd1na2vs0mg"},{"bike_id":"3257c53f-0ad3-47e0-b3ca-bdb5d91f6187","system_id":"levelo_inurba_marseille","lat":43.28029,"lon":5.36927,"is_reserved":false,"is_disabled":false,"rental_uris":{"android":"levelo://app?vid=3257c53f-0ad3-47e0-b3ca-bdb5d91f6187","ios":"levelo://app?vid=3257c53f-0ad3-47e0-b3ca-bdb5d91f6187"},"vehicle_type_id":"4","last_reported":1733083767,"current_range_meters":38800,"station_id":"ce4bha12rcd13ifvqef0","pricing_plan_id":"cebpf4jnsgd1na2vs0mg"},{"bike_id":"32d55f99-0252-4be1-bce9-7a80f3291e5b","system_id":"levelo_inurba_marseille","lat":43.26676,"lon":5.38265,"is_reserved":false,"is_disabled":true,"rental_uris":{"android":"levelo://app?vid=32d55f99-0252-4be1-bce9-7a80f3291e5b","ios":"levelo://app?vid=32d55f99-0252-4be1-bce9-7a80f3291e5b"},"vehicle_type_id":"4","last_reported":1733083767,"current_range_meters":37600,"station_id":"ce4bhg92rcd13ifvqf90","pricing_plan_id":"cebpf4jnsgd1na2vs0mg"},{"bike_id":"41f6cc04-9e8d-4515-a429-8cbb2b4a39d6","system_id":"levelo_inurba_marseille","lat":43.306,"lon":5.39357,"is_reserved":false,"is_disabled":false,"rental_uris":{"android":"levelo://app?vid=41f6cc04-9e8d-4515-a429-8cbb2b4a39d6","ios":"levelo://app?vid=41f6cc04-9e8d-4515-a429-8cbb2b4a39d6"},"vehicle_type_id":"4","last_reported":1733083767,"current_range_meters":16400,"station_id":"ce4bh0p2rcd13ifvqd80","pricing_plan_id":"cebpf4jnsgd1na2vs0mg"},{"bike_id":"6e3b8a2a-f251-48e5-a4ed-680655302057","system_id":"levelo_inurba_marseille","lat":43.32339,"lon":5.40616,"is_reserved":false,"is_disabled":false,"rental_uris":{"android":"levelo://app?vid=6e3b8a2a-f251-48e5-a4ed-680655302057","ios":"levelo://app?vid=6e3b8a2a-f251-48e5-a4ed-680655302057"},"vehicle_type_id":"4","last_reported":1733083767,"current_range_meters":17200,"station_id":"ce4bhq92rcd13ifvqhjg","pricing_plan_id":"cebpf4jnsgd1na2vs0mg"},{"bike_id":"3d2d0100-4d4f-485b-b99f-649da6fbf8c8","system_id":"levelo_inurba_marseille","lat":43.28994,"lon":5.35612,"is_reserved":false,"is_disabled":false,"rental_uris":{"android":"levelo://app?vid=3d2d0100-4d4f-485b-b99f-649da6fbf8c8","ios":"levelo://app?vid=3d2d0100-4d4f-485b-b99f-649da6fbf8c8"},"vehicle_type_id":"4","last_reported":1733083767,"current_range_meters":34800,"station_id":"ce4bhb92rcd13ifvqen0","pricing_plan_id":"cebpf4jnsgd1na2vs0mg"},{"bike_id":"14927043-9b54-4675-a300-7b25226e2366","system_id":"levelo_inurba_marseille","lat":43.27424,"lon":5.3941,"is_reserved":false,"is_disabled":false,"rental_uris":{"android":"levelo://app?vid=14927043-9b54-4675-a300-7b25226e2366","ios":"levelo://app?vid=14927043-9b54-4675-a300-7b25226e2366"},"vehicle_type_id":"4","last_reported":1733083767,"current_range_meters":6800,"station_id":"ce4bhdp2rcd13ifvqf20","pricing_plan_id":"cebpf4jnsgd1na2vs0mg"},{"bike_id":"0f6ed509-95d7-437e-80f7-905b4028dd6c","system_id":"levelo_inurba_marseille","lat":43.30324,"lon":5.40437,"is_reserved":false,"is_disabled":false,"rental_uris":{"android":"levelo://app?vid=0f6ed509-95d7-437e-80f7-905b4028dd6c","ios":"levelo://app?vid=0f6ed509-95d7-437e-80f7-905b4028dd6c"},"vehicle_type_id":"4","last_reported":1733083767,"current_range_meters":17600,"station_id":"ce4bh012rcd13ifvqd10","pricing_plan_id":"cebpf4jnsgd1na2vs0mg"},{"bike_id":"7ed2229e-6e77-42d8-826e-e15ec9f33077","system_id":"levelo_inurba_marseille","lat":43.26685,"lon":5.38272,"is_reserved":false,"is_disabled":true,"rental_uris":{"android":"levelo://app?vid=7ed2229e-6e77-42d8-826e-e15ec9f33077","ios":"levelo://app?vid=7ed2229e-6e77-42d8-826e-e15ec9f33077"},"vehicle_type_id":"4","last_reported":1733083767,"current_range_meters":15200,"station_id":"ce4bhg92rcd13ifvqf90","pricing_plan_id":"cebpf4jnsgd1na2vs0mg"},{"bike_id":"8fdf0680-166b-4766-a655-d02e84d131fa","system_id":"levelo_inurba_marseille","lat":43.30951,"lon":5.39058,"is_reserved":false,"is_disabled":true,"rental_uris":{"android":"levelo://app?vid=8fdf0680-166b-4766-a655-d02e84d131fa","ios":"levelo://app?vid=8fdf0680-166b-4766-a655-d02e84d131fa"},"vehicle_type_id":"4","last_reported":1733083767,"current_range_meters":38800,"station_id":"ce4bgup2rcd13ifvqco0","pricing_plan_id":"cebpf4jnsgd1na2vs0mg"},{"bike_id":"fbfc981e-0fc2-4465-ab2f-e76133d7be8c","system_id":"levelo_inurba_marseille","lat":43.32292,"lon":5.3829,"is_reserved":false,"is_disabled":false,"rental_uris":{"android":"levelo://app?vid=fbfc981e-0fc2-4465-ab2f-e76133d7be8c","ios":"levelo://app?vid=fbfc981e-0fc2-4465-ab2f-e76133d7be8c"},"vehicle_type_id":"4","last_reported":1733083767,"current_range_meters":24400,"station_id":"ce4bhr12rcd13ifvqhqg","pricing_plan_id":"cebpf4jnsgd1na2vs0mg"},{"bike_id":"64cbfd6a-4a4e-4d37-982c-18402a201eee","system_id":"levelo_inurba_marseille","lat":43.28657,"lon":5.3635,"is_reserved":false,"is_disabled":true,"rental_uris":{"android":"levelo://app?vid=64cbfd6a-4a4e-4d37-982c-18402a201eee","ios":"levelo://app?vid=64cbfd6a-4a4e-4d37-982c-18402a201eee"},"vehicle_type_id":"4","last_reported":1733083767,"current_range_meters":15200,"station_id":"ce4bhah2rcd13ifvqej0","pricing_plan_id":"cebpf4jnsgd1na2vs0mg"},{"bike_id":"b550ea37-8f20-438a-90ce-c738e773a501","system_id":"levelo_inurba_marseille","lat":43.27054,"lon":5.4026,"is_reserved":false,"is_disabled":false,"rental_uris":{"android":"levelo://app?vid=b550ea37-8f20-438a-90ce-c738e773a501","ios":"levelo://app?vid=b550ea37-8f20-438a-90ce-c738e773a501"},"vehicle_type_id":"4","last_reported":1733083767,"current_range_meters":14800,"station_id":"ce4bhk92rcd13ifvqgc0","pricing_plan_id":"cebpf4jnsgd1na2vs0mg"},{"bike_id":"5ddfa011-d975-41ac-ab06-32125b62100c","system_id":"levelo_inurba_marseille","lat":43.28412,"lon":5.37523,"is_reserved":false,"is_disabled":true,"rental_uris":{"android":"levelo://app?vid=5ddfa011-d975-41ac-ab06-32125b62100c","ios":"levelo://app?vid=5ddfa011-d975-41ac-ab06-32125b62100c"},"vehicle_type_id":"4","last_reported":1733083767,"current_range_meters":32400,"station_id":"ce4bh412rcd13ifvqds0","pricing_plan_id":"cebpf4jnsgd1na2vs0mg"},{"bike_id":"f2750506-42e0-4743-ad89-aa9cdfa56e35","system_id":"levelo_inurba_marseille","lat":43.26937,"lon":5.40255,"is_reserved":false,"is_disabled":false,"rental_uris":{"android":"levelo://app?vid=f2750506-42e0-4743-ad89-aa9cdfa56e35","ios":"levelo://app?vid=f2750506-42e0-4743-ad89-aa9cdfa56e35"},"vehicle_type_id":"4","last_reported":1733083767,"current_range_meters":3200,"station_id":"cjm6bp8fraef2m0cb0m0","pricing_plan_id":"cebpf4jnsgd1na2vs0mg"},{"bike_id":"f792d34c-1c6d-47c1-a35b-7fabd691333d","system_id":"levelo_inurba_marseille","lat":43.3372,"lon":5.39185,"is_reserved":false,"is_disabled":false,"rental_uris":{"android":"levelo://app?vid=f792d34c-1c6d-47c1-a35b-7fabd691333d","ios":"levelo://app?vid=f792d34c-1c6d-47c1-a35b-7fabd691333d"},"vehicle_type_id":"4","last_reported":1733083767,"current_range_meters":27200,"station_id":"ce4bhr92rcd13ifvqhsg","pricing_plan_id":"cebpf4jnsgd1na2vs0mg"},{"bike_id":"209c0815-1137-465b-b0d6-13fcf1b7a485","system_id":"levelo_inurba_marseille","lat":43.29533,"lon":5.42306,"is_reserved":false,"is_disabled":false,"rental_uris":{"android":"levelo://app?vid=209c0815-1137-465b-b0d6-13fcf1b7a485","ios":"levelo://app?vid=209c0815-1137-465b-b0d6-13fcf1b7a485"},"vehicle_type_id":"4","last_reported":1733083767,"current_range_meters":39200,"station_id":"ce4bhph2rcd13ifvqhdg","pricing_plan_id":"cebpf4jnsgd1na2vs0mg"},{"bike_id":"cec810a1-eadd-4ae0-9ee9-5d5d35b89936","system_id":"levelo_inurba_marseille","lat":43.2694,"lon":5.40254,"is_reserved":false,"is_disabled":false,"rental_uris":{"android":"levelo://app?vid=cec810a1-eadd-4ae0-9ee9-5d5d35b89936","ios":"levelo://app?vid=cec810a1-eadd-4ae0-9ee9-5d5d35b89936"},"vehicle_type_id":"4","last_reported":1733083767,"current_range_meters":31200,"station_id":"cjm6bp8fraef2m0cb0m0","pricing_plan_id":"cebpf4jnsgd1na2vs0mg"},{"bike_id":"6a350093-01f8-470d-9254-14ab0d2adad7","system_id":"levelo_inurba_marseille","lat":43.31226,"lon":5.36856,"is_reserved":false,"is_disabled":false,"rental_uris":{"android":"levelo://app?vid=6a350093-01f8-470d-9254-14ab0d2adad7","ios":"levelo://app?vid=6a350093-01f8-470d-9254-14ab0d2adad7"},"vehicle_type_id":"4","last_reported":1733083767,"current_range_meters":3200,"station_id":"ce4bgl92rcd13ifvqbq0","pricing_plan_id":"cebpf4jnsgd1na2vs0mg"},{"bike_id":"cd4d5714-1967-4300-a9f1-746117ac96ab","system_id":"levelo_inurba_marseille","lat":43.2963,"lon":5.40591,"is_reserved":false,"is_disabled":false,"rental_uris":{"android":"levelo://app?vid=cd4d5714-1967-4300-a9f1-746117ac96ab","ios":"levelo://app?vid=cd4d5714-1967-4300-a9f1-746117ac96ab"},"vehicle_type_id":"4","last_reported":1733083767,"current_range_meters":16800,"station_id":"ce4bh0h2rcd13ifvqd60","pricing_plan_id":"cebpf4jnsgd1na2vs0mg"},{"bike_id":"4712f637-3dc8-4c14-9921-27158339f678","system_id":"levelo_inurba_marseille","lat":43.26933,"lon":5.40247,"is_reserved":false,"is_disabled":false,"rental_uris":{"android":"levelo://app?vid=4712f637-3dc8-4c14-9921-27158339f678","ios":"levelo://app?vid=4712f637-3dc8-4c14-9921-27158339f678"},"vehicle_type_id":"4","last_reported":1733083767,"current_range_meters":9600,"station_id":"cjm6bp8fraef2m0cb0m0","pricing_plan_id":"cebpf4jnsgd1na2vs0mg"},{"bike_id":"67fa2a9e-eed8-4ed6-bdd8-7d1023a52b4e","system_id":"levelo_inurba_marseille","lat":43.2693,"lon":5.38926,"is_reserved":false,"is_disabled":true,"rental_uris":{"android":"levelo://app?vid=67fa2a9e-eed8-4ed6-bdd8-7d1023a52b4e","ios":"levelo://app?vid=67fa2a9e-eed8-4ed6-bdd8-7d1023a52b4e"},"vehicle_type_id":"4","last_reported":1733083767,"current_range_meters":4000,"station_id":"ce4bhhh2rcd13ifvqfl0","pricing_plan_id":"cebpf4jnsgd1na2vs0mg"},{"bike_id":"d7935a4e-3fa9-4259-9e60-39bc0ad852e1","system_id":"levelo_inurba_marseille","lat":43.29551,"lon":5.42284,"is_reserved":false,"is_disabled":false,"rental_uris":{"android":"levelo://app?vid=d7935a4e-3fa9-4259-9e60-39bc0ad852e1","ios":"levelo://app?vid=d7935a4e-3fa9-4259-9e60-39bc0ad852e1"},"vehicle_type_id":"4","last_reported":1733083767,"current_range_meters":39200,"station_id":"ce4bhph2rcd13ifvqhdg","pricing_plan_id":"cebpf4jnsgd1na2vs0mg"},{"bike_id":"3dc57342-a70a-4f92-ae52-6d8d5fa8ec86","system_id":"levelo_inurba_marseille","lat":43.28621,"lon":5.35108,"is_reserved":false,"is_disabled":false,"rental_uris":{"android":"levelo://app?vid=3dc57342-a70a-4f92-ae52-6d8d5fa8ec86","ios":"levelo://app?vid=3dc57342-a70a-4f92-ae52-6d8d5fa8ec86"},"vehicle_type_id":"4","last_reported":1733083767,"current_range_meters":38800,"station_id":"ce4bhch2rcd13ifvqeug","pricing_plan_id":"cebpf4jnsgd1na2vs0mg"},{"bike_id":"0a5b1774-56ee-4bf3-b802-d1a43241e484","system_id":"levelo_inurba_marseille","lat":43.32367,"lon":5.38885,"is_reserved":false,"is_disabled":false,"rental_uris":{"android":"levelo://app?vid=0a5b1774-56ee-4bf3-b802-d1a43241e484","ios":"levelo://app?vid=0a5b1774-56ee-4bf3-b802-d1a43241e484"},"vehicle_type_id":"4","last_reported":1733083767,"current_range_meters":23200,"station_id":"ce4bhqp2rcd13ifvqhog","pricing_plan_id":"cebpf4jnsgd1na2vs0mg"},{"bike_id":"9351f7f3-6667-4a7e-947c-47087698e629","system_id":"levelo_inurba_marseille","lat":43.2558,"lon":5.38238,"is_reserved":false,"is_disabled":false,"rental_uris":{"android":"levelo://app?vid=9351f7f3-6667-4a7e-947c-47087698e629","ios":"levelo://app?vid=9351f7f3-6667-4a7e-947c-47087698e629"},"vehicle_type_id":"4","last_reported":1733083767,"current_range_meters":21600,"station_id":"ce4bhih2rcd13ifvqfs0","pricing_plan_id":"cebpf4jnsgd1na2vs0mg"},{"bike_id":"fee40e4a-edf0-429c-9838-5fd8b4a4fd95","system_id":"levelo_inurba_marseille","lat":43.2974,"lon":5.37414,"is_reserved":false,"is_disabled":true,"rental_uris":{"android":"levelo://app?vid=fee40e4a-edf0-429c-9838-5fd8b4a4fd95","ios":"levelo://app?vid=fee40e4a-edf0-429c-9838-5fd8b4a4fd95"},"vehicle_type_id":"4","last_reported":1733083767,"current_range_meters":0,"station_id":"","pricing_plan_id":"cebpf4jnsgd1na2vs0mg"},{"bike_id":"720d9b5d-b809-439d-a66b-f5aa58596639","system_id":"levelo_inurba_marseille","lat":43.30885,"lon":5.39641,"is_reserved":false,"is_disabled":false,"rental_uris":{"android":"levelo://app?vid=720d9b5d-b809-439d-a66b-f5aa58596639","ios":"levelo://app?vid=720d9b5d-b809-439d-a66b-f5aa58596639"},"vehicle_type_id":"4","last_reported":1733083767,"current_range_meters":6800,"station_id":"ce4bh012rcd13ifvqcv0","pricing_plan_id":"cebpf4jnsgd1na2vs0mg"},{"bike_id":"4dc21ef1-cda4-4e17-829d-fa108bdde67e","system_id":"levelo_inurba_marseille","lat":43.28451,"lon":5.35898,"is_reserved":false,"is_disabled":true,"rental_uris":{"android":"levelo://app?vid=4dc21ef1-cda4-4e17-829d-fa108bdde67e","ios":"levelo://app?vid=4dc21ef1-cda4-4e17-829d-fa108bdde67e"},"vehicle_type_id":"4","last_reported":1733083767,"current_range_meters":30400,"station_id":"ce4bhah2rcd13ifvqei0","pricing_plan_id":"cebpf4jnsgd1na2vs0mg"},{"bike_id":"45c95cf3-1aa9-4af9-a9a3-7dba50ecc20e","system_id":"levelo_inurba_marseille","lat":43.27437,"lon":5.40729,"is_reserved":false,"is_disabled":false,"rental_uris":{"android":"levelo://app?vid=45c95cf3-1aa9-4af9-a9a3-7dba50ecc20e","ios":"levelo://app?vid=45c95cf3-1aa9-4af9-a9a3-7dba50ecc20e"},"vehicle_type_id":"4","last_reported":1733083767,"current_range_meters":17600,"station_id":"","pricing_plan_id":"cebpf4jnsgd1na2vs0mg"},{"bike_id":"bc749360-3ce4-4dd6-a0ac-83aa82c323a7","system_id":"levelo_inurba_marseille","lat":43.28154,"lon":5.42629,"is_reserved":false,"is_disabled":true,"rental_uris":{"android":"levelo://app?vid=bc749360-3ce4-4dd6-a0ac-83aa82c323a7","ios":"levelo://app?vid=bc749360-3ce4-4dd6-a0ac-83aa82c323a7"},"vehicle_type_id":"4","last_reported":1733083767,"current_range_meters":28400,"station_id":"ce4bhnh2rcd13ifvqgug","pricing_plan_id":"cebpf4jnsgd1na2vs0mg"},{"bike_id":"bb528501-1bc1-4892-a469-db32801ae758","system_id":"levelo_inurba_marseille","lat":43.28616,"lon":5.351102,"is_reserved":false,"is_disabled":false,"rental_uris":{"android":"levelo://app?vid=bb528501-1bc1-4892-a469-db32801ae758","ios":"levelo://app?vid=bb528501-1bc1-4892-a469-db32801ae758"},"vehicle_type_id":"4","last_reported":1733083767,"current_range_meters":11200,"station_id":"ce4bhch2rcd13ifvqeug","pricing_plan_id":"cebpf4jnsgd1na2vs0mg"},{"bike_id":"6e1e9050-f346-4a6d-ab6d-9652872d972d","system_id":"levelo_inurba_marseille","lat":43.27207,"lon":5.39181,"is_reserved":false,"is_disabled":false,"rental_uris":{"android":"levelo://app?vid=6e1e9050-f346-4a6d-ab6d-9652872d972d","ios":"levelo://app?vid=6e1e9050-f346-4a6d-ab6d-9652872d972d"},"vehicle_type_id":"4","last_reported":1733083767,"current_range_meters":22800,"station_id":"ce4bhhp2rcd13ifvqfm0","pricing_plan_id":"cebpf4jnsgd1na2vs0mg"},{"bike_id":"4d4c884f-6933-49c0-8899-f9856d90f44d","system_id":"levelo_inurba_marseille","lat":43.29748,"lon":5.37971,"is_reserved":false,"is_disabled":true,"rental_uris":{"android":"levelo://app?vid=4d4c884f-6933-49c0-8899-f9856d90f44d","ios":"levelo://app?vid=4d4c884f-6933-49c0-8899-f9856d90f44d"},"vehicle_type_id":"4","last_reported":1733083767,"current_range_meters":0,"station_id":"","pricing_plan_id":"cebpf4jnsgd1na2vs0mg"},{"bike_id":"49383f8c-5e0c-4bb5-aa2b-e1c81f4536f3","system_id":"levelo_inurba_marseille","lat":43.32291,"lon":5.38257,"is_reserved":false,"is_disabled":false,"rental_uris":{"android":"levelo://app?vid=49383f8c-5e0c-4bb5-aa2b-e1c81f4536f3","ios":"levelo://app?vid=49383f8c-5e0c-4bb5-aa2b-e1c81f4536f3"},"vehicle_type_id":"4","last_reported":1733083767,"current_range_meters":24400,"station_id":"ce4bhr12rcd13ifvqhqg","pricing_plan_id":"cebpf4jnsgd1na2vs0mg"},{"bike_id":"1b755721-3ec9-4bec-b80a-7a6217bada82","system_id":"levelo_inurba_marseille","lat":43.29038,"lon":5.35915,"is_reserved":false,"is_disabled":false,"rental_uris":{"android":"levelo://app?vid=1b755721-3ec9-4bec-b80a-7a6217bada82","ios":"levelo://app?vid=1b755721-3ec9-4bec-b80a-7a6217bada82"},"vehicle_type_id":"4","last_reported":1733083767,"current_range_meters":21600,"station_id":"ce4bha92rcd13ifvqeg0","pricing_plan_id":"cebpf4jnsgd1na2vs0mg"},{"bike_id":"362acf97-9e8f-4c3e-8574-4958ae2ff74f","system_id":"levelo_inurba_marseille","lat":43.26189,"lon":5.42067,"is_reserved":false,"is_disabled":false,"rental_uris":{"android":"levelo://app?vid=362acf97-9e8f-4c3e-8574-4958ae2ff74f","ios":"levelo://app?vid=362acf97-9e8f-4c3e-8574-4958ae2ff74f"},"vehicle_type_id":"4","last_reported":1733083767,"current_range_meters":27200,"station_id":"","pricing_plan_id":"cebpf4jnsgd1na2vs0mg"},{"bike_id":"f070b46f-f295-4869-946e-332934d2e60a","system_id":"levelo_inurba_marseille","lat":43.22922,"lon":5.3537,"is_reserved":false,"is_disabled":false,"rental_uris":{"android":"levelo://app?vid=f070b46f-f295-4869-946e-332934d2e60a","ios":"levelo://app?vid=f070b46f-f295-4869-946e-332934d2e60a"},"vehicle_type_id":"4","last_reported":1733083767,"current_range_meters":38400,"station_id":"cpo3532slgdg3j2ikp40","pricing_plan_id":"cebpf4jnsgd1na2vs0mg"},{"bike_id":"16f59a99-77e7-4e3c-9067-fc4db2c8c9af","system_id":"levelo_inurba_marseille","lat":43.26941,"lon":5.40249,"is_reserved":false,"is_disabled":false,"rental_uris":{"android":"levelo://app?vid=16f59a99-77e7-4e3c-9067-fc4db2c8c9af","ios":"levelo://app?vid=16f59a99-77e7-4e3c-9067-fc4db2c8c9af"},"vehicle_type_id":"4","last_reported":1733083767,"current_range_meters":38800,"station_id":"cjm6bp8fraef2m0cb0m0","pricing_plan_id":"cebpf4jnsgd1na2vs0mg"},{"bike_id":"23369e24-9eb6-4ba1-b5e2-313b92351ab2","system_id":"levelo_inurba_marseille","lat":43.26784,"lon":5.38376,"is_reserved":false,"is_disabled":false,"rental_uris":{"android":"levelo://app?vid=23369e24-9eb6-4ba1-b5e2-313b92351ab2","ios":"levelo://app?vid=23369e24-9eb6-4ba1-b5e2-313b92351ab2"},"vehicle_type_id":"4","last_reported":1733083767,"current_range_meters":25600,"station_id":"ce4bhg92rcd13ifvqf90","pricing_plan_id":"cebpf4jnsgd1na2vs0mg"},{"bike_id":"b7b33697-14a7-4110-9b8b-4194e6ef5f3f","system_id":"levelo_inurba_marseille","lat":43.27283,"lon":5.39194,"is_reserved":false,"is_disabled":true,"rental_uris":{"android":"levelo://app?vid=b7b33697-14a7-4110-9b8b-4194e6ef5f3f","ios":"levelo://app?vid=b7b33697-14a7-4110-9b8b-4194e6ef5f3f"},"vehicle_type_id":"4","last_reported":1733083767,"current_range_meters":0,"station_id":"","pricing_plan_id":"cebpf4jnsgd1na2vs0mg"},{"bike_id":"e5968250-d70c-40cf-ad4d-9802480d9d1b","system_id":"levelo_inurba_marseille","lat":43.27199,"lon":5.39195,"is_reserved":false,"is_disabled":false,"rental_uris":{"android":"levelo://app?vid=e5968250-d70c-40cf-ad4d-9802480d9d1b","ios":"levelo://app?vid=e5968250-d70c-40cf-ad4d-9802480d9d1b"},"vehicle_type_id":"4","last_reported":1733083767,"current_range_meters":28800,"station_id":"ce4bhhp2rcd13ifvqfm0","pricing_plan_id":"cebpf4jnsgd1na2vs0mg"},{"bike_id":"ac49fba4-30df-4893-b052-7d9d76fd86a2","system_id":"levelo_inurba_marseille","lat":43.292524,"lon":5.38435,"is_reserved":false,"is_disabled":true,"rental_uris":{"android":"levelo://app?vid=ac49fba4-30df-4893-b052-7d9d76fd86a2","ios":"levelo://app?vid=ac49fba4-30df-4893-b052-7d9d76fd86a2"},"vehicle_type_id":"4","last_reported":1733083767,"current_range_meters":10000,"station_id":"ce4bh692rcd13ifvqea0","pricing_plan_id":"cebpf4jnsgd1na2vs0mg"},{"bike_id":"36ed591d-ae75-4af2-b10d-0b5a114c33eb","system_id":"levelo_inurba_marseille","lat":43.31119,"lon":5.37756,"is_reserved":false,"is_disabled":false,"rental_uris":{"android":"levelo://app?vid=36ed591d-ae75-4af2-b10d-0b5a114c33eb","ios":"levelo://app?vid=36ed591d-ae75-4af2-b10d-0b5a114c33eb"},"vehicle_type_id":"4","last_reported":1733083767,"current_range_meters":38800,"station_id":"ce4bgt92rcd13ifvqcg0","pricing_plan_id":"cebpf4jnsgd1na2vs0mg"},{"bike_id":"a3d540a5-c9e8-4c92-9399-ec0baac57a71","system_id":"levelo_inurba_marseille","lat":43.29535,"lon":5.38555,"is_reserved":false,"is_disabled":true,"rental_uris":{"android":"levelo://app?vid=a3d540a5-c9e8-4c92-9399-ec0baac57a71","ios":"levelo://app?vid=a3d540a5-c9e8-4c92-9399-ec0baac57a71"},"vehicle_type_id":"4","last_reported":1733083767,"current_range_meters":0,"station_id":"ce4bgih2rcd13ifvqba0","pricing_plan_id":"cebpf4jnsgd1na2vs0mg"},{"bike_id":"2578c898-454b-4870-95e3-3e53ed8ad570","system_id":"levelo_inurba_marseille","lat":43.26944,"lon":5.40241,"is_reserved":false,"is_disabled":false,"rental_uris":{"android":"levelo://app?vid=2578c898-454b-4870-95e3-3e53ed8ad570","ios":"levelo://app?vid=2578c898-454b-4870-95e3-3e53ed8ad570"},"vehicle_type_id":"4","last_reported":1733083767,"current_range_meters":16400,"station_id":"cjm6bp8fraef2m0cb0m0","pricing_plan_id":"cebpf4jnsgd1na2vs0mg"},{"bike_id":"c70bed4a-03c3-4d48-9d9d-f10e1949ee20","system_id":"levelo_inurba_marseille","lat":43.25,"lon":5.38924,"is_reserved":false,"is_disabled":false,"rental_uris":{"android":"levelo://app?vid=c70bed4a-03c3-4d48-9d9d-f10e1949ee20","ios":"levelo://app?vid=c70bed4a-03c3-4d48-9d9d-f10e1949ee20"},"vehicle_type_id":"4","last_reported":1733083767,"current_range_meters":38800,"station_id":"ce4bhgp2rcd13ifvqfd0","pricing_plan_id":"cebpf4jnsgd1na2vs0mg"},{"bike_id":"864071e6-8331-44c2-9f97-d17a243e3b69","system_id":"levelo_inurba_marseille","lat":43.26936,"lon":5.40255,"is_reserved":false,"is_disabled":false,"rental_uris":{"android":"levelo://app?vid=864071e6-8331-44c2-9f97-d17a243e3b69","ios":"levelo://app?vid=864071e6-8331-44c2-9f97-d17a243e3b69"},"vehicle_type_id":"4","last_reported":1733083767,"current_range_meters":38000,"station_id":"cjm6bp8fraef2m0cb0m0","pricing_plan_id":"cebpf4jnsgd1na2vs0mg"},{"bike_id":"3abdb507-aca9-41cf-ab5c-c13fb795c3a0","system_id":"levelo_inurba_marseille","lat":43.28417,"lon":5.34983,"is_reserved":false,"is_disabled":true,"rental_uris":{"android":"levelo://app?vid=3abdb507-aca9-41cf-ab5c-c13fb795c3a0","ios":"levelo://app?vid=3abdb507-aca9-41cf-ab5c-c13fb795c3a0"},"vehicle_type_id":"4","last_reported":1733083767,"current_range_meters":0,"station_id":"ce4bhbh2rcd13ifvqepg","pricing_plan_id":"cebpf4jnsgd1na2vs0mg"},{"bike_id":"a72ecdf9-e81e-49e5-a2a0-c9b7396b6442","system_id":"levelo_inurba_marseille","lat":43.3176,"lon":5.39014,"is_reserved":false,"is_disabled":false,"rental_uris":{"android":"levelo://app?vid=a72ecdf9-e81e-49e5-a2a0-c9b7396b6442","ios":"levelo://app?vid=a72ecdf9-e81e-49e5-a2a0-c9b7396b6442"},"vehicle_type_id":"4","last_reported":1733083767,"current_range_meters":38800,"station_id":"ce4bhqp2rcd13ifvqhng","pricing_plan_id":"cebpf4jnsgd1na2vs0mg"},{"bike_id":"fb2674c4-493a-4927-84ab-3be626644e42","system_id":"levelo_inurba_marseille","lat":43.3188,"lon":5.40732,"is_reserved":false,"is_disabled":false,"rental_uris":{"android":"levelo://app?vid=fb2674c4-493a-4927-84ab-3be626644e42","ios":"levelo://app?vid=fb2674c4-493a-4927-84ab-3be626644e42"},"vehicle_type_id":"4","last_reported":1733083767,"current_range_meters":17200,"station_id":"ce4bhq12rcd13ifvqhig","pricing_plan_id":"cebpf4jnsgd1na2vs0mg"},{"bike_id":"b746acb9-362e-49dd-86b1-5b00c0fb0dd6","system_id":"levelo_inurba_marseille","lat":43.26801,"lon":5.40266,"is_reserved":false,"is_disabled":false,"rental_uris":{"android":"levelo://app?vid=b746acb9-362e-49dd-86b1-5b00c0fb0dd6","ios":"levelo://app?vid=b746acb9-362e-49dd-86b1-5b00c0fb0dd6"},"vehicle_type_id":"4","last_reported":1733083767,"current_range_meters":32000,"station_id":"ce501612rcd8frsf0b60","pricing_plan_id":"cebpf4jnsgd1na2vs0mg"},{"bike_id":"3e7b4b23-6031-4448-8da9-17647584ad72","system_id":"levelo_inurba_marseille","lat":43.29059,"lon":5.37157,"is_reserved":false,"is_disabled":true,"rental_uris":{"android":"levelo://app?vid=3e7b4b23-6031-4448-8da9-17647584ad72","ios":"levelo://app?vid=3e7b4b23-6031-4448-8da9-17647584ad72"},"vehicle_type_id":"4","last_reported":1733083767,"current_range_meters":30800,"station_id":"ce4bh5p2rcd13ifvqe4g","pricing_plan_id":"cebpf4jnsgd1na2vs0mg"},{"bike_id":"c7141c69-2777-4179-ad40-d7d4799a8db6","system_id":"levelo_inurba_marseille","lat":43.28719,"lon":5.37933,"is_reserved":false,"is_disabled":false,"rental_uris":{"android":"levelo://app?vid=c7141c69-2777-4179-ad40-d7d4799a8db6","ios":"levelo://app?vid=c7141c69-2777-4179-ad40-d7d4799a8db6"},"vehicle_type_id":"4","last_reported":1733083767,"current_range_meters":38800,"station_id":"ce4bh9p2rcd13ifvqec0","pricing_plan_id":"cebpf4jnsgd1na2vs0mg"},{"bike_id":"314d1365-c0f9-4b36-8299-e279909a774d","system_id":"levelo_inurba_marseille","lat":43.31214,"lon":5.36859,"is_reserved":false,"is_disabled":true,"rental_uris":{"android":"levelo://app?vid=314d1365-c0f9-4b36-8299-e279909a774d","ios":"levelo://app?vid=314d1365-c0f9-4b36-8299-e279909a774d"},"vehicle_type_id":"4","last_reported":1733083767,"current_range_meters":0,"station_id":"ce4bgl92rcd13ifvqbq0","pricing_plan_id":"cebpf4jnsgd1na2vs0mg"},{"bike_id":"c9f5601d-7c1f-4bae-8886-07ae71c732ef","system_id":"levelo_inurba_marseille","lat":43.29171,"lon":5.37138,"is_reserved":false,"is_disabled":false,"rental_uris":{"android":"levelo://app?vid=c9f5601d-7c1f-4bae-8886-07ae71c732ef","ios":"levelo://app?vid=c9f5601d-7c1f-4bae-8886-07ae71c732ef"},"vehicle_type_id":"4","last_reported":1733083767,"current_range_meters":15200,"station_id":"ce4bha92rcd13ifvqeh0","pricing_plan_id":"cebpf4jnsgd1na2vs0mg"},{"bike_id":"a0d8c5dc-0261-4057-8633-570358d88be8","system_id":"levelo_inurba_marseille","lat":43.24801,"lon":5.37447,"is_reserved":false,"is_disabled":true,"rental_uris":{"android":"levelo://app?vid=a0d8c5dc-0261-4057-8633-570358d88be8","ios":"levelo://app?vid=a0d8c5dc-0261-4057-8633-570358d88be8"},"vehicle_type_id":"4","last_reported":1733083767,"current_range_meters":9200,"station_id":"ce4bhgh2rcd13ifvqfb0","pricing_plan_id":"cebpf4jnsgd1na2vs0mg"},{"bike_id":"8e126d5e-9202-4d02-9b96-07562eaa0d7f","system_id":"levelo_inurba_marseille","lat":43.33725,"lon":5.3918,"is_reserved":false,"is_disabled":false,"rental_uris":{"android":"levelo://app?vid=8e126d5e-9202-4d02-9b96-07562eaa0d7f","ios":"levelo://app?vid=8e126d5e-9202-4d02-9b96-07562eaa0d7f"},"vehicle_type_id":"4","last_reported":1733083767,"current_range_meters":24400,"station_id":"ce4bhr92rcd13ifvqhsg","pricing_plan_id":"cebpf4jnsgd1na2vs0mg"},{"bike_id":"4d8dbfde-779e-4ecc-bf1a-6c74a3c5f447","system_id":"levelo_inurba_marseille","lat":43.27434,"lon":5.39404,"is_reserved":false,"is_disabled":false,"rental_uris":{"android":"levelo://app?vid=4d8dbfde-779e-4ecc-bf1a-6c74a3c5f447","ios":"levelo://app?vid=4d8dbfde-779e-4ecc-bf1a-6c74a3c5f447"},"vehicle_type_id":"4","last_reported":1733083767,"current_range_meters":9600,"station_id":"ce4bhdp2rcd13ifvqf20","pricing_plan_id":"cebpf4jnsgd1na2vs0mg"},{"bike_id":"2e8bbbd2-11b7-417f-8ddb-d55d60d52438","system_id":"levelo_inurba_marseille","lat":43.28937,"lon":5.36629,"is_reserved":false,"is_disabled":false,"rental_uris":{"android":"levelo://app?vid=2e8bbbd2-11b7-417f-8ddb-d55d60d52438","ios":"levelo://app?vid=2e8bbbd2-11b7-417f-8ddb-d55d60d52438"},"vehicle_type_id":"4","last_reported":1733083767,"current_range_meters":12000,"station_id":"ce4bhap2rcd13ifvqek0","pricing_plan_id":"cebpf4jnsgd1na2vs0mg"},{"bike_id":"ab7ffb71-283c-4af3-a6fe-40b875c7c5fa","system_id":"levelo_inurba_marseille","lat":43.24546,"lon":5.39526,"is_reserved":false,"is_disabled":false,"rental_uris":{"android":"levelo://app?vid=ab7ffb71-283c-4af3-a6fe-40b875c7c5fa","ios":"levelo://app?vid=ab7ffb71-283c-4af3-a6fe-40b875c7c5fa"},"vehicle_type_id":"4","last_reported":1733083767,"current_range_meters":38800,"station_id":"ce4bhlp2rcd13ifvqgjg","pricing_plan_id":"cebpf4jnsgd1na2vs0mg"},{"bike_id":"89eb09d9-d8ae-446e-8af0-071b78d5e9a6","system_id":"levelo_inurba_marseille","lat":43.28417,"lon":5.34986,"is_reserved":false,"is_disabled":false,"rental_uris":{"android":"levelo://app?vid=89eb09d9-d8ae-446e-8af0-071b78d5e9a6","ios":"levelo://app?vid=89eb09d9-d8ae-446e-8af0-071b78d5e9a6"},"vehicle_type_id":"4","last_reported":1733083767,"current_range_meters":38000,"station_id":"ce4bhbh2rcd13ifvqepg","pricing_plan_id":"cebpf4jnsgd1na2vs0mg"},{"bike_id":"064861a6-5a15-4e22-bc40-26ea165590ab","system_id":"levelo_inurba_marseille","lat":43.29207,"lon":5.39317,"is_reserved":false,"is_disabled":true,"rental_uris":{"android":"levelo://app?vid=064861a6-5a15-4e22-bc40-26ea165590ab","ios":"levelo://app?vid=064861a6-5a15-4e22-bc40-26ea165590ab"},"vehicle_type_id":"4","last_reported":1733083767,"current_range_meters":22800,"station_id":"ce4bh192rcd13ifvqdd0","pricing_plan_id":"cebpf4jnsgd1na2vs0mg"},{"bike_id":"83187be1-7efa-435e-ae9b-74201cb4dec3","system_id":"levelo_inurba_marseille","lat":43.26684,"lon":5.3827,"is_reserved":false,"is_disabled":true,"rental_uris":{"android":"levelo://app?vid=83187be1-7efa-435e-ae9b-74201cb4dec3","ios":"levelo://app?vid=83187be1-7efa-435e-ae9b-74201cb4dec3"},"vehicle_type_id":"4","last_reported":1733083767,"current_range_meters":36800,"station_id":"ce4bhg92rcd13ifvqf90","pricing_plan_id":"cebpf4jnsgd1na2vs0mg"},{"bike_id":"c111e9fb-60e5-4181-8897-e7b4a184b8b9","system_id":"levelo_inurba_marseille","lat":43.31888,"lon":5.40725,"is_reserved":false,"is_disabled":false,"rental_uris":{"android":"levelo://app?vid=c111e9fb-60e5-4181-8897-e7b4a184b8b9","ios":"levelo://app?vid=c111e9fb-60e5-4181-8897-e7b4a184b8b9"},"vehicle_type_id":"4","last_reported":1733083767,"current_range_meters":9200,"station_id":"ce4bhq12rcd13ifvqhig","pricing_plan_id":"cebpf4jnsgd1na2vs0mg"},{"bike_id":"e8fa7be1-2407-41a7-b843-e7c70f1917ef","system_id":"levelo_inurba_marseille","lat":43.27611,"lon":5.36109,"is_reserved":false,"is_disabled":true,"rental_uris":{"android":"levelo://app?vid=e8fa7be1-2407-41a7-b843-e7c70f1917ef","ios":"levelo://app?vid=e8fa7be1-2407-41a7-b843-e7c70f1917ef"},"vehicle_type_id":"4","last_reported":1733083767,"current_range_meters":0,"station_id":"ce4bgj92rcd13ifvqbe0","pricing_plan_id":"cebpf4jnsgd1na2vs0mg"},{"bike_id":"38e39f93-130a-460e-a22a-46779615e79d","system_id":"levelo_inurba_marseille","lat":43.26809,"lon":5.40262,"is_reserved":false,"is_disabled":true,"rental_uris":{"android":"levelo://app?vid=38e39f93-130a-460e-a22a-46779615e79d","ios":"levelo://app?vid=38e39f93-130a-460e-a22a-46779615e79d"},"vehicle_type_id":"4","last_reported":1733083767,"current_range_meters":0,"station_id":"ce501612rcd8frsf0b60","pricing_plan_id":"cebpf4jnsgd1na2vs0mg"},{"bike_id":"9bb6dab7-d90b-4ffc-a4bd-a0ee11883072","system_id":"levelo_inurba_marseille","lat":43.25109,"lon":5.40319,"is_reserved":false,"is_disabled":false,"rental_uris":{"android":"levelo://app?vid=9bb6dab7-d90b-4ffc-a4bd-a0ee11883072","ios":"levelo://app?vid=9bb6dab7-d90b-4ffc-a4bd-a0ee11883072"},"vehicle_type_id":"4","last_reported":1733083767,"current_range_meters":29600,"station_id":"ce4bhlh2rcd13ifvqgig","pricing_plan_id":"cebpf4jnsgd1na2vs0mg"},{"bike_id":"17a954bd-2cd5-470d-83a1-74e68c25205f","system_id":"levelo_inurba_marseille","lat":43.27995,"lon":5.41658,"is_reserved":false,"is_disabled":true,"rental_uris":{"android":"levelo://app?vid=17a954bd-2cd5-470d-83a1-74e68c25205f","ios":"levelo://app?vid=17a954bd-2cd5-470d-83a1-74e68c25205f"},"vehicle_type_id":"4","last_reported":1733083767,"current_range_meters":18000,"station_id":"ce4bho12rcd13ifvqh1g","pricing_plan_id":"cebpf4jnsgd1na2vs0mg"},{"bike_id":"eee412f0-c1b7-45b4-97c2-72f8719dd5c6","system_id":"levelo_inurba_marseille","lat":43.27208,"lon":5.39176,"is_reserved":false,"is_disabled":false,"rental_uris":{"android":"levelo://app?vid=eee412f0-c1b7-45b4-97c2-72f8719dd5c6","ios":"levelo://app?vid=eee412f0-c1b7-45b4-97c2-72f8719dd5c6"},"vehicle_type_id":"4","last_reported":1733083767,"current_range_meters":38000,"station_id":"ce4bhhp2rcd13ifvqfm0","pricing_plan_id":"cebpf4jnsgd1na2vs0mg"},{"bike_id":"8becd05d-0395-4a02-9adc-eb593185eb5c","system_id":"levelo_inurba_marseille","lat":43.29528,"lon":5.38544,"is_reserved":false,"is_disabled":false,"rental_uris":{"android":"levelo://app?vid=8becd05d-0395-4a02-9adc-eb593185eb5c","ios":"levelo://app?vid=8becd05d-0395-4a02-9adc-eb593185eb5c"},"vehicle_type_id":"4","last_reported":1733083767,"current_range_meters":19600,"station_id":"ce4bgih2rcd13ifvqba0","pricing_plan_id":"cebpf4jnsgd1na2vs0mg"},{"bike_id":"84ad5031-7b79-49cb-ba0b-3d6826538579","system_id":"levelo_inurba_marseille","lat":43.27426,"lon":5.39418,"is_reserved":false,"is_disabled":false,"rental_uris":{"android":"levelo://app?vid=84ad5031-7b79-49cb-ba0b-3d6826538579","ios":"levelo://app?vid=84ad5031-7b79-49cb-ba0b-3d6826538579"},"vehicle_type_id":"4","last_reported":1733083767,"current_range_meters":27600,"station_id":"ce4bhdp2rcd13ifvqf20","pricing_plan_id":"cebpf4jnsgd1na2vs0mg"},{"bike_id":"ceecd159-e424-4c22-8ee0-0e80a4876ba9","system_id":"levelo_inurba_marseille","lat":43.28097,"lon":5.37843,"is_reserved":false,"is_disabled":true,"rental_uris":{"android":"levelo://app?vid=ceecd159-e424-4c22-8ee0-0e80a4876ba9","ios":"levelo://app?vid=ceecd159-e424-4c22-8ee0-0e80a4876ba9"},"vehicle_type_id":"4","last_reported":1733083767,"current_range_meters":0,"station_id":"ce4bha12rcd13ifvqee0","pricing_plan_id":"cebpf4jnsgd1na2vs0mg"},{"bike_id":"0f0260a6-1a0f-4237-b98c-d5278ce38a1a","system_id":"levelo_inurba_marseille","lat":43.29553,"lon":5.42282,"is_reserved":false,"is_disabled":false,"rental_uris":{"android":"levelo://app?vid=0f0260a6-1a0f-4237-b98c-d5278ce38a1a","ios":"levelo://app?vid=0f0260a6-1a0f-4237-b98c-d5278ce38a1a"},"vehicle_type_id":"4","last_reported":1733083767,"current_range_meters":38800,"station_id":"ce4bhph2rcd13ifvqhdg","pricing_plan_id":"cebpf4jnsgd1na2vs0mg"},{"bike_id":"9909786b-e74f-46b5-bda2-63dd6bab9377","system_id":"levelo_inurba_marseille","lat":43.26495,"lon":5.39538,"is_reserved":false,"is_disabled":false,"rental_uris":{"android":"levelo://app?vid=9909786b-e74f-46b5-bda2-63dd6bab9377","ios":"levelo://app?vid=9909786b-e74f-46b5-bda2-63dd6bab9377"},"vehicle_type_id":"4","last_reported":1733083767,"current_range_meters":38800,"station_id":"ce4bhi12rcd13ifvqfq0","pricing_plan_id":"cebpf4jnsgd1na2vs0mg"},{"bike_id":"1cc695f9-f86e-478e-97c6-0ba3ec831851","system_id":"levelo_inurba_marseille","lat":43.30595,"lon":5.39367,"is_reserved":false,"is_disabled":false,"rental_uris":{"android":"levelo://app?vid=1cc695f9-f86e-478e-97c6-0ba3ec831851","ios":"levelo://app?vid=1cc695f9-f86e-478e-97c6-0ba3ec831851"},"vehicle_type_id":"4","last_reported":1733083767,"current_range_meters":30400,"station_id":"ce4bh0p2rcd13ifvqd80","pricing_plan_id":"cebpf4jnsgd1na2vs0mg"},{"bike_id":"4c80fd7c-3cb9-4c60-8bef-80602aa3c087","system_id":"levelo_inurba_marseille","lat":43.27208,"lon":5.3919,"is_reserved":false,"is_disabled":false,"rental_uris":{"android":"levelo://app?vid=4c80fd7c-3cb9-4c60-8bef-80602aa3c087","ios":"levelo://app?vid=4c80fd7c-3cb9-4c60-8bef-80602aa3c087"},"vehicle_type_id":"4","last_reported":1733083767,"current_range_meters":12000,"station_id":"ce4bhhp2rcd13ifvqfm0","pricing_plan_id":"cebpf4jnsgd1na2vs0mg"},{"bike_id":"af12a5f9-720e-4019-987d-3779fe2b91a2","system_id":"levelo_inurba_marseille","lat":43.30828,"lon":5.37395,"is_reserved":false,"is_disabled":true,"rental_uris":{"android":"levelo://app?vid=af12a5f9-720e-4019-987d-3779fe2b91a2","ios":"levelo://app?vid=af12a5f9-720e-4019-987d-3779fe2b91a2"},"vehicle_type_id":"4","last_reported":1733083767,"current_range_meters":0,"station_id":"","pricing_plan_id":"cebpf4jnsgd1na2vs0mg"},{"bike_id":"59ef04f5-1cf8-4d1e-9688-51140c94c707","system_id":"levelo_inurba_marseille","lat":43.2955,"lon":5.42281,"is_reserved":false,"is_disabled":false,"rental_uris":{"android":"levelo://app?vid=59ef04f5-1cf8-4d1e-9688-51140c94c707","ios":"levelo://app?vid=59ef04f5-1cf8-4d1e-9688-51140c94c707"},"vehicle_type_id":"4","last_reported":1733083767,"current_range_meters":20000,"station_id":"ce4bhph2rcd13ifvqhdg","pricing_plan_id":"cebpf4jnsgd1na2vs0mg"},{"bike_id":"8746fc95-c2b6-4996-881b-5ee2916c2188","system_id":"levelo_inurba_marseille","lat":43.30594,"lon":5.39355,"is_reserved":false,"is_disabled":false,"rental_uris":{"android":"levelo://app?vid=8746fc95-c2b6-4996-881b-5ee2916c2188","ios":"levelo://app?vid=8746fc95-c2b6-4996-881b-5ee2916c2188"},"vehicle_type_id":"4","last_reported":1733083767,"current_range_meters":38800,"station_id":"ce4bh0p2rcd13ifvqd80","pricing_plan_id":"cebpf4jnsgd1na2vs0mg"},{"bike_id":"b190b8f2-aa96-4cbf-8654-8be8cebaab3c","system_id":"levelo_inurba_marseille","lat":43.31231,"lon":5.36869,"is_reserved":false,"is_disabled":false,"rental_uris":{"android":"levelo://app?vid=b190b8f2-aa96-4cbf-8654-8be8cebaab3c","ios":"levelo://app?vid=b190b8f2-aa96-4cbf-8654-8be8cebaab3c"},"vehicle_type_id":"4","last_reported":1733083767,"current_range_meters":34800,"station_id":"ce4bgl92rcd13ifvqbq0","pricing_plan_id":"cebpf4jnsgd1na2vs0mg"},{"bike_id":"22f49356-60a7-45e3-90bd-7ed007b266cc","system_id":"levelo_inurba_marseille","lat":43.26937,"lon":5.40258,"is_reserved":false,"is_disabled":false,"rental_uris":{"android":"levelo://app?vid=22f49356-60a7-45e3-90bd-7ed007b266cc","ios":"levelo://app?vid=22f49356-60a7-45e3-90bd-7ed007b266cc"},"vehicle_type_id":"4","last_reported":1733083767,"current_range_meters":38800,"station_id":"cjm6bp8fraef2m0cb0m0","pricing_plan_id":"cebpf4jnsgd1na2vs0mg"},{"bike_id":"d15814a2-573f-4c78-8275-4faa7c761a8d","system_id":"levelo_inurba_marseille","lat":43.28733,"lon":5.36076,"is_reserved":false,"is_disabled":false,"rental_uris":{"android":"levelo://app?vid=d15814a2-573f-4c78-8275-4faa7c761a8d","ios":"levelo://app?vid=d15814a2-573f-4c78-8275-4faa7c761a8d"},"vehicle_type_id":"4","last_reported":1733083767,"current_range_meters":38800,"station_id":"cki0cbj6b192h4jlfktg","pricing_plan_id":"cebpf4jnsgd1na2vs0mg"},{"bike_id":"e8aaf989-f7c7-4f92-9039-2cedc59abe88","system_id":"levelo_inurba_marseille","lat":43.25388,"lon":5.41855,"is_reserved":false,"is_disabled":false,"rental_uris":{"android":"levelo://app?vid=e8aaf989-f7c7-4f92-9039-2cedc59abe88","ios":"levelo://app?vid=e8aaf989-f7c7-4f92-9039-2cedc59abe88"},"vehicle_type_id":"4","last_reported":1733083767,"current_range_meters":27600,"station_id":"","pricing_plan_id":"cebpf4jnsgd1na2vs0mg"},{"bike_id":"566fd232-745a-46a5-b18c-1f8122956a09","system_id":"levelo_inurba_marseille","lat":43.30153,"lon":5.38084,"is_reserved":false,"is_disabled":false,"rental_uris":{"android":"levelo://app?vid=566fd232-745a-46a5-b18c-1f8122956a09","ios":"levelo://app?vid=566fd232-745a-46a5-b18c-1f8122956a09"},"vehicle_type_id":"4","last_reported":1733083767,"current_range_meters":6400,"station_id":"ce4bgjp2rcd13ifvqbh0","pricing_plan_id":"cebpf4jnsgd1na2vs0mg"},{"bike_id":"5c9df86b-ed64-454a-96cc-3199a3c90a7b","system_id":"levelo_inurba_marseille","lat":43.26555,"lon":5.37282,"is_reserved":false,"is_disabled":true,"rental_uris":{"android":"levelo://app?vid=5c9df86b-ed64-454a-96cc-3199a3c90a7b","ios":"levelo://app?vid=5c9df86b-ed64-454a-96cc-3199a3c90a7b"},"vehicle_type_id":"4","last_reported":1733083767,"current_range_meters":800,"station_id":"ce4bhg12rcd13ifvqf70","pricing_plan_id":"cebpf4jnsgd1na2vs0mg"},{"bike_id":"4a2be555-d056-454c-bed3-fe781ba86f8e","system_id":"levelo_inurba_marseille","lat":43.25886,"lon":5.39954,"is_reserved":false,"is_disabled":true,"rental_uris":{"android":"levelo://app?vid=4a2be555-d056-454c-bed3-fe781ba86f8e","ios":"levelo://app?vid=4a2be555-d056-454c-bed3-fe781ba86f8e"},"vehicle_type_id":"4","last_reported":1733083767,"current_range_meters":0,"station_id":"","pricing_plan_id":"cebpf4jnsgd1na2vs0mg"},{"bike_id":"b59c7139-9be9-4822-af54-08a98df83c29","system_id":"levelo_inurba_marseille","lat":43.27421,"lon":5.39405,"is_reserved":false,"is_disabled":false,"rental_uris":{"android":"levelo://app?vid=b59c7139-9be9-4822-af54-08a98df83c29","ios":"levelo://app?vid=b59c7139-9be9-4822-af54-08a98df83c29"},"vehicle_type_id":"4","last_reported":1733083767,"current_range_meters":36000,"station_id":"ce4bhdp2rcd13ifvqf20","pricing_plan_id":"cebpf4jnsgd1na2vs0mg"},{"bike_id":"e72f72c7-28ee-4a00-ac95-3095ed74405a","system_id":"levelo_inurba_marseille","lat":43.29958,"lon":5.38443,"is_reserved":false,"is_disabled":true,"rental_uris":{"android":"levelo://app?vid=e72f72c7-28ee-4a00-ac95-3095ed74405a","ios":"levelo://app?vid=e72f72c7-28ee-4a00-ac95-3095ed74405a"},"vehicle_type_id":"4","last_reported":1733083767,"current_range_meters":36800,"station_id":"ce4bgj92rcd13ifvqbd0","pricing_plan_id":"cebpf4jnsgd1na2vs0mg"},{"bike_id":"9d730ea9-9e60-4b26-865b-19384c86cf88","system_id":"levelo_inurba_marseille","lat":43.31527,"lon":5.38037,"is_reserved":false,"is_disabled":false,"rental_uris":{"android":"levelo://app?vid=9d730ea9-9e60-4b26-865b-19384c86cf88","ios":"levelo://app?vid=9d730ea9-9e60-4b26-865b-19384c86cf88"},"vehicle_type_id":"4","last_reported":1733083767,"current_range_meters":38800,"station_id":"ce4bhsp2rcd13ifvqi50","pricing_plan_id":"cebpf4jnsgd1na2vs0mg"},{"bike_id":"cb930c49-d9b6-4018-bbb8-1880fbb33687","system_id":"levelo_inurba_marseille","lat":43.2732,"lon":5.3908,"is_reserved":false,"is_disabled":false,"rental_uris":{"android":"levelo://app?vid=cb930c49-d9b6-4018-bbb8-1880fbb33687","ios":"levelo://app?vid=cb930c49-d9b6-4018-bbb8-1880fbb33687"},"vehicle_type_id":"4","last_reported":1733083767,"current_range_meters":25200,"station_id":"ce4bhgp2rcd13ifvqfe0","pricing_plan_id":"cebpf4jnsgd1na2vs0mg"},{"bike_id":"3c9a64bb-552e-49b4-9a06-a85282820d61","system_id":"levelo_inurba_marseille","lat":43.30433,"lon":5.38894,"is_reserved":false,"is_disabled":false,"rental_uris":{"android":"levelo://app?vid=3c9a64bb-552e-49b4-9a06-a85282820d61","ios":"levelo://app?vid=3c9a64bb-552e-49b4-9a06-a85282820d61"},"vehicle_type_id":"4","last_reported":1733083767,"current_range_meters":36400,"station_id":"ce4bgk12rcd13ifvqbi0","pricing_plan_id":"cebpf4jnsgd1na2vs0mg"},{"bike_id":"41329919-d8a6-4529-9c36-e6723e50ee60","system_id":"levelo_inurba_marseille","lat":43.303059,"lon":5.392054,"is_reserved":false,"is_disabled":true,"rental_uris":{"android":"levelo://app?vid=41329919-d8a6-4529-9c36-e6723e50ee60","ios":"levelo://app?vid=41329919-d8a6-4529-9c36-e6723e50ee60"},"vehicle_type_id":"4","last_reported":1733083767,"current_range_meters":28800,"station_id":"ce4bgkh2rcd13ifvqbk0","pricing_plan_id":"cebpf4jnsgd1na2vs0mg"},{"bike_id":"f6608a9e-8317-4530-a43a-e98d47c174f4","system_id":"levelo_inurba_marseille","lat":43.29553,"lon":5.42288,"is_reserved":false,"is_disabled":false,"rental_uris":{"android":"levelo://app?vid=f6608a9e-8317-4530-a43a-e98d47c174f4","ios":"levelo://app?vid=f6608a9e-8317-4530-a43a-e98d47c174f4"},"vehicle_type_id":"4","last_reported":1733083767,"current_range_meters":28800,"station_id":"ce4bhph2rcd13ifvqhdg","pricing_plan_id":"cebpf4jnsgd1na2vs0mg"},{"bike_id":"33fd44a0-b7c3-49f6-be66-d93726644b6e","system_id":"levelo_inurba_marseille","lat":43.27313,"lon":5.39088,"is_reserved":false,"is_disabled":false,"rental_uris":{"android":"levelo://app?vid=33fd44a0-b7c3-49f6-be66-d93726644b6e","ios":"levelo://app?vid=33fd44a0-b7c3-49f6-be66-d93726644b6e"},"vehicle_type_id":"4","last_reported":1733083767,"current_range_meters":30400,"station_id":"ce4bhgp2rcd13ifvqfe0","pricing_plan_id":"cebpf4jnsgd1na2vs0mg"},{"bike_id":"0efb33db-0016-4e6b-8f30-8d85e1cf3838","system_id":"levelo_inurba_marseille","lat":43.27194,"lon":5.39199,"is_reserved":false,"is_disabled":false,"rental_uris":{"android":"levelo://app?vid=0efb33db-0016-4e6b-8f30-8d85e1cf3838","ios":"levelo://app?vid=0efb33db-0016-4e6b-8f30-8d85e1cf3838"},"vehicle_type_id":"4","last_reported":1733083767,"current_range_meters":8800,"station_id":"ce4bhhp2rcd13ifvqfm0","pricing_plan_id":"cebpf4jnsgd1na2vs0mg"},{"bike_id":"000b518d-442b-4752-8b9a-e2fc3654d286","system_id":"levelo_inurba_marseille","lat":43.29447,"lon":5.39754,"is_reserved":false,"is_disabled":true,"rental_uris":{"android":"levelo://app?vid=000b518d-442b-4752-8b9a-e2fc3654d286","ios":"levelo://app?vid=000b518d-442b-4752-8b9a-e2fc3654d286"},"vehicle_type_id":"4","last_reported":1733083767,"current_range_meters":15200,"station_id":"ce4bh3h2rcd13ifvqdo0","pricing_plan_id":"cebpf4jnsgd1na2vs0mg"},{"bike_id":"4a22c7ea-78e8-41c3-9b97-1e7e424cd08d","system_id":"levelo_inurba_marseille","lat":43.27828,"lon":5.39207,"is_reserved":false,"is_disabled":false,"rental_uris":{"android":"levelo://app?vid=4a22c7ea-78e8-41c3-9b97-1e7e424cd08d","ios":"levelo://app?vid=4a22c7ea-78e8-41c3-9b97-1e7e424cd08d"},"vehicle_type_id":"4","last_reported":1733083767,"current_range_meters":37600,"station_id":"ce4bhjp2rcd13ifvqga0","pricing_plan_id":"cebpf4jnsgd1na2vs0mg"},{"bike_id":"e39d22a4-daed-483a-acbb-550d4592cfe0","system_id":"levelo_inurba_marseille","lat":43.30057,"lon":5.3883,"is_reserved":false,"is_disabled":true,"rental_uris":{"android":"levelo://app?vid=e39d22a4-daed-483a-acbb-550d4592cfe0","ios":"levelo://app?vid=e39d22a4-daed-483a-acbb-550d4592cfe0"},"vehicle_type_id":"4","last_reported":1733083767,"current_range_meters":0,"station_id":"","pricing_plan_id":"cebpf4jnsgd1na2vs0mg"},{"bike_id":"8e49e3bc-0aee-49fb-83c0-0c1cbdbe8935","system_id":"levelo_inurba_marseille","lat":43.27207,"lon":5.39176,"is_reserved":false,"is_disabled":false,"rental_uris":{"android":"levelo://app?vid=8e49e3bc-0aee-49fb-83c0-0c1cbdbe8935","ios":"levelo://app?vid=8e49e3bc-0aee-49fb-83c0-0c1cbdbe8935"},"vehicle_type_id":"4","last_reported":1733083767,"current_range_meters":24800,"station_id":"ce4bhhp2rcd13ifvqfm0","pricing_plan_id":"cebpf4jnsgd1na2vs0mg"},{"bike_id":"f9c8b933-6f3c-415b-a23a-3b43c2f5668d","system_id":"levelo_inurba_marseille","lat":43.23062,"lon":5.35485,"is_reserved":false,"is_disabled":true,"rental_uris":{"android":"levelo://app?vid=f9c8b933-6f3c-415b-a23a-3b43c2f5668d","ios":"levelo://app?vid=f9c8b933-6f3c-415b-a23a-3b43c2f5668d"},"vehicle_type_id":"4","last_reported":1733083767,"current_range_meters":29600,"station_id":"cpo3342slgdg3j2ifvpg","pricing_plan_id":"cebpf4jnsgd1na2vs0mg"},{"bike_id":"68715959-4fd7-40a4-b807-671846e178a8","system_id":"levelo_inurba_marseille","lat":43.31227,"lon":5.36854,"is_reserved":false,"is_disabled":false,"rental_uris":{"android":"levelo://app?vid=68715959-4fd7-40a4-b807-671846e178a8","ios":"levelo://app?vid=68715959-4fd7-40a4-b807-671846e178a8"},"vehicle_type_id":"4","last_reported":1733083767,"current_range_meters":34000,"station_id":"ce4bgl92rcd13ifvqbq0","pricing_plan_id":"cebpf4jnsgd1na2vs0mg"},{"bike_id":"f51a3d60-ff18-4f8a-8906-bf85e4374508","system_id":"levelo_inurba_marseille","lat":43.28932,"lon":5.36396,"is_reserved":false,"is_disabled":false,"rental_uris":{"android":"levelo://app?vid=f51a3d60-ff18-4f8a-8906-bf85e4374508","ios":"levelo://app?vid=f51a3d60-ff18-4f8a-8906-bf85e4374508"},"vehicle_type_id":"4","last_reported":1733083767,"current_range_meters":38800,"station_id":"ce4bhc92rcd13ifvqetg","pricing_plan_id":"cebpf4jnsgd1na2vs0mg"},{"bike_id":"c1b4782f-7dc5-49b3-b190-d04f32598b77","system_id":"levelo_inurba_marseille","lat":43.31329,"lon":5.39683,"is_reserved":false,"is_disabled":false,"rental_uris":{"android":"levelo://app?vid=c1b4782f-7dc5-49b3-b190-d04f32598b77","ios":"levelo://app?vid=c1b4782f-7dc5-49b3-b190-d04f32598b77"},"vehicle_type_id":"4","last_reported":1733083767,"current_range_meters":35200,"station_id":"ce4bgvp2rcd13ifvqcu0","pricing_plan_id":"cebpf4jnsgd1na2vs0mg"},{"bike_id":"78e5f316-3948-4b35-911e-923ed2423220","system_id":"levelo_inurba_marseille","lat":43.27212,"lon":5.39173,"is_reserved":false,"is_disabled":false,"rental_uris":{"android":"levelo://app?vid=78e5f316-3948-4b35-911e-923ed2423220","ios":"levelo://app?vid=78e5f316-3948-4b35-911e-923ed2423220"},"vehicle_type_id":"4","last_reported":1733083767,"current_range_meters":25600,"station_id":"ce4bhhp2rcd13ifvqfm0","pricing_plan_id":"cebpf4jnsgd1na2vs0mg"},{"bike_id":"06e6470a-e7c6-43e1-8faf-2131a4d6a529","system_id":"levelo_inurba_marseille","lat":43.23182,"lon":5.39983,"is_reserved":false,"is_disabled":false,"rental_uris":{"android":"levelo://app?vid=06e6470a-e7c6-43e1-8faf-2131a4d6a529","ios":"levelo://app?vid=06e6470a-e7c6-43e1-8faf-2131a4d6a529"},"vehicle_type_id":"4","last_reported":1733083767,"current_range_meters":38800,"station_id":"ce4bhn12rcd13ifvqgqg","pricing_plan_id":"cebpf4jnsgd1na2vs0mg"},{"bike_id":"3f59b417-afad-4b62-9f61-287fb5ce9cbf","system_id":"levelo_inurba_marseille","lat":43.31072,"lon":5.38362,"is_reserved":false,"is_disabled":true,"rental_uris":{"android":"levelo://app?vid=3f59b417-afad-4b62-9f61-287fb5ce9cbf","ios":"levelo://app?vid=3f59b417-afad-4b62-9f61-287fb5ce9cbf"},"vehicle_type_id":"4","last_reported":1733083767,"current_range_meters":0,"station_id":"ce4bgv92rcd13ifvqcr0","pricing_plan_id":"cebpf4jnsgd1na2vs0mg"},{"bike_id":"0f7f79a0-c59e-4b71-83f2-b12c1bc94c9e","system_id":"levelo_inurba_marseille","lat":43.27951,"lon":5.38706,"is_reserved":false,"is_disabled":true,"rental_uris":{"android":"levelo://app?vid=0f7f79a0-c59e-4b71-83f2-b12c1bc94c9e","ios":"levelo://app?vid=0f7f79a0-c59e-4b71-83f2-b12c1bc94c9e"},"vehicle_type_id":"4","last_reported":1733083767,"current_range_meters":0,"station_id":"ce4bhg12rcd13ifvqf80","pricing_plan_id":"cebpf4jnsgd1na2vs0mg"},{"bike_id":"b535dfd0-ec01-4a13-996f-71245b6113cc","system_id":"levelo_inurba_marseille","lat":43.27974,"lon":5.41231,"is_reserved":false,"is_disabled":true,"rental_uris":{"android":"levelo://app?vid=b535dfd0-ec01-4a13-996f-71245b6113cc","ios":"levelo://app?vid=b535dfd0-ec01-4a13-996f-71245b6113cc"},"vehicle_type_id":"4","last_reported":1733083767,"current_range_meters":0,"station_id":"","pricing_plan_id":"cebpf4jnsgd1na2vs0mg"},{"bike_id":"11d5604e-29c4-4f54-96ae-67f1e4e1420d","system_id":"levelo_inurba_marseille","lat":43.29569,"lon":5.37512,"is_reserved":false,"is_disabled":true,"rental_uris":{"android":"levelo://app?vid=11d5604e-29c4-4f54-96ae-67f1e4e1420d","ios":"levelo://app?vid=11d5604e-29c4-4f54-96ae-67f1e4e1420d"},"vehicle_type_id":"4","last_reported":1733083767,"current_range_meters":0,"station_id":"ce4bgh92rcd13ifvqb50","pricing_plan_id":"cebpf4jnsgd1na2vs0mg"},{"bike_id":"50d811eb-b350-43c8-951e-a766203fc36d","system_id":"levelo_inurba_marseille","lat":43.25107,"lon":5.4032,"is_reserved":false,"is_disabled":false,"rental_uris":{"android":"levelo://app?vid=50d811eb-b350-43c8-951e-a766203fc36d","ios":"levelo://app?vid=50d811eb-b350-43c8-951e-a766203fc36d"},"vehicle_type_id":"4","last_reported":1733083767,"current_range_meters":35600,"station_id":"ce4bhlh2rcd13ifvqgig","pricing_plan_id":"cebpf4jnsgd1na2vs0mg"},{"bike_id":"5eb82a51-08dd-4fa6-ad46-bc44b85bb4a1","system_id":"levelo_inurba_marseille","lat":43.2706,"lon":5.40258,"is_reserved":false,"is_disabled":false,"rental_uris":{"android":"levelo://app?vid=5eb82a51-08dd-4fa6-ad46-bc44b85bb4a1","ios":"levelo://app?vid=5eb82a51-08dd-4fa6-ad46-bc44b85bb4a1"},"vehicle_type_id":"4","last_reported":1733083767,"current_range_meters":7200,"station_id":"ce4bhk92rcd13ifvqgc0","pricing_plan_id":"cebpf4jnsgd1na2vs0mg"},{"bike_id":"c6e7fc9d-8e13-40bd-b49b-7b54f43a254f","system_id":"levelo_inurba_marseille","lat":43.28563,"lon":5.39494,"is_reserved":false,"is_disabled":false,"rental_uris":{"android":"levelo://app?vid=c6e7fc9d-8e13-40bd-b49b-7b54f43a254f","ios":"levelo://app?vid=c6e7fc9d-8e13-40bd-b49b-7b54f43a254f"},"vehicle_type_id":"4","last_reported":1733083767,"current_range_meters":20800,"station_id":"ce4bh292rcd13ifvqdg0","pricing_plan_id":"cebpf4jnsgd1na2vs0mg"},{"bike_id":"b642d79a-bd2c-495a-acdd-099583f67bf5","system_id":"levelo_inurba_marseille","lat":43.32293,"lon":5.38265,"is_reserved":false,"is_disabled":false,"rental_uris":{"android":"levelo://app?vid=b642d79a-bd2c-495a-acdd-099583f67bf5","ios":"levelo://app?vid=b642d79a-bd2c-495a-acdd-099583f67bf5"},"vehicle_type_id":"4","last_reported":1733083767,"current_range_meters":24800,"station_id":"ce4bhr12rcd13ifvqhqg","pricing_plan_id":"cebpf4jnsgd1na2vs0mg"},{"bike_id":"612ff584-c95b-4271-9dfd-f283f925bc8f","system_id":"levelo_inurba_marseille","lat":43.26683,"lon":5.38273,"is_reserved":false,"is_disabled":true,"rental_uris":{"android":"levelo://app?vid=612ff584-c95b-4271-9dfd-f283f925bc8f","ios":"levelo://app?vid=612ff584-c95b-4271-9dfd-f283f925bc8f"},"vehicle_type_id":"4","last_reported":1733083767,"current_range_meters":0,"station_id":"ce4bhg92rcd13ifvqf90","pricing_plan_id":"cebpf4jnsgd1na2vs0mg"},{"bike_id":"916b0d47-8eb2-458f-9b30-1870ca003017","system_id":"levelo_inurba_marseille","lat":43.28718,"lon":5.37936,"is_reserved":false,"is_disabled":false,"rental_uris":{"android":"levelo://app?vid=916b0d47-8eb2-458f-9b30-1870ca003017","ios":"levelo://app?vid=916b0d47-8eb2-458f-9b30-1870ca003017"},"vehicle_type_id":"4","last_reported":1733083767,"current_range_meters":38400,"station_id":"ce4bh9p2rcd13ifvqec0","pricing_plan_id":"cebpf4jnsgd1na2vs0mg"},{"bike_id":"69d460be-a2d3-40bb-9e7d-c9bb98d10054","system_id":"levelo_inurba_marseille","lat":43.26789,"lon":5.39408,"is_reserved":false,"is_disabled":false,"rental_uris":{"android":"levelo://app?vid=69d460be-a2d3-40bb-9e7d-c9bb98d10054","ios":"levelo://app?vid=69d460be-a2d3-40bb-9e7d-c9bb98d10054"},"vehicle_type_id":"4","last_reported":1733083767,"current_range_meters":26000,"station_id":"ce4bhh12rcd13ifvqfg0","pricing_plan_id":"cebpf4jnsgd1na2vs0mg"},{"bike_id":"2ebf3b3c-662f-41a2-b8dc-68990b8b5b78","system_id":"levelo_inurba_marseille","lat":43.27066,"lon":5.42276,"is_reserved":false,"is_disabled":false,"rental_uris":{"android":"levelo://app?vid=2ebf3b3c-662f-41a2-b8dc-68990b8b5b78","ios":"levelo://app?vid=2ebf3b3c-662f-41a2-b8dc-68990b8b5b78"},"vehicle_type_id":"4","last_reported":1733083767,"current_range_meters":8400,"station_id":"ce4bhk92rcd13ifvqgb0","pricing_plan_id":"cebpf4jnsgd1na2vs0mg"},{"bike_id":"5b9d6f48-f6d1-42ec-91ce-2705b20346f7","system_id":"levelo_inurba_marseille","lat":43.27619,"lon":5.36098,"is_reserved":false,"is_disabled":true,"rental_uris":{"android":"levelo://app?vid=5b9d6f48-f6d1-42ec-91ce-2705b20346f7","ios":"levelo://app?vid=5b9d6f48-f6d1-42ec-91ce-2705b20346f7"},"vehicle_type_id":"4","last_reported":1733083767,"current_range_meters":38800,"station_id":"ce4bgj92rcd13ifvqbe0","pricing_plan_id":"cebpf4jnsgd1na2vs0mg"},{"bike_id":"b0c3bea6-4bea-4f04-a02c-43072b043247","system_id":"levelo_inurba_marseille","lat":43.24075,"lon":5.37751,"is_reserved":false,"is_disabled":false,"rental_uris":{"android":"levelo://app?vid=b0c3bea6-4bea-4f04-a02c-43072b043247","ios":"levelo://app?vid=b0c3bea6-4bea-4f04-a02c-43072b043247"},"vehicle_type_id":"4","last_reported":1733083767,"current_range_meters":9200,"station_id":"ce4bhnp2rcd13ifvqgvg","pricing_plan_id":"cebpf4jnsgd1na2vs0mg"},{"bike_id":"0174841e-8011-4a7b-bd18-480101bee765","system_id":"levelo_inurba_marseille","lat":43.23962,"lon":5.36616,"is_reserved":false,"is_disabled":true,"rental_uris":{"android":"levelo://app?vid=0174841e-8011-4a7b-bd18-480101bee765","ios":"levelo://app?vid=0174841e-8011-4a7b-bd18-480101bee765"},"vehicle_type_id":"4","last_reported":1733083767,"current_range_meters":0,"station_id":"ce4bhi12rcd13ifvqfp0","pricing_plan_id":"cebpf4jnsgd1na2vs0mg"},{"bike_id":"55aa419e-7ca9-4f29-976a-fefd7a814401","system_id":"levelo_inurba_marseille","lat":43.301367,"lon":5.387839,"is_reserved":false,"is_disabled":true,"rental_uris":{"android":"levelo://app?vid=55aa419e-7ca9-4f29-976a-fefd7a814401","ios":"levelo://app?vid=55aa419e-7ca9-4f29-976a-fefd7a814401"},"vehicle_type_id":"4","last_reported":1733083767,"current_range_meters":16400,"station_id":"ce4bghh2rcd13ifvqb60","pricing_plan_id":"cebpf4jnsgd1na2vs0mg"},{"bike_id":"5b968fc2-ac8e-4dde-a22b-69019845a464","system_id":"levelo_inurba_marseille","lat":43.30597,"lon":5.3724,"is_reserved":false,"is_disabled":false,"rental_uris":{"android":"levelo://app?vid=5b968fc2-ac8e-4dde-a22b-69019845a464","ios":"levelo://app?vid=5b968fc2-ac8e-4dde-a22b-69019845a464"},"vehicle_type_id":"4","last_reported":1733083767,"current_range_meters":38800,"station_id":"ce4bgqh2rcd13ifvqc4g","pricing_plan_id":"cebpf4jnsgd1na2vs0mg"},{"bike_id":"598ed102-c4e4-4d5f-85c4-e8e886cf7754","system_id":"levelo_inurba_marseille","lat":43.27423,"lon":5.39402,"is_reserved":false,"is_disabled":false,"rental_uris":{"android":"levelo://app?vid=598ed102-c4e4-4d5f-85c4-e8e886cf7754","ios":"levelo://app?vid=598ed102-c4e4-4d5f-85c4-e8e886cf7754"},"vehicle_type_id":"4","last_reported":1733083767,"current_range_meters":36400,"station_id":"ce4bhdp2rcd13ifvqf20","pricing_plan_id":"cebpf4jnsgd1na2vs0mg"},{"bike_id":"a02197a7-537d-4b3a-8b5a-ca2648521800","system_id":"levelo_inurba_marseille","lat":43.29557,"lon":5.42287,"is_reserved":false,"is_disabled":false,"rental_uris":{"android":"levelo://app?vid=a02197a7-537d-4b3a-8b5a-ca2648521800","ios":"levelo://app?vid=a02197a7-537d-4b3a-8b5a-ca2648521800"},"vehicle_type_id":"4","last_reported":1733083767,"current_range_meters":38800,"station_id":"ce4bhph2rcd13ifvqhdg","pricing_plan_id":"cebpf4jnsgd1na2vs0mg"},{"bike_id":"18045676-f8ef-47f1-a9f6-b35faaf58b2c","system_id":"levelo_inurba_marseille","lat":43.30886,"lon":5.39635,"is_reserved":false,"is_disabled":false,"rental_uris":{"android":"levelo://app?vid=18045676-f8ef-47f1-a9f6-b35faaf58b2c","ios":"levelo://app?vid=18045676-f8ef-47f1-a9f6-b35faaf58b2c"},"vehicle_type_id":"4","last_reported":1733083767,"current_range_meters":27600,"station_id":"ce4bh012rcd13ifvqcv0","pricing_plan_id":"cebpf4jnsgd1na2vs0mg"},{"bike_id":"bb5b4e0a-b86f-423e-9bb9-d81ea9394403","system_id":"levelo_inurba_marseille","lat":43.30925,"lon":5.40138,"is_reserved":false,"is_disabled":true,"rental_uris":{"android":"levelo://app?vid=bb5b4e0a-b86f-423e-9bb9-d81ea9394403","ios":"levelo://app?vid=bb5b4e0a-b86f-423e-9bb9-d81ea9394403"},"vehicle_type_id":"4","last_reported":1733083767,"current_range_meters":38800,"station_id":"ce4bgvp2rcd13ifvqct0","pricing_plan_id":"cebpf4jnsgd1na2vs0mg"},{"bike_id":"5fb181dc-bea9-4f91-8a60-fd73b1bbbccd","system_id":"levelo_inurba_marseille","lat":43.31887,"lon":5.40727,"is_reserved":false,"is_disabled":false,"rental_uris":{"android":"levelo://app?vid=5fb181dc-bea9-4f91-8a60-fd73b1bbbccd","ios":"levelo://app?vid=5fb181dc-bea9-4f91-8a60-fd73b1bbbccd"},"vehicle_type_id":"4","last_reported":1733083767,"current_range_meters":10000,"station_id":"ce4bhq12rcd13ifvqhig","pricing_plan_id":"cebpf4jnsgd1na2vs0mg"},{"bike_id":"d3d123b9-bf77-4e17-859d-89236002e59e","system_id":"levelo_inurba_marseille","lat":43.3236,"lon":5.36748,"is_reserved":false,"is_disabled":false,"rental_uris":{"android":"levelo://app?vid=d3d123b9-bf77-4e17-859d-89236002e59e","ios":"levelo://app?vid=d3d123b9-bf77-4e17-859d-89236002e59e"},"vehicle_type_id":"4","last_reported":1733083767,"current_range_meters":38400,"station_id":"ce4bhsh2rcd13ifvqi2g","pricing_plan_id":"cebpf4jnsgd1na2vs0mg"},{"bike_id":"4895daeb-21d6-492f-8cc4-e79be8276820","system_id":"levelo_inurba_marseille","lat":43.30881,"lon":5.37187,"is_reserved":false,"is_disabled":false,"rental_uris":{"android":"levelo://app?vid=4895daeb-21d6-492f-8cc4-e79be8276820","ios":"levelo://app?vid=4895daeb-21d6-492f-8cc4-e79be8276820"},"vehicle_type_id":"4","last_reported":1733083767,"current_range_meters":8400,"station_id":"ce4bguh2rcd13ifvqckg","pricing_plan_id":"cebpf4jnsgd1na2vs0mg"},{"bike_id":"412853f1-0eb2-40a5-b8bc-f594fdc65c40","system_id":"levelo_inurba_marseille","lat":43.30781,"lon":5.3764,"is_reserved":false,"is_disabled":false,"rental_uris":{"android":"levelo://app?vid=412853f1-0eb2-40a5-b8bc-f594fdc65c40","ios":"levelo://app?vid=412853f1-0eb2-40a5-b8bc-f594fdc65c40"},"vehicle_type_id":"4","last_reported":1733083767,"current_range_meters":30800,"station_id":"ce4bgv92rcd13ifvqcq0","pricing_plan_id":"cebpf4jnsgd1na2vs0mg"},{"bike_id":"b356bbd8-e802-4b7f-b3f3-a79264719719","system_id":"levelo_inurba_marseille","lat":43.28401,"lon":5.37512,"is_reserved":false,"is_disabled":false,"rental_uris":{"android":"levelo://app?vid=b356bbd8-e802-4b7f-b3f3-a79264719719","ios":"levelo://app?vid=b356bbd8-e802-4b7f-b3f3-a79264719719"},"vehicle_type_id":"4","last_reported":1733083767,"current_range_meters":10800,"station_id":"ce4bh412rcd13ifvqds0","pricing_plan_id":"cebpf4jnsgd1na2vs0mg"},{"bike_id":"25dd2a60-280f-4b55-9588-353347a1acca","system_id":"levelo_inurba_marseille","lat":43.24078,"lon":5.3775,"is_reserved":false,"is_disabled":false,"rental_uris":{"android":"levelo://app?vid=25dd2a60-280f-4b55-9588-353347a1acca","ios":"levelo://app?vid=25dd2a60-280f-4b55-9588-353347a1acca"},"vehicle_type_id":"4","last_reported":1733083767,"current_range_meters":38800,"station_id":"ce4bhnp2rcd13ifvqgvg","pricing_plan_id":"cebpf4jnsgd1na2vs0mg"},{"bike_id":"055a7879-a44b-4db4-88e7-fcdc0a0a1dcc","system_id":"levelo_inurba_marseille","lat":43.23966,"lon":5.36633,"is_reserved":false,"is_disabled":false,"rental_uris":{"android":"levelo://app?vid=055a7879-a44b-4db4-88e7-fcdc0a0a1dcc","ios":"levelo://app?vid=055a7879-a44b-4db4-88e7-fcdc0a0a1dcc"},"vehicle_type_id":"4","last_reported":1733083767,"current_range_meters":3600,"station_id":"ce4bhi12rcd13ifvqfp0","pricing_plan_id":"cebpf4jnsgd1na2vs0mg"},{"bike_id":"bfa86af0-1f74-434e-abbf-921f33e599bc","system_id":"levelo_inurba_marseille","lat":43.28348,"lon":5.3811,"is_reserved":false,"is_disabled":false,"rental_uris":{"android":"levelo://app?vid=bfa86af0-1f74-434e-abbf-921f33e599bc","ios":"levelo://app?vid=bfa86af0-1f74-434e-abbf-921f33e599bc"},"vehicle_type_id":"4","last_reported":1733083767,"current_range_meters":38800,"station_id":"ce4bh412rcd13ifvqdr0","pricing_plan_id":"cebpf4jnsgd1na2vs0mg"},{"bike_id":"1f7791af-ac7b-4771-ad44-95cc04a9bb6a","system_id":"levelo_inurba_marseille","lat":43.28099,"lon":5.37835,"is_reserved":false,"is_disabled":false,"rental_uris":{"android":"levelo://app?vid=1f7791af-ac7b-4771-ad44-95cc04a9bb6a","ios":"levelo://app?vid=1f7791af-ac7b-4771-ad44-95cc04a9bb6a"},"vehicle_type_id":"4","last_reported":1733083767,"current_range_meters":24000,"station_id":"ce4bha12rcd13ifvqee0","pricing_plan_id":"cebpf4jnsgd1na2vs0mg"},{"bike_id":"c465f519-4e98-4d76-85c3-bb3fcaf16733","system_id":"levelo_inurba_marseille","lat":43.26941,"lon":5.40254,"is_reserved":false,"is_disabled":false,"rental_uris":{"android":"levelo://app?vid=c465f519-4e98-4d76-85c3-bb3fcaf16733","ios":"levelo://app?vid=c465f519-4e98-4d76-85c3-bb3fcaf16733"},"vehicle_type_id":"4","last_reported":1733083767,"current_range_meters":12400,"station_id":"cjm6bp8fraef2m0cb0m0","pricing_plan_id":"cebpf4jnsgd1na2vs0mg"},{"bike_id":"42dff1c4-6053-46d6-ab14-2b44877e8b55","system_id":"levelo_inurba_marseille","lat":43.28442,"lon":5.39181,"is_reserved":false,"is_disabled":true,"rental_uris":{"android":"levelo://app?vid=42dff1c4-6053-46d6-ab14-2b44877e8b55","ios":"levelo://app?vid=42dff1c4-6053-46d6-ab14-2b44877e8b55"},"vehicle_type_id":"4","last_reported":1733083767,"current_range_meters":36800,"station_id":"ce4bhoh2rcd13ifvqh5g","pricing_plan_id":"cebpf4jnsgd1na2vs0mg"},{"bike_id":"583cb2b6-b7e7-41a9-b75b-59b98250c1c8","system_id":"levelo_inurba_marseille","lat":43.27209,"lon":5.39174,"is_reserved":false,"is_disabled":false,"rental_uris":{"android":"levelo://app?vid=583cb2b6-b7e7-41a9-b75b-59b98250c1c8","ios":"levelo://app?vid=583cb2b6-b7e7-41a9-b75b-59b98250c1c8"},"vehicle_type_id":"4","last_reported":1733083767,"current_range_meters":10800,"station_id":"ce4bhhp2rcd13ifvqfm0","pricing_plan_id":"cebpf4jnsgd1na2vs0mg"},{"bike_id":"41622ec0-aeda-4657-9a2e-3777c9f9fdfe","system_id":"levelo_inurba_marseille","lat":43.27059,"lon":5.40258,"is_reserved":false,"is_disabled":false,"rental_uris":{"android":"levelo://app?vid=41622ec0-aeda-4657-9a2e-3777c9f9fdfe","ios":"levelo://app?vid=41622ec0-aeda-4657-9a2e-3777c9f9fdfe"},"vehicle_type_id":"4","last_reported":1733083767,"current_range_meters":22000,"station_id":"ce4bhk92rcd13ifvqgc0","pricing_plan_id":"cebpf4jnsgd1na2vs0mg"},{"bike_id":"27d13c7a-6338-48dc-81dd-618b3e4ff60b","system_id":"levelo_inurba_marseille","lat":43.2845,"lon":5.38559,"is_reserved":false,"is_disabled":true,"rental_uris":{"android":"levelo://app?vid=27d13c7a-6338-48dc-81dd-618b3e4ff60b","ios":"levelo://app?vid=27d13c7a-6338-48dc-81dd-618b3e4ff60b"},"vehicle_type_id":"4","last_reported":1733083767,"current_range_meters":33200,"station_id":"ce4bh8p2rcd13ifvqeb0","pricing_plan_id":"cebpf4jnsgd1na2vs0mg"},{"bike_id":"deb2c196-d15b-4261-ad15-99b7ebb48f4e","system_id":"levelo_inurba_marseille","lat":43.2716,"lon":5.39237,"is_reserved":false,"is_disabled":false,"rental_uris":{"android":"levelo://app?vid=deb2c196-d15b-4261-ad15-99b7ebb48f4e","ios":"levelo://app?vid=deb2c196-d15b-4261-ad15-99b7ebb48f4e"},"vehicle_type_id":"4","last_reported":1733083767,"current_range_meters":10800,"station_id":"","pricing_plan_id":"cebpf4jnsgd1na2vs0mg"},{"bike_id":"13151158-c4ba-49c7-a920-9a61c5dd56f2","system_id":"levelo_inurba_marseille","lat":43.23958,"lon":5.36625,"is_reserved":false,"is_disabled":true,"rental_uris":{"android":"levelo://app?vid=13151158-c4ba-49c7-a920-9a61c5dd56f2","ios":"levelo://app?vid=13151158-c4ba-49c7-a920-9a61c5dd56f2"},"vehicle_type_id":"4","last_reported":1733083767,"current_range_meters":0,"station_id":"ce4bhi12rcd13ifvqfp0","pricing_plan_id":"cebpf4jnsgd1na2vs0mg"},{"bike_id":"54d5e230-77ff-49ea-b65e-c0c75379ac78","system_id":"levelo_inurba_marseille","lat":43.27434,"lon":5.39417,"is_reserved":false,"is_disabled":false,"rental_uris":{"android":"levelo://app?vid=54d5e230-77ff-49ea-b65e-c0c75379ac78","ios":"levelo://app?vid=54d5e230-77ff-49ea-b65e-c0c75379ac78"},"vehicle_type_id":"4","last_reported":1733083767,"current_range_meters":38000,"station_id":"ce4bhdp2rcd13ifvqf20","pricing_plan_id":"cebpf4jnsgd1na2vs0mg"},{"bike_id":"acf4a756-d86a-4aba-99d9-8148b7db3378","system_id":"levelo_inurba_marseille","lat":43.2801,"lon":5.3998,"is_reserved":false,"is_disabled":true,"rental_uris":{"android":"levelo://app?vid=acf4a756-d86a-4aba-99d9-8148b7db3378","ios":"levelo://app?vid=acf4a756-d86a-4aba-99d9-8148b7db3378"},"vehicle_type_id":"4","last_reported":1733083767,"current_range_meters":36800,"station_id":"ce4bho92rcd13ifvqh4g","pricing_plan_id":"cebpf4jnsgd1na2vs0mg"},{"bike_id":"4018fb8f-45f3-45d0-a054-90a03257f3a3","system_id":"levelo_inurba_marseille","lat":43.28316,"lon":5.40532,"is_reserved":false,"is_disabled":false,"rental_uris":{"android":"levelo://app?vid=4018fb8f-45f3-45d0-a054-90a03257f3a3","ios":"levelo://app?vid=4018fb8f-45f3-45d0-a054-90a03257f3a3"},"vehicle_type_id":"4","last_reported":1733083767,"current_range_meters":22000,"station_id":"","pricing_plan_id":"cebpf4jnsgd1na2vs0mg"},{"bike_id":"6e8d557f-ad37-43cd-b85d-39510b5decbb","system_id":"levelo_inurba_marseille","lat":43.2893,"lon":5.38415,"is_reserved":false,"is_disabled":false,"rental_uris":{"android":"levelo://app?vid=6e8d557f-ad37-43cd-b85d-39510b5decbb","ios":"levelo://app?vid=6e8d557f-ad37-43cd-b85d-39510b5decbb"},"vehicle_type_id":"4","last_reported":1733083767,"current_range_meters":32400,"station_id":"ce4bh612rcd13ifvqe6g","pricing_plan_id":"cebpf4jnsgd1na2vs0mg"},{"bike_id":"ead3f4f9-39fd-4192-a758-692fc411822d","system_id":"levelo_inurba_marseille","lat":43.2719,"lon":5.40983,"is_reserved":false,"is_disabled":false,"rental_uris":{"android":"levelo://app?vid=ead3f4f9-39fd-4192-a758-692fc411822d","ios":"levelo://app?vid=ead3f4f9-39fd-4192-a758-692fc411822d"},"vehicle_type_id":"4","last_reported":1733083767,"current_range_meters":14800,"station_id":"ce4bhl12rcd13ifvqgf0","pricing_plan_id":"cebpf4jnsgd1na2vs0mg"},{"bike_id":"a72d9299-2ef3-4e3f-8e69-acc7098d09c2","system_id":"levelo_inurba_marseille","lat":43.33016,"lon":5.39041,"is_reserved":false,"is_disabled":true,"rental_uris":{"android":"levelo://app?vid=a72d9299-2ef3-4e3f-8e69-acc7098d09c2","ios":"levelo://app?vid=a72d9299-2ef3-4e3f-8e69-acc7098d09c2"},"vehicle_type_id":"4","last_reported":1733083767,"current_range_meters":24000,"station_id":"ce4bhr92rcd13ifvqhrg","pricing_plan_id":"cebpf4jnsgd1na2vs0mg"},{"bike_id":"c6b099aa-fad9-4ceb-b298-cb21bfede87a","system_id":"levelo_inurba_marseille","lat":43.3021,"lon":5.3946,"is_reserved":false,"is_disabled":false,"rental_uris":{"android":"levelo://app?vid=c6b099aa-fad9-4ceb-b298-cb21bfede87a","ios":"levelo://app?vid=c6b099aa-fad9-4ceb-b298-cb21bfede87a"},"vehicle_type_id":"4","last_reported":1733083767,"current_range_meters":18000,"station_id":"ce4bh0p2rcd13ifvqd70","pricing_plan_id":"cebpf4jnsgd1na2vs0mg"},{"bike_id":"e0161261-fd33-45e3-8038-51d77778a6b0","system_id":"levelo_inurba_marseille","lat":43.30646,"lon":5.40089,"is_reserved":false,"is_disabled":true,"rental_uris":{"android":"levelo://app?vid=e0161261-fd33-45e3-8038-51d77778a6b0","ios":"levelo://app?vid=e0161261-fd33-45e3-8038-51d77778a6b0"},"vehicle_type_id":"4","last_reported":1733083767,"current_range_meters":34000,"station_id":"ce4bh112rcd13ifvqda0","pricing_plan_id":"cebpf4jnsgd1na2vs0mg"},{"bike_id":"74e1675e-183a-4296-b6de-47d740fbf679","system_id":"levelo_inurba_marseille","lat":43.26932,"lon":5.40255,"is_reserved":false,"is_disabled":false,"rental_uris":{"android":"levelo://app?vid=74e1675e-183a-4296-b6de-47d740fbf679","ios":"levelo://app?vid=74e1675e-183a-4296-b6de-47d740fbf679"},"vehicle_type_id":"4","last_reported":1733083767,"current_range_meters":24000,"station_id":"cjm6bp8fraef2m0cb0m0","pricing_plan_id":"cebpf4jnsgd1na2vs0mg"},{"bike_id":"4d38a818-9531-4d9e-a2a0-b9cd0b136842","system_id":"levelo_inurba_marseille","lat":43.26475,"lon":5.39132,"is_reserved":false,"is_disabled":true,"rental_uris":{"android":"levelo://app?vid=4d38a818-9531-4d9e-a2a0-b9cd0b136842","ios":"levelo://app?vid=4d38a818-9531-4d9e-a2a0-b9cd0b136842"},"vehicle_type_id":"4","last_reported":1733083767,"current_range_meters":0,"station_id":"","pricing_plan_id":"cebpf4jnsgd1na2vs0mg"},{"bike_id":"fbb9e7ab-aea9-4a76-9ff0-fa83f75a1148","system_id":"levelo_inurba_marseille","lat":43.30912,"lon":5.38014,"is_reserved":false,"is_disabled":false,"rental_uris":{"android":"levelo://app?vid=fbb9e7ab-aea9-4a76-9ff0-fa83f75a1148","ios":"levelo://app?vid=fbb9e7ab-aea9-4a76-9ff0-fa83f75a1148"},"vehicle_type_id":"4","last_reported":1733083767,"current_range_meters":36400,"station_id":"","pricing_plan_id":"cebpf4jnsgd1na2vs0mg"},{"bike_id":"a794634e-f858-4eb8-a1c0-a675bb554c5c","system_id":"levelo_inurba_marseille","lat":43.33598,"lon":5.41024,"is_reserved":false,"is_disabled":false,"rental_uris":{"android":"levelo://app?vid=a794634e-f858-4eb8-a1c0-a675bb554c5c","ios":"levelo://app?vid=a794634e-f858-4eb8-a1c0-a675bb554c5c"},"vehicle_type_id":"4","last_reported":1733083767,"current_range_meters":6400,"station_id":"ce4bhqh2rcd13ifvqhmg","pricing_plan_id":"cebpf4jnsgd1na2vs0mg"},{"bike_id":"0925ff43-bab0-49be-8348-5535795fc1c0","system_id":"levelo_inurba_marseille","lat":43.30536,"lon":5.38432,"is_reserved":false,"is_disabled":true,"rental_uris":{"android":"levelo://app?vid=0925ff43-bab0-49be-8348-5535795fc1c0","ios":"levelo://app?vid=0925ff43-bab0-49be-8348-5535795fc1c0"},"vehicle_type_id":"4","last_reported":1733083767,"current_range_meters":10000,"station_id":"ce4bgg92rcd13ifvqb30","pricing_plan_id":"cebpf4jnsgd1na2vs0mg"},{"bike_id":"5fd470f3-da62-48ec-8bb8-3493555d1763","system_id":"levelo_inurba_marseille","lat":43.29526,"lon":5.37496,"is_reserved":false,"is_disabled":true,"rental_uris":{"android":"levelo://app?vid=5fd470f3-da62-48ec-8bb8-3493555d1763","ios":"levelo://app?vid=5fd470f3-da62-48ec-8bb8-3493555d1763"},"vehicle_type_id":"4","last_reported":1733083767,"current_range_meters":5600,"station_id":"ce4bgkp2rcd13ifvqbmg","pricing_plan_id":"cebpf4jnsgd1na2vs0mg"},{"bike_id":"df175e35-a109-455b-a549-3a0af8fc4135","system_id":"levelo_inurba_marseille","lat":43.26683,"lon":5.38271,"is_reserved":false,"is_disabled":true,"rental_uris":{"android":"levelo://app?vid=df175e35-a109-455b-a549-3a0af8fc4135","ios":"levelo://app?vid=df175e35-a109-455b-a549-3a0af8fc4135"},"vehicle_type_id":"4","last_reported":1733083767,"current_range_meters":19200,"station_id":"ce4bhg92rcd13ifvqf90","pricing_plan_id":"cebpf4jnsgd1na2vs0mg"},{"bike_id":"3cd36cdd-b8ac-4151-bacd-1ff7508ad009","system_id":"levelo_inurba_marseille","lat":43.32528,"lon":5.41458,"is_reserved":false,"is_disabled":true,"rental_uris":{"android":"levelo://app?vid=3cd36cdd-b8ac-4151-bacd-1ff7508ad009","ios":"levelo://app?vid=3cd36cdd-b8ac-4151-bacd-1ff7508ad009"},"vehicle_type_id":"4","last_reported":1733083767,"current_range_meters":36400,"station_id":"ce4bhq12rcd13ifvqhhg","pricing_plan_id":"cebpf4jnsgd1na2vs0mg"},{"bike_id":"ebaa904e-bc87-46fe-8951-7f1d176fdb4c","system_id":"levelo_inurba_marseille","lat":43.31263,"lon":5.40173,"is_reserved":false,"is_disabled":true,"rental_uris":{"android":"levelo://app?vid=ebaa904e-bc87-46fe-8951-7f1d176fdb4c","ios":"levelo://app?vid=ebaa904e-bc87-46fe-8951-7f1d176fdb4c"},"vehicle_type_id":"4","last_reported":1733083767,"current_range_meters":34800,"station_id":"ce4bh092rcd13ifvqd30","pricing_plan_id":"cebpf4jnsgd1na2vs0mg"},{"bike_id":"07dd4f00-39f2-4809-8eb7-f0cce030c0a2","system_id":"levelo_inurba_marseille","lat":43.29572,"lon":5.36741,"is_reserved":false,"is_disabled":false,"rental_uris":{"android":"levelo://app?vid=07dd4f00-39f2-4809-8eb7-f0cce030c0a2","ios":"levelo://app?vid=07dd4f00-39f2-4809-8eb7-f0cce030c0a2"},"vehicle_type_id":"4","last_reported":1733083767,"current_range_meters":37600,"station_id":"ce4bgph2rcd13ifvqc2g","pricing_plan_id":"cebpf4jnsgd1na2vs0mg"},{"bike_id":"1e9f7531-f02f-4a68-a033-35dfa2f6d9df","system_id":"levelo_inurba_marseille","lat":43.28475,"lon":5.38534,"is_reserved":false,"is_disabled":true,"rental_uris":{"android":"levelo://app?vid=1e9f7531-f02f-4a68-a033-35dfa2f6d9df","ios":"levelo://app?vid=1e9f7531-f02f-4a68-a033-35dfa2f6d9df"},"vehicle_type_id":"4","last_reported":1733083767,"current_range_meters":19600,"station_id":"ce4bh8p2rcd13ifvqeb0","pricing_plan_id":"cebpf4jnsgd1na2vs0mg"},{"bike_id":"a1c6768a-eb95-40b8-bf60-d33e1bb4aacd","system_id":"levelo_inurba_marseille","lat":43.251164,"lon":5.403306,"is_reserved":false,"is_disabled":false,"rental_uris":{"android":"levelo://app?vid=a1c6768a-eb95-40b8-bf60-d33e1bb4aacd","ios":"levelo://app?vid=a1c6768a-eb95-40b8-bf60-d33e1bb4aacd"},"vehicle_type_id":"4","last_reported":1733083767,"current_range_meters":17200,"station_id":"ce4bhlh2rcd13ifvqgig","pricing_plan_id":"cebpf4jnsgd1na2vs0mg"},{"bike_id":"aed2e793-9b70-428b-8825-0c92f0d0fd59","system_id":"levelo_inurba_marseille","lat":43.27203,"lon":5.39186,"is_reserved":false,"is_disabled":false,"rental_uris":{"android":"levelo://app?vid=aed2e793-9b70-428b-8825-0c92f0d0fd59","ios":"levelo://app?vid=aed2e793-9b70-428b-8825-0c92f0d0fd59"},"vehicle_type_id":"4","last_reported":1733083767,"current_range_meters":30000,"station_id":"ce4bhhp2rcd13ifvqfm0","pricing_plan_id":"cebpf4jnsgd1na2vs0mg"},{"bike_id":"e05666e3-b707-46de-a7e5-8e4163e50f7c","system_id":"levelo_inurba_marseille","lat":43.28411,"lon":5.34995,"is_reserved":false,"is_disabled":true,"rental_uris":{"android":"levelo://app?vid=e05666e3-b707-46de-a7e5-8e4163e50f7c","ios":"levelo://app?vid=e05666e3-b707-46de-a7e5-8e4163e50f7c"},"vehicle_type_id":"4","last_reported":1733083767,"current_range_meters":38800,"station_id":"ce4bhbh2rcd13ifvqepg","pricing_plan_id":"cebpf4jnsgd1na2vs0mg"},{"bike_id":"114dcea8-0589-42e2-b40f-7b6a65b06d8c","system_id":"levelo_inurba_marseille","lat":43.2952,"lon":5.37499,"is_reserved":false,"is_disabled":false,"rental_uris":{"android":"levelo://app?vid=114dcea8-0589-42e2-b40f-7b6a65b06d8c","ios":"levelo://app?vid=114dcea8-0589-42e2-b40f-7b6a65b06d8c"},"vehicle_type_id":"4","last_reported":1733083767,"current_range_meters":25200,"station_id":"ce4bgkp2rcd13ifvqbmg","pricing_plan_id":"cebpf4jnsgd1na2vs0mg"},{"bike_id":"6ffe91fb-690d-42aa-8ca0-455ed27962b6","system_id":"levelo_inurba_marseille","lat":43.26939,"lon":5.38634,"is_reserved":false,"is_disabled":false,"rental_uris":{"android":"levelo://app?vid=6ffe91fb-690d-42aa-8ca0-455ed27962b6","ios":"levelo://app?vid=6ffe91fb-690d-42aa-8ca0-455ed27962b6"},"vehicle_type_id":"4","last_reported":1733083767,"current_range_meters":30800,"station_id":"ce4bhh92rcd13ifvqfh0","pricing_plan_id":"cebpf4jnsgd1na2vs0mg"},{"bike_id":"f8d592a2-1761-4fc2-ae68-7688d9a28c14","system_id":"levelo_inurba_marseille","lat":43.27982,"lon":5.38716,"is_reserved":false,"is_disabled":true,"rental_uris":{"android":"levelo://app?vid=f8d592a2-1761-4fc2-ae68-7688d9a28c14","ios":"levelo://app?vid=f8d592a2-1761-4fc2-ae68-7688d9a28c14"},"vehicle_type_id":"4","last_reported":1733083767,"current_range_meters":0,"station_id":"ce4bhg12rcd13ifvqf80","pricing_plan_id":"cebpf4jnsgd1na2vs0mg"},{"bike_id":"fc03e94f-bce7-4df7-bbbf-751a1bc9af99","system_id":"levelo_inurba_marseille","lat":43.30098,"lon":5.39085,"is_reserved":false,"is_disabled":false,"rental_uris":{"android":"levelo://app?vid=fc03e94f-bce7-4df7-bbbf-751a1bc9af99","ios":"levelo://app?vid=fc03e94f-bce7-4df7-bbbf-751a1bc9af99"},"vehicle_type_id":"4","last_reported":1733083767,"current_range_meters":33600,"station_id":"ce4bh192rcd13ifvqdb0","pricing_plan_id":"cebpf4jnsgd1na2vs0mg"},{"bike_id":"15f7db9f-95f5-4bd9-bddc-67bb73b7373f","system_id":"levelo_inurba_marseille","lat":43.23188,"lon":5.35566,"is_reserved":false,"is_disabled":false,"rental_uris":{"android":"levelo://app?vid=15f7db9f-95f5-4bd9-bddc-67bb73b7373f","ios":"levelo://app?vid=15f7db9f-95f5-4bd9-bddc-67bb73b7373f"},"vehicle_type_id":"4","last_reported":1733083767,"current_range_meters":7200,"station_id":"ce4bhu92rcd13ifvqi70","pricing_plan_id":"cebpf4jnsgd1na2vs0mg"},{"bike_id":"de2b69ae-837a-4349-b5c6-21638a302f61","system_id":"levelo_inurba_marseille","lat":43.31082,"lon":5.38356,"is_reserved":false,"is_disabled":false,"rental_uris":{"android":"levelo://app?vid=de2b69ae-837a-4349-b5c6-21638a302f61","ios":"levelo://app?vid=de2b69ae-837a-4349-b5c6-21638a302f61"},"vehicle_type_id":"4","last_reported":1733083767,"current_range_meters":13600,"station_id":"ce4bgv92rcd13ifvqcr0","pricing_plan_id":"cebpf4jnsgd1na2vs0mg"},{"bike_id":"c016d6a5-cf62-4a25-8e4d-01ef554ea882","system_id":"levelo_inurba_marseille","lat":43.2957,"lon":5.39987,"is_reserved":false,"is_disabled":false,"rental_uris":{"android":"levelo://app?vid=c016d6a5-cf62-4a25-8e4d-01ef554ea882","ios":"levelo://app?vid=c016d6a5-cf62-4a25-8e4d-01ef554ea882"},"vehicle_type_id":"4","last_reported":1733083767,"current_range_meters":22800,"station_id":"ce4bh312rcd13ifvqdj0","pricing_plan_id":"cebpf4jnsgd1na2vs0mg"},{"bike_id":"f5b99414-1264-4f20-8c84-cf79ce345013","system_id":"levelo_inurba_marseille","lat":43.29964,"lon":5.38503,"is_reserved":false,"is_disabled":false,"rental_uris":{"android":"levelo://app?vid=f5b99414-1264-4f20-8c84-cf79ce345013","ios":"levelo://app?vid=f5b99414-1264-4f20-8c84-cf79ce345013"},"vehicle_type_id":"4","last_reported":1733083767,"current_range_meters":16800,"station_id":"ce4bgj92rcd13ifvqbd0","pricing_plan_id":"cebpf4jnsgd1na2vs0mg"},{"bike_id":"7deaf822-5f8a-47f1-8f40-f0b79365cbc1","system_id":"levelo_inurba_marseille","lat":43.27432,"lon":5.39408,"is_reserved":false,"is_disabled":false,"rental_uris":{"android":"levelo://app?vid=7deaf822-5f8a-47f1-8f40-f0b79365cbc1","ios":"levelo://app?vid=7deaf822-5f8a-47f1-8f40-f0b79365cbc1"},"vehicle_type_id":"4","last_reported":1733083767,"current_range_meters":16000,"station_id":"ce4bhdp2rcd13ifvqf20","pricing_plan_id":"cebpf4jnsgd1na2vs0mg"},{"bike_id":"aafc0b36-4303-43a4-9d59-0283760d4eb9","system_id":"levelo_inurba_marseille","lat":43.30779,"lon":5.37652,"is_reserved":false,"is_disabled":false,"rental_uris":{"android":"levelo://app?vid=aafc0b36-4303-43a4-9d59-0283760d4eb9","ios":"levelo://app?vid=aafc0b36-4303-43a4-9d59-0283760d4eb9"},"vehicle_type_id":"4","last_reported":1733083767,"current_range_meters":35200,"station_id":"ce4bgv92rcd13ifvqcq0","pricing_plan_id":"cebpf4jnsgd1na2vs0mg"},{"bike_id":"23785508-dae5-4dd8-b18b-4977d47e2d44","system_id":"levelo_inurba_marseille","lat":43.301422,"lon":5.387835,"is_reserved":false,"is_disabled":false,"rental_uris":{"android":"levelo://app?vid=23785508-dae5-4dd8-b18b-4977d47e2d44","ios":"levelo://app?vid=23785508-dae5-4dd8-b18b-4977d47e2d44"},