{"last_updated":1737774530,"ttl":60,"version":"2.2","data":{"bikes":[{"bike_id":"0e07a6ae-d17e-42fa-9ec3-4f7a623f0735","system_id":"levelo_inurba_marseille","lat":43.273766,"lon":5.362581,"is_reserved":false,"is_disabled":false,"rental_uris":{"android":"levelo://app?vid=0e07a6ae-d17e-42fa-9ec3-4f7a623f0735","ios":"levelo://app?vid=0e07a6ae-d17e-42fa-9ec3-4f7a623f0735"},"vehicle_type_id":"4","last_reported":1737774530,"current_range_meters":38800,"station_id":"ce4bhbh2rcd13ifvqeo0","pricing_plan_id":"cebpf4jnsgd1na2vs0mg"},{"bike_id":"4687e637-182b-4b96-82d2-0d5ad145ba5c","system_id":"levelo_inurba_marseille","lat":43.301412,"lon":5.398757,"is_reserved":false,"is_disabled":false,"rental_uris":{"android":"levelo://app?vid=4687e637-182b-4b96-82d2-0d5ad145ba5c","ios":"levelo://app?vid=4687e637-182b-4b96-82d2-0d5ad145ba5c"},"vehicle_type_id":"4","last_reported":1737774530,"current_range_meters":38000,"station_id":"ce4bh0h2rcd13ifvqd40","pricing_plan_id":"cebpf4jnsgd1na2vs0mg"},{"bike_id":"cd72321d-b559-4772-875f-9368c2e532b3","system_id":"levelo_inurba_marseille","lat":43.29574,"lon":5.37526,"is_reserved":false,"is_disabled":true,"rental_uris":{"android":"levelo://app?vid=cd72321d-b559-4772-875f-9368c2e532b3","ios":"levelo://app?vid=cd72321d-b559-4772-875f-9368c2e532b3"},"vehicle_type_id":"4","last_reported":1737774530,"current_range_meters":37600,"station_id":"ce4bgh92rcd13ifvqb50","pricing_plan_id":"cebpf4jnsgd1na2vs0mg"},{"bike_id":"22fdda07-29f7-4097-aa7c-457566d3caba","system_id":"levelo_inurba_marseille","lat":43.25064,"lon":5.39532,"is_reserved":false,"is_disabled":false,"rental_uris":{"android":"levelo://app?vid=22fdda07-29f7-4097-aa7c-457566d3caba","ios":"levelo://app?vid=22fdda07-29f7-4097-aa7c-457566d3caba"},"vehicle_type_id":"4","last_reported":1737774530,"current_range_meters":31200,"station_id":"ce4bhm12rcd13ifvqgkg","pricing_plan_id":"cebpf4jnsgd1na2vs0mg"},{"bike_id":"ccb58490-949f-4ed7-b0ed-dc2b5267d3cb","system_id":"levelo_inurba_marseille","lat":43.24393,"lon":5.3705,"is_reserved":false,"is_disabled":false,"rental_uris":{"android":"levelo://app?vid=ccb58490-949f-4ed7-b0ed-dc2b5267d3cb","ios":"levelo://app?vid=ccb58490-949f-4ed7-b0ed-dc2b5267d3cb"},"vehicle_type_id":"4","last_reported":1737774530,"current_range_meters":39200,"station_id":"ce4bhhh2rcd13ifvqfk0","pricing_plan_id":"cebpf4jnsgd1na2vs0mg"},{"bike_id":"8a629989-8739-4b2f-b493-9c49dbd0bbd8","system_id":"levelo_inurba_marseille","lat":43.287217,"lon":5.36086,"is_reserved":false,"is_disabled":false,"rental_uris":{"android":"levelo://app?vid=8a629989-8739-4b2f-b493-9c49dbd0bbd8","ios":"levelo://app?vid=8a629989-8739-4b2f-b493-9c49dbd0bbd8"},"vehicle_type_id":"4","last_reported":1737774530,"current_range_meters":24400,"station_id":"cki0cbj6b192h4jlfktg","pricing_plan_id":"cebpf4jnsgd1na2vs0mg"},{"bike_id":"58d9e3df-28a3-4560-b2cd-4d33fefbd544","system_id":"levelo_inurba_marseille","lat":43.28349,"lon":5.38097,"is_reserved":false,"is_disabled":false,"rental_uris":{"android":"levelo://app?vid=58d9e3df-28a3-4560-b2cd-4d33fefbd544","ios":"levelo://app?vid=58d9e3df-28a3-4560-b2cd-4d33fefbd544"},"vehicle_type_id":"4","last_reported":1737774530,"current_range_meters":24400,"station_id":"ce4bh412rcd13ifvqdr0","pricing_plan_id":"cebpf4jnsgd1na2vs0mg"},{"bike_id":"0793f05d-0029-4d54-a0fe-9c0436426db5","system_id":"levelo_inurba_marseille","lat":43.23197,"lon":5.35553,"is_reserved":false,"is_disabled":false,"rental_uris":{"android":"levelo://app?vid=0793f05d-0029-4d54-a0fe-9c0436426db5","ios":"levelo://app?vid=0793f05d-0029-4d54-a0fe-9c0436426db5"},"vehicle_type_id":"4","last_reported":1737774530,"current_range_meters":38800,"station_id":"ce4bhu92rcd13ifvqi70","pricing_plan_id":"cebpf4jnsgd1na2vs0mg"},{"bike_id":"2e69219e-a32a-45dd-bfbe-a39a3389fa1c","system_id":"levelo_inurba_marseille","lat":43.25089,"lon":5.39533,"is_reserved":false,"is_disabled":false,"rental_uris":{"android":"levelo://app?vid=2e69219e-a32a-45dd-bfbe-a39a3389fa1c","ios":"levelo://app?vid=2e69219e-a32a-45dd-bfbe-a39a3389fa1c"},"vehicle_type_id":"4","last_reported":1737774530,"current_range_meters":6400,"station_id":"ce4bhm12rcd13ifvqgkg","pricing_plan_id":"cebpf4jnsgd1na2vs0mg"},{"bike_id":"4914872c-162c-4b5d-a9af-cff65f389580","system_id":"levelo_inurba_marseille","lat":43.29596,"lon":5.38104,"is_reserved":false,"is_disabled":true,"rental_uris":{"android":"levelo://app?vid=4914872c-162c-4b5d-a9af-cff65f389580","ios":"levelo://app?vid=4914872c-162c-4b5d-a9af-cff65f389580"},"vehicle_type_id":"4","last_reported":1737774530,"current_range_meters":1600,"station_id":"ce4bgl12rcd13ifvqbo0","pricing_plan_id":"cebpf4jnsgd1na2vs0mg"},{"bike_id":"f19dc989-9b1f-48ea-abf9-5fac135f6a39","system_id":"levelo_inurba_marseille","lat":43.28281,"lon":5.35087,"is_reserved":false,"is_disabled":false,"rental_uris":{"android":"levelo://app?vid=f19dc989-9b1f-48ea-abf9-5fac135f6a39","ios":"levelo://app?vid=f19dc989-9b1f-48ea-abf9-5fac135f6a39"},"vehicle_type_id":"4","last_reported":1737774530,"current_range_meters":39200,"station_id":"ce4bhbp2rcd13ifvqerg","pricing_plan_id":"cebpf4jnsgd1na2vs0mg"},{"bike_id":"78f1bcbe-297f-4d89-be9d-ff7c664d65b5","system_id":"levelo_inurba_marseille","lat":43.27174,"lon":5.41012,"is_reserved":false,"is_disabled":false,"rental_uris":{"android":"levelo://app?vid=78f1bcbe-297f-4d89-be9d-ff7c664d65b5","ios":"levelo://app?vid=78f1bcbe-297f-4d89-be9d-ff7c664d65b5"},"vehicle_type_id":"4","last_reported":1737774530,"current_range_meters":10000,"station_id":"ce4bhl12rcd13ifvqgf0","pricing_plan_id":"cebpf4jnsgd1na2vs0mg"},{"bike_id":"9eb3a6c5-a5c4-4b17-ae2c-9c5132badcbf","system_id":"levelo_inurba_marseille","lat":43.279097,"lon":5.380103,"is_reserved":false,"is_disabled":false,"rental_uris":{"android":"levelo://app?vid=9eb3a6c5-a5c4-4b17-ae2c-9c5132badcbf","ios":"levelo://app?vid=9eb3a6c5-a5c4-4b17-ae2c-9c5132badcbf"},"vehicle_type_id":"4","last_reported":1737774530,"current_range_meters":37600,"station_id":"ce4bhf92rcd13ifvqf50","pricing_plan_id":"cebpf4jnsgd1na2vs0mg"},{"bike_id":"c447ebbf-b7f9-4e37-8545-27d78ed28893","system_id":"levelo_inurba_marseille","lat":43.28705,"lon":5.39992,"is_reserved":false,"is_disabled":false,"rental_uris":{"android":"levelo://app?vid=c447ebbf-b7f9-4e37-8545-27d78ed28893","ios":"levelo://app?vid=c447ebbf-b7f9-4e37-8545-27d78ed28893"},"vehicle_type_id":"4","last_reported":1737774530,"current_range_meters":33200,"station_id":"ce4bho92rcd13ifvqh3g","pricing_plan_id":"cebpf4jnsgd1na2vs0mg"},{"bike_id":"eadecfe8-1294-4c6c-a688-c77357028c6c","system_id":"levelo_inurba_marseille","lat":43.28406,"lon":5.37529,"is_reserved":false,"is_disabled":false,"rental_uris":{"android":"levelo://app?vid=eadecfe8-1294-4c6c-a688-c77357028c6c","ios":"levelo://app?vid=eadecfe8-1294-4c6c-a688-c77357028c6c"},"vehicle_type_id":"4","last_reported":1737774530,"current_range_meters":35200,"station_id":"ce4bh412rcd13ifvqds0","pricing_plan_id":"cebpf4jnsgd1na2vs0mg"},{"bike_id":"6e0e02f5-b0ae-450f-ad77-51511a2e44cf","system_id":"levelo_inurba_marseille","lat":43.30929,"lon":5.40148,"is_reserved":false,"is_disabled":true,"rental_uris":{"android":"levelo://app?vid=6e0e02f5-b0ae-450f-ad77-51511a2e44cf","ios":"levelo://app?vid=6e0e02f5-b0ae-450f-ad77-51511a2e44cf"},"vehicle_type_id":"4","last_reported":1737774530,"current_range_meters":20800,"station_id":"ce4bgvp2rcd13ifvqct0","pricing_plan_id":"cebpf4jnsgd1na2vs0mg"},{"bike_id":"411dfcfe-04fe-4026-b016-c675771bb29d","system_id":"levelo_inurba_marseille","lat":43.284486,"lon":5.358874,"is_reserved":false,"is_disabled":false,"rental_uris":{"android":"levelo://app?vid=411dfcfe-04fe-4026-b016-c675771bb29d","ios":"levelo://app?vid=411dfcfe-04fe-4026-b016-c675771bb29d"},"vehicle_type_id":"4","last_reported":1737774530,"current_range_meters":18000,"station_id":"ce4bhah2rcd13ifvqei0","pricing_plan_id":"cebpf4jnsgd1na2vs0mg"},{"bike_id":"bd6a12b4-fce2-41ac-ad77-6c6b79e9b360","system_id":"levelo_inurba_marseille","lat":43.30786,"lon":5.37663,"is_reserved":false,"is_disabled":false,"rental_uris":{"android":"levelo://app?vid=bd6a12b4-fce2-41ac-ad77-6c6b79e9b360","ios":"levelo://app?vid=bd6a12b4-fce2-41ac-ad77-6c6b79e9b360"},"vehicle_type_id":"4","last_reported":1737774530,"current_range_meters":35200,"station_id":"ce4bgv92rcd13ifvqcq0","pricing_plan_id":"cebpf4jnsgd1na2vs0mg"},{"bike_id":"24d5e14d-cfec-4626-b0ab-ae43a7a8a7a3","system_id":"levelo_inurba_marseille","lat":43.269928,"lon":5.402999,"is_reserved":false,"is_disabled":false,"rental_uris":{"android":"levelo://app?vid=24d5e14d-cfec-4626-b0ab-ae43a7a8a7a3","ios":"levelo://app?vid=24d5e14d-cfec-4626-b0ab-ae43a7a8a7a3"},"vehicle_type_id":"4","last_reported":1737774530,"current_range_meters":36000,"station_id":"","pricing_plan_id":"cebpf4jnsgd1na2vs0mg"},{"bike_id":"278fa707-88f8-42b0-a06f-9a61234b8e76","system_id":"levelo_inurba_marseille","lat":43.31452,"lon":5.37395,"is_reserved":false,"is_disabled":true,"rental_uris":{"android":"levelo://app?vid=278fa707-88f8-42b0-a06f-9a61234b8e76","ios":"levelo://app?vid=278fa707-88f8-42b0-a06f-9a61234b8e76"},"vehicle_type_id":"4","last_reported":1737774530,"current_range_meters":0,"station_id":"","pricing_plan_id":"cebpf4jnsgd1na2vs0mg"},{"bike_id":"5653eca4-b417-427a-a3ec-24a4ba552e07","system_id":"levelo_inurba_marseille","lat":43.299744,"lon":5.384979,"is_reserved":false,"is_disabled":true,"rental_uris":{"android":"levelo://app?vid=5653eca4-b417-427a-a3ec-24a4ba552e07","ios":"levelo://app?vid=5653eca4-b417-427a-a3ec-24a4ba552e07"},"vehicle_type_id":"4","last_reported":1737774530,"current_range_meters":36000,"station_id":"ce4bgj92rcd13ifvqbd0","pricing_plan_id":"cebpf4jnsgd1na2vs0mg"},{"bike_id":"f63fda25-b652-4a7d-98df-67faab664e5b","system_id":"levelo_inurba_marseille","lat":43.30873,"lon":5.396343,"is_reserved":false,"is_disabled":false,"rental_uris":{"android":"levelo://app?vid=f63fda25-b652-4a7d-98df-67faab664e5b","ios":"levelo://app?vid=f63fda25-b652-4a7d-98df-67faab664e5b"},"vehicle_type_id":"4","last_reported":1737774530,"current_range_meters":9600,"station_id":"ce4bh012rcd13ifvqcv0","pricing_plan_id":"cebpf4jnsgd1na2vs0mg"},{"bike_id":"98d85075-84c7-4f7a-ae53-4810e06f97ae","system_id":"levelo_inurba_marseille","lat":43.28341,"lon":5.38113,"is_reserved":false,"is_disabled":false,"rental_uris":{"android":"levelo://app?vid=98d85075-84c7-4f7a-ae53-4810e06f97ae","ios":"levelo://app?vid=98d85075-84c7-4f7a-ae53-4810e06f97ae"},"vehicle_type_id":"4","last_reported":1737774530,"current_range_meters":33600,"station_id":"ce4bh412rcd13ifvqdr0","pricing_plan_id":"cebpf4jnsgd1na2vs0mg"},{"bike_id":"f7ac40bf-9ec2-46b3-898f-7f04d59d08e5","system_id":"levelo_inurba_marseille","lat":43.27177,"lon":5.40998,"is_reserved":false,"is_disabled":false,"rental_uris":{"android":"levelo://app?vid=f7ac40bf-9ec2-46b3-898f-7f04d59d08e5","ios":"levelo://app?vid=f7ac40bf-9ec2-46b3-898f-7f04d59d08e5"},"vehicle_type_id":"4","last_reported":1737774530,"current_range_meters":17600,"station_id":"ce4bhl12rcd13ifvqgf0","pricing_plan_id":"cebpf4jnsgd1na2vs0mg"},{"bike_id":"f1180e6c-cbcf-4190-8577-4f101bedd5b2","system_id":"levelo_inurba_marseille","lat":43.29954,"lon":5.37213,"is_reserved":false,"is_disabled":false,"rental_uris":{"android":"levelo://app?vid=f1180e6c-cbcf-4190-8577-4f101bedd5b2","ios":"levelo://app?vid=f1180e6c-cbcf-4190-8577-4f101bedd5b2"},"vehicle_type_id":"4","last_reported":1737774530,"current_range_meters":10000,"station_id":"ce4bgr92rcd13ifvqc7g","pricing_plan_id":"cebpf4jnsgd1na2vs0mg"},{"bike_id":"74d6d125-42a3-45e7-91aa-9f15530a9096","system_id":"levelo_inurba_marseille","lat":43.30246,"lon":5.40071,"is_reserved":false,"is_disabled":false,"rental_uris":{"android":"levelo://app?vid=74d6d125-42a3-45e7-91aa-9f15530a9096","ios":"levelo://app?vid=74d6d125-42a3-45e7-91aa-9f15530a9096"},"vehicle_type_id":"4","last_reported":1737774530,"current_range_meters":9200,"station_id":"ce4bgvh2rcd13ifvqcs0","pricing_plan_id":"cebpf4jnsgd1na2vs0mg"},{"bike_id":"1b979711-dc0b-4b0b-91aa-7956df28301c","system_id":"levelo_inurba_marseille","lat":43.28107,"lon":5.37848,"is_reserved":false,"is_disabled":false,"rental_uris":{"android":"levelo://app?vid=1b979711-dc0b-4b0b-91aa-7956df28301c","ios":"levelo://app?vid=1b979711-dc0b-4b0b-91aa-7956df28301c"},"vehicle_type_id":"4","last_reported":1737774530,"current_range_meters":38800,"station_id":"ce4bha12rcd13ifvqee0","pricing_plan_id":"cebpf4jnsgd1na2vs0mg"},{"bike_id":"35fd246c-6ac1-460e-9b98-2f0ca407d940","system_id":"levelo_inurba_marseille","lat":43.25116,"lon":5.40321,"is_reserved":false,"is_disabled":false,"rental_uris":{"android":"levelo://app?vid=35fd246c-6ac1-460e-9b98-2f0ca407d940","ios":"levelo://app?vid=35fd246c-6ac1-460e-9b98-2f0ca407d940"},"vehicle_type_id":"4","last_reported":1737774530,"current_range_meters":9200,"station_id":"ce4bhlh2rcd13ifvqgig","pricing_plan_id":"cebpf4jnsgd1na2vs0mg"},{"bike_id":"7ff41bb0-58bb-4e7a-856f-2a2aba66f15e","system_id":"levelo_inurba_marseille","lat":43.317062,"lon":5.437066,"is_reserved":false,"is_disabled":false,"rental_uris":{"android":"levelo://app?vid=7ff41bb0-58bb-4e7a-856f-2a2aba66f15e","ios":"levelo://app?vid=7ff41bb0-58bb-4e7a-856f-2a2aba66f15e"},"vehicle_type_id":"4","last_reported":1737774530,"current_range_meters":38800,"station_id":"ce4bhp92rcd13ifvqhcg","pricing_plan_id":"cebpf4jnsgd1na2vs0mg"},{"bike_id":"6528270d-2a30-4e12-a22e-a34fda2a8bb8","system_id":"levelo_inurba_marseille","lat":43.31507,"lon":5.37306,"is_reserved":false,"is_disabled":false,"rental_uris":{"android":"levelo://app?vid=6528270d-2a30-4e12-a22e-a34fda2a8bb8","ios":"levelo://app?vid=6528270d-2a30-4e12-a22e-a34fda2a8bb8"},"vehicle_type_id":"4","last_reported":1737774530,"current_range_meters":38800,"station_id":"ce4bgt12rcd13ifvqcd0","pricing_plan_id":"cebpf4jnsgd1na2vs0mg"},{"bike_id":"9b8656d1-efd9-4fa1-a729-08b4b24311da","system_id":"levelo_inurba_marseille","lat":43.31505,"lon":5.3729,"is_reserved":false,"is_disabled":false,"rental_uris":{"android":"levelo://app?vid=9b8656d1-efd9-4fa1-a729-08b4b24311da","ios":"levelo://app?vid=9b8656d1-efd9-4fa1-a729-08b4b24311da"},"vehicle_type_id":"4","last_reported":1737774530,"current_range_meters":37600,"station_id":"ce4bgt12rcd13ifvqcd0","pricing_plan_id":"cebpf4jnsgd1na2vs0mg"},{"bike_id":"dd050f92-0eda-4089-a564-220865179cde","system_id":"levelo_inurba_marseille","lat":43.28483,"lon":5.38407,"is_reserved":false,"is_disabled":false,"rental_uris":{"android":"levelo://app?vid=dd050f92-0eda-4089-a564-220865179cde","ios":"levelo://app?vid=dd050f92-0eda-4089-a564-220865179cde"},"vehicle_type_id":"4","last_reported":1737774530,"current_range_meters":38800,"station_id":"ce4bh512rcd13ifvqe3g","pricing_plan_id":"cebpf4jnsgd1na2vs0mg"},{"bike_id":"2df95088-fa4d-4a45-a08d-861841523075","system_id":"levelo_inurba_marseille","lat":43.30593,"lon":5.39347,"is_reserved":false,"is_disabled":false,"rental_uris":{"android":"levelo://app?vid=2df95088-fa4d-4a45-a08d-861841523075","ios":"levelo://app?vid=2df95088-fa4d-4a45-a08d-861841523075"},"vehicle_type_id":"4","last_reported":1737774530,"current_range_meters":16800,"station_id":"ce4bh0p2rcd13ifvqd80","pricing_plan_id":"cebpf4jnsgd1na2vs0mg"},{"bike_id":"3ec65598-25b8-40ef-b945-c675e916871b","system_id":"levelo_inurba_marseille","lat":43.2925,"lon":5.40152,"is_reserved":false,"is_disabled":false,"rental_uris":{"android":"levelo://app?vid=3ec65598-25b8-40ef-b945-c675e916871b","ios":"levelo://app?vid=3ec65598-25b8-40ef-b945-c675e916871b"},"vehicle_type_id":"4","last_reported":1737774530,"current_range_meters":38800,"station_id":"ce4bh312rcd13ifvqdk0","pricing_plan_id":"cebpf4jnsgd1na2vs0mg"},{"bike_id":"b0f20276-8a45-4eb5-bf27-a2ff4cd6dffc","system_id":"levelo_inurba_marseille","lat":43.30797,"lon":5.3816,"is_reserved":false,"is_disabled":false,"rental_uris":{"android":"levelo://app?vid=b0f20276-8a45-4eb5-bf27-a2ff4cd6dffc","ios":"levelo://app?vid=b0f20276-8a45-4eb5-bf27-a2ff4cd6dffc"},"vehicle_type_id":"4","last_reported":1737774530,"current_range_meters":34000,"station_id":"ce4bgt12rcd13ifvqce0","pricing_plan_id":"cebpf4jnsgd1na2vs0mg"},{"bike_id":"13b8fb93-a6e8-499c-be28-b4e623f31b30","system_id":"levelo_inurba_marseille","lat":43.29894,"lon":5.39732,"is_reserved":false,"is_disabled":false,"rental_uris":{"android":"levelo://app?vid=13b8fb93-a6e8-499c-be28-b4e623f31b30","ios":"levelo://app?vid=13b8fb93-a6e8-499c-be28-b4e623f31b30"},"vehicle_type_id":"4","last_reported":1737774530,"current_range_meters":38800,"station_id":"ce4bh0h2rcd13ifvqd50","pricing_plan_id":"cebpf4jnsgd1na2vs0mg"},{"bike_id":"4a3ca55c-fef4-43f3-af2c-be858b71f7ad","system_id":"levelo_inurba_marseille","lat":43.24998,"lon":5.38924,"is_reserved":false,"is_disabled":false,"rental_uris":{"android":"levelo://app?vid=4a3ca55c-fef4-43f3-af2c-be858b71f7ad","ios":"levelo://app?vid=4a3ca55c-fef4-43f3-af2c-be858b71f7ad"},"vehicle_type_id":"4","last_reported":1737774530,"current_range_meters":11200,"station_id":"ce4bhgp2rcd13ifvqfd0","pricing_plan_id":"cebpf4jnsgd1na2vs0mg"},{"bike_id":"c636f253-8874-4b3f-a4c4-fcb8f7191ecd","system_id":"levelo_inurba_marseille","lat":43.31264,"lon":5.40168,"is_reserved":false,"is_disabled":false,"rental_uris":{"android":"levelo://app?vid=c636f253-8874-4b3f-a4c4-fcb8f7191ecd","ios":"levelo://app?vid=c636f253-8874-4b3f-a4c4-fcb8f7191ecd"},"vehicle_type_id":"4","last_reported":1737774530,"current_range_meters":19600,"station_id":"ce4bh092rcd13ifvqd30","pricing_plan_id":"cebpf4jnsgd1na2vs0mg"},{"bike_id":"5a48328b-50b3-460c-8c64-2722d8c28ce3","system_id":"levelo_inurba_marseille","lat":43.30561,"lon":5.3691,"is_reserved":false,"is_disabled":false,"rental_uris":{"android":"levelo://app?vid=5a48328b-50b3-460c-8c64-2722d8c28ce3","ios":"levelo://app?vid=5a48328b-50b3-460c-8c64-2722d8c28ce3"},"vehicle_type_id":"4","last_reported":1737774530,"current_range_meters":11200,"station_id":"","pricing_plan_id":"cebpf4jnsgd1na2vs0mg"},{"bike_id":"c7884286-b0ec-4bc5-885b-828eea5a7959","system_id":"levelo_inurba_marseille","lat":43.31326,"lon":5.39686,"is_reserved":false,"is_disabled":false,"rental_uris":{"android":"levelo://app?vid=c7884286-b0ec-4bc5-885b-828eea5a7959","ios":"levelo://app?vid=c7884286-b0ec-4bc5-885b-828eea5a7959"},"vehicle_type_id":"4","last_reported":1737774530,"current_range_meters":13600,"station_id":"ce4bgvp2rcd13ifvqcu0","pricing_plan_id":"cebpf4jnsgd1na2vs0mg"},{"bike_id":"657af941-849b-4995-8548-48fa4f4ebe32","system_id":"levelo_inurba_marseille","lat":43.27911,"lon":5.39586,"is_reserved":false,"is_disabled":false,"rental_uris":{"android":"levelo://app?vid=657af941-849b-4995-8548-48fa4f4ebe32","ios":"levelo://app?vid=657af941-849b-4995-8548-48fa4f4ebe32"},"vehicle_type_id":"4","last_reported":1737774530,"current_range_meters":36000,"station_id":"ce4bhf92rcd13ifvqf40","pricing_plan_id":"cebpf4jnsgd1na2vs0mg"},{"bike_id":"9e3a8a98-d23f-4935-95d2-d4861c84b9fe","system_id":"levelo_inurba_marseille","lat":43.31031,"lon":5.39369,"is_reserved":false,"is_disabled":false,"rental_uris":{"android":"levelo://app?vid=9e3a8a98-d23f-4935-95d2-d4861c84b9fe","ios":"levelo://app?vid=9e3a8a98-d23f-4935-95d2-d4861c84b9fe"},"vehicle_type_id":"4","last_reported":1737774530,"current_range_meters":30400,"station_id":"","pricing_plan_id":"cebpf4jnsgd1na2vs0mg"},{"bike_id":"fd24b7df-b270-4f5d-a40c-3dcc8550e700","system_id":"levelo_inurba_marseille","lat":43.29964,"lon":5.37196,"is_reserved":false,"is_disabled":false,"rental_uris":{"android":"levelo://app?vid=fd24b7df-b270-4f5d-a40c-3dcc8550e700","ios":"levelo://app?vid=fd24b7df-b270-4f5d-a40c-3dcc8550e700"},"vehicle_type_id":"4","last_reported":1737774530,"current_range_meters":16400,"station_id":"ce4bgr92rcd13ifvqc7g","pricing_plan_id":"cebpf4jnsgd1na2vs0mg"},{"bike_id":"afe6887e-44d3-458c-a0f0-dca5f98a3249","system_id":"levelo_inurba_marseille","lat":43.295844,"lon":5.367453,"is_reserved":false,"is_disabled":false,"rental_uris":{"android":"levelo://app?vid=afe6887e-44d3-458c-a0f0-dca5f98a3249","ios":"levelo://app?vid=afe6887e-44d3-458c-a0f0-dca5f98a3249"},"vehicle_type_id":"4","last_reported":1737774530,"current_range_meters":38000,"station_id":"ce4bgph2rcd13ifvqc2g","pricing_plan_id":"cebpf4jnsgd1na2vs0mg"},{"bike_id":"3608a3cf-49c3-46d4-b709-f8e9629a9213","system_id":"levelo_inurba_marseille","lat":43.24648,"lon":5.38881,"is_reserved":false,"is_disabled":false,"rental_uris":{"android":"levelo://app?vid=3608a3cf-49c3-46d4-b709-f8e9629a9213","ios":"levelo://app?vid=3608a3cf-49c3-46d4-b709-f8e9629a9213"},"vehicle_type_id":"4","last_reported":1737774530,"current_range_meters":6800,"station_id":"ce4bhg12rcd13ifvqf60","pricing_plan_id":"cebpf4jnsgd1na2vs0mg"},{"bike_id":"23f2310a-7cb3-40ae-bd57-ecc8717e6a13","system_id":"levelo_inurba_marseille","lat":43.31326,"lon":5.39716,"is_reserved":false,"is_disabled":false,"rental_uris":{"android":"levelo://app?vid=23f2310a-7cb3-40ae-bd57-ecc8717e6a13","ios":"levelo://app?vid=23f2310a-7cb3-40ae-bd57-ecc8717e6a13"},"vehicle_type_id":"4","last_reported":1737774530,"current_range_meters":18800,"station_id":"ce4bgvp2rcd13ifvqcu0","pricing_plan_id":"cebpf4jnsgd1na2vs0mg"},{"bike_id":"e91204e9-d4fe-4e30-81a6-71464f86006e","system_id":"levelo_inurba_marseille","lat":43.29927,"lon":5.38146,"is_reserved":false,"is_disabled":true,"rental_uris":{"android":"levelo://app?vid=e91204e9-d4fe-4e30-81a6-71464f86006e","ios":"levelo://app?vid=e91204e9-d4fe-4e30-81a6-71464f86006e"},"vehicle_type_id":"4","last_reported":1737774530,"current_range_meters":37600,"station_id":"ce4bgj12rcd13ifvqbc0","pricing_plan_id":"cebpf4jnsgd1na2vs0mg"},{"bike_id":"7563199c-fe3d-4e7c-a51c-70b2d95e656b","system_id":"levelo_inurba_marseille","lat":43.261953,"lon":5.374499,"is_reserved":false,"is_disabled":true,"rental_uris":{"android":"levelo://app?vid=7563199c-fe3d-4e7c-a51c-70b2d95e656b","ios":"levelo://app?vid=7563199c-fe3d-4e7c-a51c-70b2d95e656b"},"vehicle_type_id":"4","last_reported":1737774530,"current_range_meters":23200,"station_id":"ce4bhgp2rcd13ifvqfc0","pricing_plan_id":"cebpf4jnsgd1na2vs0mg"},{"bike_id":"3a4662d3-e80a-48b3-bd42-b88b54a78839","system_id":"levelo_inurba_marseille","lat":43.3064,"lon":5.40074,"is_reserved":false,"is_disabled":false,"rental_uris":{"android":"levelo://app?vid=3a4662d3-e80a-48b3-bd42-b88b54a78839","ios":"levelo://app?vid=3a4662d3-e80a-48b3-bd42-b88b54a78839"},"vehicle_type_id":"4","last_reported":1737774530,"current_range_meters":38800,"station_id":"ce4bh112rcd13ifvqda0","pricing_plan_id":"cebpf4jnsgd1na2vs0mg"},{"bike_id":"30b29f80-ce29-4769-94a8-07113c02d709","system_id":"levelo_inurba_marseille","lat":43.28354,"lon":5.38114,"is_reserved":false,"is_disabled":false,"rental_uris":{"android":"levelo://app?vid=30b29f80-ce29-4769-94a8-07113c02d709","ios":"levelo://app?vid=30b29f80-ce29-4769-94a8-07113c02d709"},"vehicle_type_id":"4","last_reported":1737774530,"current_range_meters":34000,"station_id":"ce4bh412rcd13ifvqdr0","pricing_plan_id":"cebpf4jnsgd1na2vs0mg"},{"bike_id":"9023704f-3f44-4c85-b5af-22a32a8e6c4e","system_id":"levelo_inurba_marseille","lat":43.2835,"lon":5.38109,"is_reserved":false,"is_disabled":false,"rental_uris":{"android":"levelo://app?vid=9023704f-3f44-4c85-b5af-22a32a8e6c4e","ios":"levelo://app?vid=9023704f-3f44-4c85-b5af-22a32a8e6c4e"},"vehicle_type_id":"4","last_reported":1737774530,"current_range_meters":38000,"station_id":"ce4bh412rcd13ifvqdr0","pricing_plan_id":"cebpf4jnsgd1na2vs0mg"},{"bike_id":"8a6bc5d6-0975-4233-a21d-93a27735ba2d","system_id":"levelo_inurba_marseille","lat":43.31696,"lon":5.40463,"is_reserved":false,"is_disabled":false,"rental_uris":{"android":"levelo://app?vid=8a6bc5d6-0975-4233-a21d-93a27735ba2d","ios":"levelo://app?vid=8a6bc5d6-0975-4233-a21d-93a27735ba2d"},"vehicle_type_id":"4","last_reported":1737774530,"current_range_meters":38800,"station_id":"ce4bh012rcd13ifvqd00","pricing_plan_id":"cebpf4jnsgd1na2vs0mg"},{"bike_id":"6d1c7757-cbfa-452f-8195-daacd34f212b","system_id":"levelo_inurba_marseille","lat":43.230668,"lon":5.354916,"is_reserved":false,"is_disabled":false,"rental_uris":{"android":"levelo://app?vid=6d1c7757-cbfa-452f-8195-daacd34f212b","ios":"levelo://app?vid=6d1c7757-cbfa-452f-8195-daacd34f212b"},"vehicle_type_id":"4","last_reported":1737774530,"current_range_meters":38400,"station_id":"cpo3342slgdg3j2ifvpg","pricing_plan_id":"cebpf4jnsgd1na2vs0mg"},{"bike_id":"27f7f25f-582f-4fd2-b039-5ac3369820fb","system_id":"levelo_inurba_marseille","lat":43.29253,"lon":5.40915,"is_reserved":false,"is_disabled":false,"rental_uris":{"android":"levelo://app?vid=27f7f25f-582f-4fd2-b039-5ac3369820fb","ios":"levelo://app?vid=27f7f25f-582f-4fd2-b039-5ac3369820fb"},"vehicle_type_id":"4","last_reported":1737774530,"current_range_meters":26000,"station_id":"ce4bh192rcd13ifvqdc0","pricing_plan_id":"cebpf4jnsgd1na2vs0mg"},{"bike_id":"34aa6db6-d08c-4f6b-ad5e-1bad446eaa72","system_id":"levelo_inurba_marseille","lat":43.23189,"lon":5.39994,"is_reserved":false,"is_disabled":false,"rental_uris":{"android":"levelo://app?vid=34aa6db6-d08c-4f6b-ad5e-1bad446eaa72","ios":"levelo://app?vid=34aa6db6-d08c-4f6b-ad5e-1bad446eaa72"},"vehicle_type_id":"4","last_reported":1737774530,"current_range_meters":38800,"station_id":"ce4bhn12rcd13ifvqgqg","pricing_plan_id":"cebpf4jnsgd1na2vs0mg"},{"bike_id":"f55c48d7-587e-4cdf-8c02-c2ecbf811ac9","system_id":"levelo_inurba_marseille","lat":43.29555,"lon":5.42279,"is_reserved":false,"is_disabled":false,"rental_uris":{"android":"levelo://app?vid=f55c48d7-587e-4cdf-8c02-c2ecbf811ac9","ios":"levelo://app?vid=f55c48d7-587e-4cdf-8c02-c2ecbf811ac9"},"vehicle_type_id":"4","last_reported":1737774530,"current_range_meters":38400,"station_id":"ce4bhph2rcd13ifvqhdg","pricing_plan_id":"cebpf4jnsgd1na2vs0mg"},{"bike_id":"990a416c-e71d-4fb7-9ef8-64308cb845c6","system_id":"levelo_inurba_marseille","lat":43.2991,"lon":5.37466,"is_reserved":false,"is_disabled":false,"rental_uris":{"android":"levelo://app?vid=990a416c-e71d-4fb7-9ef8-64308cb845c6","ios":"levelo://app?vid=990a416c-e71d-4fb7-9ef8-64308cb845c6"},"vehicle_type_id":"4","last_reported":1737774530,"current_range_meters":37600,"station_id":"ce4bgjh2rcd13ifvqbg0","pricing_plan_id":"cebpf4jnsgd1na2vs0mg"},{"bike_id":"a2dbdc7e-8ab2-4f75-8035-18bef5b78a3b","system_id":"levelo_inurba_marseille","lat":43.25871,"lon":5.39887,"is_reserved":false,"is_disabled":false,"rental_uris":{"android":"levelo://app?vid=a2dbdc7e-8ab2-4f75-8035-18bef5b78a3b","ios":"levelo://app?vid=a2dbdc7e-8ab2-4f75-8035-18bef5b78a3b"},"vehicle_type_id":"4","last_reported":1737774530,"current_range_meters":38400,"station_id":"ce4bhl92rcd13ifvqghg","pricing_plan_id":"cebpf4jnsgd1na2vs0mg"},{"bike_id":"f253fc82-7ca1-4c38-a41a-566478bb536e","system_id":"levelo_inurba_marseille","lat":43.28027,"lon":5.36951,"is_reserved":false,"is_disabled":false,"rental_uris":{"android":"levelo://app?vid=f253fc82-7ca1-4c38-a41a-566478bb536e","ios":"levelo://app?vid=f253fc82-7ca1-4c38-a41a-566478bb536e"},"vehicle_type_id":"4","last_reported":1737774530,"current_range_meters":38400,"station_id":"ce4bha12rcd13ifvqef0","pricing_plan_id":"cebpf4jnsgd1na2vs0mg"},{"bike_id":"96f4e4cd-02de-47bb-a775-1bc9d4fdde7c","system_id":"levelo_inurba_marseille","lat":43.29252,"lon":5.38442,"is_reserved":false,"is_disabled":true,"rental_uris":{"android":"levelo://app?vid=96f4e4cd-02de-47bb-a775-1bc9d4fdde7c","ios":"levelo://app?vid=96f4e4cd-02de-47bb-a775-1bc9d4fdde7c"},"vehicle_type_id":"4","last_reported":1737774530,"current_range_meters":19200,"station_id":"ce4bh692rcd13ifvqea0","pricing_plan_id":"cebpf4jnsgd1na2vs0mg"},{"bike_id":"9838cc78-2b53-49d3-ae13-82df62c4fd64","system_id":"levelo_inurba_marseille","lat":43.28415,"lon":5.40939,"is_reserved":false,"is_disabled":true,"rental_uris":{"android":"levelo://app?vid=9838cc78-2b53-49d3-ae13-82df62c4fd64","ios":"levelo://app?vid=9838cc78-2b53-49d3-ae13-82df62c4fd64"},"vehicle_type_id":"4","last_reported":1737774530,"current_range_meters":0,"station_id":"","pricing_plan_id":"cebpf4jnsgd1na2vs0mg"},{"bike_id":"912cf3ca-33b3-47fa-b01b-39ffe2b1fb90","system_id":"levelo_inurba_marseille","lat":43.28568,"lon":5.39506,"is_reserved":false,"is_disabled":false,"rental_uris":{"android":"levelo://app?vid=912cf3ca-33b3-47fa-b01b-39ffe2b1fb90","ios":"levelo://app?vid=912cf3ca-33b3-47fa-b01b-39ffe2b1fb90"},"vehicle_type_id":"4","last_reported":1737774530,"current_range_meters":30400,"station_id":"ce4bh292rcd13ifvqdg0","pricing_plan_id":"cebpf4jnsgd1na2vs0mg"},{"bike_id":"f0e7a8c2-a5ef-4d30-ae2f-0b8dfe7c15d7","system_id":"levelo_inurba_marseille","lat":43.285595,"lon":5.394953,"is_reserved":false,"is_disabled":false,"rental_uris":{"android":"levelo://app?vid=f0e7a8c2-a5ef-4d30-ae2f-0b8dfe7c15d7","ios":"levelo://app?vid=f0e7a8c2-a5ef-4d30-ae2f-0b8dfe7c15d7"},"vehicle_type_id":"4","last_reported":1737774530,"current_range_meters":38800,"station_id":"ce4bh292rcd13ifvqdg0","pricing_plan_id":"cebpf4jnsgd1na2vs0mg"},{"bike_id":"d6db8360-7a7b-4a5e-8c3e-ee74b2a817ee","system_id":"levelo_inurba_marseille","lat":43.31749,"lon":5.37799,"is_reserved":false,"is_disabled":false,"rental_uris":{"android":"levelo://app?vid=d6db8360-7a7b-4a5e-8c3e-ee74b2a817ee","ios":"levelo://app?vid=d6db8360-7a7b-4a5e-8c3e-ee74b2a817ee"},"vehicle_type_id":"4","last_reported":1737774530,"current_range_meters":38800,"station_id":"ce4bgth2rcd13ifvqch0","pricing_plan_id":"cebpf4jnsgd1na2vs0mg"},{"bike_id":"50e2033c-b25e-47fd-b2fc-453a8d6c77a3","system_id":"levelo_inurba_marseille","lat":43.31337,"lon":5.39727,"is_reserved":false,"is_disabled":false,"rental_uris":{"android":"levelo://app?vid=50e2033c-b25e-47fd-b2fc-453a8d6c77a3","ios":"levelo://app?vid=50e2033c-b25e-47fd-b2fc-453a8d6c77a3"},"vehicle_type_id":"4","last_reported":1737774530,"current_range_meters":38000,"station_id":"ce4bgvp2rcd13ifvqcu0","pricing_plan_id":"cebpf4jnsgd1na2vs0mg"},{"bike_id":"bf096a89-ee72-4f37-85bd-7b3cf9f0cb41","system_id":"levelo_inurba_marseille","lat":43.31929,"lon":5.37891,"is_reserved":false,"is_disabled":false,"rental_uris":{"android":"levelo://app?vid=bf096a89-ee72-4f37-85bd-7b3cf9f0cb41","ios":"levelo://app?vid=bf096a89-ee72-4f37-85bd-7b3cf9f0cb41"},"vehicle_type_id":"4","last_reported":1737774530,"current_range_meters":32800,"station_id":"","pricing_plan_id":"cebpf4jnsgd1na2vs0mg"},{"bike_id":"66d1f8cf-8260-44c6-89e8-aa09a832fe98","system_id":"levelo_inurba_marseille","lat":43.24657,"lon":5.38167,"is_reserved":false,"is_disabled":true,"rental_uris":{"android":"levelo://app?vid=66d1f8cf-8260-44c6-89e8-aa09a832fe98","ios":"levelo://app?vid=66d1f8cf-8260-44c6-89e8-aa09a832fe98"},"vehicle_type_id":"4","last_reported":1737774530,"current_range_meters":2000,"station_id":"ce4bhih2rcd13ifvqfr0","pricing_plan_id":"cebpf4jnsgd1na2vs0mg"},{"bike_id":"d067cea7-586f-4ea0-b8cc-337488764a1c","system_id":"levelo_inurba_marseille","lat":43.284098,"lon":5.375205,"is_reserved":false,"is_disabled":false,"rental_uris":{"android":"levelo://app?vid=d067cea7-586f-4ea0-b8cc-337488764a1c","ios":"levelo://app?vid=d067cea7-586f-4ea0-b8cc-337488764a1c"},"vehicle_type_id":"4","last_reported":1737774530,"current_range_meters":28000,"station_id":"ce4bh412rcd13ifvqds0","pricing_plan_id":"cebpf4jnsgd1na2vs0mg"},{"bike_id":"eae7151e-6172-4485-b179-34a120b16955","system_id":"levelo_inurba_marseille","lat":43.30434,"lon":5.38886,"is_reserved":false,"is_disabled":false,"rental_uris":{"android":"levelo://app?vid=eae7151e-6172-4485-b179-34a120b16955","ios":"levelo://app?vid=eae7151e-6172-4485-b179-34a120b16955"},"vehicle_type_id":"4","last_reported":1737774530,"current_range_meters":34000,"station_id":"ce4bgk12rcd13ifvqbi0","pricing_plan_id":"cebpf4jnsgd1na2vs0mg"},{"bike_id":"1caf7243-b0f0-4484-919a-c8dcf048623a","system_id":"levelo_inurba_marseille","lat":43.231889,"lon":5.399776,"is_reserved":false,"is_disabled":false,"rental_uris":{"android":"levelo://app?vid=1caf7243-b0f0-4484-919a-c8dcf048623a","ios":"levelo://app?vid=1caf7243-b0f0-4484-919a-c8dcf048623a"},"vehicle_type_id":"4","last_reported":1737774530,"current_range_meters":11200,"station_id":"ce4bhn12rcd13ifvqgqg","pricing_plan_id":"cebpf4jnsgd1na2vs0mg"},{"bike_id":"8fd07e85-a454-4c1f-a811-21f58b09ae7d","system_id":"levelo_inurba_marseille","lat":43.28345,"lon":5.38118,"is_reserved":false,"is_disabled":false,"rental_uris":{"android":"levelo://app?vid=8fd07e85-a454-4c1f-a811-21f58b09ae7d","ios":"levelo://app?vid=8fd07e85-a454-4c1f-a811-21f58b09ae7d"},"vehicle_type_id":"4","last_reported":1737774530,"current_range_meters":37600,"station_id":"ce4bh412rcd13ifvqdr0","pricing_plan_id":"cebpf4jnsgd1na2vs0mg"},{"bike_id":"a3f78efe-7912-407a-8fb4-0aa19f2a6b5f","system_id":"levelo_inurba_marseille","lat":43.28659,"lon":5.36351,"is_reserved":false,"is_disabled":false,"rental_uris":{"android":"levelo://app?vid=a3f78efe-7912-407a-8fb4-0aa19f2a6b5f","ios":"levelo://app?vid=a3f78efe-7912-407a-8fb4-0aa19f2a6b5f"},"vehicle_type_id":"4","last_reported":1737774530,"current_range_meters":38800,"station_id":"ce4bhah2rcd13ifvqej0","pricing_plan_id":"cebpf4jnsgd1na2vs0mg"},{"bike_id":"c39ca458-0c9e-4f52-a635-3c7100fb01a9","system_id":"levelo_inurba_marseille","lat":43.30886,"lon":5.39635,"is_reserved":false,"is_disabled":false,"rental_uris":{"android":"levelo://app?vid=c39ca458-0c9e-4f52-a635-3c7100fb01a9","ios":"levelo://app?vid=c39ca458-0c9e-4f52-a635-3c7100fb01a9"},"vehicle_type_id":"4","last_reported":1737774530,"current_range_meters":31200,"station_id":"ce4bh012rcd13ifvqcv0","pricing_plan_id":"cebpf4jnsgd1na2vs0mg"},{"bike_id":"51c3b1a6-c5c6-4d24-9def-8186fdad8596","system_id":"levelo_inurba_marseille","lat":43.27069,"lon":5.42277,"is_reserved":false,"is_disabled":false,"rental_uris":{"android":"levelo://app?vid=51c3b1a6-c5c6-4d24-9def-8186fdad8596","ios":"levelo://app?vid=51c3b1a6-c5c6-4d24-9def-8186fdad8596"},"vehicle_type_id":"4","last_reported":1737774530,"current_range_meters":12000,"station_id":"ce4bhk92rcd13ifvqgb0","pricing_plan_id":"cebpf4jnsgd1na2vs0mg"},{"bike_id":"99456971-cf01-4da2-8121-1af64c1c2a59","system_id":"levelo_inurba_marseille","lat":43.25004,"lon":5.38941,"is_reserved":false,"is_disabled":false,"rental_uris":{"android":"levelo://app?vid=99456971-cf01-4da2-8121-1af64c1c2a59","ios":"levelo://app?vid=99456971-cf01-4da2-8121-1af64c1c2a59"},"vehicle_type_id":"4","last_reported":1737774530,"current_range_meters":35200,"station_id":"ce4bhgp2rcd13ifvqfd0","pricing_plan_id":"cebpf4jnsgd1na2vs0mg"},{"bike_id":"c276da85-c857-4b0d-8792-c2826228a14c","system_id":"levelo_inurba_marseille","lat":43.239595,"lon":5.366361,"is_reserved":false,"is_disabled":false,"rental_uris":{"android":"levelo://app?vid=c276da85-c857-4b0d-8792-c2826228a14c","ios":"levelo://app?vid=c276da85-c857-4b0d-8792-c2826228a14c"},"vehicle_type_id":"4","last_reported":1737774530,"current_range_meters":28000,"station_id":"ce4bhi12rcd13ifvqfp0","pricing_plan_id":"cebpf4jnsgd1na2vs0mg"},{"bike_id":"2068ce80-1659-42b4-945e-19e0e5710b37","system_id":"levelo_inurba_marseille","lat":43.2969,"lon":5.36632,"is_reserved":false,"is_disabled":true,"rental_uris":{"android":"levelo://app?vid=2068ce80-1659-42b4-945e-19e0e5710b37","ios":"levelo://app?vid=2068ce80-1659-42b4-945e-19e0e5710b37"},"vehicle_type_id":"4","last_reported":1737774530,"current_range_meters":36000,"station_id":"ce4bgn12rcd13ifvqbt0","pricing_plan_id":"cebpf4jnsgd1na2vs0mg"},{"bike_id":"867d41e1-ec2e-4484-a31e-d471983f0ab7","system_id":"levelo_inurba_marseille","lat":43.33384,"lon":5.40054,"is_reserved":false,"is_disabled":false,"rental_uris":{"android":"levelo://app?vid=867d41e1-ec2e-4484-a31e-d471983f0ab7","ios":"levelo://app?vid=867d41e1-ec2e-4484-a31e-d471983f0ab7"},"vehicle_type_id":"4","last_reported":1737774530,"current_range_meters":16400,"station_id":"","pricing_plan_id":"cebpf4jnsgd1na2vs0mg"},{"bike_id":"7a30cd33-8d30-4d84-a086-6a47673beb62","system_id":"levelo_inurba_marseille","lat":43.27986,"lon":5.41661,"is_reserved":false,"is_disabled":false,"rental_uris":{"android":"levelo://app?vid=7a30cd33-8d30-4d84-a086-6a47673beb62","ios":"levelo://app?vid=7a30cd33-8d30-4d84-a086-6a47673beb62"},"vehicle_type_id":"4","last_reported":1737774530,"current_range_meters":17200,"station_id":"ce4bho12rcd13ifvqh1g","pricing_plan_id":"cebpf4jnsgd1na2vs0mg"},{"bike_id":"0f00ba1e-5308-418a-981c-a71dfc8175a2","system_id":"levelo_inurba_marseille","lat":43.29872,"lon":5.39738,"is_reserved":false,"is_disabled":false,"rental_uris":{"android":"levelo://app?vid=0f00ba1e-5308-418a-981c-a71dfc8175a2","ios":"levelo://app?vid=0f00ba1e-5308-418a-981c-a71dfc8175a2"},"vehicle_type_id":"4","last_reported":1737774530,"current_range_meters":38800,"station_id":"ce4bh0h2rcd13ifvqd50","pricing_plan_id":"cebpf4jnsgd1na2vs0mg"},{"bike_id":"e84f6a72-894f-48e8-8eb1-244ae57ee71b","system_id":"levelo_inurba_marseille","lat":43.31188,"lon":5.38691,"is_reserved":false,"is_disabled":false,"rental_uris":{"android":"levelo://app?vid=e84f6a72-894f-48e8-8eb1-244ae57ee71b","ios":"levelo://app?vid=e84f6a72-894f-48e8-8eb1-244ae57ee71b"},"vehicle_type_id":"4","last_reported":1737774530,"current_range_meters":26800,"station_id":"ce4bgv12rcd13ifvqcp0","pricing_plan_id":"cebpf4jnsgd1na2vs0mg"},{"bike_id":"468a54a2-6174-4582-bc57-36f50556c34c","system_id":"levelo_inurba_marseille","lat":43.28461,"lon":5.35887,"is_reserved":false,"is_disabled":false,"rental_uris":{"android":"levelo://app?vid=468a54a2-6174-4582-bc57-36f50556c34c","ios":"levelo://app?vid=468a54a2-6174-4582-bc57-36f50556c34c"},"vehicle_type_id":"4","last_reported":1737774530,"current_range_meters":26000,"station_id":"ce4bhah2rcd13ifvqei0","pricing_plan_id":"cebpf4jnsgd1na2vs0mg"},{"bike_id":"2590ad91-0151-4d17-8620-88aeaed152e1","system_id":"levelo_inurba_marseille","lat":43.29976,"lon":5.37192,"is_reserved":false,"is_disabled":true,"rental_uris":{"android":"levelo://app?vid=2590ad91-0151-4d17-8620-88aeaed152e1","ios":"levelo://app?vid=2590ad91-0151-4d17-8620-88aeaed152e1"},"vehicle_type_id":"4","last_reported":1737774530,"current_range_meters":36000,"station_id":"ce4bgr92rcd13ifvqc7g","pricing_plan_id":"cebpf4jnsgd1na2vs0mg"},{"bike_id":"66d1346f-013f-4af1-a701-1a936ff46a00","system_id":"levelo_inurba_marseille","lat":43.316937,"lon":5.377681,"is_reserved":false,"is_disabled":false,"rental_uris":{"android":"levelo://app?vid=66d1346f-013f-4af1-a701-1a936ff46a00","ios":"levelo://app?vid=66d1346f-013f-4af1-a701-1a936ff46a00"},"vehicle_type_id":"4","last_reported":1737774530,"current_range_meters":37600,"station_id":"ce4bgth2rcd13ifvqch0","pricing_plan_id":"cebpf4jnsgd1na2vs0mg"},{"bike_id":"93f4f4e4-86dd-44c9-bedb-dcbdace9162d","system_id":"levelo_inurba_marseille","lat":43.23194,"lon":5.39999,"is_reserved":false,"is_disabled":false,"rental_uris":{"android":"levelo://app?vid=93f4f4e4-86dd-44c9-bedb-dcbdace9162d","ios":"levelo://app?vid=93f4f4e4-86dd-44c9-bedb-dcbdace9162d"},"vehicle_type_id":"4","last_reported":1737774530,"current_range_meters":38800,"station_id":"ce4bhn12rcd13ifvqgqg","pricing_plan_id":"cebpf4jnsgd1na2vs0mg"},{"bike_id":"347dd29e-9a9e-4a37-8ddd-6e2050aaff03","system_id":"levelo_inurba_marseille","lat":43.3373,"lon":5.391947,"is_reserved":false,"is_disabled":false,"rental_uris":{"android":"levelo://app?vid=347dd29e-9a9e-4a37-8ddd-6e2050aaff03","ios":"levelo://app?vid=347dd29e-9a9e-4a37-8ddd-6e2050aaff03"},"vehicle_type_id":"4","last_reported":1737774530,"current_range_meters":36800,"station_id":"ce4bhr92rcd13ifvqhsg","pricing_plan_id":"cebpf4jnsgd1na2vs0mg"},{"bike_id":"badee5fd-b7b4-423c-a117-af12b0d774ca","system_id":"levelo_inurba_marseille","lat":43.31724,"lon":5.42398,"is_reserved":false,"is_disabled":false,"rental_uris":{"android":"levelo://app?vid=badee5fd-b7b4-423c-a117-af12b0d774ca","ios":"levelo://app?vid=badee5fd-b7b4-423c-a117-af12b0d774ca"},"vehicle_type_id":"4","last_reported":1737774530,"current_range_meters":38800,"station_id":"ce4bhp92rcd13ifvqhbg","pricing_plan_id":"cebpf4jnsgd1na2vs0mg"},{"bike_id":"1cb6eeda-e4e2-4e2b-bc5f-eb917324ab36","system_id":"levelo_inurba_marseille","lat":43.28373,"lon":5.38648,"is_reserved":false,"is_disabled":false,"rental_uris":{"android":"levelo://app?vid=1cb6eeda-e4e2-4e2b-bc5f-eb917324ab36","ios":"levelo://app?vid=1cb6eeda-e4e2-4e2b-bc5f-eb917324ab36"},"vehicle_type_id":"4","last_reported":1737774530,"current_range_meters":6800,"station_id":"ce4bh492rcd13ifvqdvg","pricing_plan_id":"cebpf4jnsgd1na2vs0mg"},{"bike_id":"689b4df9-0021-47af-92a3-26488e05e7a0","system_id":"levelo_inurba_marseille","lat":43.29168,"lon":5.35787,"is_reserved":false,"is_disabled":false,"rental_uris":{"android":"levelo://app?vid=689b4df9-0021-47af-92a3-26488e05e7a0","ios":"levelo://app?vid=689b4df9-0021-47af-92a3-26488e05e7a0"},"vehicle_type_id":"4","last_reported":1737774530,"current_range_meters":38800,"station_id":"ce4bhb12rcd13ifvqel0","pricing_plan_id":"cebpf4jnsgd1na2vs0mg"},{"bike_id":"078fec27-0171-4e07-8b6d-d1216ddff393","system_id":"levelo_inurba_marseille","lat":43.25495,"lon":5.37653,"is_reserved":false,"is_disabled":false,"rental_uris":{"android":"levelo://app?vid=078fec27-0171-4e07-8b6d-d1216ddff393","ios":"levelo://app?vid=078fec27-0171-4e07-8b6d-d1216ddff393"},"vehicle_type_id":"4","last_reported":1737774530,"current_range_meters":38800,"station_id":"ce4bhh12rcd13ifvqff0","pricing_plan_id":"cebpf4jnsgd1na2vs0mg"},{"bike_id":"5db9538e-f496-4d36-96eb-dbc4c4bd40dc","system_id":"levelo_inurba_marseille","lat":43.24466,"lon":5.37715,"is_reserved":false,"is_disabled":false,"rental_uris":{"android":"levelo://app?vid=5db9538e-f496-4d36-96eb-dbc4c4bd40dc","ios":"levelo://app?vid=5db9538e-f496-4d36-96eb-dbc4c4bd40dc"},"vehicle_type_id":"4","last_reported":1737774530,"current_range_meters":9200,"station_id":"","pricing_plan_id":"cebpf4jnsgd1na2vs0mg"},{"bike_id":"90b8a1b1-ad54-458d-9362-f5197bbdf048","system_id":"levelo_inurba_marseille","lat":43.22929,"lon":5.35388,"is_reserved":false,"is_disabled":false,"rental_uris":{"android":"levelo://app?vid=90b8a1b1-ad54-458d-9362-f5197bbdf048","ios":"levelo://app?vid=90b8a1b1-ad54-458d-9362-f5197bbdf048"},"vehicle_type_id":"4","last_reported":1737774530,"current_range_meters":38400,"station_id":"cpo3532slgdg3j2ikp40","pricing_plan_id":"cebpf4jnsgd1na2vs0mg"},{"bike_id":"7da50f07-38d9-468b-8e2c-04df74955810","system_id":"levelo_inurba_marseille","lat":43.2955,"lon":5.42288,"is_reserved":false,"is_disabled":false,"rental_uris":{"android":"levelo://app?vid=7da50f07-38d9-468b-8e2c-04df74955810","ios":"levelo://app?vid=7da50f07-38d9-468b-8e2c-04df74955810"},"vehicle_type_id":"4","last_reported":1737774530,"current_range_meters":38800,"station_id":"ce4bhph2rcd13ifvqhdg","pricing_plan_id":"cebpf4jnsgd1na2vs0mg"},{"bike_id":"d7e2ed9a-eade-4109-bb95-f460a02ac2df","system_id":"levelo_inurba_marseille","lat":43.28727,"lon":5.36086,"is_reserved":false,"is_disabled":false,"rental_uris":{"android":"levelo://app?vid=d7e2ed9a-eade-4109-bb95-f460a02ac2df","ios":"levelo://app?vid=d7e2ed9a-eade-4109-bb95-f460a02ac2df"},"vehicle_type_id":"4","last_reported":1737774530,"current_range_meters":28800,"station_id":"cki0cbj6b192h4jlfktg","pricing_plan_id":"cebpf4jnsgd1na2vs0mg"},{"bike_id":"81178945-180e-4ca8-9566-bd95b30ebbcd","system_id":"levelo_inurba_marseille","lat":43.29247,"lon":5.40899,"is_reserved":false,"is_disabled":false,"rental_uris":{"android":"levelo://app?vid=81178945-180e-4ca8-9566-bd95b30ebbcd","ios":"levelo://app?vid=81178945-180e-4ca8-9566-bd95b30ebbcd"},"vehicle_type_id":"4","last_reported":1737774530,"current_range_meters":16400,"station_id":"ce4bh192rcd13ifvqdc0","pricing_plan_id":"cebpf4jnsgd1na2vs0mg"},{"bike_id":"f4b60626-05b7-4b59-90c0-9ca9f07724cd","system_id":"levelo_inurba_marseille","lat":43.30881,"lon":5.39641,"is_reserved":false,"is_disabled":false,"rental_uris":{"android":"levelo://app?vid=f4b60626-05b7-4b59-90c0-9ca9f07724cd","ios":"levelo://app?vid=f4b60626-05b7-4b59-90c0-9ca9f07724cd"},"vehicle_type_id":"4","last_reported":1737774530,"current_range_meters":38800,"station_id":"ce4bh012rcd13ifvqcv0","pricing_plan_id":"cebpf4jnsgd1na2vs0mg"},{"bike_id":"1ec9ea3d-bdb1-4d93-b38e-647775e10909","system_id":"levelo_inurba_marseille","lat":43.306443,"lon":5.400881,"is_reserved":false,"is_disabled":false,"rental_uris":{"android":"levelo://app?vid=1ec9ea3d-bdb1-4d93-b38e-647775e10909","ios":"levelo://app?vid=1ec9ea3d-bdb1-4d93-b38e-647775e10909"},"vehicle_type_id":"4","last_reported":1737774530,"current_range_meters":36800,"station_id":"ce4bh112rcd13ifvqda0","pricing_plan_id":"cebpf4jnsgd1na2vs0mg"},{"bike_id":"08ce52f6-0d23-4c32-925b-7583b8c8f661","system_id":"levelo_inurba_marseille","lat":43.28703,"lon":5.39988,"is_reserved":false,"is_disabled":false,"rental_uris":{"android":"levelo://app?vid=08ce52f6-0d23-4c32-925b-7583b8c8f661","ios":"levelo://app?vid=08ce52f6-0d23-4c32-925b-7583b8c8f661"},"vehicle_type_id":"4","last_reported":1737774530,"current_range_meters":38400,"station_id":"ce4bho92rcd13ifvqh3g","pricing_plan_id":"cebpf4jnsgd1na2vs0mg"},{"bike_id":"275880cd-0974-4df4-8a10-088732c49c6f","system_id":"levelo_inurba_marseille","lat":43.287125,"lon":5.399875,"is_reserved":false,"is_disabled":true,"rental_uris":{"android":"levelo://app?vid=275880cd-0974-4df4-8a10-088732c49c6f","ios":"levelo://app?vid=275880cd-0974-4df4-8a10-088732c49c6f"},"vehicle_type_id":"4","last_reported":1737774530,"current_range_meters":1600,"station_id":"ce4bho92rcd13ifvqh3g","pricing_plan_id":"cebpf4jnsgd1na2vs0mg"},{"bike_id":"728fb5da-12da-4e03-bd71-9c0ec04f286f","system_id":"levelo_inurba_marseille","lat":43.28699,"lon":5.39974,"is_reserved":false,"is_disabled":false,"rental_uris":{"android":"levelo://app?vid=728fb5da-12da-4e03-bd71-9c0ec04f286f","ios":"levelo://app?vid=728fb5da-12da-4e03-bd71-9c0ec04f286f"},"vehicle_type_id":"4","last_reported":1737774530,"current_range_meters":24000,"station_id":"ce4bho92rcd13ifvqh3g","pricing_plan_id":"cebpf4jnsgd1na2vs0mg"},{"bike_id":"2379a823-fdeb-40da-be6e-d8af4799bc36","system_id":"levelo_inurba_marseille","lat":43.30312,"lon":5.40455,"is_reserved":false,"is_disabled":false,"rental_uris":{"android":"levelo://app?vid=2379a823-fdeb-40da-be6e-d8af4799bc36","ios":"levelo://app?vid=2379a823-fdeb-40da-be6e-d8af4799bc36"},"vehicle_type_id":"4","last_reported":1737774530,"current_range_meters":37600,"station_id":"ce4bh012rcd13ifvqd10","pricing_plan_id":"cebpf4jnsgd1na2vs0mg"},{"bike_id":"cd2a4c81-944c-45cd-ad92-4381608c75f0","system_id":"levelo_inurba_marseille","lat":43.23187,"lon":5.35564,"is_reserved":false,"is_disabled":false,"rental_uris":{"android":"levelo://app?vid=cd2a4c81-944c-45cd-ad92-4381608c75f0","ios":"levelo://app?vid=cd2a4c81-944c-45cd-ad92-4381608c75f0"},"vehicle_type_id":"4","last_reported":1737774530,"current_range_meters":8400,"station_id":"ce4bhu92rcd13ifvqi70","pricing_plan_id":"cebpf4jnsgd1na2vs0mg"},{"bike_id":"e39346ad-5835-4e52-9c12-c994715ae718","system_id":"levelo_inurba_marseille","lat":43.31191,"lon":5.38715,"is_reserved":false,"is_disabled":false,"rental_uris":{"android":"levelo://app?vid=e39346ad-5835-4e52-9c12-c994715ae718","ios":"levelo://app?vid=e39346ad-5835-4e52-9c12-c994715ae718"},"vehicle_type_id":"4","last_reported":1737774530,"current_range_meters":30000,"station_id":"ce4bgv12rcd13ifvqcp0","pricing_plan_id":"cebpf4jnsgd1na2vs0mg"},{"bike_id":"a1378522-9377-4a0e-9d51-418700010289","system_id":"levelo_inurba_marseille","lat":43.31482,"lon":5.37304,"is_reserved":false,"is_disabled":false,"rental_uris":{"android":"levelo://app?vid=a1378522-9377-4a0e-9d51-418700010289","ios":"levelo://app?vid=a1378522-9377-4a0e-9d51-418700010289"},"vehicle_type_id":"4","last_reported":1737774530,"current_range_meters":33200,"station_id":"ce4bgt12rcd13ifvqcd0","pricing_plan_id":"cebpf4jnsgd1na2vs0mg"},{"bike_id":"8609669b-68c7-4651-8463-8b069e6b3840","system_id":"levelo_inurba_marseille","lat":43.31993,"lon":5.38164,"is_reserved":false,"is_disabled":false,"rental_uris":{"android":"levelo://app?vid=8609669b-68c7-4651-8463-8b069e6b3840","ios":"levelo://app?vid=8609669b-68c7-4651-8463-8b069e6b3840"},"vehicle_type_id":"4","last_reported":1737774530,"current_range_meters":38400,"station_id":"ce4bhr12rcd13ifvqhpg","pricing_plan_id":"cebpf4jnsgd1na2vs0mg"},{"bike_id":"dabad150-600b-4273-9d4a-f2cb97af39fc","system_id":"levelo_inurba_marseille","lat":43.24639,"lon":5.38905,"is_reserved":false,"is_disabled":false,"rental_uris":{"android":"levelo://app?vid=dabad150-600b-4273-9d4a-f2cb97af39fc","ios":"levelo://app?vid=dabad150-600b-4273-9d4a-f2cb97af39fc"},"vehicle_type_id":"4","last_reported":1737774530,"current_range_meters":35200,"station_id":"ce4bhg12rcd13ifvqf60","pricing_plan_id":"cebpf4jnsgd1na2vs0mg"},{"bike_id":"a5193d8e-5ab9-42da-ba19-d58641d5f5c5","system_id":"levelo_inurba_marseille","lat":43.30424,"lon":5.41296,"is_reserved":false,"is_disabled":false,"rental_uris":{"android":"levelo://app?vid=a5193d8e-5ab9-42da-ba19-d58641d5f5c5","ios":"levelo://app?vid=a5193d8e-5ab9-42da-ba19-d58641d5f5c5"},"vehicle_type_id":"4","last_reported":1737774530,"current_range_meters":6000,"station_id":"ce4bhop2rcd13ifvqh8g","pricing_plan_id":"cebpf4jnsgd1na2vs0mg"},{"bike_id":"9dc39e20-36a6-4ade-8e04-4a01462345d9","system_id":"levelo_inurba_marseille","lat":43.31318,"lon":5.39707,"is_reserved":false,"is_disabled":false,"rental_uris":{"android":"levelo://app?vid=9dc39e20-36a6-4ade-8e04-4a01462345d9","ios":"levelo://app?vid=9dc39e20-36a6-4ade-8e04-4a01462345d9"},"vehicle_type_id":"4","last_reported":1737774530,"current_range_meters":38000,"station_id":"ce4bgvp2rcd13ifvqcu0","pricing_plan_id":"cebpf4jnsgd1na2vs0mg"},{"bike_id":"541e33b8-7dc4-4366-8e64-db6c62a8fcb9","system_id":"levelo_inurba_marseille","lat":43.28105,"lon":5.37844,"is_reserved":false,"is_disabled":false,"rental_uris":{"android":"levelo://app?vid=541e33b8-7dc4-4366-8e64-db6c62a8fcb9","ios":"levelo://app?vid=541e33b8-7dc4-4366-8e64-db6c62a8fcb9"},"vehicle_type_id":"4","last_reported":1737774530,"current_range_meters":17200,"station_id":"ce4bha12rcd13ifvqee0","pricing_plan_id":"cebpf4jnsgd1na2vs0mg"},{"bike_id":"da351246-909a-4986-a69c-176945d7bc8a","system_id":"levelo_inurba_marseille","lat":43.2766,"lon":5.3892,"is_reserved":false,"is_disabled":false,"rental_uris":{"android":"levelo://app?vid=da351246-909a-4986-a69c-176945d7bc8a","ios":"levelo://app?vid=da351246-909a-4986-a69c-176945d7bc8a"},"vehicle_type_id":"4","last_reported":1737774530,"current_range_meters":37600,"station_id":"ce4bhi12rcd13ifvqfo0","pricing_plan_id":"cebpf4jnsgd1na2vs0mg"},{"bike_id":"970840ad-46a9-4f33-b760-b5aac0403610","system_id":"levelo_inurba_marseille","lat":43.30297,"lon":5.40438,"is_reserved":false,"is_disabled":false,"rental_uris":{"android":"levelo://app?vid=970840ad-46a9-4f33-b760-b5aac0403610","ios":"levelo://app?vid=970840ad-46a9-4f33-b760-b5aac0403610"},"vehicle_type_id":"4","last_reported":1737774530,"current_range_meters":27200,"station_id":"ce4bh012rcd13ifvqd10","pricing_plan_id":"cebpf4jnsgd1na2vs0mg"},{"bike_id":"80e9d9f2-febe-400a-b138-dafe31f2e8fb","system_id":"levelo_inurba_marseille","lat":43.30647,"lon":5.4007,"is_reserved":false,"is_disabled":false,"rental_uris":{"android":"levelo://app?vid=80e9d9f2-febe-400a-b138-dafe31f2e8fb","ios":"levelo://app?vid=80e9d9f2-febe-400a-b138-dafe31f2e8fb"},"vehicle_type_id":"4","last_reported":1737774530,"current_range_meters":22400,"station_id":"ce4bh112rcd13ifvqda0","pricing_plan_id":"cebpf4jnsgd1na2vs0mg"},{"bike_id":"ddacd815-8f63-4362-bf6f-2cf2b4747ff8","system_id":"levelo_inurba_marseille","lat":43.28831,"lon":5.35845,"is_reserved":false,"is_disabled":false,"rental_uris":{"android":"levelo://app?vid=ddacd815-8f63-4362-bf6f-2cf2b4747ff8","ios":"levelo://app?vid=ddacd815-8f63-4362-bf6f-2cf2b4747ff8"},"vehicle_type_id":"4","last_reported":1737774530,"current_range_meters":28400,"station_id":"ce4bhb12rcd13ifvqem0","pricing_plan_id":"cebpf4jnsgd1na2vs0mg"},{"bike_id":"1c35c755-8b1c-439e-8798-f1a001a3969d","system_id":"levelo_inurba_marseille","lat":43.28099,"lon":5.37858,"is_reserved":false,"is_disabled":true,"rental_uris":{"android":"levelo://app?vid=1c35c755-8b1c-439e-8798-f1a001a3969d","ios":"levelo://app?vid=1c35c755-8b1c-439e-8798-f1a001a3969d"},"vehicle_type_id":"4","last_reported":1737774530,"current_range_meters":400,"station_id":"ce4bha12rcd13ifvqee0","pricing_plan_id":"cebpf4jnsgd1na2vs0mg"},{"bike_id":"c425264b-f06d-4006-8cf2-8dc867d9adfd","system_id":"levelo_inurba_marseille","lat":43.31613,"lon":5.38324,"is_reserved":false,"is_disabled":false,"rental_uris":{"android":"levelo://app?vid=c425264b-f06d-4006-8cf2-8dc867d9adfd","ios":"levelo://app?vid=c425264b-f06d-4006-8cf2-8dc867d9adfd"},"vehicle_type_id":"4","last_reported":1737774530,"current_range_meters":8800,"station_id":"","pricing_plan_id":"cebpf4jnsgd1na2vs0mg"},{"bike_id":"d56c115f-6df7-4f94-ac43-1d7eeda28b91","system_id":"levelo_inurba_marseille","lat":43.32335,"lon":5.40627,"is_reserved":false,"is_disabled":false,"rental_uris":{"android":"levelo://app?vid=d56c115f-6df7-4f94-ac43-1d7eeda28b91","ios":"levelo://app?vid=d56c115f-6df7-4f94-ac43-1d7eeda28b91"},"vehicle_type_id":"4","last_reported":1737774530,"current_range_meters":36400,"station_id":"ce4bhq92rcd13ifvqhjg","pricing_plan_id":"cebpf4jnsgd1na2vs0mg"},{"bike_id":"bce09769-02dc-489a-bcd7-84421f3b354f","system_id":"levelo_inurba_marseille","lat":43.32358,"lon":5.38895,"is_reserved":false,"is_disabled":false,"rental_uris":{"android":"levelo://app?vid=bce09769-02dc-489a-bcd7-84421f3b354f","ios":"levelo://app?vid=bce09769-02dc-489a-bcd7-84421f3b354f"},"vehicle_type_id":"4","last_reported":1737774530,"current_range_meters":20000,"station_id":"ce4bhqp2rcd13ifvqhog","pricing_plan_id":"cebpf4jnsgd1na2vs0mg"},{"bike_id":"a7d99f94-3346-4034-9e5b-c7a159a0ec0f","system_id":"levelo_inurba_marseille","lat":43.28105,"lon":5.37844,"is_reserved":false,"is_disabled":false,"rental_uris":{"android":"levelo://app?vid=a7d99f94-3346-4034-9e5b-c7a159a0ec0f","ios":"levelo://app?vid=a7d99f94-3346-4034-9e5b-c7a159a0ec0f"},"vehicle_type_id":"4","last_reported":1737774530,"current_range_meters":30800,"station_id":"ce4bha12rcd13ifvqee0","pricing_plan_id":"cebpf4jnsgd1na2vs0mg"},{"bike_id":"090be73b-8862-4348-9ecb-67890b3f8c08","system_id":"levelo_inurba_marseille","lat":43.29715,"lon":5.36603,"is_reserved":false,"is_disabled":false,"rental_uris":{"android":"levelo://app?vid=090be73b-8862-4348-9ecb-67890b3f8c08","ios":"levelo://app?vid=090be73b-8862-4348-9ecb-67890b3f8c08"},"vehicle_type_id":"4","last_reported":1737774530,"current_range_meters":33200,"station_id":"ce4bgn12rcd13ifvqbt0","pricing_plan_id":"cebpf4jnsgd1na2vs0mg"},{"bike_id":"0fe552b3-93b3-4b45-b472-145b4509c8ff","system_id":"levelo_inurba_marseille","lat":43.27372,"lon":5.36248,"is_reserved":false,"is_disabled":false,"rental_uris":{"android":"levelo://app?vid=0fe552b3-93b3-4b45-b472-145b4509c8ff","ios":"levelo://app?vid=0fe552b3-93b3-4b45-b472-145b4509c8ff"},"vehicle_type_id":"4","last_reported":1737774530,"current_range_meters":34000,"station_id":"ce4bhbh2rcd13ifvqeo0","pricing_plan_id":"cebpf4jnsgd1na2vs0mg"},{"bike_id":"d06e4858-1735-4dcf-9f21-bf859f4d029b","system_id":"levelo_inurba_marseille","lat":43.28156,"lon":5.42645,"is_reserved":false,"is_disabled":false,"rental_uris":{"android":"levelo://app?vid=d06e4858-1735-4dcf-9f21-bf859f4d029b","ios":"levelo://app?vid=d06e4858-1735-4dcf-9f21-bf859f4d029b"},"vehicle_type_id":"4","last_reported":1737774530,"current_range_meters":38800,"station_id":"ce4bhnh2rcd13ifvqgug","pricing_plan_id":"cebpf4jnsgd1na2vs0mg"},{"bike_id":"dddde718-b5f0-4247-9093-917256745d04","system_id":"levelo_inurba_marseille","lat":43.25493,"lon":5.37651,"is_reserved":false,"is_disabled":false,"rental_uris":{"android":"levelo://app?vid=dddde718-b5f0-4247-9093-917256745d04","ios":"levelo://app?vid=dddde718-b5f0-4247-9093-917256745d04"},"vehicle_type_id":"4","last_reported":1737774530,"current_range_meters":38800,"station_id":"ce4bhh12rcd13ifvqff0","pricing_plan_id":"cebpf4jnsgd1na2vs0mg"},{"bike_id":"7f95d492-e5fe-47a9-9496-ce67e4d5c2e7","system_id":"levelo_inurba_marseille","lat":43.31753,"lon":5.39026,"is_reserved":false,"is_disabled":false,"rental_uris":{"android":"levelo://app?vid=7f95d492-e5fe-47a9-9496-ce67e4d5c2e7","ios":"levelo://app?vid=7f95d492-e5fe-47a9-9496-ce67e4d5c2e7"},"vehicle_type_id":"4","last_reported":1737774530,"current_range_meters":38800,"station_id":"ce4bhqp2rcd13ifvqhng","pricing_plan_id":"cebpf4jnsgd1na2vs0mg"},{"bike_id":"61df6208-7c8d-4faf-b087-b4cb2a715156","system_id":"levelo_inurba_marseille","lat":43.31995,"lon":5.38155,"is_reserved":false,"is_disabled":false,"rental_uris":{"android":"levelo://app?vid=61df6208-7c8d-4faf-b087-b4cb2a715156","ios":"levelo://app?vid=61df6208-7c8d-4faf-b087-b4cb2a715156"},"vehicle_type_id":"4","last_reported":1737774530,"current_range_meters":38800,"station_id":"ce4bhr12rcd13ifvqhpg","pricing_plan_id":"cebpf4jnsgd1na2vs0mg"},{"bike_id":"3bac8bf1-c43c-48aa-a4e1-844bfc3a5ad3","system_id":"levelo_inurba_marseille","lat":43.3018,"lon":5.38115,"is_reserved":false,"is_disabled":true,"rental_uris":{"android":"levelo://app?vid=3bac8bf1-c43c-48aa-a4e1-844bfc3a5ad3","ios":"levelo://app?vid=3bac8bf1-c43c-48aa-a4e1-844bfc3a5ad3"},"vehicle_type_id":"4","last_reported":1737774530,"current_range_meters":8400,"station_id":"ce4bgjp2rcd13ifvqbh0","pricing_plan_id":"cebpf4jnsgd1na2vs0mg"},{"bike_id":"5a5f2dc1-b179-4c8f-8366-4367f5a8a308","system_id":"levelo_inurba_marseille","lat":43.30264,"lon":5.40065,"is_reserved":false,"is_disabled":false,"rental_uris":{"android":"levelo://app?vid=5a5f2dc1-b179-4c8f-8366-4367f5a8a308","ios":"levelo://app?vid=5a5f2dc1-b179-4c8f-8366-4367f5a8a308"},"vehicle_type_id":"4","last_reported":1737774530,"current_range_meters":28400,"station_id":"ce4bgvh2rcd13ifvqcs0","pricing_plan_id":"cebpf4jnsgd1na2vs0mg"},{"bike_id":"1a8ae368-7abe-4003-b093-3ea0bcfe3058","system_id":"levelo_inurba_marseille","lat":43.25501,"lon":5.37669,"is_reserved":false,"is_disabled":false,"rental_uris":{"android":"levelo://app?vid=1a8ae368-7abe-4003-b093-3ea0bcfe3058","ios":"levelo://app?vid=1a8ae368-7abe-4003-b093-3ea0bcfe3058"},"vehicle_type_id":"4","last_reported":1737774530,"current_range_meters":20400,"station_id":"ce4bhh12rcd13ifvqff0","pricing_plan_id":"cebpf4jnsgd1na2vs0mg"},{"bike_id":"354a0ed3-542c-4648-b29a-783f2de4680e","system_id":"levelo_inurba_marseille","lat":43.2769,"lon":5.38967,"is_reserved":false,"is_disabled":true,"rental_uris":{"android":"levelo://app?vid=354a0ed3-542c-4648-b29a-783f2de4680e","ios":"levelo://app?vid=354a0ed3-542c-4648-b29a-783f2de4680e"},"vehicle_type_id":"4","last_reported":1737774530,"current_range_meters":34800,"station_id":"ce4bhi12rcd13ifvqfo0","pricing_plan_id":"cebpf4jnsgd1na2vs0mg"},{"bike_id":"de2138ef-a74c-494c-8e5b-3f3a8e52ed6f","system_id":"levelo_inurba_marseille","lat":43.28436,"lon":5.39206,"is_reserved":false,"is_disabled":false,"rental_uris":{"android":"levelo://app?vid=de2138ef-a74c-494c-8e5b-3f3a8e52ed6f","ios":"levelo://app?vid=de2138ef-a74c-494c-8e5b-3f3a8e52ed6f"},"vehicle_type_id":"4","last_reported":1737774530,"current_range_meters":36000,"station_id":"ce4bhoh2rcd13ifvqh5g","pricing_plan_id":"cebpf4jnsgd1na2vs0mg"},{"bike_id":"b14b9162-1ca0-4d2b-adfa-733f9f41aacb","system_id":"levelo_inurba_marseille","lat":43.30769,"lon":5.37649,"is_reserved":false,"is_disabled":false,"rental_uris":{"android":"levelo://app?vid=b14b9162-1ca0-4d2b-adfa-733f9f41aacb","ios":"levelo://app?vid=b14b9162-1ca0-4d2b-adfa-733f9f41aacb"},"vehicle_type_id":"4","last_reported":1737774530,"current_range_meters":34000,"station_id":"ce4bgv92rcd13ifvqcq0","pricing_plan_id":"cebpf4jnsgd1na2vs0mg"},{"bike_id":"13ffeea6-4e88-4273-a218-3c5d61ae6af5","system_id":"levelo_inurba_marseille","lat":43.32107,"lon":5.36771,"is_reserved":false,"is_disabled":false,"rental_uris":{"android":"levelo://app?vid=13ffeea6-4e88-4273-a218-3c5d61ae6af5","ios":"levelo://app?vid=13ffeea6-4e88-4273-a218-3c5d61ae6af5"},"vehicle_type_id":"4","last_reported":1737774530,"current_range_meters":35200,"station_id":"ce4bhrh2rcd13ifvqhug","pricing_plan_id":"cebpf4jnsgd1na2vs0mg"},{"bike_id":"a3f27ed1-8dc2-4170-b68e-53c0afd06641","system_id":"levelo_inurba_marseille","lat":43.26795,"lon":5.394098,"is_reserved":false,"is_disabled":false,"rental_uris":{"android":"levelo://app?vid=a3f27ed1-8dc2-4170-b68e-53c0afd06641","ios":"levelo://app?vid=a3f27ed1-8dc2-4170-b68e-53c0afd06641"},"vehicle_type_id":"4","last_reported":1737774530,"current_range_meters":38800,"station_id":"ce4bhh12rcd13ifvqfg0","pricing_plan_id":"cebpf4jnsgd1na2vs0mg"},{"bike_id":"f7056aa3-3530-4d26-9d7f-58e06b1fd1ad","system_id":"levelo_inurba_marseille","lat":43.29379,"lon":5.378551,"is_reserved":false,"is_disabled":true,"rental_uris":{"android":"levelo://app?vid=f7056aa3-3530-4d26-9d7f-58e06b1fd1ad","ios":"levelo://app?vid=f7056aa3-3530-4d26-9d7f-58e06b1fd1ad"},"vehicle_type_id":"4","last_reported":1737774530,"current_range_meters":36400,"station_id":"ce4bgjh2rcd13ifvqbf0","pricing_plan_id":"cebpf4jnsgd1na2vs0mg"},{"bike_id":"11cc95e4-3cf9-4012-822f-515c26b74bb6","system_id":"levelo_inurba_marseille","lat":43.33598,"lon":5.41025,"is_reserved":false,"is_disabled":false,"rental_uris":{"android":"levelo://app?vid=11cc95e4-3cf9-4012-822f-515c26b74bb6","ios":"levelo://app?vid=11cc95e4-3cf9-4012-822f-515c26b74bb6"},"vehicle_type_id":"4","last_reported":1737774530,"current_range_meters":36800,"station_id":"ce4bhqh2rcd13ifvqhmg","pricing_plan_id":"cebpf4jnsgd1na2vs0mg"},{"bike_id":"c7782ad1-e241-4984-be82-b94ec303cf6b","system_id":"levelo_inurba_marseille","lat":43.27823,"lon":5.39211,"is_reserved":false,"is_disabled":false,"rental_uris":{"android":"levelo://app?vid=c7782ad1-e241-4984-be82-b94ec303cf6b","ios":"levelo://app?vid=c7782ad1-e241-4984-be82-b94ec303cf6b"},"vehicle_type_id":"4","last_reported":1737774530,"current_range_meters":39200,"station_id":"ce4bhjp2rcd13ifvqga0","pricing_plan_id":"cebpf4jnsgd1na2vs0mg"},{"bike_id":"afea86d0-c540-40e6-902d-9f55c8e116f2","system_id":"levelo_inurba_marseille","lat":43.257186,"lon":5.41115,"is_reserved":false,"is_disabled":false,"rental_uris":{"android":"levelo://app?vid=afea86d0-c540-40e6-902d-9f55c8e116f2","ios":"levelo://app?vid=afea86d0-c540-40e6-902d-9f55c8e116f2"},"vehicle_type_id":"4","last_reported":1737774530,"current_range_meters":38000,"station_id":"ce4bhkp2rcd13ifvqgd0","pricing_plan_id":"cebpf4jnsgd1na2vs0mg"},{"bike_id":"7163b50e-f30c-4d07-817b-00137a631fae","system_id":"levelo_inurba_marseille","lat":43.28711,"lon":5.40001,"is_reserved":false,"is_disabled":false,"rental_uris":{"android":"levelo://app?vid=7163b50e-f30c-4d07-817b-00137a631fae","ios":"levelo://app?vid=7163b50e-f30c-4d07-817b-00137a631fae"},"vehicle_type_id":"4","last_reported":1737774530,"current_range_meters":38800,"station_id":"ce4bho92rcd13ifvqh3g","pricing_plan_id":"cebpf4jnsgd1na2vs0mg"},{"bike_id":"5d0ced69-255e-410b-9398-708d471fa8b7","system_id":"levelo_inurba_marseille","lat":43.303006,"lon":5.392091,"is_reserved":false,"is_disabled":true,"rental_uris":{"android":"levelo://app?vid=5d0ced69-255e-410b-9398-708d471fa8b7","ios":"levelo://app?vid=5d0ced69-255e-410b-9398-708d471fa8b7"},"vehicle_type_id":"4","last_reported":1737774530,"current_range_meters":33200,"station_id":"ce4bgkh2rcd13ifvqbk0","pricing_plan_id":"cebpf4jnsgd1na2vs0mg"},{"bike_id":"35614ed7-a0df-4792-bca2-a1978fcd9fab","system_id":"levelo_inurba_marseille","lat":43.30799,"lon":5.43531,"is_reserved":false,"is_disabled":false,"rental_uris":{"android":"levelo://app?vid=35614ed7-a0df-4792-bca2-a1978fcd9fab","ios":"levelo://app?vid=35614ed7-a0df-4792-bca2-a1978fcd9fab"},"vehicle_type_id":"4","last_reported":1737774530,"current_range_meters":36800,"station_id":"ce4bhph2rcd13ifvqheg","pricing_plan_id":"cebpf4jnsgd1na2vs0mg"},{"bike_id":"6d17c276-0a0b-4d66-8572-ced57eea72cc","system_id":"levelo_inurba_marseille","lat":43.33607,"lon":5.4099,"is_reserved":false,"is_disabled":false,"rental_uris":{"android":"levelo://app?vid=6d17c276-0a0b-4d66-8572-ced57eea72cc","ios":"levelo://app?vid=6d17c276-0a0b-4d66-8572-ced57eea72cc"},"vehicle_type_id":"4","last_reported":1737774530,"current_range_meters":16400,"station_id":"ce4bhqh2rcd13ifvqhmg","pricing_plan_id":"cebpf4jnsgd1na2vs0mg"},{"bike_id":"b3ebfb7c-352e-4177-b9de-af76ff1f216d","system_id":"levelo_inurba_marseille","lat":43.31078,"lon":5.38358,"is_reserved":false,"is_disabled":false,"rental_uris":{"android":"levelo://app?vid=b3ebfb7c-352e-4177-b9de-af76ff1f216d","ios":"levelo://app?vid=b3ebfb7c-352e-4177-b9de-af76ff1f216d"},"vehicle_type_id":"4","last_reported":1737774530,"current_range_meters":26800,"station_id":"ce4bgv92rcd13ifvqcr0","pricing_plan_id":"cebpf4jnsgd1na2vs0mg"},{"bike_id":"32c04320-9ec2-428b-9cd1-b5914294d434","system_id":"levelo_inurba_marseille","lat":43.28372,"lon":5.386437,"is_reserved":false,"is_disabled":false,"rental_uris":{"android":"levelo://app?vid=32c04320-9ec2-428b-9cd1-b5914294d434","ios":"levelo://app?vid=32c04320-9ec2-428b-9cd1-b5914294d434"},"vehicle_type_id":"4","last_reported":1737774530,"current_range_meters":39200,"station_id":"ce4bh492rcd13ifvqdvg","pricing_plan_id":"cebpf4jnsgd1na2vs0mg"},{"bike_id":"aa7c2d1d-ad0f-4973-9ef1-1d81d0c55a72","system_id":"levelo_inurba_marseille","lat":43.30884,"lon":5.39633,"is_reserved":false,"is_disabled":false,"rental_uris":{"android":"levelo://app?vid=aa7c2d1d-ad0f-4973-9ef1-1d81d0c55a72","ios":"levelo://app?vid=aa7c2d1d-ad0f-4973-9ef1-1d81d0c55a72"},"vehicle_type_id":"4","last_reported":1737774530,"current_range_meters":7200,"station_id":"ce4bh012rcd13ifvqcv0","pricing_plan_id":"cebpf4jnsgd1na2vs0mg"},{"bike_id":"d2cb21d3-cc32-48d3-b773-800826051dd6","system_id":"levelo_inurba_marseille","lat":43.330162,"lon":5.390431,"is_reserved":false,"is_disabled":false,"rental_uris":{"android":"levelo://app?vid=d2cb21d3-cc32-48d3-b773-800826051dd6","ios":"levelo://app?vid=d2cb21d3-cc32-48d3-b773-800826051dd6"},"vehicle_type_id":"4","last_reported":1737774530,"current_range_meters":38800,"station_id":"ce4bhr92rcd13ifvqhrg","pricing_plan_id":"cebpf4jnsgd1na2vs0mg"},{"bike_id":"243f758e-49c2-4db8-8a24-78ff597b2d3f","system_id":"levelo_inurba_marseille","lat":43.33608,"lon":5.41032,"is_reserved":false,"is_disabled":false,"rental_uris":{"android":"levelo://app?vid=243f758e-49c2-4db8-8a24-78ff597b2d3f","ios":"levelo://app?vid=243f758e-49c2-4db8-8a24-78ff597b2d3f"},"vehicle_type_id":"4","last_reported":1737774530,"current_range_meters":6000,"station_id":"ce4bhqh2rcd13ifvqhmg","pricing_plan_id":"cebpf4jnsgd1na2vs0mg"},{"bike_id":"23f6d70a-18ab-4652-842b-b500986d25fd","system_id":"levelo_inurba_marseille","lat":43.29186,"lon":5.35816,"is_reserved":false,"is_disabled":false,"rental_uris":{"android":"levelo://app?vid=23f6d70a-18ab-4652-842b-b500986d25fd","ios":"levelo://app?vid=23f6d70a-18ab-4652-842b-b500986d25fd"},"vehicle_type_id":"4","last_reported":1737774530,"current_range_meters":38800,"station_id":"ce4bhb12rcd13ifvqel0","pricing_plan_id":"cebpf4jnsgd1na2vs0mg"},{"bike_id":"1751fce2-cf09-42c4-909f-331d932110c8","system_id":"levelo_inurba_marseille","lat":43.308788,"lon":5.396354,"is_reserved":false,"is_disabled":true,"rental_uris":{"android":"levelo://app?vid=1751fce2-cf09-42c4-909f-331d932110c8","ios":"levelo://app?vid=1751fce2-cf09-42c4-909f-331d932110c8"},"vehicle_type_id":"4","last_reported":1737774530,"current_range_meters":20800,"station_id":"ce4bh012rcd13ifvqcv0","pricing_plan_id":"cebpf4jnsgd1na2vs0mg"},{"bike_id":"9e579858-e7c0-4e91-9bb1-4a23c5cf16fc","system_id":"levelo_inurba_marseille","lat":43.30256,"lon":5.40088,"is_reserved":false,"is_disabled":false,"rental_uris":{"android":"levelo://app?vid=9e579858-e7c0-4e91-9bb1-4a23c5cf16fc","ios":"levelo://app?vid=9e579858-e7c0-4e91-9bb1-4a23c5cf16fc"},"vehicle_type_id":"4","last_reported":1737774530,"current_range_meters":11600,"station_id":"ce4bgvh2rcd13ifvqcs0","pricing_plan_id":"cebpf4jnsgd1na2vs0mg"},{"bike_id":"fc840760-c6d7-47de-9420-cc3f4b7608bc","system_id":"levelo_inurba_marseille","lat":43.32365,"lon":5.36772,"is_reserved":false,"is_disabled":false,"rental_uris":{"android":"levelo://app?vid=fc840760-c6d7-47de-9420-cc3f4b7608bc","ios":"levelo://app?vid=fc840760-c6d7-47de-9420-cc3f4b7608bc"},"vehicle_type_id":"4","last_reported":1737774530,"current_range_meters":22400,"station_id":"ce4bhsh2rcd13ifvqi2g","pricing_plan_id":"cebpf4jnsgd1na2vs0mg"},{"bike_id":"921ce6a7-788f-4615-becc-ee4c10884fb4","system_id":"levelo_inurba_marseille","lat":43.269552,"lon":5.38634,"is_reserved":false,"is_disabled":false,"rental_uris":{"android":"levelo://app?vid=921ce6a7-788f-4615-becc-ee4c10884fb4","ios":"levelo://app?vid=921ce6a7-788f-4615-becc-ee4c10884fb4"},"vehicle_type_id":"4","last_reported":1737774530,"current_range_meters":38400,"station_id":"ce4bhh92rcd13ifvqfh0","pricing_plan_id":"cebpf4jnsgd1na2vs0mg"},{"bike_id":"94b987b4-9c8b-44e3-8df2-cd031ef2e189","system_id":"levelo_inurba_marseille","lat":43.31184,"lon":5.38698,"is_reserved":false,"is_disabled":false,"rental_uris":{"android":"levelo://app?vid=94b987b4-9c8b-44e3-8df2-cd031ef2e189","ios":"levelo://app?vid=94b987b4-9c8b-44e3-8df2-cd031ef2e189"},"vehicle_type_id":"4","last_reported":1737774530,"current_range_meters":38800,"station_id":"ce4bgv12rcd13ifvqcp0","pricing_plan_id":"cebpf4jnsgd1na2vs0mg"},{"bike_id":"dd0c0e86-ef73-48c7-98b7-b46e24f96f31","system_id":"levelo_inurba_marseille","lat":43.28703,"lon":5.36126,"is_reserved":false,"is_disabled":false,"rental_uris":{"android":"levelo://app?vid=dd0c0e86-ef73-48c7-98b7-b46e24f96f31","ios":"levelo://app?vid=dd0c0e86-ef73-48c7-98b7-b46e24f96f31"},"vehicle_type_id":"4","last_reported":1737774530,"current_range_meters":28400,"station_id":"cki0cbj6b192h4jlfktg","pricing_plan_id":"cebpf4jnsgd1na2vs0mg"},{"bike_id":"f64f75f7-0d77-4afc-813a-22ae7e7ffbe8","system_id":"levelo_inurba_marseille","lat":43.30648,"lon":5.40084,"is_reserved":false,"is_disabled":false,"rental_uris":{"android":"levelo://app?vid=f64f75f7-0d77-4afc-813a-22ae7e7ffbe8","ios":"levelo://app?vid=f64f75f7-0d77-4afc-813a-22ae7e7ffbe8"},"vehicle_type_id":"4","last_reported":1737774530,"current_range_meters":24000,"station_id":"ce4bh112rcd13ifvqda0","pricing_plan_id":"cebpf4jnsgd1na2vs0mg"},{"bike_id":"626b2b3f-65a1-4553-a718-59f9bb59e58e","system_id":"levelo_inurba_marseille","lat":43.29577,"lon":5.3998,"is_reserved":false,"is_disabled":false,"rental_uris":{"android":"levelo://app?vid=626b2b3f-65a1-4553-a718-59f9bb59e58e","ios":"levelo://app?vid=626b2b3f-65a1-4553-a718-59f9bb59e58e"},"vehicle_type_id":"4","last_reported":1737774530,"current_range_meters":32800,"station_id":"ce4bh312rcd13ifvqdj0","pricing_plan_id":"cebpf4jnsgd1na2vs0mg"},{"bike_id":"ea624404-124a-4128-9041-089ad79942c5","system_id":"levelo_inurba_marseille","lat":43.29552,"lon":5.42289,"is_reserved":false,"is_disabled":false,"rental_uris":{"android":"levelo://app?vid=ea624404-124a-4128-9041-089ad79942c5","ios":"levelo://app?vid=ea624404-124a-4128-9041-089ad79942c5"},"vehicle_type_id":"4","last_reported":1737774530,"current_range_meters":34000,"station_id":"ce4bhph2rcd13ifvqhdg","pricing_plan_id":"cebpf4jnsgd1na2vs0mg"},{"bike_id":"9863b7f9-4316-4322-9f6c-3cc66b0448e2","system_id":"levelo_inurba_marseille","lat":43.279439,"lon":5.389008,"is_reserved":false,"is_disabled":true,"rental_uris":{"android":"levelo://app?vid=9863b7f9-4316-4322-9f6c-3cc66b0448e2","ios":"levelo://app?vid=9863b7f9-4316-4322-9f6c-3cc66b0448e2"},"vehicle_type_id":"4","last_reported":1737774530,"current_range_meters":17600,"station_id":"","pricing_plan_id":"cebpf4jnsgd1na2vs0mg"},{"bike_id":"dbb7768e-3a47-4131-9a61-221a0e15cbea","system_id":"levelo_inurba_marseille","lat":43.28719,"lon":5.39969,"is_reserved":false,"is_disabled":false,"rental_uris":{"android":"levelo://app?vid=dbb7768e-3a47-4131-9a61-221a0e15cbea","ios":"levelo://app?vid=dbb7768e-3a47-4131-9a61-221a0e15cbea"},"vehicle_type_id":"4","last_reported":1737774530,"current_range_meters":23200,"station_id":"ce4bho92rcd13ifvqh3g","pricing_plan_id":"cebpf4jnsgd1na2vs0mg"},{"bike_id":"99dbffeb-1c5a-4dd9-965e-fb4860ebb73e","system_id":"levelo_inurba_marseille","lat":43.30811,"lon":5.38184,"is_reserved":false,"is_disabled":false,"rental_uris":{"android":"levelo://app?vid=99dbffeb-1c5a-4dd9-965e-fb4860ebb73e","ios":"levelo://app?vid=99dbffeb-1c5a-4dd9-965e-fb4860ebb73e"},"vehicle_type_id":"4","last_reported":1737774530,"current_range_meters":37600,"station_id":"ce4bgt12rcd13ifvqce0","pricing_plan_id":"cebpf4jnsgd1na2vs0mg"},{"bike_id":"6f020587-81b6-4a98-b339-f9e2d0b47b14","system_id":"levelo_inurba_marseille","lat":43.27077,"lon":5.42282,"is_reserved":false,"is_disabled":false,"rental_uris":{"android":"levelo://app?vid=6f020587-81b6-4a98-b339-f9e2d0b47b14","ios":"levelo://app?vid=6f020587-81b6-4a98-b339-f9e2d0b47b14"},"vehicle_type_id":"4","last_reported":1737774530,"current_range_meters":21600,"station_id":"ce4bhk92rcd13ifvqgb0","pricing_plan_id":"cebpf4jnsgd1na2vs0mg"},{"bike_id":"40276c2b-c10e-42ab-857d-43e7ecb22cd6","system_id":"levelo_inurba_marseille","lat":43.27189,"lon":5.409957,"is_reserved":false,"is_disabled":false,"rental_uris":{"android":"levelo://app?vid=40276c2b-c10e-42ab-857d-43e7ecb22cd6","ios":"levelo://app?vid=40276c2b-c10e-42ab-857d-43e7ecb22cd6"},"vehicle_type_id":"4","last_reported":1737774530,"current_range_meters":34800,"station_id":"ce4bhl12rcd13ifvqgf0","pricing_plan_id":"cebpf4jnsgd1na2vs0mg"},{"bike_id":"e30fe586-d52a-489f-8e54-564b5d80c32a","system_id":"levelo_inurba_marseille","lat":43.28924,"lon":5.36405,"is_reserved":false,"is_disabled":false,"rental_uris":{"android":"levelo://app?vid=e30fe586-d52a-489f-8e54-564b5d80c32a","ios":"levelo://app?vid=e30fe586-d52a-489f-8e54-564b5d80c32a"},"vehicle_type_id":"4","last_reported":1737774530,"current_range_meters":38800,"station_id":"ce4bhc92rcd13ifvqetg","pricing_plan_id":"cebpf4jnsgd1na2vs0mg"},{"bike_id":"0661138c-ae09-4831-a5ca-b52ad2ea4fd6","system_id":"levelo_inurba_marseille","lat":43.30912,"lon":5.37263,"is_reserved":false,"is_disabled":false,"rental_uris":{"android":"levelo://app?vid=0661138c-ae09-4831-a5ca-b52ad2ea4fd6","ios":"levelo://app?vid=0661138c-ae09-4831-a5ca-b52ad2ea4fd6"},"vehicle_type_id":"4","last_reported":1737774530,"current_range_meters":10000,"station_id":"","pricing_plan_id":"cebpf4jnsgd1na2vs0mg"},{"bike_id":"28b597d7-3bc3-4f2c-b318-1b3d29741383","system_id":"levelo_inurba_marseille","lat":43.25106,"lon":5.40324,"is_reserved":false,"is_disabled":false,"rental_uris":{"android":"levelo://app?vid=28b597d7-3bc3-4f2c-b318-1b3d29741383","ios":"levelo://app?vid=28b597d7-3bc3-4f2c-b318-1b3d29741383"},"vehicle_type_id":"4","last_reported":1737774530,"current_range_meters":27200,"station_id":"","pricing_plan_id":"cebpf4jnsgd1na2vs0mg"},{"bike_id":"f5f863d7-b443-4c5e-819b-5a99084db619","system_id":"levelo_inurba_marseille","lat":43.299713,"lon":5.371781,"is_reserved":false,"is_disabled":false,"rental_uris":{"android":"levelo://app?vid=f5f863d7-b443-4c5e-819b-5a99084db619","ios":"levelo://app?vid=f5f863d7-b443-4c5e-819b-5a99084db619"},"vehicle_type_id":"4","last_reported":1737774530,"current_range_meters":18000,"station_id":"ce4bgr92rcd13ifvqc7g","pricing_plan_id":"cebpf4jnsgd1na2vs0mg"},{"bike_id":"51c07fa8-9ac0-416c-83e8-cad4b7c735b8","system_id":"levelo_inurba_marseille","lat":43.27673,"lon":5.38929,"is_reserved":false,"is_disabled":false,"rental_uris":{"android":"levelo://app?vid=51c07fa8-9ac0-416c-83e8-cad4b7c735b8","ios":"levelo://app?vid=51c07fa8-9ac0-416c-83e8-cad4b7c735b8"},"vehicle_type_id":"4","last_reported":1737774530,"current_range_meters":37600,"station_id":"ce4bhi12rcd13ifvqfo0","pricing_plan_id":"cebpf4jnsgd1na2vs0mg"},{"bike_id":"25de2542-1bfa-4339-b5e3-b1aa2e18e3bf","system_id":"levelo_inurba_marseille","lat":43.3233,"lon":5.40625,"is_reserved":false,"is_disabled":false,"rental_uris":{"android":"levelo://app?vid=25de2542-1bfa-4339-b5e3-b1aa2e18e3bf","ios":"levelo://app?vid=25de2542-1bfa-4339-b5e3-b1aa2e18e3bf"},"vehicle_type_id":"4","last_reported":1737774530,"current_range_meters":19600,"station_id":"ce4bhq92rcd13ifvqhjg","pricing_plan_id":"cebpf4jnsgd1na2vs0mg"},{"bike_id":"cb34c09d-75c7-4b86-a04f-10301f39ae15","system_id":"levelo_inurba_marseille","lat":43.286999,"lon":5.399865,"is_reserved":false,"is_disabled":false,"rental_uris":{"android":"levelo://app?vid=cb34c09d-75c7-4b86-a04f-10301f39ae15","ios":"levelo://app?vid=cb34c09d-75c7-4b86-a04f-10301f39ae15"},"vehicle_type_id":"4","last_reported":1737774530,"current_range_meters":23200,"station_id":"ce4bho92rcd13ifvqh3g","pricing_plan_id":"cebpf4jnsgd1na2vs0mg"},{"bike_id":"0360ea45-d506-45c1-97b0-d45cf5b2aaea","system_id":"levelo_inurba_marseille","lat":43.29794,"lon":5.40406,"is_reserved":false,"is_disabled":false,"rental_uris":{"android":"levelo://app?vid=0360ea45-d506-45c1-97b0-d45cf5b2aaea","ios":"levelo://app?vid=0360ea45-d506-45c1-97b0-d45cf5b2aaea"},"vehicle_type_id":"4","last_reported":1737774530,"current_range_meters":38400,"station_id":"ce4bh112rcd13ifvqd90","pricing_plan_id":"cebpf4jnsgd1na2vs0mg"},{"bike_id":"f716f6a9-70e6-40ef-9b05-f7a8de90bad0","system_id":"levelo_inurba_marseille","lat":43.26959,"lon":5.3891,"is_reserved":false,"is_disabled":false,"rental_uris":{"android":"levelo://app?vid=f716f6a9-70e6-40ef-9b05-f7a8de90bad0","ios":"levelo://app?vid=f716f6a9-70e6-40ef-9b05-f7a8de90bad0"},"vehicle_type_id":"4","last_reported":1737774530,"current_range_meters":30400,"station_id":"ce4bhhh2rcd13ifvqfl0","pricing_plan_id":"cebpf4jnsgd1na2vs0mg"},{"bike_id":"2e95c2f9-54ee-4f43-9ca5-c70c6253eaff","system_id":"levelo_inurba_marseille","lat":43.29799,"lon":5.40417,"is_reserved":false,"is_disabled":false,"rental_uris":{"android":"levelo://app?vid=2e95c2f9-54ee-4f43-9ca5-c70c6253eaff","ios":"levelo://app?vid=2e95c2f9-54ee-4f43-9ca5-c70c6253eaff"},"vehicle_type_id":"4","last_reported":1737774530,"current_range_meters":39200,"station_id":"ce4bh112rcd13ifvqd90","pricing_plan_id":"cebpf4jnsgd1na2vs0mg"},{"bike_id":"f2f78da6-b14e-43df-a3f4-ba0ca5e4ef06","system_id":"levelo_inurba_marseille","lat":43.29271,"lon":5.40135,"is_reserved":false,"is_disabled":false,"rental_uris":{"android":"levelo://app?vid=f2f78da6-b14e-43df-a3f4-ba0ca5e4ef06","ios":"levelo://app?vid=f2f78da6-b14e-43df-a3f4-ba0ca5e4ef06"},"vehicle_type_id":"4","last_reported":1737774530,"current_range_meters":39200,"station_id":"ce4bh312rcd13ifvqdk0","pricing_plan_id":"cebpf4jnsgd1na2vs0mg"},{"bike_id":"994af511-ccca-488a-8537-a60db72ca6b4","system_id":"levelo_inurba_marseille","lat":43.28824,"lon":5.35893,"is_reserved":false,"is_disabled":false,"rental_uris":{"android":"levelo://app?vid=994af511-ccca-488a-8537-a60db72ca6b4","ios":"levelo://app?vid=994af511-ccca-488a-8537-a60db72ca6b4"},"vehicle_type_id":"4","last_reported":1737774530,"current_range_meters":6800,"station_id":"","pricing_plan_id":"cebpf4jnsgd1na2vs0mg"},{"bike_id":"913b15eb-bd1c-41d5-8e95-147160472349","system_id":"levelo_inurba_marseille","lat":43.29965,"lon":5.37216,"is_reserved":false,"is_disabled":false,"rental_uris":{"android":"levelo://app?vid=913b15eb-bd1c-41d5-8e95-147160472349","ios":"levelo://app?vid=913b15eb-bd1c-41d5-8e95-147160472349"},"vehicle_type_id":"4","last_reported":1737774530,"current_range_meters":28400,"station_id":"ce4bgr92rcd13ifvqc7g","pricing_plan_id":"cebpf4jnsgd1na2vs0mg"},{"bike_id":"6f0e28ce-024f-4cd7-923a-80deb29961a7","system_id":"levelo_inurba_marseille","lat":43.32974,"lon":5.39005,"is_reserved":false,"is_disabled":false,"rental_uris":{"android":"levelo://app?vid=6f0e28ce-024f-4cd7-923a-80deb29961a7","ios":"levelo://app?vid=6f0e28ce-024f-4cd7-923a-80deb29961a7"},"vehicle_type_id":"4","last_reported":1737774530,"current_range_meters":38800,"station_id":"ce4bhr92rcd13ifvqhrg","pricing_plan_id":"cebpf4jnsgd1na2vs0mg"},{"bike_id":"eed57a7a-9668-4c32-b747-c07a705e5d8a","system_id":"levelo_inurba_marseille","lat":43.27832,"lon":5.39195,"is_reserved":false,"is_disabled":false,"rental_uris":{"android":"levelo://app?vid=eed57a7a-9668-4c32-b747-c07a705e5d8a","ios":"levelo://app?vid=eed57a7a-9668-4c32-b747-c07a705e5d8a"},"vehicle_type_id":"4","last_reported":1737774530,"current_range_meters":38800,"station_id":"ce4bhjp2rcd13ifvqga0","pricing_plan_id":"cebpf4jnsgd1na2vs0mg"},{"bike_id":"40b6cda8-6873-488f-a704-cb2c98a39960","system_id":"levelo_inurba_marseille","lat":43.28074,"lon":5.39656,"is_reserved":false,"is_disabled":false,"rental_uris":{"android":"levelo://app?vid=40b6cda8-6873-488f-a704-cb2c98a39960","ios":"levelo://app?vid=40b6cda8-6873-488f-a704-cb2c98a39960"},"vehicle_type_id":"4","last_reported":1737774530,"current_range_meters":37600,"station_id":"ce4bho12rcd13ifvqh2g","pricing_plan_id":"cebpf4jnsgd1na2vs0mg"},{"bike_id":"7c78a755-c7f5-4f07-a96b-621451d47948","system_id":"levelo_inurba_marseille","lat":43.298994,"lon":5.436592,"is_reserved":false,"is_disabled":false,"rental_uris":{"android":"levelo://app?vid=7c78a755-c7f5-4f07-a96b-621451d47948","ios":"levelo://app?vid=7c78a755-c7f5-4f07-a96b-621451d47948"},"vehicle_type_id":"4","last_reported":1737774530,"current_range_meters":37600,"station_id":"ce4bhpp2rcd13ifvqhfg","pricing_plan_id":"cebpf4jnsgd1na2vs0mg"},{"bike_id":"463febe7-6849-47a3-b224-aca42afbcbf7","system_id":"levelo_inurba_marseille","lat":43.308893,"lon":5.371962,"is_reserved":false,"is_disabled":false,"rental_uris":{"android":"levelo://app?vid=463febe7-6849-47a3-b224-aca42afbcbf7","ios":"levelo://app?vid=463febe7-6849-47a3-b224-aca42afbcbf7"},"vehicle_type_id":"4","last_reported":1737774530,"current_range_meters":38000,"station_id":"ce4bguh2rcd13ifvqckg","pricing_plan_id":"cebpf4jnsgd1na2vs0mg"},{"bike_id":"816aa826-5ae6-4851-821c-832d952a2ba5","system_id":"levelo_inurba_marseille","lat":43.28941,"lon":5.36371,"is_reserved":false,"is_disabled":false,"rental_uris":{"android":"levelo://app?vid=816aa826-5ae6-4851-821c-832d952a2ba5","ios":"levelo://app?vid=816aa826-5ae6-4851-821c-832d952a2ba5"},"vehicle_type_id":"4","last_reported":1737774530,"current_range_meters":36000,"station_id":"ce4bhc92rcd13ifvqetg","pricing_plan_id":"cebpf4jnsgd1na2vs0mg"},{"bike_id":"0dc3f756-9bc0-48a6-a393-8ebe352713b2","system_id":"levelo_inurba_marseille","lat":43.31178,"lon":5.38725,"is_reserved":false,"is_disabled":false,"rental_uris":{"android":"levelo://app?vid=0dc3f756-9bc0-48a6-a393-8ebe352713b2","ios":"levelo://app?vid=0dc3f756-9bc0-48a6-a393-8ebe352713b2"},"vehicle_type_id":"4","last_reported":1737774530,"current_range_meters":19200,"station_id":"ce4bgv12rcd13ifvqcp0","pricing_plan_id":"cebpf4jnsgd1na2vs0mg"},{"bike_id":"3330f026-8ad6-4e14-a5cd-4b9e97a67a00","system_id":"levelo_inurba_marseille","lat":43.28861,"lon":5.35862,"is_reserved":false,"is_disabled":false,"rental_uris":{"android":"levelo://app?vid=3330f026-8ad6-4e14-a5cd-4b9e97a67a00","ios":"levelo://app?vid=3330f026-8ad6-4e14-a5cd-4b9e97a67a00"},"vehicle_type_id":"4","last_reported":1737774530,"current_range_meters":37600,"station_id":"ce4bhb12rcd13ifvqem0","pricing_plan_id":"cebpf4jnsgd1na2vs0mg"},{"bike_id":"498de11a-cfe5-4f2f-bb2b-40aef463a401","system_id":"levelo_inurba_marseille","lat":43.23194,"lon":5.39971,"is_reserved":false,"is_disabled":false,"rental_uris":{"android":"levelo://app?vid=498de11a-cfe5-4f2f-bb2b-40aef463a401","ios":"levelo://app?vid=498de11a-cfe5-4f2f-bb2b-40aef463a401"},"vehicle_type_id":"4","last_reported":1737774530,"current_range_meters":4000,"station_id":"ce4bhn12rcd13ifvqgqg","pricing_plan_id":"cebpf4jnsgd1na2vs0mg"},{"bike_id":"e6144616-07f5-4c03-a1a3-4500e9f15267","system_id":"levelo_inurba_marseille","lat":43.28718,"lon":5.361,"is_reserved":false,"is_disabled":false,"rental_uris":{"android":"levelo://app?vid=e6144616-07f5-4c03-a1a3-4500e9f15267","ios":"levelo://app?vid=e6144616-07f5-4c03-a1a3-4500e9f15267"},"vehicle_type_id":"4","last_reported":1737774530,"current_range_meters":38800,"station_id":"cki0cbj6b192h4jlfktg","pricing_plan_id":"cebpf4jnsgd1na2vs0mg"},{"bike_id":"efa8d0bb-175a-47b4-a992-4f80c32ca8e5","system_id":"levelo_inurba_marseille","lat":43.286953,"lon":5.399833,"is_reserved":false,"is_disabled":false,"rental_uris":{"android":"levelo://app?vid=efa8d0bb-175a-47b4-a992-4f80c32ca8e5","ios":"levelo://app?vid=efa8d0bb-175a-47b4-a992-4f80c32ca8e5"},"vehicle_type_id":"4","last_reported":1737774530,"current_range_meters":32000,"station_id":"ce4bho92rcd13ifvqh3g","pricing_plan_id":"cebpf4jnsgd1na2vs0mg"},{"bike_id":"ec246f4f-03f2-443f-a597-3319b523fee3","system_id":"levelo_inurba_marseille","lat":43.30242,"lon":5.40019,"is_reserved":false,"is_disabled":false,"rental_uris":{"android":"levelo://app?vid=ec246f4f-03f2-443f-a597-3319b523fee3","ios":"levelo://app?vid=ec246f4f-03f2-443f-a597-3319b523fee3"},"vehicle_type_id":"4","last_reported":1737774530,"current_range_meters":34800,"station_id":"","pricing_plan_id":"cebpf4jnsgd1na2vs0mg"},{"bike_id":"29aefc36-f7e8-4c0d-b8db-29a513c4635e","system_id":"levelo_inurba_marseille","lat":43.25863,"lon":5.39899,"is_reserved":false,"is_disabled":false,"rental_uris":{"android":"levelo://app?vid=29aefc36-f7e8-4c0d-b8db-29a513c4635e","ios":"levelo://app?vid=29aefc36-f7e8-4c0d-b8db-29a513c4635e"},"vehicle_type_id":"4","last_reported":1737774530,"current_range_meters":38000,"station_id":"ce4bhl92rcd13ifvqghg","pricing_plan_id":"cebpf4jnsgd1na2vs0mg"},{"bike_id":"8acb948b-4323-4635-a547-c87000c544f0","system_id":"levelo_inurba_marseille","lat":43.24636,"lon":5.38893,"is_reserved":false,"is_disabled":false,"rental_uris":{"android":"levelo://app?vid=8acb948b-4323-4635-a547-c87000c544f0","ios":"levelo://app?vid=8acb948b-4323-4635-a547-c87000c544f0"},"vehicle_type_id":"4","last_reported":1737774530,"current_range_meters":36800,"station_id":"ce4bhg12rcd13ifvqf60","pricing_plan_id":"cebpf4jnsgd1na2vs0mg"},{"bike_id":"6da49172-5410-4e3a-88e4-0f5003388170","system_id":"levelo_inurba_marseille","lat":43.27303,"lon":5.39111,"is_reserved":false,"is_disabled":false,"rental_uris":{"android":"levelo://app?vid=6da49172-5410-4e3a-88e4-0f5003388170","ios":"levelo://app?vid=6da49172-5410-4e3a-88e4-0f5003388170"},"vehicle_type_id":"4","last_reported":1737774530,"current_range_meters":35200,"station_id":"ce4bhgp2rcd13ifvqfe0","pricing_plan_id":"cebpf4jnsgd1na2vs0mg"},{"bike_id":"a7ab555b-eb0a-418b-8f80-74584e92411f","system_id":"levelo_inurba_marseille","lat":43.317595,"lon":5.390163,"is_reserved":false,"is_disabled":false,"rental_uris":{"android":"levelo://app?vid=a7ab555b-eb0a-418b-8f80-74584e92411f","ios":"levelo://app?vid=a7ab555b-eb0a-418b-8f80-74584e92411f"},"vehicle_type_id":"4","last_reported":1737774530,"current_range_meters":38800,"station_id":"ce4bhqp2rcd13ifvqhng","pricing_plan_id":"cebpf4jnsgd1na2vs0mg"},{"bike_id":"09dd8ffe-8d05-4d69-b6dd-462340d9ddee","system_id":"levelo_inurba_marseille","lat":43.31882,"lon":5.40738,"is_reserved":false,"is_disabled":false,"rental_uris":{"android":"levelo://app?vid=09dd8ffe-8d05-4d69-b6dd-462340d9ddee","ios":"levelo://app?vid=09dd8ffe-8d05-4d69-b6dd-462340d9ddee"},"vehicle_type_id":"4","last_reported":1737774530,"current_range_meters":16400,"station_id":"ce4bhq12rcd13ifvqhig","pricing_plan_id":"cebpf4jnsgd1na2vs0mg"},{"bike_id":"9f0c46f0-4fb9-4e17-b4b9-e5ede73a87dc","system_id":"levelo_inurba_marseille","lat":43.32356,"lon":5.38902,"is_reserved":false,"is_disabled":false,"rental_uris":{"android":"levelo://app?vid=9f0c46f0-4fb9-4e17-b4b9-e5ede73a87dc","ios":"levelo://app?vid=9f0c46f0-4fb9-4e17-b4b9-e5ede73a87dc"},"vehicle_type_id":"4","last_reported":1737774530,"current_range_meters":30800,"station_id":"ce4bhqp2rcd13ifvqhog","pricing_plan_id":"cebpf4jnsgd1na2vs0mg"},{"bike_id":"b3d42bc6-7e52-490b-a9d8-fabbe9d6beb1","system_id":"levelo_inurba_marseille","lat":43.2988,"lon":5.39733,"is_reserved":false,"is_disabled":false,"rental_uris":{"android":"levelo://app?vid=b3d42bc6-7e52-490b-a9d8-fabbe9d6beb1","ios":"levelo://app?vid=b3d42bc6-7e52-490b-a9d8-fabbe9d6beb1"},"vehicle_type_id":"4","last_reported":1737774530,"current_range_meters":31200,"station_id":"ce4bh0h2rcd13ifvqd50","pricing_plan_id":"cebpf4jnsgd1na2vs0mg"},{"bike_id":"8e859fdc-5db3-4555-84a1-99c3c245fdf9","system_id":"levelo_inurba_marseille","lat":43.24396,"lon":5.37064,"is_reserved":false,"is_disabled":false,"rental_uris":{"android":"levelo://app?vid=8e859fdc-5db3-4555-84a1-99c3c245fdf9","ios":"levelo://app?vid=8e859fdc-5db3-4555-84a1-99c3c245fdf9"},"vehicle_type_id":"4","last_reported":1737774530,"current_range_meters":25600,"station_id":"ce4bhhh2rcd13ifvqfk0","pricing_plan_id":"cebpf4jnsgd1na2vs0mg"},{"bike_id":"e4ed854e-f33a-4b3e-be7f-fecba4659c35","system_id":"levelo_inurba_marseille","lat":43.307776,"lon":5.37655,"is_reserved":false,"is_disabled":false,"rental_uris":{"android":"levelo://app?vid=e4ed854e-f33a-4b3e-be7f-fecba4659c35","ios":"levelo://app?vid=e4ed854e-f33a-4b3e-be7f-fecba4659c35"},"vehicle_type_id":"4","last_reported":1737774530,"current_range_meters":24400,"station_id":"ce4bgv92rcd13ifvqcq0","pricing_plan_id":"cebpf4jnsgd1na2vs0mg"},{"bike_id":"fe3679b4-09f6-4e41-9aae-9d00892cb93e","system_id":"levelo_inurba_marseille","lat":43.23202,"lon":5.35551,"is_reserved":false,"is_disabled":false,"rental_uris":{"android":"levelo://app?vid=fe3679b4-09f6-4e41-9aae-9d00892cb93e","ios":"levelo://app?vid=fe3679b4-09f6-4e41-9aae-9d00892cb93e"},"vehicle_type_id":"4","last_reported":1737774530,"current_range_meters":14800,"station_id":"ce4bhu92rcd13ifvqi70","pricing_plan_id":"cebpf4jnsgd1na2vs0mg"},{"bike_id":"ec83d336-bb57-4f7c-9458-2f829bed741b","system_id":"levelo_inurba_marseille","lat":43.31321,"lon":5.39712,"is_reserved":false,"is_disabled":false,"rental_uris":{"android":"levelo://app?vid=ec83d336-bb57-4f7c-9458-2f829bed741b","ios":"levelo://app?vid=ec83d336-bb57-4f7c-9458-2f829bed741b"},"vehicle_type_id":"4","last_reported":1737774530,"current_range_meters":28400,"station_id":"ce4bgvp2rcd13ifvqcu0","pricing_plan_id":"cebpf4jnsgd1na2vs0mg"},{"bike_id":"ebeeb7e2-beaa-4186-8301-8672d701a962","system_id":"levelo_inurba_marseille","lat":43.27835,"lon":5.39203,"is_reserved":false,"is_disabled":false,"rental_uris":{"android":"levelo://app?vid=ebeeb7e2-beaa-4186-8301-8672d701a962","ios":"levelo://app?vid=ebeeb7e2-beaa-4186-8301-8672d701a962"},"vehicle_type_id":"4","last_reported":1737774530,"current_range_meters":30000,"station_id":"ce4bhjp2rcd13ifvqga0","pricing_plan_id":"cebpf4jnsgd1na2vs0mg"},{"bike_id":"94a409f5-c725-4cec-9668-bc63f3f1fff2","system_id":"levelo_inurba_marseille","lat":43.30157,"lon":5.3664,"is_reserved":false,"is_disabled":false,"rental_uris":{"android":"levelo://app?vid=94a409f5-c725-4cec-9668-bc63f3f1fff2","ios":"levelo://app?vid=94a409f5-c725-4cec-9668-bc63f3f1fff2"},"vehicle_type_id":"4","last_reported":1737774530,"current_range_meters":37600,"station_id":"ce4bgrh2rcd13ifvqc8g","pricing_plan_id":"cebpf4jnsgd1na2vs0mg"},{"bike_id":"1fa3ed75-21f9-4b4a-a2ad-a96d5bf08b88","system_id":"levelo_inurba_marseille","lat":43.309138,"lon":5.40168,"is_reserved":false,"is_disabled":true,"rental_uris":{"android":"levelo://app?vid=1fa3ed75-21f9-4b4a-a2ad-a96d5bf08b88","ios":"levelo://app?vid=1fa3ed75-21f9-4b4a-a2ad-a96d5bf08b88"},"vehicle_type_id":"4","last_reported":1737774530,"current_range_meters":0,"station_id":"ce4bgvp2rcd13ifvqct0","pricing_plan_id":"cebpf4jnsgd1na2vs0mg"},{"bike_id":"f1306753-0741-4054-bb1e-176ba35f7013","system_id":"levelo_inurba_marseille","lat":43.24807,"lon":5.37456,"is_reserved":false,"is_disabled":false,"rental_uris":{"android":"levelo://app?vid=f1306753-0741-4054-bb1e-176ba35f7013","ios":"levelo://app?vid=f1306753-0741-4054-bb1e-176ba35f7013"},"vehicle_type_id":"4","last_reported":1737774530,"current_range_meters":8800,"station_id":"ce4bhgh2rcd13ifvqfb0","pricing_plan_id":"cebpf4jnsgd1na2vs0mg"},{"bike_id":"2d4bf5a7-c787-4ef1-85d1-ba4e520467b9","system_id":"levelo_inurba_marseille","lat":43.30945,"lon":5.39032,"is_reserved":false,"is_disabled":false,"rental_uris":{"android":"levelo://app?vid=2d4bf5a7-c787-4ef1-85d1-ba4e520467b9","ios":"levelo://app?vid=2d4bf5a7-c787-4ef1-85d1-ba4e520467b9"},"vehicle_type_id":"4","last_reported":1737774530,"current_range_meters":32800,"station_id":"ce4bgup2rcd13ifvqco0","pricing_plan_id":"cebpf4jnsgd1na2vs0mg"},{"bike_id":"52992c76-e8f1-43a9-8a4e-0d88bd811a27","system_id":"levelo_inurba_marseille","lat":43.29618,"lon":5.37183,"is_reserved":false,"is_disabled":false,"rental_uris":{"android":"levelo://app?vid=52992c76-e8f1-43a9-8a4e-0d88bd811a27","ios":"levelo://app?vid=52992c76-e8f1-43a9-8a4e-0d88bd811a27"},"vehicle_type_id":"4","last_reported":1737774530,"current_range_meters":26800,"station_id":"ce4bgnh2rcd13ifvqc0g","pricing_plan_id":"cebpf4jnsgd1na2vs0mg"},{"bike_id":"16cba4e1-cb10-44ef-b1a1-eca95385335f","system_id":"levelo_inurba_marseille","lat":43.28424,"lon":5.34997,"is_reserved":false,"is_disabled":true,"rental_uris":{"android":"levelo://app?vid=16cba4e1-cb10-44ef-b1a1-eca95385335f","ios":"levelo://app?vid=16cba4e1-cb10-44ef-b1a1-eca95385335f"},"vehicle_type_id":"4","last_reported":1737774530,"current_range_meters":18800,"station_id":"ce4bhbh2rcd13ifvqepg","pricing_plan_id":"cebpf4jnsgd1na2vs0mg"},{"bike_id":"cfdd9036-eeea-4da2-8257-dc703fa86ba2","system_id":"levelo_inurba_marseille","lat":43.27977,"lon":5.4424,"is_reserved":false,"is_disabled":false,"rental_uris":{"android":"levelo://app?vid=cfdd9036-eeea-4da2-8257-dc703fa86ba2","ios":"levelo://app?vid=cfdd9036-eeea-4da2-8257-dc703fa86ba2"},"vehicle_type_id":"4","last_reported":1737774530,"current_range_meters":20000,"station_id":"","pricing_plan_id":"cebpf4jnsgd1na2vs0mg"},{"bike_id":"97b5cf78-4260-492c-ae68-5d0c40c5ac3f","system_id":"levelo_inurba_marseille","lat":43.28717,"lon":5.36088,"is_reserved":false,"is_disabled":false,"rental_uris":{"android":"levelo://app?vid=97b5cf78-4260-492c-ae68-5d0c40c5ac3f","ios":"levelo://app?vid=97b5cf78-4260-492c-ae68-5d0c40c5ac3f"},"vehicle_type_id":"4","last_reported":1737774530,"current_range_meters":38800,"station_id":"cki0cbj6b192h4jlfktg","pricing_plan_id":"cebpf4jnsgd1na2vs0mg"},{"bike_id":"8f95ba33-42c6-4f3d-88c6-8fbe4c3c35d2","system_id":"levelo_inurba_marseille","lat":43.323422,"lon":5.406142,"is_reserved":false,"is_disabled":false,"rental_uris":{"android":"levelo://app?vid=8f95ba33-42c6-4f3d-88c6-8fbe4c3c35d2","ios":"levelo://app?vid=8f95ba33-42c6-4f3d-88c6-8fbe4c3c35d2"},"vehicle_type_id":"4","last_reported":1737774530,"current_range_meters":11600,"station_id":"ce4bhq92rcd13ifvqhjg","pricing_plan_id":"cebpf4jnsgd1na2vs0mg"},{"bike_id":"8f5afff4-e04c-4492-9553-1f80253820f6","system_id":"levelo_inurba_marseille","lat":43.27312,"lon":5.3908,"is_reserved":false,"is_disabled":false,"rental_uris":{"android":"levelo://app?vid=8f5afff4-e04c-4492-9553-1f80253820f6","ios":"levelo://app?vid=8f5afff4-e04c-4492-9553-1f80253820f6"},"vehicle_type_id":"4","last_reported":1737774530,"current_range_meters":20800,"station_id":"ce4bhgp2rcd13ifvqfe0","pricing_plan_id":"cebpf4jnsgd1na2vs0mg"},{"bike_id":"cc2ff694-7157-41f3-add9-3190c75e9cf3","system_id":"levelo_inurba_marseille","lat":43.325352,"lon":5.414657,"is_reserved":false,"is_disabled":false,"rental_uris":{"android":"levelo://app?vid=cc2ff694-7157-41f3-add9-3190c75e9cf3","ios":"levelo://app?vid=cc2ff694-7157-41f3-add9-3190c75e9cf3"},"vehicle_type_id":"4","last_reported":1737774530,"current_range_meters":37600,"station_id":"ce4bhq12rcd13ifvqhhg","pricing_plan_id":"cebpf4jnsgd1na2vs0mg"},{"bike_id":"d5aafd8b-3cbb-4ddc-bcf8-fd91d97934ed","system_id":"levelo_inurba_marseille","lat":43.30435,"lon":5.38899,"is_reserved":false,"is_disabled":false,"rental_uris":{"android":"levelo://app?vid=d5aafd8b-3cbb-4ddc-bcf8-fd91d97934ed","ios":"levelo://app?vid=d5aafd8b-3cbb-4ddc-bcf8-fd91d97934ed"},"vehicle_type_id":"4","last_reported":1737774530,"current_range_meters":12800,"station_id":"ce4bgk12rcd13ifvqbi0","pricing_plan_id":"cebpf4jnsgd1na2vs0mg"},{"bike_id":"209a1569-01ac-4fff-97a7-34a29e8a68c2","system_id":"levelo_inurba_marseille","lat":43.32286,"lon":5.38271,"is_reserved":false,"is_disabled":false,"rental_uris":{"android":"levelo://app?vid=209a1569-01ac-4fff-97a7-34a29e8a68c2","ios":"levelo://app?vid=209a1569-01ac-4fff-97a7-34a29e8a68c2"},"vehicle_type_id":"4","last_reported":1737774530,"current_range_meters":38800,"station_id":"ce4bhr12rcd13ifvqhqg","pricing_plan_id":"cebpf4jnsgd1na2vs0mg"},{"bike_id":"c7cc5289-5e74-4eeb-a4be-1042ece43e7c","system_id":"levelo_inurba_marseille","lat":43.31707,"lon":5.377601,"is_reserved":false,"is_disabled":false,"rental_uris":{"android":"levelo://app?vid=c7cc5289-5e74-4eeb-a4be-1042ece43e7c","ios":"levelo://app?vid=c7cc5289-5e74-4eeb-a4be-1042ece43e7c"},"vehicle_type_id":"4","last_reported":1737774530,"current_range_meters":38800,"station_id":"ce4bgth2rcd13ifvqch0","pricing_plan_id":"cebpf4jnsgd1na2vs0mg"},{"bike_id":"dbc4924d-2182-4252-885c-c7d7b84eb525","system_id":"levelo_inurba_marseille","lat":43.30643,"lon":5.40079,"is_reserved":false,"is_disabled":false,"rental_uris":{"android":"levelo://app?vid=dbc4924d-2182-4252-885c-c7d7b84eb525","ios":"levelo://app?vid=dbc4924d-2182-4252-885c-c7d7b84eb525"},"vehicle_type_id":"4","last_reported":1737774530,"current_range_meters":39200,"station_id":"ce4bh112rcd13ifvqda0","pricing_plan_id":"cebpf4jnsgd1na2vs0mg"},{"bike_id":"45b366a6-6abc-4401-bb9e-1aee69db2cae","system_id":"levelo_inurba_marseille","lat":43.28091,"lon":5.3966,"is_reserved":false,"is_disabled":false,"rental_uris":{"android":"levelo://app?vid=45b366a6-6abc-4401-bb9e-1aee69db2cae","ios":"levelo://app?vid=45b366a6-6abc-4401-bb9e-1aee69db2cae"},"vehicle_type_id":"4","last_reported":1737774530,"current_range_meters":29600,"station_id":"ce4bho12rcd13ifvqh2g","pricing_plan_id":"cebpf4jnsgd1na2vs0mg"},{"bike_id":"19842c68-0f75-4e7c-9a81-431c39099c5e","system_id":"levelo_inurba_marseille","lat":43.24812,"lon":5.374525,"is_reserved":false,"is_disabled":false,"rental_uris":{"android":"levelo://app?vid=19842c68-0f75-4e7c-9a81-431c39099c5e","ios":"levelo://app?vid=19842c68-0f75-4e7c-9a81-431c39099c5e"},"vehicle_type_id":"4","last_reported":1737774530,"current_range_meters":14000,"station_id":"ce4bhgh2rcd13ifvqfb0","pricing_plan_id":"cebpf4jnsgd1na2vs0mg"},{"bike_id":"5131c065-5635-4935-830a-3afe5524a963","system_id":"levelo_inurba_marseille","lat":43.31276,"lon":5.40168,"is_reserved":false,"is_disabled":false,"rental_uris":{"android":"levelo://app?vid=5131c065-5635-4935-830a-3afe5524a963","ios":"levelo://app?vid=5131c065-5635-4935-830a-3afe5524a963"},"vehicle_type_id":"4","last_reported":1737774530,"current_range_meters":39200,"station_id":"ce4bh092rcd13ifvqd30","pricing_plan_id":"cebpf4jnsgd1na2vs0mg"},{"bike_id":"6a538206-cc89-4357-8599-be92c7340db2","system_id":"levelo_inurba_marseille","lat":43.31323,"lon":5.39696,"is_reserved":false,"is_disabled":false,"rental_uris":{"android":"levelo://app?vid=6a538206-cc89-4357-8599-be92c7340db2","ios":"levelo://app?vid=6a538206-cc89-4357-8599-be92c7340db2"},"vehicle_type_id":"4","last_reported":1737774530,"current_range_meters":24800,"station_id":"ce4bgvp2rcd13ifvqcu0","pricing_plan_id":"cebpf4jnsgd1na2vs0mg"},{"bike_id":"de0c0827-2602-4849-a3c4-71a6fdb88560","system_id":"levelo_inurba_marseille","lat":43.33035,"lon":5.39054,"is_reserved":false,"is_disabled":false,"rental_uris":{"android":"levelo://app?vid=de0c0827-2602-4849-a3c4-71a6fdb88560","ios":"levelo://app?vid=de0c0827-2602-4849-a3c4-71a6fdb88560"},"vehicle_type_id":"4","last_reported":1737774530,"current_range_meters":28000,"station_id":"ce4bhr92rcd13ifvqhrg","pricing_plan_id":"cebpf4jnsgd1na2vs0mg"},{"bike_id":"f4a67fd7-7ba0-462e-b321-724410a83bc3","system_id":"levelo_inurba_marseille","lat":43.286102,"lon":5.350942,"is_reserved":false,"is_disabled":true,"rental_uris":{"android":"levelo://app?vid=f4a67fd7-7ba0-462e-b321-724410a83bc3","ios":"levelo://app?vid=f4a67fd7-7ba0-462e-b321-724410a83bc3"},"vehicle_type_id":"4","last_reported":1737774530,"current_range_meters":19200,"station_id":"ce4bhch2rcd13ifvqeug","pricing_plan_id":"cebpf4jnsgd1na2vs0mg"},{"bike_id":"841a1767-078e-4378-8ef2-78843610d635","system_id":"levelo_inurba_marseille","lat":43.23192,"lon":5.35555,"is_reserved":false,"is_disabled":false,"rental_uris":{"android":"levelo://app?vid=841a1767-078e-4378-8ef2-78843610d635","ios":"levelo://app?vid=841a1767-078e-4378-8ef2-78843610d635"},"vehicle_type_id":"4","last_reported":1737774530,"current_range_meters":8800,"station_id":"ce4bhu92rcd13ifvqi70","pricing_plan_id":"cebpf4jnsgd1na2vs0mg"},