{"last_updated":1705136770,"ttl":30,"version":"2.2","data":{"bikes":[{"bike_id":"5d74002d-43c4-4b43-87df-c73bca9355bb","system_id":"levelo_inurba_marseille","lat":43.313391,"lon":5.36706,"is_reserved":false,"is_disabled":false,"rental_uris":{"android":"levelo://app?vid=5d74002d-43c4-4b43-87df-c73bca9355bb","ios":"levelo://app?vid=5d74002d-43c4-4b43-87df-c73bca9355bb"},"vehicle_type_id":"4","last_reported":1705136770,"current_range_meters":28800,"station_id":"ce4bgr92rcd13ifvqc6g","pricing_plan_id":"free"},{"bike_id":"0fc5346f-df8f-471f-9c25-dc0d11c966aa","system_id":"levelo_inurba_marseille","lat":43.312239,"lon":5.368562,"is_reserved":false,"is_disabled":false,"rental_uris":{"android":"levelo://app?vid=0fc5346f-df8f-471f-9c25-dc0d11c966aa","ios":"levelo://app?vid=0fc5346f-df8f-471f-9c25-dc0d11c966aa"},"vehicle_type_id":"4","last_reported":1705136770,"current_range_meters":30800,"station_id":"ce4bgl92rcd13ifvqbq0","pricing_plan_id":"free"},{"bike_id":"22f7f6cb-28e2-4e05-a7ac-a49e2693d1a1","system_id":"levelo_inurba_marseille","lat":43.312239,"lon":5.368562,"is_reserved":false,"is_disabled":false,"rental_uris":{"android":"levelo://app?vid=22f7f6cb-28e2-4e05-a7ac-a49e2693d1a1","ios":"levelo://app?vid=22f7f6cb-28e2-4e05-a7ac-a49e2693d1a1"},"vehicle_type_id":"4","last_reported":1705136770,"current_range_meters":30800,"station_id":"ce4bgl92rcd13ifvqbq0","pricing_plan_id":"free"},{"bike_id":"00cd7fa8-a773-45a2-b527-180bad142644","system_id":"levelo_inurba_marseille","lat":43.312239,"lon":5.368562,"is_reserved":false,"is_disabled":false,"rental_uris":{"android":"levelo://app?vid=00cd7fa8-a773-45a2-b527-180bad142644","ios":"levelo://app?vid=00cd7fa8-a773-45a2-b527-180bad142644"},"vehicle_type_id":"4","last_reported":1705136770,"current_range_meters":26800,"station_id":"ce4bgl92rcd13ifvqbq0","pricing_plan_id":"free"},{"bike_id":"6347697e-242e-48eb-b0a0-a865573e57fc","system_id":"levelo_inurba_marseille","lat":43.312239,"lon":5.368562,"is_reserved":false,"is_disabled":false,"rental_uris":{"android":"levelo://app?vid=6347697e-242e-48eb-b0a0-a865573e57fc","ios":"levelo://app?vid=6347697e-242e-48eb-b0a0-a865573e57fc"},"vehicle_type_id":"4","last_reported":1705136770,"current_range_meters":26000,"station_id":"ce4bgl92rcd13ifvqbq0","pricing_plan_id":"free"},{"bike_id":"c7654283-97db-4178-a4d8-8bb3325d8d18","system_id":"levelo_inurba_marseille","lat":43.309076,"lon":5.368465,"is_reserved":false,"is_disabled":false,"rental_uris":{"android":"levelo://app?vid=c7654283-97db-4178-a4d8-8bb3325d8d18","ios":"levelo://app?vid=c7654283-97db-4178-a4d8-8bb3325d8d18"},"vehicle_type_id":"4","last_reported":1705136770,"current_range_meters":26400,"station_id":"ce4bgn92rcd13ifvqbvg","pricing_plan_id":"free"},{"bike_id":"5907ba40-68ee-4c84-a7c0-9a7c9a19eead","system_id":"levelo_inurba_marseille","lat":43.30898,"lon":5.36849,"is_reserved":false,"is_disabled":false,"rental_uris":{"android":"levelo://app?vid=5907ba40-68ee-4c84-a7c0-9a7c9a19eead","ios":"levelo://app?vid=5907ba40-68ee-4c84-a7c0-9a7c9a19eead"},"vehicle_type_id":"4","last_reported":1705136770,"current_range_meters":1600,"station_id":"ce4bgn92rcd13ifvqbvg","pricing_plan_id":"free"},{"bike_id":"e63d5272-3556-4994-a099-fbe9a283da73","system_id":"levelo_inurba_marseille","lat":43.31503,"lon":5.37288,"is_reserved":false,"is_disabled":false,"rental_uris":{"android":"levelo://app?vid=e63d5272-3556-4994-a099-fbe9a283da73","ios":"levelo://app?vid=e63d5272-3556-4994-a099-fbe9a283da73"},"vehicle_type_id":"4","last_reported":1705136770,"current_range_meters":13600,"station_id":"ce4bgt12rcd13ifvqcd0","pricing_plan_id":"free"},{"bike_id":"690f5509-9c19-4851-bf86-4282e301521f","system_id":"levelo_inurba_marseille","lat":43.314811,"lon":5.373103,"is_reserved":false,"is_disabled":false,"rental_uris":{"android":"levelo://app?vid=690f5509-9c19-4851-bf86-4282e301521f","ios":"levelo://app?vid=690f5509-9c19-4851-bf86-4282e301521f"},"vehicle_type_id":"4","last_reported":1705136770,"current_range_meters":23600,"station_id":"ce4bgt12rcd13ifvqcd0","pricing_plan_id":"free"},{"bike_id":"5688bc51-5110-4443-96f1-6383ed91bad3","system_id":"levelo_inurba_marseille","lat":43.314811,"lon":5.373103,"is_reserved":false,"is_disabled":false,"rental_uris":{"android":"levelo://app?vid=5688bc51-5110-4443-96f1-6383ed91bad3","ios":"levelo://app?vid=5688bc51-5110-4443-96f1-6383ed91bad3"},"vehicle_type_id":"4","last_reported":1705136770,"current_range_meters":24000,"station_id":"ce4bgt12rcd13ifvqcd0","pricing_plan_id":"free"},{"bike_id":"5e0c84fb-11f2-43f8-a093-7b7682355055","system_id":"levelo_inurba_marseille","lat":43.314811,"lon":5.373104,"is_reserved":false,"is_disabled":false,"rental_uris":{"android":"levelo://app?vid=5e0c84fb-11f2-43f8-a093-7b7682355055","ios":"levelo://app?vid=5e0c84fb-11f2-43f8-a093-7b7682355055"},"vehicle_type_id":"4","last_reported":1705136770,"current_range_meters":29200,"station_id":"ce4bgt12rcd13ifvqcd0","pricing_plan_id":"free"},{"bike_id":"2751fe63-7b8e-4a23-aa70-8680c00ee2b6","system_id":"levelo_inurba_marseille","lat":43.308923,"lon":5.375127,"is_reserved":false,"is_disabled":false,"rental_uris":{"android":"levelo://app?vid=2751fe63-7b8e-4a23-aa70-8680c00ee2b6","ios":"levelo://app?vid=2751fe63-7b8e-4a23-aa70-8680c00ee2b6"},"vehicle_type_id":"4","last_reported":1705136770,"current_range_meters":17200,"station_id":"","pricing_plan_id":"free"},{"bike_id":"78a0b2f2-5f04-4d38-b29c-fc399ce7541b","system_id":"levelo_inurba_marseille","lat":43.305368,"lon":5.367343,"is_reserved":false,"is_disabled":false,"rental_uris":{"android":"levelo://app?vid=78a0b2f2-5f04-4d38-b29c-fc399ce7541b","ios":"levelo://app?vid=78a0b2f2-5f04-4d38-b29c-fc399ce7541b"},"vehicle_type_id":"4","last_reported":1705136770,"current_range_meters":2400,"station_id":"ce4bgrp2rcd13ifvqc9g","pricing_plan_id":"free"},{"bike_id":"3505f418-fb14-4317-bba1-ccab1548bbf1","system_id":"levelo_inurba_marseille","lat":43.305368,"lon":5.367343,"is_reserved":false,"is_disabled":false,"rental_uris":{"android":"levelo://app?vid=3505f418-fb14-4317-bba1-ccab1548bbf1","ios":"levelo://app?vid=3505f418-fb14-4317-bba1-ccab1548bbf1"},"vehicle_type_id":"4","last_reported":1705136770,"current_range_meters":26000,"station_id":"ce4bgrp2rcd13ifvqc9g","pricing_plan_id":"free"},{"bike_id":"3f4084ea-ff56-4f1f-853c-acd9dfb17220","system_id":"levelo_inurba_marseille","lat":43.305368,"lon":5.367343,"is_reserved":false,"is_disabled":false,"rental_uris":{"android":"levelo://app?vid=3f4084ea-ff56-4f1f-853c-acd9dfb17220","ios":"levelo://app?vid=3f4084ea-ff56-4f1f-853c-acd9dfb17220"},"vehicle_type_id":"4","last_reported":1705136770,"current_range_meters":5600,"station_id":"ce4bgrp2rcd13ifvqc9g","pricing_plan_id":"free"},{"bike_id":"e31c6c4e-958b-48cc-85f2-0e67cd023c69","system_id":"levelo_inurba_marseille","lat":43.305368,"lon":5.367343,"is_reserved":false,"is_disabled":false,"rental_uris":{"android":"levelo://app?vid=e31c6c4e-958b-48cc-85f2-0e67cd023c69","ios":"levelo://app?vid=e31c6c4e-958b-48cc-85f2-0e67cd023c69"},"vehicle_type_id":"4","last_reported":1705136770,"current_range_meters":16000,"station_id":"ce4bgrp2rcd13ifvqc9g","pricing_plan_id":"free"},{"bike_id":"3c9456fb-f59d-4235-aa3b-19b722478f2d","system_id":"levelo_inurba_marseille","lat":43.305368,"lon":5.367343,"is_reserved":false,"is_disabled":false,"rental_uris":{"android":"levelo://app?vid=3c9456fb-f59d-4235-aa3b-19b722478f2d","ios":"levelo://app?vid=3c9456fb-f59d-4235-aa3b-19b722478f2d"},"vehicle_type_id":"4","last_reported":1705136770,"current_range_meters":30800,"station_id":"ce4bgrp2rcd13ifvqc9g","pricing_plan_id":"free"},{"bike_id":"df082dbb-1464-4d1d-8e5d-8b2490d706fb","system_id":"levelo_inurba_marseille","lat":43.305714,"lon":5.365633,"is_reserved":false,"is_disabled":false,"rental_uris":{"android":"levelo://app?vid=df082dbb-1464-4d1d-8e5d-8b2490d706fb","ios":"levelo://app?vid=df082dbb-1464-4d1d-8e5d-8b2490d706fb"},"vehicle_type_id":"4","last_reported":1705136770,"current_range_meters":27600,"station_id":"ce4bgs12rcd13ifvqcag","pricing_plan_id":"free"},{"bike_id":"8c3d6168-d791-4461-8367-f5e57f03633f","system_id":"levelo_inurba_marseille","lat":43.305706,"lon":5.365654,"is_reserved":false,"is_disabled":false,"rental_uris":{"android":"levelo://app?vid=8c3d6168-d791-4461-8367-f5e57f03633f","ios":"levelo://app?vid=8c3d6168-d791-4461-8367-f5e57f03633f"},"vehicle_type_id":"4","last_reported":1705136770,"current_range_meters":16000,"station_id":"ce4bgs12rcd13ifvqcag","pricing_plan_id":"free"},{"bike_id":"59b0e929-b50e-4e15-bc4c-88b81cc72ed5","system_id":"levelo_inurba_marseille","lat":43.305706,"lon":5.365654,"is_reserved":false,"is_disabled":false,"rental_uris":{"android":"levelo://app?vid=59b0e929-b50e-4e15-bc4c-88b81cc72ed5","ios":"levelo://app?vid=59b0e929-b50e-4e15-bc4c-88b81cc72ed5"},"vehicle_type_id":"4","last_reported":1705136770,"current_range_meters":29600,"station_id":"ce4bgs12rcd13ifvqcag","pricing_plan_id":"free"},{"bike_id":"65101e1b-8412-4803-9c2c-73de1679885a","system_id":"levelo_inurba_marseille","lat":43.305714,"lon":5.365633,"is_reserved":false,"is_disabled":false,"rental_uris":{"android":"levelo://app?vid=65101e1b-8412-4803-9c2c-73de1679885a","ios":"levelo://app?vid=65101e1b-8412-4803-9c2c-73de1679885a"},"vehicle_type_id":"4","last_reported":1705136770,"current_range_meters":30000,"station_id":"ce4bgs12rcd13ifvqcag","pricing_plan_id":"free"},{"bike_id":"32727dd7-1f90-4bd6-adf8-d8d99fb898e2","system_id":"levelo_inurba_marseille","lat":43.305989,"lon":5.37225,"is_reserved":false,"is_disabled":false,"rental_uris":{"android":"levelo://app?vid=32727dd7-1f90-4bd6-adf8-d8d99fb898e2","ios":"levelo://app?vid=32727dd7-1f90-4bd6-adf8-d8d99fb898e2"},"vehicle_type_id":"4","last_reported":1705136770,"current_range_meters":30000,"station_id":"ce4bgqh2rcd13ifvqc4g","pricing_plan_id":"free"},{"bike_id":"3499f0fb-acbc-463c-9d45-76337a207de7","system_id":"levelo_inurba_marseille","lat":43.3112,"lon":5.37761,"is_reserved":false,"is_disabled":false,"rental_uris":{"android":"levelo://app?vid=3499f0fb-acbc-463c-9d45-76337a207de7","ios":"levelo://app?vid=3499f0fb-acbc-463c-9d45-76337a207de7"},"vehicle_type_id":"4","last_reported":1705136770,"current_range_meters":3200,"station_id":"ce4bgt92rcd13ifvqcg0","pricing_plan_id":"free"},{"bike_id":"ee23ed32-b8a1-4219-bfc4-627c1bf85118","system_id":"levelo_inurba_marseille","lat":43.307945,"lon":5.376487,"is_reserved":false,"is_disabled":false,"rental_uris":{"android":"levelo://app?vid=ee23ed32-b8a1-4219-bfc4-627c1bf85118","ios":"levelo://app?vid=ee23ed32-b8a1-4219-bfc4-627c1bf85118"},"vehicle_type_id":"4","last_reported":1705136770,"current_range_meters":31200,"station_id":"ce4bgv92rcd13ifvqcq0","pricing_plan_id":"free"},{"bike_id":"671da3f5-82b4-47c4-9f34-8b8778ffbfd3","system_id":"levelo_inurba_marseille","lat":43.307945,"lon":5.376487,"is_reserved":false,"is_disabled":false,"rental_uris":{"android":"levelo://app?vid=671da3f5-82b4-47c4-9f34-8b8778ffbfd3","ios":"levelo://app?vid=671da3f5-82b4-47c4-9f34-8b8778ffbfd3"},"vehicle_type_id":"4","last_reported":1705136770,"current_range_meters":31200,"station_id":"ce4bgv92rcd13ifvqcq0","pricing_plan_id":"free"},{"bike_id":"44b18df5-068c-41ff-b44a-bf5cc900c53d","system_id":"levelo_inurba_marseille","lat":43.307945,"lon":5.376487,"is_reserved":false,"is_disabled":false,"rental_uris":{"android":"levelo://app?vid=44b18df5-068c-41ff-b44a-bf5cc900c53d","ios":"levelo://app?vid=44b18df5-068c-41ff-b44a-bf5cc900c53d"},"vehicle_type_id":"4","last_reported":1705136770,"current_range_meters":31200,"station_id":"ce4bgv92rcd13ifvqcq0","pricing_plan_id":"free"},{"bike_id":"595c1249-f0bc-479b-90d3-9f780847f5a1","system_id":"levelo_inurba_marseille","lat":43.307945,"lon":5.376487,"is_reserved":false,"is_disabled":false,"rental_uris":{"android":"levelo://app?vid=595c1249-f0bc-479b-90d3-9f780847f5a1","ios":"levelo://app?vid=595c1249-f0bc-479b-90d3-9f780847f5a1"},"vehicle_type_id":"4","last_reported":1705136770,"current_range_meters":27200,"station_id":"ce4bgv92rcd13ifvqcq0","pricing_plan_id":"free"},{"bike_id":"ff3cf2c3-a08c-4b82-85bc-6eec17e3c2a2","system_id":"levelo_inurba_marseille","lat":43.307945,"lon":5.376487,"is_reserved":false,"is_disabled":false,"rental_uris":{"android":"levelo://app?vid=ff3cf2c3-a08c-4b82-85bc-6eec17e3c2a2","ios":"levelo://app?vid=ff3cf2c3-a08c-4b82-85bc-6eec17e3c2a2"},"vehicle_type_id":"4","last_reported":1705136770,"current_range_meters":31200,"station_id":"ce4bgv92rcd13ifvqcq0","pricing_plan_id":"free"},{"bike_id":"5d7a0ad1-c516-4c0c-9e16-2ef5be55ecbf","system_id":"levelo_inurba_marseille","lat":43.307945,"lon":5.376487,"is_reserved":false,"is_disabled":false,"rental_uris":{"android":"levelo://app?vid=5d7a0ad1-c516-4c0c-9e16-2ef5be55ecbf","ios":"levelo://app?vid=5d7a0ad1-c516-4c0c-9e16-2ef5be55ecbf"},"vehicle_type_id":"4","last_reported":1705136770,"current_range_meters":25200,"station_id":"ce4bgv92rcd13ifvqcq0","pricing_plan_id":"free"},{"bike_id":"7690504e-0333-4dc9-9ede-625fe430f204","system_id":"levelo_inurba_marseille","lat":43.317075,"lon":5.377367,"is_reserved":false,"is_disabled":false,"rental_uris":{"android":"levelo://app?vid=7690504e-0333-4dc9-9ede-625fe430f204","ios":"levelo://app?vid=7690504e-0333-4dc9-9ede-625fe430f204"},"vehicle_type_id":"4","last_reported":1705136770,"current_range_meters":12800,"station_id":"ce4bgth2rcd13ifvqch0","pricing_plan_id":"free"},{"bike_id":"92d2ccf6-9abb-4d64-94ec-f09102085df5","system_id":"levelo_inurba_marseille","lat":43.31538,"lon":5.380315,"is_reserved":false,"is_disabled":false,"rental_uris":{"android":"levelo://app?vid=92d2ccf6-9abb-4d64-94ec-f09102085df5","ios":"levelo://app?vid=92d2ccf6-9abb-4d64-94ec-f09102085df5"},"vehicle_type_id":"4","last_reported":1705136770,"current_range_meters":10000,"station_id":"ce4bhsp2rcd13ifvqi50","pricing_plan_id":"free"},{"bike_id":"60fd3122-5e74-4b46-b7da-f515869e30e3","system_id":"levelo_inurba_marseille","lat":43.31535,"lon":5.38037,"is_reserved":false,"is_disabled":false,"rental_uris":{"android":"levelo://app?vid=60fd3122-5e74-4b46-b7da-f515869e30e3","ios":"levelo://app?vid=60fd3122-5e74-4b46-b7da-f515869e30e3"},"vehicle_type_id":"4","last_reported":1705136770,"current_range_meters":24400,"station_id":"ce4bhsp2rcd13ifvqi50","pricing_plan_id":"free"},{"bike_id":"a54ab68f-497a-4f91-9191-54009bf52838","system_id":"levelo_inurba_marseille","lat":43.301939,"lon":5.366286,"is_reserved":false,"is_disabled":false,"rental_uris":{"android":"levelo://app?vid=a54ab68f-497a-4f91-9191-54009bf52838","ios":"levelo://app?vid=a54ab68f-497a-4f91-9191-54009bf52838"},"vehicle_type_id":"4","last_reported":1705136770,"current_range_meters":20400,"station_id":"ce4bgrh2rcd13ifvqc8g","pricing_plan_id":"free"},{"bike_id":"0cb747b8-7cbc-4652-87b1-7d49245ecd17","system_id":"levelo_inurba_marseille","lat":43.301939,"lon":5.366286,"is_reserved":false,"is_disabled":false,"rental_uris":{"android":"levelo://app?vid=0cb747b8-7cbc-4652-87b1-7d49245ecd17","ios":"levelo://app?vid=0cb747b8-7cbc-4652-87b1-7d49245ecd17"},"vehicle_type_id":"4","last_reported":1705136770,"current_range_meters":28000,"station_id":"ce4bgrh2rcd13ifvqc8g","pricing_plan_id":"free"},{"bike_id":"6bc0a0c0-3ac2-4119-aa4b-939308d9f8e3","system_id":"levelo_inurba_marseille","lat":43.30471,"lon":5.37898,"is_reserved":false,"is_disabled":false,"rental_uris":{"android":"levelo://app?vid=6bc0a0c0-3ac2-4119-aa4b-939308d9f8e3","ios":"levelo://app?vid=6bc0a0c0-3ac2-4119-aa4b-939308d9f8e3"},"vehicle_type_id":"4","last_reported":1705136770,"current_range_meters":28000,"station_id":"ce4bgup2rcd13ifvqcn0","pricing_plan_id":"free"},{"bike_id":"321c1c49-6fcb-4fd4-b1fe-b717507ab77b","system_id":"levelo_inurba_marseille","lat":43.304606,"lon":5.379026,"is_reserved":false,"is_disabled":false,"rental_uris":{"android":"levelo://app?vid=321c1c49-6fcb-4fd4-b1fe-b717507ab77b","ios":"levelo://app?vid=321c1c49-6fcb-4fd4-b1fe-b717507ab77b"},"vehicle_type_id":"4","last_reported":1705136770,"current_range_meters":30000,"station_id":"ce4bgup2rcd13ifvqcn0","pricing_plan_id":"free"},{"bike_id":"b5b12d2e-a44a-490e-9741-0f5a8c9b0852","system_id":"levelo_inurba_marseille","lat":43.304606,"lon":5.379026,"is_reserved":false,"is_disabled":false,"rental_uris":{"android":"levelo://app?vid=b5b12d2e-a44a-490e-9741-0f5a8c9b0852","ios":"levelo://app?vid=b5b12d2e-a44a-490e-9741-0f5a8c9b0852"},"vehicle_type_id":"4","last_reported":1705136770,"current_range_meters":31200,"station_id":"ce4bgup2rcd13ifvqcn0","pricing_plan_id":"free"},{"bike_id":"950af946-0c30-472d-a18a-ac6e9eaa0ab9","system_id":"levelo_inurba_marseille","lat":43.300827,"lon":5.365856,"is_reserved":false,"is_disabled":false,"rental_uris":{"android":"levelo://app?vid=950af946-0c30-472d-a18a-ac6e9eaa0ab9","ios":"levelo://app?vid=950af946-0c30-472d-a18a-ac6e9eaa0ab9"},"vehicle_type_id":"4","last_reported":1705136770,"current_range_meters":2000,"station_id":"","pricing_plan_id":"free"},{"bike_id":"15d495d5-504d-4377-b71c-572f7d793f10","system_id":"levelo_inurba_marseille","lat":43.304606,"lon":5.379026,"is_reserved":false,"is_disabled":false,"rental_uris":{"android":"levelo://app?vid=15d495d5-504d-4377-b71c-572f7d793f10","ios":"levelo://app?vid=15d495d5-504d-4377-b71c-572f7d793f10"},"vehicle_type_id":"4","last_reported":1705136770,"current_range_meters":13200,"station_id":"ce4bgup2rcd13ifvqcn0","pricing_plan_id":"free"},{"bike_id":"d06d23a8-11cb-40ce-956d-89954e916dd1","system_id":"levelo_inurba_marseille","lat":43.304606,"lon":5.379026,"is_reserved":false,"is_disabled":false,"rental_uris":{"android":"levelo://app?vid=d06d23a8-11cb-40ce-956d-89954e916dd1","ios":"levelo://app?vid=d06d23a8-11cb-40ce-956d-89954e916dd1"},"vehicle_type_id":"4","last_reported":1705136770,"current_range_meters":25600,"station_id":"ce4bgup2rcd13ifvqcn0","pricing_plan_id":"free"},{"bike_id":"989f5efb-7c43-41be-89ef-04883a70d0a4","system_id":"levelo_inurba_marseille","lat":43.304607,"lon":5.379033,"is_reserved":false,"is_disabled":false,"rental_uris":{"android":"levelo://app?vid=989f5efb-7c43-41be-89ef-04883a70d0a4","ios":"levelo://app?vid=989f5efb-7c43-41be-89ef-04883a70d0a4"},"vehicle_type_id":"4","last_reported":1705136770,"current_range_meters":12800,"station_id":"ce4bgup2rcd13ifvqcn0","pricing_plan_id":"free"},{"bike_id":"d8ffc03c-bbc4-4c21-ae9a-77f3fa716b61","system_id":"levelo_inurba_marseille","lat":43.304606,"lon":5.379026,"is_reserved":false,"is_disabled":false,"rental_uris":{"android":"levelo://app?vid=d8ffc03c-bbc4-4c21-ae9a-77f3fa716b61","ios":"levelo://app?vid=d8ffc03c-bbc4-4c21-ae9a-77f3fa716b61"},"vehicle_type_id":"4","last_reported":1705136770,"current_range_meters":31600,"station_id":"ce4bgup2rcd13ifvqcn0","pricing_plan_id":"free"},{"bike_id":"db35b980-6e9c-4035-97b7-84c513635763","system_id":"levelo_inurba_marseille","lat":43.304606,"lon":5.379026,"is_reserved":false,"is_disabled":false,"rental_uris":{"android":"levelo://app?vid=db35b980-6e9c-4035-97b7-84c513635763","ios":"levelo://app?vid=db35b980-6e9c-4035-97b7-84c513635763"},"vehicle_type_id":"4","last_reported":1705136770,"current_range_meters":31200,"station_id":"ce4bgup2rcd13ifvqcn0","pricing_plan_id":"free"},{"bike_id":"bb992050-ead4-4a43-a07e-b25fb06278ba","system_id":"levelo_inurba_marseille","lat":43.304606,"lon":5.379026,"is_reserved":false,"is_disabled":false,"rental_uris":{"android":"levelo://app?vid=bb992050-ead4-4a43-a07e-b25fb06278ba","ios":"levelo://app?vid=bb992050-ead4-4a43-a07e-b25fb06278ba"},"vehicle_type_id":"4","last_reported":1705136770,"current_range_meters":27600,"station_id":"ce4bgup2rcd13ifvqcn0","pricing_plan_id":"free"},{"bike_id":"0eecf0b3-c1b0-4339-ae72-655c9893aacf","system_id":"levelo_inurba_marseille","lat":43.324816,"lon":5.365676,"is_reserved":false,"is_disabled":false,"rental_uris":{"android":"levelo://app?vid=0eecf0b3-c1b0-4339-ae72-655c9893aacf","ios":"levelo://app?vid=0eecf0b3-c1b0-4339-ae72-655c9893aacf"},"vehicle_type_id":"4","last_reported":1705136770,"current_range_meters":19200,"station_id":"ce4bhs12rcd13ifvqhvg","pricing_plan_id":"free"},{"bike_id":"0bbe5a65-d2d8-4186-a205-dcf06b248c1c","system_id":"levelo_inurba_marseille","lat":43.324771,"lon":5.36557,"is_reserved":false,"is_disabled":false,"rental_uris":{"android":"levelo://app?vid=0bbe5a65-d2d8-4186-a205-dcf06b248c1c","ios":"levelo://app?vid=0bbe5a65-d2d8-4186-a205-dcf06b248c1c"},"vehicle_type_id":"4","last_reported":1705136770,"current_range_meters":31200,"station_id":"ce4bhs12rcd13ifvqhvg","pricing_plan_id":"free"},{"bike_id":"f84f59aa-9755-4cff-b94f-3aaeb709a4a2","system_id":"levelo_inurba_marseille","lat":43.324771,"lon":5.36557,"is_reserved":false,"is_disabled":false,"rental_uris":{"android":"levelo://app?vid=f84f59aa-9755-4cff-b94f-3aaeb709a4a2","ios":"levelo://app?vid=f84f59aa-9755-4cff-b94f-3aaeb709a4a2"},"vehicle_type_id":"4","last_reported":1705136770,"current_range_meters":24400,"station_id":"ce4bhs12rcd13ifvqhvg","pricing_plan_id":"free"},{"bike_id":"5469bed9-0930-4f03-9933-a8881a3cb25e","system_id":"levelo_inurba_marseille","lat":43.32487,"lon":5.3656,"is_reserved":false,"is_disabled":false,"rental_uris":{"android":"levelo://app?vid=5469bed9-0930-4f03-9933-a8881a3cb25e","ios":"levelo://app?vid=5469bed9-0930-4f03-9933-a8881a3cb25e"},"vehicle_type_id":"4","last_reported":1705136770,"current_range_meters":20800,"station_id":"ce4bhs12rcd13ifvqhvg","pricing_plan_id":"free"},{"bike_id":"7e9d4fa3-c2d1-41e7-b6b0-ce7cd4264f5d","system_id":"levelo_inurba_marseille","lat":43.324771,"lon":5.36557,"is_reserved":false,"is_disabled":false,"rental_uris":{"android":"levelo://app?vid=7e9d4fa3-c2d1-41e7-b6b0-ce7cd4264f5d","ios":"levelo://app?vid=7e9d4fa3-c2d1-41e7-b6b0-ce7cd4264f5d"},"vehicle_type_id":"4","last_reported":1705136770,"current_range_meters":22400,"station_id":"ce4bhs12rcd13ifvqhvg","pricing_plan_id":"free"},{"bike_id":"931e7f9f-c391-4724-ac50-edb9d6139c04","system_id":"levelo_inurba_marseille","lat":43.30279,"lon":5.37703,"is_reserved":false,"is_disabled":false,"rental_uris":{"android":"levelo://app?vid=931e7f9f-c391-4724-ac50-edb9d6139c04","ios":"levelo://app?vid=931e7f9f-c391-4724-ac50-edb9d6139c04"},"vehicle_type_id":"4","last_reported":1705136770,"current_range_meters":26400,"station_id":"","pricing_plan_id":"free"},{"bike_id":"38786843-054e-45f4-8b6e-768ab0b7b6f8","system_id":"levelo_inurba_marseille","lat":43.301429,"lon":5.37413,"is_reserved":false,"is_disabled":false,"rental_uris":{"android":"levelo://app?vid=38786843-054e-45f4-8b6e-768ab0b7b6f8","ios":"levelo://app?vid=38786843-054e-45f4-8b6e-768ab0b7b6f8"},"vehicle_type_id":"4","last_reported":1705136770,"current_range_meters":24400,"station_id":"ce4bgs92rcd13ifvqcc0","pricing_plan_id":"free"},{"bike_id":"6085bbd2-d8b7-4692-9a15-9e40852d8182","system_id":"levelo_inurba_marseille","lat":43.30143,"lon":5.37413,"is_reserved":false,"is_disabled":false,"rental_uris":{"android":"levelo://app?vid=6085bbd2-d8b7-4692-9a15-9e40852d8182","ios":"levelo://app?vid=6085bbd2-d8b7-4692-9a15-9e40852d8182"},"vehicle_type_id":"4","last_reported":1705136770,"current_range_meters":23200,"station_id":"ce4bgs92rcd13ifvqcc0","pricing_plan_id":"free"},{"bike_id":"c605266e-70e8-4012-b559-16a3224b2095","system_id":"levelo_inurba_marseille","lat":43.319725,"lon":5.381394,"is_reserved":false,"is_disabled":false,"rental_uris":{"android":"levelo://app?vid=c605266e-70e8-4012-b559-16a3224b2095","ios":"levelo://app?vid=c605266e-70e8-4012-b559-16a3224b2095"},"vehicle_type_id":"4","last_reported":1705136770,"current_range_meters":23600,"station_id":"ce4bhr12rcd13ifvqhpg","pricing_plan_id":"free"},{"bike_id":"7e80fef3-8bfb-47f8-b03f-bd904cdaa958","system_id":"levelo_inurba_marseille","lat":43.31994,"lon":5.38146,"is_reserved":false,"is_disabled":false,"rental_uris":{"android":"levelo://app?vid=7e80fef3-8bfb-47f8-b03f-bd904cdaa958","ios":"levelo://app?vid=7e80fef3-8bfb-47f8-b03f-bd904cdaa958"},"vehicle_type_id":"4","last_reported":1705136770,"current_range_meters":26400,"station_id":"ce4bhr12rcd13ifvqhpg","pricing_plan_id":"free"},{"bike_id":"41764f75-bafe-4d75-9fff-4b8ac1b89701","system_id":"levelo_inurba_marseille","lat":43.31993,"lon":5.38148,"is_reserved":false,"is_disabled":false,"rental_uris":{"android":"levelo://app?vid=41764f75-bafe-4d75-9fff-4b8ac1b89701","ios":"levelo://app?vid=41764f75-bafe-4d75-9fff-4b8ac1b89701"},"vehicle_type_id":"4","last_reported":1705136770,"current_range_meters":27200,"station_id":"ce4bhr12rcd13ifvqhpg","pricing_plan_id":"free"},{"bike_id":"769f7630-a400-459b-8237-8e5260b6ae9b","system_id":"levelo_inurba_marseille","lat":43.319935,"lon":5.381699,"is_reserved":false,"is_disabled":false,"rental_uris":{"android":"levelo://app?vid=769f7630-a400-459b-8237-8e5260b6ae9b","ios":"levelo://app?vid=769f7630-a400-459b-8237-8e5260b6ae9b"},"vehicle_type_id":"4","last_reported":1705136770,"current_range_meters":26800,"station_id":"ce4bhr12rcd13ifvqhpg","pricing_plan_id":"free"},{"bike_id":"76a2687e-77e8-4c0e-a7bc-1831585776a0","system_id":"levelo_inurba_marseille","lat":43.31998,"lon":5.38151,"is_reserved":false,"is_disabled":false,"rental_uris":{"android":"levelo://app?vid=76a2687e-77e8-4c0e-a7bc-1831585776a0","ios":"levelo://app?vid=76a2687e-77e8-4c0e-a7bc-1831585776a0"},"vehicle_type_id":"4","last_reported":1705136770,"current_range_meters":26000,"station_id":"ce4bhr12rcd13ifvqhpg","pricing_plan_id":"free"},{"bike_id":"5324cfb6-981f-442f-a72d-e4c794a38efd","system_id":"levelo_inurba_marseille","lat":43.31998,"lon":5.38154,"is_reserved":false,"is_disabled":false,"rental_uris":{"android":"levelo://app?vid=5324cfb6-981f-442f-a72d-e4c794a38efd","ios":"levelo://app?vid=5324cfb6-981f-442f-a72d-e4c794a38efd"},"vehicle_type_id":"4","last_reported":1705136770,"current_range_meters":10800,"station_id":"ce4bhr12rcd13ifvqhpg","pricing_plan_id":"free"},{"bike_id":"001e8333-0107-4632-b2fe-771e723798d8","system_id":"levelo_inurba_marseille","lat":43.31995,"lon":5.38165,"is_reserved":false,"is_disabled":false,"rental_uris":{"android":"levelo://app?vid=001e8333-0107-4632-b2fe-771e723798d8","ios":"levelo://app?vid=001e8333-0107-4632-b2fe-771e723798d8"},"vehicle_type_id":"4","last_reported":1705136770,"current_range_meters":8800,"station_id":"ce4bhr12rcd13ifvqhpg","pricing_plan_id":"free"},{"bike_id":"fd4df610-9a83-4816-aabc-209c86853233","system_id":"levelo_inurba_marseille","lat":43.313668,"lon":5.384854,"is_reserved":false,"is_disabled":false,"rental_uris":{"android":"levelo://app?vid=fd4df610-9a83-4816-aabc-209c86853233","ios":"levelo://app?vid=fd4df610-9a83-4816-aabc-209c86853233"},"vehicle_type_id":"4","last_reported":1705136770,"current_range_meters":9600,"station_id":"ce4bgt92rcd13ifvqcf0","pricing_plan_id":"free"},{"bike_id":"4080ff49-2197-4e59-8641-f545f3e7152d","system_id":"levelo_inurba_marseille","lat":43.313571,"lon":5.384829,"is_reserved":false,"is_disabled":false,"rental_uris":{"android":"levelo://app?vid=4080ff49-2197-4e59-8641-f545f3e7152d","ios":"levelo://app?vid=4080ff49-2197-4e59-8641-f545f3e7152d"},"vehicle_type_id":"4","last_reported":1705136770,"current_range_meters":31200,"station_id":"ce4bgt92rcd13ifvqcf0","pricing_plan_id":"free"},{"bike_id":"0acc33cf-9bd2-4c6f-b691-d67d34d49926","system_id":"levelo_inurba_marseille","lat":43.313571,"lon":5.384829,"is_reserved":false,"is_disabled":false,"rental_uris":{"android":"levelo://app?vid=0acc33cf-9bd2-4c6f-b691-d67d34d49926","ios":"levelo://app?vid=0acc33cf-9bd2-4c6f-b691-d67d34d49926"},"vehicle_type_id":"4","last_reported":1705136770,"current_range_meters":31200,"station_id":"ce4bgt92rcd13ifvqcf0","pricing_plan_id":"free"},{"bike_id":"8a56c6d3-5be3-4561-80d3-50639fe17825","system_id":"levelo_inurba_marseille","lat":43.313571,"lon":5.384829,"is_reserved":false,"is_disabled":false,"rental_uris":{"android":"levelo://app?vid=8a56c6d3-5be3-4561-80d3-50639fe17825","ios":"levelo://app?vid=8a56c6d3-5be3-4561-80d3-50639fe17825"},"vehicle_type_id":"4","last_reported":1705136770,"current_range_meters":0,"station_id":"ce4bgt92rcd13ifvqcf0","pricing_plan_id":"free"},{"bike_id":"10815ab7-e791-4110-9b9a-e775a26ac0e8","system_id":"levelo_inurba_marseille","lat":43.299222,"lon":5.365554,"is_reserved":false,"is_disabled":false,"rental_uris":{"android":"levelo://app?vid=10815ab7-e791-4110-9b9a-e775a26ac0e8","ios":"levelo://app?vid=10815ab7-e791-4110-9b9a-e775a26ac0e8"},"vehicle_type_id":"4","last_reported":1705136770,"current_range_meters":29600,"station_id":"ce4bgm92rcd13ifvqbr0","pricing_plan_id":"free"},{"bike_id":"9d82fca2-ae8c-4fa1-8af9-cb0a6b59ce1d","system_id":"levelo_inurba_marseille","lat":43.299222,"lon":5.365554,"is_reserved":false,"is_disabled":false,"rental_uris":{"android":"levelo://app?vid=9d82fca2-ae8c-4fa1-8af9-cb0a6b59ce1d","ios":"levelo://app?vid=9d82fca2-ae8c-4fa1-8af9-cb0a6b59ce1d"},"vehicle_type_id":"4","last_reported":1705136770,"current_range_meters":12400,"station_id":"ce4bgm92rcd13ifvqbr0","pricing_plan_id":"free"},{"bike_id":"b9e6be8e-9858-44af-a030-191ef0ed464a","system_id":"levelo_inurba_marseille","lat":43.299724,"lon":5.371829,"is_reserved":false,"is_disabled":false,"rental_uris":{"android":"levelo://app?vid=b9e6be8e-9858-44af-a030-191ef0ed464a","ios":"levelo://app?vid=b9e6be8e-9858-44af-a030-191ef0ed464a"},"vehicle_type_id":"4","last_reported":1705136770,"current_range_meters":3200,"station_id":"ce4bgr92rcd13ifvqc7g","pricing_plan_id":"free"},{"bike_id":"94c095f8-11e6-4347-b5bb-9bb18b2c989f","system_id":"levelo_inurba_marseille","lat":43.298433,"lon":5.362774,"is_reserved":false,"is_disabled":false,"rental_uris":{"android":"levelo://app?vid=94c095f8-11e6-4347-b5bb-9bb18b2c989f","ios":"levelo://app?vid=94c095f8-11e6-4347-b5bb-9bb18b2c989f"},"vehicle_type_id":"4","last_reported":1705136770,"current_range_meters":18000,"station_id":"ce4bgpp2rcd13ifvqc3g","pricing_plan_id":"free"},{"bike_id":"21a06edd-240c-470d-a893-ebe57936ec8e","system_id":"levelo_inurba_marseille","lat":43.298433,"lon":5.362774,"is_reserved":false,"is_disabled":false,"rental_uris":{"android":"levelo://app?vid=21a06edd-240c-470d-a893-ebe57936ec8e","ios":"levelo://app?vid=21a06edd-240c-470d-a893-ebe57936ec8e"},"vehicle_type_id":"4","last_reported":1705136770,"current_range_meters":17200,"station_id":"ce4bgpp2rcd13ifvqc3g","pricing_plan_id":"free"},{"bike_id":"6aab9867-0c05-4d4e-8f87-8f8dccc95b3d","system_id":"levelo_inurba_marseille","lat":43.299109,"lon":5.374001,"is_reserved":false,"is_disabled":false,"rental_uris":{"android":"levelo://app?vid=6aab9867-0c05-4d4e-8f87-8f8dccc95b3d","ios":"levelo://app?vid=6aab9867-0c05-4d4e-8f87-8f8dccc95b3d"},"vehicle_type_id":"4","last_reported":1705136770,"current_range_meters":11600,"station_id":"","pricing_plan_id":"free"},{"bike_id":"98333b77-5383-4482-8e93-4ee3d18758a4","system_id":"levelo_inurba_marseille","lat":43.298433,"lon":5.362774,"is_reserved":false,"is_disabled":false,"rental_uris":{"android":"levelo://app?vid=98333b77-5383-4482-8e93-4ee3d18758a4","ios":"levelo://app?vid=98333b77-5383-4482-8e93-4ee3d18758a4"},"vehicle_type_id":"4","last_reported":1705136770,"current_range_meters":30000,"station_id":"ce4bgpp2rcd13ifvqc3g","pricing_plan_id":"free"},{"bike_id":"58652cb2-ca6a-469d-a473-118804d07934","system_id":"levelo_inurba_marseille","lat":43.298433,"lon":5.362774,"is_reserved":false,"is_disabled":false,"rental_uris":{"android":"levelo://app?vid=58652cb2-ca6a-469d-a473-118804d07934","ios":"levelo://app?vid=58652cb2-ca6a-469d-a473-118804d07934"},"vehicle_type_id":"4","last_reported":1705136770,"current_range_meters":28800,"station_id":"ce4bgpp2rcd13ifvqc3g","pricing_plan_id":"free"},{"bike_id":"ccc29643-25eb-4653-8f85-8b19801cb7ea","system_id":"levelo_inurba_marseille","lat":43.299243,"lon":5.374807,"is_reserved":false,"is_disabled":false,"rental_uris":{"android":"levelo://app?vid=ccc29643-25eb-4653-8f85-8b19801cb7ea","ios":"levelo://app?vid=ccc29643-25eb-4653-8f85-8b19801cb7ea"},"vehicle_type_id":"4","last_reported":1705136770,"current_range_meters":31200,"station_id":"ce4bgjh2rcd13ifvqbg0","pricing_plan_id":"free"},{"bike_id":"b81ea238-d356-47ac-aeee-27e9c1b48cdb","system_id":"levelo_inurba_marseille","lat":43.29796,"lon":5.36854,"is_reserved":false,"is_disabled":false,"rental_uris":{"android":"levelo://app?vid=b81ea238-d356-47ac-aeee-27e9c1b48cdb","ios":"levelo://app?vid=b81ea238-d356-47ac-aeee-27e9c1b48cdb"},"vehicle_type_id":"4","last_reported":1705136770,"current_range_meters":2000,"station_id":"","pricing_plan_id":"free"},{"bike_id":"a28d4661-f307-4e07-91d6-125d0105db5a","system_id":"levelo_inurba_marseille","lat":43.32286,"lon":5.38262,"is_reserved":false,"is_disabled":false,"rental_uris":{"android":"levelo://app?vid=a28d4661-f307-4e07-91d6-125d0105db5a","ios":"levelo://app?vid=a28d4661-f307-4e07-91d6-125d0105db5a"},"vehicle_type_id":"4","last_reported":1705136770,"current_range_meters":26400,"station_id":"ce4bhr12rcd13ifvqhqg","pricing_plan_id":"free"},{"bike_id":"73ef1a78-1ec2-4a18-979e-47bb19420e1b","system_id":"levelo_inurba_marseille","lat":43.3229,"lon":5.38271,"is_reserved":false,"is_disabled":false,"rental_uris":{"android":"levelo://app?vid=73ef1a78-1ec2-4a18-979e-47bb19420e1b","ios":"levelo://app?vid=73ef1a78-1ec2-4a18-979e-47bb19420e1b"},"vehicle_type_id":"4","last_reported":1705136770,"current_range_meters":19600,"station_id":"ce4bhr12rcd13ifvqhqg","pricing_plan_id":"free"},{"bike_id":"1f2e4cdb-524b-438b-8791-8a4ef7965801","system_id":"levelo_inurba_marseille","lat":43.322872,"lon":5.382756,"is_reserved":false,"is_disabled":false,"rental_uris":{"android":"levelo://app?vid=1f2e4cdb-524b-438b-8791-8a4ef7965801","ios":"levelo://app?vid=1f2e4cdb-524b-438b-8791-8a4ef7965801"},"vehicle_type_id":"4","last_reported":1705136770,"current_range_meters":28000,"station_id":"ce4bhr12rcd13ifvqhqg","pricing_plan_id":"free"},{"bike_id":"e3bbe24f-422c-4745-9bcc-0852747f7f37","system_id":"levelo_inurba_marseille","lat":43.32284,"lon":5.38283,"is_reserved":false,"is_disabled":false,"rental_uris":{"android":"levelo://app?vid=e3bbe24f-422c-4745-9bcc-0852747f7f37","ios":"levelo://app?vid=e3bbe24f-422c-4745-9bcc-0852747f7f37"},"vehicle_type_id":"4","last_reported":1705136770,"current_range_meters":26000,"station_id":"ce4bhr12rcd13ifvqhqg","pricing_plan_id":"free"},{"bike_id":"588fe055-6552-43d4-9032-abb90291bedb","system_id":"levelo_inurba_marseille","lat":43.297774,"lon":5.370875,"is_reserved":false,"is_disabled":false,"rental_uris":{"android":"levelo://app?vid=588fe055-6552-43d4-9032-abb90291bedb","ios":"levelo://app?vid=588fe055-6552-43d4-9032-abb90291bedb"},"vehicle_type_id":"4","last_reported":1705136770,"current_range_meters":26000,"station_id":"ce4bgop2rcd13ifvqc1g","pricing_plan_id":"free"},{"bike_id":"679c367b-d108-4790-b497-4d8cd060fe27","system_id":"levelo_inurba_marseille","lat":43.32823,"lon":5.36678,"is_reserved":false,"is_disabled":false,"rental_uris":{"android":"levelo://app?vid=679c367b-d108-4790-b497-4d8cd060fe27","ios":"levelo://app?vid=679c367b-d108-4790-b497-4d8cd060fe27"},"vehicle_type_id":"4","last_reported":1705136770,"current_range_meters":19200,"station_id":"ce4bhs92rcd13ifvqi0g","pricing_plan_id":"free"},{"bike_id":"e38d20ff-3711-42f9-8598-8b7af98ee7b5","system_id":"levelo_inurba_marseille","lat":43.32824,"lon":5.36681,"is_reserved":false,"is_disabled":false,"rental_uris":{"android":"levelo://app?vid=e38d20ff-3711-42f9-8598-8b7af98ee7b5","ios":"levelo://app?vid=e38d20ff-3711-42f9-8598-8b7af98ee7b5"},"vehicle_type_id":"4","last_reported":1705136770,"current_range_meters":16400,"station_id":"ce4bhs92rcd13ifvqi0g","pricing_plan_id":"free"},{"bike_id":"947a5c0b-0299-4cd2-aecd-5f351114aaf8","system_id":"levelo_inurba_marseille","lat":43.32825,"lon":5.36679,"is_reserved":false,"is_disabled":false,"rental_uris":{"android":"levelo://app?vid=947a5c0b-0299-4cd2-aecd-5f351114aaf8","ios":"levelo://app?vid=947a5c0b-0299-4cd2-aecd-5f351114aaf8"},"vehicle_type_id":"4","last_reported":1705136770,"current_range_meters":15200,"station_id":"ce4bhs92rcd13ifvqi0g","pricing_plan_id":"free"},{"bike_id":"eb82efee-7e46-4cef-a643-d731882b95f4","system_id":"levelo_inurba_marseille","lat":43.32825,"lon":5.36676,"is_reserved":false,"is_disabled":false,"rental_uris":{"android":"levelo://app?vid=eb82efee-7e46-4cef-a643-d731882b95f4","ios":"levelo://app?vid=eb82efee-7e46-4cef-a643-d731882b95f4"},"vehicle_type_id":"4","last_reported":1705136770,"current_range_meters":28800,"station_id":"ce4bhs92rcd13ifvqi0g","pricing_plan_id":"free"},{"bike_id":"be5c14c2-d069-4824-b2b4-323fba6ab1b5","system_id":"levelo_inurba_marseille","lat":43.32825,"lon":5.36675,"is_reserved":false,"is_disabled":false,"rental_uris":{"android":"levelo://app?vid=be5c14c2-d069-4824-b2b4-323fba6ab1b5","ios":"levelo://app?vid=be5c14c2-d069-4824-b2b4-323fba6ab1b5"},"vehicle_type_id":"4","last_reported":1705136770,"current_range_meters":23600,"station_id":"ce4bhs92rcd13ifvqi0g","pricing_plan_id":"free"},{"bike_id":"51785b53-971f-47ea-99d3-e82178b1bd11","system_id":"levelo_inurba_marseille","lat":43.32826,"lon":5.36673,"is_reserved":false,"is_disabled":false,"rental_uris":{"android":"levelo://app?vid=51785b53-971f-47ea-99d3-e82178b1bd11","ios":"levelo://app?vid=51785b53-971f-47ea-99d3-e82178b1bd11"},"vehicle_type_id":"4","last_reported":1705136770,"current_range_meters":31200,"station_id":"ce4bhs92rcd13ifvqi0g","pricing_plan_id":"free"},{"bike_id":"ebd1c3ae-d840-4cf1-b3ce-5dbd8e760142","system_id":"levelo_inurba_marseille","lat":43.32827,"lon":5.36679,"is_reserved":false,"is_disabled":false,"rental_uris":{"android":"levelo://app?vid=ebd1c3ae-d840-4cf1-b3ce-5dbd8e760142","ios":"levelo://app?vid=ebd1c3ae-d840-4cf1-b3ce-5dbd8e760142"},"vehicle_type_id":"4","last_reported":1705136770,"current_range_meters":9600,"station_id":"ce4bhs92rcd13ifvqi0g","pricing_plan_id":"free"},{"bike_id":"9fbabc07-7e3e-4dc7-aad6-5f93ddb8699a","system_id":"levelo_inurba_marseille","lat":43.32827,"lon":5.36676,"is_reserved":false,"is_disabled":false,"rental_uris":{"android":"levelo://app?vid=9fbabc07-7e3e-4dc7-aad6-5f93ddb8699a","ios":"levelo://app?vid=9fbabc07-7e3e-4dc7-aad6-5f93ddb8699a"},"vehicle_type_id":"4","last_reported":1705136770,"current_range_meters":25200,"station_id":"ce4bhs92rcd13ifvqi0g","pricing_plan_id":"free"},{"bike_id":"828ab477-dd30-4232-80f8-b4f906fffc7f","system_id":"levelo_inurba_marseille","lat":43.32828,"lon":5.36687,"is_reserved":false,"is_disabled":false,"rental_uris":{"android":"levelo://app?vid=828ab477-dd30-4232-80f8-b4f906fffc7f","ios":"levelo://app?vid=828ab477-dd30-4232-80f8-b4f906fffc7f"},"vehicle_type_id":"4","last_reported":1705136770,"current_range_meters":16800,"station_id":"ce4bhs92rcd13ifvqi0g","pricing_plan_id":"free"},{"bike_id":"d6e71fc0-c662-46a4-9ce2-a4da97cef68b","system_id":"levelo_inurba_marseille","lat":43.32828,"lon":5.36674,"is_reserved":false,"is_disabled":false,"rental_uris":{"android":"levelo://app?vid=d6e71fc0-c662-46a4-9ce2-a4da97cef68b","ios":"levelo://app?vid=d6e71fc0-c662-46a4-9ce2-a4da97cef68b"},"vehicle_type_id":"4","last_reported":1705136770,"current_range_meters":20000,"station_id":"ce4bhs92rcd13ifvqi0g","pricing_plan_id":"free"},{"bike_id":"e56158fe-ed42-4b62-82d9-f83e0d14394f","system_id":"levelo_inurba_marseille","lat":43.328288,"lon":5.366852,"is_reserved":false,"is_disabled":false,"rental_uris":{"android":"levelo://app?vid=e56158fe-ed42-4b62-82d9-f83e0d14394f","ios":"levelo://app?vid=e56158fe-ed42-4b62-82d9-f83e0d14394f"},"vehicle_type_id":"4","last_reported":1705136770,"current_range_meters":30400,"station_id":"ce4bhs92rcd13ifvqi0g","pricing_plan_id":"free"},{"bike_id":"3f1fe0f6-c408-40f5-9355-cdaa7a69ae2d","system_id":"levelo_inurba_marseille","lat":43.328291,"lon":5.3668,"is_reserved":false,"is_disabled":false,"rental_uris":{"android":"levelo://app?vid=3f1fe0f6-c408-40f5-9355-cdaa7a69ae2d","ios":"levelo://app?vid=3f1fe0f6-c408-40f5-9355-cdaa7a69ae2d"},"vehicle_type_id":"4","last_reported":1705136770,"current_range_meters":23600,"station_id":"ce4bhs92rcd13ifvqi0g","pricing_plan_id":"free"},{"bike_id":"00240506-f51a-4e5e-8e4b-da47fbef48ec","system_id":"levelo_inurba_marseille","lat":43.328293,"lon":5.366805,"is_reserved":false,"is_disabled":false,"rental_uris":{"android":"levelo://app?vid=00240506-f51a-4e5e-8e4b-da47fbef48ec","ios":"levelo://app?vid=00240506-f51a-4e5e-8e4b-da47fbef48ec"},"vehicle_type_id":"4","last_reported":1705136770,"current_range_meters":17600,"station_id":"ce4bhs92rcd13ifvqi0g","pricing_plan_id":"free"},{"bike_id":"546834d2-cf77-404f-94a2-ca0cd6e77634","system_id":"levelo_inurba_marseille","lat":43.3283,"lon":5.3668,"is_reserved":false,"is_disabled":false,"rental_uris":{"android":"levelo://app?vid=546834d2-cf77-404f-94a2-ca0cd6e77634","ios":"levelo://app?vid=546834d2-cf77-404f-94a2-ca0cd6e77634"},"vehicle_type_id":"4","last_reported":1705136770,"current_range_meters":13200,"station_id":"ce4bhs92rcd13ifvqi0g","pricing_plan_id":"free"},{"bike_id":"b7f19553-caf3-42e9-85f2-de3629dabc8e","system_id":"levelo_inurba_marseille","lat":43.328304,"lon":5.366813,"is_reserved":false,"is_disabled":false,"rental_uris":{"android":"levelo://app?vid=b7f19553-caf3-42e9-85f2-de3629dabc8e","ios":"levelo://app?vid=b7f19553-caf3-42e9-85f2-de3629dabc8e"},"vehicle_type_id":"4","last_reported":1705136770,"current_range_meters":19200,"station_id":"ce4bhs92rcd13ifvqi0g","pricing_plan_id":"free"},{"bike_id":"f54001dd-ebea-42c8-9cb5-ba3569903da1","system_id":"levelo_inurba_marseille","lat":43.297163,"lon":5.365866,"is_reserved":false,"is_disabled":false,"rental_uris":{"android":"levelo://app?vid=f54001dd-ebea-42c8-9cb5-ba3569903da1","ios":"levelo://app?vid=f54001dd-ebea-42c8-9cb5-ba3569903da1"},"vehicle_type_id":"4","last_reported":1705136770,"current_range_meters":29600,"station_id":"ce4bgn12rcd13ifvqbt0","pricing_plan_id":"free"},{"bike_id":"9949c318-cd33-4e7f-93e5-9b978c57ddec","system_id":"levelo_inurba_marseille","lat":43.328316,"lon":5.366743,"is_reserved":false,"is_disabled":false,"rental_uris":{"android":"levelo://app?vid=9949c318-cd33-4e7f-93e5-9b978c57ddec","ios":"levelo://app?vid=9949c318-cd33-4e7f-93e5-9b978c57ddec"},"vehicle_type_id":"4","last_reported":1705136770,"current_range_meters":10800,"station_id":"ce4bhs92rcd13ifvqi0g","pricing_plan_id":"free"},{"bike_id":"38082c03-fac1-44d3-a79f-5142b4a113a9","system_id":"levelo_inurba_marseille","lat":43.328373,"lon":5.366902,"is_reserved":false,"is_disabled":false,"rental_uris":{"android":"levelo://app?vid=38082c03-fac1-44d3-a79f-5142b4a113a9","ios":"levelo://app?vid=38082c03-fac1-44d3-a79f-5142b4a113a9"},"vehicle_type_id":"4","last_reported":1705136770,"current_range_meters":14800,"station_id":"ce4bhs92rcd13ifvqi0g","pricing_plan_id":"free"},{"bike_id":"5170a48b-5279-4faa-9f8c-5f883bfd0d3f","system_id":"levelo_inurba_marseille","lat":43.29711,"lon":5.36609,"is_reserved":false,"is_disabled":false,"rental_uris":{"android":"levelo://app?vid=5170a48b-5279-4faa-9f8c-5f883bfd0d3f","ios":"levelo://app?vid=5170a48b-5279-4faa-9f8c-5f883bfd0d3f"},"vehicle_type_id":"4","last_reported":1705136770,"current_range_meters":4400,"station_id":"ce4bgn12rcd13ifvqbt0","pricing_plan_id":"free"},{"bike_id":"1719d3d7-b8b6-403f-a7ae-f8dd0f5278ce","system_id":"levelo_inurba_marseille","lat":43.297163,"lon":5.365866,"is_reserved":false,"is_disabled":false,"rental_uris":{"android":"levelo://app?vid=1719d3d7-b8b6-403f-a7ae-f8dd0f5278ce","ios":"levelo://app?vid=1719d3d7-b8b6-403f-a7ae-f8dd0f5278ce"},"vehicle_type_id":"4","last_reported":1705136770,"current_range_meters":30800,"station_id":"ce4bgn12rcd13ifvqbt0","pricing_plan_id":"free"},{"bike_id":"e68f6a7e-9f4e-4bf3-b445-bf3c0b19041d","system_id":"levelo_inurba_marseille","lat":43.29699,"lon":5.36599,"is_reserved":false,"is_disabled":false,"rental_uris":{"android":"levelo://app?vid=e68f6a7e-9f4e-4bf3-b445-bf3c0b19041d","ios":"levelo://app?vid=e68f6a7e-9f4e-4bf3-b445-bf3c0b19041d"},"vehicle_type_id":"4","last_reported":1705136770,"current_range_meters":0,"station_id":"ce4bgn12rcd13ifvqbt0","pricing_plan_id":"free"},{"bike_id":"c1dbb28d-acf0-476d-8991-92e6d48da7bf","system_id":"levelo_inurba_marseille","lat":43.296801,"lon":5.372822,"is_reserved":false,"is_disabled":false,"rental_uris":{"android":"levelo://app?vid=c1dbb28d-acf0-476d-8991-92e6d48da7bf","ios":"levelo://app?vid=c1dbb28d-acf0-476d-8991-92e6d48da7bf"},"vehicle_type_id":"4","last_reported":1705136770,"current_range_meters":800,"station_id":"","pricing_plan_id":"free"},{"bike_id":"8d9c89ca-2160-4404-b22b-a198d938f322","system_id":"levelo_inurba_marseille","lat":43.296129,"lon":5.370777,"is_reserved":false,"is_disabled":false,"rental_uris":{"android":"levelo://app?vid=8d9c89ca-2160-4404-b22b-a198d938f322","ios":"levelo://app?vid=8d9c89ca-2160-4404-b22b-a198d938f322"},"vehicle_type_id":"4","last_reported":1705136770,"current_range_meters":3200,"station_id":"ce4bgnh2rcd13ifvqc0g","pricing_plan_id":"free"},{"bike_id":"4ffad749-e997-4489-8b2b-60ed24c9b168","system_id":"levelo_inurba_marseille","lat":43.296131,"lon":5.370791,"is_reserved":false,"is_disabled":false,"rental_uris":{"android":"levelo://app?vid=4ffad749-e997-4489-8b2b-60ed24c9b168","ios":"levelo://app?vid=4ffad749-e997-4489-8b2b-60ed24c9b168"},"vehicle_type_id":"4","last_reported":1705136770,"current_range_meters":9600,"station_id":"ce4bgnh2rcd13ifvqc0g","pricing_plan_id":"free"},{"bike_id":"247855ef-07e2-43c9-8edd-a0fc4f903d93","system_id":"levelo_inurba_marseille","lat":43.296129,"lon":5.370777,"is_reserved":false,"is_disabled":false,"rental_uris":{"android":"levelo://app?vid=247855ef-07e2-43c9-8edd-a0fc4f903d93","ios":"levelo://app?vid=247855ef-07e2-43c9-8edd-a0fc4f903d93"},"vehicle_type_id":"4","last_reported":1705136770,"current_range_meters":0,"station_id":"ce4bgnh2rcd13ifvqc0g","pricing_plan_id":"free"},{"bike_id":"d4a3e0ff-c2aa-4e86-b2ad-c7de74f13457","system_id":"levelo_inurba_marseille","lat":43.296129,"lon":5.370777,"is_reserved":false,"is_disabled":false,"rental_uris":{"android":"levelo://app?vid=d4a3e0ff-c2aa-4e86-b2ad-c7de74f13457","ios":"levelo://app?vid=d4a3e0ff-c2aa-4e86-b2ad-c7de74f13457"},"vehicle_type_id":"4","last_reported":1705136770,"current_range_meters":29200,"station_id":"ce4bgnh2rcd13ifvqc0g","pricing_plan_id":"free"},{"bike_id":"58dce555-3f45-4b20-b29f-79a58a033863","system_id":"levelo_inurba_marseille","lat":43.29573,"lon":5.367355,"is_reserved":false,"is_disabled":false,"rental_uris":{"android":"levelo://app?vid=58dce555-3f45-4b20-b29f-79a58a033863","ios":"levelo://app?vid=58dce555-3f45-4b20-b29f-79a58a033863"},"vehicle_type_id":"4","last_reported":1705136770,"current_range_meters":29200,"station_id":"ce4bgph2rcd13ifvqc2g","pricing_plan_id":"free"},{"bike_id":"b2f74e66-1040-4cef-89fc-12c1c00c2c65","system_id":"levelo_inurba_marseille","lat":43.29573,"lon":5.367355,"is_reserved":false,"is_disabled":false,"rental_uris":{"android":"levelo://app?vid=b2f74e66-1040-4cef-89fc-12c1c00c2c65","ios":"levelo://app?vid=b2f74e66-1040-4cef-89fc-12c1c00c2c65"},"vehicle_type_id":"4","last_reported":1705136770,"current_range_meters":23200,"station_id":"ce4bgph2rcd13ifvqc2g","pricing_plan_id":"free"},{"bike_id":"2bd36404-ddc3-4315-8960-18f39600faa7","system_id":"levelo_inurba_marseille","lat":43.296935,"lon":5.376544,"is_reserved":false,"is_disabled":false,"rental_uris":{"android":"levelo://app?vid=2bd36404-ddc3-4315-8960-18f39600faa7","ios":"levelo://app?vid=2bd36404-ddc3-4315-8960-18f39600faa7"},"vehicle_type_id":"4","last_reported":1705136770,"current_range_meters":18800,"station_id":"ce4bgkh2rcd13ifvqbl0","pricing_plan_id":"free"},{"bike_id":"cb4bbf2d-1efc-4895-b774-b7dd69d08521","system_id":"levelo_inurba_marseille","lat":43.299202,"lon":5.381513,"is_reserved":false,"is_disabled":false,"rental_uris":{"android":"levelo://app?vid=cb4bbf2d-1efc-4895-b774-b7dd69d08521","ios":"levelo://app?vid=cb4bbf2d-1efc-4895-b774-b7dd69d08521"},"vehicle_type_id":"4","last_reported":1705136770,"current_range_meters":3200,"station_id":"","pricing_plan_id":"free"},{"bike_id":"3e8783a4-dd4b-42f2-bc1a-00ed70503ac0","system_id":"levelo_inurba_marseille","lat":43.296935,"lon":5.376544,"is_reserved":false,"is_disabled":false,"rental_uris":{"android":"levelo://app?vid=3e8783a4-dd4b-42f2-bc1a-00ed70503ac0","ios":"levelo://app?vid=3e8783a4-dd4b-42f2-bc1a-00ed70503ac0"},"vehicle_type_id":"4","last_reported":1705136770,"current_range_meters":30000,"station_id":"ce4bgkh2rcd13ifvqbl0","pricing_plan_id":"free"},{"bike_id":"be7d0cab-49d4-442b-ae2c-b1811e02b0c5","system_id":"levelo_inurba_marseille","lat":43.30954,"lon":5.39025,"is_reserved":false,"is_disabled":false,"rental_uris":{"android":"levelo://app?vid=be7d0cab-49d4-442b-ae2c-b1811e02b0c5","ios":"levelo://app?vid=be7d0cab-49d4-442b-ae2c-b1811e02b0c5"},"vehicle_type_id":"4","last_reported":1705136770,"current_range_meters":30400,"station_id":"","pricing_plan_id":"free"},{"bike_id":"13066ce4-90c8-4cac-802c-672e292967eb","system_id":"levelo_inurba_marseille","lat":43.309589,"lon":5.390258,"is_reserved":false,"is_disabled":false,"rental_uris":{"android":"levelo://app?vid=13066ce4-90c8-4cac-802c-672e292967eb","ios":"levelo://app?vid=13066ce4-90c8-4cac-802c-672e292967eb"},"vehicle_type_id":"4","last_reported":1705136770,"current_range_meters":29200,"station_id":"ce4bgup2rcd13ifvqco0","pricing_plan_id":"free"},{"bike_id":"2ea14bb7-8fb8-423c-80b5-29878619b853","system_id":"levelo_inurba_marseille","lat":43.299028,"lon":5.381509,"is_reserved":false,"is_disabled":false,"rental_uris":{"android":"levelo://app?vid=2ea14bb7-8fb8-423c-80b5-29878619b853","ios":"levelo://app?vid=2ea14bb7-8fb8-423c-80b5-29878619b853"},"vehicle_type_id":"4","last_reported":1705136770,"current_range_meters":22400,"station_id":"ce4bgj12rcd13ifvqbc0","pricing_plan_id":"free"},{"bike_id":"9372db7a-6389-435e-b707-f841bf4b29a5","system_id":"levelo_inurba_marseille","lat":43.295748,"lon":5.37522,"is_reserved":false,"is_disabled":false,"rental_uris":{"android":"levelo://app?vid=9372db7a-6389-435e-b707-f841bf4b29a5","ios":"levelo://app?vid=9372db7a-6389-435e-b707-f841bf4b29a5"},"vehicle_type_id":"4","last_reported":1705136770,"current_range_meters":16800,"station_id":"ce4bgh92rcd13ifvqb50","pricing_plan_id":"free"},{"bike_id":"028f7ac0-7bec-4248-8fc4-cd69b8b1dd44","system_id":"levelo_inurba_marseille","lat":43.295748,"lon":5.37522,"is_reserved":false,"is_disabled":false,"rental_uris":{"android":"levelo://app?vid=028f7ac0-7bec-4248-8fc4-cd69b8b1dd44","ios":"levelo://app?vid=028f7ac0-7bec-4248-8fc4-cd69b8b1dd44"},"vehicle_type_id":"4","last_reported":1705136770,"current_range_meters":22400,"station_id":"ce4bgh92rcd13ifvqb50","pricing_plan_id":"free"},{"bike_id":"ea5f4047-dda4-4a3b-a2e2-c1d674697ef6","system_id":"levelo_inurba_marseille","lat":43.295748,"lon":5.37522,"is_reserved":false,"is_disabled":false,"rental_uris":{"android":"levelo://app?vid=ea5f4047-dda4-4a3b-a2e2-c1d674697ef6","ios":"levelo://app?vid=ea5f4047-dda4-4a3b-a2e2-c1d674697ef6"},"vehicle_type_id":"4","last_reported":1705136770,"current_range_meters":27600,"station_id":"ce4bgh92rcd13ifvqb50","pricing_plan_id":"free"},{"bike_id":"0ee1d827-a84b-4e9d-a6ef-2e9618f0e033","system_id":"levelo_inurba_marseille","lat":43.29627,"lon":5.37735,"is_reserved":false,"is_disabled":false,"rental_uris":{"android":"levelo://app?vid=0ee1d827-a84b-4e9d-a6ef-2e9618f0e033","ios":"levelo://app?vid=0ee1d827-a84b-4e9d-a6ef-2e9618f0e033"},"vehicle_type_id":"4","last_reported":1705136770,"current_range_meters":26000,"station_id":"ce4bgi92rcd13ifvqb90","pricing_plan_id":"free"},{"bike_id":"bc0aed08-0f1c-4cfe-94e4-970a9071064f","system_id":"levelo_inurba_marseille","lat":43.295748,"lon":5.37522,"is_reserved":false,"is_disabled":false,"rental_uris":{"android":"levelo://app?vid=bc0aed08-0f1c-4cfe-94e4-970a9071064f","ios":"levelo://app?vid=bc0aed08-0f1c-4cfe-94e4-970a9071064f"},"vehicle_type_id":"4","last_reported":1705136770,"current_range_meters":16000,"station_id":"ce4bgh92rcd13ifvqb50","pricing_plan_id":"free"},{"bike_id":"e8fe1a38-df91-438a-b9ba-06c5fd6b10b5","system_id":"levelo_inurba_marseille","lat":43.296277,"lon":5.377108,"is_reserved":false,"is_disabled":false,"rental_uris":{"android":"levelo://app?vid=e8fe1a38-df91-438a-b9ba-06c5fd6b10b5","ios":"levelo://app?vid=e8fe1a38-df91-438a-b9ba-06c5fd6b10b5"},"vehicle_type_id":"4","last_reported":1705136770,"current_range_meters":10400,"station_id":"ce4bgi92rcd13ifvqb90","pricing_plan_id":"free"},{"bike_id":"36c17b90-5c44-4b55-a50b-8190386adf79","system_id":"levelo_inurba_marseille","lat":43.29614,"lon":5.377417,"is_reserved":false,"is_disabled":false,"rental_uris":{"android":"levelo://app?vid=36c17b90-5c44-4b55-a50b-8190386adf79","ios":"levelo://app?vid=36c17b90-5c44-4b55-a50b-8190386adf79"},"vehicle_type_id":"4","last_reported":1705136770,"current_range_meters":12400,"station_id":"ce4bgi92rcd13ifvqb90","pricing_plan_id":"free"},{"bike_id":"98ee0e5d-f0f5-4f15-bdbd-ad18fedcf8f1","system_id":"levelo_inurba_marseille","lat":43.295279,"lon":5.375048,"is_reserved":false,"is_disabled":false,"rental_uris":{"android":"levelo://app?vid=98ee0e5d-f0f5-4f15-bdbd-ad18fedcf8f1","ios":"levelo://app?vid=98ee0e5d-f0f5-4f15-bdbd-ad18fedcf8f1"},"vehicle_type_id":"4","last_reported":1705136770,"current_range_meters":24400,"station_id":"ce4bgkp2rcd13ifvqbmg","pricing_plan_id":"free"},{"bike_id":"5305553e-1567-489e-bc3e-8a6ae6f22180","system_id":"levelo_inurba_marseille","lat":43.298037,"lon":5.381066,"is_reserved":false,"is_disabled":false,"rental_uris":{"android":"levelo://app?vid=5305553e-1567-489e-bc3e-8a6ae6f22180","ios":"levelo://app?vid=5305553e-1567-489e-bc3e-8a6ae6f22180"},"vehicle_type_id":"4","last_reported":1705136770,"current_range_meters":20800,"station_id":"ce4bgip2rcd13ifvqbb0","pricing_plan_id":"free"},{"bike_id":"c1933e72-9994-45aa-9740-f3ec03786a51","system_id":"levelo_inurba_marseille","lat":43.295279,"lon":5.375048,"is_reserved":false,"is_disabled":false,"rental_uris":{"android":"levelo://app?vid=c1933e72-9994-45aa-9740-f3ec03786a51","ios":"levelo://app?vid=c1933e72-9994-45aa-9740-f3ec03786a51"},"vehicle_type_id":"4","last_reported":1705136770,"current_range_meters":9600,"station_id":"ce4bgkp2rcd13ifvqbmg","pricing_plan_id":"free"},{"bike_id":"990537a3-2bed-47c5-aa1d-c829ba711167","system_id":"levelo_inurba_marseille","lat":43.295279,"lon":5.375048,"is_reserved":false,"is_disabled":false,"rental_uris":{"android":"levelo://app?vid=990537a3-2bed-47c5-aa1d-c829ba711167","ios":"levelo://app?vid=990537a3-2bed-47c5-aa1d-c829ba711167"},"vehicle_type_id":"4","last_reported":1705136770,"current_range_meters":9600,"station_id":"ce4bgkp2rcd13ifvqbmg","pricing_plan_id":"free"},{"bike_id":"e2f3f115-57b1-4e29-977c-e860be073bfe","system_id":"levelo_inurba_marseille","lat":43.295279,"lon":5.375048,"is_reserved":false,"is_disabled":false,"rental_uris":{"android":"levelo://app?vid=e2f3f115-57b1-4e29-977c-e860be073bfe","ios":"levelo://app?vid=e2f3f115-57b1-4e29-977c-e860be073bfe"},"vehicle_type_id":"4","last_reported":1705136770,"current_range_meters":30000,"station_id":"ce4bgkp2rcd13ifvqbmg","pricing_plan_id":"free"},{"bike_id":"eafbebca-c64a-4c74-bf96-fc7f6d0228df","system_id":"levelo_inurba_marseille","lat":43.299717,"lon":5.384845,"is_reserved":false,"is_disabled":false,"rental_uris":{"android":"levelo://app?vid=eafbebca-c64a-4c74-bf96-fc7f6d0228df","ios":"levelo://app?vid=eafbebca-c64a-4c74-bf96-fc7f6d0228df"},"vehicle_type_id":"4","last_reported":1705136770,"current_range_meters":21600,"station_id":"ce4bgj92rcd13ifvqbd0","pricing_plan_id":"free"},{"bike_id":"f9d3e243-51d0-47e9-808b-0f57e440971e","system_id":"levelo_inurba_marseille","lat":43.295279,"lon":5.375048,"is_reserved":false,"is_disabled":false,"rental_uris":{"android":"levelo://app?vid=f9d3e243-51d0-47e9-808b-0f57e440971e","ios":"levelo://app?vid=f9d3e243-51d0-47e9-808b-0f57e440971e"},"vehicle_type_id":"4","last_reported":1705136770,"current_range_meters":14400,"station_id":"ce4bgkp2rcd13ifvqbmg","pricing_plan_id":"free"},{"bike_id":"e180b814-d09b-427b-a111-cb0606b9d307","system_id":"levelo_inurba_marseille","lat":43.295279,"lon":5.375048,"is_reserved":false,"is_disabled":false,"rental_uris":{"android":"levelo://app?vid=e180b814-d09b-427b-a111-cb0606b9d307","ios":"levelo://app?vid=e180b814-d09b-427b-a111-cb0606b9d307"},"vehicle_type_id":"4","last_reported":1705136770,"current_range_meters":22400,"station_id":"ce4bgkp2rcd13ifvqbmg","pricing_plan_id":"free"},{"bike_id":"01887aee-8f1b-4246-88a6-010114addeec","system_id":"levelo_inurba_marseille","lat":43.32367,"lon":5.388836,"is_reserved":false,"is_disabled":false,"rental_uris":{"android":"levelo://app?vid=01887aee-8f1b-4246-88a6-010114addeec","ios":"levelo://app?vid=01887aee-8f1b-4246-88a6-010114addeec"},"vehicle_type_id":"4","last_reported":1705136770,"current_range_meters":19600,"station_id":"ce4bhqp2rcd13ifvqhog","pricing_plan_id":"free"},{"bike_id":"c7209b03-c048-4e11-b528-d0d2431e171c","system_id":"levelo_inurba_marseille","lat":43.32367,"lon":5.388836,"is_reserved":false,"is_disabled":false,"rental_uris":{"android":"levelo://app?vid=c7209b03-c048-4e11-b528-d0d2431e171c","ios":"levelo://app?vid=c7209b03-c048-4e11-b528-d0d2431e171c"},"vehicle_type_id":"4","last_reported":1705136770,"current_range_meters":6800,"station_id":"ce4bhqp2rcd13ifvqhog","pricing_plan_id":"free"},{"bike_id":"44fd1d69-6347-422e-9e50-eb353dee6d02","system_id":"levelo_inurba_marseille","lat":43.32367,"lon":5.388836,"is_reserved":false,"is_disabled":false,"rental_uris":{"android":"levelo://app?vid=44fd1d69-6347-422e-9e50-eb353dee6d02","ios":"levelo://app?vid=44fd1d69-6347-422e-9e50-eb353dee6d02"},"vehicle_type_id":"4","last_reported":1705136770,"current_range_meters":29200,"station_id":"ce4bhqp2rcd13ifvqhog","pricing_plan_id":"free"},{"bike_id":"caa1f338-cc9c-4b93-b4be-c233386bc22b","system_id":"levelo_inurba_marseille","lat":43.32367,"lon":5.388836,"is_reserved":false,"is_disabled":false,"rental_uris":{"android":"levelo://app?vid=caa1f338-cc9c-4b93-b4be-c233386bc22b","ios":"levelo://app?vid=caa1f338-cc9c-4b93-b4be-c233386bc22b"},"vehicle_type_id":"4","last_reported":1705136770,"current_range_meters":22000,"station_id":"ce4bhqp2rcd13ifvqhog","pricing_plan_id":"free"},{"bike_id":"096a2a69-d5f2-49d5-ace4-f39be7184701","system_id":"levelo_inurba_marseille","lat":43.29602,"lon":5.381084,"is_reserved":false,"is_disabled":false,"rental_uris":{"android":"levelo://app?vid=096a2a69-d5f2-49d5-ace4-f39be7184701","ios":"levelo://app?vid=096a2a69-d5f2-49d5-ace4-f39be7184701"},"vehicle_type_id":"4","last_reported":1705136770,"current_range_meters":9600,"station_id":"ce4bgl12rcd13ifvqbo0","pricing_plan_id":"free"},{"bike_id":"35320c19-6321-433c-bcb2-0c3d3a3a8109","system_id":"levelo_inurba_marseille","lat":43.29601,"lon":5.381084,"is_reserved":false,"is_disabled":false,"rental_uris":{"android":"levelo://app?vid=35320c19-6321-433c-bcb2-0c3d3a3a8109","ios":"levelo://app?vid=35320c19-6321-433c-bcb2-0c3d3a3a8109"},"vehicle_type_id":"4","last_reported":1705136770,"current_range_meters":28800,"station_id":"ce4bgl12rcd13ifvqbo0","pricing_plan_id":"free"},{"bike_id":"c7046fba-8b26-46ed-a9a3-ccf7edff3d10","system_id":"levelo_inurba_marseille","lat":43.29602,"lon":5.381084,"is_reserved":false,"is_disabled":false,"rental_uris":{"android":"levelo://app?vid=c7046fba-8b26-46ed-a9a3-ccf7edff3d10","ios":"levelo://app?vid=c7046fba-8b26-46ed-a9a3-ccf7edff3d10"},"vehicle_type_id":"4","last_reported":1705136770,"current_range_meters":31200,"station_id":"ce4bgl12rcd13ifvqbo0","pricing_plan_id":"free"},{"bike_id":"0f056b09-8405-4761-874d-2e696fbcfa64","system_id":"levelo_inurba_marseille","lat":43.29601,"lon":5.381084,"is_reserved":false,"is_disabled":false,"rental_uris":{"android":"levelo://app?vid=0f056b09-8405-4761-874d-2e696fbcfa64","ios":"levelo://app?vid=0f056b09-8405-4761-874d-2e696fbcfa64"},"vehicle_type_id":"4","last_reported":1705136770,"current_range_meters":24400,"station_id":"ce4bgl12rcd13ifvqbo0","pricing_plan_id":"free"},{"bike_id":"906d9cb4-ee4c-4760-80f3-5c37e1ca3bb6","system_id":"levelo_inurba_marseille","lat":43.293259,"lon":5.371586,"is_reserved":false,"is_disabled":false,"rental_uris":{"android":"levelo://app?vid=906d9cb4-ee4c-4760-80f3-5c37e1ca3bb6","ios":"levelo://app?vid=906d9cb4-ee4c-4760-80f3-5c37e1ca3bb6"},"vehicle_type_id":"4","last_reported":1705136770,"current_range_meters":28000,"station_id":"ce4bgh92rcd13ifvqb40","pricing_plan_id":"free"},{"bike_id":"228232b5-4838-406b-a6b1-5ccfd8f0002b","system_id":"levelo_inurba_marseille","lat":43.293259,"lon":5.371586,"is_reserved":false,"is_disabled":false,"rental_uris":{"android":"levelo://app?vid=228232b5-4838-406b-a6b1-5ccfd8f0002b","ios":"levelo://app?vid=228232b5-4838-406b-a6b1-5ccfd8f0002b"},"vehicle_type_id":"4","last_reported":1705136770,"current_range_meters":5200,"station_id":"ce4bgh92rcd13ifvqb40","pricing_plan_id":"free"},{"bike_id":"a1a7934c-4f19-4fe3-88c3-c390352f9cc4","system_id":"levelo_inurba_marseille","lat":43.306,"lon":5.39355,"is_reserved":false,"is_disabled":false,"rental_uris":{"android":"levelo://app?vid=a1a7934c-4f19-4fe3-88c3-c390352f9cc4","ios":"levelo://app?vid=a1a7934c-4f19-4fe3-88c3-c390352f9cc4"},"vehicle_type_id":"4","last_reported":1705136770,"current_range_meters":6000,"station_id":"ce4bh0p2rcd13ifvqd80","pricing_plan_id":"free"},{"bike_id":"f77cd4be-935c-4cce-838e-b3d6354843c4","system_id":"levelo_inurba_marseille","lat":43.303002,"lon":5.392142,"is_reserved":false,"is_disabled":false,"rental_uris":{"android":"levelo://app?vid=f77cd4be-935c-4cce-838e-b3d6354843c4","ios":"levelo://app?vid=f77cd4be-935c-4cce-838e-b3d6354843c4"},"vehicle_type_id":"4","last_reported":1705136770,"current_range_meters":28400,"station_id":"ce4bgkh2rcd13ifvqbk0","pricing_plan_id":"free"},{"bike_id":"0b0bf8f0-0427-4bb2-aa0e-6e3631914f7e","system_id":"levelo_inurba_marseille","lat":43.2936,"lon":5.37835,"is_reserved":false,"is_disabled":false,"rental_uris":{"android":"levelo://app?vid=0b0bf8f0-0427-4bb2-aa0e-6e3631914f7e","ios":"levelo://app?vid=0b0bf8f0-0427-4bb2-aa0e-6e3631914f7e"},"vehicle_type_id":"4","last_reported":1705136770,"current_range_meters":30000,"station_id":"ce4bgjh2rcd13ifvqbf0","pricing_plan_id":"free"},{"bike_id":"de5d36b7-cab6-48b7-9ae0-c760937baf03","system_id":"levelo_inurba_marseille","lat":43.292311,"lon":5.360731,"is_reserved":false,"is_disabled":false,"rental_uris":{"android":"levelo://app?vid=de5d36b7-cab6-48b7-9ae0-c760937baf03","ios":"levelo://app?vid=de5d36b7-cab6-48b7-9ae0-c760937baf03"},"vehicle_type_id":"4","last_reported":1705136770,"current_range_meters":27200,"station_id":"ce4bhbh2rcd13ifvqeqg","pricing_plan_id":"free"},{"bike_id":"b04884a7-483b-474f-a443-3296c35ebb4b","system_id":"levelo_inurba_marseille","lat":43.292311,"lon":5.360731,"is_reserved":false,"is_disabled":false,"rental_uris":{"android":"levelo://app?vid=b04884a7-483b-474f-a443-3296c35ebb4b","ios":"levelo://app?vid=b04884a7-483b-474f-a443-3296c35ebb4b"},"vehicle_type_id":"4","last_reported":1705136770,"current_range_meters":12800,"station_id":"ce4bhbh2rcd13ifvqeqg","pricing_plan_id":"free"},{"bike_id":"84b339c3-4224-4c23-8852-f0c45600a29f","system_id":"levelo_inurba_marseille","lat":43.292311,"lon":5.360731,"is_reserved":false,"is_disabled":false,"rental_uris":{"android":"levelo://app?vid=84b339c3-4224-4c23-8852-f0c45600a29f","ios":"levelo://app?vid=84b339c3-4224-4c23-8852-f0c45600a29f"},"vehicle_type_id":"4","last_reported":1705136770,"current_range_meters":28400,"station_id":"ce4bhbh2rcd13ifvqeqg","pricing_plan_id":"free"},{"bike_id":"71b8b916-f5f3-48ba-ab67-dccbb47b305e","system_id":"levelo_inurba_marseille","lat":43.291671,"lon":5.371575,"is_reserved":false,"is_disabled":false,"rental_uris":{"android":"levelo://app?vid=71b8b916-f5f3-48ba-ab67-dccbb47b305e","ios":"levelo://app?vid=71b8b916-f5f3-48ba-ab67-dccbb47b305e"},"vehicle_type_id":"4","last_reported":1705136770,"current_range_meters":26000,"station_id":"ce4bha92rcd13ifvqeh0","pricing_plan_id":"free"},{"bike_id":"fb7444d8-ba24-4e49-a92c-2f4fc9712743","system_id":"levelo_inurba_marseille","lat":43.291671,"lon":5.371575,"is_reserved":false,"is_disabled":false,"rental_uris":{"android":"levelo://app?vid=fb7444d8-ba24-4e49-a92c-2f4fc9712743","ios":"levelo://app?vid=fb7444d8-ba24-4e49-a92c-2f4fc9712743"},"vehicle_type_id":"4","last_reported":1705136770,"current_range_meters":23200,"station_id":"ce4bha92rcd13ifvqeh0","pricing_plan_id":"free"},{"bike_id":"9679d446-ab52-4bdd-ab33-8857d586dedb","system_id":"levelo_inurba_marseille","lat":43.29873,"lon":5.38912,"is_reserved":false,"is_disabled":false,"rental_uris":{"android":"levelo://app?vid=9679d446-ab52-4bdd-ab33-8857d586dedb","ios":"levelo://app?vid=9679d446-ab52-4bdd-ab33-8857d586dedb"},"vehicle_type_id":"4","last_reported":1705136770,"current_range_meters":17200,"station_id":"","pricing_plan_id":"free"},{"bike_id":"563b73f0-c2d9-4e78-af4c-ca736a989f3b","system_id":"levelo_inurba_marseille","lat":43.29865,"lon":5.3891,"is_reserved":false,"is_disabled":false,"rental_uris":{"android":"levelo://app?vid=563b73f0-c2d9-4e78-af4c-ca736a989f3b","ios":"levelo://app?vid=563b73f0-c2d9-4e78-af4c-ca736a989f3b"},"vehicle_type_id":"4","last_reported":1705136770,"current_range_meters":18400,"station_id":"","pricing_plan_id":"free"},{"bike_id":"776745ba-573e-4dbb-b4c6-2af66887a140","system_id":"levelo_inurba_marseille","lat":43.30884,"lon":5.39622,"is_reserved":false,"is_disabled":false,"rental_uris":{"android":"levelo://app?vid=776745ba-573e-4dbb-b4c6-2af66887a140","ios":"levelo://app?vid=776745ba-573e-4dbb-b4c6-2af66887a140"},"vehicle_type_id":"4","last_reported":1705136770,"current_range_meters":28800,"station_id":"ce4bh012rcd13ifvqcv0","pricing_plan_id":"free"},{"bike_id":"7dedda26-fa4b-4e1b-8818-b4ebb4db53ed","system_id":"levelo_inurba_marseille","lat":43.30885,"lon":5.396273,"is_reserved":false,"is_disabled":false,"rental_uris":{"android":"levelo://app?vid=7dedda26-fa4b-4e1b-8818-b4ebb4db53ed","ios":"levelo://app?vid=7dedda26-fa4b-4e1b-8818-b4ebb4db53ed"},"vehicle_type_id":"4","last_reported":1705136770,"current_range_meters":30000,"station_id":"ce4bh012rcd13ifvqcv0","pricing_plan_id":"free"},{"bike_id":"7b7a190a-074e-4009-a427-9a68bd6d2e1e","system_id":"levelo_inurba_marseille","lat":43.308878,"lon":5.39632,"is_reserved":false,"is_disabled":false,"rental_uris":{"android":"levelo://app?vid=7b7a190a-074e-4009-a427-9a68bd6d2e1e","ios":"levelo://app?vid=7b7a190a-074e-4009-a427-9a68bd6d2e1e"},"vehicle_type_id":"4","last_reported":1705136770,"current_range_meters":1600,"station_id":"ce4bh012rcd13ifvqcv0","pricing_plan_id":"free"},{"bike_id":"c17af9c0-fb6a-4cf1-8b9a-be69a34523da","system_id":"levelo_inurba_marseille","lat":43.291994,"lon":5.357886,"is_reserved":false,"is_disabled":false,"rental_uris":{"android":"levelo://app?vid=c17af9c0-fb6a-4cf1-8b9a-be69a34523da","ios":"levelo://app?vid=c17af9c0-fb6a-4cf1-8b9a-be69a34523da"},"vehicle_type_id":"4","last_reported":1705136770,"current_range_meters":27200,"station_id":"ce4bhb12rcd13ifvqel0","pricing_plan_id":"free"},{"bike_id":"f70d8982-ed51-4114-8bb8-7016163654eb","system_id":"levelo_inurba_marseille","lat":43.291994,"lon":5.357886,"is_reserved":false,"is_disabled":false,"rental_uris":{"android":"levelo://app?vid=f70d8982-ed51-4114-8bb8-7016163654eb","ios":"levelo://app?vid=f70d8982-ed51-4114-8bb8-7016163654eb"},"vehicle_type_id":"4","last_reported":1705136770,"current_range_meters":3600,"station_id":"ce4bhb12rcd13ifvqel0","pricing_plan_id":"free"},{"bike_id":"9e127c90-df79-4f4d-be1c-7facd65db7e5","system_id":"levelo_inurba_marseille","lat":43.313291,"lon":5.396838,"is_reserved":false,"is_disabled":false,"rental_uris":{"android":"levelo://app?vid=9e127c90-df79-4f4d-be1c-7facd65db7e5","ios":"levelo://app?vid=9e127c90-df79-4f4d-be1c-7facd65db7e5"},"vehicle_type_id":"4","last_reported":1705136770,"current_range_meters":10000,"station_id":"ce4bgvp2rcd13ifvqcu0","pricing_plan_id":"free"},{"bike_id":"26207d1c-f069-466e-9c38-0ff105d7b08d","system_id":"levelo_inurba_marseille","lat":43.313291,"lon":5.396838,"is_reserved":false,"is_disabled":false,"rental_uris":{"android":"levelo://app?vid=26207d1c-f069-466e-9c38-0ff105d7b08d","ios":"levelo://app?vid=26207d1c-f069-466e-9c38-0ff105d7b08d"},"vehicle_type_id":"4","last_reported":1705136770,"current_range_meters":18000,"station_id":"ce4bgvp2rcd13ifvqcu0","pricing_plan_id":"free"},{"bike_id":"91992f47-e310-47ab-8ed8-c18468b452ad","system_id":"levelo_inurba_marseille","lat":43.313291,"lon":5.396838,"is_reserved":false,"is_disabled":false,"rental_uris":{"android":"levelo://app?vid=91992f47-e310-47ab-8ed8-c18468b452ad","ios":"levelo://app?vid=91992f47-e310-47ab-8ed8-c18468b452ad"},"vehicle_type_id":"4","last_reported":1705136770,"current_range_meters":27600,"station_id":"ce4bgvp2rcd13ifvqcu0","pricing_plan_id":"free"},{"bike_id":"c8bb5c97-56bd-45a2-b31d-e2539b27e96e","system_id":"levelo_inurba_marseille","lat":43.31329,"lon":5.3969,"is_reserved":false,"is_disabled":false,"rental_uris":{"android":"levelo://app?vid=c8bb5c97-56bd-45a2-b31d-e2539b27e96e","ios":"levelo://app?vid=c8bb5c97-56bd-45a2-b31d-e2539b27e96e"},"vehicle_type_id":"4","last_reported":1705136770,"current_range_meters":16800,"station_id":"ce4bgvp2rcd13ifvqcu0","pricing_plan_id":"free"},{"bike_id":"7612d951-087d-44b8-948c-6105aa731476","system_id":"levelo_inurba_marseille","lat":43.313308,"lon":5.396942,"is_reserved":false,"is_disabled":false,"rental_uris":{"android":"levelo://app?vid=7612d951-087d-44b8-948c-6105aa731476","ios":"levelo://app?vid=7612d951-087d-44b8-948c-6105aa731476"},"vehicle_type_id":"4","last_reported":1705136770,"current_range_meters":30400,"station_id":"ce4bgvp2rcd13ifvqcu0","pricing_plan_id":"free"},{"bike_id":"8da5845e-9528-41d5-9943-f068384a9b4f","system_id":"levelo_inurba_marseille","lat":43.313291,"lon":5.396838,"is_reserved":false,"is_disabled":false,"rental_uris":{"android":"levelo://app?vid=8da5845e-9528-41d5-9943-f068384a9b4f","ios":"levelo://app?vid=8da5845e-9528-41d5-9943-f068384a9b4f"},"vehicle_type_id":"4","last_reported":1705136770,"current_range_meters":7200,"station_id":"ce4bgvp2rcd13ifvqcu0","pricing_plan_id":"free"},{"bike_id":"89df7512-4149-4794-bdcb-e2911fca8b5d","system_id":"levelo_inurba_marseille","lat":43.31327,"lon":5.39697,"is_reserved":false,"is_disabled":false,"rental_uris":{"android":"levelo://app?vid=89df7512-4149-4794-bdcb-e2911fca8b5d","ios":"levelo://app?vid=89df7512-4149-4794-bdcb-e2911fca8b5d"},"vehicle_type_id":"4","last_reported":1705136770,"current_range_meters":29200,"station_id":"ce4bgvp2rcd13ifvqcu0","pricing_plan_id":"free"},{"bike_id":"cf5358ba-8297-4b7c-93f1-8ab681882157","system_id":"levelo_inurba_marseille","lat":43.31331,"lon":5.397,"is_reserved":false,"is_disabled":false,"rental_uris":{"android":"levelo://app?vid=cf5358ba-8297-4b7c-93f1-8ab681882157","ios":"levelo://app?vid=cf5358ba-8297-4b7c-93f1-8ab681882157"},"vehicle_type_id":"4","last_reported":1705136770,"current_range_meters":29200,"station_id":"ce4bgvp2rcd13ifvqcu0","pricing_plan_id":"free"},{"bike_id":"5744f76d-13d8-499b-b5ad-7e3cb3fd7928","system_id":"levelo_inurba_marseille","lat":43.309047,"lon":5.396551,"is_reserved":false,"is_disabled":false,"rental_uris":{"android":"levelo://app?vid=5744f76d-13d8-499b-b5ad-7e3cb3fd7928","ios":"levelo://app?vid=5744f76d-13d8-499b-b5ad-7e3cb3fd7928"},"vehicle_type_id":"4","last_reported":1705136770,"current_range_meters":2400,"station_id":"ce4bh012rcd13ifvqcv0","pricing_plan_id":"free"},{"bike_id":"a5caa440-10fa-48a8-9ee7-610664dae6f8","system_id":"levelo_inurba_marseille","lat":43.313291,"lon":5.396838,"is_reserved":false,"is_disabled":false,"rental_uris":{"android":"levelo://app?vid=a5caa440-10fa-48a8-9ee7-610664dae6f8","ios":"levelo://app?vid=a5caa440-10fa-48a8-9ee7-610664dae6f8"},"vehicle_type_id":"4","last_reported":1705136770,"current_range_meters":29200,"station_id":"ce4bgvp2rcd13ifvqcu0","pricing_plan_id":"free"},{"bike_id":"815626a4-2df5-4ab4-a6c6-7f6786b99d7c","system_id":"levelo_inurba_marseille","lat":43.309038,"lon":5.396546,"is_reserved":false,"is_disabled":false,"rental_uris":{"android":"levelo://app?vid=815626a4-2df5-4ab4-a6c6-7f6786b99d7c","ios":"levelo://app?vid=815626a4-2df5-4ab4-a6c6-7f6786b99d7c"},"vehicle_type_id":"4","last_reported":1705136770,"current_range_meters":8400,"station_id":"ce4bh012rcd13ifvqcv0","pricing_plan_id":"free"},{"bike_id":"f70dc35f-d9d7-4074-b692-93d4c4e1e5a3","system_id":"levelo_inurba_marseille","lat":43.290779,"lon":5.371482,"is_reserved":false,"is_disabled":false,"rental_uris":{"android":"levelo://app?vid=f70dc35f-d9d7-4074-b692-93d4c4e1e5a3","ios":"levelo://app?vid=f70dc35f-d9d7-4074-b692-93d4c4e1e5a3"},"vehicle_type_id":"4","last_reported":1705136770,"current_range_meters":11200,"station_id":"ce4bh5p2rcd13ifvqe4g","pricing_plan_id":"free"},{"bike_id":"2c8a0ecf-0663-42de-9d7a-6872eecd3c2f","system_id":"levelo_inurba_marseille","lat":43.290779,"lon":5.371482,"is_reserved":false,"is_disabled":false,"rental_uris":{"android":"levelo://app?vid=2c8a0ecf-0663-42de-9d7a-6872eecd3c2f","ios":"levelo://app?vid=2c8a0ecf-0663-42de-9d7a-6872eecd3c2f"},"vehicle_type_id":"4","last_reported":1705136770,"current_range_meters":30000,"station_id":"ce4bh5p2rcd13ifvqe4g","pricing_plan_id":"free"},{"bike_id":"02257c59-bc1b-4f9f-847f-91d9a512292d","system_id":"levelo_inurba_marseille","lat":43.290631,"lon":5.359244,"is_reserved":false,"is_disabled":false,"rental_uris":{"android":"levelo://app?vid=02257c59-bc1b-4f9f-847f-91d9a512292d","ios":"levelo://app?vid=02257c59-bc1b-4f9f-847f-91d9a512292d"},"vehicle_type_id":"4","last_reported":1705136770,"current_range_meters":28000,"station_id":"ce4bha92rcd13ifvqeg0","pricing_plan_id":"free"},{"bike_id":"748bd0ed-8116-41a9-9675-9d7168b600ef","system_id":"levelo_inurba_marseille","lat":43.26681,"lon":5.382694,"is_reserved":false,"is_disabled":false,"rental_uris":{"android":"levelo://app?vid=748bd0ed-8116-41a9-9675-9d7168b600ef","ios":"levelo://app?vid=748bd0ed-8116-41a9-9675-9d7168b600ef"},"vehicle_type_id":"4","last_reported":1705136770,"current_range_meters":31200,"station_id":"ce4bhg92rcd13ifvqf90","pricing_plan_id":"free"},{"bike_id":"54ec287c-4bb2-489c-b7ed-448721835ebf","system_id":"levelo_inurba_marseille","lat":43.293337,"lon":5.384602,"is_reserved":false,"is_disabled":false,"rental_uris":{"android":"levelo://app?vid=54ec287c-4bb2-489c-b7ed-448721835ebf","ios":"levelo://app?vid=54ec287c-4bb2-489c-b7ed-448721835ebf"},"vehicle_type_id":"4","last_reported":1705136770,"current_range_meters":4800,"station_id":"","pricing_plan_id":"free"},{"bike_id":"c5ff2dc3-25b6-4dea-ab4b-5da94adfc81d","system_id":"levelo_inurba_marseille","lat":43.294153,"lon":5.386305,"is_reserved":false,"is_disabled":false,"rental_uris":{"android":"levelo://app?vid=c5ff2dc3-25b6-4dea-ab4b-5da94adfc81d","ios":"levelo://app?vid=c5ff2dc3-25b6-4dea-ab4b-5da94adfc81d"},"vehicle_type_id":"4","last_reported":1705136770,"current_range_meters":29200,"station_id":"ce4bh2h2rcd13ifvqdh0","pricing_plan_id":"free"},{"bike_id":"29dab7ad-94ca-4b64-8355-24ac2c4de771","system_id":"levelo_inurba_marseille","lat":43.289184,"lon":5.366408,"is_reserved":false,"is_disabled":false,"rental_uris":{"android":"levelo://app?vid=29dab7ad-94ca-4b64-8355-24ac2c4de771","ios":"levelo://app?vid=29dab7ad-94ca-4b64-8355-24ac2c4de771"},"vehicle_type_id":"4","last_reported":1705136770,"current_range_meters":3600,"station_id":"ce4bhap2rcd13ifvqek0","pricing_plan_id":"free"},{"bike_id":"298d93b1-0712-4b8b-9999-6f6b71a533f1","system_id":"levelo_inurba_marseille","lat":43.294166,"lon":5.386274,"is_reserved":false,"is_disabled":false,"rental_uris":{"android":"levelo://app?vid=298d93b1-0712-4b8b-9999-6f6b71a533f1","ios":"levelo://app?vid=298d93b1-0712-4b8b-9999-6f6b71a533f1"},"vehicle_type_id":"4","last_reported":1705136770,"current_range_meters":16400,"station_id":"ce4bh2h2rcd13ifvqdh0","pricing_plan_id":"free"},{"bike_id":"cc4097ad-ee18-4fff-8433-a901f7f98333","system_id":"levelo_inurba_marseille","lat":43.294162,"lon":5.386292,"is_reserved":false,"is_disabled":false,"rental_uris":{"android":"levelo://app?vid=cc4097ad-ee18-4fff-8433-a901f7f98333","ios":"levelo://app?vid=cc4097ad-ee18-4fff-8433-a901f7f98333"},"vehicle_type_id":"4","last_reported":1705136770,"current_range_meters":28000,"station_id":"ce4bh2h2rcd13ifvqdh0","pricing_plan_id":"free"},{"bike_id":"9d0011a9-ae69-47b9-ab04-98f066355f5d","system_id":"levelo_inurba_marseille","lat":43.289184,"lon":5.366408,"is_reserved":false,"is_disabled":false,"rental_uris":{"android":"levelo://app?vid=9d0011a9-ae69-47b9-ab04-98f066355f5d","ios":"levelo://app?vid=9d0011a9-ae69-47b9-ab04-98f066355f5d"},"vehicle_type_id":"4","last_reported":1705136770,"current_range_meters":17600,"station_id":"ce4bhap2rcd13ifvqek0","pricing_plan_id":"free"},{"bike_id":"e3fb68a1-088f-43d6-a580-e9c56320766e","system_id":"levelo_inurba_marseille","lat":43.29412,"lon":5.38637,"is_reserved":false,"is_disabled":false,"rental_uris":{"android":"levelo://app?vid=e3fb68a1-088f-43d6-a580-e9c56320766e","ios":"levelo://app?vid=e3fb68a1-088f-43d6-a580-e9c56320766e"},"vehicle_type_id":"4","last_reported":1705136770,"current_range_meters":26800,"station_id":"ce4bh2h2rcd13ifvqdh0","pricing_plan_id":"free"},{"bike_id":"a22a6cfc-a74a-4830-bc00-da132dec4fda","system_id":"levelo_inurba_marseille","lat":43.289468,"lon":5.363719,"is_reserved":false,"is_disabled":false,"rental_uris":{"android":"levelo://app?vid=a22a6cfc-a74a-4830-bc00-da132dec4fda","ios":"levelo://app?vid=a22a6cfc-a74a-4830-bc00-da132dec4fda"},"vehicle_type_id":"4","last_reported":1705136770,"current_range_meters":19600,"station_id":"ce4bhc92rcd13ifvqetg","pricing_plan_id":"free"},{"bike_id":"38f35043-8331-4eae-9d20-312f0ae404c8","system_id":"levelo_inurba_marseille","lat":43.292644,"lon":5.384257,"is_reserved":false,"is_disabled":false,"rental_uris":{"android":"levelo://app?vid=38f35043-8331-4eae-9d20-312f0ae404c8","ios":"levelo://app?vid=38f35043-8331-4eae-9d20-312f0ae404c8"},"vehicle_type_id":"4","last_reported":1705136770,"current_range_meters":3600,"station_id":"ce4bh692rcd13ifvqea0","pricing_plan_id":"free"},{"bike_id":"fac6688b-720f-4f6f-8121-dbdece3892b6","system_id":"levelo_inurba_marseille","lat":43.292644,"lon":5.384257,"is_reserved":false,"is_disabled":false,"rental_uris":{"android":"levelo://app?vid=fac6688b-720f-4f6f-8121-dbdece3892b6","ios":"levelo://app?vid=fac6688b-720f-4f6f-8121-dbdece3892b6"},"vehicle_type_id":"4","last_reported":1705136770,"current_range_meters":17200,"station_id":"ce4bh692rcd13ifvqea0","pricing_plan_id":"free"},{"bike_id":"3f5b320c-3acd-4cf1-8865-4380fb46b991","system_id":"levelo_inurba_marseille","lat":43.292644,"lon":5.384257,"is_reserved":false,"is_disabled":false,"rental_uris":{"android":"levelo://app?vid=3f5b320c-3acd-4cf1-8865-4380fb46b991","ios":"levelo://app?vid=3f5b320c-3acd-4cf1-8865-4380fb46b991"},"vehicle_type_id":"4","last_reported":1705136770,"current_range_meters":29200,"station_id":"ce4bh692rcd13ifvqea0","pricing_plan_id":"free"},{"bike_id":"7f3b27cd-af9c-4ce8-86e0-8a1dca22ebaa","system_id":"levelo_inurba_marseille","lat":43.304274,"lon":5.397513,"is_reserved":false,"is_disabled":false,"rental_uris":{"android":"levelo://app?vid=7f3b27cd-af9c-4ce8-86e0-8a1dca22ebaa","ios":"levelo://app?vid=7f3b27cd-af9c-4ce8-86e0-8a1dca22ebaa"},"vehicle_type_id":"4","last_reported":1705136770,"current_range_meters":21200,"station_id":"ce4bh092rcd13ifvqd20","pricing_plan_id":"free"},{"bike_id":"8317c1ca-d86d-4824-b72f-56c2c63ecfa4","system_id":"levelo_inurba_marseille","lat":43.290104,"lon":5.356111,"is_reserved":false,"is_disabled":false,"rental_uris":{"android":"levelo://app?vid=8317c1ca-d86d-4824-b72f-56c2c63ecfa4","ios":"levelo://app?vid=8317c1ca-d86d-4824-b72f-56c2c63ecfa4"},"vehicle_type_id":"4","last_reported":1705136770,"current_range_meters":27200,"station_id":"ce4bhb92rcd13ifvqen0","pricing_plan_id":"free"},{"bike_id":"7cb4740d-4899-45de-b6a7-73e449a8f2e6","system_id":"levelo_inurba_marseille","lat":43.290995,"lon":5.381361,"is_reserved":false,"is_disabled":false,"rental_uris":{"android":"levelo://app?vid=7cb4740d-4899-45de-b6a7-73e449a8f2e6","ios":"levelo://app?vid=7cb4740d-4899-45de-b6a7-73e449a8f2e6"},"vehicle_type_id":"4","last_reported":1705136770,"current_range_meters":23200,"station_id":"ce4bh512rcd13ifvqe2g","pricing_plan_id":"free"},{"bike_id":"c75d457c-b595-4a8a-8014-f535051e400c","system_id":"levelo_inurba_marseille","lat":43.290995,"lon":5.381361,"is_reserved":false,"is_disabled":false,"rental_uris":{"android":"levelo://app?vid=c75d457c-b595-4a8a-8014-f535051e400c","ios":"levelo://app?vid=c75d457c-b595-4a8a-8014-f535051e400c"},"vehicle_type_id":"4","last_reported":1705136770,"current_range_meters":28800,"station_id":"ce4bh512rcd13ifvqe2g","pricing_plan_id":"free"},{"bike_id":"5d632ec4-6458-46b7-bbaa-fe531d87c9b9","system_id":"levelo_inurba_marseille","lat":43.290995,"lon":5.381361,"is_reserved":false,"is_disabled":false,"rental_uris":{"android":"levelo://app?vid=5d632ec4-6458-46b7-bbaa-fe531d87c9b9","ios":"levelo://app?vid=5d632ec4-6458-46b7-bbaa-fe531d87c9b9"},"vehicle_type_id":"4","last_reported":1705136770,"current_range_meters":24800,"station_id":"ce4bh512rcd13ifvqe2g","pricing_plan_id":"free"},{"bike_id":"5ff0cdee-bff9-4a03-878a-ccd8b54fc607","system_id":"levelo_inurba_marseille","lat":43.290995,"lon":5.381361,"is_reserved":false,"is_disabled":false,"rental_uris":{"android":"levelo://app?vid=5ff0cdee-bff9-4a03-878a-ccd8b54fc607","ios":"levelo://app?vid=5ff0cdee-bff9-4a03-878a-ccd8b54fc607"},"vehicle_type_id":"4","last_reported":1705136770,"current_range_meters":27200,"station_id":"ce4bh512rcd13ifvqe2g","pricing_plan_id":"free"},{"bike_id":"d69a3d98-bc15-41e7-96e9-4ee67d34f6f7","system_id":"levelo_inurba_marseille","lat":43.290995,"lon":5.381361,"is_reserved":false,"is_disabled":false,"rental_uris":{"android":"levelo://app?vid=d69a3d98-bc15-41e7-96e9-4ee67d34f6f7","ios":"levelo://app?vid=d69a3d98-bc15-41e7-96e9-4ee67d34f6f7"},"vehicle_type_id":"4","last_reported":1705136770,"current_range_meters":29600,"station_id":"ce4bh512rcd13ifvqe2g","pricing_plan_id":"free"},{"bike_id":"7d840861-cad0-4b20-beeb-34f46cb52abc","system_id":"levelo_inurba_marseille","lat":43.290995,"lon":5.381361,"is_reserved":false,"is_disabled":false,"rental_uris":{"android":"levelo://app?vid=7d840861-cad0-4b20-beeb-34f46cb52abc","ios":"levelo://app?vid=7d840861-cad0-4b20-beeb-34f46cb52abc"},"vehicle_type_id":"4","last_reported":1705136770,"current_range_meters":26000,"station_id":"ce4bh512rcd13ifvqe2g","pricing_plan_id":"free"},{"bike_id":"c28bf7d9-a577-46aa-bf40-4728418d5606","system_id":"levelo_inurba_marseille","lat":43.330442,"lon":5.389148,"is_reserved":false,"is_disabled":false,"rental_uris":{"android":"levelo://app?vid=c28bf7d9-a577-46aa-bf40-4728418d5606","ios":"levelo://app?vid=c28bf7d9-a577-46aa-bf40-4728418d5606"},"vehicle_type_id":"4","last_reported":1705136770,"current_range_meters":3600,"station_id":"ce4bhr92rcd13ifvqhrg","pricing_plan_id":"free"},{"bike_id":"5e21ea74-79fb-445f-a1fd-0d2b8da69ae3","system_id":"levelo_inurba_marseille","lat":43.330442,"lon":5.389148,"is_reserved":false,"is_disabled":false,"rental_uris":{"android":"levelo://app?vid=5e21ea74-79fb-445f-a1fd-0d2b8da69ae3","ios":"levelo://app?vid=5e21ea74-79fb-445f-a1fd-0d2b8da69ae3"},"vehicle_type_id":"4","last_reported":1705136770,"current_range_meters":12800,"station_id":"ce4bhr92rcd13ifvqhrg","pricing_plan_id":"free"},{"bike_id":"2c886f37-65b4-49bc-a0a6-5963816d1530","system_id":"levelo_inurba_marseille","lat":43.330442,"lon":5.389148,"is_reserved":false,"is_disabled":false,"rental_uris":{"android":"levelo://app?vid=2c886f37-65b4-49bc-a0a6-5963816d1530","ios":"levelo://app?vid=2c886f37-65b4-49bc-a0a6-5963816d1530"},"vehicle_type_id":"4","last_reported":1705136770,"current_range_meters":12400,"station_id":"ce4bhr92rcd13ifvqhrg","pricing_plan_id":"free"},{"bike_id":"09ab6abf-eb39-458e-99af-dc9032b14763","system_id":"levelo_inurba_marseille","lat":43.330442,"lon":5.389148,"is_reserved":false,"is_disabled":false,"rental_uris":{"android":"levelo://app?vid=09ab6abf-eb39-458e-99af-dc9032b14763","ios":"levelo://app?vid=09ab6abf-eb39-458e-99af-dc9032b14763"},"vehicle_type_id":"4","last_reported":1705136770,"current_range_meters":18000,"station_id":"ce4bhr92rcd13ifvqhrg","pricing_plan_id":"free"},{"bike_id":"9fa28e51-97cd-4aff-bc10-430a264f0acf","system_id":"levelo_inurba_marseille","lat":43.330442,"lon":5.389148,"is_reserved":false,"is_disabled":false,"rental_uris":{"android":"levelo://app?vid=9fa28e51-97cd-4aff-bc10-430a264f0acf","ios":"levelo://app?vid=9fa28e51-97cd-4aff-bc10-430a264f0acf"},"vehicle_type_id":"4","last_reported":1705136770,"current_range_meters":24000,"station_id":"ce4bhr92rcd13ifvqhrg","pricing_plan_id":"free"},{"bike_id":"f7ff301f-4bfe-4aba-8d36-fa2819f428ac","system_id":"levelo_inurba_marseille","lat":43.330442,"lon":5.389148,"is_reserved":false,"is_disabled":false,"rental_uris":{"android":"levelo://app?vid=f7ff301f-4bfe-4aba-8d36-fa2819f428ac","ios":"levelo://app?vid=f7ff301f-4bfe-4aba-8d36-fa2819f428ac"},"vehicle_type_id":"4","last_reported":1705136770,"current_range_meters":7200,"station_id":"ce4bhr92rcd13ifvqhrg","pricing_plan_id":"free"},{"bike_id":"e862e3f2-cfa1-4a54-aba0-d024483c69ef","system_id":"levelo_inurba_marseille","lat":43.330442,"lon":5.389148,"is_reserved":false,"is_disabled":false,"rental_uris":{"android":"levelo://app?vid=e862e3f2-cfa1-4a54-aba0-d024483c69ef","ios":"levelo://app?vid=e862e3f2-cfa1-4a54-aba0-d024483c69ef"},"vehicle_type_id":"4","last_reported":1705136770,"current_range_meters":24400,"station_id":"ce4bhr92rcd13ifvqhrg","pricing_plan_id":"free"},{"bike_id":"9ae566c0-08a4-4ae1-9d27-d5cf29f490d5","system_id":"levelo_inurba_marseille","lat":43.2901,"lon":5.381269,"is_reserved":false,"is_disabled":false,"rental_uris":{"android":"levelo://app?vid=9ae566c0-08a4-4ae1-9d27-d5cf29f490d5","ios":"levelo://app?vid=9ae566c0-08a4-4ae1-9d27-d5cf29f490d5"},"vehicle_type_id":"4","last_reported":1705136770,"current_range_meters":27200,"station_id":"ce4bh4p2rcd13ifvqe1g","pricing_plan_id":"free"},{"bike_id":"fb6fc0a1-1505-49c5-9be0-4e8ab0669535","system_id":"levelo_inurba_marseille","lat":43.2901,"lon":5.381269,"is_reserved":false,"is_disabled":false,"rental_uris":{"android":"levelo://app?vid=fb6fc0a1-1505-49c5-9be0-4e8ab0669535","ios":"levelo://app?vid=fb6fc0a1-1505-49c5-9be0-4e8ab0669535"},"vehicle_type_id":"4","last_reported":1705136770,"current_range_meters":23200,"station_id":"ce4bh4p2rcd13ifvqe1g","pricing_plan_id":"free"},{"bike_id":"1ddbb20c-49e5-4d4b-bace-e3089bcaebbc","system_id":"levelo_inurba_marseille","lat":43.28855,"lon":5.35847,"is_reserved":false,"is_disabled":false,"rental_uris":{"android":"levelo://app?vid=1ddbb20c-49e5-4d4b-bace-e3089bcaebbc","ios":"levelo://app?vid=1ddbb20c-49e5-4d4b-bace-e3089bcaebbc"},"vehicle_type_id":"4","last_reported":1705136770,"current_range_meters":25200,"station_id":"ce4bhb12rcd13ifvqem0","pricing_plan_id":"free"},{"bike_id":"2fdec36d-f54b-4740-9583-b2e642eba444","system_id":"levelo_inurba_marseille","lat":43.288514,"lon":5.358473,"is_reserved":false,"is_disabled":false,"rental_uris":{"android":"levelo://app?vid=2fdec36d-f54b-4740-9583-b2e642eba444","ios":"levelo://app?vid=2fdec36d-f54b-4740-9583-b2e642eba444"},"vehicle_type_id":"4","last_reported":1705136770,"current_range_meters":27600,"station_id":"ce4bhb12rcd13ifvqem0","pricing_plan_id":"free"},{"bike_id":"537ea994-0e02-4ed2-bd16-eb4c42531a23","system_id":"levelo_inurba_marseille","lat":43.28848,"lon":5.35846,"is_reserved":false,"is_disabled":false,"rental_uris":{"android":"levelo://app?vid=537ea994-0e02-4ed2-bd16-eb4c42531a23","ios":"levelo://app?vid=537ea994-0e02-4ed2-bd16-eb4c42531a23"},"vehicle_type_id":"4","last_reported":1705136770,"current_range_meters":18800,"station_id":"ce4bhb12rcd13ifvqem0","pricing_plan_id":"free"},{"bike_id":"88192561-3524-4831-8116-92c60354e8fa","system_id":"levelo_inurba_marseille","lat":43.28848,"lon":5.35842,"is_reserved":false,"is_disabled":false,"rental_uris":{"android":"levelo://app?vid=88192561-3524-4831-8116-92c60354e8fa","ios":"levelo://app?vid=88192561-3524-4831-8116-92c60354e8fa"},"vehicle_type_id":"4","last_reported":1705136770,"current_range_meters":26000,"station_id":"ce4bhb12rcd13ifvqem0","pricing_plan_id":"free"},{"bike_id":"1f68d0f4-8ae7-4891-9dc1-d2d80007b822","system_id":"levelo_inurba_marseille","lat":43.288454,"lon":5.358423,"is_reserved":false,"is_disabled":false,"rental_uris":{"android":"levelo://app?vid=1f68d0f4-8ae7-4891-9dc1-d2d80007b822","ios":"levelo://app?vid=1f68d0f4-8ae7-4891-9dc1-d2d80007b822"},"vehicle_type_id":"4","last_reported":1705136770,"current_range_meters":23600,"station_id":"ce4bhb12rcd13ifvqem0","pricing_plan_id":"free"},{"bike_id":"2533fe90-2730-4591-9cc9-17974152b699","system_id":"levelo_inurba_marseille","lat":43.28841,"lon":5.35787,"is_reserved":false,"is_disabled":false,"rental_uris":{"android":"levelo://app?vid=2533fe90-2730-4591-9cc9-17974152b699","ios":"levelo://app?vid=2533fe90-2730-4591-9cc9-17974152b699"},"vehicle_type_id":"4","last_reported":1705136770,"current_range_meters":8400,"station_id":"ce4bhb12rcd13ifvqem0","pricing_plan_id":"free"},{"bike_id":"300815a7-d0a9-428d-958a-bef9bf07e18c","system_id":"levelo_inurba_marseille","lat":43.312609,"lon":5.401662,"is_reserved":false,"is_disabled":false,"rental_uris":{"android":"levelo://app?vid=300815a7-d0a9-428d-958a-bef9bf07e18c","ios":"levelo://app?vid=300815a7-d0a9-428d-958a-bef9bf07e18c"},"vehicle_type_id":"4","last_reported":1705136770,"current_range_meters":30000,"station_id":"ce4bh092rcd13ifvqd30","pricing_plan_id":"free"},{"bike_id":"102c164a-646d-4ddd-bd22-27f94bb2d958","system_id":"levelo_inurba_marseille","lat":43.312609,"lon":5.401662,"is_reserved":false,"is_disabled":false,"rental_uris":{"android":"levelo://app?vid=102c164a-646d-4ddd-bd22-27f94bb2d958","ios":"levelo://app?vid=102c164a-646d-4ddd-bd22-27f94bb2d958"},"vehicle_type_id":"4","last_reported":1705136770,"current_range_meters":31200,"station_id":"ce4bh092rcd13ifvqd30","pricing_plan_id":"free"},{"bike_id":"992bc2c2-3082-42be-933a-aec0a6427ad0","system_id":"levelo_inurba_marseille","lat":43.30933,"lon":5.40136,"is_reserved":false,"is_disabled":false,"rental_uris":{"android":"levelo://app?vid=992bc2c2-3082-42be-933a-aec0a6427ad0","ios":"levelo://app?vid=992bc2c2-3082-42be-933a-aec0a6427ad0"},"vehicle_type_id":"4","last_reported":1705136770,"current_range_meters":3600,"station_id":"ce4bgvp2rcd13ifvqct0","pricing_plan_id":"free"},{"bike_id":"f02bfc56-fe85-497f-9fff-1b31e7513a3f","system_id":"levelo_inurba_marseille","lat":43.306412,"lon":5.401035,"is_reserved":false,"is_disabled":false,"rental_uris":{"android":"levelo://app?vid=f02bfc56-fe85-497f-9fff-1b31e7513a3f","ios":"levelo://app?vid=f02bfc56-fe85-497f-9fff-1b31e7513a3f"},"vehicle_type_id":"4","last_reported":1705136770,"current_range_meters":31200,"station_id":"ce4bh112rcd13ifvqda0","pricing_plan_id":"free"},{"bike_id":"42a0d273-997c-4adb-a122-ccea26c0d0e8","system_id":"levelo_inurba_marseille","lat":43.30928,"lon":5.40146,"is_reserved":false,"is_disabled":false,"rental_uris":{"android":"levelo://app?vid=42a0d273-997c-4adb-a122-ccea26c0d0e8","ios":"levelo://app?vid=42a0d273-997c-4adb-a122-ccea26c0d0e8"},"vehicle_type_id":"4","last_reported":1705136770,"current_range_meters":12400,"station_id":"ce4bgvp2rcd13ifvqct0","pricing_plan_id":"free"},{"bike_id":"4edb1b01-18f7-4d9f-ab43-46e82a1dc64f","system_id":"levelo_inurba_marseille","lat":43.309371,"lon":5.401449,"is_reserved":false,"is_disabled":false,"rental_uris":{"android":"levelo://app?vid=4edb1b01-18f7-4d9f-ab43-46e82a1dc64f","ios":"levelo://app?vid=4edb1b01-18f7-4d9f-ab43-46e82a1dc64f"},"vehicle_type_id":"4","last_reported":1705136770,"current_range_meters":30400,"station_id":"ce4bgvp2rcd13ifvqct0","pricing_plan_id":"free"},{"bike_id":"364622e7-869e-480c-b21f-4d415649ad49","system_id":"levelo_inurba_marseille","lat":43.306454,"lon":5.40071,"is_reserved":false,"is_disabled":false,"rental_uris":{"android":"levelo://app?vid=364622e7-869e-480c-b21f-4d415649ad49","ios":"levelo://app?vid=364622e7-869e-480c-b21f-4d415649ad49"},"vehicle_type_id":"4","last_reported":1705136770,"current_range_meters":14000,"station_id":"ce4bh112rcd13ifvqda0","pricing_plan_id":"free"},{"bike_id":"2c812058-e4fc-4e2d-8383-a0ec79c90a83","system_id":"levelo_inurba_marseille","lat":43.306397,"lon":5.400696,"is_reserved":false,"is_disabled":false,"rental_uris":{"android":"levelo://app?vid=2c812058-e4fc-4e2d-8383-a0ec79c90a83","ios":"levelo://app?vid=2c812058-e4fc-4e2d-8383-a0ec79c90a83"},"vehicle_type_id":"4","last_reported":1705136770,"current_range_meters":8000,"station_id":"ce4bh112rcd13ifvqda0","pricing_plan_id":"free"},{"bike_id":"ba6fc8ed-67a2-4f54-a8b6-4b6dbff85e9e","system_id":"levelo_inurba_marseille","lat":43.30928,"lon":5.40149,"is_reserved":false,"is_disabled":false,"rental_uris":{"android":"levelo://app?vid=ba6fc8ed-67a2-4f54-a8b6-4b6dbff85e9e","ios":"levelo://app?vid=ba6fc8ed-67a2-4f54-a8b6-4b6dbff85e9e"},"vehicle_type_id":"4","last_reported":1705136770,"current_range_meters":20800,"station_id":"ce4bgvp2rcd13ifvqct0","pricing_plan_id":"free"},{"bike_id":"96a69d17-ee5b-4614-8fbe-070aa4b36e36","system_id":"levelo_inurba_marseille","lat":43.306404,"lon":5.400744,"is_reserved":false,"is_disabled":false,"rental_uris":{"android":"levelo://app?vid=96a69d17-ee5b-4614-8fbe-070aa4b36e36","ios":"levelo://app?vid=96a69d17-ee5b-4614-8fbe-070aa4b36e36"},"vehicle_type_id":"4","last_reported":1705136770,"current_range_meters":17600,"station_id":"ce4bh112rcd13ifvqda0","pricing_plan_id":"free"},{"bike_id":"b1d1d40c-545d-4d77-8cff-d4580579d426","system_id":"levelo_inurba_marseille","lat":43.30922,"lon":5.40154,"is_reserved":false,"is_disabled":false,"rental_uris":{"android":"levelo://app?vid=b1d1d40c-545d-4d77-8cff-d4580579d426","ios":"levelo://app?vid=b1d1d40c-545d-4d77-8cff-d4580579d426"},"vehicle_type_id":"4","last_reported":1705136770,"current_range_meters":15200,"station_id":"ce4bgvp2rcd13ifvqct0","pricing_plan_id":"free"},{"bike_id":"c4dd33d2-2c24-4dde-b095-b1cc10b54db1","system_id":"levelo_inurba_marseille","lat":43.30634,"lon":5.400754,"is_reserved":false,"is_disabled":false,"rental_uris":{"android":"levelo://app?vid=c4dd33d2-2c24-4dde-b095-b1cc10b54db1","ios":"levelo://app?vid=c4dd33d2-2c24-4dde-b095-b1cc10b54db1"},"vehicle_type_id":"4","last_reported":1705136770,"current_range_meters":30400,"station_id":"ce4bh112rcd13ifvqda0","pricing_plan_id":"free"},{"bike_id":"233034d5-3614-4ef9-a7cd-0fb03bddbab9","system_id":"levelo_inurba_marseille","lat":43.28727,"lon":5.36078,"is_reserved":false,"is_disabled":false,"rental_uris":{"android":"levelo://app?vid=233034d5-3614-4ef9-a7cd-0fb03bddbab9","ios":"levelo://app?vid=233034d5-3614-4ef9-a7cd-0fb03bddbab9"},"vehicle_type_id":"4","last_reported":1705136770,"current_range_meters":30800,"station_id":"cki0cbj6b192h4jlfktg","pricing_plan_id":"free"},{"bike_id":"44ec2bd2-d39d-499d-946b-93b65df755dc","system_id":"levelo_inurba_marseille","lat":43.28727,"lon":5.36078,"is_reserved":false,"is_disabled":false,"rental_uris":{"android":"levelo://app?vid=44ec2bd2-d39d-499d-946b-93b65df755dc","ios":"levelo://app?vid=44ec2bd2-d39d-499d-946b-93b65df755dc"},"vehicle_type_id":"4","last_reported":1705136770,"current_range_meters":14000,"station_id":"cki0cbj6b192h4jlfktg","pricing_plan_id":"free"},{"bike_id":"3ed45890-b956-45b7-b0e9-0e846452ad48","system_id":"levelo_inurba_marseille","lat":43.286961,"lon":5.373785,"is_reserved":false,"is_disabled":false,"rental_uris":{"android":"levelo://app?vid=3ed45890-b956-45b7-b0e9-0e846452ad48","ios":"levelo://app?vid=3ed45890-b956-45b7-b0e9-0e846452ad48"},"vehicle_type_id":"4","last_reported":1705136770,"current_range_meters":31200,"station_id":"ce4bh3p2rcd13ifvqdq0","pricing_plan_id":"free"},{"bike_id":"1537091b-8627-4afb-b3f5-9880df3153e4","system_id":"levelo_inurba_marseille","lat":43.286961,"lon":5.373785,"is_reserved":false,"is_disabled":false,"rental_uris":{"android":"levelo://app?vid=1537091b-8627-4afb-b3f5-9880df3153e4","ios":"levelo://app?vid=1537091b-8627-4afb-b3f5-9880df3153e4"},"vehicle_type_id":"4","last_reported":1705136770,"current_range_meters":31200,"station_id":"ce4bh3p2rcd13ifvqdq0","pricing_plan_id":"free"},{"bike_id":"e1936894-6769-4aed-8537-b88f09ebf97c","system_id":"levelo_inurba_marseille","lat":43.286591,"lon":5.363346,"is_reserved":false,"is_disabled":false,"rental_uris":{"android":"levelo://app?vid=e1936894-6769-4aed-8537-b88f09ebf97c","ios":"levelo://app?vid=e1936894-6769-4aed-8537-b88f09ebf97c"},"vehicle_type_id":"4","last_reported":1705136770,"current_range_meters":30400,"station_id":"ce4bhah2rcd13ifvqej0","pricing_plan_id":"free"},{"bike_id":"b720be6a-417c-4ec9-9cc2-e4b36a2e973e","system_id":"levelo_inurba_marseille","lat":43.286961,"lon":5.373785,"is_reserved":false,"is_disabled":false,"rental_uris":{"android":"levelo://app?vid=b720be6a-417c-4ec9-9cc2-e4b36a2e973e","ios":"levelo://app?vid=b720be6a-417c-4ec9-9cc2-e4b36a2e973e"},"vehicle_type_id":"4","last_reported":1705136770,"current_range_meters":31200,"station_id":"ce4bh3p2rcd13ifvqdq0","pricing_plan_id":"free"},{"bike_id":"5472d77a-4c18-4289-be30-0727c0909993","system_id":"levelo_inurba_marseille","lat":43.286962,"lon":5.373864,"is_reserved":false,"is_disabled":false,"rental_uris":{"android":"levelo://app?vid=5472d77a-4c18-4289-be30-0727c0909993","ios":"levelo://app?vid=5472d77a-4c18-4289-be30-0727c0909993"},"vehicle_type_id":"4","last_reported":1705136770,"current_range_meters":7600,"station_id":"","pricing_plan_id":"free"},{"bike_id":"13584878-ab40-4644-8540-8e58699c547f","system_id":"levelo_inurba_marseille","lat":43.302759,"lon":5.400793,"is_reserved":false,"is_disabled":false,"rental_uris":{"android":"levelo://app?vid=13584878-ab40-4644-8540-8e58699c547f","ios":"levelo://app?vid=13584878-ab40-4644-8540-8e58699c547f"},"vehicle_type_id":"4","last_reported":1705136770,"current_range_meters":26800,"station_id":"ce4bgvh2rcd13ifvqcs0","pricing_plan_id":"free"},{"bike_id":"8e82c5b5-d263-45bf-9f64-11351d4aabcf","system_id":"levelo_inurba_marseille","lat":43.286039,"lon":5.370679,"is_reserved":false,"is_disabled":false,"rental_uris":{"android":"levelo://app?vid=8e82c5b5-d263-45bf-9f64-11351d4aabcf","ios":"levelo://app?vid=8e82c5b5-d263-45bf-9f64-11351d4aabcf"},"vehicle_type_id":"4","last_reported":1705136770,"current_range_meters":31200,"station_id":"ce4bht12rcd13ifvqi60","pricing_plan_id":"free"},{"bike_id":"8503fdbe-b01b-413e-96f3-2e4248ccf935","system_id":"levelo_inurba_marseille","lat":43.287185,"lon":5.379373,"is_reserved":false,"is_disabled":false,"rental_uris":{"android":"levelo://app?vid=8503fdbe-b01b-413e-96f3-2e4248ccf935","ios":"levelo://app?vid=8503fdbe-b01b-413e-96f3-2e4248ccf935"},"vehicle_type_id":"4","last_reported":1705136770,"current_range_meters":3600,"station_id":"ce4bh9p2rcd13ifvqec0","pricing_plan_id":"free"},{"bike_id":"58a586f0-8dd2-42bb-bceb-aa26950fec3f","system_id":"levelo_inurba_marseille","lat":43.287185,"lon":5.379373,"is_reserved":false,"is_disabled":false,"rental_uris":{"android":"levelo://app?vid=58a586f0-8dd2-42bb-bceb-aa26950fec3f","ios":"levelo://app?vid=58a586f0-8dd2-42bb-bceb-aa26950fec3f"},"vehicle_type_id":"4","last_reported":1705136770,"current_range_meters":16000,"station_id":"ce4bh9p2rcd13ifvqec0","pricing_plan_id":"free"},{"bike_id":"e8260baa-7dad-469f-b328-916bccdcb1e7","system_id":"levelo_inurba_marseille","lat":43.287171,"lon":5.379289,"is_reserved":false,"is_disabled":false,"rental_uris":{"android":"levelo://app?vid=e8260baa-7dad-469f-b328-916bccdcb1e7","ios":"levelo://app?vid=e8260baa-7dad-469f-b328-916bccdcb1e7"},"vehicle_type_id":"4","last_reported":1705136770,"current_range_meters":12400,"station_id":"ce4bh9p2rcd13ifvqec0","pricing_plan_id":"free"},{"bike_id":"24e7e1f2-4e46-41ec-9f57-202072cfde68","system_id":"levelo_inurba_marseille","lat":43.316828,"lon":5.404723,"is_reserved":false,"is_disabled":false,"rental_uris":{"android":"levelo://app?vid=24e7e1f2-4e46-41ec-9f57-202072cfde68","ios":"levelo://app?vid=24e7e1f2-4e46-41ec-9f57-202072cfde68"},"vehicle_type_id":"4","last_reported":1705136770,"current_range_meters":30800,"station_id":"ce4bh012rcd13ifvqd00","pricing_plan_id":"free"},