{"last_updated":1750432266,"ttl":60,"version":"2.2","data":{"bikes":[{"bike_id":"3da29fb8-fc97-44c6-b9ac-31dd456b2fd4","system_id":"levelo_inurba_marseille","lat":43.33771,"lon":5.37424,"is_reserved":false,"is_disabled":true,"rental_uris":{"android":"levelo://app?vid=3da29fb8-fc97-44c6-b9ac-31dd456b2fd4","ios":"levelo://app?vid=3da29fb8-fc97-44c6-b9ac-31dd456b2fd4"},"vehicle_type_id":"4","last_reported":1750432266,"current_range_meters":0,"station_id":"","pricing_plan_id":"cebpf4jnsgd1na2vs0mg"},{"bike_id":"01861ad8-a8d7-4be6-816e-651927c87584","system_id":"levelo_inurba_marseille","lat":43.33751,"lon":5.37456,"is_reserved":false,"is_disabled":true,"rental_uris":{"android":"levelo://app?vid=01861ad8-a8d7-4be6-816e-651927c87584","ios":"levelo://app?vid=01861ad8-a8d7-4be6-816e-651927c87584"},"vehicle_type_id":"4","last_reported":1750432266,"current_range_meters":0,"station_id":"","pricing_plan_id":"cebpf4jnsgd1na2vs0mg"},{"bike_id":"0080b588-b60f-492d-957d-f4bfdfe016d1","system_id":"levelo_inurba_marseille","lat":43.33585,"lon":5.40985,"is_reserved":false,"is_disabled":true,"rental_uris":{"android":"levelo://app?vid=0080b588-b60f-492d-957d-f4bfdfe016d1","ios":"levelo://app?vid=0080b588-b60f-492d-957d-f4bfdfe016d1"},"vehicle_type_id":"4","last_reported":1750432266,"current_range_meters":0,"station_id":"","pricing_plan_id":"cebpf4jnsgd1na2vs0mg"},{"bike_id":"d2bd57c8-6b64-48db-ad24-5398eb3fd9d6","system_id":"levelo_inurba_marseille","lat":43.337444,"lon":5.374475,"is_reserved":false,"is_disabled":true,"rental_uris":{"android":"levelo://app?vid=d2bd57c8-6b64-48db-ad24-5398eb3fd9d6","ios":"levelo://app?vid=d2bd57c8-6b64-48db-ad24-5398eb3fd9d6"},"vehicle_type_id":"4","last_reported":1750432266,"current_range_meters":0,"station_id":"","pricing_plan_id":"cebpf4jnsgd1na2vs0mg"},{"bike_id":"62a493c7-4534-4419-ad43-0582de34a72a","system_id":"levelo_inurba_marseille","lat":43.21366,"lon":5.355183,"is_reserved":false,"is_disabled":true,"rental_uris":{"android":"levelo://app?vid=62a493c7-4534-4419-ad43-0582de34a72a","ios":"levelo://app?vid=62a493c7-4534-4419-ad43-0582de34a72a"},"vehicle_type_id":"4","last_reported":1750432266,"current_range_meters":0,"station_id":"","pricing_plan_id":"cebpf4jnsgd1na2vs0mg"},{"bike_id":"faedb750-b8ea-4e5f-b7f1-2931a192c239","system_id":"levelo_inurba_marseille","lat":43.31372,"lon":5.36778,"is_reserved":false,"is_disabled":true,"rental_uris":{"android":"levelo://app?vid=faedb750-b8ea-4e5f-b7f1-2931a192c239","ios":"levelo://app?vid=faedb750-b8ea-4e5f-b7f1-2931a192c239"},"vehicle_type_id":"4","last_reported":1750432266,"current_range_meters":0,"station_id":"","pricing_plan_id":"cebpf4jnsgd1na2vs0mg"},{"bike_id":"d5a1ae9e-4421-4539-b5ac-98a00695a8d8","system_id":"levelo_inurba_marseille","lat":43.33401,"lon":5.40072,"is_reserved":false,"is_disabled":true,"rental_uris":{"android":"levelo://app?vid=d5a1ae9e-4421-4539-b5ac-98a00695a8d8","ios":"levelo://app?vid=d5a1ae9e-4421-4539-b5ac-98a00695a8d8"},"vehicle_type_id":"4","last_reported":1750432266,"current_range_meters":0,"station_id":"","pricing_plan_id":"cebpf4jnsgd1na2vs0mg"},{"bike_id":"d6609b4f-333b-43c1-9ebe-8726f5e76e88","system_id":"levelo_inurba_marseille","lat":43.337444,"lon":5.374475,"is_reserved":false,"is_disabled":true,"rental_uris":{"android":"levelo://app?vid=d6609b4f-333b-43c1-9ebe-8726f5e76e88","ios":"levelo://app?vid=d6609b4f-333b-43c1-9ebe-8726f5e76e88"},"vehicle_type_id":"4","last_reported":1750432266,"current_range_meters":0,"station_id":"","pricing_plan_id":"cebpf4jnsgd1na2vs0mg"},{"bike_id":"04ef3020-d883-45d0-83d2-388f4642b080","system_id":"levelo_inurba_marseille","lat":43.29912,"lon":5.38149,"is_reserved":false,"is_disabled":true,"rental_uris":{"android":"levelo://app?vid=04ef3020-d883-45d0-83d2-388f4642b080","ios":"levelo://app?vid=04ef3020-d883-45d0-83d2-388f4642b080"},"vehicle_type_id":"4","last_reported":1750432266,"current_range_meters":0,"station_id":"ce4bgj12rcd13ifvqbc0","pricing_plan_id":"cebpf4jnsgd1na2vs0mg"},{"bike_id":"799d8a39-8e0b-410c-a7ec-29b2c0a78f13","system_id":"levelo_inurba_marseille","lat":43.299713,"lon":5.384971,"is_reserved":false,"is_disabled":false,"rental_uris":{"android":"levelo://app?vid=799d8a39-8e0b-410c-a7ec-29b2c0a78f13","ios":"levelo://app?vid=799d8a39-8e0b-410c-a7ec-29b2c0a78f13"},"vehicle_type_id":"4","last_reported":1750432266,"current_range_meters":0,"station_id":"ce4bgj92rcd13ifvqbd0","pricing_plan_id":"cebpf4jnsgd1na2vs0mg"},{"bike_id":"62601cf6-4d7a-474f-a378-dfdbba984829","system_id":"levelo_inurba_marseille","lat":43.312842,"lon":5.401792,"is_reserved":false,"is_disabled":true,"rental_uris":{"android":"levelo://app?vid=62601cf6-4d7a-474f-a378-dfdbba984829","ios":"levelo://app?vid=62601cf6-4d7a-474f-a378-dfdbba984829"},"vehicle_type_id":"4","last_reported":1750432266,"current_range_meters":0,"station_id":"ce4bh092rcd13ifvqd30","pricing_plan_id":"cebpf4jnsgd1na2vs0mg"},{"bike_id":"28b3628f-8bc6-4319-b476-3ff48cdf4c69","system_id":"levelo_inurba_marseille","lat":43.29417,"lon":5.38616,"is_reserved":false,"is_disabled":true,"rental_uris":{"android":"levelo://app?vid=28b3628f-8bc6-4319-b476-3ff48cdf4c69","ios":"levelo://app?vid=28b3628f-8bc6-4319-b476-3ff48cdf4c69"},"vehicle_type_id":"4","last_reported":1750432266,"current_range_meters":0,"station_id":"ce4bh2h2rcd13ifvqdh0","pricing_plan_id":"cebpf4jnsgd1na2vs0mg"},{"bike_id":"de447066-0434-4980-a6b9-26c667d0b228","system_id":"levelo_inurba_marseille","lat":43.28936,"lon":5.36403,"is_reserved":false,"is_disabled":true,"rental_uris":{"android":"levelo://app?vid=de447066-0434-4980-a6b9-26c667d0b228","ios":"levelo://app?vid=de447066-0434-4980-a6b9-26c667d0b228"},"vehicle_type_id":"4","last_reported":1750432266,"current_range_meters":0,"station_id":"ce4bhc92rcd13ifvqetg","pricing_plan_id":"cebpf4jnsgd1na2vs0mg"},{"bike_id":"7dcf8849-9647-44c7-854a-49c2a2723c83","system_id":"levelo_inurba_marseille","lat":43.26571,"lon":5.39009,"is_reserved":false,"is_disabled":true,"rental_uris":{"android":"levelo://app?vid=7dcf8849-9647-44c7-854a-49c2a2723c83","ios":"levelo://app?vid=7dcf8849-9647-44c7-854a-49c2a2723c83"},"vehicle_type_id":"4","last_reported":1750432266,"current_range_meters":0,"station_id":"ce4bhe12rcd13ifvqf30","pricing_plan_id":"cebpf4jnsgd1na2vs0mg"},{"bike_id":"3a69d0fd-691d-459e-b8e8-5d4370dfa948","system_id":"levelo_inurba_marseille","lat":43.2396,"lon":5.36632,"is_reserved":false,"is_disabled":true,"rental_uris":{"android":"levelo://app?vid=3a69d0fd-691d-459e-b8e8-5d4370dfa948","ios":"levelo://app?vid=3a69d0fd-691d-459e-b8e8-5d4370dfa948"},"vehicle_type_id":"4","last_reported":1750432266,"current_range_meters":0,"station_id":"ce4bhi12rcd13ifvqfp0","pricing_plan_id":"cebpf4jnsgd1na2vs0mg"},{"bike_id":"2be082ca-4467-48fd-b65c-3c02b405800f","system_id":"levelo_inurba_marseille","lat":43.23149,"lon":5.43706,"is_reserved":false,"is_disabled":true,"rental_uris":{"android":"levelo://app?vid=2be082ca-4467-48fd-b65c-3c02b405800f","ios":"levelo://app?vid=2be082ca-4467-48fd-b65c-3c02b405800f"},"vehicle_type_id":"4","last_reported":1750432266,"current_range_meters":0,"station_id":"ce4bhmp2rcd13ifvqgog","pricing_plan_id":"cebpf4jnsgd1na2vs0mg"},{"bike_id":"9491b791-a5aa-472a-b475-a8adbacb70fe","system_id":"levelo_inurba_marseille","lat":43.341628,"lon":5.409196,"is_reserved":false,"is_disabled":true,"rental_uris":{"android":"levelo://app?vid=9491b791-a5aa-472a-b475-a8adbacb70fe","ios":"levelo://app?vid=9491b791-a5aa-472a-b475-a8adbacb70fe"},"vehicle_type_id":"4","last_reported":1750432266,"current_range_meters":0,"station_id":"ce4bhqh2rcd13ifvqhlg","pricing_plan_id":"cebpf4jnsgd1na2vs0mg"},{"bike_id":"1d3c5359-5208-4100-a7e3-a6f9f6eda1fe","system_id":"levelo_inurba_marseille","lat":43.336097,"lon":5.409839,"is_reserved":false,"is_disabled":true,"rental_uris":{"android":"levelo://app?vid=1d3c5359-5208-4100-a7e3-a6f9f6eda1fe","ios":"levelo://app?vid=1d3c5359-5208-4100-a7e3-a6f9f6eda1fe"},"vehicle_type_id":"4","last_reported":1750432266,"current_range_meters":0,"station_id":"ce4bhqh2rcd13ifvqhmg","pricing_plan_id":"cebpf4jnsgd1na2vs0mg"},{"bike_id":"0383bfc3-5798-4e95-b8ce-673e115e8978","system_id":"levelo_inurba_marseille","lat":43.3249,"lon":5.36582,"is_reserved":false,"is_disabled":true,"rental_uris":{"android":"levelo://app?vid=0383bfc3-5798-4e95-b8ce-673e115e8978","ios":"levelo://app?vid=0383bfc3-5798-4e95-b8ce-673e115e8978"},"vehicle_type_id":"4","last_reported":1750432266,"current_range_meters":0,"station_id":"ce4bhs12rcd13ifvqhvg","pricing_plan_id":"cebpf4jnsgd1na2vs0mg"},{"bike_id":"643ac029-b9b7-497f-aec8-670558ad3dba","system_id":"levelo_inurba_marseille","lat":43.23964,"lon":5.36625,"is_reserved":false,"is_disabled":true,"rental_uris":{"android":"levelo://app?vid=643ac029-b9b7-497f-aec8-670558ad3dba","ios":"levelo://app?vid=643ac029-b9b7-497f-aec8-670558ad3dba"},"vehicle_type_id":"4","last_reported":1750432266,"current_range_meters":400,"station_id":"ce4bhi12rcd13ifvqfp0","pricing_plan_id":"cebpf4jnsgd1na2vs0mg"},{"bike_id":"7ef2aef9-4b3d-4d95-adaa-fccf1f5dc2d5","system_id":"levelo_inurba_marseille","lat":43.29792,"lon":5.38105,"is_reserved":false,"is_disabled":true,"rental_uris":{"android":"levelo://app?vid=7ef2aef9-4b3d-4d95-adaa-fccf1f5dc2d5","ios":"levelo://app?vid=7ef2aef9-4b3d-4d95-adaa-fccf1f5dc2d5"},"vehicle_type_id":"4","last_reported":1750432266,"current_range_meters":800,"station_id":"ce4bgip2rcd13ifvqbb0","pricing_plan_id":"cebpf4jnsgd1na2vs0mg"},{"bike_id":"f3a3d6fd-32fa-46e2-95de-ee5714379dd1","system_id":"levelo_inurba_marseille","lat":43.29787,"lon":5.38111,"is_reserved":false,"is_disabled":true,"rental_uris":{"android":"levelo://app?vid=f3a3d6fd-32fa-46e2-95de-ee5714379dd1","ios":"levelo://app?vid=f3a3d6fd-32fa-46e2-95de-ee5714379dd1"},"vehicle_type_id":"4","last_reported":1750432266,"current_range_meters":800,"station_id":"ce4bgip2rcd13ifvqbb0","pricing_plan_id":"cebpf4jnsgd1na2vs0mg"},{"bike_id":"ee272ff7-81d5-4508-9d7d-ba25e59527fd","system_id":"levelo_inurba_marseille","lat":43.31682,"lon":5.40473,"is_reserved":false,"is_disabled":true,"rental_uris":{"android":"levelo://app?vid=ee272ff7-81d5-4508-9d7d-ba25e59527fd","ios":"levelo://app?vid=ee272ff7-81d5-4508-9d7d-ba25e59527fd"},"vehicle_type_id":"4","last_reported":1750432266,"current_range_meters":800,"station_id":"ce4bh012rcd13ifvqd00","pricing_plan_id":"cebpf4jnsgd1na2vs0mg"},{"bike_id":"d7b892e9-8ff3-4d38-adf4-1107acb53d13","system_id":"levelo_inurba_marseille","lat":43.27377,"lon":5.36254,"is_reserved":false,"is_disabled":true,"rental_uris":{"android":"levelo://app?vid=d7b892e9-8ff3-4d38-adf4-1107acb53d13","ios":"levelo://app?vid=d7b892e9-8ff3-4d38-adf4-1107acb53d13"},"vehicle_type_id":"4","last_reported":1750432266,"current_range_meters":800,"station_id":"ce4bhbh2rcd13ifvqeo0","pricing_plan_id":"cebpf4jnsgd1na2vs0mg"},{"bike_id":"ddd88c14-d930-474d-959e-e4058107d0f8","system_id":"levelo_inurba_marseille","lat":43.28605,"lon":5.35105,"is_reserved":false,"is_disabled":true,"rental_uris":{"android":"levelo://app?vid=ddd88c14-d930-474d-959e-e4058107d0f8","ios":"levelo://app?vid=ddd88c14-d930-474d-959e-e4058107d0f8"},"vehicle_type_id":"4","last_reported":1750432266,"current_range_meters":800,"station_id":"ce4bhch2rcd13ifvqeug","pricing_plan_id":"cebpf4jnsgd1na2vs0mg"},{"bike_id":"2a0dfd15-7d08-43e2-83af-288e460db7d2","system_id":"levelo_inurba_marseille","lat":43.26795,"lon":5.39408,"is_reserved":false,"is_disabled":true,"rental_uris":{"android":"levelo://app?vid=2a0dfd15-7d08-43e2-83af-288e460db7d2","ios":"levelo://app?vid=2a0dfd15-7d08-43e2-83af-288e460db7d2"},"vehicle_type_id":"4","last_reported":1750432266,"current_range_meters":800,"station_id":"ce4bhh12rcd13ifvqfg0","pricing_plan_id":"cebpf4jnsgd1na2vs0mg"},{"bike_id":"af94b55d-b084-4fa2-b75c-052631c6e76f","system_id":"levelo_inurba_marseille","lat":43.301316,"lon":5.387746,"is_reserved":false,"is_disabled":true,"rental_uris":{"android":"levelo://app?vid=af94b55d-b084-4fa2-b75c-052631c6e76f","ios":"levelo://app?vid=af94b55d-b084-4fa2-b75c-052631c6e76f"},"vehicle_type_id":"4","last_reported":1750432266,"current_range_meters":1200,"station_id":"ce4bghh2rcd13ifvqb60","pricing_plan_id":"cebpf4jnsgd1na2vs0mg"},{"bike_id":"716b0123-68de-4f6c-86de-032f16201dd0","system_id":"levelo_inurba_marseille","lat":43.31111,"lon":5.37761,"is_reserved":false,"is_disabled":true,"rental_uris":{"android":"levelo://app?vid=716b0123-68de-4f6c-86de-032f16201dd0","ios":"levelo://app?vid=716b0123-68de-4f6c-86de-032f16201dd0"},"vehicle_type_id":"4","last_reported":1750432266,"current_range_meters":1200,"station_id":"ce4bgt92rcd13ifvqcg0","pricing_plan_id":"cebpf4jnsgd1na2vs0mg"},{"bike_id":"c8004da2-0ea0-410b-9401-5e3116c2739a","system_id":"levelo_inurba_marseille","lat":43.29518,"lon":5.394,"is_reserved":false,"is_disabled":true,"rental_uris":{"android":"levelo://app?vid=c8004da2-0ea0-410b-9401-5e3116c2739a","ios":"levelo://app?vid=c8004da2-0ea0-410b-9401-5e3116c2739a"},"vehicle_type_id":"4","last_reported":1750432266,"current_range_meters":1200,"station_id":"ce4bh292rcd13ifvqdf0","pricing_plan_id":"cebpf4jnsgd1na2vs0mg"},{"bike_id":"9386b4ab-0949-4d94-baec-26f661f876f5","system_id":"levelo_inurba_marseille","lat":43.28445,"lon":5.35889,"is_reserved":false,"is_disabled":true,"rental_uris":{"android":"levelo://app?vid=9386b4ab-0949-4d94-baec-26f661f876f5","ios":"levelo://app?vid=9386b4ab-0949-4d94-baec-26f661f876f5"},"vehicle_type_id":"4","last_reported":1750432266,"current_range_meters":1200,"station_id":"ce4bhah2rcd13ifvqei0","pricing_plan_id":"cebpf4jnsgd1na2vs0mg"},{"bike_id":"4d84fe84-9e58-4e3a-ae72-e0b28b2ab2ee","system_id":"levelo_inurba_marseille","lat":43.264949,"lon":5.39537,"is_reserved":false,"is_disabled":true,"rental_uris":{"android":"levelo://app?vid=4d84fe84-9e58-4e3a-ae72-e0b28b2ab2ee","ios":"levelo://app?vid=4d84fe84-9e58-4e3a-ae72-e0b28b2ab2ee"},"vehicle_type_id":"4","last_reported":1750432266,"current_range_meters":1200,"station_id":"ce4bhi12rcd13ifvqfq0","pricing_plan_id":"cebpf4jnsgd1na2vs0mg"},{"bike_id":"091fcb0c-ecce-41ae-9f81-09966ac2ef4a","system_id":"levelo_inurba_marseille","lat":43.303728,"lon":5.42482,"is_reserved":false,"is_disabled":true,"rental_uris":{"android":"levelo://app?vid=091fcb0c-ecce-41ae-9f81-09966ac2ef4a","ios":"levelo://app?vid=091fcb0c-ecce-41ae-9f81-09966ac2ef4a"},"vehicle_type_id":"4","last_reported":1750432266,"current_range_meters":1200,"station_id":"ce4bhoh2rcd13ifvqh6g","pricing_plan_id":"cebpf4jnsgd1na2vs0mg"},{"bike_id":"b1ea64e5-9981-4460-a2b3-59bf05260b31","system_id":"levelo_inurba_marseille","lat":43.32357,"lon":5.38887,"is_reserved":false,"is_disabled":true,"rental_uris":{"android":"levelo://app?vid=b1ea64e5-9981-4460-a2b3-59bf05260b31","ios":"levelo://app?vid=b1ea64e5-9981-4460-a2b3-59bf05260b31"},"vehicle_type_id":"4","last_reported":1750432266,"current_range_meters":1200,"station_id":"ce4bhqp2rcd13ifvqhog","pricing_plan_id":"cebpf4jnsgd1na2vs0mg"},{"bike_id":"24f1e2d9-11f0-4bb7-9c25-68a1ac3319f0","system_id":"levelo_inurba_marseille","lat":43.290418,"lon":5.386373,"is_reserved":false,"is_disabled":false,"rental_uris":{"android":"levelo://app?vid=24f1e2d9-11f0-4bb7-9c25-68a1ac3319f0","ios":"levelo://app?vid=24f1e2d9-11f0-4bb7-9c25-68a1ac3319f0"},"vehicle_type_id":"4","last_reported":1750432266,"current_range_meters":2800,"station_id":"ce4bh4p2rcd13ifvqe0g","pricing_plan_id":"cebpf4jnsgd1na2vs0mg"},{"bike_id":"9c0cc941-0060-492c-a66e-e0fcfd7604de","system_id":"levelo_inurba_marseille","lat":43.24648,"lon":5.38892,"is_reserved":false,"is_disabled":false,"rental_uris":{"android":"levelo://app?vid=9c0cc941-0060-492c-a66e-e0fcfd7604de","ios":"levelo://app?vid=9c0cc941-0060-492c-a66e-e0fcfd7604de"},"vehicle_type_id":"4","last_reported":1750432266,"current_range_meters":3200,"station_id":"ce4bhg12rcd13ifvqf60","pricing_plan_id":"cebpf4jnsgd1na2vs0mg"},{"bike_id":"a4846fe5-ee0b-49d0-a5bc-1e480660f4fb","system_id":"levelo_inurba_marseille","lat":43.26194,"lon":5.37931,"is_reserved":false,"is_disabled":false,"rental_uris":{"android":"levelo://app?vid=a4846fe5-ee0b-49d0-a5bc-1e480660f4fb","ios":"levelo://app?vid=a4846fe5-ee0b-49d0-a5bc-1e480660f4fb"},"vehicle_type_id":"4","last_reported":1750432266,"current_range_meters":3200,"station_id":"ce4bhjp2rcd13ifvqg90","pricing_plan_id":"cebpf4jnsgd1na2vs0mg"},{"bike_id":"02ada7b7-10d7-414e-af82-80bed4b970f0","system_id":"levelo_inurba_marseille","lat":43.292024,"lon":5.393299,"is_reserved":false,"is_disabled":false,"rental_uris":{"android":"levelo://app?vid=02ada7b7-10d7-414e-af82-80bed4b970f0","ios":"levelo://app?vid=02ada7b7-10d7-414e-af82-80bed4b970f0"},"vehicle_type_id":"4","last_reported":1750432266,"current_range_meters":3600,"station_id":"ce4bh192rcd13ifvqdd0","pricing_plan_id":"cebpf4jnsgd1na2vs0mg"},{"bike_id":"99404dce-e5d3-4c76-a5f4-32aef1ed5ae9","system_id":"levelo_inurba_marseille","lat":43.29521,"lon":5.3905,"is_reserved":false,"is_disabled":false,"rental_uris":{"android":"levelo://app?vid=99404dce-e5d3-4c76-a5f4-32aef1ed5ae9","ios":"levelo://app?vid=99404dce-e5d3-4c76-a5f4-32aef1ed5ae9"},"vehicle_type_id":"4","last_reported":1750432266,"current_range_meters":3600,"station_id":"ce4bh3p2rcd13ifvqdp0","pricing_plan_id":"cebpf4jnsgd1na2vs0mg"},{"bike_id":"de7b90da-9761-4f49-bfe5-3d5fc172e4d0","system_id":"levelo_inurba_marseille","lat":43.23192,"lon":5.35551,"is_reserved":false,"is_disabled":false,"rental_uris":{"android":"levelo://app?vid=de7b90da-9761-4f49-bfe5-3d5fc172e4d0","ios":"levelo://app?vid=de7b90da-9761-4f49-bfe5-3d5fc172e4d0"},"vehicle_type_id":"4","last_reported":1750432266,"current_range_meters":3600,"station_id":"ce4bhu92rcd13ifvqi70","pricing_plan_id":"cebpf4jnsgd1na2vs0mg"},{"bike_id":"38cf03e9-8692-4f9c-b8a2-47d90cd47918","system_id":"levelo_inurba_marseille","lat":43.28403,"lon":5.37511,"is_reserved":false,"is_disabled":false,"rental_uris":{"android":"levelo://app?vid=38cf03e9-8692-4f9c-b8a2-47d90cd47918","ios":"levelo://app?vid=38cf03e9-8692-4f9c-b8a2-47d90cd47918"},"vehicle_type_id":"4","last_reported":1750432266,"current_range_meters":4000,"station_id":"ce4bh412rcd13ifvqds0","pricing_plan_id":"cebpf4jnsgd1na2vs0mg"},{"bike_id":"2d47b8cc-20fb-4786-b082-b84a12f9c4a7","system_id":"levelo_inurba_marseille","lat":43.25116,"lon":5.40321,"is_reserved":false,"is_disabled":false,"rental_uris":{"android":"levelo://app?vid=2d47b8cc-20fb-4786-b082-b84a12f9c4a7","ios":"levelo://app?vid=2d47b8cc-20fb-4786-b082-b84a12f9c4a7"},"vehicle_type_id":"4","last_reported":1750432266,"current_range_meters":4000,"station_id":"ce4bhlh2rcd13ifvqgig","pricing_plan_id":"cebpf4jnsgd1na2vs0mg"},{"bike_id":"02c8328a-1e0c-43b9-b20a-72a6553a5656","system_id":"levelo_inurba_marseille","lat":43.29913,"lon":5.43664,"is_reserved":false,"is_disabled":false,"rental_uris":{"android":"levelo://app?vid=02c8328a-1e0c-43b9-b20a-72a6553a5656","ios":"levelo://app?vid=02c8328a-1e0c-43b9-b20a-72a6553a5656"},"vehicle_type_id":"4","last_reported":1750432266,"current_range_meters":4000,"station_id":"ce4bhpp2rcd13ifvqhfg","pricing_plan_id":"cebpf4jnsgd1na2vs0mg"},{"bike_id":"a56359ce-4b01-4116-b721-98311bd5e00e","system_id":"levelo_inurba_marseille","lat":43.299555,"lon":5.384938,"is_reserved":false,"is_disabled":false,"rental_uris":{"android":"levelo://app?vid=a56359ce-4b01-4116-b721-98311bd5e00e","ios":"levelo://app?vid=a56359ce-4b01-4116-b721-98311bd5e00e"},"vehicle_type_id":"4","last_reported":1750432266,"current_range_meters":4800,"station_id":"ce4bgj92rcd13ifvqbd0","pricing_plan_id":"cebpf4jnsgd1na2vs0mg"},{"bike_id":"0b1e53b6-bc72-4bff-b2c0-17099e7d43a1","system_id":"levelo_inurba_marseille","lat":43.314976,"lon":5.373026,"is_reserved":false,"is_disabled":false,"rental_uris":{"android":"levelo://app?vid=0b1e53b6-bc72-4bff-b2c0-17099e7d43a1","ios":"levelo://app?vid=0b1e53b6-bc72-4bff-b2c0-17099e7d43a1"},"vehicle_type_id":"4","last_reported":1750432266,"current_range_meters":4800,"station_id":"ce4bgt12rcd13ifvqcd0","pricing_plan_id":"cebpf4jnsgd1na2vs0mg"},{"bike_id":"39545dc7-41c8-4d6c-b96a-982db31b6df5","system_id":"levelo_inurba_marseille","lat":43.31328,"lon":5.3969,"is_reserved":false,"is_disabled":false,"rental_uris":{"android":"levelo://app?vid=39545dc7-41c8-4d6c-b96a-982db31b6df5","ios":"levelo://app?vid=39545dc7-41c8-4d6c-b96a-982db31b6df5"},"vehicle_type_id":"4","last_reported":1750432266,"current_range_meters":4800,"station_id":"ce4bgvp2rcd13ifvqcu0","pricing_plan_id":"cebpf4jnsgd1na2vs0mg"},{"bike_id":"0dedb6f6-6801-483b-bfb8-9cd4533d158f","system_id":"levelo_inurba_marseille","lat":43.31129,"lon":5.38114,"is_reserved":false,"is_disabled":false,"rental_uris":{"android":"levelo://app?vid=0dedb6f6-6801-483b-bfb8-9cd4533d158f","ios":"levelo://app?vid=0dedb6f6-6801-483b-bfb8-9cd4533d158f"},"vehicle_type_id":"4","last_reported":1750432266,"current_range_meters":5600,"station_id":"","pricing_plan_id":"cebpf4jnsgd1na2vs0mg"},{"bike_id":"27e365b1-5979-4a0a-a90a-d5874104e200","system_id":"levelo_inurba_marseille","lat":43.29529,"lon":5.38547,"is_reserved":false,"is_disabled":false,"rental_uris":{"android":"levelo://app?vid=27e365b1-5979-4a0a-a90a-d5874104e200","ios":"levelo://app?vid=27e365b1-5979-4a0a-a90a-d5874104e200"},"vehicle_type_id":"4","last_reported":1750432266,"current_range_meters":5600,"station_id":"ce4bgih2rcd13ifvqba0","pricing_plan_id":"cebpf4jnsgd1na2vs0mg"},{"bike_id":"17425e2c-4d37-4e45-bd26-99157b0a33c2","system_id":"levelo_inurba_marseille","lat":43.27937,"lon":5.41039,"is_reserved":false,"is_disabled":false,"rental_uris":{"android":"levelo://app?vid=17425e2c-4d37-4e45-bd26-99157b0a33c2","ios":"levelo://app?vid=17425e2c-4d37-4e45-bd26-99157b0a33c2"},"vehicle_type_id":"4","last_reported":1750432266,"current_range_meters":5600,"station_id":"ce4bhnp2rcd13ifvqh0g","pricing_plan_id":"cebpf4jnsgd1na2vs0mg"},{"bike_id":"da7d1e43-ddce-4a6a-b791-6cf3880a58db","system_id":"levelo_inurba_marseille","lat":43.32365,"lon":5.38885,"is_reserved":false,"is_disabled":false,"rental_uris":{"android":"levelo://app?vid=da7d1e43-ddce-4a6a-b791-6cf3880a58db","ios":"levelo://app?vid=da7d1e43-ddce-4a6a-b791-6cf3880a58db"},"vehicle_type_id":"4","last_reported":1750432266,"current_range_meters":5600,"station_id":"ce4bhqp2rcd13ifvqhog","pricing_plan_id":"cebpf4jnsgd1na2vs0mg"},{"bike_id":"268aafb4-1331-426c-97bc-a7d6564caeb6","system_id":"levelo_inurba_marseille","lat":43.32933,"lon":5.37919,"is_reserved":false,"is_disabled":false,"rental_uris":{"android":"levelo://app?vid=268aafb4-1331-426c-97bc-a7d6564caeb6","ios":"levelo://app?vid=268aafb4-1331-426c-97bc-a7d6564caeb6"},"vehicle_type_id":"4","last_reported":1750432266,"current_range_meters":6000,"station_id":"","pricing_plan_id":"cebpf4jnsgd1na2vs0mg"},{"bike_id":"3b0f00d7-9286-4428-97d2-3b9b8802d489","system_id":"levelo_inurba_marseille","lat":43.31324,"lon":5.39694,"is_reserved":false,"is_disabled":false,"rental_uris":{"android":"levelo://app?vid=3b0f00d7-9286-4428-97d2-3b9b8802d489","ios":"levelo://app?vid=3b0f00d7-9286-4428-97d2-3b9b8802d489"},"vehicle_type_id":"4","last_reported":1750432266,"current_range_meters":6000,"station_id":"ce4bgvp2rcd13ifvqcu0","pricing_plan_id":"cebpf4jnsgd1na2vs0mg"},{"bike_id":"ef21d472-619b-4672-9054-97ec3bc97065","system_id":"levelo_inurba_marseille","lat":43.299096,"lon":5.436592,"is_reserved":false,"is_disabled":false,"rental_uris":{"android":"levelo://app?vid=ef21d472-619b-4672-9054-97ec3bc97065","ios":"levelo://app?vid=ef21d472-619b-4672-9054-97ec3bc97065"},"vehicle_type_id":"4","last_reported":1750432266,"current_range_meters":6000,"station_id":"ce4bhpp2rcd13ifvqhfg","pricing_plan_id":"cebpf4jnsgd1na2vs0mg"},{"bike_id":"0485a4e1-4731-4110-a8f6-c97581800977","system_id":"levelo_inurba_marseille","lat":43.24163,"lon":5.36389,"is_reserved":false,"is_disabled":false,"rental_uris":{"android":"levelo://app?vid=0485a4e1-4731-4110-a8f6-c97581800977","ios":"levelo://app?vid=0485a4e1-4731-4110-a8f6-c97581800977"},"vehicle_type_id":"4","last_reported":1750432266,"current_range_meters":6000,"station_id":"cpo36qri1sfpv3e86is0","pricing_plan_id":"cebpf4jnsgd1na2vs0mg"},{"bike_id":"80123ffb-61e7-4c46-90eb-8d03f90821b3","system_id":"levelo_inurba_marseille","lat":43.28449,"lon":5.35886,"is_reserved":false,"is_disabled":false,"rental_uris":{"android":"levelo://app?vid=80123ffb-61e7-4c46-90eb-8d03f90821b3","ios":"levelo://app?vid=80123ffb-61e7-4c46-90eb-8d03f90821b3"},"vehicle_type_id":"4","last_reported":1750432266,"current_range_meters":6400,"station_id":"ce4bhah2rcd13ifvqei0","pricing_plan_id":"cebpf4jnsgd1na2vs0mg"},{"bike_id":"e7ea39a0-08e1-4f09-8f3f-e30c119e669a","system_id":"levelo_inurba_marseille","lat":43.308007,"lon":5.437079,"is_reserved":false,"is_disabled":false,"rental_uris":{"android":"levelo://app?vid=e7ea39a0-08e1-4f09-8f3f-e30c119e669a","ios":"levelo://app?vid=e7ea39a0-08e1-4f09-8f3f-e30c119e669a"},"vehicle_type_id":"4","last_reported":1750432266,"current_range_meters":6800,"station_id":"","pricing_plan_id":"cebpf4jnsgd1na2vs0mg"},{"bike_id":"1951a100-8920-4a86-a65a-1291dea1e8df","system_id":"levelo_inurba_marseille","lat":43.31292,"lon":5.37328,"is_reserved":false,"is_disabled":false,"rental_uris":{"android":"levelo://app?vid=1951a100-8920-4a86-a65a-1291dea1e8df","ios":"levelo://app?vid=1951a100-8920-4a86-a65a-1291dea1e8df"},"vehicle_type_id":"4","last_reported":1750432266,"current_range_meters":6800,"station_id":"","pricing_plan_id":"cebpf4jnsgd1na2vs0mg"},{"bike_id":"ef8007be-7bf9-49b0-bb88-700bbdbf8e1b","system_id":"levelo_inurba_marseille","lat":43.30543,"lon":5.36709,"is_reserved":false,"is_disabled":false,"rental_uris":{"android":"levelo://app?vid=ef8007be-7bf9-49b0-bb88-700bbdbf8e1b","ios":"levelo://app?vid=ef8007be-7bf9-49b0-bb88-700bbdbf8e1b"},"vehicle_type_id":"4","last_reported":1750432266,"current_range_meters":6800,"station_id":"ce4bgrp2rcd13ifvqc9g","pricing_plan_id":"cebpf4jnsgd1na2vs0mg"},{"bike_id":"8da91005-8140-455d-ab85-7b2aa1960b6f","system_id":"levelo_inurba_marseille","lat":43.21746,"lon":5.34601,"is_reserved":false,"is_disabled":false,"rental_uris":{"android":"levelo://app?vid=8da91005-8140-455d-ab85-7b2aa1960b6f","ios":"levelo://app?vid=8da91005-8140-455d-ab85-7b2aa1960b6f"},"vehicle_type_id":"4","last_reported":1750432266,"current_range_meters":6800,"station_id":"st_cvj6r9ubvosntc0bgbag","pricing_plan_id":"cebpf4jnsgd1na2vs0mg"},{"bike_id":"861ee38f-16d2-44bf-8cfc-313cb69d128a","system_id":"levelo_inurba_marseille","lat":43.29864,"lon":5.39734,"is_reserved":false,"is_disabled":false,"rental_uris":{"android":"levelo://app?vid=861ee38f-16d2-44bf-8cfc-313cb69d128a","ios":"levelo://app?vid=861ee38f-16d2-44bf-8cfc-313cb69d128a"},"vehicle_type_id":"4","last_reported":1750432266,"current_range_meters":7200,"station_id":"ce4bh0h2rcd13ifvqd50","pricing_plan_id":"cebpf4jnsgd1na2vs0mg"},{"bike_id":"45b724af-4aeb-4a2a-96b9-d79a1e0afa23","system_id":"levelo_inurba_marseille","lat":43.29635,"lon":5.40595,"is_reserved":false,"is_disabled":false,"rental_uris":{"android":"levelo://app?vid=45b724af-4aeb-4a2a-96b9-d79a1e0afa23","ios":"levelo://app?vid=45b724af-4aeb-4a2a-96b9-d79a1e0afa23"},"vehicle_type_id":"4","last_reported":1750432266,"current_range_meters":7200,"station_id":"ce4bh0h2rcd13ifvqd60","pricing_plan_id":"cebpf4jnsgd1na2vs0mg"},{"bike_id":"ddeee110-8318-4422-8280-886a88c60842","system_id":"levelo_inurba_marseille","lat":43.29053,"lon":5.35911,"is_reserved":false,"is_disabled":false,"rental_uris":{"android":"levelo://app?vid=ddeee110-8318-4422-8280-886a88c60842","ios":"levelo://app?vid=ddeee110-8318-4422-8280-886a88c60842"},"vehicle_type_id":"4","last_reported":1750432266,"current_range_meters":7200,"station_id":"ce4bha92rcd13ifvqeg0","pricing_plan_id":"cebpf4jnsgd1na2vs0mg"},{"bike_id":"0696eab0-1b66-4a24-a7ce-2ff5e9f17a45","system_id":"levelo_inurba_marseille","lat":43.29169,"lon":5.37145,"is_reserved":false,"is_disabled":false,"rental_uris":{"android":"levelo://app?vid=0696eab0-1b66-4a24-a7ce-2ff5e9f17a45","ios":"levelo://app?vid=0696eab0-1b66-4a24-a7ce-2ff5e9f17a45"},"vehicle_type_id":"4","last_reported":1750432266,"current_range_meters":7200,"station_id":"ce4bha92rcd13ifvqeh0","pricing_plan_id":"cebpf4jnsgd1na2vs0mg"},{"bike_id":"003b6ec0-054f-455b-afcc-09acfe0a5bf5","system_id":"levelo_inurba_marseille","lat":43.254952,"lon":5.376451,"is_reserved":false,"is_disabled":false,"rental_uris":{"android":"levelo://app?vid=003b6ec0-054f-455b-afcc-09acfe0a5bf5","ios":"levelo://app?vid=003b6ec0-054f-455b-afcc-09acfe0a5bf5"},"vehicle_type_id":"4","last_reported":1750432266,"current_range_meters":7200,"station_id":"ce4bhh12rcd13ifvqff0","pricing_plan_id":"cebpf4jnsgd1na2vs0mg"},{"bike_id":"f025e0b0-8595-426c-b214-cb9b74c5fcfd","system_id":"levelo_inurba_marseille","lat":43.32208,"lon":5.40582,"is_reserved":false,"is_disabled":false,"rental_uris":{"android":"levelo://app?vid=f025e0b0-8595-426c-b214-cb9b74c5fcfd","ios":"levelo://app?vid=f025e0b0-8595-426c-b214-cb9b74c5fcfd"},"vehicle_type_id":"4","last_reported":1750432266,"current_range_meters":8400,"station_id":"","pricing_plan_id":"cebpf4jnsgd1na2vs0mg"},{"bike_id":"3328efb2-d32c-440d-878f-4269eb3671d3","system_id":"levelo_inurba_marseille","lat":43.31543,"lon":5.3738,"is_reserved":false,"is_disabled":false,"rental_uris":{"android":"levelo://app?vid=3328efb2-d32c-440d-878f-4269eb3671d3","ios":"levelo://app?vid=3328efb2-d32c-440d-878f-4269eb3671d3"},"vehicle_type_id":"4","last_reported":1750432266,"current_range_meters":8400,"station_id":"","pricing_plan_id":"cebpf4jnsgd1na2vs0mg"},{"bike_id":"a0f4b6b0-4007-4534-8870-ce55910ac97f","system_id":"levelo_inurba_marseille","lat":43.21747,"lon":5.34596,"is_reserved":false,"is_disabled":false,"rental_uris":{"android":"levelo://app?vid=a0f4b6b0-4007-4534-8870-ce55910ac97f","ios":"levelo://app?vid=a0f4b6b0-4007-4534-8870-ce55910ac97f"},"vehicle_type_id":"4","last_reported":1750432266,"current_range_meters":8400,"station_id":"st_cvj6r9ubvosntc0bgbag","pricing_plan_id":"cebpf4jnsgd1na2vs0mg"},{"bike_id":"b2e0d7c7-fd43-4de0-91fd-7fc93dad9462","system_id":"levelo_inurba_marseille","lat":43.28255,"lon":5.35083,"is_reserved":false,"is_disabled":false,"rental_uris":{"android":"levelo://app?vid=b2e0d7c7-fd43-4de0-91fd-7fc93dad9462","ios":"levelo://app?vid=b2e0d7c7-fd43-4de0-91fd-7fc93dad9462"},"vehicle_type_id":"4","last_reported":1750432266,"current_range_meters":8800,"station_id":"ce4bhbp2rcd13ifvqerg","pricing_plan_id":"cebpf4jnsgd1na2vs0mg"},{"bike_id":"350a9163-6a8a-4340-a356-48d0aa12f253","system_id":"levelo_inurba_marseille","lat":43.3233,"lon":5.40618,"is_reserved":false,"is_disabled":false,"rental_uris":{"android":"levelo://app?vid=350a9163-6a8a-4340-a356-48d0aa12f253","ios":"levelo://app?vid=350a9163-6a8a-4340-a356-48d0aa12f253"},"vehicle_type_id":"4","last_reported":1750432266,"current_range_meters":8800,"station_id":"ce4bhq92rcd13ifvqhjg","pricing_plan_id":"cebpf4jnsgd1na2vs0mg"},{"bike_id":"4d3344e0-4e18-44a8-9c17-006042066e18","system_id":"levelo_inurba_marseille","lat":43.33616,"lon":5.41002,"is_reserved":false,"is_disabled":false,"rental_uris":{"android":"levelo://app?vid=4d3344e0-4e18-44a8-9c17-006042066e18","ios":"levelo://app?vid=4d3344e0-4e18-44a8-9c17-006042066e18"},"vehicle_type_id":"4","last_reported":1750432266,"current_range_meters":8800,"station_id":"ce4bhqh2rcd13ifvqhmg","pricing_plan_id":"cebpf4jnsgd1na2vs0mg"},{"bike_id":"df735c88-ae0a-4f8e-9723-d29eb27d80b9","system_id":"levelo_inurba_marseille","lat":43.29918,"lon":5.37664,"is_reserved":false,"is_disabled":false,"rental_uris":{"android":"levelo://app?vid=df735c88-ae0a-4f8e-9723-d29eb27d80b9","ios":"levelo://app?vid=df735c88-ae0a-4f8e-9723-d29eb27d80b9"},"vehicle_type_id":"4","last_reported":1750432266,"current_range_meters":9200,"station_id":"","pricing_plan_id":"cebpf4jnsgd1na2vs0mg"},{"bike_id":"fec72ab8-d7a6-46b8-aad3-61d01b715447","system_id":"levelo_inurba_marseille","lat":43.274867,"lon":5.37777,"is_reserved":false,"is_disabled":false,"rental_uris":{"android":"levelo://app?vid=fec72ab8-d7a6-46b8-aad3-61d01b715447","ios":"levelo://app?vid=fec72ab8-d7a6-46b8-aad3-61d01b715447"},"vehicle_type_id":"4","last_reported":1750432266,"current_range_meters":9200,"station_id":"","pricing_plan_id":"cebpf4jnsgd1na2vs0mg"},{"bike_id":"2654bcf8-facc-4b6a-89d5-3568de0c24ed","system_id":"levelo_inurba_marseille","lat":43.29524,"lon":5.38547,"is_reserved":false,"is_disabled":false,"rental_uris":{"android":"levelo://app?vid=2654bcf8-facc-4b6a-89d5-3568de0c24ed","ios":"levelo://app?vid=2654bcf8-facc-4b6a-89d5-3568de0c24ed"},"vehicle_type_id":"4","last_reported":1750432266,"current_range_meters":9200,"station_id":"ce4bgih2rcd13ifvqba0","pricing_plan_id":"cebpf4jnsgd1na2vs0mg"},{"bike_id":"31e759fd-aade-4319-bfee-7db47271e466","system_id":"levelo_inurba_marseille","lat":43.28105,"lon":5.3784,"is_reserved":false,"is_disabled":false,"rental_uris":{"android":"levelo://app?vid=31e759fd-aade-4319-bfee-7db47271e466","ios":"levelo://app?vid=31e759fd-aade-4319-bfee-7db47271e466"},"vehicle_type_id":"4","last_reported":1750432266,"current_range_meters":9200,"station_id":"ce4bha12rcd13ifvqee0","pricing_plan_id":"cebpf4jnsgd1na2vs0mg"},{"bike_id":"13ef7d1f-42ab-45c6-8760-bd0b9207222f","system_id":"levelo_inurba_marseille","lat":43.21193,"lon":5.35068,"is_reserved":false,"is_disabled":false,"rental_uris":{"android":"levelo://app?vid=13ef7d1f-42ab-45c6-8760-bd0b9207222f","ios":"levelo://app?vid=13ef7d1f-42ab-45c6-8760-bd0b9207222f"},"vehicle_type_id":"4","last_reported":1750432266,"current_range_meters":9200,"station_id":"st_cvj6sg6p6f1abm77japg","pricing_plan_id":"cebpf4jnsgd1na2vs0mg"},{"bike_id":"8997125e-196c-4ac3-9f39-29e28eaee434","system_id":"levelo_inurba_marseille","lat":43.30143,"lon":5.38085,"is_reserved":false,"is_disabled":false,"rental_uris":{"android":"levelo://app?vid=8997125e-196c-4ac3-9f39-29e28eaee434","ios":"levelo://app?vid=8997125e-196c-4ac3-9f39-29e28eaee434"},"vehicle_type_id":"4","last_reported":1750432266,"current_range_meters":9600,"station_id":"ce4bgjp2rcd13ifvqbh0","pricing_plan_id":"cebpf4jnsgd1na2vs0mg"},{"bike_id":"998841c9-343e-4bce-b301-e18f4ad6cfe1","system_id":"levelo_inurba_marseille","lat":43.25097,"lon":5.40341,"is_reserved":false,"is_disabled":false,"rental_uris":{"android":"levelo://app?vid=998841c9-343e-4bce-b301-e18f4ad6cfe1","ios":"levelo://app?vid=998841c9-343e-4bce-b301-e18f4ad6cfe1"},"vehicle_type_id":"4","last_reported":1750432266,"current_range_meters":9600,"station_id":"ce4bhlh2rcd13ifvqgig","pricing_plan_id":"cebpf4jnsgd1na2vs0mg"},{"bike_id":"bc818d66-0121-423f-bca6-ebc01df66a0f","system_id":"levelo_inurba_marseille","lat":43.31526,"lon":5.37238,"is_reserved":false,"is_disabled":false,"rental_uris":{"android":"levelo://app?vid=bc818d66-0121-423f-bca6-ebc01df66a0f","ios":"levelo://app?vid=bc818d66-0121-423f-bca6-ebc01df66a0f"},"vehicle_type_id":"4","last_reported":1750432266,"current_range_meters":10000,"station_id":"","pricing_plan_id":"cebpf4jnsgd1na2vs0mg"},{"bike_id":"ed7f907f-845e-41b3-b2e0-4c5a75de9b80","system_id":"levelo_inurba_marseille","lat":43.30151,"lon":5.3987,"is_reserved":false,"is_disabled":false,"rental_uris":{"android":"levelo://app?vid=ed7f907f-845e-41b3-b2e0-4c5a75de9b80","ios":"levelo://app?vid=ed7f907f-845e-41b3-b2e0-4c5a75de9b80"},"vehicle_type_id":"4","last_reported":1750432266,"current_range_meters":10000,"station_id":"ce4bh0h2rcd13ifvqd40","pricing_plan_id":"cebpf4jnsgd1na2vs0mg"},{"bike_id":"8c880890-1aae-4441-9602-658800833be8","system_id":"levelo_inurba_marseille","lat":43.29433,"lon":5.39757,"is_reserved":false,"is_disabled":false,"rental_uris":{"android":"levelo://app?vid=8c880890-1aae-4441-9602-658800833be8","ios":"levelo://app?vid=8c880890-1aae-4441-9602-658800833be8"},"vehicle_type_id":"4","last_reported":1750432266,"current_range_meters":10000,"station_id":"ce4bh3h2rcd13ifvqdo0","pricing_plan_id":"cebpf4jnsgd1na2vs0mg"},{"bike_id":"a07632d7-f7f2-4f47-be1f-ad6ca506c86d","system_id":"levelo_inurba_marseille","lat":43.2927,"lon":5.36852,"is_reserved":false,"is_disabled":false,"rental_uris":{"android":"levelo://app?vid=a07632d7-f7f2-4f47-be1f-ad6ca506c86d","ios":"levelo://app?vid=a07632d7-f7f2-4f47-be1f-ad6ca506c86d"},"vehicle_type_id":"4","last_reported":1750432266,"current_range_meters":10000,"station_id":"ce4bhbp2rcd13ifvqesg","pricing_plan_id":"cebpf4jnsgd1na2vs0mg"},{"bike_id":"79626a7a-5350-4b2c-bb43-f1eb0411c96d","system_id":"levelo_inurba_marseille","lat":43.23973,"lon":5.36626,"is_reserved":false,"is_disabled":false,"rental_uris":{"android":"levelo://app?vid=79626a7a-5350-4b2c-bb43-f1eb0411c96d","ios":"levelo://app?vid=79626a7a-5350-4b2c-bb43-f1eb0411c96d"},"vehicle_type_id":"4","last_reported":1750432266,"current_range_meters":10000,"station_id":"ce4bhi12rcd13ifvqfp0","pricing_plan_id":"cebpf4jnsgd1na2vs0mg"},{"bike_id":"78c1ab2b-adc1-42c1-9c8c-be305b7bae7c","system_id":"levelo_inurba_marseille","lat":43.33028,"lon":5.39,"is_reserved":false,"is_disabled":false,"rental_uris":{"android":"levelo://app?vid=78c1ab2b-adc1-42c1-9c8c-be305b7bae7c","ios":"levelo://app?vid=78c1ab2b-adc1-42c1-9c8c-be305b7bae7c"},"vehicle_type_id":"4","last_reported":1750432266,"current_range_meters":10000,"station_id":"ce4bhr92rcd13ifvqhrg","pricing_plan_id":"cebpf4jnsgd1na2vs0mg"},{"bike_id":"943d57f3-b313-44b7-ae78-a394f179e07f","system_id":"levelo_inurba_marseille","lat":43.298425,"lon":5.41648,"is_reserved":false,"is_disabled":false,"rental_uris":{"android":"levelo://app?vid=943d57f3-b313-44b7-ae78-a394f179e07f","ios":"levelo://app?vid=943d57f3-b313-44b7-ae78-a394f179e07f"},"vehicle_type_id":"4","last_reported":1750432266,"current_range_meters":10800,"station_id":"","pricing_plan_id":"cebpf4jnsgd1na2vs0mg"},{"bike_id":"2eb82d3c-7db0-466f-80a7-c6ed84d8119f","system_id":"levelo_inurba_marseille","lat":43.284115,"lon":5.349801,"is_reserved":false,"is_disabled":false,"rental_uris":{"android":"levelo://app?vid=2eb82d3c-7db0-466f-80a7-c6ed84d8119f","ios":"levelo://app?vid=2eb82d3c-7db0-466f-80a7-c6ed84d8119f"},"vehicle_type_id":"4","last_reported":1750432266,"current_range_meters":10800,"station_id":"ce4bhbh2rcd13ifvqepg","pricing_plan_id":"cebpf4jnsgd1na2vs0mg"},{"bike_id":"ee9e43c0-6612-42d2-8e5d-ee22cfd8ab29","system_id":"levelo_inurba_marseille","lat":43.246398,"lon":5.384395,"is_reserved":false,"is_disabled":false,"rental_uris":{"android":"levelo://app?vid=ee9e43c0-6612-42d2-8e5d-ee22cfd8ab29","ios":"levelo://app?vid=ee9e43c0-6612-42d2-8e5d-ee22cfd8ab29"},"vehicle_type_id":"4","last_reported":1750432266,"current_range_meters":10800,"station_id":"ce4bhhh2rcd13ifvqfk0","pricing_plan_id":"cebpf4jnsgd1na2vs0mg"},{"bike_id":"17f6cf7d-d9c6-4f16-acac-ace989d68212","system_id":"levelo_inurba_marseille","lat":43.27171,"lon":5.40993,"is_reserved":false,"is_disabled":false,"rental_uris":{"android":"levelo://app?vid=17f6cf7d-d9c6-4f16-acac-ace989d68212","ios":"levelo://app?vid=17f6cf7d-d9c6-4f16-acac-ace989d68212"},"vehicle_type_id":"4","last_reported":1750432266,"current_range_meters":10800,"station_id":"ce4bhl12rcd13ifvqgf0","pricing_plan_id":"cebpf4jnsgd1na2vs0mg"},{"bike_id":"8d4cc0dc-1c39-477a-9bcb-b0d9ba084376","system_id":"levelo_inurba_marseille","lat":43.29195,"lon":5.39327,"is_reserved":false,"is_disabled":false,"rental_uris":{"android":"levelo://app?vid=8d4cc0dc-1c39-477a-9bcb-b0d9ba084376","ios":"levelo://app?vid=8d4cc0dc-1c39-477a-9bcb-b0d9ba084376"},"vehicle_type_id":"4","last_reported":1750432266,"current_range_meters":11200,"station_id":"ce4bh192rcd13ifvqdd0","pricing_plan_id":"cebpf4jnsgd1na2vs0mg"},{"bike_id":"b541172b-5b30-43b7-90a7-1f304b078276","system_id":"levelo_inurba_marseille","lat":43.28258,"lon":5.35067,"is_reserved":false,"is_disabled":false,"rental_uris":{"android":"levelo://app?vid=b541172b-5b30-43b7-90a7-1f304b078276","ios":"levelo://app?vid=b541172b-5b30-43b7-90a7-1f304b078276"},"vehicle_type_id":"4","last_reported":1750432266,"current_range_meters":11200,"station_id":"ce4bhbp2rcd13ifvqerg","pricing_plan_id":"cebpf4jnsgd1na2vs0mg"},{"bike_id":"894cd54b-0e20-45fb-b438-789a716acc6f","system_id":"levelo_inurba_marseille","lat":43.28247,"lon":5.35095,"is_reserved":false,"is_disabled":false,"rental_uris":{"android":"levelo://app?vid=894cd54b-0e20-45fb-b438-789a716acc6f","ios":"levelo://app?vid=894cd54b-0e20-45fb-b438-789a716acc6f"},"vehicle_type_id":"4","last_reported":1750432266,"current_range_meters":11200,"station_id":"ce4bhbp2rcd13ifvqerg","pricing_plan_id":"cebpf4jnsgd1na2vs0mg"},{"bike_id":"1e9c212b-c553-4305-a1e9-86b68a696b58","system_id":"levelo_inurba_marseille","lat":43.24077,"lon":5.37758,"is_reserved":false,"is_disabled":false,"rental_uris":{"android":"levelo://app?vid=1e9c212b-c553-4305-a1e9-86b68a696b58","ios":"levelo://app?vid=1e9c212b-c553-4305-a1e9-86b68a696b58"},"vehicle_type_id":"4","last_reported":1750432266,"current_range_meters":11200,"station_id":"ce4bhnp2rcd13ifvqgvg","pricing_plan_id":"cebpf4jnsgd1na2vs0mg"},{"bike_id":"dae8b197-76e6-45d6-885f-8dc38d272833","system_id":"levelo_inurba_marseille","lat":43.33019,"lon":5.39039,"is_reserved":false,"is_disabled":false,"rental_uris":{"android":"levelo://app?vid=dae8b197-76e6-45d6-885f-8dc38d272833","ios":"levelo://app?vid=dae8b197-76e6-45d6-885f-8dc38d272833"},"vehicle_type_id":"4","last_reported":1750432266,"current_range_meters":11200,"station_id":"ce4bhr92rcd13ifvqhrg","pricing_plan_id":"cebpf4jnsgd1na2vs0mg"},{"bike_id":"d8f17429-8ed0-4080-86eb-7583aa1120c7","system_id":"levelo_inurba_marseille","lat":43.29614,"lon":5.37726,"is_reserved":false,"is_disabled":false,"rental_uris":{"android":"levelo://app?vid=d8f17429-8ed0-4080-86eb-7583aa1120c7","ios":"levelo://app?vid=d8f17429-8ed0-4080-86eb-7583aa1120c7"},"vehicle_type_id":"4","last_reported":1750432266,"current_range_meters":11600,"station_id":"ce4bgi92rcd13ifvqb90","pricing_plan_id":"cebpf4jnsgd1na2vs0mg"},{"bike_id":"1e11989f-e475-4397-9a45-bd9147224a5e","system_id":"levelo_inurba_marseille","lat":43.244,"lon":5.37107,"is_reserved":false,"is_disabled":false,"rental_uris":{"android":"levelo://app?vid=1e11989f-e475-4397-9a45-bd9147224a5e","ios":"levelo://app?vid=1e11989f-e475-4397-9a45-bd9147224a5e"},"vehicle_type_id":"4","last_reported":1750432266,"current_range_meters":11600,"station_id":"ce4bhhh2rcd13ifvqfk0","pricing_plan_id":"cebpf4jnsgd1na2vs0mg"},{"bike_id":"8742d3cc-b5a9-4536-a1af-3cc3798f0252","system_id":"levelo_inurba_marseille","lat":43.25717,"lon":5.41115,"is_reserved":false,"is_disabled":false,"rental_uris":{"android":"levelo://app?vid=8742d3cc-b5a9-4536-a1af-3cc3798f0252","ios":"levelo://app?vid=8742d3cc-b5a9-4536-a1af-3cc3798f0252"},"vehicle_type_id":"4","last_reported":1750432266,"current_range_meters":11600,"station_id":"ce4bhkp2rcd13ifvqgd0","pricing_plan_id":"cebpf4jnsgd1na2vs0mg"},{"bike_id":"021bb7bf-e967-4e8d-b14a-0d47b0af2b2a","system_id":"levelo_inurba_marseille","lat":43.25117,"lon":5.40315,"is_reserved":false,"is_disabled":false,"rental_uris":{"android":"levelo://app?vid=021bb7bf-e967-4e8d-b14a-0d47b0af2b2a","ios":"levelo://app?vid=021bb7bf-e967-4e8d-b14a-0d47b0af2b2a"},"vehicle_type_id":"4","last_reported":1750432266,"current_range_meters":11600,"station_id":"ce4bhlh2rcd13ifvqgig","pricing_plan_id":"cebpf4jnsgd1na2vs0mg"},{"bike_id":"cd9c78dd-d14c-47f3-995f-d143b237d6e8","system_id":"levelo_inurba_marseille","lat":43.21747,"lon":5.34599,"is_reserved":false,"is_disabled":false,"rental_uris":{"android":"levelo://app?vid=cd9c78dd-d14c-47f3-995f-d143b237d6e8","ios":"levelo://app?vid=cd9c78dd-d14c-47f3-995f-d143b237d6e8"},"vehicle_type_id":"4","last_reported":1750432266,"current_range_meters":11600,"station_id":"st_cvj6r9ubvosntc0bgbag","pricing_plan_id":"cebpf4jnsgd1na2vs0mg"},{"bike_id":"4f4982ab-b66c-4099-b056-88f6837cfc27","system_id":"levelo_inurba_marseille","lat":43.2825,"lon":5.35074,"is_reserved":false,"is_disabled":false,"rental_uris":{"android":"levelo://app?vid=4f4982ab-b66c-4099-b056-88f6837cfc27","ios":"levelo://app?vid=4f4982ab-b66c-4099-b056-88f6837cfc27"},"vehicle_type_id":"4","last_reported":1750432266,"current_range_meters":12000,"station_id":"ce4bhbp2rcd13ifvqerg","pricing_plan_id":"cebpf4jnsgd1na2vs0mg"},{"bike_id":"a63b8b74-a94b-406b-8b41-8f46c7a02902","system_id":"levelo_inurba_marseille","lat":43.26557,"lon":5.37284,"is_reserved":false,"is_disabled":false,"rental_uris":{"android":"levelo://app?vid=a63b8b74-a94b-406b-8b41-8f46c7a02902","ios":"levelo://app?vid=a63b8b74-a94b-406b-8b41-8f46c7a02902"},"vehicle_type_id":"4","last_reported":1750432266,"current_range_meters":12000,"station_id":"ce4bhg12rcd13ifvqf70","pricing_plan_id":"cebpf4jnsgd1na2vs0mg"},{"bike_id":"62e9e4cd-89ee-451e-a0b7-945eb0c4a1f1","system_id":"levelo_inurba_marseille","lat":43.23965,"lon":5.36628,"is_reserved":false,"is_disabled":false,"rental_uris":{"android":"levelo://app?vid=62e9e4cd-89ee-451e-a0b7-945eb0c4a1f1","ios":"levelo://app?vid=62e9e4cd-89ee-451e-a0b7-945eb0c4a1f1"},"vehicle_type_id":"4","last_reported":1750432266,"current_range_meters":12000,"station_id":"ce4bhi12rcd13ifvqfp0","pricing_plan_id":"cebpf4jnsgd1na2vs0mg"},{"bike_id":"cfcc63e5-33ec-4229-a7bf-4d1c7311a7b9","system_id":"levelo_inurba_marseille","lat":43.29916,"lon":5.43646,"is_reserved":false,"is_disabled":false,"rental_uris":{"android":"levelo://app?vid=cfcc63e5-33ec-4229-a7bf-4d1c7311a7b9","ios":"levelo://app?vid=cfcc63e5-33ec-4229-a7bf-4d1c7311a7b9"},"vehicle_type_id":"4","last_reported":1750432266,"current_range_meters":12000,"station_id":"ce4bhpp2rcd13ifvqhfg","pricing_plan_id":"cebpf4jnsgd1na2vs0mg"},{"bike_id":"0708cf38-7a7f-4f4d-a4c6-7778c58c5a3c","system_id":"levelo_inurba_marseille","lat":43.28326,"lon":5.41093,"is_reserved":false,"is_disabled":false,"rental_uris":{"android":"levelo://app?vid=0708cf38-7a7f-4f4d-a4c6-7778c58c5a3c","ios":"levelo://app?vid=0708cf38-7a7f-4f4d-a4c6-7778c58c5a3c"},"vehicle_type_id":"4","last_reported":1750432266,"current_range_meters":12400,"station_id":"","pricing_plan_id":"cebpf4jnsgd1na2vs0mg"},{"bike_id":"ffc20574-c96c-46fb-9cea-b2241a321332","system_id":"levelo_inurba_marseille","lat":43.309173,"lon":5.382262,"is_reserved":false,"is_disabled":false,"rental_uris":{"android":"levelo://app?vid=ffc20574-c96c-46fb-9cea-b2241a321332","ios":"levelo://app?vid=ffc20574-c96c-46fb-9cea-b2241a321332"},"vehicle_type_id":"4","last_reported":1750432266,"current_range_meters":12400,"station_id":"","pricing_plan_id":"cebpf4jnsgd1na2vs0mg"},{"bike_id":"199c2831-e081-4bc0-9b94-19503817091d","system_id":"levelo_inurba_marseille","lat":43.249,"lon":5.40677,"is_reserved":false,"is_disabled":false,"rental_uris":{"android":"levelo://app?vid=199c2831-e081-4bc0-9b94-19503817091d","ios":"levelo://app?vid=199c2831-e081-4bc0-9b94-19503817091d"},"vehicle_type_id":"4","last_reported":1750432266,"current_range_meters":12400,"station_id":"","pricing_plan_id":"cebpf4jnsgd1na2vs0mg"},{"bike_id":"28e5a789-aaa8-4017-a882-c18f62de3f89","system_id":"levelo_inurba_marseille","lat":43.29623,"lon":5.40599,"is_reserved":false,"is_disabled":false,"rental_uris":{"android":"levelo://app?vid=28e5a789-aaa8-4017-a882-c18f62de3f89","ios":"levelo://app?vid=28e5a789-aaa8-4017-a882-c18f62de3f89"},"vehicle_type_id":"4","last_reported":1750432266,"current_range_meters":12400,"station_id":"ce4bh0h2rcd13ifvqd60","pricing_plan_id":"cebpf4jnsgd1na2vs0mg"},{"bike_id":"496f3967-646c-4b11-b018-4b2db8cbc554","system_id":"levelo_inurba_marseille","lat":43.28253,"lon":5.35089,"is_reserved":false,"is_disabled":false,"rental_uris":{"android":"levelo://app?vid=496f3967-646c-4b11-b018-4b2db8cbc554","ios":"levelo://app?vid=496f3967-646c-4b11-b018-4b2db8cbc554"},"vehicle_type_id":"4","last_reported":1750432266,"current_range_meters":12400,"station_id":"ce4bhbp2rcd13ifvqerg","pricing_plan_id":"cebpf4jnsgd1na2vs0mg"},{"bike_id":"0bca9a6f-f277-45f3-8794-b6271f3fa9cc","system_id":"levelo_inurba_marseille","lat":43.23958,"lon":5.36635,"is_reserved":false,"is_disabled":false,"rental_uris":{"android":"levelo://app?vid=0bca9a6f-f277-45f3-8794-b6271f3fa9cc","ios":"levelo://app?vid=0bca9a6f-f277-45f3-8794-b6271f3fa9cc"},"vehicle_type_id":"4","last_reported":1750432266,"current_range_meters":12400,"station_id":"ce4bhi12rcd13ifvqfp0","pricing_plan_id":"cebpf4jnsgd1na2vs0mg"},{"bike_id":"46f0562c-2217-40c1-93f1-37831caa6783","system_id":"levelo_inurba_marseille","lat":43.33019,"lon":5.39025,"is_reserved":false,"is_disabled":false,"rental_uris":{"android":"levelo://app?vid=46f0562c-2217-40c1-93f1-37831caa6783","ios":"levelo://app?vid=46f0562c-2217-40c1-93f1-37831caa6783"},"vehicle_type_id":"4","last_reported":1750432266,"current_range_meters":12400,"station_id":"ce4bhr92rcd13ifvqhrg","pricing_plan_id":"cebpf4jnsgd1na2vs0mg"},{"bike_id":"8fd94bfe-b0a3-4509-a3c9-0f6e3f8eed78","system_id":"levelo_inurba_marseille","lat":43.24157,"lon":5.36395,"is_reserved":false,"is_disabled":false,"rental_uris":{"android":"levelo://app?vid=8fd94bfe-b0a3-4509-a3c9-0f6e3f8eed78","ios":"levelo://app?vid=8fd94bfe-b0a3-4509-a3c9-0f6e3f8eed78"},"vehicle_type_id":"4","last_reported":1750432266,"current_range_meters":12400,"station_id":"cpo36qri1sfpv3e86is0","pricing_plan_id":"cebpf4jnsgd1na2vs0mg"},{"bike_id":"f30123e7-96d3-442d-9d01-6c98dc61e7c8","system_id":"levelo_inurba_marseille","lat":43.29814,"lon":5.36838,"is_reserved":false,"is_disabled":false,"rental_uris":{"android":"levelo://app?vid=f30123e7-96d3-442d-9d01-6c98dc61e7c8","ios":"levelo://app?vid=f30123e7-96d3-442d-9d01-6c98dc61e7c8"},"vehicle_type_id":"4","last_reported":1750432266,"current_range_meters":12800,"station_id":"","pricing_plan_id":"cebpf4jnsgd1na2vs0mg"},{"bike_id":"9049a79c-fc92-4646-9bd7-c26ae2ef82ad","system_id":"levelo_inurba_marseille","lat":43.273708,"lon":5.362578,"is_reserved":false,"is_disabled":false,"rental_uris":{"android":"levelo://app?vid=9049a79c-fc92-4646-9bd7-c26ae2ef82ad","ios":"levelo://app?vid=9049a79c-fc92-4646-9bd7-c26ae2ef82ad"},"vehicle_type_id":"4","last_reported":1750432266,"current_range_meters":12800,"station_id":"ce4bhbh2rcd13ifvqeo0","pricing_plan_id":"cebpf4jnsgd1na2vs0mg"},{"bike_id":"8300812b-c3f4-4460-a462-0c10590e5460","system_id":"levelo_inurba_marseille","lat":43.329038,"lon":5.40563,"is_reserved":false,"is_disabled":false,"rental_uris":{"android":"levelo://app?vid=8300812b-c3f4-4460-a462-0c10590e5460","ios":"levelo://app?vid=8300812b-c3f4-4460-a462-0c10590e5460"},"vehicle_type_id":"4","last_reported":1750432266,"current_range_meters":13600,"station_id":"","pricing_plan_id":"cebpf4jnsgd1na2vs0mg"},{"bike_id":"821493b8-5d6a-4657-acce-18b28b25e0ec","system_id":"levelo_inurba_marseille","lat":43.30142,"lon":5.3986,"is_reserved":false,"is_disabled":false,"rental_uris":{"android":"levelo://app?vid=821493b8-5d6a-4657-acce-18b28b25e0ec","ios":"levelo://app?vid=821493b8-5d6a-4657-acce-18b28b25e0ec"},"vehicle_type_id":"4","last_reported":1750432266,"current_range_meters":13600,"station_id":"ce4bh0h2rcd13ifvqd40","pricing_plan_id":"cebpf4jnsgd1na2vs0mg"},{"bike_id":"510b1add-e212-408d-95f0-109a5e2ca67a","system_id":"levelo_inurba_marseille","lat":43.28411,"lon":5.35005,"is_reserved":false,"is_disabled":false,"rental_uris":{"android":"levelo://app?vid=510b1add-e212-408d-95f0-109a5e2ca67a","ios":"levelo://app?vid=510b1add-e212-408d-95f0-109a5e2ca67a"},"vehicle_type_id":"4","last_reported":1750432266,"current_range_meters":13600,"station_id":"ce4bhbh2rcd13ifvqepg","pricing_plan_id":"cebpf4jnsgd1na2vs0mg"},{"bike_id":"9d72ee1f-e07c-4e23-8d27-c26069c60877","system_id":"levelo_inurba_marseille","lat":43.297933,"lon":5.393363,"is_reserved":false,"is_disabled":false,"rental_uris":{"android":"levelo://app?vid=9d72ee1f-e07c-4e23-8d27-c26069c60877","ios":"levelo://app?vid=9d72ee1f-e07c-4e23-8d27-c26069c60877"},"vehicle_type_id":"4","last_reported":1750432266,"current_range_meters":13600,"station_id":"chh1huq6cuj3fo74tm60","pricing_plan_id":"cebpf4jnsgd1na2vs0mg"},{"bike_id":"c5925c0d-e45e-4629-bb94-059f23765a19","system_id":"levelo_inurba_marseille","lat":43.23962,"lon":5.36637,"is_reserved":false,"is_disabled":false,"rental_uris":{"android":"levelo://app?vid=c5925c0d-e45e-4629-bb94-059f23765a19","ios":"levelo://app?vid=c5925c0d-e45e-4629-bb94-059f23765a19"},"vehicle_type_id":"4","last_reported":1750432266,"current_range_meters":14000,"station_id":"ce4bhi12rcd13ifvqfp0","pricing_plan_id":"cebpf4jnsgd1na2vs0mg"},{"bike_id":"ffae835f-e693-4b2c-9eee-22800a884cb8","system_id":"levelo_inurba_marseille","lat":43.33718,"lon":5.39191,"is_reserved":false,"is_disabled":false,"rental_uris":{"android":"levelo://app?vid=ffae835f-e693-4b2c-9eee-22800a884cb8","ios":"levelo://app?vid=ffae835f-e693-4b2c-9eee-22800a884cb8"},"vehicle_type_id":"4","last_reported":1750432266,"current_range_meters":14000,"station_id":"ce4bhr92rcd13ifvqhsg","pricing_plan_id":"cebpf4jnsgd1na2vs0mg"},{"bike_id":"cb0bba47-7dd4-4125-97aa-add250cbb5d7","system_id":"levelo_inurba_marseille","lat":43.30804,"lon":5.38145,"is_reserved":false,"is_disabled":false,"rental_uris":{"android":"levelo://app?vid=cb0bba47-7dd4-4125-97aa-add250cbb5d7","ios":"levelo://app?vid=cb0bba47-7dd4-4125-97aa-add250cbb5d7"},"vehicle_type_id":"4","last_reported":1750432266,"current_range_meters":14400,"station_id":"ce4bgt12rcd13ifvqce0","pricing_plan_id":"cebpf4jnsgd1na2vs0mg"},{"bike_id":"1a165bc8-add6-4807-bfea-c419574e86f3","system_id":"levelo_inurba_marseille","lat":43.28262,"lon":5.35078,"is_reserved":false,"is_disabled":false,"rental_uris":{"android":"levelo://app?vid=1a165bc8-add6-4807-bfea-c419574e86f3","ios":"levelo://app?vid=1a165bc8-add6-4807-bfea-c419574e86f3"},"vehicle_type_id":"4","last_reported":1750432266,"current_range_meters":14400,"station_id":"ce4bhbp2rcd13ifvqerg","pricing_plan_id":"cebpf4jnsgd1na2vs0mg"},{"bike_id":"0c2e22f6-470d-4815-bb91-7070b265a920","system_id":"levelo_inurba_marseille","lat":43.24386,"lon":5.37053,"is_reserved":false,"is_disabled":false,"rental_uris":{"android":"levelo://app?vid=0c2e22f6-470d-4815-bb91-7070b265a920","ios":"levelo://app?vid=0c2e22f6-470d-4815-bb91-7070b265a920"},"vehicle_type_id":"4","last_reported":1750432266,"current_range_meters":14400,"station_id":"ce4bhhh2rcd13ifvqfk0","pricing_plan_id":"cebpf4jnsgd1na2vs0mg"},{"bike_id":"2c4cc514-d58f-4b93-897e-b6244a4a4ea5","system_id":"levelo_inurba_marseille","lat":43.28841,"lon":5.39315,"is_reserved":false,"is_disabled":false,"rental_uris":{"android":"levelo://app?vid=2c4cc514-d58f-4b93-897e-b6244a4a4ea5","ios":"levelo://app?vid=2c4cc514-d58f-4b93-897e-b6244a4a4ea5"},"vehicle_type_id":"4","last_reported":1750432266,"current_range_meters":14800,"station_id":"ce4bh2p2rcd13ifvqdi0","pricing_plan_id":"cebpf4jnsgd1na2vs0mg"},{"bike_id":"56735059-a511-4f75-9fa1-1f0e9a363234","system_id":"levelo_inurba_marseille","lat":43.23197,"lon":5.35558,"is_reserved":false,"is_disabled":false,"rental_uris":{"android":"levelo://app?vid=56735059-a511-4f75-9fa1-1f0e9a363234","ios":"levelo://app?vid=56735059-a511-4f75-9fa1-1f0e9a363234"},"vehicle_type_id":"4","last_reported":1750432266,"current_range_meters":14800,"station_id":"ce4bhu92rcd13ifvqi70","pricing_plan_id":"cebpf4jnsgd1na2vs0mg"},{"bike_id":"3f257d51-9c63-40b2-b5cc-7b08add54320","system_id":"levelo_inurba_marseille","lat":43.230665,"lon":5.354879,"is_reserved":false,"is_disabled":false,"rental_uris":{"android":"levelo://app?vid=3f257d51-9c63-40b2-b5cc-7b08add54320","ios":"levelo://app?vid=3f257d51-9c63-40b2-b5cc-7b08add54320"},"vehicle_type_id":"4","last_reported":1750432266,"current_range_meters":14800,"station_id":"cpo3342slgdg3j2ifvpg","pricing_plan_id":"cebpf4jnsgd1na2vs0mg"},{"bike_id":"dd45b830-666c-4c76-b06e-9938bffa2cad","system_id":"levelo_inurba_marseille","lat":43.289177,"lon":5.359397,"is_reserved":false,"is_disabled":false,"rental_uris":{"android":"levelo://app?vid=dd45b830-666c-4c76-b06e-9938bffa2cad","ios":"levelo://app?vid=dd45b830-666c-4c76-b06e-9938bffa2cad"},"vehicle_type_id":"4","last_reported":1750432266,"current_range_meters":15200,"station_id":"","pricing_plan_id":"cebpf4jnsgd1na2vs0mg"},{"bike_id":"f65505f7-bdc9-40cf-a641-25b38f2e8d77","system_id":"levelo_inurba_marseille","lat":43.27373,"lon":5.36241,"is_reserved":false,"is_disabled":false,"rental_uris":{"android":"levelo://app?vid=f65505f7-bdc9-40cf-a641-25b38f2e8d77","ios":"levelo://app?vid=f65505f7-bdc9-40cf-a641-25b38f2e8d77"},"vehicle_type_id":"4","last_reported":1750432266,"current_range_meters":15200,"station_id":"ce4bhbh2rcd13ifvqeo0","pricing_plan_id":"cebpf4jnsgd1na2vs0mg"},{"bike_id":"a15053d2-9877-473b-bfdb-9b2a61b74dfe","system_id":"levelo_inurba_marseille","lat":43.28412,"lon":5.34987,"is_reserved":false,"is_disabled":false,"rental_uris":{"android":"levelo://app?vid=a15053d2-9877-473b-bfdb-9b2a61b74dfe","ios":"levelo://app?vid=a15053d2-9877-473b-bfdb-9b2a61b74dfe"},"vehicle_type_id":"4","last_reported":1750432266,"current_range_meters":15200,"station_id":"ce4bhbh2rcd13ifvqepg","pricing_plan_id":"cebpf4jnsgd1na2vs0mg"},{"bike_id":"c3507ecf-350a-4f40-a3ec-c054291d999e","system_id":"levelo_inurba_marseille","lat":43.28268,"lon":5.35089,"is_reserved":false,"is_disabled":false,"rental_uris":{"android":"levelo://app?vid=c3507ecf-350a-4f40-a3ec-c054291d999e","ios":"levelo://app?vid=c3507ecf-350a-4f40-a3ec-c054291d999e"},"vehicle_type_id":"4","last_reported":1750432266,"current_range_meters":15200,"station_id":"ce4bhbp2rcd13ifvqerg","pricing_plan_id":"cebpf4jnsgd1na2vs0mg"},{"bike_id":"32b33686-79a4-4215-98ad-2c73dfa0a2ab","system_id":"levelo_inurba_marseille","lat":43.28619,"lon":5.35106,"is_reserved":false,"is_disabled":false,"rental_uris":{"android":"levelo://app?vid=32b33686-79a4-4215-98ad-2c73dfa0a2ab","ios":"levelo://app?vid=32b33686-79a4-4215-98ad-2c73dfa0a2ab"},"vehicle_type_id":"4","last_reported":1750432266,"current_range_meters":15200,"station_id":"ce4bhch2rcd13ifvqeug","pricing_plan_id":"cebpf4jnsgd1na2vs0mg"},{"bike_id":"dc540ba2-fb63-45eb-b83a-1826fb3d30b7","system_id":"levelo_inurba_marseille","lat":43.246094,"lon":5.392611,"is_reserved":false,"is_disabled":false,"rental_uris":{"android":"levelo://app?vid=dc540ba2-fb63-45eb-b83a-1826fb3d30b7","ios":"levelo://app?vid=dc540ba2-fb63-45eb-b83a-1826fb3d30b7"},"vehicle_type_id":"4","last_reported":1750432266,"current_range_meters":16000,"station_id":"","pricing_plan_id":"cebpf4jnsgd1na2vs0mg"},{"bike_id":"796eeb70-bd81-4334-9d9e-4bef543ee6e7","system_id":"levelo_inurba_marseille","lat":43.28384,"lon":5.35013,"is_reserved":false,"is_disabled":false,"rental_uris":{"android":"levelo://app?vid=796eeb70-bd81-4334-9d9e-4bef543ee6e7","ios":"levelo://app?vid=796eeb70-bd81-4334-9d9e-4bef543ee6e7"},"vehicle_type_id":"4","last_reported":1750432266,"current_range_meters":16000,"station_id":"ce4bhbh2rcd13ifvqepg","pricing_plan_id":"cebpf4jnsgd1na2vs0mg"},{"bike_id":"8f063f00-f9a0-444b-a2a3-5de8850d4b96","system_id":"levelo_inurba_marseille","lat":43.2828,"lon":5.35054,"is_reserved":false,"is_disabled":false,"rental_uris":{"android":"levelo://app?vid=8f063f00-f9a0-444b-a2a3-5de8850d4b96","ios":"levelo://app?vid=8f063f00-f9a0-444b-a2a3-5de8850d4b96"},"vehicle_type_id":"4","last_reported":1750432266,"current_range_meters":16000,"station_id":"ce4bhbp2rcd13ifvqerg","pricing_plan_id":"cebpf4jnsgd1na2vs0mg"},{"bike_id":"8e92feac-7d18-4ddd-8b47-3e77cf9b9c34","system_id":"levelo_inurba_marseille","lat":43.231921,"lon":5.35582,"is_reserved":false,"is_disabled":false,"rental_uris":{"android":"levelo://app?vid=8e92feac-7d18-4ddd-8b47-3e77cf9b9c34","ios":"levelo://app?vid=8e92feac-7d18-4ddd-8b47-3e77cf9b9c34"},"vehicle_type_id":"4","last_reported":1750432266,"current_range_meters":16000,"station_id":"ce4bhu92rcd13ifvqi70","pricing_plan_id":"cebpf4jnsgd1na2vs0mg"},{"bike_id":"d40af265-11b5-43a6-9bb6-f910f57901ba","system_id":"levelo_inurba_marseille","lat":43.32912,"lon":5.38031,"is_reserved":false,"is_disabled":false,"rental_uris":{"android":"levelo://app?vid=d40af265-11b5-43a6-9bb6-f910f57901ba","ios":"levelo://app?vid=d40af265-11b5-43a6-9bb6-f910f57901ba"},"vehicle_type_id":"4","last_reported":1750432266,"current_range_meters":16400,"station_id":"","pricing_plan_id":"cebpf4jnsgd1na2vs0mg"},{"bike_id":"bd27fe72-6fbc-453f-8b77-bee10ab3b13c","system_id":"levelo_inurba_marseille","lat":43.29536,"lon":5.42377,"is_reserved":false,"is_disabled":false,"rental_uris":{"android":"levelo://app?vid=bd27fe72-6fbc-453f-8b77-bee10ab3b13c","ios":"levelo://app?vid=bd27fe72-6fbc-453f-8b77-bee10ab3b13c"},"vehicle_type_id":"4","last_reported":1750432266,"current_range_meters":16400,"station_id":"","pricing_plan_id":"cebpf4jnsgd1na2vs0mg"},{"bike_id":"e904481c-c075-4235-ab4b-c7d3ddbe3194","system_id":"levelo_inurba_marseille","lat":43.293304,"lon":5.370808,"is_reserved":false,"is_disabled":false,"rental_uris":{"android":"levelo://app?vid=e904481c-c075-4235-ab4b-c7d3ddbe3194","ios":"levelo://app?vid=e904481c-c075-4235-ab4b-c7d3ddbe3194"},"vehicle_type_id":"4","last_reported":1750432266,"current_range_meters":16400,"station_id":"","pricing_plan_id":"cebpf4jnsgd1na2vs0mg"},{"bike_id":"1def6d58-c4b0-404c-8116-11cb700ff10a","system_id":"levelo_inurba_marseille","lat":43.30144,"lon":5.38088,"is_reserved":false,"is_disabled":false,"rental_uris":{"android":"levelo://app?vid=1def6d58-c4b0-404c-8116-11cb700ff10a","ios":"levelo://app?vid=1def6d58-c4b0-404c-8116-11cb700ff10a"},"vehicle_type_id":"4","last_reported":1750432266,"current_range_meters":16400,"station_id":"ce4bgjp2rcd13ifvqbh0","pricing_plan_id":"cebpf4jnsgd1na2vs0mg"},{"bike_id":"8ef11a45-504d-45b0-a2b5-97fef9594218","system_id":"levelo_inurba_marseille","lat":43.29573,"lon":5.3815,"is_reserved":false,"is_disabled":false,"rental_uris":{"android":"levelo://app?vid=8ef11a45-504d-45b0-a2b5-97fef9594218","ios":"levelo://app?vid=8ef11a45-504d-45b0-a2b5-97fef9594218"},"vehicle_type_id":"4","last_reported":1750432266,"current_range_meters":16400,"station_id":"ce4bgl12rcd13ifvqbo0","pricing_plan_id":"cebpf4jnsgd1na2vs0mg"},{"bike_id":"402e5af8-49c7-498e-937f-892ad5f96419","system_id":"levelo_inurba_marseille","lat":43.30559,"lon":5.36504,"is_reserved":false,"is_disabled":false,"rental_uris":{"android":"levelo://app?vid=402e5af8-49c7-498e-937f-892ad5f96419","ios":"levelo://app?vid=402e5af8-49c7-498e-937f-892ad5f96419"},"vehicle_type_id":"4","last_reported":1750432266,"current_range_meters":16400,"station_id":"ce4bgs12rcd13ifvqcag","pricing_plan_id":"cebpf4jnsgd1na2vs0mg"},{"bike_id":"91f75408-699a-4a53-a19b-c9d45782a7f5","system_id":"levelo_inurba_marseille","lat":43.28701,"lon":5.37391,"is_reserved":false,"is_disabled":false,"rental_uris":{"android":"levelo://app?vid=91f75408-699a-4a53-a19b-c9d45782a7f5","ios":"levelo://app?vid=91f75408-699a-4a53-a19b-c9d45782a7f5"},"vehicle_type_id":"4","last_reported":1750432266,"current_range_meters":16400,"station_id":"ce4bh3p2rcd13ifvqdq0","pricing_plan_id":"cebpf4jnsgd1na2vs0mg"},{"bike_id":"0fedb2ad-3ade-4089-9d83-3cd5afb9e01c","system_id":"levelo_inurba_marseille","lat":43.2846,"lon":5.35892,"is_reserved":false,"is_disabled":false,"rental_uris":{"android":"levelo://app?vid=0fedb2ad-3ade-4089-9d83-3cd5afb9e01c","ios":"levelo://app?vid=0fedb2ad-3ade-4089-9d83-3cd5afb9e01c"},"vehicle_type_id":"4","last_reported":1750432266,"current_range_meters":16400,"station_id":"ce4bhah2rcd13ifvqei0","pricing_plan_id":"cebpf4jnsgd1na2vs0mg"},{"bike_id":"e1690202-debe-40f0-9048-b0165425ea40","system_id":"levelo_inurba_marseille","lat":43.2827,"lon":5.35061,"is_reserved":false,"is_disabled":false,"rental_uris":{"android":"levelo://app?vid=e1690202-debe-40f0-9048-b0165425ea40","ios":"levelo://app?vid=e1690202-debe-40f0-9048-b0165425ea40"},"vehicle_type_id":"4","last_reported":1750432266,"current_range_meters":16400,"station_id":"ce4bhbp2rcd13ifvqerg","pricing_plan_id":"cebpf4jnsgd1na2vs0mg"},{"bike_id":"5566f35b-f397-4533-8604-456a16563535","system_id":"levelo_inurba_marseille","lat":43.25575,"lon":5.38238,"is_reserved":false,"is_disabled":false,"rental_uris":{"android":"levelo://app?vid=5566f35b-f397-4533-8604-456a16563535","ios":"levelo://app?vid=5566f35b-f397-4533-8604-456a16563535"},"vehicle_type_id":"4","last_reported":1750432266,"current_range_meters":16400,"station_id":"ce4bhih2rcd13ifvqfs0","pricing_plan_id":"cebpf4jnsgd1na2vs0mg"},{"bike_id":"5991bbf7-8f79-46e0-bb18-b7d67b8bb911","system_id":"levelo_inurba_marseille","lat":43.2318,"lon":5.39981,"is_reserved":false,"is_disabled":false,"rental_uris":{"android":"levelo://app?vid=5991bbf7-8f79-46e0-bb18-b7d67b8bb911","ios":"levelo://app?vid=5991bbf7-8f79-46e0-bb18-b7d67b8bb911"},"vehicle_type_id":"4","last_reported":1750432266,"current_range_meters":16400,"station_id":"ce4bhn12rcd13ifvqgqg","pricing_plan_id":"cebpf4jnsgd1na2vs0mg"},{"bike_id":"dcce8261-10fb-448c-bb8e-3459da92ceca","system_id":"levelo_inurba_marseille","lat":43.24152,"lon":5.364,"is_reserved":false,"is_disabled":false,"rental_uris":{"android":"levelo://app?vid=dcce8261-10fb-448c-bb8e-3459da92ceca","ios":"levelo://app?vid=dcce8261-10fb-448c-bb8e-3459da92ceca"},"vehicle_type_id":"4","last_reported":1750432266,"current_range_meters":16400,"station_id":"cpo36qri1sfpv3e86is0","pricing_plan_id":"cebpf4jnsgd1na2vs0mg"},{"bike_id":"a22aa312-0025-4f42-88e2-b1e95e79340f","system_id":"levelo_inurba_marseille","lat":43.3169,"lon":5.38389,"is_reserved":false,"is_disabled":false,"rental_uris":{"android":"levelo://app?vid=a22aa312-0025-4f42-88e2-b1e95e79340f","ios":"levelo://app?vid=a22aa312-0025-4f42-88e2-b1e95e79340f"},"vehicle_type_id":"4","last_reported":1750432266,"current_range_meters":16800,"station_id":"","pricing_plan_id":"cebpf4jnsgd1na2vs0mg"},{"bike_id":"587715e5-c22e-4cbf-b38d-4e1f09c9f157","system_id":"levelo_inurba_marseille","lat":43.284067,"lon":5.3499,"is_reserved":false,"is_disabled":false,"rental_uris":{"android":"levelo://app?vid=587715e5-c22e-4cbf-b38d-4e1f09c9f157","ios":"levelo://app?vid=587715e5-c22e-4cbf-b38d-4e1f09c9f157"},"vehicle_type_id":"4","last_reported":1750432266,"current_range_meters":16800,"station_id":"ce4bhbh2rcd13ifvqepg","pricing_plan_id":"cebpf4jnsgd1na2vs0mg"},{"bike_id":"524b7089-caf9-4434-b6f0-62791021a8b7","system_id":"levelo_inurba_marseille","lat":43.28403,"lon":5.34993,"is_reserved":false,"is_disabled":false,"rental_uris":{"android":"levelo://app?vid=524b7089-caf9-4434-b6f0-62791021a8b7","ios":"levelo://app?vid=524b7089-caf9-4434-b6f0-62791021a8b7"},"vehicle_type_id":"4","last_reported":1750432266,"current_range_meters":16800,"station_id":"ce4bhbh2rcd13ifvqepg","pricing_plan_id":"cebpf4jnsgd1na2vs0mg"},{"bike_id":"bd6a17b0-f21c-48c1-be21-0b44347a6022","system_id":"levelo_inurba_marseille","lat":43.26025,"lon":5.37549,"is_reserved":false,"is_disabled":false,"rental_uris":{"android":"levelo://app?vid=bd6a17b0-f21c-48c1-be21-0b44347a6022","ios":"levelo://app?vid=bd6a17b0-f21c-48c1-be21-0b44347a6022"},"vehicle_type_id":"4","last_reported":1750432266,"current_range_meters":16800,"station_id":"ce4bhgh2rcd13ifvqfa0","pricing_plan_id":"cebpf4jnsgd1na2vs0mg"},{"bike_id":"ccf4ab64-4a82-42e6-a3c9-8579eb4adb05","system_id":"levelo_inurba_marseille","lat":43.26212,"lon":5.37445,"is_reserved":false,"is_disabled":false,"rental_uris":{"android":"levelo://app?vid=ccf4ab64-4a82-42e6-a3c9-8579eb4adb05","ios":"levelo://app?vid=ccf4ab64-4a82-42e6-a3c9-8579eb4adb05"},"vehicle_type_id":"4","last_reported":1750432266,"current_range_meters":16800,"station_id":"ce4bhgp2rcd13ifvqfc0","pricing_plan_id":"cebpf4jnsgd1na2vs0mg"},{"bike_id":"8a13388a-c9a5-4aa9-a7f5-4ca341623576","system_id":"levelo_inurba_marseille","lat":43.24383,"lon":5.3705,"is_reserved":false,"is_disabled":false,"rental_uris":{"android":"levelo://app?vid=8a13388a-c9a5-4aa9-a7f5-4ca341623576","ios":"levelo://app?vid=8a13388a-c9a5-4aa9-a7f5-4ca341623576"},"vehicle_type_id":"4","last_reported":1750432266,"current_range_meters":16800,"station_id":"ce4bhhh2rcd13ifvqfk0","pricing_plan_id":"cebpf4jnsgd1na2vs0mg"},{"bike_id":"4f509cf4-1e96-4208-8bdb-ff3631c55478","system_id":"levelo_inurba_marseille","lat":43.23187,"lon":5.39984,"is_reserved":false,"is_disabled":false,"rental_uris":{"android":"levelo://app?vid=4f509cf4-1e96-4208-8bdb-ff3631c55478","ios":"levelo://app?vid=4f509cf4-1e96-4208-8bdb-ff3631c55478"},"vehicle_type_id":"4","last_reported":1750432266,"current_range_meters":16800,"station_id":"ce4bhn12rcd13ifvqgqg","pricing_plan_id":"cebpf4jnsgd1na2vs0mg"},{"bike_id":"205342d1-39d1-4dc9-92db-0c81bacc6635","system_id":"levelo_inurba_marseille","lat":43.28153,"lon":5.42639,"is_reserved":false,"is_disabled":false,"rental_uris":{"android":"levelo://app?vid=205342d1-39d1-4dc9-92db-0c81bacc6635","ios":"levelo://app?vid=205342d1-39d1-4dc9-92db-0c81bacc6635"},"vehicle_type_id":"4","last_reported":1750432266,"current_range_meters":16800,"station_id":"ce4bhnh2rcd13ifvqgug","pricing_plan_id":"cebpf4jnsgd1na2vs0mg"},{"bike_id":"4643bc90-1bac-4c4b-98b1-e2d500830573","system_id":"levelo_inurba_marseille","lat":43.31375,"lon":5.37721,"is_reserved":false,"is_disabled":false,"rental_uris":{"android":"levelo://app?vid=4643bc90-1bac-4c4b-98b1-e2d500830573","ios":"levelo://app?vid=4643bc90-1bac-4c4b-98b1-e2d500830573"},"vehicle_type_id":"4","last_reported":1750432266,"current_range_meters":17200,"station_id":"","pricing_plan_id":"cebpf4jnsgd1na2vs0mg"},{"bike_id":"98fe9359-0a30-4136-b22f-4d1db58f62f0","system_id":"levelo_inurba_marseille","lat":43.29518,"lon":5.39051,"is_reserved":false,"is_disabled":false,"rental_uris":{"android":"levelo://app?vid=98fe9359-0a30-4136-b22f-4d1db58f62f0","ios":"levelo://app?vid=98fe9359-0a30-4136-b22f-4d1db58f62f0"},"vehicle_type_id":"4","last_reported":1750432266,"current_range_meters":17200,"station_id":"ce4bh3p2rcd13ifvqdp0","pricing_plan_id":"cebpf4jnsgd1na2vs0mg"},{"bike_id":"7172cf25-6760-4683-8b9e-dea6cb019334","system_id":"levelo_inurba_marseille","lat":43.282575,"lon":5.35074,"is_reserved":false,"is_disabled":false,"rental_uris":{"android":"levelo://app?vid=7172cf25-6760-4683-8b9e-dea6cb019334","ios":"levelo://app?vid=7172cf25-6760-4683-8b9e-dea6cb019334"},"vehicle_type_id":"4","last_reported":1750432266,"current_range_meters":17200,"station_id":"ce4bhah2rcd13ifvqei0","pricing_plan_id":"cebpf4jnsgd1na2vs0mg"},{"bike_id":"922b7be9-a27a-4396-b6cb-2cafd8080649","system_id":"levelo_inurba_marseille","lat":43.2845,"lon":5.35892,"is_reserved":false,"is_disabled":false,"rental_uris":{"android":"levelo://app?vid=922b7be9-a27a-4396-b6cb-2cafd8080649","ios":"levelo://app?vid=922b7be9-a27a-4396-b6cb-2cafd8080649"},"vehicle_type_id":"4","last_reported":1750432266,"current_range_meters":17200,"station_id":"ce4bhah2rcd13ifvqei0","pricing_plan_id":"cebpf4jnsgd1na2vs0mg"},{"bike_id":"990596bf-f7ed-4931-b239-10b588f9c7ed","system_id":"levelo_inurba_marseille","lat":43.28397,"lon":5.35006,"is_reserved":false,"is_disabled":false,"rental_uris":{"android":"levelo://app?vid=990596bf-f7ed-4931-b239-10b588f9c7ed","ios":"levelo://app?vid=990596bf-f7ed-4931-b239-10b588f9c7ed"},"vehicle_type_id":"4","last_reported":1750432266,"current_range_meters":17200,"station_id":"ce4bhbh2rcd13ifvqepg","pricing_plan_id":"cebpf4jnsgd1na2vs0mg"},{"bike_id":"6e327c66-a5e4-4686-81e3-5c6920a4a0d4","system_id":"levelo_inurba_marseille","lat":43.28395,"lon":5.35005,"is_reserved":false,"is_disabled":false,"rental_uris":{"android":"levelo://app?vid=6e327c66-a5e4-4686-81e3-5c6920a4a0d4","ios":"levelo://app?vid=6e327c66-a5e4-4686-81e3-5c6920a4a0d4"},"vehicle_type_id":"4","last_reported":1750432266,"current_range_meters":17200,"station_id":"ce4bhbh2rcd13ifvqepg","pricing_plan_id":"cebpf4jnsgd1na2vs0mg"},{"bike_id":"eee77d17-53bc-4ba5-b76e-054a4d3dcceb","system_id":"levelo_inurba_marseille","lat":43.284115,"lon":5.349779,"is_reserved":false,"is_disabled":false,"rental_uris":{"android":"levelo://app?vid=eee77d17-53bc-4ba5-b76e-054a4d3dcceb","ios":"levelo://app?vid=eee77d17-53bc-4ba5-b76e-054a4d3dcceb"},"vehicle_type_id":"4","last_reported":1750432266,"current_range_meters":17200,"station_id":"ce4bhbh2rcd13ifvqepg","pricing_plan_id":"cebpf4jnsgd1na2vs0mg"},{"bike_id":"8789fae4-719a-4491-ab04-6ab3fa071721","system_id":"levelo_inurba_marseille","lat":43.28265,"lon":5.35034,"is_reserved":false,"is_disabled":false,"rental_uris":{"android":"levelo://app?vid=8789fae4-719a-4491-ab04-6ab3fa071721","ios":"levelo://app?vid=8789fae4-719a-4491-ab04-6ab3fa071721"},"vehicle_type_id":"4","last_reported":1750432266,"current_range_meters":17200,"station_id":"ce4bhbp2rcd13ifvqerg","pricing_plan_id":"cebpf4jnsgd1na2vs0mg"},{"bike_id":"6e37c715-ddd1-4f05-ba0b-28a60fbb9bb1","system_id":"levelo_inurba_marseille","lat":43.28614,"lon":5.35105,"is_reserved":false,"is_disabled":false,"rental_uris":{"android":"levelo://app?vid=6e37c715-ddd1-4f05-ba0b-28a60fbb9bb1","ios":"levelo://app?vid=6e37c715-ddd1-4f05-ba0b-28a60fbb9bb1"},"vehicle_type_id":"4","last_reported":1750432266,"current_range_meters":17200,"station_id":"ce4bhch2rcd13ifvqeug","pricing_plan_id":"cebpf4jnsgd1na2vs0mg"},{"bike_id":"6a127880-0742-494d-a56a-094c67bb7bad","system_id":"levelo_inurba_marseille","lat":43.26557,"lon":5.3728,"is_reserved":false,"is_disabled":false,"rental_uris":{"android":"levelo://app?vid=6a127880-0742-494d-a56a-094c67bb7bad","ios":"levelo://app?vid=6a127880-0742-494d-a56a-094c67bb7bad"},"vehicle_type_id":"4","last_reported":1750432266,"current_range_meters":17200,"station_id":"ce4bhg12rcd13ifvqf70","pricing_plan_id":"cebpf4jnsgd1na2vs0mg"},{"bike_id":"187d1ab2-04db-4ec1-b0bd-fdfc7a50c25d","system_id":"levelo_inurba_marseille","lat":43.25115,"lon":5.40324,"is_reserved":false,"is_disabled":false,"rental_uris":{"android":"levelo://app?vid=187d1ab2-04db-4ec1-b0bd-fdfc7a50c25d","ios":"levelo://app?vid=187d1ab2-04db-4ec1-b0bd-fdfc7a50c25d"},"vehicle_type_id":"4","last_reported":1750432266,"current_range_meters":17200,"station_id":"ce4bhlh2rcd13ifvqgig","pricing_plan_id":"cebpf4jnsgd1na2vs0mg"},{"bike_id":"904d9165-8a4c-4d2c-8705-df7457f3b83b","system_id":"levelo_inurba_marseille","lat":43.29895,"lon":5.43662,"is_reserved":false,"is_disabled":false,"rental_uris":{"android":"levelo://app?vid=904d9165-8a4c-4d2c-8705-df7457f3b83b","ios":"levelo://app?vid=904d9165-8a4c-4d2c-8705-df7457f3b83b"},"vehicle_type_id":"4","last_reported":1750432266,"current_range_meters":17200,"station_id":"ce4bhpp2rcd13ifvqhfg","pricing_plan_id":"cebpf4jnsgd1na2vs0mg"},{"bike_id":"a9f7e5b6-c3b9-477a-9dd1-4ff223f734c0","system_id":"levelo_inurba_marseille","lat":43.29885,"lon":5.43649,"is_reserved":false,"is_disabled":false,"rental_uris":{"android":"levelo://app?vid=a9f7e5b6-c3b9-477a-9dd1-4ff223f734c0","ios":"levelo://app?vid=a9f7e5b6-c3b9-477a-9dd1-4ff223f734c0"},"vehicle_type_id":"4","last_reported":1750432266,"current_range_meters":17200,"station_id":"ce4bhpp2rcd13ifvqhfg","pricing_plan_id":"cebpf4jnsgd1na2vs0mg"},{"bike_id":"90c109b5-5cee-495e-8f11-f318c0f086b6","system_id":"levelo_inurba_marseille","lat":43.32486,"lon":5.43494,"is_reserved":false,"is_disabled":false,"rental_uris":{"android":"levelo://app?vid=90c109b5-5cee-495e-8f11-f318c0f086b6","ios":"levelo://app?vid=90c109b5-5cee-495e-8f11-f318c0f086b6"},"vehicle_type_id":"4","last_reported":1750432266,"current_range_meters":17600,"station_id":"","pricing_plan_id":"cebpf4jnsgd1na2vs0mg"},{"bike_id":"7e2e4b82-c3da-4ad0-ae28-87b63853112c","system_id":"levelo_inurba_marseille","lat":43.26225,"lon":5.3743,"is_reserved":false,"is_disabled":false,"rental_uris":{"android":"levelo://app?vid=7e2e4b82-c3da-4ad0-ae28-87b63853112c","ios":"levelo://app?vid=7e2e4b82-c3da-4ad0-ae28-87b63853112c"},"vehicle_type_id":"4","last_reported":1750432266,"current_range_meters":17600,"station_id":"","pricing_plan_id":"cebpf4jnsgd1na2vs0mg"},{"bike_id":"ef19b1e7-dc28-4ad4-b94b-1c1b715c8506","system_id":"levelo_inurba_marseille","lat":43.29577,"lon":5.37507,"is_reserved":false,"is_disabled":false,"rental_uris":{"android":"levelo://app?vid=ef19b1e7-dc28-4ad4-b94b-1c1b715c8506","ios":"levelo://app?vid=ef19b1e7-dc28-4ad4-b94b-1c1b715c8506"},"vehicle_type_id":"4","last_reported":1750432266,"current_range_meters":17600,"station_id":"ce4bgh92rcd13ifvqb50","pricing_plan_id":"cebpf4jnsgd1na2vs0mg"},{"bike_id":"a27dfe13-84f1-4a5a-95b6-055954b50ba0","system_id":"levelo_inurba_marseille","lat":43.27368,"lon":5.36255,"is_reserved":false,"is_disabled":false,"rental_uris":{"android":"levelo://app?vid=a27dfe13-84f1-4a5a-95b6-055954b50ba0","ios":"levelo://app?vid=a27dfe13-84f1-4a5a-95b6-055954b50ba0"},"vehicle_type_id":"4","last_reported":1750432266,"current_range_meters":17600,"station_id":"ce4bhbh2rcd13ifvqeo0","pricing_plan_id":"cebpf4jnsgd1na2vs0mg"},{"bike_id":"7292142d-a01f-49a7-8bbe-828e8933a3de","system_id":"levelo_inurba_marseille","lat":43.26531,"lon":5.37305,"is_reserved":false,"is_disabled":false,"rental_uris":{"android":"levelo://app?vid=7292142d-a01f-49a7-8bbe-828e8933a3de","ios":"levelo://app?vid=7292142d-a01f-49a7-8bbe-828e8933a3de"},"vehicle_type_id":"4","last_reported":1750432266,"current_range_meters":17600,"station_id":"ce4bhg12rcd13ifvqf70","pricing_plan_id":"cebpf4jnsgd1na2vs0mg"},{"bike_id":"204afd8f-d13a-468d-a59c-e2db9671fff1","system_id":"levelo_inurba_marseille","lat":43.244073,"lon":5.371063,"is_reserved":false,"is_disabled":false,"rental_uris":{"android":"levelo://app?vid=204afd8f-d13a-468d-a59c-e2db9671fff1","ios":"levelo://app?vid=204afd8f-d13a-468d-a59c-e2db9671fff1"},"vehicle_type_id":"4","last_reported":1750432266,"current_range_meters":17600,"station_id":"ce4bhhh2rcd13ifvqfk0","pricing_plan_id":"cebpf4jnsgd1na2vs0mg"},{"bike_id":"3dc1a2f8-8b98-4a65-980d-b42a647d0080","system_id":"levelo_inurba_marseille","lat":43.23958,"lon":5.36633,"is_reserved":false,"is_disabled":false,"rental_uris":{"android":"levelo://app?vid=3dc1a2f8-8b98-4a65-980d-b42a647d0080","ios":"levelo://app?vid=3dc1a2f8-8b98-4a65-980d-b42a647d0080"},"vehicle_type_id":"4","last_reported":1750432266,"current_range_meters":17600,"station_id":"ce4bhi12rcd13ifvqfp0","pricing_plan_id":"cebpf4jnsgd1na2vs0mg"},{"bike_id":"ffbb0c22-3f4e-4cdb-a0e5-79e3b9f3e1a2","system_id":"levelo_inurba_marseille","lat":43.33749,"lon":5.37431,"is_reserved":false,"is_disabled":false,"rental_uris":{"android":"levelo://app?vid=ffbb0c22-3f4e-4cdb-a0e5-79e3b9f3e1a2","ios":"levelo://app?vid=ffbb0c22-3f4e-4cdb-a0e5-79e3b9f3e1a2"},"vehicle_type_id":"4","last_reported":1750432266,"current_range_meters":18000,"station_id":"","pricing_plan_id":"cebpf4jnsgd1na2vs0mg"},{"bike_id":"87ceae08-f792-451d-a20f-2517e44e7d9d","system_id":"levelo_inurba_marseille","lat":43.29711,"lon":5.36619,"is_reserved":false,"is_disabled":false,"rental_uris":{"android":"levelo://app?vid=87ceae08-f792-451d-a20f-2517e44e7d9d","ios":"levelo://app?vid=87ceae08-f792-451d-a20f-2517e44e7d9d"},"vehicle_type_id":"4","last_reported":1750432266,"current_range_meters":18000,"station_id":"ce4bgn12rcd13ifvqbt0","pricing_plan_id":"cebpf4jnsgd1na2vs0mg"},{"bike_id":"e70ea642-9351-4c31-8d1e-4a70964430b4","system_id":"levelo_inurba_marseille","lat":43.28452,"lon":5.35895,"is_reserved":false,"is_disabled":false,"rental_uris":{"android":"levelo://app?vid=e70ea642-9351-4c31-8d1e-4a70964430b4","ios":"levelo://app?vid=e70ea642-9351-4c31-8d1e-4a70964430b4"},"vehicle_type_id":"4","last_reported":1750432266,"current_range_meters":18000,"station_id":"ce4bhah2rcd13ifvqei0","pricing_plan_id":"cebpf4jnsgd1na2vs0mg"},{"bike_id":"d75e34cb-0fda-4e1d-89b9-88740bb1de44","system_id":"levelo_inurba_marseille","lat":43.28937,"lon":5.36639,"is_reserved":false,"is_disabled":false,"rental_uris":{"android":"levelo://app?vid=d75e34cb-0fda-4e1d-89b9-88740bb1de44","ios":"levelo://app?vid=d75e34cb-0fda-4e1d-89b9-88740bb1de44"},"vehicle_type_id":"4","last_reported":1750432266,"current_range_meters":18000,"station_id":"ce4bhap2rcd13ifvqek0","pricing_plan_id":"cebpf4jnsgd1na2vs0mg"},{"bike_id":"b9172f31-534e-4fc3-8a03-ac375b34d181","system_id":"levelo_inurba_marseille","lat":43.27366,"lon":5.36245,"is_reserved":false,"is_disabled":false,"rental_uris":{"android":"levelo://app?vid=b9172f31-534e-4fc3-8a03-ac375b34d181","ios":"levelo://app?vid=b9172f31-534e-4fc3-8a03-ac375b34d181"},"vehicle_type_id":"4","last_reported":1750432266,"current_range_meters":18000,"station_id":"ce4bhbh2rcd13ifvqeo0","pricing_plan_id":"cebpf4jnsgd1na2vs0mg"},{"bike_id":"308f52b2-f293-4d16-91e5-ed21034c7800","system_id":"levelo_inurba_marseille","lat":43.28257,"lon":5.35064,"is_reserved":false,"is_disabled":false,"rental_uris":{"android":"levelo://app?vid=308f52b2-f293-4d16-91e5-ed21034c7800","ios":"levelo://app?vid=308f52b2-f293-4d16-91e5-ed21034c7800"},"vehicle_type_id":"4","last_reported":1750432266,"current_range_meters":18000,"station_id":"ce4bhbp2rcd13ifvqerg","pricing_plan_id":"cebpf4jnsgd1na2vs0mg"},{"bike_id":"a9fe177d-6cf7-41a6-b924-383cb8edf7ce","system_id":"levelo_inurba_marseille","lat":43.28605,"lon":5.35113,"is_reserved":false,"is_disabled":false,"rental_uris":{"android":"levelo://app?vid=a9fe177d-6cf7-41a6-b924-383cb8edf7ce","ios":"levelo://app?vid=a9fe177d-6cf7-41a6-b924-383cb8edf7ce"},"vehicle_type_id":"4","last_reported":1750432266,"current_range_meters":18000,"station_id":"ce4bhch2rcd13ifvqeug","pricing_plan_id":"cebpf4jnsgd1na2vs0mg"},{"bike_id":"01c0ac0f-b40f-4f7c-a9fe-4fc3ed3169fe","system_id":"levelo_inurba_marseille","lat":43.25986,"lon":5.37532,"is_reserved":false,"is_disabled":false,"rental_uris":{"android":"levelo://app?vid=01c0ac0f-b40f-4f7c-a9fe-4fc3ed3169fe","ios":"levelo://app?vid=01c0ac0f-b40f-4f7c-a9fe-4fc3ed3169fe"},"vehicle_type_id":"4","last_reported":1750432266,"current_range_meters":18000,"station_id":"ce4bhgh2rcd13ifvqfa0","pricing_plan_id":"cebpf4jnsgd1na2vs0mg"},{"bike_id":"cbaba8c4-3cbb-468a-bc02-bf3135bac168","system_id":"levelo_inurba_marseille","lat":43.296377,"lon":5.405926,"is_reserved":false,"is_disabled":false,"rental_uris":{"android":"levelo://app?vid=cbaba8c4-3cbb-468a-bc02-bf3135bac168","ios":"levelo://app?vid=cbaba8c4-3cbb-468a-bc02-bf3135bac168"},"vehicle_type_id":"4","last_reported":1750432266,"current_range_meters":18800,"station_id":"ce4bh0h2rcd13ifvqd60","pricing_plan_id":"cebpf4jnsgd1na2vs0mg"},{"bike_id":"4f566e17-ff24-4089-9aa8-a8bb8822a902","system_id":"levelo_inurba_marseille","lat":43.28255,"lon":5.35081,"is_reserved":false,"is_disabled":false,"rental_uris":{"android":"levelo://app?vid=4f566e17-ff24-4089-9aa8-a8bb8822a902","ios":"levelo://app?vid=4f566e17-ff24-4089-9aa8-a8bb8822a902"},"vehicle_type_id":"4","last_reported":1750432266,"current_range_meters":18800,"station_id":"ce4bhbp2rcd13ifvqerg","pricing_plan_id":"cebpf4jnsgd1na2vs0mg"},{"bike_id":"aab76baf-45ba-47f7-9e3b-8391c4c55573","system_id":"levelo_inurba_marseille","lat":43.28253,"lon":5.35091,"is_reserved":false,"is_disabled":false,"rental_uris":{"android":"levelo://app?vid=aab76baf-45ba-47f7-9e3b-8391c4c55573","ios":"levelo://app?vid=aab76baf-45ba-47f7-9e3b-8391c4c55573"},"vehicle_type_id":"4","last_reported":1750432266,"current_range_meters":18800,"station_id":"ce4bhbp2rcd13ifvqerg","pricing_plan_id":"cebpf4jnsgd1na2vs0mg"},{"bike_id":"099464db-2548-4c79-8abc-50594d49ee1f","system_id":"levelo_inurba_marseille","lat":43.25496,"lon":5.37649,"is_reserved":false,"is_disabled":false,"rental_uris":{"android":"levelo://app?vid=099464db-2548-4c79-8abc-50594d49ee1f","ios":"levelo://app?vid=099464db-2548-4c79-8abc-50594d49ee1f"},"vehicle_type_id":"4","last_reported":1750432266,"current_range_meters":18800,"station_id":"ce4bhh12rcd13ifvqff0","pricing_plan_id":"cebpf4jnsgd1na2vs0mg"},{"bike_id":"603b9c30-978c-447f-af87-540fcdc5c995","system_id":"levelo_inurba_marseille","lat":43.27176,"lon":5.41001,"is_reserved":false,"is_disabled":false,"rental_uris":{"android":"levelo://app?vid=603b9c30-978c-447f-af87-540fcdc5c995","ios":"levelo://app?vid=603b9c30-978c-447f-af87-540fcdc5c995"},"vehicle_type_id":"4","last_reported":1750432266,"current_range_meters":18800,"station_id":"ce4bhl12rcd13ifvqgf0","pricing_plan_id":"cebpf4jnsgd1na2vs0mg"},{"bike_id":"48dadc55-b48f-4570-84f5-3a83153d1f16","system_id":"levelo_inurba_marseille","lat":43.21748,"lon":5.34604,"is_reserved":false,"is_disabled":false,"rental_uris":{"android":"levelo://app?vid=48dadc55-b48f-4570-84f5-3a83153d1f16","ios":"levelo://app?vid=48dadc55-b48f-4570-84f5-3a83153d1f16"},"vehicle_type_id":"4","last_reported":1750432266,"current_range_meters":18800,"station_id":"st_cvj6r9ubvosntc0bgbag","pricing_plan_id":"cebpf4jnsgd1na2vs0mg"},{"bike_id":"73a224ff-f6a3-4c18-9279-d392a3f86d72","system_id":"levelo_inurba_marseille","lat":43.21749,"lon":5.34601,"is_reserved":false,"is_disabled":false,"rental_uris":{"android":"levelo://app?vid=73a224ff-f6a3-4c18-9279-d392a3f86d72","ios":"levelo://app?vid=73a224ff-f6a3-4c18-9279-d392a3f86d72"},"vehicle_type_id":"4","last_reported":1750432266,"current_range_meters":18800,"station_id":"st_cvj6r9ubvosntc0bgbag","pricing_plan_id":"cebpf4jnsgd1na2vs0mg"},{"bike_id":"5187990f-0e38-4183-960c-3c6c679fb2e8","system_id":"levelo_inurba_marseille","lat":43.21232,"lon":5.34985,"is_reserved":false,"is_disabled":false,"rental_uris":{"android":"levelo://app?vid=5187990f-0e38-4183-960c-3c6c679fb2e8","ios":"levelo://app?vid=5187990f-0e38-4183-960c-3c6c679fb2e8"},"vehicle_type_id":"4","last_reported":1750432266,"current_range_meters":19200,"station_id":"","pricing_plan_id":"cebpf4jnsgd1na2vs0mg"},{"bike_id":"2d50ff45-3046-40df-b784-ee274c648ea0","system_id":"levelo_inurba_marseille","lat":43.3203,"lon":5.40817,"is_reserved":false,"is_disabled":false,"rental_uris":{"android":"levelo://app?vid=2d50ff45-3046-40df-b784-ee274c648ea0","ios":"levelo://app?vid=2d50ff45-3046-40df-b784-ee274c648ea0"},"vehicle_type_id":"4","last_reported":1750432266,"current_range_meters":19200,"station_id":"","pricing_plan_id":"cebpf4jnsgd1na2vs0mg"},{"bike_id":"c7b5c95f-8bbc-4862-afd3-052c6de8a4e2","system_id":"levelo_inurba_marseille","lat":43.289316,"lon":5.366398,"is_reserved":false,"is_disabled":false,"rental_uris":{"android":"levelo://app?vid=c7b5c95f-8bbc-4862-afd3-052c6de8a4e2","ios":"levelo://app?vid=c7b5c95f-8bbc-4862-afd3-052c6de8a4e2"},"vehicle_type_id":"4","last_reported":1750432266,"current_range_meters":19200,"station_id":"ce4bhap2rcd13ifvqek0","pricing_plan_id":"cebpf4jnsgd1na2vs0mg"},{"bike_id":"0afbc54a-b78b-4fdf-ae3b-483145b19fed","system_id":"levelo_inurba_marseille","lat":43.28255,"lon":5.35066,"is_reserved":false,"is_disabled":false,"rental_uris":{"android":"levelo://app?vid=0afbc54a-b78b-4fdf-ae3b-483145b19fed","ios":"levelo://app?vid=0afbc54a-b78b-4fdf-ae3b-483145b19fed"},"vehicle_type_id":"4","last_reported":1750432266,"current_range_meters":19200,"station_id":"ce4bhbp2rcd13ifvqerg","pricing_plan_id":"cebpf4jnsgd1na2vs0mg"},{"bike_id":"7700054f-5fb6-47be-addb-a4f51713ae44","system_id":"levelo_inurba_marseille","lat":43.28268,"lon":5.35082,"is_reserved":false,"is_disabled":false,"rental_uris":{"android":"levelo://app?vid=7700054f-5fb6-47be-addb-a4f51713ae44","ios":"levelo://app?vid=7700054f-5fb6-47be-addb-a4f51713ae44"},"vehicle_type_id":"4","last_reported":1750432266,"current_range_meters":19200,"station_id":"ce4bhbp2rcd13ifvqerg","pricing_plan_id":"cebpf4jnsgd1na2vs0mg"},{"bike_id":"4e8227fb-d5e3-48cc-8bba-59d95839e336","system_id":"levelo_inurba_marseille","lat":43.23191,"lon":5.35556,"is_reserved":false,"is_disabled":false,"rental_uris":{"android":"levelo://app?vid=4e8227fb-d5e3-48cc-8bba-59d95839e336","ios":"levelo://app?vid=4e8227fb-d5e3-48cc-8bba-59d95839e336"},"vehicle_type_id":"4","last_reported":1750432266,"current_range_meters":19200,"station_id":"ce4bhu92rcd13ifvqi70","pricing_plan_id":"cebpf4jnsgd1na2vs0mg"},{"bike_id":"65490dbb-fb26-48b3-b1b6-17abf527e385","system_id":"levelo_inurba_marseille","lat":43.24172,"lon":5.36418,"is_reserved":false,"is_disabled":false,"rental_uris":{"android":"levelo://app?vid=65490dbb-fb26-48b3-b1b6-17abf527e385","ios":"levelo://app?vid=65490dbb-fb26-48b3-b1b6-17abf527e385"},"vehicle_type_id":"4","last_reported":1750432266,"current_range_meters":19200,"station_id":"cpo36qri1sfpv3e86is0","pricing_plan_id":"cebpf4jnsgd1na2vs0mg"},{"bike_id":"f40b14e2-3a68-45fd-9433-444c784b4081","system_id":"levelo_inurba_marseille","lat":43.2177,"lon":5.34611,"is_reserved":false,"is_disabled":false,"rental_uris":{"android":"levelo://app?vid=f40b14e2-3a68-45fd-9433-444c784b4081","ios":"levelo://app?vid=f40b14e2-3a68-45fd-9433-444c784b4081"},"vehicle_type_id":"4","last_reported":1750432266,"current_range_meters":19200,"station_id":"st_cvj6r9ubvosntc0bgbag","pricing_plan_id":"cebpf4jnsgd1na2vs0mg"},{"bike_id":"64198631-29f4-47e4-896a-e3675e77b2a1","system_id":"levelo_inurba_marseille","lat":43.21203,"lon":5.35064,"is_reserved":false,"is_disabled":false,"rental_uris":{"android":"levelo://app?vid=64198631-29f4-47e4-896a-e3675e77b2a1","ios":"levelo://app?vid=64198631-29f4-47e4-896a-e3675e77b2a1"},"vehicle_type_id":"4","last_reported":1750432266,"current_range_meters":19200,"station_id":"st_cvj6sg6p6f1abm77japg","pricing_plan_id":"cebpf4jnsgd1na2vs0mg"},{"bike_id":"e67093e8-e02e-4231-9cbf-5f261dc9c272","system_id":"levelo_inurba_marseille","lat":43.273736,"lon":5.362649,"is_reserved":false,"is_disabled":false,"rental_uris":{"android":"levelo://app?vid=e67093e8-e02e-4231-9cbf-5f261dc9c272","ios":"levelo://app?vid=e67093e8-e02e-4231-9cbf-5f261dc9c272"},"vehicle_type_id":"4","last_reported":1750432266,"current_range_meters":19600,"station_id":"ce4bhbh2rcd13ifvqeo0","pricing_plan_id":"cebpf4jnsgd1na2vs0mg"},{"bike_id":"07f4d6c5-a6f4-4683-9055-f3dec9e3f0a6","system_id":"levelo_inurba_marseille","lat":43.28415,"lon":5.34986,"is_reserved":false,"is_disabled":false,"rental_uris":{"android":"levelo://app?vid=07f4d6c5-a6f4-4683-9055-f3dec9e3f0a6","ios":"levelo://app?vid=07f4d6c5-a6f4-4683-9055-f3dec9e3f0a6"},"vehicle_type_id":"4","last_reported":1750432266,"current_range_meters":19600,"station_id":"ce4bhbh2rcd13ifvqepg","pricing_plan_id":"cebpf4jnsgd1na2vs0mg"},{"bike_id":"e631847c-453c-4b61-8697-eacfe67a8a5f","system_id":"levelo_inurba_marseille","lat":43.28399,"lon":5.34986,"is_reserved":false,"is_disabled":false,"rental_uris":{"android":"levelo://app?vid=e631847c-453c-4b61-8697-eacfe67a8a5f","ios":"levelo://app?vid=e631847c-453c-4b61-8697-eacfe67a8a5f"},"vehicle_type_id":"4","last_reported":1750432266,"current_range_meters":19600,"station_id":"ce4bhbh2rcd13ifvqepg","pricing_plan_id":"cebpf4jnsgd1na2vs0mg"},{"bike_id":"367922b5-42cb-42f4-aad2-93d24b9cba6f","system_id":"levelo_inurba_marseille","lat":43.28387,"lon":5.35,"is_reserved":false,"is_disabled":false,"rental_uris":{"android":"levelo://app?vid=367922b5-42cb-42f4-aad2-93d24b9cba6f","ios":"levelo://app?vid=367922b5-42cb-42f4-aad2-93d24b9cba6f"},"vehicle_type_id":"4","last_reported":1750432266,"current_range_meters":19600,"station_id":"ce4bhbh2rcd13ifvqepg","pricing_plan_id":"cebpf4jnsgd1na2vs0mg"},{"bike_id":"786b7415-52dd-4bd8-84d1-f0783eb940c5","system_id":"levelo_inurba_marseille","lat":43.28251,"lon":5.35072,"is_reserved":false,"is_disabled":false,"rental_uris":{"android":"levelo://app?vid=786b7415-52dd-4bd8-84d1-f0783eb940c5","ios":"levelo://app?vid=786b7415-52dd-4bd8-84d1-f0783eb940c5"},"vehicle_type_id":"4","last_reported":1750432266,"current_range_meters":19600,"station_id":"ce4bhbp2rcd13ifvqerg","pricing_plan_id":"cebpf4jnsgd1na2vs0mg"},{"bike_id":"0e194cea-8d4b-41ab-8239-e46158d650f7","system_id":"levelo_inurba_marseille","lat":43.28257,"lon":5.3508,"is_reserved":false,"is_disabled":false,"rental_uris":{"android":"levelo://app?vid=0e194cea-8d4b-41ab-8239-e46158d650f7","ios":"levelo://app?vid=0e194cea-8d4b-41ab-8239-e46158d650f7"},"vehicle_type_id":"4","last_reported":1750432266,"current_range_meters":19600,"station_id":"ce4bhbp2rcd13ifvqerg","pricing_plan_id":"cebpf4jnsgd1na2vs0mg"},{"bike_id":"cfa4159e-0fa0-41f1-9891-ea6eb7f8098f","system_id":"levelo_inurba_marseille","lat":43.32106,"lon":5.36791,"is_reserved":false,"is_disabled":false,"rental_uris":{"android":"levelo://app?vid=cfa4159e-0fa0-41f1-9891-ea6eb7f8098f","ios":"levelo://app?vid=cfa4159e-0fa0-41f1-9891-ea6eb7f8098f"},"vehicle_type_id":"4","last_reported":1750432266,"current_range_meters":19600,"station_id":"ce4bhrh2rcd13ifvqhug","pricing_plan_id":"cebpf4jnsgd1na2vs0mg"},{"bike_id":"4580f6a6-88d8-4aa8-a1b0-20d150e4c111","system_id":"levelo_inurba_marseille","lat":43.22936,"lon":5.35376,"is_reserved":false,"is_disabled":false,"rental_uris":{"android":"levelo://app?vid=4580f6a6-88d8-4aa8-a1b0-20d150e4c111","ios":"levelo://app?vid=4580f6a6-88d8-4aa8-a1b0-20d150e4c111"},"vehicle_type_id":"4","last_reported":1750432266,"current_range_meters":19600,"station_id":"cpo3532slgdg3j2ikp40","pricing_plan_id":"cebpf4jnsgd1na2vs0mg"},{"bike_id":"90c5a1b6-730c-413e-bcee-b223ffbd4504","system_id":"levelo_inurba_marseille","lat":43.24158,"lon":5.36405,"is_reserved":false,"is_disabled":false,"rental_uris":{"android":"levelo://app?vid=90c5a1b6-730c-413e-bcee-b223ffbd4504","ios":"levelo://app?vid=90c5a1b6-730c-413e-bcee-b223ffbd4504"},"vehicle_type_id":"4","last_reported":1750432266,"current_range_meters":19600,"station_id":"cpo36qri1sfpv3e86is0","pricing_plan_id":"cebpf4jnsgd1na2vs0mg"},{"bike_id":"bfa08dd8-2b23-48b8-8134-0a2333457db7","system_id":"levelo_inurba_marseille","lat":43.21748,"lon":5.34602,"is_reserved":false,"is_disabled":false,"rental_uris":{"android":"levelo://app?vid=bfa08dd8-2b23-48b8-8134-0a2333457db7","ios":"levelo://app?vid=bfa08dd8-2b23-48b8-8134-0a2333457db7"},"vehicle_type_id":"4","last_reported":1750432266,"current_range_meters":19600,"station_id":"st_cvj6r9ubvosntc0bgbag","pricing_plan_id":"cebpf4jnsgd1na2vs0mg"},{"bike_id":"8059a22c-5067-4fa5-86f7-7ccef752acc3","system_id":"levelo_inurba_marseille","lat":43.24442,"lon":5.36987,"is_reserved":false,"is_disabled":false,"rental_uris":{"android":"levelo://app?vid=8059a22c-5067-4fa5-86f7-7ccef752acc3","ios":"levelo://app?vid=8059a22c-5067-4fa5-86f7-7ccef752acc3"},"vehicle_type_id":"4","last_reported":1750432266,"current_range_meters":20000,"station_id":"","pricing_plan_id":"cebpf4jnsgd1na2vs0mg"},{"bike_id":"973db25f-144a-495b-98c4-15b4ae2dacd8","system_id":"levelo_inurba_marseille","lat":43.31335,"lon":5.37492,"is_reserved":false,"is_disabled":false,"rental_uris":{"android":"levelo://app?vid=973db25f-144a-495b-98c4-15b4ae2dacd8","ios":"levelo://app?vid=973db25f-144a-495b-98c4-15b4ae2dacd8"},"vehicle_type_id":"4","last_reported":1750432266,"current_range_meters":20000,"station_id":"","pricing_plan_id":"cebpf4jnsgd1na2vs0mg"},{"bike_id":"a03a949d-876f-42db-9564-0aeae678fff4","system_id":"levelo_inurba_marseille","lat":43.294822,"lon":5.444467,"is_reserved":false,"is_disabled":false,"rental_uris":{"android":"levelo://app?vid=a03a949d-876f-42db-9564-0aeae678fff4","ios":"levelo://app?vid=a03a949d-876f-42db-9564-0aeae678fff4"},"vehicle_type_id":"4","last_reported":1750432266,"current_range_meters":20000,"station_id":"","pricing_plan_id":"cebpf4jnsgd1na2vs0mg"},{"bike_id":"50aa9a5b-13e3-444f-b4f9-d96fc8f430a3","system_id":"levelo_inurba_marseille","lat":43.31108,"lon":5.37777,"is_reserved":false,"is_disabled":false,"rental_uris":{"android":"levelo://app?vid=50aa9a5b-13e3-444f-b4f9-d96fc8f430a3","ios":"levelo://app?vid=50aa9a5b-13e3-444f-b4f9-d96fc8f430a3"},"vehicle_type_id":"4","last_reported":1750432266,"current_range_meters":20000,"station_id":"ce4bgt92rcd13ifvqcg0","pricing_plan_id":"cebpf4jnsgd1na2vs0mg"},{"bike_id":"88037b77-4c7e-46b7-bb3f-0edaa443e520","system_id":"levelo_inurba_marseille","lat":43.29198,"lon":5.39329,"is_reserved":false,"is_disabled":false,"rental_uris":{"android":"levelo://app?vid=88037b77-4c7e-46b7-bb3f-0edaa443e520","ios":"levelo://app?vid=88037b77-4c7e-46b7-bb3f-0edaa443e520"},"vehicle_type_id":"4","last_reported":1750432266,"current_range_meters":20000,"station_id":"ce4bh192rcd13ifvqdd0","pricing_plan_id":"cebpf4jnsgd1na2vs0mg"},{"bike_id":"1c08c3bb-4810-4c21-830c-a011611f38ab","system_id":"levelo_inurba_marseille","lat":43.29525,"lon":5.39399,"is_reserved":false,"is_disabled":false,"rental_uris":{"android":"levelo://app?vid=1c08c3bb-4810-4c21-830c-a011611f38ab","ios":"levelo://app?vid=1c08c3bb-4810-4c21-830c-a011611f38ab"},"vehicle_type_id":"4","last_reported":1750432266,"current_range_meters":20000,"station_id":"ce4bh292rcd13ifvqdf0","pricing_plan_id":"cebpf4jnsgd1na2vs0mg"},{"bike_id":"c47c2ea7-3ccc-46b7-b518-7d76a97808fe","system_id":"levelo_inurba_marseille","lat":43.27374,"lon":5.36254,"is_reserved":false,"is_disabled":false,"rental_uris":{"android":"levelo://app?vid=c47c2ea7-3ccc-46b7-b518-7d76a97808fe","ios":"levelo://app?vid=c47c2ea7-3ccc-46b7-b518-7d76a97808fe"},"vehicle_type_id":"4","last_reported":1750432266,"current_range_meters":20000,"station_id":"ce4bhbh2rcd13ifvqeo0","pricing_plan_id":"cebpf4jnsgd1na2vs0mg"},{"bike_id":"b7a04b9f-b579-448f-8183-22169ab1145d","system_id":"levelo_inurba_marseille","lat":43.27367,"lon":5.36243,"is_reserved":false,"is_disabled":false,"rental_uris":{"android":"levelo://app?vid=b7a04b9f-b579-448f-8183-22169ab1145d","ios":"levelo://app?vid=b7a04b9f-b579-448f-8183-22169ab1145d"},"vehicle_type_id":"4","last_reported":1750432266,"current_range_meters":20000,"station_id":"ce4bhbh2rcd13ifvqeo0","pricing_plan_id":"cebpf4jnsgd1na2vs0mg"},{"bike_id":"b32c0344-9dc5-4e1d-beac-e06156a8c37a","system_id":"levelo_inurba_marseille","lat":43.2826,"lon":5.35062,"is_reserved":false,"is_disabled":false,"rental_uris":{"android":"levelo://app?vid=b32c0344-9dc5-4e1d-beac-e06156a8c37a","ios":"levelo://app?vid=b32c0344-9dc5-4e1d-beac-e06156a8c37a"},"vehicle_type_id":"4","last_reported":1750432266,"current_range_meters":20000,"station_id":"ce4bhbp2rcd13ifvqerg","pricing_plan_id":"cebpf4jnsgd1na2vs0mg"},{"bike_id":"a124c9c4-2f19-4fc2-8c73-c00ac97ba647","system_id":"levelo_inurba_marseille","lat":43.28615,"lon":5.35102,"is_reserved":false,"is_disabled":false,"rental_uris":{"android":"levelo://app?vid=a124c9c4-2f19-4fc2-8c73-c00ac97ba647","ios":"levelo://app?vid=a124c9c4-2f19-4fc2-8c73-c00ac97ba647"},"vehicle_type_id":"4","last_reported":1750432266,"current_range_meters":20000,"station_id":"ce4bhch2rcd13ifvqeug","pricing_plan_id":"cebpf4jnsgd1na2vs0mg"},{"bike_id":"4fc7becc-1ddc-4f54-9eaa-58f85b796556","system_id":"levelo_inurba_marseille","lat":43.27946,"lon":5.41051,"is_reserved":false,"is_disabled":false,"rental_uris":{"android":"levelo://app?vid=4fc7becc-1ddc-4f54-9eaa-58f85b796556","ios":"levelo://app?vid=4fc7becc-1ddc-4f54-9eaa-58f85b796556"},"vehicle_type_id":"4","last_reported":1750432266,"current_range_meters":20000,"station_id":"ce4bhnp2rcd13ifvqh0g","pricing_plan_id":"cebpf4jnsgd1na2vs0mg"},{"bike_id":"b38f07b8-f269-4615-b5ef-fa0395d3e37a","system_id":"levelo_inurba_marseille","lat":43.32362,"lon":5.36752,"is_reserved":false,"is_disabled":false,"rental_uris":{"android":"levelo://app?vid=b38f07b8-f269-4615-b5ef-fa0395d3e37a","ios":"levelo://app?vid=b38f07b8-f269-4615-b5ef-fa0395d3e37a"},"vehicle_type_id":"4","last_reported":1750432266,"current_range_meters":20000,"station_id":"ce4bhsh2rcd13ifvqi2g","pricing_plan_id":"cebpf4jnsgd1na2vs0mg"},{"bike_id":"70cfbab6-2076-4b54-89e8-d0f7586af8d0","system_id":"levelo_inurba_marseille","lat":43.28717,"lon":5.36071,"is_reserved":false,"is_disabled":false,"rental_uris":{"android":"levelo://app?vid=70cfbab6-2076-4b54-89e8-d0f7586af8d0","ios":"levelo://app?vid=70cfbab6-2076-4b54-89e8-d0f7586af8d0"},"vehicle_type_id":"4","last_reported":1750432266,"current_range_meters":20000,"station_id":"cki0cbj6b192h4jlfktg","pricing_plan_id":"cebpf4jnsgd1na2vs0mg"},{"bike_id":"a9262345-195f-48e6-98ef-2cfccbcf3aaf","system_id":"levelo_inurba_marseille","lat":43.217567,"lon":5.34596,"is_reserved":false,"is_disabled":false,"rental_uris":{"android":"levelo://app?vid=a9262345-195f-48e6-98ef-2cfccbcf3aaf","ios":"levelo://app?vid=a9262345-195f-48e6-98ef-2cfccbcf3aaf"},"vehicle_type_id":"4","last_reported":1750432266,"current_range_meters":20000,"station_id":"st_cvj6r9ubvosntc0bgbag","pricing_plan_id":"cebpf4jnsgd1na2vs0mg"},{"bike_id":"f20d9be8-f65a-4615-a334-097d875818ce","system_id":"levelo_inurba_marseille","lat":43.28908,"lon":5.37309,"is_reserved":false,"is_disabled":false,"rental_uris":{"android":"levelo://app?vid=f20d9be8-f65a-4615-a334-097d875818ce","ios":"levelo://app?vid=f20d9be8-f65a-4615-a334-097d875818ce"},"vehicle_type_id":"4","last_reported":1750432266,"current_range_meters":20400,"station_id":"","pricing_plan_id":"cebpf4jnsgd1na2vs0mg"},