{"last_updated":1715893681,"ttl":30,"version":"2.2","data":{"bikes":[{"bike_id":"a837690b-08c0-4a0f-b84d-01f0720c59a8","system_id":"levelo_inurba_marseille","lat":43.312239,"lon":5.368562,"is_reserved":false,"is_disabled":false,"rental_uris":{"android":"levelo://app?vid=a837690b-08c0-4a0f-b84d-01f0720c59a8","ios":"levelo://app?vid=a837690b-08c0-4a0f-b84d-01f0720c59a8"},"vehicle_type_id":"4","last_reported":1715893681,"current_range_meters":22800,"station_id":"ce4bgl92rcd13ifvqbq0","pricing_plan_id":"cebpf4jnsgd1na2vs0mg"},{"bike_id":"cd4a494e-6107-49d6-9821-776bcbb4ce24","system_id":"levelo_inurba_marseille","lat":43.312239,"lon":5.368562,"is_reserved":false,"is_disabled":false,"rental_uris":{"android":"levelo://app?vid=cd4a494e-6107-49d6-9821-776bcbb4ce24","ios":"levelo://app?vid=cd4a494e-6107-49d6-9821-776bcbb4ce24"},"vehicle_type_id":"4","last_reported":1715893681,"current_range_meters":28800,"station_id":"ce4bgl92rcd13ifvqbq0","pricing_plan_id":"cebpf4jnsgd1na2vs0mg"},{"bike_id":"25d7ac9e-71f4-49a9-8576-832e47bd0621","system_id":"levelo_inurba_marseille","lat":43.309076,"lon":5.368465,"is_reserved":false,"is_disabled":false,"rental_uris":{"android":"levelo://app?vid=25d7ac9e-71f4-49a9-8576-832e47bd0621","ios":"levelo://app?vid=25d7ac9e-71f4-49a9-8576-832e47bd0621"},"vehicle_type_id":"4","last_reported":1715893681,"current_range_meters":13600,"station_id":"ce4bgn92rcd13ifvqbvg","pricing_plan_id":"cebpf4jnsgd1na2vs0mg"},{"bike_id":"b0b32736-0b0c-41ff-b375-875262ff053e","system_id":"levelo_inurba_marseille","lat":43.309076,"lon":5.368465,"is_reserved":false,"is_disabled":false,"rental_uris":{"android":"levelo://app?vid=b0b32736-0b0c-41ff-b375-875262ff053e","ios":"levelo://app?vid=b0b32736-0b0c-41ff-b375-875262ff053e"},"vehicle_type_id":"4","last_reported":1715893681,"current_range_meters":26800,"station_id":"ce4bgn92rcd13ifvqbvg","pricing_plan_id":"cebpf4jnsgd1na2vs0mg"},{"bike_id":"abff7bdd-bfcb-4be2-8d3d-f065969dd7e8","system_id":"levelo_inurba_marseille","lat":43.309076,"lon":5.368465,"is_reserved":false,"is_disabled":false,"rental_uris":{"android":"levelo://app?vid=abff7bdd-bfcb-4be2-8d3d-f065969dd7e8","ios":"levelo://app?vid=abff7bdd-bfcb-4be2-8d3d-f065969dd7e8"},"vehicle_type_id":"4","last_reported":1715893681,"current_range_meters":26800,"station_id":"ce4bgn92rcd13ifvqbvg","pricing_plan_id":"cebpf4jnsgd1na2vs0mg"},{"bike_id":"ea49d49b-84f3-472a-b507-789428510612","system_id":"levelo_inurba_marseille","lat":43.309076,"lon":5.368465,"is_reserved":false,"is_disabled":false,"rental_uris":{"android":"levelo://app?vid=ea49d49b-84f3-472a-b507-789428510612","ios":"levelo://app?vid=ea49d49b-84f3-472a-b507-789428510612"},"vehicle_type_id":"4","last_reported":1715893681,"current_range_meters":11200,"station_id":"ce4bgn92rcd13ifvqbvg","pricing_plan_id":"cebpf4jnsgd1na2vs0mg"},{"bike_id":"1a994ba2-da46-4284-906c-edad4cabddc4","system_id":"levelo_inurba_marseille","lat":43.314811,"lon":5.373104,"is_reserved":false,"is_disabled":false,"rental_uris":{"android":"levelo://app?vid=1a994ba2-da46-4284-906c-edad4cabddc4","ios":"levelo://app?vid=1a994ba2-da46-4284-906c-edad4cabddc4"},"vehicle_type_id":"4","last_reported":1715893681,"current_range_meters":31200,"station_id":"ce4bgt12rcd13ifvqcd0","pricing_plan_id":"cebpf4jnsgd1na2vs0mg"},{"bike_id":"b307e541-5459-468f-ac83-a46cd5f5b54a","system_id":"levelo_inurba_marseille","lat":43.314811,"lon":5.373103,"is_reserved":false,"is_disabled":false,"rental_uris":{"android":"levelo://app?vid=b307e541-5459-468f-ac83-a46cd5f5b54a","ios":"levelo://app?vid=b307e541-5459-468f-ac83-a46cd5f5b54a"},"vehicle_type_id":"4","last_reported":1715893681,"current_range_meters":0,"station_id":"ce4bgt12rcd13ifvqcd0","pricing_plan_id":"cebpf4jnsgd1na2vs0mg"},{"bike_id":"281941e8-9067-49a5-8dba-1cfcbc80a0d6","system_id":"levelo_inurba_marseille","lat":43.314985,"lon":5.37313,"is_reserved":false,"is_disabled":false,"rental_uris":{"android":"levelo://app?vid=281941e8-9067-49a5-8dba-1cfcbc80a0d6","ios":"levelo://app?vid=281941e8-9067-49a5-8dba-1cfcbc80a0d6"},"vehicle_type_id":"4","last_reported":1715893681,"current_range_meters":0,"station_id":"ce4bgt12rcd13ifvqcd0","pricing_plan_id":"cebpf4jnsgd1na2vs0mg"},{"bike_id":"1a9a5d42-0935-473b-ae56-727e9c40c41e","system_id":"levelo_inurba_marseille","lat":43.309039,"lon":5.371797,"is_reserved":false,"is_disabled":false,"rental_uris":{"android":"levelo://app?vid=1a9a5d42-0935-473b-ae56-727e9c40c41e","ios":"levelo://app?vid=1a9a5d42-0935-473b-ae56-727e9c40c41e"},"vehicle_type_id":"4","last_reported":1715893681,"current_range_meters":22800,"station_id":"ce4bguh2rcd13ifvqckg","pricing_plan_id":"cebpf4jnsgd1na2vs0mg"},{"bike_id":"11a5b67f-79bf-49d0-aa7c-30f90b9aa1ba","system_id":"levelo_inurba_marseille","lat":43.305368,"lon":5.367343,"is_reserved":false,"is_disabled":false,"rental_uris":{"android":"levelo://app?vid=11a5b67f-79bf-49d0-aa7c-30f90b9aa1ba","ios":"levelo://app?vid=11a5b67f-79bf-49d0-aa7c-30f90b9aa1ba"},"vehicle_type_id":"4","last_reported":1715893681,"current_range_meters":20400,"station_id":"ce4bgrp2rcd13ifvqc9g","pricing_plan_id":"cebpf4jnsgd1na2vs0mg"},{"bike_id":"6023d533-7a70-4de9-b5f3-3cf0e8a278e9","system_id":"levelo_inurba_marseille","lat":43.305368,"lon":5.367343,"is_reserved":false,"is_disabled":false,"rental_uris":{"android":"levelo://app?vid=6023d533-7a70-4de9-b5f3-3cf0e8a278e9","ios":"levelo://app?vid=6023d533-7a70-4de9-b5f3-3cf0e8a278e9"},"vehicle_type_id":"4","last_reported":1715893681,"current_range_meters":19200,"station_id":"ce4bgrp2rcd13ifvqc9g","pricing_plan_id":"cebpf4jnsgd1na2vs0mg"},{"bike_id":"72833883-667d-4432-93b8-4488876e9167","system_id":"levelo_inurba_marseille","lat":43.305989,"lon":5.37225,"is_reserved":false,"is_disabled":false,"rental_uris":{"android":"levelo://app?vid=72833883-667d-4432-93b8-4488876e9167","ios":"levelo://app?vid=72833883-667d-4432-93b8-4488876e9167"},"vehicle_type_id":"4","last_reported":1715893681,"current_range_meters":2400,"station_id":"ce4bgqh2rcd13ifvqc4g","pricing_plan_id":"cebpf4jnsgd1na2vs0mg"},{"bike_id":"85024c99-dfcc-4b3c-865b-f841b45f9324","system_id":"levelo_inurba_marseille","lat":43.305989,"lon":5.37225,"is_reserved":false,"is_disabled":false,"rental_uris":{"android":"levelo://app?vid=85024c99-dfcc-4b3c-865b-f841b45f9324","ios":"levelo://app?vid=85024c99-dfcc-4b3c-865b-f841b45f9324"},"vehicle_type_id":"4","last_reported":1715893681,"current_range_meters":12800,"station_id":"ce4bgqh2rcd13ifvqc4g","pricing_plan_id":"cebpf4jnsgd1na2vs0mg"},{"bike_id":"4b412d82-7752-4133-ad7c-96d680212d00","system_id":"levelo_inurba_marseille","lat":43.305989,"lon":5.37225,"is_reserved":false,"is_disabled":false,"rental_uris":{"android":"levelo://app?vid=4b412d82-7752-4133-ad7c-96d680212d00","ios":"levelo://app?vid=4b412d82-7752-4133-ad7c-96d680212d00"},"vehicle_type_id":"4","last_reported":1715893681,"current_range_meters":0,"station_id":"ce4bgqh2rcd13ifvqc4g","pricing_plan_id":"cebpf4jnsgd1na2vs0mg"},{"bike_id":"27e79603-8a34-4afe-a25c-a8de77927293","system_id":"levelo_inurba_marseille","lat":43.305989,"lon":5.37225,"is_reserved":false,"is_disabled":false,"rental_uris":{"android":"levelo://app?vid=27e79603-8a34-4afe-a25c-a8de77927293","ios":"levelo://app?vid=27e79603-8a34-4afe-a25c-a8de77927293"},"vehicle_type_id":"4","last_reported":1715893681,"current_range_meters":8400,"station_id":"ce4bgqh2rcd13ifvqc4g","pricing_plan_id":"cebpf4jnsgd1na2vs0mg"},{"bike_id":"b7af2549-1069-4cf4-bff8-e55576ddc503","system_id":"levelo_inurba_marseille","lat":43.311125,"lon":5.377624,"is_reserved":false,"is_disabled":false,"rental_uris":{"android":"levelo://app?vid=b7af2549-1069-4cf4-bff8-e55576ddc503","ios":"levelo://app?vid=b7af2549-1069-4cf4-bff8-e55576ddc503"},"vehicle_type_id":"4","last_reported":1715893681,"current_range_meters":19600,"station_id":"ce4bgt92rcd13ifvqcg0","pricing_plan_id":"cebpf4jnsgd1na2vs0mg"},{"bike_id":"002ffdf9-7488-4f9d-824a-ad1ad9f09d8b","system_id":"levelo_inurba_marseille","lat":43.31114,"lon":5.37761,"is_reserved":false,"is_disabled":false,"rental_uris":{"android":"levelo://app?vid=002ffdf9-7488-4f9d-824a-ad1ad9f09d8b","ios":"levelo://app?vid=002ffdf9-7488-4f9d-824a-ad1ad9f09d8b"},"vehicle_type_id":"4","last_reported":1715893681,"current_range_meters":0,"station_id":"ce4bgt92rcd13ifvqcg0","pricing_plan_id":"cebpf4jnsgd1na2vs0mg"},{"bike_id":"33226fe4-7434-4f75-9e91-177f0fb9cc73","system_id":"levelo_inurba_marseille","lat":43.311246,"lon":5.377663,"is_reserved":false,"is_disabled":false,"rental_uris":{"android":"levelo://app?vid=33226fe4-7434-4f75-9e91-177f0fb9cc73","ios":"levelo://app?vid=33226fe4-7434-4f75-9e91-177f0fb9cc73"},"vehicle_type_id":"4","last_reported":1715893681,"current_range_meters":0,"station_id":"ce4bgt92rcd13ifvqcg0","pricing_plan_id":"cebpf4jnsgd1na2vs0mg"},{"bike_id":"53388324-c19d-4166-a7e4-fb6fba40fe68","system_id":"levelo_inurba_marseille","lat":43.311125,"lon":5.377624,"is_reserved":false,"is_disabled":false,"rental_uris":{"android":"levelo://app?vid=53388324-c19d-4166-a7e4-fb6fba40fe68","ios":"levelo://app?vid=53388324-c19d-4166-a7e4-fb6fba40fe68"},"vehicle_type_id":"4","last_reported":1715893681,"current_range_meters":7200,"station_id":"ce4bgt92rcd13ifvqcg0","pricing_plan_id":"cebpf4jnsgd1na2vs0mg"},{"bike_id":"04eb7ca7-75a9-4af0-994f-decd4048681a","system_id":"levelo_inurba_marseille","lat":43.311125,"lon":5.377624,"is_reserved":false,"is_disabled":false,"rental_uris":{"android":"levelo://app?vid=04eb7ca7-75a9-4af0-994f-decd4048681a","ios":"levelo://app?vid=04eb7ca7-75a9-4af0-994f-decd4048681a"},"vehicle_type_id":"4","last_reported":1715893681,"current_range_meters":16800,"station_id":"ce4bgt92rcd13ifvqcg0","pricing_plan_id":"cebpf4jnsgd1na2vs0mg"},{"bike_id":"7ba38e5c-90ec-423d-b21e-bb45cde94452","system_id":"levelo_inurba_marseille","lat":43.305989,"lon":5.37225,"is_reserved":false,"is_disabled":false,"rental_uris":{"android":"levelo://app?vid=7ba38e5c-90ec-423d-b21e-bb45cde94452","ios":"levelo://app?vid=7ba38e5c-90ec-423d-b21e-bb45cde94452"},"vehicle_type_id":"4","last_reported":1715893681,"current_range_meters":800,"station_id":"ce4bgqh2rcd13ifvqc4g","pricing_plan_id":"cebpf4jnsgd1na2vs0mg"},{"bike_id":"1fbe4eea-6649-4a7c-90f0-d2fc4ec7a9c9","system_id":"levelo_inurba_marseille","lat":43.311125,"lon":5.377624,"is_reserved":false,"is_disabled":false,"rental_uris":{"android":"levelo://app?vid=1fbe4eea-6649-4a7c-90f0-d2fc4ec7a9c9","ios":"levelo://app?vid=1fbe4eea-6649-4a7c-90f0-d2fc4ec7a9c9"},"vehicle_type_id":"4","last_reported":1715893681,"current_range_meters":18800,"station_id":"ce4bgt92rcd13ifvqcg0","pricing_plan_id":"cebpf4jnsgd1na2vs0mg"},{"bike_id":"8bf25f1a-855f-4e7c-933e-63b58d5715de","system_id":"levelo_inurba_marseille","lat":43.311125,"lon":5.377624,"is_reserved":false,"is_disabled":false,"rental_uris":{"android":"levelo://app?vid=8bf25f1a-855f-4e7c-933e-63b58d5715de","ios":"levelo://app?vid=8bf25f1a-855f-4e7c-933e-63b58d5715de"},"vehicle_type_id":"4","last_reported":1715893681,"current_range_meters":0,"station_id":"ce4bgt92rcd13ifvqcg0","pricing_plan_id":"cebpf4jnsgd1na2vs0mg"},{"bike_id":"d4b3d3da-4844-4c99-9cd4-e66cf4b28226","system_id":"levelo_inurba_marseille","lat":43.307945,"lon":5.376487,"is_reserved":false,"is_disabled":false,"rental_uris":{"android":"levelo://app?vid=d4b3d3da-4844-4c99-9cd4-e66cf4b28226","ios":"levelo://app?vid=d4b3d3da-4844-4c99-9cd4-e66cf4b28226"},"vehicle_type_id":"4","last_reported":1715893681,"current_range_meters":22800,"station_id":"ce4bgv92rcd13ifvqcq0","pricing_plan_id":"cebpf4jnsgd1na2vs0mg"},{"bike_id":"5e2b7c07-4415-4611-bd09-c954c07a6743","system_id":"levelo_inurba_marseille","lat":43.307945,"lon":5.376487,"is_reserved":false,"is_disabled":false,"rental_uris":{"android":"levelo://app?vid=5e2b7c07-4415-4611-bd09-c954c07a6743","ios":"levelo://app?vid=5e2b7c07-4415-4611-bd09-c954c07a6743"},"vehicle_type_id":"4","last_reported":1715893681,"current_range_meters":0,"station_id":"ce4bgv92rcd13ifvqcq0","pricing_plan_id":"cebpf4jnsgd1na2vs0mg"},{"bike_id":"b4b647a8-9c7a-4f2c-9f7c-0416d1006265","system_id":"levelo_inurba_marseille","lat":43.317075,"lon":5.377367,"is_reserved":false,"is_disabled":false,"rental_uris":{"android":"levelo://app?vid=b4b647a8-9c7a-4f2c-9f7c-0416d1006265","ios":"levelo://app?vid=b4b647a8-9c7a-4f2c-9f7c-0416d1006265"},"vehicle_type_id":"4","last_reported":1715893681,"current_range_meters":28800,"station_id":"ce4bgth2rcd13ifvqch0","pricing_plan_id":"cebpf4jnsgd1na2vs0mg"},{"bike_id":"8447718f-fce8-43d6-b90a-91a035e542e0","system_id":"levelo_inurba_marseille","lat":43.315289,"lon":5.380349,"is_reserved":false,"is_disabled":false,"rental_uris":{"android":"levelo://app?vid=8447718f-fce8-43d6-b90a-91a035e542e0","ios":"levelo://app?vid=8447718f-fce8-43d6-b90a-91a035e542e0"},"vehicle_type_id":"4","last_reported":1715893681,"current_range_meters":18800,"station_id":"ce4bhsp2rcd13ifvqi50","pricing_plan_id":"cebpf4jnsgd1na2vs0mg"},{"bike_id":"c1f4fc3c-1807-4917-a68b-c311caa26f18","system_id":"levelo_inurba_marseille","lat":43.315289,"lon":5.380349,"is_reserved":false,"is_disabled":false,"rental_uris":{"android":"levelo://app?vid=c1f4fc3c-1807-4917-a68b-c311caa26f18","ios":"levelo://app?vid=c1f4fc3c-1807-4917-a68b-c311caa26f18"},"vehicle_type_id":"4","last_reported":1715893681,"current_range_meters":12400,"station_id":"ce4bhsp2rcd13ifvqi50","pricing_plan_id":"cebpf4jnsgd1na2vs0mg"},{"bike_id":"0bbc01aa-6635-4419-bc2c-7896de7d62f3","system_id":"levelo_inurba_marseille","lat":43.315289,"lon":5.380349,"is_reserved":false,"is_disabled":false,"rental_uris":{"android":"levelo://app?vid=0bbc01aa-6635-4419-bc2c-7896de7d62f3","ios":"levelo://app?vid=0bbc01aa-6635-4419-bc2c-7896de7d62f3"},"vehicle_type_id":"4","last_reported":1715893681,"current_range_meters":14000,"station_id":"ce4bhsp2rcd13ifvqi50","pricing_plan_id":"cebpf4jnsgd1na2vs0mg"},{"bike_id":"7c1c63bc-d82e-40e3-9322-8bb2f55c8905","system_id":"levelo_inurba_marseille","lat":43.315293,"lon":5.380349,"is_reserved":false,"is_disabled":false,"rental_uris":{"android":"levelo://app?vid=7c1c63bc-d82e-40e3-9322-8bb2f55c8905","ios":"levelo://app?vid=7c1c63bc-d82e-40e3-9322-8bb2f55c8905"},"vehicle_type_id":"4","last_reported":1715893681,"current_range_meters":16400,"station_id":"ce4bhsp2rcd13ifvqi50","pricing_plan_id":"cebpf4jnsgd1na2vs0mg"},{"bike_id":"01a96729-79ab-4948-842a-848b6c679c01","system_id":"levelo_inurba_marseille","lat":43.301939,"lon":5.366286,"is_reserved":false,"is_disabled":false,"rental_uris":{"android":"levelo://app?vid=01a96729-79ab-4948-842a-848b6c679c01","ios":"levelo://app?vid=01a96729-79ab-4948-842a-848b6c679c01"},"vehicle_type_id":"4","last_reported":1715893681,"current_range_meters":4400,"station_id":"ce4bgrh2rcd13ifvqc8g","pricing_plan_id":"cebpf4jnsgd1na2vs0mg"},{"bike_id":"092c9fcc-8cd1-4059-939a-e3ee1d8448ee","system_id":"levelo_inurba_marseille","lat":43.30182,"lon":5.36611,"is_reserved":false,"is_disabled":false,"rental_uris":{"android":"levelo://app?vid=092c9fcc-8cd1-4059-939a-e3ee1d8448ee","ios":"levelo://app?vid=092c9fcc-8cd1-4059-939a-e3ee1d8448ee"},"vehicle_type_id":"4","last_reported":1715893681,"current_range_meters":0,"station_id":"ce4bgrh2rcd13ifvqc8g","pricing_plan_id":"cebpf4jnsgd1na2vs0mg"},{"bike_id":"ad7fbc3f-df6c-4b87-b781-cbb6bbf97f38","system_id":"levelo_inurba_marseille","lat":43.322872,"lon":5.382756,"is_reserved":false,"is_disabled":false,"rental_uris":{"android":"levelo://app?vid=ad7fbc3f-df6c-4b87-b781-cbb6bbf97f38","ios":"levelo://app?vid=ad7fbc3f-df6c-4b87-b781-cbb6bbf97f38"},"vehicle_type_id":"4","last_reported":1715893681,"current_range_meters":10000,"station_id":"ce4bhr12rcd13ifvqhqg","pricing_plan_id":"cebpf4jnsgd1na2vs0mg"},{"bike_id":"3cfc5862-ecde-4f02-839b-04deafeb1d97","system_id":"levelo_inurba_marseille","lat":43.308012,"lon":5.381511,"is_reserved":false,"is_disabled":false,"rental_uris":{"android":"levelo://app?vid=3cfc5862-ecde-4f02-839b-04deafeb1d97","ios":"levelo://app?vid=3cfc5862-ecde-4f02-839b-04deafeb1d97"},"vehicle_type_id":"4","last_reported":1715893681,"current_range_meters":400,"station_id":"ce4bgt12rcd13ifvqce0","pricing_plan_id":"cebpf4jnsgd1na2vs0mg"},{"bike_id":"ac199408-8741-4ee9-ba7d-1c9d27db6519","system_id":"levelo_inurba_marseille","lat":43.308012,"lon":5.381511,"is_reserved":false,"is_disabled":false,"rental_uris":{"android":"levelo://app?vid=ac199408-8741-4ee9-ba7d-1c9d27db6519","ios":"levelo://app?vid=ac199408-8741-4ee9-ba7d-1c9d27db6519"},"vehicle_type_id":"4","last_reported":1715893681,"current_range_meters":0,"station_id":"ce4bgt12rcd13ifvqce0","pricing_plan_id":"cebpf4jnsgd1na2vs0mg"},{"bike_id":"ae85f742-b1ce-4d15-869b-251f3d381c46","system_id":"levelo_inurba_marseille","lat":43.308074,"lon":5.381564,"is_reserved":false,"is_disabled":false,"rental_uris":{"android":"levelo://app?vid=ae85f742-b1ce-4d15-869b-251f3d381c46","ios":"levelo://app?vid=ae85f742-b1ce-4d15-869b-251f3d381c46"},"vehicle_type_id":"4","last_reported":1715893681,"current_range_meters":0,"station_id":"ce4bgt12rcd13ifvqce0","pricing_plan_id":"cebpf4jnsgd1na2vs0mg"},{"bike_id":"1607f8b2-5d6b-4d48-9426-6d02569f1afa","system_id":"levelo_inurba_marseille","lat":43.308012,"lon":5.381511,"is_reserved":false,"is_disabled":false,"rental_uris":{"android":"levelo://app?vid=1607f8b2-5d6b-4d48-9426-6d02569f1afa","ios":"levelo://app?vid=1607f8b2-5d6b-4d48-9426-6d02569f1afa"},"vehicle_type_id":"4","last_reported":1715893681,"current_range_meters":0,"station_id":"ce4bgt12rcd13ifvqce0","pricing_plan_id":"cebpf4jnsgd1na2vs0mg"},{"bike_id":"8e82ac57-cde4-4fd0-9cc0-651691c17935","system_id":"levelo_inurba_marseille","lat":43.308012,"lon":5.381511,"is_reserved":false,"is_disabled":false,"rental_uris":{"android":"levelo://app?vid=8e82ac57-cde4-4fd0-9cc0-651691c17935","ios":"levelo://app?vid=8e82ac57-cde4-4fd0-9cc0-651691c17935"},"vehicle_type_id":"4","last_reported":1715893681,"current_range_meters":7200,"station_id":"ce4bgt12rcd13ifvqce0","pricing_plan_id":"cebpf4jnsgd1na2vs0mg"},{"bike_id":"fc5b164f-95ee-4ace-aae1-a18fc9f06ebd","system_id":"levelo_inurba_marseille","lat":43.308012,"lon":5.381511,"is_reserved":false,"is_disabled":false,"rental_uris":{"android":"levelo://app?vid=fc5b164f-95ee-4ace-aae1-a18fc9f06ebd","ios":"levelo://app?vid=fc5b164f-95ee-4ace-aae1-a18fc9f06ebd"},"vehicle_type_id":"4","last_reported":1715893681,"current_range_meters":17200,"station_id":"ce4bgt12rcd13ifvqce0","pricing_plan_id":"cebpf4jnsgd1na2vs0mg"},{"bike_id":"da5f4552-1228-4675-83f3-2b76bedb33a9","system_id":"levelo_inurba_marseille","lat":43.307999,"lon":5.381606,"is_reserved":false,"is_disabled":false,"rental_uris":{"android":"levelo://app?vid=da5f4552-1228-4675-83f3-2b76bedb33a9","ios":"levelo://app?vid=da5f4552-1228-4675-83f3-2b76bedb33a9"},"vehicle_type_id":"4","last_reported":1715893681,"current_range_meters":9600,"station_id":"ce4bgt12rcd13ifvqce0","pricing_plan_id":"cebpf4jnsgd1na2vs0mg"},{"bike_id":"640c432d-a159-4f84-bc39-c52d7c35c5ce","system_id":"levelo_inurba_marseille","lat":43.308012,"lon":5.381511,"is_reserved":false,"is_disabled":false,"rental_uris":{"android":"levelo://app?vid=640c432d-a159-4f84-bc39-c52d7c35c5ce","ios":"levelo://app?vid=640c432d-a159-4f84-bc39-c52d7c35c5ce"},"vehicle_type_id":"4","last_reported":1715893681,"current_range_meters":1200,"station_id":"ce4bgt12rcd13ifvqce0","pricing_plan_id":"cebpf4jnsgd1na2vs0mg"},{"bike_id":"0919dd6c-0d0e-407c-89ae-01cc4f78ef93","system_id":"levelo_inurba_marseille","lat":43.30801,"lon":5.38172,"is_reserved":false,"is_disabled":false,"rental_uris":{"android":"levelo://app?vid=0919dd6c-0d0e-407c-89ae-01cc4f78ef93","ios":"levelo://app?vid=0919dd6c-0d0e-407c-89ae-01cc4f78ef93"},"vehicle_type_id":"4","last_reported":1715893681,"current_range_meters":0,"station_id":"ce4bgt12rcd13ifvqce0","pricing_plan_id":"cebpf4jnsgd1na2vs0mg"},{"bike_id":"3c8da7b8-6c2f-4710-b8f2-227d0af38110","system_id":"levelo_inurba_marseille","lat":43.324771,"lon":5.36557,"is_reserved":false,"is_disabled":false,"rental_uris":{"android":"levelo://app?vid=3c8da7b8-6c2f-4710-b8f2-227d0af38110","ios":"levelo://app?vid=3c8da7b8-6c2f-4710-b8f2-227d0af38110"},"vehicle_type_id":"4","last_reported":1715893681,"current_range_meters":4400,"station_id":"ce4bhs12rcd13ifvqhvg","pricing_plan_id":"cebpf4jnsgd1na2vs0mg"},{"bike_id":"e20973a7-7e7c-4017-8919-e372d9049728","system_id":"levelo_inurba_marseille","lat":43.304606,"lon":5.379026,"is_reserved":false,"is_disabled":false,"rental_uris":{"android":"levelo://app?vid=e20973a7-7e7c-4017-8919-e372d9049728","ios":"levelo://app?vid=e20973a7-7e7c-4017-8919-e372d9049728"},"vehicle_type_id":"4","last_reported":1715893681,"current_range_meters":28400,"station_id":"ce4bgup2rcd13ifvqcn0","pricing_plan_id":"cebpf4jnsgd1na2vs0mg"},{"bike_id":"f8d6454f-fec6-4e73-b13a-3c01fc2304ca","system_id":"levelo_inurba_marseille","lat":43.304606,"lon":5.379026,"is_reserved":false,"is_disabled":false,"rental_uris":{"android":"levelo://app?vid=f8d6454f-fec6-4e73-b13a-3c01fc2304ca","ios":"levelo://app?vid=f8d6454f-fec6-4e73-b13a-3c01fc2304ca"},"vehicle_type_id":"4","last_reported":1715893681,"current_range_meters":1200,"station_id":"ce4bgup2rcd13ifvqcn0","pricing_plan_id":"cebpf4jnsgd1na2vs0mg"},{"bike_id":"0cf09ebf-854e-4d88-a7ee-089c04b5b92f","system_id":"levelo_inurba_marseille","lat":43.304606,"lon":5.379026,"is_reserved":false,"is_disabled":false,"rental_uris":{"android":"levelo://app?vid=0cf09ebf-854e-4d88-a7ee-089c04b5b92f","ios":"levelo://app?vid=0cf09ebf-854e-4d88-a7ee-089c04b5b92f"},"vehicle_type_id":"4","last_reported":1715893681,"current_range_meters":21200,"station_id":"ce4bgup2rcd13ifvqcn0","pricing_plan_id":"cebpf4jnsgd1na2vs0mg"},{"bike_id":"4436aa98-edec-4f2a-ae03-50a7318ae521","system_id":"levelo_inurba_marseille","lat":43.304606,"lon":5.379026,"is_reserved":false,"is_disabled":false,"rental_uris":{"android":"levelo://app?vid=4436aa98-edec-4f2a-ae03-50a7318ae521","ios":"levelo://app?vid=4436aa98-edec-4f2a-ae03-50a7318ae521"},"vehicle_type_id":"4","last_reported":1715893681,"current_range_meters":12800,"station_id":"ce4bgup2rcd13ifvqcn0","pricing_plan_id":"cebpf4jnsgd1na2vs0mg"},{"bike_id":"27a62d50-82fe-41ae-b312-ade2c181e499","system_id":"levelo_inurba_marseille","lat":43.304606,"lon":5.379026,"is_reserved":false,"is_disabled":false,"rental_uris":{"android":"levelo://app?vid=27a62d50-82fe-41ae-b312-ade2c181e499","ios":"levelo://app?vid=27a62d50-82fe-41ae-b312-ade2c181e499"},"vehicle_type_id":"4","last_reported":1715893681,"current_range_meters":4000,"station_id":"ce4bgup2rcd13ifvqcn0","pricing_plan_id":"cebpf4jnsgd1na2vs0mg"},{"bike_id":"1d42bf85-5061-47f2-b60a-a2cf2ce294df","system_id":"levelo_inurba_marseille","lat":43.324771,"lon":5.36557,"is_reserved":false,"is_disabled":false,"rental_uris":{"android":"levelo://app?vid=1d42bf85-5061-47f2-b60a-a2cf2ce294df","ios":"levelo://app?vid=1d42bf85-5061-47f2-b60a-a2cf2ce294df"},"vehicle_type_id":"4","last_reported":1715893681,"current_range_meters":5600,"station_id":"ce4bhs12rcd13ifvqhvg","pricing_plan_id":"cebpf4jnsgd1na2vs0mg"},{"bike_id":"620b0b3c-125b-457a-8889-7347bb5edfdd","system_id":"levelo_inurba_marseille","lat":43.324771,"lon":5.36557,"is_reserved":false,"is_disabled":false,"rental_uris":{"android":"levelo://app?vid=620b0b3c-125b-457a-8889-7347bb5edfdd","ios":"levelo://app?vid=620b0b3c-125b-457a-8889-7347bb5edfdd"},"vehicle_type_id":"4","last_reported":1715893681,"current_range_meters":8400,"station_id":"ce4bhs12rcd13ifvqhvg","pricing_plan_id":"cebpf4jnsgd1na2vs0mg"},{"bike_id":"9a11686b-ee6c-49ad-92a8-dcb7fd327d59","system_id":"levelo_inurba_marseille","lat":43.324771,"lon":5.36557,"is_reserved":false,"is_disabled":false,"rental_uris":{"android":"levelo://app?vid=9a11686b-ee6c-49ad-92a8-dcb7fd327d59","ios":"levelo://app?vid=9a11686b-ee6c-49ad-92a8-dcb7fd327d59"},"vehicle_type_id":"4","last_reported":1715893681,"current_range_meters":29600,"station_id":"ce4bhs12rcd13ifvqhvg","pricing_plan_id":"cebpf4jnsgd1na2vs0mg"},{"bike_id":"adbb1178-8581-429f-a6cb-94e233b41a29","system_id":"levelo_inurba_marseille","lat":43.324771,"lon":5.36557,"is_reserved":false,"is_disabled":false,"rental_uris":{"android":"levelo://app?vid=adbb1178-8581-429f-a6cb-94e233b41a29","ios":"levelo://app?vid=adbb1178-8581-429f-a6cb-94e233b41a29"},"vehicle_type_id":"4","last_reported":1715893681,"current_range_meters":11600,"station_id":"ce4bhs12rcd13ifvqhvg","pricing_plan_id":"cebpf4jnsgd1na2vs0mg"},{"bike_id":"2473e808-f212-4f98-a493-56124c8a78fc","system_id":"levelo_inurba_marseille","lat":43.324771,"lon":5.36557,"is_reserved":false,"is_disabled":false,"rental_uris":{"android":"levelo://app?vid=2473e808-f212-4f98-a493-56124c8a78fc","ios":"levelo://app?vid=2473e808-f212-4f98-a493-56124c8a78fc"},"vehicle_type_id":"4","last_reported":1715893681,"current_range_meters":10800,"station_id":"ce4bhs12rcd13ifvqhvg","pricing_plan_id":"cebpf4jnsgd1na2vs0mg"},{"bike_id":"1dc34fd3-5c10-4699-a06b-4a9bc187d6a8","system_id":"levelo_inurba_marseille","lat":43.324771,"lon":5.36557,"is_reserved":false,"is_disabled":false,"rental_uris":{"android":"levelo://app?vid=1dc34fd3-5c10-4699-a06b-4a9bc187d6a8","ios":"levelo://app?vid=1dc34fd3-5c10-4699-a06b-4a9bc187d6a8"},"vehicle_type_id":"4","last_reported":1715893681,"current_range_meters":1200,"station_id":"ce4bhs12rcd13ifvqhvg","pricing_plan_id":"cebpf4jnsgd1na2vs0mg"},{"bike_id":"6688cdcf-82c2-47de-ae4b-e929628ed47f","system_id":"levelo_inurba_marseille","lat":43.324771,"lon":5.36557,"is_reserved":false,"is_disabled":false,"rental_uris":{"android":"levelo://app?vid=6688cdcf-82c2-47de-ae4b-e929628ed47f","ios":"levelo://app?vid=6688cdcf-82c2-47de-ae4b-e929628ed47f"},"vehicle_type_id":"4","last_reported":1715893681,"current_range_meters":6800,"station_id":"ce4bhs12rcd13ifvqhvg","pricing_plan_id":"cebpf4jnsgd1na2vs0mg"},{"bike_id":"de363a9b-b8dd-4f25-97c4-05ca23eea0b0","system_id":"levelo_inurba_marseille","lat":43.324771,"lon":5.36557,"is_reserved":false,"is_disabled":false,"rental_uris":{"android":"levelo://app?vid=de363a9b-b8dd-4f25-97c4-05ca23eea0b0","ios":"levelo://app?vid=de363a9b-b8dd-4f25-97c4-05ca23eea0b0"},"vehicle_type_id":"4","last_reported":1715893681,"current_range_meters":8400,"station_id":"ce4bhs12rcd13ifvqhvg","pricing_plan_id":"cebpf4jnsgd1na2vs0mg"},{"bike_id":"3cce3b96-317c-4528-baf2-137438355f85","system_id":"levelo_inurba_marseille","lat":43.304606,"lon":5.379026,"is_reserved":false,"is_disabled":false,"rental_uris":{"android":"levelo://app?vid=3cce3b96-317c-4528-baf2-137438355f85","ios":"levelo://app?vid=3cce3b96-317c-4528-baf2-137438355f85"},"vehicle_type_id":"4","last_reported":1715893681,"current_range_meters":21200,"station_id":"ce4bgup2rcd13ifvqcn0","pricing_plan_id":"cebpf4jnsgd1na2vs0mg"},{"bike_id":"19f0876c-b048-4546-ab12-301bad13c228","system_id":"levelo_inurba_marseille","lat":43.324771,"lon":5.36557,"is_reserved":false,"is_disabled":false,"rental_uris":{"android":"levelo://app?vid=19f0876c-b048-4546-ab12-301bad13c228","ios":"levelo://app?vid=19f0876c-b048-4546-ab12-301bad13c228"},"vehicle_type_id":"4","last_reported":1715893681,"current_range_meters":17600,"station_id":"ce4bhs12rcd13ifvqhvg","pricing_plan_id":"cebpf4jnsgd1na2vs0mg"},{"bike_id":"d58f1d0a-cf27-4d2f-be10-3b346d01d607","system_id":"levelo_inurba_marseille","lat":43.30145,"lon":5.37419,"is_reserved":false,"is_disabled":false,"rental_uris":{"android":"levelo://app?vid=d58f1d0a-cf27-4d2f-be10-3b346d01d607","ios":"levelo://app?vid=d58f1d0a-cf27-4d2f-be10-3b346d01d607"},"vehicle_type_id":"4","last_reported":1715893681,"current_range_meters":0,"station_id":"ce4bgs92rcd13ifvqcc0","pricing_plan_id":"cebpf4jnsgd1na2vs0mg"},{"bike_id":"b60e0d81-8394-45bf-81ca-d53f722946a2","system_id":"levelo_inurba_marseille","lat":43.299724,"lon":5.371829,"is_reserved":false,"is_disabled":false,"rental_uris":{"android":"levelo://app?vid=b60e0d81-8394-45bf-81ca-d53f722946a2","ios":"levelo://app?vid=b60e0d81-8394-45bf-81ca-d53f722946a2"},"vehicle_type_id":"4","last_reported":1715893681,"current_range_meters":10400,"station_id":"ce4bgr92rcd13ifvqc7g","pricing_plan_id":"cebpf4jnsgd1na2vs0mg"},{"bike_id":"0f52750e-1207-4426-95fe-a796dbb82638","system_id":"levelo_inurba_marseille","lat":43.313571,"lon":5.384829,"is_reserved":false,"is_disabled":false,"rental_uris":{"android":"levelo://app?vid=0f52750e-1207-4426-95fe-a796dbb82638","ios":"levelo://app?vid=0f52750e-1207-4426-95fe-a796dbb82638"},"vehicle_type_id":"4","last_reported":1715893681,"current_range_meters":1600,"station_id":"ce4bgt92rcd13ifvqcf0","pricing_plan_id":"cebpf4jnsgd1na2vs0mg"},{"bike_id":"56222d48-ec25-417e-99a9-cb88bcc969c6","system_id":"levelo_inurba_marseille","lat":43.319935,"lon":5.381699,"is_reserved":false,"is_disabled":false,"rental_uris":{"android":"levelo://app?vid=56222d48-ec25-417e-99a9-cb88bcc969c6","ios":"levelo://app?vid=56222d48-ec25-417e-99a9-cb88bcc969c6"},"vehicle_type_id":"4","last_reported":1715893681,"current_range_meters":28800,"station_id":"ce4bhr12rcd13ifvqhpg","pricing_plan_id":"cebpf4jnsgd1na2vs0mg"},{"bike_id":"16258643-5f01-47a6-b9de-af3a643d8019","system_id":"levelo_inurba_marseille","lat":43.319935,"lon":5.381699,"is_reserved":false,"is_disabled":false,"rental_uris":{"android":"levelo://app?vid=16258643-5f01-47a6-b9de-af3a643d8019","ios":"levelo://app?vid=16258643-5f01-47a6-b9de-af3a643d8019"},"vehicle_type_id":"4","last_reported":1715893681,"current_range_meters":30800,"station_id":"ce4bhr12rcd13ifvqhpg","pricing_plan_id":"cebpf4jnsgd1na2vs0mg"},{"bike_id":"63fa3d9b-c220-4f9c-bfcb-4f6b0aacb59e","system_id":"levelo_inurba_marseille","lat":43.31994,"lon":5.38146,"is_reserved":false,"is_disabled":false,"rental_uris":{"android":"levelo://app?vid=63fa3d9b-c220-4f9c-bfcb-4f6b0aacb59e","ios":"levelo://app?vid=63fa3d9b-c220-4f9c-bfcb-4f6b0aacb59e"},"vehicle_type_id":"4","last_reported":1715893681,"current_range_meters":19600,"station_id":"ce4bhr12rcd13ifvqhpg","pricing_plan_id":"cebpf4jnsgd1na2vs0mg"},{"bike_id":"2e628343-0ee8-4e12-9daf-0599b06ed690","system_id":"levelo_inurba_marseille","lat":43.319946,"lon":5.381477,"is_reserved":false,"is_disabled":false,"rental_uris":{"android":"levelo://app?vid=2e628343-0ee8-4e12-9daf-0599b06ed690","ios":"levelo://app?vid=2e628343-0ee8-4e12-9daf-0599b06ed690"},"vehicle_type_id":"4","last_reported":1715893681,"current_range_meters":26000,"station_id":"ce4bhr12rcd13ifvqhpg","pricing_plan_id":"cebpf4jnsgd1na2vs0mg"},{"bike_id":"da335ed9-3925-4ec8-b8ba-c774f6366d5f","system_id":"levelo_inurba_marseille","lat":43.319935,"lon":5.381699,"is_reserved":false,"is_disabled":false,"rental_uris":{"android":"levelo://app?vid=da335ed9-3925-4ec8-b8ba-c774f6366d5f","ios":"levelo://app?vid=da335ed9-3925-4ec8-b8ba-c774f6366d5f"},"vehicle_type_id":"4","last_reported":1715893681,"current_range_meters":16400,"station_id":"ce4bhr12rcd13ifvqhpg","pricing_plan_id":"cebpf4jnsgd1na2vs0mg"},{"bike_id":"e43c108e-d7fa-47da-9c29-4ce8297d8550","system_id":"levelo_inurba_marseille","lat":43.319953,"lon":5.381553,"is_reserved":false,"is_disabled":false,"rental_uris":{"android":"levelo://app?vid=e43c108e-d7fa-47da-9c29-4ce8297d8550","ios":"levelo://app?vid=e43c108e-d7fa-47da-9c29-4ce8297d8550"},"vehicle_type_id":"4","last_reported":1715893681,"current_range_meters":28400,"station_id":"ce4bhr12rcd13ifvqhpg","pricing_plan_id":"cebpf4jnsgd1na2vs0mg"},{"bike_id":"aa324bb1-a6ce-4300-aff6-8eb1c1612623","system_id":"levelo_inurba_marseille","lat":43.319984,"lon":5.381531,"is_reserved":false,"is_disabled":false,"rental_uris":{"android":"levelo://app?vid=aa324bb1-a6ce-4300-aff6-8eb1c1612623","ios":"levelo://app?vid=aa324bb1-a6ce-4300-aff6-8eb1c1612623"},"vehicle_type_id":"4","last_reported":1715893681,"current_range_meters":26400,"station_id":"ce4bhr12rcd13ifvqhpg","pricing_plan_id":"cebpf4jnsgd1na2vs0mg"},{"bike_id":"53c1f0d9-2d06-4c22-be70-d67fca222396","system_id":"levelo_inurba_marseille","lat":43.31998,"lon":5.38157,"is_reserved":false,"is_disabled":false,"rental_uris":{"android":"levelo://app?vid=53c1f0d9-2d06-4c22-be70-d67fca222396","ios":"levelo://app?vid=53c1f0d9-2d06-4c22-be70-d67fca222396"},"vehicle_type_id":"4","last_reported":1715893681,"current_range_meters":7200,"station_id":"ce4bhr12rcd13ifvqhpg","pricing_plan_id":"cebpf4jnsgd1na2vs0mg"},{"bike_id":"30b8569e-197c-4628-a708-49e3945dda75","system_id":"levelo_inurba_marseille","lat":43.31995,"lon":5.38164,"is_reserved":false,"is_disabled":false,"rental_uris":{"android":"levelo://app?vid=30b8569e-197c-4628-a708-49e3945dda75","ios":"levelo://app?vid=30b8569e-197c-4628-a708-49e3945dda75"},"vehicle_type_id":"4","last_reported":1715893681,"current_range_meters":0,"station_id":"ce4bhr12rcd13ifvqhpg","pricing_plan_id":"cebpf4jnsgd1na2vs0mg"},{"bike_id":"93ab2d55-2d3c-41dd-9186-7eee1cde31b1","system_id":"levelo_inurba_marseille","lat":43.313571,"lon":5.384829,"is_reserved":false,"is_disabled":false,"rental_uris":{"android":"levelo://app?vid=93ab2d55-2d3c-41dd-9186-7eee1cde31b1","ios":"levelo://app?vid=93ab2d55-2d3c-41dd-9186-7eee1cde31b1"},"vehicle_type_id":"4","last_reported":1715893681,"current_range_meters":6000,"station_id":"ce4bgt92rcd13ifvqcf0","pricing_plan_id":"cebpf4jnsgd1na2vs0mg"},{"bike_id":"e5fd1d7e-3b96-445f-92f9-52b0e0643843","system_id":"levelo_inurba_marseille","lat":43.313571,"lon":5.384829,"is_reserved":false,"is_disabled":false,"rental_uris":{"android":"levelo://app?vid=e5fd1d7e-3b96-445f-92f9-52b0e0643843","ios":"levelo://app?vid=e5fd1d7e-3b96-445f-92f9-52b0e0643843"},"vehicle_type_id":"4","last_reported":1715893681,"current_range_meters":6400,"station_id":"ce4bgt92rcd13ifvqcf0","pricing_plan_id":"cebpf4jnsgd1na2vs0mg"},{"bike_id":"81f3f877-2fe1-4e8d-b772-550873891654","system_id":"levelo_inurba_marseille","lat":43.313571,"lon":5.384829,"is_reserved":false,"is_disabled":false,"rental_uris":{"android":"levelo://app?vid=81f3f877-2fe1-4e8d-b772-550873891654","ios":"levelo://app?vid=81f3f877-2fe1-4e8d-b772-550873891654"},"vehicle_type_id":"4","last_reported":1715893681,"current_range_meters":5200,"station_id":"ce4bgt92rcd13ifvqcf0","pricing_plan_id":"cebpf4jnsgd1na2vs0mg"},{"bike_id":"96c99280-8c81-4b98-a2dc-0347cd023897","system_id":"levelo_inurba_marseille","lat":43.313571,"lon":5.384829,"is_reserved":false,"is_disabled":false,"rental_uris":{"android":"levelo://app?vid=96c99280-8c81-4b98-a2dc-0347cd023897","ios":"levelo://app?vid=96c99280-8c81-4b98-a2dc-0347cd023897"},"vehicle_type_id":"4","last_reported":1715893681,"current_range_meters":16000,"station_id":"ce4bgt92rcd13ifvqcf0","pricing_plan_id":"cebpf4jnsgd1na2vs0mg"},{"bike_id":"9b2d516f-51c9-4e78-bb75-9928982c6139","system_id":"levelo_inurba_marseille","lat":43.313571,"lon":5.384829,"is_reserved":false,"is_disabled":false,"rental_uris":{"android":"levelo://app?vid=9b2d516f-51c9-4e78-bb75-9928982c6139","ios":"levelo://app?vid=9b2d516f-51c9-4e78-bb75-9928982c6139"},"vehicle_type_id":"4","last_reported":1715893681,"current_range_meters":28400,"station_id":"ce4bgt92rcd13ifvqcf0","pricing_plan_id":"cebpf4jnsgd1na2vs0mg"},{"bike_id":"b2891090-5168-40ff-b23e-4e711b8fb3f1","system_id":"levelo_inurba_marseille","lat":43.299222,"lon":5.365554,"is_reserved":false,"is_disabled":false,"rental_uris":{"android":"levelo://app?vid=b2891090-5168-40ff-b23e-4e711b8fb3f1","ios":"levelo://app?vid=b2891090-5168-40ff-b23e-4e711b8fb3f1"},"vehicle_type_id":"4","last_reported":1715893681,"current_range_meters":8400,"station_id":"ce4bgm92rcd13ifvqbr0","pricing_plan_id":"cebpf4jnsgd1na2vs0mg"},{"bike_id":"c51f0d76-7680-4522-94d9-ad65d4b07fa9","system_id":"levelo_inurba_marseille","lat":43.299222,"lon":5.365554,"is_reserved":false,"is_disabled":false,"rental_uris":{"android":"levelo://app?vid=c51f0d76-7680-4522-94d9-ad65d4b07fa9","ios":"levelo://app?vid=c51f0d76-7680-4522-94d9-ad65d4b07fa9"},"vehicle_type_id":"4","last_reported":1715893681,"current_range_meters":0,"station_id":"ce4bgm92rcd13ifvqbr0","pricing_plan_id":"cebpf4jnsgd1na2vs0mg"},{"bike_id":"088540e5-7d6b-481d-81c6-e490722ac3bf","system_id":"levelo_inurba_marseille","lat":43.2998,"lon":5.37178,"is_reserved":false,"is_disabled":false,"rental_uris":{"android":"levelo://app?vid=088540e5-7d6b-481d-81c6-e490722ac3bf","ios":"levelo://app?vid=088540e5-7d6b-481d-81c6-e490722ac3bf"},"vehicle_type_id":"4","last_reported":1715893681,"current_range_meters":0,"station_id":"ce4bgr92rcd13ifvqc7g","pricing_plan_id":"cebpf4jnsgd1na2vs0mg"},{"bike_id":"108b89e6-2a67-4797-a963-c20cc7dc2ca1","system_id":"levelo_inurba_marseille","lat":43.299209,"lon":5.365547,"is_reserved":false,"is_disabled":false,"rental_uris":{"android":"levelo://app?vid=108b89e6-2a67-4797-a963-c20cc7dc2ca1","ios":"levelo://app?vid=108b89e6-2a67-4797-a963-c20cc7dc2ca1"},"vehicle_type_id":"4","last_reported":1715893681,"current_range_meters":28000,"station_id":"ce4bgm92rcd13ifvqbr0","pricing_plan_id":"cebpf4jnsgd1na2vs0mg"},{"bike_id":"1521cf57-9114-496c-92de-80998c42d449","system_id":"levelo_inurba_marseille","lat":43.2998,"lon":5.37186,"is_reserved":false,"is_disabled":false,"rental_uris":{"android":"levelo://app?vid=1521cf57-9114-496c-92de-80998c42d449","ios":"levelo://app?vid=1521cf57-9114-496c-92de-80998c42d449"},"vehicle_type_id":"4","last_reported":1715893681,"current_range_meters":0,"station_id":"ce4bgr92rcd13ifvqc7g","pricing_plan_id":"cebpf4jnsgd1na2vs0mg"},{"bike_id":"c314d367-d132-41d2-9edd-af94b3c5bce5","system_id":"levelo_inurba_marseille","lat":43.299708,"lon":5.371815,"is_reserved":false,"is_disabled":false,"rental_uris":{"android":"levelo://app?vid=c314d367-d132-41d2-9edd-af94b3c5bce5","ios":"levelo://app?vid=c314d367-d132-41d2-9edd-af94b3c5bce5"},"vehicle_type_id":"4","last_reported":1715893681,"current_range_meters":0,"station_id":"ce4bgr92rcd13ifvqc7g","pricing_plan_id":"cebpf4jnsgd1na2vs0mg"},{"bike_id":"af9e5c52-b0fc-4702-a7ca-ce5b51b64239","system_id":"levelo_inurba_marseille","lat":43.29854,"lon":5.36292,"is_reserved":false,"is_disabled":false,"rental_uris":{"android":"levelo://app?vid=af9e5c52-b0fc-4702-a7ca-ce5b51b64239","ios":"levelo://app?vid=af9e5c52-b0fc-4702-a7ca-ce5b51b64239"},"vehicle_type_id":"4","last_reported":1715893681,"current_range_meters":18800,"station_id":"ce4bgpp2rcd13ifvqc3g","pricing_plan_id":"cebpf4jnsgd1na2vs0mg"},{"bike_id":"151eb1dc-705c-47d3-8de0-8d382887b232","system_id":"levelo_inurba_marseille","lat":43.298433,"lon":5.362774,"is_reserved":false,"is_disabled":false,"rental_uris":{"android":"levelo://app?vid=151eb1dc-705c-47d3-8de0-8d382887b232","ios":"levelo://app?vid=151eb1dc-705c-47d3-8de0-8d382887b232"},"vehicle_type_id":"4","last_reported":1715893681,"current_range_meters":2800,"station_id":"ce4bgpp2rcd13ifvqc3g","pricing_plan_id":"cebpf4jnsgd1na2vs0mg"},{"bike_id":"0c4eb777-e5e3-4e3a-851d-89925a8a8d85","system_id":"levelo_inurba_marseille","lat":43.305364,"lon":5.384119,"is_reserved":false,"is_disabled":false,"rental_uris":{"android":"levelo://app?vid=0c4eb777-e5e3-4e3a-851d-89925a8a8d85","ios":"levelo://app?vid=0c4eb777-e5e3-4e3a-851d-89925a8a8d85"},"vehicle_type_id":"4","last_reported":1715893681,"current_range_meters":30800,"station_id":"ce4bgg92rcd13ifvqb30","pricing_plan_id":"cebpf4jnsgd1na2vs0mg"},{"bike_id":"ce172af1-b44f-4a16-9e6e-7ccbea2aa3e3","system_id":"levelo_inurba_marseille","lat":43.305364,"lon":5.384119,"is_reserved":false,"is_disabled":false,"rental_uris":{"android":"levelo://app?vid=ce172af1-b44f-4a16-9e6e-7ccbea2aa3e3","ios":"levelo://app?vid=ce172af1-b44f-4a16-9e6e-7ccbea2aa3e3"},"vehicle_type_id":"4","last_reported":1715893681,"current_range_meters":28000,"station_id":"ce4bgg92rcd13ifvqb30","pricing_plan_id":"cebpf4jnsgd1na2vs0mg"},{"bike_id":"a8420d12-5ea1-4553-ba77-74153419b9a1","system_id":"levelo_inurba_marseille","lat":43.305362,"lon":5.384291,"is_reserved":false,"is_disabled":false,"rental_uris":{"android":"levelo://app?vid=a8420d12-5ea1-4553-ba77-74153419b9a1","ios":"levelo://app?vid=a8420d12-5ea1-4553-ba77-74153419b9a1"},"vehicle_type_id":"4","last_reported":1715893681,"current_range_meters":28000,"station_id":"ce4bgg92rcd13ifvqb30","pricing_plan_id":"cebpf4jnsgd1na2vs0mg"},{"bike_id":"e361a952-fd8b-4e6b-858f-7d8789ea6aa5","system_id":"levelo_inurba_marseille","lat":43.311722,"lon":5.387247,"is_reserved":false,"is_disabled":false,"rental_uris":{"android":"levelo://app?vid=e361a952-fd8b-4e6b-858f-7d8789ea6aa5","ios":"levelo://app?vid=e361a952-fd8b-4e6b-858f-7d8789ea6aa5"},"vehicle_type_id":"4","last_reported":1715893681,"current_range_meters":27600,"station_id":"ce4bgv12rcd13ifvqcp0","pricing_plan_id":"cebpf4jnsgd1na2vs0mg"},{"bike_id":"441815cb-4509-4ccf-8abc-f2dd5b924ffb","system_id":"levelo_inurba_marseille","lat":43.311722,"lon":5.387247,"is_reserved":false,"is_disabled":false,"rental_uris":{"android":"levelo://app?vid=441815cb-4509-4ccf-8abc-f2dd5b924ffb","ios":"levelo://app?vid=441815cb-4509-4ccf-8abc-f2dd5b924ffb"},"vehicle_type_id":"4","last_reported":1715893681,"current_range_meters":8800,"station_id":"ce4bgv12rcd13ifvqcp0","pricing_plan_id":"cebpf4jnsgd1na2vs0mg"},{"bike_id":"835a3ed6-edde-436f-ac64-056c78e49426","system_id":"levelo_inurba_marseille","lat":43.311722,"lon":5.387247,"is_reserved":false,"is_disabled":false,"rental_uris":{"android":"levelo://app?vid=835a3ed6-edde-436f-ac64-056c78e49426","ios":"levelo://app?vid=835a3ed6-edde-436f-ac64-056c78e49426"},"vehicle_type_id":"4","last_reported":1715893681,"current_range_meters":24000,"station_id":"ce4bgv12rcd13ifvqcp0","pricing_plan_id":"cebpf4jnsgd1na2vs0mg"},{"bike_id":"65968cd9-2473-45af-b25f-cb46dde52767","system_id":"levelo_inurba_marseille","lat":43.311722,"lon":5.387247,"is_reserved":false,"is_disabled":false,"rental_uris":{"android":"levelo://app?vid=65968cd9-2473-45af-b25f-cb46dde52767","ios":"levelo://app?vid=65968cd9-2473-45af-b25f-cb46dde52767"},"vehicle_type_id":"4","last_reported":1715893681,"current_range_meters":24000,"station_id":"ce4bgv12rcd13ifvqcp0","pricing_plan_id":"cebpf4jnsgd1na2vs0mg"},{"bike_id":"b27f6378-b710-4a73-ad45-40a789c05651","system_id":"levelo_inurba_marseille","lat":43.307945,"lon":5.376487,"is_reserved":false,"is_disabled":false,"rental_uris":{"android":"levelo://app?vid=b27f6378-b710-4a73-ad45-40a789c05651","ios":"levelo://app?vid=b27f6378-b710-4a73-ad45-40a789c05651"},"vehicle_type_id":"4","last_reported":1715893681,"current_range_meters":24800,"station_id":"ce4bgv92rcd13ifvqcq0","pricing_plan_id":"cebpf4jnsgd1na2vs0mg"},{"bike_id":"c8a67132-4667-4c92-9737-2fac64d22bb6","system_id":"levelo_inurba_marseille","lat":43.322872,"lon":5.382756,"is_reserved":false,"is_disabled":false,"rental_uris":{"android":"levelo://app?vid=c8a67132-4667-4c92-9737-2fac64d22bb6","ios":"levelo://app?vid=c8a67132-4667-4c92-9737-2fac64d22bb6"},"vehicle_type_id":"4","last_reported":1715893681,"current_range_meters":19200,"station_id":"ce4bhr12rcd13ifvqhqg","pricing_plan_id":"cebpf4jnsgd1na2vs0mg"},{"bike_id":"56815445-0f8a-4347-a24f-f005cddedae1","system_id":"levelo_inurba_marseille","lat":43.322872,"lon":5.382756,"is_reserved":false,"is_disabled":false,"rental_uris":{"android":"levelo://app?vid=56815445-0f8a-4347-a24f-f005cddedae1","ios":"levelo://app?vid=56815445-0f8a-4347-a24f-f005cddedae1"},"vehicle_type_id":"4","last_reported":1715893681,"current_range_meters":31200,"station_id":"ce4bhr12rcd13ifvqhqg","pricing_plan_id":"cebpf4jnsgd1na2vs0mg"},{"bike_id":"1e471816-8c97-4c4e-9efa-19d83afd8033","system_id":"levelo_inurba_marseille","lat":43.322872,"lon":5.382756,"is_reserved":false,"is_disabled":false,"rental_uris":{"android":"levelo://app?vid=1e471816-8c97-4c4e-9efa-19d83afd8033","ios":"levelo://app?vid=1e471816-8c97-4c4e-9efa-19d83afd8033"},"vehicle_type_id":"4","last_reported":1715893681,"current_range_meters":7600,"station_id":"ce4bhr12rcd13ifvqhqg","pricing_plan_id":"cebpf4jnsgd1na2vs0mg"},{"bike_id":"d025c4fe-48a8-4249-83cf-d9e6596fb70b","system_id":"levelo_inurba_marseille","lat":43.322872,"lon":5.382756,"is_reserved":false,"is_disabled":false,"rental_uris":{"android":"levelo://app?vid=d025c4fe-48a8-4249-83cf-d9e6596fb70b","ios":"levelo://app?vid=d025c4fe-48a8-4249-83cf-d9e6596fb70b"},"vehicle_type_id":"4","last_reported":1715893681,"current_range_meters":31200,"station_id":"ce4bhr12rcd13ifvqhqg","pricing_plan_id":"cebpf4jnsgd1na2vs0mg"},{"bike_id":"9a5cb66c-77bb-4906-b415-0db807265f98","system_id":"levelo_inurba_marseille","lat":43.297774,"lon":5.370875,"is_reserved":false,"is_disabled":false,"rental_uris":{"android":"levelo://app?vid=9a5cb66c-77bb-4906-b415-0db807265f98","ios":"levelo://app?vid=9a5cb66c-77bb-4906-b415-0db807265f98"},"vehicle_type_id":"4","last_reported":1715893681,"current_range_meters":21200,"station_id":"ce4bgop2rcd13ifvqc1g","pricing_plan_id":"cebpf4jnsgd1na2vs0mg"},{"bike_id":"23ea0c56-6b3e-40d0-80c8-364638025765","system_id":"levelo_inurba_marseille","lat":43.297163,"lon":5.365866,"is_reserved":false,"is_disabled":false,"rental_uris":{"android":"levelo://app?vid=23ea0c56-6b3e-40d0-80c8-364638025765","ios":"levelo://app?vid=23ea0c56-6b3e-40d0-80c8-364638025765"},"vehicle_type_id":"4","last_reported":1715893681,"current_range_meters":15200,"station_id":"ce4bgn12rcd13ifvqbt0","pricing_plan_id":"cebpf4jnsgd1na2vs0mg"},{"bike_id":"347e5744-e47e-4051-acd3-5eca82fcd8dc","system_id":"levelo_inurba_marseille","lat":43.297163,"lon":5.365866,"is_reserved":false,"is_disabled":false,"rental_uris":{"android":"levelo://app?vid=347e5744-e47e-4051-acd3-5eca82fcd8dc","ios":"levelo://app?vid=347e5744-e47e-4051-acd3-5eca82fcd8dc"},"vehicle_type_id":"4","last_reported":1715893681,"current_range_meters":2000,"station_id":"ce4bgn12rcd13ifvqbt0","pricing_plan_id":"cebpf4jnsgd1na2vs0mg"},{"bike_id":"c069d8ab-893b-4d11-8a9a-b9c8d6a91f3c","system_id":"levelo_inurba_marseille","lat":43.297078,"lon":5.366043,"is_reserved":false,"is_disabled":false,"rental_uris":{"android":"levelo://app?vid=c069d8ab-893b-4d11-8a9a-b9c8d6a91f3c","ios":"levelo://app?vid=c069d8ab-893b-4d11-8a9a-b9c8d6a91f3c"},"vehicle_type_id":"4","last_reported":1715893681,"current_range_meters":4000,"station_id":"ce4bgn12rcd13ifvqbt0","pricing_plan_id":"cebpf4jnsgd1na2vs0mg"},{"bike_id":"78c757b2-b690-4576-9058-5c4f68f9d96b","system_id":"levelo_inurba_marseille","lat":43.297163,"lon":5.365866,"is_reserved":false,"is_disabled":false,"rental_uris":{"android":"levelo://app?vid=78c757b2-b690-4576-9058-5c4f68f9d96b","ios":"levelo://app?vid=78c757b2-b690-4576-9058-5c4f68f9d96b"},"vehicle_type_id":"4","last_reported":1715893681,"current_range_meters":2400,"station_id":"ce4bgn12rcd13ifvqbt0","pricing_plan_id":"cebpf4jnsgd1na2vs0mg"},{"bike_id":"98ab7792-8db3-421b-ac3b-a045503f7a19","system_id":"levelo_inurba_marseille","lat":43.2968,"lon":5.37291,"is_reserved":false,"is_disabled":false,"rental_uris":{"android":"levelo://app?vid=98ab7792-8db3-421b-ac3b-a045503f7a19","ios":"levelo://app?vid=98ab7792-8db3-421b-ac3b-a045503f7a19"},"vehicle_type_id":"4","last_reported":1715893681,"current_range_meters":21600,"station_id":"ce4bgk12rcd13ifvqbj0","pricing_plan_id":"cebpf4jnsgd1na2vs0mg"},{"bike_id":"19fac424-3ca7-4a75-b817-ba7242e4fe55","system_id":"levelo_inurba_marseille","lat":43.2968,"lon":5.37291,"is_reserved":false,"is_disabled":false,"rental_uris":{"android":"levelo://app?vid=19fac424-3ca7-4a75-b817-ba7242e4fe55","ios":"levelo://app?vid=19fac424-3ca7-4a75-b817-ba7242e4fe55"},"vehicle_type_id":"4","last_reported":1715893681,"current_range_meters":17600,"station_id":"ce4bgk12rcd13ifvqbj0","pricing_plan_id":"cebpf4jnsgd1na2vs0mg"},{"bike_id":"550b614d-de94-4b79-a3b0-0b855021695e","system_id":"levelo_inurba_marseille","lat":43.296129,"lon":5.370777,"is_reserved":false,"is_disabled":false,"rental_uris":{"android":"levelo://app?vid=550b614d-de94-4b79-a3b0-0b855021695e","ios":"levelo://app?vid=550b614d-de94-4b79-a3b0-0b855021695e"},"vehicle_type_id":"4","last_reported":1715893681,"current_range_meters":0,"station_id":"ce4bgnh2rcd13ifvqc0g","pricing_plan_id":"cebpf4jnsgd1na2vs0mg"},{"bike_id":"351cc98b-9c9e-499a-8a73-e2d75609f08c","system_id":"levelo_inurba_marseille","lat":43.309589,"lon":5.390258,"is_reserved":false,"is_disabled":false,"rental_uris":{"android":"levelo://app?vid=351cc98b-9c9e-499a-8a73-e2d75609f08c","ios":"levelo://app?vid=351cc98b-9c9e-499a-8a73-e2d75609f08c"},"vehicle_type_id":"4","last_reported":1715893681,"current_range_meters":6800,"station_id":"ce4bgup2rcd13ifvqco0","pricing_plan_id":"cebpf4jnsgd1na2vs0mg"},{"bike_id":"40da408c-eb0f-4e1f-88d6-04014cd138fe","system_id":"levelo_inurba_marseille","lat":43.29617,"lon":5.36034,"is_reserved":false,"is_disabled":false,"rental_uris":{"android":"levelo://app?vid=40da408c-eb0f-4e1f-88d6-04014cd138fe","ios":"levelo://app?vid=40da408c-eb0f-4e1f-88d6-04014cd138fe"},"vehicle_type_id":"4","last_reported":1715893681,"current_range_meters":400,"station_id":"","pricing_plan_id":"cebpf4jnsgd1na2vs0mg"},{"bike_id":"01c13e3a-9f2e-4361-8878-4995e9699e1d","system_id":"levelo_inurba_marseille","lat":43.317578,"lon":5.390098,"is_reserved":false,"is_disabled":false,"rental_uris":{"android":"levelo://app?vid=01c13e3a-9f2e-4361-8878-4995e9699e1d","ios":"levelo://app?vid=01c13e3a-9f2e-4361-8878-4995e9699e1d"},"vehicle_type_id":"4","last_reported":1715893681,"current_range_meters":18400,"station_id":"ce4bhqp2rcd13ifvqhng","pricing_plan_id":"cebpf4jnsgd1na2vs0mg"},{"bike_id":"daa20fd6-3282-43d0-a656-5dc6b66ff1a8","system_id":"levelo_inurba_marseille","lat":43.317557,"lon":5.390173,"is_reserved":false,"is_disabled":false,"rental_uris":{"android":"levelo://app?vid=daa20fd6-3282-43d0-a656-5dc6b66ff1a8","ios":"levelo://app?vid=daa20fd6-3282-43d0-a656-5dc6b66ff1a8"},"vehicle_type_id":"4","last_reported":1715893681,"current_range_meters":26000,"station_id":"ce4bhqp2rcd13ifvqhng","pricing_plan_id":"cebpf4jnsgd1na2vs0mg"},{"bike_id":"27c3cd8c-4e4d-4b91-8adf-ccd12fe0d6cc","system_id":"levelo_inurba_marseille","lat":43.317564,"lon":5.390134,"is_reserved":false,"is_disabled":false,"rental_uris":{"android":"levelo://app?vid=27c3cd8c-4e4d-4b91-8adf-ccd12fe0d6cc","ios":"levelo://app?vid=27c3cd8c-4e4d-4b91-8adf-ccd12fe0d6cc"},"vehicle_type_id":"4","last_reported":1715893681,"current_range_meters":30400,"station_id":"ce4bhqp2rcd13ifvqhng","pricing_plan_id":"cebpf4jnsgd1na2vs0mg"},{"bike_id":"6a2fbbe2-8135-4b63-8f5d-3c424194a07d","system_id":"levelo_inurba_marseille","lat":43.317557,"lon":5.390173,"is_reserved":false,"is_disabled":false,"rental_uris":{"android":"levelo://app?vid=6a2fbbe2-8135-4b63-8f5d-3c424194a07d","ios":"levelo://app?vid=6a2fbbe2-8135-4b63-8f5d-3c424194a07d"},"vehicle_type_id":"4","last_reported":1715893681,"current_range_meters":16800,"station_id":"ce4bhqp2rcd13ifvqhng","pricing_plan_id":"cebpf4jnsgd1na2vs0mg"},{"bike_id":"2ceffeba-6b70-4e5e-a5a2-4adeb3787935","system_id":"levelo_inurba_marseille","lat":43.31759,"lon":5.39017,"is_reserved":false,"is_disabled":false,"rental_uris":{"android":"levelo://app?vid=2ceffeba-6b70-4e5e-a5a2-4adeb3787935","ios":"levelo://app?vid=2ceffeba-6b70-4e5e-a5a2-4adeb3787935"},"vehicle_type_id":"4","last_reported":1715893681,"current_range_meters":6000,"station_id":"ce4bhqp2rcd13ifvqhng","pricing_plan_id":"cebpf4jnsgd1na2vs0mg"},{"bike_id":"dc9129fc-06fd-45a2-8f94-08b9a76d4ecc","system_id":"levelo_inurba_marseille","lat":43.301557,"lon":5.385597,"is_reserved":false,"is_disabled":false,"rental_uris":{"android":"levelo://app?vid=dc9129fc-06fd-45a2-8f94-08b9a76d4ecc","ios":"levelo://app?vid=dc9129fc-06fd-45a2-8f94-08b9a76d4ecc"},"vehicle_type_id":"4","last_reported":1715893681,"current_range_meters":0,"station_id":"","pricing_plan_id":"cebpf4jnsgd1na2vs0mg"},{"bike_id":"e1d7d674-aeec-4b8d-8f89-e0f0335566d3","system_id":"levelo_inurba_marseille","lat":43.317557,"lon":5.390173,"is_reserved":false,"is_disabled":false,"rental_uris":{"android":"levelo://app?vid=e1d7d674-aeec-4b8d-8f89-e0f0335566d3","ios":"levelo://app?vid=e1d7d674-aeec-4b8d-8f89-e0f0335566d3"},"vehicle_type_id":"4","last_reported":1715893681,"current_range_meters":14000,"station_id":"ce4bhqp2rcd13ifvqhng","pricing_plan_id":"cebpf4jnsgd1na2vs0mg"},{"bike_id":"1c39cebd-2262-4c5a-98a9-2205eb8676dc","system_id":"levelo_inurba_marseille","lat":43.31756,"lon":5.39025,"is_reserved":false,"is_disabled":false,"rental_uris":{"android":"levelo://app?vid=1c39cebd-2262-4c5a-98a9-2205eb8676dc","ios":"levelo://app?vid=1c39cebd-2262-4c5a-98a9-2205eb8676dc"},"vehicle_type_id":"4","last_reported":1715893681,"current_range_meters":0,"station_id":"ce4bhqp2rcd13ifvqhng","pricing_plan_id":"cebpf4jnsgd1na2vs0mg"},{"bike_id":"e11cd21e-70cd-4f14-aa11-bcd32a944b8b","system_id":"levelo_inurba_marseille","lat":43.317952,"lon":5.390192,"is_reserved":false,"is_disabled":false,"rental_uris":{"android":"levelo://app?vid=e11cd21e-70cd-4f14-aa11-bcd32a944b8b","ios":"levelo://app?vid=e11cd21e-70cd-4f14-aa11-bcd32a944b8b"},"vehicle_type_id":"4","last_reported":1715893681,"current_range_meters":24000,"station_id":"ce4bhqp2rcd13ifvqhng","pricing_plan_id":"cebpf4jnsgd1na2vs0mg"},{"bike_id":"94212830-a7ab-41a4-a443-8e638352897e","system_id":"levelo_inurba_marseille","lat":43.298037,"lon":5.381066,"is_reserved":false,"is_disabled":false,"rental_uris":{"android":"levelo://app?vid=94212830-a7ab-41a4-a443-8e638352897e","ios":"levelo://app?vid=94212830-a7ab-41a4-a443-8e638352897e"},"vehicle_type_id":"4","last_reported":1715893681,"current_range_meters":2400,"station_id":"ce4bgip2rcd13ifvqbb0","pricing_plan_id":"cebpf4jnsgd1na2vs0mg"},{"bike_id":"38652d6d-6a5c-4f1a-8d7f-8eeeba3288d9","system_id":"levelo_inurba_marseille","lat":43.29794,"lon":5.38104,"is_reserved":false,"is_disabled":false,"rental_uris":{"android":"levelo://app?vid=38652d6d-6a5c-4f1a-8d7f-8eeeba3288d9","ios":"levelo://app?vid=38652d6d-6a5c-4f1a-8d7f-8eeeba3288d9"},"vehicle_type_id":"4","last_reported":1715893681,"current_range_meters":0,"station_id":"ce4bgip2rcd13ifvqbb0","pricing_plan_id":"cebpf4jnsgd1na2vs0mg"},{"bike_id":"6bd983bf-9794-408c-b5e4-fba5596ef635","system_id":"levelo_inurba_marseille","lat":43.30437,"lon":5.38893,"is_reserved":false,"is_disabled":false,"rental_uris":{"android":"levelo://app?vid=6bd983bf-9794-408c-b5e4-fba5596ef635","ios":"levelo://app?vid=6bd983bf-9794-408c-b5e4-fba5596ef635"},"vehicle_type_id":"4","last_reported":1715893681,"current_range_meters":0,"station_id":"ce4bgk12rcd13ifvqbi0","pricing_plan_id":"cebpf4jnsgd1na2vs0mg"},{"bike_id":"3dc79a85-6ee1-4b4f-8d7e-7f4b002ec95a","system_id":"levelo_inurba_marseille","lat":43.304274,"lon":5.388873,"is_reserved":false,"is_disabled":false,"rental_uris":{"android":"levelo://app?vid=3dc79a85-6ee1-4b4f-8d7e-7f4b002ec95a","ios":"levelo://app?vid=3dc79a85-6ee1-4b4f-8d7e-7f4b002ec95a"},"vehicle_type_id":"4","last_reported":1715893681,"current_range_meters":0,"station_id":"ce4bgk12rcd13ifvqbi0","pricing_plan_id":"cebpf4jnsgd1na2vs0mg"},{"bike_id":"b797b98c-b054-4436-90b5-31c4e3a1adec","system_id":"levelo_inurba_marseille","lat":43.30437,"lon":5.38894,"is_reserved":false,"is_disabled":false,"rental_uris":{"android":"levelo://app?vid=b797b98c-b054-4436-90b5-31c4e3a1adec","ios":"levelo://app?vid=b797b98c-b054-4436-90b5-31c4e3a1adec"},"vehicle_type_id":"4","last_reported":1715893681,"current_range_meters":3200,"station_id":"ce4bgk12rcd13ifvqbi0","pricing_plan_id":"cebpf4jnsgd1na2vs0mg"},{"bike_id":"bfccb6fa-bf82-492c-81cb-66b0f14992cc","system_id":"levelo_inurba_marseille","lat":43.30437,"lon":5.38895,"is_reserved":false,"is_disabled":false,"rental_uris":{"android":"levelo://app?vid=bfccb6fa-bf82-492c-81cb-66b0f14992cc","ios":"levelo://app?vid=bfccb6fa-bf82-492c-81cb-66b0f14992cc"},"vehicle_type_id":"4","last_reported":1715893681,"current_range_meters":6800,"station_id":"ce4bgk12rcd13ifvqbi0","pricing_plan_id":"cebpf4jnsgd1na2vs0mg"},{"bike_id":"ec0b4fdb-2a54-48ab-be85-7a9b43533ab6","system_id":"levelo_inurba_marseille","lat":43.30433,"lon":5.38896,"is_reserved":false,"is_disabled":false,"rental_uris":{"android":"levelo://app?vid=ec0b4fdb-2a54-48ab-be85-7a9b43533ab6","ios":"levelo://app?vid=ec0b4fdb-2a54-48ab-be85-7a9b43533ab6"},"vehicle_type_id":"4","last_reported":1715893681,"current_range_meters":8000,"station_id":"ce4bgk12rcd13ifvqbi0","pricing_plan_id":"cebpf4jnsgd1na2vs0mg"},{"bike_id":"8d3cb6c5-a99f-4284-b3ab-680f993bda5d","system_id":"levelo_inurba_marseille","lat":43.29688,"lon":5.37921,"is_reserved":false,"is_disabled":false,"rental_uris":{"android":"levelo://app?vid=8d3cb6c5-a99f-4284-b3ab-680f993bda5d","ios":"levelo://app?vid=8d3cb6c5-a99f-4284-b3ab-680f993bda5d"},"vehicle_type_id":"4","last_reported":1715893681,"current_range_meters":3200,"station_id":"","pricing_plan_id":"cebpf4jnsgd1na2vs0mg"},{"bike_id":"167ea478-0713-424e-9783-d43035864822","system_id":"levelo_inurba_marseille","lat":43.299707,"lon":5.384859,"is_reserved":false,"is_disabled":false,"rental_uris":{"android":"levelo://app?vid=167ea478-0713-424e-9783-d43035864822","ios":"levelo://app?vid=167ea478-0713-424e-9783-d43035864822"},"vehicle_type_id":"4","last_reported":1715893681,"current_range_meters":800,"station_id":"ce4bgj92rcd13ifvqbd0","pricing_plan_id":"cebpf4jnsgd1na2vs0mg"},{"bike_id":"2b4bd628-a696-46a5-a5b5-e671cf29310d","system_id":"levelo_inurba_marseille","lat":43.299717,"lon":5.384845,"is_reserved":false,"is_disabled":false,"rental_uris":{"android":"levelo://app?vid=2b4bd628-a696-46a5-a5b5-e671cf29310d","ios":"levelo://app?vid=2b4bd628-a696-46a5-a5b5-e671cf29310d"},"vehicle_type_id":"4","last_reported":1715893681,"current_range_meters":7200,"station_id":"ce4bgj92rcd13ifvqbd0","pricing_plan_id":"cebpf4jnsgd1na2vs0mg"},{"bike_id":"158b2f40-b4de-412e-87bb-0dfae0606566","system_id":"levelo_inurba_marseille","lat":43.299717,"lon":5.384845,"is_reserved":false,"is_disabled":false,"rental_uris":{"android":"levelo://app?vid=158b2f40-b4de-412e-87bb-0dfae0606566","ios":"levelo://app?vid=158b2f40-b4de-412e-87bb-0dfae0606566"},"vehicle_type_id":"4","last_reported":1715893681,"current_range_meters":400,"station_id":"ce4bgj92rcd13ifvqbd0","pricing_plan_id":"cebpf4jnsgd1na2vs0mg"},{"bike_id":"53595634-5684-4360-a9d7-e95732cb5373","system_id":"levelo_inurba_marseille","lat":43.29495,"lon":5.37397,"is_reserved":false,"is_disabled":false,"rental_uris":{"android":"levelo://app?vid=53595634-5684-4360-a9d7-e95732cb5373","ios":"levelo://app?vid=53595634-5684-4360-a9d7-e95732cb5373"},"vehicle_type_id":"4","last_reported":1715893681,"current_range_meters":24000,"station_id":"","pricing_plan_id":"cebpf4jnsgd1na2vs0mg"},{"bike_id":"8a260ea9-3f84-4a24-b739-3925c0c69077","system_id":"levelo_inurba_marseille","lat":43.323611,"lon":5.388777,"is_reserved":false,"is_disabled":false,"rental_uris":{"android":"levelo://app?vid=8a260ea9-3f84-4a24-b739-3925c0c69077","ios":"levelo://app?vid=8a260ea9-3f84-4a24-b739-3925c0c69077"},"vehicle_type_id":"4","last_reported":1715893681,"current_range_meters":1200,"station_id":"ce4bhqp2rcd13ifvqhog","pricing_plan_id":"cebpf4jnsgd1na2vs0mg"},{"bike_id":"fb45128d-a139-4ee8-b56a-382d48d14156","system_id":"levelo_inurba_marseille","lat":43.32361,"lon":5.38885,"is_reserved":false,"is_disabled":false,"rental_uris":{"android":"levelo://app?vid=fb45128d-a139-4ee8-b56a-382d48d14156","ios":"levelo://app?vid=fb45128d-a139-4ee8-b56a-382d48d14156"},"vehicle_type_id":"4","last_reported":1715893681,"current_range_meters":3600,"station_id":"ce4bhqp2rcd13ifvqhog","pricing_plan_id":"cebpf4jnsgd1na2vs0mg"},{"bike_id":"1714363d-4721-4693-b457-887770a196b9","system_id":"levelo_inurba_marseille","lat":43.32367,"lon":5.38885,"is_reserved":false,"is_disabled":false,"rental_uris":{"android":"levelo://app?vid=1714363d-4721-4693-b457-887770a196b9","ios":"levelo://app?vid=1714363d-4721-4693-b457-887770a196b9"},"vehicle_type_id":"4","last_reported":1715893681,"current_range_meters":14400,"station_id":"ce4bhqp2rcd13ifvqhog","pricing_plan_id":"cebpf4jnsgd1na2vs0mg"},{"bike_id":"20148224-2b5e-4e33-83b6-26a456194df7","system_id":"levelo_inurba_marseille","lat":43.32366,"lon":5.38886,"is_reserved":false,"is_disabled":false,"rental_uris":{"android":"levelo://app?vid=20148224-2b5e-4e33-83b6-26a456194df7","ios":"levelo://app?vid=20148224-2b5e-4e33-83b6-26a456194df7"},"vehicle_type_id":"4","last_reported":1715893681,"current_range_meters":6400,"station_id":"ce4bhqp2rcd13ifvqhog","pricing_plan_id":"cebpf4jnsgd1na2vs0mg"},{"bike_id":"8acf44be-3023-4d9a-9fbe-e438f63062a0","system_id":"levelo_inurba_marseille","lat":43.32367,"lon":5.388836,"is_reserved":false,"is_disabled":false,"rental_uris":{"android":"levelo://app?vid=8acf44be-3023-4d9a-9fbe-e438f63062a0","ios":"levelo://app?vid=8acf44be-3023-4d9a-9fbe-e438f63062a0"},"vehicle_type_id":"4","last_reported":1715893681,"current_range_meters":4800,"station_id":"ce4bhqp2rcd13ifvqhog","pricing_plan_id":"cebpf4jnsgd1na2vs0mg"},{"bike_id":"acd0b809-79e3-4991-8789-a38812ccd4e3","system_id":"levelo_inurba_marseille","lat":43.32368,"lon":5.388873,"is_reserved":false,"is_disabled":false,"rental_uris":{"android":"levelo://app?vid=acd0b809-79e3-4991-8789-a38812ccd4e3","ios":"levelo://app?vid=acd0b809-79e3-4991-8789-a38812ccd4e3"},"vehicle_type_id":"4","last_reported":1715893681,"current_range_meters":0,"station_id":"ce4bhqp2rcd13ifvqhog","pricing_plan_id":"cebpf4jnsgd1na2vs0mg"},{"bike_id":"6435ad58-f777-4a78-be28-2a7a1b38cdcf","system_id":"levelo_inurba_marseille","lat":43.296,"lon":5.38095,"is_reserved":false,"is_disabled":false,"rental_uris":{"android":"levelo://app?vid=6435ad58-f777-4a78-be28-2a7a1b38cdcf","ios":"levelo://app?vid=6435ad58-f777-4a78-be28-2a7a1b38cdcf"},"vehicle_type_id":"4","last_reported":1715893681,"current_range_meters":24000,"station_id":"ce4bgl12rcd13ifvqbo0","pricing_plan_id":"cebpf4jnsgd1na2vs0mg"},{"bike_id":"f8573aee-7438-4612-bedf-aca282876aaa","system_id":"levelo_inurba_marseille","lat":43.293057,"lon":5.371723,"is_reserved":false,"is_disabled":false,"rental_uris":{"android":"levelo://app?vid=f8573aee-7438-4612-bedf-aca282876aaa","ios":"levelo://app?vid=f8573aee-7438-4612-bedf-aca282876aaa"},"vehicle_type_id":"4","last_reported":1715893681,"current_range_meters":0,"station_id":"ce4bgh92rcd13ifvqb40","pricing_plan_id":"cebpf4jnsgd1na2vs0mg"},{"bike_id":"e25b1e3b-14bb-429d-a8ec-239cc1452d27","system_id":"levelo_inurba_marseille","lat":43.292776,"lon":5.368461,"is_reserved":false,"is_disabled":false,"rental_uris":{"android":"levelo://app?vid=e25b1e3b-14bb-429d-a8ec-239cc1452d27","ios":"levelo://app?vid=e25b1e3b-14bb-429d-a8ec-239cc1452d27"},"vehicle_type_id":"4","last_reported":1715893681,"current_range_meters":26000,"station_id":"ce4bhbp2rcd13ifvqesg","pricing_plan_id":"cebpf4jnsgd1na2vs0mg"},{"bike_id":"91b540d6-a39e-45d1-8ce9-b8764febb88b","system_id":"levelo_inurba_marseille","lat":43.292749,"lon":5.368402,"is_reserved":false,"is_disabled":false,"rental_uris":{"android":"levelo://app?vid=91b540d6-a39e-45d1-8ce9-b8764febb88b","ios":"levelo://app?vid=91b540d6-a39e-45d1-8ce9-b8764febb88b"},"vehicle_type_id":"4","last_reported":1715893681,"current_range_meters":0,"station_id":"ce4bhbp2rcd13ifvqesg","pricing_plan_id":"cebpf4jnsgd1na2vs0mg"},{"bike_id":"f97b7114-9f2d-417b-b21c-4de5e3e2b708","system_id":"levelo_inurba_marseille","lat":43.292749,"lon":5.368402,"is_reserved":false,"is_disabled":false,"rental_uris":{"android":"levelo://app?vid=f97b7114-9f2d-417b-b21c-4de5e3e2b708","ios":"levelo://app?vid=f97b7114-9f2d-417b-b21c-4de5e3e2b708"},"vehicle_type_id":"4","last_reported":1715893681,"current_range_meters":0,"station_id":"ce4bhbp2rcd13ifvqesg","pricing_plan_id":"cebpf4jnsgd1na2vs0mg"},{"bike_id":"4d2af49b-e8b7-40fc-b2cf-9818b70c579f","system_id":"levelo_inurba_marseille","lat":43.305994,"lon":5.393687,"is_reserved":false,"is_disabled":false,"rental_uris":{"android":"levelo://app?vid=4d2af49b-e8b7-40fc-b2cf-9818b70c579f","ios":"levelo://app?vid=4d2af49b-e8b7-40fc-b2cf-9818b70c579f"},"vehicle_type_id":"4","last_reported":1715893681,"current_range_meters":2800,"station_id":"ce4bh0p2rcd13ifvqd80","pricing_plan_id":"cebpf4jnsgd1na2vs0mg"},{"bike_id":"0b731abf-43a1-44fe-9a38-9688f6a6114b","system_id":"levelo_inurba_marseille","lat":43.29304,"lon":5.3746,"is_reserved":false,"is_disabled":false,"rental_uris":{"android":"levelo://app?vid=0b731abf-43a1-44fe-9a38-9688f6a6114b","ios":"levelo://app?vid=0b731abf-43a1-44fe-9a38-9688f6a6114b"},"vehicle_type_id":"4","last_reported":1715893681,"current_range_meters":0,"station_id":"ce4bgi12rcd13ifvqb70","pricing_plan_id":"cebpf4jnsgd1na2vs0mg"},{"bike_id":"7b7364fa-e23d-4479-af12-2e6a4f11c879","system_id":"levelo_inurba_marseille","lat":43.293009,"lon":5.374584,"is_reserved":false,"is_disabled":false,"rental_uris":{"android":"levelo://app?vid=7b7364fa-e23d-4479-af12-2e6a4f11c879","ios":"levelo://app?vid=7b7364fa-e23d-4479-af12-2e6a4f11c879"},"vehicle_type_id":"4","last_reported":1715893681,"current_range_meters":27200,"station_id":"ce4bgi12rcd13ifvqb70","pricing_plan_id":"cebpf4jnsgd1na2vs0mg"},{"bike_id":"dd399350-da3a-49ca-91d0-1f20fa05f317","system_id":"levelo_inurba_marseille","lat":43.293009,"lon":5.374584,"is_reserved":false,"is_disabled":false,"rental_uris":{"android":"levelo://app?vid=dd399350-da3a-49ca-91d0-1f20fa05f317","ios":"levelo://app?vid=dd399350-da3a-49ca-91d0-1f20fa05f317"},"vehicle_type_id":"4","last_reported":1715893681,"current_range_meters":7600,"station_id":"ce4bgi12rcd13ifvqb70","pricing_plan_id":"cebpf4jnsgd1na2vs0mg"},{"bike_id":"754d7c3c-6b89-4813-b08c-298e522f2692","system_id":"levelo_inurba_marseille","lat":43.305994,"lon":5.393687,"is_reserved":false,"is_disabled":false,"rental_uris":{"android":"levelo://app?vid=754d7c3c-6b89-4813-b08c-298e522f2692","ios":"levelo://app?vid=754d7c3c-6b89-4813-b08c-298e522f2692"},"vehicle_type_id":"4","last_reported":1715893681,"current_range_meters":0,"station_id":"ce4bh0p2rcd13ifvqd80","pricing_plan_id":"cebpf4jnsgd1na2vs0mg"},{"bike_id":"dd8b3b18-5e31-4292-8a83-566bf24c75f2","system_id":"levelo_inurba_marseille","lat":43.29293,"lon":5.37447,"is_reserved":false,"is_disabled":false,"rental_uris":{"android":"levelo://app?vid=dd8b3b18-5e31-4292-8a83-566bf24c75f2","ios":"levelo://app?vid=dd8b3b18-5e31-4292-8a83-566bf24c75f2"},"vehicle_type_id":"4","last_reported":1715893681,"current_range_meters":0,"station_id":"ce4bgi12rcd13ifvqb70","pricing_plan_id":"cebpf4jnsgd1na2vs0mg"},{"bike_id":"9a011d96-54c2-48c8-a235-995df00a336f","system_id":"levelo_inurba_marseille","lat":43.293009,"lon":5.374584,"is_reserved":false,"is_disabled":false,"rental_uris":{"android":"levelo://app?vid=9a011d96-54c2-48c8-a235-995df00a336f","ios":"levelo://app?vid=9a011d96-54c2-48c8-a235-995df00a336f"},"vehicle_type_id":"4","last_reported":1715893681,"current_range_meters":17200,"station_id":"ce4bgi12rcd13ifvqb70","pricing_plan_id":"cebpf4jnsgd1na2vs0mg"},{"bike_id":"d487abc1-75c9-448b-9fc8-d601545b6b59","system_id":"levelo_inurba_marseille","lat":43.293009,"lon":5.374584,"is_reserved":false,"is_disabled":false,"rental_uris":{"android":"levelo://app?vid=d487abc1-75c9-448b-9fc8-d601545b6b59","ios":"levelo://app?vid=d487abc1-75c9-448b-9fc8-d601545b6b59"},"vehicle_type_id":"4","last_reported":1715893681,"current_range_meters":10400,"station_id":"ce4bgi12rcd13ifvqb70","pricing_plan_id":"cebpf4jnsgd1na2vs0mg"},{"bike_id":"acb5467f-4f07-49f0-8729-8874fe498c01","system_id":"levelo_inurba_marseille","lat":43.305994,"lon":5.393687,"is_reserved":false,"is_disabled":false,"rental_uris":{"android":"levelo://app?vid=acb5467f-4f07-49f0-8729-8874fe498c01","ios":"levelo://app?vid=acb5467f-4f07-49f0-8729-8874fe498c01"},"vehicle_type_id":"4","last_reported":1715893681,"current_range_meters":23600,"station_id":"ce4bh0p2rcd13ifvqd80","pricing_plan_id":"cebpf4jnsgd1na2vs0mg"},{"bike_id":"6c3d8d6f-2476-497a-bd6e-7874ecc7fc85","system_id":"levelo_inurba_marseille","lat":43.298959,"lon":5.388327,"is_reserved":false,"is_disabled":false,"rental_uris":{"android":"levelo://app?vid=6c3d8d6f-2476-497a-bd6e-7874ecc7fc85","ios":"levelo://app?vid=6c3d8d6f-2476-497a-bd6e-7874ecc7fc85"},"vehicle_type_id":"4","last_reported":1715893681,"current_range_meters":8000,"station_id":"","pricing_plan_id":"cebpf4jnsgd1na2vs0mg"},{"bike_id":"0f4a25b1-c8ea-4995-acae-779c3fd4b59a","system_id":"levelo_inurba_marseille","lat":43.30085,"lon":5.390856,"is_reserved":false,"is_disabled":false,"rental_uris":{"android":"levelo://app?vid=0f4a25b1-c8ea-4995-acae-779c3fd4b59a","ios":"levelo://app?vid=0f4a25b1-c8ea-4995-acae-779c3fd4b59a"},"vehicle_type_id":"4","last_reported":1715893681,"current_range_meters":26800,"station_id":"ce4bh192rcd13ifvqdb0","pricing_plan_id":"cebpf4jnsgd1na2vs0mg"},{"bike_id":"6414d912-ae8d-4545-8049-329c7a35e09b","system_id":"levelo_inurba_marseille","lat":43.300852,"lon":5.390859,"is_reserved":false,"is_disabled":false,"rental_uris":{"android":"levelo://app?vid=6414d912-ae8d-4545-8049-329c7a35e09b","ios":"levelo://app?vid=6414d912-ae8d-4545-8049-329c7a35e09b"},"vehicle_type_id":"4","last_reported":1715893681,"current_range_meters":24400,"station_id":"ce4bh192rcd13ifvqdb0","pricing_plan_id":"cebpf4jnsgd1na2vs0mg"},{"bike_id":"c3c72ee7-c824-420d-a9b2-85857c552c7c","system_id":"levelo_inurba_marseille","lat":43.298764,"lon":5.388973,"is_reserved":false,"is_disabled":false,"rental_uris":{"android":"levelo://app?vid=c3c72ee7-c824-420d-a9b2-85857c552c7c","ios":"levelo://app?vid=c3c72ee7-c824-420d-a9b2-85857c552c7c"},"vehicle_type_id":"4","last_reported":1715893681,"current_range_meters":0,"station_id":"ce4bh392rcd13ifvqdl0","pricing_plan_id":"cebpf4jnsgd1na2vs0mg"},{"bike_id":"6ced2aca-84eb-4bfe-aca3-5e22cca20431","system_id":"levelo_inurba_marseille","lat":43.298681,"lon":5.397225,"is_reserved":false,"is_disabled":false,"rental_uris":{"android":"levelo://app?vid=6ced2aca-84eb-4bfe-aca3-5e22cca20431","ios":"levelo://app?vid=6ced2aca-84eb-4bfe-aca3-5e22cca20431"},"vehicle_type_id":"4","last_reported":1715893681,"current_range_meters":21200,"station_id":"ce4bh0h2rcd13ifvqd50","pricing_plan_id":"cebpf4jnsgd1na2vs0mg"},{"bike_id":"651097d3-5905-4dfa-96c5-068d705b372a","system_id":"levelo_inurba_marseille","lat":43.298764,"lon":5.388973,"is_reserved":false,"is_disabled":false,"rental_uris":{"android":"levelo://app?vid=651097d3-5905-4dfa-96c5-068d705b372a","ios":"levelo://app?vid=651097d3-5905-4dfa-96c5-068d705b372a"},"vehicle_type_id":"4","last_reported":1715893681,"current_range_meters":5200,"station_id":"ce4bh392rcd13ifvqdl0","pricing_plan_id":"cebpf4jnsgd1na2vs0mg"},{"bike_id":"331f0a3e-3d9e-4d5c-9a7b-c3fcfe82db64","system_id":"levelo_inurba_marseille","lat":43.298764,"lon":5.388973,"is_reserved":false,"is_disabled":false,"rental_uris":{"android":"levelo://app?vid=331f0a3e-3d9e-4d5c-9a7b-c3fcfe82db64","ios":"levelo://app?vid=331f0a3e-3d9e-4d5c-9a7b-c3fcfe82db64"},"vehicle_type_id":"4","last_reported":1715893681,"current_range_meters":5200,"station_id":"ce4bh392rcd13ifvqdl0","pricing_plan_id":"cebpf4jnsgd1na2vs0mg"},{"bike_id":"41af6e22-a9b9-42b7-b47a-bb62f04a6f6d","system_id":"levelo_inurba_marseille","lat":43.298764,"lon":5.388973,"is_reserved":false,"is_disabled":false,"rental_uris":{"android":"levelo://app?vid=41af6e22-a9b9-42b7-b47a-bb62f04a6f6d","ios":"levelo://app?vid=41af6e22-a9b9-42b7-b47a-bb62f04a6f6d"},"vehicle_type_id":"4","last_reported":1715893681,"current_range_meters":0,"station_id":"ce4bh392rcd13ifvqdl0","pricing_plan_id":"cebpf4jnsgd1na2vs0mg"},{"bike_id":"93bd1964-1cdd-446d-8cbf-d52506af5c33","system_id":"levelo_inurba_marseille","lat":43.298764,"lon":5.388973,"is_reserved":false,"is_disabled":false,"rental_uris":{"android":"levelo://app?vid=93bd1964-1cdd-446d-8cbf-d52506af5c33","ios":"levelo://app?vid=93bd1964-1cdd-446d-8cbf-d52506af5c33"},"vehicle_type_id":"4","last_reported":1715893681,"current_range_meters":4000,"station_id":"ce4bh392rcd13ifvqdl0","pricing_plan_id":"cebpf4jnsgd1na2vs0mg"},{"bike_id":"cacd0339-530e-49d7-8f7c-f469fa06548c","system_id":"levelo_inurba_marseille","lat":43.298764,"lon":5.388973,"is_reserved":false,"is_disabled":false,"rental_uris":{"android":"levelo://app?vid=cacd0339-530e-49d7-8f7c-f469fa06548c","ios":"levelo://app?vid=cacd0339-530e-49d7-8f7c-f469fa06548c"},"vehicle_type_id":"4","last_reported":1715893681,"current_range_meters":12400,"station_id":"ce4bh392rcd13ifvqdl0","pricing_plan_id":"cebpf4jnsgd1na2vs0mg"},{"bike_id":"c85a3be7-6bf3-4544-872a-2aa36957affd","system_id":"levelo_inurba_marseille","lat":43.298784,"lon":5.389114,"is_reserved":false,"is_disabled":false,"rental_uris":{"android":"levelo://app?vid=c85a3be7-6bf3-4544-872a-2aa36957affd","ios":"levelo://app?vid=c85a3be7-6bf3-4544-872a-2aa36957affd"},"vehicle_type_id":"4","last_reported":1715893681,"current_range_meters":4000,"station_id":"ce4bh392rcd13ifvqdl0","pricing_plan_id":"cebpf4jnsgd1na2vs0mg"},{"bike_id":"8c7509d7-5b17-4ad1-aa02-239b94de4324","system_id":"levelo_inurba_marseille","lat":43.313291,"lon":5.396838,"is_reserved":false,"is_disabled":false,"rental_uris":{"android":"levelo://app?vid=8c7509d7-5b17-4ad1-aa02-239b94de4324","ios":"levelo://app?vid=8c7509d7-5b17-4ad1-aa02-239b94de4324"},"vehicle_type_id":"4","last_reported":1715893681,"current_range_meters":8800,"station_id":"ce4bgvp2rcd13ifvqcu0","pricing_plan_id":"cebpf4jnsgd1na2vs0mg"},{"bike_id":"fdbfd37e-ebab-42a8-8831-d2d4f352551e","system_id":"levelo_inurba_marseille","lat":43.313291,"lon":5.396838,"is_reserved":false,"is_disabled":false,"rental_uris":{"android":"levelo://app?vid=fdbfd37e-ebab-42a8-8831-d2d4f352551e","ios":"levelo://app?vid=fdbfd37e-ebab-42a8-8831-d2d4f352551e"},"vehicle_type_id":"4","last_reported":1715893681,"current_range_meters":24000,"station_id":"ce4bgvp2rcd13ifvqcu0","pricing_plan_id":"cebpf4jnsgd1na2vs0mg"},{"bike_id":"1a80ca7a-47a2-4ffd-99d1-c0d5cd7d8c77","system_id":"levelo_inurba_marseille","lat":43.309038,"lon":5.396546,"is_reserved":false,"is_disabled":false,"rental_uris":{"android":"levelo://app?vid=1a80ca7a-47a2-4ffd-99d1-c0d5cd7d8c77","ios":"levelo://app?vid=1a80ca7a-47a2-4ffd-99d1-c0d5cd7d8c77"},"vehicle_type_id":"4","last_reported":1715893681,"current_range_meters":8000,"station_id":"ce4bh012rcd13ifvqcv0","pricing_plan_id":"cebpf4jnsgd1na2vs0mg"},{"bike_id":"e93a772c-c898-4eca-a6f7-e5f0bcedd3a4","system_id":"levelo_inurba_marseille","lat":43.308898,"lon":5.396437,"is_reserved":false,"is_disabled":false,"rental_uris":{"android":"levelo://app?vid=e93a772c-c898-4eca-a6f7-e5f0bcedd3a4","ios":"levelo://app?vid=e93a772c-c898-4eca-a6f7-e5f0bcedd3a4"},"vehicle_type_id":"4","last_reported":1715893681,"current_range_meters":800,"station_id":"ce4bh012rcd13ifvqcv0","pricing_plan_id":"cebpf4jnsgd1na2vs0mg"},{"bike_id":"435611a6-9904-4e47-bce9-4ba75cd167e5","system_id":"levelo_inurba_marseille","lat":43.308812,"lon":5.396458,"is_reserved":false,"is_disabled":false,"rental_uris":{"android":"levelo://app?vid=435611a6-9904-4e47-bce9-4ba75cd167e5","ios":"levelo://app?vid=435611a6-9904-4e47-bce9-4ba75cd167e5"},"vehicle_type_id":"4","last_reported":1715893681,"current_range_meters":0,"station_id":"ce4bh012rcd13ifvqcv0","pricing_plan_id":"cebpf4jnsgd1na2vs0mg"},{"bike_id":"4f018045-d7b2-41e3-b05b-56aa43853c70","system_id":"levelo_inurba_marseille","lat":43.313291,"lon":5.396838,"is_reserved":false,"is_disabled":false,"rental_uris":{"android":"levelo://app?vid=4f018045-d7b2-41e3-b05b-56aa43853c70","ios":"levelo://app?vid=4f018045-d7b2-41e3-b05b-56aa43853c70"},"vehicle_type_id":"4","last_reported":1715893681,"current_range_meters":5600,"station_id":"ce4bgvp2rcd13ifvqcu0","pricing_plan_id":"cebpf4jnsgd1na2vs0mg"},{"bike_id":"ffe16b81-9f61-4746-aef9-96c69a293077","system_id":"levelo_inurba_marseille","lat":43.309038,"lon":5.396546,"is_reserved":false,"is_disabled":false,"rental_uris":{"android":"levelo://app?vid=ffe16b81-9f61-4746-aef9-96c69a293077","ios":"levelo://app?vid=ffe16b81-9f61-4746-aef9-96c69a293077"},"vehicle_type_id":"4","last_reported":1715893681,"current_range_meters":23200,"station_id":"ce4bh012rcd13ifvqcv0","pricing_plan_id":"cebpf4jnsgd1na2vs0mg"},{"bike_id":"41f73424-7192-47dd-a48f-5f1f0324ac6d","system_id":"levelo_inurba_marseille","lat":43.308846,"lon":5.396552,"is_reserved":false,"is_disabled":false,"rental_uris":{"android":"levelo://app?vid=41f73424-7192-47dd-a48f-5f1f0324ac6d","ios":"levelo://app?vid=41f73424-7192-47dd-a48f-5f1f0324ac6d"},"vehicle_type_id":"4","last_reported":1715893681,"current_range_meters":1600,"station_id":"ce4bh012rcd13ifvqcv0","pricing_plan_id":"cebpf4jnsgd1na2vs0mg"},{"bike_id":"1a7f10df-a8fd-42e5-848d-30f1fee12fe6","system_id":"levelo_inurba_marseille","lat":43.29529,"lon":5.385581,"is_reserved":false,"is_disabled":false,"rental_uris":{"android":"levelo://app?vid=1a7f10df-a8fd-42e5-848d-30f1fee12fe6","ios":"levelo://app?vid=1a7f10df-a8fd-42e5-848d-30f1fee12fe6"},"vehicle_type_id":"4","last_reported":1715893681,"current_range_meters":24000,"station_id":"ce4bgih2rcd13ifvqba0","pricing_plan_id":"cebpf4jnsgd1na2vs0mg"},{"bike_id":"d87f784d-5353-468e-b28f-b2377dd2c931","system_id":"levelo_inurba_marseille","lat":43.29529,"lon":5.385581,"is_reserved":false,"is_disabled":false,"rental_uris":{"android":"levelo://app?vid=d87f784d-5353-468e-b28f-b2377dd2c931","ios":"levelo://app?vid=d87f784d-5353-468e-b28f-b2377dd2c931"},"vehicle_type_id":"4","last_reported":1715893681,"current_range_meters":22000,"station_id":"ce4bgih2rcd13ifvqba0","pricing_plan_id":"cebpf4jnsgd1na2vs0mg"},{"bike_id":"3d6fa835-f7bc-40a0-b3a7-5f88c4611b6b","system_id":"levelo_inurba_marseille","lat":43.29535,"lon":5.38537,"is_reserved":false,"is_disabled":false,"rental_uris":{"android":"levelo://app?vid=3d6fa835-f7bc-40a0-b3a7-5f88c4611b6b","ios":"levelo://app?vid=3d6fa835-f7bc-40a0-b3a7-5f88c4611b6b"},"vehicle_type_id":"4","last_reported":1715893681,"current_range_meters":28400,"station_id":"ce4bgih2rcd13ifvqba0","pricing_plan_id":"cebpf4jnsgd1na2vs0mg"},{"bike_id":"3f88c336-a369-4133-8c88-2e7b07b65b16","system_id":"levelo_inurba_marseille","lat":43.295393,"lon":5.385482,"is_reserved":false,"is_disabled":false,"rental_uris":{"android":"levelo://app?vid=3f88c336-a369-4133-8c88-2e7b07b65b16","ios":"levelo://app?vid=3f88c336-a369-4133-8c88-2e7b07b65b16"},"vehicle_type_id":"4","last_reported":1715893681,"current_range_meters":8000,"station_id":"ce4bgih2rcd13ifvqba0","pricing_plan_id":"cebpf4jnsgd1na2vs0mg"},{"bike_id":"b43dbbe6-fc9c-45ca-94b5-2817a7e00d3a","system_id":"levelo_inurba_marseille","lat":43.29529,"lon":5.385581,"is_reserved":false,"is_disabled":false,"rental_uris":{"android":"levelo://app?vid=b43dbbe6-fc9c-45ca-94b5-2817a7e00d3a","ios":"levelo://app?vid=b43dbbe6-fc9c-45ca-94b5-2817a7e00d3a"},"vehicle_type_id":"4","last_reported":1715893681,"current_range_meters":4000,"station_id":"ce4bgih2rcd13ifvqba0","pricing_plan_id":"cebpf4jnsgd1na2vs0mg"},{"bike_id":"66b5615d-4536-44b0-be48-0c6313f1ea89","system_id":"levelo_inurba_marseille","lat":43.29531,"lon":5.38538,"is_reserved":false,"is_disabled":false,"rental_uris":{"android":"levelo://app?vid=66b5615d-4536-44b0-be48-0c6313f1ea89","ios":"levelo://app?vid=66b5615d-4536-44b0-be48-0c6313f1ea89"},"vehicle_type_id":"4","last_reported":1715893681,"current_range_meters":22000,"station_id":"ce4bgih2rcd13ifvqba0","pricing_plan_id":"cebpf4jnsgd1na2vs0mg"},{"bike_id":"8fa148ba-ec14-40bd-9413-7413e1a22197","system_id":"levelo_inurba_marseille","lat":43.29529,"lon":5.385581,"is_reserved":false,"is_disabled":false,"rental_uris":{"android":"levelo://app?vid=8fa148ba-ec14-40bd-9413-7413e1a22197","ios":"levelo://app?vid=8fa148ba-ec14-40bd-9413-7413e1a22197"},"vehicle_type_id":"4","last_reported":1715893681,"current_range_meters":6800,"station_id":"ce4bgih2rcd13ifvqba0","pricing_plan_id":"cebpf4jnsgd1na2vs0mg"},{"bike_id":"e540353e-0537-47b3-bb95-9643c7fb27dc","system_id":"levelo_inurba_marseille","lat":43.29529,"lon":5.385581,"is_reserved":false,"is_disabled":false,"rental_uris":{"android":"levelo://app?vid=e540353e-0537-47b3-bb95-9643c7fb27dc","ios":"levelo://app?vid=e540353e-0537-47b3-bb95-9643c7fb27dc"},"vehicle_type_id":"4","last_reported":1715893681,"current_range_meters":24800,"station_id":"ce4bgih2rcd13ifvqba0","pricing_plan_id":"cebpf4jnsgd1na2vs0mg"},{"bike_id":"7522c5a7-a4fe-41e7-ae7b-6c7db788f038","system_id":"levelo_inurba_marseille","lat":43.29529,"lon":5.385581,"is_reserved":false,"is_disabled":false,"rental_uris":{"android":"levelo://app?vid=7522c5a7-a4fe-41e7-ae7b-6c7db788f038","ios":"levelo://app?vid=7522c5a7-a4fe-41e7-ae7b-6c7db788f038"},"vehicle_type_id":"4","last_reported":1715893681,"current_range_meters":0,"station_id":"ce4bgih2rcd13ifvqba0","pricing_plan_id":"cebpf4jnsgd1na2vs0mg"},{"bike_id":"74306da5-2a55-4b00-b7d8-2059d8d946ab","system_id":"levelo_inurba_marseille","lat":43.2954,"lon":5.3856,"is_reserved":false,"is_disabled":false,"rental_uris":{"android":"levelo://app?vid=74306da5-2a55-4b00-b7d8-2059d8d946ab","ios":"levelo://app?vid=74306da5-2a55-4b00-b7d8-2059d8d946ab"},"vehicle_type_id":"4","last_reported":1715893681,"current_range_meters":27600,"station_id":"ce4bgih2rcd13ifvqba0","pricing_plan_id":"cebpf4jnsgd1na2vs0mg"},{"bike_id":"d461c7eb-44c8-4a4e-aa3d-18d3c4355ade","system_id":"levelo_inurba_marseille","lat":43.29529,"lon":5.385581,"is_reserved":false,"is_disabled":false,"rental_uris":{"android":"levelo://app?vid=d461c7eb-44c8-4a4e-aa3d-18d3c4355ade","ios":"levelo://app?vid=d461c7eb-44c8-4a4e-aa3d-18d3c4355ade"},"vehicle_type_id":"4","last_reported":1715893681,"current_range_meters":13200,"station_id":"ce4bgih2rcd13ifvqba0","pricing_plan_id":"cebpf4jnsgd1na2vs0mg"},{"bike_id":"e0c0d55a-ef66-442d-ab2d-cfc8b4535518","system_id":"levelo_inurba_marseille","lat":43.29535,"lon":5.38555,"is_reserved":false,"is_disabled":false,"rental_uris":{"android":"levelo://app?vid=e0c0d55a-ef66-442d-ab2d-cfc8b4535518","ios":"levelo://app?vid=e0c0d55a-ef66-442d-ab2d-cfc8b4535518"},"vehicle_type_id":"4","last_reported":1715893681,"current_range_meters":28000,"station_id":"ce4bgih2rcd13ifvqba0","pricing_plan_id":"cebpf4jnsgd1na2vs0mg"},{"bike_id":"478676e7-c19f-4bde-a360-1f9bf60f601c","system_id":"levelo_inurba_marseille","lat":43.29529,"lon":5.385581,"is_reserved":false,"is_disabled":false,"rental_uris":{"android":"levelo://app?vid=478676e7-c19f-4bde-a360-1f9bf60f601c","ios":"levelo://app?vid=478676e7-c19f-4bde-a360-1f9bf60f601c"},"vehicle_type_id":"4","last_reported":1715893681,"current_range_meters":28400,"station_id":"ce4bgih2rcd13ifvqba0","pricing_plan_id":"cebpf4jnsgd1na2vs0mg"},{"bike_id":"9e1613e9-67a5-476e-9a28-8447ad49b754","system_id":"levelo_inurba_marseille","lat":43.29534,"lon":5.38554,"is_reserved":false,"is_disabled":false,"rental_uris":{"android":"levelo://app?vid=9e1613e9-67a5-476e-9a28-8447ad49b754","ios":"levelo://app?vid=9e1613e9-67a5-476e-9a28-8447ad49b754"},"vehicle_type_id":"4","last_reported":1715893681,"current_range_meters":24400,"station_id":"ce4bgih2rcd13ifvqba0","pricing_plan_id":"cebpf4jnsgd1na2vs0mg"},{"bike_id":"1f3fb231-a6fc-4397-b5cc-050b1a23ba56","system_id":"levelo_inurba_marseille","lat":43.29533,"lon":5.38554,"is_reserved":false,"is_disabled":false,"rental_uris":{"android":"levelo://app?vid=1f3fb231-a6fc-4397-b5cc-050b1a23ba56","ios":"levelo://app?vid=1f3fb231-a6fc-4397-b5cc-050b1a23ba56"},"vehicle_type_id":"4","last_reported":1715893681,"current_range_meters":4000,"station_id":"ce4bgih2rcd13ifvqba0","pricing_plan_id":"cebpf4jnsgd1na2vs0mg"},{"bike_id":"42872ed5-892a-430d-81b9-6ac39cc57e38","system_id":"levelo_inurba_marseille","lat":43.29529,"lon":5.38548,"is_reserved":false,"is_disabled":false,"rental_uris":{"android":"levelo://app?vid=42872ed5-892a-430d-81b9-6ac39cc57e38","ios":"levelo://app?vid=42872ed5-892a-430d-81b9-6ac39cc57e38"},"vehicle_type_id":"4","last_reported":1715893681,"current_range_meters":0,"station_id":"ce4bgih2rcd13ifvqba0","pricing_plan_id":"cebpf4jnsgd1na2vs0mg"},{"bike_id":"8113e269-d205-4b68-b8fb-89a1a1c4883e","system_id":"levelo_inurba_marseille","lat":43.295276,"lon":5.38552,"is_reserved":false,"is_disabled":false,"rental_uris":{"android":"levelo://app?vid=8113e269-d205-4b68-b8fb-89a1a1c4883e","ios":"levelo://app?vid=8113e269-d205-4b68-b8fb-89a1a1c4883e"},"vehicle_type_id":"4","last_reported":1715893681,"current_range_meters":2000,"station_id":"ce4bgih2rcd13ifvqba0","pricing_plan_id":"cebpf4jnsgd1na2vs0mg"},{"bike_id":"8892001a-b95b-4aad-b484-1a397cd15e91","system_id":"levelo_inurba_marseille","lat":43.295271,"lon":5.385776,"is_reserved":false,"is_disabled":false,"rental_uris":{"android":"levelo://app?vid=8892001a-b95b-4aad-b484-1a397cd15e91","ios":"levelo://app?vid=8892001a-b95b-4aad-b484-1a397cd15e91"},"vehicle_type_id":"4","last_reported":1715893681,"current_range_meters":21600,"station_id":"ce4bgih2rcd13ifvqba0","pricing_plan_id":"cebpf4jnsgd1na2vs0mg"},{"bike_id":"62565632-b1b8-499b-82e0-a7237933f8f1","system_id":"levelo_inurba_marseille","lat":43.290779,"lon":5.371482,"is_reserved":false,"is_disabled":false,"rental_uris":{"android":"levelo://app?vid=62565632-b1b8-499b-82e0-a7237933f8f1","ios":"levelo://app?vid=62565632-b1b8-499b-82e0-a7237933f8f1"},"vehicle_type_id":"4","last_reported":1715893681,"current_range_meters":26400,"station_id":"ce4bh5p2rcd13ifvqe4g","pricing_plan_id":"cebpf4jnsgd1na2vs0mg"},{"bike_id":"4ad42614-7f3b-44d2-a9b3-c3d9203efc4a","system_id":"levelo_inurba_marseille","lat":43.295105,"lon":5.385717,"is_reserved":false,"is_disabled":false,"rental_uris":{"android":"levelo://app?vid=4ad42614-7f3b-44d2-a9b3-c3d9203efc4a","ios":"levelo://app?vid=4ad42614-7f3b-44d2-a9b3-c3d9203efc4a"},"vehicle_type_id":"4","last_reported":1715893681,"current_range_meters":22800,"station_id":"ce4bgih2rcd13ifvqba0","pricing_plan_id":"cebpf4jnsgd1na2vs0mg"},{"bike_id":"5e5a3e5c-8de1-45e3-a186-e7f623ba3c89","system_id":"levelo_inurba_marseille","lat":43.289184,"lon":5.366408,"is_reserved":false,"is_disabled":false,"rental_uris":{"android":"levelo://app?vid=5e5a3e5c-8de1-45e3-a186-e7f623ba3c89","ios":"levelo://app?vid=5e5a3e5c-8de1-45e3-a186-e7f623ba3c89"},"vehicle_type_id":"4","last_reported":1715893681,"current_range_meters":0,"station_id":"ce4bhap2rcd13ifvqek0","pricing_plan_id":"cebpf4jnsgd1na2vs0mg"},{"bike_id":"8c42ff65-3b2d-4b49-b6a7-49204564b570","system_id":"levelo_inurba_marseille","lat":43.302008,"lon":5.394694,"is_reserved":false,"is_disabled":false,"rental_uris":{"android":"levelo://app?vid=8c42ff65-3b2d-4b49-b6a7-49204564b570","ios":"levelo://app?vid=8c42ff65-3b2d-4b49-b6a7-49204564b570"},"vehicle_type_id":"4","last_reported":1715893681,"current_range_meters":0,"station_id":"ce4bh0p2rcd13ifvqd70","pricing_plan_id":"cebpf4jnsgd1na2vs0mg"},{"bike_id":"ae01442a-3bbf-49fb-9211-cca4fce07056","system_id":"levelo_inurba_marseille","lat":43.29047,"lon":5.35909,"is_reserved":false,"is_disabled":false,"rental_uris":{"android":"levelo://app?vid=ae01442a-3bbf-49fb-9211-cca4fce07056","ios":"levelo://app?vid=ae01442a-3bbf-49fb-9211-cca4fce07056"},"vehicle_type_id":"4","last_reported":1715893681,"current_range_meters":0,"station_id":"ce4bha92rcd13ifvqeg0","pricing_plan_id":"cebpf4jnsgd1na2vs0mg"},{"bike_id":"f324c8b8-55bd-4de9-aa6b-3bd3cfd1725c","system_id":"levelo_inurba_marseille","lat":43.289468,"lon":5.363719,"is_reserved":false,"is_disabled":false,"rental_uris":{"android":"levelo://app?vid=f324c8b8-55bd-4de9-aa6b-3bd3cfd1725c","ios":"levelo://app?vid=f324c8b8-55bd-4de9-aa6b-3bd3cfd1725c"},"vehicle_type_id":"4","last_reported":1715893681,"current_range_meters":15200,"station_id":"ce4bhc92rcd13ifvqetg","pricing_plan_id":"cebpf4jnsgd1na2vs0mg"},{"bike_id":"f84154d4-07b4-4a8b-ab6e-0a236b10b230","system_id":"levelo_inurba_marseille","lat":43.290319,"lon":5.375732,"is_reserved":false,"is_disabled":false,"rental_uris":{"android":"levelo://app?vid=f84154d4-07b4-4a8b-ab6e-0a236b10b230","ios":"levelo://app?vid=f84154d4-07b4-4a8b-ab6e-0a236b10b230"},"vehicle_type_id":"4","last_reported":1715893681,"current_range_meters":18400,"station_id":"ce4bh692rcd13ifvqe90","pricing_plan_id":"cebpf4jnsgd1na2vs0mg"},{"bike_id":"e8172fce-5764-4b17-8903-304c0293881e","system_id":"levelo_inurba_marseille","lat":43.29419,"lon":5.386242,"is_reserved":false,"is_disabled":false,"rental_uris":{"android":"levelo://app?vid=e8172fce-5764-4b17-8903-304c0293881e","ios":"levelo://app?vid=e8172fce-5764-4b17-8903-304c0293881e"},"vehicle_type_id":"4","last_reported":1715893681,"current_range_meters":0,"station_id":"ce4bh2h2rcd13ifvqdh0","pricing_plan_id":"cebpf4jnsgd1na2vs0mg"},{"bike_id":"03a9cd01-508b-4ca9-a0b5-e47690d9052e","system_id":"levelo_inurba_marseille","lat":43.294153,"lon":5.3862,"is_reserved":false,"is_disabled":false,"rental_uris":{"android":"levelo://app?vid=03a9cd01-508b-4ca9-a0b5-e47690d9052e","ios":"levelo://app?vid=03a9cd01-508b-4ca9-a0b5-e47690d9052e"},"vehicle_type_id":"4","last_reported":1715893681,"current_range_meters":2400,"station_id":"ce4bh2h2rcd13ifvqdh0","pricing_plan_id":"cebpf4jnsgd1na2vs0mg"},{"bike_id":"a05884b2-93d2-4161-a014-e82c5270a7dd","system_id":"levelo_inurba_marseille","lat":43.289184,"lon":5.366408,"is_reserved":false,"is_disabled":false,"rental_uris":{"android":"levelo://app?vid=a05884b2-93d2-4161-a014-e82c5270a7dd","ios":"levelo://app?vid=a05884b2-93d2-4161-a014-e82c5270a7dd"},"vehicle_type_id":"4","last_reported":1715893681,"current_range_meters":26400,"station_id":"ce4bhap2rcd13ifvqek0","pricing_plan_id":"cebpf4jnsgd1na2vs0mg"},{"bike_id":"52d25e21-26d4-412f-9609-08effde6973a","system_id":"levelo_inurba_marseille","lat":43.289184,"lon":5.366408,"is_reserved":false,"is_disabled":false,"rental_uris":{"android":"levelo://app?vid=52d25e21-26d4-412f-9609-08effde6973a","ios":"levelo://app?vid=52d25e21-26d4-412f-9609-08effde6973a"},"vehicle_type_id":"4","last_reported":1715893681,"current_range_meters":18800,"station_id":"ce4bhap2rcd13ifvqek0","pricing_plan_id":"cebpf4jnsgd1na2vs0mg"},{"bike_id":"513b8b0c-572b-4079-8026-d32e9adad40d","system_id":"levelo_inurba_marseille","lat":43.29411,"lon":5.38635,"is_reserved":false,"is_disabled":false,"rental_uris":{"android":"levelo://app?vid=513b8b0c-572b-4079-8026-d32e9adad40d","ios":"levelo://app?vid=513b8b0c-572b-4079-8026-d32e9adad40d"},"vehicle_type_id":"4","last_reported":1715893681,"current_range_meters":14800,"station_id":"ce4bh2h2rcd13ifvqdh0","pricing_plan_id":"cebpf4jnsgd1na2vs0mg"},{"bike_id":"c4421e7a-c551-4e17-b926-9d69b545c79c","system_id":"levelo_inurba_marseille","lat":43.289184,"lon":5.366408,"is_reserved":false,"is_disabled":false,"rental_uris":{"android":"levelo://app?vid=c4421e7a-c551-4e17-b926-9d69b545c79c","ios":"levelo://app?vid=c4421e7a-c551-4e17-b926-9d69b545c79c"},"vehicle_type_id":"4","last_reported":1715893681,"current_range_meters":31200,"station_id":"ce4bhap2rcd13ifvqek0","pricing_plan_id":"cebpf4jnsgd1na2vs0mg"},{"bike_id":"e002fafa-7eec-4b1b-95f1-2c0d1523f71d","system_id":"levelo_inurba_marseille","lat":43.289468,"lon":5.363719,"is_reserved":false,"is_disabled":false,"rental_uris":{"android":"levelo://app?vid=e002fafa-7eec-4b1b-95f1-2c0d1523f71d","ios":"levelo://app?vid=e002fafa-7eec-4b1b-95f1-2c0d1523f71d"},"vehicle_type_id":"4","last_reported":1715893681,"current_range_meters":14800,"station_id":"ce4bhc92rcd13ifvqetg","pricing_plan_id":"cebpf4jnsgd1na2vs0mg"},{"bike_id":"b5a43a95-aa42-499b-b624-e8ff361fdcb7","system_id":"levelo_inurba_marseille","lat":43.289468,"lon":5.363719,"is_reserved":false,"is_disabled":false,"rental_uris":{"android":"levelo://app?vid=b5a43a95-aa42-499b-b624-e8ff361fdcb7","ios":"levelo://app?vid=b5a43a95-aa42-499b-b624-e8ff361fdcb7"},"vehicle_type_id":"4","last_reported":1715893681,"current_range_meters":20800,"station_id":"ce4bhc92rcd13ifvqetg","pricing_plan_id":"cebpf4jnsgd1na2vs0mg"},{"bike_id":"163cd438-b249-49bf-a1a8-a15ab23efdd4","system_id":"levelo_inurba_marseille","lat":43.292642,"lon":5.384254,"is_reserved":false,"is_disabled":false,"rental_uris":{"android":"levelo://app?vid=163cd438-b249-49bf-a1a8-a15ab23efdd4","ios":"levelo://app?vid=163cd438-b249-49bf-a1a8-a15ab23efdd4"},"vehicle_type_id":"4","last_reported":1715893681,"current_range_meters":16000,"station_id":"ce4bh692rcd13ifvqea0","pricing_plan_id":"cebpf4jnsgd1na2vs0mg"},{"bike_id":"2645d33f-6eb2-4aec-b689-5fc2a8765844","system_id":"levelo_inurba_marseille","lat":43.292642,"lon":5.384254,"is_reserved":false,"is_disabled":false,"rental_uris":{"android":"levelo://app?vid=2645d33f-6eb2-4aec-b689-5fc2a8765844","ios":"levelo://app?vid=2645d33f-6eb2-4aec-b689-5fc2a8765844"},"vehicle_type_id":"4","last_reported":1715893681,"current_range_meters":2000,"station_id":"ce4bh692rcd13ifvqea0","pricing_plan_id":"cebpf4jnsgd1na2vs0mg"},{"bike_id":"fc4849ca-7be7-4e64-bc06-e9f226f4df07","system_id":"levelo_inurba_marseille","lat":43.29266,"lon":5.38449,"is_reserved":false,"is_disabled":false,"rental_uris":{"android":"levelo://app?vid=fc4849ca-7be7-4e64-bc06-e9f226f4df07","ios":"levelo://app?vid=fc4849ca-7be7-4e64-bc06-e9f226f4df07"},"vehicle_type_id":"4","last_reported":1715893681,"current_range_meters":12400,"station_id":"ce4bh692rcd13ifvqea0","pricing_plan_id":"cebpf4jnsgd1na2vs0mg"},{"bike_id":"ea07c267-722f-47c0-91e8-48a7bf88f1d9","system_id":"levelo_inurba_marseille","lat":43.292644,"lon":5.384257,"is_reserved":false,"is_disabled":false,"rental_uris":{"android":"levelo://app?vid=ea07c267-722f-47c0-91e8-48a7bf88f1d9","ios":"levelo://app?vid=ea07c267-722f-47c0-91e8-48a7bf88f1d9"},"vehicle_type_id":"4","last_reported":1715893681,"current_range_meters":30400,"station_id":"ce4bh692rcd13ifvqea0","pricing_plan_id":"cebpf4jnsgd1na2vs0mg"},{"bike_id":"9d7043bf-c140-4cca-b5ee-7b994bc540d8","system_id":"levelo_inurba_marseille","lat":43.292644,"lon":5.384257,"is_reserved":false,"is_disabled":false,"rental_uris":{"android":"levelo://app?vid=9d7043bf-c140-4cca-b5ee-7b994bc540d8","ios":"levelo://app?vid=9d7043bf-c140-4cca-b5ee-7b994bc540d8"},"vehicle_type_id":"4","last_reported":1715893681,"current_range_meters":9600,"station_id":"ce4bh692rcd13ifvqea0","pricing_plan_id":"cebpf4jnsgd1na2vs0mg"},{"bike_id":"e1f675dd-db2c-4886-a4ad-57111fcc2988","system_id":"levelo_inurba_marseille","lat":43.292666,"lon":5.384586,"is_reserved":false,"is_disabled":false,"rental_uris":{"android":"levelo://app?vid=e1f675dd-db2c-4886-a4ad-57111fcc2988","ios":"levelo://app?vid=e1f675dd-db2c-4886-a4ad-57111fcc2988"},"vehicle_type_id":"4","last_reported":1715893681,"current_range_meters":9200,"station_id":"ce4bh692rcd13ifvqea0","pricing_plan_id":"cebpf4jnsgd1na2vs0mg"},{"bike_id":"d7a2e30a-7b4b-4313-bbd6-02e351d5e465","system_id":"levelo_inurba_marseille","lat":43.304296,"lon":5.397513,"is_reserved":false,"is_disabled":false,"rental_uris":{"android":"levelo://app?vid=d7a2e30a-7b4b-4313-bbd6-02e351d5e465","ios":"levelo://app?vid=d7a2e30a-7b4b-4313-bbd6-02e351d5e465"},"vehicle_type_id":"4","last_reported":1715893681,"current_range_meters":16000,"station_id":"ce4bh092rcd13ifvqd20","pricing_plan_id":"cebpf4jnsgd1na2vs0mg"},{"bike_id":"33c879b1-3f5e-4a40-bc49-c161560d0c97","system_id":"levelo_inurba_marseille","lat":43.292642,"lon":5.384254,"is_reserved":false,"is_disabled":false,"rental_uris":{"android":"levelo://app?vid=33c879b1-3f5e-4a40-bc49-c161560d0c97","ios":"levelo://app?vid=33c879b1-3f5e-4a40-bc49-c161560d0c97"},"vehicle_type_id":"4","last_reported":1715893681,"current_range_meters":0,"station_id":"ce4bh692rcd13ifvqea0","pricing_plan_id":"cebpf4jnsgd1na2vs0mg"},{"bike_id":"36380cab-5a11-45cd-b406-736a8f607549","system_id":"levelo_inurba_marseille","lat":43.292644,"lon":5.384257,"is_reserved":false,"is_disabled":false,"rental_uris":{"android":"levelo://app?vid=36380cab-5a11-45cd-b406-736a8f607549","ios":"levelo://app?vid=36380cab-5a11-45cd-b406-736a8f607549"},"vehicle_type_id":"4","last_reported":1715893681,"current_range_meters":19200,"station_id":"ce4bh692rcd13ifvqea0","pricing_plan_id":"cebpf4jnsgd1na2vs0mg"},{"bike_id":"69c6c578-f022-49ce-89e0-7782048c5258","system_id":"levelo_inurba_marseille","lat":43.29259,"lon":5.38448,"is_reserved":false,"is_disabled":false,"rental_uris":{"android":"levelo://app?vid=69c6c578-f022-49ce-89e0-7782048c5258","ios":"levelo://app?vid=69c6c578-f022-49ce-89e0-7782048c5258"},"vehicle_type_id":"4","last_reported":1715893681,"current_range_meters":0,"station_id":"","pricing_plan_id":"cebpf4jnsgd1na2vs0mg"},{"bike_id":"a1842dbc-877c-40c6-ad00-c3c6f2c81a32","system_id":"levelo_inurba_marseille","lat":43.292642,"lon":5.384254,"is_reserved":false,"is_disabled":false,"rental_uris":{"android":"levelo://app?vid=a1842dbc-877c-40c6-ad00-c3c6f2c81a32","ios":"levelo://app?vid=a1842dbc-877c-40c6-ad00-c3c6f2c81a32"},"vehicle_type_id":"4","last_reported":1715893681,"current_range_meters":25200,"station_id":"ce4bh692rcd13ifvqea0","pricing_plan_id":"cebpf4jnsgd1na2vs0mg"},{"bike_id":"53e3c99e-125d-4c91-81ed-069104380e89","system_id":"levelo_inurba_marseille","lat":43.292579,"lon":5.384509,"is_reserved":false,"is_disabled":false,"rental_uris":{"android":"levelo://app?vid=53e3c99e-125d-4c91-81ed-069104380e89","ios":"levelo://app?vid=53e3c99e-125d-4c91-81ed-069104380e89"},"vehicle_type_id":"4","last_reported":1715893681,"current_range_meters":17200,"station_id":"ce4bh692rcd13ifvqea0","pricing_plan_id":"cebpf4jnsgd1na2vs0mg"},{"bike_id":"c2d1279b-8182-4f86-bea8-ab0ed0d966a4","system_id":"levelo_inurba_marseille","lat":43.292642,"lon":5.384254,"is_reserved":false,"is_disabled":false,"rental_uris":{"android":"levelo://app?vid=c2d1279b-8182-4f86-bea8-ab0ed0d966a4","ios":"levelo://app?vid=c2d1279b-8182-4f86-bea8-ab0ed0d966a4"},"vehicle_type_id":"4","last_reported":1715893681,"current_range_meters":31200,"station_id":"ce4bh692rcd13ifvqea0","pricing_plan_id":"cebpf4jnsgd1na2vs0mg"},{"bike_id":"6d4898ee-a33b-45be-bcf5-7e652a648179","system_id":"levelo_inurba_marseille","lat":43.290995,"lon":5.381361,"is_reserved":false,"is_disabled":false,"rental_uris":{"android":"levelo://app?vid=6d4898ee-a33b-45be-bcf5-7e652a648179","ios":"levelo://app?vid=6d4898ee-a33b-45be-bcf5-7e652a648179"},"vehicle_type_id":"4","last_reported":1715893681,"current_range_meters":18800,"station_id":"ce4bh512rcd13ifvqe2g","pricing_plan_id":"cebpf4jnsgd1na2vs0mg"},{"bike_id":"bb33df9c-89c1-424c-b514-509c6e8e0dde","system_id":"levelo_inurba_marseille","lat":43.290104,"lon":5.356111,"is_reserved":false,"is_disabled":false,"rental_uris":{"android":"levelo://app?vid=bb33df9c-89c1-424c-b514-509c6e8e0dde","ios":"levelo://app?vid=bb33df9c-89c1-424c-b514-509c6e8e0dde"},"vehicle_type_id":"4","last_reported":1715893681,"current_range_meters":20000,"station_id":"ce4bhb92rcd13ifvqen0","pricing_plan_id":"cebpf4jnsgd1na2vs0mg"},{"bike_id":"e911ceaf-78f3-4b0f-9a57-93952552c36b","system_id":"levelo_inurba_marseille","lat":43.297888,"lon":5.393047,"is_reserved":false,"is_disabled":false,"rental_uris":{"android":"levelo://app?vid=e911ceaf-78f3-4b0f-9a57-93952552c36b","ios":"levelo://app?vid=e911ceaf-78f3-4b0f-9a57-93952552c36b"},"vehicle_type_id":"4","last_reported":1715893681,"current_range_meters":26800,"station_id":"chh1huq6cuj3fo74tm60","pricing_plan_id":"cebpf4jnsgd1na2vs0mg"},{"bike_id":"f850dead-f86e-4ef6-8a1e-7f257bf92fff","system_id":"levelo_inurba_marseille","lat":43.290995,"lon":5.381361,"is_reserved":false,"is_disabled":false,"rental_uris":{"android":"levelo://app?vid=f850dead-f86e-4ef6-8a1e-7f257bf92fff","ios":"levelo://app?vid=f850dead-f86e-4ef6-8a1e-7f257bf92fff"},"vehicle_type_id":"4","last_reported":1715893681,"current_range_meters":20800,"station_id":"ce4bh512rcd13ifvqe2g","pricing_plan_id":"cebpf4jnsgd1na2vs0mg"},{"bike_id":"8c0f6380-e2de-4ccf-9367-3426edc3bad7","system_id":"levelo_inurba_marseille","lat":43.295169,"lon":5.390426,"is_reserved":false,"is_disabled":false,"rental_uris":{"android":"levelo://app?vid=8c0f6380-e2de-4ccf-9367-3426edc3bad7","ios":"levelo://app?vid=8c0f6380-e2de-4ccf-9367-3426edc3bad7"},"vehicle_type_id":"4","last_reported":1715893681,"current_range_meters":24800,"station_id":"ce4bh3p2rcd13ifvqdp0","pricing_plan_id":"cebpf4jnsgd1na2vs0mg"},{"bike_id":"351f8df7-b377-4907-8444-93e7d6aed5d3","system_id":"levelo_inurba_marseille","lat":43.330442,"lon":5.389148,"is_reserved":false,"is_disabled":false,"rental_uris":{"android":"levelo://app?vid=351f8df7-b377-4907-8444-93e7d6aed5d3","ios":"levelo://app?vid=351f8df7-b377-4907-8444-93e7d6aed5d3"},"vehicle_type_id":"4","last_reported":1715893681,"current_range_meters":21600,"station_id":"ce4bhr92rcd13ifvqhrg","pricing_plan_id":"cebpf4jnsgd1na2vs0mg"},{"bike_id":"cdb61616-acc9-426c-b511-01b22e388e10","system_id":"levelo_inurba_marseille","lat":43.29807,"lon":5.39327,"is_reserved":false,"is_disabled":false,"rental_uris":{"android":"levelo://app?vid=cdb61616-acc9-426c-b511-01b22e388e10","ios":"levelo://app?vid=cdb61616-acc9-426c-b511-01b22e388e10"},