{"last_updated":1715353630,"ttl":30,"version":"2.2","data":{"bikes":[{"bike_id":"b6d5adf7-e3cf-42dc-bd46-9e38f2887abe","system_id":"levelo_inurba_marseille","lat":43.3125,"lon":5.36855,"is_reserved":false,"is_disabled":false,"rental_uris":{"android":"levelo://app?vid=b6d5adf7-e3cf-42dc-bd46-9e38f2887abe","ios":"levelo://app?vid=b6d5adf7-e3cf-42dc-bd46-9e38f2887abe"},"vehicle_type_id":"4","last_reported":1715353630,"current_range_meters":10800,"station_id":"ce4bgl92rcd13ifvqbq0","pricing_plan_id":"cebpf4jnsgd1na2vs0mg"},{"bike_id":"e3d74938-a706-4832-a43b-4d57584790fd","system_id":"levelo_inurba_marseille","lat":43.309076,"lon":5.368465,"is_reserved":false,"is_disabled":false,"rental_uris":{"android":"levelo://app?vid=e3d74938-a706-4832-a43b-4d57584790fd","ios":"levelo://app?vid=e3d74938-a706-4832-a43b-4d57584790fd"},"vehicle_type_id":"4","last_reported":1715353630,"current_range_meters":4400,"station_id":"ce4bgn92rcd13ifvqbvg","pricing_plan_id":"cebpf4jnsgd1na2vs0mg"},{"bike_id":"d33559e7-b3d5-43b7-820a-5c539743facd","system_id":"levelo_inurba_marseille","lat":43.314664,"lon":5.372419,"is_reserved":false,"is_disabled":false,"rental_uris":{"android":"levelo://app?vid=d33559e7-b3d5-43b7-820a-5c539743facd","ios":"levelo://app?vid=d33559e7-b3d5-43b7-820a-5c539743facd"},"vehicle_type_id":"4","last_reported":1715353630,"current_range_meters":0,"station_id":"","pricing_plan_id":"cebpf4jnsgd1na2vs0mg"},{"bike_id":"df63d519-4646-4773-b610-536b4fc36592","system_id":"levelo_inurba_marseille","lat":43.31488,"lon":5.37301,"is_reserved":false,"is_disabled":false,"rental_uris":{"android":"levelo://app?vid=df63d519-4646-4773-b610-536b4fc36592","ios":"levelo://app?vid=df63d519-4646-4773-b610-536b4fc36592"},"vehicle_type_id":"4","last_reported":1715353630,"current_range_meters":0,"station_id":"ce4bgt12rcd13ifvqcd0","pricing_plan_id":"cebpf4jnsgd1na2vs0mg"},{"bike_id":"afc4e590-7a44-4ed2-940c-6673831ba0f7","system_id":"levelo_inurba_marseille","lat":43.314811,"lon":5.373103,"is_reserved":false,"is_disabled":false,"rental_uris":{"android":"levelo://app?vid=afc4e590-7a44-4ed2-940c-6673831ba0f7","ios":"levelo://app?vid=afc4e590-7a44-4ed2-940c-6673831ba0f7"},"vehicle_type_id":"4","last_reported":1715353630,"current_range_meters":0,"station_id":"ce4bgt12rcd13ifvqcd0","pricing_plan_id":"cebpf4jnsgd1na2vs0mg"},{"bike_id":"96d0f885-12aa-4309-97bf-474931cbe504","system_id":"levelo_inurba_marseille","lat":43.30537,"lon":5.367345,"is_reserved":false,"is_disabled":false,"rental_uris":{"android":"levelo://app?vid=96d0f885-12aa-4309-97bf-474931cbe504","ios":"levelo://app?vid=96d0f885-12aa-4309-97bf-474931cbe504"},"vehicle_type_id":"4","last_reported":1715353630,"current_range_meters":12800,"station_id":"ce4bgrp2rcd13ifvqc9g","pricing_plan_id":"cebpf4jnsgd1na2vs0mg"},{"bike_id":"78b84c43-9a39-4ae3-9f28-8bf6a3fec750","system_id":"levelo_inurba_marseille","lat":43.305989,"lon":5.37225,"is_reserved":false,"is_disabled":false,"rental_uris":{"android":"levelo://app?vid=78b84c43-9a39-4ae3-9f28-8bf6a3fec750","ios":"levelo://app?vid=78b84c43-9a39-4ae3-9f28-8bf6a3fec750"},"vehicle_type_id":"4","last_reported":1715353630,"current_range_meters":6800,"station_id":"ce4bgqh2rcd13ifvqc4g","pricing_plan_id":"cebpf4jnsgd1na2vs0mg"},{"bike_id":"ee28c579-d0b3-4dc7-8527-2702c51431b1","system_id":"levelo_inurba_marseille","lat":43.305989,"lon":5.37225,"is_reserved":false,"is_disabled":false,"rental_uris":{"android":"levelo://app?vid=ee28c579-d0b3-4dc7-8527-2702c51431b1","ios":"levelo://app?vid=ee28c579-d0b3-4dc7-8527-2702c51431b1"},"vehicle_type_id":"4","last_reported":1715353630,"current_range_meters":800,"station_id":"ce4bgqh2rcd13ifvqc4g","pricing_plan_id":"cebpf4jnsgd1na2vs0mg"},{"bike_id":"1cb69402-47b0-4be9-ace9-3d0688822af3","system_id":"levelo_inurba_marseille","lat":43.305989,"lon":5.37225,"is_reserved":false,"is_disabled":false,"rental_uris":{"android":"levelo://app?vid=1cb69402-47b0-4be9-ace9-3d0688822af3","ios":"levelo://app?vid=1cb69402-47b0-4be9-ace9-3d0688822af3"},"vehicle_type_id":"4","last_reported":1715353630,"current_range_meters":4000,"station_id":"ce4bgqh2rcd13ifvqc4g","pricing_plan_id":"cebpf4jnsgd1na2vs0mg"},{"bike_id":"07799c3a-baf0-413f-985a-1cde750b8db9","system_id":"levelo_inurba_marseille","lat":43.305989,"lon":5.37225,"is_reserved":false,"is_disabled":false,"rental_uris":{"android":"levelo://app?vid=07799c3a-baf0-413f-985a-1cde750b8db9","ios":"levelo://app?vid=07799c3a-baf0-413f-985a-1cde750b8db9"},"vehicle_type_id":"4","last_reported":1715353630,"current_range_meters":28800,"station_id":"ce4bgqh2rcd13ifvqc4g","pricing_plan_id":"cebpf4jnsgd1na2vs0mg"},{"bike_id":"afb048b5-3d51-4792-8ae2-8ebb3c60ddb2","system_id":"levelo_inurba_marseille","lat":43.305989,"lon":5.37225,"is_reserved":false,"is_disabled":false,"rental_uris":{"android":"levelo://app?vid=afb048b5-3d51-4792-8ae2-8ebb3c60ddb2","ios":"levelo://app?vid=afb048b5-3d51-4792-8ae2-8ebb3c60ddb2"},"vehicle_type_id":"4","last_reported":1715353630,"current_range_meters":18800,"station_id":"ce4bgqh2rcd13ifvqc4g","pricing_plan_id":"cebpf4jnsgd1na2vs0mg"},{"bike_id":"a0e6f271-f103-4711-9e69-662a3d04901a","system_id":"levelo_inurba_marseille","lat":43.31121,"lon":5.3778,"is_reserved":false,"is_disabled":false,"rental_uris":{"android":"levelo://app?vid=a0e6f271-f103-4711-9e69-662a3d04901a","ios":"levelo://app?vid=a0e6f271-f103-4711-9e69-662a3d04901a"},"vehicle_type_id":"4","last_reported":1715353630,"current_range_meters":0,"station_id":"ce4bgt92rcd13ifvqcg0","pricing_plan_id":"cebpf4jnsgd1na2vs0mg"},{"bike_id":"41a82089-1265-4b17-a215-3e9709a63785","system_id":"levelo_inurba_marseille","lat":43.311125,"lon":5.377624,"is_reserved":false,"is_disabled":false,"rental_uris":{"android":"levelo://app?vid=41a82089-1265-4b17-a215-3e9709a63785","ios":"levelo://app?vid=41a82089-1265-4b17-a215-3e9709a63785"},"vehicle_type_id":"4","last_reported":1715353630,"current_range_meters":21200,"station_id":"ce4bgt92rcd13ifvqcg0","pricing_plan_id":"cebpf4jnsgd1na2vs0mg"},{"bike_id":"c90ac416-330e-46e1-9c70-8cdbdc9bbc10","system_id":"levelo_inurba_marseille","lat":43.30784,"lon":5.37644,"is_reserved":false,"is_disabled":false,"rental_uris":{"android":"levelo://app?vid=c90ac416-330e-46e1-9c70-8cdbdc9bbc10","ios":"levelo://app?vid=c90ac416-330e-46e1-9c70-8cdbdc9bbc10"},"vehicle_type_id":"4","last_reported":1715353630,"current_range_meters":0,"station_id":"ce4bgv92rcd13ifvqcq0","pricing_plan_id":"cebpf4jnsgd1na2vs0mg"},{"bike_id":"8ffdab07-e385-436b-83e1-7fb870f019cc","system_id":"levelo_inurba_marseille","lat":43.307945,"lon":5.376487,"is_reserved":false,"is_disabled":false,"rental_uris":{"android":"levelo://app?vid=8ffdab07-e385-436b-83e1-7fb870f019cc","ios":"levelo://app?vid=8ffdab07-e385-436b-83e1-7fb870f019cc"},"vehicle_type_id":"4","last_reported":1715353630,"current_range_meters":3600,"station_id":"ce4bgv92rcd13ifvqcq0","pricing_plan_id":"cebpf4jnsgd1na2vs0mg"},{"bike_id":"a8420d12-5ea1-4553-ba77-74153419b9a1","system_id":"levelo_inurba_marseille","lat":43.307945,"lon":5.376487,"is_reserved":false,"is_disabled":false,"rental_uris":{"android":"levelo://app?vid=a8420d12-5ea1-4553-ba77-74153419b9a1","ios":"levelo://app?vid=a8420d12-5ea1-4553-ba77-74153419b9a1"},"vehicle_type_id":"4","last_reported":1715353630,"current_range_meters":31600,"station_id":"ce4bgv92rcd13ifvqcq0","pricing_plan_id":"cebpf4jnsgd1na2vs0mg"},{"bike_id":"5a41479d-deac-4684-a1e8-8bd2241bed1b","system_id":"levelo_inurba_marseille","lat":43.317075,"lon":5.377367,"is_reserved":false,"is_disabled":false,"rental_uris":{"android":"levelo://app?vid=5a41479d-deac-4684-a1e8-8bd2241bed1b","ios":"levelo://app?vid=5a41479d-deac-4684-a1e8-8bd2241bed1b"},"vehicle_type_id":"4","last_reported":1715353630,"current_range_meters":19200,"station_id":"ce4bgth2rcd13ifvqch0","pricing_plan_id":"cebpf4jnsgd1na2vs0mg"},{"bike_id":"63bcca06-404a-473f-844b-6c382a1c9379","system_id":"levelo_inurba_marseille","lat":43.317075,"lon":5.377367,"is_reserved":false,"is_disabled":false,"rental_uris":{"android":"levelo://app?vid=63bcca06-404a-473f-844b-6c382a1c9379","ios":"levelo://app?vid=63bcca06-404a-473f-844b-6c382a1c9379"},"vehicle_type_id":"4","last_reported":1715353630,"current_range_meters":6800,"station_id":"ce4bgth2rcd13ifvqch0","pricing_plan_id":"cebpf4jnsgd1na2vs0mg"},{"bike_id":"6ca57372-3101-437a-b709-d1e59bbc5d97","system_id":"levelo_inurba_marseille","lat":43.308012,"lon":5.381511,"is_reserved":false,"is_disabled":false,"rental_uris":{"android":"levelo://app?vid=6ca57372-3101-437a-b709-d1e59bbc5d97","ios":"levelo://app?vid=6ca57372-3101-437a-b709-d1e59bbc5d97"},"vehicle_type_id":"4","last_reported":1715353630,"current_range_meters":17600,"station_id":"ce4bgt12rcd13ifvqce0","pricing_plan_id":"cebpf4jnsgd1na2vs0mg"},{"bike_id":"19a7a2ad-22dd-44da-9304-b481cafef7c9","system_id":"levelo_inurba_marseille","lat":43.301939,"lon":5.366286,"is_reserved":false,"is_disabled":false,"rental_uris":{"android":"levelo://app?vid=19a7a2ad-22dd-44da-9304-b481cafef7c9","ios":"levelo://app?vid=19a7a2ad-22dd-44da-9304-b481cafef7c9"},"vehicle_type_id":"4","last_reported":1715353630,"current_range_meters":11200,"station_id":"ce4bgrh2rcd13ifvqc8g","pricing_plan_id":"cebpf4jnsgd1na2vs0mg"},{"bike_id":"d04ba135-119b-4b50-912a-e88cc5d43631","system_id":"levelo_inurba_marseille","lat":43.302711,"lon":5.372577,"is_reserved":false,"is_disabled":false,"rental_uris":{"android":"levelo://app?vid=d04ba135-119b-4b50-912a-e88cc5d43631","ios":"levelo://app?vid=d04ba135-119b-4b50-912a-e88cc5d43631"},"vehicle_type_id":"4","last_reported":1715353630,"current_range_meters":3200,"station_id":"","pricing_plan_id":"cebpf4jnsgd1na2vs0mg"},{"bike_id":"7182b728-ba37-4d2b-a121-9fed32c4b75c","system_id":"levelo_inurba_marseille","lat":43.31923,"lon":5.37945,"is_reserved":false,"is_disabled":false,"rental_uris":{"android":"levelo://app?vid=7182b728-ba37-4d2b-a121-9fed32c4b75c","ios":"levelo://app?vid=7182b728-ba37-4d2b-a121-9fed32c4b75c"},"vehicle_type_id":"4","last_reported":1715353630,"current_range_meters":0,"station_id":"","pricing_plan_id":"cebpf4jnsgd1na2vs0mg"},{"bike_id":"d8e9bbbf-e2e1-407d-86e4-075e01f895f8","system_id":"levelo_inurba_marseille","lat":43.308012,"lon":5.381511,"is_reserved":false,"is_disabled":false,"rental_uris":{"android":"levelo://app?vid=d8e9bbbf-e2e1-407d-86e4-075e01f895f8","ios":"levelo://app?vid=d8e9bbbf-e2e1-407d-86e4-075e01f895f8"},"vehicle_type_id":"4","last_reported":1715353630,"current_range_meters":2000,"station_id":"ce4bgt12rcd13ifvqce0","pricing_plan_id":"cebpf4jnsgd1na2vs0mg"},{"bike_id":"9dd9cafd-464b-4dfe-8ee1-8ec1d370f952","system_id":"levelo_inurba_marseille","lat":43.304606,"lon":5.379026,"is_reserved":false,"is_disabled":false,"rental_uris":{"android":"levelo://app?vid=9dd9cafd-464b-4dfe-8ee1-8ec1d370f952","ios":"levelo://app?vid=9dd9cafd-464b-4dfe-8ee1-8ec1d370f952"},"vehicle_type_id":"4","last_reported":1715353630,"current_range_meters":18800,"station_id":"ce4bgup2rcd13ifvqcn0","pricing_plan_id":"cebpf4jnsgd1na2vs0mg"},{"bike_id":"ca917bde-b6a2-455f-9352-068fa3e12e48","system_id":"levelo_inurba_marseille","lat":43.324771,"lon":5.36557,"is_reserved":false,"is_disabled":false,"rental_uris":{"android":"levelo://app?vid=ca917bde-b6a2-455f-9352-068fa3e12e48","ios":"levelo://app?vid=ca917bde-b6a2-455f-9352-068fa3e12e48"},"vehicle_type_id":"4","last_reported":1715353630,"current_range_meters":18800,"station_id":"ce4bhs12rcd13ifvqhvg","pricing_plan_id":"cebpf4jnsgd1na2vs0mg"},{"bike_id":"e2632a34-1f69-412a-b2ca-8192db3e2d87","system_id":"levelo_inurba_marseille","lat":43.324771,"lon":5.36557,"is_reserved":false,"is_disabled":false,"rental_uris":{"android":"levelo://app?vid=e2632a34-1f69-412a-b2ca-8192db3e2d87","ios":"levelo://app?vid=e2632a34-1f69-412a-b2ca-8192db3e2d87"},"vehicle_type_id":"4","last_reported":1715353630,"current_range_meters":30400,"station_id":"ce4bhs12rcd13ifvqhvg","pricing_plan_id":"cebpf4jnsgd1na2vs0mg"},{"bike_id":"4eb92f76-c358-440b-bc3d-a815e556ffe4","system_id":"levelo_inurba_marseille","lat":43.324771,"lon":5.36557,"is_reserved":false,"is_disabled":false,"rental_uris":{"android":"levelo://app?vid=4eb92f76-c358-440b-bc3d-a815e556ffe4","ios":"levelo://app?vid=4eb92f76-c358-440b-bc3d-a815e556ffe4"},"vehicle_type_id":"4","last_reported":1715353630,"current_range_meters":6800,"station_id":"ce4bhs12rcd13ifvqhvg","pricing_plan_id":"cebpf4jnsgd1na2vs0mg"},{"bike_id":"afc8d308-4744-4764-ab26-c6a27109151f","system_id":"levelo_inurba_marseille","lat":43.3248,"lon":5.36569,"is_reserved":false,"is_disabled":false,"rental_uris":{"android":"levelo://app?vid=afc8d308-4744-4764-ab26-c6a27109151f","ios":"levelo://app?vid=afc8d308-4744-4764-ab26-c6a27109151f"},"vehicle_type_id":"4","last_reported":1715353630,"current_range_meters":2000,"station_id":"ce4bhs12rcd13ifvqhvg","pricing_plan_id":"cebpf4jnsgd1na2vs0mg"},{"bike_id":"30bdfbd5-f2a2-462a-8026-f7d1294a50d1","system_id":"levelo_inurba_marseille","lat":43.3248,"lon":5.36553,"is_reserved":false,"is_disabled":false,"rental_uris":{"android":"levelo://app?vid=30bdfbd5-f2a2-462a-8026-f7d1294a50d1","ios":"levelo://app?vid=30bdfbd5-f2a2-462a-8026-f7d1294a50d1"},"vehicle_type_id":"4","last_reported":1715353630,"current_range_meters":0,"station_id":"ce4bhs12rcd13ifvqhvg","pricing_plan_id":"cebpf4jnsgd1na2vs0mg"},{"bike_id":"a1a5056f-afd6-4fe8-bf8d-db5a443d86b8","system_id":"levelo_inurba_marseille","lat":43.324771,"lon":5.36557,"is_reserved":false,"is_disabled":false,"rental_uris":{"android":"levelo://app?vid=a1a5056f-afd6-4fe8-bf8d-db5a443d86b8","ios":"levelo://app?vid=a1a5056f-afd6-4fe8-bf8d-db5a443d86b8"},"vehicle_type_id":"4","last_reported":1715353630,"current_range_meters":29200,"station_id":"ce4bhs12rcd13ifvqhvg","pricing_plan_id":"cebpf4jnsgd1na2vs0mg"},{"bike_id":"7a2f7a01-e89e-42ef-8b85-00ec52b75b2a","system_id":"levelo_inurba_marseille","lat":43.324771,"lon":5.36557,"is_reserved":false,"is_disabled":false,"rental_uris":{"android":"levelo://app?vid=7a2f7a01-e89e-42ef-8b85-00ec52b75b2a","ios":"levelo://app?vid=7a2f7a01-e89e-42ef-8b85-00ec52b75b2a"},"vehicle_type_id":"4","last_reported":1715353630,"current_range_meters":3600,"station_id":"ce4bhs12rcd13ifvqhvg","pricing_plan_id":"cebpf4jnsgd1na2vs0mg"},{"bike_id":"2febb0ee-a21d-447a-a8c4-590c86129938","system_id":"levelo_inurba_marseille","lat":43.324832,"lon":5.365866,"is_reserved":false,"is_disabled":false,"rental_uris":{"android":"levelo://app?vid=2febb0ee-a21d-447a-a8c4-590c86129938","ios":"levelo://app?vid=2febb0ee-a21d-447a-a8c4-590c86129938"},"vehicle_type_id":"4","last_reported":1715353630,"current_range_meters":26800,"station_id":"ce4bhs12rcd13ifvqhvg","pricing_plan_id":"cebpf4jnsgd1na2vs0mg"},{"bike_id":"d247ca2c-9065-4109-a602-a67cbda4b16e","system_id":"levelo_inurba_marseille","lat":43.324771,"lon":5.36557,"is_reserved":false,"is_disabled":false,"rental_uris":{"android":"levelo://app?vid=d247ca2c-9065-4109-a602-a67cbda4b16e","ios":"levelo://app?vid=d247ca2c-9065-4109-a602-a67cbda4b16e"},"vehicle_type_id":"4","last_reported":1715353630,"current_range_meters":6000,"station_id":"ce4bhs12rcd13ifvqhvg","pricing_plan_id":"cebpf4jnsgd1na2vs0mg"},{"bike_id":"ce352551-a866-4971-8d08-c9eba3938cd9","system_id":"levelo_inurba_marseille","lat":43.324829,"lon":5.36567,"is_reserved":false,"is_disabled":false,"rental_uris":{"android":"levelo://app?vid=ce352551-a866-4971-8d08-c9eba3938cd9","ios":"levelo://app?vid=ce352551-a866-4971-8d08-c9eba3938cd9"},"vehicle_type_id":"4","last_reported":1715353630,"current_range_meters":20400,"station_id":"ce4bhs12rcd13ifvqhvg","pricing_plan_id":"cebpf4jnsgd1na2vs0mg"},{"bike_id":"d1b4e1b5-938c-45f6-b01a-00001534d859","system_id":"levelo_inurba_marseille","lat":43.32483,"lon":5.36567,"is_reserved":false,"is_disabled":false,"rental_uris":{"android":"levelo://app?vid=d1b4e1b5-938c-45f6-b01a-00001534d859","ios":"levelo://app?vid=d1b4e1b5-938c-45f6-b01a-00001534d859"},"vehicle_type_id":"4","last_reported":1715353630,"current_range_meters":24800,"station_id":"ce4bhs12rcd13ifvqhvg","pricing_plan_id":"cebpf4jnsgd1na2vs0mg"},{"bike_id":"4d8e0117-c2ae-44fb-b080-7e9d703b9e51","system_id":"levelo_inurba_marseille","lat":43.324832,"lon":5.365673,"is_reserved":false,"is_disabled":false,"rental_uris":{"android":"levelo://app?vid=4d8e0117-c2ae-44fb-b080-7e9d703b9e51","ios":"levelo://app?vid=4d8e0117-c2ae-44fb-b080-7e9d703b9e51"},"vehicle_type_id":"4","last_reported":1715353630,"current_range_meters":2000,"station_id":"ce4bhs12rcd13ifvqhvg","pricing_plan_id":"cebpf4jnsgd1na2vs0mg"},{"bike_id":"d94c9dec-b58f-4640-ae8d-6b4b27755d83","system_id":"levelo_inurba_marseille","lat":43.324771,"lon":5.36557,"is_reserved":false,"is_disabled":false,"rental_uris":{"android":"levelo://app?vid=d94c9dec-b58f-4640-ae8d-6b4b27755d83","ios":"levelo://app?vid=d94c9dec-b58f-4640-ae8d-6b4b27755d83"},"vehicle_type_id":"4","last_reported":1715353630,"current_range_meters":22800,"station_id":"ce4bhs12rcd13ifvqhvg","pricing_plan_id":"cebpf4jnsgd1na2vs0mg"},{"bike_id":"fb3916e9-8f1f-4a0d-bb23-7c1c918476e4","system_id":"levelo_inurba_marseille","lat":43.32485,"lon":5.36582,"is_reserved":false,"is_disabled":false,"rental_uris":{"android":"levelo://app?vid=fb3916e9-8f1f-4a0d-bb23-7c1c918476e4","ios":"levelo://app?vid=fb3916e9-8f1f-4a0d-bb23-7c1c918476e4"},"vehicle_type_id":"4","last_reported":1715353630,"current_range_meters":2000,"station_id":"ce4bhs12rcd13ifvqhvg","pricing_plan_id":"cebpf4jnsgd1na2vs0mg"},{"bike_id":"164645ae-7129-4725-bf89-15b685d686fe","system_id":"levelo_inurba_marseille","lat":43.324771,"lon":5.36557,"is_reserved":false,"is_disabled":false,"rental_uris":{"android":"levelo://app?vid=164645ae-7129-4725-bf89-15b685d686fe","ios":"levelo://app?vid=164645ae-7129-4725-bf89-15b685d686fe"},"vehicle_type_id":"4","last_reported":1715353630,"current_range_meters":10000,"station_id":"ce4bhs12rcd13ifvqhvg","pricing_plan_id":"cebpf4jnsgd1na2vs0mg"},{"bike_id":"1af65fd9-357b-486b-9459-6e8b8696dfc2","system_id":"levelo_inurba_marseille","lat":43.324771,"lon":5.36557,"is_reserved":false,"is_disabled":false,"rental_uris":{"android":"levelo://app?vid=1af65fd9-357b-486b-9459-6e8b8696dfc2","ios":"levelo://app?vid=1af65fd9-357b-486b-9459-6e8b8696dfc2"},"vehicle_type_id":"4","last_reported":1715353630,"current_range_meters":13200,"station_id":"ce4bhs12rcd13ifvqhvg","pricing_plan_id":"cebpf4jnsgd1na2vs0mg"},{"bike_id":"78f7d97c-e4eb-4ebc-88e2-08b2969fa253","system_id":"levelo_inurba_marseille","lat":43.32487,"lon":5.36565,"is_reserved":false,"is_disabled":false,"rental_uris":{"android":"levelo://app?vid=78f7d97c-e4eb-4ebc-88e2-08b2969fa253","ios":"levelo://app?vid=78f7d97c-e4eb-4ebc-88e2-08b2969fa253"},"vehicle_type_id":"4","last_reported":1715353630,"current_range_meters":4000,"station_id":"ce4bhs12rcd13ifvqhvg","pricing_plan_id":"cebpf4jnsgd1na2vs0mg"},{"bike_id":"55dc8fe8-0eb7-4eaf-933b-376c94efe1da","system_id":"levelo_inurba_marseille","lat":43.324868,"lon":5.365575,"is_reserved":false,"is_disabled":false,"rental_uris":{"android":"levelo://app?vid=55dc8fe8-0eb7-4eaf-933b-376c94efe1da","ios":"levelo://app?vid=55dc8fe8-0eb7-4eaf-933b-376c94efe1da"},"vehicle_type_id":"4","last_reported":1715353630,"current_range_meters":400,"station_id":"ce4bhs12rcd13ifvqhvg","pricing_plan_id":"cebpf4jnsgd1na2vs0mg"},{"bike_id":"dd43d9e4-dec7-4f5f-9e8e-b0d97e25b5d5","system_id":"levelo_inurba_marseille","lat":43.30143,"lon":5.37413,"is_reserved":false,"is_disabled":false,"rental_uris":{"android":"levelo://app?vid=dd43d9e4-dec7-4f5f-9e8e-b0d97e25b5d5","ios":"levelo://app?vid=dd43d9e4-dec7-4f5f-9e8e-b0d97e25b5d5"},"vehicle_type_id":"4","last_reported":1715353630,"current_range_meters":14400,"station_id":"ce4bgs92rcd13ifvqcc0","pricing_plan_id":"cebpf4jnsgd1na2vs0mg"},{"bike_id":"87bb944a-ae1e-4c2f-8352-2d2b80f9401f","system_id":"levelo_inurba_marseille","lat":43.30143,"lon":5.37413,"is_reserved":false,"is_disabled":false,"rental_uris":{"android":"levelo://app?vid=87bb944a-ae1e-4c2f-8352-2d2b80f9401f","ios":"levelo://app?vid=87bb944a-ae1e-4c2f-8352-2d2b80f9401f"},"vehicle_type_id":"4","last_reported":1715353630,"current_range_meters":6800,"station_id":"ce4bgs92rcd13ifvqcc0","pricing_plan_id":"cebpf4jnsgd1na2vs0mg"},{"bike_id":"411ade1d-69ff-4489-a944-742299f25cab","system_id":"levelo_inurba_marseille","lat":43.302784,"lon":5.377158,"is_reserved":false,"is_disabled":false,"rental_uris":{"android":"levelo://app?vid=411ade1d-69ff-4489-a944-742299f25cab","ios":"levelo://app?vid=411ade1d-69ff-4489-a944-742299f25cab"},"vehicle_type_id":"4","last_reported":1715353630,"current_range_meters":11200,"station_id":"ce4bguh2rcd13ifvqcj0","pricing_plan_id":"cebpf4jnsgd1na2vs0mg"},{"bike_id":"ca238478-5adf-4c58-a0b0-f23a2a691c95","system_id":"levelo_inurba_marseille","lat":43.301429,"lon":5.37413,"is_reserved":false,"is_disabled":false,"rental_uris":{"android":"levelo://app?vid=ca238478-5adf-4c58-a0b0-f23a2a691c95","ios":"levelo://app?vid=ca238478-5adf-4c58-a0b0-f23a2a691c95"},"vehicle_type_id":"4","last_reported":1715353630,"current_range_meters":0,"station_id":"ce4bgs92rcd13ifvqcc0","pricing_plan_id":"cebpf4jnsgd1na2vs0mg"},{"bike_id":"6aa28cca-fec9-4402-a5b4-667a074e8983","system_id":"levelo_inurba_marseille","lat":43.301429,"lon":5.37413,"is_reserved":false,"is_disabled":false,"rental_uris":{"android":"levelo://app?vid=6aa28cca-fec9-4402-a5b4-667a074e8983","ios":"levelo://app?vid=6aa28cca-fec9-4402-a5b4-667a074e8983"},"vehicle_type_id":"4","last_reported":1715353630,"current_range_meters":11600,"station_id":"ce4bgs92rcd13ifvqcc0","pricing_plan_id":"cebpf4jnsgd1na2vs0mg"},{"bike_id":"e6fa0448-0bb1-4bd5-a773-42af2c7840b7","system_id":"levelo_inurba_marseille","lat":43.302784,"lon":5.377158,"is_reserved":false,"is_disabled":false,"rental_uris":{"android":"levelo://app?vid=e6fa0448-0bb1-4bd5-a773-42af2c7840b7","ios":"levelo://app?vid=e6fa0448-0bb1-4bd5-a773-42af2c7840b7"},"vehicle_type_id":"4","last_reported":1715353630,"current_range_meters":3200,"station_id":"ce4bguh2rcd13ifvqcj0","pricing_plan_id":"cebpf4jnsgd1na2vs0mg"},{"bike_id":"d28a4979-3a32-4365-b81f-421a8b845f32","system_id":"levelo_inurba_marseille","lat":43.30143,"lon":5.37413,"is_reserved":false,"is_disabled":false,"rental_uris":{"android":"levelo://app?vid=d28a4979-3a32-4365-b81f-421a8b845f32","ios":"levelo://app?vid=d28a4979-3a32-4365-b81f-421a8b845f32"},"vehicle_type_id":"4","last_reported":1715353630,"current_range_meters":11600,"station_id":"ce4bgs92rcd13ifvqcc0","pricing_plan_id":"cebpf4jnsgd1na2vs0mg"},{"bike_id":"c26f3268-3e22-4da7-a240-938fbfb6fded","system_id":"levelo_inurba_marseille","lat":43.31999,"lon":5.38159,"is_reserved":false,"is_disabled":false,"rental_uris":{"android":"levelo://app?vid=c26f3268-3e22-4da7-a240-938fbfb6fded","ios":"levelo://app?vid=c26f3268-3e22-4da7-a240-938fbfb6fded"},"vehicle_type_id":"4","last_reported":1715353630,"current_range_meters":18000,"station_id":"ce4bhr12rcd13ifvqhpg","pricing_plan_id":"cebpf4jnsgd1na2vs0mg"},{"bike_id":"6532ebe4-a68a-4bc2-9d62-ee0ca570a08b","system_id":"levelo_inurba_marseille","lat":43.304606,"lon":5.379026,"is_reserved":false,"is_disabled":false,"rental_uris":{"android":"levelo://app?vid=6532ebe4-a68a-4bc2-9d62-ee0ca570a08b","ios":"levelo://app?vid=6532ebe4-a68a-4bc2-9d62-ee0ca570a08b"},"vehicle_type_id":"4","last_reported":1715353630,"current_range_meters":14800,"station_id":"ce4bgup2rcd13ifvqcn0","pricing_plan_id":"cebpf4jnsgd1na2vs0mg"},{"bike_id":"b399cd71-3f90-409e-bcc3-9cfb13dae5ba","system_id":"levelo_inurba_marseille","lat":43.30143,"lon":5.37413,"is_reserved":false,"is_disabled":false,"rental_uris":{"android":"levelo://app?vid=b399cd71-3f90-409e-bcc3-9cfb13dae5ba","ios":"levelo://app?vid=b399cd71-3f90-409e-bcc3-9cfb13dae5ba"},"vehicle_type_id":"4","last_reported":1715353630,"current_range_meters":1200,"station_id":"ce4bgs92rcd13ifvqcc0","pricing_plan_id":"cebpf4jnsgd1na2vs0mg"},{"bike_id":"9f9c37c9-fba2-430e-9680-de5a57004276","system_id":"levelo_inurba_marseille","lat":43.30561,"lon":5.38198,"is_reserved":false,"is_disabled":false,"rental_uris":{"android":"levelo://app?vid=9f9c37c9-fba2-430e-9680-de5a57004276","ios":"levelo://app?vid=9f9c37c9-fba2-430e-9680-de5a57004276"},"vehicle_type_id":"4","last_reported":1715353630,"current_range_meters":24400,"station_id":"","pricing_plan_id":"cebpf4jnsgd1na2vs0mg"},{"bike_id":"e21fad30-bb84-4879-8593-48efb3f56e0d","system_id":"levelo_inurba_marseille","lat":43.313571,"lon":5.384829,"is_reserved":false,"is_disabled":false,"rental_uris":{"android":"levelo://app?vid=e21fad30-bb84-4879-8593-48efb3f56e0d","ios":"levelo://app?vid=e21fad30-bb84-4879-8593-48efb3f56e0d"},"vehicle_type_id":"4","last_reported":1715353630,"current_range_meters":11200,"station_id":"ce4bgt92rcd13ifvqcf0","pricing_plan_id":"cebpf4jnsgd1na2vs0mg"},{"bike_id":"e115a0e5-24a6-46ef-9fe3-0ba675849fc5","system_id":"levelo_inurba_marseille","lat":43.313571,"lon":5.384829,"is_reserved":false,"is_disabled":false,"rental_uris":{"android":"levelo://app?vid=e115a0e5-24a6-46ef-9fe3-0ba675849fc5","ios":"levelo://app?vid=e115a0e5-24a6-46ef-9fe3-0ba675849fc5"},"vehicle_type_id":"4","last_reported":1715353630,"current_range_meters":24000,"station_id":"ce4bgt92rcd13ifvqcf0","pricing_plan_id":"cebpf4jnsgd1na2vs0mg"},{"bike_id":"4fe8fb08-2e51-4f47-b545-c321061141c4","system_id":"levelo_inurba_marseille","lat":43.313604,"lon":5.384944,"is_reserved":false,"is_disabled":false,"rental_uris":{"android":"levelo://app?vid=4fe8fb08-2e51-4f47-b545-c321061141c4","ios":"levelo://app?vid=4fe8fb08-2e51-4f47-b545-c321061141c4"},"vehicle_type_id":"4","last_reported":1715353630,"current_range_meters":0,"station_id":"ce4bgt92rcd13ifvqcf0","pricing_plan_id":"cebpf4jnsgd1na2vs0mg"},{"bike_id":"25ba9bfd-3ae0-458d-8b57-4f05448c1ad7","system_id":"levelo_inurba_marseille","lat":43.29944,"lon":5.36537,"is_reserved":false,"is_disabled":false,"rental_uris":{"android":"levelo://app?vid=25ba9bfd-3ae0-458d-8b57-4f05448c1ad7","ios":"levelo://app?vid=25ba9bfd-3ae0-458d-8b57-4f05448c1ad7"},"vehicle_type_id":"4","last_reported":1715353630,"current_range_meters":0,"station_id":"ce4bgm92rcd13ifvqbr0","pricing_plan_id":"cebpf4jnsgd1na2vs0mg"},{"bike_id":"d5c15738-9c36-4c66-9e8a-f66063a62ad2","system_id":"levelo_inurba_marseille","lat":43.299724,"lon":5.371829,"is_reserved":false,"is_disabled":false,"rental_uris":{"android":"levelo://app?vid=d5c15738-9c36-4c66-9e8a-f66063a62ad2","ios":"levelo://app?vid=d5c15738-9c36-4c66-9e8a-f66063a62ad2"},"vehicle_type_id":"4","last_reported":1715353630,"current_range_meters":400,"station_id":"ce4bgr92rcd13ifvqc7g","pricing_plan_id":"cebpf4jnsgd1na2vs0mg"},{"bike_id":"3f0b314f-c794-4759-a196-92b0f4f42179","system_id":"levelo_inurba_marseille","lat":43.299724,"lon":5.371829,"is_reserved":false,"is_disabled":false,"rental_uris":{"android":"levelo://app?vid=3f0b314f-c794-4759-a196-92b0f4f42179","ios":"levelo://app?vid=3f0b314f-c794-4759-a196-92b0f4f42179"},"vehicle_type_id":"4","last_reported":1715353630,"current_range_meters":6000,"station_id":"ce4bgr92rcd13ifvqc7g","pricing_plan_id":"cebpf4jnsgd1na2vs0mg"},{"bike_id":"e9d20163-4229-400e-b979-ddc4646becd1","system_id":"levelo_inurba_marseille","lat":43.299724,"lon":5.371829,"is_reserved":false,"is_disabled":false,"rental_uris":{"android":"levelo://app?vid=e9d20163-4229-400e-b979-ddc4646becd1","ios":"levelo://app?vid=e9d20163-4229-400e-b979-ddc4646becd1"},"vehicle_type_id":"4","last_reported":1715353630,"current_range_meters":0,"station_id":"ce4bgr92rcd13ifvqc7g","pricing_plan_id":"cebpf4jnsgd1na2vs0mg"},{"bike_id":"20c53264-843c-4349-a93d-1fcd7eb73607","system_id":"levelo_inurba_marseille","lat":43.298433,"lon":5.362774,"is_reserved":false,"is_disabled":false,"rental_uris":{"android":"levelo://app?vid=20c53264-843c-4349-a93d-1fcd7eb73607","ios":"levelo://app?vid=20c53264-843c-4349-a93d-1fcd7eb73607"},"vehicle_type_id":"4","last_reported":1715353630,"current_range_meters":0,"station_id":"ce4bgpp2rcd13ifvqc3g","pricing_plan_id":"cebpf4jnsgd1na2vs0mg"},{"bike_id":"a27600c7-8c0d-46e9-b09c-3f3258db4ba5","system_id":"levelo_inurba_marseille","lat":43.305367,"lon":5.38414,"is_reserved":false,"is_disabled":false,"rental_uris":{"android":"levelo://app?vid=a27600c7-8c0d-46e9-b09c-3f3258db4ba5","ios":"levelo://app?vid=a27600c7-8c0d-46e9-b09c-3f3258db4ba5"},"vehicle_type_id":"4","last_reported":1715353630,"current_range_meters":0,"station_id":"ce4bgg92rcd13ifvqb30","pricing_plan_id":"cebpf4jnsgd1na2vs0mg"},{"bike_id":"8b850b52-ea7e-46da-803d-036c1888b0a1","system_id":"levelo_inurba_marseille","lat":43.298433,"lon":5.362774,"is_reserved":false,"is_disabled":false,"rental_uris":{"android":"levelo://app?vid=8b850b52-ea7e-46da-803d-036c1888b0a1","ios":"levelo://app?vid=8b850b52-ea7e-46da-803d-036c1888b0a1"},"vehicle_type_id":"4","last_reported":1715353630,"current_range_meters":400,"station_id":"ce4bgpp2rcd13ifvqc3g","pricing_plan_id":"cebpf4jnsgd1na2vs0mg"},{"bike_id":"c0deba43-23c6-4519-8f3b-e5c2824b92ea","system_id":"levelo_inurba_marseille","lat":43.298433,"lon":5.362774,"is_reserved":false,"is_disabled":false,"rental_uris":{"android":"levelo://app?vid=c0deba43-23c6-4519-8f3b-e5c2824b92ea","ios":"levelo://app?vid=c0deba43-23c6-4519-8f3b-e5c2824b92ea"},"vehicle_type_id":"4","last_reported":1715353630,"current_range_meters":2000,"station_id":"ce4bgpp2rcd13ifvqc3g","pricing_plan_id":"cebpf4jnsgd1na2vs0mg"},{"bike_id":"61e78225-859b-4e73-8b05-9b06590167c0","system_id":"levelo_inurba_marseille","lat":43.298433,"lon":5.362774,"is_reserved":false,"is_disabled":false,"rental_uris":{"android":"levelo://app?vid=61e78225-859b-4e73-8b05-9b06590167c0","ios":"levelo://app?vid=61e78225-859b-4e73-8b05-9b06590167c0"},"vehicle_type_id":"4","last_reported":1715353630,"current_range_meters":2800,"station_id":"ce4bgpp2rcd13ifvqc3g","pricing_plan_id":"cebpf4jnsgd1na2vs0mg"},{"bike_id":"323ad0c8-9026-426f-842f-080267939df2","system_id":"levelo_inurba_marseille","lat":43.311722,"lon":5.387247,"is_reserved":false,"is_disabled":false,"rental_uris":{"android":"levelo://app?vid=323ad0c8-9026-426f-842f-080267939df2","ios":"levelo://app?vid=323ad0c8-9026-426f-842f-080267939df2"},"vehicle_type_id":"4","last_reported":1715353630,"current_range_meters":2000,"station_id":"ce4bgv12rcd13ifvqcp0","pricing_plan_id":"cebpf4jnsgd1na2vs0mg"},{"bike_id":"aee318f0-f647-410c-b68c-00dc8a340e5b","system_id":"levelo_inurba_marseille","lat":43.298433,"lon":5.362774,"is_reserved":false,"is_disabled":false,"rental_uris":{"android":"levelo://app?vid=aee318f0-f647-410c-b68c-00dc8a340e5b","ios":"levelo://app?vid=aee318f0-f647-410c-b68c-00dc8a340e5b"},"vehicle_type_id":"4","last_reported":1715353630,"current_range_meters":28000,"station_id":"ce4bgpp2rcd13ifvqc3g","pricing_plan_id":"cebpf4jnsgd1na2vs0mg"},{"bike_id":"54330de7-6abe-43c9-895c-3ecc462da9f2","system_id":"levelo_inurba_marseille","lat":43.311722,"lon":5.387247,"is_reserved":false,"is_disabled":false,"rental_uris":{"android":"levelo://app?vid=54330de7-6abe-43c9-895c-3ecc462da9f2","ios":"levelo://app?vid=54330de7-6abe-43c9-895c-3ecc462da9f2"},"vehicle_type_id":"4","last_reported":1715353630,"current_range_meters":10400,"station_id":"ce4bgv12rcd13ifvqcp0","pricing_plan_id":"cebpf4jnsgd1na2vs0mg"},{"bike_id":"5857a910-d2af-4592-94e1-ac0ce7519338","system_id":"levelo_inurba_marseille","lat":43.322644,"lon":5.382843,"is_reserved":false,"is_disabled":false,"rental_uris":{"android":"levelo://app?vid=5857a910-d2af-4592-94e1-ac0ce7519338","ios":"levelo://app?vid=5857a910-d2af-4592-94e1-ac0ce7519338"},"vehicle_type_id":"4","last_reported":1715353630,"current_range_meters":9200,"station_id":"ce4bhr12rcd13ifvqhqg","pricing_plan_id":"cebpf4jnsgd1na2vs0mg"},{"bike_id":"2b064770-2006-44c9-8300-6f71f0b61a47","system_id":"levelo_inurba_marseille","lat":43.297774,"lon":5.370875,"is_reserved":false,"is_disabled":false,"rental_uris":{"android":"levelo://app?vid=2b064770-2006-44c9-8300-6f71f0b61a47","ios":"levelo://app?vid=2b064770-2006-44c9-8300-6f71f0b61a47"},"vehicle_type_id":"4","last_reported":1715353630,"current_range_meters":30400,"station_id":"ce4bgop2rcd13ifvqc1g","pricing_plan_id":"cebpf4jnsgd1na2vs0mg"},{"bike_id":"eea9a8ee-c9f0-4ef3-942b-e84a9418210b","system_id":"levelo_inurba_marseille","lat":43.297117,"lon":5.366027,"is_reserved":false,"is_disabled":false,"rental_uris":{"android":"levelo://app?vid=eea9a8ee-c9f0-4ef3-942b-e84a9418210b","ios":"levelo://app?vid=eea9a8ee-c9f0-4ef3-942b-e84a9418210b"},"vehicle_type_id":"4","last_reported":1715353630,"current_range_meters":0,"station_id":"ce4bgn12rcd13ifvqbt0","pricing_plan_id":"cebpf4jnsgd1na2vs0mg"},{"bike_id":"51d5b3fd-24b7-4584-aa24-a3d3b1164cc9","system_id":"levelo_inurba_marseille","lat":43.29706,"lon":5.36605,"is_reserved":false,"is_disabled":false,"rental_uris":{"android":"levelo://app?vid=51d5b3fd-24b7-4584-aa24-a3d3b1164cc9","ios":"levelo://app?vid=51d5b3fd-24b7-4584-aa24-a3d3b1164cc9"},"vehicle_type_id":"4","last_reported":1715353630,"current_range_meters":0,"station_id":"ce4bgn12rcd13ifvqbt0","pricing_plan_id":"cebpf4jnsgd1na2vs0mg"},{"bike_id":"b676798c-2909-4a78-a9eb-96b85d58f4d2","system_id":"levelo_inurba_marseille","lat":43.2968,"lon":5.37291,"is_reserved":false,"is_disabled":false,"rental_uris":{"android":"levelo://app?vid=b676798c-2909-4a78-a9eb-96b85d58f4d2","ios":"levelo://app?vid=b676798c-2909-4a78-a9eb-96b85d58f4d2"},"vehicle_type_id":"4","last_reported":1715353630,"current_range_meters":16400,"station_id":"ce4bgk12rcd13ifvqbj0","pricing_plan_id":"cebpf4jnsgd1na2vs0mg"},{"bike_id":"f1ebc19c-f9c6-44e9-b360-ced8407b4abd","system_id":"levelo_inurba_marseille","lat":43.296921,"lon":5.376579,"is_reserved":false,"is_disabled":false,"rental_uris":{"android":"levelo://app?vid=f1ebc19c-f9c6-44e9-b360-ced8407b4abd","ios":"levelo://app?vid=f1ebc19c-f9c6-44e9-b360-ced8407b4abd"},"vehicle_type_id":"4","last_reported":1715353630,"current_range_meters":25600,"station_id":"ce4bgkh2rcd13ifvqbl0","pricing_plan_id":"cebpf4jnsgd1na2vs0mg"},{"bike_id":"89807a87-20a0-475a-9ccb-d6178adcd392","system_id":"levelo_inurba_marseille","lat":43.296921,"lon":5.376579,"is_reserved":false,"is_disabled":false,"rental_uris":{"android":"levelo://app?vid=89807a87-20a0-475a-9ccb-d6178adcd392","ios":"levelo://app?vid=89807a87-20a0-475a-9ccb-d6178adcd392"},"vehicle_type_id":"4","last_reported":1715353630,"current_range_meters":8400,"station_id":"ce4bgkh2rcd13ifvqbl0","pricing_plan_id":"cebpf4jnsgd1na2vs0mg"},{"bike_id":"55750f0b-9a08-4f7c-a67f-8618216b8827","system_id":"levelo_inurba_marseille","lat":43.299028,"lon":5.381509,"is_reserved":false,"is_disabled":false,"rental_uris":{"android":"levelo://app?vid=55750f0b-9a08-4f7c-a67f-8618216b8827","ios":"levelo://app?vid=55750f0b-9a08-4f7c-a67f-8618216b8827"},"vehicle_type_id":"4","last_reported":1715353630,"current_range_meters":30800,"station_id":"ce4bgj12rcd13ifvqbc0","pricing_plan_id":"cebpf4jnsgd1na2vs0mg"},{"bike_id":"11ddedd8-121a-45b3-907c-c7bac39efeda","system_id":"levelo_inurba_marseille","lat":43.296921,"lon":5.376579,"is_reserved":false,"is_disabled":false,"rental_uris":{"android":"levelo://app?vid=11ddedd8-121a-45b3-907c-c7bac39efeda","ios":"levelo://app?vid=11ddedd8-121a-45b3-907c-c7bac39efeda"},"vehicle_type_id":"4","last_reported":1715353630,"current_range_meters":12400,"station_id":"ce4bgkh2rcd13ifvqbl0","pricing_plan_id":"cebpf4jnsgd1na2vs0mg"},{"bike_id":"2af7253f-ddbc-4e84-9d7e-37e9b962f294","system_id":"levelo_inurba_marseille","lat":43.309589,"lon":5.390258,"is_reserved":false,"is_disabled":false,"rental_uris":{"android":"levelo://app?vid=2af7253f-ddbc-4e84-9d7e-37e9b962f294","ios":"levelo://app?vid=2af7253f-ddbc-4e84-9d7e-37e9b962f294"},"vehicle_type_id":"4","last_reported":1715353630,"current_range_meters":25600,"station_id":"ce4bgup2rcd13ifvqco0","pricing_plan_id":"cebpf4jnsgd1na2vs0mg"},{"bike_id":"cd9f8745-7b22-4b35-981f-998bb4725bd0","system_id":"levelo_inurba_marseille","lat":43.296921,"lon":5.376579,"is_reserved":false,"is_disabled":false,"rental_uris":{"android":"levelo://app?vid=cd9f8745-7b22-4b35-981f-998bb4725bd0","ios":"levelo://app?vid=cd9f8745-7b22-4b35-981f-998bb4725bd0"},"vehicle_type_id":"4","last_reported":1715353630,"current_range_meters":0,"station_id":"ce4bgkh2rcd13ifvqbl0","pricing_plan_id":"cebpf4jnsgd1na2vs0mg"},{"bike_id":"a4f9c873-bf6a-4702-b9a3-8ad566b6cd1a","system_id":"levelo_inurba_marseille","lat":43.309589,"lon":5.390258,"is_reserved":false,"is_disabled":false,"rental_uris":{"android":"levelo://app?vid=a4f9c873-bf6a-4702-b9a3-8ad566b6cd1a","ios":"levelo://app?vid=a4f9c873-bf6a-4702-b9a3-8ad566b6cd1a"},"vehicle_type_id":"4","last_reported":1715353630,"current_range_meters":2000,"station_id":"ce4bgup2rcd13ifvqco0","pricing_plan_id":"cebpf4jnsgd1na2vs0mg"},{"bike_id":"f78adad4-e678-4922-a90a-67bc2011e421","system_id":"levelo_inurba_marseille","lat":43.317557,"lon":5.390173,"is_reserved":false,"is_disabled":false,"rental_uris":{"android":"levelo://app?vid=f78adad4-e678-4922-a90a-67bc2011e421","ios":"levelo://app?vid=f78adad4-e678-4922-a90a-67bc2011e421"},"vehicle_type_id":"4","last_reported":1715353630,"current_range_meters":24000,"station_id":"ce4bhqp2rcd13ifvqhng","pricing_plan_id":"cebpf4jnsgd1na2vs0mg"},{"bike_id":"e037c595-616c-4c3e-8fb9-f2a9d49d6a23","system_id":"levelo_inurba_marseille","lat":43.298101,"lon":5.38106,"is_reserved":false,"is_disabled":false,"rental_uris":{"android":"levelo://app?vid=e037c595-616c-4c3e-8fb9-f2a9d49d6a23","ios":"levelo://app?vid=e037c595-616c-4c3e-8fb9-f2a9d49d6a23"},"vehicle_type_id":"4","last_reported":1715353630,"current_range_meters":24400,"station_id":"ce4bgip2rcd13ifvqbb0","pricing_plan_id":"cebpf4jnsgd1na2vs0mg"},{"bike_id":"a39a55ca-a11f-4701-8727-4d0ba15d34b0","system_id":"levelo_inurba_marseille","lat":43.295748,"lon":5.37522,"is_reserved":false,"is_disabled":false,"rental_uris":{"android":"levelo://app?vid=a39a55ca-a11f-4701-8727-4d0ba15d34b0","ios":"levelo://app?vid=a39a55ca-a11f-4701-8727-4d0ba15d34b0"},"vehicle_type_id":"4","last_reported":1715353630,"current_range_meters":19600,"station_id":"ce4bgh92rcd13ifvqb50","pricing_plan_id":"cebpf4jnsgd1na2vs0mg"},{"bike_id":"f9f26334-d7ca-4bf8-819c-c6ed49251cab","system_id":"levelo_inurba_marseille","lat":43.295748,"lon":5.37522,"is_reserved":false,"is_disabled":false,"rental_uris":{"android":"levelo://app?vid=f9f26334-d7ca-4bf8-819c-c6ed49251cab","ios":"levelo://app?vid=f9f26334-d7ca-4bf8-819c-c6ed49251cab"},"vehicle_type_id":"4","last_reported":1715353630,"current_range_meters":28400,"station_id":"ce4bgh92rcd13ifvqb50","pricing_plan_id":"cebpf4jnsgd1na2vs0mg"},{"bike_id":"167c9059-9b71-4b90-9f73-a40f57752201","system_id":"levelo_inurba_marseille","lat":43.296277,"lon":5.377108,"is_reserved":false,"is_disabled":false,"rental_uris":{"android":"levelo://app?vid=167c9059-9b71-4b90-9f73-a40f57752201","ios":"levelo://app?vid=167c9059-9b71-4b90-9f73-a40f57752201"},"vehicle_type_id":"4","last_reported":1715353630,"current_range_meters":0,"station_id":"ce4bgi92rcd13ifvqb90","pricing_plan_id":"cebpf4jnsgd1na2vs0mg"},{"bike_id":"80b0e00f-bbb8-42e4-a6cd-f0c0fa188a57","system_id":"levelo_inurba_marseille","lat":43.296277,"lon":5.377108,"is_reserved":false,"is_disabled":false,"rental_uris":{"android":"levelo://app?vid=80b0e00f-bbb8-42e4-a6cd-f0c0fa188a57","ios":"levelo://app?vid=80b0e00f-bbb8-42e4-a6cd-f0c0fa188a57"},"vehicle_type_id":"4","last_reported":1715353630,"current_range_meters":21600,"station_id":"ce4bgi92rcd13ifvqb90","pricing_plan_id":"cebpf4jnsgd1na2vs0mg"},{"bike_id":"c0ede544-3763-461b-a404-5282ee9a395d","system_id":"levelo_inurba_marseille","lat":43.304278,"lon":5.388868,"is_reserved":false,"is_disabled":false,"rental_uris":{"android":"levelo://app?vid=c0ede544-3763-461b-a404-5282ee9a395d","ios":"levelo://app?vid=c0ede544-3763-461b-a404-5282ee9a395d"},"vehicle_type_id":"4","last_reported":1715353630,"current_range_meters":0,"station_id":"ce4bgk12rcd13ifvqbi0","pricing_plan_id":"cebpf4jnsgd1na2vs0mg"},{"bike_id":"50182a68-0e49-4037-9097-aab39ae3f2cc","system_id":"levelo_inurba_marseille","lat":43.296277,"lon":5.377108,"is_reserved":false,"is_disabled":false,"rental_uris":{"android":"levelo://app?vid=50182a68-0e49-4037-9097-aab39ae3f2cc","ios":"levelo://app?vid=50182a68-0e49-4037-9097-aab39ae3f2cc"},"vehicle_type_id":"4","last_reported":1715353630,"current_range_meters":14400,"station_id":"ce4bgi92rcd13ifvqb90","pricing_plan_id":"cebpf4jnsgd1na2vs0mg"},{"bike_id":"6036eebf-e6e2-4105-b597-955d0564e01f","system_id":"levelo_inurba_marseille","lat":43.296277,"lon":5.377108,"is_reserved":false,"is_disabled":false,"rental_uris":{"android":"levelo://app?vid=6036eebf-e6e2-4105-b597-955d0564e01f","ios":"levelo://app?vid=6036eebf-e6e2-4105-b597-955d0564e01f"},"vehicle_type_id":"4","last_reported":1715353630,"current_range_meters":22800,"station_id":"ce4bgi92rcd13ifvqb90","pricing_plan_id":"cebpf4jnsgd1na2vs0mg"},{"bike_id":"90c193c3-4061-44c5-81e2-9c11824400ef","system_id":"levelo_inurba_marseille","lat":43.296277,"lon":5.377108,"is_reserved":false,"is_disabled":false,"rental_uris":{"android":"levelo://app?vid=90c193c3-4061-44c5-81e2-9c11824400ef","ios":"levelo://app?vid=90c193c3-4061-44c5-81e2-9c11824400ef"},"vehicle_type_id":"4","last_reported":1715353630,"current_range_meters":23600,"station_id":"ce4bgi92rcd13ifvqb90","pricing_plan_id":"cebpf4jnsgd1na2vs0mg"},{"bike_id":"3fbe0f39-f09a-47cd-b969-95bf351f91c6","system_id":"levelo_inurba_marseille","lat":43.296277,"lon":5.377108,"is_reserved":false,"is_disabled":false,"rental_uris":{"android":"levelo://app?vid=3fbe0f39-f09a-47cd-b969-95bf351f91c6","ios":"levelo://app?vid=3fbe0f39-f09a-47cd-b969-95bf351f91c6"},"vehicle_type_id":"4","last_reported":1715353630,"current_range_meters":21200,"station_id":"ce4bgi92rcd13ifvqb90","pricing_plan_id":"cebpf4jnsgd1na2vs0mg"},{"bike_id":"cf20555b-8bf2-46cd-ba8b-57f012b71b8f","system_id":"levelo_inurba_marseille","lat":43.295279,"lon":5.375048,"is_reserved":false,"is_disabled":false,"rental_uris":{"android":"levelo://app?vid=cf20555b-8bf2-46cd-ba8b-57f012b71b8f","ios":"levelo://app?vid=cf20555b-8bf2-46cd-ba8b-57f012b71b8f"},"vehicle_type_id":"4","last_reported":1715353630,"current_range_meters":0,"station_id":"ce4bgkp2rcd13ifvqbmg","pricing_plan_id":"cebpf4jnsgd1na2vs0mg"},{"bike_id":"1ece430e-24e9-4756-a993-5f1cbf86cfeb","system_id":"levelo_inurba_marseille","lat":43.295279,"lon":5.375048,"is_reserved":false,"is_disabled":false,"rental_uris":{"android":"levelo://app?vid=1ece430e-24e9-4756-a993-5f1cbf86cfeb","ios":"levelo://app?vid=1ece430e-24e9-4756-a993-5f1cbf86cfeb"},"vehicle_type_id":"4","last_reported":1715353630,"current_range_meters":23600,"station_id":"ce4bgkp2rcd13ifvqbmg","pricing_plan_id":"cebpf4jnsgd1na2vs0mg"},{"bike_id":"623b832a-ba39-489f-94bf-73f9d59f7987","system_id":"levelo_inurba_marseille","lat":43.299717,"lon":5.384845,"is_reserved":false,"is_disabled":false,"rental_uris":{"android":"levelo://app?vid=623b832a-ba39-489f-94bf-73f9d59f7987","ios":"levelo://app?vid=623b832a-ba39-489f-94bf-73f9d59f7987"},"vehicle_type_id":"4","last_reported":1715353630,"current_range_meters":20000,"station_id":"ce4bgj92rcd13ifvqbd0","pricing_plan_id":"cebpf4jnsgd1na2vs0mg"},{"bike_id":"4278b16c-566b-4def-b926-97c5d29f8429","system_id":"levelo_inurba_marseille","lat":43.299724,"lon":5.384848,"is_reserved":false,"is_disabled":false,"rental_uris":{"android":"levelo://app?vid=4278b16c-566b-4def-b926-97c5d29f8429","ios":"levelo://app?vid=4278b16c-566b-4def-b926-97c5d29f8429"},"vehicle_type_id":"4","last_reported":1715353630,"current_range_meters":0,"station_id":"ce4bgj92rcd13ifvqbd0","pricing_plan_id":"cebpf4jnsgd1na2vs0mg"},{"bike_id":"3e273561-2d6b-41aa-b9a6-1a1c4446e0dd","system_id":"levelo_inurba_marseille","lat":43.29491,"lon":5.37577,"is_reserved":false,"is_disabled":false,"rental_uris":{"android":"levelo://app?vid=3e273561-2d6b-41aa-b9a6-1a1c4446e0dd","ios":"levelo://app?vid=3e273561-2d6b-41aa-b9a6-1a1c4446e0dd"},"vehicle_type_id":"4","last_reported":1715353630,"current_range_meters":23200,"station_id":"","pricing_plan_id":"cebpf4jnsgd1na2vs0mg"},{"bike_id":"715ab881-e23f-4e65-8f53-8394bd9cc767","system_id":"levelo_inurba_marseille","lat":43.29602,"lon":5.381084,"is_reserved":false,"is_disabled":false,"rental_uris":{"android":"levelo://app?vid=715ab881-e23f-4e65-8f53-8394bd9cc767","ios":"levelo://app?vid=715ab881-e23f-4e65-8f53-8394bd9cc767"},"vehicle_type_id":"4","last_reported":1715353630,"current_range_meters":8400,"station_id":"ce4bgl12rcd13ifvqbo0","pricing_plan_id":"cebpf4jnsgd1na2vs0mg"},{"bike_id":"0d7a3cc2-becd-4f94-adfb-24c87f9d08cf","system_id":"levelo_inurba_marseille","lat":43.29602,"lon":5.381084,"is_reserved":false,"is_disabled":false,"rental_uris":{"android":"levelo://app?vid=0d7a3cc2-becd-4f94-adfb-24c87f9d08cf","ios":"levelo://app?vid=0d7a3cc2-becd-4f94-adfb-24c87f9d08cf"},"vehicle_type_id":"4","last_reported":1715353630,"current_range_meters":2400,"station_id":"ce4bgl12rcd13ifvqbo0","pricing_plan_id":"cebpf4jnsgd1na2vs0mg"},{"bike_id":"8423e000-6faf-4701-b53e-a7ca5e3a86f3","system_id":"levelo_inurba_marseille","lat":43.292749,"lon":5.368402,"is_reserved":false,"is_disabled":false,"rental_uris":{"android":"levelo://app?vid=8423e000-6faf-4701-b53e-a7ca5e3a86f3","ios":"levelo://app?vid=8423e000-6faf-4701-b53e-a7ca5e3a86f3"},"vehicle_type_id":"4","last_reported":1715353630,"current_range_meters":3200,"station_id":"ce4bhbp2rcd13ifvqesg","pricing_plan_id":"cebpf4jnsgd1na2vs0mg"},{"bike_id":"2585c0ab-4147-4680-b52d-caae4b9a29a2","system_id":"levelo_inurba_marseille","lat":43.287154,"lon":5.399979,"is_reserved":false,"is_disabled":false,"rental_uris":{"android":"levelo://app?vid=2585c0ab-4147-4680-b52d-caae4b9a29a2","ios":"levelo://app?vid=2585c0ab-4147-4680-b52d-caae4b9a29a2"},"vehicle_type_id":"4","last_reported":1715353630,"current_range_meters":26400,"station_id":"ce4bho92rcd13ifvqh3g","pricing_plan_id":"cebpf4jnsgd1na2vs0mg"},{"bike_id":"84fb11c6-3904-4423-aeae-1ae2f61dff0a","system_id":"levelo_inurba_marseille","lat":43.292796,"lon":5.368335,"is_reserved":false,"is_disabled":false,"rental_uris":{"android":"levelo://app?vid=84fb11c6-3904-4423-aeae-1ae2f61dff0a","ios":"levelo://app?vid=84fb11c6-3904-4423-aeae-1ae2f61dff0a"},"vehicle_type_id":"4","last_reported":1715353630,"current_range_meters":8800,"station_id":"ce4bhbp2rcd13ifvqesg","pricing_plan_id":"cebpf4jnsgd1na2vs0mg"},{"bike_id":"eda69b7e-6f65-4eb7-9a8a-58cea8da44df","system_id":"levelo_inurba_marseille","lat":43.292749,"lon":5.368402,"is_reserved":false,"is_disabled":false,"rental_uris":{"android":"levelo://app?vid=eda69b7e-6f65-4eb7-9a8a-58cea8da44df","ios":"levelo://app?vid=eda69b7e-6f65-4eb7-9a8a-58cea8da44df"},"vehicle_type_id":"4","last_reported":1715353630,"current_range_meters":2400,"station_id":"ce4bhbp2rcd13ifvqesg","pricing_plan_id":"cebpf4jnsgd1na2vs0mg"},{"bike_id":"bd41ac4f-bd47-451f-9360-303694c11019","system_id":"levelo_inurba_marseille","lat":43.292749,"lon":5.368398,"is_reserved":false,"is_disabled":false,"rental_uris":{"android":"levelo://app?vid=bd41ac4f-bd47-451f-9360-303694c11019","ios":"levelo://app?vid=bd41ac4f-bd47-451f-9360-303694c11019"},"vehicle_type_id":"4","last_reported":1715353630,"current_range_meters":9600,"station_id":"ce4bhbp2rcd13ifvqesg","pricing_plan_id":"cebpf4jnsgd1na2vs0mg"},{"bike_id":"8a90e7e5-529d-4d1f-bed3-95ae58122de4","system_id":"levelo_inurba_marseille","lat":43.293259,"lon":5.371586,"is_reserved":false,"is_disabled":false,"rental_uris":{"android":"levelo://app?vid=8a90e7e5-529d-4d1f-bed3-95ae58122de4","ios":"levelo://app?vid=8a90e7e5-529d-4d1f-bed3-95ae58122de4"},"vehicle_type_id":"4","last_reported":1715353630,"current_range_meters":0,"station_id":"ce4bgh92rcd13ifvqb40","pricing_plan_id":"cebpf4jnsgd1na2vs0mg"},{"bike_id":"d2384db0-e6d3-444a-a0a7-00e14909b3c4","system_id":"levelo_inurba_marseille","lat":43.292749,"lon":5.368402,"is_reserved":false,"is_disabled":false,"rental_uris":{"android":"levelo://app?vid=d2384db0-e6d3-444a-a0a7-00e14909b3c4","ios":"levelo://app?vid=d2384db0-e6d3-444a-a0a7-00e14909b3c4"},"vehicle_type_id":"4","last_reported":1715353630,"current_range_meters":0,"station_id":"ce4bhbp2rcd13ifvqesg","pricing_plan_id":"cebpf4jnsgd1na2vs0mg"},{"bike_id":"458e4851-fc82-4413-ad77-3529ba42c76b","system_id":"levelo_inurba_marseille","lat":43.29271,"lon":5.36834,"is_reserved":false,"is_disabled":false,"rental_uris":{"android":"levelo://app?vid=458e4851-fc82-4413-ad77-3529ba42c76b","ios":"levelo://app?vid=458e4851-fc82-4413-ad77-3529ba42c76b"},"vehicle_type_id":"4","last_reported":1715353630,"current_range_meters":0,"station_id":"ce4bhbp2rcd13ifvqesg","pricing_plan_id":"cebpf4jnsgd1na2vs0mg"},{"bike_id":"f39d7243-06b8-4686-bf9b-e607a4002ead","system_id":"levelo_inurba_marseille","lat":43.305994,"lon":5.393687,"is_reserved":false,"is_disabled":false,"rental_uris":{"android":"levelo://app?vid=f39d7243-06b8-4686-bf9b-e607a4002ead","ios":"levelo://app?vid=f39d7243-06b8-4686-bf9b-e607a4002ead"},"vehicle_type_id":"4","last_reported":1715353630,"current_range_meters":2800,"station_id":"ce4bh0p2rcd13ifvqd80","pricing_plan_id":"cebpf4jnsgd1na2vs0mg"},{"bike_id":"bc9fc4b5-1491-4815-872e-00bc38dddb04","system_id":"levelo_inurba_marseille","lat":43.305994,"lon":5.393687,"is_reserved":false,"is_disabled":false,"rental_uris":{"android":"levelo://app?vid=bc9fc4b5-1491-4815-872e-00bc38dddb04","ios":"levelo://app?vid=bc9fc4b5-1491-4815-872e-00bc38dddb04"},"vehicle_type_id":"4","last_reported":1715353630,"current_range_meters":5200,"station_id":"ce4bh0p2rcd13ifvqd80","pricing_plan_id":"cebpf4jnsgd1na2vs0mg"},{"bike_id":"e339c5a0-6a9b-4ff2-a8a8-40d0f1fe706b","system_id":"levelo_inurba_marseille","lat":43.305994,"lon":5.393687,"is_reserved":false,"is_disabled":false,"rental_uris":{"android":"levelo://app?vid=e339c5a0-6a9b-4ff2-a8a8-40d0f1fe706b","ios":"levelo://app?vid=e339c5a0-6a9b-4ff2-a8a8-40d0f1fe706b"},"vehicle_type_id":"4","last_reported":1715353630,"current_range_meters":8800,"station_id":"ce4bh0p2rcd13ifvqd80","pricing_plan_id":"cebpf4jnsgd1na2vs0mg"},{"bike_id":"f58d6cc1-8e3b-4e96-9c49-5f1fd0c85239","system_id":"levelo_inurba_marseille","lat":43.299724,"lon":5.384848,"is_reserved":false,"is_disabled":false,"rental_uris":{"android":"levelo://app?vid=f58d6cc1-8e3b-4e96-9c49-5f1fd0c85239","ios":"levelo://app?vid=f58d6cc1-8e3b-4e96-9c49-5f1fd0c85239"},"vehicle_type_id":"4","last_reported":1715353630,"current_range_meters":0,"station_id":"ce4bgj92rcd13ifvqbd0","pricing_plan_id":"cebpf4jnsgd1na2vs0mg"},{"bike_id":"f16056bf-752d-413a-bac7-5d0f6d02c914","system_id":"levelo_inurba_marseille","lat":43.30085,"lon":5.390856,"is_reserved":false,"is_disabled":false,"rental_uris":{"android":"levelo://app?vid=f16056bf-752d-413a-bac7-5d0f6d02c914","ios":"levelo://app?vid=f16056bf-752d-413a-bac7-5d0f6d02c914"},"vehicle_type_id":"4","last_reported":1715353630,"current_range_meters":0,"station_id":"ce4bh192rcd13ifvqdb0","pricing_plan_id":"cebpf4jnsgd1na2vs0mg"},{"bike_id":"dc9bac51-66a0-4df8-9f0b-896a1f41fb52","system_id":"levelo_inurba_marseille","lat":43.2936,"lon":5.37835,"is_reserved":false,"is_disabled":false,"rental_uris":{"android":"levelo://app?vid=dc9bac51-66a0-4df8-9f0b-896a1f41fb52","ios":"levelo://app?vid=dc9bac51-66a0-4df8-9f0b-896a1f41fb52"},"vehicle_type_id":"4","last_reported":1715353630,"current_range_meters":0,"station_id":"ce4bgjh2rcd13ifvqbf0","pricing_plan_id":"cebpf4jnsgd1na2vs0mg"},{"bike_id":"bb46efa7-a726-4070-84ba-c6ea987bf77e","system_id":"levelo_inurba_marseille","lat":43.29177,"lon":5.37141,"is_reserved":false,"is_disabled":false,"rental_uris":{"android":"levelo://app?vid=bb46efa7-a726-4070-84ba-c6ea987bf77e","ios":"levelo://app?vid=bb46efa7-a726-4070-84ba-c6ea987bf77e"},"vehicle_type_id":"4","last_reported":1715353630,"current_range_meters":0,"station_id":"ce4bha92rcd13ifvqeh0","pricing_plan_id":"cebpf4jnsgd1na2vs0mg"},{"bike_id":"35a573f6-0a70-4207-b781-fffe7271e239","system_id":"levelo_inurba_marseille","lat":43.298764,"lon":5.388973,"is_reserved":false,"is_disabled":false,"rental_uris":{"android":"levelo://app?vid=35a573f6-0a70-4207-b781-fffe7271e239","ios":"levelo://app?vid=35a573f6-0a70-4207-b781-fffe7271e239"},"vehicle_type_id":"4","last_reported":1715353630,"current_range_meters":8400,"station_id":"ce4bh392rcd13ifvqdl0","pricing_plan_id":"cebpf4jnsgd1na2vs0mg"},{"bike_id":"ac580541-a807-463c-8e6b-7f524e9d1a28","system_id":"levelo_inurba_marseille","lat":43.298764,"lon":5.388973,"is_reserved":false,"is_disabled":false,"rental_uris":{"android":"levelo://app?vid=ac580541-a807-463c-8e6b-7f524e9d1a28","ios":"levelo://app?vid=ac580541-a807-463c-8e6b-7f524e9d1a28"},"vehicle_type_id":"4","last_reported":1715353630,"current_range_meters":0,"station_id":"ce4bh392rcd13ifvqdl0","pricing_plan_id":"cebpf4jnsgd1na2vs0mg"},{"bike_id":"c8ded51f-46c5-41c4-812a-4462834c09a7","system_id":"levelo_inurba_marseille","lat":43.2917,"lon":5.37159,"is_reserved":false,"is_disabled":false,"rental_uris":{"android":"levelo://app?vid=c8ded51f-46c5-41c4-812a-4462834c09a7","ios":"levelo://app?vid=c8ded51f-46c5-41c4-812a-4462834c09a7"},"vehicle_type_id":"4","last_reported":1715353630,"current_range_meters":2800,"station_id":"ce4bha92rcd13ifvqeh0","pricing_plan_id":"cebpf4jnsgd1na2vs0mg"},{"bike_id":"e7cbc618-47c8-492d-82f6-b9a79ccf58a5","system_id":"levelo_inurba_marseille","lat":43.291671,"lon":5.371575,"is_reserved":false,"is_disabled":false,"rental_uris":{"android":"levelo://app?vid=e7cbc618-47c8-492d-82f6-b9a79ccf58a5","ios":"levelo://app?vid=e7cbc618-47c8-492d-82f6-b9a79ccf58a5"},"vehicle_type_id":"4","last_reported":1715353630,"current_range_meters":0,"station_id":"ce4bha92rcd13ifvqeh0","pricing_plan_id":"cebpf4jnsgd1na2vs0mg"},{"bike_id":"b08004a0-078d-40d7-a7ef-5503f5273ad6","system_id":"levelo_inurba_marseille","lat":43.313503,"lon":5.3966,"is_reserved":false,"is_disabled":false,"rental_uris":{"android":"levelo://app?vid=b08004a0-078d-40d7-a7ef-5503f5273ad6","ios":"levelo://app?vid=b08004a0-078d-40d7-a7ef-5503f5273ad6"},"vehicle_type_id":"4","last_reported":1715353630,"current_range_meters":0,"station_id":"ce4bgvp2rcd13ifvqcu0","pricing_plan_id":"cebpf4jnsgd1na2vs0mg"},{"bike_id":"c246b154-436a-42e9-93b0-25a6756161ec","system_id":"levelo_inurba_marseille","lat":43.291675,"lon":5.371583,"is_reserved":false,"is_disabled":false,"rental_uris":{"android":"levelo://app?vid=c246b154-436a-42e9-93b0-25a6756161ec","ios":"levelo://app?vid=c246b154-436a-42e9-93b0-25a6756161ec"},"vehicle_type_id":"4","last_reported":1715353630,"current_range_meters":0,"station_id":"ce4bha92rcd13ifvqeh0","pricing_plan_id":"cebpf4jnsgd1na2vs0mg"},{"bike_id":"fc95e55b-bc56-46bc-9e2c-c88f33e31c56","system_id":"levelo_inurba_marseille","lat":43.313101,"lon":5.396893,"is_reserved":false,"is_disabled":false,"rental_uris":{"android":"levelo://app?vid=fc95e55b-bc56-46bc-9e2c-c88f33e31c56","ios":"levelo://app?vid=fc95e55b-bc56-46bc-9e2c-c88f33e31c56"},"vehicle_type_id":"4","last_reported":1715353630,"current_range_meters":17600,"station_id":"ce4bgvp2rcd13ifvqcu0","pricing_plan_id":"cebpf4jnsgd1na2vs0mg"},{"bike_id":"c41746da-18c9-48fa-b5ae-3c4de9009b38","system_id":"levelo_inurba_marseille","lat":43.313291,"lon":5.396838,"is_reserved":false,"is_disabled":false,"rental_uris":{"android":"levelo://app?vid=c41746da-18c9-48fa-b5ae-3c4de9009b38","ios":"levelo://app?vid=c41746da-18c9-48fa-b5ae-3c4de9009b38"},"vehicle_type_id":"4","last_reported":1715353630,"current_range_meters":10000,"station_id":"ce4bgvp2rcd13ifvqcu0","pricing_plan_id":"cebpf4jnsgd1na2vs0mg"},{"bike_id":"ad043d75-8ece-40fa-8b63-c08abab098ed","system_id":"levelo_inurba_marseille","lat":43.295574,"lon":5.385446,"is_reserved":false,"is_disabled":false,"rental_uris":{"android":"levelo://app?vid=ad043d75-8ece-40fa-8b63-c08abab098ed","ios":"levelo://app?vid=ad043d75-8ece-40fa-8b63-c08abab098ed"},"vehicle_type_id":"4","last_reported":1715353630,"current_range_meters":0,"station_id":"ce4bgih2rcd13ifvqba0","pricing_plan_id":"cebpf4jnsgd1na2vs0mg"},{"bike_id":"ac7a38a9-c70e-49ad-8d95-084a8f9076fa","system_id":"levelo_inurba_marseille","lat":43.313291,"lon":5.396838,"is_reserved":false,"is_disabled":false,"rental_uris":{"android":"levelo://app?vid=ac7a38a9-c70e-49ad-8d95-084a8f9076fa","ios":"levelo://app?vid=ac7a38a9-c70e-49ad-8d95-084a8f9076fa"},"vehicle_type_id":"4","last_reported":1715353630,"current_range_meters":0,"station_id":"ce4bgvp2rcd13ifvqcu0","pricing_plan_id":"cebpf4jnsgd1na2vs0mg"},{"bike_id":"42c7f7f6-16c9-4161-a3dd-75a86ffb6ee8","system_id":"levelo_inurba_marseille","lat":43.313291,"lon":5.396838,"is_reserved":false,"is_disabled":false,"rental_uris":{"android":"levelo://app?vid=42c7f7f6-16c9-4161-a3dd-75a86ffb6ee8","ios":"levelo://app?vid=42c7f7f6-16c9-4161-a3dd-75a86ffb6ee8"},"vehicle_type_id":"4","last_reported":1715353630,"current_range_meters":31200,"station_id":"ce4bgvp2rcd13ifvqcu0","pricing_plan_id":"cebpf4jnsgd1na2vs0mg"},{"bike_id":"d0d37b6f-0e4b-4d6a-8328-1ec40ac588f8","system_id":"levelo_inurba_marseille","lat":43.313291,"lon":5.396838,"is_reserved":false,"is_disabled":false,"rental_uris":{"android":"levelo://app?vid=d0d37b6f-0e4b-4d6a-8328-1ec40ac588f8","ios":"levelo://app?vid=d0d37b6f-0e4b-4d6a-8328-1ec40ac588f8"},"vehicle_type_id":"4","last_reported":1715353630,"current_range_meters":18800,"station_id":"ce4bgvp2rcd13ifvqcu0","pricing_plan_id":"cebpf4jnsgd1na2vs0mg"},{"bike_id":"e6aa93ab-f505-4faa-94e4-e36f869e56ad","system_id":"levelo_inurba_marseille","lat":43.31331,"lon":5.39696,"is_reserved":false,"is_disabled":false,"rental_uris":{"android":"levelo://app?vid=e6aa93ab-f505-4faa-94e4-e36f869e56ad","ios":"levelo://app?vid=e6aa93ab-f505-4faa-94e4-e36f869e56ad"},"vehicle_type_id":"4","last_reported":1715353630,"current_range_meters":0,"station_id":"ce4bgvp2rcd13ifvqcu0","pricing_plan_id":"cebpf4jnsgd1na2vs0mg"},{"bike_id":"370a4660-8820-46a7-8032-5a471a776363","system_id":"levelo_inurba_marseille","lat":43.231919,"lon":5.355532,"is_reserved":false,"is_disabled":false,"rental_uris":{"android":"levelo://app?vid=370a4660-8820-46a7-8032-5a471a776363","ios":"levelo://app?vid=370a4660-8820-46a7-8032-5a471a776363"},"vehicle_type_id":"4","last_reported":1715353630,"current_range_meters":18000,"station_id":"ce4bhu92rcd13ifvqi70","pricing_plan_id":"cebpf4jnsgd1na2vs0mg"},{"bike_id":"d891e286-e3ed-48d1-bdc9-ddb8ff64d2eb","system_id":"levelo_inurba_marseille","lat":43.313291,"lon":5.396838,"is_reserved":false,"is_disabled":false,"rental_uris":{"android":"levelo://app?vid=d891e286-e3ed-48d1-bdc9-ddb8ff64d2eb","ios":"levelo://app?vid=d891e286-e3ed-48d1-bdc9-ddb8ff64d2eb"},"vehicle_type_id":"4","last_reported":1715353630,"current_range_meters":0,"station_id":"ce4bgvp2rcd13ifvqcu0","pricing_plan_id":"cebpf4jnsgd1na2vs0mg"},{"bike_id":"8dd9861b-dce6-4f01-9bee-9045957c0538","system_id":"levelo_inurba_marseille","lat":43.313291,"lon":5.396838,"is_reserved":false,"is_disabled":false,"rental_uris":{"android":"levelo://app?vid=8dd9861b-dce6-4f01-9bee-9045957c0538","ios":"levelo://app?vid=8dd9861b-dce6-4f01-9bee-9045957c0538"},"vehicle_type_id":"4","last_reported":1715353630,"current_range_meters":21600,"station_id":"ce4bgvp2rcd13ifvqcu0","pricing_plan_id":"cebpf4jnsgd1na2vs0mg"},{"bike_id":"2026b48d-df1d-4ee2-812a-224a2aa2c05f","system_id":"levelo_inurba_marseille","lat":43.313291,"lon":5.396838,"is_reserved":false,"is_disabled":false,"rental_uris":{"android":"levelo://app?vid=2026b48d-df1d-4ee2-812a-224a2aa2c05f","ios":"levelo://app?vid=2026b48d-df1d-4ee2-812a-224a2aa2c05f"},"vehicle_type_id":"4","last_reported":1715353630,"current_range_meters":29600,"station_id":"ce4bgvp2rcd13ifvqcu0","pricing_plan_id":"cebpf4jnsgd1na2vs0mg"},{"bike_id":"0e94799a-1906-4681-9815-e34cc5d0c1fd","system_id":"levelo_inurba_marseille","lat":43.313291,"lon":5.396838,"is_reserved":false,"is_disabled":false,"rental_uris":{"android":"levelo://app?vid=0e94799a-1906-4681-9815-e34cc5d0c1fd","ios":"levelo://app?vid=0e94799a-1906-4681-9815-e34cc5d0c1fd"},"vehicle_type_id":"4","last_reported":1715353630,"current_range_meters":1200,"station_id":"ce4bgvp2rcd13ifvqcu0","pricing_plan_id":"cebpf4jnsgd1na2vs0mg"},{"bike_id":"d65937a1-a5f9-49a6-b697-8e5327e632bb","system_id":"levelo_inurba_marseille","lat":43.295428,"lon":5.385467,"is_reserved":false,"is_disabled":false,"rental_uris":{"android":"levelo://app?vid=d65937a1-a5f9-49a6-b697-8e5327e632bb","ios":"levelo://app?vid=d65937a1-a5f9-49a6-b697-8e5327e632bb"},"vehicle_type_id":"4","last_reported":1715353630,"current_range_meters":0,"station_id":"ce4bgih2rcd13ifvqba0","pricing_plan_id":"cebpf4jnsgd1na2vs0mg"},{"bike_id":"a59d3553-a66c-45c2-b1a3-41dabb984812","system_id":"levelo_inurba_marseille","lat":43.29529,"lon":5.385581,"is_reserved":false,"is_disabled":false,"rental_uris":{"android":"levelo://app?vid=a59d3553-a66c-45c2-b1a3-41dabb984812","ios":"levelo://app?vid=a59d3553-a66c-45c2-b1a3-41dabb984812"},"vehicle_type_id":"4","last_reported":1715353630,"current_range_meters":0,"station_id":"ce4bgih2rcd13ifvqba0","pricing_plan_id":"cebpf4jnsgd1na2vs0mg"},{"bike_id":"98ebef85-93fc-4437-bdd3-02b1c1d9446a","system_id":"levelo_inurba_marseille","lat":43.292005,"lon":5.357875,"is_reserved":false,"is_disabled":false,"rental_uris":{"android":"levelo://app?vid=98ebef85-93fc-4437-bdd3-02b1c1d9446a","ios":"levelo://app?vid=98ebef85-93fc-4437-bdd3-02b1c1d9446a"},"vehicle_type_id":"4","last_reported":1715353630,"current_range_meters":800,"station_id":"ce4bhb12rcd13ifvqel0","pricing_plan_id":"cebpf4jnsgd1na2vs0mg"},{"bike_id":"2b07f834-5d0d-4d8e-a7b7-b1539f8d30e1","system_id":"levelo_inurba_marseille","lat":43.290779,"lon":5.371482,"is_reserved":false,"is_disabled":false,"rental_uris":{"android":"levelo://app?vid=2b07f834-5d0d-4d8e-a7b7-b1539f8d30e1","ios":"levelo://app?vid=2b07f834-5d0d-4d8e-a7b7-b1539f8d30e1"},"vehicle_type_id":"4","last_reported":1715353630,"current_range_meters":9200,"station_id":"ce4bh5p2rcd13ifvqe4g","pricing_plan_id":"cebpf4jnsgd1na2vs0mg"},{"bike_id":"52d43afd-928b-47cd-a4fe-15cab48d0be6","system_id":"levelo_inurba_marseille","lat":43.290779,"lon":5.371482,"is_reserved":false,"is_disabled":false,"rental_uris":{"android":"levelo://app?vid=52d43afd-928b-47cd-a4fe-15cab48d0be6","ios":"levelo://app?vid=52d43afd-928b-47cd-a4fe-15cab48d0be6"},"vehicle_type_id":"4","last_reported":1715353630,"current_range_meters":0,"station_id":"ce4bh5p2rcd13ifvqe4g","pricing_plan_id":"cebpf4jnsgd1na2vs0mg"},{"bike_id":"bc8c9d2a-c37f-4947-a046-6676277abc29","system_id":"levelo_inurba_marseille","lat":43.29182,"lon":5.35616,"is_reserved":false,"is_disabled":false,"rental_uris":{"android":"levelo://app?vid=bc8c9d2a-c37f-4947-a046-6676277abc29","ios":"levelo://app?vid=bc8c9d2a-c37f-4947-a046-6676277abc29"},"vehicle_type_id":"4","last_reported":1715353630,"current_range_meters":19600,"station_id":"ce4bhch2rcd13ifvqeug","pricing_plan_id":"cebpf4jnsgd1na2vs0mg"},{"bike_id":"b19c2b3e-0307-4d6f-89f9-d0de125dab66","system_id":"levelo_inurba_marseille","lat":43.291839,"lon":5.377781,"is_reserved":false,"is_disabled":false,"rental_uris":{"android":"levelo://app?vid=b19c2b3e-0307-4d6f-89f9-d0de125dab66","ios":"levelo://app?vid=b19c2b3e-0307-4d6f-89f9-d0de125dab66"},"vehicle_type_id":"4","last_reported":1715353630,"current_range_meters":0,"station_id":"ce4bgjh2rcd13ifvqbf0","pricing_plan_id":"cebpf4jnsgd1na2vs0mg"},{"bike_id":"42b63d5a-b444-4584-85de-c0483eed9597","system_id":"levelo_inurba_marseille","lat":43.290624,"lon":5.359245,"is_reserved":false,"is_disabled":false,"rental_uris":{"android":"levelo://app?vid=42b63d5a-b444-4584-85de-c0483eed9597","ios":"levelo://app?vid=42b63d5a-b444-4584-85de-c0483eed9597"},"vehicle_type_id":"4","last_reported":1715353630,"current_range_meters":23200,"station_id":"ce4bha92rcd13ifvqeg0","pricing_plan_id":"cebpf4jnsgd1na2vs0mg"},{"bike_id":"aecd2494-92bf-4bad-8cf6-b8217ac86c7b","system_id":"levelo_inurba_marseille","lat":43.290631,"lon":5.359244,"is_reserved":false,"is_disabled":false,"rental_uris":{"android":"levelo://app?vid=aecd2494-92bf-4bad-8cf6-b8217ac86c7b","ios":"levelo://app?vid=aecd2494-92bf-4bad-8cf6-b8217ac86c7b"},"vehicle_type_id":"4","last_reported":1715353630,"current_range_meters":4000,"station_id":"ce4bha92rcd13ifvqeg0","pricing_plan_id":"cebpf4jnsgd1na2vs0mg"},{"bike_id":"7ca922c7-bbc3-4a7c-bf06-8f3dfbdb48b1","system_id":"levelo_inurba_marseille","lat":43.29038,"lon":5.359179,"is_reserved":false,"is_disabled":false,"rental_uris":{"android":"levelo://app?vid=7ca922c7-bbc3-4a7c-bf06-8f3dfbdb48b1","ios":"levelo://app?vid=7ca922c7-bbc3-4a7c-bf06-8f3dfbdb48b1"},"vehicle_type_id":"4","last_reported":1715353630,"current_range_meters":7600,"station_id":"ce4bha92rcd13ifvqeg0","pricing_plan_id":"cebpf4jnsgd1na2vs0mg"},{"bike_id":"af155e36-4833-47a6-93ad-9ac16da99e94","system_id":"levelo_inurba_marseille","lat":43.290305,"lon":5.359037,"is_reserved":false,"is_disabled":false,"rental_uris":{"android":"levelo://app?vid=af155e36-4833-47a6-93ad-9ac16da99e94","ios":"levelo://app?vid=af155e36-4833-47a6-93ad-9ac16da99e94"},"vehicle_type_id":"4","last_reported":1715353630,"current_range_meters":0,"station_id":"ce4bha92rcd13ifvqeg0","pricing_plan_id":"cebpf4jnsgd1na2vs0mg"},{"bike_id":"2f7550f2-e219-4f18-93df-8839fef2c7a5","system_id":"levelo_inurba_marseille","lat":43.294162,"lon":5.386292,"is_reserved":false,"is_disabled":false,"rental_uris":{"android":"levelo://app?vid=2f7550f2-e219-4f18-93df-8839fef2c7a5","ios":"levelo://app?vid=2f7550f2-e219-4f18-93df-8839fef2c7a5"},"vehicle_type_id":"4","last_reported":1715353630,"current_range_meters":14400,"station_id":"ce4bh2h2rcd13ifvqdh0","pricing_plan_id":"cebpf4jnsgd1na2vs0mg"},{"bike_id":"e48cd656-f992-4c96-891e-b4574ce0924d","system_id":"levelo_inurba_marseille","lat":43.287154,"lon":5.399979,"is_reserved":false,"is_disabled":false,"rental_uris":{"android":"levelo://app?vid=e48cd656-f992-4c96-891e-b4574ce0924d","ios":"levelo://app?vid=e48cd656-f992-4c96-891e-b4574ce0924d"},"vehicle_type_id":"4","last_reported":1715353630,"current_range_meters":2400,"station_id":"ce4bho92rcd13ifvqh3g","pricing_plan_id":"cebpf4jnsgd1na2vs0mg"},{"bike_id":"b2da950a-12e0-4e2b-8c0b-0c5f9a96c736","system_id":"levelo_inurba_marseille","lat":43.290327,"lon":5.375711,"is_reserved":false,"is_disabled":false,"rental_uris":{"android":"levelo://app?vid=b2da950a-12e0-4e2b-8c0b-0c5f9a96c736","ios":"levelo://app?vid=b2da950a-12e0-4e2b-8c0b-0c5f9a96c736"},"vehicle_type_id":"4","last_reported":1715353630,"current_range_meters":22800,"station_id":"ce4bh692rcd13ifvqe90","pricing_plan_id":"cebpf4jnsgd1na2vs0mg"},{"bike_id":"466c2b95-3a5f-473b-83cb-e42d53f3c638","system_id":"levelo_inurba_marseille","lat":43.289184,"lon":5.366408,"is_reserved":false,"is_disabled":false,"rental_uris":{"android":"levelo://app?vid=466c2b95-3a5f-473b-83cb-e42d53f3c638","ios":"levelo://app?vid=466c2b95-3a5f-473b-83cb-e42d53f3c638"},"vehicle_type_id":"4","last_reported":1715353630,"current_range_meters":1600,"station_id":"ce4bhap2rcd13ifvqek0","pricing_plan_id":"cebpf4jnsgd1na2vs0mg"},{"bike_id":"9acb9fac-a598-4185-b96f-5bc4b1d5965b","system_id":"levelo_inurba_marseille","lat":43.289184,"lon":5.366408,"is_reserved":false,"is_disabled":false,"rental_uris":{"android":"levelo://app?vid=9acb9fac-a598-4185-b96f-5bc4b1d5965b","ios":"levelo://app?vid=9acb9fac-a598-4185-b96f-5bc4b1d5965b"},"vehicle_type_id":"4","last_reported":1715353630,"current_range_meters":1200,"station_id":"ce4bhap2rcd13ifvqek0","pricing_plan_id":"cebpf4jnsgd1na2vs0mg"},{"bike_id":"a73261b5-a2ad-43de-97f4-23c035dd1617","system_id":"levelo_inurba_marseille","lat":43.28928,"lon":5.36633,"is_reserved":false,"is_disabled":false,"rental_uris":{"android":"levelo://app?vid=a73261b5-a2ad-43de-97f4-23c035dd1617","ios":"levelo://app?vid=a73261b5-a2ad-43de-97f4-23c035dd1617"},"vehicle_type_id":"4","last_reported":1715353630,"current_range_meters":0,"station_id":"ce4bhap2rcd13ifvqek0","pricing_plan_id":"cebpf4jnsgd1na2vs0mg"},{"bike_id":"2a68e5a1-3fb5-420d-8e50-09162f39d2d1","system_id":"levelo_inurba_marseille","lat":43.29265,"lon":5.38444,"is_reserved":false,"is_disabled":false,"rental_uris":{"android":"levelo://app?vid=2a68e5a1-3fb5-420d-8e50-09162f39d2d1","ios":"levelo://app?vid=2a68e5a1-3fb5-420d-8e50-09162f39d2d1"},"vehicle_type_id":"4","last_reported":1715353630,"current_range_meters":28400,"station_id":"ce4bh692rcd13ifvqea0","pricing_plan_id":"cebpf4jnsgd1na2vs0mg"},{"bike_id":"45bd3aa3-52c6-49a1-8b10-2ff8d88dd54a","system_id":"levelo_inurba_marseille","lat":43.292644,"lon":5.384257,"is_reserved":false,"is_disabled":false,"rental_uris":{"android":"levelo://app?vid=45bd3aa3-52c6-49a1-8b10-2ff8d88dd54a","ios":"levelo://app?vid=45bd3aa3-52c6-49a1-8b10-2ff8d88dd54a"},"vehicle_type_id":"4","last_reported":1715353630,"current_range_meters":22400,"station_id":"ce4bh692rcd13ifvqea0","pricing_plan_id":"cebpf4jnsgd1na2vs0mg"},{"bike_id":"89217305-b8e5-4828-9c9b-fc835c2cb1c3","system_id":"levelo_inurba_marseille","lat":43.30471,"lon":5.39783,"is_reserved":false,"is_disabled":false,"rental_uris":{"android":"levelo://app?vid=89217305-b8e5-4828-9c9b-fc835c2cb1c3","ios":"levelo://app?vid=89217305-b8e5-4828-9c9b-fc835c2cb1c3"},"vehicle_type_id":"4","last_reported":1715353630,"current_range_meters":22800,"station_id":"","pricing_plan_id":"cebpf4jnsgd1na2vs0mg"},{"bike_id":"64ac2e4c-e6e0-42f2-a08b-f9a94504e060","system_id":"levelo_inurba_marseille","lat":43.290104,"lon":5.356111,"is_reserved":false,"is_disabled":false,"rental_uris":{"android":"levelo://app?vid=64ac2e4c-e6e0-42f2-a08b-f9a94504e060","ios":"levelo://app?vid=64ac2e4c-e6e0-42f2-a08b-f9a94504e060"},"vehicle_type_id":"4","last_reported":1715353630,"current_range_meters":0,"station_id":"ce4bhb92rcd13ifvqen0","pricing_plan_id":"cebpf4jnsgd1na2vs0mg"},{"bike_id":"eff31349-36d1-45e0-b471-49c8bdfac164","system_id":"levelo_inurba_marseille","lat":43.29011,"lon":5.35615,"is_reserved":false,"is_disabled":false,"rental_uris":{"android":"levelo://app?vid=eff31349-36d1-45e0-b471-49c8bdfac164","ios":"levelo://app?vid=eff31349-36d1-45e0-b471-49c8bdfac164"},"vehicle_type_id":"4","last_reported":1715353630,"current_range_meters":7600,"station_id":"ce4bhb92rcd13ifvqen0","pricing_plan_id":"cebpf4jnsgd1na2vs0mg"},{"bike_id":"f0e490ee-9dd4-4bbc-8070-a1af15188c77","system_id":"levelo_inurba_marseille","lat":43.290131,"lon":5.356032,"is_reserved":false,"is_disabled":false,"rental_uris":{"android":"levelo://app?vid=f0e490ee-9dd4-4bbc-8070-a1af15188c77","ios":"levelo://app?vid=f0e490ee-9dd4-4bbc-8070-a1af15188c77"},"vehicle_type_id":"4","last_reported":1715353630,"current_range_meters":2800,"station_id":"ce4bhb92rcd13ifvqen0","pricing_plan_id":"cebpf4jnsgd1na2vs0mg"},{"bike_id":"ce0ef4d3-be4a-4aae-9b13-e34f756381d7","system_id":"levelo_inurba_marseille","lat":43.290104,"lon":5.356111,"is_reserved":false,"is_disabled":false,"rental_uris":{"android":"levelo://app?vid=ce0ef4d3-be4a-4aae-9b13-e34f756381d7","ios":"levelo://app?vid=ce0ef4d3-be4a-4aae-9b13-e34f756381d7"},"vehicle_type_id":"4","last_reported":1715353630,"current_range_meters":21200,"station_id":"ce4bhb92rcd13ifvqen0","pricing_plan_id":"cebpf4jnsgd1na2vs0mg"},{"bike_id":"78cc3cfb-bc64-4113-98d4-d85255bf0704","system_id":"levelo_inurba_marseille","lat":43.29007,"lon":5.35609,"is_reserved":false,"is_disabled":false,"rental_uris":{"android":"levelo://app?vid=78cc3cfb-bc64-4113-98d4-d85255bf0704","ios":"levelo://app?vid=78cc3cfb-bc64-4113-98d4-d85255bf0704"},"vehicle_type_id":"4","last_reported":1715353630,"current_range_meters":18800,"station_id":"ce4bhb92rcd13ifvqen0","pricing_plan_id":"cebpf4jnsgd1na2vs0mg"},{"bike_id":"660d4fd0-a60e-45fd-865d-dc9e9ef8c9eb","system_id":"levelo_inurba_marseille","lat":43.290103,"lon":5.356114,"is_reserved":false,"is_disabled":false,"rental_uris":{"android":"levelo://app?vid=660d4fd0-a60e-45fd-865d-dc9e9ef8c9eb","ios":"levelo://app?vid=660d4fd0-a60e-45fd-865d-dc9e9ef8c9eb"},"vehicle_type_id":"4","last_reported":1715353630,"current_range_meters":14800,"station_id":"ce4bhb92rcd13ifvqen0","pricing_plan_id":"cebpf4jnsgd1na2vs0mg"},{"bike_id":"c158f020-77a1-4d56-b942-f693e6b69cce","system_id":"levelo_inurba_marseille","lat":43.290995,"lon":5.381361,"is_reserved":false,"is_disabled":false,"rental_uris":{"android":"levelo://app?vid=c158f020-77a1-4d56-b942-f693e6b69cce","ios":"levelo://app?vid=c158f020-77a1-4d56-b942-f693e6b69cce"},"vehicle_type_id":"4","last_reported":1715353630,"current_range_meters":0,"station_id":"ce4bh512rcd13ifvqe2g","pricing_plan_id":"cebpf4jnsgd1na2vs0mg"},{"bike_id":"2505f9c8-3888-4d6a-978e-17f665677a33","system_id":"levelo_inurba_marseille","lat":43.288546,"lon":5.365224,"is_reserved":false,"is_disabled":false,"rental_uris":{"android":"levelo://app?vid=2505f9c8-3888-4d6a-978e-17f665677a33","ios":"levelo://app?vid=2505f9c8-3888-4d6a-978e-17f665677a33"},"vehicle_type_id":"4","last_reported":1715353630,"current_range_meters":0,"station_id":"","pricing_plan_id":"cebpf4jnsgd1na2vs0mg"},{"bike_id":"642f3e1a-6d37-4f5a-a8f7-5d2819aea3df","system_id":"levelo_inurba_marseille","lat":43.295169,"lon":5.390426,"is_reserved":false,"is_disabled":false,"rental_uris":{"android":"levelo://app?vid=642f3e1a-6d37-4f5a-a8f7-5d2819aea3df","ios":"levelo://app?vid=642f3e1a-6d37-4f5a-a8f7-5d2819aea3df"},"vehicle_type_id":"4","last_reported":1715353630,"current_range_meters":21200,"station_id":"ce4bh3p2rcd13ifvqdp0","pricing_plan_id":"cebpf4jnsgd1na2vs0mg"},{"bike_id":"64d85370-bad0-4249-b868-b4e5f6cc4504","system_id":"levelo_inurba_marseille","lat":43.330442,"lon":5.389148,"is_reserved":false,"is_disabled":false,"rental_uris":{"android":"levelo://app?vid=64d85370-bad0-4249-b868-b4e5f6cc4504","ios":"levelo://app?vid=64d85370-bad0-4249-b868-b4e5f6cc4504"},"vehicle_type_id":"4","last_reported":1715353630,"current_range_meters":24000,"station_id":"ce4bhr92rcd13ifvqhrg","pricing_plan_id":"cebpf4jnsgd1na2vs0mg"},{"bike_id":"99c1386b-8188-405b-9222-664203339afa","system_id":"levelo_inurba_marseille","lat":43.28862,"lon":5.35953,"is_reserved":false,"is_disabled":false,"rental_uris":{"android":"levelo://app?vid=99c1386b-8188-405b-9222-664203339afa","ios":"levelo://app?vid=99c1386b-8188-405b-9222-664203339afa"},"vehicle_type_id":"4","last_reported":1715353630,"current_range_meters":0,"station_id":"","pricing_plan_id":"cebpf4jnsgd1na2vs0mg"},{"bike_id":"0a44f340-6d9a-495d-a98a-926d630fe60c","system_id":"levelo_inurba_marseille","lat":43.28856,"lon":5.358371,"is_reserved":false,"is_disabled":false,"rental_uris":{"android":"levelo://app?vid=0a44f340-6d9a-495d-a98a-926d630fe60c","ios":"levelo://app?vid=0a44f340-6d9a-495d-a98a-926d630fe60c"},"vehicle_type_id":"4","last_reported":1715353630,"current_range_meters":31200,"station_id":"ce4bhb12rcd13ifvqem0","pricing_plan_id":"cebpf4jnsgd1na2vs0mg"},{"bike_id":"a6fe3be9-2ae1-42ce-9d62-911bb3dea5fa","system_id":"levelo_inurba_marseille","lat":43.28856,"lon":5.358371,"is_reserved":false,"is_disabled":false,"rental_uris":{"android":"levelo://app?vid=a6fe3be9-2ae1-42ce-9d62-911bb3dea5fa","ios":"levelo://app?vid=a6fe3be9-2ae1-42ce-9d62-911bb3dea5fa"},"vehicle_type_id":"4","last_reported":1715353630,"current_range_meters":31200,"station_id":"ce4bhb12rcd13ifvqem0","pricing_plan_id":"cebpf4jnsgd1na2vs0mg"},{"bike_id":"585c513f-2405-4f32-aceb-e06dcc07c72f","system_id":"levelo_inurba_marseille","lat":43.30611,"lon":5.400099,"is_reserved":false,"is_disabled":false,"rental_uris":{"android":"levelo://app?vid=585c513f-2405-4f32-aceb-e06dcc07c72f","ios":"levelo://app?vid=585c513f-2405-4f32-aceb-e06dcc07c72f"},"vehicle_type_id":"4","last_reported":1715353630,"current_range_meters":0,"station_id":"ce4bh112rcd13ifvqda0","pricing_plan_id":"cebpf4jnsgd1na2vs0mg"},{"bike_id":"7d54440a-0c10-4c7b-9fd9-6df1d696dd80","system_id":"levelo_inurba_marseille","lat":43.288476,"lon":5.358414,"is_reserved":false,"is_disabled":false,"rental_uris":{"android":"levelo://app?vid=7d54440a-0c10-4c7b-9fd9-6df1d696dd80","ios":"levelo://app?vid=7d54440a-0c10-4c7b-9fd9-6df1d696dd80"},"vehicle_type_id":"4","last_reported":1715353630,"current_range_meters":0,"station_id":"ce4bhb12rcd13ifvqem0","pricing_plan_id":"cebpf4jnsgd1na2vs0mg"},{"bike_id":"a32e4646-d92d-4aec-ad39-b01dc394c9f8","system_id":"levelo_inurba_marseille","lat":43.312609,"lon":5.401662,"is_reserved":false,"is_disabled":false,"rental_uris":{"android":"levelo://app?vid=a32e4646-d92d-4aec-ad39-b01dc394c9f8","ios":"levelo://app?vid=a32e4646-d92d-4aec-ad39-b01dc394c9f8"},"vehicle_type_id":"4","last_reported":1715353630,"current_range_meters":22400,"station_id":"ce4bh092rcd13ifvqd30","pricing_plan_id":"cebpf4jnsgd1na2vs0mg"},{"bike_id":"ff2c1636-301d-4af4-a9c1-9344a878cc6d","system_id":"levelo_inurba_marseille","lat":43.306457,"lon":5.400805,"is_reserved":false,"is_disabled":false,"rental_uris":{"android":"levelo://app?vid=ff2c1636-301d-4af4-a9c1-9344a878cc6d","ios":"levelo://app?vid=ff2c1636-301d-4af4-a9c1-9344a878cc6d"},"vehicle_type_id":"4","last_reported":1715353630,"current_range_meters":0,"station_id":"ce4bh112rcd13ifvqda0","pricing_plan_id":"cebpf4jnsgd1na2vs0mg"},{"bike_id":"91d9714b-b35f-47ce-8f34-022bf351236f","system_id":"levelo_inurba_marseille","lat":43.33762,"lon":5.37436,"is_reserved":false,"is_disabled":false,"rental_uris":{"android":"levelo://app?vid=91d9714b-b35f-47ce-8f34-022bf351236f","ios":"levelo://app?vid=91d9714b-b35f-47ce-8f34-022bf351236f"},"vehicle_type_id":"4","last_reported":1715353630,"current_range_meters":28400,"station_id":"","pricing_plan_id":"cebpf4jnsgd1na2vs0mg"},{"bike_id":"29de2dff-fcb2-4d13-b44f-12583da04bd2","system_id":"levelo_inurba_marseille","lat":43.306613,"lon":5.400897,"is_reserved":false,"is_disabled":false,"rental_uris":{"android":"levelo://app?vid=29de2dff-fcb2-4d13-b44f-12583da04bd2","ios":"levelo://app?vid=29de2dff-fcb2-4d13-b44f-12583da04bd2"},"vehicle_type_id":"4","last_reported":1715353630,"current_range_meters":29200,"station_id":"ce4bh112rcd13ifvqda0","pricing_plan_id":"cebpf4jnsgd1na2vs0mg"},{"bike_id":"ee0a1be6-f4d4-49ee-8f14-57ce933559a0","system_id":"levelo_inurba_marseille","lat":43.305994,"lon":5.393687,"is_reserved":false,"is_disabled":false,"rental_uris":{"android":"levelo://app?vid=ee0a1be6-f4d4-49ee-8f14-57ce933559a0","ios":"levelo://app?vid=ee0a1be6-f4d4-49ee-8f14-57ce933559a0"},"vehicle_type_id":"4","last_reported":1715353630,"current_range_meters":4800,"station_id":"ce4bh0p2rcd13ifvqd80","pricing_plan_id":"cebpf4jnsgd1na2vs0mg"},{"bike_id":"a630cd01-9837-40fd-8f90-4a4026a82926","system_id":"levelo_inurba_marseille","lat":43.30642,"lon":5.401031,"is_reserved":false,"is_disabled":false,"rental_uris":{"android":"levelo://app?vid=a630cd01-9837-40fd-8f90-4a4026a82926","ios":"levelo://app?vid=a630cd01-9837-40fd-8f90-4a4026a82926"},"vehicle_type_id":"4","last_reported":1715353630,"current_range_meters":1600,"station_id":"ce4bh112rcd13ifvqda0","pricing_plan_id":"cebpf4jnsgd1na2vs0mg"},{"bike_id":"81c4a8d8-6c3c-4655-a695-34299fbf16fd","system_id":"levelo_inurba_marseille","lat":43.30642,"lon":5.401031,"is_reserved":false,"is_disabled":false,"rental_uris":{"android":"levelo://app?vid=81c4a8d8-6c3c-4655-a695-34299fbf16fd","ios":"levelo://app?vid=81c4a8d8-6c3c-4655-a695-34299fbf16fd"},"vehicle_type_id":"4","last_reported":1715353630,"current_range_meters":17600,"station_id":"ce4bh112rcd13ifvqda0","pricing_plan_id":"cebpf4jnsgd1na2vs0mg"},{"bike_id":"977b01db-31d0-4341-91aa-349b22e324c3","system_id":"levelo_inurba_marseille","lat":43.313291,"lon":5.396838,"is_reserved":false,"is_disabled":false,"rental_uris":{"android":"levelo://app?vid=977b01db-31d0-4341-91aa-349b22e324c3","ios":"levelo://app?vid=977b01db-31d0-4341-91aa-349b22e324c3"},"vehicle_type_id":"4","last_reported":1715353630,"current_range_meters":18000,"station_id":"ce4bgvp2rcd13ifvqcu0","pricing_plan_id":"cebpf4jnsgd1na2vs0mg"},{"bike_id":"f42ff60f-3c51-4b3f-aa23-e8a2f4a5ce0f","system_id":"levelo_inurba_marseille","lat":43.301117,"lon":5.398795,"is_reserved":false,"is_disabled":false,"rental_uris":{"android":"levelo://app?vid=f42ff60f-3c51-4b3f-aa23-e8a2f4a5ce0f","ios":"levelo://app?vid=f42ff60f-3c51-4b3f-aa23-e8a2f4a5ce0f"},"vehicle_type_id":"4","last_reported":1715353630,"current_range_meters":12000,"station_id":"ce4bh0h2rcd13ifvqd40","pricing_plan_id":"cebpf4jnsgd1na2vs0mg"},{"bike_id":"5ad7fe6e-51cf-425c-bea5-7395176fae25","system_id":"levelo_inurba_marseille","lat":43.28727,"lon":5.36078,"is_reserved":false,"is_disabled":false,"rental_uris":{"android":"levelo://app?vid=5ad7fe6e-51cf-425c-bea5-7395176fae25","ios":"levelo://app?vid=5ad7fe6e-51cf-425c-bea5-7395176fae25"},"vehicle_type_id":"4","last_reported":1715353630,"current_range_meters":8800,"station_id":"cki0cbj6b192h4jlfktg","pricing_plan_id":"cebpf4jnsgd1na2vs0mg"},{"bike_id":"97e23045-3819-4b86-a217-8f22892f6680","system_id":"levelo_inurba_marseille","lat":43.28727,"lon":5.36078,"is_reserved":false,"is_disabled":false,"rental_uris":{"android":"levelo://app?vid=97e23045-3819-4b86-a217-8f22892f6680","ios":"levelo://app?vid=97e23045-3819-4b86-a217-8f22892f6680"},"vehicle_type_id":"4","last_reported":1715353630,"current_range_meters":3600,"station_id":"cki0cbj6b192h4jlfktg","pricing_plan_id":"cebpf4jnsgd1na2vs0mg"},{"bike_id":"bad5ea10-6ada-485d-854b-a5b760ff053a","system_id":"levelo_inurba_marseille","lat":43.28727,"lon":5.36078,"is_reserved":false,"is_disabled":false,"rental_uris":{"android":"levelo://app?vid=bad5ea10-6ada-485d-854b-a5b760ff053a","ios":"levelo://app?vid=bad5ea10-6ada-485d-854b-a5b760ff053a"},"vehicle_type_id":"4","last_reported":1715353630,"current_range_meters":9200,"station_id":"cki0cbj6b192h4jlfktg","pricing_plan_id":"cebpf4jnsgd1na2vs0mg"},{"bike_id":"c1a1ebe7-653a-46d4-a8af-3394c9b22e83","system_id":"levelo_inurba_marseille","lat":43.286593,"lon":5.363346,"is_reserved":false,"is_disabled":false,"rental_uris":{"android":"levelo://app?vid=c1a1ebe7-653a-46d4-a8af-3394c9b22e83","ios":"levelo://app?vid=c1a1ebe7-653a-46d4-a8af-3394c9b22e83"},"vehicle_type_id":"4","last_reported":1715353630,"current_range_meters":5200,"station_id":"ce4bhah2rcd13ifvqej0","pricing_plan_id":"cebpf4jnsgd1na2vs0mg"},{"bike_id":"9e0c14f9-b9b0-4159-b07f-8eca605657b3","system_id":"levelo_inurba_marseille","lat":43.28727,"lon":5.36078,"is_reserved":false,"is_disabled":false,"rental_uris":{"android":"levelo://app?vid=9e0c14f9-b9b0-4159-b07f-8eca605657b3","ios":"levelo://app?vid=9e0c14f9-b9b0-4159-b07f-8eca605657b3"},"vehicle_type_id":"4","last_reported":1715353630,"current_range_meters":5200,"station_id":"cki0cbj6b192h4jlfktg","pricing_plan_id":"cebpf4jnsgd1na2vs0mg"},{"bike_id":"89d4ef6d-c382-4aca-837b-df4f21dc426d","system_id":"levelo_inurba_marseille","lat":43.28726,"lon":5.36087,"is_reserved":false,"is_disabled":false,"rental_uris":{"android":"levelo://app?vid=89d4ef6d-c382-4aca-837b-df4f21dc426d","ios":"levelo://app?vid=89d4ef6d-c382-4aca-837b-df4f21dc426d"},"vehicle_type_id":"4","last_reported":1715353630,"current_range_meters":1600,"station_id":"cki0cbj6b192h4jlfktg","pricing_plan_id":"cebpf4jnsgd1na2vs0mg"},{"bike_id":"ce58d680-c2de-47e2-be66-e1070928b1f6","system_id":"levelo_inurba_marseille","lat":43.28727,"lon":5.36078,"is_reserved":false,"is_disabled":false,"rental_uris":{"android":"levelo://app?vid=ce58d680-c2de-47e2-be66-e1070928b1f6","ios":"levelo://app?vid=ce58d680-c2de-47e2-be66-e1070928b1f6"},"vehicle_type_id":"4","last_reported":1715353630,"current_range_meters":5600,"station_id":"cki0cbj6b192h4jlfktg","pricing_plan_id":"cebpf4jnsgd1na2vs0mg"},{"bike_id":"2e49d416-1aeb-4d8b-aaec-61e17a95675d","system_id":"levelo_inurba_marseille","lat":43.28723,"lon":5.36099,"is_reserved":false,"is_disabled":false,"rental_uris":{"android":"levelo://app?vid=2e49d416-1aeb-4d8b-aaec-61e17a95675d","ios":"levelo://app?vid=2e49d416-1aeb-4d8b-aaec-61e17a95675d"},"vehicle_type_id":"4","last_reported":1715353630,"current_range_meters":7600,"station_id":"cki0cbj6b192h4jlfktg","pricing_plan_id":"cebpf4jnsgd1na2vs0mg"},{"bike_id":"8f28663c-2a34-45ee-8229-b17d5528eff5","system_id":"levelo_inurba_marseille","lat":43.28727,"lon":5.36078,"is_reserved":false,"is_disabled":false,"rental_uris":{"android":"levelo://app?vid=8f28663c-2a34-45ee-8229-b17d5528eff5","ios":"levelo://app?vid=8f28663c-2a34-45ee-8229-b17d5528eff5"},"vehicle_type_id":"4","last_reported":1715353630,"current_range_meters":10400,"station_id":"cki0cbj6b192h4jlfktg","pricing_plan_id":"cebpf4jnsgd1na2vs0mg"},{"bike_id":"91266183-f089-41f9-b680-9b6f42362c41","system_id":"levelo_inurba_marseille","lat":43.28714,"lon":5.360948,"is_reserved":false,"is_disabled":false,"rental_uris":{"android":"levelo://app?vid=91266183-f089-41f9-b680-9b6f42362c41","ios":"levelo://app?vid=91266183-f089-41f9-b680-9b6f42362c41"},"vehicle_type_id":"4","last_reported":1715353630,"current_range_meters":28000,"station_id":"","pricing_plan_id":"cebpf4jnsgd1na2vs0mg"},{"bike_id":"5798bd53-f18a-4fba-a846-8669de93985e","system_id":"levelo_inurba_marseille","lat":43.286961,"lon":5.373785,"is_reserved":false,"is_disabled":false,"rental_uris":{"android":"levelo://app?vid=5798bd53-f18a-4fba-a846-8669de93985e","ios":"levelo://app?vid=5798bd53-f18a-4fba-a846-8669de93985e"},"vehicle_type_id":"4","last_reported":1715353630,"current_range_meters":22800,"station_id":"ce4bh3p2rcd13ifvqdq0","pricing_plan_id":"cebpf4jnsgd1na2vs0mg"},{"bike_id":"bc602436-9f89-411e-8f31-08374066484a","system_id":"levelo_inurba_marseille","lat":43.28861,"lon":5.35336,"is_reserved":false,"is_disabled":false,"rental_uris":{"android":"levelo://app?vid=bc602436-9f89-411e-8f31-08374066484a","ios":"levelo://app?vid=bc602436-9f89-411e-8f31-08374066484a"},"vehicle_type_id":"4","last_reported":1715353630,"current_range_meters":19600,"station_id":"","pricing_plan_id":"cebpf4jnsgd1na2vs0mg"},{"bike_id":"ca5e2d32-b51f-4463-b1a8-786b47b1a41f","system_id":"levelo_inurba_marseille","lat":43.28727,"lon":5.36078,"is_reserved":false,"is_disabled":false,"rental_uris":{"android":"levelo://app?vid=ca5e2d32-b51f-4463-b1a8-786b47b1a41f","ios":"levelo://app?vid=ca5e2d32-b51f-4463-b1a8-786b47b1a41f"},"vehicle_type_id":"4","last_reported":1715353630,"current_range_meters":2400,"station_id":"cki0cbj6b192h4jlfktg","pricing_plan_id":"cebpf4jnsgd1na2vs0mg"},{"bike_id":"45d95709-3ff9-49ed-b5b4-acb01d276e27","system_id":"levelo_inurba_marseille","lat":43.286591,"lon":5.363346,"is_reserved":false,"is_disabled":false,"rental_uris":{"android":"levelo://app?vid=45d95709-3ff9-49ed-b5b4-acb01d276e27","ios":"levelo://app?vid=45d95709-3ff9-49ed-b5b4-acb01d276e27"},"vehicle_type_id":"4","last_reported":1715353630,"current_range_meters":8400,"station_id":"ce4bhah2rcd13ifvqej0","pricing_plan_id":"cebpf4jnsgd1na2vs0mg"},{"bike_id":"8aa83f56-43ab-46c8-ba9c-6f56b5bc43d9","system_id":"levelo_inurba_marseille","lat":43.286716,"lon":5.363539,"is_reserved":false,"is_disabled":false,"rental_uris":{"android":"levelo://app?vid=8aa83f56-43ab-46c8-ba9c-6f56b5bc43d9","ios":"levelo://app?vid=8aa83f56-43ab-46c8-ba9c-6f56b5bc43d9"},"vehicle_type_id":"4","last_reported":1715353630,"current_range_meters":0,"station_id":"ce4bhah2rcd13ifvqej0","pricing_plan_id":"cebpf4jnsgd1na2vs0mg"},{"bike_id":"3a37e8ab-37df-451c-b869-2a7d1e58d4f7","system_id":"levelo_inurba_marseille","lat":43.286591,"lon":5.363346,"is_reserved":false,"is_disabled":false,"rental_uris":{"android":"levelo://app?vid=3a37e8ab-37df-451c-b869-2a7d1e58d4f7","ios":"levelo://app?vid=3a37e8ab-37df-451c-b869-2a7d1e58d4f7"},"vehicle_type_id":"4","last_reported":1715353630,"current_range_meters":0,"station_id":"ce4bhah2rcd13ifvqej0","pricing_plan_id":"cebpf4jnsgd1na2vs0mg"},{"bike_id":"84b7f496-a7b4-4eea-b578-29e6debcaf97","system_id":"levelo_inurba_marseille","lat":43.3389,"lon":5.36616,"is_reserved":false,"is_disabled":false,"rental_uris":{"android":"levelo://app?vid=84b7f496-a7b4-4eea-b578-29e6debcaf97","ios":"levelo://app?vid=84b7f496-a7b4-4eea-b578-29e6debcaf97"},"vehicle_type_id":"4","last_reported":1715353630,"current_range_meters":0,"station_id":"","pricing_plan_id":"cebpf4jnsgd1na2vs0mg"},{"bike_id":"2692546e-6798-4c46-b16c-0b417601c588","system_id":"levelo_inurba_marseille","lat":43.286593,"lon":5.363346,"is_reserved":false,"is_disabled":false,"rental_uris":{"android":"levelo://app?vid=2692546e-6798-4c46-b16c-0b417601c588","ios":"levelo://app?vid=2692546e-6798-4c46-b16c-0b417601c588"},"vehicle_type_id":"4","last_reported":1715353630,"current_range_meters":22800,"station_id":"ce4bhah2rcd13ifvqej0","pricing_plan_id":"cebpf4jnsgd1na2vs0mg"},{"bike_id":"2eebe688-7492-490d-a5cf-09fff0d828cc","system_id":"levelo_inurba_marseille","lat":43.286961,"lon":5.373785,"is_reserved":false,"is_disabled":false,"rental_uris":{"android":"levelo://app?vid=2eebe688-7492-490d-a5cf-09fff0d828cc","ios":"levelo://app?vid=2eebe688-7492-490d-a5cf-09fff0d828cc"},"vehicle_type_id":"4","last_reported":1715353630,"current_range_meters":5600,"station_id":"ce4bh3p2rcd13ifvqdq0","pricing_plan_id":"cebpf4jnsgd1na2vs0mg"},{"bike_id":"8877a45a-c3e6-47c5-8113-e34eeab623e9","system_id":"levelo_inurba_marseille","lat":43.284534,"lon":5.358662,"is_reserved":false,"is_disabled":false,"rental_uris":{"android":"levelo://app?vid=8877a45a-c3e6-47c5-8113-e34eeab623e9","ios":"levelo://app?vid=8877a45a-c3e6-47c5-8113-e34eeab623e9"},"vehicle_type_id":"4","last_reported":1715353630,"current_range_meters":16800,"station_id":"ce4bhah2rcd13ifvqei0","pricing_plan_id":"cebpf4jnsgd1na2vs0mg"},{"bike_id":"05ee6172-a6a7-4b99-a930-5f620349dea6","system_id":"levelo_inurba_marseille","lat":43.300772,"lon":5.398956,"is_reserved":false,"is_disabled":false,"rental_uris":{"android":"levelo://app?vid=05ee6172-a6a7-4b99-a930-5f620349dea6","ios":"levelo://app?vid=05ee6172-a6a7-4b99-a930-5f620349dea6"},"vehicle_type_id":"4","last_reported":1715353630,"current_range_meters":10800,"station_id":"","pricing_plan_id":"cebpf4jnsgd1na2vs0mg"},{"bike_id":"13a3124f-c572-4860-9dee-0ee16785d549","system_id":"levelo_inurba_marseille","lat":43.286591,"lon":5.363346,"is_reserved":false,"is_disabled":false,"rental_uris":{"android":"levelo://app?vid=13a3124f-c572-4860-9dee-0ee16785d549","ios":"levelo://app?vid=13a3124f-c572-4860-9dee-0ee16785d549"},"vehicle_type_id":"4","last_reported":1715353630,"current_range_meters":2800,"station_id":"ce4bhah2rcd13ifvqej0","pricing_plan_id":"cebpf4jnsgd1na2vs0mg"},{"bike_id":"40104d80-c22c-4c64-b6d0-da5948513cf6","system_id":"levelo_inurba_marseille","lat":43.286961,"lon":5.373785,"is_reserved":false,"is_disabled":false,"rental_uris":{"android":"levelo://app?vid=40104d80-c22c-4c64-b6d0-da5948513cf6","ios":"levelo://app?vid=40104d80-c22c-4c64-b6d0-da5948513cf6"},"vehicle_type_id":"4","last_reported":1715353630,"current_range_meters":12000,"station_id":"ce4bh3p2rcd13ifvqdq0","pricing_plan_id":"cebpf4jnsgd1na2vs0mg"},{"bike_id":"28513c51-0d82-428d-9613-f8014a3af9a5","system_id":"levelo_inurba_marseille","lat":43.28654,"lon":5.36356,"is_reserved":false,"is_disabled":false,"rental_uris":{"android":"levelo://app?vid=28513c51-0d82-428d-9613-f8014a3af9a5","ios":"levelo://app?vid=28513c51-0d82-428d-9613-f8014a3af9a5"},"vehicle_type_id":"4","last_reported":1715353630,"current_range_meters":0,"station_id":"ce4bhah2rcd13ifvqej0","pricing_plan_id":"cebpf4jnsgd1na2vs0mg"},{"bike_id":"1a24a270-621a-42fb-a335-0fd4f297b1de","system_id":"levelo_inurba_marseille","lat":43.289307,"lon":5.38406,"is_reserved":false,"is_disabled":false,"rental_uris":{"android":"levelo://app?vid=1a24a270-621a-42fb-a335-0fd4f297b1de","ios":"levelo://app?vid=1a24a270-621a-42fb-a335-0fd4f297b1de"},"vehicle_type_id":"4","last_reported":1715353630,"current_range_meters":15200,"station_id":"ce4bh612rcd13ifvqe6g","pricing_plan_id":"cebpf4jnsgd1na2vs0mg"},{"bike_id":"48d796dc-486d-4601-8462-b1e688ddb9e4","system_id":"levelo_inurba_marseille","lat":43.302759,"lon":5.400793,"is_reserved":false,"is_disabled":false,"rental_uris":{"android":"levelo://app?vid=48d796dc-486d-4601-8462-b1e688ddb9e4","ios":"levelo://app?vid=48d796dc-486d-4601-8462-b1e688ddb9e4"},"vehicle_type_id":"4","last_reported":1715353630,"current_range_meters":23200,"station_id":"ce4bgvh2rcd13ifvqcs0","pricing_plan_id":"cebpf4jnsgd1na2vs0mg"},{"bike_id":"9b0804a9-ca0b-4fa8-a31f-fb4fbee777ce","system_id":"levelo_inurba_marseille","lat":43.302759,"lon":5.400793,"is_reserved":false,"is_disabled":false,"rental_uris":{"android":"levelo://app?vid=9b0804a9-ca0b-4fa8-a31f-fb4fbee777ce","ios":"levelo://app?vid=9b0804a9-ca0b-4fa8-a31f-fb4fbee777ce"},"vehicle_type_id":"4","last_reported":1715353630,"current_range_meters":15600,"station_id":"ce4bgvh2rcd13ifvqcs0","pricing_plan_id":"cebpf4jnsgd1na2vs0mg"},{"bike_id":"ee48556b-52df-4f2e-bdc7-f7c22512caa2","system_id":"levelo_inurba_marseille","lat":43.286144,"lon":5.370616,"is_reserved":false,"is_disabled":false,"rental_uris":{"android":"levelo://app?vid=ee48556b-52df-4f2e-bdc7-f7c22512caa2","ios":"levelo://app?vid=ee48556b-52df-4f2e-bdc7-f7c22512caa2"},"vehicle_type_id":"4","last_reported":1715353630,"current_range_meters":4000,"station_id":"ce4bht12rcd13ifvqi60","pricing_plan_id":"cebpf4jnsgd1na2vs0mg"},{"bike_id":"0d8c75da-1e1f-4b50-abb2-a422a749391d","system_id":"levelo_inurba_marseille","lat":43.286039,"lon":5.370681,"is_reserved":false,"is_disabled":false,"rental_uris":{"android":"levelo://app?vid=0d8c75da-1e1f-4b50-abb2-a422a749391d","ios":"levelo://app?vid=0d8c75da-1e1f-4b50-abb2-a422a749391d"},"vehicle_type_id":"4","last_reported":1715353630,"current_range_meters":0,"station_id":"ce4bht12rcd13ifvqi60","pricing_plan_id":"cebpf4jnsgd1na2vs0mg"},{"bike_id":"3333e7ad-e81f-4c41-830b-a2901b97f790","system_id":"levelo_inurba_marseille","lat":43.283494,"lon":5.380945,"is_reserved":false,"is_disabled":false,"rental_uris":{"android":"levelo://app?vid=3333e7ad-e81f-4c41-830b-a2901b97f790","ios":"levelo://app?vid=3333e7ad-e81f-4c41-830b-a2901b97f790"},"vehicle_type_id":"4","last_reported":1715353630,"current_range_meters":13600,"station_id":"ce4bh412rcd13ifvqdr0","pricing_plan_id":"cebpf4jnsgd1na2vs0mg"},{"bike_id":"e627413a-c55b-4e13-b47d-d4f639b47484","system_id":"levelo_inurba_marseille","lat":43.316828,"lon":5.404723,"is_reserved":false,"is_disabled":false,"rental_uris":{"android":"levelo://app?vid=e627413a-c55b-4e13-b47d-d4f639b47484","ios":"levelo://app?vid=e627413a-c55b-4e13-b47d-d4f639b47484"},"vehicle_type_id":"4","last_reported":1715353630,"current_range_meters":29600,"station_id":"ce4bh012rcd13ifvqd00","pricing_plan_id":"cebpf4jnsgd1na2vs0mg"},{"bike_id":"506d7f6a-0d9c-46d2-9141-c81017997df9","system_id":"levelo_inurba_marseille","lat":43.316821,"lon":5.404737,"is_reserved":false,"is_disabled":false,"rental_uris":{"android":"levelo://app?vid=506d7f6a-0d9c-46d2-9141-c81017997df9","ios":"levelo://app?vid=506d7f6a-0d9c-46d2-9141-c81017997df9"},"vehicle_type_id":"4","last_reported":1715353630,"current_range_meters":800,"station_id":"ce4bh012rcd13ifvqd00","pricing_plan_id":"cebpf4jnsgd1na2vs0mg"},{"bike_id":"00461482-38aa-4113-b1e4-8f019fe62fdb","system_id":"levelo_inurba_marseille","lat":43.286962,"lon":5.351705,"is_reserved":false,"is_disabled":false,"rental_uris":{"android":"levelo://app?vid=00461482-38aa-4113-b1e4-8f019fe62fdb","ios":"levelo://app?vid=00461482-38aa-4113-b1e4-8f019fe62fdb"},"vehicle_type_id":"4","last_reported":1715353630,"current_range_meters":0,"station_id":"","pricing_plan_id":"cebpf4jnsgd1na2vs0mg"},{"bike_id":"34886221-2d16-430d-817d-982da335a7dc","system_id":"levelo_inurba_marseille","lat":43.283502,"lon":5.386471,"is_reserved":false,"is_disabled":false,"rental_uris":{"android":"levelo://app?vid=34886221-2d16-430d-817d-982da335a7dc","ios":"levelo://app?vid=34886221-2d16-430d-817d-982da335a7dc"},"vehicle_type_id":"4","last_reported":1715353630,"current_range_meters":4800,"station_id":"ce4bh492rcd13ifvqdvg","pricing_plan_id":"cebpf4jnsgd1na2vs0mg"},{"bike_id":"21f39925-1bba-4d2f-a996-530c8e6a47d8","system_id":"levelo_inurba_marseille","lat":43.286609,"lon":5.351423,"is_reserved":false,"is_disabled":false,"rental_uris":{"android":"levelo://app?vid=21f39925-1bba-4d2f-a996-530c8e6a47d8","ios":"levelo://app?vid=21f39925-1bba-4d2f-a996-530c8e6a47d8"},"vehicle_type_id":"4","last_reported":1715353630,"current_range_meters":1600,"station_id":"ce4bhch2rcd13ifvqeug","pricing_plan_id":"cebpf4jnsgd1na2vs0mg"},{"bike_id":"e5f120ce-c91e-4786-9b35-0fb620a74917","system_id":"levelo_inurba_marseille","lat":43.284534,"lon":5.358662,"is_reserved":false,"is_disabled":false,"rental_uris":{"android":"levelo://app?vid=e5f120ce-c91e-4786-9b35-0fb620a74917","ios":"levelo://app?vid=e5f120ce-c91e-4786-9b35-0fb620a74917"},"vehicle_type_id":"4","last_reported":1715353630,"current_range_meters":5200,"station_id":"ce4bhah2rcd13ifvqei0","pricing_plan_id":"cebpf4jnsgd1na2vs0mg"},{"bike_id":"39c3acaf-c667-4865-a674-5e91ffc88ffb","system_id":"levelo_inurba_marseille","lat":43.28459,"lon":5.35879,"is_reserved":false,"is_disabled":false,"rental_uris":{"android":"levelo://app?vid=39c3acaf-c667-4865-a674-5e91ffc88ffb","ios":"levelo://app?vid=39c3acaf-c667-4865-a674-5e91ffc88ffb"},"vehicle_type_id":"4","last_reported":1715353630,"current_range_meters":15200,"station_id":"ce4bhah2rcd13ifvqei0","pricing_plan_id":"cebpf4jnsgd1na2vs0mg"},{"bike_id":"fbddcd60-8075-4076-9f21-dd78eae13f75","system_id":"levelo_inurba_marseille","lat":43.283998,"lon":5.375062,"is_reserved":false,"is_disabled":false,"rental_uris":{"android":"levelo://app?vid=fbddcd60-8075-4076-9f21-dd78eae13f75","ios":"levelo://app?vid=fbddcd60-8075-4076-9f21-dd78eae13f75"},"vehicle_type_id":"4","last_reported":1715353630,"current_range_meters":5200,"station_id":"ce4bh412rcd13ifvqds0","pricing_plan_id":"cebpf4jnsgd1na2vs0mg"},{"bike_id":"bcb90c7e-28b9-4f15-b88b-dd2b679c4562","system_id":"levelo_inurba_marseille","lat":43.28623,"lon":5.35109,"is_reserved":false,"is_disabled":false,"rental_uris":{"android":"levelo://app?vid=bcb90c7e-28b9-4f15-b88b-dd2b679c4562","ios":"levelo://app?vid=bcb90c7e-28b9-4f15-b88b-dd2b679c4562"},"vehicle_type_id":"4","last_reported":1715353630,"current_range_meters":23200,"station_id":"ce4bhch2rcd13ifvqeug","pricing_plan_id":"cebpf4jnsgd1na2vs0mg"},{"bike_id":"fcb7491b-467f-49e0-b51a-5873850799a0","system_id":"levelo_inurba_marseille","lat":43.286203,"lon":5.351096,"is_reserved":false,"is_disabled":false,"rental_uris":{"android":"levelo://app?vid=fcb7491b-467f-49e0-b51a-5873850799a0","ios":"levelo://app?vid=fcb7491b-467f-49e0-b51a-5873850799a0"},"vehicle_type_id":"4","last_reported":1715353630,"current_range_meters":2800,"station_id":"ce4bhch2rcd13ifvqeug","pricing_plan_id":"cebpf4jnsgd1na2vs0mg"},{"bike_id":"12c67d8e-573f-47ba-bf10-cb255ebc2991","system_id":"levelo_inurba_marseille","lat":43.294314,"lon":5.397498,"is_reserved":false,"is_disabled":false,"rental_uris":{"android":"levelo://app?vid=12c67d8e-573f-47ba-bf10-cb255ebc2991","ios":"levelo://app?vid=12c67d8e-573f-47ba-bf10-cb255ebc2991"},"vehicle_type_id":"4","last_reported":1715353630,"current_range_meters":19200,"station_id":"ce4bh3h2rcd13ifvqdo0","pricing_plan_id":"cebpf4jnsgd1na2vs0mg"},{"bike_id":"ea4bbfdd-2e35-4126-8916-acfd9a4b7ecf","system_id":"levelo_inurba_marseille","lat":43.2862,"lon":5.35104,"is_reserved":false,"is_disabled":false,"rental_uris":{"android":"levelo://app?vid=ea4bbfdd-2e35-4126-8916-acfd9a4b7ecf","ios":"levelo://app?vid=ea4bbfdd-2e35-4126-8916-acfd9a4b7ecf"},"vehicle_type_id":"4","last_reported":1715353630,"current_range_meters":12000,"station_id":"ce4bhch2rcd13ifvqeug","pricing_plan_id":"cebpf4jnsgd1na2vs0mg"},{"bike_id":"5e2cb4ae-66c2-424c-af1a-1bc0d8977510","system_id":"levelo_inurba_marseille","lat":43.28619,"lon":5.35107,"is_reserved":false,"is_disabled":false,"rental_uris":{"android":"levelo://app?vid=5e2cb4ae-66c2-424c-af1a-1bc0d8977510","ios":"levelo://app?vid=5e2cb4ae-66c2-424c-af1a-1bc0d8977510"},"vehicle_type_id":"4","last_reported":1715353630,"current_range_meters":800,"station_id":"ce4bhch2rcd13ifvqeug","pricing_plan_id":"cebpf4jnsgd1na2vs0mg"},{"bike_id":"88258cb1-c090-406f-b606-976a0d37f788","system_id":"levelo_inurba_marseille","lat":43.2862,"lon":5.35103,"is_reserved":false,"is_disabled":false,"rental_uris":{"android":"levelo://app?vid=88258cb1-c090-406f-b606-976a0d37f788","ios":"levelo://app?vid=88258cb1-c090-406f-b606-976a0d37f788"},"vehicle_type_id":"4","last_reported":1715353630,"current_range_meters":2400,"station_id":"ce4bhch2rcd13ifvqeug","pricing_plan_id":"cebpf4jnsgd1na2vs0mg"},