{"last_updated":1778881705,"ttl":60,"version":"2.2","data":{"bikes":[{"bike_id":"21667dd1-9598-455d-b496-5fa366bd70f8","system_id":"levelo_inurba_marseille","lat":43.2417,"lon":5.39724,"is_reserved":false,"is_disabled":false,"rental_uris":{"android":"levelo://app?vid=21667dd1-9598-455d-b496-5fa366bd70f8","ios":"levelo://app?vid=21667dd1-9598-455d-b496-5fa366bd70f8"},"vehicle_type_id":"4","last_reported":1778881706,"current_range_meters":2800,"station_id":"ce4bhn12rcd13ifvqgpg","pricing_plan_id":"cebpf4jnsgd1na2vs0mg"},{"bike_id":"cb7025c0-d540-4377-8601-4c785445c139","system_id":"levelo_inurba_marseille","lat":43.24071,"lon":5.37746,"is_reserved":false,"is_disabled":true,"rental_uris":{"android":"levelo://app?vid=cb7025c0-d540-4377-8601-4c785445c139","ios":"levelo://app?vid=cb7025c0-d540-4377-8601-4c785445c139"},"vehicle_type_id":"4","last_reported":1778881706,"current_range_meters":2800,"station_id":"ce4bhnp2rcd13ifvqgvg","pricing_plan_id":"cebpf4jnsgd1na2vs0mg"},{"bike_id":"11ffb790-9316-4a27-9ba8-a6d0fdb165d0","system_id":"levelo_inurba_marseille","lat":43.29241,"lon":5.39951,"is_reserved":false,"is_disabled":false,"rental_uris":{"android":"levelo://app?vid=11ffb790-9316-4a27-9ba8-a6d0fdb165d0","ios":"levelo://app?vid=11ffb790-9316-4a27-9ba8-a6d0fdb165d0"},"vehicle_type_id":"4","last_reported":1778881706,"current_range_meters":2800,"station_id":"","pricing_plan_id":"cebpf4jnsgd1na2vs0mg"},{"bike_id":"f9253270-ef18-426c-8186-0d44ecdb3dc3","system_id":"levelo_inurba_marseille","lat":43.30192,"lon":5.36613,"is_reserved":false,"is_disabled":false,"rental_uris":{"android":"levelo://app?vid=f9253270-ef18-426c-8186-0d44ecdb3dc3","ios":"levelo://app?vid=f9253270-ef18-426c-8186-0d44ecdb3dc3"},"vehicle_type_id":"4","last_reported":1778881706,"current_range_meters":2800,"station_id":"ce4bgrh2rcd13ifvqc8g","pricing_plan_id":"cebpf4jnsgd1na2vs0mg"},{"bike_id":"aa2414e1-9602-45e6-a886-e6e7a778e2de","system_id":"levelo_inurba_marseille","lat":43.24664,"lon":5.38152,"is_reserved":false,"is_disabled":false,"rental_uris":{"android":"levelo://app?vid=aa2414e1-9602-45e6-a886-e6e7a778e2de","ios":"levelo://app?vid=aa2414e1-9602-45e6-a886-e6e7a778e2de"},"vehicle_type_id":"4","last_reported":1778881706,"current_range_meters":2800,"station_id":"ce4bhih2rcd13ifvqfr0","pricing_plan_id":"cebpf4jnsgd1na2vs0mg"},{"bike_id":"c7ba15ef-a0ee-4a5d-95f0-129c98fa9a84","system_id":"levelo_inurba_marseille","lat":43.31496,"lon":5.37279,"is_reserved":false,"is_disabled":false,"rental_uris":{"android":"levelo://app?vid=c7ba15ef-a0ee-4a5d-95f0-129c98fa9a84","ios":"levelo://app?vid=c7ba15ef-a0ee-4a5d-95f0-129c98fa9a84"},"vehicle_type_id":"4","last_reported":1778881706,"current_range_meters":2800,"station_id":"ce4bgt12rcd13ifvqcd0","pricing_plan_id":"cebpf4jnsgd1na2vs0mg"},{"bike_id":"ff621d55-e944-4196-836b-2885d7d34f1e","system_id":"levelo_inurba_marseille","lat":43.23923,"lon":5.37448,"is_reserved":false,"is_disabled":true,"rental_uris":{"android":"levelo://app?vid=ff621d55-e944-4196-836b-2885d7d34f1e","ios":"levelo://app?vid=ff621d55-e944-4196-836b-2885d7d34f1e"},"vehicle_type_id":"4","last_reported":1778881706,"current_range_meters":2800,"station_id":"st_d6sm7csbq4hs73f8fpjg","pricing_plan_id":"cebpf4jnsgd1na2vs0mg"},{"bike_id":"f8f43b51-e856-4680-8165-fa2dc57ab4ec","system_id":"levelo_inurba_marseille","lat":43.33165,"lon":5.40644,"is_reserved":false,"is_disabled":false,"rental_uris":{"android":"levelo://app?vid=f8f43b51-e856-4680-8165-fa2dc57ab4ec","ios":"levelo://app?vid=f8f43b51-e856-4680-8165-fa2dc57ab4ec"},"vehicle_type_id":"4","last_reported":1778881706,"current_range_meters":2800,"station_id":"","pricing_plan_id":"cebpf4jnsgd1na2vs0mg"},{"bike_id":"1916d67b-fa7f-4f0a-b648-678d6987a8f7","system_id":"levelo_inurba_marseille","lat":43.225359,"lon":5.348402,"is_reserved":false,"is_disabled":true,"rental_uris":{"android":"levelo://app?vid=1916d67b-fa7f-4f0a-b648-678d6987a8f7","ios":"levelo://app?vid=1916d67b-fa7f-4f0a-b648-678d6987a8f7"},"vehicle_type_id":"4","last_reported":1778881706,"current_range_meters":2800,"station_id":"st_cvj5dfep6f1abm77gieg","pricing_plan_id":"cebpf4jnsgd1na2vs0mg"},{"bike_id":"f36cdbee-066a-4a86-9446-8004149e84e2","system_id":"levelo_inurba_marseille","lat":43.28703,"lon":5.46687,"is_reserved":false,"is_disabled":false,"rental_uris":{"android":"levelo://app?vid=f36cdbee-066a-4a86-9446-8004149e84e2","ios":"levelo://app?vid=f36cdbee-066a-4a86-9446-8004149e84e2"},"vehicle_type_id":"4","last_reported":1778881706,"current_range_meters":3200,"station_id":"st_d6tc3vkotcvc738tfjhg","pricing_plan_id":"cebpf4jnsgd1na2vs0mg"},{"bike_id":"968f4444-1818-4ba9-9353-9bce9dac0c34","system_id":"levelo_inurba_marseille","lat":43.28002,"lon":5.36874,"is_reserved":false,"is_disabled":false,"rental_uris":{"android":"levelo://app?vid=968f4444-1818-4ba9-9353-9bce9dac0c34","ios":"levelo://app?vid=968f4444-1818-4ba9-9353-9bce9dac0c34"},"vehicle_type_id":"4","last_reported":1778881706,"current_range_meters":3200,"station_id":"","pricing_plan_id":"cebpf4jnsgd1na2vs0mg"},{"bike_id":"72002be6-07b4-4df1-b616-2a480884b745","system_id":"levelo_inurba_marseille","lat":43.28839,"lon":5.39651,"is_reserved":false,"is_disabled":false,"rental_uris":{"android":"levelo://app?vid=72002be6-07b4-4df1-b616-2a480884b745","ios":"levelo://app?vid=72002be6-07b4-4df1-b616-2a480884b745"},"vehicle_type_id":"4","last_reported":1778881706,"current_range_meters":3200,"station_id":"","pricing_plan_id":"cebpf4jnsgd1na2vs0mg"},{"bike_id":"54c3883d-19ba-4108-9be9-352862d56bcd","system_id":"levelo_inurba_marseille","lat":43.28537,"lon":5.44106,"is_reserved":false,"is_disabled":false,"rental_uris":{"android":"levelo://app?vid=54c3883d-19ba-4108-9be9-352862d56bcd","ios":"levelo://app?vid=54c3883d-19ba-4108-9be9-352862d56bcd"},"vehicle_type_id":"4","last_reported":1778881706,"current_range_meters":3200,"station_id":"st_d3j3df2ikq2c7380ej80","pricing_plan_id":"cebpf4jnsgd1na2vs0mg"},{"bike_id":"5b61dec2-ea69-4c1f-b8eb-d13c82c3482d","system_id":"levelo_inurba_marseille","lat":43.28541,"lon":5.44099,"is_reserved":false,"is_disabled":false,"rental_uris":{"android":"levelo://app?vid=5b61dec2-ea69-4c1f-b8eb-d13c82c3482d","ios":"levelo://app?vid=5b61dec2-ea69-4c1f-b8eb-d13c82c3482d"},"vehicle_type_id":"4","last_reported":1778881706,"current_range_meters":3200,"station_id":"st_d3j3df2ikq2c7380ej80","pricing_plan_id":"cebpf4jnsgd1na2vs0mg"},{"bike_id":"a7bf0c7e-6314-426d-a64c-de0ccef529c4","system_id":"levelo_inurba_marseille","lat":43.31883,"lon":5.40736,"is_reserved":false,"is_disabled":false,"rental_uris":{"android":"levelo://app?vid=a7bf0c7e-6314-426d-a64c-de0ccef529c4","ios":"levelo://app?vid=a7bf0c7e-6314-426d-a64c-de0ccef529c4"},"vehicle_type_id":"4","last_reported":1778881706,"current_range_meters":3200,"station_id":"ce4bhq12rcd13ifvqhig","pricing_plan_id":"cebpf4jnsgd1na2vs0mg"},{"bike_id":"780ad4c3-2402-428b-9498-055817269adc","system_id":"levelo_inurba_marseille","lat":43.27203,"lon":5.39178,"is_reserved":false,"is_disabled":false,"rental_uris":{"android":"levelo://app?vid=780ad4c3-2402-428b-9498-055817269adc","ios":"levelo://app?vid=780ad4c3-2402-428b-9498-055817269adc"},"vehicle_type_id":"4","last_reported":1778881706,"current_range_meters":3200,"station_id":"ce4bhhp2rcd13ifvqfm0","pricing_plan_id":"cebpf4jnsgd1na2vs0mg"},{"bike_id":"0687712c-226f-48a8-aba7-a626e608d9f3","system_id":"levelo_inurba_marseille","lat":43.28576,"lon":5.39459,"is_reserved":false,"is_disabled":false,"rental_uris":{"android":"levelo://app?vid=0687712c-226f-48a8-aba7-a626e608d9f3","ios":"levelo://app?vid=0687712c-226f-48a8-aba7-a626e608d9f3"},"vehicle_type_id":"4","last_reported":1778881706,"current_range_meters":3200,"station_id":"ce4bh292rcd13ifvqdg0","pricing_plan_id":"cebpf4jnsgd1na2vs0mg"},{"bike_id":"7d116b05-e411-417d-9cbb-bd76310a3353","system_id":"levelo_inurba_marseille","lat":43.29518,"lon":5.39027,"is_reserved":false,"is_disabled":true,"rental_uris":{"android":"levelo://app?vid=7d116b05-e411-417d-9cbb-bd76310a3353","ios":"levelo://app?vid=7d116b05-e411-417d-9cbb-bd76310a3353"},"vehicle_type_id":"4","last_reported":1778881706,"current_range_meters":3200,"station_id":"ce4bh3p2rcd13ifvqdp0","pricing_plan_id":"cebpf4jnsgd1na2vs0mg"},{"bike_id":"131285ea-8cb3-4a28-9d2e-8be73c20f5ad","system_id":"levelo_inurba_marseille","lat":43.25868,"lon":5.39912,"is_reserved":false,"is_disabled":false,"rental_uris":{"android":"levelo://app?vid=131285ea-8cb3-4a28-9d2e-8be73c20f5ad","ios":"levelo://app?vid=131285ea-8cb3-4a28-9d2e-8be73c20f5ad"},"vehicle_type_id":"4","last_reported":1778881706,"current_range_meters":3200,"station_id":"ce4bhl92rcd13ifvqghg","pricing_plan_id":"cebpf4jnsgd1na2vs0mg"},{"bike_id":"f2ba9208-41da-46fb-a82e-80d2807a7138","system_id":"levelo_inurba_marseille","lat":43.28703,"lon":5.42661,"is_reserved":false,"is_disabled":false,"rental_uris":{"android":"levelo://app?vid=f2ba9208-41da-46fb-a82e-80d2807a7138","ios":"levelo://app?vid=f2ba9208-41da-46fb-a82e-80d2807a7138"},"vehicle_type_id":"4","last_reported":1778881706,"current_range_meters":3200,"station_id":"","pricing_plan_id":"cebpf4jnsgd1na2vs0mg"},{"bike_id":"18cc15ef-55f8-436c-a3d3-c567fa26336e","system_id":"levelo_inurba_marseille","lat":43.28868,"lon":5.42512,"is_reserved":false,"is_disabled":false,"rental_uris":{"android":"levelo://app?vid=18cc15ef-55f8-436c-a3d3-c567fa26336e","ios":"levelo://app?vid=18cc15ef-55f8-436c-a3d3-c567fa26336e"},"vehicle_type_id":"4","last_reported":1778881706,"current_range_meters":3200,"station_id":"st_d3b462108ojc7389ooeg","pricing_plan_id":"cebpf4jnsgd1na2vs0mg"},{"bike_id":"1def6041-4220-4071-864e-e44caf12f580","system_id":"levelo_inurba_marseille","lat":43.24393,"lon":5.37039,"is_reserved":false,"is_disabled":false,"rental_uris":{"android":"levelo://app?vid=1def6041-4220-4071-864e-e44caf12f580","ios":"levelo://app?vid=1def6041-4220-4071-864e-e44caf12f580"},"vehicle_type_id":"4","last_reported":1778881706,"current_range_meters":3600,"station_id":"ce4bhhh2rcd13ifvqfk0","pricing_plan_id":"cebpf4jnsgd1na2vs0mg"},{"bike_id":"4b38d71c-b0b5-48d4-ba4b-2448d475a8ad","system_id":"levelo_inurba_marseille","lat":43.28416,"lon":5.34977,"is_reserved":false,"is_disabled":false,"rental_uris":{"android":"levelo://app?vid=4b38d71c-b0b5-48d4-ba4b-2448d475a8ad","ios":"levelo://app?vid=4b38d71c-b0b5-48d4-ba4b-2448d475a8ad"},"vehicle_type_id":"4","last_reported":1778881706,"current_range_meters":3600,"station_id":"ce4bhbh2rcd13ifvqepg","pricing_plan_id":"cebpf4jnsgd1na2vs0mg"},{"bike_id":"d777fd55-d11a-4e0a-b2e3-9e6cdd06801a","system_id":"levelo_inurba_marseille","lat":43.26213,"lon":5.40448,"is_reserved":false,"is_disabled":false,"rental_uris":{"android":"levelo://app?vid=d777fd55-d11a-4e0a-b2e3-9e6cdd06801a","ios":"levelo://app?vid=d777fd55-d11a-4e0a-b2e3-9e6cdd06801a"},"vehicle_type_id":"4","last_reported":1778881706,"current_range_meters":3600,"station_id":"ce4bhmh2rcd13ifvqgmg","pricing_plan_id":"cebpf4jnsgd1na2vs0mg"},{"bike_id":"a0d13da0-4216-4405-91d0-d37b45845c6a","system_id":"levelo_inurba_marseille","lat":43.225351,"lon":5.348298,"is_reserved":false,"is_disabled":false,"rental_uris":{"android":"levelo://app?vid=a0d13da0-4216-4405-91d0-d37b45845c6a","ios":"levelo://app?vid=a0d13da0-4216-4405-91d0-d37b45845c6a"},"vehicle_type_id":"4","last_reported":1778881706,"current_range_meters":3600,"station_id":"st_cvj5dfep6f1abm77gieg","pricing_plan_id":"cebpf4jnsgd1na2vs0mg"},{"bike_id":"fea90c50-e965-498a-9110-3a39a1813947","system_id":"levelo_inurba_marseille","lat":43.294342,"lon":5.383198,"is_reserved":false,"is_disabled":false,"rental_uris":{"android":"levelo://app?vid=fea90c50-e965-498a-9110-3a39a1813947","ios":"levelo://app?vid=fea90c50-e965-498a-9110-3a39a1813947"},"vehicle_type_id":"4","last_reported":1778881706,"current_range_meters":3600,"station_id":"","pricing_plan_id":"cebpf4jnsgd1na2vs0mg"},{"bike_id":"a1f650db-d917-4f62-9239-35affc1bb5cb","system_id":"levelo_inurba_marseille","lat":43.29591,"lon":5.38074,"is_reserved":false,"is_disabled":false,"rental_uris":{"android":"levelo://app?vid=a1f650db-d917-4f62-9239-35affc1bb5cb","ios":"levelo://app?vid=a1f650db-d917-4f62-9239-35affc1bb5cb"},"vehicle_type_id":"4","last_reported":1778881706,"current_range_meters":3600,"station_id":"ce4bgl12rcd13ifvqbo0","pricing_plan_id":"cebpf4jnsgd1na2vs0mg"},{"bike_id":"e88c25df-d499-4a39-950c-89435b72e9e8","system_id":"levelo_inurba_marseille","lat":43.284653,"lon":5.358943,"is_reserved":false,"is_disabled":false,"rental_uris":{"android":"levelo://app?vid=e88c25df-d499-4a39-950c-89435b72e9e8","ios":"levelo://app?vid=e88c25df-d499-4a39-950c-89435b72e9e8"},"vehicle_type_id":"4","last_reported":1778881706,"current_range_meters":3600,"station_id":"ce4bhah2rcd13ifvqei0","pricing_plan_id":"cebpf4jnsgd1na2vs0mg"},{"bike_id":"4552c73f-f6c1-4e54-a2bf-b6ea39b08d7e","system_id":"levelo_inurba_marseille","lat":43.28536,"lon":5.44105,"is_reserved":false,"is_disabled":false,"rental_uris":{"android":"levelo://app?vid=4552c73f-f6c1-4e54-a2bf-b6ea39b08d7e","ios":"levelo://app?vid=4552c73f-f6c1-4e54-a2bf-b6ea39b08d7e"},"vehicle_type_id":"4","last_reported":1778881706,"current_range_meters":3600,"station_id":"st_d3j3df2ikq2c7380ej80","pricing_plan_id":"cebpf4jnsgd1na2vs0mg"},{"bike_id":"3dd177bd-4b15-4b35-bb63-c2c35182d4b1","system_id":"levelo_inurba_marseille","lat":43.25824,"lon":5.39432,"is_reserved":false,"is_disabled":false,"rental_uris":{"android":"levelo://app?vid=3dd177bd-4b15-4b35-bb63-c2c35182d4b1","ios":"levelo://app?vid=3dd177bd-4b15-4b35-bb63-c2c35182d4b1"},"vehicle_type_id":"4","last_reported":1778881706,"current_range_meters":3600,"station_id":"ce4bhip2rcd13ifvqft0","pricing_plan_id":"cebpf4jnsgd1na2vs0mg"},{"bike_id":"04a14d65-2685-4f3f-9c2d-9b41e5bdce42","system_id":"levelo_inurba_marseille","lat":43.27369,"lon":5.3624,"is_reserved":false,"is_disabled":true,"rental_uris":{"android":"levelo://app?vid=04a14d65-2685-4f3f-9c2d-9b41e5bdce42","ios":"levelo://app?vid=04a14d65-2685-4f3f-9c2d-9b41e5bdce42"},"vehicle_type_id":"4","last_reported":1778881706,"current_range_meters":3600,"station_id":"ce4bhbh2rcd13ifvqeo0","pricing_plan_id":"cebpf4jnsgd1na2vs0mg"},{"bike_id":"5d7fb73d-4139-4dae-83a7-a1108499f28e","system_id":"levelo_inurba_marseille","lat":43.28354,"lon":5.40277,"is_reserved":false,"is_disabled":false,"rental_uris":{"android":"levelo://app?vid=5d7fb73d-4139-4dae-83a7-a1108499f28e","ios":"levelo://app?vid=5d7fb73d-4139-4dae-83a7-a1108499f28e"},"vehicle_type_id":"4","last_reported":1778881706,"current_range_meters":3600,"station_id":"","pricing_plan_id":"cebpf4jnsgd1na2vs0mg"},{"bike_id":"b689131c-c740-461c-a491-d793d63702b1","system_id":"levelo_inurba_marseille","lat":43.22532,"lon":5.34853,"is_reserved":false,"is_disabled":true,"rental_uris":{"android":"levelo://app?vid=b689131c-c740-461c-a491-d793d63702b1","ios":"levelo://app?vid=b689131c-c740-461c-a491-d793d63702b1"},"vehicle_type_id":"4","last_reported":1778881706,"current_range_meters":4000,"station_id":"st_cvj5dfep6f1abm77gieg","pricing_plan_id":"cebpf4jnsgd1na2vs0mg"},{"bike_id":"14271a51-5e2e-4f4d-9cfb-2b55159b5e48","system_id":"levelo_inurba_marseille","lat":43.27209,"lon":5.39176,"is_reserved":false,"is_disabled":false,"rental_uris":{"android":"levelo://app?vid=14271a51-5e2e-4f4d-9cfb-2b55159b5e48","ios":"levelo://app?vid=14271a51-5e2e-4f4d-9cfb-2b55159b5e48"},"vehicle_type_id":"4","last_reported":1778881706,"current_range_meters":4000,"station_id":"ce4bhhp2rcd13ifvqfm0","pricing_plan_id":"cebpf4jnsgd1na2vs0mg"},{"bike_id":"5b3da65d-b2ee-4ba8-94b1-1d1c8e3d3f6f","system_id":"levelo_inurba_marseille","lat":43.29809,"lon":5.44078,"is_reserved":false,"is_disabled":false,"rental_uris":{"android":"levelo://app?vid=5b3da65d-b2ee-4ba8-94b1-1d1c8e3d3f6f","ios":"levelo://app?vid=5b3da65d-b2ee-4ba8-94b1-1d1c8e3d3f6f"},"vehicle_type_id":"4","last_reported":1778881706,"current_range_meters":4000,"station_id":"st_d3jp68qikq2c7381ktn0","pricing_plan_id":"cebpf4jnsgd1na2vs0mg"},{"bike_id":"4d8ed060-ddae-4cb9-b8e8-228116c3d621","system_id":"levelo_inurba_marseille","lat":43.31357,"lon":5.38487,"is_reserved":false,"is_disabled":false,"rental_uris":{"android":"levelo://app?vid=4d8ed060-ddae-4cb9-b8e8-228116c3d621","ios":"levelo://app?vid=4d8ed060-ddae-4cb9-b8e8-228116c3d621"},"vehicle_type_id":"4","last_reported":1778881706,"current_range_meters":4000,"station_id":"ce4bgt92rcd13ifvqcf0","pricing_plan_id":"cebpf4jnsgd1na2vs0mg"},{"bike_id":"9eb9574c-e872-4dd5-9f6a-8a222bc0ffa5","system_id":"levelo_inurba_marseille","lat":43.28234,"lon":5.40573,"is_reserved":false,"is_disabled":false,"rental_uris":{"android":"levelo://app?vid=9eb9574c-e872-4dd5-9f6a-8a222bc0ffa5","ios":"levelo://app?vid=9eb9574c-e872-4dd5-9f6a-8a222bc0ffa5"},"vehicle_type_id":"4","last_reported":1778881706,"current_range_meters":4000,"station_id":"","pricing_plan_id":"cebpf4jnsgd1na2vs0mg"},{"bike_id":"2fed85b5-627a-4650-95dc-41bedde1fa05","system_id":"levelo_inurba_marseille","lat":43.28232,"lon":5.35027,"is_reserved":false,"is_disabled":false,"rental_uris":{"android":"levelo://app?vid=2fed85b5-627a-4650-95dc-41bedde1fa05","ios":"levelo://app?vid=2fed85b5-627a-4650-95dc-41bedde1fa05"},"vehicle_type_id":"4","last_reported":1778881706,"current_range_meters":4000,"station_id":"","pricing_plan_id":"cebpf4jnsgd1na2vs0mg"},{"bike_id":"d194f185-ad3d-4bc0-b272-b72d19a7822c","system_id":"levelo_inurba_marseille","lat":43.2408,"lon":5.37727,"is_reserved":false,"is_disabled":false,"rental_uris":{"android":"levelo://app?vid=d194f185-ad3d-4bc0-b272-b72d19a7822c","ios":"levelo://app?vid=d194f185-ad3d-4bc0-b272-b72d19a7822c"},"vehicle_type_id":"4","last_reported":1778881706,"current_range_meters":4400,"station_id":"ce4bhnp2rcd13ifvqgvg","pricing_plan_id":"cebpf4jnsgd1na2vs0mg"},{"bike_id":"9b2cbbc1-9dda-4f79-bc45-8694c91bb5f6","system_id":"levelo_inurba_marseille","lat":43.28274,"lon":5.35073,"is_reserved":false,"is_disabled":true,"rental_uris":{"android":"levelo://app?vid=9b2cbbc1-9dda-4f79-bc45-8694c91bb5f6","ios":"levelo://app?vid=9b2cbbc1-9dda-4f79-bc45-8694c91bb5f6"},"vehicle_type_id":"4","last_reported":1778881706,"current_range_meters":4400,"station_id":"ce4bhbp2rcd13ifvqerg","pricing_plan_id":"cebpf4jnsgd1na2vs0mg"},{"bike_id":"171050af-87b6-4745-966b-011c90f35208","system_id":"levelo_inurba_marseille","lat":43.29626,"lon":5.40599,"is_reserved":false,"is_disabled":false,"rental_uris":{"android":"levelo://app?vid=171050af-87b6-4745-966b-011c90f35208","ios":"levelo://app?vid=171050af-87b6-4745-966b-011c90f35208"},"vehicle_type_id":"4","last_reported":1778881706,"current_range_meters":4400,"station_id":"ce4bh0h2rcd13ifvqd60","pricing_plan_id":"cebpf4jnsgd1na2vs0mg"},{"bike_id":"05005507-3f2e-4667-8fe8-e5bc5ea35ae5","system_id":"levelo_inurba_marseille","lat":43.24811,"lon":5.37441,"is_reserved":false,"is_disabled":true,"rental_uris":{"android":"levelo://app?vid=05005507-3f2e-4667-8fe8-e5bc5ea35ae5","ios":"levelo://app?vid=05005507-3f2e-4667-8fe8-e5bc5ea35ae5"},"vehicle_type_id":"4","last_reported":1778881706,"current_range_meters":4400,"station_id":"ce4bhgh2rcd13ifvqfb0","pricing_plan_id":"cebpf4jnsgd1na2vs0mg"},{"bike_id":"6fcaa970-fbb9-44f4-a1a2-a03710340699","system_id":"levelo_inurba_marseille","lat":43.22541,"lon":5.34825,"is_reserved":false,"is_disabled":true,"rental_uris":{"android":"levelo://app?vid=6fcaa970-fbb9-44f4-a1a2-a03710340699","ios":"levelo://app?vid=6fcaa970-fbb9-44f4-a1a2-a03710340699"},"vehicle_type_id":"4","last_reported":1778881706,"current_range_meters":4400,"station_id":"st_cvj5dfep6f1abm77gieg","pricing_plan_id":"cebpf4jnsgd1na2vs0mg"},{"bike_id":"b377143e-4597-406b-9854-5cc8360be131","system_id":"levelo_inurba_marseille","lat":43.27919,"lon":5.39223,"is_reserved":false,"is_disabled":false,"rental_uris":{"android":"levelo://app?vid=b377143e-4597-406b-9854-5cc8360be131","ios":"levelo://app?vid=b377143e-4597-406b-9854-5cc8360be131"},"vehicle_type_id":"4","last_reported":1778881706,"current_range_meters":4400,"station_id":"","pricing_plan_id":"cebpf4jnsgd1na2vs0mg"},{"bike_id":"b1b1c9ad-0e11-41a8-95b1-ee1803460284","system_id":"levelo_inurba_marseille","lat":43.33549,"lon":5.37478,"is_reserved":false,"is_disabled":false,"rental_uris":{"android":"levelo://app?vid=b1b1c9ad-0e11-41a8-95b1-ee1803460284","ios":"levelo://app?vid=b1b1c9ad-0e11-41a8-95b1-ee1803460284"},"vehicle_type_id":"4","last_reported":1778881706,"current_range_meters":4400,"station_id":"st_d46tts09ee8s73dlu43g","pricing_plan_id":"cebpf4jnsgd1na2vs0mg"},{"bike_id":"78a05d99-04e8-4d44-b30f-76f897048f1b","system_id":"levelo_inurba_marseille","lat":43.27916,"lon":5.39598,"is_reserved":false,"is_disabled":false,"rental_uris":{"android":"levelo://app?vid=78a05d99-04e8-4d44-b30f-76f897048f1b","ios":"levelo://app?vid=78a05d99-04e8-4d44-b30f-76f897048f1b"},"vehicle_type_id":"4","last_reported":1778881706,"current_range_meters":4400,"station_id":"ce4bhf92rcd13ifvqf40","pricing_plan_id":"cebpf4jnsgd1na2vs0mg"},{"bike_id":"99a4e885-b612-4bd3-8956-29255e17cff2","system_id":"levelo_inurba_marseille","lat":43.26225,"lon":5.37507,"is_reserved":false,"is_disabled":true,"rental_uris":{"android":"levelo://app?vid=99a4e885-b612-4bd3-8956-29255e17cff2","ios":"levelo://app?vid=99a4e885-b612-4bd3-8956-29255e17cff2"},"vehicle_type_id":"4","last_reported":1778881706,"current_range_meters":4400,"station_id":"","pricing_plan_id":"cebpf4jnsgd1na2vs0mg"},{"bike_id":"2c900b6d-c6bc-4eeb-a695-1fac18b6e8ba","system_id":"levelo_inurba_marseille","lat":43.270612,"lon":5.402586,"is_reserved":false,"is_disabled":false,"rental_uris":{"android":"levelo://app?vid=2c900b6d-c6bc-4eeb-a695-1fac18b6e8ba","ios":"levelo://app?vid=2c900b6d-c6bc-4eeb-a695-1fac18b6e8ba"},"vehicle_type_id":"4","last_reported":1778881706,"current_range_meters":4400,"station_id":"ce4bhk92rcd13ifvqgc0","pricing_plan_id":"cebpf4jnsgd1na2vs0mg"},{"bike_id":"683c2f64-d560-477d-bf79-f81884be1301","system_id":"levelo_inurba_marseille","lat":43.26374,"lon":5.40291,"is_reserved":false,"is_disabled":false,"rental_uris":{"android":"levelo://app?vid=683c2f64-d560-477d-bf79-f81884be1301","ios":"levelo://app?vid=683c2f64-d560-477d-bf79-f81884be1301"},"vehicle_type_id":"4","last_reported":1778881706,"current_range_meters":4400,"station_id":"","pricing_plan_id":"cebpf4jnsgd1na2vs0mg"},{"bike_id":"fb77b238-fe71-4780-9747-e992d92ea107","system_id":"levelo_inurba_marseille","lat":43.27071,"lon":5.42273,"is_reserved":false,"is_disabled":false,"rental_uris":{"android":"levelo://app?vid=fb77b238-fe71-4780-9747-e992d92ea107","ios":"levelo://app?vid=fb77b238-fe71-4780-9747-e992d92ea107"},"vehicle_type_id":"4","last_reported":1778881706,"current_range_meters":4400,"station_id":"ce4bhk92rcd13ifvqgb0","pricing_plan_id":"cebpf4jnsgd1na2vs0mg"},{"bike_id":"6a3b9acc-d7b5-47af-a00b-22a8e4b375a2","system_id":"levelo_inurba_marseille","lat":43.30515,"lon":5.36538,"is_reserved":false,"is_disabled":false,"rental_uris":{"android":"levelo://app?vid=6a3b9acc-d7b5-47af-a00b-22a8e4b375a2","ios":"levelo://app?vid=6a3b9acc-d7b5-47af-a00b-22a8e4b375a2"},"vehicle_type_id":"4","last_reported":1778881706,"current_range_meters":4800,"station_id":"","pricing_plan_id":"cebpf4jnsgd1na2vs0mg"},{"bike_id":"9276ab79-8db0-4d81-8275-d4c4dd663f6f","system_id":"levelo_inurba_marseille","lat":43.305286,"lon":5.38425,"is_reserved":false,"is_disabled":false,"rental_uris":{"android":"levelo://app?vid=9276ab79-8db0-4d81-8275-d4c4dd663f6f","ios":"levelo://app?vid=9276ab79-8db0-4d81-8275-d4c4dd663f6f"},"vehicle_type_id":"4","last_reported":1778881706,"current_range_meters":4800,"station_id":"ce4bgg92rcd13ifvqb30","pricing_plan_id":"cebpf4jnsgd1na2vs0mg"},{"bike_id":"008d4d41-0159-4e4d-bcd3-e8c58e932106","system_id":"levelo_inurba_marseille","lat":43.29259,"lon":5.3685,"is_reserved":false,"is_disabled":false,"rental_uris":{"android":"levelo://app?vid=008d4d41-0159-4e4d-bcd3-e8c58e932106","ios":"levelo://app?vid=008d4d41-0159-4e4d-bcd3-e8c58e932106"},"vehicle_type_id":"4","last_reported":1778881706,"current_range_meters":4800,"station_id":"ce4bhbp2rcd13ifvqesg","pricing_plan_id":"cebpf4jnsgd1na2vs0mg"},{"bike_id":"6333e7f6-67b5-49dd-8ef5-f232d586c2bb","system_id":"levelo_inurba_marseille","lat":43.2628,"lon":5.38729,"is_reserved":false,"is_disabled":false,"rental_uris":{"android":"levelo://app?vid=6333e7f6-67b5-49dd-8ef5-f232d586c2bb","ios":"levelo://app?vid=6333e7f6-67b5-49dd-8ef5-f232d586c2bb"},"vehicle_type_id":"4","last_reported":1778881706,"current_range_meters":4800,"station_id":"","pricing_plan_id":"cebpf4jnsgd1na2vs0mg"},{"bike_id":"c015344b-21f4-4daa-bd8e-6d232c97c068","system_id":"levelo_inurba_marseille","lat":43.2903,"lon":5.39937,"is_reserved":false,"is_disabled":false,"rental_uris":{"android":"levelo://app?vid=c015344b-21f4-4daa-bd8e-6d232c97c068","ios":"levelo://app?vid=c015344b-21f4-4daa-bd8e-6d232c97c068"},"vehicle_type_id":"4","last_reported":1778881706,"current_range_meters":4800,"station_id":"ce4bh392rcd13ifvqdm0","pricing_plan_id":"cebpf4jnsgd1na2vs0mg"},{"bike_id":"f487b9a6-a816-4f73-97d2-e84d2c0676be","system_id":"levelo_inurba_marseille","lat":43.24675,"lon":5.38166,"is_reserved":false,"is_disabled":false,"rental_uris":{"android":"levelo://app?vid=f487b9a6-a816-4f73-97d2-e84d2c0676be","ios":"levelo://app?vid=f487b9a6-a816-4f73-97d2-e84d2c0676be"},"vehicle_type_id":"4","last_reported":1778881706,"current_range_meters":4800,"station_id":"ce4bhih2rcd13ifvqfr0","pricing_plan_id":"cebpf4jnsgd1na2vs0mg"},{"bike_id":"4060a3f4-e6a0-4cbd-85c3-43ef48c18031","system_id":"levelo_inurba_marseille","lat":43.26941,"lon":5.4026,"is_reserved":false,"is_disabled":false,"rental_uris":{"android":"levelo://app?vid=4060a3f4-e6a0-4cbd-85c3-43ef48c18031","ios":"levelo://app?vid=4060a3f4-e6a0-4cbd-85c3-43ef48c18031"},"vehicle_type_id":"4","last_reported":1778881706,"current_range_meters":4800,"station_id":"cjm6bp8fraef2m0cb0m0","pricing_plan_id":"cebpf4jnsgd1na2vs0mg"},{"bike_id":"d3206ec1-0847-448a-b1be-18deed55b989","system_id":"levelo_inurba_marseille","lat":43.31994,"lon":5.38166,"is_reserved":false,"is_disabled":false,"rental_uris":{"android":"levelo://app?vid=d3206ec1-0847-448a-b1be-18deed55b989","ios":"levelo://app?vid=d3206ec1-0847-448a-b1be-18deed55b989"},"vehicle_type_id":"4","last_reported":1778881706,"current_range_meters":4800,"station_id":"ce4bhr12rcd13ifvqhpg","pricing_plan_id":"cebpf4jnsgd1na2vs0mg"},{"bike_id":"19d69b75-f53d-4f9d-b459-a8ec1a163024","system_id":"levelo_inurba_marseille","lat":43.30147,"lon":5.38097,"is_reserved":false,"is_disabled":true,"rental_uris":{"android":"levelo://app?vid=19d69b75-f53d-4f9d-b459-a8ec1a163024","ios":"levelo://app?vid=19d69b75-f53d-4f9d-b459-a8ec1a163024"},"vehicle_type_id":"4","last_reported":1778881706,"current_range_meters":4800,"station_id":"ce4bgjp2rcd13ifvqbh0","pricing_plan_id":"cebpf4jnsgd1na2vs0mg"},{"bike_id":"493397ed-d9be-4600-9fe1-57b99e6de4f4","system_id":"levelo_inurba_marseille","lat":43.29741,"lon":5.42785,"is_reserved":false,"is_disabled":false,"rental_uris":{"android":"levelo://app?vid=493397ed-d9be-4600-9fe1-57b99e6de4f4","ios":"levelo://app?vid=493397ed-d9be-4600-9fe1-57b99e6de4f4"},"vehicle_type_id":"4","last_reported":1778881706,"current_range_meters":4800,"station_id":"st_d3md5207bmas73dh9klg","pricing_plan_id":"cebpf4jnsgd1na2vs0mg"},{"bike_id":"dadc9d3c-9366-4814-bf9b-a97d77bb6988","system_id":"levelo_inurba_marseille","lat":43.26023,"lon":5.37557,"is_reserved":false,"is_disabled":false,"rental_uris":{"android":"levelo://app?vid=dadc9d3c-9366-4814-bf9b-a97d77bb6988","ios":"levelo://app?vid=dadc9d3c-9366-4814-bf9b-a97d77bb6988"},"vehicle_type_id":"4","last_reported":1778881706,"current_range_meters":4800,"station_id":"ce4bhgh2rcd13ifvqfa0","pricing_plan_id":"cebpf4jnsgd1na2vs0mg"},{"bike_id":"b637dfa1-1c17-4790-b18d-abec75eb3d8b","system_id":"levelo_inurba_marseille","lat":43.28153,"lon":5.42648,"is_reserved":false,"is_disabled":false,"rental_uris":{"android":"levelo://app?vid=b637dfa1-1c17-4790-b18d-abec75eb3d8b","ios":"levelo://app?vid=b637dfa1-1c17-4790-b18d-abec75eb3d8b"},"vehicle_type_id":"4","last_reported":1778881706,"current_range_meters":4800,"station_id":"ce4bhnh2rcd13ifvqgug","pricing_plan_id":"cebpf4jnsgd1na2vs0mg"},{"bike_id":"9d5f879f-815c-4108-9149-5d6da1dbb023","system_id":"levelo_inurba_marseille","lat":43.24475,"lon":5.42526,"is_reserved":false,"is_disabled":false,"rental_uris":{"android":"levelo://app?vid=9d5f879f-815c-4108-9149-5d6da1dbb023","ios":"levelo://app?vid=9d5f879f-815c-4108-9149-5d6da1dbb023"},"vehicle_type_id":"4","last_reported":1778881706,"current_range_meters":4800,"station_id":"st_d4a3vfp97mjs738cd8kg","pricing_plan_id":"cebpf4jnsgd1na2vs0mg"},{"bike_id":"2e971375-9392-42ab-9a31-649b6cbbfa3d","system_id":"levelo_inurba_marseille","lat":43.29031,"lon":5.38649,"is_reserved":false,"is_disabled":false,"rental_uris":{"android":"levelo://app?vid=2e971375-9392-42ab-9a31-649b6cbbfa3d","ios":"levelo://app?vid=2e971375-9392-42ab-9a31-649b6cbbfa3d"},"vehicle_type_id":"4","last_reported":1778881706,"current_range_meters":4800,"station_id":"ce4bh4p2rcd13ifvqe0g","pricing_plan_id":"cebpf4jnsgd1na2vs0mg"},{"bike_id":"764d76ce-631a-497c-9391-15e48099c412","system_id":"levelo_inurba_marseille","lat":43.2953,"lon":5.38547,"is_reserved":false,"is_disabled":false,"rental_uris":{"android":"levelo://app?vid=764d76ce-631a-497c-9391-15e48099c412","ios":"levelo://app?vid=764d76ce-631a-497c-9391-15e48099c412"},"vehicle_type_id":"4","last_reported":1778881706,"current_range_meters":4800,"station_id":"ce4bgih2rcd13ifvqba0","pricing_plan_id":"cebpf4jnsgd1na2vs0mg"},{"bike_id":"cc90d206-d5bf-410c-9e08-4a23c2131ff8","system_id":"levelo_inurba_marseille","lat":43.2548,"lon":5.37661,"is_reserved":false,"is_disabled":false,"rental_uris":{"android":"levelo://app?vid=cc90d206-d5bf-410c-9e08-4a23c2131ff8","ios":"levelo://app?vid=cc90d206-d5bf-410c-9e08-4a23c2131ff8"},"vehicle_type_id":"4","last_reported":1778881706,"current_range_meters":5600,"station_id":"ce4bhh12rcd13ifvqff0","pricing_plan_id":"cebpf4jnsgd1na2vs0mg"},{"bike_id":"01adfd2a-8633-4d67-a743-89ebb59a4bc0","system_id":"levelo_inurba_marseille","lat":43.24675,"lon":5.38155,"is_reserved":false,"is_disabled":true,"rental_uris":{"android":"levelo://app?vid=01adfd2a-8633-4d67-a743-89ebb59a4bc0","ios":"levelo://app?vid=01adfd2a-8633-4d67-a743-89ebb59a4bc0"},"vehicle_type_id":"4","last_reported":1778881706,"current_range_meters":5600,"station_id":"ce4bhih2rcd13ifvqfr0","pricing_plan_id":"cebpf4jnsgd1na2vs0mg"},{"bike_id":"37d316cd-6e63-4dba-996f-5684dc1ba64d","system_id":"levelo_inurba_marseille","lat":43.24818,"lon":5.37487,"is_reserved":false,"is_disabled":false,"rental_uris":{"android":"levelo://app?vid=37d316cd-6e63-4dba-996f-5684dc1ba64d","ios":"levelo://app?vid=37d316cd-6e63-4dba-996f-5684dc1ba64d"},"vehicle_type_id":"4","last_reported":1778881706,"current_range_meters":5600,"station_id":"ce4bhgh2rcd13ifvqfb0","pricing_plan_id":"cebpf4jnsgd1na2vs0mg"},{"bike_id":"95253244-89cc-4e41-8d16-5de9b0d3b390","system_id":"levelo_inurba_marseille","lat":43.28702,"lon":5.39972,"is_reserved":false,"is_disabled":false,"rental_uris":{"android":"levelo://app?vid=95253244-89cc-4e41-8d16-5de9b0d3b390","ios":"levelo://app?vid=95253244-89cc-4e41-8d16-5de9b0d3b390"},"vehicle_type_id":"4","last_reported":1778881706,"current_range_meters":5600,"station_id":"ce4bho92rcd13ifvqh3g","pricing_plan_id":"cebpf4jnsgd1na2vs0mg"},{"bike_id":"49dde2ef-9bde-469e-a709-f081dbfd2afb","system_id":"levelo_inurba_marseille","lat":43.23964,"lon":5.3664,"is_reserved":false,"is_disabled":false,"rental_uris":{"android":"levelo://app?vid=49dde2ef-9bde-469e-a709-f081dbfd2afb","ios":"levelo://app?vid=49dde2ef-9bde-469e-a709-f081dbfd2afb"},"vehicle_type_id":"4","last_reported":1778881706,"current_range_meters":5600,"station_id":"ce4bhi12rcd13ifvqfp0","pricing_plan_id":"cebpf4jnsgd1na2vs0mg"},{"bike_id":"936fa868-782b-40af-831a-a0159a0c0157","system_id":"levelo_inurba_marseille","lat":43.22546,"lon":5.34897,"is_reserved":false,"is_disabled":false,"rental_uris":{"android":"levelo://app?vid=936fa868-782b-40af-831a-a0159a0c0157","ios":"levelo://app?vid=936fa868-782b-40af-831a-a0159a0c0157"},"vehicle_type_id":"4","last_reported":1778881706,"current_range_meters":5600,"station_id":"st_cvj5dfep6f1abm77gieg","pricing_plan_id":"cebpf4jnsgd1na2vs0mg"},{"bike_id":"2a259fc5-75d1-4908-9a72-359cce9515da","system_id":"levelo_inurba_marseille","lat":43.27178,"lon":5.40989,"is_reserved":false,"is_disabled":false,"rental_uris":{"android":"levelo://app?vid=2a259fc5-75d1-4908-9a72-359cce9515da","ios":"levelo://app?vid=2a259fc5-75d1-4908-9a72-359cce9515da"},"vehicle_type_id":"4","last_reported":1778881706,"current_range_meters":5600,"station_id":"ce4bhl12rcd13ifvqgf0","pricing_plan_id":"cebpf4jnsgd1na2vs0mg"},{"bike_id":"78c1df2c-4a05-43f5-9f7e-6f0520bd9947","system_id":"levelo_inurba_marseille","lat":43.27941,"lon":5.41035,"is_reserved":false,"is_disabled":false,"rental_uris":{"android":"levelo://app?vid=78c1df2c-4a05-43f5-9f7e-6f0520bd9947","ios":"levelo://app?vid=78c1df2c-4a05-43f5-9f7e-6f0520bd9947"},"vehicle_type_id":"4","last_reported":1778881706,"current_range_meters":5600,"station_id":"ce4bhnp2rcd13ifvqh0g","pricing_plan_id":"cebpf4jnsgd1na2vs0mg"},{"bike_id":"e95d3c0c-a37f-41c8-8e42-81fa6e69c3d7","system_id":"levelo_inurba_marseille","lat":43.24393,"lon":5.37079,"is_reserved":false,"is_disabled":false,"rental_uris":{"android":"levelo://app?vid=e95d3c0c-a37f-41c8-8e42-81fa6e69c3d7","ios":"levelo://app?vid=e95d3c0c-a37f-41c8-8e42-81fa6e69c3d7"},"vehicle_type_id":"4","last_reported":1778881706,"current_range_meters":5600,"station_id":"ce4bhhh2rcd13ifvqfk0","pricing_plan_id":"cebpf4jnsgd1na2vs0mg"},{"bike_id":"0d5dd8d5-22ce-4cf4-96c4-a16487c95253","system_id":"levelo_inurba_marseille","lat":43.29956,"lon":5.38697,"is_reserved":false,"is_disabled":false,"rental_uris":{"android":"levelo://app?vid=0d5dd8d5-22ce-4cf4-96c4-a16487c95253","ios":"levelo://app?vid=0d5dd8d5-22ce-4cf4-96c4-a16487c95253"},"vehicle_type_id":"4","last_reported":1778881706,"current_range_meters":5600,"station_id":"","pricing_plan_id":"cebpf4jnsgd1na2vs0mg"},{"bike_id":"de18d8d3-16ef-4166-8728-366662f46df4","system_id":"levelo_inurba_marseille","lat":43.24074,"lon":5.37747,"is_reserved":false,"is_disabled":false,"rental_uris":{"android":"levelo://app?vid=de18d8d3-16ef-4166-8728-366662f46df4","ios":"levelo://app?vid=de18d8d3-16ef-4166-8728-366662f46df4"},"vehicle_type_id":"4","last_reported":1778881706,"current_range_meters":5600,"station_id":"ce4bhnp2rcd13ifvqgvg","pricing_plan_id":"cebpf4jnsgd1na2vs0mg"},{"bike_id":"def5bf59-e3d6-4ad4-a9f1-c57a6c935980","system_id":"levelo_inurba_marseille","lat":43.27365,"lon":5.36245,"is_reserved":false,"is_disabled":false,"rental_uris":{"android":"levelo://app?vid=def5bf59-e3d6-4ad4-a9f1-c57a6c935980","ios":"levelo://app?vid=def5bf59-e3d6-4ad4-a9f1-c57a6c935980"},"vehicle_type_id":"4","last_reported":1778881706,"current_range_meters":5600,"station_id":"ce4bhbh2rcd13ifvqeo0","pricing_plan_id":"cebpf4jnsgd1na2vs0mg"},{"bike_id":"f305df5b-59bc-483b-954f-4fa8bf18b527","system_id":"levelo_inurba_marseille","lat":43.24802,"lon":5.37462,"is_reserved":false,"is_disabled":false,"rental_uris":{"android":"levelo://app?vid=f305df5b-59bc-483b-954f-4fa8bf18b527","ios":"levelo://app?vid=f305df5b-59bc-483b-954f-4fa8bf18b527"},"vehicle_type_id":"4","last_reported":1778881706,"current_range_meters":6000,"station_id":"ce4bhgh2rcd13ifvqfb0","pricing_plan_id":"cebpf4jnsgd1na2vs0mg"},{"bike_id":"d8f85cb9-935d-44f7-8b4c-b6b61be4ba0b","system_id":"levelo_inurba_marseille","lat":43.2996,"lon":5.38488,"is_reserved":false,"is_disabled":false,"rental_uris":{"android":"levelo://app?vid=d8f85cb9-935d-44f7-8b4c-b6b61be4ba0b","ios":"levelo://app?vid=d8f85cb9-935d-44f7-8b4c-b6b61be4ba0b"},"vehicle_type_id":"4","last_reported":1778881706,"current_range_meters":6000,"station_id":"ce4bgj92rcd13ifvqbd0","pricing_plan_id":"cebpf4jnsgd1na2vs0mg"},{"bike_id":"c4ee361f-040e-4ad9-8fc8-7b730e9f0c39","system_id":"levelo_inurba_marseille","lat":43.337444,"lon":5.374475,"is_reserved":false,"is_disabled":true,"rental_uris":{"android":"levelo://app?vid=c4ee361f-040e-4ad9-8fc8-7b730e9f0c39","ios":"levelo://app?vid=c4ee361f-040e-4ad9-8fc8-7b730e9f0c39"},"vehicle_type_id":"4","last_reported":1778881706,"current_range_meters":6000,"station_id":"","pricing_plan_id":"cebpf4jnsgd1na2vs0mg"},{"bike_id":"ceeae13a-87c9-4495-9238-e5a5cc9c4c69","system_id":"levelo_inurba_marseille","lat":43.2962,"lon":5.37147,"is_reserved":false,"is_disabled":false,"rental_uris":{"android":"levelo://app?vid=ceeae13a-87c9-4495-9238-e5a5cc9c4c69","ios":"levelo://app?vid=ceeae13a-87c9-4495-9238-e5a5cc9c4c69"},"vehicle_type_id":"4","last_reported":1778881706,"current_range_meters":6000,"station_id":"ce4bgnh2rcd13ifvqc0g","pricing_plan_id":"cebpf4jnsgd1na2vs0mg"},{"bike_id":"cba99aea-2c08-40cc-a006-b2149cf236dc","system_id":"levelo_inurba_marseille","lat":43.27628,"lon":5.36098,"is_reserved":false,"is_disabled":false,"rental_uris":{"android":"levelo://app?vid=cba99aea-2c08-40cc-a006-b2149cf236dc","ios":"levelo://app?vid=cba99aea-2c08-40cc-a006-b2149cf236dc"},"vehicle_type_id":"4","last_reported":1778881706,"current_range_meters":6000,"station_id":"ce4bgj92rcd13ifvqbe0","pricing_plan_id":"cebpf4jnsgd1na2vs0mg"},{"bike_id":"eea4634b-338a-41d6-b3a1-0a07ae27ed98","system_id":"levelo_inurba_marseille","lat":43.27379,"lon":5.36244,"is_reserved":false,"is_disabled":true,"rental_uris":{"android":"levelo://app?vid=eea4634b-338a-41d6-b3a1-0a07ae27ed98","ios":"levelo://app?vid=eea4634b-338a-41d6-b3a1-0a07ae27ed98"},"vehicle_type_id":"4","last_reported":1778881706,"current_range_meters":6000,"station_id":"ce4bhbh2rcd13ifvqeo0","pricing_plan_id":"cebpf4jnsgd1na2vs0mg"},{"bike_id":"81ab246d-6c3c-46ad-84fa-90b7c85b4ff2","system_id":"levelo_inurba_marseille","lat":43.273137,"lon":5.390737,"is_reserved":false,"is_disabled":false,"rental_uris":{"android":"levelo://app?vid=81ab246d-6c3c-46ad-84fa-90b7c85b4ff2","ios":"levelo://app?vid=81ab246d-6c3c-46ad-84fa-90b7c85b4ff2"},"vehicle_type_id":"4","last_reported":1778881706,"current_range_meters":6000,"station_id":"ce4bhgp2rcd13ifvqfe0","pricing_plan_id":"cebpf4jnsgd1na2vs0mg"},{"bike_id":"146dab31-404b-4d62-b261-022fa58bf707","system_id":"levelo_inurba_marseille","lat":43.33026,"lon":5.39011,"is_reserved":false,"is_disabled":false,"rental_uris":{"android":"levelo://app?vid=146dab31-404b-4d62-b261-022fa58bf707","ios":"levelo://app?vid=146dab31-404b-4d62-b261-022fa58bf707"},"vehicle_type_id":"4","last_reported":1778881706,"current_range_meters":6000,"station_id":"ce4bhr92rcd13ifvqhrg","pricing_plan_id":"cebpf4jnsgd1na2vs0mg"},{"bike_id":"65327f7c-e360-4450-b880-6bfdd1c2509b","system_id":"levelo_inurba_marseille","lat":43.31083,"lon":5.42435,"is_reserved":false,"is_disabled":false,"rental_uris":{"android":"levelo://app?vid=65327f7c-e360-4450-b880-6bfdd1c2509b","ios":"levelo://app?vid=65327f7c-e360-4450-b880-6bfdd1c2509b"},"vehicle_type_id":"4","last_reported":1778881706,"current_range_meters":6000,"station_id":"ce4bhp92rcd13ifvqhag","pricing_plan_id":"cebpf4jnsgd1na2vs0mg"},{"bike_id":"dab3b3d6-2f2f-4a1c-beb0-a0a2fb687c20","system_id":"levelo_inurba_marseille","lat":43.27072,"lon":5.422813,"is_reserved":false,"is_disabled":false,"rental_uris":{"android":"levelo://app?vid=dab3b3d6-2f2f-4a1c-beb0-a0a2fb687c20","ios":"levelo://app?vid=dab3b3d6-2f2f-4a1c-beb0-a0a2fb687c20"},"vehicle_type_id":"4","last_reported":1778881706,"current_range_meters":6000,"station_id":"ce4bhk92rcd13ifvqgb0","pricing_plan_id":"cebpf4jnsgd1na2vs0mg"},{"bike_id":"1d5fa909-b977-46a9-9408-7410d1722666","system_id":"levelo_inurba_marseille","lat":43.24397,"lon":5.37074,"is_reserved":false,"is_disabled":false,"rental_uris":{"android":"levelo://app?vid=1d5fa909-b977-46a9-9408-7410d1722666","ios":"levelo://app?vid=1d5fa909-b977-46a9-9408-7410d1722666"},"vehicle_type_id":"4","last_reported":1778881706,"current_range_meters":6000,"station_id":"ce4bhhh2rcd13ifvqfk0","pricing_plan_id":"cebpf4jnsgd1na2vs0mg"},{"bike_id":"fad0c761-4904-4c94-8ab3-8f1b5656e502","system_id":"levelo_inurba_marseille","lat":43.29256,"lon":5.38431,"is_reserved":false,"is_disabled":false,"rental_uris":{"android":"levelo://app?vid=fad0c761-4904-4c94-8ab3-8f1b5656e502","ios":"levelo://app?vid=fad0c761-4904-4c94-8ab3-8f1b5656e502"},"vehicle_type_id":"4","last_reported":1778881706,"current_range_meters":6000,"station_id":"ce4bh692rcd13ifvqea0","pricing_plan_id":"cebpf4jnsgd1na2vs0mg"},{"bike_id":"42b398f8-a8ea-44be-9411-45cdb22c6802","system_id":"levelo_inurba_marseille","lat":43.29561,"lon":5.39965,"is_reserved":false,"is_disabled":false,"rental_uris":{"android":"levelo://app?vid=42b398f8-a8ea-44be-9411-45cdb22c6802","ios":"levelo://app?vid=42b398f8-a8ea-44be-9411-45cdb22c6802"},"vehicle_type_id":"4","last_reported":1778881706,"current_range_meters":6000,"station_id":"ce4bh312rcd13ifvqdj0","pricing_plan_id":"cebpf4jnsgd1na2vs0mg"},{"bike_id":"34912ff6-4669-4dfb-a3c7-58734de9e7db","system_id":"levelo_inurba_marseille","lat":43.30143,"lon":5.37427,"is_reserved":false,"is_disabled":false,"rental_uris":{"android":"levelo://app?vid=34912ff6-4669-4dfb-a3c7-58734de9e7db","ios":"levelo://app?vid=34912ff6-4669-4dfb-a3c7-58734de9e7db"},"vehicle_type_id":"4","last_reported":1778881706,"current_range_meters":6000,"station_id":"ce4bgs92rcd13ifvqcc0","pricing_plan_id":"cebpf4jnsgd1na2vs0mg"},{"bike_id":"7b6875e0-fc1f-46ce-9151-4ad8f0a2d503","system_id":"levelo_inurba_marseille","lat":43.25577,"lon":5.38226,"is_reserved":false,"is_disabled":false,"rental_uris":{"android":"levelo://app?vid=7b6875e0-fc1f-46ce-9151-4ad8f0a2d503","ios":"levelo://app?vid=7b6875e0-fc1f-46ce-9151-4ad8f0a2d503"},"vehicle_type_id":"4","last_reported":1778881706,"current_range_meters":6000,"station_id":"ce4bhih2rcd13ifvqfs0","pricing_plan_id":"cebpf4jnsgd1na2vs0mg"},{"bike_id":"eb69ded8-3844-4366-a6c0-c2401c6cc839","system_id":"levelo_inurba_marseille","lat":43.28696,"lon":5.46688,"is_reserved":false,"is_disabled":false,"rental_uris":{"android":"levelo://app?vid=eb69ded8-3844-4366-a6c0-c2401c6cc839","ios":"levelo://app?vid=eb69ded8-3844-4366-a6c0-c2401c6cc839"},"vehicle_type_id":"4","last_reported":1778881706,"current_range_meters":6000,"station_id":"st_d6tc3vkotcvc738tfjhg","pricing_plan_id":"cebpf4jnsgd1na2vs0mg"},{"bike_id":"1602e64f-38f4-48c2-aa6e-9ea48cc2c8f5","system_id":"levelo_inurba_marseille","lat":43.21749,"lon":5.34606,"is_reserved":false,"is_disabled":false,"rental_uris":{"android":"levelo://app?vid=1602e64f-38f4-48c2-aa6e-9ea48cc2c8f5","ios":"levelo://app?vid=1602e64f-38f4-48c2-aa6e-9ea48cc2c8f5"},"vehicle_type_id":"4","last_reported":1778881706,"current_range_meters":6000,"station_id":"st_cvj6r9ubvosntc0bgbag","pricing_plan_id":"cebpf4jnsgd1na2vs0mg"},{"bike_id":"7f48fba2-ea38-43f6-8ecc-3254e0b95833","system_id":"levelo_inurba_marseille","lat":43.30471,"lon":5.37892,"is_reserved":false,"is_disabled":true,"rental_uris":{"android":"levelo://app?vid=7f48fba2-ea38-43f6-8ecc-3254e0b95833","ios":"levelo://app?vid=7f48fba2-ea38-43f6-8ecc-3254e0b95833"},"vehicle_type_id":"4","last_reported":1778881706,"current_range_meters":6400,"station_id":"ce4bgup2rcd13ifvqcn0","pricing_plan_id":"cebpf4jnsgd1na2vs0mg"},{"bike_id":"38e5524f-9270-46e3-9347-904a53ccf264","system_id":"levelo_inurba_marseille","lat":43.29509,"lon":5.39036,"is_reserved":false,"is_disabled":false,"rental_uris":{"android":"levelo://app?vid=38e5524f-9270-46e3-9347-904a53ccf264","ios":"levelo://app?vid=38e5524f-9270-46e3-9347-904a53ccf264"},"vehicle_type_id":"4","last_reported":1778881706,"current_range_meters":6400,"station_id":"ce4bh3p2rcd13ifvqdp0","pricing_plan_id":"cebpf4jnsgd1na2vs0mg"},{"bike_id":"eb7dcfe6-0239-42bf-875b-cc052b1345ed","system_id":"levelo_inurba_marseille","lat":43.2916,"lon":5.37142,"is_reserved":false,"is_disabled":false,"rental_uris":{"android":"levelo://app?vid=eb7dcfe6-0239-42bf-875b-cc052b1345ed","ios":"levelo://app?vid=eb7dcfe6-0239-42bf-875b-cc052b1345ed"},"vehicle_type_id":"4","last_reported":1778881706,"current_range_meters":6400,"station_id":"ce4bha92rcd13ifvqeh0","pricing_plan_id":"cebpf4jnsgd1na2vs0mg"},{"bike_id":"01ac69a4-5a53-4fdb-ba4b-7138dcf2f587","system_id":"levelo_inurba_marseille","lat":43.30443,"lon":5.36581,"is_reserved":false,"is_disabled":false,"rental_uris":{"android":"levelo://app?vid=01ac69a4-5a53-4fdb-ba4b-7138dcf2f587","ios":"levelo://app?vid=01ac69a4-5a53-4fdb-ba4b-7138dcf2f587"},"vehicle_type_id":"4","last_reported":1778881706,"current_range_meters":6400,"station_id":"","pricing_plan_id":"cebpf4jnsgd1na2vs0mg"},{"bike_id":"08c772e3-0504-446f-b5ab-8f8a5debda77","system_id":"levelo_inurba_marseille","lat":43.2816,"lon":5.4265,"is_reserved":false,"is_disabled":false,"rental_uris":{"android":"levelo://app?vid=08c772e3-0504-446f-b5ab-8f8a5debda77","ios":"levelo://app?vid=08c772e3-0504-446f-b5ab-8f8a5debda77"},"vehicle_type_id":"4","last_reported":1778881706,"current_range_meters":6400,"station_id":"ce4bhnh2rcd13ifvqgug","pricing_plan_id":"cebpf4jnsgd1na2vs0mg"},{"bike_id":"9b0d300e-df14-4113-9c71-af15c744e30b","system_id":"levelo_inurba_marseille","lat":43.31713,"lon":5.42384,"is_reserved":false,"is_disabled":false,"rental_uris":{"android":"levelo://app?vid=9b0d300e-df14-4113-9c71-af15c744e30b","ios":"levelo://app?vid=9b0d300e-df14-4113-9c71-af15c744e30b"},"vehicle_type_id":"4","last_reported":1778881706,"current_range_meters":6400,"station_id":"ce4bhp92rcd13ifvqhbg","pricing_plan_id":"cebpf4jnsgd1na2vs0mg"},{"bike_id":"bf1ca5d3-b417-4954-99bf-e471337e7bfb","system_id":"levelo_inurba_marseille","lat":43.24652,"lon":5.38158,"is_reserved":false,"is_disabled":false,"rental_uris":{"android":"levelo://app?vid=bf1ca5d3-b417-4954-99bf-e471337e7bfb","ios":"levelo://app?vid=bf1ca5d3-b417-4954-99bf-e471337e7bfb"},"vehicle_type_id":"4","last_reported":1778881706,"current_range_meters":6400,"station_id":"ce4bhih2rcd13ifvqfr0","pricing_plan_id":"cebpf4jnsgd1na2vs0mg"},{"bike_id":"5b0d157f-10f0-444c-9517-5450cc08dd85","system_id":"levelo_inurba_marseille","lat":43.29965,"lon":5.38493,"is_reserved":false,"is_disabled":false,"rental_uris":{"android":"levelo://app?vid=5b0d157f-10f0-444c-9517-5450cc08dd85","ios":"levelo://app?vid=5b0d157f-10f0-444c-9517-5450cc08dd85"},"vehicle_type_id":"4","last_reported":1778881706,"current_range_meters":6400,"station_id":"ce4bgj92rcd13ifvqbd0","pricing_plan_id":"cebpf4jnsgd1na2vs0mg"},{"bike_id":"c8bbb2bb-cf5b-4353-abf6-9f441c763ca4","system_id":"levelo_inurba_marseille","lat":43.29943,"lon":5.36517,"is_reserved":false,"is_disabled":false,"rental_uris":{"android":"levelo://app?vid=c8bbb2bb-cf5b-4353-abf6-9f441c763ca4","ios":"levelo://app?vid=c8bbb2bb-cf5b-4353-abf6-9f441c763ca4"},"vehicle_type_id":"4","last_reported":1778881706,"current_range_meters":6400,"station_id":"ce4bgm92rcd13ifvqbr0","pricing_plan_id":"cebpf4jnsgd1na2vs0mg"},{"bike_id":"f8fa4806-2300-4db8-8a68-898a5c270249","system_id":"levelo_inurba_marseille","lat":43.29248,"lon":5.38439,"is_reserved":false,"is_disabled":false,"rental_uris":{"android":"levelo://app?vid=f8fa4806-2300-4db8-8a68-898a5c270249","ios":"levelo://app?vid=f8fa4806-2300-4db8-8a68-898a5c270249"},"vehicle_type_id":"4","last_reported":1778881706,"current_range_meters":6400,"station_id":"ce4bh692rcd13ifvqea0","pricing_plan_id":"cebpf4jnsgd1na2vs0mg"},{"bike_id":"295b23cf-88f3-4532-bfd2-e73c230f5c13","system_id":"levelo_inurba_marseille","lat":43.27954,"lon":5.38759,"is_reserved":false,"is_disabled":false,"rental_uris":{"android":"levelo://app?vid=295b23cf-88f3-4532-bfd2-e73c230f5c13","ios":"levelo://app?vid=295b23cf-88f3-4532-bfd2-e73c230f5c13"},"vehicle_type_id":"4","last_reported":1778881706,"current_range_meters":6400,"station_id":"ce4bhg12rcd13ifvqf80","pricing_plan_id":"cebpf4jnsgd1na2vs0mg"},{"bike_id":"aa6bb981-2206-4b0e-be57-99420df52d7f","system_id":"levelo_inurba_marseille","lat":43.28738,"lon":5.42728,"is_reserved":false,"is_disabled":false,"rental_uris":{"android":"levelo://app?vid=aa6bb981-2206-4b0e-be57-99420df52d7f","ios":"levelo://app?vid=aa6bb981-2206-4b0e-be57-99420df52d7f"},"vehicle_type_id":"4","last_reported":1778881706,"current_range_meters":6400,"station_id":"","pricing_plan_id":"cebpf4jnsgd1na2vs0mg"},{"bike_id":"1acf4b9e-bc2a-4444-8faa-988509eb626f","system_id":"levelo_inurba_marseille","lat":43.310568,"lon":5.371626,"is_reserved":false,"is_disabled":false,"rental_uris":{"android":"levelo://app?vid=1acf4b9e-bc2a-4444-8faa-988509eb626f","ios":"levelo://app?vid=1acf4b9e-bc2a-4444-8faa-988509eb626f"},"vehicle_type_id":"4","last_reported":1778881706,"current_range_meters":6400,"station_id":"st_d4kl2rp97mjs73e7tdfg","pricing_plan_id":"cebpf4jnsgd1na2vs0mg"},{"bike_id":"664a66cf-32f5-4d4e-b164-e0c7e3c4db03","system_id":"levelo_inurba_marseille","lat":43.250836,"lon":5.395278,"is_reserved":false,"is_disabled":false,"rental_uris":{"android":"levelo://app?vid=664a66cf-32f5-4d4e-b164-e0c7e3c4db03","ios":"levelo://app?vid=664a66cf-32f5-4d4e-b164-e0c7e3c4db03"},"vehicle_type_id":"4","last_reported":1778881706,"current_range_meters":6400,"station_id":"ce4bhm12rcd13ifvqgkg","pricing_plan_id":"cebpf4jnsgd1na2vs0mg"},{"bike_id":"a5b30788-7f54-4822-ab18-9d03c3d0a4c9","system_id":"levelo_inurba_marseille","lat":43.27348,"lon":5.3625,"is_reserved":false,"is_disabled":false,"rental_uris":{"android":"levelo://app?vid=a5b30788-7f54-4822-ab18-9d03c3d0a4c9","ios":"levelo://app?vid=a5b30788-7f54-4822-ab18-9d03c3d0a4c9"},"vehicle_type_id":"4","last_reported":1778881706,"current_range_meters":6400,"station_id":"ce4bhbh2rcd13ifvqeo0","pricing_plan_id":"cebpf4jnsgd1na2vs0mg"},{"bike_id":"d4dbf320-b857-4362-b4e2-cd00230904ea","system_id":"levelo_inurba_marseille","lat":43.29709,"lon":5.37705,"is_reserved":false,"is_disabled":false,"rental_uris":{"android":"levelo://app?vid=d4dbf320-b857-4362-b4e2-cd00230904ea","ios":"levelo://app?vid=d4dbf320-b857-4362-b4e2-cd00230904ea"},"vehicle_type_id":"4","last_reported":1778881706,"current_range_meters":6400,"station_id":"ce4bgkh2rcd13ifvqbl0","pricing_plan_id":"cebpf4jnsgd1na2vs0mg"},{"bike_id":"d35a5361-ecbd-4756-a272-e790a164bf93","system_id":"levelo_inurba_marseille","lat":43.26221,"lon":5.40453,"is_reserved":false,"is_disabled":false,"rental_uris":{"android":"levelo://app?vid=d35a5361-ecbd-4756-a272-e790a164bf93","ios":"levelo://app?vid=d35a5361-ecbd-4756-a272-e790a164bf93"},"vehicle_type_id":"4","last_reported":1778881706,"current_range_meters":6400,"station_id":"ce4bhmh2rcd13ifvqgmg","pricing_plan_id":"cebpf4jnsgd1na2vs0mg"},{"bike_id":"18eb90ac-eec2-4913-9241-dd8d26049a6e","system_id":"levelo_inurba_marseille","lat":43.287,"lon":5.46684,"is_reserved":false,"is_disabled":false,"rental_uris":{"android":"levelo://app?vid=18eb90ac-eec2-4913-9241-dd8d26049a6e","ios":"levelo://app?vid=18eb90ac-eec2-4913-9241-dd8d26049a6e"},"vehicle_type_id":"4","last_reported":1778881706,"current_range_meters":6400,"station_id":"st_d6tc3vkotcvc738tfjhg","pricing_plan_id":"cebpf4jnsgd1na2vs0mg"},{"bike_id":"a9ae89fc-206c-4d68-b57f-4b9d3c27636e","system_id":"levelo_inurba_marseille","lat":43.22556,"lon":5.4163,"is_reserved":false,"is_disabled":false,"rental_uris":{"android":"levelo://app?vid=a9ae89fc-206c-4d68-b57f-4b9d3c27636e","ios":"levelo://app?vid=a9ae89fc-206c-4d68-b57f-4b9d3c27636e"},"vehicle_type_id":"4","last_reported":1778881706,"current_range_meters":6400,"station_id":"st_d2o4gvlbi1j2169b742g","pricing_plan_id":"cebpf4jnsgd1na2vs0mg"},{"bike_id":"4836b46f-8492-4c0e-a261-8adef8cb58af","system_id":"levelo_inurba_marseille","lat":43.27064,"lon":5.42282,"is_reserved":false,"is_disabled":false,"rental_uris":{"android":"levelo://app?vid=4836b46f-8492-4c0e-a261-8adef8cb58af","ios":"levelo://app?vid=4836b46f-8492-4c0e-a261-8adef8cb58af"},"vehicle_type_id":"4","last_reported":1778881706,"current_range_meters":6400,"station_id":"ce4bhk92rcd13ifvqgb0","pricing_plan_id":"cebpf4jnsgd1na2vs0mg"},{"bike_id":"b47c403f-23d8-4683-9088-789bcca1448f","system_id":"levelo_inurba_marseille","lat":43.308901,"lon":5.39664,"is_reserved":false,"is_disabled":false,"rental_uris":{"android":"levelo://app?vid=b47c403f-23d8-4683-9088-789bcca1448f","ios":"levelo://app?vid=b47c403f-23d8-4683-9088-789bcca1448f"},"vehicle_type_id":"4","last_reported":1778881706,"current_range_meters":6400,"station_id":"ce4bh012rcd13ifvqcv0","pricing_plan_id":"cebpf4jnsgd1na2vs0mg"},{"bike_id":"b467cf52-e84d-42b9-ad71-bed97235ec79","system_id":"levelo_inurba_marseille","lat":43.29712,"lon":5.37694,"is_reserved":false,"is_disabled":false,"rental_uris":{"android":"levelo://app?vid=b467cf52-e84d-42b9-ad71-bed97235ec79","ios":"levelo://app?vid=b467cf52-e84d-42b9-ad71-bed97235ec79"},"vehicle_type_id":"4","last_reported":1778881706,"current_range_meters":6800,"station_id":"ce4bgkh2rcd13ifvqbl0","pricing_plan_id":"cebpf4jnsgd1na2vs0mg"},{"bike_id":"a2faab7b-1a1e-4589-8d0e-13503bb9caf5","system_id":"levelo_inurba_marseille","lat":43.29786,"lon":5.38055,"is_reserved":false,"is_disabled":false,"rental_uris":{"android":"levelo://app?vid=a2faab7b-1a1e-4589-8d0e-13503bb9caf5","ios":"levelo://app?vid=a2faab7b-1a1e-4589-8d0e-13503bb9caf5"},"vehicle_type_id":"4","last_reported":1778881706,"current_range_meters":6800,"station_id":"ce4bgip2rcd13ifvqbb0","pricing_plan_id":"cebpf4jnsgd1na2vs0mg"},{"bike_id":"2d670795-ba4f-472c-8cb2-f6597f8549c8","system_id":"levelo_inurba_marseille","lat":43.29784,"lon":5.39352,"is_reserved":false,"is_disabled":true,"rental_uris":{"android":"levelo://app?vid=2d670795-ba4f-472c-8cb2-f6597f8549c8","ios":"levelo://app?vid=2d670795-ba4f-472c-8cb2-f6597f8549c8"},"vehicle_type_id":"4","last_reported":1778881706,"current_range_meters":6800,"station_id":"chh1huq6cuj3fo74tm60","pricing_plan_id":"cebpf4jnsgd1na2vs0mg"},{"bike_id":"df06f853-df8b-44c5-8abd-63dd254e997c","system_id":"levelo_inurba_marseille","lat":43.29802,"lon":5.38637,"is_reserved":false,"is_disabled":false,"rental_uris":{"android":"levelo://app?vid=df06f853-df8b-44c5-8abd-63dd254e997c","ios":"levelo://app?vid=df06f853-df8b-44c5-8abd-63dd254e997c"},"vehicle_type_id":"4","last_reported":1778881706,"current_range_meters":6800,"station_id":"","pricing_plan_id":"cebpf4jnsgd1na2vs0mg"},{"bike_id":"67ecae68-d24a-4dbc-b685-351365b700de","system_id":"levelo_inurba_marseille","lat":43.2549,"lon":5.37642,"is_reserved":false,"is_disabled":false,"rental_uris":{"android":"levelo://app?vid=67ecae68-d24a-4dbc-b685-351365b700de","ios":"levelo://app?vid=67ecae68-d24a-4dbc-b685-351365b700de"},"vehicle_type_id":"4","last_reported":1778881706,"current_range_meters":6800,"station_id":"ce4bhh12rcd13ifvqff0","pricing_plan_id":"cebpf4jnsgd1na2vs0mg"},{"bike_id":"197f8590-4140-4e11-8b87-67ad98bb4bca","system_id":"levelo_inurba_marseille","lat":43.28599,"lon":5.37068,"is_reserved":false,"is_disabled":true,"rental_uris":{"android":"levelo://app?vid=197f8590-4140-4e11-8b87-67ad98bb4bca","ios":"levelo://app?vid=197f8590-4140-4e11-8b87-67ad98bb4bca"},"vehicle_type_id":"4","last_reported":1778881706,"current_range_meters":6800,"station_id":"ce4bht12rcd13ifvqi60","pricing_plan_id":"cebpf4jnsgd1na2vs0mg"},{"bike_id":"538f37b0-047f-427d-bdee-4c68e20fce42","system_id":"levelo_inurba_marseille","lat":43.26679,"lon":5.37284,"is_reserved":false,"is_disabled":false,"rental_uris":{"android":"levelo://app?vid=538f37b0-047f-427d-bdee-4c68e20fce42","ios":"levelo://app?vid=538f37b0-047f-427d-bdee-4c68e20fce42"},"vehicle_type_id":"4","last_reported":1778881706,"current_range_meters":6800,"station_id":"","pricing_plan_id":"cebpf4jnsgd1na2vs0mg"},{"bike_id":"8b95f8eb-fc13-43cf-97cf-82c8724c23ad","system_id":"levelo_inurba_marseille","lat":43.30508,"lon":5.36525,"is_reserved":false,"is_disabled":false,"rental_uris":{"android":"levelo://app?vid=8b95f8eb-fc13-43cf-97cf-82c8724c23ad","ios":"levelo://app?vid=8b95f8eb-fc13-43cf-97cf-82c8724c23ad"},"vehicle_type_id":"4","last_reported":1778881706,"current_range_meters":6800,"station_id":"","pricing_plan_id":"cebpf4jnsgd1na2vs0mg"},{"bike_id":"c73b603c-d18f-447d-ac06-429d2b6b15a8","system_id":"levelo_inurba_marseille","lat":43.22955,"lon":5.35377,"is_reserved":false,"is_disabled":false,"rental_uris":{"android":"levelo://app?vid=c73b603c-d18f-447d-ac06-429d2b6b15a8","ios":"levelo://app?vid=c73b603c-d18f-447d-ac06-429d2b6b15a8"},"vehicle_type_id":"4","last_reported":1778881706,"current_range_meters":6800,"station_id":"cpo3532slgdg3j2ikp40","pricing_plan_id":"cebpf4jnsgd1na2vs0mg"},{"bike_id":"b307ebcf-a623-4ce8-bd6b-ce1a3ee616ac","system_id":"levelo_inurba_marseille","lat":43.25142,"lon":5.39541,"is_reserved":false,"is_disabled":false,"rental_uris":{"android":"levelo://app?vid=b307ebcf-a623-4ce8-bd6b-ce1a3ee616ac","ios":"levelo://app?vid=b307ebcf-a623-4ce8-bd6b-ce1a3ee616ac"},"vehicle_type_id":"4","last_reported":1778881706,"current_range_meters":6800,"station_id":"","pricing_plan_id":"cebpf4jnsgd1na2vs0mg"},{"bike_id":"ebc98d95-2f02-41f8-8121-d46c190a1d8c","system_id":"levelo_inurba_marseille","lat":43.32346,"lon":5.36727,"is_reserved":false,"is_disabled":false,"rental_uris":{"android":"levelo://app?vid=ebc98d95-2f02-41f8-8121-d46c190a1d8c","ios":"levelo://app?vid=ebc98d95-2f02-41f8-8121-d46c190a1d8c"},"vehicle_type_id":"4","last_reported":1778881706,"current_range_meters":6800,"station_id":"ce4bhsh2rcd13ifvqi2g","pricing_plan_id":"cebpf4jnsgd1na2vs0mg"},{"bike_id":"f6417259-2e9f-4325-92c2-cb993cf8109d","system_id":"levelo_inurba_marseille","lat":43.29547,"lon":5.38508,"is_reserved":false,"is_disabled":false,"rental_uris":{"android":"levelo://app?vid=f6417259-2e9f-4325-92c2-cb993cf8109d","ios":"levelo://app?vid=f6417259-2e9f-4325-92c2-cb993cf8109d"},"vehicle_type_id":"4","last_reported":1778881706,"current_range_meters":6800,"station_id":"ce4bgih2rcd13ifvqba0","pricing_plan_id":"cebpf4jnsgd1na2vs0mg"},{"bike_id":"4c4af55b-f60f-4b0e-bc18-caba52c3f95e","system_id":"levelo_inurba_marseille","lat":43.29555,"lon":5.42295,"is_reserved":false,"is_disabled":false,"rental_uris":{"android":"levelo://app?vid=4c4af55b-f60f-4b0e-bc18-caba52c3f95e","ios":"levelo://app?vid=4c4af55b-f60f-4b0e-bc18-caba52c3f95e"},"vehicle_type_id":"4","last_reported":1778881706,"current_range_meters":6800,"station_id":"ce4bhph2rcd13ifvqhdg","pricing_plan_id":"cebpf4jnsgd1na2vs0mg"},{"bike_id":"05741061-c13d-4356-ad5d-e487adc7691b","system_id":"levelo_inurba_marseille","lat":43.29591,"lon":5.38104,"is_reserved":false,"is_disabled":true,"rental_uris":{"android":"levelo://app?vid=05741061-c13d-4356-ad5d-e487adc7691b","ios":"levelo://app?vid=05741061-c13d-4356-ad5d-e487adc7691b"},"vehicle_type_id":"4","last_reported":1778881706,"current_range_meters":6800,"station_id":"ce4bgl12rcd13ifvqbo0","pricing_plan_id":"cebpf4jnsgd1na2vs0mg"},{"bike_id":"dc0c6757-b834-4a5b-94c9-a7b9f022d20f","system_id":"levelo_inurba_marseille","lat":43.27365,"lon":5.36254,"is_reserved":false,"is_disabled":false,"rental_uris":{"android":"levelo://app?vid=dc0c6757-b834-4a5b-94c9-a7b9f022d20f","ios":"levelo://app?vid=dc0c6757-b834-4a5b-94c9-a7b9f022d20f"},"vehicle_type_id":"4","last_reported":1778881706,"current_range_meters":6800,"station_id":"ce4bhbh2rcd13ifvqeo0","pricing_plan_id":"cebpf4jnsgd1na2vs0mg"},{"bike_id":"a7ba7573-670f-4857-85e5-48f3adfa2449","system_id":"levelo_inurba_marseille","lat":43.28354,"lon":5.38631,"is_reserved":false,"is_disabled":false,"rental_uris":{"android":"levelo://app?vid=a7ba7573-670f-4857-85e5-48f3adfa2449","ios":"levelo://app?vid=a7ba7573-670f-4857-85e5-48f3adfa2449"},"vehicle_type_id":"4","last_reported":1778881706,"current_range_meters":6800,"station_id":"ce4bh492rcd13ifvqdvg","pricing_plan_id":"cebpf4jnsgd1na2vs0mg"},{"bike_id":"69a4de94-ae1f-4385-aa61-58a2336f8cb8","system_id":"levelo_inurba_marseille","lat":43.29989,"lon":5.43059,"is_reserved":false,"is_disabled":false,"rental_uris":{"android":"levelo://app?vid=69a4de94-ae1f-4385-aa61-58a2336f8cb8","ios":"levelo://app?vid=69a4de94-ae1f-4385-aa61-58a2336f8cb8"},"vehicle_type_id":"4","last_reported":1778881706,"current_range_meters":6800,"station_id":"","pricing_plan_id":"cebpf4jnsgd1na2vs0mg"},{"bike_id":"44d71ae5-a5e6-42a3-99db-4175ddd046fa","system_id":"levelo_inurba_marseille","lat":43.31035,"lon":5.37179,"is_reserved":false,"is_disabled":false,"rental_uris":{"android":"levelo://app?vid=44d71ae5-a5e6-42a3-99db-4175ddd046fa","ios":"levelo://app?vid=44d71ae5-a5e6-42a3-99db-4175ddd046fa"},"vehicle_type_id":"4","last_reported":1778881706,"current_range_meters":6800,"station_id":"st_d4kl2rp97mjs73e7tdfg","pricing_plan_id":"cebpf4jnsgd1na2vs0mg"},{"bike_id":"bea8f6dc-3107-47d3-94c4-947f2ef9741a","system_id":"levelo_inurba_marseille","lat":43.24153,"lon":5.3639,"is_reserved":false,"is_disabled":false,"rental_uris":{"android":"levelo://app?vid=bea8f6dc-3107-47d3-94c4-947f2ef9741a","ios":"levelo://app?vid=bea8f6dc-3107-47d3-94c4-947f2ef9741a"},"vehicle_type_id":"4","last_reported":1778881706,"current_range_meters":6800,"station_id":"cpo36qri1sfpv3e86is0","pricing_plan_id":"cebpf4jnsgd1na2vs0mg"},{"bike_id":"8ddc9a86-069f-4990-8e9e-592bed9753d4","system_id":"levelo_inurba_marseille","lat":43.28461,"lon":5.35877,"is_reserved":false,"is_disabled":false,"rental_uris":{"android":"levelo://app?vid=8ddc9a86-069f-4990-8e9e-592bed9753d4","ios":"levelo://app?vid=8ddc9a86-069f-4990-8e9e-592bed9753d4"},"vehicle_type_id":"4","last_reported":1778881706,"current_range_meters":6800,"station_id":"ce4bhah2rcd13ifvqei0","pricing_plan_id":"cebpf4jnsgd1na2vs0mg"},{"bike_id":"12a0ca16-fd13-48b0-a305-a37bde5d7877","system_id":"levelo_inurba_marseille","lat":43.30533,"lon":5.36508,"is_reserved":false,"is_disabled":true,"rental_uris":{"android":"levelo://app?vid=12a0ca16-fd13-48b0-a305-a37bde5d7877","ios":"levelo://app?vid=12a0ca16-fd13-48b0-a305-a37bde5d7877"},"vehicle_type_id":"4","last_reported":1778881706,"current_range_meters":6800,"station_id":"","pricing_plan_id":"cebpf4jnsgd1na2vs0mg"},{"bike_id":"c880218f-3925-4311-a749-d23a64f738ea","system_id":"levelo_inurba_marseille","lat":43.28619,"lon":5.35107,"is_reserved":false,"is_disabled":false,"rental_uris":{"android":"levelo://app?vid=c880218f-3925-4311-a749-d23a64f738ea","ios":"levelo://app?vid=c880218f-3925-4311-a749-d23a64f738ea"},"vehicle_type_id":"4","last_reported":1778881706,"current_range_meters":6800,"station_id":"ce4bhch2rcd13ifvqeug","pricing_plan_id":"cebpf4jnsgd1na2vs0mg"},{"bike_id":"caeefb51-7c3c-45aa-bafa-17ab17688b10","system_id":"levelo_inurba_marseille","lat":43.26034,"lon":5.37552,"is_reserved":false,"is_disabled":false,"rental_uris":{"android":"levelo://app?vid=caeefb51-7c3c-45aa-bafa-17ab17688b10","ios":"levelo://app?vid=caeefb51-7c3c-45aa-bafa-17ab17688b10"},"vehicle_type_id":"4","last_reported":1778881706,"current_range_meters":6800,"station_id":"ce4bhgh2rcd13ifvqfa0","pricing_plan_id":"cebpf4jnsgd1na2vs0mg"},{"bike_id":"8234b880-2918-4add-8ddc-1c519c3eb850","system_id":"levelo_inurba_marseille","lat":43.21198,"lon":5.35083,"is_reserved":false,"is_disabled":false,"rental_uris":{"android":"levelo://app?vid=8234b880-2918-4add-8ddc-1c519c3eb850","ios":"levelo://app?vid=8234b880-2918-4add-8ddc-1c519c3eb850"},"vehicle_type_id":"4","last_reported":1778881706,"current_range_meters":6800,"station_id":"st_cvj6sg6p6f1abm77japg","pricing_plan_id":"cebpf4jnsgd1na2vs0mg"},{"bike_id":"4a8828bf-5352-4721-8c19-0a06947545c0","system_id":"levelo_inurba_marseille","lat":43.27978,"lon":5.41661,"is_reserved":false,"is_disabled":false,"rental_uris":{"android":"levelo://app?vid=4a8828bf-5352-4721-8c19-0a06947545c0","ios":"levelo://app?vid=4a8828bf-5352-4721-8c19-0a06947545c0"},"vehicle_type_id":"4","last_reported":1778881706,"current_range_meters":6800,"station_id":"ce4bho12rcd13ifvqh1g","pricing_plan_id":"cebpf4jnsgd1na2vs0mg"},{"bike_id":"5aaf1b0a-e597-4b95-92b0-c92c614c8bec","system_id":"levelo_inurba_marseille","lat":43.29727,"lon":5.3768,"is_reserved":false,"is_disabled":false,"rental_uris":{"android":"levelo://app?vid=5aaf1b0a-e597-4b95-92b0-c92c614c8bec","ios":"levelo://app?vid=5aaf1b0a-e597-4b95-92b0-c92c614c8bec"},"vehicle_type_id":"4","last_reported":1778881706,"current_range_meters":6800,"station_id":"ce4bgkh2rcd13ifvqbl0","pricing_plan_id":"cebpf4jnsgd1na2vs0mg"},{"bike_id":"ce9ee171-fd03-4b9f-85f6-b6605daf9ed2","system_id":"levelo_inurba_marseille","lat":43.28924,"lon":5.38379,"is_reserved":false,"is_disabled":false,"rental_uris":{"android":"levelo://app?vid=ce9ee171-fd03-4b9f-85f6-b6605daf9ed2","ios":"levelo://app?vid=ce9ee171-fd03-4b9f-85f6-b6605daf9ed2"},"vehicle_type_id":"4","last_reported":1778881706,"current_range_meters":6800,"station_id":"ce4bh612rcd13ifvqe6g","pricing_plan_id":"cebpf4jnsgd1na2vs0mg"},{"bike_id":"89a26143-74c4-49ae-b5cf-e30eaecdc6d9","system_id":"levelo_inurba_marseille","lat":43.25342,"lon":5.42173,"is_reserved":false,"is_disabled":false,"rental_uris":{"android":"levelo://app?vid=89a26143-74c4-49ae-b5cf-e30eaecdc6d9","ios":"levelo://app?vid=89a26143-74c4-49ae-b5cf-e30eaecdc6d9"},"vehicle_type_id":"4","last_reported":1778881706,"current_range_meters":6800,"station_id":"st_d2m65c5bi1j21697t3ng","pricing_plan_id":"cebpf4jnsgd1na2vs0mg"},{"bike_id":"8fc8be13-baea-4b00-b02d-7604adf65ac8","system_id":"levelo_inurba_marseille","lat":43.29754,"lon":5.42781,"is_reserved":false,"is_disabled":false,"rental_uris":{"android":"levelo://app?vid=8fc8be13-baea-4b00-b02d-7604adf65ac8","ios":"levelo://app?vid=8fc8be13-baea-4b00-b02d-7604adf65ac8"},"vehicle_type_id":"4","last_reported":1778881706,"current_range_meters":6800,"station_id":"st_d3md5207bmas73dh9klg","pricing_plan_id":"cebpf4jnsgd1na2vs0mg"},{"bike_id":"579c1010-a0a4-4e44-bcba-24d9838b4262","system_id":"levelo_inurba_marseille","lat":43.24947,"lon":5.40484,"is_reserved":false,"is_disabled":false,"rental_uris":{"android":"levelo://app?vid=579c1010-a0a4-4e44-bcba-24d9838b4262","ios":"levelo://app?vid=579c1010-a0a4-4e44-bcba-24d9838b4262"},"vehicle_type_id":"4","last_reported":1778881706,"current_range_meters":6800,"station_id":"st_d2ngiaodas8pm72gd1h0","pricing_plan_id":"cebpf4jnsgd1na2vs0mg"},{"bike_id":"11cfcfb7-7cef-4ca3-94fd-d649299b0219","system_id":"levelo_inurba_marseille","lat":43.31716,"lon":5.42401,"is_reserved":false,"is_disabled":false,"rental_uris":{"android":"levelo://app?vid=11cfcfb7-7cef-4ca3-94fd-d649299b0219","ios":"levelo://app?vid=11cfcfb7-7cef-4ca3-94fd-d649299b0219"},"vehicle_type_id":"4","last_reported":1778881706,"current_range_meters":6800,"station_id":"ce4bhp92rcd13ifvqhbg","pricing_plan_id":"cebpf4jnsgd1na2vs0mg"},{"bike_id":"24cad884-f326-447a-9ef4-dd08493578cd","system_id":"levelo_inurba_marseille","lat":43.30094,"lon":5.39072,"is_reserved":false,"is_disabled":false,"rental_uris":{"android":"levelo://app?vid=24cad884-f326-447a-9ef4-dd08493578cd","ios":"levelo://app?vid=24cad884-f326-447a-9ef4-dd08493578cd"},"vehicle_type_id":"4","last_reported":1778881706,"current_range_meters":7200,"station_id":"ce4bh192rcd13ifvqdb0","pricing_plan_id":"cebpf4jnsgd1na2vs0mg"},{"bike_id":"a212985c-9cc0-4a7d-93df-44ec0b0323d6","system_id":"levelo_inurba_marseille","lat":43.29573,"lon":5.37509,"is_reserved":false,"is_disabled":false,"rental_uris":{"android":"levelo://app?vid=a212985c-9cc0-4a7d-93df-44ec0b0323d6","ios":"levelo://app?vid=a212985c-9cc0-4a7d-93df-44ec0b0323d6"},"vehicle_type_id":"4","last_reported":1778881706,"current_range_meters":7200,"station_id":"ce4bgh92rcd13ifvqb50","pricing_plan_id":"cebpf4jnsgd1na2vs0mg"},{"bike_id":"305f8012-853c-4e5c-b4a3-badea1215a44","system_id":"levelo_inurba_marseille","lat":43.33754,"lon":5.37506,"is_reserved":false,"is_disabled":false,"rental_uris":{"android":"levelo://app?vid=305f8012-853c-4e5c-b4a3-badea1215a44","ios":"levelo://app?vid=305f8012-853c-4e5c-b4a3-badea1215a44"},"vehicle_type_id":"4","last_reported":1778881706,"current_range_meters":7200,"station_id":"","pricing_plan_id":"cebpf4jnsgd1na2vs0mg"},{"bike_id":"13105749-a35c-4a24-8632-613205513da5","system_id":"levelo_inurba_marseille","lat":43.33603,"lon":5.4103,"is_reserved":false,"is_disabled":false,"rental_uris":{"android":"levelo://app?vid=13105749-a35c-4a24-8632-613205513da5","ios":"levelo://app?vid=13105749-a35c-4a24-8632-613205513da5"},"vehicle_type_id":"4","last_reported":1778881706,"current_range_meters":7200,"station_id":"ce4bhqh2rcd13ifvqhmg","pricing_plan_id":"cebpf4jnsgd1na2vs0mg"},{"bike_id":"81214c79-351f-486a-aa20-cef11256f2e0","system_id":"levelo_inurba_marseille","lat":43.30956,"lon":5.39053,"is_reserved":false,"is_disabled":false,"rental_uris":{"android":"levelo://app?vid=81214c79-351f-486a-aa20-cef11256f2e0","ios":"levelo://app?vid=81214c79-351f-486a-aa20-cef11256f2e0"},"vehicle_type_id":"4","last_reported":1778881706,"current_range_meters":7200,"station_id":"ce4bgup2rcd13ifvqco0","pricing_plan_id":"cebpf4jnsgd1na2vs0mg"},{"bike_id":"ff004a97-e4eb-4a75-8d8b-4aa727054d78","system_id":"levelo_inurba_marseille","lat":43.31056,"lon":5.37175,"is_reserved":false,"is_disabled":false,"rental_uris":{"android":"levelo://app?vid=ff004a97-e4eb-4a75-8d8b-4aa727054d78","ios":"levelo://app?vid=ff004a97-e4eb-4a75-8d8b-4aa727054d78"},"vehicle_type_id":"4","last_reported":1778881706,"current_range_meters":7200,"station_id":"st_d4kl2rp97mjs73e7tdfg","pricing_plan_id":"cebpf4jnsgd1na2vs0mg"},{"bike_id":"449e41b8-f51e-464b-ab1b-26aade31d5ba","system_id":"levelo_inurba_marseille","lat":43.28354,"lon":5.380989,"is_reserved":false,"is_disabled":false,"rental_uris":{"android":"levelo://app?vid=449e41b8-f51e-464b-ab1b-26aade31d5ba","ios":"levelo://app?vid=449e41b8-f51e-464b-ab1b-26aade31d5ba"},"vehicle_type_id":"4","last_reported":1778881706,"current_range_meters":7200,"station_id":"ce4bh412rcd13ifvqdr0","pricing_plan_id":"cebpf4jnsgd1na2vs0mg"},{"bike_id":"9f099b54-5b53-4454-8009-293b63c1af4a","system_id":"levelo_inurba_marseille","lat":43.28001,"lon":5.41676,"is_reserved":false,"is_disabled":true,"rental_uris":{"android":"levelo://app?vid=9f099b54-5b53-4454-8009-293b63c1af4a","ios":"levelo://app?vid=9f099b54-5b53-4454-8009-293b63c1af4a"},"vehicle_type_id":"4","last_reported":1778881706,"current_range_meters":7200,"station_id":"ce4bho12rcd13ifvqh1g","pricing_plan_id":"cebpf4jnsgd1na2vs0mg"},{"bike_id":"76e33348-6a4a-4160-8477-e9650ddfdc10","system_id":"levelo_inurba_marseille","lat":43.29561,"lon":5.42299,"is_reserved":false,"is_disabled":false,"rental_uris":{"android":"levelo://app?vid=76e33348-6a4a-4160-8477-e9650ddfdc10","ios":"levelo://app?vid=76e33348-6a4a-4160-8477-e9650ddfdc10"},"vehicle_type_id":"4","last_reported":1778881706,"current_range_meters":7200,"station_id":"ce4bhph2rcd13ifvqhdg","pricing_plan_id":"cebpf4jnsgd1na2vs0mg"},{"bike_id":"ab883a8a-7183-49e5-b0ca-478bfd40dbb5","system_id":"levelo_inurba_marseille","lat":43.27567,"lon":5.38402,"is_reserved":false,"is_disabled":false,"rental_uris":{"android":"levelo://app?vid=ab883a8a-7183-49e5-b0ca-478bfd40dbb5","ios":"levelo://app?vid=ab883a8a-7183-49e5-b0ca-478bfd40dbb5"},"vehicle_type_id":"4","last_reported":1778881706,"current_range_meters":7200,"station_id":"ce4bhh92rcd13ifvqfi0","pricing_plan_id":"cebpf4jnsgd1na2vs0mg"},{"bike_id":"6683d1f5-e055-429a-a4ff-d6cb40a7917f","system_id":"levelo_inurba_marseille","lat":43.27024,"lon":5.3873,"is_reserved":false,"is_disabled":false,"rental_uris":{"android":"levelo://app?vid=6683d1f5-e055-429a-a4ff-d6cb40a7917f","ios":"levelo://app?vid=6683d1f5-e055-429a-a4ff-d6cb40a7917f"},"vehicle_type_id":"4","last_reported":1778881706,"current_range_meters":7200,"station_id":"","pricing_plan_id":"cebpf4jnsgd1na2vs0mg"},{"bike_id":"19547022-d3c4-4e70-8f92-94b73f02bbdd","system_id":"levelo_inurba_marseille","lat":43.337679,"lon":5.374413,"is_reserved":false,"is_disabled":false,"rental_uris":{"android":"levelo://app?vid=19547022-d3c4-4e70-8f92-94b73f02bbdd","ios":"levelo://app?vid=19547022-d3c4-4e70-8f92-94b73f02bbdd"},"vehicle_type_id":"4","last_reported":1778881706,"current_range_meters":7200,"station_id":"","pricing_plan_id":"cebpf4jnsgd1na2vs0mg"},{"bike_id":"029a90b1-9418-4cea-8931-77bba43c3114","system_id":"levelo_inurba_marseille","lat":43.25582,"lon":5.38232,"is_reserved":false,"is_disabled":false,"rental_uris":{"android":"levelo://app?vid=029a90b1-9418-4cea-8931-77bba43c3114","ios":"levelo://app?vid=029a90b1-9418-4cea-8931-77bba43c3114"},"vehicle_type_id":"4","last_reported":1778881706,"current_range_meters":7200,"station_id":"ce4bhih2rcd13ifvqfs0","pricing_plan_id":"cebpf4jnsgd1na2vs0mg"},{"bike_id":"4c1456b4-c5f4-49ed-bd33-6f63525d7c4f","system_id":"levelo_inurba_marseille","lat":43.27992,"lon":5.38768,"is_reserved":false,"is_disabled":true,"rental_uris":{"android":"levelo://app?vid=4c1456b4-c5f4-49ed-bd33-6f63525d7c4f","ios":"levelo://app?vid=4c1456b4-c5f4-49ed-bd33-6f63525d7c4f"},"vehicle_type_id":"4","last_reported":1778881706,"current_range_meters":7200,"station_id":"ce4bhg12rcd13ifvqf80","pricing_plan_id":"cebpf4jnsgd1na2vs0mg"},{"bike_id":"9ff893e8-a35b-4276-8349-bacec107d22b","system_id":"levelo_inurba_marseille","lat":43.31222,"lon":5.37894,"is_reserved":false,"is_disabled":false,"rental_uris":{"android":"levelo://app?vid=9ff893e8-a35b-4276-8349-bacec107d22b","ios":"levelo://app?vid=9ff893e8-a35b-4276-8349-bacec107d22b"},"vehicle_type_id":"4","last_reported":1778881706,"current_range_meters":7200,"station_id":"","pricing_plan_id":"cebpf4jnsgd1na2vs0mg"},{"bike_id":"580fe52f-7e9c-457a-b814-ad9e2d2f32ba","system_id":"levelo_inurba_marseille","lat":43.2655,"lon":5.37291,"is_reserved":false,"is_disabled":false,"rental_uris":{"android":"levelo://app?vid=580fe52f-7e9c-457a-b814-ad9e2d2f32ba","ios":"levelo://app?vid=580fe52f-7e9c-457a-b814-ad9e2d2f32ba"},"vehicle_type_id":"4","last_reported":1778881706,"current_range_meters":7200,"station_id":"ce4bhg12rcd13ifvqf70","pricing_plan_id":"cebpf4jnsgd1na2vs0mg"},{"bike_id":"ca01c33c-99c8-4ff8-a274-d065c7262a1a","system_id":"levelo_inurba_marseille","lat":43.26412,"lon":5.38833,"is_reserved":false,"is_disabled":false,"rental_uris":{"android":"levelo://app?vid=ca01c33c-99c8-4ff8-a274-d065c7262a1a","ios":"levelo://app?vid=ca01c33c-99c8-4ff8-a274-d065c7262a1a"},"vehicle_type_id":"4","last_reported":1778881706,"current_range_meters":7200,"station_id":"","pricing_plan_id":"cebpf4jnsgd1na2vs0mg"},{"bike_id":"22d3d912-3119-4049-b2f8-8affd8e5feeb","system_id":"levelo_inurba_marseille","lat":43.25508,"lon":5.37649,"is_reserved":false,"is_disabled":false,"rental_uris":{"android":"levelo://app?vid=22d3d912-3119-4049-b2f8-8affd8e5feeb","ios":"levelo://app?vid=22d3d912-3119-4049-b2f8-8affd8e5feeb"},"vehicle_type_id":"4","last_reported":1778881706,"current_range_meters":7200,"station_id":"ce4bhh12rcd13ifvqff0","pricing_plan_id":"cebpf4jnsgd1na2vs0mg"},{"bike_id":"2b985fc8-08fa-4ec6-960d-c0c57f8b93de","system_id":"levelo_inurba_marseille","lat":43.24554,"lon":5.39554,"is_reserved":false,"is_disabled":false,"rental_uris":{"android":"levelo://app?vid=2b985fc8-08fa-4ec6-960d-c0c57f8b93de","ios":"levelo://app?vid=2b985fc8-08fa-4ec6-960d-c0c57f8b93de"},"vehicle_type_id":"4","last_reported":1778881706,"current_range_meters":7200,"station_id":"ce4bhlp2rcd13ifvqgjg","pricing_plan_id":"cebpf4jnsgd1na2vs0mg"},{"bike_id":"55ba4af7-a49e-4f0b-adbf-e969fb355a90","system_id":"levelo_inurba_marseille","lat":43.30144,"lon":5.39892,"is_reserved":false,"is_disabled":false,"rental_uris":{"android":"levelo://app?vid=55ba4af7-a49e-4f0b-adbf-e969fb355a90","ios":"levelo://app?vid=55ba4af7-a49e-4f0b-adbf-e969fb355a90"},"vehicle_type_id":"4","last_reported":1778881706,"current_range_meters":7200,"station_id":"ce4bh0h2rcd13ifvqd40","pricing_plan_id":"cebpf4jnsgd1na2vs0mg"},{"bike_id":"3c2aaad4-691f-43b3-9d8f-0b0f6841d1ed","system_id":"levelo_inurba_marseille","lat":43.25584,"lon":5.38241,"is_reserved":false,"is_disabled":false,"rental_uris":{"android":"levelo://app?vid=3c2aaad4-691f-43b3-9d8f-0b0f6841d1ed","ios":"levelo://app?vid=3c2aaad4-691f-43b3-9d8f-0b0f6841d1ed"},"vehicle_type_id":"4","last_reported":1778881706,"current_range_meters":7200,"station_id":"ce4bhih2rcd13ifvqfs0","pricing_plan_id":"cebpf4jnsgd1na2vs0mg"},{"bike_id":"a34468d2-70a0-4b27-8755-818095cc2bbb","system_id":"levelo_inurba_marseille","lat":43.25492,"lon":5.37646,"is_reserved":false,"is_disabled":false,"rental_uris":{"android":"levelo://app?vid=a34468d2-70a0-4b27-8755-818095cc2bbb","ios":"levelo://app?vid=a34468d2-70a0-4b27-8755-818095cc2bbb"},"vehicle_type_id":"4","last_reported":1778881706,"current_range_meters":7200,"station_id":"ce4bhh12rcd13ifvqff0","pricing_plan_id":"cebpf4jnsgd1na2vs0mg"},{"bike_id":"7a1fdbdd-114b-487e-a21c-0dfd46a39a97","system_id":"levelo_inurba_marseille","lat":43.293693,"lon":5.378491,"is_reserved":false,"is_disabled":false,"rental_uris":{"android":"levelo://app?vid=7a1fdbdd-114b-487e-a21c-0dfd46a39a97","ios":"levelo://app?vid=7a1fdbdd-114b-487e-a21c-0dfd46a39a97"},"vehicle_type_id":"4","last_reported":1778881706,"current_range_meters":7200,"station_id":"ce4bgjh2rcd13ifvqbf0","pricing_plan_id":"cebpf4jnsgd1na2vs0mg"},{"bike_id":"d2b9001b-3bd6-4e11-a455-c06b5cf0ca28","system_id":"levelo_inurba_marseille","lat":43.29605,"lon":5.38104,"is_reserved":false,"is_disabled":true,"rental_uris":{"android":"levelo://app?vid=d2b9001b-3bd6-4e11-a455-c06b5cf0ca28","ios":"levelo://app?vid=d2b9001b-3bd6-4e11-a455-c06b5cf0ca28"},"vehicle_type_id":"4","last_reported":1778881706,"current_range_meters":7200,"station_id":"ce4bgl12rcd13ifvqbo0","pricing_plan_id":"cebpf4jnsgd1na2vs0mg"},{"bike_id":"fc3434ec-3f12-4fe2-a883-c7406c4652f9","system_id":"levelo_inurba_marseille","lat":43.29481,"lon":5.43297,"is_reserved":false,"is_disabled":false,"rental_uris":{"android":"levelo://app?vid=fc3434ec-3f12-4fe2-a883-c7406c4652f9","ios":"levelo://app?vid=fc3434ec-3f12-4fe2-a883-c7406c4652f9"},"vehicle_type_id":"4","last_reported":1778881706,"current_range_meters":8000,"station_id":"st_d3j5ugp08ojc73fj9d10","pricing_plan_id":"cebpf4jnsgd1na2vs0mg"},{"bike_id":"bb9456fc-c1d0-4e19-a5d5-8f17856956d5","system_id":"levelo_inurba_marseille","lat":43.29256,"lon":5.38445,"is_reserved":false,"is_disabled":false,"rental_uris":{"android":"levelo://app?vid=bb9456fc-c1d0-4e19-a5d5-8f17856956d5","ios":"levelo://app?vid=bb9456fc-c1d0-4e19-a5d5-8f17856956d5"},"vehicle_type_id":"4","last_reported":1778881706,"current_range_meters":8000,"station_id":"ce4bh692rcd13ifvqea0","pricing_plan_id":"cebpf4jnsgd1na2vs0mg"},{"bike_id":"f13c9ed8-72a8-4760-98e0-b371b872d86f","system_id":"levelo_inurba_marseille","lat":43.29782,"lon":5.37075,"is_reserved":false,"is_disabled":true,"rental_uris":{"android":"levelo://app?vid=f13c9ed8-72a8-4760-98e0-b371b872d86f","ios":"levelo://app?vid=f13c9ed8-72a8-4760-98e0-b371b872d86f"},"vehicle_type_id":"4","last_reported":1778881706,"current_range_meters":8000,"station_id":"ce4bgop2rcd13ifvqc1g","pricing_plan_id":"cebpf4jnsgd1na2vs0mg"},{"bike_id":"2afb1c43-c4ae-4dbf-a94b-bbd6e75c31b0","system_id":"levelo_inurba_marseille","lat":43.29744,"lon":5.3765,"is_reserved":false,"is_disabled":false,"rental_uris":{"android":"levelo://app?vid=2afb1c43-c4ae-4dbf-a94b-bbd6e75c31b0","ios":"levelo://app?vid=2afb1c43-c4ae-4dbf-a94b-bbd6e75c31b0"},"vehicle_type_id":"4","last_reported":1778881706,"current_range_meters":8000,"station_id":"ce4bgkh2rcd13ifvqbl0","pricing_plan_id":"cebpf4jnsgd1na2vs0mg"},{"bike_id":"879d922b-3910-4625-b8fb-95362e84f985","system_id":"levelo_inurba_marseille","lat":43.27883,"lon":5.37391,"is_reserved":false,"is_disabled":false,"rental_uris":{"android":"levelo://app?vid=879d922b-3910-4625-b8fb-95362e84f985","ios":"levelo://app?vid=879d922b-3910-4625-b8fb-95362e84f985"},"vehicle_type_id":"4","last_reported":1778881706,"current_range_meters":8000,"station_id":"","pricing_plan_id":"cebpf4jnsgd1na2vs0mg"},{"bike_id":"310313f9-4c8b-458d-834b-81e71f22dc3f","system_id":"levelo_inurba_marseille","lat":43.27919,"lon":5.39586,"is_reserved":false,"is_disabled":true,"rental_uris":{"android":"levelo://app?vid=310313f9-4c8b-458d-834b-81e71f22dc3f","ios":"levelo://app?vid=310313f9-4c8b-458d-834b-81e71f22dc3f"},"vehicle_type_id":"4","last_reported":1778881706,"current_range_meters":8000,"station_id":"ce4bhf92rcd13ifvqf40","pricing_plan_id":"cebpf4jnsgd1na2vs0mg"},{"bike_id":"b8cdcb18-0992-41e0-9600-2f0349dd6257","system_id":"levelo_inurba_marseille","lat":43.29182,"lon":5.39378,"is_reserved":false,"is_disabled":false,"rental_uris":{"android":"levelo://app?vid=b8cdcb18-0992-41e0-9600-2f0349dd6257","ios":"levelo://app?vid=b8cdcb18-0992-41e0-9600-2f0349dd6257"},"vehicle_type_id":"4","last_reported":1778881706,"current_range_meters":8000,"station_id":"","pricing_plan_id":"cebpf4jnsgd1na2vs0mg"},{"bike_id":"da25d015-d7dd-4fbf-997f-9acf97aa246b","system_id":"levelo_inurba_marseille","lat":43.28621,"lon":5.35093,"is_reserved":false,"is_disabled":false,"rental_uris":{"android":"levelo://app?vid=da25d015-d7dd-4fbf-997f-9acf97aa246b","ios":"levelo://app?vid=da25d015-d7dd-4fbf-997f-9acf97aa246b"},"vehicle_type_id":"4","last_reported":1778881706,"current_range_meters":8000,"station_id":"ce4bhch2rcd13ifvqeug","pricing_plan_id":"cebpf4jnsgd1na2vs0mg"},{"bike_id":"363fd5b1-b870-48c7-95b6-3986f8da65c4","system_id":"levelo_inurba_marseille","lat":43.29529,"lon":5.38535,"is_reserved":false,"is_disabled":false,"rental_uris":{"android":"levelo://app?vid=363fd5b1-b870-48c7-95b6-3986f8da65c4","ios":"levelo://app?vid=363fd5b1-b870-48c7-95b6-3986f8da65c4"},"vehicle_type_id":"4","last_reported":1778881706,"current_range_meters":8000,"station_id":"ce4bgih2rcd13ifvqba0","pricing_plan_id":"cebpf4jnsgd1na2vs0mg"},{"bike_id":"1f27b9c7-f593-4ee3-b394-7ce199ed2756","system_id":"levelo_inurba_marseille","lat":43.309018,"lon":5.37188,"is_reserved":false,"is_disabled":false,"rental_uris":{"android":"levelo://app?vid=1f27b9c7-f593-4ee3-b394-7ce199ed2756","ios":"levelo://app?vid=1f27b9c7-f593-4ee3-b394-7ce199ed2756"},"vehicle_type_id":"4","last_reported":1778881706,"current_range_meters":8000,"station_id":"","pricing_plan_id":"cebpf4jnsgd1na2vs0mg"},{"bike_id":"432944d6-33e6-4bed-af1c-ead24600ae1a","system_id":"levelo_inurba_marseille","lat":43.32105,"lon":5.36791,"is_reserved":false,"is_disabled":false,"rental_uris":{"android":"levelo://app?vid=432944d6-33e6-4bed-af1c-ead24600ae1a","ios":"levelo://app?vid=432944d6-33e6-4bed-af1c-ead24600ae1a"},"vehicle_type_id":"4","last_reported":1778881706,"current_range_meters":8000,"station_id":"ce4bhrh2rcd13ifvqhug","pricing_plan_id":"cebpf4jnsgd1na2vs0mg"},{"bike_id":"417bd26b-1701-485b-b896-bb7adc98bac9","system_id":"levelo_inurba_marseille","lat":43.23956,"lon":5.36624,"is_reserved":false,"is_disabled":true,"rental_uris":{"android":"levelo://app?vid=417bd26b-1701-485b-b896-bb7adc98bac9","ios":"levelo://app?vid=417bd26b-1701-485b-b896-bb7adc98bac9"},"vehicle_type_id":"4","last_reported":1778881706,"current_range_meters":8000,"station_id":"ce4bhi12rcd13ifvqfp0","pricing_plan_id":"cebpf4jnsgd1na2vs0mg"},{"bike_id":"d70c1dd5-80f9-4e5d-9594-5b78d9fad5a1","system_id":"levelo_inurba_marseille","lat":43.28585,"lon":5.39513,"is_reserved":false,"is_disabled":false,"rental_uris":{"android":"levelo://app?vid=d70c1dd5-80f9-4e5d-9594-5b78d9fad5a1","ios":"levelo://app?vid=d70c1dd5-80f9-4e5d-9594-5b78d9fad5a1"},"vehicle_type_id":"4","last_reported":1778881706,"current_range_meters":8000,"station_id":"ce4bh292rcd13ifvqdg0","pricing_plan_id":"cebpf4jnsgd1na2vs0mg"},{"bike_id":"bedd354f-a582-451c-896c-ddcfaeb09e88","system_id":"levelo_inurba_marseille","lat":43.30945,"lon":5.39015,"is_reserved":false,"is_disabled":false,"rental_uris":{"android":"levelo://app?vid=bedd354f-a582-451c-896c-ddcfaeb09e88","ios":"levelo://app?vid=bedd354f-a582-451c-896c-ddcfaeb09e88"},"vehicle_type_id":"4","last_reported":1778881706,"current_range_meters":8000,"station_id":"ce4bgup2rcd13ifvqco0","pricing_plan_id":"cebpf4jnsgd1na2vs0mg"},{"bike_id":"43449a22-749a-41d1-b6db-52c5ed916c13","system_id":"levelo_inurba_marseille","lat":43.29955,"lon":5.38519,"is_reserved":false,"is_disabled":false,"rental_uris":{"android":"levelo://app?vid=43449a22-749a-41d1-b6db-52c5ed916c13","ios":"levelo://app?vid=43449a22-749a-41d1-b6db-52c5ed916c13"},"vehicle_type_id":"4","last_reported":1778881706,"current_range_meters":8000,"station_id":"ce4bgj92rcd13ifvqbd0","pricing_plan_id":"cebpf4jnsgd1na2vs0mg"},{"bike_id":"07ccf9c7-4ceb-437d-9d49-da55eb2abb51","system_id":"levelo_inurba_marseille","lat":43.28564,"lon":5.39494,"is_reserved":false,"is_disabled":false,"rental_uris":{"android":"levelo://app?vid=07ccf9c7-4ceb-437d-9d49-da55eb2abb51","ios":"levelo://app?vid=07ccf9c7-4ceb-437d-9d49-da55eb2abb51"},"vehicle_type_id":"4","last_reported":1778881706,"current_range_meters":8000,"station_id":"ce4bh292rcd13ifvqdg0","pricing_plan_id":"cebpf4jnsgd1na2vs0mg"},{"bike_id":"ad7c93ea-10e3-4b72-9d1e-d58ff8ce2046","system_id":"levelo_inurba_marseille","lat":43.29532,"lon":5.38524,"is_reserved":false,"is_disabled":false,"rental_uris":{"android":"levelo://app?vid=ad7c93ea-10e3-4b72-9d1e-d58ff8ce2046","ios":"levelo://app?vid=ad7c93ea-10e3-4b72-9d1e-d58ff8ce2046"},"vehicle_type_id":"4","last_reported":1778881706,"current_range_meters":8000,"station_id":"ce4bgih2rcd13ifvqba0","pricing_plan_id":"cebpf4jnsgd1na2vs0mg"},{"bike_id":"1c155cb8-50aa-4ad8-95d4-a32cca5f7a07","system_id":"levelo_inurba_marseille","lat":43.24465,"lon":5.42538,"is_reserved":false,"is_disabled":false,"rental_uris":{"android":"levelo://app?vid=1c155cb8-50aa-4ad8-95d4-a32cca5f7a07","ios":"levelo://app?vid=1c155cb8-50aa-4ad8-95d4-a32cca5f7a07"},"vehicle_type_id":"4","last_reported":1778881706,"current_range_meters":8000,"station_id":"st_d4a3vfp97mjs738cd8kg","pricing_plan_id":"cebpf4jnsgd1na2vs0mg"},{"bike_id":"2e9752dd-56d6-4ed8-aeb7-442842038533","system_id":"levelo_inurba_marseille","lat":43.28539,"lon":5.44107,"is_reserved":false,"is_disabled":false,"rental_uris":{"android":"levelo://app?vid=2e9752dd-56d6-4ed8-aeb7-442842038533","ios":"levelo://app?vid=2e9752dd-56d6-4ed8-aeb7-442842038533"},"vehicle_type_id":"4","last_reported":1778881706,"current_range_meters":8000,"station_id":"st_d3j3df2ikq2c7380ej80","pricing_plan_id":"cebpf4jnsgd1na2vs0mg"},{"bike_id":"8e56e6c7-cc30-4c66-9225-8a6a1c77d95d","system_id":"levelo_inurba_marseille","lat":43.25576,"lon":5.3821,"is_reserved":false,"is_disabled":false,"rental_uris":{"android":"levelo://app?vid=8e56e6c7-cc30-4c66-9225-8a6a1c77d95d","ios":"levelo://app?vid=8e56e6c7-cc30-4c66-9225-8a6a1c77d95d"},"vehicle_type_id":"4","last_reported":1778881706,"current_range_meters":8000,"station_id":"ce4bhih2rcd13ifvqfs0","pricing_plan_id":"cebpf4jnsgd1na2vs0mg"},{"bike_id":"9e90ecb9-eb42-4b6f-b217-a489aed4d6ac","system_id":"levelo_inurba_marseille","lat":43.32475,"lon":5.38255,"is_reserved":false,"is_disabled":false,"rental_uris":{"android":"levelo://app?vid=9e90ecb9-eb42-4b6f-b217-a489aed4d6ac","ios":"levelo://app?vid=9e90ecb9-eb42-4b6f-b217-a489aed4d6ac"},"vehicle_type_id":"4","last_reported":1778881706,"current_range_meters":8000,"station_id":"st_d4asgbiv49dc73anf9m0","pricing_plan_id":"cebpf4jnsgd1na2vs0mg"},{"bike_id":"6fd80a54-9539-41a8-9984-fbbb2d11be72","system_id":"levelo_inurba_marseille","lat":43.287,"lon":5.39991,"is_reserved":false,"is_disabled":false,"rental_uris":{"android":"levelo://app?vid=6fd80a54-9539-41a8-9984-fbbb2d11be72","ios":"levelo://app?vid=6fd80a54-9539-41a8-9984-fbbb2d11be72"},"vehicle_type_id":"4","last_reported":1778881706,"current_range_meters":8000,"station_id":"ce4bho92rcd13ifvqh3g","pricing_plan_id":"cebpf4jnsgd1na2vs0mg"},{"bike_id":"10faba6b-13a8-437a-a1f3-f2daa4a58eb4","system_id":"levelo_inurba_marseille","lat":43.27922,"lon":5.39572,"is_reserved":false,"is_disabled":false,"rental_uris":{"android":"levelo://app?vid=10faba6b-13a8-437a-a1f3-f2daa4a58eb4","ios":"levelo://app?vid=10faba6b-13a8-437a-a1f3-f2daa4a58eb4"},"vehicle_type_id":"4","last_reported":1778881706,"current_range_meters":8000,"station_id":"ce4bhf92rcd13ifvqf40","pricing_plan_id":"cebpf4jnsgd1na2vs0mg"},{"bike_id":"ea7b8b9e-c048-49c5-bb14-55af186de66e","system_id":"levelo_inurba_marseille","lat":43.28609,"lon":5.39899,"is_reserved":false,"is_disabled":false,"rental_uris":{"android":"levelo://app?vid=ea7b8b9e-c048-49c5-bb14-55af186de66e","ios":"levelo://app?vid=ea7b8b9e-c048-49c5-bb14-55af186de66e"},"vehicle_type_id":"4","last_reported":1778881706,"current_range_meters":8000,"station_id":"st_d4a7ka997mjs738ck50g","pricing_plan_id":"cebpf4jnsgd1na2vs0mg"},{"bike_id":"bc1ceef2-7ab6-4b29-97cf-e699caf1898f","system_id":"levelo_inurba_marseille","lat":43.24648,"lon":5.38893,"is_reserved":false,"is_disabled":false,"rental_uris":{"android":"levelo://app?vid=bc1ceef2-7ab6-4b29-97cf-e699caf1898f","ios":"levelo://app?vid=bc1ceef2-7ab6-4b29-97cf-e699caf1898f"},"vehicle_type_id":"4","last_reported":1778881706,"current_range_meters":8000,"station_id":"ce4bhg12rcd13ifvqf60","pricing_plan_id":"cebpf4jnsgd1na2vs0mg"},{"bike_id":"d90e1575-ec76-461f-9701-a245bb59404f","system_id":"levelo_inurba_marseille","lat":43.24396,"lon":5.37043,"is_reserved":false,"is_disabled":false,"rental_uris":{"android":"levelo://app?vid=d90e1575-ec76-461f-9701-a245bb59404f","ios":"levelo://app?vid=d90e1575-ec76-461f-9701-a245bb59404f"},"vehicle_type_id":"4","last_reported":1778881706,"current_range_meters":8000,"station_id":"ce4bhhh2rcd13ifvqfk0","pricing_plan_id":"cebpf4jnsgd1na2vs0mg"},{"bike_id":"ecb43cf3-4571-441f-b7de-470cf95dfc38","system_id":"levelo_inurba_marseille","lat":43.2176,"lon":5.34599,"is_reserved":false,"is_disabled":true,"rental_uris":{"android":"levelo://app?vid=ecb43cf3-4571-441f-b7de-470cf95dfc38","ios":"levelo://app?vid=ecb43cf3-4571-441f-b7de-470cf95dfc38"},"vehicle_type_id":"4","last_reported":1778881706,"current_range_meters":8000,"station_id":"st_cvj6r9ubvosntc0bgbag","pricing_plan_id":"cebpf4jnsgd1na2vs0mg"},{"bike_id":"25d874e2-4fb0-465d-875a-02b69a82441a","system_id":"levelo_inurba_marseille","lat":43.24815,"lon":5.37456,"is_reserved":false,"is_disabled":false,"rental_uris":{"android":"levelo://app?vid=25d874e2-4fb0-465d-875a-02b69a82441a","ios":"levelo://app?vid=25d874e2-4fb0-465d-875a-02b69a82441a"},"vehicle_type_id":"4","last_reported":1778881706,"current_range_meters":8000,"station_id":"ce4bhgh2rcd13ifvqfb0","pricing_plan_id":"cebpf4jnsgd1na2vs0mg"},{"bike_id":"c92eee69-21ac-4706-88a8-527d3a7dfc5c","system_id":"levelo_inurba_marseille","lat":43.28706,"lon":5.37418,"is_reserved":false,"is_disabled":true,"rental_uris":{"android":"levelo://app?vid=c92eee69-21ac-4706-88a8-527d3a7dfc5c","ios":"levelo://app?vid=c92eee69-21ac-4706-88a8-527d3a7dfc5c"},"vehicle_type_id":"4","last_reported":1778881706,"current_range_meters":8000,"station_id":"ce4bh3p2rcd13ifvqdq0","pricing_plan_id":"cebpf4jnsgd1na2vs0mg"},{"bike_id":"b48aa10c-bd41-47b2-81ea-431d3ed55830","system_id":"levelo_inurba_marseille","lat":43.29599,"lon":5.38095,"is_reserved":false,"is_disabled":false,"rental_uris":{"android":"levelo://app?vid=b48aa10c-bd41-47b2-81ea-431d3ed55830","ios":"levelo://app?vid=b48aa10c-bd41-47b2-81ea-431d3ed55830"},"vehicle_type_id":"4","last_reported":1778881706,"current_range_meters":8400,"station_id":"ce4bgl12rcd13ifvqbo0","pricing_plan_id":"cebpf4jnsgd1na2vs0mg"},{"bike_id":"880bf450-087f-4138-bc1d-c68012a10689","system_id":"levelo_inurba_marseille","lat":43.29273,"lon":5.36843,"is_reserved":false,"is_disabled":false,"rental_uris":{"android":"levelo://app?vid=880bf450-087f-4138-bc1d-c68012a10689","ios":"levelo://app?vid=880bf450-087f-4138-bc1d-c68012a10689"},"vehicle_type_id":"4","last_reported":1778881706,"current_range_meters":8400,"station_id":"ce4bhbp2rcd13ifvqesg","pricing_plan_id":"cebpf4jnsgd1na2vs0mg"},{"bike_id":"2c4e2c80-7a7f-49e7-8a11-230c3e37ee87","system_id":"levelo_inurba_marseille","lat":43.2256,"lon":5.41621,"is_reserved":false,"is_disabled":false,"rental_uris":{"android":"levelo://app?vid=2c4e2c80-7a7f-49e7-8a11-230c3e37ee87","ios":"levelo://app?vid=2c4e2c80-7a7f-49e7-8a11-230c3e37ee87"},"vehicle_type_id":"4","last_reported":1778881706,"current_range_meters":8400,"station_id":"st_d2o4gvlbi1j2169b742g","pricing_plan_id":"cebpf4jnsgd1na2vs0mg"},{"bike_id":"14b4d5ff-5bff-497e-8206-75d2399ff363","system_id":"levelo_inurba_marseille","lat":43.31045,"lon":5.37151,"is_reserved":false,"is_disabled":false,"rental_uris":{"android":"levelo://app?vid=14b4d5ff-5bff-497e-8206-75d2399ff363","ios":"levelo://app?vid=14b4d5ff-5bff-497e-8206-75d2399ff363"},"vehicle_type_id":"4","last_reported":1778881706,"current_range_meters":8400,"station_id":"st_d4kl2rp97mjs73e7tdfg","pricing_plan_id":"cebpf4jnsgd1na2vs0mg"},{"bike_id":"a56a8a0c-3ab9-465a-bdae-f5897ec1f98a","system_id":"levelo_inurba_marseille","lat":43.24179,"lon":5.36395,"is_reserved":false,"is_disabled":false,"rental_uris":{"android":"levelo://app?vid=a56a8a0c-3ab9-465a-bdae-f5897ec1f98a","ios":"levelo://app?vid=a56a8a0c-3ab9-465a-bdae-f5897ec1f98a"},"vehicle_type_id":"4","last_reported":1778881706,"current_range_meters":8400,"station_id":"cpo36qri1sfpv3e86is0","pricing_plan_id":"cebpf4jnsgd1na2vs0mg"},{"bike_id":"58bfde98-e25d-4ac8-8cc8-8f1b08022130","system_id":"levelo_inurba_marseille","lat":43.281,"lon":5.37839,"is_reserved":false,"is_disabled":false,"rental_uris":{"android":"levelo://app?vid=58bfde98-e25d-4ac8-8cc8-8f1b08022130","ios":"levelo://app?vid=58bfde98-e25d-4ac8-8cc8-8f1b08022130"},"vehicle_type_id":"4","last_reported":1778881706,"current_range_meters":8400,"station_id":"ce4bha12rcd13ifvqee0","pricing_plan_id":"cebpf4jnsgd1na2vs0mg"},{"bike_id":"d603376b-37cb-4769-b2bf-07fc154e42df","system_id":"levelo_inurba_marseille","lat":43.26193,"lon":5.37912,"is_reserved":false,"is_disabled":false,"rental_uris":{"android":"levelo://app?vid=d603376b-37cb-4769-b2bf-07fc154e42df","ios":"levelo://app?vid=d603376b-37cb-4769-b2bf-07fc154e42df"},"vehicle_type_id":"4","last_reported":1778881706,"current_range_meters":8400,"station_id":"ce4bhjp2rcd13ifvqg90","pricing_plan_id":"cebpf4jnsgd1na2vs0mg"},{"bike_id":"eb1530c2-05ee-47e4-9578-08c4c36eedd7","system_id":"levelo_inurba_marseille","lat":43.30108,"lon":5.39073,"is_reserved":false,"is_disabled":true,"rental_uris":{"android":"levelo://app?vid=eb1530c2-05ee-47e4-9578-08c4c36eedd7","ios":"levelo://app?vid=eb1530c2-05ee-47e4-9578-08c4c36eedd7"},"vehicle_type_id":"4","last_reported":1778881706,"current_range_meters":8400,"station_id":"ce4bh192rcd13ifvqdb0","pricing_plan_id":"cebpf4jnsgd1na2vs0mg"},{"bike_id":"c840fdcf-1e65-4005-a5a6-debdb0deb9d7","system_id":"levelo_inurba_marseille","lat":43.31126,"lon":5.37753,"is_reserved":false,"is_disabled":false,"rental_uris":{"android":"levelo://app?vid=c840fdcf-1e65-4005-a5a6-debdb0deb9d7","ios":"levelo://app?vid=c840fdcf-1e65-4005-a5a6-debdb0deb9d7"},"vehicle_type_id":"4","last_reported":1778881706,"current_range_meters":8400,"station_id":"ce4bgt92rcd13ifvqcg0","pricing_plan_id":"cebpf4jnsgd1na2vs0mg"},{"bike_id":"1b908700-68ee-430a-a6af-4946641f1b80","system_id":"levelo_inurba_marseille","lat":43.29532,"lon":5.38538,"is_reserved":false,"is_disabled":false,"rental_uris":{"android":"levelo://app?vid=1b908700-68ee-430a-a6af-4946641f1b80","ios":"levelo://app?vid=1b908700-68ee-430a-a6af-4946641f1b80"},"vehicle_type_id":"4","last_reported":1778881706,"current_range_meters":8400,"station_id":"ce4bgih2rcd13ifvqba0","pricing_plan_id":"cebpf4jnsgd1na2vs0mg"},{"bike_id":"6ed28fa0-f20b-450d-a789-f0b565e64f1b","system_id":"levelo_inurba_marseille","lat":43.29843,"lon":5.38322,"is_reserved":false,"is_disabled":false,"rental_uris":{"android":"levelo://app?vid=6ed28fa0-f20b-450d-a789-f0b565e64f1b","ios":"levelo://app?vid=6ed28fa0-f20b-450d-a789-f0b565e64f1b"},"vehicle_type_id":"4","last_reported":1778881706,"current_range_meters":8400,"station_id":"","pricing_plan_id":"cebpf4jnsgd1na2vs0mg"},{"bike_id":"055a60b0-3aaa-43d9-a34f-b28b189e58ea","system_id":"levelo_inurba_marseille","lat":43.29179,"lon":5.37146,"is_reserved":false,"is_disabled":true,"rental_uris":{"android":"levelo://app?vid=055a60b0-3aaa-43d9-a34f-b28b189e58ea","ios":"levelo://app?vid=055a60b0-3aaa-43d9-a34f-b28b189e58ea"},"vehicle_type_id":"4","last_reported":1778881706,"current_range_meters":8400,"station_id":"ce4bha92rcd13ifvqeh0","pricing_plan_id":"cebpf4jnsgd1na2vs0mg"},{"bike_id":"c522deca-789e-49b3-982f-1f0402a24572","system_id":"levelo_inurba_marseille","lat":43.2467,"lon":5.38951,"is_reserved":false,"is_disabled":false,"rental_uris":{"android":"levelo://app?vid=c522deca-789e-49b3-982f-1f0402a24572","ios":"levelo://app?vid=c522deca-789e-49b3-982f-1f0402a24572"},"vehicle_type_id":"4","last_reported":1778881706,"current_range_meters":8400,"station_id":"ce4bhg12rcd13ifvqf60","pricing_plan_id":"cebpf4jnsgd1na2vs0mg"},{"bike_id":"a8d8232a-7680-46ef-9df1-ab2629de8924","system_id":"levelo_inurba_marseille","lat":43.28697,"lon":5.3997,"is_reserved":false,"is_disabled":false,"rental_uris":{"android":"levelo://app?vid=a8d8232a-7680-46ef-9df1-ab2629de8924","ios":"levelo://app?vid=a8d8232a-7680-46ef-9df1-ab2629de8924"},"vehicle_type_id":"4","last_reported":1778881706,"current_range_meters":8400,"station_id":"ce4bho92rcd13ifvqh3g","pricing_plan_id":"cebpf4jnsgd1na2vs0mg"},{"bike_id":"0d48b951-38d8-424d-8b0c-f0f99f0143ab","system_id":"levelo_inurba_marseille","lat":43.28926,"lon":5.3838,"is_reserved":false,"is_disabled":false,"rental_uris":{"android":"levelo://app?vid=0d48b951-38d8-424d-8b0c-f0f99f0143ab","ios":"levelo://app?vid=0d48b951-38d8-424d-8b0c-f0f99f0143ab"},"vehicle_type_id":"4","last_reported":1778881706,"current_range_meters":8400,"station_id":"ce4bh612rcd13ifvqe6g","pricing_plan_id":"cebpf4jnsgd1na2vs0mg"},{"bike_id":"a3a0bbd3-ad1d-4409-952f-28c2ade02241","system_id":"levelo_inurba_marseille","lat":43.30939,"lon":5.39059,"is_reserved":false,"is_disabled":false,"rental_uris":{"android":"levelo://app?vid=a3a0bbd3-ad1d-4409-952f-28c2ade02241","ios":"levelo://app?vid=a3a0bbd3-ad1d-4409-952f-28c2ade02241"},"vehicle_type_id":"4","last_reported":1778881706,"current_range_meters":8400,"station_id":"ce4bgup2rcd13ifvqco0","pricing_plan_id":"cebpf4jnsgd1na2vs0mg"},{"bike_id":"71124f87-cf6c-44de-93c2-11767bea84fa","system_id":"levelo_inurba_marseille","lat":43.29851,"lon":5.36293,"is_reserved":false,"is_disabled":false,"rental_uris":{"android":"levelo://app?vid=71124f87-cf6c-44de-93c2-11767bea84fa","ios":"levelo://app?vid=71124f87-cf6c-44de-93c2-11767bea84fa"},"vehicle_type_id":"4","last_reported":1778881706,"current_range_meters":8400,"station_id":"ce4bgpp2rcd13ifvqc3g","pricing_plan_id":"cebpf4jnsgd1na2vs0mg"},{"bike_id":"84496ff4-7ca0-4094-8a0f-b50184415265","system_id":"levelo_inurba_marseille","lat":43.26546,"lon":5.37297,"is_reserved":false,"is_disabled":false,"rental_uris":{"android":"levelo://app?vid=84496ff4-7ca0-4094-8a0f-b50184415265","ios":"levelo://app?vid=84496ff4-7ca0-4094-8a0f-b50184415265"},"vehicle_type_id":"4","last_reported":1778881706,"current_range_meters":8400,"station_id":"ce4bhg12rcd13ifvqf70","pricing_plan_id":"cebpf4jnsgd1na2vs0mg"},{"bike_id":"bbbc6bf2-58ac-4a2a-a386-812d7607dd57","system_id":"levelo_inurba_marseille","lat":43.28868,"lon":5.4252,"is_reserved":false,"is_disabled":false,"rental_uris":{"android":"levelo://app?vid=bbbc6bf2-58ac-4a2a-a386-812d7607dd57","ios":"levelo://app?vid=bbbc6bf2-58ac-4a2a-a386-812d7607dd57"},"vehicle_type_id":"4","last_reported":1778881706,"current_range_meters":8400,"station_id":"st_d3b462108ojc7389ooeg","pricing_plan_id":"cebpf4jnsgd1na2vs0mg"},{"bike_id":"e36e9ae6-760f-4d6b-b27b-2683e1da6b8e","system_id":"levelo_inurba_marseille","lat":43.31764,"lon":5.39014,"is_reserved":false,"is_disabled":false,"rental_uris":{"android":"levelo://app?vid=e36e9ae6-760f-4d6b-b27b-2683e1da6b8e","ios":"levelo://app?vid=e36e9ae6-760f-4d6b-b27b-2683e1da6b8e"},"vehicle_type_id":"4","last_reported":1778881706,"current_range_meters":8400,"station_id":"ce4bhqp2rcd13ifvqhng","pricing_plan_id":"cebpf4jnsgd1na2vs0mg"},{"bike_id":"bc8c2695-d41e-43a5-a503-073f39b3a18d","system_id":"levelo_inurba_marseille","lat":43.27609,"lon":5.3612,"is_reserved":false,"is_disabled":false,"rental_uris":{"android":"levelo://app?vid=bc8c2695-d41e-43a5-a503-073f39b3a18d","ios":"levelo://app?vid=bc8c2695-d41e-43a5-a503-073f39b3a18d"},"vehicle_type_id":"4","last_reported":1778881706,"current_range_meters":8400,"station_id":"ce4bgj92rcd13ifvqbe0","pricing_plan_id":"cebpf4jnsgd1na2vs0mg"},