{"last_updated":1709057361,"ttl":30,"version":"2.2","data":{"bikes":[{"bike_id":"3b39d76e-80c8-4162-94bf-7d99cb60b85f","system_id":"levelo_inurba_marseille","lat":43.312239,"lon":5.368562,"is_reserved":false,"is_disabled":false,"rental_uris":{"android":"levelo://app?vid=3b39d76e-80c8-4162-94bf-7d99cb60b85f","ios":"levelo://app?vid=3b39d76e-80c8-4162-94bf-7d99cb60b85f"},"vehicle_type_id":"4","last_reported":1709057361,"current_range_meters":23200,"station_id":"ce4bgl92rcd13ifvqbq0","pricing_plan_id":"cebpf4jnsgd1na2vs0mg"},{"bike_id":"37ec1ee5-3363-4f4a-9980-229e8e44b326","system_id":"levelo_inurba_marseille","lat":43.314413,"lon":5.37335,"is_reserved":false,"is_disabled":false,"rental_uris":{"android":"levelo://app?vid=37ec1ee5-3363-4f4a-9980-229e8e44b326","ios":"levelo://app?vid=37ec1ee5-3363-4f4a-9980-229e8e44b326"},"vehicle_type_id":"4","last_reported":1709057361,"current_range_meters":22800,"station_id":"","pricing_plan_id":"cebpf4jnsgd1na2vs0mg"},{"bike_id":"f4b9c80b-17e0-418d-95aa-904eb8dd60ab","system_id":"levelo_inurba_marseille","lat":43.309034,"lon":5.371783,"is_reserved":false,"is_disabled":false,"rental_uris":{"android":"levelo://app?vid=f4b9c80b-17e0-418d-95aa-904eb8dd60ab","ios":"levelo://app?vid=f4b9c80b-17e0-418d-95aa-904eb8dd60ab"},"vehicle_type_id":"4","last_reported":1709057361,"current_range_meters":2000,"station_id":"ce4bguh2rcd13ifvqckg","pricing_plan_id":"cebpf4jnsgd1na2vs0mg"},{"bike_id":"e69a6777-f2ef-4067-928c-c8ca0c146874","system_id":"levelo_inurba_marseille","lat":43.309039,"lon":5.371797,"is_reserved":false,"is_disabled":false,"rental_uris":{"android":"levelo://app?vid=e69a6777-f2ef-4067-928c-c8ca0c146874","ios":"levelo://app?vid=e69a6777-f2ef-4067-928c-c8ca0c146874"},"vehicle_type_id":"4","last_reported":1709057361,"current_range_meters":8400,"station_id":"ce4bguh2rcd13ifvqckg","pricing_plan_id":"cebpf4jnsgd1na2vs0mg"},{"bike_id":"f60b2063-7dff-4e4d-b11f-d6107252e914","system_id":"levelo_inurba_marseille","lat":43.305706,"lon":5.365654,"is_reserved":false,"is_disabled":false,"rental_uris":{"android":"levelo://app?vid=f60b2063-7dff-4e4d-b11f-d6107252e914","ios":"levelo://app?vid=f60b2063-7dff-4e4d-b11f-d6107252e914"},"vehicle_type_id":"4","last_reported":1709057361,"current_range_meters":30800,"station_id":"ce4bgs12rcd13ifvqcag","pricing_plan_id":"cebpf4jnsgd1na2vs0mg"},{"bike_id":"e0578f18-d22b-4347-ad3a-f765f478453f","system_id":"levelo_inurba_marseille","lat":43.305989,"lon":5.37225,"is_reserved":false,"is_disabled":false,"rental_uris":{"android":"levelo://app?vid=e0578f18-d22b-4347-ad3a-f765f478453f","ios":"levelo://app?vid=e0578f18-d22b-4347-ad3a-f765f478453f"},"vehicle_type_id":"4","last_reported":1709057361,"current_range_meters":18000,"station_id":"ce4bgqh2rcd13ifvqc4g","pricing_plan_id":"cebpf4jnsgd1na2vs0mg"},{"bike_id":"535075aa-4e73-479b-abaf-1007b52d510b","system_id":"levelo_inurba_marseille","lat":43.305989,"lon":5.37225,"is_reserved":false,"is_disabled":false,"rental_uris":{"android":"levelo://app?vid=535075aa-4e73-479b-abaf-1007b52d510b","ios":"levelo://app?vid=535075aa-4e73-479b-abaf-1007b52d510b"},"vehicle_type_id":"4","last_reported":1709057361,"current_range_meters":26800,"station_id":"ce4bgqh2rcd13ifvqc4g","pricing_plan_id":"cebpf4jnsgd1na2vs0mg"},{"bike_id":"9c1a5b57-f04a-49d2-9a28-9a41e0d9d1cb","system_id":"levelo_inurba_marseille","lat":43.305989,"lon":5.37225,"is_reserved":false,"is_disabled":false,"rental_uris":{"android":"levelo://app?vid=9c1a5b57-f04a-49d2-9a28-9a41e0d9d1cb","ios":"levelo://app?vid=9c1a5b57-f04a-49d2-9a28-9a41e0d9d1cb"},"vehicle_type_id":"4","last_reported":1709057361,"current_range_meters":4000,"station_id":"ce4bgqh2rcd13ifvqc4g","pricing_plan_id":"cebpf4jnsgd1na2vs0mg"},{"bike_id":"36b46726-a5da-4431-89f5-ca76dde871be","system_id":"levelo_inurba_marseille","lat":43.311467,"lon":5.377676,"is_reserved":false,"is_disabled":false,"rental_uris":{"android":"levelo://app?vid=36b46726-a5da-4431-89f5-ca76dde871be","ios":"levelo://app?vid=36b46726-a5da-4431-89f5-ca76dde871be"},"vehicle_type_id":"4","last_reported":1709057361,"current_range_meters":24400,"station_id":"ce4bgt92rcd13ifvqcg0","pricing_plan_id":"cebpf4jnsgd1na2vs0mg"},{"bike_id":"428cdc6a-655e-4eba-89fa-5fc07cc3930b","system_id":"levelo_inurba_marseille","lat":43.311193,"lon":5.377617,"is_reserved":false,"is_disabled":false,"rental_uris":{"android":"levelo://app?vid=428cdc6a-655e-4eba-89fa-5fc07cc3930b","ios":"levelo://app?vid=428cdc6a-655e-4eba-89fa-5fc07cc3930b"},"vehicle_type_id":"4","last_reported":1709057361,"current_range_meters":9600,"station_id":"ce4bgt92rcd13ifvqcg0","pricing_plan_id":"cebpf4jnsgd1na2vs0mg"},{"bike_id":"d733de72-c6f5-48f5-891c-85bb888c2f22","system_id":"levelo_inurba_marseille","lat":43.307945,"lon":5.376487,"is_reserved":false,"is_disabled":false,"rental_uris":{"android":"levelo://app?vid=d733de72-c6f5-48f5-891c-85bb888c2f22","ios":"levelo://app?vid=d733de72-c6f5-48f5-891c-85bb888c2f22"},"vehicle_type_id":"4","last_reported":1709057361,"current_range_meters":22000,"station_id":"ce4bgv92rcd13ifvqcq0","pricing_plan_id":"cebpf4jnsgd1na2vs0mg"},{"bike_id":"3b1077db-ecb3-430b-81be-e99e9cd5d158","system_id":"levelo_inurba_marseille","lat":43.30784,"lon":5.37654,"is_reserved":false,"is_disabled":false,"rental_uris":{"android":"levelo://app?vid=3b1077db-ecb3-430b-81be-e99e9cd5d158","ios":"levelo://app?vid=3b1077db-ecb3-430b-81be-e99e9cd5d158"},"vehicle_type_id":"4","last_reported":1709057361,"current_range_meters":1200,"station_id":"ce4bgv92rcd13ifvqcq0","pricing_plan_id":"cebpf4jnsgd1na2vs0mg"},{"bike_id":"3e0613d4-7eff-423f-ae42-5f1048330712","system_id":"levelo_inurba_marseille","lat":43.307945,"lon":5.376487,"is_reserved":false,"is_disabled":false,"rental_uris":{"android":"levelo://app?vid=3e0613d4-7eff-423f-ae42-5f1048330712","ios":"levelo://app?vid=3e0613d4-7eff-423f-ae42-5f1048330712"},"vehicle_type_id":"4","last_reported":1709057361,"current_range_meters":19600,"station_id":"ce4bgv92rcd13ifvqcq0","pricing_plan_id":"cebpf4jnsgd1na2vs0mg"},{"bike_id":"881ec65e-511c-4dc7-9541-94e73026687f","system_id":"levelo_inurba_marseille","lat":43.31708,"lon":5.37718,"is_reserved":false,"is_disabled":false,"rental_uris":{"android":"levelo://app?vid=881ec65e-511c-4dc7-9541-94e73026687f","ios":"levelo://app?vid=881ec65e-511c-4dc7-9541-94e73026687f"},"vehicle_type_id":"4","last_reported":1709057361,"current_range_meters":19600,"station_id":"ce4bgth2rcd13ifvqch0","pricing_plan_id":"cebpf4jnsgd1na2vs0mg"},{"bike_id":"2afabb95-7a9f-4556-9908-02961cc13ac6","system_id":"levelo_inurba_marseille","lat":43.317075,"lon":5.377367,"is_reserved":false,"is_disabled":false,"rental_uris":{"android":"levelo://app?vid=2afabb95-7a9f-4556-9908-02961cc13ac6","ios":"levelo://app?vid=2afabb95-7a9f-4556-9908-02961cc13ac6"},"vehicle_type_id":"4","last_reported":1709057361,"current_range_meters":13200,"station_id":"ce4bgth2rcd13ifvqch0","pricing_plan_id":"cebpf4jnsgd1na2vs0mg"},{"bike_id":"1df61fbd-823d-4b89-a856-3cc0677bd9ef","system_id":"levelo_inurba_marseille","lat":43.317106,"lon":5.377344,"is_reserved":false,"is_disabled":false,"rental_uris":{"android":"levelo://app?vid=1df61fbd-823d-4b89-a856-3cc0677bd9ef","ios":"levelo://app?vid=1df61fbd-823d-4b89-a856-3cc0677bd9ef"},"vehicle_type_id":"4","last_reported":1709057361,"current_range_meters":1600,"station_id":"ce4bgth2rcd13ifvqch0","pricing_plan_id":"cebpf4jnsgd1na2vs0mg"},{"bike_id":"3a9e9dac-20df-47dd-9b2a-16c0d693487e","system_id":"levelo_inurba_marseille","lat":43.31715,"lon":5.37739,"is_reserved":false,"is_disabled":false,"rental_uris":{"android":"levelo://app?vid=3a9e9dac-20df-47dd-9b2a-16c0d693487e","ios":"levelo://app?vid=3a9e9dac-20df-47dd-9b2a-16c0d693487e"},"vehicle_type_id":"4","last_reported":1709057361,"current_range_meters":0,"station_id":"ce4bgth2rcd13ifvqch0","pricing_plan_id":"cebpf4jnsgd1na2vs0mg"},{"bike_id":"7b99db59-26a7-48a7-947b-b943f3d6ae81","system_id":"levelo_inurba_marseille","lat":43.317075,"lon":5.377367,"is_reserved":false,"is_disabled":false,"rental_uris":{"android":"levelo://app?vid=7b99db59-26a7-48a7-947b-b943f3d6ae81","ios":"levelo://app?vid=7b99db59-26a7-48a7-947b-b943f3d6ae81"},"vehicle_type_id":"4","last_reported":1709057361,"current_range_meters":30400,"station_id":"ce4bgth2rcd13ifvqch0","pricing_plan_id":"cebpf4jnsgd1na2vs0mg"},{"bike_id":"fdbbb02a-d11e-484d-9260-971f09d48d61","system_id":"levelo_inurba_marseille","lat":43.317075,"lon":5.377367,"is_reserved":false,"is_disabled":false,"rental_uris":{"android":"levelo://app?vid=fdbbb02a-d11e-484d-9260-971f09d48d61","ios":"levelo://app?vid=fdbbb02a-d11e-484d-9260-971f09d48d61"},"vehicle_type_id":"4","last_reported":1709057361,"current_range_meters":18000,"station_id":"ce4bgth2rcd13ifvqch0","pricing_plan_id":"cebpf4jnsgd1na2vs0mg"},{"bike_id":"6abe2244-a3d9-424e-a5b5-1c8ccef55d2e","system_id":"levelo_inurba_marseille","lat":43.317075,"lon":5.377367,"is_reserved":false,"is_disabled":false,"rental_uris":{"android":"levelo://app?vid=6abe2244-a3d9-424e-a5b5-1c8ccef55d2e","ios":"levelo://app?vid=6abe2244-a3d9-424e-a5b5-1c8ccef55d2e"},"vehicle_type_id":"4","last_reported":1709057361,"current_range_meters":5200,"station_id":"ce4bgth2rcd13ifvqch0","pricing_plan_id":"cebpf4jnsgd1na2vs0mg"},{"bike_id":"41e0456e-3668-46d2-863d-c1e023e9d9e6","system_id":"levelo_inurba_marseille","lat":43.317075,"lon":5.377367,"is_reserved":false,"is_disabled":false,"rental_uris":{"android":"levelo://app?vid=41e0456e-3668-46d2-863d-c1e023e9d9e6","ios":"levelo://app?vid=41e0456e-3668-46d2-863d-c1e023e9d9e6"},"vehicle_type_id":"4","last_reported":1709057361,"current_range_meters":25600,"station_id":"ce4bgth2rcd13ifvqch0","pricing_plan_id":"cebpf4jnsgd1na2vs0mg"},{"bike_id":"f0c18dc6-3499-424f-ac78-38498c6a6159","system_id":"levelo_inurba_marseille","lat":43.317075,"lon":5.377367,"is_reserved":false,"is_disabled":false,"rental_uris":{"android":"levelo://app?vid=f0c18dc6-3499-424f-ac78-38498c6a6159","ios":"levelo://app?vid=f0c18dc6-3499-424f-ac78-38498c6a6159"},"vehicle_type_id":"4","last_reported":1709057361,"current_range_meters":16800,"station_id":"ce4bgth2rcd13ifvqch0","pricing_plan_id":"cebpf4jnsgd1na2vs0mg"},{"bike_id":"a3b5adde-b6ae-4764-a239-47305abe482a","system_id":"levelo_inurba_marseille","lat":43.317075,"lon":5.377367,"is_reserved":false,"is_disabled":false,"rental_uris":{"android":"levelo://app?vid=a3b5adde-b6ae-4764-a239-47305abe482a","ios":"levelo://app?vid=a3b5adde-b6ae-4764-a239-47305abe482a"},"vehicle_type_id":"4","last_reported":1709057361,"current_range_meters":27200,"station_id":"ce4bgth2rcd13ifvqch0","pricing_plan_id":"cebpf4jnsgd1na2vs0mg"},{"bike_id":"125fd96f-7a7d-4b07-ace5-722b4a1ef648","system_id":"levelo_inurba_marseille","lat":43.317071,"lon":5.377581,"is_reserved":false,"is_disabled":false,"rental_uris":{"android":"levelo://app?vid=125fd96f-7a7d-4b07-ace5-722b4a1ef648","ios":"levelo://app?vid=125fd96f-7a7d-4b07-ace5-722b4a1ef648"},"vehicle_type_id":"4","last_reported":1709057361,"current_range_meters":13200,"station_id":"ce4bgth2rcd13ifvqch0","pricing_plan_id":"cebpf4jnsgd1na2vs0mg"},{"bike_id":"8bd2d6ee-c69c-44a0-beeb-d0231eb183ac","system_id":"levelo_inurba_marseille","lat":43.317075,"lon":5.377367,"is_reserved":false,"is_disabled":false,"rental_uris":{"android":"levelo://app?vid=8bd2d6ee-c69c-44a0-beeb-d0231eb183ac","ios":"levelo://app?vid=8bd2d6ee-c69c-44a0-beeb-d0231eb183ac"},"vehicle_type_id":"4","last_reported":1709057361,"current_range_meters":29200,"station_id":"ce4bgth2rcd13ifvqch0","pricing_plan_id":"cebpf4jnsgd1na2vs0mg"},{"bike_id":"5553d1e1-067c-42bb-8be9-33ad13e39b04","system_id":"levelo_inurba_marseille","lat":43.317075,"lon":5.377367,"is_reserved":false,"is_disabled":false,"rental_uris":{"android":"levelo://app?vid=5553d1e1-067c-42bb-8be9-33ad13e39b04","ios":"levelo://app?vid=5553d1e1-067c-42bb-8be9-33ad13e39b04"},"vehicle_type_id":"4","last_reported":1709057361,"current_range_meters":31600,"station_id":"ce4bgth2rcd13ifvqch0","pricing_plan_id":"cebpf4jnsgd1na2vs0mg"},{"bike_id":"e6d883fb-882a-4aec-a2bb-4b7d63c16ca0","system_id":"levelo_inurba_marseille","lat":43.317075,"lon":5.377367,"is_reserved":false,"is_disabled":false,"rental_uris":{"android":"levelo://app?vid=e6d883fb-882a-4aec-a2bb-4b7d63c16ca0","ios":"levelo://app?vid=e6d883fb-882a-4aec-a2bb-4b7d63c16ca0"},"vehicle_type_id":"4","last_reported":1709057361,"current_range_meters":6400,"station_id":"ce4bgth2rcd13ifvqch0","pricing_plan_id":"cebpf4jnsgd1na2vs0mg"},{"bike_id":"dad93935-1cfa-416c-8c15-ff06b21a0d17","system_id":"levelo_inurba_marseille","lat":43.317075,"lon":5.377367,"is_reserved":false,"is_disabled":false,"rental_uris":{"android":"levelo://app?vid=dad93935-1cfa-416c-8c15-ff06b21a0d17","ios":"levelo://app?vid=dad93935-1cfa-416c-8c15-ff06b21a0d17"},"vehicle_type_id":"4","last_reported":1709057361,"current_range_meters":4800,"station_id":"ce4bgth2rcd13ifvqch0","pricing_plan_id":"cebpf4jnsgd1na2vs0mg"},{"bike_id":"cd51ba69-fc5e-4102-9684-f16915e1ec54","system_id":"levelo_inurba_marseille","lat":43.317075,"lon":5.377367,"is_reserved":false,"is_disabled":false,"rental_uris":{"android":"levelo://app?vid=cd51ba69-fc5e-4102-9684-f16915e1ec54","ios":"levelo://app?vid=cd51ba69-fc5e-4102-9684-f16915e1ec54"},"vehicle_type_id":"4","last_reported":1709057361,"current_range_meters":4800,"station_id":"ce4bgth2rcd13ifvqch0","pricing_plan_id":"cebpf4jnsgd1na2vs0mg"},{"bike_id":"1f788638-8357-478a-9577-7f51f54c953f","system_id":"levelo_inurba_marseille","lat":43.315293,"lon":5.380349,"is_reserved":false,"is_disabled":false,"rental_uris":{"android":"levelo://app?vid=1f788638-8357-478a-9577-7f51f54c953f","ios":"levelo://app?vid=1f788638-8357-478a-9577-7f51f54c953f"},"vehicle_type_id":"4","last_reported":1709057361,"current_range_meters":10800,"station_id":"ce4bhsp2rcd13ifvqi50","pricing_plan_id":"cebpf4jnsgd1na2vs0mg"},{"bike_id":"011142b3-5821-46ad-9df8-505211a1f7f3","system_id":"levelo_inurba_marseille","lat":43.301939,"lon":5.366286,"is_reserved":false,"is_disabled":false,"rental_uris":{"android":"levelo://app?vid=011142b3-5821-46ad-9df8-505211a1f7f3","ios":"levelo://app?vid=011142b3-5821-46ad-9df8-505211a1f7f3"},"vehicle_type_id":"4","last_reported":1709057361,"current_range_meters":4800,"station_id":"ce4bgrh2rcd13ifvqc8g","pricing_plan_id":"cebpf4jnsgd1na2vs0mg"},{"bike_id":"7fbcbd6b-948e-4786-b866-03a9c9ae2b26","system_id":"levelo_inurba_marseille","lat":43.308012,"lon":5.381511,"is_reserved":false,"is_disabled":false,"rental_uris":{"android":"levelo://app?vid=7fbcbd6b-948e-4786-b866-03a9c9ae2b26","ios":"levelo://app?vid=7fbcbd6b-948e-4786-b866-03a9c9ae2b26"},"vehicle_type_id":"4","last_reported":1709057361,"current_range_meters":10800,"station_id":"ce4bgt12rcd13ifvqce0","pricing_plan_id":"cebpf4jnsgd1na2vs0mg"},{"bike_id":"eea4158e-6504-4745-94b2-cff7e545a1d8","system_id":"levelo_inurba_marseille","lat":43.308012,"lon":5.381511,"is_reserved":false,"is_disabled":false,"rental_uris":{"android":"levelo://app?vid=eea4158e-6504-4745-94b2-cff7e545a1d8","ios":"levelo://app?vid=eea4158e-6504-4745-94b2-cff7e545a1d8"},"vehicle_type_id":"4","last_reported":1709057361,"current_range_meters":8400,"station_id":"ce4bgt12rcd13ifvqce0","pricing_plan_id":"cebpf4jnsgd1na2vs0mg"},{"bike_id":"28906e2c-8127-409f-a721-05ecc384713f","system_id":"levelo_inurba_marseille","lat":43.308012,"lon":5.381511,"is_reserved":false,"is_disabled":false,"rental_uris":{"android":"levelo://app?vid=28906e2c-8127-409f-a721-05ecc384713f","ios":"levelo://app?vid=28906e2c-8127-409f-a721-05ecc384713f"},"vehicle_type_id":"4","last_reported":1709057361,"current_range_meters":13200,"station_id":"ce4bgt12rcd13ifvqce0","pricing_plan_id":"cebpf4jnsgd1na2vs0mg"},{"bike_id":"f027d9f9-bb50-4270-94b2-a2436aecd0af","system_id":"levelo_inurba_marseille","lat":43.308012,"lon":5.381511,"is_reserved":false,"is_disabled":false,"rental_uris":{"android":"levelo://app?vid=f027d9f9-bb50-4270-94b2-a2436aecd0af","ios":"levelo://app?vid=f027d9f9-bb50-4270-94b2-a2436aecd0af"},"vehicle_type_id":"4","last_reported":1709057361,"current_range_meters":21600,"station_id":"ce4bgt12rcd13ifvqce0","pricing_plan_id":"cebpf4jnsgd1na2vs0mg"},{"bike_id":"6cc11d7a-97b4-4709-b4b9-5521fcc08136","system_id":"levelo_inurba_marseille","lat":43.308012,"lon":5.381511,"is_reserved":false,"is_disabled":false,"rental_uris":{"android":"levelo://app?vid=6cc11d7a-97b4-4709-b4b9-5521fcc08136","ios":"levelo://app?vid=6cc11d7a-97b4-4709-b4b9-5521fcc08136"},"vehicle_type_id":"4","last_reported":1709057361,"current_range_meters":9600,"station_id":"ce4bgt12rcd13ifvqce0","pricing_plan_id":"cebpf4jnsgd1na2vs0mg"},{"bike_id":"fc811897-30d2-4e04-bc76-8d972202c7e4","system_id":"levelo_inurba_marseille","lat":43.308012,"lon":5.381511,"is_reserved":false,"is_disabled":false,"rental_uris":{"android":"levelo://app?vid=fc811897-30d2-4e04-bc76-8d972202c7e4","ios":"levelo://app?vid=fc811897-30d2-4e04-bc76-8d972202c7e4"},"vehicle_type_id":"4","last_reported":1709057361,"current_range_meters":17200,"station_id":"ce4bgt12rcd13ifvqce0","pricing_plan_id":"cebpf4jnsgd1na2vs0mg"},{"bike_id":"47b9890f-6fca-4cb7-81d5-4324c3ed62c4","system_id":"levelo_inurba_marseille","lat":43.30459,"lon":5.37904,"is_reserved":false,"is_disabled":false,"rental_uris":{"android":"levelo://app?vid=47b9890f-6fca-4cb7-81d5-4324c3ed62c4","ios":"levelo://app?vid=47b9890f-6fca-4cb7-81d5-4324c3ed62c4"},"vehicle_type_id":"4","last_reported":1709057361,"current_range_meters":0,"station_id":"ce4bgup2rcd13ifvqcn0","pricing_plan_id":"cebpf4jnsgd1na2vs0mg"},{"bike_id":"5a269137-364d-491b-844c-135942edaef3","system_id":"levelo_inurba_marseille","lat":43.324814,"lon":5.365801,"is_reserved":false,"is_disabled":false,"rental_uris":{"android":"levelo://app?vid=5a269137-364d-491b-844c-135942edaef3","ios":"levelo://app?vid=5a269137-364d-491b-844c-135942edaef3"},"vehicle_type_id":"4","last_reported":1709057361,"current_range_meters":19200,"station_id":"ce4bhs12rcd13ifvqhvg","pricing_plan_id":"cebpf4jnsgd1na2vs0mg"},{"bike_id":"bd87fb86-09f7-4996-8cfe-38c4939c1227","system_id":"levelo_inurba_marseille","lat":43.324771,"lon":5.36557,"is_reserved":false,"is_disabled":false,"rental_uris":{"android":"levelo://app?vid=bd87fb86-09f7-4996-8cfe-38c4939c1227","ios":"levelo://app?vid=bd87fb86-09f7-4996-8cfe-38c4939c1227"},"vehicle_type_id":"4","last_reported":1709057361,"current_range_meters":1600,"station_id":"ce4bhs12rcd13ifvqhvg","pricing_plan_id":"cebpf4jnsgd1na2vs0mg"},{"bike_id":"ef7f4f67-6b73-4494-a22b-eaab9f489ade","system_id":"levelo_inurba_marseille","lat":43.324771,"lon":5.36557,"is_reserved":false,"is_disabled":false,"rental_uris":{"android":"levelo://app?vid=ef7f4f67-6b73-4494-a22b-eaab9f489ade","ios":"levelo://app?vid=ef7f4f67-6b73-4494-a22b-eaab9f489ade"},"vehicle_type_id":"4","last_reported":1709057361,"current_range_meters":0,"station_id":"ce4bhs12rcd13ifvqhvg","pricing_plan_id":"cebpf4jnsgd1na2vs0mg"},{"bike_id":"f1562a8d-1584-4cb1-b86e-05608153b917","system_id":"levelo_inurba_marseille","lat":43.324771,"lon":5.36557,"is_reserved":false,"is_disabled":false,"rental_uris":{"android":"levelo://app?vid=f1562a8d-1584-4cb1-b86e-05608153b917","ios":"levelo://app?vid=f1562a8d-1584-4cb1-b86e-05608153b917"},"vehicle_type_id":"4","last_reported":1709057361,"current_range_meters":7200,"station_id":"ce4bhs12rcd13ifvqhvg","pricing_plan_id":"cebpf4jnsgd1na2vs0mg"},{"bike_id":"d4d834cb-bfe8-4b91-b3c2-bdee23204b38","system_id":"levelo_inurba_marseille","lat":43.310804,"lon":5.38359,"is_reserved":false,"is_disabled":false,"rental_uris":{"android":"levelo://app?vid=d4d834cb-bfe8-4b91-b3c2-bdee23204b38","ios":"levelo://app?vid=d4d834cb-bfe8-4b91-b3c2-bdee23204b38"},"vehicle_type_id":"4","last_reported":1709057361,"current_range_meters":12800,"station_id":"ce4bgv92rcd13ifvqcr0","pricing_plan_id":"cebpf4jnsgd1na2vs0mg"},{"bike_id":"092dfea7-1d3e-43f2-98a9-fb113f43e63d","system_id":"levelo_inurba_marseille","lat":43.301429,"lon":5.37413,"is_reserved":false,"is_disabled":false,"rental_uris":{"android":"levelo://app?vid=092dfea7-1d3e-43f2-98a9-fb113f43e63d","ios":"levelo://app?vid=092dfea7-1d3e-43f2-98a9-fb113f43e63d"},"vehicle_type_id":"4","last_reported":1709057361,"current_range_meters":26000,"station_id":"ce4bgs92rcd13ifvqcc0","pricing_plan_id":"cebpf4jnsgd1na2vs0mg"},{"bike_id":"de28d86e-53a4-47dd-b181-f50c924ca319","system_id":"levelo_inurba_marseille","lat":43.31987,"lon":5.381395,"is_reserved":false,"is_disabled":false,"rental_uris":{"android":"levelo://app?vid=de28d86e-53a4-47dd-b181-f50c924ca319","ios":"levelo://app?vid=de28d86e-53a4-47dd-b181-f50c924ca319"},"vehicle_type_id":"4","last_reported":1709057361,"current_range_meters":3600,"station_id":"ce4bhr12rcd13ifvqhpg","pricing_plan_id":"cebpf4jnsgd1na2vs0mg"},{"bike_id":"0070727f-ec51-40ec-a1c9-bb4ef374b799","system_id":"levelo_inurba_marseille","lat":43.31998,"lon":5.38149,"is_reserved":false,"is_disabled":false,"rental_uris":{"android":"levelo://app?vid=0070727f-ec51-40ec-a1c9-bb4ef374b799","ios":"levelo://app?vid=0070727f-ec51-40ec-a1c9-bb4ef374b799"},"vehicle_type_id":"4","last_reported":1709057361,"current_range_meters":25200,"station_id":"ce4bhr12rcd13ifvqhpg","pricing_plan_id":"cebpf4jnsgd1na2vs0mg"},{"bike_id":"51ab80dd-e9f4-4f9e-ba41-aaeea32bbb91","system_id":"levelo_inurba_marseille","lat":43.31994,"lon":5.3816,"is_reserved":false,"is_disabled":false,"rental_uris":{"android":"levelo://app?vid=51ab80dd-e9f4-4f9e-ba41-aaeea32bbb91","ios":"levelo://app?vid=51ab80dd-e9f4-4f9e-ba41-aaeea32bbb91"},"vehicle_type_id":"4","last_reported":1709057361,"current_range_meters":18000,"station_id":"ce4bhr12rcd13ifvqhpg","pricing_plan_id":"cebpf4jnsgd1na2vs0mg"},{"bike_id":"c781e1c6-03f0-4cd3-b747-4f7edc6a398d","system_id":"levelo_inurba_marseille","lat":43.301429,"lon":5.37413,"is_reserved":false,"is_disabled":false,"rental_uris":{"android":"levelo://app?vid=c781e1c6-03f0-4cd3-b747-4f7edc6a398d","ios":"levelo://app?vid=c781e1c6-03f0-4cd3-b747-4f7edc6a398d"},"vehicle_type_id":"4","last_reported":1709057361,"current_range_meters":3600,"station_id":"ce4bgs92rcd13ifvqcc0","pricing_plan_id":"cebpf4jnsgd1na2vs0mg"},{"bike_id":"15652546-d4cd-461e-9980-a59d02af133f","system_id":"levelo_inurba_marseille","lat":43.313571,"lon":5.384829,"is_reserved":false,"is_disabled":false,"rental_uris":{"android":"levelo://app?vid=15652546-d4cd-461e-9980-a59d02af133f","ios":"levelo://app?vid=15652546-d4cd-461e-9980-a59d02af133f"},"vehicle_type_id":"4","last_reported":1709057361,"current_range_meters":12800,"station_id":"ce4bgt92rcd13ifvqcf0","pricing_plan_id":"cebpf4jnsgd1na2vs0mg"},{"bike_id":"120c7d59-212e-442a-b583-f6fcd0b9fe9f","system_id":"levelo_inurba_marseille","lat":43.313571,"lon":5.384829,"is_reserved":false,"is_disabled":false,"rental_uris":{"android":"levelo://app?vid=120c7d59-212e-442a-b583-f6fcd0b9fe9f","ios":"levelo://app?vid=120c7d59-212e-442a-b583-f6fcd0b9fe9f"},"vehicle_type_id":"4","last_reported":1709057361,"current_range_meters":11200,"station_id":"ce4bgt92rcd13ifvqcf0","pricing_plan_id":"cebpf4jnsgd1na2vs0mg"},{"bike_id":"ba08cc64-5db8-4bf7-a12f-5d75272b3d3c","system_id":"levelo_inurba_marseille","lat":43.299724,"lon":5.371829,"is_reserved":false,"is_disabled":false,"rental_uris":{"android":"levelo://app?vid=ba08cc64-5db8-4bf7-a12f-5d75272b3d3c","ios":"levelo://app?vid=ba08cc64-5db8-4bf7-a12f-5d75272b3d3c"},"vehicle_type_id":"4","last_reported":1709057361,"current_range_meters":21200,"station_id":"ce4bgr92rcd13ifvqc7g","pricing_plan_id":"cebpf4jnsgd1na2vs0mg"},{"bike_id":"f9ef5e19-33e0-42b2-b9ef-f09db65ed444","system_id":"levelo_inurba_marseille","lat":43.299724,"lon":5.371829,"is_reserved":false,"is_disabled":false,"rental_uris":{"android":"levelo://app?vid=f9ef5e19-33e0-42b2-b9ef-f09db65ed444","ios":"levelo://app?vid=f9ef5e19-33e0-42b2-b9ef-f09db65ed444"},"vehicle_type_id":"4","last_reported":1709057361,"current_range_meters":8800,"station_id":"ce4bgr92rcd13ifvqc7g","pricing_plan_id":"cebpf4jnsgd1na2vs0mg"},{"bike_id":"55204a3c-3222-4664-ba5e-b86ccb46060c","system_id":"levelo_inurba_marseille","lat":43.298433,"lon":5.362774,"is_reserved":false,"is_disabled":false,"rental_uris":{"android":"levelo://app?vid=55204a3c-3222-4664-ba5e-b86ccb46060c","ios":"levelo://app?vid=55204a3c-3222-4664-ba5e-b86ccb46060c"},"vehicle_type_id":"4","last_reported":1709057361,"current_range_meters":4800,"station_id":"ce4bgpp2rcd13ifvqc3g","pricing_plan_id":"cebpf4jnsgd1na2vs0mg"},{"bike_id":"ee93a5e5-e0ef-4120-8868-9e72540c1754","system_id":"levelo_inurba_marseille","lat":43.29852,"lon":5.36285,"is_reserved":false,"is_disabled":false,"rental_uris":{"android":"levelo://app?vid=ee93a5e5-e0ef-4120-8868-9e72540c1754","ios":"levelo://app?vid=ee93a5e5-e0ef-4120-8868-9e72540c1754"},"vehicle_type_id":"4","last_reported":1709057361,"current_range_meters":27200,"station_id":"ce4bgpp2rcd13ifvqc3g","pricing_plan_id":"cebpf4jnsgd1na2vs0mg"},{"bike_id":"26695355-d626-4f49-9023-4536a1b4dbbf","system_id":"levelo_inurba_marseille","lat":43.2985,"lon":5.36281,"is_reserved":false,"is_disabled":false,"rental_uris":{"android":"levelo://app?vid=26695355-d626-4f49-9023-4536a1b4dbbf","ios":"levelo://app?vid=26695355-d626-4f49-9023-4536a1b4dbbf"},"vehicle_type_id":"4","last_reported":1709057361,"current_range_meters":28400,"station_id":"ce4bgpp2rcd13ifvqc3g","pricing_plan_id":"cebpf4jnsgd1na2vs0mg"},{"bike_id":"6096b777-9ae2-4157-b91a-72d328e6e302","system_id":"levelo_inurba_marseille","lat":43.298433,"lon":5.362774,"is_reserved":false,"is_disabled":false,"rental_uris":{"android":"levelo://app?vid=6096b777-9ae2-4157-b91a-72d328e6e302","ios":"levelo://app?vid=6096b777-9ae2-4157-b91a-72d328e6e302"},"vehicle_type_id":"4","last_reported":1709057361,"current_range_meters":800,"station_id":"ce4bgpp2rcd13ifvqc3g","pricing_plan_id":"cebpf4jnsgd1na2vs0mg"},{"bike_id":"3d5bc3e8-a445-45cd-9420-a2971c1429b0","system_id":"levelo_inurba_marseille","lat":43.29849,"lon":5.36283,"is_reserved":false,"is_disabled":false,"rental_uris":{"android":"levelo://app?vid=3d5bc3e8-a445-45cd-9420-a2971c1429b0","ios":"levelo://app?vid=3d5bc3e8-a445-45cd-9420-a2971c1429b0"},"vehicle_type_id":"4","last_reported":1709057361,"current_range_meters":22800,"station_id":"ce4bgpp2rcd13ifvqc3g","pricing_plan_id":"cebpf4jnsgd1na2vs0mg"},{"bike_id":"39dbd156-4091-40fd-821c-48e845a64abd","system_id":"levelo_inurba_marseille","lat":43.298433,"lon":5.362774,"is_reserved":false,"is_disabled":false,"rental_uris":{"android":"levelo://app?vid=39dbd156-4091-40fd-821c-48e845a64abd","ios":"levelo://app?vid=39dbd156-4091-40fd-821c-48e845a64abd"},"vehicle_type_id":"4","last_reported":1709057361,"current_range_meters":31200,"station_id":"ce4bgpp2rcd13ifvqc3g","pricing_plan_id":"cebpf4jnsgd1na2vs0mg"},{"bike_id":"8a489641-8d6a-4980-8e08-f689450038bf","system_id":"levelo_inurba_marseille","lat":43.298433,"lon":5.362774,"is_reserved":false,"is_disabled":false,"rental_uris":{"android":"levelo://app?vid=8a489641-8d6a-4980-8e08-f689450038bf","ios":"levelo://app?vid=8a489641-8d6a-4980-8e08-f689450038bf"},"vehicle_type_id":"4","last_reported":1709057361,"current_range_meters":27200,"station_id":"ce4bgpp2rcd13ifvqc3g","pricing_plan_id":"cebpf4jnsgd1na2vs0mg"},{"bike_id":"8d43916d-ac5a-4afd-bcfc-90f5da339dab","system_id":"levelo_inurba_marseille","lat":43.298433,"lon":5.362774,"is_reserved":false,"is_disabled":false,"rental_uris":{"android":"levelo://app?vid=8d43916d-ac5a-4afd-bcfc-90f5da339dab","ios":"levelo://app?vid=8d43916d-ac5a-4afd-bcfc-90f5da339dab"},"vehicle_type_id":"4","last_reported":1709057361,"current_range_meters":31200,"station_id":"ce4bgpp2rcd13ifvqc3g","pricing_plan_id":"cebpf4jnsgd1na2vs0mg"},{"bike_id":"4bfee383-34b8-4c9f-9ffe-73ff07eee388","system_id":"levelo_inurba_marseille","lat":43.298433,"lon":5.362774,"is_reserved":false,"is_disabled":false,"rental_uris":{"android":"levelo://app?vid=4bfee383-34b8-4c9f-9ffe-73ff07eee388","ios":"levelo://app?vid=4bfee383-34b8-4c9f-9ffe-73ff07eee388"},"vehicle_type_id":"4","last_reported":1709057361,"current_range_meters":30800,"station_id":"ce4bgpp2rcd13ifvqc3g","pricing_plan_id":"cebpf4jnsgd1na2vs0mg"},{"bike_id":"f876d894-c9ed-4905-8d06-d54f11223930","system_id":"levelo_inurba_marseille","lat":43.298433,"lon":5.362774,"is_reserved":false,"is_disabled":false,"rental_uris":{"android":"levelo://app?vid=f876d894-c9ed-4905-8d06-d54f11223930","ios":"levelo://app?vid=f876d894-c9ed-4905-8d06-d54f11223930"},"vehicle_type_id":"4","last_reported":1709057361,"current_range_meters":31200,"station_id":"ce4bgpp2rcd13ifvqc3g","pricing_plan_id":"cebpf4jnsgd1na2vs0mg"},{"bike_id":"2dfb7c06-da0b-4ad4-9ece-0f2d62a01646","system_id":"levelo_inurba_marseille","lat":43.298433,"lon":5.362774,"is_reserved":false,"is_disabled":false,"rental_uris":{"android":"levelo://app?vid=2dfb7c06-da0b-4ad4-9ece-0f2d62a01646","ios":"levelo://app?vid=2dfb7c06-da0b-4ad4-9ece-0f2d62a01646"},"vehicle_type_id":"4","last_reported":1709057361,"current_range_meters":31200,"station_id":"ce4bgpp2rcd13ifvqc3g","pricing_plan_id":"cebpf4jnsgd1na2vs0mg"},{"bike_id":"3f7b377e-811b-46db-a9ee-b0a2888fecdd","system_id":"levelo_inurba_marseille","lat":43.298433,"lon":5.362774,"is_reserved":false,"is_disabled":false,"rental_uris":{"android":"levelo://app?vid=3f7b377e-811b-46db-a9ee-b0a2888fecdd","ios":"levelo://app?vid=3f7b377e-811b-46db-a9ee-b0a2888fecdd"},"vehicle_type_id":"4","last_reported":1709057361,"current_range_meters":31200,"station_id":"ce4bgpp2rcd13ifvqc3g","pricing_plan_id":"cebpf4jnsgd1na2vs0mg"},{"bike_id":"c246d507-2693-4eee-a249-e7b487516e2d","system_id":"levelo_inurba_marseille","lat":43.298433,"lon":5.362774,"is_reserved":false,"is_disabled":false,"rental_uris":{"android":"levelo://app?vid=c246d507-2693-4eee-a249-e7b487516e2d","ios":"levelo://app?vid=c246d507-2693-4eee-a249-e7b487516e2d"},"vehicle_type_id":"4","last_reported":1709057361,"current_range_meters":30000,"station_id":"ce4bgpp2rcd13ifvqc3g","pricing_plan_id":"cebpf4jnsgd1na2vs0mg"},{"bike_id":"34c75bed-00f2-4701-a724-8ea66deda7d3","system_id":"levelo_inurba_marseille","lat":43.311722,"lon":5.387247,"is_reserved":false,"is_disabled":false,"rental_uris":{"android":"levelo://app?vid=34c75bed-00f2-4701-a724-8ea66deda7d3","ios":"levelo://app?vid=34c75bed-00f2-4701-a724-8ea66deda7d3"},"vehicle_type_id":"4","last_reported":1709057361,"current_range_meters":20000,"station_id":"ce4bgv12rcd13ifvqcp0","pricing_plan_id":"cebpf4jnsgd1na2vs0mg"},{"bike_id":"e60ce9a0-d50b-4409-9820-a51e6517c83b","system_id":"levelo_inurba_marseille","lat":43.311722,"lon":5.387247,"is_reserved":false,"is_disabled":false,"rental_uris":{"android":"levelo://app?vid=e60ce9a0-d50b-4409-9820-a51e6517c83b","ios":"levelo://app?vid=e60ce9a0-d50b-4409-9820-a51e6517c83b"},"vehicle_type_id":"4","last_reported":1709057361,"current_range_meters":800,"station_id":"ce4bgv12rcd13ifvqcp0","pricing_plan_id":"cebpf4jnsgd1na2vs0mg"},{"bike_id":"a8250285-10ec-4454-a1fe-17219cd1fee0","system_id":"levelo_inurba_marseille","lat":43.311722,"lon":5.387247,"is_reserved":false,"is_disabled":false,"rental_uris":{"android":"levelo://app?vid=a8250285-10ec-4454-a1fe-17219cd1fee0","ios":"levelo://app?vid=a8250285-10ec-4454-a1fe-17219cd1fee0"},"vehicle_type_id":"4","last_reported":1709057361,"current_range_meters":9200,"station_id":"ce4bgv12rcd13ifvqcp0","pricing_plan_id":"cebpf4jnsgd1na2vs0mg"},{"bike_id":"0da66872-e45b-4c47-bf1c-cfa4dd07b2d3","system_id":"levelo_inurba_marseille","lat":43.29784,"lon":5.37093,"is_reserved":false,"is_disabled":false,"rental_uris":{"android":"levelo://app?vid=0da66872-e45b-4c47-bf1c-cfa4dd07b2d3","ios":"levelo://app?vid=0da66872-e45b-4c47-bf1c-cfa4dd07b2d3"},"vehicle_type_id":"4","last_reported":1709057361,"current_range_meters":16800,"station_id":"","pricing_plan_id":"cebpf4jnsgd1na2vs0mg"},{"bike_id":"5754f9ee-6068-450a-a72e-03c046263540","system_id":"levelo_inurba_marseille","lat":43.322872,"lon":5.382756,"is_reserved":false,"is_disabled":false,"rental_uris":{"android":"levelo://app?vid=5754f9ee-6068-450a-a72e-03c046263540","ios":"levelo://app?vid=5754f9ee-6068-450a-a72e-03c046263540"},"vehicle_type_id":"4","last_reported":1709057361,"current_range_meters":25200,"station_id":"ce4bhr12rcd13ifvqhqg","pricing_plan_id":"cebpf4jnsgd1na2vs0mg"},{"bike_id":"90cb606e-2bcc-405a-b983-ab97e68ac212","system_id":"levelo_inurba_marseille","lat":43.322872,"lon":5.382756,"is_reserved":false,"is_disabled":false,"rental_uris":{"android":"levelo://app?vid=90cb606e-2bcc-405a-b983-ab97e68ac212","ios":"levelo://app?vid=90cb606e-2bcc-405a-b983-ab97e68ac212"},"vehicle_type_id":"4","last_reported":1709057361,"current_range_meters":25600,"station_id":"ce4bhr12rcd13ifvqhqg","pricing_plan_id":"cebpf4jnsgd1na2vs0mg"},{"bike_id":"7b50657a-e14f-43d2-85e9-9df507f6383d","system_id":"levelo_inurba_marseille","lat":43.297794,"lon":5.370888,"is_reserved":false,"is_disabled":false,"rental_uris":{"android":"levelo://app?vid=7b50657a-e14f-43d2-85e9-9df507f6383d","ios":"levelo://app?vid=7b50657a-e14f-43d2-85e9-9df507f6383d"},"vehicle_type_id":"4","last_reported":1709057361,"current_range_meters":15600,"station_id":"ce4bgop2rcd13ifvqc1g","pricing_plan_id":"cebpf4jnsgd1na2vs0mg"},{"bike_id":"da647477-f52e-4f0d-85a7-4f6bd99630f9","system_id":"levelo_inurba_marseille","lat":43.32287,"lon":5.38271,"is_reserved":false,"is_disabled":false,"rental_uris":{"android":"levelo://app?vid=da647477-f52e-4f0d-85a7-4f6bd99630f9","ios":"levelo://app?vid=da647477-f52e-4f0d-85a7-4f6bd99630f9"},"vehicle_type_id":"4","last_reported":1709057361,"current_range_meters":14400,"station_id":"ce4bhr12rcd13ifvqhqg","pricing_plan_id":"cebpf4jnsgd1na2vs0mg"},{"bike_id":"49e74b8f-1b1a-4229-8d8a-ec9d0bb4dc00","system_id":"levelo_inurba_marseille","lat":43.322872,"lon":5.382756,"is_reserved":false,"is_disabled":false,"rental_uris":{"android":"levelo://app?vid=49e74b8f-1b1a-4229-8d8a-ec9d0bb4dc00","ios":"levelo://app?vid=49e74b8f-1b1a-4229-8d8a-ec9d0bb4dc00"},"vehicle_type_id":"4","last_reported":1709057361,"current_range_meters":31600,"station_id":"ce4bhr12rcd13ifvqhqg","pricing_plan_id":"cebpf4jnsgd1na2vs0mg"},{"bike_id":"456efc1e-87c1-4573-9be0-31b60197d1d4","system_id":"levelo_inurba_marseille","lat":43.322893,"lon":5.382743,"is_reserved":false,"is_disabled":false,"rental_uris":{"android":"levelo://app?vid=456efc1e-87c1-4573-9be0-31b60197d1d4","ios":"levelo://app?vid=456efc1e-87c1-4573-9be0-31b60197d1d4"},"vehicle_type_id":"4","last_reported":1709057361,"current_range_meters":21600,"station_id":"ce4bhr12rcd13ifvqhqg","pricing_plan_id":"cebpf4jnsgd1na2vs0mg"},{"bike_id":"24d6adb2-b318-4e20-a492-078f398ce1e8","system_id":"levelo_inurba_marseille","lat":43.297794,"lon":5.370888,"is_reserved":false,"is_disabled":false,"rental_uris":{"android":"levelo://app?vid=24d6adb2-b318-4e20-a492-078f398ce1e8","ios":"levelo://app?vid=24d6adb2-b318-4e20-a492-078f398ce1e8"},"vehicle_type_id":"4","last_reported":1709057361,"current_range_meters":7600,"station_id":"ce4bgop2rcd13ifvqc1g","pricing_plan_id":"cebpf4jnsgd1na2vs0mg"},{"bike_id":"3d04b062-e21b-411d-9025-850421b8225e","system_id":"levelo_inurba_marseille","lat":43.297163,"lon":5.365866,"is_reserved":false,"is_disabled":false,"rental_uris":{"android":"levelo://app?vid=3d04b062-e21b-411d-9025-850421b8225e","ios":"levelo://app?vid=3d04b062-e21b-411d-9025-850421b8225e"},"vehicle_type_id":"4","last_reported":1709057361,"current_range_meters":3200,"station_id":"ce4bgn12rcd13ifvqbt0","pricing_plan_id":"cebpf4jnsgd1na2vs0mg"},{"bike_id":"0906b02c-bad7-4f73-ac8e-ec686516807e","system_id":"levelo_inurba_marseille","lat":43.297163,"lon":5.365866,"is_reserved":false,"is_disabled":false,"rental_uris":{"android":"levelo://app?vid=0906b02c-bad7-4f73-ac8e-ec686516807e","ios":"levelo://app?vid=0906b02c-bad7-4f73-ac8e-ec686516807e"},"vehicle_type_id":"4","last_reported":1709057361,"current_range_meters":24800,"station_id":"ce4bgn12rcd13ifvqbt0","pricing_plan_id":"cebpf4jnsgd1na2vs0mg"},{"bike_id":"75151689-63a1-47b1-bc1d-ae28b68d1644","system_id":"levelo_inurba_marseille","lat":43.297163,"lon":5.365866,"is_reserved":false,"is_disabled":false,"rental_uris":{"android":"levelo://app?vid=75151689-63a1-47b1-bc1d-ae28b68d1644","ios":"levelo://app?vid=75151689-63a1-47b1-bc1d-ae28b68d1644"},"vehicle_type_id":"4","last_reported":1709057361,"current_range_meters":17200,"station_id":"ce4bgn12rcd13ifvqbt0","pricing_plan_id":"cebpf4jnsgd1na2vs0mg"},{"bike_id":"4f193a2c-f74a-4fba-bbcf-2c95d01039a0","system_id":"levelo_inurba_marseille","lat":43.297163,"lon":5.365866,"is_reserved":false,"is_disabled":false,"rental_uris":{"android":"levelo://app?vid=4f193a2c-f74a-4fba-bbcf-2c95d01039a0","ios":"levelo://app?vid=4f193a2c-f74a-4fba-bbcf-2c95d01039a0"},"vehicle_type_id":"4","last_reported":1709057361,"current_range_meters":10400,"station_id":"ce4bgn12rcd13ifvqbt0","pricing_plan_id":"cebpf4jnsgd1na2vs0mg"},{"bike_id":"2071638d-2756-4007-b260-1fa924e01c2c","system_id":"levelo_inurba_marseille","lat":43.297163,"lon":5.365866,"is_reserved":false,"is_disabled":false,"rental_uris":{"android":"levelo://app?vid=2071638d-2756-4007-b260-1fa924e01c2c","ios":"levelo://app?vid=2071638d-2756-4007-b260-1fa924e01c2c"},"vehicle_type_id":"4","last_reported":1709057361,"current_range_meters":30000,"station_id":"ce4bgn12rcd13ifvqbt0","pricing_plan_id":"cebpf4jnsgd1na2vs0mg"},{"bike_id":"e22a609c-2fe8-4adb-911f-37d7b64850e6","system_id":"levelo_inurba_marseille","lat":43.297163,"lon":5.365866,"is_reserved":false,"is_disabled":false,"rental_uris":{"android":"levelo://app?vid=e22a609c-2fe8-4adb-911f-37d7b64850e6","ios":"levelo://app?vid=e22a609c-2fe8-4adb-911f-37d7b64850e6"},"vehicle_type_id":"4","last_reported":1709057361,"current_range_meters":11200,"station_id":"ce4bgn12rcd13ifvqbt0","pricing_plan_id":"cebpf4jnsgd1na2vs0mg"},{"bike_id":"765c7048-1358-419f-a73c-7d6f4fae0076","system_id":"levelo_inurba_marseille","lat":43.297794,"lon":5.370888,"is_reserved":false,"is_disabled":false,"rental_uris":{"android":"levelo://app?vid=765c7048-1358-419f-a73c-7d6f4fae0076","ios":"levelo://app?vid=765c7048-1358-419f-a73c-7d6f4fae0076"},"vehicle_type_id":"4","last_reported":1709057361,"current_range_meters":16800,"station_id":"ce4bgop2rcd13ifvqc1g","pricing_plan_id":"cebpf4jnsgd1na2vs0mg"},{"bike_id":"123ee974-5555-40a0-b529-980e5b84f332","system_id":"levelo_inurba_marseille","lat":43.2968,"lon":5.37291,"is_reserved":false,"is_disabled":false,"rental_uris":{"android":"levelo://app?vid=123ee974-5555-40a0-b529-980e5b84f332","ios":"levelo://app?vid=123ee974-5555-40a0-b529-980e5b84f332"},"vehicle_type_id":"4","last_reported":1709057361,"current_range_meters":13600,"station_id":"ce4bgk12rcd13ifvqbj0","pricing_plan_id":"cebpf4jnsgd1na2vs0mg"},{"bike_id":"6a7b141f-b9b4-4026-afa2-f60c30a19102","system_id":"levelo_inurba_marseille","lat":43.3283,"lon":5.3751,"is_reserved":false,"is_disabled":false,"rental_uris":{"android":"levelo://app?vid=6a7b141f-b9b4-4026-afa2-f60c30a19102","ios":"levelo://app?vid=6a7b141f-b9b4-4026-afa2-f60c30a19102"},"vehicle_type_id":"4","last_reported":1709057361,"current_range_meters":20400,"station_id":"","pricing_plan_id":"cebpf4jnsgd1na2vs0mg"},{"bike_id":"22d4e15f-9a93-4611-bfc2-2361012fbd76","system_id":"levelo_inurba_marseille","lat":43.2968,"lon":5.37291,"is_reserved":false,"is_disabled":false,"rental_uris":{"android":"levelo://app?vid=22d4e15f-9a93-4611-bfc2-2361012fbd76","ios":"levelo://app?vid=22d4e15f-9a93-4611-bfc2-2361012fbd76"},"vehicle_type_id":"4","last_reported":1709057361,"current_range_meters":19200,"station_id":"ce4bgk12rcd13ifvqbj0","pricing_plan_id":"cebpf4jnsgd1na2vs0mg"},{"bike_id":"66d557d3-9005-48bf-ad68-8d2331b2e762","system_id":"levelo_inurba_marseille","lat":43.296131,"lon":5.370791,"is_reserved":false,"is_disabled":false,"rental_uris":{"android":"levelo://app?vid=66d557d3-9005-48bf-ad68-8d2331b2e762","ios":"levelo://app?vid=66d557d3-9005-48bf-ad68-8d2331b2e762"},"vehicle_type_id":"4","last_reported":1709057361,"current_range_meters":31600,"station_id":"ce4bgnh2rcd13ifvqc0g","pricing_plan_id":"cebpf4jnsgd1na2vs0mg"},{"bike_id":"71890088-674b-46ae-85d4-679bf2c74e73","system_id":"levelo_inurba_marseille","lat":43.296129,"lon":5.370777,"is_reserved":false,"is_disabled":false,"rental_uris":{"android":"levelo://app?vid=71890088-674b-46ae-85d4-679bf2c74e73","ios":"levelo://app?vid=71890088-674b-46ae-85d4-679bf2c74e73"},"vehicle_type_id":"4","last_reported":1709057361,"current_range_meters":12000,"station_id":"ce4bgnh2rcd13ifvqc0g","pricing_plan_id":"cebpf4jnsgd1na2vs0mg"},{"bike_id":"b5e699c1-d52a-429a-95db-89053e965f00","system_id":"levelo_inurba_marseille","lat":43.296131,"lon":5.370773,"is_reserved":false,"is_disabled":false,"rental_uris":{"android":"levelo://app?vid=b5e699c1-d52a-429a-95db-89053e965f00","ios":"levelo://app?vid=b5e699c1-d52a-429a-95db-89053e965f00"},"vehicle_type_id":"4","last_reported":1709057361,"current_range_meters":22400,"station_id":"ce4bgnh2rcd13ifvqc0g","pricing_plan_id":"cebpf4jnsgd1na2vs0mg"},{"bike_id":"734fbd0c-d3c8-4f66-9155-987adf9b7082","system_id":"levelo_inurba_marseille","lat":43.296131,"lon":5.370791,"is_reserved":false,"is_disabled":false,"rental_uris":{"android":"levelo://app?vid=734fbd0c-d3c8-4f66-9155-987adf9b7082","ios":"levelo://app?vid=734fbd0c-d3c8-4f66-9155-987adf9b7082"},"vehicle_type_id":"4","last_reported":1709057361,"current_range_meters":24800,"station_id":"ce4bgnh2rcd13ifvqc0g","pricing_plan_id":"cebpf4jnsgd1na2vs0mg"},{"bike_id":"c739fb0d-daaa-49ca-a31a-2068d2910904","system_id":"levelo_inurba_marseille","lat":43.29588,"lon":5.36745,"is_reserved":false,"is_disabled":false,"rental_uris":{"android":"levelo://app?vid=c739fb0d-daaa-49ca-a31a-2068d2910904","ios":"levelo://app?vid=c739fb0d-daaa-49ca-a31a-2068d2910904"},"vehicle_type_id":"4","last_reported":1709057361,"current_range_meters":4400,"station_id":"ce4bgph2rcd13ifvqc2g","pricing_plan_id":"cebpf4jnsgd1na2vs0mg"},{"bike_id":"935a56b2-fac6-47a4-9868-db9ba39cafec","system_id":"levelo_inurba_marseille","lat":43.296131,"lon":5.370791,"is_reserved":false,"is_disabled":false,"rental_uris":{"android":"levelo://app?vid=935a56b2-fac6-47a4-9868-db9ba39cafec","ios":"levelo://app?vid=935a56b2-fac6-47a4-9868-db9ba39cafec"},"vehicle_type_id":"4","last_reported":1709057361,"current_range_meters":2400,"station_id":"ce4bgnh2rcd13ifvqc0g","pricing_plan_id":"cebpf4jnsgd1na2vs0mg"},{"bike_id":"338bf777-076f-4ced-aa71-1e38b48d1538","system_id":"levelo_inurba_marseille","lat":43.29573,"lon":5.367355,"is_reserved":false,"is_disabled":false,"rental_uris":{"android":"levelo://app?vid=338bf777-076f-4ced-aa71-1e38b48d1538","ios":"levelo://app?vid=338bf777-076f-4ced-aa71-1e38b48d1538"},"vehicle_type_id":"4","last_reported":1709057361,"current_range_meters":12000,"station_id":"ce4bgph2rcd13ifvqc2g","pricing_plan_id":"cebpf4jnsgd1na2vs0mg"},{"bike_id":"b8e68f67-b455-462c-98c9-ca9ca26d95aa","system_id":"levelo_inurba_marseille","lat":43.296131,"lon":5.370791,"is_reserved":false,"is_disabled":false,"rental_uris":{"android":"levelo://app?vid=b8e68f67-b455-462c-98c9-ca9ca26d95aa","ios":"levelo://app?vid=b8e68f67-b455-462c-98c9-ca9ca26d95aa"},"vehicle_type_id":"4","last_reported":1709057361,"current_range_meters":19200,"station_id":"ce4bgnh2rcd13ifvqc0g","pricing_plan_id":"cebpf4jnsgd1na2vs0mg"},{"bike_id":"1ab8b349-ba1c-4414-8dcf-d4a6c33d3e19","system_id":"levelo_inurba_marseille","lat":43.296131,"lon":5.370791,"is_reserved":false,"is_disabled":false,"rental_uris":{"android":"levelo://app?vid=1ab8b349-ba1c-4414-8dcf-d4a6c33d3e19","ios":"levelo://app?vid=1ab8b349-ba1c-4414-8dcf-d4a6c33d3e19"},"vehicle_type_id":"4","last_reported":1709057361,"current_range_meters":20000,"station_id":"ce4bgnh2rcd13ifvqc0g","pricing_plan_id":"cebpf4jnsgd1na2vs0mg"},{"bike_id":"c6e4e22e-78ee-4bfd-a6f6-ea33ab3cf3d9","system_id":"levelo_inurba_marseille","lat":43.29585,"lon":5.36742,"is_reserved":false,"is_disabled":false,"rental_uris":{"android":"levelo://app?vid=c6e4e22e-78ee-4bfd-a6f6-ea33ab3cf3d9","ios":"levelo://app?vid=c6e4e22e-78ee-4bfd-a6f6-ea33ab3cf3d9"},"vehicle_type_id":"4","last_reported":1709057361,"current_range_meters":21600,"station_id":"ce4bgph2rcd13ifvqc2g","pricing_plan_id":"cebpf4jnsgd1na2vs0mg"},{"bike_id":"f575fc91-376f-45da-bdbc-ed4b16c3ebca","system_id":"levelo_inurba_marseille","lat":43.296131,"lon":5.370791,"is_reserved":false,"is_disabled":false,"rental_uris":{"android":"levelo://app?vid=f575fc91-376f-45da-bdbc-ed4b16c3ebca","ios":"levelo://app?vid=f575fc91-376f-45da-bdbc-ed4b16c3ebca"},"vehicle_type_id":"4","last_reported":1709057361,"current_range_meters":29200,"station_id":"ce4bgnh2rcd13ifvqc0g","pricing_plan_id":"cebpf4jnsgd1na2vs0mg"},{"bike_id":"f7eca1c1-e11c-4abc-8d6d-df32dc3fe9b5","system_id":"levelo_inurba_marseille","lat":43.29582,"lon":5.36739,"is_reserved":false,"is_disabled":false,"rental_uris":{"android":"levelo://app?vid=f7eca1c1-e11c-4abc-8d6d-df32dc3fe9b5","ios":"levelo://app?vid=f7eca1c1-e11c-4abc-8d6d-df32dc3fe9b5"},"vehicle_type_id":"4","last_reported":1709057361,"current_range_meters":26000,"station_id":"ce4bgph2rcd13ifvqc2g","pricing_plan_id":"cebpf4jnsgd1na2vs0mg"},{"bike_id":"e202ff27-b25a-4829-94f1-25019a7ad2ab","system_id":"levelo_inurba_marseille","lat":43.29582,"lon":5.3674,"is_reserved":false,"is_disabled":false,"rental_uris":{"android":"levelo://app?vid=e202ff27-b25a-4829-94f1-25019a7ad2ab","ios":"levelo://app?vid=e202ff27-b25a-4829-94f1-25019a7ad2ab"},"vehicle_type_id":"4","last_reported":1709057361,"current_range_meters":28800,"station_id":"ce4bgph2rcd13ifvqc2g","pricing_plan_id":"cebpf4jnsgd1na2vs0mg"},{"bike_id":"df303bec-9c60-4831-9e73-8e634ab33c6e","system_id":"levelo_inurba_marseille","lat":43.29581,"lon":5.3674,"is_reserved":false,"is_disabled":false,"rental_uris":{"android":"levelo://app?vid=df303bec-9c60-4831-9e73-8e634ab33c6e","ios":"levelo://app?vid=df303bec-9c60-4831-9e73-8e634ab33c6e"},"vehicle_type_id":"4","last_reported":1709057361,"current_range_meters":24800,"station_id":"ce4bgph2rcd13ifvqc2g","pricing_plan_id":"cebpf4jnsgd1na2vs0mg"},{"bike_id":"7cfcd196-208e-4587-904b-4285437e6856","system_id":"levelo_inurba_marseille","lat":43.29573,"lon":5.367355,"is_reserved":false,"is_disabled":false,"rental_uris":{"android":"levelo://app?vid=7cfcd196-208e-4587-904b-4285437e6856","ios":"levelo://app?vid=7cfcd196-208e-4587-904b-4285437e6856"},"vehicle_type_id":"4","last_reported":1709057361,"current_range_meters":30000,"station_id":"ce4bgph2rcd13ifvqc2g","pricing_plan_id":"cebpf4jnsgd1na2vs0mg"},{"bike_id":"8a55bfff-65fb-4b5d-8d78-b522d2abc796","system_id":"levelo_inurba_marseille","lat":43.29573,"lon":5.367355,"is_reserved":false,"is_disabled":false,"rental_uris":{"android":"levelo://app?vid=8a55bfff-65fb-4b5d-8d78-b522d2abc796","ios":"levelo://app?vid=8a55bfff-65fb-4b5d-8d78-b522d2abc796"},"vehicle_type_id":"4","last_reported":1709057361,"current_range_meters":26800,"station_id":"ce4bgph2rcd13ifvqc2g","pricing_plan_id":"cebpf4jnsgd1na2vs0mg"},{"bike_id":"a940c761-1096-4be3-8ac2-2cd1272193e4","system_id":"levelo_inurba_marseille","lat":43.29573,"lon":5.367355,"is_reserved":false,"is_disabled":false,"rental_uris":{"android":"levelo://app?vid=a940c761-1096-4be3-8ac2-2cd1272193e4","ios":"levelo://app?vid=a940c761-1096-4be3-8ac2-2cd1272193e4"},"vehicle_type_id":"4","last_reported":1709057361,"current_range_meters":31200,"station_id":"ce4bgph2rcd13ifvqc2g","pricing_plan_id":"cebpf4jnsgd1na2vs0mg"},{"bike_id":"ca6614c7-722f-4f34-9008-f1cca8fbcb9b","system_id":"levelo_inurba_marseille","lat":43.29573,"lon":5.367355,"is_reserved":false,"is_disabled":false,"rental_uris":{"android":"levelo://app?vid=ca6614c7-722f-4f34-9008-f1cca8fbcb9b","ios":"levelo://app?vid=ca6614c7-722f-4f34-9008-f1cca8fbcb9b"},"vehicle_type_id":"4","last_reported":1709057361,"current_range_meters":20400,"station_id":"ce4bgph2rcd13ifvqc2g","pricing_plan_id":"cebpf4jnsgd1na2vs0mg"},{"bike_id":"efca769a-d025-43d2-b075-86b969ead16d","system_id":"levelo_inurba_marseille","lat":43.296131,"lon":5.370791,"is_reserved":false,"is_disabled":false,"rental_uris":{"android":"levelo://app?vid=efca769a-d025-43d2-b075-86b969ead16d","ios":"levelo://app?vid=efca769a-d025-43d2-b075-86b969ead16d"},"vehicle_type_id":"4","last_reported":1709057361,"current_range_meters":28000,"station_id":"ce4bgnh2rcd13ifvqc0g","pricing_plan_id":"cebpf4jnsgd1na2vs0mg"},{"bike_id":"891a00e1-28d9-46a9-ac28-f93e260703d2","system_id":"levelo_inurba_marseille","lat":43.29578,"lon":5.36745,"is_reserved":false,"is_disabled":false,"rental_uris":{"android":"levelo://app?vid=891a00e1-28d9-46a9-ac28-f93e260703d2","ios":"levelo://app?vid=891a00e1-28d9-46a9-ac28-f93e260703d2"},"vehicle_type_id":"4","last_reported":1709057361,"current_range_meters":4000,"station_id":"ce4bgph2rcd13ifvqc2g","pricing_plan_id":"cebpf4jnsgd1na2vs0mg"},{"bike_id":"b44b923a-b1d9-44d1-a4df-5c78a6cc0b98","system_id":"levelo_inurba_marseille","lat":43.299028,"lon":5.381509,"is_reserved":false,"is_disabled":false,"rental_uris":{"android":"levelo://app?vid=b44b923a-b1d9-44d1-a4df-5c78a6cc0b98","ios":"levelo://app?vid=b44b923a-b1d9-44d1-a4df-5c78a6cc0b98"},"vehicle_type_id":"4","last_reported":1709057361,"current_range_meters":9200,"station_id":"ce4bgj12rcd13ifvqbc0","pricing_plan_id":"cebpf4jnsgd1na2vs0mg"},{"bike_id":"5c4878fd-cc88-4a0a-9b12-75e625813627","system_id":"levelo_inurba_marseille","lat":43.299028,"lon":5.381509,"is_reserved":false,"is_disabled":false,"rental_uris":{"android":"levelo://app?vid=5c4878fd-cc88-4a0a-9b12-75e625813627","ios":"levelo://app?vid=5c4878fd-cc88-4a0a-9b12-75e625813627"},"vehicle_type_id":"4","last_reported":1709057361,"current_range_meters":24000,"station_id":"ce4bgj12rcd13ifvqbc0","pricing_plan_id":"cebpf4jnsgd1na2vs0mg"},{"bike_id":"cccd83eb-1d26-4ae8-b343-6fd8b2942019","system_id":"levelo_inurba_marseille","lat":43.299028,"lon":5.381509,"is_reserved":false,"is_disabled":false,"rental_uris":{"android":"levelo://app?vid=cccd83eb-1d26-4ae8-b343-6fd8b2942019","ios":"levelo://app?vid=cccd83eb-1d26-4ae8-b343-6fd8b2942019"},"vehicle_type_id":"4","last_reported":1709057361,"current_range_meters":19200,"station_id":"ce4bgj12rcd13ifvqbc0","pricing_plan_id":"cebpf4jnsgd1na2vs0mg"},{"bike_id":"ca1b7b91-e26c-4534-ab6f-b04654fc74f5","system_id":"levelo_inurba_marseille","lat":43.299028,"lon":5.381509,"is_reserved":false,"is_disabled":false,"rental_uris":{"android":"levelo://app?vid=ca1b7b91-e26c-4534-ab6f-b04654fc74f5","ios":"levelo://app?vid=ca1b7b91-e26c-4534-ab6f-b04654fc74f5"},"vehicle_type_id":"4","last_reported":1709057361,"current_range_meters":22000,"station_id":"ce4bgj12rcd13ifvqbc0","pricing_plan_id":"cebpf4jnsgd1na2vs0mg"},{"bike_id":"3522992e-9501-434d-97bb-6cd83329eea6","system_id":"levelo_inurba_marseille","lat":43.303002,"lon":5.392142,"is_reserved":false,"is_disabled":false,"rental_uris":{"android":"levelo://app?vid=3522992e-9501-434d-97bb-6cd83329eea6","ios":"levelo://app?vid=3522992e-9501-434d-97bb-6cd83329eea6"},"vehicle_type_id":"4","last_reported":1709057361,"current_range_meters":27600,"station_id":"ce4bgkh2rcd13ifvqbk0","pricing_plan_id":"cebpf4jnsgd1na2vs0mg"},{"bike_id":"1935be5a-99cc-4b15-ad3a-08151a1ac034","system_id":"levelo_inurba_marseille","lat":43.29885,"lon":5.38149,"is_reserved":false,"is_disabled":false,"rental_uris":{"android":"levelo://app?vid=1935be5a-99cc-4b15-ad3a-08151a1ac034","ios":"levelo://app?vid=1935be5a-99cc-4b15-ad3a-08151a1ac034"},"vehicle_type_id":"4","last_reported":1709057361,"current_range_meters":800,"station_id":"ce4bgj12rcd13ifvqbc0","pricing_plan_id":"cebpf4jnsgd1na2vs0mg"},{"bike_id":"ba06d070-1d5a-4dec-a994-66a6c43d8700","system_id":"levelo_inurba_marseille","lat":43.286593,"lon":5.363346,"is_reserved":false,"is_disabled":false,"rental_uris":{"android":"levelo://app?vid=ba06d070-1d5a-4dec-a994-66a6c43d8700","ios":"levelo://app?vid=ba06d070-1d5a-4dec-a994-66a6c43d8700"},"vehicle_type_id":"4","last_reported":1709057361,"current_range_meters":5200,"station_id":"ce4bhah2rcd13ifvqej0","pricing_plan_id":"cebpf4jnsgd1na2vs0mg"},{"bike_id":"6cc4d5a9-f827-45ec-bd3a-32f95882074d","system_id":"levelo_inurba_marseille","lat":43.29686,"lon":5.37724,"is_reserved":false,"is_disabled":false,"rental_uris":{"android":"levelo://app?vid=6cc4d5a9-f827-45ec-bd3a-32f95882074d","ios":"levelo://app?vid=6cc4d5a9-f827-45ec-bd3a-32f95882074d"},"vehicle_type_id":"4","last_reported":1709057361,"current_range_meters":1200,"station_id":"","pricing_plan_id":"cebpf4jnsgd1na2vs0mg"},{"bike_id":"9368d09c-0ef8-4bfd-b8f4-9159b92f38c9","system_id":"levelo_inurba_marseille","lat":43.317557,"lon":5.390173,"is_reserved":false,"is_disabled":false,"rental_uris":{"android":"levelo://app?vid=9368d09c-0ef8-4bfd-b8f4-9159b92f38c9","ios":"levelo://app?vid=9368d09c-0ef8-4bfd-b8f4-9159b92f38c9"},"vehicle_type_id":"4","last_reported":1709057361,"current_range_meters":5600,"station_id":"ce4bhqp2rcd13ifvqhng","pricing_plan_id":"cebpf4jnsgd1na2vs0mg"},{"bike_id":"d9f8bfdb-efcd-40a1-932e-52a13d7a5839","system_id":"levelo_inurba_marseille","lat":43.317557,"lon":5.390173,"is_reserved":false,"is_disabled":false,"rental_uris":{"android":"levelo://app?vid=d9f8bfdb-efcd-40a1-932e-52a13d7a5839","ios":"levelo://app?vid=d9f8bfdb-efcd-40a1-932e-52a13d7a5839"},"vehicle_type_id":"4","last_reported":1709057361,"current_range_meters":24800,"station_id":"ce4bhqp2rcd13ifvqhng","pricing_plan_id":"cebpf4jnsgd1na2vs0mg"},{"bike_id":"2999b4c5-9ffa-4430-8413-a6ad89cfc444","system_id":"levelo_inurba_marseille","lat":43.317557,"lon":5.390173,"is_reserved":false,"is_disabled":false,"rental_uris":{"android":"levelo://app?vid=2999b4c5-9ffa-4430-8413-a6ad89cfc444","ios":"levelo://app?vid=2999b4c5-9ffa-4430-8413-a6ad89cfc444"},"vehicle_type_id":"4","last_reported":1709057361,"current_range_meters":25200,"station_id":"ce4bhqp2rcd13ifvqhng","pricing_plan_id":"cebpf4jnsgd1na2vs0mg"},{"bike_id":"fa6f643d-4bf5-4a6f-be6e-819c8d2ee07c","system_id":"levelo_inurba_marseille","lat":43.317557,"lon":5.390173,"is_reserved":false,"is_disabled":false,"rental_uris":{"android":"levelo://app?vid=fa6f643d-4bf5-4a6f-be6e-819c8d2ee07c","ios":"levelo://app?vid=fa6f643d-4bf5-4a6f-be6e-819c8d2ee07c"},"vehicle_type_id":"4","last_reported":1709057361,"current_range_meters":21200,"station_id":"ce4bhqp2rcd13ifvqhng","pricing_plan_id":"cebpf4jnsgd1na2vs0mg"},{"bike_id":"b522c086-89bd-41f5-abe6-351fb4c69071","system_id":"levelo_inurba_marseille","lat":43.295873,"lon":5.375011,"is_reserved":false,"is_disabled":false,"rental_uris":{"android":"levelo://app?vid=b522c086-89bd-41f5-abe6-351fb4c69071","ios":"levelo://app?vid=b522c086-89bd-41f5-abe6-351fb4c69071"},"vehicle_type_id":"4","last_reported":1709057361,"current_range_meters":0,"station_id":"ce4bgh92rcd13ifvqb50","pricing_plan_id":"cebpf4jnsgd1na2vs0mg"},{"bike_id":"7806baa5-d0cb-4caf-9fc1-835ddcd11b61","system_id":"levelo_inurba_marseille","lat":43.298043,"lon":5.381039,"is_reserved":false,"is_disabled":false,"rental_uris":{"android":"levelo://app?vid=7806baa5-d0cb-4caf-9fc1-835ddcd11b61","ios":"levelo://app?vid=7806baa5-d0cb-4caf-9fc1-835ddcd11b61"},"vehicle_type_id":"4","last_reported":1709057361,"current_range_meters":20400,"station_id":"ce4bgip2rcd13ifvqbb0","pricing_plan_id":"cebpf4jnsgd1na2vs0mg"},{"bike_id":"94ea34fd-c2fe-470b-827e-314b27bd5f9b","system_id":"levelo_inurba_marseille","lat":43.298037,"lon":5.381066,"is_reserved":false,"is_disabled":false,"rental_uris":{"android":"levelo://app?vid=94ea34fd-c2fe-470b-827e-314b27bd5f9b","ios":"levelo://app?vid=94ea34fd-c2fe-470b-827e-314b27bd5f9b"},"vehicle_type_id":"4","last_reported":1709057361,"current_range_meters":9600,"station_id":"ce4bgip2rcd13ifvqbb0","pricing_plan_id":"cebpf4jnsgd1na2vs0mg"},{"bike_id":"d5b9d801-1b75-47ea-bfd6-efb1087ddae7","system_id":"levelo_inurba_marseille","lat":43.304274,"lon":5.388873,"is_reserved":false,"is_disabled":false,"rental_uris":{"android":"levelo://app?vid=d5b9d801-1b75-47ea-bfd6-efb1087ddae7","ios":"levelo://app?vid=d5b9d801-1b75-47ea-bfd6-efb1087ddae7"},"vehicle_type_id":"4","last_reported":1709057361,"current_range_meters":11600,"station_id":"ce4bgk12rcd13ifvqbi0","pricing_plan_id":"cebpf4jnsgd1na2vs0mg"},{"bike_id":"f9214f5d-50a3-4bf8-91e0-ed479fabdf37","system_id":"levelo_inurba_marseille","lat":43.296413,"lon":5.3774,"is_reserved":false,"is_disabled":false,"rental_uris":{"android":"levelo://app?vid=f9214f5d-50a3-4bf8-91e0-ed479fabdf37","ios":"levelo://app?vid=f9214f5d-50a3-4bf8-91e0-ed479fabdf37"},"vehicle_type_id":"4","last_reported":1709057361,"current_range_meters":20000,"station_id":"ce4bgi92rcd13ifvqb90","pricing_plan_id":"cebpf4jnsgd1na2vs0mg"},{"bike_id":"834dda9d-982b-44a0-afdd-e0110fd25961","system_id":"levelo_inurba_marseille","lat":43.298037,"lon":5.381066,"is_reserved":false,"is_disabled":false,"rental_uris":{"android":"levelo://app?vid=834dda9d-982b-44a0-afdd-e0110fd25961","ios":"levelo://app?vid=834dda9d-982b-44a0-afdd-e0110fd25961"},"vehicle_type_id":"4","last_reported":1709057361,"current_range_meters":23600,"station_id":"ce4bgip2rcd13ifvqbb0","pricing_plan_id":"cebpf4jnsgd1na2vs0mg"},{"bike_id":"1cf5ff11-ce66-4200-95bb-5611f2e97a1c","system_id":"levelo_inurba_marseille","lat":43.298037,"lon":5.381066,"is_reserved":false,"is_disabled":false,"rental_uris":{"android":"levelo://app?vid=1cf5ff11-ce66-4200-95bb-5611f2e97a1c","ios":"levelo://app?vid=1cf5ff11-ce66-4200-95bb-5611f2e97a1c"},"vehicle_type_id":"4","last_reported":1709057361,"current_range_meters":6800,"station_id":"ce4bgip2rcd13ifvqbb0","pricing_plan_id":"cebpf4jnsgd1na2vs0mg"},{"bike_id":"efb3190b-5629-44c9-a5d2-e632b52170ea","system_id":"levelo_inurba_marseille","lat":43.298037,"lon":5.381066,"is_reserved":false,"is_disabled":false,"rental_uris":{"android":"levelo://app?vid=efb3190b-5629-44c9-a5d2-e632b52170ea","ios":"levelo://app?vid=efb3190b-5629-44c9-a5d2-e632b52170ea"},"vehicle_type_id":"4","last_reported":1709057361,"current_range_meters":10000,"station_id":"ce4bgip2rcd13ifvqbb0","pricing_plan_id":"cebpf4jnsgd1na2vs0mg"},{"bike_id":"d24d0f43-4de8-4a29-acfd-4c0b49ccaa7c","system_id":"levelo_inurba_marseille","lat":43.298681,"lon":5.397225,"is_reserved":false,"is_disabled":false,"rental_uris":{"android":"levelo://app?vid=d24d0f43-4de8-4a29-acfd-4c0b49ccaa7c","ios":"levelo://app?vid=d24d0f43-4de8-4a29-acfd-4c0b49ccaa7c"},"vehicle_type_id":"4","last_reported":1709057361,"current_range_meters":20000,"station_id":"ce4bh0h2rcd13ifvqd50","pricing_plan_id":"cebpf4jnsgd1na2vs0mg"},{"bike_id":"745eddf1-7a43-4f10-8ec3-165614944efc","system_id":"levelo_inurba_marseille","lat":43.298037,"lon":5.381066,"is_reserved":false,"is_disabled":false,"rental_uris":{"android":"levelo://app?vid=745eddf1-7a43-4f10-8ec3-165614944efc","ios":"levelo://app?vid=745eddf1-7a43-4f10-8ec3-165614944efc"},"vehicle_type_id":"4","last_reported":1709057361,"current_range_meters":23600,"station_id":"ce4bgip2rcd13ifvqbb0","pricing_plan_id":"cebpf4jnsgd1na2vs0mg"},{"bike_id":"90213a04-4f52-4627-851e-7cc1d9139d7d","system_id":"levelo_inurba_marseille","lat":43.29524,"lon":5.37496,"is_reserved":false,"is_disabled":false,"rental_uris":{"android":"levelo://app?vid=90213a04-4f52-4627-851e-7cc1d9139d7d","ios":"levelo://app?vid=90213a04-4f52-4627-851e-7cc1d9139d7d"},"vehicle_type_id":"4","last_reported":1709057361,"current_range_meters":24800,"station_id":"ce4bgkp2rcd13ifvqbmg","pricing_plan_id":"cebpf4jnsgd1na2vs0mg"},{"bike_id":"4c08bea9-499d-4fdf-a8e8-81eb437c184c","system_id":"levelo_inurba_marseille","lat":43.299717,"lon":5.384845,"is_reserved":false,"is_disabled":false,"rental_uris":{"android":"levelo://app?vid=4c08bea9-499d-4fdf-a8e8-81eb437c184c","ios":"levelo://app?vid=4c08bea9-499d-4fdf-a8e8-81eb437c184c"},"vehicle_type_id":"4","last_reported":1709057361,"current_range_meters":0,"station_id":"ce4bgj92rcd13ifvqbd0","pricing_plan_id":"cebpf4jnsgd1na2vs0mg"},{"bike_id":"17324dd5-3e27-4155-95ba-90916f5387c5","system_id":"levelo_inurba_marseille","lat":43.29527,"lon":5.37521,"is_reserved":false,"is_disabled":false,"rental_uris":{"android":"levelo://app?vid=17324dd5-3e27-4155-95ba-90916f5387c5","ios":"levelo://app?vid=17324dd5-3e27-4155-95ba-90916f5387c5"},"vehicle_type_id":"4","last_reported":1709057361,"current_range_meters":24800,"station_id":"ce4bgkp2rcd13ifvqbmg","pricing_plan_id":"cebpf4jnsgd1na2vs0mg"},{"bike_id":"35cf4dd7-89b0-46a4-a918-7aef47395e33","system_id":"levelo_inurba_marseille","lat":43.295279,"lon":5.375048,"is_reserved":false,"is_disabled":false,"rental_uris":{"android":"levelo://app?vid=35cf4dd7-89b0-46a4-a918-7aef47395e33","ios":"levelo://app?vid=35cf4dd7-89b0-46a4-a918-7aef47395e33"},"vehicle_type_id":"4","last_reported":1709057361,"current_range_meters":6800,"station_id":"ce4bgkp2rcd13ifvqbmg","pricing_plan_id":"cebpf4jnsgd1na2vs0mg"},{"bike_id":"9dc00840-cfc2-40e5-a21e-93515814ea53","system_id":"levelo_inurba_marseille","lat":43.299707,"lon":5.384859,"is_reserved":false,"is_disabled":false,"rental_uris":{"android":"levelo://app?vid=9dc00840-cfc2-40e5-a21e-93515814ea53","ios":"levelo://app?vid=9dc00840-cfc2-40e5-a21e-93515814ea53"},"vehicle_type_id":"4","last_reported":1709057361,"current_range_meters":16400,"station_id":"ce4bgj92rcd13ifvqbd0","pricing_plan_id":"cebpf4jnsgd1na2vs0mg"},{"bike_id":"4c37ca6f-736a-41d7-afe4-4080ee88bf41","system_id":"levelo_inurba_marseille","lat":43.29529,"lon":5.385581,"is_reserved":false,"is_disabled":false,"rental_uris":{"android":"levelo://app?vid=4c37ca6f-736a-41d7-afe4-4080ee88bf41","ios":"levelo://app?vid=4c37ca6f-736a-41d7-afe4-4080ee88bf41"},"vehicle_type_id":"4","last_reported":1709057361,"current_range_meters":31200,"station_id":"ce4bgih2rcd13ifvqba0","pricing_plan_id":"cebpf4jnsgd1na2vs0mg"},{"bike_id":"8809986e-937b-4f25-a543-d56b7cc174d2","system_id":"levelo_inurba_marseille","lat":43.32364,"lon":5.38883,"is_reserved":false,"is_disabled":false,"rental_uris":{"android":"levelo://app?vid=8809986e-937b-4f25-a543-d56b7cc174d2","ios":"levelo://app?vid=8809986e-937b-4f25-a543-d56b7cc174d2"},"vehicle_type_id":"4","last_reported":1709057361,"current_range_meters":7600,"station_id":"ce4bhqp2rcd13ifvqhog","pricing_plan_id":"cebpf4jnsgd1na2vs0mg"},{"bike_id":"dc237f42-d239-4793-a774-250ec3c2261a","system_id":"levelo_inurba_marseille","lat":43.32367,"lon":5.38884,"is_reserved":false,"is_disabled":false,"rental_uris":{"android":"levelo://app?vid=dc237f42-d239-4793-a774-250ec3c2261a","ios":"levelo://app?vid=dc237f42-d239-4793-a774-250ec3c2261a"},"vehicle_type_id":"4","last_reported":1709057361,"current_range_meters":8400,"station_id":"ce4bhqp2rcd13ifvqhog","pricing_plan_id":"cebpf4jnsgd1na2vs0mg"},{"bike_id":"bc251a8f-4116-40e7-b23d-9e5e4e9c0726","system_id":"levelo_inurba_marseille","lat":43.29602,"lon":5.381084,"is_reserved":false,"is_disabled":false,"rental_uris":{"android":"levelo://app?vid=bc251a8f-4116-40e7-b23d-9e5e4e9c0726","ios":"levelo://app?vid=bc251a8f-4116-40e7-b23d-9e5e4e9c0726"},"vehicle_type_id":"4","last_reported":1709057361,"current_range_meters":5600,"station_id":"ce4bgl12rcd13ifvqbo0","pricing_plan_id":"cebpf4jnsgd1na2vs0mg"},{"bike_id":"38faa869-c6bf-4865-b650-5b6e220ba96b","system_id":"levelo_inurba_marseille","lat":43.295991,"lon":5.380918,"is_reserved":false,"is_disabled":false,"rental_uris":{"android":"levelo://app?vid=38faa869-c6bf-4865-b650-5b6e220ba96b","ios":"levelo://app?vid=38faa869-c6bf-4865-b650-5b6e220ba96b"},"vehicle_type_id":"4","last_reported":1709057361,"current_range_meters":8400,"station_id":"ce4bgl12rcd13ifvqbo0","pricing_plan_id":"cebpf4jnsgd1na2vs0mg"},{"bike_id":"9ced7871-9d22-4af2-99e4-01449e357bdd","system_id":"levelo_inurba_marseille","lat":43.29602,"lon":5.381084,"is_reserved":false,"is_disabled":false,"rental_uris":{"android":"levelo://app?vid=9ced7871-9d22-4af2-99e4-01449e357bdd","ios":"levelo://app?vid=9ced7871-9d22-4af2-99e4-01449e357bdd"},"vehicle_type_id":"4","last_reported":1709057361,"current_range_meters":13600,"station_id":"ce4bgl12rcd13ifvqbo0","pricing_plan_id":"cebpf4jnsgd1na2vs0mg"},{"bike_id":"d2116454-c4d2-4faf-937d-bb6b2767a849","system_id":"levelo_inurba_marseille","lat":43.29602,"lon":5.381084,"is_reserved":false,"is_disabled":false,"rental_uris":{"android":"levelo://app?vid=d2116454-c4d2-4faf-937d-bb6b2767a849","ios":"levelo://app?vid=d2116454-c4d2-4faf-937d-bb6b2767a849"},"vehicle_type_id":"4","last_reported":1709057361,"current_range_meters":16800,"station_id":"ce4bgl12rcd13ifvqbo0","pricing_plan_id":"cebpf4jnsgd1na2vs0mg"},{"bike_id":"a3b769a4-f0d1-4e13-a14f-cfa106c3a3d3","system_id":"levelo_inurba_marseille","lat":43.295978,"lon":5.38093,"is_reserved":false,"is_disabled":false,"rental_uris":{"android":"levelo://app?vid=a3b769a4-f0d1-4e13-a14f-cfa106c3a3d3","ios":"levelo://app?vid=a3b769a4-f0d1-4e13-a14f-cfa106c3a3d3"},"vehicle_type_id":"4","last_reported":1709057361,"current_range_meters":23200,"station_id":"ce4bgl12rcd13ifvqbo0","pricing_plan_id":"cebpf4jnsgd1na2vs0mg"},{"bike_id":"3ce9bd0f-a8c7-4b8e-af33-5698b1cb7899","system_id":"levelo_inurba_marseille","lat":43.29602,"lon":5.381084,"is_reserved":false,"is_disabled":false,"rental_uris":{"android":"levelo://app?vid=3ce9bd0f-a8c7-4b8e-af33-5698b1cb7899","ios":"levelo://app?vid=3ce9bd0f-a8c7-4b8e-af33-5698b1cb7899"},"vehicle_type_id":"4","last_reported":1709057361,"current_range_meters":26000,"station_id":"ce4bgl12rcd13ifvqbo0","pricing_plan_id":"cebpf4jnsgd1na2vs0mg"},{"bike_id":"3848836d-c880-4e15-9007-adeca2654823","system_id":"levelo_inurba_marseille","lat":43.295953,"lon":5.381019,"is_reserved":false,"is_disabled":false,"rental_uris":{"android":"levelo://app?vid=3848836d-c880-4e15-9007-adeca2654823","ios":"levelo://app?vid=3848836d-c880-4e15-9007-adeca2654823"},"vehicle_type_id":"4","last_reported":1709057361,"current_range_meters":11200,"station_id":"ce4bgl12rcd13ifvqbo0","pricing_plan_id":"cebpf4jnsgd1na2vs0mg"},{"bike_id":"1aa19167-3a17-4b59-a792-251ce3e6ab71","system_id":"levelo_inurba_marseille","lat":43.29592,"lon":5.38104,"is_reserved":false,"is_disabled":false,"rental_uris":{"android":"levelo://app?vid=1aa19167-3a17-4b59-a792-251ce3e6ab71","ios":"levelo://app?vid=1aa19167-3a17-4b59-a792-251ce3e6ab71"},"vehicle_type_id":"4","last_reported":1709057361,"current_range_meters":16400,"station_id":"ce4bgl12rcd13ifvqbo0","pricing_plan_id":"cebpf4jnsgd1na2vs0mg"},{"bike_id":"a8b86f3c-b441-45bf-a795-b48b61f604d4","system_id":"levelo_inurba_marseille","lat":43.29588,"lon":5.38105,"is_reserved":false,"is_disabled":false,"rental_uris":{"android":"levelo://app?vid=a8b86f3c-b441-45bf-a795-b48b61f604d4","ios":"levelo://app?vid=a8b86f3c-b441-45bf-a795-b48b61f604d4"},"vehicle_type_id":"4","last_reported":1709057361,"current_range_meters":23200,"station_id":"ce4bgl12rcd13ifvqbo0","pricing_plan_id":"cebpf4jnsgd1na2vs0mg"},{"bike_id":"707ea188-99d4-4abe-8b77-e01bf02c8272","system_id":"levelo_inurba_marseille","lat":43.293249,"lon":5.371578,"is_reserved":false,"is_disabled":false,"rental_uris":{"android":"levelo://app?vid=707ea188-99d4-4abe-8b77-e01bf02c8272","ios":"levelo://app?vid=707ea188-99d4-4abe-8b77-e01bf02c8272"},"vehicle_type_id":"4","last_reported":1709057361,"current_range_meters":800,"station_id":"ce4bgh92rcd13ifvqb40","pricing_plan_id":"cebpf4jnsgd1na2vs0mg"},{"bike_id":"d12d772c-96b9-46e9-b724-dc95757ad053","system_id":"levelo_inurba_marseille","lat":43.293259,"lon":5.371586,"is_reserved":false,"is_disabled":false,"rental_uris":{"android":"levelo://app?vid=d12d772c-96b9-46e9-b724-dc95757ad053","ios":"levelo://app?vid=d12d772c-96b9-46e9-b724-dc95757ad053"},"vehicle_type_id":"4","last_reported":1709057361,"current_range_meters":24800,"station_id":"ce4bgh92rcd13ifvqb40","pricing_plan_id":"cebpf4jnsgd1na2vs0mg"},{"bike_id":"e7cecff9-d7a8-4b09-81be-ebfc1a46b613","system_id":"levelo_inurba_marseille","lat":43.292749,"lon":5.368398,"is_reserved":false,"is_disabled":false,"rental_uris":{"android":"levelo://app?vid=e7cecff9-d7a8-4b09-81be-ebfc1a46b613","ios":"levelo://app?vid=e7cecff9-d7a8-4b09-81be-ebfc1a46b613"},"vehicle_type_id":"4","last_reported":1709057361,"current_range_meters":5200,"station_id":"ce4bhbp2rcd13ifvqesg","pricing_plan_id":"cebpf4jnsgd1na2vs0mg"},{"bike_id":"765f57df-63ab-4d3c-9a3b-076fb6e4c47a","system_id":"levelo_inurba_marseille","lat":43.292749,"lon":5.368398,"is_reserved":false,"is_disabled":false,"rental_uris":{"android":"levelo://app?vid=765f57df-63ab-4d3c-9a3b-076fb6e4c47a","ios":"levelo://app?vid=765f57df-63ab-4d3c-9a3b-076fb6e4c47a"},"vehicle_type_id":"4","last_reported":1709057361,"current_range_meters":4400,"station_id":"ce4bhbp2rcd13ifvqesg","pricing_plan_id":"cebpf4jnsgd1na2vs0mg"},{"bike_id":"c898abdb-05fd-462b-8ef5-24b128bcbaac","system_id":"levelo_inurba_marseille","lat":43.293009,"lon":5.374584,"is_reserved":false,"is_disabled":false,"rental_uris":{"android":"levelo://app?vid=c898abdb-05fd-462b-8ef5-24b128bcbaac","ios":"levelo://app?vid=c898abdb-05fd-462b-8ef5-24b128bcbaac"},"vehicle_type_id":"4","last_reported":1709057361,"current_range_meters":6000,"station_id":"ce4bgi12rcd13ifvqb70","pricing_plan_id":"cebpf4jnsgd1na2vs0mg"},{"bike_id":"676f1125-4fc4-4eae-8e16-e8922199ef4f","system_id":"levelo_inurba_marseille","lat":43.305994,"lon":5.393687,"is_reserved":false,"is_disabled":false,"rental_uris":{"android":"levelo://app?vid=676f1125-4fc4-4eae-8e16-e8922199ef4f","ios":"levelo://app?vid=676f1125-4fc4-4eae-8e16-e8922199ef4f"},"vehicle_type_id":"4","last_reported":1709057361,"current_range_meters":2800,"station_id":"ce4bh0p2rcd13ifvqd80","pricing_plan_id":"cebpf4jnsgd1na2vs0mg"},{"bike_id":"7f2fb1f3-b7f5-44f9-b599-2421b55aea08","system_id":"levelo_inurba_marseille","lat":43.298764,"lon":5.388973,"is_reserved":false,"is_disabled":false,"rental_uris":{"android":"levelo://app?vid=7f2fb1f3-b7f5-44f9-b599-2421b55aea08","ios":"levelo://app?vid=7f2fb1f3-b7f5-44f9-b599-2421b55aea08"},"vehicle_type_id":"4","last_reported":1709057361,"current_range_meters":5600,"station_id":"ce4bh392rcd13ifvqdl0","pricing_plan_id":"cebpf4jnsgd1na2vs0mg"},{"bike_id":"2eec93d9-54e7-46e4-9dca-47fe791dab4a","system_id":"levelo_inurba_marseille","lat":43.292314,"lon":5.360847,"is_reserved":false,"is_disabled":false,"rental_uris":{"android":"levelo://app?vid=2eec93d9-54e7-46e4-9dca-47fe791dab4a","ios":"levelo://app?vid=2eec93d9-54e7-46e4-9dca-47fe791dab4a"},"vehicle_type_id":"4","last_reported":1709057361,"current_range_meters":18800,"station_id":"","pricing_plan_id":"cebpf4jnsgd1na2vs0mg"},{"bike_id":"cc7710fe-83a8-4f30-8807-14a777e5c047","system_id":"levelo_inurba_marseille","lat":43.292311,"lon":5.360731,"is_reserved":false,"is_disabled":false,"rental_uris":{"android":"levelo://app?vid=cc7710fe-83a8-4f30-8807-14a777e5c047","ios":"levelo://app?vid=cc7710fe-83a8-4f30-8807-14a777e5c047"},"vehicle_type_id":"4","last_reported":1709057361,"current_range_meters":8400,"station_id":"ce4bhbh2rcd13ifvqeqg","pricing_plan_id":"cebpf4jnsgd1na2vs0mg"},{"bike_id":"1bc77b30-50bc-4e4d-925d-4cb3b62d709b","system_id":"levelo_inurba_marseille","lat":43.30085,"lon":5.390856,"is_reserved":false,"is_disabled":false,"rental_uris":{"android":"levelo://app?vid=1bc77b30-50bc-4e4d-925d-4cb3b62d709b","ios":"levelo://app?vid=1bc77b30-50bc-4e4d-925d-4cb3b62d709b"},"vehicle_type_id":"4","last_reported":1709057361,"current_range_meters":5600,"station_id":"ce4bh192rcd13ifvqdb0","pricing_plan_id":"cebpf4jnsgd1na2vs0mg"},{"bike_id":"08cbc7ff-565d-45a8-9976-485b419c8393","system_id":"levelo_inurba_marseille","lat":43.30098,"lon":5.39097,"is_reserved":false,"is_disabled":false,"rental_uris":{"android":"levelo://app?vid=08cbc7ff-565d-45a8-9976-485b419c8393","ios":"levelo://app?vid=08cbc7ff-565d-45a8-9976-485b419c8393"},"vehicle_type_id":"4","last_reported":1709057361,"current_range_meters":0,"station_id":"","pricing_plan_id":"cebpf4jnsgd1na2vs0mg"},{"bike_id":"35cdf143-751e-4786-9bbd-dd6a13ffd39c","system_id":"levelo_inurba_marseille","lat":43.294162,"lon":5.386292,"is_reserved":false,"is_disabled":false,"rental_uris":{"android":"levelo://app?vid=35cdf143-751e-4786-9bbd-dd6a13ffd39c","ios":"levelo://app?vid=35cdf143-751e-4786-9bbd-dd6a13ffd39c"},"vehicle_type_id":"4","last_reported":1709057361,"current_range_meters":0,"station_id":"ce4bh2h2rcd13ifvqdh0","pricing_plan_id":"cebpf4jnsgd1na2vs0mg"},{"bike_id":"a4cbd4ee-2a77-47f2-a3d3-cd44b25b7f94","system_id":"levelo_inurba_marseille","lat":43.291675,"lon":5.371583,"is_reserved":false,"is_disabled":false,"rental_uris":{"android":"levelo://app?vid=a4cbd4ee-2a77-47f2-a3d3-cd44b25b7f94","ios":"levelo://app?vid=a4cbd4ee-2a77-47f2-a3d3-cd44b25b7f94"},"vehicle_type_id":"4","last_reported":1709057361,"current_range_meters":5200,"station_id":"ce4bha92rcd13ifvqeh0","pricing_plan_id":"cebpf4jnsgd1na2vs0mg"},{"bike_id":"84010824-5b9a-4d2a-ba8e-38070b10e77b","system_id":"levelo_inurba_marseille","lat":43.291666,"lon":5.371595,"is_reserved":false,"is_disabled":false,"rental_uris":{"android":"levelo://app?vid=84010824-5b9a-4d2a-ba8e-38070b10e77b","ios":"levelo://app?vid=84010824-5b9a-4d2a-ba8e-38070b10e77b"},"vehicle_type_id":"4","last_reported":1709057361,"current_range_meters":14400,"station_id":"ce4bha92rcd13ifvqeh0","pricing_plan_id":"cebpf4jnsgd1na2vs0mg"},{"bike_id":"60293f09-f31a-41f4-8aa3-46b43c6247c8","system_id":"levelo_inurba_marseille","lat":43.291675,"lon":5.371583,"is_reserved":false,"is_disabled":false,"rental_uris":{"android":"levelo://app?vid=60293f09-f31a-41f4-8aa3-46b43c6247c8","ios":"levelo://app?vid=60293f09-f31a-41f4-8aa3-46b43c6247c8"},"vehicle_type_id":"4","last_reported":1709057361,"current_range_meters":20800,"station_id":"ce4bha92rcd13ifvqeh0","pricing_plan_id":"cebpf4jnsgd1na2vs0mg"},{"bike_id":"e0bc59f4-0084-4385-ad6c-c24124dc4198","system_id":"levelo_inurba_marseille","lat":43.313291,"lon":5.396838,"is_reserved":false,"is_disabled":false,"rental_uris":{"android":"levelo://app?vid=e0bc59f4-0084-4385-ad6c-c24124dc4198","ios":"levelo://app?vid=e0bc59f4-0084-4385-ad6c-c24124dc4198"},"vehicle_type_id":"4","last_reported":1709057361,"current_range_meters":15200,"station_id":"ce4bgvp2rcd13ifvqcu0","pricing_plan_id":"cebpf4jnsgd1na2vs0mg"},{"bike_id":"21126781-128b-4cc3-94b7-d5b384fbccc8","system_id":"levelo_inurba_marseille","lat":43.291994,"lon":5.357886,"is_reserved":false,"is_disabled":false,"rental_uris":{"android":"levelo://app?vid=21126781-128b-4cc3-94b7-d5b384fbccc8","ios":"levelo://app?vid=21126781-128b-4cc3-94b7-d5b384fbccc8"},"vehicle_type_id":"4","last_reported":1709057361,"current_range_meters":0,"station_id":"ce4bhb12rcd13ifvqel0","pricing_plan_id":"cebpf4jnsgd1na2vs0mg"},{"bike_id":"d83ef44d-7125-4d01-8290-61fadd044228","system_id":"levelo_inurba_marseille","lat":43.291994,"lon":5.357886,"is_reserved":false,"is_disabled":false,"rental_uris":{"android":"levelo://app?vid=d83ef44d-7125-4d01-8290-61fadd044228","ios":"levelo://app?vid=d83ef44d-7125-4d01-8290-61fadd044228"},"vehicle_type_id":"4","last_reported":1709057361,"current_range_meters":0,"station_id":"ce4bhb12rcd13ifvqel0","pricing_plan_id":"cebpf4jnsgd1na2vs0mg"},{"bike_id":"0152d6b1-872b-4826-bbb2-9763c49753ae","system_id":"levelo_inurba_marseille","lat":43.309038,"lon":5.396546,"is_reserved":false,"is_disabled":false,"rental_uris":{"android":"levelo://app?vid=0152d6b1-872b-4826-bbb2-9763c49753ae","ios":"levelo://app?vid=0152d6b1-872b-4826-bbb2-9763c49753ae"},"vehicle_type_id":"4","last_reported":1709057361,"current_range_meters":26400,"station_id":"ce4bh012rcd13ifvqcv0","pricing_plan_id":"cebpf4jnsgd1na2vs0mg"},{"bike_id":"22157055-c58d-4351-bb53-5990be074837","system_id":"levelo_inurba_marseille","lat":43.313291,"lon":5.396838,"is_reserved":false,"is_disabled":false,"rental_uris":{"android":"levelo://app?vid=22157055-c58d-4351-bb53-5990be074837","ios":"levelo://app?vid=22157055-c58d-4351-bb53-5990be074837"},"vehicle_type_id":"4","last_reported":1709057361,"current_range_meters":22000,"station_id":"ce4bgvp2rcd13ifvqcu0","pricing_plan_id":"cebpf4jnsgd1na2vs0mg"},{"bike_id":"3d144b6f-c1ba-425c-bb5f-13dbefef98f2","system_id":"levelo_inurba_marseille","lat":43.313291,"lon":5.396838,"is_reserved":false,"is_disabled":false,"rental_uris":{"android":"levelo://app?vid=3d144b6f-c1ba-425c-bb5f-13dbefef98f2","ios":"levelo://app?vid=3d144b6f-c1ba-425c-bb5f-13dbefef98f2"},"vehicle_type_id":"4","last_reported":1709057361,"current_range_meters":3200,"station_id":"ce4bgvp2rcd13ifvqcu0","pricing_plan_id":"cebpf4jnsgd1na2vs0mg"},{"bike_id":"3bcac0f9-5f00-4590-8dd8-cccfc7905a61","system_id":"levelo_inurba_marseille","lat":43.313291,"lon":5.396838,"is_reserved":false,"is_disabled":false,"rental_uris":{"android":"levelo://app?vid=3bcac0f9-5f00-4590-8dd8-cccfc7905a61","ios":"levelo://app?vid=3bcac0f9-5f00-4590-8dd8-cccfc7905a61"},"vehicle_type_id":"4","last_reported":1709057361,"current_range_meters":4400,"station_id":"ce4bgvp2rcd13ifvqcu0","pricing_plan_id":"cebpf4jnsgd1na2vs0mg"},{"bike_id":"9f00c71f-cae3-4ffe-9a7b-a55655e11045","system_id":"levelo_inurba_marseille","lat":43.309038,"lon":5.396546,"is_reserved":false,"is_disabled":false,"rental_uris":{"android":"levelo://app?vid=9f00c71f-cae3-4ffe-9a7b-a55655e11045","ios":"levelo://app?vid=9f00c71f-cae3-4ffe-9a7b-a55655e11045"},"vehicle_type_id":"4","last_reported":1709057361,"current_range_meters":23600,"station_id":"ce4bh012rcd13ifvqcv0","pricing_plan_id":"cebpf4jnsgd1na2vs0mg"},{"bike_id":"184a4793-7d15-419b-aa09-a3c8d2160aee","system_id":"levelo_inurba_marseille","lat":43.291994,"lon":5.357886,"is_reserved":false,"is_disabled":false,"rental_uris":{"android":"levelo://app?vid=184a4793-7d15-419b-aa09-a3c8d2160aee","ios":"levelo://app?vid=184a4793-7d15-419b-aa09-a3c8d2160aee"},"vehicle_type_id":"4","last_reported":1709057361,"current_range_meters":14400,"station_id":"ce4bhb12rcd13ifvqel0","pricing_plan_id":"cebpf4jnsgd1na2vs0mg"},{"bike_id":"6c1221d0-b22a-48aa-8edf-42befe18f72f","system_id":"levelo_inurba_marseille","lat":43.313291,"lon":5.396838,"is_reserved":false,"is_disabled":false,"rental_uris":{"android":"levelo://app?vid=6c1221d0-b22a-48aa-8edf-42befe18f72f","ios":"levelo://app?vid=6c1221d0-b22a-48aa-8edf-42befe18f72f"},"vehicle_type_id":"4","last_reported":1709057361,"current_range_meters":13200,"station_id":"ce4bgvp2rcd13ifvqcu0","pricing_plan_id":"cebpf4jnsgd1na2vs0mg"},{"bike_id":"0cbed003-7c68-4527-906b-bae1c797bd97","system_id":"levelo_inurba_marseille","lat":43.313291,"lon":5.396838,"is_reserved":false,"is_disabled":false,"rental_uris":{"android":"levelo://app?vid=0cbed003-7c68-4527-906b-bae1c797bd97","ios":"levelo://app?vid=0cbed003-7c68-4527-906b-bae1c797bd97"},"vehicle_type_id":"4","last_reported":1709057361,"current_range_meters":8400,"station_id":"ce4bgvp2rcd13ifvqcu0","pricing_plan_id":"cebpf4jnsgd1na2vs0mg"},{"bike_id":"d86af802-de3a-4f45-8937-b94a8827bbd9","system_id":"levelo_inurba_marseille","lat":43.313291,"lon":5.396838,"is_reserved":false,"is_disabled":false,"rental_uris":{"android":"levelo://app?vid=d86af802-de3a-4f45-8937-b94a8827bbd9","ios":"levelo://app?vid=d86af802-de3a-4f45-8937-b94a8827bbd9"},"vehicle_type_id":"4","last_reported":1709057361,"current_range_meters":21200,"station_id":"ce4bgvp2rcd13ifvqcu0","pricing_plan_id":"cebpf4jnsgd1na2vs0mg"},{"bike_id":"b0b013a1-9f2a-47e4-b3ee-c4b0eee0d121","system_id":"levelo_inurba_marseille","lat":43.291994,"lon":5.357886,"is_reserved":false,"is_disabled":false,"rental_uris":{"android":"levelo://app?vid=b0b013a1-9f2a-47e4-b3ee-c4b0eee0d121","ios":"levelo://app?vid=b0b013a1-9f2a-47e4-b3ee-c4b0eee0d121"},"vehicle_type_id":"4","last_reported":1709057361,"current_range_meters":11200,"station_id":"ce4bhb12rcd13ifvqel0","pricing_plan_id":"cebpf4jnsgd1na2vs0mg"},{"bike_id":"073db528-2124-46fa-8003-eb3728be1493","system_id":"levelo_inurba_marseille","lat":43.313291,"lon":5.396838,"is_reserved":false,"is_disabled":false,"rental_uris":{"android":"levelo://app?vid=073db528-2124-46fa-8003-eb3728be1493","ios":"levelo://app?vid=073db528-2124-46fa-8003-eb3728be1493"},"vehicle_type_id":"4","last_reported":1709057361,"current_range_meters":23200,"station_id":"ce4bgvp2rcd13ifvqcu0","pricing_plan_id":"cebpf4jnsgd1na2vs0mg"},{"bike_id":"65886581-a721-4cf4-a0cf-2bf86dbf6558","system_id":"levelo_inurba_marseille","lat":43.313291,"lon":5.396838,"is_reserved":false,"is_disabled":false,"rental_uris":{"android":"levelo://app?vid=65886581-a721-4cf4-a0cf-2bf86dbf6558","ios":"levelo://app?vid=65886581-a721-4cf4-a0cf-2bf86dbf6558"},"vehicle_type_id":"4","last_reported":1709057361,"current_range_meters":16800,"station_id":"ce4bgvp2rcd13ifvqcu0","pricing_plan_id":"cebpf4jnsgd1na2vs0mg"},{"bike_id":"4f622276-7e17-4c12-a33d-823d237f24d5","system_id":"levelo_inurba_marseille","lat":43.309047,"lon":5.396551,"is_reserved":false,"is_disabled":false,"rental_uris":{"android":"levelo://app?vid=4f622276-7e17-4c12-a33d-823d237f24d5","ios":"levelo://app?vid=4f622276-7e17-4c12-a33d-823d237f24d5"},"vehicle_type_id":"4","last_reported":1709057361,"current_range_meters":0,"station_id":"ce4bh012rcd13ifvqcv0","pricing_plan_id":"cebpf4jnsgd1na2vs0mg"},{"bike_id":"9575c2f3-bcd7-4a20-a8d8-db8a2c8aece7","system_id":"levelo_inurba_marseille","lat":43.313291,"lon":5.396838,"is_reserved":false,"is_disabled":false,"rental_uris":{"android":"levelo://app?vid=9575c2f3-bcd7-4a20-a8d8-db8a2c8aece7","ios":"levelo://app?vid=9575c2f3-bcd7-4a20-a8d8-db8a2c8aece7"},"vehicle_type_id":"4","last_reported":1709057361,"current_range_meters":10800,"station_id":"ce4bgvp2rcd13ifvqcu0","pricing_plan_id":"cebpf4jnsgd1na2vs0mg"},{"bike_id":"ab9e4b67-a0e4-4742-87bd-6544c841c520","system_id":"levelo_inurba_marseille","lat":43.29529,"lon":5.385581,"is_reserved":false,"is_disabled":false,"rental_uris":{"android":"levelo://app?vid=ab9e4b67-a0e4-4742-87bd-6544c841c520","ios":"levelo://app?vid=ab9e4b67-a0e4-4742-87bd-6544c841c520"},"vehicle_type_id":"4","last_reported":1709057361,"current_range_meters":28800,"station_id":"ce4bgih2rcd13ifvqba0","pricing_plan_id":"cebpf4jnsgd1na2vs0mg"},{"bike_id":"91aa22b0-ee5c-4400-995b-091d575db373","system_id":"levelo_inurba_marseille","lat":43.309047,"lon":5.396551,"is_reserved":false,"is_disabled":false,"rental_uris":{"android":"levelo://app?vid=91aa22b0-ee5c-4400-995b-091d575db373","ios":"levelo://app?vid=91aa22b0-ee5c-4400-995b-091d575db373"},"vehicle_type_id":"4","last_reported":1709057361,"current_range_meters":800,"station_id":"ce4bh012rcd13ifvqcv0","pricing_plan_id":"cebpf4jnsgd1na2vs0mg"},{"bike_id":"d09a884a-60c8-4603-bfd6-ef0ccb0ae52d","system_id":"levelo_inurba_marseille","lat":43.29529,"lon":5.385581,"is_reserved":false,"is_disabled":false,"rental_uris":{"android":"levelo://app?vid=d09a884a-60c8-4603-bfd6-ef0ccb0ae52d","ios":"levelo://app?vid=d09a884a-60c8-4603-bfd6-ef0ccb0ae52d"},"vehicle_type_id":"4","last_reported":1709057361,"current_range_meters":12400,"station_id":"ce4bgih2rcd13ifvqba0","pricing_plan_id":"cebpf4jnsgd1na2vs0mg"},{"bike_id":"bb13830e-bbcc-4472-9fb1-fcd547533c83","system_id":"levelo_inurba_marseille","lat":43.29529,"lon":5.385581,"is_reserved":false,"is_disabled":false,"rental_uris":{"android":"levelo://app?vid=bb13830e-bbcc-4472-9fb1-fcd547533c83","ios":"levelo://app?vid=bb13830e-bbcc-4472-9fb1-fcd547533c83"},"vehicle_type_id":"4","last_reported":1709057361,"current_range_meters":8800,"station_id":"ce4bgih2rcd13ifvqba0","pricing_plan_id":"cebpf4jnsgd1na2vs0mg"},{"bike_id":"8958a5d2-f0c5-483d-ae73-baee49b8d32c","system_id":"levelo_inurba_marseille","lat":43.29529,"lon":5.385581,"is_reserved":false,"is_disabled":false,"rental_uris":{"android":"levelo://app?vid=8958a5d2-f0c5-483d-ae73-baee49b8d32c","ios":"levelo://app?vid=8958a5d2-f0c5-483d-ae73-baee49b8d32c"},"vehicle_type_id":"4","last_reported":1709057361,"current_range_meters":7200,"station_id":"ce4bgih2rcd13ifvqba0","pricing_plan_id":"cebpf4jnsgd1na2vs0mg"},{"bike_id":"24ae8020-3b13-4bf7-bcc1-1c31b490523d","system_id":"levelo_inurba_marseille","lat":43.290664,"lon":5.371529,"is_reserved":false,"is_disabled":false,"rental_uris":{"android":"levelo://app?vid=24ae8020-3b13-4bf7-bcc1-1c31b490523d","ios":"levelo://app?vid=24ae8020-3b13-4bf7-bcc1-1c31b490523d"},"vehicle_type_id":"4","last_reported":1709057361,"current_range_meters":0,"station_id":"ce4bh5p2rcd13ifvqe4g","pricing_plan_id":"cebpf4jnsgd1na2vs0mg"},{"bike_id":"c1af5aae-4735-4067-81c3-c332e2194417","system_id":"levelo_inurba_marseille","lat":43.302008,"lon":5.394694,"is_reserved":false,"is_disabled":false,"rental_uris":{"android":"levelo://app?vid=c1af5aae-4735-4067-81c3-c332e2194417","ios":"levelo://app?vid=c1af5aae-4735-4067-81c3-c332e2194417"},"vehicle_type_id":"4","last_reported":1709057361,"current_range_meters":7200,"station_id":"ce4bh0p2rcd13ifvqd70","pricing_plan_id":"cebpf4jnsgd1na2vs0mg"},{"bike_id":"f6a2fe48-6cc8-4803-82ba-7c666eea38c7","system_id":"levelo_inurba_marseille","lat":43.302008,"lon":5.394694,"is_reserved":false,"is_disabled":false,"rental_uris":{"android":"levelo://app?vid=f6a2fe48-6cc8-4803-82ba-7c666eea38c7","ios":"levelo://app?vid=f6a2fe48-6cc8-4803-82ba-7c666eea38c7"},"vehicle_type_id":"4","last_reported":1709057361,"current_range_meters":4000,"station_id":"ce4bh0p2rcd13ifvqd70","pricing_plan_id":"cebpf4jnsgd1na2vs0mg"},{"bike_id":"5e6ea161-d4b6-48f2-b62d-ab9503b7bf06","system_id":"levelo_inurba_marseille","lat":43.290624,"lon":5.359245,"is_reserved":false,"is_disabled":false,"rental_uris":{"android":"levelo://app?vid=5e6ea161-d4b6-48f2-b62d-ab9503b7bf06","ios":"levelo://app?vid=5e6ea161-d4b6-48f2-b62d-ab9503b7bf06"},"vehicle_type_id":"4","last_reported":1709057361,"current_range_meters":6400,"station_id":"ce4bha92rcd13ifvqeg0","pricing_plan_id":"cebpf4jnsgd1na2vs0mg"},{"bike_id":"38916427-ce1e-4b05-b6c7-4e1c2fa1f33a","system_id":"levelo_inurba_marseille","lat":43.290624,"lon":5.359245,"is_reserved":false,"is_disabled":false,"rental_uris":{"android":"levelo://app?vid=38916427-ce1e-4b05-b6c7-4e1c2fa1f33a","ios":"levelo://app?vid=38916427-ce1e-4b05-b6c7-4e1c2fa1f33a"},"vehicle_type_id":"4","last_reported":1709057361,"current_range_meters":23600,"station_id":"ce4bha92rcd13ifvqeg0","pricing_plan_id":"cebpf4jnsgd1na2vs0mg"},{"bike_id":"31e5e6fc-5b00-4365-927e-d34f5f13e5fa","system_id":"levelo_inurba_marseille","lat":43.290624,"lon":5.359245,"is_reserved":false,"is_disabled":false,"rental_uris":{"android":"levelo://app?vid=31e5e6fc-5b00-4365-927e-d34f5f13e5fa","ios":"levelo://app?vid=31e5e6fc-5b00-4365-927e-d34f5f13e5fa"},"vehicle_type_id":"4","last_reported":1709057361,"current_range_meters":13600,"station_id":"ce4bha92rcd13ifvqeg0","pricing_plan_id":"cebpf4jnsgd1na2vs0mg"},{"bike_id":"8189b7fa-dcde-4883-b5ca-5c9697603da0","system_id":"levelo_inurba_marseille","lat":43.294153,"lon":5.386305,"is_reserved":false,"is_disabled":false,"rental_uris":{"android":"levelo://app?vid=8189b7fa-dcde-4883-b5ca-5c9697603da0","ios":"levelo://app?vid=8189b7fa-dcde-4883-b5ca-5c9697603da0"},"vehicle_type_id":"4","last_reported":1709057361,"current_range_meters":19600,"station_id":"ce4bh2h2rcd13ifvqdh0","pricing_plan_id":"cebpf4jnsgd1na2vs0mg"},{"bike_id":"d5d80a18-244f-46f6-a71d-e53754e21ce8","system_id":"levelo_inurba_marseille","lat":43.290319,"lon":5.375732,"is_reserved":false,"is_disabled":false,"rental_uris":{"android":"levelo://app?vid=d5d80a18-244f-46f6-a71d-e53754e21ce8","ios":"levelo://app?vid=d5d80a18-244f-46f6-a71d-e53754e21ce8"},"vehicle_type_id":"4","last_reported":1709057361,"current_range_meters":22000,"station_id":"ce4bh692rcd13ifvqe90","pricing_plan_id":"cebpf4jnsgd1na2vs0mg"},{"bike_id":"daf6f769-e3d4-4b20-9445-a37660231854","system_id":"levelo_inurba_marseille","lat":43.290319,"lon":5.375732,"is_reserved":false,"is_disabled":false,"rental_uris":{"android":"levelo://app?vid=daf6f769-e3d4-4b20-9445-a37660231854","ios":"levelo://app?vid=daf6f769-e3d4-4b20-9445-a37660231854"},"vehicle_type_id":"4","last_reported":1709057361,"current_range_meters":17200,"station_id":"ce4bh692rcd13ifvqe90","pricing_plan_id":"cebpf4jnsgd1na2vs0mg"},{"bike_id":"d075e6be-92b5-4a3c-ba7c-13540fa15a30","system_id":"levelo_inurba_marseille","lat":43.294162,"lon":5.386292,"is_reserved":false,"is_disabled":false,"rental_uris":{"android":"levelo://app?vid=d075e6be-92b5-4a3c-ba7c-13540fa15a30","ios":"levelo://app?vid=d075e6be-92b5-4a3c-ba7c-13540fa15a30"},"vehicle_type_id":"4","last_reported":1709057361,"current_range_meters":31600,"station_id":"ce4bh2h2rcd13ifvqdh0","pricing_plan_id":"cebpf4jnsgd1na2vs0mg"},{"bike_id":"d7e39c9a-15e1-470c-8bf7-ca0aa97ea721","system_id":"levelo_inurba_marseille","lat":43.294162,"lon":5.386292,"is_reserved":false,"is_disabled":false,"rental_uris":{"android":"levelo://app?vid=d7e39c9a-15e1-470c-8bf7-ca0aa97ea721","ios":"levelo://app?vid=d7e39c9a-15e1-470c-8bf7-ca0aa97ea721"},"vehicle_type_id":"4","last_reported":1709057361,"current_range_meters":27600,"station_id":"ce4bh2h2rcd13ifvqdh0","pricing_plan_id":"cebpf4jnsgd1na2vs0mg"},{"bike_id":"0d76a539-105b-446d-83ee-4f735ccc64a4","system_id":"levelo_inurba_marseille","lat":43.290327,"lon":5.375711,"is_reserved":false,"is_disabled":false,"rental_uris":{"android":"levelo://app?vid=0d76a539-105b-446d-83ee-4f735ccc64a4","ios":"levelo://app?vid=0d76a539-105b-446d-83ee-4f735ccc64a4"},"vehicle_type_id":"4","last_reported":1709057361,"current_range_meters":4800,"station_id":"ce4bh692rcd13ifvqe90","pricing_plan_id":"cebpf4jnsgd1na2vs0mg"},{"bike_id":"34a01610-16ea-496c-91f5-aa16832a42aa","system_id":"levelo_inurba_marseille","lat":43.29417,"lon":5.3862,"is_reserved":false,"is_disabled":false,"rental_uris":{"android":"levelo://app?vid=34a01610-16ea-496c-91f5-aa16832a42aa","ios":"levelo://app?vid=34a01610-16ea-496c-91f5-aa16832a42aa"},"vehicle_type_id":"4","last_reported":1709057361,"current_range_meters":0,"station_id":"ce4bh2h2rcd13ifvqdh0","pricing_plan_id":"cebpf4jnsgd1na2vs0mg"},{"bike_id":"df686b1b-c774-4f72-b70c-5b8c6599ea39","system_id":"levelo_inurba_marseille","lat":43.294162,"lon":5.386292,"is_reserved":false,"is_disabled":false,"rental_uris":{"android":"levelo://app?vid=df686b1b-c774-4f72-b70c-5b8c6599ea39","ios":"levelo://app?vid=df686b1b-c774-4f72-b70c-5b8c6599ea39"},"vehicle_type_id":"4","last_reported":1709057361,"current_range_meters":9600,"station_id":"ce4bh2h2rcd13ifvqdh0","pricing_plan_id":"cebpf4jnsgd1na2vs0mg"},{"bike_id":"9f0f66d2-f486-4e2e-a6dd-5725dc726880","system_id":"levelo_inurba_marseille","lat":43.294162,"lon":5.386292,"is_reserved":false,"is_disabled":false,"rental_uris":{"android":"levelo://app?vid=9f0f66d2-f486-4e2e-a6dd-5725dc726880","ios":"levelo://app?vid=9f0f66d2-f486-4e2e-a6dd-5725dc726880"},"vehicle_type_id":"4","last_reported":1709057361,"current_range_meters":2400,"station_id":"ce4bh2h2rcd13ifvqdh0","pricing_plan_id":"cebpf4jnsgd1na2vs0mg"},{"bike_id":"1b3c8778-ff4b-4097-a8e8-6094085562bf","system_id":"levelo_inurba_marseille","lat":43.294153,"lon":5.386305,"is_reserved":false,"is_disabled":false,"rental_uris":{"android":"levelo://app?vid=1b3c8778-ff4b-4097-a8e8-6094085562bf","ios":"levelo://app?vid=1b3c8778-ff4b-4097-a8e8-6094085562bf"},"vehicle_type_id":"4","last_reported":1709057361,"current_range_meters":12400,"station_id":"ce4bh2h2rcd13ifvqdh0","pricing_plan_id":"cebpf4jnsgd1na2vs0mg"},{"bike_id":"83675cc2-fc5b-4604-9f47-fd06107c892c","system_id":"levelo_inurba_marseille","lat":43.290327,"lon":5.375711,"is_reserved":false,"is_disabled":false,"rental_uris":{"android":"levelo://app?vid=83675cc2-fc5b-4604-9f47-fd06107c892c","ios":"levelo://app?vid=83675cc2-fc5b-4604-9f47-fd06107c892c"},"vehicle_type_id":"4","last_reported":1709057361,"current_range_meters":23600,"station_id":"ce4bh692rcd13ifvqe90","pricing_plan_id":"cebpf4jnsgd1na2vs0mg"},{"bike_id":"7d3997b1-8b8f-4c9c-911a-96ed322a3ac8","system_id":"levelo_inurba_marseille","lat":43.29415,"lon":5.38623,"is_reserved":false,"is_disabled":false,"rental_uris":{"android":"levelo://app?vid=7d3997b1-8b8f-4c9c-911a-96ed322a3ac8","ios":"levelo://app?vid=7d3997b1-8b8f-4c9c-911a-96ed322a3ac8"},"vehicle_type_id":"4","last_reported":1709057361,"current_range_meters":1200,"station_id":"ce4bh2h2rcd13ifvqdh0","pricing_plan_id":"cebpf4jnsgd1na2vs0mg"},{"bike_id":"1eca75ec-e27e-4f38-ab66-caf9e3519dd5","system_id":"levelo_inurba_marseille","lat":43.290319,"lon":5.375732,"is_reserved":false,"is_disabled":false,"rental_uris":{"android":"levelo://app?vid=1eca75ec-e27e-4f38-ab66-caf9e3519dd5","ios":"levelo://app?vid=1eca75ec-e27e-4f38-ab66-caf9e3519dd5"},"vehicle_type_id":"4","last_reported":1709057361,"current_range_meters":22400,"station_id":"ce4bh692rcd13ifvqe90","pricing_plan_id":"cebpf4jnsgd1na2vs0mg"},{"bike_id":"b603e6c4-3d2a-4f54-ba1b-2ffc20269ffd","system_id":"levelo_inurba_marseille","lat":43.294162,"lon":5.386292,"is_reserved":false,"is_disabled":false,"rental_uris":{"android":"levelo://app?vid=b603e6c4-3d2a-4f54-ba1b-2ffc20269ffd","ios":"levelo://app?vid=b603e6c4-3d2a-4f54-ba1b-2ffc20269ffd"},"vehicle_type_id":"4","last_reported":1709057361,"current_range_meters":4800,"station_id":"ce4bh2h2rcd13ifvqdh0","pricing_plan_id":"cebpf4jnsgd1na2vs0mg"},{"bike_id":"7d1d29b6-cfb8-4638-beb7-bcab7b464c40","system_id":"levelo_inurba_marseille","lat":43.289184,"lon":5.366408,"is_reserved":false,"is_disabled":false,"rental_uris":{"android":"levelo://app?vid=7d1d29b6-cfb8-4638-beb7-bcab7b464c40","ios":"levelo://app?vid=7d1d29b6-cfb8-4638-beb7-bcab7b464c40"},"vehicle_type_id":"4","last_reported":1709057361,"current_range_meters":5600,"station_id":"ce4bhap2rcd13ifvqek0","pricing_plan_id":"cebpf4jnsgd1na2vs0mg"},{"bike_id":"655b7c59-c178-4129-8c1e-06c261a3869e","system_id":"levelo_inurba_marseille","lat":43.294162,"lon":5.386292,"is_reserved":false,"is_disabled":false,"rental_uris":{"android":"levelo://app?vid=655b7c59-c178-4129-8c1e-06c261a3869e","ios":"levelo://app?vid=655b7c59-c178-4129-8c1e-06c261a3869e"},"vehicle_type_id":"4","last_reported":1709057361,"current_range_meters":24000,"station_id":"ce4bh2h2rcd13ifvqdh0","pricing_plan_id":"cebpf4jnsgd1na2vs0mg"},{"bike_id":"89c8563b-cd66-49db-8304-564b4bb2a14a","system_id":"levelo_inurba_marseille","lat":43.294162,"lon":5.386292,"is_reserved":false,"is_disabled":false,"rental_uris":{"android":"levelo://app?vid=89c8563b-cd66-49db-8304-564b4bb2a14a","ios":"levelo://app?vid=89c8563b-cd66-49db-8304-564b4bb2a14a"},"vehicle_type_id":"4","last_reported":1709057361,"current_range_meters":0,"station_id":"ce4bh2h2rcd13ifvqdh0","pricing_plan_id":"cebpf4jnsgd1na2vs0mg"},{"bike_id":"d54760f9-e773-4caa-a441-030ae44c1e17","system_id":"levelo_inurba_marseille","lat":43.294162,"lon":5.386292,"is_reserved":false,"is_disabled":false,"rental_uris":{"android":"levelo://app?vid=d54760f9-e773-4caa-a441-030ae44c1e17","ios":"levelo://app?vid=d54760f9-e773-4caa-a441-030ae44c1e17"},"vehicle_type_id":"4","last_reported":1709057361,"current_range_meters":15600,"station_id":"ce4bh2h2rcd13ifvqdh0","pricing_plan_id":"cebpf4jnsgd1na2vs0mg"},{"bike_id":"f4060c9b-d5d0-43b0-89f6-383641e79373","system_id":"levelo_inurba_marseille","lat":43.294162,"lon":5.386292,"is_reserved":false,"is_disabled":false,"rental_uris":{"android":"levelo://app?vid=f4060c9b-d5d0-43b0-89f6-383641e79373","ios":"levelo://app?vid=f4060c9b-d5d0-43b0-89f6-383641e79373"},"vehicle_type_id":"4","last_reported":1709057361,"current_range_meters":19600,"station_id":"ce4bh2h2rcd13ifvqdh0","pricing_plan_id":"cebpf4jnsgd1na2vs0mg"},{"bike_id":"4cbac8bf-1419-41fd-b7ce-b07bb792ee19","system_id":"levelo_inurba_marseille","lat":43.294162,"lon":5.386292,"is_reserved":false,"is_disabled":false,"rental_uris":{"android":"levelo://app?vid=4cbac8bf-1419-41fd-b7ce-b07bb792ee19","ios":"levelo://app?vid=4cbac8bf-1419-41fd-b7ce-b07bb792ee19"},"vehicle_type_id":"4","last_reported":1709057361,"current_range_meters":3600,"station_id":"ce4bh2h2rcd13ifvqdh0","pricing_plan_id":"cebpf4jnsgd1na2vs0mg"},{"bike_id":"b562c70b-7a17-4508-b8b7-41a27ad03cf8","system_id":"levelo_inurba_marseille","lat":43.294153,"lon":5.386305,"is_reserved":false,"is_disabled":false,"rental_uris":{"android":"levelo://app?vid=b562c70b-7a17-4508-b8b7-41a27ad03cf8","ios":"levelo://app?vid=b562c70b-7a17-4508-b8b7-41a27ad03cf8"},"vehicle_type_id":"4","last_reported":1709057361,"current_range_meters":26800,"station_id":"ce4bh2h2rcd13ifvqdh0","pricing_plan_id":"cebpf4jnsgd1na2vs0mg"},{"bike_id":"0bf89b59-0a27-45b4-920f-03df9d44762e","system_id":"levelo_inurba_marseille","lat":43.289468,"lon":5.363719,"is_reserved":false,"is_disabled":false,"rental_uris":{"android":"levelo://app?vid=0bf89b59-0a27-45b4-920f-03df9d44762e","ios":"levelo://app?vid=0bf89b59-0a27-45b4-920f-03df9d44762e"},"vehicle_type_id":"4","last_reported":1709057361,"current_range_meters":28000,"station_id":"ce4bhc92rcd13ifvqetg","pricing_plan_id":"cebpf4jnsgd1na2vs0mg"},{"bike_id":"cc3d0875-0e7e-42a5-a9e8-66a0dd3d1631","system_id":"levelo_inurba_marseille","lat":43.289468,"lon":5.363719,"is_reserved":false,"is_disabled":false,"rental_uris":{"android":"levelo://app?vid=cc3d0875-0e7e-42a5-a9e8-66a0dd3d1631","ios":"levelo://app?vid=cc3d0875-0e7e-42a5-a9e8-66a0dd3d1631"},"vehicle_type_id":"4","last_reported":1709057361,"current_range_meters":24800,"station_id":"ce4bhc92rcd13ifvqetg","pricing_plan_id":"cebpf4jnsgd1na2vs0mg"},{"bike_id":"ec31f568-9225-4eed-8ecf-f11b4eb19d08","system_id":"levelo_inurba_marseille","lat":43.290327,"lon":5.375711,"is_reserved":false,"is_disabled":false,"rental_uris":{"android":"levelo://app?vid=ec31f568-9225-4eed-8ecf-f11b4eb19d08","ios":"levelo://app?vid=ec31f568-9225-4eed-8ecf-f11b4eb19d08"},"vehicle_type_id":"4","last_reported":1709057361,"current_range_meters":26000,"station_id":"ce4bh692rcd13ifvqe90","pricing_plan_id":"cebpf4jnsgd1na2vs0mg"},{"bike_id":"6b913f23-60f6-488f-a5b2-2ec059e9f963","system_id":"levelo_inurba_marseille","lat":43.286593,"lon":5.363346,"is_reserved":false,"is_disabled":false,"rental_uris":{"android":"levelo://app?vid=6b913f23-60f6-488f-a5b2-2ec059e9f963","ios":"levelo://app?vid=6b913f23-60f6-488f-a5b2-2ec059e9f963"},"vehicle_type_id":"4","last_reported":1709057361,"current_range_meters":23200,"station_id":"ce4bhah2rcd13ifvqej0","pricing_plan_id":"cebpf4jnsgd1na2vs0mg"},{"bike_id":"ae5152b0-947e-482c-a09b-8d4222a5d8cb","system_id":"levelo_inurba_marseille","lat":43.290104,"lon":5.356111,"is_reserved":false,"is_disabled":false,"rental_uris":{"android":"levelo://app?vid=ae5152b0-947e-482c-a09b-8d4222a5d8cb","ios":"levelo://app?vid=ae5152b0-947e-482c-a09b-8d4222a5d8cb"},"vehicle_type_id":"4","last_reported":1709057361,"current_range_meters":18400,"station_id":"ce4bhb92rcd13ifvqen0","pricing_plan_id":"cebpf4jnsgd1na2vs0mg"},{"bike_id":"686e7f6a-7bbc-4c0a-b905-2855b7b231e2","system_id":"levelo_inurba_marseille","lat":43.309371,"lon":5.401449,"is_reserved":false,"is_disabled":false,"rental_uris":{"android":"levelo://app?vid=686e7f6a-7bbc-4c0a-b905-2855b7b231e2","ios":"levelo://app?vid=686e7f6a-7bbc-4c0a-b905-2855b7b231e2"},"vehicle_type_id":"4","last_reported":1709057361,"current_range_meters":29200,"station_id":"ce4bgvp2rcd13ifvqct0","pricing_plan_id":"cebpf4jnsgd1na2vs0mg"},{"bike_id":"3c8c2ffd-ffd4-4ade-b3e0-b901c5da3d66","system_id":"levelo_inurba_marseille","lat":43.2927,"lon":5.38429,"is_reserved":false,"is_disabled":false,"rental_uris":{"android":"levelo://app?vid=3c8c2ffd-ffd4-4ade-b3e0-b901c5da3d66","ios":"levelo://app?vid=3c8c2ffd-ffd4-4ade-b3e0-b901c5da3d66"},"vehicle_type_id":"4","last_reported":1709057361,"current_range_meters":13200,"station_id":"ce4bh692rcd13ifvqea0","pricing_plan_id":"cebpf4jnsgd1na2vs0mg"},{"bike_id":"5d07d148-f1ed-4140-a7bb-65d2842c3239","system_id":"levelo_inurba_marseille","lat":43.29266,"lon":5.38429,"is_reserved":false,"is_disabled":false,"rental_uris":{"android":"levelo://app?vid=5d07d148-f1ed-4140-a7bb-65d2842c3239","ios":"levelo://app?vid=5d07d148-f1ed-4140-a7bb-65d2842c3239"},"vehicle_type_id":"4","last_reported":1709057361,"current_range_meters":27200,"station_id":"ce4bh692rcd13ifvqea0","pricing_plan_id":"cebpf4jnsgd1na2vs0mg"},{"bike_id":"bcdfd209-3428-4014-9064-73b022e91ad6","system_id":"levelo_inurba_marseille","lat":43.292644,"lon":5.384257,"is_reserved":false,"is_disabled":false,"rental_uris":{"android":"levelo://app?vid=bcdfd209-3428-4014-9064-73b022e91ad6","ios":"levelo://app?vid=bcdfd209-3428-4014-9064-73b022e91ad6"},"vehicle_type_id":"4","last_reported":1709057361,"current_range_meters":11600,"station_id":"ce4bh692rcd13ifvqea0","pricing_plan_id":"cebpf4jnsgd1na2vs0mg"},