{"last_updated":1703178394,"ttl":30,"version":"2.2","data":{"bikes":[{"bike_id":"9c4bed50-4c08-46fb-9163-9ec5afa45ff6","system_id":"levelo_inurba_marseille","lat":43.31341,"lon":5.367098,"is_reserved":false,"is_disabled":false,"rental_uris":{"android":"levelo://app?vid=9c4bed50-4c08-46fb-9163-9ec5afa45ff6","ios":"levelo://app?vid=9c4bed50-4c08-46fb-9163-9ec5afa45ff6"},"vehicle_type_id":"4","last_reported":1703178394,"current_range_meters":0,"station_id":"ce4bgr92rcd13ifvqc6g","pricing_plan_id":"free"},{"bike_id":"45f052e4-a1c7-4350-8ec5-5e70b4bd0c27","system_id":"levelo_inurba_marseille","lat":43.309076,"lon":5.368465,"is_reserved":false,"is_disabled":false,"rental_uris":{"android":"levelo://app?vid=45f052e4-a1c7-4350-8ec5-5e70b4bd0c27","ios":"levelo://app?vid=45f052e4-a1c7-4350-8ec5-5e70b4bd0c27"},"vehicle_type_id":"4","last_reported":1703178394,"current_range_meters":6000,"station_id":"ce4bgn92rcd13ifvqbvg","pricing_plan_id":"free"},{"bike_id":"1960ad90-b64f-4964-9578-5f708d4e27cc","system_id":"levelo_inurba_marseille","lat":43.314811,"lon":5.373103,"is_reserved":false,"is_disabled":false,"rental_uris":{"android":"levelo://app?vid=1960ad90-b64f-4964-9578-5f708d4e27cc","ios":"levelo://app?vid=1960ad90-b64f-4964-9578-5f708d4e27cc"},"vehicle_type_id":"4","last_reported":1703178394,"current_range_meters":22400,"station_id":"ce4bgt12rcd13ifvqcd0","pricing_plan_id":"free"},{"bike_id":"ef7af279-f9d8-4ac2-8947-8336a925b18d","system_id":"levelo_inurba_marseille","lat":43.314811,"lon":5.373104,"is_reserved":false,"is_disabled":false,"rental_uris":{"android":"levelo://app?vid=ef7af279-f9d8-4ac2-8947-8336a925b18d","ios":"levelo://app?vid=ef7af279-f9d8-4ac2-8947-8336a925b18d"},"vehicle_type_id":"4","last_reported":1703178394,"current_range_meters":7600,"station_id":"ce4bgt12rcd13ifvqcd0","pricing_plan_id":"free"},{"bike_id":"8bec1388-2df5-469c-b1a9-ecf8692f7d03","system_id":"levelo_inurba_marseille","lat":43.30537,"lon":5.367345,"is_reserved":false,"is_disabled":false,"rental_uris":{"android":"levelo://app?vid=8bec1388-2df5-469c-b1a9-ecf8692f7d03","ios":"levelo://app?vid=8bec1388-2df5-469c-b1a9-ecf8692f7d03"},"vehicle_type_id":"4","last_reported":1703178394,"current_range_meters":19200,"station_id":"ce4bgrp2rcd13ifvqc9g","pricing_plan_id":"free"},{"bike_id":"40296239-5b22-447c-bcc0-ad47aef1b1e5","system_id":"levelo_inurba_marseille","lat":43.305712,"lon":5.365641,"is_reserved":false,"is_disabled":false,"rental_uris":{"android":"levelo://app?vid=40296239-5b22-447c-bcc0-ad47aef1b1e5","ios":"levelo://app?vid=40296239-5b22-447c-bcc0-ad47aef1b1e5"},"vehicle_type_id":"4","last_reported":1703178394,"current_range_meters":17600,"station_id":"ce4bgs12rcd13ifvqcag","pricing_plan_id":"free"},{"bike_id":"8b62247b-05ba-412a-8c04-aca0b3edf149","system_id":"levelo_inurba_marseille","lat":43.305368,"lon":5.367343,"is_reserved":false,"is_disabled":false,"rental_uris":{"android":"levelo://app?vid=8b62247b-05ba-412a-8c04-aca0b3edf149","ios":"levelo://app?vid=8b62247b-05ba-412a-8c04-aca0b3edf149"},"vehicle_type_id":"4","last_reported":1703178394,"current_range_meters":0,"station_id":"ce4bgrp2rcd13ifvqc9g","pricing_plan_id":"free"},{"bike_id":"c67c4a5b-e0b5-4887-9656-a8de718b4c33","system_id":"levelo_inurba_marseille","lat":43.305714,"lon":5.365633,"is_reserved":false,"is_disabled":false,"rental_uris":{"android":"levelo://app?vid=c67c4a5b-e0b5-4887-9656-a8de718b4c33","ios":"levelo://app?vid=c67c4a5b-e0b5-4887-9656-a8de718b4c33"},"vehicle_type_id":"4","last_reported":1703178394,"current_range_meters":16400,"station_id":"ce4bgs12rcd13ifvqcag","pricing_plan_id":"free"},{"bike_id":"bf76442d-6a75-425a-9d11-5568d6b4a253","system_id":"levelo_inurba_marseille","lat":43.305989,"lon":5.37225,"is_reserved":false,"is_disabled":false,"rental_uris":{"android":"levelo://app?vid=bf76442d-6a75-425a-9d11-5568d6b4a253","ios":"levelo://app?vid=bf76442d-6a75-425a-9d11-5568d6b4a253"},"vehicle_type_id":"4","last_reported":1703178394,"current_range_meters":24400,"station_id":"ce4bgqh2rcd13ifvqc4g","pricing_plan_id":"free"},{"bike_id":"30ecd5fd-2444-4bbf-928e-c119d3eed01d","system_id":"levelo_inurba_marseille","lat":43.305989,"lon":5.37225,"is_reserved":false,"is_disabled":false,"rental_uris":{"android":"levelo://app?vid=30ecd5fd-2444-4bbf-928e-c119d3eed01d","ios":"levelo://app?vid=30ecd5fd-2444-4bbf-928e-c119d3eed01d"},"vehicle_type_id":"4","last_reported":1703178394,"current_range_meters":14800,"station_id":"ce4bgqh2rcd13ifvqc4g","pricing_plan_id":"free"},{"bike_id":"17955033-aaf3-4820-85fd-69251972fc24","system_id":"levelo_inurba_marseille","lat":43.317075,"lon":5.377367,"is_reserved":false,"is_disabled":false,"rental_uris":{"android":"levelo://app?vid=17955033-aaf3-4820-85fd-69251972fc24","ios":"levelo://app?vid=17955033-aaf3-4820-85fd-69251972fc24"},"vehicle_type_id":"4","last_reported":1703178394,"current_range_meters":4000,"station_id":"ce4bgth2rcd13ifvqch0","pricing_plan_id":"free"},{"bike_id":"8b5e7889-e14e-4571-85f2-b07023ace39e","system_id":"levelo_inurba_marseille","lat":43.317075,"lon":5.377367,"is_reserved":false,"is_disabled":false,"rental_uris":{"android":"levelo://app?vid=8b5e7889-e14e-4571-85f2-b07023ace39e","ios":"levelo://app?vid=8b5e7889-e14e-4571-85f2-b07023ace39e"},"vehicle_type_id":"4","last_reported":1703178394,"current_range_meters":28800,"station_id":"ce4bgth2rcd13ifvqch0","pricing_plan_id":"free"},{"bike_id":"6c662160-2878-403e-9cb2-748204edb49f","system_id":"levelo_inurba_marseille","lat":43.315438,"lon":5.380203,"is_reserved":false,"is_disabled":false,"rental_uris":{"android":"levelo://app?vid=6c662160-2878-403e-9cb2-748204edb49f","ios":"levelo://app?vid=6c662160-2878-403e-9cb2-748204edb49f"},"vehicle_type_id":"4","last_reported":1703178394,"current_range_meters":7200,"station_id":"ce4bhsp2rcd13ifvqi50","pricing_plan_id":"free"},{"bike_id":"a2015d44-8c2c-4437-afe9-df2bde2ced0c","system_id":"levelo_inurba_marseille","lat":43.302,"lon":5.36612,"is_reserved":false,"is_disabled":false,"rental_uris":{"android":"levelo://app?vid=a2015d44-8c2c-4437-afe9-df2bde2ced0c","ios":"levelo://app?vid=a2015d44-8c2c-4437-afe9-df2bde2ced0c"},"vehicle_type_id":"4","last_reported":1703178394,"current_range_meters":2000,"station_id":"ce4bgrh2rcd13ifvqc8g","pricing_plan_id":"free"},{"bike_id":"0e21b9f7-1626-41da-a8c3-4a4dd1ac67b1","system_id":"levelo_inurba_marseille","lat":43.301939,"lon":5.366286,"is_reserved":false,"is_disabled":false,"rental_uris":{"android":"levelo://app?vid=0e21b9f7-1626-41da-a8c3-4a4dd1ac67b1","ios":"levelo://app?vid=0e21b9f7-1626-41da-a8c3-4a4dd1ac67b1"},"vehicle_type_id":"4","last_reported":1703178394,"current_range_meters":800,"station_id":"ce4bgrh2rcd13ifvqc8g","pricing_plan_id":"free"},{"bike_id":"26e4b55d-4243-4287-9e88-fbeda384b486","system_id":"levelo_inurba_marseille","lat":43.310947,"lon":5.381957,"is_reserved":false,"is_disabled":false,"rental_uris":{"android":"levelo://app?vid=26e4b55d-4243-4287-9e88-fbeda384b486","ios":"levelo://app?vid=26e4b55d-4243-4287-9e88-fbeda384b486"},"vehicle_type_id":"4","last_reported":1703178394,"current_range_meters":13600,"station_id":"","pricing_plan_id":"free"},{"bike_id":"0f29f9fc-ade1-445d-ba8d-4631c9525c9b","system_id":"levelo_inurba_marseille","lat":43.30636,"lon":5.37995,"is_reserved":false,"is_disabled":false,"rental_uris":{"android":"levelo://app?vid=0f29f9fc-ade1-445d-ba8d-4631c9525c9b","ios":"levelo://app?vid=0f29f9fc-ade1-445d-ba8d-4631c9525c9b"},"vehicle_type_id":"4","last_reported":1703178394,"current_range_meters":0,"station_id":"","pricing_plan_id":"free"},{"bike_id":"db4213fc-a25b-4b91-8187-cb34b6289024","system_id":"levelo_inurba_marseille","lat":43.308012,"lon":5.381511,"is_reserved":false,"is_disabled":false,"rental_uris":{"android":"levelo://app?vid=db4213fc-a25b-4b91-8187-cb34b6289024","ios":"levelo://app?vid=db4213fc-a25b-4b91-8187-cb34b6289024"},"vehicle_type_id":"4","last_reported":1703178394,"current_range_meters":21200,"station_id":"ce4bgt12rcd13ifvqce0","pricing_plan_id":"free"},{"bike_id":"1332ae46-0814-41a7-9b3a-3e695b2cdbce","system_id":"levelo_inurba_marseille","lat":43.308012,"lon":5.381511,"is_reserved":false,"is_disabled":false,"rental_uris":{"android":"levelo://app?vid=1332ae46-0814-41a7-9b3a-3e695b2cdbce","ios":"levelo://app?vid=1332ae46-0814-41a7-9b3a-3e695b2cdbce"},"vehicle_type_id":"4","last_reported":1703178394,"current_range_meters":14800,"station_id":"ce4bgt12rcd13ifvqce0","pricing_plan_id":"free"},{"bike_id":"dc0f6af5-c02c-4610-baea-e5c6ca16f530","system_id":"levelo_inurba_marseille","lat":43.31998,"lon":5.38147,"is_reserved":false,"is_disabled":false,"rental_uris":{"android":"levelo://app?vid=dc0f6af5-c02c-4610-baea-e5c6ca16f530","ios":"levelo://app?vid=dc0f6af5-c02c-4610-baea-e5c6ca16f530"},"vehicle_type_id":"4","last_reported":1703178394,"current_range_meters":31200,"station_id":"ce4bhr12rcd13ifvqhpg","pricing_plan_id":"free"},{"bike_id":"500571ea-4fba-4810-9e11-0fd87d0b12b3","system_id":"levelo_inurba_marseille","lat":43.31986,"lon":5.38164,"is_reserved":false,"is_disabled":false,"rental_uris":{"android":"levelo://app?vid=500571ea-4fba-4810-9e11-0fd87d0b12b3","ios":"levelo://app?vid=500571ea-4fba-4810-9e11-0fd87d0b12b3"},"vehicle_type_id":"4","last_reported":1703178394,"current_range_meters":9600,"station_id":"ce4bhr12rcd13ifvqhpg","pricing_plan_id":"free"},{"bike_id":"af0ab532-e26f-41d4-b9ce-17ae08ae4cee","system_id":"levelo_inurba_marseille","lat":43.320005,"lon":5.381601,"is_reserved":false,"is_disabled":false,"rental_uris":{"android":"levelo://app?vid=af0ab532-e26f-41d4-b9ce-17ae08ae4cee","ios":"levelo://app?vid=af0ab532-e26f-41d4-b9ce-17ae08ae4cee"},"vehicle_type_id":"4","last_reported":1703178394,"current_range_meters":9600,"station_id":"ce4bhr12rcd13ifvqhpg","pricing_plan_id":"free"},{"bike_id":"e4b1de3b-9185-4e55-919a-f348c41ef37f","system_id":"levelo_inurba_marseille","lat":43.299243,"lon":5.37481,"is_reserved":false,"is_disabled":false,"rental_uris":{"android":"levelo://app?vid=e4b1de3b-9185-4e55-919a-f348c41ef37f","ios":"levelo://app?vid=e4b1de3b-9185-4e55-919a-f348c41ef37f"},"vehicle_type_id":"4","last_reported":1703178394,"current_range_meters":13200,"station_id":"ce4bgjh2rcd13ifvqbg0","pricing_plan_id":"free"},{"bike_id":"0cdbd0f0-d3c9-4a82-8c6d-6ffa03bfbf25","system_id":"levelo_inurba_marseille","lat":43.326937,"lon":5.373183,"is_reserved":false,"is_disabled":false,"rental_uris":{"android":"levelo://app?vid=0cdbd0f0-d3c9-4a82-8c6d-6ffa03bfbf25","ios":"levelo://app?vid=0cdbd0f0-d3c9-4a82-8c6d-6ffa03bfbf25"},"vehicle_type_id":"4","last_reported":1703178394,"current_range_meters":19600,"station_id":"","pricing_plan_id":"free"},{"bike_id":"2d0ccb8c-a8f7-4ee9-8463-316526ef0ad5","system_id":"levelo_inurba_marseille","lat":43.322872,"lon":5.382756,"is_reserved":false,"is_disabled":false,"rental_uris":{"android":"levelo://app?vid=2d0ccb8c-a8f7-4ee9-8463-316526ef0ad5","ios":"levelo://app?vid=2d0ccb8c-a8f7-4ee9-8463-316526ef0ad5"},"vehicle_type_id":"4","last_reported":1703178394,"current_range_meters":5600,"station_id":"ce4bhr12rcd13ifvqhqg","pricing_plan_id":"free"},{"bike_id":"e299beb3-acc1-46fa-9fec-22d2fe5e6b13","system_id":"levelo_inurba_marseille","lat":43.32831,"lon":5.3669,"is_reserved":false,"is_disabled":false,"rental_uris":{"android":"levelo://app?vid=e299beb3-acc1-46fa-9fec-22d2fe5e6b13","ios":"levelo://app?vid=e299beb3-acc1-46fa-9fec-22d2fe5e6b13"},"vehicle_type_id":"4","last_reported":1703178394,"current_range_meters":21600,"station_id":"ce4bhs92rcd13ifvqi0g","pricing_plan_id":"free"},{"bike_id":"e7027500-2244-43c2-82b0-d64c2aef5766","system_id":"levelo_inurba_marseille","lat":43.297163,"lon":5.365866,"is_reserved":false,"is_disabled":false,"rental_uris":{"android":"levelo://app?vid=e7027500-2244-43c2-82b0-d64c2aef5766","ios":"levelo://app?vid=e7027500-2244-43c2-82b0-d64c2aef5766"},"vehicle_type_id":"4","last_reported":1703178394,"current_range_meters":11200,"station_id":"ce4bgn12rcd13ifvqbt0","pricing_plan_id":"free"},{"bike_id":"ebda379d-6bb2-46e9-ad3b-c988f6005f8e","system_id":"levelo_inurba_marseille","lat":43.297163,"lon":5.365866,"is_reserved":false,"is_disabled":false,"rental_uris":{"android":"levelo://app?vid=ebda379d-6bb2-46e9-ad3b-c988f6005f8e","ios":"levelo://app?vid=ebda379d-6bb2-46e9-ad3b-c988f6005f8e"},"vehicle_type_id":"4","last_reported":1703178394,"current_range_meters":1600,"station_id":"ce4bgn12rcd13ifvqbt0","pricing_plan_id":"free"},{"bike_id":"220dbcc5-f9b9-4ec1-a000-a1e02fed0e9b","system_id":"levelo_inurba_marseille","lat":43.2958,"lon":5.367845,"is_reserved":false,"is_disabled":false,"rental_uris":{"android":"levelo://app?vid=220dbcc5-f9b9-4ec1-a000-a1e02fed0e9b","ios":"levelo://app?vid=220dbcc5-f9b9-4ec1-a000-a1e02fed0e9b"},"vehicle_type_id":"4","last_reported":1703178394,"current_range_meters":24000,"station_id":"","pricing_plan_id":"free"},{"bike_id":"834b9782-39e8-4602-8b8d-ea95026281ec","system_id":"levelo_inurba_marseille","lat":43.31764,"lon":5.39008,"is_reserved":false,"is_disabled":false,"rental_uris":{"android":"levelo://app?vid=834b9782-39e8-4602-8b8d-ea95026281ec","ios":"levelo://app?vid=834b9782-39e8-4602-8b8d-ea95026281ec"},"vehicle_type_id":"4","last_reported":1703178394,"current_range_meters":3600,"station_id":"ce4bhqp2rcd13ifvqhng","pricing_plan_id":"free"},{"bike_id":"04ca680c-0493-4f1b-9ef8-db1e704523dd","system_id":"levelo_inurba_marseille","lat":43.31754,"lon":5.39017,"is_reserved":false,"is_disabled":false,"rental_uris":{"android":"levelo://app?vid=04ca680c-0493-4f1b-9ef8-db1e704523dd","ios":"levelo://app?vid=04ca680c-0493-4f1b-9ef8-db1e704523dd"},"vehicle_type_id":"4","last_reported":1703178394,"current_range_meters":24800,"station_id":"ce4bhqp2rcd13ifvqhng","pricing_plan_id":"free"},{"bike_id":"7b89b0ee-9ba8-4aaf-8663-348001241aa8","system_id":"levelo_inurba_marseille","lat":43.317557,"lon":5.390173,"is_reserved":false,"is_disabled":false,"rental_uris":{"android":"levelo://app?vid=7b89b0ee-9ba8-4aaf-8663-348001241aa8","ios":"levelo://app?vid=7b89b0ee-9ba8-4aaf-8663-348001241aa8"},"vehicle_type_id":"4","last_reported":1703178394,"current_range_meters":21200,"station_id":"ce4bhqp2rcd13ifvqhng","pricing_plan_id":"free"},{"bike_id":"53d02047-2fc2-4d30-88b2-583fd58923ab","system_id":"levelo_inurba_marseille","lat":43.317557,"lon":5.390173,"is_reserved":false,"is_disabled":false,"rental_uris":{"android":"levelo://app?vid=53d02047-2fc2-4d30-88b2-583fd58923ab","ios":"levelo://app?vid=53d02047-2fc2-4d30-88b2-583fd58923ab"},"vehicle_type_id":"4","last_reported":1703178394,"current_range_meters":4000,"station_id":"ce4bhqp2rcd13ifvqhng","pricing_plan_id":"free"},{"bike_id":"085e0075-2732-47ec-8031-4240c90cd639","system_id":"levelo_inurba_marseille","lat":43.317557,"lon":5.390173,"is_reserved":false,"is_disabled":false,"rental_uris":{"android":"levelo://app?vid=085e0075-2732-47ec-8031-4240c90cd639","ios":"levelo://app?vid=085e0075-2732-47ec-8031-4240c90cd639"},"vehicle_type_id":"4","last_reported":1703178394,"current_range_meters":17600,"station_id":"ce4bhqp2rcd13ifvqhng","pricing_plan_id":"free"},{"bike_id":"1378810b-812d-44e5-847a-1b7aeb90e4c4","system_id":"levelo_inurba_marseille","lat":43.29587,"lon":5.37619,"is_reserved":false,"is_disabled":false,"rental_uris":{"android":"levelo://app?vid=1378810b-812d-44e5-847a-1b7aeb90e4c4","ios":"levelo://app?vid=1378810b-812d-44e5-847a-1b7aeb90e4c4"},"vehicle_type_id":"4","last_reported":1703178394,"current_range_meters":16400,"station_id":"","pricing_plan_id":"free"},{"bike_id":"2ed194e5-ee02-4f73-bff2-ecfb7878281c","system_id":"levelo_inurba_marseille","lat":43.29982,"lon":5.38494,"is_reserved":false,"is_disabled":false,"rental_uris":{"android":"levelo://app?vid=2ed194e5-ee02-4f73-bff2-ecfb7878281c","ios":"levelo://app?vid=2ed194e5-ee02-4f73-bff2-ecfb7878281c"},"vehicle_type_id":"4","last_reported":1703178394,"current_range_meters":0,"station_id":"ce4bgj92rcd13ifvqbd0","pricing_plan_id":"free"},{"bike_id":"17290f28-d543-48e4-ae8d-789301786fab","system_id":"levelo_inurba_marseille","lat":43.32367,"lon":5.388836,"is_reserved":false,"is_disabled":false,"rental_uris":{"android":"levelo://app?vid=17290f28-d543-48e4-ae8d-789301786fab","ios":"levelo://app?vid=17290f28-d543-48e4-ae8d-789301786fab"},"vehicle_type_id":"4","last_reported":1703178394,"current_range_meters":16000,"station_id":"ce4bhqp2rcd13ifvqhog","pricing_plan_id":"free"},{"bike_id":"7825f2e2-5dc0-48bf-9610-bf0be308ff43","system_id":"levelo_inurba_marseille","lat":43.32365,"lon":5.38884,"is_reserved":false,"is_disabled":false,"rental_uris":{"android":"levelo://app?vid=7825f2e2-5dc0-48bf-9610-bf0be308ff43","ios":"levelo://app?vid=7825f2e2-5dc0-48bf-9610-bf0be308ff43"},"vehicle_type_id":"4","last_reported":1703178394,"current_range_meters":2000,"station_id":"ce4bhqp2rcd13ifvqhog","pricing_plan_id":"free"},{"bike_id":"763c217b-672c-4296-aee9-c64696c61c79","system_id":"levelo_inurba_marseille","lat":43.32367,"lon":5.388836,"is_reserved":false,"is_disabled":false,"rental_uris":{"android":"levelo://app?vid=763c217b-672c-4296-aee9-c64696c61c79","ios":"levelo://app?vid=763c217b-672c-4296-aee9-c64696c61c79"},"vehicle_type_id":"4","last_reported":1703178394,"current_range_meters":12800,"station_id":"ce4bhqp2rcd13ifvqhog","pricing_plan_id":"free"},{"bike_id":"9ca42c61-3878-48cb-9f58-f1331784253e","system_id":"levelo_inurba_marseille","lat":43.293259,"lon":5.371586,"is_reserved":false,"is_disabled":false,"rental_uris":{"android":"levelo://app?vid=9ca42c61-3878-48cb-9f58-f1331784253e","ios":"levelo://app?vid=9ca42c61-3878-48cb-9f58-f1331784253e"},"vehicle_type_id":"4","last_reported":1703178394,"current_range_meters":3200,"station_id":"ce4bgh92rcd13ifvqb40","pricing_plan_id":"free"},{"bike_id":"b92d8c08-4834-44b1-858c-d7cabc5a10f3","system_id":"levelo_inurba_marseille","lat":43.29265,"lon":5.37628,"is_reserved":false,"is_disabled":false,"rental_uris":{"android":"levelo://app?vid=b92d8c08-4834-44b1-858c-d7cabc5a10f3","ios":"levelo://app?vid=b92d8c08-4834-44b1-858c-d7cabc5a10f3"},"vehicle_type_id":"4","last_reported":1703178394,"current_range_meters":26400,"station_id":"","pricing_plan_id":"free"},{"bike_id":"7bd6d563-375d-49df-a07d-59b5a11c925d","system_id":"levelo_inurba_marseille","lat":43.29871,"lon":5.38894,"is_reserved":false,"is_disabled":false,"rental_uris":{"android":"levelo://app?vid=7bd6d563-375d-49df-a07d-59b5a11c925d","ios":"levelo://app?vid=7bd6d563-375d-49df-a07d-59b5a11c925d"},"vehicle_type_id":"4","last_reported":1703178394,"current_range_meters":0,"station_id":"","pricing_plan_id":"free"},{"bike_id":"9b67374f-222c-4b4d-9635-8a4e4dec2d92","system_id":"levelo_inurba_marseille","lat":43.29879,"lon":5.38905,"is_reserved":false,"is_disabled":false,"rental_uris":{"android":"levelo://app?vid=9b67374f-222c-4b4d-9635-8a4e4dec2d92","ios":"levelo://app?vid=9b67374f-222c-4b4d-9635-8a4e4dec2d92"},"vehicle_type_id":"4","last_reported":1703178394,"current_range_meters":24800,"station_id":"","pricing_plan_id":"free"},{"bike_id":"e2cd3274-80e1-44d0-b122-63a88b800651","system_id":"levelo_inurba_marseille","lat":43.29871,"lon":5.38903,"is_reserved":false,"is_disabled":false,"rental_uris":{"android":"levelo://app?vid=e2cd3274-80e1-44d0-b122-63a88b800651","ios":"levelo://app?vid=e2cd3274-80e1-44d0-b122-63a88b800651"},"vehicle_type_id":"4","last_reported":1703178394,"current_range_meters":10400,"station_id":"","pricing_plan_id":"free"},{"bike_id":"ea0877b7-9f1a-4fe3-9f20-e57f2f43a772","system_id":"levelo_inurba_marseille","lat":43.302008,"lon":5.394694,"is_reserved":false,"is_disabled":false,"rental_uris":{"android":"levelo://app?vid=ea0877b7-9f1a-4fe3-9f20-e57f2f43a772","ios":"levelo://app?vid=ea0877b7-9f1a-4fe3-9f20-e57f2f43a772"},"vehicle_type_id":"4","last_reported":1703178394,"current_range_meters":2400,"station_id":"ce4bh0p2rcd13ifvqd70","pricing_plan_id":"free"},{"bike_id":"c5590ecf-6cd6-404c-9059-c2e34ab03060","system_id":"levelo_inurba_marseille","lat":43.291675,"lon":5.371583,"is_reserved":false,"is_disabled":false,"rental_uris":{"android":"levelo://app?vid=c5590ecf-6cd6-404c-9059-c2e34ab03060","ios":"levelo://app?vid=c5590ecf-6cd6-404c-9059-c2e34ab03060"},"vehicle_type_id":"4","last_reported":1703178394,"current_range_meters":13200,"station_id":"ce4bha92rcd13ifvqeh0","pricing_plan_id":"free"},{"bike_id":"4146715a-c6ea-494c-b01c-f1e56e7099c6","system_id":"levelo_inurba_marseille","lat":43.29869,"lon":5.38907,"is_reserved":false,"is_disabled":false,"rental_uris":{"android":"levelo://app?vid=4146715a-c6ea-494c-b01c-f1e56e7099c6","ios":"levelo://app?vid=4146715a-c6ea-494c-b01c-f1e56e7099c6"},"vehicle_type_id":"4","last_reported":1703178394,"current_range_meters":14000,"station_id":"","pricing_plan_id":"free"},{"bike_id":"91541a41-5a96-4edf-a418-67f3fbe81321","system_id":"levelo_inurba_marseille","lat":43.29854,"lon":5.38895,"is_reserved":false,"is_disabled":false,"rental_uris":{"android":"levelo://app?vid=91541a41-5a96-4edf-a418-67f3fbe81321","ios":"levelo://app?vid=91541a41-5a96-4edf-a418-67f3fbe81321"},"vehicle_type_id":"4","last_reported":1703178394,"current_range_meters":25200,"station_id":"","pricing_plan_id":"free"},{"bike_id":"68eb64d7-1242-4ed9-a8a2-9354c4e39b05","system_id":"levelo_inurba_marseille","lat":43.291671,"lon":5.371575,"is_reserved":false,"is_disabled":false,"rental_uris":{"android":"levelo://app?vid=68eb64d7-1242-4ed9-a8a2-9354c4e39b05","ios":"levelo://app?vid=68eb64d7-1242-4ed9-a8a2-9354c4e39b05"},"vehicle_type_id":"4","last_reported":1703178394,"current_range_meters":8800,"station_id":"ce4bha92rcd13ifvqeh0","pricing_plan_id":"free"},{"bike_id":"76a2df7c-8846-4b8e-aa15-721c791bae47","system_id":"levelo_inurba_marseille","lat":43.291994,"lon":5.357886,"is_reserved":false,"is_disabled":false,"rental_uris":{"android":"levelo://app?vid=76a2df7c-8846-4b8e-aa15-721c791bae47","ios":"levelo://app?vid=76a2df7c-8846-4b8e-aa15-721c791bae47"},"vehicle_type_id":"4","last_reported":1703178394,"current_range_meters":17200,"station_id":"ce4bhb12rcd13ifvqel0","pricing_plan_id":"free"},{"bike_id":"041a0c6c-a4a1-49d7-8f81-d1387763d1d0","system_id":"levelo_inurba_marseille","lat":43.313291,"lon":5.396838,"is_reserved":false,"is_disabled":false,"rental_uris":{"android":"levelo://app?vid=041a0c6c-a4a1-49d7-8f81-d1387763d1d0","ios":"levelo://app?vid=041a0c6c-a4a1-49d7-8f81-d1387763d1d0"},"vehicle_type_id":"4","last_reported":1703178394,"current_range_meters":8000,"station_id":"ce4bgvp2rcd13ifvqcu0","pricing_plan_id":"free"},{"bike_id":"45f99cda-befa-42ee-a2ee-ea05b8e79130","system_id":"levelo_inurba_marseille","lat":43.313291,"lon":5.396838,"is_reserved":false,"is_disabled":false,"rental_uris":{"android":"levelo://app?vid=45f99cda-befa-42ee-a2ee-ea05b8e79130","ios":"levelo://app?vid=45f99cda-befa-42ee-a2ee-ea05b8e79130"},"vehicle_type_id":"4","last_reported":1703178394,"current_range_meters":4800,"station_id":"ce4bgvp2rcd13ifvqcu0","pricing_plan_id":"free"},{"bike_id":"dadec077-0df0-4e3f-a2e2-94987a23d35f","system_id":"levelo_inurba_marseille","lat":43.313291,"lon":5.396838,"is_reserved":false,"is_disabled":false,"rental_uris":{"android":"levelo://app?vid=dadec077-0df0-4e3f-a2e2-94987a23d35f","ios":"levelo://app?vid=dadec077-0df0-4e3f-a2e2-94987a23d35f"},"vehicle_type_id":"4","last_reported":1703178394,"current_range_meters":18000,"station_id":"ce4bgvp2rcd13ifvqcu0","pricing_plan_id":"free"},{"bike_id":"7600b465-ae55-430f-a74a-3301103ebfcf","system_id":"levelo_inurba_marseille","lat":43.313291,"lon":5.396838,"is_reserved":false,"is_disabled":false,"rental_uris":{"android":"levelo://app?vid=7600b465-ae55-430f-a74a-3301103ebfcf","ios":"levelo://app?vid=7600b465-ae55-430f-a74a-3301103ebfcf"},"vehicle_type_id":"4","last_reported":1703178394,"current_range_meters":8800,"station_id":"ce4bgvp2rcd13ifvqcu0","pricing_plan_id":"free"},{"bike_id":"4dc35686-cc25-444b-ab42-7478e7650168","system_id":"levelo_inurba_marseille","lat":43.309047,"lon":5.396551,"is_reserved":false,"is_disabled":false,"rental_uris":{"android":"levelo://app?vid=4dc35686-cc25-444b-ab42-7478e7650168","ios":"levelo://app?vid=4dc35686-cc25-444b-ab42-7478e7650168"},"vehicle_type_id":"4","last_reported":1703178394,"current_range_meters":17600,"station_id":"ce4bh012rcd13ifvqcv0","pricing_plan_id":"free"},{"bike_id":"f8f6e17f-76f4-4cc2-bce0-928ff582ea20","system_id":"levelo_inurba_marseille","lat":43.29529,"lon":5.385581,"is_reserved":false,"is_disabled":false,"rental_uris":{"android":"levelo://app?vid=f8f6e17f-76f4-4cc2-bce0-928ff582ea20","ios":"levelo://app?vid=f8f6e17f-76f4-4cc2-bce0-928ff582ea20"},"vehicle_type_id":"4","last_reported":1703178394,"current_range_meters":20400,"station_id":"ce4bgih2rcd13ifvqba0","pricing_plan_id":"free"},{"bike_id":"a8383e13-2820-403d-92d9-4f3c3b17b1bc","system_id":"levelo_inurba_marseille","lat":43.29529,"lon":5.385581,"is_reserved":false,"is_disabled":false,"rental_uris":{"android":"levelo://app?vid=a8383e13-2820-403d-92d9-4f3c3b17b1bc","ios":"levelo://app?vid=a8383e13-2820-403d-92d9-4f3c3b17b1bc"},"vehicle_type_id":"4","last_reported":1703178394,"current_range_meters":14000,"station_id":"ce4bgih2rcd13ifvqba0","pricing_plan_id":"free"},{"bike_id":"b99734a3-6c85-44be-bc3e-e4e37bf00859","system_id":"levelo_inurba_marseille","lat":43.289184,"lon":5.366408,"is_reserved":false,"is_disabled":false,"rental_uris":{"android":"levelo://app?vid=b99734a3-6c85-44be-bc3e-e4e37bf00859","ios":"levelo://app?vid=b99734a3-6c85-44be-bc3e-e4e37bf00859"},"vehicle_type_id":"4","last_reported":1703178394,"current_range_meters":2000,"station_id":"ce4bhap2rcd13ifvqek0","pricing_plan_id":"free"},{"bike_id":"3dc90588-a7cc-4138-9e5c-85f4d5568cb0","system_id":"levelo_inurba_marseille","lat":43.2904,"lon":5.3769,"is_reserved":false,"is_disabled":false,"rental_uris":{"android":"levelo://app?vid=3dc90588-a7cc-4138-9e5c-85f4d5568cb0","ios":"levelo://app?vid=3dc90588-a7cc-4138-9e5c-85f4d5568cb0"},"vehicle_type_id":"4","last_reported":1703178394,"current_range_meters":0,"station_id":"","pricing_plan_id":"free"},{"bike_id":"583c5643-bacf-4856-95ce-7f3d80ea538a","system_id":"levelo_inurba_marseille","lat":43.292642,"lon":5.384254,"is_reserved":false,"is_disabled":false,"rental_uris":{"android":"levelo://app?vid=583c5643-bacf-4856-95ce-7f3d80ea538a","ios":"levelo://app?vid=583c5643-bacf-4856-95ce-7f3d80ea538a"},"vehicle_type_id":"4","last_reported":1703178394,"current_range_meters":14000,"station_id":"ce4bh692rcd13ifvqea0","pricing_plan_id":"free"},{"bike_id":"09c89a07-6502-4284-8173-258ef861c97b","system_id":"levelo_inurba_marseille","lat":43.292644,"lon":5.384257,"is_reserved":false,"is_disabled":false,"rental_uris":{"android":"levelo://app?vid=09c89a07-6502-4284-8173-258ef861c97b","ios":"levelo://app?vid=09c89a07-6502-4284-8173-258ef861c97b"},"vehicle_type_id":"4","last_reported":1703178394,"current_range_meters":20800,"station_id":"ce4bh692rcd13ifvqea0","pricing_plan_id":"free"},{"bike_id":"34cb68fe-8024-4d1d-9720-be98ab91f68a","system_id":"levelo_inurba_marseille","lat":43.292642,"lon":5.384254,"is_reserved":false,"is_disabled":false,"rental_uris":{"android":"levelo://app?vid=34cb68fe-8024-4d1d-9720-be98ab91f68a","ios":"levelo://app?vid=34cb68fe-8024-4d1d-9720-be98ab91f68a"},"vehicle_type_id":"4","last_reported":1703178394,"current_range_meters":6400,"station_id":"ce4bh692rcd13ifvqea0","pricing_plan_id":"free"},{"bike_id":"fe04619a-837f-4215-99fb-c7797369a2b1","system_id":"levelo_inurba_marseille","lat":43.330442,"lon":5.389148,"is_reserved":false,"is_disabled":false,"rental_uris":{"android":"levelo://app?vid=fe04619a-837f-4215-99fb-c7797369a2b1","ios":"levelo://app?vid=fe04619a-837f-4215-99fb-c7797369a2b1"},"vehicle_type_id":"4","last_reported":1703178394,"current_range_meters":21200,"station_id":"ce4bhr92rcd13ifvqhrg","pricing_plan_id":"free"},{"bike_id":"caf667f9-6a72-46ab-9f57-9d8cb007530f","system_id":"levelo_inurba_marseille","lat":43.30942,"lon":5.39964,"is_reserved":false,"is_disabled":false,"rental_uris":{"android":"levelo://app?vid=caf667f9-6a72-46ab-9f57-9d8cb007530f","ios":"levelo://app?vid=caf667f9-6a72-46ab-9f57-9d8cb007530f"},"vehicle_type_id":"4","last_reported":1703178394,"current_range_meters":12000,"station_id":"","pricing_plan_id":"free"},{"bike_id":"c2f6fc4c-a62a-4295-99ac-ec2328fc8587","system_id":"levelo_inurba_marseille","lat":43.29775,"lon":5.39334,"is_reserved":false,"is_disabled":false,"rental_uris":{"android":"levelo://app?vid=c2f6fc4c-a62a-4295-99ac-ec2328fc8587","ios":"levelo://app?vid=c2f6fc4c-a62a-4295-99ac-ec2328fc8587"},"vehicle_type_id":"4","last_reported":1703178394,"current_range_meters":8400,"station_id":"chh1huq6cuj3fo74tm60","pricing_plan_id":"free"},{"bike_id":"98ea034a-4ba0-4b14-84a3-b25239283589","system_id":"levelo_inurba_marseille","lat":43.289743,"lon":5.378304,"is_reserved":false,"is_disabled":false,"rental_uris":{"android":"levelo://app?vid=98ea034a-4ba0-4b14-84a3-b25239283589","ios":"levelo://app?vid=98ea034a-4ba0-4b14-84a3-b25239283589"},"vehicle_type_id":"4","last_reported":1703178394,"current_range_meters":20800,"station_id":"ce4bh9p2rcd13ifvqed0","pricing_plan_id":"free"},{"bike_id":"284c198b-f8b0-41cc-b11f-941e789c9784","system_id":"levelo_inurba_marseille","lat":43.295169,"lon":5.390426,"is_reserved":false,"is_disabled":false,"rental_uris":{"android":"levelo://app?vid=284c198b-f8b0-41cc-b11f-941e789c9784","ios":"levelo://app?vid=284c198b-f8b0-41cc-b11f-941e789c9784"},"vehicle_type_id":"4","last_reported":1703178394,"current_range_meters":8800,"station_id":"ce4bh3p2rcd13ifvqdp0","pricing_plan_id":"free"},{"bike_id":"a97e7ad7-8a0d-40ee-9a09-bed2902a4864","system_id":"levelo_inurba_marseille","lat":43.295169,"lon":5.390426,"is_reserved":false,"is_disabled":false,"rental_uris":{"android":"levelo://app?vid=a97e7ad7-8a0d-40ee-9a09-bed2902a4864","ios":"levelo://app?vid=a97e7ad7-8a0d-40ee-9a09-bed2902a4864"},"vehicle_type_id":"4","last_reported":1703178394,"current_range_meters":1200,"station_id":"ce4bh3p2rcd13ifvqdp0","pricing_plan_id":"free"},{"bike_id":"88a4fc51-8760-4157-b412-69690df81627","system_id":"levelo_inurba_marseille","lat":43.288571,"lon":5.358638,"is_reserved":false,"is_disabled":false,"rental_uris":{"android":"levelo://app?vid=88a4fc51-8760-4157-b412-69690df81627","ios":"levelo://app?vid=88a4fc51-8760-4157-b412-69690df81627"},"vehicle_type_id":"4","last_reported":1703178394,"current_range_meters":31200,"station_id":"ce4bhb12rcd13ifvqem0","pricing_plan_id":"free"},{"bike_id":"6b042dd6-86b8-42c0-811c-ed62bf488ead","system_id":"levelo_inurba_marseille","lat":43.28856,"lon":5.358371,"is_reserved":false,"is_disabled":false,"rental_uris":{"android":"levelo://app?vid=6b042dd6-86b8-42c0-811c-ed62bf488ead","ios":"levelo://app?vid=6b042dd6-86b8-42c0-811c-ed62bf488ead"},"vehicle_type_id":"4","last_reported":1703178394,"current_range_meters":24400,"station_id":"ce4bhb12rcd13ifvqem0","pricing_plan_id":"free"},{"bike_id":"a3dcd3ae-94fe-4858-8289-9607b0a21047","system_id":"levelo_inurba_marseille","lat":43.33742,"lon":5.37462,"is_reserved":false,"is_disabled":false,"rental_uris":{"android":"levelo://app?vid=a3dcd3ae-94fe-4858-8289-9607b0a21047","ios":"levelo://app?vid=a3dcd3ae-94fe-4858-8289-9607b0a21047"},"vehicle_type_id":"4","last_reported":1703178394,"current_range_meters":22800,"station_id":"","pricing_plan_id":"free"},{"bike_id":"80166fcd-c94c-4688-9a77-1ee9cf9d6e4f","system_id":"levelo_inurba_marseille","lat":43.309371,"lon":5.401449,"is_reserved":false,"is_disabled":false,"rental_uris":{"android":"levelo://app?vid=80166fcd-c94c-4688-9a77-1ee9cf9d6e4f","ios":"levelo://app?vid=80166fcd-c94c-4688-9a77-1ee9cf9d6e4f"},"vehicle_type_id":"4","last_reported":1703178394,"current_range_meters":11600,"station_id":"ce4bgvp2rcd13ifvqct0","pricing_plan_id":"free"},{"bike_id":"5c81a891-9f9f-45af-8799-b5e5314532fa","system_id":"levelo_inurba_marseille","lat":43.33754,"lon":5.37467,"is_reserved":false,"is_disabled":false,"rental_uris":{"android":"levelo://app?vid=5c81a891-9f9f-45af-8799-b5e5314532fa","ios":"levelo://app?vid=5c81a891-9f9f-45af-8799-b5e5314532fa"},"vehicle_type_id":"4","last_reported":1703178394,"current_range_meters":27600,"station_id":"","pricing_plan_id":"free"},{"bike_id":"fe11a1ae-09a9-4be3-a255-98f73222b6c3","system_id":"levelo_inurba_marseille","lat":43.3376,"lon":5.37473,"is_reserved":false,"is_disabled":false,"rental_uris":{"android":"levelo://app?vid=fe11a1ae-09a9-4be3-a255-98f73222b6c3","ios":"levelo://app?vid=fe11a1ae-09a9-4be3-a255-98f73222b6c3"},"vehicle_type_id":"4","last_reported":1703178394,"current_range_meters":27600,"station_id":"","pricing_plan_id":"free"},{"bike_id":"3dfe4322-97cf-47e1-83cb-02444783bb31","system_id":"levelo_inurba_marseille","lat":43.306412,"lon":5.401035,"is_reserved":false,"is_disabled":false,"rental_uris":{"android":"levelo://app?vid=3dfe4322-97cf-47e1-83cb-02444783bb31","ios":"levelo://app?vid=3dfe4322-97cf-47e1-83cb-02444783bb31"},"vehicle_type_id":"4","last_reported":1703178394,"current_range_meters":6800,"station_id":"ce4bh112rcd13ifvqda0","pricing_plan_id":"free"},{"bike_id":"2d18292d-856d-41f0-b37a-1cd5abab7b9f","system_id":"levelo_inurba_marseille","lat":43.306412,"lon":5.401035,"is_reserved":false,"is_disabled":false,"rental_uris":{"android":"levelo://app?vid=2d18292d-856d-41f0-b37a-1cd5abab7b9f","ios":"levelo://app?vid=2d18292d-856d-41f0-b37a-1cd5abab7b9f"},"vehicle_type_id":"4","last_reported":1703178394,"current_range_meters":25200,"station_id":"ce4bh112rcd13ifvqda0","pricing_plan_id":"free"},{"bike_id":"3be16c03-3924-4add-b3b8-ee14479ec937","system_id":"levelo_inurba_marseille","lat":43.337682,"lon":5.374735,"is_reserved":false,"is_disabled":false,"rental_uris":{"android":"levelo://app?vid=3be16c03-3924-4add-b3b8-ee14479ec937","ios":"levelo://app?vid=3be16c03-3924-4add-b3b8-ee14479ec937"},"vehicle_type_id":"4","last_reported":1703178394,"current_range_meters":0,"station_id":"","pricing_plan_id":"free"},{"bike_id":"ecad0ffe-c638-41e8-a5d3-d8ba7ad93d38","system_id":"levelo_inurba_marseille","lat":43.301117,"lon":5.398795,"is_reserved":false,"is_disabled":false,"rental_uris":{"android":"levelo://app?vid=ecad0ffe-c638-41e8-a5d3-d8ba7ad93d38","ios":"levelo://app?vid=ecad0ffe-c638-41e8-a5d3-d8ba7ad93d38"},"vehicle_type_id":"4","last_reported":1703178394,"current_range_meters":23600,"station_id":"ce4bh0h2rcd13ifvqd40","pricing_plan_id":"free"},{"bike_id":"88b93662-7666-40db-8f91-c83754121d78","system_id":"levelo_inurba_marseille","lat":43.28727,"lon":5.36078,"is_reserved":false,"is_disabled":false,"rental_uris":{"android":"levelo://app?vid=88b93662-7666-40db-8f91-c83754121d78","ios":"levelo://app?vid=88b93662-7666-40db-8f91-c83754121d78"},"vehicle_type_id":"4","last_reported":1703178394,"current_range_meters":28000,"station_id":"cki0cbj6b192h4jlfktg","pricing_plan_id":"free"},{"bike_id":"d386a8f3-4c92-498e-bb27-8fd05fabbad7","system_id":"levelo_inurba_marseille","lat":43.298681,"lon":5.397225,"is_reserved":false,"is_disabled":false,"rental_uris":{"android":"levelo://app?vid=d386a8f3-4c92-498e-bb27-8fd05fabbad7","ios":"levelo://app?vid=d386a8f3-4c92-498e-bb27-8fd05fabbad7"},"vehicle_type_id":"4","last_reported":1703178394,"current_range_meters":24400,"station_id":"ce4bh0h2rcd13ifvqd50","pricing_plan_id":"free"},{"bike_id":"55a45941-d7d2-4449-ab05-45e72144cf47","system_id":"levelo_inurba_marseille","lat":43.298681,"lon":5.397225,"is_reserved":false,"is_disabled":false,"rental_uris":{"android":"levelo://app?vid=55a45941-d7d2-4449-ab05-45e72144cf47","ios":"levelo://app?vid=55a45941-d7d2-4449-ab05-45e72144cf47"},"vehicle_type_id":"4","last_reported":1703178394,"current_range_meters":18000,"station_id":"ce4bh0h2rcd13ifvqd50","pricing_plan_id":"free"},{"bike_id":"0beab31e-15fd-433a-a12f-721702be8dd9","system_id":"levelo_inurba_marseille","lat":43.286961,"lon":5.373785,"is_reserved":false,"is_disabled":false,"rental_uris":{"android":"levelo://app?vid=0beab31e-15fd-433a-a12f-721702be8dd9","ios":"levelo://app?vid=0beab31e-15fd-433a-a12f-721702be8dd9"},"vehicle_type_id":"4","last_reported":1703178394,"current_range_meters":2800,"station_id":"ce4bh3p2rcd13ifvqdq0","pricing_plan_id":"free"},{"bike_id":"ea2aea77-0c91-4069-9ce5-24abc05efa68","system_id":"levelo_inurba_marseille","lat":43.298681,"lon":5.397225,"is_reserved":false,"is_disabled":false,"rental_uris":{"android":"levelo://app?vid=ea2aea77-0c91-4069-9ce5-24abc05efa68","ios":"levelo://app?vid=ea2aea77-0c91-4069-9ce5-24abc05efa68"},"vehicle_type_id":"4","last_reported":1703178394,"current_range_meters":16800,"station_id":"ce4bh0h2rcd13ifvqd50","pricing_plan_id":"free"},{"bike_id":"8bd97516-363d-4c35-8779-0dc8f290e812","system_id":"levelo_inurba_marseille","lat":43.286591,"lon":5.363346,"is_reserved":false,"is_disabled":false,"rental_uris":{"android":"levelo://app?vid=8bd97516-363d-4c35-8779-0dc8f290e812","ios":"levelo://app?vid=8bd97516-363d-4c35-8779-0dc8f290e812"},"vehicle_type_id":"4","last_reported":1703178394,"current_range_meters":20000,"station_id":"ce4bhah2rcd13ifvqej0","pricing_plan_id":"free"},{"bike_id":"d2f8d376-2eeb-42a0-84b1-7cfe3efadfb3","system_id":"levelo_inurba_marseille","lat":43.298681,"lon":5.397225,"is_reserved":false,"is_disabled":false,"rental_uris":{"android":"levelo://app?vid=d2f8d376-2eeb-42a0-84b1-7cfe3efadfb3","ios":"levelo://app?vid=d2f8d376-2eeb-42a0-84b1-7cfe3efadfb3"},"vehicle_type_id":"4","last_reported":1703178394,"current_range_meters":20000,"station_id":"ce4bh0h2rcd13ifvqd50","pricing_plan_id":"free"},{"bike_id":"8fb48bca-2c3d-43bb-a518-f0adf68b9b4f","system_id":"levelo_inurba_marseille","lat":43.302759,"lon":5.400793,"is_reserved":false,"is_disabled":false,"rental_uris":{"android":"levelo://app?vid=8fb48bca-2c3d-43bb-a518-f0adf68b9b4f","ios":"levelo://app?vid=8fb48bca-2c3d-43bb-a518-f0adf68b9b4f"},"vehicle_type_id":"4","last_reported":1703178394,"current_range_meters":0,"station_id":"ce4bgvh2rcd13ifvqcs0","pricing_plan_id":"free"},{"bike_id":"c62f750a-a34a-4fc0-9fbf-886ed3d41297","system_id":"levelo_inurba_marseille","lat":43.290345,"lon":5.38646,"is_reserved":false,"is_disabled":false,"rental_uris":{"android":"levelo://app?vid=c62f750a-a34a-4fc0-9fbf-886ed3d41297","ios":"levelo://app?vid=c62f750a-a34a-4fc0-9fbf-886ed3d41297"},"vehicle_type_id":"4","last_reported":1703178394,"current_range_meters":3600,"station_id":"ce4bh4p2rcd13ifvqe0g","pricing_plan_id":"free"},{"bike_id":"4ea23f12-a508-4ad4-8dae-d6258f3bcdf1","system_id":"levelo_inurba_marseille","lat":43.289307,"lon":5.38406,"is_reserved":false,"is_disabled":false,"rental_uris":{"android":"levelo://app?vid=4ea23f12-a508-4ad4-8dae-d6258f3bcdf1","ios":"levelo://app?vid=4ea23f12-a508-4ad4-8dae-d6258f3bcdf1"},"vehicle_type_id":"4","last_reported":1703178394,"current_range_meters":21200,"station_id":"ce4bh612rcd13ifvqe6g","pricing_plan_id":"free"},{"bike_id":"657b4d30-11c4-4174-ae70-5f17e3ee8719","system_id":"levelo_inurba_marseille","lat":43.286039,"lon":5.370679,"is_reserved":false,"is_disabled":false,"rental_uris":{"android":"levelo://app?vid=657b4d30-11c4-4174-ae70-5f17e3ee8719","ios":"levelo://app?vid=657b4d30-11c4-4174-ae70-5f17e3ee8719"},"vehicle_type_id":"4","last_reported":1703178394,"current_range_meters":18400,"station_id":"ce4bht12rcd13ifvqi60","pricing_plan_id":"free"},{"bike_id":"4d882ab1-2188-4a1b-93c0-ea8a8c1f82e2","system_id":"levelo_inurba_marseille","lat":43.286039,"lon":5.370679,"is_reserved":false,"is_disabled":false,"rental_uris":{"android":"levelo://app?vid=4d882ab1-2188-4a1b-93c0-ea8a8c1f82e2","ios":"levelo://app?vid=4d882ab1-2188-4a1b-93c0-ea8a8c1f82e2"},"vehicle_type_id":"4","last_reported":1703178394,"current_range_meters":22400,"station_id":"ce4bht12rcd13ifvqi60","pricing_plan_id":"free"},{"bike_id":"6c51907d-9b52-4986-bc4a-49eca6ddcb97","system_id":"levelo_inurba_marseille","lat":43.286039,"lon":5.370679,"is_reserved":false,"is_disabled":false,"rental_uris":{"android":"levelo://app?vid=6c51907d-9b52-4986-bc4a-49eca6ddcb97","ios":"levelo://app?vid=6c51907d-9b52-4986-bc4a-49eca6ddcb97"},"vehicle_type_id":"4","last_reported":1703178394,"current_range_meters":16000,"station_id":"ce4bht12rcd13ifvqi60","pricing_plan_id":"free"},{"bike_id":"983ef4bd-15ac-4651-8cde-3bd14abec0b1","system_id":"levelo_inurba_marseille","lat":43.28608,"lon":5.37078,"is_reserved":false,"is_disabled":false,"rental_uris":{"android":"levelo://app?vid=983ef4bd-15ac-4651-8cde-3bd14abec0b1","ios":"levelo://app?vid=983ef4bd-15ac-4651-8cde-3bd14abec0b1"},"vehicle_type_id":"4","last_reported":1703178394,"current_range_meters":400,"station_id":"ce4bht12rcd13ifvqi60","pricing_plan_id":"free"},{"bike_id":"c8e1d876-2b6d-479f-b822-e1da01f42719","system_id":"levelo_inurba_marseille","lat":43.2872,"lon":5.37943,"is_reserved":false,"is_disabled":false,"rental_uris":{"android":"levelo://app?vid=c8e1d876-2b6d-479f-b822-e1da01f42719","ios":"levelo://app?vid=c8e1d876-2b6d-479f-b822-e1da01f42719"},"vehicle_type_id":"4","last_reported":1703178394,"current_range_meters":17600,"station_id":"ce4bh9p2rcd13ifvqec0","pricing_plan_id":"free"},{"bike_id":"e6baa5ab-65aa-4a5e-af75-f135106135e0","system_id":"levelo_inurba_marseille","lat":43.316821,"lon":5.404737,"is_reserved":false,"is_disabled":false,"rental_uris":{"android":"levelo://app?vid=e6baa5ab-65aa-4a5e-af75-f135106135e0","ios":"levelo://app?vid=e6baa5ab-65aa-4a5e-af75-f135106135e0"},"vehicle_type_id":"4","last_reported":1703178394,"current_range_meters":22800,"station_id":"ce4bh012rcd13ifvqd00","pricing_plan_id":"free"},{"bike_id":"63c7db77-5190-4f99-8c62-de8c3e3e2d0b","system_id":"levelo_inurba_marseille","lat":43.2847,"lon":5.35888,"is_reserved":false,"is_disabled":false,"rental_uris":{"android":"levelo://app?vid=63c7db77-5190-4f99-8c62-de8c3e3e2d0b","ios":"levelo://app?vid=63c7db77-5190-4f99-8c62-de8c3e3e2d0b"},"vehicle_type_id":"4","last_reported":1703178394,"current_range_meters":11600,"station_id":"ce4bhah2rcd13ifvqei0","pricing_plan_id":"free"},{"bike_id":"678dc117-b484-48de-b728-ec87e95fccf0","system_id":"levelo_inurba_marseille","lat":43.28454,"lon":5.35888,"is_reserved":false,"is_disabled":false,"rental_uris":{"android":"levelo://app?vid=678dc117-b484-48de-b728-ec87e95fccf0","ios":"levelo://app?vid=678dc117-b484-48de-b728-ec87e95fccf0"},"vehicle_type_id":"4","last_reported":1703178394,"current_range_meters":0,"station_id":"ce4bhah2rcd13ifvqei0","pricing_plan_id":"free"},{"bike_id":"5d5d0dd1-0055-41d9-950c-3a2c80867af9","system_id":"levelo_inurba_marseille","lat":43.294314,"lon":5.397498,"is_reserved":false,"is_disabled":false,"rental_uris":{"android":"levelo://app?vid=5d5d0dd1-0055-41d9-950c-3a2c80867af9","ios":"levelo://app?vid=5d5d0dd1-0055-41d9-950c-3a2c80867af9"},"vehicle_type_id":"4","last_reported":1703178394,"current_range_meters":13600,"station_id":"ce4bh3h2rcd13ifvqdo0","pricing_plan_id":"free"},{"bike_id":"8538e6dd-dbef-4a5a-a119-9a857fd021ad","system_id":"levelo_inurba_marseille","lat":43.33218,"lon":5.397067,"is_reserved":false,"is_disabled":false,"rental_uris":{"android":"levelo://app?vid=8538e6dd-dbef-4a5a-a119-9a857fd021ad","ios":"levelo://app?vid=8538e6dd-dbef-4a5a-a119-9a857fd021ad"},"vehicle_type_id":"4","last_reported":1703178394,"current_range_meters":0,"station_id":"","pricing_plan_id":"free"},{"bike_id":"3bc54e9a-fe28-4623-94a2-a880aad1dcf3","system_id":"levelo_inurba_marseille","lat":43.286595,"lon":5.386795,"is_reserved":false,"is_disabled":false,"rental_uris":{"android":"levelo://app?vid=3bc54e9a-fe28-4623-94a2-a880aad1dcf3","ios":"levelo://app?vid=3bc54e9a-fe28-4623-94a2-a880aad1dcf3"},"vehicle_type_id":"4","last_reported":1703178394,"current_range_meters":25600,"station_id":"ce4bh492rcd13ifvqdug","pricing_plan_id":"free"},{"bike_id":"dfdadb00-295f-4147-bb7b-992e830130a9","system_id":"levelo_inurba_marseille","lat":43.323464,"lon":5.406297,"is_reserved":false,"is_disabled":false,"rental_uris":{"android":"levelo://app?vid=dfdadb00-295f-4147-bb7b-992e830130a9","ios":"levelo://app?vid=dfdadb00-295f-4147-bb7b-992e830130a9"},"vehicle_type_id":"4","last_reported":1703178394,"current_range_meters":31200,"station_id":"ce4bhq92rcd13ifvqhjg","pricing_plan_id":"free"},{"bike_id":"92fa519e-3e6a-4d7d-80b2-fc54d58e8a3f","system_id":"levelo_inurba_marseille","lat":43.323464,"lon":5.406297,"is_reserved":false,"is_disabled":false,"rental_uris":{"android":"levelo://app?vid=92fa519e-3e6a-4d7d-80b2-fc54d58e8a3f","ios":"levelo://app?vid=92fa519e-3e6a-4d7d-80b2-fc54d58e8a3f"},"vehicle_type_id":"4","last_reported":1703178394,"current_range_meters":4800,"station_id":"ce4bhq92rcd13ifvqhjg","pricing_plan_id":"free"},{"bike_id":"0f42eedd-bd33-445f-91fc-4e7504a96eb4","system_id":"levelo_inurba_marseille","lat":43.324216,"lon":5.40706,"is_reserved":false,"is_disabled":false,"rental_uris":{"android":"levelo://app?vid=0f42eedd-bd33-445f-91fc-4e7504a96eb4","ios":"levelo://app?vid=0f42eedd-bd33-445f-91fc-4e7504a96eb4"},"vehicle_type_id":"4","last_reported":1703178394,"current_range_meters":16400,"station_id":"","pricing_plan_id":"free"},{"bike_id":"d2cb7bdb-9802-4814-bd32-6be0b238173d","system_id":"levelo_inurba_marseille","lat":43.28039,"lon":5.369297,"is_reserved":false,"is_disabled":false,"rental_uris":{"android":"levelo://app?vid=d2cb7bdb-9802-4814-bd32-6be0b238173d","ios":"levelo://app?vid=d2cb7bdb-9802-4814-bd32-6be0b238173d"},"vehicle_type_id":"4","last_reported":1703178394,"current_range_meters":11200,"station_id":"ce4bha12rcd13ifvqef0","pricing_plan_id":"free"},{"bike_id":"63402adb-16dc-44dd-b9fc-eeb0b5bb4641","system_id":"levelo_inurba_marseille","lat":43.28039,"lon":5.369297,"is_reserved":false,"is_disabled":false,"rental_uris":{"android":"levelo://app?vid=63402adb-16dc-44dd-b9fc-eeb0b5bb4641","ios":"levelo://app?vid=63402adb-16dc-44dd-b9fc-eeb0b5bb4641"},"vehicle_type_id":"4","last_reported":1703178394,"current_range_meters":3600,"station_id":"ce4bha12rcd13ifvqef0","pricing_plan_id":"free"},{"bike_id":"bf7dfc0e-301f-4b51-a6cb-fdffbd71b980","system_id":"levelo_inurba_marseille","lat":43.28039,"lon":5.369297,"is_reserved":false,"is_disabled":false,"rental_uris":{"android":"levelo://app?vid=bf7dfc0e-301f-4b51-a6cb-fdffbd71b980","ios":"levelo://app?vid=bf7dfc0e-301f-4b51-a6cb-fdffbd71b980"},"vehicle_type_id":"4","last_reported":1703178394,"current_range_meters":22000,"station_id":"ce4bha12rcd13ifvqef0","pricing_plan_id":"free"},{"bike_id":"4981f2c4-d667-457e-805c-36f81932423d","system_id":"levelo_inurba_marseille","lat":43.28039,"lon":5.369297,"is_reserved":false,"is_disabled":false,"rental_uris":{"android":"levelo://app?vid=4981f2c4-d667-457e-805c-36f81932423d","ios":"levelo://app?vid=4981f2c4-d667-457e-805c-36f81932423d"},"vehicle_type_id":"4","last_reported":1703178394,"current_range_meters":7200,"station_id":"ce4bha12rcd13ifvqef0","pricing_plan_id":"free"},{"bike_id":"bc601e55-e020-4fa8-b32a-2ed78dfbafc6","system_id":"levelo_inurba_marseille","lat":43.281044,"lon":5.378308,"is_reserved":false,"is_disabled":false,"rental_uris":{"android":"levelo://app?vid=bc601e55-e020-4fa8-b32a-2ed78dfbafc6","ios":"levelo://app?vid=bc601e55-e020-4fa8-b32a-2ed78dfbafc6"},"vehicle_type_id":"4","last_reported":1703178394,"current_range_meters":9600,"station_id":"ce4bha12rcd13ifvqee0","pricing_plan_id":"free"},{"bike_id":"8699c6d1-9b77-48ec-a6c3-bd66a8b52a83","system_id":"levelo_inurba_marseille","lat":43.284462,"lon":5.392121,"is_reserved":false,"is_disabled":false,"rental_uris":{"android":"levelo://app?vid=8699c6d1-9b77-48ec-a6c3-bd66a8b52a83","ios":"levelo://app?vid=8699c6d1-9b77-48ec-a6c3-bd66a8b52a83"},"vehicle_type_id":"4","last_reported":1703178394,"current_range_meters":2000,"station_id":"ce4bhoh2rcd13ifvqh5g","pricing_plan_id":"free"},{"bike_id":"07e921ea-0f34-42b8-afcf-576ee4bdb044","system_id":"levelo_inurba_marseille","lat":43.28573,"lon":5.394992,"is_reserved":false,"is_disabled":false,"rental_uris":{"android":"levelo://app?vid=07e921ea-0f34-42b8-afcf-576ee4bdb044","ios":"levelo://app?vid=07e921ea-0f34-42b8-afcf-576ee4bdb044"},"vehicle_type_id":"4","last_reported":1703178394,"current_range_meters":16000,"station_id":"ce4bh292rcd13ifvqdg0","pricing_plan_id":"free"},{"bike_id":"5a51ed0f-836b-4f43-b481-1cf923b2ed4d","system_id":"levelo_inurba_marseille","lat":43.279087,"lon":5.380114,"is_reserved":false,"is_disabled":false,"rental_uris":{"android":"levelo://app?vid=5a51ed0f-836b-4f43-b481-1cf923b2ed4d","ios":"levelo://app?vid=5a51ed0f-836b-4f43-b481-1cf923b2ed4d"},"vehicle_type_id":"4","last_reported":1703178394,"current_range_meters":25600,"station_id":"ce4bhf92rcd13ifvqf50","pricing_plan_id":"free"},{"bike_id":"c94ea1bd-c4e3-4284-8139-658570105885","system_id":"levelo_inurba_marseille","lat":43.320045,"lon":5.415048,"is_reserved":false,"is_disabled":false,"rental_uris":{"android":"levelo://app?vid=c94ea1bd-c4e3-4284-8139-658570105885","ios":"levelo://app?vid=c94ea1bd-c4e3-4284-8139-658570105885"},"vehicle_type_id":"4","last_reported":1703178394,"current_range_meters":15200,"station_id":"ce4bhq92rcd13ifvqhkg","pricing_plan_id":"free"},{"bike_id":"a464aa3c-b69d-44e7-aa68-f0c6782a6079","system_id":"levelo_inurba_marseille","lat":43.320045,"lon":5.415048,"is_reserved":false,"is_disabled":false,"rental_uris":{"android":"levelo://app?vid=a464aa3c-b69d-44e7-aa68-f0c6782a6079","ios":"levelo://app?vid=a464aa3c-b69d-44e7-aa68-f0c6782a6079"},"vehicle_type_id":"4","last_reported":1703178394,"current_range_meters":18800,"station_id":"ce4bhq92rcd13ifvqhkg","pricing_plan_id":"free"},{"bike_id":"ad5169ae-6589-4e87-8163-57e95de89896","system_id":"levelo_inurba_marseille","lat":43.279742,"lon":5.38744,"is_reserved":false,"is_disabled":false,"rental_uris":{"android":"levelo://app?vid=ad5169ae-6589-4e87-8163-57e95de89896","ios":"levelo://app?vid=ad5169ae-6589-4e87-8163-57e95de89896"},"vehicle_type_id":"4","last_reported":1703178394,"current_range_meters":25200,"station_id":"ce4bhg12rcd13ifvqf80","pricing_plan_id":"free"},{"bike_id":"b4ecc740-390a-4b50-8fb6-38fc245e370b","system_id":"levelo_inurba_marseille","lat":43.279742,"lon":5.38744,"is_reserved":false,"is_disabled":false,"rental_uris":{"android":"levelo://app?vid=b4ecc740-390a-4b50-8fb6-38fc245e370b","ios":"levelo://app?vid=b4ecc740-390a-4b50-8fb6-38fc245e370b"},"vehicle_type_id":"4","last_reported":1703178394,"current_range_meters":7200,"station_id":"ce4bhg12rcd13ifvqf80","pricing_plan_id":"free"},{"bike_id":"8bb50f8c-603f-40f7-b1f9-dd572ceeb53f","system_id":"levelo_inurba_marseille","lat":43.325243,"lon":5.414326,"is_reserved":false,"is_disabled":false,"rental_uris":{"android":"levelo://app?vid=8bb50f8c-603f-40f7-b1f9-dd572ceeb53f","ios":"levelo://app?vid=8bb50f8c-603f-40f7-b1f9-dd572ceeb53f"},"vehicle_type_id":"4","last_reported":1703178394,"current_range_meters":7200,"station_id":"ce4bhq12rcd13ifvqhhg","pricing_plan_id":"free"},{"bike_id":"73a4c45f-a923-4b18-946d-c257f503290b","system_id":"levelo_inurba_marseille","lat":43.325233,"lon":5.414318,"is_reserved":false,"is_disabled":false,"rental_uris":{"android":"levelo://app?vid=73a4c45f-a923-4b18-946d-c257f503290b","ios":"levelo://app?vid=73a4c45f-a923-4b18-946d-c257f503290b"},"vehicle_type_id":"4","last_reported":1703178394,"current_range_meters":1200,"station_id":"ce4bhq12rcd13ifvqhhg","pricing_plan_id":"free"},{"bike_id":"3f342a6e-d12a-44c5-83ed-bc116d0cd061","system_id":"levelo_inurba_marseille","lat":43.292571,"lon":5.409107,"is_reserved":false,"is_disabled":false,"rental_uris":{"android":"levelo://app?vid=3f342a6e-d12a-44c5-83ed-bc116d0cd061","ios":"levelo://app?vid=3f342a6e-d12a-44c5-83ed-bc116d0cd061"},"vehicle_type_id":"4","last_reported":1703178394,"current_range_meters":24000,"station_id":"ce4bh192rcd13ifvqdc0","pricing_plan_id":"free"},{"bike_id":"3a0bbb21-6fb9-4264-930e-8c567dbb0f4c","system_id":"levelo_inurba_marseille","lat":43.292569,"lon":5.409107,"is_reserved":false,"is_disabled":false,"rental_uris":{"android":"levelo://app?vid=3a0bbb21-6fb9-4264-930e-8c567dbb0f4c","ios":"levelo://app?vid=3a0bbb21-6fb9-4264-930e-8c567dbb0f4c"},"vehicle_type_id":"4","last_reported":1703178394,"current_range_meters":6400,"station_id":"ce4bh192rcd13ifvqdc0","pricing_plan_id":"free"},{"bike_id":"c309af18-9dcf-4fee-8e25-835e41891ae8","system_id":"levelo_inurba_marseille","lat":43.292569,"lon":5.409107,"is_reserved":false,"is_disabled":false,"rental_uris":{"android":"levelo://app?vid=c309af18-9dcf-4fee-8e25-835e41891ae8","ios":"levelo://app?vid=c309af18-9dcf-4fee-8e25-835e41891ae8"},"vehicle_type_id":"4","last_reported":1703178394,"current_range_meters":12400,"station_id":"ce4bh192rcd13ifvqdc0","pricing_plan_id":"free"},{"bike_id":"2a474107-c955-4058-bcc9-a70af6be9de7","system_id":"levelo_inurba_marseille","lat":43.280784,"lon":5.396622,"is_reserved":false,"is_disabled":false,"rental_uris":{"android":"levelo://app?vid=2a474107-c955-4058-bcc9-a70af6be9de7","ios":"levelo://app?vid=2a474107-c955-4058-bcc9-a70af6be9de7"},"vehicle_type_id":"4","last_reported":1703178394,"current_range_meters":3200,"station_id":"ce4bho12rcd13ifvqh2g","pricing_plan_id":"free"},{"bike_id":"ff1859db-c325-4be0-bc8c-cd5cf58b96c7","system_id":"levelo_inurba_marseille","lat":43.280784,"lon":5.396622,"is_reserved":false,"is_disabled":false,"rental_uris":{"android":"levelo://app?vid=ff1859db-c325-4be0-bc8c-cd5cf58b96c7","ios":"levelo://app?vid=ff1859db-c325-4be0-bc8c-cd5cf58b96c7"},"vehicle_type_id":"4","last_reported":1703178394,"current_range_meters":21200,"station_id":"ce4bho12rcd13ifvqh2g","pricing_plan_id":"free"},{"bike_id":"000d3c34-cabd-4bb1-8e18-db23430167a5","system_id":"levelo_inurba_marseille","lat":43.280784,"lon":5.396622,"is_reserved":false,"is_disabled":false,"rental_uris":{"android":"levelo://app?vid=000d3c34-cabd-4bb1-8e18-db23430167a5","ios":"levelo://app?vid=000d3c34-cabd-4bb1-8e18-db23430167a5"},"vehicle_type_id":"4","last_reported":1703178394,"current_range_meters":1200,"station_id":"ce4bho12rcd13ifvqh2g","pricing_plan_id":"free"},{"bike_id":"5dc355b4-d3d5-4543-b62e-d13182f0e2eb","system_id":"levelo_inurba_marseille","lat":43.303837,"lon":5.418724,"is_reserved":false,"is_disabled":false,"rental_uris":{"android":"levelo://app?vid=5dc355b4-d3d5-4543-b62e-d13182f0e2eb","ios":"levelo://app?vid=5dc355b4-d3d5-4543-b62e-d13182f0e2eb"},"vehicle_type_id":"4","last_reported":1703178394,"current_range_meters":13200,"station_id":"ce4bhop2rcd13ifvqh7g","pricing_plan_id":"free"},{"bike_id":"cb532c74-8ddd-4550-9ed2-2779ab22548b","system_id":"levelo_inurba_marseille","lat":43.278401,"lon":5.392152,"is_reserved":false,"is_disabled":false,"rental_uris":{"android":"levelo://app?vid=cb532c74-8ddd-4550-9ed2-2779ab22548b","ios":"levelo://app?vid=cb532c74-8ddd-4550-9ed2-2779ab22548b"},"vehicle_type_id":"4","last_reported":1703178394,"current_range_meters":16800,"station_id":"ce4bhjp2rcd13ifvqga0","pricing_plan_id":"free"},{"bike_id":"3d112413-902f-4ddd-a9a1-97f5e1cbc95c","system_id":"levelo_inurba_marseille","lat":43.275625,"lon":5.384392,"is_reserved":false,"is_disabled":false,"rental_uris":{"android":"levelo://app?vid=3d112413-902f-4ddd-a9a1-97f5e1cbc95c","ios":"levelo://app?vid=3d112413-902f-4ddd-a9a1-97f5e1cbc95c"},"vehicle_type_id":"4","last_reported":1703178394,"current_range_meters":14800,"station_id":"ce4bhh92rcd13ifvqfi0","pricing_plan_id":"free"},{"bike_id":"e10cc150-4041-48d5-aaa1-023406c60c29","system_id":"levelo_inurba_marseille","lat":43.273613,"lon":5.362705,"is_reserved":false,"is_disabled":false,"rental_uris":{"android":"levelo://app?vid=e10cc150-4041-48d5-aaa1-023406c60c29","ios":"levelo://app?vid=e10cc150-4041-48d5-aaa1-023406c60c29"},"vehicle_type_id":"4","last_reported":1703178394,"current_range_meters":15200,"station_id":"ce4bhbh2rcd13ifvqeo0","pricing_plan_id":"free"},{"bike_id":"1178ddb5-21e4-412e-b381-f8e527b4c1c4","system_id":"levelo_inurba_marseille","lat":43.275625,"lon":5.384392,"is_reserved":false,"is_disabled":false,"rental_uris":{"android":"levelo://app?vid=1178ddb5-21e4-412e-b381-f8e527b4c1c4","ios":"levelo://app?vid=1178ddb5-21e4-412e-b381-f8e527b4c1c4"},"vehicle_type_id":"4","last_reported":1703178394,"current_range_meters":13600,"station_id":"ce4bhh92rcd13ifvqfi0","pricing_plan_id":"free"},{"bike_id":"4e9406a0-5f2c-4f41-970e-65c69252612f","system_id":"levelo_inurba_marseille","lat":43.273609,"lon":5.362708,"is_reserved":false,"is_disabled":false,"rental_uris":{"android":"levelo://app?vid=4e9406a0-5f2c-4f41-970e-65c69252612f","ios":"levelo://app?vid=4e9406a0-5f2c-4f41-970e-65c69252612f"},"vehicle_type_id":"4","last_reported":1703178394,"current_range_meters":18000,"station_id":"ce4bhbh2rcd13ifvqeo0","pricing_plan_id":"free"},{"bike_id":"7f302279-6c81-430d-b83b-d444e2cd8d7d","system_id":"levelo_inurba_marseille","lat":43.275625,"lon":5.384392,"is_reserved":false,"is_disabled":false,"rental_uris":{"android":"levelo://app?vid=7f302279-6c81-430d-b83b-d444e2cd8d7d","ios":"levelo://app?vid=7f302279-6c81-430d-b83b-d444e2cd8d7d"},"vehicle_type_id":"4","last_reported":1703178394,"current_range_meters":16000,"station_id":"ce4bhh92rcd13ifvqfi0","pricing_plan_id":"free"},{"bike_id":"39697241-86cc-4eb0-ba17-bc234ac1f2c5","system_id":"levelo_inurba_marseille","lat":43.275625,"lon":5.384392,"is_reserved":false,"is_disabled":false,"rental_uris":{"android":"levelo://app?vid=39697241-86cc-4eb0-ba17-bc234ac1f2c5","ios":"levelo://app?vid=39697241-86cc-4eb0-ba17-bc234ac1f2c5"},"vehicle_type_id":"4","last_reported":1703178394,"current_range_meters":26800,"station_id":"ce4bhh92rcd13ifvqfi0","pricing_plan_id":"free"},{"bike_id":"208a25d8-7a6a-4f55-b34c-46c65b3ef73c","system_id":"levelo_inurba_marseille","lat":43.275625,"lon":5.384392,"is_reserved":false,"is_disabled":false,"rental_uris":{"android":"levelo://app?vid=208a25d8-7a6a-4f55-b34c-46c65b3ef73c","ios":"levelo://app?vid=208a25d8-7a6a-4f55-b34c-46c65b3ef73c"},"vehicle_type_id":"4","last_reported":1703178394,"current_range_meters":27600,"station_id":"ce4bhh92rcd13ifvqfi0","pricing_plan_id":"free"},{"bike_id":"5b7a5f16-5a1b-4fc9-a39e-fd5e3579c7bd","system_id":"levelo_inurba_marseille","lat":43.276771,"lon":5.388799,"is_reserved":false,"is_disabled":false,"rental_uris":{"android":"levelo://app?vid=5b7a5f16-5a1b-4fc9-a39e-fd5e3579c7bd","ios":"levelo://app?vid=5b7a5f16-5a1b-4fc9-a39e-fd5e3579c7bd"},"vehicle_type_id":"4","last_reported":1703178394,"current_range_meters":0,"station_id":"ce4bhi12rcd13ifvqfo0","pricing_plan_id":"free"},{"bike_id":"2e17dacd-06bd-4519-8610-bbcd3fc518eb","system_id":"levelo_inurba_marseille","lat":43.279952,"lon":5.400085,"is_reserved":false,"is_disabled":false,"rental_uris":{"android":"levelo://app?vid=2e17dacd-06bd-4519-8610-bbcd3fc518eb","ios":"levelo://app?vid=2e17dacd-06bd-4519-8610-bbcd3fc518eb"},"vehicle_type_id":"4","last_reported":1703178394,"current_range_meters":10400,"station_id":"ce4bho92rcd13ifvqh4g","pricing_plan_id":"free"},{"bike_id":"db97d23b-b358-42c7-9b7c-756cec040fbb","system_id":"levelo_inurba_marseille","lat":43.317121,"lon":5.423936,"is_reserved":false,"is_disabled":false,"rental_uris":{"android":"levelo://app?vid=db97d23b-b358-42c7-9b7c-756cec040fbb","ios":"levelo://app?vid=db97d23b-b358-42c7-9b7c-756cec040fbb"},"vehicle_type_id":"4","last_reported":1703178394,"current_range_meters":30000,"station_id":"ce4bhp92rcd13ifvqhbg","pricing_plan_id":"free"},{"bike_id":"7ada0439-e02f-43f4-a65c-6cdbad12b2d5","system_id":"levelo_inurba_marseille","lat":43.317121,"lon":5.423936,"is_reserved":false,"is_disabled":false,"rental_uris":{"android":"levelo://app?vid=7ada0439-e02f-43f4-a65c-6cdbad12b2d5","ios":"levelo://app?vid=7ada0439-e02f-43f4-a65c-6cdbad12b2d5"},"vehicle_type_id":"4","last_reported":1703178394,"current_range_meters":28400,"station_id":"ce4bhp92rcd13ifvqhbg","pricing_plan_id":"free"},{"bike_id":"5d995ff0-b40f-4a99-a7c6-bd4d82b5ee53","system_id":"levelo_inurba_marseille","lat":43.274099,"lon":5.394019,"is_reserved":false,"is_disabled":false,"rental_uris":{"android":"levelo://app?vid=5d995ff0-b40f-4a99-a7c6-bd4d82b5ee53","ios":"levelo://app?vid=5d995ff0-b40f-4a99-a7c6-bd4d82b5ee53"},"vehicle_type_id":"4","last_reported":1703178394,"current_range_meters":26800,"station_id":"ce4bhdp2rcd13ifvqf20","pricing_plan_id":"free"},{"bike_id":"8fd9618e-9d78-4dcd-96a4-9f3534bfaa46","system_id":"levelo_inurba_marseille","lat":43.304096,"lon":5.425385,"is_reserved":false,"is_disabled":false,"rental_uris":{"android":"levelo://app?vid=8fd9618e-9d78-4dcd-96a4-9f3534bfaa46","ios":"levelo://app?vid=8fd9618e-9d78-4dcd-96a4-9f3534bfaa46"},"vehicle_type_id":"4","last_reported":1703178394,"current_range_meters":0,"station_id":"ce4bhoh2rcd13ifvqh6g","pricing_plan_id":"free"},{"bike_id":"0454933a-5656-4345-852e-0e25afae89fb","system_id":"levelo_inurba_marseille","lat":43.295523,"lon":5.422926,"is_reserved":false,"is_disabled":false,"rental_uris":{"android":"levelo://app?vid=0454933a-5656-4345-852e-0e25afae89fb","ios":"levelo://app?vid=0454933a-5656-4345-852e-0e25afae89fb"},"vehicle_type_id":"4","last_reported":1703178394,"current_range_meters":30400,"station_id":"ce4bhph2rcd13ifvqhdg","pricing_plan_id":"free"},{"bike_id":"ff208de4-c9de-4540-8060-b8f18f39665e","system_id":"levelo_inurba_marseille","lat":43.295523,"lon":5.422926,"is_reserved":false,"is_disabled":false,"rental_uris":{"android":"levelo://app?vid=ff208de4-c9de-4540-8060-b8f18f39665e","ios":"levelo://app?vid=ff208de4-c9de-4540-8060-b8f18f39665e"},"vehicle_type_id":"4","last_reported":1703178394,"current_range_meters":26800,"station_id":"ce4bhph2rcd13ifvqhdg","pricing_plan_id":"free"},{"bike_id":"7b50e92c-923d-47a0-98cd-9b6ef12b5315","system_id":"levelo_inurba_marseille","lat":43.295523,"lon":5.422926,"is_reserved":false,"is_disabled":false,"rental_uris":{"android":"levelo://app?vid=7b50e92c-923d-47a0-98cd-9b6ef12b5315","ios":"levelo://app?vid=7b50e92c-923d-47a0-98cd-9b6ef12b5315"},"vehicle_type_id":"4","last_reported":1703178394,"current_range_meters":26400,"station_id":"ce4bhph2rcd13ifvqhdg","pricing_plan_id":"free"},{"bike_id":"e0e5d280-f520-4390-a9f0-9b877fedb54e","system_id":"levelo_inurba_marseille","lat":43.295523,"lon":5.422926,"is_reserved":false,"is_disabled":false,"rental_uris":{"android":"levelo://app?vid=e0e5d280-f520-4390-a9f0-9b877fedb54e","ios":"levelo://app?vid=e0e5d280-f520-4390-a9f0-9b877fedb54e"},"vehicle_type_id":"4","last_reported":1703178394,"current_range_meters":21600,"station_id":"ce4bhph2rcd13ifvqhdg","pricing_plan_id":"free"},{"bike_id":"bc96446b-31f5-4313-822f-625edd6d0b52","system_id":"levelo_inurba_marseille","lat":43.295523,"lon":5.422926,"is_reserved":false,"is_disabled":false,"rental_uris":{"android":"levelo://app?vid=bc96446b-31f5-4313-822f-625edd6d0b52","ios":"levelo://app?vid=bc96446b-31f5-4313-822f-625edd6d0b52"},"vehicle_type_id":"4","last_reported":1703178394,"current_range_meters":27600,"station_id":"ce4bhph2rcd13ifvqhdg","pricing_plan_id":"free"},{"bike_id":"218ca4ab-a316-43a6-87cd-acfc23cd8e62","system_id":"levelo_inurba_marseille","lat":43.295523,"lon":5.422926,"is_reserved":false,"is_disabled":false,"rental_uris":{"android":"levelo://app?vid=218ca4ab-a316-43a6-87cd-acfc23cd8e62","ios":"levelo://app?vid=218ca4ab-a316-43a6-87cd-acfc23cd8e62"},"vehicle_type_id":"4","last_reported":1703178394,"current_range_meters":22400,"station_id":"ce4bhph2rcd13ifvqhdg","pricing_plan_id":"free"},{"bike_id":"b55db1a0-b820-479b-9929-7610c21584c5","system_id":"levelo_inurba_marseille","lat":43.295511,"lon":5.422926,"is_reserved":false,"is_disabled":false,"rental_uris":{"android":"levelo://app?vid=b55db1a0-b820-479b-9929-7610c21584c5","ios":"levelo://app?vid=b55db1a0-b820-479b-9929-7610c21584c5"},"vehicle_type_id":"4","last_reported":1703178394,"current_range_meters":25200,"station_id":"ce4bhph2rcd13ifvqhdg","pricing_plan_id":"free"},{"bike_id":"9449eb80-d18a-481d-bf00-b32c1d52c065","system_id":"levelo_inurba_marseille","lat":43.295523,"lon":5.422926,"is_reserved":false,"is_disabled":false,"rental_uris":{"android":"levelo://app?vid=9449eb80-d18a-481d-bf00-b32c1d52c065","ios":"levelo://app?vid=9449eb80-d18a-481d-bf00-b32c1d52c065"},"vehicle_type_id":"4","last_reported":1703178394,"current_range_meters":7600,"station_id":"ce4bhph2rcd13ifvqhdg","pricing_plan_id":"free"},{"bike_id":"96484c65-8dd7-4167-a438-a7d837c6b7a7","system_id":"levelo_inurba_marseille","lat":43.295523,"lon":5.422926,"is_reserved":false,"is_disabled":false,"rental_uris":{"android":"levelo://app?vid=96484c65-8dd7-4167-a438-a7d837c6b7a7","ios":"levelo://app?vid=96484c65-8dd7-4167-a438-a7d837c6b7a7"},"vehicle_type_id":"4","last_reported":1703178394,"current_range_meters":31200,"station_id":"ce4bhph2rcd13ifvqhdg","pricing_plan_id":"free"},{"bike_id":"23d13786-8601-4dce-a424-5d4a35dea444","system_id":"levelo_inurba_marseille","lat":43.295511,"lon":5.422926,"is_reserved":false,"is_disabled":false,"rental_uris":{"android":"levelo://app?vid=23d13786-8601-4dce-a424-5d4a35dea444","ios":"levelo://app?vid=23d13786-8601-4dce-a424-5d4a35dea444"},"vehicle_type_id":"4","last_reported":1703178394,"current_range_meters":19200,"station_id":"ce4bhph2rcd13ifvqhdg","pricing_plan_id":"free"},{"bike_id":"de5695fa-c307-4330-a044-54d219fe24c0","system_id":"levelo_inurba_marseille","lat":43.295511,"lon":5.422926,"is_reserved":false,"is_disabled":false,"rental_uris":{"android":"levelo://app?vid=de5695fa-c307-4330-a044-54d219fe24c0","ios":"levelo://app?vid=de5695fa-c307-4330-a044-54d219fe24c0"},"vehicle_type_id":"4","last_reported":1703178394,"current_range_meters":4800,"station_id":"ce4bhph2rcd13ifvqhdg","pricing_plan_id":"free"},{"bike_id":"7d800ac1-1b26-47dd-97c6-49cd89d9ab11","system_id":"levelo_inurba_marseille","lat":43.295511,"lon":5.422926,"is_reserved":false,"is_disabled":false,"rental_uris":{"android":"levelo://app?vid=7d800ac1-1b26-47dd-97c6-49cd89d9ab11","ios":"levelo://app?vid=7d800ac1-1b26-47dd-97c6-49cd89d9ab11"},"vehicle_type_id":"4","last_reported":1703178394,"current_range_meters":15200,"station_id":"ce4bhph2rcd13ifvqhdg","pricing_plan_id":"free"},{"bike_id":"a5b77b93-f538-44b3-a8ee-8d6067f5e7ed","system_id":"levelo_inurba_marseille","lat":43.29514,"lon":5.42302,"is_reserved":false,"is_disabled":false,"rental_uris":{"android":"levelo://app?vid=a5b77b93-f538-44b3-a8ee-8d6067f5e7ed","ios":"levelo://app?vid=a5b77b93-f538-44b3-a8ee-8d6067f5e7ed"},"vehicle_type_id":"4","last_reported":1703178394,"current_range_meters":3600,"station_id":"","pricing_plan_id":"free"},{"bike_id":"00e78109-9e4b-4416-b0df-40b6a89ad5b3","system_id":"levelo_inurba_marseille","lat":43.272118,"lon":5.391758,"is_reserved":false,"is_disabled":false,"rental_uris":{"android":"levelo://app?vid=00e78109-9e4b-4416-b0df-40b6a89ad5b3","ios":"levelo://app?vid=00e78109-9e4b-4416-b0df-40b6a89ad5b3"},"vehicle_type_id":"4","last_reported":1703178394,"current_range_meters":7200,"station_id":"ce4bhhp2rcd13ifvqfm0","pricing_plan_id":"free"},{"bike_id":"deadbd56-b7e5-4c43-ba9d-f98216ac7969","system_id":"levelo_inurba_marseille","lat":43.278128,"lon":5.407195,"is_reserved":false,"is_disabled":false,"rental_uris":{"android":"levelo://app?vid=deadbd56-b7e5-4c43-ba9d-f98216ac7969","ios":"levelo://app?vid=deadbd56-b7e5-4c43-ba9d-f98216ac7969"},"vehicle_type_id":"4","last_reported":1703178394,"current_range_meters":2000,"station_id":"ce4bhnh2rcd13ifvqgtg","pricing_plan_id":"free"},{"bike_id":"82c4fd0a-308d-4bbc-924b-c55b9edc563a","system_id":"levelo_inurba_marseille","lat":43.269467,"lon":5.386439,"is_reserved":false,"is_disabled":false,"rental_uris":{"android":"levelo://app?vid=82c4fd0a-308d-4bbc-924b-c55b9edc563a","ios":"levelo://app?vid=82c4fd0a-308d-4bbc-924b-c55b9edc563a"},"vehicle_type_id":"4","last_reported":1703178394,"current_range_meters":23200,"station_id":"ce4bhh92rcd13ifvqfh0","pricing_plan_id":"free"},{"bike_id":"ddc116a7-beab-4d15-9d1e-d1d89e77aa33","system_id":"levelo_inurba_marseille","lat":43.265714,"lon":5.372891,"is_reserved":false,"is_disabled":false,"rental_uris":{"android":"levelo://app?vid=ddc116a7-beab-4d15-9d1e-d1d89e77aa33","ios":"levelo://app?vid=ddc116a7-beab-4d15-9d1e-d1d89e77aa33"},"vehicle_type_id":"4","last_reported":1703178394,"current_range_meters":5600,"station_id":"ce4bhg12rcd13ifvqf70","pricing_plan_id":"free"},{"bike_id":"f372f264-ab3a-473b-a0f4-acf003357915","system_id":"levelo_inurba_marseille","lat":43.265714,"lon":5.372891,"is_reserved":false,"is_disabled":false,"rental_uris":{"android":"levelo://app?vid=f372f264-ab3a-473b-a0f4-acf003357915","ios":"levelo://app?vid=f372f264-ab3a-473b-a0f4-acf003357915"},"vehicle_type_id":"4","last_reported":1703178394,"current_range_meters":23600,"station_id":"ce4bhg12rcd13ifvqf70","pricing_plan_id":"free"},{"bike_id":"1d95b25f-8bdf-44d0-bdf3-2c530d2bac1e","system_id":"levelo_inurba_marseille","lat":43.27996,"lon":5.416624,"is_reserved":false,"is_disabled":false,"rental_uris":{"android":"levelo://app?vid=1d95b25f-8bdf-44d0-bdf3-2c530d2bac1e","ios":"levelo://app?vid=1d95b25f-8bdf-44d0-bdf3-2c530d2bac1e"},"vehicle_type_id":"4","last_reported":1703178394,"current_range_meters":25600,"station_id":"ce4bho12rcd13ifvqh1g","pricing_plan_id":"free"},{"bike_id":"73c210fb-a655-4271-85b4-334effb9941b","system_id":"levelo_inurba_marseille","lat":43.27996,"lon":5.416624,"is_reserved":false,"is_disabled":false,"rental_uris":{"android":"levelo://app?vid=73c210fb-a655-4271-85b4-334effb9941b","ios":"levelo://app?vid=73c210fb-a655-4271-85b4-334effb9941b"},"vehicle_type_id":"4","last_reported":1703178394,"current_range_meters":800,"station_id":"ce4bho12rcd13ifvqh1g","pricing_plan_id":"free"},{"bike_id":"7e237e40-f9c7-4157-802c-547609ff91c5","system_id":"levelo_inurba_marseille","lat":43.267966,"lon":5.393976,"is_reserved":false,"is_disabled":false,"rental_uris":{"android":"levelo://app?vid=7e237e40-f9c7-4157-802c-547609ff91c5","ios":"levelo://app?vid=7e237e40-f9c7-4157-802c-547609ff91c5"},"vehicle_type_id":"4","last_reported":1703178394,"current_range_meters":19200,"station_id":"ce4bhh12rcd13ifvqfg0","pricing_plan_id":"free"},{"bike_id":"9a91c593-84eb-47bc-a6eb-531a4db53380","system_id":"levelo_inurba_marseille","lat":43.308051,"lon":5.43527,"is_reserved":false,"is_disabled":false,"rental_uris":{"android":"levelo://app?vid=9a91c593-84eb-47bc-a6eb-531a4db53380","ios":"levelo://app?vid=9a91c593-84eb-47bc-a6eb-531a4db53380"},"vehicle_type_id":"4","last_reported":1703178394,"current_range_meters":30400,"station_id":"ce4bhph2rcd13ifvqheg","pricing_plan_id":"free"},{"bike_id":"53f54b99-3c65-4ab1-a202-f0b748e237d9","system_id":"levelo_inurba_marseille","lat":43.308051,"lon":5.43527,"is_reserved":false,"is_disabled":false,"rental_uris":{"android":"levelo://app?vid=53f54b99-3c65-4ab1-a202-f0b748e237d9","ios":"levelo://app?vid=53f54b99-3c65-4ab1-a202-f0b748e237d9"},"vehicle_type_id":"4","last_reported":1703178394,"current_range_meters":0,"station_id":"ce4bhph2rcd13ifvqheg","pricing_plan_id":"free"},{"bike_id":"cb85d93c-699f-44fd-b49f-438f4d1ca990","system_id":"levelo_inurba_marseille","lat":43.26563,"lon":5.38999,"is_reserved":false,"is_disabled":false,"rental_uris":{"android":"levelo://app?vid=cb85d93c-699f-44fd-b49f-438f4d1ca990","ios":"levelo://app?vid=cb85d93c-699f-44fd-b49f-438f4d1ca990"},"vehicle_type_id":"4","last_reported":1703178394,"current_range_meters":31200,"station_id":"ce4bhe12rcd13ifvqf30","pricing_plan_id":"free"},{"bike_id":"07fbdce5-f320-4d5e-bc74-1034c54d7f61","system_id":"levelo_inurba_marseille","lat":43.308051,"lon":5.43527,"is_reserved":false,"is_disabled":false,"rental_uris":{"android":"levelo://app?vid=07fbdce5-f320-4d5e-bc74-1034c54d7f61","ios":"levelo://app?vid=07fbdce5-f320-4d5e-bc74-1034c54d7f61"},"vehicle_type_id":"4","last_reported":1703178394,"current_range_meters":26400,"station_id":"ce4bhph2rcd13ifvqheg","pricing_plan_id":"free"},{"bike_id":"bac4a4a3-58cf-4459-9795-122bc03d29f3","system_id":"levelo_inurba_marseille","lat":43.26949,"lon":5.40262,"is_reserved":false,"is_disabled":false,"rental_uris":{"android":"levelo://app?vid=bac4a4a3-58cf-4459-9795-122bc03d29f3","ios":"levelo://app?vid=bac4a4a3-58cf-4459-9795-122bc03d29f3"},"vehicle_type_id":"4","last_reported":1703178394,"current_range_meters":4800,"station_id":"cjm6bp8fraef2m0cb0m0","pricing_plan_id":"free"},{"bike_id":"b4f6fef1-df14-4aba-aacf-1366fa16c609","system_id":"levelo_inurba_marseille","lat":43.26949,"lon":5.40262,"is_reserved":false,"is_disabled":false,"rental_uris":{"android":"levelo://app?vid=b4f6fef1-df14-4aba-aacf-1366fa16c609","ios":"levelo://app?vid=b4f6fef1-df14-4aba-aacf-1366fa16c609"},"vehicle_type_id":"4","last_reported":1703178394,"current_range_meters":16400,"station_id":"cjm6bp8fraef2m0cb0m0","pricing_plan_id":"free"},{"bike_id":"56874854-692d-4d9c-82a9-b6ca4904d248","system_id":"levelo_inurba_marseille","lat":43.26949,"lon":5.40262,"is_reserved":false,"is_disabled":false,"rental_uris":{"android":"levelo://app?vid=56874854-692d-4d9c-82a9-b6ca4904d248","ios":"levelo://app?vid=56874854-692d-4d9c-82a9-b6ca4904d248"},"vehicle_type_id":"4","last_reported":1703178394,"current_range_meters":0,"station_id":"cjm6bp8fraef2m0cb0m0","pricing_plan_id":"free"},{"bike_id":"6d77496c-a724-43f1-8637-4f9839878ae2","system_id":"levelo_inurba_marseille","lat":43.26949,"lon":5.40262,"is_reserved":false,"is_disabled":false,"rental_uris":{"android":"levelo://app?vid=6d77496c-a724-43f1-8637-4f9839878ae2","ios":"levelo://app?vid=6d77496c-a724-43f1-8637-4f9839878ae2"},"vehicle_type_id":"4","last_reported":1703178394,"current_range_meters":5200,"station_id":"cjm6bp8fraef2m0cb0m0","pricing_plan_id":"free"},{"bike_id":"2b0cb903-ceb5-4fc0-aee5-2ed1d5e17f75","system_id":"levelo_inurba_marseille","lat":43.261782,"lon":5.374515,"is_reserved":false,"is_disabled":false,"rental_uris":{"android":"levelo://app?vid=2b0cb903-ceb5-4fc0-aee5-2ed1d5e17f75","ios":"levelo://app?vid=2b0cb903-ceb5-4fc0-aee5-2ed1d5e17f75"},"vehicle_type_id":"4","last_reported":1703178394,"current_range_meters":24800,"station_id":"ce4bhgp2rcd13ifvqfc0","pricing_plan_id":"free"},{"bike_id":"f9bd8812-361b-4cf8-a08f-c5df49e9a80a","system_id":"levelo_inurba_marseille","lat":43.31711,"lon":5.43705,"is_reserved":false,"is_disabled":false,"rental_uris":{"android":"levelo://app?vid=f9bd8812-361b-4cf8-a08f-c5df49e9a80a","ios":"levelo://app?vid=f9bd8812-361b-4cf8-a08f-c5df49e9a80a"},"vehicle_type_id":"4","last_reported":1703178394,"current_range_meters":19200,"station_id":"ce4bhp92rcd13ifvqhcg","pricing_plan_id":"free"},{"bike_id":"2e62984b-8771-47f8-8e36-d6a6f38059c0","system_id":"levelo_inurba_marseille","lat":43.317104,"lon":5.436818,"is_reserved":false,"is_disabled":false,"rental_uris":{"android":"levelo://app?vid=2e62984b-8771-47f8-8e36-d6a6f38059c0","ios":"levelo://app?vid=2e62984b-8771-47f8-8e36-d6a6f38059c0"},"vehicle_type_id":"4","last_reported":1703178394,"current_range_meters":27600,"station_id":"ce4bhp92rcd13ifvqhcg","pricing_plan_id":"free"},{"bike_id":"6f9b29e1-774b-45e7-abca-18d7537fa578","system_id":"levelo_inurba_marseille","lat":43.31713,"lon":5.43709,"is_reserved":false,"is_disabled":false,"rental_uris":{"android":"levelo://app?vid=6f9b29e1-774b-45e7-abca-18d7537fa578","ios":"levelo://app?vid=6f9b29e1-774b-45e7-abca-18d7537fa578"},"vehicle_type_id":"4","last_reported":1703178394,"current_range_meters":26000,"station_id":"ce4bhp92rcd13ifvqhcg","pricing_plan_id":"free"},{"bike_id":"2d6427c7-a10a-4b24-b0a5-95d867c65295","system_id":"levelo_inurba_marseille","lat":43.317104,"lon":5.436818,"is_reserved":false,"is_disabled":false,"rental_uris":{"android":"levelo://app?vid=2d6427c7-a10a-4b24-b0a5-95d867c65295","ios":"levelo://app?vid=2d6427c7-a10a-4b24-b0a5-95d867c65295"},"vehicle_type_id":"4","last_reported":1703178394,"current_range_meters":21600,"station_id":"ce4bhp92rcd13ifvqhcg","pricing_plan_id":"free"},{"bike_id":"56adf3c8-c8d4-4438-805b-e2423bf864eb","system_id":"levelo_inurba_marseille","lat":43.26202,"lon":5.379299,"is_reserved":false,"is_disabled":false,"rental_uris":{"android":"levelo://app?vid=56adf3c8-c8d4-4438-805b-e2423bf864eb","ios":"levelo://app?vid=56adf3c8-c8d4-4438-805b-e2423bf864eb"},"vehicle_type_id":"4","last_reported":1703178394,"current_range_meters":25200,"station_id":"ce4bhjp2rcd13ifvqg90","pricing_plan_id":"free"},{"bike_id":"de24a9f5-f652-45d9-8aae-110852bd560d","system_id":"levelo_inurba_marseille","lat":43.271368,"lon":5.40928,"is_reserved":false,"is_disabled":false,"rental_uris":{"android":"levelo://app?vid=de24a9f5-f652-45d9-8aae-110852bd560d","ios":"levelo://app?vid=de24a9f5-f652-45d9-8aae-110852bd560d"},"vehicle_type_id":"4","last_reported":1703178394,"current_range_meters":24400,"station_id":"ce4bhl12rcd13ifvqgf0","pricing_plan_id":"free"},{"bike_id":"d8e2798b-fc81-4820-8862-eef466ab12a8","system_id":"levelo_inurba_marseille","lat":43.267959,"lon":5.402687,"is_reserved":false,"is_disabled":false,"rental_uris":{"android":"levelo://app?vid=d8e2798b-fc81-4820-8862-eef466ab12a8","ios":"levelo://app?vid=d8e2798b-fc81-4820-8862-eef466ab12a8"},"vehicle_type_id":"4","last_reported":1703178394,"current_range_meters":17200,"station_id":"ce501612rcd8frsf0b60","pricing_plan_id":"free"},{"bike_id":"79079722-13ad-4a71-919a-f3805a365ac6","system_id":"levelo_inurba_marseille","lat":43.267959,"lon":5.402687,"is_reserved":false,"is_disabled":false,"rental_uris":{"android":"levelo://app?vid=79079722-13ad-4a71-919a-f3805a365ac6","ios":"levelo://app?vid=79079722-13ad-4a71-919a-f3805a365ac6"},"vehicle_type_id":"4","last_reported":1703178394,"current_range_meters":25200,"station_id":"ce501612rcd8frsf0b60","pricing_plan_id":"free"},{"bike_id":"91f85496-a037-45f5-835d-db1b95126a33","system_id":"levelo_inurba_marseille","lat":43.2651,"lon":5.39469,"is_reserved":false,"is_disabled":false,"rental_uris":{"android":"levelo://app?vid=91f85496-a037-45f5-835d-db1b95126a33","ios":"levelo://app?vid=91f85496-a037-45f5-835d-db1b95126a33"},"vehicle_type_id":"4","last_reported":1703178394,"current_range_meters":5200,"station_id":"ce4bhi12rcd13ifvqfq0","pricing_plan_id":"free"},{"bike_id":"6b6c7129-48d9-4ed5-8d5a-18cea8a21166","system_id":"levelo_inurba_marseille","lat":43.2651,"lon":5.39469,"is_reserved":false,"is_disabled":false,"rental_uris":{"android":"levelo://app?vid=6b6c7129-48d9-4ed5-8d5a-18cea8a21166","ios":"levelo://app?vid=6b6c7129-48d9-4ed5-8d5a-18cea8a21166"},"vehicle_type_id":"4","last_reported":1703178394,"current_range_meters":12000,"station_id":"ce4bhi12rcd13ifvqfq0","pricing_plan_id":"free"},{"bike_id":"89859879-2644-4079-b6f8-de3a1c54f853","system_id":"levelo_inurba_marseille","lat":43.2651,"lon":5.39469,"is_reserved":false,"is_disabled":false,"rental_uris":{"android":"levelo://app?vid=89859879-2644-4079-b6f8-de3a1c54f853","ios":"levelo://app?vid=89859879-2644-4079-b6f8-de3a1c54f853"},"vehicle_type_id":"4","last_reported":1703178394,"current_range_meters":16400,"station_id":"ce4bhi12rcd13ifvqfq0","pricing_plan_id":"free"},{"bike_id":"77cc4bb4-f051-43ca-adab-d924c1cfe35b","system_id":"levelo_inurba_marseille","lat":43.2651,"lon":5.39469,"is_reserved":false,"is_disabled":false,"rental_uris":{"android":"levelo://app?vid=77cc4bb4-f051-43ca-adab-d924c1cfe35b","ios":"levelo://app?vid=77cc4bb4-f051-43ca-adab-d924c1cfe35b"},"vehicle_type_id":"4","last_reported":1703178394,"current_range_meters":23600,"station_id":"ce4bhi12rcd13ifvqfq0","pricing_plan_id":"free"},{"bike_id":"054e483e-7a25-4d4c-b05e-cf031059b303","system_id":"levelo_inurba_marseille","lat":43.2651,"lon":5.39469,"is_reserved":false,"is_disabled":false,"rental_uris":{"android":"levelo://app?vid=054e483e-7a25-4d4c-b05e-cf031059b303","ios":"levelo://app?vid=054e483e-7a25-4d4c-b05e-cf031059b303"},"vehicle_type_id":"4","last_reported":1703178394,"current_range_meters":0,"station_id":"ce4bhi12rcd13ifvqfq0","pricing_plan_id":"free"},{"bike_id":"9bc11cf7-d766-47fb-a2ac-1ffa731b216c","system_id":"levelo_inurba_marseille","lat":43.298768,"lon":5.43643,"is_reserved":false,"is_disabled":false,"rental_uris":{"android":"levelo://app?vid=9bc11cf7-d766-47fb-a2ac-1ffa731b216c","ios":"levelo://app?vid=9bc11cf7-d766-47fb-a2ac-1ffa731b216c"},"vehicle_type_id":"4","last_reported":1703178394,"current_range_meters":29200,"station_id":"ce4bhpp2rcd13ifvqhfg","pricing_plan_id":"free"},{"bike_id":"7410f272-74ba-4f01-a016-a1b5f00b4c40","system_id":"levelo_inurba_marseille","lat":43.298768,"lon":5.43643,"is_reserved":false,"is_disabled":false,"rental_uris":{"android":"levelo://app?vid=7410f272-74ba-4f01-a016-a1b5f00b4c40","ios":"levelo://app?vid=7410f272-74ba-4f01-a016-a1b5f00b4c40"},"vehicle_type_id":"4","last_reported":1703178394,"current_range_meters":18000,"station_id":"ce4bhpp2rcd13ifvqhfg","pricing_plan_id":"free"},{"bike_id":"86883a94-afe5-444a-a2a3-ae42fdefa096","system_id":"levelo_inurba_marseille","lat":43.260225,"lon":5.375455,"is_reserved":false,"is_disabled":false,"rental_uris":{"android":"levelo://app?vid=86883a94-afe5-444a-a2a3-ae42fdefa096","ios":"levelo://app?vid=86883a94-afe5-444a-a2a3-ae42fdefa096"},"vehicle_type_id":"4","last_reported":1703178394,"current_range_meters":23600,"station_id":"ce4bhgh2rcd13ifvqfa0","pricing_plan_id":"free"},{"bike_id":"ee72c9c5-d0fe-49ff-abe1-bcbbee5133e1","system_id":"levelo_inurba_marseille","lat":43.2607,"lon":5.393983,"is_reserved":false,"is_disabled":false,"rental_uris":{"android":"levelo://app?vid=ee72c9c5-d0fe-49ff-abe1-bcbbee5133e1","ios":"levelo://app?vid=ee72c9c5-d0fe-49ff-abe1-bcbbee5133e1"},"vehicle_type_id":"4","last_reported":1703178394,"current_range_meters":8400,"station_id":"ce4bhh92rcd13ifvqfj0","pricing_plan_id":"free"},{"bike_id":"dec2afc1-cb0f-4751-8485-0988c5a5ccaa","system_id":"levelo_inurba_marseille","lat":43.26064,"lon":5.394,"is_reserved":false,"is_disabled":false,"rental_uris":{"android":"levelo://app?vid=dec2afc1-cb0f-4751-8485-0988c5a5ccaa","ios":"levelo://app?vid=dec2afc1-cb0f-4751-8485-0988c5a5ccaa"},"vehicle_type_id":"4","last_reported":1703178394,"current_range_meters":19200,"station_id":"ce4bhh92rcd13ifvqfj0","pricing_plan_id":"free"},{"bike_id":"522b55ee-8a84-4e2c-ba67-00be95d022db","system_id":"levelo_inurba_marseille","lat":43.2607,"lon":5.393983,"is_reserved":false,"is_disabled":false,"rental_uris":{"android":"levelo://app?vid=522b55ee-8a84-4e2c-ba67-00be95d022db","ios":"levelo://app?vid=522b55ee-8a84-4e2c-ba67-00be95d022db"},"vehicle_type_id":"4","last_reported":1703178394,"current_range_meters":24000,"station_id":"ce4bhh92rcd13ifvqfj0","pricing_plan_id":"free"},{"bike_id":"c22eec67-2f51-42d4-b562-710f7a65cdcc","system_id":"levelo_inurba_marseille","lat":43.2607,"lon":5.393983,"is_reserved":false,"is_disabled":false,"rental_uris":{"android":"levelo://app?vid=c22eec67-2f51-42d4-b562-710f7a65cdcc","ios":"levelo://app?vid=c22eec67-2f51-42d4-b562-710f7a65cdcc"},"vehicle_type_id":"4","last_reported":1703178394,"current_range_meters":14400,"station_id":"ce4bhh92rcd13ifvqfj0","pricing_plan_id":"free"},{"bike_id":"9b6e84ea-11e8-4216-a403-84d9bf5fcabc","system_id":"levelo_inurba_marseille","lat":43.255756,"lon":5.382303,"is_reserved":false,"is_disabled":false,"rental_uris":{"android":"levelo://app?vid=9b6e84ea-11e8-4216-a403-84d9bf5fcabc","ios":"levelo://app?vid=9b6e84ea-11e8-4216-a403-84d9bf5fcabc"},"vehicle_type_id":"4","last_reported":1703178394,"current_range_meters":1600,"station_id":"ce4bhih2rcd13ifvqfs0","pricing_plan_id":"free"},{"bike_id":"13940b14-c98b-4846-a0f8-ff98e3361d0f","system_id":"levelo_inurba_marseille","lat":43.25823,"lon":5.39427,"is_reserved":false,"is_disabled":false,"rental_uris":{"android":"levelo://app?vid=13940b14-c98b-4846-a0f8-ff98e3361d0f","ios":"levelo://app?vid=13940b14-c98b-4846-a0f8-ff98e3361d0f"},"vehicle_type_id":"4","last_reported":1703178394,"current_range_meters":9200,"station_id":"ce4bhip2rcd13ifvqft0","pricing_plan_id":"free"},{"bike_id":"79d6ddb3-ba37-44bf-82a2-5489ff59e6c7","system_id":"levelo_inurba_marseille","lat":43.255756,"lon":5.382303,"is_reserved":false,"is_disabled":false,"rental_uris":{"android":"levelo://app?vid=79d6ddb3-ba37-44bf-82a2-5489ff59e6c7","ios":"levelo://app?vid=79d6ddb3-ba37-44bf-82a2-5489ff59e6c7"},"vehicle_type_id":"4","last_reported":1703178394,"current_range_meters":31200,"station_id":"ce4bhih2rcd13ifvqfs0","pricing_plan_id":"free"},{"bike_id":"1362dd25-0853-4266-9539-033a52059d82","system_id":"levelo_inurba_marseille","lat":43.258225,"lon":5.394325,"is_reserved":false,"is_disabled":false,"rental_uris":{"android":"levelo://app?vid=1362dd25-0853-4266-9539-033a52059d82","ios":"levelo://app?vid=1362dd25-0853-4266-9539-033a52059d82"},"vehicle_type_id":"4","last_reported":1703178394,"current_range_meters":2800,"station_id":"ce4bhip2rcd13ifvqft0","pricing_plan_id":"free"},{"bike_id":"5d55d735-3e14-4288-9c38-1c6b44b70b09","system_id":"levelo_inurba_marseille","lat":43.255756,"lon":5.382303,"is_reserved":false,"is_disabled":false,"rental_uris":{"android":"levelo://app?vid=5d55d735-3e14-4288-9c38-1c6b44b70b09","ios":"levelo://app?vid=5d55d735-3e14-4288-9c38-1c6b44b70b09"},"vehicle_type_id":"4","last_reported":1703178394,"current_range_meters":26000,"station_id":"ce4bhih2rcd13ifvqfs0","pricing_plan_id":"free"},{"bike_id":"25d2fc2d-047e-4f81-a046-77f3a327c2fd","system_id":"levelo_inurba_marseille","lat":43.25823,"lon":5.3944,"is_reserved":false,"is_disabled":false,"rental_uris":{"android":"levelo://app?vid=25d2fc2d-047e-4f81-a046-77f3a327c2fd","ios":"levelo://app?vid=25d2fc2d-047e-4f81-a046-77f3a327c2fd"},"vehicle_type_id":"4","last_reported":1703178394,"current_range_meters":21600,"station_id":"ce4bhip2rcd13ifvqft0","pricing_plan_id":"free"},{"bike_id":"928f89c7-42b8-4d82-99c2-4e237a12f5d3","system_id":"levelo_inurba_marseille","lat":43.255756,"lon":5.382303,"is_reserved":false,"is_disabled":false,"rental_uris":{"android":"levelo://app?vid=928f89c7-42b8-4d82-99c2-4e237a12f5d3","ios":"levelo://app?vid=928f89c7-42b8-4d82-99c2-4e237a12f5d3"},"vehicle_type_id":"4","last_reported":1703178394,"current_range_meters":0,"station_id":"ce4bhih2rcd13ifvqfs0","pricing_plan_id":"free"},{"bike_id":"28d7b262-23b0-4525-8fd8-5ded57327823","system_id":"levelo_inurba_marseille","lat":43.254947,"lon":5.376454,"is_reserved":false,"is_disabled":false,"rental_uris":{"android":"levelo://app?vid=28d7b262-23b0-4525-8fd8-5ded57327823","ios":"levelo://app?vid=28d7b262-23b0-4525-8fd8-5ded57327823"},"vehicle_type_id":"4","last_reported":1703178394,"current_range_meters":8800,"station_id":"ce4bhh12rcd13ifvqff0","pricing_plan_id":"free"},{"bike_id":"bfdd1cdc-3103-45b2-9e88-438919a385ba","system_id":"levelo_inurba_marseille","lat":43.270721,"lon":5.422764,"is_reserved":false,"is_disabled":false,"rental_uris":{"android":"levelo://app?vid=bfdd1cdc-3103-45b2-9e88-438919a385ba","ios":"levelo://app?vid=bfdd1cdc-3103-45b2-9e88-438919a385ba"},"vehicle_type_id":"4","last_reported":1703178394,"current_range_meters":16400,"station_id":"ce4bhk92rcd13ifvqgb0","pricing_plan_id":"free"},{"bike_id":"a3db5ca3-84cc-4b2a-a4c9-5b403e7537cc","system_id":"levelo_inurba_marseille","lat":43.270721,"lon":5.422764,"is_reserved":false,"is_disabled":false,"rental_uris":{"android":"levelo://app?vid=a3db5ca3-84cc-4b2a-a4c9-5b403e7537cc","ios":"levelo://app?vid=a3db5ca3-84cc-4b2a-a4c9-5b403e7537cc"},"vehicle_type_id":"4","last_reported":1703178394,"current_range_meters":5200,"station_id":"ce4bhk92rcd13ifvqgb0","pricing_plan_id":"free"},{"bike_id":"597c2cf3-58fc-42a7-addf-28c319c959af","system_id":"levelo_inurba_marseille","lat":43.258658,"lon":5.398935,"is_reserved":false,"is_disabled":false,"rental_uris":{"android":"levelo://app?vid=597c2cf3-58fc-42a7-addf-28c319c959af","ios":"levelo://app?vid=597c2cf3-58fc-42a7-addf-28c319c959af"},"vehicle_type_id":"4","last_reported":1703178394,"current_range_meters":5200,"station_id":"ce4bhl92rcd13ifvqghg","pricing_plan_id":"free"},{"bike_id":"ef3db61a-0248-4459-96e7-3a078f7c36b9","system_id":"levelo_inurba_marseille","lat":43.259013,"lon":5.409301,"is_reserved":false,"is_disabled":false,"rental_uris":{"android":"levelo://app?vid=ef3db61a-0248-4459-96e7-3a078f7c36b9","ios":"levelo://app?vid=ef3db61a-0248-4459-96e7-3a078f7c36b9"},"vehicle_type_id":"4","last_reported":1703178394,"current_range_meters":25600,"station_id":"ce4bhm92rcd13ifvqglg","pricing_plan_id":"free"},{"bike_id":"169845ce-ae07-41c8-8bdf-93becaf4f4e6","system_id":"levelo_inurba_marseille","lat":43.259013,"lon":5.409301,"is_reserved":false,"is_disabled":false,"rental_uris":{"android":"levelo://app?vid=169845ce-ae07-41c8-8bdf-93becaf4f4e6","ios":"levelo://app?vid=169845ce-ae07-41c8-8bdf-93becaf4f4e6"},"vehicle_type_id":"4","last_reported":1703178394,"current_range_meters":24400,"station_id":"ce4bhm92rcd13ifvqglg","pricing_plan_id":"free"},{"bike_id":"3b19ffd7-462b-49ec-9877-5fdc1e2489e0","system_id":"levelo_inurba_marseille","lat":43.25721,"lon":5.41115,"is_reserved":false,"is_disabled":false,"rental_uris":{"android":"levelo://app?vid=3b19ffd7-462b-49ec-9877-5fdc1e2489e0","ios":"levelo://app?vid=3b19ffd7-462b-49ec-9877-5fdc1e2489e0"},"vehicle_type_id":"4","last_reported":1703178394,"current_range_meters":24000,"station_id":"ce4bhkp2rcd13ifvqgd0","pricing_plan_id":"free"},{"bike_id":"38bf6acd-95b5-4512-acd0-17d2647e9344","system_id":"levelo_inurba_marseille","lat":43.250009,"lon":5.389195,"is_reserved":false,"is_disabled":false,"rental_uris":{"android":"levelo://app?vid=38bf6acd-95b5-4512-acd0-17d2647e9344","ios":"levelo://app?vid=38bf6acd-95b5-4512-acd0-17d2647e9344"},"vehicle_type_id":"4","last_reported":1703178394,"current_range_meters":15200,"station_id":"ce4bhgp2rcd13ifvqfd0","pricing_plan_id":"free"},{"bike_id":"c3511b62-b4c1-4c92-b4e8-83dfacf0c325","system_id":"levelo_inurba_marseille","lat":43.2479,"lon":5.374457,"is_reserved":false,"is_disabled":false,"rental_uris":{"android":"levelo://app?vid=c3511b62-b4c1-4c92-b4e8-83dfacf0c325","ios":"levelo://app?vid=c3511b62-b4c1-4c92-b4e8-83dfacf0c325"},"vehicle_type_id":"4","last_reported":1703178394,"current_range_meters":24800,"station_id":"ce4bhgh2rcd13ifvqfb0","pricing_plan_id":"free"},{"bike_id":"b64e8a87-9103-466a-aa55-3e8ada95ab95","system_id":"levelo_inurba_marseille","lat":43.24693,"lon":5.382096,"is_reserved":false,"is_disabled":false,"rental_uris":{"android":"levelo://app?vid=b64e8a87-9103-466a-aa55-3e8ada95ab95","ios":"levelo://app?vid=b64e8a87-9103-466a-aa55-3e8ada95ab95"},"vehicle_type_id":"4","last_reported":1703178394,"current_range_meters":20400,"station_id":"ce4bhih2rcd13ifvqfr0","pricing_plan_id":"free"},{"bike_id":"338bb921-372f-4cd4-b637-1ab989a4d812","system_id":"levelo_inurba_marseille","lat":43.24693,"lon":5.382096,"is_reserved":false,"is_disabled":false,"rental_uris":{"android":"levelo://app?vid=338bb921-372f-4cd4-b637-1ab989a4d812","ios":"levelo://app?vid=338bb921-372f-4cd4-b637-1ab989a4d812"},"vehicle_type_id":"4","last_reported":1703178394,"current_range_meters":19600,"station_id":"ce4bhih2rcd13ifvqfr0","pricing_plan_id":"free"},{"bike_id":"0de45db1-8890-4684-a230-e892601a9f32","system_id":"levelo_inurba_marseille","lat":43.24693,"lon":5.382096,"is_reserved":false,"is_disabled":false,"rental_uris":{"android":"levelo://app?vid=0de45db1-8890-4684-a230-e892601a9f32","ios":"levelo://app?vid=0de45db1-8890-4684-a230-e892601a9f32"},"vehicle_type_id":"4","last_reported":1703178394,"current_range_meters":13200,"station_id":"ce4bhih2rcd13ifvqfr0","pricing_plan_id":"free"},{"bike_id":"64a2b446-5d19-4f2d-b0c6-c5d26f2a9280","system_id":"levelo_inurba_marseille","lat":43.25102,"lon":5.403214,"is_reserved":false,"is_disabled":false,"rental_uris":{"android":"levelo://app?vid=64a2b446-5d19-4f2d-b0c6-c5d26f2a9280","ios":"levelo://app?vid=64a2b446-5d19-4f2d-b0c6-c5d26f2a9280"},"vehicle_type_id":"4","last_reported":1703178394,"current_range_meters":14800,"station_id":"ce4bhlh2rcd13ifvqgig","pricing_plan_id":"free"},{"bike_id":"2bcb1da1-ac21-4f94-bc7f-cb92bc61eaaf","system_id":"levelo_inurba_marseille","lat":43.243884,"lon":5.370736,"is_reserved":false,"is_disabled":false,"rental_uris":{"android":"levelo://app?vid=2bcb1da1-ac21-4f94-bc7f-cb92bc61eaaf","ios":"levelo://app?vid=2bcb1da1-ac21-4f94-bc7f-cb92bc61eaaf"},"vehicle_type_id":"4","last_reported":1703178394,"current_range_meters":14000,"station_id":"ce4bhhh2rcd13ifvqfk0","pricing_plan_id":"free"},{"bike_id":"5afeea1e-521b-4a11-b67f-36d0f465c7d7","system_id":"levelo_inurba_marseille","lat":43.245581,"lon":5.395069,"is_reserved":false,"is_disabled":false,"rental_uris":{"android":"levelo://app?vid=5afeea1e-521b-4a11-b67f-36d0f465c7d7","ios":"levelo://app?vid=5afeea1e-521b-4a11-b67f-36d0f465c7d7"},"vehicle_type_id":"4","last_reported":1703178394,"current_range_meters":14800,"station_id":"ce4bhlp2rcd13ifvqgjg","pricing_plan_id":"free"},{"bike_id":"5f2965df-b8e3-478b-936e-f2faf7c1458b","system_id":"levelo_inurba_marseille","lat":43.245581,"lon":5.395069,"is_reserved":false,"is_disabled":false,"rental_uris":{"android":"levelo://app?vid=5f2965df-b8e3-478b-936e-f2faf7c1458b","ios":"levelo://app?vid=5f2965df-b8e3-478b-936e-f2faf7c1458b"},"vehicle_type_id":"4","last_reported":1703178394,"current_range_meters":30400,"station_id":"ce4bhlp2rcd13ifvqgjg","pricing_plan_id":"free"},{"bike_id":"1c233689-845f-40e6-a125-2cb83c4963a4","system_id":"levelo_inurba_marseille","lat":43.243115,"lon":5.386415,"is_reserved":false,"is_disabled":false,"rental_uris":{"android":"levelo://app?vid=1c233689-845f-40e6-a125-2cb83c4963a4","ios":"levelo://app?vid=1c233689-845f-40e6-a125-2cb83c4963a4"},"vehicle_type_id":"4","last_reported":1703178394,"current_range_meters":16800,"station_id":"ce4bhlp2rcd13ifvqgjg","pricing_plan_id":"free"},{"bike_id":"2a06805c-47be-453b-b381-5e50a159c325","system_id":"levelo_inurba_marseille","lat":43.239588,"lon":5.366238,"is_reserved":false,"is_disabled":false,"rental_uris":{"android":"levelo://app?vid=2a06805c-47be-453b-b381-5e50a159c325","ios":"levelo://app?vid=2a06805c-47be-453b-b381-5e50a159c325"},"vehicle_type_id":"4","last_reported":1703178394,"current_range_meters":22800,"station_id":"ce4bhi12rcd13ifvqfp0","pricing_plan_id":"free"},{"bike_id":"0d524130-22ff-4d6f-b145-20680ab4e2a4","system_id":"levelo_inurba_marseille","lat":43.239588,"lon":5.366238,"is_reserved":false,"is_disabled":false,"rental_uris":{"android":"levelo://app?vid=0d524130-22ff-4d6f-b145-20680ab4e2a4","ios":"levelo://app?vid=0d524130-22ff-4d6f-b145-20680ab4e2a4"},"vehicle_type_id":"4","last_reported":1703178394,"current_range_meters":24800,"station_id":"ce4bhi12rcd13ifvqfp0","pricing_plan_id":"free"},{"bike_id":"e224d0e6-9af3-4b8e-9708-dafa151dafb3","system_id":"levelo_inurba_marseille","lat":43.239588,"lon":5.366238,"is_reserved":false,"is_disabled":false,"rental_uris":{"android":"levelo://app?vid=e224d0e6-9af3-4b8e-9708-dafa151dafb3","ios":"levelo://app?vid=e224d0e6-9af3-4b8e-9708-dafa151dafb3"},"vehicle_type_id":"4","last_reported":1703178394,"current_range_meters":26800,"station_id":"ce4bhi12rcd13ifvqfp0","pricing_plan_id":"free"},{"bike_id":"77c78ac9-82c0-4b01-851d-c857c1805538","system_id":"levelo_inurba_marseille","lat":43.239588,"lon":5.366238,"is_reserved":false,"is_disabled":false,"rental_uris":{"android":"levelo://app?vid=77c78ac9-82c0-4b01-851d-c857c1805538","ios":"levelo://app?vid=77c78ac9-82c0-4b01-851d-c857c1805538"},"vehicle_type_id":"4","last_reported":1703178394,"current_range_meters":31600,"station_id":"ce4bhi12rcd13ifvqfp0","pricing_plan_id":"free"},{"bike_id":"979e2426-508b-4ab9-8315-d1fb133bcc02","system_id":"levelo_inurba_marseille","lat":43.239588,"lon":5.366238,"is_reserved":false,"is_disabled":false,"rental_uris":{"android":"levelo://app?vid=979e2426-508b-4ab9-8315-d1fb133bcc02","ios":"levelo://app?vid=979e2426-508b-4ab9-8315-d1fb133bcc02"},"vehicle_type_id":"4","last_reported":1703178394,"current_range_meters":15200,"station_id":"ce4bhi12rcd13ifvqfp0","pricing_plan_id":"free"},{"bike_id":"d294710e-0a41-4b73-901e-21835db920f9","system_id":"levelo_inurba_marseille","lat":43.239588,"lon":5.366238,"is_reserved":false,"is_disabled":false,"rental_uris":{"android":"levelo://app?vid=d294710e-0a41-4b73-901e-21835db920f9","ios":"levelo://app?vid=d294710e-0a41-4b73-901e-21835db920f9"},"vehicle_type_id":"4","last_reported":1703178394,"current_range_meters":18800,"station_id":"ce4bhi12rcd13ifvqfp0","pricing_plan_id":"free"},{"bike_id":"2ddc64da-9bd3-471d-85bf-9c00908f76a1","system_id":"levelo_inurba_marseille","lat":43.239588,"lon":5.366238,"is_reserved":false,"is_disabled":false,"rental_uris":{"android":"levelo://app?vid=2ddc64da-9bd3-471d-85bf-9c00908f76a1","ios":"levelo://app?vid=2ddc64da-9bd3-471d-85bf-9c00908f76a1"},"vehicle_type_id":"4","last_reported":1703178394,"current_range_meters":20800,"station_id":"ce4bhi12rcd13ifvqfp0","pricing_plan_id":"free"},{"bike_id":"ef821218-cc53-40af-9d7d-424199f5b810","system_id":"levelo_inurba_marseille","lat":43.239588,"lon":5.366238,"is_reserved":false,"is_disabled":false,"rental_uris":{"android":"levelo://app?vid=ef821218-cc53-40af-9d7d-424199f5b810","ios":"levelo://app?vid=ef821218-cc53-40af-9d7d-424199f5b810"},"vehicle_type_id":"4","last_reported":1703178394,"current_range_meters":28000,"station_id":"ce4bhi12rcd13ifvqfp0","pricing_plan_id":"free"},{"bike_id":"fe3d577f-2654-4ad3-9551-6bd19d7b501b","system_id":"levelo_inurba_marseille","lat":43.239588,"lon":5.366238,"is_reserved":false,"is_disabled":false,"rental_uris":{"android":"levelo://app?vid=fe3d577f-2654-4ad3-9551-6bd19d7b501b","ios":"levelo://app?vid=fe3d577f-2654-4ad3-9551-6bd19d7b501b"},"vehicle_type_id":"4","last_reported":1703178394,"current_range_meters":11600,"station_id":"ce4bhi12rcd13ifvqfp0","pricing_plan_id":"free"},{"bike_id":"607ae860-abc6-4f2e-9895-1cc0e07d5b36","system_id":"levelo_inurba_marseille","lat":43.239588,"lon":5.366238,"is_reserved":false,"is_disabled":false,"rental_uris":{"android":"levelo://app?vid=607ae860-abc6-4f2e-9895-1cc0e07d5b36","ios":"levelo://app?vid=607ae860-abc6-4f2e-9895-1cc0e07d5b36"},"vehicle_type_id":"4","last_reported":1703178394,"current_range_meters":24800,"station_id":"ce4bhi12rcd13ifvqfp0","pricing_plan_id":"free"},{"bike_id":"12c44584-9ea2-4e4b-b9dd-b603bf338028","system_id":"levelo_inurba_marseille","lat":43.23955,"lon":5.36634,"is_reserved":false,"is_disabled":false,"rental_uris":{"android":"levelo://app?vid=12c44584-9ea2-4e4b-b9dd-b603bf338028","ios":"levelo://app?vid=12c44584-9ea2-4e4b-b9dd-b603bf338028"},"vehicle_type_id":"4","last_reported":1703178394,"current_range_meters":32000,"station_id":"ce4bhi12rcd13ifvqfp0","pricing_plan_id":"free"},{"bike_id":"6d89ea84-0f5a-404c-a1cc-c044f238b07a","system_id":"levelo_inurba_marseille","lat":43.241782,"lon":5.397261,"is_reserved":false,"is_disabled":false,"rental_uris":{"android":"levelo://app?vid=6d89ea84-0f5a-404c-a1cc-c044f238b07a","ios":"levelo://app?vid=6d89ea84-0f5a-404c-a1cc-c044f238b07a"},"vehicle_type_id":"4","last_reported":1703178394,"current_range_meters":16000,"station_id":"ce4bhn12rcd13ifvqgpg","pricing_plan_id":"free"},{"bike_id":"397f2377-fc35-41d5-ab0e-fce1c38bbacc","system_id":"levelo_inurba_marseille","lat":43.231919,"lon":5.355532,"is_reserved":false,"is_disabled":false,"rental_uris":{"android":"levelo://app?vid=397f2377-fc35-41d5-ab0e-fce1c38bbacc","ios":"levelo://app?vid=397f2377-fc35-41d5-ab0e-fce1c38bbacc"},"vehicle_type_id":"4","last_reported":1703178394,"current_range_meters":23200,"station_id":"ce4bhu92rcd13ifvqi70","pricing_plan_id":"free"},{"bike_id":"46e91664-9e3d-4f32-b09c-687b430c80f7","system_id":"levelo_inurba_marseille","lat":43.23198,"lon":5.35556,"is_reserved":false,"is_disabled":false,"rental_uris":{"android":"levelo://app?vid=46e91664-9e3d-4f32-b09c-687b430c80f7","ios":"levelo://app?vid=46e91664-9e3d-4f32-b09c-687b430c80f7"},"vehicle_type_id":"4","last_reported":1703178394,"current_range_meters":13200,"station_id":"ce4bhu92rcd13ifvqi70","pricing_plan_id":"free"},{"bike_id":"0461e5b1-5dc5-4f24-b288-48135de65a72","system_id":"levelo_inurba_marseille","lat":43.23198,"lon":5.3555,"is_reserved":false,"is_disabled":false,"rental_uris":{"android":"levelo://app?vid=0461e5b1-5dc5-4f24-b288-48135de65a72","ios":"levelo://app?vid=0461e5b1-5dc5-4f24-b288-48135de65a72"},"vehicle_type_id":"4","last_reported":1703178394,"current_range_meters":15600,"station_id":"ce4bhu92rcd13ifvqi70","pricing_plan_id":"free"},{"bike_id":"76cd5497-589d-449c-8eee-93245f480e16","system_id":"levelo_inurba_marseille","lat":43.23196,"lon":5.35547,"is_reserved":false,"is_disabled":false,"rental_uris":{"android":"levelo://app?vid=76cd5497-589d-449c-8eee-93245f480e16","ios":"levelo://app?vid=76cd5497-589d-449c-8eee-93245f480e16"},"vehicle_type_id":"4","last_reported":1703178394,"current_range_meters":31200,"station_id":"ce4bhu92rcd13ifvqi70","pricing_plan_id":"free"},