{"last_updated":1765963097,"ttl":60,"version":"2.2","data":{"bikes":[{"bike_id":"74318dd8-1691-4b91-b1e4-1899d7815c78","system_id":"levelo_inurba_marseille","lat":43.21208,"lon":5.35087,"is_reserved":false,"is_disabled":false,"rental_uris":{"android":"levelo://app?vid=74318dd8-1691-4b91-b1e4-1899d7815c78","ios":"levelo://app?vid=74318dd8-1691-4b91-b1e4-1899d7815c78"},"vehicle_type_id":"4","last_reported":1765963097,"current_range_meters":2800,"station_id":"st_cvj6sg6p6f1abm77japg","pricing_plan_id":"cebpf4jnsgd1na2vs0mg"},{"bike_id":"bee5f29c-17ec-4d6a-b731-2c856acb548f","system_id":"levelo_inurba_marseille","lat":43.337538,"lon":5.374581,"is_reserved":false,"is_disabled":false,"rental_uris":{"android":"levelo://app?vid=bee5f29c-17ec-4d6a-b731-2c856acb548f","ios":"levelo://app?vid=bee5f29c-17ec-4d6a-b731-2c856acb548f"},"vehicle_type_id":"4","last_reported":1765963097,"current_range_meters":2800,"station_id":"","pricing_plan_id":"cebpf4jnsgd1na2vs0mg"},{"bike_id":"1a7fa844-051e-4bbd-9518-95fe010d57f1","system_id":"levelo_inurba_marseille","lat":43.28436,"lon":5.39881,"is_reserved":false,"is_disabled":false,"rental_uris":{"android":"levelo://app?vid=1a7fa844-051e-4bbd-9518-95fe010d57f1","ios":"levelo://app?vid=1a7fa844-051e-4bbd-9518-95fe010d57f1"},"vehicle_type_id":"4","last_reported":1765963097,"current_range_meters":2800,"station_id":"","pricing_plan_id":"cebpf4jnsgd1na2vs0mg"},{"bike_id":"0004e816-d3b7-4f20-b1a8-3493530fc6c0","system_id":"levelo_inurba_marseille","lat":43.23862,"lon":5.37349,"is_reserved":false,"is_disabled":false,"rental_uris":{"android":"levelo://app?vid=0004e816-d3b7-4f20-b1a8-3493530fc6c0","ios":"levelo://app?vid=0004e816-d3b7-4f20-b1a8-3493530fc6c0"},"vehicle_type_id":"4","last_reported":1765963097,"current_range_meters":2800,"station_id":"","pricing_plan_id":"cebpf4jnsgd1na2vs0mg"},{"bike_id":"d3eb1a28-60f7-4eab-a9be-915a03b25c99","system_id":"levelo_inurba_marseille","lat":43.337444,"lon":5.374475,"is_reserved":false,"is_disabled":false,"rental_uris":{"android":"levelo://app?vid=d3eb1a28-60f7-4eab-a9be-915a03b25c99","ios":"levelo://app?vid=d3eb1a28-60f7-4eab-a9be-915a03b25c99"},"vehicle_type_id":"4","last_reported":1765963097,"current_range_meters":3200,"station_id":"","pricing_plan_id":"cebpf4jnsgd1na2vs0mg"},{"bike_id":"9366b54d-3d5e-4e2f-a20d-49d0ce57f0ef","system_id":"levelo_inurba_marseille","lat":43.31078,"lon":5.42475,"is_reserved":false,"is_disabled":false,"rental_uris":{"android":"levelo://app?vid=9366b54d-3d5e-4e2f-a20d-49d0ce57f0ef","ios":"levelo://app?vid=9366b54d-3d5e-4e2f-a20d-49d0ce57f0ef"},"vehicle_type_id":"4","last_reported":1765963097,"current_range_meters":3600,"station_id":"ce4bhp92rcd13ifvqhag","pricing_plan_id":"cebpf4jnsgd1na2vs0mg"},{"bike_id":"58fe3c41-c31c-418f-8b03-ed2ed0f7c8fd","system_id":"levelo_inurba_marseille","lat":43.301077,"lon":5.365257,"is_reserved":false,"is_disabled":false,"rental_uris":{"android":"levelo://app?vid=58fe3c41-c31c-418f-8b03-ed2ed0f7c8fd","ios":"levelo://app?vid=58fe3c41-c31c-418f-8b03-ed2ed0f7c8fd"},"vehicle_type_id":"4","last_reported":1765963097,"current_range_meters":3600,"station_id":"","pricing_plan_id":"cebpf4jnsgd1na2vs0mg"},{"bike_id":"0d04367a-2738-41fb-8bc5-77b89893b507","system_id":"levelo_inurba_marseille","lat":43.211936,"lon":5.350741,"is_reserved":false,"is_disabled":false,"rental_uris":{"android":"levelo://app?vid=0d04367a-2738-41fb-8bc5-77b89893b507","ios":"levelo://app?vid=0d04367a-2738-41fb-8bc5-77b89893b507"},"vehicle_type_id":"4","last_reported":1765963097,"current_range_meters":3600,"station_id":"","pricing_plan_id":"cebpf4jnsgd1na2vs0mg"},{"bike_id":"ff1ef74c-1d9b-4f32-b5fc-466b83d26736","system_id":"levelo_inurba_marseille","lat":43.29054,"lon":5.39943,"is_reserved":false,"is_disabled":false,"rental_uris":{"android":"levelo://app?vid=ff1ef74c-1d9b-4f32-b5fc-466b83d26736","ios":"levelo://app?vid=ff1ef74c-1d9b-4f32-b5fc-466b83d26736"},"vehicle_type_id":"4","last_reported":1765963097,"current_range_meters":4000,"station_id":"ce4bh392rcd13ifvqdm0","pricing_plan_id":"cebpf4jnsgd1na2vs0mg"},{"bike_id":"f58b39bb-0411-4556-9d1f-eadbc2e4f99f","system_id":"levelo_inurba_marseille","lat":43.29258,"lon":5.37622,"is_reserved":false,"is_disabled":false,"rental_uris":{"android":"levelo://app?vid=f58b39bb-0411-4556-9d1f-eadbc2e4f99f","ios":"levelo://app?vid=f58b39bb-0411-4556-9d1f-eadbc2e4f99f"},"vehicle_type_id":"4","last_reported":1765963097,"current_range_meters":4000,"station_id":"ce4bgi12rcd13ifvqb80","pricing_plan_id":"cebpf4jnsgd1na2vs0mg"},{"bike_id":"85299ce6-7d31-4779-8540-b094a53082ba","system_id":"levelo_inurba_marseille","lat":43.24793,"lon":5.37484,"is_reserved":false,"is_disabled":false,"rental_uris":{"android":"levelo://app?vid=85299ce6-7d31-4779-8540-b094a53082ba","ios":"levelo://app?vid=85299ce6-7d31-4779-8540-b094a53082ba"},"vehicle_type_id":"4","last_reported":1765963097,"current_range_meters":4400,"station_id":"ce4bhgh2rcd13ifvqfb0","pricing_plan_id":"cebpf4jnsgd1na2vs0mg"},{"bike_id":"4270f25e-83a8-4ea4-9276-f0de11715279","system_id":"levelo_inurba_marseille","lat":43.29811,"lon":5.40407,"is_reserved":false,"is_disabled":false,"rental_uris":{"android":"levelo://app?vid=4270f25e-83a8-4ea4-9276-f0de11715279","ios":"levelo://app?vid=4270f25e-83a8-4ea4-9276-f0de11715279"},"vehicle_type_id":"4","last_reported":1765963097,"current_range_meters":4400,"station_id":"ce4bh112rcd13ifvqd90","pricing_plan_id":"cebpf4jnsgd1na2vs0mg"},{"bike_id":"0c2c5140-af06-486a-a322-d624aecbcc21","system_id":"levelo_inurba_marseille","lat":43.24549,"lon":5.40012,"is_reserved":false,"is_disabled":false,"rental_uris":{"android":"levelo://app?vid=0c2c5140-af06-486a-a322-d624aecbcc21","ios":"levelo://app?vid=0c2c5140-af06-486a-a322-d624aecbcc21"},"vehicle_type_id":"4","last_reported":1765963097,"current_range_meters":4400,"station_id":"","pricing_plan_id":"cebpf4jnsgd1na2vs0mg"},{"bike_id":"3464140a-fa4d-4baa-a277-f0b733016dfb","system_id":"levelo_inurba_marseille","lat":43.316035,"lon":5.379218,"is_reserved":false,"is_disabled":false,"rental_uris":{"android":"levelo://app?vid=3464140a-fa4d-4baa-a277-f0b733016dfb","ios":"levelo://app?vid=3464140a-fa4d-4baa-a277-f0b733016dfb"},"vehicle_type_id":"4","last_reported":1765963097,"current_range_meters":4400,"station_id":"","pricing_plan_id":"cebpf4jnsgd1na2vs0mg"},{"bike_id":"5ab26ea7-f15e-4ded-a88b-8adeb711cc40","system_id":"levelo_inurba_marseille","lat":43.28942,"lon":5.36635,"is_reserved":false,"is_disabled":false,"rental_uris":{"android":"levelo://app?vid=5ab26ea7-f15e-4ded-a88b-8adeb711cc40","ios":"levelo://app?vid=5ab26ea7-f15e-4ded-a88b-8adeb711cc40"},"vehicle_type_id":"4","last_reported":1765963097,"current_range_meters":4400,"station_id":"ce4bhap2rcd13ifvqek0","pricing_plan_id":"cebpf4jnsgd1na2vs0mg"},{"bike_id":"d6808b6f-5df2-4878-a1e8-910e03305a8b","system_id":"levelo_inurba_marseille","lat":43.29089,"lon":5.38121,"is_reserved":false,"is_disabled":false,"rental_uris":{"android":"levelo://app?vid=d6808b6f-5df2-4878-a1e8-910e03305a8b","ios":"levelo://app?vid=d6808b6f-5df2-4878-a1e8-910e03305a8b"},"vehicle_type_id":"4","last_reported":1765963097,"current_range_meters":4800,"station_id":"","pricing_plan_id":"cebpf4jnsgd1na2vs0mg"},{"bike_id":"5d150475-3238-4cd2-9535-55042535b07d","system_id":"levelo_inurba_marseille","lat":43.28155,"lon":5.42639,"is_reserved":false,"is_disabled":false,"rental_uris":{"android":"levelo://app?vid=5d150475-3238-4cd2-9535-55042535b07d","ios":"levelo://app?vid=5d150475-3238-4cd2-9535-55042535b07d"},"vehicle_type_id":"4","last_reported":1765963097,"current_range_meters":4800,"station_id":"ce4bhnh2rcd13ifvqgug","pricing_plan_id":"cebpf4jnsgd1na2vs0mg"},{"bike_id":"57dcc510-59ec-42f4-b7cb-b56942f5910b","system_id":"levelo_inurba_marseille","lat":43.301811,"lon":5.387568,"is_reserved":false,"is_disabled":false,"rental_uris":{"android":"levelo://app?vid=57dcc510-59ec-42f4-b7cb-b56942f5910b","ios":"levelo://app?vid=57dcc510-59ec-42f4-b7cb-b56942f5910b"},"vehicle_type_id":"4","last_reported":1765963097,"current_range_meters":4800,"station_id":"","pricing_plan_id":"cebpf4jnsgd1na2vs0mg"},{"bike_id":"3ca60de7-a1f7-4000-9cbe-4bf96a1cfcde","system_id":"levelo_inurba_marseille","lat":43.262159,"lon":5.374392,"is_reserved":false,"is_disabled":false,"rental_uris":{"android":"levelo://app?vid=3ca60de7-a1f7-4000-9cbe-4bf96a1cfcde","ios":"levelo://app?vid=3ca60de7-a1f7-4000-9cbe-4bf96a1cfcde"},"vehicle_type_id":"4","last_reported":1765963097,"current_range_meters":5600,"station_id":"ce4bhgp2rcd13ifvqfc0","pricing_plan_id":"cebpf4jnsgd1na2vs0mg"},{"bike_id":"00e77897-ffc6-44fa-9a43-00ecfcbf73ec","system_id":"levelo_inurba_marseille","lat":43.288533,"lon":5.358603,"is_reserved":false,"is_disabled":false,"rental_uris":{"android":"levelo://app?vid=00e77897-ffc6-44fa-9a43-00ecfcbf73ec","ios":"levelo://app?vid=00e77897-ffc6-44fa-9a43-00ecfcbf73ec"},"vehicle_type_id":"4","last_reported":1765963097,"current_range_meters":5600,"station_id":"ce4bhb12rcd13ifvqem0","pricing_plan_id":"cebpf4jnsgd1na2vs0mg"},{"bike_id":"473b080b-a3fd-447d-b0ec-b3201e54382b","system_id":"levelo_inurba_marseille","lat":43.30878,"lon":5.39651,"is_reserved":false,"is_disabled":false,"rental_uris":{"android":"levelo://app?vid=473b080b-a3fd-447d-b0ec-b3201e54382b","ios":"levelo://app?vid=473b080b-a3fd-447d-b0ec-b3201e54382b"},"vehicle_type_id":"4","last_reported":1765963097,"current_range_meters":5600,"station_id":"ce4bh012rcd13ifvqcv0","pricing_plan_id":"cebpf4jnsgd1na2vs0mg"},{"bike_id":"5157eb73-540a-40e7-89fb-109ab114fde6","system_id":"levelo_inurba_marseille","lat":43.2885,"lon":5.42504,"is_reserved":false,"is_disabled":false,"rental_uris":{"android":"levelo://app?vid=5157eb73-540a-40e7-89fb-109ab114fde6","ios":"levelo://app?vid=5157eb73-540a-40e7-89fb-109ab114fde6"},"vehicle_type_id":"4","last_reported":1765963097,"current_range_meters":5600,"station_id":"st_d3b462108ojc7389ooeg","pricing_plan_id":"cebpf4jnsgd1na2vs0mg"},{"bike_id":"82d80227-c187-4abe-93b9-8bb5493943ff","system_id":"levelo_inurba_marseille","lat":43.29057,"lon":5.37158,"is_reserved":false,"is_disabled":false,"rental_uris":{"android":"levelo://app?vid=82d80227-c187-4abe-93b9-8bb5493943ff","ios":"levelo://app?vid=82d80227-c187-4abe-93b9-8bb5493943ff"},"vehicle_type_id":"4","last_reported":1765963097,"current_range_meters":6400,"station_id":"ce4bh5p2rcd13ifvqe4g","pricing_plan_id":"cebpf4jnsgd1na2vs0mg"},{"bike_id":"ec38b80b-f7f6-4c54-ad11-a6b4bb427e4b","system_id":"levelo_inurba_marseille","lat":43.269558,"lon":5.386377,"is_reserved":false,"is_disabled":false,"rental_uris":{"android":"levelo://app?vid=ec38b80b-f7f6-4c54-ad11-a6b4bb427e4b","ios":"levelo://app?vid=ec38b80b-f7f6-4c54-ad11-a6b4bb427e4b"},"vehicle_type_id":"4","last_reported":1765963097,"current_range_meters":6400,"station_id":"ce4bhh92rcd13ifvqfh0","pricing_plan_id":"cebpf4jnsgd1na2vs0mg"},{"bike_id":"c2acd36a-0c71-41d9-89d7-35ccb2abf7a1","system_id":"levelo_inurba_marseille","lat":43.30537,"lon":5.38432,"is_reserved":false,"is_disabled":false,"rental_uris":{"android":"levelo://app?vid=c2acd36a-0c71-41d9-89d7-35ccb2abf7a1","ios":"levelo://app?vid=c2acd36a-0c71-41d9-89d7-35ccb2abf7a1"},"vehicle_type_id":"4","last_reported":1765963097,"current_range_meters":6400,"station_id":"ce4bgg92rcd13ifvqb30","pricing_plan_id":"cebpf4jnsgd1na2vs0mg"},{"bike_id":"2cd9312c-4ea4-464a-b003-d9661cb2263e","system_id":"levelo_inurba_marseille","lat":43.309461,"lon":5.390359,"is_reserved":false,"is_disabled":false,"rental_uris":{"android":"levelo://app?vid=2cd9312c-4ea4-464a-b003-d9661cb2263e","ios":"levelo://app?vid=2cd9312c-4ea4-464a-b003-d9661cb2263e"},"vehicle_type_id":"4","last_reported":1765963097,"current_range_meters":6400,"station_id":"ce4bhch2rcd13ifvqeug","pricing_plan_id":"cebpf4jnsgd1na2vs0mg"},{"bike_id":"6b49bcc6-8706-4836-bb39-d35f3b3d6f05","system_id":"levelo_inurba_marseille","lat":43.28523,"lon":5.44103,"is_reserved":false,"is_disabled":false,"rental_uris":{"android":"levelo://app?vid=6b49bcc6-8706-4836-bb39-d35f3b3d6f05","ios":"levelo://app?vid=6b49bcc6-8706-4836-bb39-d35f3b3d6f05"},"vehicle_type_id":"4","last_reported":1765963097,"current_range_meters":6400,"station_id":"st_d3j3df2ikq2c7380ej80","pricing_plan_id":"cebpf4jnsgd1na2vs0mg"},{"bike_id":"f78d83b2-e46c-424a-b560-1f11ed327790","system_id":"levelo_inurba_marseille","lat":43.273707,"lon":5.362568,"is_reserved":false,"is_disabled":false,"rental_uris":{"android":"levelo://app?vid=f78d83b2-e46c-424a-b560-1f11ed327790","ios":"levelo://app?vid=f78d83b2-e46c-424a-b560-1f11ed327790"},"vehicle_type_id":"4","last_reported":1765963097,"current_range_meters":6800,"station_id":"ce4bhbh2rcd13ifvqeo0","pricing_plan_id":"cebpf4jnsgd1na2vs0mg"},{"bike_id":"239ebc34-dbe2-4fc7-9a4c-345a251de60c","system_id":"levelo_inurba_marseille","lat":43.24651,"lon":5.38883,"is_reserved":false,"is_disabled":false,"rental_uris":{"android":"levelo://app?vid=239ebc34-dbe2-4fc7-9a4c-345a251de60c","ios":"levelo://app?vid=239ebc34-dbe2-4fc7-9a4c-345a251de60c"},"vehicle_type_id":"4","last_reported":1765963097,"current_range_meters":6800,"station_id":"ce4bhg12rcd13ifvqf60","pricing_plan_id":"cebpf4jnsgd1na2vs0mg"},{"bike_id":"343fe7d0-3d78-4db3-9459-a24be8980043","system_id":"levelo_inurba_marseille","lat":43.29418,"lon":5.38381,"is_reserved":false,"is_disabled":false,"rental_uris":{"android":"levelo://app?vid=343fe7d0-3d78-4db3-9459-a24be8980043","ios":"levelo://app?vid=343fe7d0-3d78-4db3-9459-a24be8980043"},"vehicle_type_id":"4","last_reported":1765963097,"current_range_meters":6800,"station_id":"","pricing_plan_id":"cebpf4jnsgd1na2vs0mg"},{"bike_id":"a4959a46-2d13-4336-ac72-126929cbe007","system_id":"levelo_inurba_marseille","lat":43.29229,"lon":5.36069,"is_reserved":false,"is_disabled":false,"rental_uris":{"android":"levelo://app?vid=a4959a46-2d13-4336-ac72-126929cbe007","ios":"levelo://app?vid=a4959a46-2d13-4336-ac72-126929cbe007"},"vehicle_type_id":"4","last_reported":1765963097,"current_range_meters":7200,"station_id":"ce4bhbh2rcd13ifvqeqg","pricing_plan_id":"cebpf4jnsgd1na2vs0mg"},{"bike_id":"283c734a-9c39-4452-9b72-a1d1c4eb8c50","system_id":"levelo_inurba_marseille","lat":43.302099,"lon":5.394564,"is_reserved":false,"is_disabled":true,"rental_uris":{"android":"levelo://app?vid=283c734a-9c39-4452-9b72-a1d1c4eb8c50","ios":"levelo://app?vid=283c734a-9c39-4452-9b72-a1d1c4eb8c50"},"vehicle_type_id":"4","last_reported":1765963097,"current_range_meters":7200,"station_id":"","pricing_plan_id":"cebpf4jnsgd1na2vs0mg"},{"bike_id":"c0169118-793d-4f58-83a7-1547c18869c0","system_id":"levelo_inurba_marseille","lat":43.27326,"lon":5.39093,"is_reserved":false,"is_disabled":true,"rental_uris":{"android":"levelo://app?vid=c0169118-793d-4f58-83a7-1547c18869c0","ios":"levelo://app?vid=c0169118-793d-4f58-83a7-1547c18869c0"},"vehicle_type_id":"4","last_reported":1765963097,"current_range_meters":7200,"station_id":"ce4bhgp2rcd13ifvqfe0","pricing_plan_id":"cebpf4jnsgd1na2vs0mg"},{"bike_id":"69675041-2550-4951-b1f9-f2a9459df366","system_id":"levelo_inurba_marseille","lat":43.29784,"lon":5.3711,"is_reserved":false,"is_disabled":false,"rental_uris":{"android":"levelo://app?vid=69675041-2550-4951-b1f9-f2a9459df366","ios":"levelo://app?vid=69675041-2550-4951-b1f9-f2a9459df366"},"vehicle_type_id":"4","last_reported":1765963097,"current_range_meters":7200,"station_id":"ce4bgop2rcd13ifvqc1g","pricing_plan_id":"cebpf4jnsgd1na2vs0mg"},{"bike_id":"1df68545-45ea-4a0b-99e1-faf0fbafe3c1","system_id":"levelo_inurba_marseille","lat":43.25581,"lon":5.3822,"is_reserved":false,"is_disabled":false,"rental_uris":{"android":"levelo://app?vid=1df68545-45ea-4a0b-99e1-faf0fbafe3c1","ios":"levelo://app?vid=1df68545-45ea-4a0b-99e1-faf0fbafe3c1"},"vehicle_type_id":"4","last_reported":1765963097,"current_range_meters":7200,"station_id":"ce4bhih2rcd13ifvqfs0","pricing_plan_id":"cebpf4jnsgd1na2vs0mg"},{"bike_id":"67be8c3b-4400-403c-b56e-31f2a51931e7","system_id":"levelo_inurba_marseille","lat":43.23197,"lon":5.35538,"is_reserved":false,"is_disabled":true,"rental_uris":{"android":"levelo://app?vid=67be8c3b-4400-403c-b56e-31f2a51931e7","ios":"levelo://app?vid=67be8c3b-4400-403c-b56e-31f2a51931e7"},"vehicle_type_id":"4","last_reported":1765963097,"current_range_meters":8000,"station_id":"ce4bhu92rcd13ifvqi70","pricing_plan_id":"cebpf4jnsgd1na2vs0mg"},{"bike_id":"62319f52-bb5a-47c6-bf63-d8b31ecb59b3","system_id":"levelo_inurba_marseille","lat":43.264601,"lon":5.373596,"is_reserved":false,"is_disabled":false,"rental_uris":{"android":"levelo://app?vid=62319f52-bb5a-47c6-bf63-d8b31ecb59b3","ios":"levelo://app?vid=62319f52-bb5a-47c6-bf63-d8b31ecb59b3"},"vehicle_type_id":"4","last_reported":1765963097,"current_range_meters":8000,"station_id":"","pricing_plan_id":"cebpf4jnsgd1na2vs0mg"},{"bike_id":"860586bd-84d4-43ba-af58-7f526b0205ca","system_id":"levelo_inurba_marseille","lat":43.31442,"lon":5.37424,"is_reserved":false,"is_disabled":false,"rental_uris":{"android":"levelo://app?vid=860586bd-84d4-43ba-af58-7f526b0205ca","ios":"levelo://app?vid=860586bd-84d4-43ba-af58-7f526b0205ca"},"vehicle_type_id":"4","last_reported":1765963097,"current_range_meters":8000,"station_id":"","pricing_plan_id":"cebpf4jnsgd1na2vs0mg"},{"bike_id":"b296fdce-bc4e-4615-b7a9-989d9472d975","system_id":"levelo_inurba_marseille","lat":43.25551,"lon":5.38242,"is_reserved":false,"is_disabled":false,"rental_uris":{"android":"levelo://app?vid=b296fdce-bc4e-4615-b7a9-989d9472d975","ios":"levelo://app?vid=b296fdce-bc4e-4615-b7a9-989d9472d975"},"vehicle_type_id":"4","last_reported":1765963097,"current_range_meters":8000,"station_id":"ce4bhih2rcd13ifvqfs0","pricing_plan_id":"cebpf4jnsgd1na2vs0mg"},{"bike_id":"f9ba0bc8-1678-4550-8ab9-06ec3e215e8d","system_id":"levelo_inurba_marseille","lat":43.337444,"lon":5.374475,"is_reserved":false,"is_disabled":false,"rental_uris":{"android":"levelo://app?vid=f9ba0bc8-1678-4550-8ab9-06ec3e215e8d","ios":"levelo://app?vid=f9ba0bc8-1678-4550-8ab9-06ec3e215e8d"},"vehicle_type_id":"4","last_reported":1765963097,"current_range_meters":8000,"station_id":"","pricing_plan_id":"cebpf4jnsgd1na2vs0mg"},{"bike_id":"168944bc-143d-4235-a87c-58523f4f4dd7","system_id":"levelo_inurba_marseille","lat":43.29646,"lon":5.38076,"is_reserved":false,"is_disabled":true,"rental_uris":{"android":"levelo://app?vid=168944bc-143d-4235-a87c-58523f4f4dd7","ios":"levelo://app?vid=168944bc-143d-4235-a87c-58523f4f4dd7"},"vehicle_type_id":"4","last_reported":1765963097,"current_range_meters":8000,"station_id":"","pricing_plan_id":"cebpf4jnsgd1na2vs0mg"},{"bike_id":"c65d606d-c984-47e0-9c00-b3d2293abbb4","system_id":"levelo_inurba_marseille","lat":43.24073,"lon":5.37745,"is_reserved":false,"is_disabled":false,"rental_uris":{"android":"levelo://app?vid=c65d606d-c984-47e0-9c00-b3d2293abbb4","ios":"levelo://app?vid=c65d606d-c984-47e0-9c00-b3d2293abbb4"},"vehicle_type_id":"4","last_reported":1765963097,"current_range_meters":8000,"station_id":"ce4bhnp2rcd13ifvqgvg","pricing_plan_id":"cebpf4jnsgd1na2vs0mg"},{"bike_id":"77e0d0eb-6af8-474d-83a5-2b5e4ff0d935","system_id":"levelo_inurba_marseille","lat":43.24619,"lon":5.43153,"is_reserved":false,"is_disabled":true,"rental_uris":{"android":"levelo://app?vid=77e0d0eb-6af8-474d-83a5-2b5e4ff0d935","ios":"levelo://app?vid=77e0d0eb-6af8-474d-83a5-2b5e4ff0d935"},"vehicle_type_id":"4","last_reported":1765963097,"current_range_meters":8000,"station_id":"st_d2m6c4gdas8pm72e190g","pricing_plan_id":"cebpf4jnsgd1na2vs0mg"},{"bike_id":"b5de3dc8-191d-41f1-a993-dd1eca7db6fc","system_id":"levelo_inurba_marseille","lat":43.310095,"lon":5.393367,"is_reserved":false,"is_disabled":false,"rental_uris":{"android":"levelo://app?vid=b5de3dc8-191d-41f1-a993-dd1eca7db6fc","ios":"levelo://app?vid=b5de3dc8-191d-41f1-a993-dd1eca7db6fc"},"vehicle_type_id":"4","last_reported":1765963097,"current_range_meters":8000,"station_id":"","pricing_plan_id":"cebpf4jnsgd1na2vs0mg"},{"bike_id":"74d74512-ebc7-462f-896f-83ad7c6e552e","system_id":"levelo_inurba_marseille","lat":43.299672,"lon":5.384738,"is_reserved":false,"is_disabled":false,"rental_uris":{"android":"levelo://app?vid=74d74512-ebc7-462f-896f-83ad7c6e552e","ios":"levelo://app?vid=74d74512-ebc7-462f-896f-83ad7c6e552e"},"vehicle_type_id":"4","last_reported":1765963097,"current_range_meters":8000,"station_id":"ce4bgj92rcd13ifvqbd0","pricing_plan_id":"cebpf4jnsgd1na2vs0mg"},{"bike_id":"b85e7c1d-8d2c-4b07-83c8-c5272ce33ca0","system_id":"levelo_inurba_marseille","lat":43.27787,"lon":5.40721,"is_reserved":false,"is_disabled":true,"rental_uris":{"android":"levelo://app?vid=b85e7c1d-8d2c-4b07-83c8-c5272ce33ca0","ios":"levelo://app?vid=b85e7c1d-8d2c-4b07-83c8-c5272ce33ca0"},"vehicle_type_id":"4","last_reported":1765963097,"current_range_meters":8000,"station_id":"ce4bhnh2rcd13ifvqgtg","pricing_plan_id":"cebpf4jnsgd1na2vs0mg"},{"bike_id":"43642bae-3ea3-40d5-b685-75639072eb17","system_id":"levelo_inurba_marseille","lat":43.3074,"lon":5.4243,"is_reserved":false,"is_disabled":false,"rental_uris":{"android":"levelo://app?vid=43642bae-3ea3-40d5-b685-75639072eb17","ios":"levelo://app?vid=43642bae-3ea3-40d5-b685-75639072eb17"},"vehicle_type_id":"4","last_reported":1765963097,"current_range_meters":8000,"station_id":"st_cvj6ca6bvosntc0bfgr0","pricing_plan_id":"cebpf4jnsgd1na2vs0mg"},{"bike_id":"661bcc35-b2a5-486f-a0f0-77f5b81a0d0d","system_id":"levelo_inurba_marseille","lat":43.30372,"lon":5.42497,"is_reserved":false,"is_disabled":false,"rental_uris":{"android":"levelo://app?vid=661bcc35-b2a5-486f-a0f0-77f5b81a0d0d","ios":"levelo://app?vid=661bcc35-b2a5-486f-a0f0-77f5b81a0d0d"},"vehicle_type_id":"4","last_reported":1765963097,"current_range_meters":8000,"station_id":"ce4bhoh2rcd13ifvqh6g","pricing_plan_id":"cebpf4jnsgd1na2vs0mg"},{"bike_id":"90f357fd-4c0f-4c8b-96c8-9cf3e3651b28","system_id":"levelo_inurba_marseille","lat":43.28285,"lon":5.35061,"is_reserved":false,"is_disabled":false,"rental_uris":{"android":"levelo://app?vid=90f357fd-4c0f-4c8b-96c8-9cf3e3651b28","ios":"levelo://app?vid=90f357fd-4c0f-4c8b-96c8-9cf3e3651b28"},"vehicle_type_id":"4","last_reported":1765963097,"current_range_meters":8400,"station_id":"ce4bhbp2rcd13ifvqerg","pricing_plan_id":"cebpf4jnsgd1na2vs0mg"},{"bike_id":"572fd032-f62a-46e0-ab46-89098c0755dc","system_id":"levelo_inurba_marseille","lat":43.29765,"lon":5.38104,"is_reserved":false,"is_disabled":true,"rental_uris":{"android":"levelo://app?vid=572fd032-f62a-46e0-ab46-89098c0755dc","ios":"levelo://app?vid=572fd032-f62a-46e0-ab46-89098c0755dc"},"vehicle_type_id":"4","last_reported":1765963097,"current_range_meters":8400,"station_id":"ce4bgip2rcd13ifvqbb0","pricing_plan_id":"cebpf4jnsgd1na2vs0mg"},{"bike_id":"929cf538-0f17-44b1-998a-c48280fa525c","system_id":"levelo_inurba_marseille","lat":43.27485,"lon":5.42435,"is_reserved":false,"is_disabled":true,"rental_uris":{"android":"levelo://app?vid=929cf538-0f17-44b1-998a-c48280fa525c","ios":"levelo://app?vid=929cf538-0f17-44b1-998a-c48280fa525c"},"vehicle_type_id":"4","last_reported":1765963097,"current_range_meters":8400,"station_id":"ce4bhn92rcd13ifvqgrg","pricing_plan_id":"cebpf4jnsgd1na2vs0mg"},{"bike_id":"ab4ef196-e8fa-4fab-81e9-8ad3ad4973f7","system_id":"levelo_inurba_marseille","lat":43.2706,"lon":5.42274,"is_reserved":false,"is_disabled":true,"rental_uris":{"android":"levelo://app?vid=ab4ef196-e8fa-4fab-81e9-8ad3ad4973f7","ios":"levelo://app?vid=ab4ef196-e8fa-4fab-81e9-8ad3ad4973f7"},"vehicle_type_id":"4","last_reported":1765963097,"current_range_meters":8400,"station_id":"ce4bhk92rcd13ifvqgb0","pricing_plan_id":"cebpf4jnsgd1na2vs0mg"},{"bike_id":"5f9115dc-47d2-4bdb-be36-56ac4d2294b3","system_id":"levelo_inurba_marseille","lat":43.3074,"lon":5.4244,"is_reserved":false,"is_disabled":false,"rental_uris":{"android":"levelo://app?vid=5f9115dc-47d2-4bdb-be36-56ac4d2294b3","ios":"levelo://app?vid=5f9115dc-47d2-4bdb-be36-56ac4d2294b3"},"vehicle_type_id":"4","last_reported":1765963097,"current_range_meters":8400,"station_id":"st_cvj6ca6bvosntc0bfgr0","pricing_plan_id":"cebpf4jnsgd1na2vs0mg"},{"bike_id":"91f86acd-5cb0-4a50-b5e7-cba7f74a6726","system_id":"levelo_inurba_marseille","lat":43.24064,"lon":5.37763,"is_reserved":false,"is_disabled":false,"rental_uris":{"android":"levelo://app?vid=91f86acd-5cb0-4a50-b5e7-cba7f74a6726","ios":"levelo://app?vid=91f86acd-5cb0-4a50-b5e7-cba7f74a6726"},"vehicle_type_id":"4","last_reported":1765963097,"current_range_meters":8400,"station_id":"ce4bhnp2rcd13ifvqgvg","pricing_plan_id":"cebpf4jnsgd1na2vs0mg"},{"bike_id":"28236ec4-b42f-4cc1-a986-6b17fbc276c6","system_id":"levelo_inurba_marseille","lat":43.25822,"lon":5.3944,"is_reserved":false,"is_disabled":false,"rental_uris":{"android":"levelo://app?vid=28236ec4-b42f-4cc1-a986-6b17fbc276c6","ios":"levelo://app?vid=28236ec4-b42f-4cc1-a986-6b17fbc276c6"},"vehicle_type_id":"4","last_reported":1765963097,"current_range_meters":8400,"station_id":"ce4bhip2rcd13ifvqft0","pricing_plan_id":"cebpf4jnsgd1na2vs0mg"},{"bike_id":"3220c038-c80c-42c0-b88d-97aa9e337a9a","system_id":"levelo_inurba_marseille","lat":43.2408,"lon":5.3776,"is_reserved":false,"is_disabled":false,"rental_uris":{"android":"levelo://app?vid=3220c038-c80c-42c0-b88d-97aa9e337a9a","ios":"levelo://app?vid=3220c038-c80c-42c0-b88d-97aa9e337a9a"},"vehicle_type_id":"4","last_reported":1765963097,"current_range_meters":8400,"station_id":"ce4bhnp2rcd13ifvqgvg","pricing_plan_id":"cebpf4jnsgd1na2vs0mg"},{"bike_id":"7b9bd5de-20ee-492a-91cc-3964972326b2","system_id":"levelo_inurba_marseille","lat":43.29468,"lon":5.38289,"is_reserved":false,"is_disabled":false,"rental_uris":{"android":"levelo://app?vid=7b9bd5de-20ee-492a-91cc-3964972326b2","ios":"levelo://app?vid=7b9bd5de-20ee-492a-91cc-3964972326b2"},"vehicle_type_id":"4","last_reported":1765963097,"current_range_meters":8400,"station_id":"","pricing_plan_id":"cebpf4jnsgd1na2vs0mg"},{"bike_id":"b2d0bee3-8553-4527-a831-d1e903999f00","system_id":"levelo_inurba_marseille","lat":43.316791,"lon":5.375612,"is_reserved":false,"is_disabled":false,"rental_uris":{"android":"levelo://app?vid=b2d0bee3-8553-4527-a831-d1e903999f00","ios":"levelo://app?vid=b2d0bee3-8553-4527-a831-d1e903999f00"},"vehicle_type_id":"4","last_reported":1765963097,"current_range_meters":8800,"station_id":"","pricing_plan_id":"cebpf4jnsgd1na2vs0mg"},{"bike_id":"d0c81cd9-bcb1-46de-85cc-999523e8d872","system_id":"levelo_inurba_marseille","lat":43.304405,"lon":5.370902,"is_reserved":false,"is_disabled":false,"rental_uris":{"android":"levelo://app?vid=d0c81cd9-bcb1-46de-85cc-999523e8d872","ios":"levelo://app?vid=d0c81cd9-bcb1-46de-85cc-999523e8d872"},"vehicle_type_id":"4","last_reported":1765963097,"current_range_meters":8800,"station_id":"","pricing_plan_id":"cebpf4jnsgd1na2vs0mg"},{"bike_id":"7eaed911-52ff-45ed-b3ff-cd17f37407d1","system_id":"levelo_inurba_marseille","lat":43.282329,"lon":5.349032,"is_reserved":false,"is_disabled":false,"rental_uris":{"android":"levelo://app?vid=7eaed911-52ff-45ed-b3ff-cd17f37407d1","ios":"levelo://app?vid=7eaed911-52ff-45ed-b3ff-cd17f37407d1"},"vehicle_type_id":"4","last_reported":1765963097,"current_range_meters":8800,"station_id":"","pricing_plan_id":"cebpf4jnsgd1na2vs0mg"},{"bike_id":"f5c06492-8ff7-4eb9-a21d-99dd280e7db4","system_id":"levelo_inurba_marseille","lat":43.29814,"lon":5.44062,"is_reserved":false,"is_disabled":false,"rental_uris":{"android":"levelo://app?vid=f5c06492-8ff7-4eb9-a21d-99dd280e7db4","ios":"levelo://app?vid=f5c06492-8ff7-4eb9-a21d-99dd280e7db4"},"vehicle_type_id":"4","last_reported":1765963097,"current_range_meters":8800,"station_id":"st_d3jp68qikq2c7381ktn0","pricing_plan_id":"cebpf4jnsgd1na2vs0mg"},{"bike_id":"6b1d8ffc-0615-45d2-88cb-2d07a1becd12","system_id":"levelo_inurba_marseille","lat":43.28727,"lon":5.3793,"is_reserved":false,"is_disabled":false,"rental_uris":{"android":"levelo://app?vid=6b1d8ffc-0615-45d2-88cb-2d07a1becd12","ios":"levelo://app?vid=6b1d8ffc-0615-45d2-88cb-2d07a1becd12"},"vehicle_type_id":"4","last_reported":1765963097,"current_range_meters":8800,"station_id":"ce4bh9p2rcd13ifvqec0","pricing_plan_id":"cebpf4jnsgd1na2vs0mg"},{"bike_id":"4199f6d3-05df-40b7-9c8b-0f25de669f31","system_id":"levelo_inurba_marseille","lat":43.2927,"lon":5.36851,"is_reserved":false,"is_disabled":false,"rental_uris":{"android":"levelo://app?vid=4199f6d3-05df-40b7-9c8b-0f25de669f31","ios":"levelo://app?vid=4199f6d3-05df-40b7-9c8b-0f25de669f31"},"vehicle_type_id":"4","last_reported":1765963097,"current_range_meters":8800,"station_id":"ce4bhbp2rcd13ifvqesg","pricing_plan_id":"cebpf4jnsgd1na2vs0mg"},{"bike_id":"71eb1a16-88e0-457c-a111-7bb97e3f4d31","system_id":"levelo_inurba_marseille","lat":43.28531,"lon":5.44115,"is_reserved":false,"is_disabled":false,"rental_uris":{"android":"levelo://app?vid=71eb1a16-88e0-457c-a111-7bb97e3f4d31","ios":"levelo://app?vid=71eb1a16-88e0-457c-a111-7bb97e3f4d31"},"vehicle_type_id":"4","last_reported":1765963097,"current_range_meters":9200,"station_id":"st_d3j3df2ikq2c7380ej80","pricing_plan_id":"cebpf4jnsgd1na2vs0mg"},{"bike_id":"af850f80-bba0-4b92-baaf-774807ed9213","system_id":"levelo_inurba_marseille","lat":43.25818,"lon":5.39425,"is_reserved":false,"is_disabled":false,"rental_uris":{"android":"levelo://app?vid=af850f80-bba0-4b92-baaf-774807ed9213","ios":"levelo://app?vid=af850f80-bba0-4b92-baaf-774807ed9213"},"vehicle_type_id":"4","last_reported":1765963097,"current_range_meters":9200,"station_id":"ce4bhip2rcd13ifvqft0","pricing_plan_id":"cebpf4jnsgd1na2vs0mg"},{"bike_id":"43f1e5b6-6733-49f3-afee-4b272067dec8","system_id":"levelo_inurba_marseille","lat":43.2414,"lon":5.3645,"is_reserved":false,"is_disabled":false,"rental_uris":{"android":"levelo://app?vid=43f1e5b6-6733-49f3-afee-4b272067dec8","ios":"levelo://app?vid=43f1e5b6-6733-49f3-afee-4b272067dec8"},"vehicle_type_id":"4","last_reported":1765963097,"current_range_meters":9200,"station_id":"","pricing_plan_id":"cebpf4jnsgd1na2vs0mg"},{"bike_id":"72ee6f42-2803-451b-bbe8-1d83a768454b","system_id":"levelo_inurba_marseille","lat":43.30473,"lon":5.37914,"is_reserved":false,"is_disabled":false,"rental_uris":{"android":"levelo://app?vid=72ee6f42-2803-451b-bbe8-1d83a768454b","ios":"levelo://app?vid=72ee6f42-2803-451b-bbe8-1d83a768454b"},"vehicle_type_id":"4","last_reported":1765963097,"current_range_meters":9200,"station_id":"ce4bgup2rcd13ifvqcn0","pricing_plan_id":"cebpf4jnsgd1na2vs0mg"},{"bike_id":"36ca5b20-ca80-4cb2-bcd1-60ad71c55028","system_id":"levelo_inurba_marseille","lat":43.26697,"lon":5.38266,"is_reserved":false,"is_disabled":false,"rental_uris":{"android":"levelo://app?vid=36ca5b20-ca80-4cb2-bcd1-60ad71c55028","ios":"levelo://app?vid=36ca5b20-ca80-4cb2-bcd1-60ad71c55028"},"vehicle_type_id":"4","last_reported":1765963097,"current_range_meters":9200,"station_id":"ce4bhg92rcd13ifvqf90","pricing_plan_id":"cebpf4jnsgd1na2vs0mg"},{"bike_id":"c207d154-2a6e-4f87-9688-1e794e636894","system_id":"levelo_inurba_marseille","lat":43.229366,"lon":5.353736,"is_reserved":false,"is_disabled":false,"rental_uris":{"android":"levelo://app?vid=c207d154-2a6e-4f87-9688-1e794e636894","ios":"levelo://app?vid=c207d154-2a6e-4f87-9688-1e794e636894"},"vehicle_type_id":"4","last_reported":1765963097,"current_range_meters":9200,"station_id":"cpo3532slgdg3j2ikp40","pricing_plan_id":"cebpf4jnsgd1na2vs0mg"},{"bike_id":"b34ac74c-e4ac-4a1b-a932-35619bc5e2da","system_id":"levelo_inurba_marseille","lat":43.23152,"lon":5.43718,"is_reserved":false,"is_disabled":false,"rental_uris":{"android":"levelo://app?vid=b34ac74c-e4ac-4a1b-a932-35619bc5e2da","ios":"levelo://app?vid=b34ac74c-e4ac-4a1b-a932-35619bc5e2da"},"vehicle_type_id":"4","last_reported":1765963097,"current_range_meters":9200,"station_id":"ce4bhmp2rcd13ifvqgog","pricing_plan_id":"cebpf4jnsgd1na2vs0mg"},{"bike_id":"63f049b7-b0d4-4d62-a2da-f4f0aa5027b7","system_id":"levelo_inurba_marseille","lat":43.31695,"lon":5.4047,"is_reserved":false,"is_disabled":false,"rental_uris":{"android":"levelo://app?vid=63f049b7-b0d4-4d62-a2da-f4f0aa5027b7","ios":"levelo://app?vid=63f049b7-b0d4-4d62-a2da-f4f0aa5027b7"},"vehicle_type_id":"4","last_reported":1765963097,"current_range_meters":9200,"station_id":"ce4bh012rcd13ifvqd00","pricing_plan_id":"cebpf4jnsgd1na2vs0mg"},{"bike_id":"383d070b-2e41-497d-8b87-6568bb699a15","system_id":"levelo_inurba_marseille","lat":43.33601,"lon":5.41026,"is_reserved":false,"is_disabled":false,"rental_uris":{"android":"levelo://app?vid=383d070b-2e41-497d-8b87-6568bb699a15","ios":"levelo://app?vid=383d070b-2e41-497d-8b87-6568bb699a15"},"vehicle_type_id":"4","last_reported":1765963097,"current_range_meters":9200,"station_id":"ce4bhqh2rcd13ifvqhmg","pricing_plan_id":"cebpf4jnsgd1na2vs0mg"},{"bike_id":"17941308-d1b2-4923-b83f-cd6b60634fd9","system_id":"levelo_inurba_marseille","lat":43.3048,"lon":5.37896,"is_reserved":false,"is_disabled":false,"rental_uris":{"android":"levelo://app?vid=17941308-d1b2-4923-b83f-cd6b60634fd9","ios":"levelo://app?vid=17941308-d1b2-4923-b83f-cd6b60634fd9"},"vehicle_type_id":"4","last_reported":1765963097,"current_range_meters":9200,"station_id":"ce4bgup2rcd13ifvqcn0","pricing_plan_id":"cebpf4jnsgd1na2vs0mg"},{"bike_id":"7880bae9-3dc0-4c85-8072-55630762fa30","system_id":"levelo_inurba_marseille","lat":43.292,"lon":5.35803,"is_reserved":false,"is_disabled":false,"rental_uris":{"android":"levelo://app?vid=7880bae9-3dc0-4c85-8072-55630762fa30","ios":"levelo://app?vid=7880bae9-3dc0-4c85-8072-55630762fa30"},"vehicle_type_id":"4","last_reported":1765963097,"current_range_meters":9200,"station_id":"ce4bhb12rcd13ifvqel0","pricing_plan_id":"cebpf4jnsgd1na2vs0mg"},{"bike_id":"54f8fe26-ad2a-40ba-8e6d-e7235d52405d","system_id":"levelo_inurba_marseille","lat":43.25333,"lon":5.42159,"is_reserved":false,"is_disabled":true,"rental_uris":{"android":"levelo://app?vid=54f8fe26-ad2a-40ba-8e6d-e7235d52405d","ios":"levelo://app?vid=54f8fe26-ad2a-40ba-8e6d-e7235d52405d"},"vehicle_type_id":"4","last_reported":1765963097,"current_range_meters":9600,"station_id":"st_d2m65c5bi1j21697t3ng","pricing_plan_id":"cebpf4jnsgd1na2vs0mg"},{"bike_id":"9b44a221-f6d7-4572-bedc-1c17e6b131d2","system_id":"levelo_inurba_marseille","lat":43.24649,"lon":5.38887,"is_reserved":false,"is_disabled":false,"rental_uris":{"android":"levelo://app?vid=9b44a221-f6d7-4572-bedc-1c17e6b131d2","ios":"levelo://app?vid=9b44a221-f6d7-4572-bedc-1c17e6b131d2"},"vehicle_type_id":"4","last_reported":1765963097,"current_range_meters":9600,"station_id":"ce4bhg12rcd13ifvqf60","pricing_plan_id":"cebpf4jnsgd1na2vs0mg"},{"bike_id":"99d9548b-71eb-46dc-aa8d-e117beba1424","system_id":"levelo_inurba_marseille","lat":43.29711,"lon":5.37707,"is_reserved":false,"is_disabled":false,"rental_uris":{"android":"levelo://app?vid=99d9548b-71eb-46dc-aa8d-e117beba1424","ios":"levelo://app?vid=99d9548b-71eb-46dc-aa8d-e117beba1424"},"vehicle_type_id":"4","last_reported":1765963097,"current_range_meters":9600,"station_id":"ce4bgkh2rcd13ifvqbl0","pricing_plan_id":"cebpf4jnsgd1na2vs0mg"},{"bike_id":"79774207-e718-4713-aff9-e4ed58b624c9","system_id":"levelo_inurba_marseille","lat":43.30143,"lon":5.37423,"is_reserved":false,"is_disabled":false,"rental_uris":{"android":"levelo://app?vid=79774207-e718-4713-aff9-e4ed58b624c9","ios":"levelo://app?vid=79774207-e718-4713-aff9-e4ed58b624c9"},"vehicle_type_id":"4","last_reported":1765963097,"current_range_meters":9600,"station_id":"ce4bgs92rcd13ifvqcc0","pricing_plan_id":"cebpf4jnsgd1na2vs0mg"},{"bike_id":"90fc785a-0fbb-4fe6-92be-90e487843755","system_id":"levelo_inurba_marseille","lat":43.26559,"lon":5.37322,"is_reserved":false,"is_disabled":false,"rental_uris":{"android":"levelo://app?vid=90fc785a-0fbb-4fe6-92be-90e487843755","ios":"levelo://app?vid=90fc785a-0fbb-4fe6-92be-90e487843755"},"vehicle_type_id":"4","last_reported":1765963097,"current_range_meters":9600,"station_id":"ce4bhg12rcd13ifvqf70","pricing_plan_id":"cebpf4jnsgd1na2vs0mg"},{"bike_id":"0f954251-5e55-4f5f-9747-36a09fff8a56","system_id":"levelo_inurba_marseille","lat":43.27304,"lon":5.39096,"is_reserved":false,"is_disabled":false,"rental_uris":{"android":"levelo://app?vid=0f954251-5e55-4f5f-9747-36a09fff8a56","ios":"levelo://app?vid=0f954251-5e55-4f5f-9747-36a09fff8a56"},"vehicle_type_id":"4","last_reported":1765963097,"current_range_meters":9600,"station_id":"ce4bhgp2rcd13ifvqfe0","pricing_plan_id":"cebpf4jnsgd1na2vs0mg"},{"bike_id":"6b2073a2-5df3-44d3-9b01-4b8173586f34","system_id":"levelo_inurba_marseille","lat":43.26377,"lon":5.41078,"is_reserved":false,"is_disabled":false,"rental_uris":{"android":"levelo://app?vid=6b2073a2-5df3-44d3-9b01-4b8173586f34","ios":"levelo://app?vid=6b2073a2-5df3-44d3-9b01-4b8173586f34"},"vehicle_type_id":"4","last_reported":1765963097,"current_range_meters":10000,"station_id":"st_d4e5ca6na9uc73bfl5fg","pricing_plan_id":"cebpf4jnsgd1na2vs0mg"},{"bike_id":"bdec3b25-1ef1-4f5b-bb7c-5dba5dbc125f","system_id":"levelo_inurba_marseille","lat":43.319385,"lon":5.372905,"is_reserved":false,"is_disabled":false,"rental_uris":{"android":"levelo://app?vid=bdec3b25-1ef1-4f5b-bb7c-5dba5dbc125f","ios":"levelo://app?vid=bdec3b25-1ef1-4f5b-bb7c-5dba5dbc125f"},"vehicle_type_id":"4","last_reported":1765963097,"current_range_meters":10000,"station_id":"","pricing_plan_id":"cebpf4jnsgd1na2vs0mg"},{"bike_id":"5cde72fc-6b41-4764-bcbf-9fc9dff4199e","system_id":"levelo_inurba_marseille","lat":43.337538,"lon":5.374581,"is_reserved":false,"is_disabled":false,"rental_uris":{"android":"levelo://app?vid=5cde72fc-6b41-4764-bcbf-9fc9dff4199e","ios":"levelo://app?vid=5cde72fc-6b41-4764-bcbf-9fc9dff4199e"},"vehicle_type_id":"4","last_reported":1765963097,"current_range_meters":10000,"station_id":"","pricing_plan_id":"cebpf4jnsgd1na2vs0mg"},{"bike_id":"cb5fb5c4-3bd8-4960-9377-b1a41b4ca74b","system_id":"levelo_inurba_marseille","lat":43.23157,"lon":5.43701,"is_reserved":false,"is_disabled":true,"rental_uris":{"android":"levelo://app?vid=cb5fb5c4-3bd8-4960-9377-b1a41b4ca74b","ios":"levelo://app?vid=cb5fb5c4-3bd8-4960-9377-b1a41b4ca74b"},"vehicle_type_id":"4","last_reported":1765963097,"current_range_meters":10000,"station_id":"ce4bhmp2rcd13ifvqgog","pricing_plan_id":"cebpf4jnsgd1na2vs0mg"},{"bike_id":"0757412c-3a83-462e-90dd-86301f3f0506","system_id":"levelo_inurba_marseille","lat":43.3015,"lon":5.380674,"is_reserved":false,"is_disabled":false,"rental_uris":{"android":"levelo://app?vid=0757412c-3a83-462e-90dd-86301f3f0506","ios":"levelo://app?vid=0757412c-3a83-462e-90dd-86301f3f0506"},"vehicle_type_id":"4","last_reported":1765963097,"current_range_meters":10000,"station_id":"","pricing_plan_id":"cebpf4jnsgd1na2vs0mg"},{"bike_id":"89f5a425-6334-463b-8fab-6805660c96eb","system_id":"levelo_inurba_marseille","lat":43.31285,"lon":5.36831,"is_reserved":false,"is_disabled":false,"rental_uris":{"android":"levelo://app?vid=89f5a425-6334-463b-8fab-6805660c96eb","ios":"levelo://app?vid=89f5a425-6334-463b-8fab-6805660c96eb"},"vehicle_type_id":"4","last_reported":1765963097,"current_range_meters":10000,"station_id":"","pricing_plan_id":"cebpf4jnsgd1na2vs0mg"},{"bike_id":"ad5077e7-adfd-4460-ab6e-dc27206627c9","system_id":"levelo_inurba_marseille","lat":43.23788,"lon":5.3664,"is_reserved":false,"is_disabled":false,"rental_uris":{"android":"levelo://app?vid=ad5077e7-adfd-4460-ab6e-dc27206627c9","ios":"levelo://app?vid=ad5077e7-adfd-4460-ab6e-dc27206627c9"},"vehicle_type_id":"4","last_reported":1765963097,"current_range_meters":10000,"station_id":"st_d3nk18o9ro0c73en2l3g","pricing_plan_id":"cebpf4jnsgd1na2vs0mg"},{"bike_id":"4d48063d-7043-48ed-9926-f9fbf99121d3","system_id":"levelo_inurba_marseille","lat":43.31224,"lon":5.36854,"is_reserved":false,"is_disabled":false,"rental_uris":{"android":"levelo://app?vid=4d48063d-7043-48ed-9926-f9fbf99121d3","ios":"levelo://app?vid=4d48063d-7043-48ed-9926-f9fbf99121d3"},"vehicle_type_id":"4","last_reported":1765963097,"current_range_meters":10000,"station_id":"ce4bgl92rcd13ifvqbq0","pricing_plan_id":"cebpf4jnsgd1na2vs0mg"},{"bike_id":"15c757bc-97dd-4fce-b499-42d9f825680b","system_id":"levelo_inurba_marseille","lat":43.30126,"lon":5.43123,"is_reserved":false,"is_disabled":false,"rental_uris":{"android":"levelo://app?vid=15c757bc-97dd-4fce-b499-42d9f825680b","ios":"levelo://app?vid=15c757bc-97dd-4fce-b499-42d9f825680b"},"vehicle_type_id":"4","last_reported":1765963097,"current_range_meters":10000,"station_id":"st_d3js3co5814s73ftftug","pricing_plan_id":"cebpf4jnsgd1na2vs0mg"},{"bike_id":"13699968-389c-4b86-be37-c338ba2594b1","system_id":"levelo_inurba_marseille","lat":43.23151,"lon":5.43717,"is_reserved":false,"is_disabled":false,"rental_uris":{"android":"levelo://app?vid=13699968-389c-4b86-be37-c338ba2594b1","ios":"levelo://app?vid=13699968-389c-4b86-be37-c338ba2594b1"},"vehicle_type_id":"4","last_reported":1765963097,"current_range_meters":10000,"station_id":"ce4bhmp2rcd13ifvqgog","pricing_plan_id":"cebpf4jnsgd1na2vs0mg"},{"bike_id":"545d9785-9c31-4bb7-bfa2-fe5925f1099d","system_id":"levelo_inurba_marseille","lat":43.29019,"lon":5.39978,"is_reserved":false,"is_disabled":false,"rental_uris":{"android":"levelo://app?vid=545d9785-9c31-4bb7-bfa2-fe5925f1099d","ios":"levelo://app?vid=545d9785-9c31-4bb7-bfa2-fe5925f1099d"},"vehicle_type_id":"4","last_reported":1765963097,"current_range_meters":10800,"station_id":"ce4bh392rcd13ifvqdm0","pricing_plan_id":"cebpf4jnsgd1na2vs0mg"},{"bike_id":"9206b8c8-fef3-42ca-a6e9-3e43dc948d3b","system_id":"levelo_inurba_marseille","lat":43.30918,"lon":5.36849,"is_reserved":false,"is_disabled":false,"rental_uris":{"android":"levelo://app?vid=9206b8c8-fef3-42ca-a6e9-3e43dc948d3b","ios":"levelo://app?vid=9206b8c8-fef3-42ca-a6e9-3e43dc948d3b"},"vehicle_type_id":"4","last_reported":1765963097,"current_range_meters":10800,"station_id":"","pricing_plan_id":"cebpf4jnsgd1na2vs0mg"},{"bike_id":"126f0262-91ae-4541-a0a4-95c2107fcc2d","system_id":"levelo_inurba_marseille","lat":43.29628,"lon":5.40589,"is_reserved":false,"is_disabled":false,"rental_uris":{"android":"levelo://app?vid=126f0262-91ae-4541-a0a4-95c2107fcc2d","ios":"levelo://app?vid=126f0262-91ae-4541-a0a4-95c2107fcc2d"},"vehicle_type_id":"4","last_reported":1765963097,"current_range_meters":10800,"station_id":"ce4bh0h2rcd13ifvqd60","pricing_plan_id":"cebpf4jnsgd1na2vs0mg"},{"bike_id":"de6633e3-b90e-4908-9958-7bd2f4512f33","system_id":"levelo_inurba_marseille","lat":43.31331,"lon":5.39708,"is_reserved":false,"is_disabled":false,"rental_uris":{"android":"levelo://app?vid=de6633e3-b90e-4908-9958-7bd2f4512f33","ios":"levelo://app?vid=de6633e3-b90e-4908-9958-7bd2f4512f33"},"vehicle_type_id":"4","last_reported":1765963097,"current_range_meters":10800,"station_id":"ce4bgvp2rcd13ifvqcu0","pricing_plan_id":"cebpf4jnsgd1na2vs0mg"},{"bike_id":"027ddd89-1c7c-4899-92a1-8c53dba3b80e","system_id":"levelo_inurba_marseille","lat":43.24083,"lon":5.37749,"is_reserved":false,"is_disabled":false,"rental_uris":{"android":"levelo://app?vid=027ddd89-1c7c-4899-92a1-8c53dba3b80e","ios":"levelo://app?vid=027ddd89-1c7c-4899-92a1-8c53dba3b80e"},"vehicle_type_id":"4","last_reported":1765963097,"current_range_meters":10800,"station_id":"ce4bhnp2rcd13ifvqgvg","pricing_plan_id":"cebpf4jnsgd1na2vs0mg"},{"bike_id":"6a26ef33-8204-4bf8-bbbb-122b1a4410f3","system_id":"levelo_inurba_marseille","lat":43.27294,"lon":5.41088,"is_reserved":false,"is_disabled":false,"rental_uris":{"android":"levelo://app?vid=6a26ef33-8204-4bf8-bbbb-122b1a4410f3","ios":"levelo://app?vid=6a26ef33-8204-4bf8-bbbb-122b1a4410f3"},"vehicle_type_id":"4","last_reported":1765963097,"current_range_meters":10800,"station_id":"","pricing_plan_id":"cebpf4jnsgd1na2vs0mg"},{"bike_id":"4c0adb54-e09e-48f3-baae-3a20f0af4e72","system_id":"levelo_inurba_marseille","lat":43.33573,"lon":5.41037,"is_reserved":false,"is_disabled":false,"rental_uris":{"android":"levelo://app?vid=4c0adb54-e09e-48f3-baae-3a20f0af4e72","ios":"levelo://app?vid=4c0adb54-e09e-48f3-baae-3a20f0af4e72"},"vehicle_type_id":"4","last_reported":1765963097,"current_range_meters":10800,"station_id":"ce4bhqh2rcd13ifvqhmg","pricing_plan_id":"cebpf4jnsgd1na2vs0mg"},{"bike_id":"bb30194d-85ce-4ca8-b46d-788238ef96a9","system_id":"levelo_inurba_marseille","lat":43.32339,"lon":5.38486,"is_reserved":false,"is_disabled":false,"rental_uris":{"android":"levelo://app?vid=bb30194d-85ce-4ca8-b46d-788238ef96a9","ios":"levelo://app?vid=bb30194d-85ce-4ca8-b46d-788238ef96a9"},"vehicle_type_id":"4","last_reported":1765963097,"current_range_meters":10800,"station_id":"st_d45171o9ee8s73djdqug","pricing_plan_id":"cebpf4jnsgd1na2vs0mg"},{"bike_id":"c4640e4c-04db-4488-9b72-36331244d61e","system_id":"levelo_inurba_marseille","lat":43.22562,"lon":5.41621,"is_reserved":false,"is_disabled":false,"rental_uris":{"android":"levelo://app?vid=c4640e4c-04db-4488-9b72-36331244d61e","ios":"levelo://app?vid=c4640e4c-04db-4488-9b72-36331244d61e"},"vehicle_type_id":"4","last_reported":1765963097,"current_range_meters":10800,"station_id":"st_d2o4gvlbi1j2169b742g","pricing_plan_id":"cebpf4jnsgd1na2vs0mg"},{"bike_id":"415df15e-36dc-4feb-be33-51b23a016e5a","system_id":"levelo_inurba_marseille","lat":43.24079,"lon":5.37759,"is_reserved":false,"is_disabled":false,"rental_uris":{"android":"levelo://app?vid=415df15e-36dc-4feb-be33-51b23a016e5a","ios":"levelo://app?vid=415df15e-36dc-4feb-be33-51b23a016e5a"},"vehicle_type_id":"4","last_reported":1765963097,"current_range_meters":10800,"station_id":"ce4bhnp2rcd13ifvqgvg","pricing_plan_id":"cebpf4jnsgd1na2vs0mg"},{"bike_id":"ce4f78ce-191c-4147-9cd8-b18111113313","system_id":"levelo_inurba_marseille","lat":43.31176,"lon":5.36892,"is_reserved":false,"is_disabled":false,"rental_uris":{"android":"levelo://app?vid=ce4f78ce-191c-4147-9cd8-b18111113313","ios":"levelo://app?vid=ce4f78ce-191c-4147-9cd8-b18111113313"},"vehicle_type_id":"4","last_reported":1765963097,"current_range_meters":10800,"station_id":"","pricing_plan_id":"cebpf4jnsgd1na2vs0mg"},{"bike_id":"889b5538-5518-43d3-98c5-0df486ced8da","system_id":"levelo_inurba_marseille","lat":43.293753,"lon":5.378674,"is_reserved":false,"is_disabled":true,"rental_uris":{"android":"levelo://app?vid=889b5538-5518-43d3-98c5-0df486ced8da","ios":"levelo://app?vid=889b5538-5518-43d3-98c5-0df486ced8da"},"vehicle_type_id":"4","last_reported":1765963097,"current_range_meters":11200,"station_id":"ce4bgjh2rcd13ifvqbf0","pricing_plan_id":"cebpf4jnsgd1na2vs0mg"},{"bike_id":"fcddb508-236d-428b-9038-c3ba4ac2e194","system_id":"levelo_inurba_marseille","lat":43.317351,"lon":5.37644,"is_reserved":false,"is_disabled":false,"rental_uris":{"android":"levelo://app?vid=fcddb508-236d-428b-9038-c3ba4ac2e194","ios":"levelo://app?vid=fcddb508-236d-428b-9038-c3ba4ac2e194"},"vehicle_type_id":"4","last_reported":1765963097,"current_range_meters":11200,"station_id":"","pricing_plan_id":"cebpf4jnsgd1na2vs0mg"},{"bike_id":"0b822507-6ace-48b7-9c21-795900f040b2","system_id":"levelo_inurba_marseille","lat":43.29018,"lon":5.38133,"is_reserved":false,"is_disabled":false,"rental_uris":{"android":"levelo://app?vid=0b822507-6ace-48b7-9c21-795900f040b2","ios":"levelo://app?vid=0b822507-6ace-48b7-9c21-795900f040b2"},"vehicle_type_id":"4","last_reported":1765963097,"current_range_meters":11200,"station_id":"ce4bh4p2rcd13ifvqe1g","pricing_plan_id":"cebpf4jnsgd1na2vs0mg"},{"bike_id":"8dc0f41d-9492-4bf7-82ec-ac2860636811","system_id":"levelo_inurba_marseille","lat":43.24153,"lon":5.36401,"is_reserved":false,"is_disabled":false,"rental_uris":{"android":"levelo://app?vid=8dc0f41d-9492-4bf7-82ec-ac2860636811","ios":"levelo://app?vid=8dc0f41d-9492-4bf7-82ec-ac2860636811"},"vehicle_type_id":"4","last_reported":1765963097,"current_range_meters":11200,"station_id":"cpo36qri1sfpv3e86is0","pricing_plan_id":"cebpf4jnsgd1na2vs0mg"},{"bike_id":"a871de1e-c565-4e25-8616-7e2406059526","system_id":"levelo_inurba_marseille","lat":43.287039,"lon":5.373978,"is_reserved":false,"is_disabled":true,"rental_uris":{"android":"levelo://app?vid=a871de1e-c565-4e25-8616-7e2406059526","ios":"levelo://app?vid=a871de1e-c565-4e25-8616-7e2406059526"},"vehicle_type_id":"4","last_reported":1765963097,"current_range_meters":11200,"station_id":"ce4bh3p2rcd13ifvqdq0","pricing_plan_id":"cebpf4jnsgd1na2vs0mg"},{"bike_id":"5c770126-be0f-4320-9b77-8c906c744b81","system_id":"levelo_inurba_marseille","lat":43.26788,"lon":5.39365,"is_reserved":false,"is_disabled":false,"rental_uris":{"android":"levelo://app?vid=5c770126-be0f-4320-9b77-8c906c744b81","ios":"levelo://app?vid=5c770126-be0f-4320-9b77-8c906c744b81"},"vehicle_type_id":"4","last_reported":1765963097,"current_range_meters":11200,"station_id":"ce4bhh12rcd13ifvqfg0","pricing_plan_id":"cebpf4jnsgd1na2vs0mg"},{"bike_id":"a6a2b2eb-9fac-4a15-8bbe-853cd503e49d","system_id":"levelo_inurba_marseille","lat":43.31709,"lon":5.43708,"is_reserved":false,"is_disabled":false,"rental_uris":{"android":"levelo://app?vid=a6a2b2eb-9fac-4a15-8bbe-853cd503e49d","ios":"levelo://app?vid=a6a2b2eb-9fac-4a15-8bbe-853cd503e49d"},"vehicle_type_id":"4","last_reported":1765963097,"current_range_meters":11200,"station_id":"ce4bhp92rcd13ifvqhcg","pricing_plan_id":"cebpf4jnsgd1na2vs0mg"},{"bike_id":"ffad4bd9-4c33-46ad-ab7a-a535ff4339c5","system_id":"levelo_inurba_marseille","lat":43.276744,"lon":5.388771,"is_reserved":false,"is_disabled":false,"rental_uris":{"android":"levelo://app?vid=ffad4bd9-4c33-46ad-ab7a-a535ff4339c5","ios":"levelo://app?vid=ffad4bd9-4c33-46ad-ab7a-a535ff4339c5"},"vehicle_type_id":"4","last_reported":1765963097,"current_range_meters":11600,"station_id":"ce4bhi12rcd13ifvqfo0","pricing_plan_id":"cebpf4jnsgd1na2vs0mg"},{"bike_id":"83ae917c-7fe4-47bf-a2eb-2d59c3f51a7e","system_id":"levelo_inurba_marseille","lat":43.265576,"lon":5.372854,"is_reserved":false,"is_disabled":false,"rental_uris":{"android":"levelo://app?vid=83ae917c-7fe4-47bf-a2eb-2d59c3f51a7e","ios":"levelo://app?vid=83ae917c-7fe4-47bf-a2eb-2d59c3f51a7e"},"vehicle_type_id":"4","last_reported":1765963097,"current_range_meters":11600,"station_id":"ce4bhih2rcd13ifvqfr0","pricing_plan_id":"cebpf4jnsgd1na2vs0mg"},{"bike_id":"366a78f7-c47b-4947-8571-9176e2fa80b5","system_id":"levelo_inurba_marseille","lat":43.32501,"lon":5.383,"is_reserved":false,"is_disabled":false,"rental_uris":{"android":"levelo://app?vid=366a78f7-c47b-4947-8571-9176e2fa80b5","ios":"levelo://app?vid=366a78f7-c47b-4947-8571-9176e2fa80b5"},"vehicle_type_id":"4","last_reported":1765963097,"current_range_meters":11600,"station_id":"st_d4asgbiv49dc73anf9m0","pricing_plan_id":"cebpf4jnsgd1na2vs0mg"},{"bike_id":"65fa0266-c642-4f7e-9943-7e25c06fef3c","system_id":"levelo_inurba_marseille","lat":43.30482,"lon":5.37909,"is_reserved":false,"is_disabled":false,"rental_uris":{"android":"levelo://app?vid=65fa0266-c642-4f7e-9943-7e25c06fef3c","ios":"levelo://app?vid=65fa0266-c642-4f7e-9943-7e25c06fef3c"},"vehicle_type_id":"4","last_reported":1765963097,"current_range_meters":11600,"station_id":"ce4bgup2rcd13ifvqcn0","pricing_plan_id":"cebpf4jnsgd1na2vs0mg"},{"bike_id":"2767f57f-39fa-4688-8cd5-1803c9b01059","system_id":"levelo_inurba_marseille","lat":43.28192,"lon":5.42588,"is_reserved":false,"is_disabled":false,"rental_uris":{"android":"levelo://app?vid=2767f57f-39fa-4688-8cd5-1803c9b01059","ios":"levelo://app?vid=2767f57f-39fa-4688-8cd5-1803c9b01059"},"vehicle_type_id":"4","last_reported":1765963097,"current_range_meters":11600,"station_id":"","pricing_plan_id":"cebpf4jnsgd1na2vs0mg"},{"bike_id":"3d317ca5-a272-4f93-9659-2870a09a79ff","system_id":"levelo_inurba_marseille","lat":43.3014,"lon":5.37433,"is_reserved":false,"is_disabled":false,"rental_uris":{"android":"levelo://app?vid=3d317ca5-a272-4f93-9659-2870a09a79ff","ios":"levelo://app?vid=3d317ca5-a272-4f93-9659-2870a09a79ff"},"vehicle_type_id":"4","last_reported":1765963097,"current_range_meters":11600,"station_id":"ce4bgs92rcd13ifvqcc0","pricing_plan_id":"cebpf4jnsgd1na2vs0mg"},{"bike_id":"df467a8c-38d6-49ab-a9ff-e36748c680c8","system_id":"levelo_inurba_marseille","lat":43.255799,"lon":5.382309,"is_reserved":false,"is_disabled":false,"rental_uris":{"android":"levelo://app?vid=df467a8c-38d6-49ab-a9ff-e36748c680c8","ios":"levelo://app?vid=df467a8c-38d6-49ab-a9ff-e36748c680c8"},"vehicle_type_id":"4","last_reported":1765963097,"current_range_meters":11600,"station_id":"ce4bhih2rcd13ifvqfs0","pricing_plan_id":"cebpf4jnsgd1na2vs0mg"},{"bike_id":"8b9ce434-0725-4628-ac4c-0c32e1f2f337","system_id":"levelo_inurba_marseille","lat":43.28935,"lon":5.36627,"is_reserved":false,"is_disabled":false,"rental_uris":{"android":"levelo://app?vid=8b9ce434-0725-4628-ac4c-0c32e1f2f337","ios":"levelo://app?vid=8b9ce434-0725-4628-ac4c-0c32e1f2f337"},"vehicle_type_id":"4","last_reported":1765963097,"current_range_meters":11600,"station_id":"ce4bhap2rcd13ifvqek0","pricing_plan_id":"cebpf4jnsgd1na2vs0mg"},{"bike_id":"ef1b7ebd-307f-4305-88c9-4f48fc52bf62","system_id":"levelo_inurba_marseille","lat":43.27955,"lon":5.41018,"is_reserved":false,"is_disabled":false,"rental_uris":{"android":"levelo://app?vid=ef1b7ebd-307f-4305-88c9-4f48fc52bf62","ios":"levelo://app?vid=ef1b7ebd-307f-4305-88c9-4f48fc52bf62"},"vehicle_type_id":"4","last_reported":1765963097,"current_range_meters":11600,"station_id":"ce4bhnp2rcd13ifvqh0g","pricing_plan_id":"cebpf4jnsgd1na2vs0mg"},{"bike_id":"e83afe53-3337-4912-ab64-57122f432691","system_id":"levelo_inurba_marseille","lat":43.2439,"lon":5.37069,"is_reserved":false,"is_disabled":false,"rental_uris":{"android":"levelo://app?vid=e83afe53-3337-4912-ab64-57122f432691","ios":"levelo://app?vid=e83afe53-3337-4912-ab64-57122f432691"},"vehicle_type_id":"4","last_reported":1765963097,"current_range_meters":11600,"station_id":"ce4bhhh2rcd13ifvqfk0","pricing_plan_id":"cebpf4jnsgd1na2vs0mg"},{"bike_id":"2427b3e7-0b26-4bba-a18b-459bc11f8eff","system_id":"levelo_inurba_marseille","lat":43.272054,"lon":5.391848,"is_reserved":false,"is_disabled":false,"rental_uris":{"android":"levelo://app?vid=2427b3e7-0b26-4bba-a18b-459bc11f8eff","ios":"levelo://app?vid=2427b3e7-0b26-4bba-a18b-459bc11f8eff"},"vehicle_type_id":"4","last_reported":1765963097,"current_range_meters":12000,"station_id":"ce4bhhp2rcd13ifvqfm0","pricing_plan_id":"cebpf4jnsgd1na2vs0mg"},{"bike_id":"a7fb6309-2b67-48fd-a604-7555499decdb","system_id":"levelo_inurba_marseille","lat":43.241574,"lon":5.364036,"is_reserved":false,"is_disabled":false,"rental_uris":{"android":"levelo://app?vid=a7fb6309-2b67-48fd-a604-7555499decdb","ios":"levelo://app?vid=a7fb6309-2b67-48fd-a604-7555499decdb"},"vehicle_type_id":"4","last_reported":1765963097,"current_range_meters":12000,"station_id":"cpo36qri1sfpv3e86is0","pricing_plan_id":"cebpf4jnsgd1na2vs0mg"},{"bike_id":"998cd9fe-3721-44c5-a5a3-2b7b38823677","system_id":"levelo_inurba_marseille","lat":43.29037,"lon":5.39944,"is_reserved":false,"is_disabled":false,"rental_uris":{"android":"levelo://app?vid=998cd9fe-3721-44c5-a5a3-2b7b38823677","ios":"levelo://app?vid=998cd9fe-3721-44c5-a5a3-2b7b38823677"},"vehicle_type_id":"4","last_reported":1765963097,"current_range_meters":12000,"station_id":"ce4bh392rcd13ifvqdm0","pricing_plan_id":"cebpf4jnsgd1na2vs0mg"},{"bike_id":"9bc554b7-05ed-4f5d-95c0-dda0488af3b2","system_id":"levelo_inurba_marseille","lat":43.27236,"lon":5.39197,"is_reserved":false,"is_disabled":false,"rental_uris":{"android":"levelo://app?vid=9bc554b7-05ed-4f5d-95c0-dda0488af3b2","ios":"levelo://app?vid=9bc554b7-05ed-4f5d-95c0-dda0488af3b2"},"vehicle_type_id":"4","last_reported":1765963097,"current_range_meters":12000,"station_id":"ce4bhhp2rcd13ifvqfm0","pricing_plan_id":"cebpf4jnsgd1na2vs0mg"},{"bike_id":"0f28b80e-ee7f-47f3-9eea-fe09714ef2c4","system_id":"levelo_inurba_marseille","lat":43.337538,"lon":5.374581,"is_reserved":false,"is_disabled":false,"rental_uris":{"android":"levelo://app?vid=0f28b80e-ee7f-47f3-9eea-fe09714ef2c4","ios":"levelo://app?vid=0f28b80e-ee7f-47f3-9eea-fe09714ef2c4"},"vehicle_type_id":"4","last_reported":1765963097,"current_range_meters":12000,"station_id":"","pricing_plan_id":"cebpf4jnsgd1na2vs0mg"},{"bike_id":"eed18767-05c9-4c1e-a884-f815f273a381","system_id":"levelo_inurba_marseille","lat":43.291947,"lon":5.393182,"is_reserved":false,"is_disabled":true,"rental_uris":{"android":"levelo://app?vid=eed18767-05c9-4c1e-a884-f815f273a381","ios":"levelo://app?vid=eed18767-05c9-4c1e-a884-f815f273a381"},"vehicle_type_id":"4","last_reported":1765963097,"current_range_meters":12000,"station_id":"ce4bh192rcd13ifvqdd0","pricing_plan_id":"cebpf4jnsgd1na2vs0mg"},{"bike_id":"23c77aab-e0a6-42f5-b7a1-3bd6707fe7ea","system_id":"levelo_inurba_marseille","lat":43.30552,"lon":5.36571,"is_reserved":false,"is_disabled":false,"rental_uris":{"android":"levelo://app?vid=23c77aab-e0a6-42f5-b7a1-3bd6707fe7ea","ios":"levelo://app?vid=23c77aab-e0a6-42f5-b7a1-3bd6707fe7ea"},"vehicle_type_id":"4","last_reported":1765963097,"current_range_meters":12000,"station_id":"ce4bgs12rcd13ifvqcag","pricing_plan_id":"cebpf4jnsgd1na2vs0mg"},{"bike_id":"9f2f990e-a17c-4f6c-a4a5-29e0700c6330","system_id":"levelo_inurba_marseille","lat":43.3054,"lon":5.36708,"is_reserved":false,"is_disabled":false,"rental_uris":{"android":"levelo://app?vid=9f2f990e-a17c-4f6c-a4a5-29e0700c6330","ios":"levelo://app?vid=9f2f990e-a17c-4f6c-a4a5-29e0700c6330"},"vehicle_type_id":"4","last_reported":1765963097,"current_range_meters":12000,"station_id":"ce4bgrp2rcd13ifvqc9g","pricing_plan_id":"cebpf4jnsgd1na2vs0mg"},{"bike_id":"89014143-3ff9-4cae-9af6-55b1a19dd5e6","system_id":"levelo_inurba_marseille","lat":43.29589,"lon":5.381005,"is_reserved":false,"is_disabled":false,"rental_uris":{"android":"levelo://app?vid=89014143-3ff9-4cae-9af6-55b1a19dd5e6","ios":"levelo://app?vid=89014143-3ff9-4cae-9af6-55b1a19dd5e6"},"vehicle_type_id":"4","last_reported":1765963097,"current_range_meters":12000,"station_id":"ce4bgl12rcd13ifvqbo0","pricing_plan_id":"cebpf4jnsgd1na2vs0mg"},{"bike_id":"1f825f20-8f06-4ed8-8eb4-0e4a8ab8b02f","system_id":"levelo_inurba_marseille","lat":43.30532,"lon":5.3842,"is_reserved":false,"is_disabled":true,"rental_uris":{"android":"levelo://app?vid=1f825f20-8f06-4ed8-8eb4-0e4a8ab8b02f","ios":"levelo://app?vid=1f825f20-8f06-4ed8-8eb4-0e4a8ab8b02f"},"vehicle_type_id":"4","last_reported":1765963097,"current_range_meters":12000,"station_id":"ce4bgg92rcd13ifvqb30","pricing_plan_id":"cebpf4jnsgd1na2vs0mg"},{"bike_id":"cdb61098-51b6-4e45-be90-432658d7e75b","system_id":"levelo_inurba_marseille","lat":43.28415,"lon":5.37512,"is_reserved":false,"is_disabled":false,"rental_uris":{"android":"levelo://app?vid=cdb61098-51b6-4e45-be90-432658d7e75b","ios":"levelo://app?vid=cdb61098-51b6-4e45-be90-432658d7e75b"},"vehicle_type_id":"4","last_reported":1765963097,"current_range_meters":12000,"station_id":"ce4bh412rcd13ifvqds0","pricing_plan_id":"cebpf4jnsgd1na2vs0mg"},{"bike_id":"a93a9c88-2d53-4b46-93dd-0d46b45aa780","system_id":"levelo_inurba_marseille","lat":43.29594,"lon":5.40619,"is_reserved":false,"is_disabled":false,"rental_uris":{"android":"levelo://app?vid=a93a9c88-2d53-4b46-93dd-0d46b45aa780","ios":"levelo://app?vid=a93a9c88-2d53-4b46-93dd-0d46b45aa780"},"vehicle_type_id":"4","last_reported":1765963097,"current_range_meters":12000,"station_id":"ce4bh0h2rcd13ifvqd60","pricing_plan_id":"cebpf4jnsgd1na2vs0mg"},{"bike_id":"e6d5f16d-c280-4811-b827-dfb5aa334746","system_id":"levelo_inurba_marseille","lat":43.32544,"lon":5.41433,"is_reserved":false,"is_disabled":false,"rental_uris":{"android":"levelo://app?vid=e6d5f16d-c280-4811-b827-dfb5aa334746","ios":"levelo://app?vid=e6d5f16d-c280-4811-b827-dfb5aa334746"},"vehicle_type_id":"4","last_reported":1765963097,"current_range_meters":12000,"station_id":"ce4bhq12rcd13ifvqhhg","pricing_plan_id":"cebpf4jnsgd1na2vs0mg"},{"bike_id":"2fcbc27b-b1d1-4d3d-b0b7-4f92e86526bd","system_id":"levelo_inurba_marseille","lat":43.26576,"lon":5.38997,"is_reserved":false,"is_disabled":false,"rental_uris":{"android":"levelo://app?vid=2fcbc27b-b1d1-4d3d-b0b7-4f92e86526bd","ios":"levelo://app?vid=2fcbc27b-b1d1-4d3d-b0b7-4f92e86526bd"},"vehicle_type_id":"4","last_reported":1765963097,"current_range_meters":12000,"station_id":"ce4bhe12rcd13ifvqf30","pricing_plan_id":"cebpf4jnsgd1na2vs0mg"},{"bike_id":"7470f7ec-7c1d-489b-a8f1-7507a064b9c8","system_id":"levelo_inurba_marseille","lat":43.2848,"lon":5.48388,"is_reserved":false,"is_disabled":false,"rental_uris":{"android":"levelo://app?vid=7470f7ec-7c1d-489b-a8f1-7507a064b9c8","ios":"levelo://app?vid=7470f7ec-7c1d-489b-a8f1-7507a064b9c8"},"vehicle_type_id":"4","last_reported":1765963097,"current_range_meters":12400,"station_id":"st_d3svhcjqgbts73a3dn0g","pricing_plan_id":"cebpf4jnsgd1na2vs0mg"},{"bike_id":"4651291d-dd37-44b8-91ca-f4fe7c9a4167","system_id":"levelo_inurba_marseille","lat":43.28874,"lon":5.42521,"is_reserved":false,"is_disabled":false,"rental_uris":{"android":"levelo://app?vid=4651291d-dd37-44b8-91ca-f4fe7c9a4167","ios":"levelo://app?vid=4651291d-dd37-44b8-91ca-f4fe7c9a4167"},"vehicle_type_id":"4","last_reported":1765963097,"current_range_meters":12400,"station_id":"st_d3b462108ojc7389ooeg","pricing_plan_id":"cebpf4jnsgd1na2vs0mg"},{"bike_id":"6e071e61-9d6e-4a02-8914-eba8c7f9027d","system_id":"levelo_inurba_marseille","lat":43.28473,"lon":5.38429,"is_reserved":false,"is_disabled":false,"rental_uris":{"android":"levelo://app?vid=6e071e61-9d6e-4a02-8914-eba8c7f9027d","ios":"levelo://app?vid=6e071e61-9d6e-4a02-8914-eba8c7f9027d"},"vehicle_type_id":"4","last_reported":1765963097,"current_range_meters":12400,"station_id":"ce4bh512rcd13ifvqe3g","pricing_plan_id":"cebpf4jnsgd1na2vs0mg"},{"bike_id":"fd00dc1b-83e1-4e5c-89f9-84c78e527395","system_id":"levelo_inurba_marseille","lat":43.24983,"lon":5.38942,"is_reserved":false,"is_disabled":false,"rental_uris":{"android":"levelo://app?vid=fd00dc1b-83e1-4e5c-89f9-84c78e527395","ios":"levelo://app?vid=fd00dc1b-83e1-4e5c-89f9-84c78e527395"},"vehicle_type_id":"4","last_reported":1765963097,"current_range_meters":12400,"station_id":"ce4bhgp2rcd13ifvqfd0","pricing_plan_id":"cebpf4jnsgd1na2vs0mg"},{"bike_id":"e52f4ad0-f100-40eb-810c-c2bfb55704c4","system_id":"levelo_inurba_marseille","lat":43.32115,"lon":5.36758,"is_reserved":false,"is_disabled":false,"rental_uris":{"android":"levelo://app?vid=e52f4ad0-f100-40eb-810c-c2bfb55704c4","ios":"levelo://app?vid=e52f4ad0-f100-40eb-810c-c2bfb55704c4"},"vehicle_type_id":"4","last_reported":1765963097,"current_range_meters":12400,"station_id":"ce4bhrh2rcd13ifvqhug","pricing_plan_id":"cebpf4jnsgd1na2vs0mg"},{"bike_id":"e3d38446-fbf8-4e70-b44e-91b1730ed136","system_id":"levelo_inurba_marseille","lat":43.25577,"lon":5.3823,"is_reserved":false,"is_disabled":false,"rental_uris":{"android":"levelo://app?vid=e3d38446-fbf8-4e70-b44e-91b1730ed136","ios":"levelo://app?vid=e3d38446-fbf8-4e70-b44e-91b1730ed136"},"vehicle_type_id":"4","last_reported":1765963097,"current_range_meters":12400,"station_id":"ce4bhih2rcd13ifvqfs0","pricing_plan_id":"cebpf4jnsgd1na2vs0mg"},{"bike_id":"6eaf6cc4-b10f-435b-a4c3-93e897f6c344","system_id":"levelo_inurba_marseille","lat":43.29807,"lon":5.44091,"is_reserved":false,"is_disabled":false,"rental_uris":{"android":"levelo://app?vid=6eaf6cc4-b10f-435b-a4c3-93e897f6c344","ios":"levelo://app?vid=6eaf6cc4-b10f-435b-a4c3-93e897f6c344"},"vehicle_type_id":"4","last_reported":1765963097,"current_range_meters":12800,"station_id":"st_d3jp68qikq2c7381ktn0","pricing_plan_id":"cebpf4jnsgd1na2vs0mg"},{"bike_id":"0a2d81af-c789-4426-af29-b843e405024e","system_id":"levelo_inurba_marseille","lat":43.26948,"lon":5.38638,"is_reserved":false,"is_disabled":false,"rental_uris":{"android":"levelo://app?vid=0a2d81af-c789-4426-af29-b843e405024e","ios":"levelo://app?vid=0a2d81af-c789-4426-af29-b843e405024e"},"vehicle_type_id":"4","last_reported":1765963097,"current_range_meters":12800,"station_id":"ce4bhh92rcd13ifvqfh0","pricing_plan_id":"cebpf4jnsgd1na2vs0mg"},{"bike_id":"32441d0c-d102-4763-b3c4-eda5fe1b0f26","system_id":"levelo_inurba_marseille","lat":43.29936,"lon":5.36502,"is_reserved":false,"is_disabled":false,"rental_uris":{"android":"levelo://app?vid=32441d0c-d102-4763-b3c4-eda5fe1b0f26","ios":"levelo://app?vid=32441d0c-d102-4763-b3c4-eda5fe1b0f26"},"vehicle_type_id":"4","last_reported":1765963097,"current_range_meters":12800,"station_id":"ce4bgm92rcd13ifvqbr0","pricing_plan_id":"cebpf4jnsgd1na2vs0mg"},{"bike_id":"9b9600b0-cd27-4095-ac5f-7e9a0053afea","system_id":"levelo_inurba_marseille","lat":43.26216,"lon":5.38759,"is_reserved":false,"is_disabled":false,"rental_uris":{"android":"levelo://app?vid=9b9600b0-cd27-4095-ac5f-7e9a0053afea","ios":"levelo://app?vid=9b9600b0-cd27-4095-ac5f-7e9a0053afea"},"vehicle_type_id":"4","last_reported":1765963097,"current_range_meters":12800,"station_id":"","pricing_plan_id":"cebpf4jnsgd1na2vs0mg"},{"bike_id":"cd3275f9-9e9f-4e20-81a5-4c1cec78cbad","system_id":"levelo_inurba_marseille","lat":43.30468,"lon":5.37911,"is_reserved":false,"is_disabled":false,"rental_uris":{"android":"levelo://app?vid=cd3275f9-9e9f-4e20-81a5-4c1cec78cbad","ios":"levelo://app?vid=cd3275f9-9e9f-4e20-81a5-4c1cec78cbad"},"vehicle_type_id":"4","last_reported":1765963097,"current_range_meters":12800,"station_id":"ce4bgup2rcd13ifvqcn0","pricing_plan_id":"cebpf4jnsgd1na2vs0mg"},{"bike_id":"fdb90802-2ecc-44f2-8524-65484a891ee9","system_id":"levelo_inurba_marseille","lat":43.26061,"lon":5.39394,"is_reserved":false,"is_disabled":false,"rental_uris":{"android":"levelo://app?vid=fdb90802-2ecc-44f2-8524-65484a891ee9","ios":"levelo://app?vid=fdb90802-2ecc-44f2-8524-65484a891ee9"},"vehicle_type_id":"4","last_reported":1765963097,"current_range_meters":12800,"station_id":"ce4bhh92rcd13ifvqfj0","pricing_plan_id":"cebpf4jnsgd1na2vs0mg"},{"bike_id":"f5f6c13f-ecd5-4cda-94dd-fe8ccc9f4e7a","system_id":"levelo_inurba_marseille","lat":43.240756,"lon":5.377604,"is_reserved":false,"is_disabled":false,"rental_uris":{"android":"levelo://app?vid=f5f6c13f-ecd5-4cda-94dd-fe8ccc9f4e7a","ios":"levelo://app?vid=f5f6c13f-ecd5-4cda-94dd-fe8ccc9f4e7a"},"vehicle_type_id":"4","last_reported":1765963097,"current_range_meters":12800,"station_id":"ce4bhnp2rcd13ifvqgvg","pricing_plan_id":"cebpf4jnsgd1na2vs0mg"},{"bike_id":"b709a69b-c72b-4603-8e13-b895fe477246","system_id":"levelo_inurba_marseille","lat":43.24081,"lon":5.37751,"is_reserved":false,"is_disabled":false,"rental_uris":{"android":"levelo://app?vid=b709a69b-c72b-4603-8e13-b895fe477246","ios":"levelo://app?vid=b709a69b-c72b-4603-8e13-b895fe477246"},"vehicle_type_id":"4","last_reported":1765963097,"current_range_meters":12800,"station_id":"ce4bhnp2rcd13ifvqgvg","pricing_plan_id":"cebpf4jnsgd1na2vs0mg"},{"bike_id":"4370a362-f75f-4d2e-880f-0348c9d578f0","system_id":"levelo_inurba_marseille","lat":43.30481,"lon":5.37918,"is_reserved":false,"is_disabled":false,"rental_uris":{"android":"levelo://app?vid=4370a362-f75f-4d2e-880f-0348c9d578f0","ios":"levelo://app?vid=4370a362-f75f-4d2e-880f-0348c9d578f0"},"vehicle_type_id":"4","last_reported":1765963097,"current_range_meters":12800,"station_id":"ce4bgup2rcd13ifvqcn0","pricing_plan_id":"cebpf4jnsgd1na2vs0mg"},{"bike_id":"e477f012-bbc5-407a-a85e-b072f7d93294","system_id":"levelo_inurba_marseille","lat":43.2962,"lon":5.37716,"is_reserved":false,"is_disabled":false,"rental_uris":{"android":"levelo://app?vid=e477f012-bbc5-407a-a85e-b072f7d93294","ios":"levelo://app?vid=e477f012-bbc5-407a-a85e-b072f7d93294"},"vehicle_type_id":"4","last_reported":1765963097,"current_range_meters":13600,"station_id":"ce4bgi92rcd13ifvqb90","pricing_plan_id":"cebpf4jnsgd1na2vs0mg"},{"bike_id":"65b84533-8741-46b9-bb0d-285d5fc69333","system_id":"levelo_inurba_marseille","lat":43.29704,"lon":5.37705,"is_reserved":false,"is_disabled":false,"rental_uris":{"android":"levelo://app?vid=65b84533-8741-46b9-bb0d-285d5fc69333","ios":"levelo://app?vid=65b84533-8741-46b9-bb0d-285d5fc69333"},"vehicle_type_id":"4","last_reported":1765963097,"current_range_meters":13600,"station_id":"ce4bgkh2rcd13ifvqbl0","pricing_plan_id":"cebpf4jnsgd1na2vs0mg"},{"bike_id":"bcc121b6-8ff8-4b7b-b406-a0efbaa79a3f","system_id":"levelo_inurba_marseille","lat":43.29976,"lon":5.3717,"is_reserved":false,"is_disabled":false,"rental_uris":{"android":"levelo://app?vid=bcc121b6-8ff8-4b7b-b406-a0efbaa79a3f","ios":"levelo://app?vid=bcc121b6-8ff8-4b7b-b406-a0efbaa79a3f"},"vehicle_type_id":"4","last_reported":1765963097,"current_range_meters":13600,"station_id":"ce4bgr92rcd13ifvqc7g","pricing_plan_id":"cebpf4jnsgd1na2vs0mg"},{"bike_id":"2432f99d-27f2-42ef-b3e6-f7e71f39a4f6","system_id":"levelo_inurba_marseille","lat":43.30111,"lon":5.36853,"is_reserved":false,"is_disabled":false,"rental_uris":{"android":"levelo://app?vid=2432f99d-27f2-42ef-b3e6-f7e71f39a4f6","ios":"levelo://app?vid=2432f99d-27f2-42ef-b3e6-f7e71f39a4f6"},"vehicle_type_id":"4","last_reported":1765963097,"current_range_meters":13600,"station_id":"","pricing_plan_id":"cebpf4jnsgd1na2vs0mg"},{"bike_id":"cae1478d-1268-4134-aa1e-c58d3eaf9d38","system_id":"levelo_inurba_marseille","lat":43.31876,"lon":5.40086,"is_reserved":false,"is_disabled":false,"rental_uris":{"android":"levelo://app?vid=cae1478d-1268-4134-aa1e-c58d3eaf9d38","ios":"levelo://app?vid=cae1478d-1268-4134-aa1e-c58d3eaf9d38"},"vehicle_type_id":"4","last_reported":1765963097,"current_range_meters":14000,"station_id":"","pricing_plan_id":"cebpf4jnsgd1na2vs0mg"},{"bike_id":"f8a860be-9af5-4c9d-882d-9b730e70a7f7","system_id":"levelo_inurba_marseille","lat":43.299135,"lon":5.38137,"is_reserved":false,"is_disabled":true,"rental_uris":{"android":"levelo://app?vid=f8a860be-9af5-4c9d-882d-9b730e70a7f7","ios":"levelo://app?vid=f8a860be-9af5-4c9d-882d-9b730e70a7f7"},"vehicle_type_id":"4","last_reported":1765963097,"current_range_meters":14000,"station_id":"","pricing_plan_id":"cebpf4jnsgd1na2vs0mg"},{"bike_id":"147a030a-a3ef-4cc1-8c9c-eba4bbe58a59","system_id":"levelo_inurba_marseille","lat":43.28835,"lon":5.3932,"is_reserved":false,"is_disabled":false,"rental_uris":{"android":"levelo://app?vid=147a030a-a3ef-4cc1-8c9c-eba4bbe58a59","ios":"levelo://app?vid=147a030a-a3ef-4cc1-8c9c-eba4bbe58a59"},"vehicle_type_id":"4","last_reported":1765963097,"current_range_meters":14000,"station_id":"ce4bh2p2rcd13ifvqdi0","pricing_plan_id":"cebpf4jnsgd1na2vs0mg"},{"bike_id":"540065f4-b9cc-492a-8ee2-e6cfe606f95e","system_id":"levelo_inurba_marseille","lat":43.33723,"lon":5.3748,"is_reserved":false,"is_disabled":false,"rental_uris":{"android":"levelo://app?vid=540065f4-b9cc-492a-8ee2-e6cfe606f95e","ios":"levelo://app?vid=540065f4-b9cc-492a-8ee2-e6cfe606f95e"},"vehicle_type_id":"4","last_reported":1765963097,"current_range_meters":14000,"station_id":"","pricing_plan_id":"cebpf4jnsgd1na2vs0mg"},{"bike_id":"72393a95-42a5-49b8-b7d7-bab87b9932e6","system_id":"levelo_inurba_marseille","lat":43.31478,"lon":5.45378,"is_reserved":false,"is_disabled":false,"rental_uris":{"android":"levelo://app?vid=72393a95-42a5-49b8-b7d7-bab87b9932e6","ios":"levelo://app?vid=72393a95-42a5-49b8-b7d7-bab87b9932e6"},"vehicle_type_id":"4","last_reported":1765963097,"current_range_meters":14000,"station_id":"","pricing_plan_id":"cebpf4jnsgd1na2vs0mg"},{"bike_id":"e30aaddf-d7e2-4ee3-badf-43d50425b637","system_id":"levelo_inurba_marseille","lat":43.29177,"lon":5.37161,"is_reserved":false,"is_disabled":false,"rental_uris":{"android":"levelo://app?vid=e30aaddf-d7e2-4ee3-badf-43d50425b637","ios":"levelo://app?vid=e30aaddf-d7e2-4ee3-badf-43d50425b637"},"vehicle_type_id":"4","last_reported":1765963097,"current_range_meters":14400,"station_id":"ce4bha92rcd13ifvqeh0","pricing_plan_id":"cebpf4jnsgd1na2vs0mg"},{"bike_id":"e539de40-cc85-4550-81f1-cc76c8b5ff7d","system_id":"levelo_inurba_marseille","lat":43.32095,"lon":5.36792,"is_reserved":false,"is_disabled":false,"rental_uris":{"android":"levelo://app?vid=e539de40-cc85-4550-81f1-cc76c8b5ff7d","ios":"levelo://app?vid=e539de40-cc85-4550-81f1-cc76c8b5ff7d"},"vehicle_type_id":"4","last_reported":1765963097,"current_range_meters":14400,"station_id":"ce4bhrh2rcd13ifvqhug","pricing_plan_id":"cebpf4jnsgd1na2vs0mg"},{"bike_id":"530129cd-421f-481b-879c-a929b7a3a2d9","system_id":"levelo_inurba_marseille","lat":43.30435,"lon":5.39742,"is_reserved":false,"is_disabled":false,"rental_uris":{"android":"levelo://app?vid=530129cd-421f-481b-879c-a929b7a3a2d9","ios":"levelo://app?vid=530129cd-421f-481b-879c-a929b7a3a2d9"},"vehicle_type_id":"4","last_reported":1765963097,"current_range_meters":14400,"station_id":"ce4bh092rcd13ifvqd20","pricing_plan_id":"cebpf4jnsgd1na2vs0mg"},{"bike_id":"3abe0285-d755-443b-9694-eb8b26ac2c6e","system_id":"levelo_inurba_marseille","lat":43.31231,"lon":5.36853,"is_reserved":false,"is_disabled":false,"rental_uris":{"android":"levelo://app?vid=3abe0285-d755-443b-9694-eb8b26ac2c6e","ios":"levelo://app?vid=3abe0285-d755-443b-9694-eb8b26ac2c6e"},"vehicle_type_id":"4","last_reported":1765963097,"current_range_meters":14400,"station_id":"ce4bgl92rcd13ifvqbq0","pricing_plan_id":"cebpf4jnsgd1na2vs0mg"},{"bike_id":"c42cb838-06e1-489e-9fd0-0c3e226398cb","system_id":"levelo_inurba_marseille","lat":43.22577,"lon":5.41616,"is_reserved":false,"is_disabled":false,"rental_uris":{"android":"levelo://app?vid=c42cb838-06e1-489e-9fd0-0c3e226398cb","ios":"levelo://app?vid=c42cb838-06e1-489e-9fd0-0c3e226398cb"},"vehicle_type_id":"4","last_reported":1765963097,"current_range_meters":14400,"station_id":"st_d2o4gvlbi1j2169b742g","pricing_plan_id":"cebpf4jnsgd1na2vs0mg"},{"bike_id":"06479f1a-4795-4536-b2e0-ee1e0220aafe","system_id":"levelo_inurba_marseille","lat":43.308026,"lon":5.381528,"is_reserved":false,"is_disabled":false,"rental_uris":{"android":"levelo://app?vid=06479f1a-4795-4536-b2e0-ee1e0220aafe","ios":"levelo://app?vid=06479f1a-4795-4536-b2e0-ee1e0220aafe"},"vehicle_type_id":"4","last_reported":1765963097,"current_range_meters":14800,"station_id":"ce4bgt12rcd13ifvqce0","pricing_plan_id":"cebpf4jnsgd1na2vs0mg"},{"bike_id":"cdc4d00c-a13d-411f-a8f3-dbaeb7f3d475","system_id":"levelo_inurba_marseille","lat":43.31742,"lon":5.39034,"is_reserved":false,"is_disabled":false,"rental_uris":{"android":"levelo://app?vid=cdc4d00c-a13d-411f-a8f3-dbaeb7f3d475","ios":"levelo://app?vid=cdc4d00c-a13d-411f-a8f3-dbaeb7f3d475"},"vehicle_type_id":"4","last_reported":1765963097,"current_range_meters":14800,"station_id":"ce4bhqp2rcd13ifvqhng","pricing_plan_id":"cebpf4jnsgd1na2vs0mg"},{"bike_id":"f71a1f1b-61c3-4937-b8ae-ba9d31ea3cd4","system_id":"levelo_inurba_marseille","lat":43.3121,"lon":5.36586,"is_reserved":false,"is_disabled":false,"rental_uris":{"android":"levelo://app?vid=f71a1f1b-61c3-4937-b8ae-ba9d31ea3cd4","ios":"levelo://app?vid=f71a1f1b-61c3-4937-b8ae-ba9d31ea3cd4"},"vehicle_type_id":"4","last_reported":1765963097,"current_range_meters":14800,"station_id":"","pricing_plan_id":"cebpf4jnsgd1na2vs0mg"},{"bike_id":"68e20831-c6df-4900-a09e-4a663086af25","system_id":"levelo_inurba_marseille","lat":43.33752,"lon":5.37476,"is_reserved":false,"is_disabled":false,"rental_uris":{"android":"levelo://app?vid=68e20831-c6df-4900-a09e-4a663086af25","ios":"levelo://app?vid=68e20831-c6df-4900-a09e-4a663086af25"},"vehicle_type_id":"4","last_reported":1765963097,"current_range_meters":14800,"station_id":"","pricing_plan_id":"cebpf4jnsgd1na2vs0mg"},{"bike_id":"0eaebf46-1bd1-4aaf-b805-fb25a3bcd61e","system_id":"levelo_inurba_marseille","lat":43.29818,"lon":5.44069,"is_reserved":false,"is_disabled":false,"rental_uris":{"android":"levelo://app?vid=0eaebf46-1bd1-4aaf-b805-fb25a3bcd61e","ios":"levelo://app?vid=0eaebf46-1bd1-4aaf-b805-fb25a3bcd61e"},"vehicle_type_id":"4","last_reported":1765963097,"current_range_meters":14800,"station_id":"st_d3jp68qikq2c7381ktn0","pricing_plan_id":"cebpf4jnsgd1na2vs0mg"},{"bike_id":"babcbf2f-3149-4397-bed0-fc9fb158d7ef","system_id":"levelo_inurba_marseille","lat":43.27808,"lon":5.40722,"is_reserved":false,"is_disabled":false,"rental_uris":{"android":"levelo://app?vid=babcbf2f-3149-4397-bed0-fc9fb158d7ef","ios":"levelo://app?vid=babcbf2f-3149-4397-bed0-fc9fb158d7ef"},"vehicle_type_id":"4","last_reported":1765963097,"current_range_meters":14800,"station_id":"ce4bhnh2rcd13ifvqgtg","pricing_plan_id":"cebpf4jnsgd1na2vs0mg"},{"bike_id":"42aae3ce-f951-42a4-aa02-d7fd0d039c09","system_id":"levelo_inurba_marseille","lat":43.240741,"lon":5.377576,"is_reserved":false,"is_disabled":false,"rental_uris":{"android":"levelo://app?vid=42aae3ce-f951-42a4-aa02-d7fd0d039c09","ios":"levelo://app?vid=42aae3ce-f951-42a4-aa02-d7fd0d039c09"},"vehicle_type_id":"4","last_reported":1765963097,"current_range_meters":14800,"station_id":"ce4bhnp2rcd13ifvqgvg","pricing_plan_id":"cebpf4jnsgd1na2vs0mg"},{"bike_id":"577e8dfa-855d-43ff-8683-4513a6d95873","system_id":"levelo_inurba_marseille","lat":43.24061,"lon":5.377346,"is_reserved":false,"is_disabled":false,"rental_uris":{"android":"levelo://app?vid=577e8dfa-855d-43ff-8683-4513a6d95873","ios":"levelo://app?vid=577e8dfa-855d-43ff-8683-4513a6d95873"},"vehicle_type_id":"4","last_reported":1765963097,"current_range_meters":14800,"station_id":"ce4bhnp2rcd13ifvqgvg","pricing_plan_id":"cebpf4jnsgd1na2vs0mg"},{"bike_id":"fe8b4597-b860-43e8-b7a3-80a16126a1b9","system_id":"levelo_inurba_marseille","lat":43.31369,"lon":5.36714,"is_reserved":false,"is_disabled":false,"rental_uris":{"android":"levelo://app?vid=fe8b4597-b860-43e8-b7a3-80a16126a1b9","ios":"levelo://app?vid=fe8b4597-b860-43e8-b7a3-80a16126a1b9"},"vehicle_type_id":"4","last_reported":1765963097,"current_range_meters":15200,"station_id":"ce4bgr92rcd13ifvqc6g","pricing_plan_id":"cebpf4jnsgd1na2vs0mg"},{"bike_id":"026e8651-2767-4fc0-b1c3-2f40b04d4561","system_id":"levelo_inurba_marseille","lat":43.28483,"lon":5.48393,"is_reserved":false,"is_disabled":false,"rental_uris":{"android":"levelo://app?vid=026e8651-2767-4fc0-b1c3-2f40b04d4561","ios":"levelo://app?vid=026e8651-2767-4fc0-b1c3-2f40b04d4561"},"vehicle_type_id":"4","last_reported":1765963097,"current_range_meters":15200,"station_id":"st_d3svhcjqgbts73a3dn0g","pricing_plan_id":"cebpf4jnsgd1na2vs0mg"},{"bike_id":"6dba9450-1d82-4f06-b58c-906579d9928e","system_id":"levelo_inurba_marseille","lat":43.3128,"lon":5.40174,"is_reserved":false,"is_disabled":false,"rental_uris":{"android":"levelo://app?vid=6dba9450-1d82-4f06-b58c-906579d9928e","ios":"levelo://app?vid=6dba9450-1d82-4f06-b58c-906579d9928e"},"vehicle_type_id":"4","last_reported":1765963097,"current_range_meters":15200,"station_id":"ce4bh092rcd13ifvqd30","pricing_plan_id":"cebpf4jnsgd1na2vs0mg"},{"bike_id":"eea538cb-a33c-4d44-b728-d965ec2c0585","system_id":"levelo_inurba_marseille","lat":43.24991,"lon":5.38944,"is_reserved":false,"is_disabled":false,"rental_uris":{"android":"levelo://app?vid=eea538cb-a33c-4d44-b728-d965ec2c0585","ios":"levelo://app?vid=eea538cb-a33c-4d44-b728-d965ec2c0585"},"vehicle_type_id":"4","last_reported":1765963097,"current_range_meters":15200,"station_id":"ce4bhgp2rcd13ifvqfd0","pricing_plan_id":"cebpf4jnsgd1na2vs0mg"},{"bike_id":"776e2e24-9fb1-4185-9b12-c4ef3069e51c","system_id":"levelo_inurba_marseille","lat":43.290351,"lon":5.375648,"is_reserved":false,"is_disabled":false,"rental_uris":{"android":"levelo://app?vid=776e2e24-9fb1-4185-9b12-c4ef3069e51c","ios":"levelo://app?vid=776e2e24-9fb1-4185-9b12-c4ef3069e51c"},"vehicle_type_id":"4","last_reported":1765963097,"current_range_meters":15200,"station_id":"ce4bh692rcd13ifvqe90","pricing_plan_id":"cebpf4jnsgd1na2vs0mg"},{"bike_id":"23b1e0de-1b87-4248-b4a8-24d498aaff9d","system_id":"levelo_inurba_marseille","lat":43.23149,"lon":5.43703,"is_reserved":false,"is_disabled":false,"rental_uris":{"android":"levelo://app?vid=23b1e0de-1b87-4248-b4a8-24d498aaff9d","ios":"levelo://app?vid=23b1e0de-1b87-4248-b4a8-24d498aaff9d"},"vehicle_type_id":"4","last_reported":1765963097,"current_range_meters":15200,"station_id":"ce4bhmp2rcd13ifvqgog","pricing_plan_id":"cebpf4jnsgd1na2vs0mg"},{"bike_id":"50d33456-bf1c-4376-ba8b-e3d3d2f0e44a","system_id":"levelo_inurba_marseille","lat":43.29044,"lon":5.3996,"is_reserved":false,"is_disabled":false,"rental_uris":{"android":"levelo://app?vid=50d33456-bf1c-4376-ba8b-e3d3d2f0e44a","ios":"levelo://app?vid=50d33456-bf1c-4376-ba8b-e3d3d2f0e44a"},"vehicle_type_id":"4","last_reported":1765963097,"current_range_meters":15200,"station_id":"ce4bh392rcd13ifvqdm0","pricing_plan_id":"cebpf4jnsgd1na2vs0mg"},{"bike_id":"fedcd8c6-9dd1-49f7-a439-c3d118a3a7ba","system_id":"levelo_inurba_marseille","lat":43.32117,"lon":5.36751,"is_reserved":false,"is_disabled":false,"rental_uris":{"android":"levelo://app?vid=fedcd8c6-9dd1-49f7-a439-c3d118a3a7ba","ios":"levelo://app?vid=fedcd8c6-9dd1-49f7-a439-c3d118a3a7ba"},"vehicle_type_id":"4","last_reported":1765963097,"current_range_meters":15200,"station_id":"ce4bhrh2rcd13ifvqhug","pricing_plan_id":"cebpf4jnsgd1na2vs0mg"},{"bike_id":"57bf9f67-9522-40c4-82f0-435099d363f7","system_id":"levelo_inurba_marseille","lat":43.323636,"lon":5.367516,"is_reserved":false,"is_disabled":false,"rental_uris":{"android":"levelo://app?vid=57bf9f67-9522-40c4-82f0-435099d363f7","ios":"levelo://app?vid=57bf9f67-9522-40c4-82f0-435099d363f7"},"vehicle_type_id":"4","last_reported":1765963097,"current_range_meters":15200,"station_id":"ce4bhsh2rcd13ifvqi2g","pricing_plan_id":"cebpf4jnsgd1na2vs0mg"},{"bike_id":"38501bf0-54df-4a62-ac12-c02bb3eaa666","system_id":"levelo_inurba_marseille","lat":43.3134,"lon":5.36689,"is_reserved":false,"is_disabled":false,"rental_uris":{"android":"levelo://app?vid=38501bf0-54df-4a62-ac12-c02bb3eaa666","ios":"levelo://app?vid=38501bf0-54df-4a62-ac12-c02bb3eaa666"},"vehicle_type_id":"4","last_reported":1765963097,"current_range_meters":15200,"station_id":"ce4bgr92rcd13ifvqc6g","pricing_plan_id":"cebpf4jnsgd1na2vs0mg"},{"bike_id":"1229dd0c-cd94-4b46-af8f-e1c364f379f7","system_id":"levelo_inurba_marseille","lat":43.23154,"lon":5.43702,"is_reserved":false,"is_disabled":true,"rental_uris":{"android":"levelo://app?vid=1229dd0c-cd94-4b46-af8f-e1c364f379f7","ios":"levelo://app?vid=1229dd0c-cd94-4b46-af8f-e1c364f379f7"},"vehicle_type_id":"4","last_reported":1765963097,"current_range_meters":15200,"station_id":"ce4bhmp2rcd13ifvqgog","pricing_plan_id":"cebpf4jnsgd1na2vs0mg"},{"bike_id":"8d483768-adea-4cdf-aef8-e32bc413d2f4","system_id":"levelo_inurba_marseille","lat":43.31369,"lon":5.36693,"is_reserved":false,"is_disabled":false,"rental_uris":{"android":"levelo://app?vid=8d483768-adea-4cdf-aef8-e32bc413d2f4","ios":"levelo://app?vid=8d483768-adea-4cdf-aef8-e32bc413d2f4"},"vehicle_type_id":"4","last_reported":1765963097,"current_range_meters":15200,"station_id":"ce4bgr92rcd13ifvqc6g","pricing_plan_id":"cebpf4jnsgd1na2vs0mg"},{"bike_id":"195b2004-fccf-4d89-b0c0-7e827ba17203","system_id":"levelo_inurba_marseille","lat":43.29175,"lon":5.37153,"is_reserved":false,"is_disabled":false,"rental_uris":{"android":"levelo://app?vid=195b2004-fccf-4d89-b0c0-7e827ba17203","ios":"levelo://app?vid=195b2004-fccf-4d89-b0c0-7e827ba17203"},"vehicle_type_id":"4","last_reported":1765963097,"current_range_meters":15200,"station_id":"ce4bha92rcd13ifvqeh0","pricing_plan_id":"cebpf4jnsgd1na2vs0mg"},{"bike_id":"3f85392e-7751-4fbe-9206-afff2b3033e2","system_id":"levelo_inurba_marseille","lat":43.30384,"lon":5.42479,"is_reserved":false,"is_disabled":false,"rental_uris":{"android":"levelo://app?vid=3f85392e-7751-4fbe-9206-afff2b3033e2","ios":"levelo://app?vid=3f85392e-7751-4fbe-9206-afff2b3033e2"},"vehicle_type_id":"4","last_reported":1765963097,"current_range_meters":15200,"station_id":"ce4bhoh2rcd13ifvqh6g","pricing_plan_id":"cebpf4jnsgd1na2vs0mg"},{"bike_id":"4b01f8a6-209f-46c8-9a08-4b43bc02774a","system_id":"levelo_inurba_marseille","lat":43.30892,"lon":5.36847,"is_reserved":false,"is_disabled":false,"rental_uris":{"android":"levelo://app?vid=4b01f8a6-209f-46c8-9a08-4b43bc02774a","ios":"levelo://app?vid=4b01f8a6-209f-46c8-9a08-4b43bc02774a"},"vehicle_type_id":"4","last_reported":1765963097,"current_range_meters":15200,"station_id":"","pricing_plan_id":"cebpf4jnsgd1na2vs0mg"},{"bike_id":"666f9092-4c4a-47c7-a205-b15d13c0f056","system_id":"levelo_inurba_marseille","lat":43.29537,"lon":5.37497,"is_reserved":false,"is_disabled":false,"rental_uris":{"android":"levelo://app?vid=666f9092-4c4a-47c7-a205-b15d13c0f056","ios":"levelo://app?vid=666f9092-4c4a-47c7-a205-b15d13c0f056"},"vehicle_type_id":"4","last_reported":1765963097,"current_range_meters":15200,"station_id":"ce4bgkp2rcd13ifvqbmg","pricing_plan_id":"cebpf4jnsgd1na2vs0mg"},{"bike_id":"c4014b09-0cea-4e6e-a54b-3dd5f2e0015d","system_id":"levelo_inurba_marseille","lat":43.24994,"lon":5.38933,"is_reserved":false,"is_disabled":false,"rental_uris":{"android":"levelo://app?vid=c4014b09-0cea-4e6e-a54b-3dd5f2e0015d","ios":"levelo://app?vid=c4014b09-0cea-4e6e-a54b-3dd5f2e0015d"},"vehicle_type_id":"4","last_reported":1765963097,"current_range_meters":16000,"station_id":"ce4bhgp2rcd13ifvqfd0","pricing_plan_id":"cebpf4jnsgd1na2vs0mg"},{"bike_id":"fa6f92d2-8437-4f8d-b03f-3c3f142f8390","system_id":"levelo_inurba_marseille","lat":43.284045,"lon":5.387306,"is_reserved":false,"is_disabled":false,"rental_uris":{"android":"levelo://app?vid=fa6f92d2-8437-4f8d-b03f-3c3f142f8390","ios":"levelo://app?vid=fa6f92d2-8437-4f8d-b03f-3c3f142f8390"},"vehicle_type_id":"4","last_reported":1765963097,"current_range_meters":16000,"station_id":"","pricing_plan_id":"cebpf4jnsgd1na2vs0mg"},{"bike_id":"46300de1-2118-46f4-bf10-bd61a7328e2b","system_id":"levelo_inurba_marseille","lat":43.26676,"lon":5.39614,"is_reserved":false,"is_disabled":false,"rental_uris":{"android":"levelo://app?vid=46300de1-2118-46f4-bf10-bd61a7328e2b","ios":"levelo://app?vid=46300de1-2118-46f4-bf10-bd61a7328e2b"},"vehicle_type_id":"4","last_reported":1765963097,"current_range_meters":16000,"station_id":"","pricing_plan_id":"cebpf4jnsgd1na2vs0mg"},{"bike_id":"6b16acc7-a80b-4f96-ae73-b1410de5081b","system_id":"levelo_inurba_marseille","lat":43.28621,"lon":5.35099,"is_reserved":false,"is_disabled":false,"rental_uris":{"android":"levelo://app?vid=6b16acc7-a80b-4f96-ae73-b1410de5081b","ios":"levelo://app?vid=6b16acc7-a80b-4f96-ae73-b1410de5081b"},"vehicle_type_id":"4","last_reported":1765963097,"current_range_meters":16000,"station_id":"ce4bhch2rcd13ifvqeug","pricing_plan_id":"cebpf4jnsgd1na2vs0mg"},{"bike_id":"01723068-078e-4aa7-99b9-7775d30551cc","system_id":"levelo_inurba_marseille","lat":43.25725,"lon":5.41106,"is_reserved":false,"is_disabled":false,"rental_uris":{"android":"levelo://app?vid=01723068-078e-4aa7-99b9-7775d30551cc","ios":"levelo://app?vid=01723068-078e-4aa7-99b9-7775d30551cc"},"vehicle_type_id":"4","last_reported":1765963097,"current_range_meters":16000,"station_id":"ce4bhkp2rcd13ifvqgd0","pricing_plan_id":"cebpf4jnsgd1na2vs0mg"},{"bike_id":"6d7d1950-bc29-4bf7-9682-31cddb68e5c2","system_id":"levelo_inurba_marseille","lat":43.301433,"lon":5.380662,"is_reserved":false,"is_disabled":false,"rental_uris":{"android":"levelo://app?vid=6d7d1950-bc29-4bf7-9682-31cddb68e5c2","ios":"levelo://app?vid=6d7d1950-bc29-4bf7-9682-31cddb68e5c2"},"vehicle_type_id":"4","last_reported":1765963097,"current_range_meters":16000,"station_id":"ce4bgjp2rcd13ifvqbh0","pricing_plan_id":"cebpf4jnsgd1na2vs0mg"},{"bike_id":"7ff51734-7635-4e26-ba98-c2660f473ff2","system_id":"levelo_inurba_marseille","lat":43.23068,"lon":5.35486,"is_reserved":false,"is_disabled":false,"rental_uris":{"android":"levelo://app?vid=7ff51734-7635-4e26-ba98-c2660f473ff2","ios":"levelo://app?vid=7ff51734-7635-4e26-ba98-c2660f473ff2"},"vehicle_type_id":"4","last_reported":1765963097,"current_range_meters":16000,"station_id":"cpo3342slgdg3j2ifvpg","pricing_plan_id":"cebpf4jnsgd1na2vs0mg"},{"bike_id":"38d66c43-4ebd-4d4a-9b0f-fcb1404bb6e8","system_id":"levelo_inurba_marseille","lat":43.25584,"lon":5.38222,"is_reserved":false,"is_disabled":false,"rental_uris":{"android":"levelo://app?vid=38d66c43-4ebd-4d4a-9b0f-fcb1404bb6e8","ios":"levelo://app?vid=38d66c43-4ebd-4d4a-9b0f-fcb1404bb6e8"},"vehicle_type_id":"4","last_reported":1765963097,"current_range_meters":16000,"station_id":"ce4bhih2rcd13ifvqfs0","pricing_plan_id":"cebpf4jnsgd1na2vs0mg"},{"bike_id":"d8f07d1b-53a5-403f-ab47-71b960091a07","system_id":"levelo_inurba_marseille","lat":43.33539,"lon":5.37468,"is_reserved":false,"is_disabled":false,"rental_uris":{"android":"levelo://app?vid=d8f07d1b-53a5-403f-ab47-71b960091a07","ios":"levelo://app?vid=d8f07d1b-53a5-403f-ab47-71b960091a07"},"vehicle_type_id":"4","last_reported":1765963097,"current_range_meters":16000,"station_id":"st_d46tts09ee8s73dlu43g","pricing_plan_id":"cebpf4jnsgd1na2vs0mg"},{"bike_id":"1c5dead3-188b-41b2-9359-9797d9a1af54","system_id":"levelo_inurba_marseille","lat":43.243835,"lon":5.370478,"is_reserved":false,"is_disabled":false,"rental_uris":{"android":"levelo://app?vid=1c5dead3-188b-41b2-9359-9797d9a1af54","ios":"levelo://app?vid=1c5dead3-188b-41b2-9359-9797d9a1af54"},"vehicle_type_id":"4","last_reported":1765963097,"current_range_meters":16000,"station_id":"ce4bhhh2rcd13ifvqfk0","pricing_plan_id":"cebpf4jnsgd1na2vs0mg"},{"bike_id":"ad558faf-9861-432b-98a5-c0d2a8d4db94","system_id":"levelo_inurba_marseille","lat":43.24174,"lon":5.36407,"is_reserved":false,"is_disabled":false,"rental_uris":{"android":"levelo://app?vid=ad558faf-9861-432b-98a5-c0d2a8d4db94","ios":"levelo://app?vid=ad558faf-9861-432b-98a5-c0d2a8d4db94"},"vehicle_type_id":"4","last_reported":1765963097,"current_range_meters":16000,"station_id":"cpo36qri1sfpv3e86is0","pricing_plan_id":"cebpf4jnsgd1na2vs0mg"},{"bike_id":"b9445d04-eadc-4ad8-9f35-8ee5203589c9","system_id":"levelo_inurba_marseille","lat":43.24076,"lon":5.37747,"is_reserved":false,"is_disabled":false,"rental_uris":{"android":"levelo://app?vid=b9445d04-eadc-4ad8-9f35-8ee5203589c9","ios":"levelo://app?vid=b9445d04-eadc-4ad8-9f35-8ee5203589c9"},"vehicle_type_id":"4","last_reported":1765963097,"current_range_meters":16000,"station_id":"ce4bhnp2rcd13ifvqgvg","pricing_plan_id":"cebpf4jnsgd1na2vs0mg"},{"bike_id":"6880049c-fcd3-4f49-acf8-11b8399a4ebf","system_id":"levelo_inurba_marseille","lat":43.26581,"lon":5.39005,"is_reserved":false,"is_disabled":false,"rental_uris":{"android":"levelo://app?vid=6880049c-fcd3-4f49-acf8-11b8399a4ebf","ios":"levelo://app?vid=6880049c-fcd3-4f49-acf8-11b8399a4ebf"},"vehicle_type_id":"4","last_reported":1765963097,"current_range_meters":16400,"station_id":"ce4bhe12rcd13ifvqf30","pricing_plan_id":"cebpf4jnsgd1na2vs0mg"},{"bike_id":"b08416a9-4fd4-4f0f-a9cd-cf796054033c","system_id":"levelo_inurba_marseille","lat":43.29573,"lon":5.38149,"is_reserved":false,"is_disabled":false,"rental_uris":{"android":"levelo://app?vid=b08416a9-4fd4-4f0f-a9cd-cf796054033c","ios":"levelo://app?vid=b08416a9-4fd4-4f0f-a9cd-cf796054033c"},"vehicle_type_id":"4","last_reported":1765963097,"current_range_meters":16400,"station_id":"ce4bgl12rcd13ifvqbo0","pricing_plan_id":"cebpf4jnsgd1na2vs0mg"},{"bike_id":"b3a49f36-a258-40ec-9242-2443096e5bd7","system_id":"levelo_inurba_marseille","lat":43.30911,"lon":5.36852,"is_reserved":false,"is_disabled":false,"rental_uris":{"android":"levelo://app?vid=b3a49f36-a258-40ec-9242-2443096e5bd7","ios":"levelo://app?vid=b3a49f36-a258-40ec-9242-2443096e5bd7"},"vehicle_type_id":"4","last_reported":1765963097,"current_range_meters":16400,"station_id":"ce4bgn92rcd13ifvqbvg","pricing_plan_id":"cebpf4jnsgd1na2vs0mg"},{"bike_id":"c58295ce-4bdd-4fe7-8447-640493b542d5","system_id":"levelo_inurba_marseille","lat":43.24072,"lon":5.37774,"is_reserved":false,"is_disabled":false,"rental_uris":{"android":"levelo://app?vid=c58295ce-4bdd-4fe7-8447-640493b542d5","ios":"levelo://app?vid=c58295ce-4bdd-4fe7-8447-640493b542d5"},"vehicle_type_id":"4","last_reported":1765963097,"current_range_meters":16400,"station_id":"ce4bhnp2rcd13ifvqgvg","pricing_plan_id":"cebpf4jnsgd1na2vs0mg"},{"bike_id":"2d7c5cef-99a7-45eb-824d-90e6a4ebc0ac","system_id":"levelo_inurba_marseille","lat":43.29043,"lon":5.39948,"is_reserved":false,"is_disabled":false,"rental_uris":{"android":"levelo://app?vid=2d7c5cef-99a7-45eb-824d-90e6a4ebc0ac","ios":"levelo://app?vid=2d7c5cef-99a7-45eb-824d-90e6a4ebc0ac"},"vehicle_type_id":"4","last_reported":1765963097,"current_range_meters":16400,"station_id":"ce4bh392rcd13ifvqdm0","pricing_plan_id":"cebpf4jnsgd1na2vs0mg"},{"bike_id":"cb0842d7-93bc-4351-8f3b-fffed7b4f15a","system_id":"levelo_inurba_marseille","lat":43.26946,"lon":5.3863,"is_reserved":false,"is_disabled":true,"rental_uris":{"android":"levelo://app?vid=cb0842d7-93bc-4351-8f3b-fffed7b4f15a","ios":"levelo://app?vid=cb0842d7-93bc-4351-8f3b-fffed7b4f15a"},"vehicle_type_id":"4","last_reported":1765963097,"current_range_meters":16400,"station_id":"ce4bhh92rcd13ifvqfh0","pricing_plan_id":"cebpf4jnsgd1na2vs0mg"},{"bike_id":"00ba10be-1328-4ca6-b450-df4120e2744a","system_id":"levelo_inurba_marseille","lat":43.281529,"lon":5.426346,"is_reserved":false,"is_disabled":true,"rental_uris":{"android":"levelo://app?vid=00ba10be-1328-4ca6-b450-df4120e2744a","ios":"levelo://app?vid=00ba10be-1328-4ca6-b450-df4120e2744a"},"vehicle_type_id":"4","last_reported":1765963097,"current_range_meters":16400,"station_id":"ce4bhnh2rcd13ifvqgug","pricing_plan_id":"cebpf4jnsgd1na2vs0mg"},{"bike_id":"590d7443-f2a7-4117-8cb1-5c6fb20333f7","system_id":"levelo_inurba_marseille","lat":43.28414,"lon":5.34983,"is_reserved":false,"is_disabled":false,"rental_uris":{"android":"levelo://app?vid=590d7443-f2a7-4117-8cb1-5c6fb20333f7","ios":"levelo://app?vid=590d7443-f2a7-4117-8cb1-5c6fb20333f7"},"vehicle_type_id":"4","last_reported":1765963097,"current_range_meters":16400,"station_id":"ce4bhbh2rcd13ifvqepg","pricing_plan_id":"cebpf4jnsgd1na2vs0mg"},{"bike_id":"1b616525-1484-4f93-9fd2-5c977b719c33","system_id":"levelo_inurba_marseille","lat":43.25943,"lon":5.40897,"is_reserved":false,"is_disabled":false,"rental_uris":{"android":"levelo://app?vid=1b616525-1484-4f93-9fd2-5c977b719c33","ios":"levelo://app?vid=1b616525-1484-4f93-9fd2-5c977b719c33"},"vehicle_type_id":"4","last_reported":1765963097,"current_range_meters":16400,"station_id":"ce4bhm92rcd13ifvqglg","pricing_plan_id":"cebpf4jnsgd1na2vs0mg"},{"bike_id":"d3e5fc66-76c5-421c-909f-174724a13272","system_id":"levelo_inurba_marseille","lat":43.26581,"lon":5.39025,"is_reserved":false,"is_disabled":false,"rental_uris":{"android":"levelo://app?vid=d3e5fc66-76c5-421c-909f-174724a13272","ios":"levelo://app?vid=d3e5fc66-76c5-421c-909f-174724a13272"},"vehicle_type_id":"4","last_reported":1765963097,"current_range_meters":16400,"station_id":"ce4bhe12rcd13ifvqf30","pricing_plan_id":"cebpf4jnsgd1na2vs0mg"},{"bike_id":"7cb2a649-2dac-4e10-8918-385215c3e233","system_id":"levelo_inurba_marseille","lat":43.28786,"lon":5.38412,"is_reserved":false,"is_disabled":false,"rental_uris":{"android":"levelo://app?vid=7cb2a649-2dac-4e10-8918-385215c3e233","ios":"levelo://app?vid=7cb2a649-2dac-4e10-8918-385215c3e233"},"vehicle_type_id":"4","last_reported":1765963097,"current_range_meters":16400,"station_id":"","pricing_plan_id":"cebpf4jnsgd1na2vs0mg"},{"bike_id":"ead11a55-f4b0-44f1-9f1d-5981fe3c4e4a","system_id":"levelo_inurba_marseille","lat":43.25096,"lon":5.40337,"is_reserved":false,"is_disabled":true,"rental_uris":{"android":"levelo://app?vid=ead11a55-f4b0-44f1-9f1d-5981fe3c4e4a","ios":"levelo://app?vid=ead11a55-f4b0-44f1-9f1d-5981fe3c4e4a"},"vehicle_type_id":"4","last_reported":1765963097,"current_range_meters":16400,"station_id":"ce4bhlh2rcd13ifvqgig","pricing_plan_id":"cebpf4jnsgd1na2vs0mg"},{"bike_id":"e9d5c8fd-011f-4aa0-b95a-a78c8e676e23","system_id":"levelo_inurba_marseille","lat":43.336,"lon":5.41024,"is_reserved":false,"is_disabled":false,"rental_uris":{"android":"levelo://app?vid=e9d5c8fd-011f-4aa0-b95a-a78c8e676e23","ios":"levelo://app?vid=e9d5c8fd-011f-4aa0-b95a-a78c8e676e23"},"vehicle_type_id":"4","last_reported":1765963097,"current_range_meters":16400,"station_id":"ce4bhqh2rcd13ifvqhmg","pricing_plan_id":"cebpf4jnsgd1na2vs0mg"},{"bike_id":"449ff0b1-bbf2-4943-af60-0b1364414076","system_id":"levelo_inurba_marseille","lat":43.28721,"lon":5.37935,"is_reserved":false,"is_disabled":false,"rental_uris":{"android":"levelo://app?vid=449ff0b1-bbf2-4943-af60-0b1364414076","ios":"levelo://app?vid=449ff0b1-bbf2-4943-af60-0b1364414076"},"vehicle_type_id":"4","last_reported":1765963097,"current_range_meters":16400,"station_id":"ce4bh9p2rcd13ifvqec0","pricing_plan_id":"cebpf4jnsgd1na2vs0mg"},{"bike_id":"a2fe9bea-c83b-4540-9993-b21511028686","system_id":"levelo_inurba_marseille","lat":43.33749,"lon":5.37487,"is_reserved":false,"is_disabled":false,"rental_uris":{"android":"levelo://app?vid=a2fe9bea-c83b-4540-9993-b21511028686","ios":"levelo://app?vid=a2fe9bea-c83b-4540-9993-b21511028686"},"vehicle_type_id":"4","last_reported":1765963097,"current_range_meters":16400,"station_id":"","pricing_plan_id":"cebpf4jnsgd1na2vs0mg"},{"bike_id":"831b32c6-5723-46d0-ba64-c6e268d04bbb","system_id":"levelo_inurba_marseille","lat":43.31076,"lon":5.42441,"is_reserved":false,"is_disabled":false,"rental_uris":{"android":"levelo://app?vid=831b32c6-5723-46d0-ba64-c6e268d04bbb","ios":"levelo://app?vid=831b32c6-5723-46d0-ba64-c6e268d04bbb"},"vehicle_type_id":"4","last_reported":1765963097,"current_range_meters":16400,"station_id":"","pricing_plan_id":"cebpf4jnsgd1na2vs0mg"},{"bike_id":"0c238b31-b0af-4e50-97ac-9b598665dea2","system_id":"levelo_inurba_marseille","lat":43.30535,"lon":5.367,"is_reserved":false,"is_disabled":false,"rental_uris":{"android":"levelo://app?vid=0c238b31-b0af-4e50-97ac-9b598665dea2","ios":"levelo://app?vid=0c238b31-b0af-4e50-97ac-9b598665dea2"},"vehicle_type_id":"4","last_reported":1765963097,"current_range_meters":16400,"station_id":"ce4bgrp2rcd13ifvqc9g","pricing_plan_id":"cebpf4jnsgd1na2vs0mg"},{"bike_id":"cfb79911-f081-40a7-b063-86fc9d2c3b27","system_id":"levelo_inurba_marseille","lat":43.27481,"lon":5.4247,"is_reserved":false,"is_disabled":false,"rental_uris":{"android":"levelo://app?vid=cfb79911-f081-40a7-b063-86fc9d2c3b27","ios":"levelo://app?vid=cfb79911-f081-40a7-b063-86fc9d2c3b27"},"vehicle_type_id":"4","last_reported":1765963097,"current_range_meters":16400,"station_id":"ce4bhn92rcd13ifvqgrg","pricing_plan_id":"cebpf4jnsgd1na2vs0mg"},{"bike_id":"cc874ed7-7bbb-4b4d-ad64-560c08e801d3","system_id":"levelo_inurba_marseille","lat":43.29843,"lon":5.36274,"is_reserved":false,"is_disabled":false,"rental_uris":{"android":"levelo://app?vid=cc874ed7-7bbb-4b4d-ad64-560c08e801d3","ios":"levelo://app?vid=cc874ed7-7bbb-4b4d-ad64-560c08e801d3"},"vehicle_type_id":"4","last_reported":1765963097,"current_range_meters":16400,"station_id":"ce4bgpp2rcd13ifvqc3g","pricing_plan_id":"cebpf4jnsgd1na2vs0mg"},{"bike_id":"ddb979ed-b28e-434f-a173-cf8e45cf006a","system_id":"levelo_inurba_marseille","lat":43.29035,"lon":5.38116,"is_reserved":false,"is_disabled":true,"rental_uris":{"android":"levelo://app?vid=ddb979ed-b28e-434f-a173-cf8e45cf006a","ios":"levelo://app?vid=ddb979ed-b28e-434f-a173-cf8e45cf006a"},"vehicle_type_id":"4","last_reported":1765963097,"current_range_meters":16800,"station_id":"ce4bh4p2rcd13ifvqe1g","pricing_plan_id":"cebpf4jnsgd1na2vs0mg"},{"bike_id":"7107df84-5908-4fce-a897-c004c6e0490e","system_id":"levelo_inurba_marseille","lat":43.337662,"lon":5.374326,"is_reserved":false,"is_disabled":false,"rental_uris":{"android":"levelo://app?vid=7107df84-5908-4fce-a897-c004c6e0490e","ios":"levelo://app?vid=7107df84-5908-4fce-a897-c004c6e0490e"},"vehicle_type_id":"4","last_reported":1765963097,"current_range_meters":16800,"station_id":"","pricing_plan_id":"cebpf4jnsgd1na2vs0mg"},{"bike_id":"45b2e68f-e929-4ac0-b62b-830ec3a36c60","system_id":"levelo_inurba_marseille","lat":43.23807,"lon":5.36593,"is_reserved":false,"is_disabled":false,"rental_uris":{"android":"levelo://app?vid=45b2e68f-e929-4ac0-b62b-830ec3a36c60","ios":"levelo://app?vid=45b2e68f-e929-4ac0-b62b-830ec3a36c60"},"vehicle_type_id":"4","last_reported":1765963097,"current_range_meters":16800,"station_id":"st_d3nk18o9ro0c73en2l3g","pricing_plan_id":"cebpf4jnsgd1na2vs0mg"},{"bike_id":"48cfb043-f005-44ec-b97c-ee2be2ee2d36","system_id":"levelo_inurba_marseille","lat":43.26422,"lon":5.39224,"is_reserved":false,"is_disabled":false,"rental_uris":{"android":"levelo://app?vid=48cfb043-f005-44ec-b97c-ee2be2ee2d36","ios":"levelo://app?vid=48cfb043-f005-44ec-b97c-ee2be2ee2d36"},"vehicle_type_id":"4","last_reported":1765963097,"current_range_meters":16800,"station_id":"","pricing_plan_id":"cebpf4jnsgd1na2vs0mg"},{"bike_id":"83002d44-bcdd-435e-af29-d1491a80c086","system_id":"levelo_inurba_marseille","lat":43.31127,"lon":5.36936,"is_reserved":false,"is_disabled":false,"rental_uris":{"android":"levelo://app?vid=83002d44-bcdd-435e-af29-d1491a80c086","ios":"levelo://app?vid=83002d44-bcdd-435e-af29-d1491a80c086"},