{"last_updated":1759137155,"ttl":60,"version":"2.2","data":{"bikes":[{"bike_id":"eeb6eb61-1797-45f5-8070-822c4c416097","system_id":"levelo_inurba_marseille","lat":43.32997,"lon":5.3903,"is_reserved":false,"is_disabled":false,"rental_uris":{"android":"levelo://app?vid=eeb6eb61-1797-45f5-8070-822c4c416097","ios":"levelo://app?vid=eeb6eb61-1797-45f5-8070-822c4c416097"},"vehicle_type_id":"4","last_reported":1759137156,"current_range_meters":2800,"station_id":"ce4bhr92rcd13ifvqhrg","pricing_plan_id":"cebpf4jnsgd1na2vs0mg"},{"bike_id":"6aa66884-5532-406f-ba6d-aef4069a7105","system_id":"levelo_inurba_marseille","lat":43.29597,"lon":5.37726,"is_reserved":false,"is_disabled":false,"rental_uris":{"android":"levelo://app?vid=6aa66884-5532-406f-ba6d-aef4069a7105","ios":"levelo://app?vid=6aa66884-5532-406f-ba6d-aef4069a7105"},"vehicle_type_id":"4","last_reported":1759137156,"current_range_meters":2800,"station_id":"ce4bgi92rcd13ifvqb90","pricing_plan_id":"cebpf4jnsgd1na2vs0mg"},{"bike_id":"28072a77-eefd-4cfa-bd68-7696e02f507d","system_id":"levelo_inurba_marseille","lat":43.32437,"lon":5.36871,"is_reserved":false,"is_disabled":false,"rental_uris":{"android":"levelo://app?vid=28072a77-eefd-4cfa-bd68-7696e02f507d","ios":"levelo://app?vid=28072a77-eefd-4cfa-bd68-7696e02f507d"},"vehicle_type_id":"4","last_reported":1759137156,"current_range_meters":3200,"station_id":"","pricing_plan_id":"cebpf4jnsgd1na2vs0mg"},{"bike_id":"01bf55f2-4ac6-46f6-8504-3267bf31e1a6","system_id":"levelo_inurba_marseille","lat":43.2973,"lon":5.381787,"is_reserved":false,"is_disabled":false,"rental_uris":{"android":"levelo://app?vid=01bf55f2-4ac6-46f6-8504-3267bf31e1a6","ios":"levelo://app?vid=01bf55f2-4ac6-46f6-8504-3267bf31e1a6"},"vehicle_type_id":"4","last_reported":1759137156,"current_range_meters":3200,"station_id":"","pricing_plan_id":"cebpf4jnsgd1na2vs0mg"},{"bike_id":"82cbc1dd-ad9d-4bd5-a3a9-1c43fe5e5bed","system_id":"levelo_inurba_marseille","lat":43.27497,"lon":5.42445,"is_reserved":false,"is_disabled":false,"rental_uris":{"android":"levelo://app?vid=82cbc1dd-ad9d-4bd5-a3a9-1c43fe5e5bed","ios":"levelo://app?vid=82cbc1dd-ad9d-4bd5-a3a9-1c43fe5e5bed"},"vehicle_type_id":"4","last_reported":1759137156,"current_range_meters":3600,"station_id":"ce4bhn92rcd13ifvqgrg","pricing_plan_id":"cebpf4jnsgd1na2vs0mg"},{"bike_id":"bf2ff616-0ce6-4b13-af9d-08b071d9b8ed","system_id":"levelo_inurba_marseille","lat":43.27186,"lon":5.39182,"is_reserved":false,"is_disabled":false,"rental_uris":{"android":"levelo://app?vid=bf2ff616-0ce6-4b13-af9d-08b071d9b8ed","ios":"levelo://app?vid=bf2ff616-0ce6-4b13-af9d-08b071d9b8ed"},"vehicle_type_id":"4","last_reported":1759137156,"current_range_meters":4000,"station_id":"","pricing_plan_id":"cebpf4jnsgd1na2vs0mg"},{"bike_id":"4d11dda6-66c5-4f0a-8425-daabbb434d95","system_id":"levelo_inurba_marseille","lat":43.29372,"lon":5.37863,"is_reserved":false,"is_disabled":false,"rental_uris":{"android":"levelo://app?vid=4d11dda6-66c5-4f0a-8425-daabbb434d95","ios":"levelo://app?vid=4d11dda6-66c5-4f0a-8425-daabbb434d95"},"vehicle_type_id":"4","last_reported":1759137156,"current_range_meters":4000,"station_id":"ce4bgjh2rcd13ifvqbf0","pricing_plan_id":"cebpf4jnsgd1na2vs0mg"},{"bike_id":"588bb5c6-d90f-4edd-b1de-2d2164a39c00","system_id":"levelo_inurba_marseille","lat":43.32913,"lon":5.39078,"is_reserved":false,"is_disabled":true,"rental_uris":{"android":"levelo://app?vid=588bb5c6-d90f-4edd-b1de-2d2164a39c00","ios":"levelo://app?vid=588bb5c6-d90f-4edd-b1de-2d2164a39c00"},"vehicle_type_id":"4","last_reported":1759137156,"current_range_meters":4000,"station_id":"","pricing_plan_id":"cebpf4jnsgd1na2vs0mg"},{"bike_id":"463abc2f-f404-4f1c-bc5b-e854acbfed1d","system_id":"levelo_inurba_marseille","lat":43.24808,"lon":5.37455,"is_reserved":false,"is_disabled":false,"rental_uris":{"android":"levelo://app?vid=463abc2f-f404-4f1c-bc5b-e854acbfed1d","ios":"levelo://app?vid=463abc2f-f404-4f1c-bc5b-e854acbfed1d"},"vehicle_type_id":"4","last_reported":1759137156,"current_range_meters":3600,"station_id":"ce4bhgh2rcd13ifvqfb0","pricing_plan_id":"cebpf4jnsgd1na2vs0mg"},{"bike_id":"934ea1ec-b7f6-49a1-9efa-287317d4eb22","system_id":"levelo_inurba_marseille","lat":43.29048,"lon":5.35914,"is_reserved":false,"is_disabled":false,"rental_uris":{"android":"levelo://app?vid=934ea1ec-b7f6-49a1-9efa-287317d4eb22","ios":"levelo://app?vid=934ea1ec-b7f6-49a1-9efa-287317d4eb22"},"vehicle_type_id":"4","last_reported":1759137156,"current_range_meters":4400,"station_id":"","pricing_plan_id":"cebpf4jnsgd1na2vs0mg"},{"bike_id":"720623f7-9148-4a0e-ade4-a205c6fa44f0","system_id":"levelo_inurba_marseille","lat":43.28977,"lon":5.42903,"is_reserved":false,"is_disabled":false,"rental_uris":{"android":"levelo://app?vid=720623f7-9148-4a0e-ade4-a205c6fa44f0","ios":"levelo://app?vid=720623f7-9148-4a0e-ade4-a205c6fa44f0"},"vehicle_type_id":"4","last_reported":1759137156,"current_range_meters":4800,"station_id":"","pricing_plan_id":"cebpf4jnsgd1na2vs0mg"},{"bike_id":"5952f13c-03ba-454e-babf-51a05871d002","system_id":"levelo_inurba_marseille","lat":43.23181,"lon":5.39987,"is_reserved":false,"is_disabled":false,"rental_uris":{"android":"levelo://app?vid=5952f13c-03ba-454e-babf-51a05871d002","ios":"levelo://app?vid=5952f13c-03ba-454e-babf-51a05871d002"},"vehicle_type_id":"4","last_reported":1759137156,"current_range_meters":5600,"station_id":"ce4bhn12rcd13ifvqgqg","pricing_plan_id":"cebpf4jnsgd1na2vs0mg"},{"bike_id":"282d933b-36a9-440f-9bd8-58d90b63777c","system_id":"levelo_inurba_marseille","lat":43.27216,"lon":5.39088,"is_reserved":false,"is_disabled":false,"rental_uris":{"android":"levelo://app?vid=282d933b-36a9-440f-9bd8-58d90b63777c","ios":"levelo://app?vid=282d933b-36a9-440f-9bd8-58d90b63777c"},"vehicle_type_id":"4","last_reported":1759137156,"current_range_meters":5600,"station_id":"ce4bhhp2rcd13ifvqfm0","pricing_plan_id":"cebpf4jnsgd1na2vs0mg"},{"bike_id":"6a54081d-87e1-4dc2-bd83-67e5d74c1cd9","system_id":"levelo_inurba_marseille","lat":43.29611,"lon":5.37712,"is_reserved":false,"is_disabled":true,"rental_uris":{"android":"levelo://app?vid=6a54081d-87e1-4dc2-bd83-67e5d74c1cd9","ios":"levelo://app?vid=6a54081d-87e1-4dc2-bd83-67e5d74c1cd9"},"vehicle_type_id":"4","last_reported":1759137156,"current_range_meters":6000,"station_id":"ce4bgi92rcd13ifvqb90","pricing_plan_id":"cebpf4jnsgd1na2vs0mg"},{"bike_id":"40eea3ca-68c4-4126-a639-f69049241bad","system_id":"levelo_inurba_marseille","lat":43.34155,"lon":5.3739,"is_reserved":false,"is_disabled":true,"rental_uris":{"android":"levelo://app?vid=40eea3ca-68c4-4126-a639-f69049241bad","ios":"levelo://app?vid=40eea3ca-68c4-4126-a639-f69049241bad"},"vehicle_type_id":"4","last_reported":1759137156,"current_range_meters":6400,"station_id":"","pricing_plan_id":"cebpf4jnsgd1na2vs0mg"},{"bike_id":"052c06a8-072c-4fdf-910d-86607040530c","system_id":"levelo_inurba_marseille","lat":43.30556,"lon":5.36692,"is_reserved":false,"is_disabled":false,"rental_uris":{"android":"levelo://app?vid=052c06a8-072c-4fdf-910d-86607040530c","ios":"levelo://app?vid=052c06a8-072c-4fdf-910d-86607040530c"},"vehicle_type_id":"4","last_reported":1759137156,"current_range_meters":6400,"station_id":"ce4bgrp2rcd13ifvqc9g","pricing_plan_id":"cebpf4jnsgd1na2vs0mg"},{"bike_id":"a0aa6496-462f-4062-9bde-67cfcbfb1e06","system_id":"levelo_inurba_marseille","lat":43.26202,"lon":5.37918,"is_reserved":false,"is_disabled":false,"rental_uris":{"android":"levelo://app?vid=a0aa6496-462f-4062-9bde-67cfcbfb1e06","ios":"levelo://app?vid=a0aa6496-462f-4062-9bde-67cfcbfb1e06"},"vehicle_type_id":"4","last_reported":1759137156,"current_range_meters":6400,"station_id":"ce4bhjp2rcd13ifvqg90","pricing_plan_id":"cebpf4jnsgd1na2vs0mg"},{"bike_id":"35c67457-491d-490e-b941-9c66f75570c2","system_id":"levelo_inurba_marseille","lat":43.30531,"lon":5.36569,"is_reserved":false,"is_disabled":false,"rental_uris":{"android":"levelo://app?vid=35c67457-491d-490e-b941-9c66f75570c2","ios":"levelo://app?vid=35c67457-491d-490e-b941-9c66f75570c2"},"vehicle_type_id":"4","last_reported":1759137156,"current_range_meters":6400,"station_id":"","pricing_plan_id":"cebpf4jnsgd1na2vs0mg"},{"bike_id":"6c93aebc-ad14-4ab9-9fce-beab69ee19b0","system_id":"levelo_inurba_marseille","lat":43.2396,"lon":5.36628,"is_reserved":false,"is_disabled":false,"rental_uris":{"android":"levelo://app?vid=6c93aebc-ad14-4ab9-9fce-beab69ee19b0","ios":"levelo://app?vid=6c93aebc-ad14-4ab9-9fce-beab69ee19b0"},"vehicle_type_id":"4","last_reported":1759137156,"current_range_meters":6400,"station_id":"ce4bhi12rcd13ifvqfp0","pricing_plan_id":"cebpf4jnsgd1na2vs0mg"},{"bike_id":"988a0702-7887-4bf4-bdf2-49c30759e33d","system_id":"levelo_inurba_marseille","lat":43.2867,"lon":5.36344,"is_reserved":false,"is_disabled":false,"rental_uris":{"android":"levelo://app?vid=988a0702-7887-4bf4-bdf2-49c30759e33d","ios":"levelo://app?vid=988a0702-7887-4bf4-bdf2-49c30759e33d"},"vehicle_type_id":"4","last_reported":1759137156,"current_range_meters":6400,"station_id":"ce4bhah2rcd13ifvqej0","pricing_plan_id":"cebpf4jnsgd1na2vs0mg"},{"bike_id":"846b9ad1-a37c-4e96-83a1-cfe56d80f0d2","system_id":"levelo_inurba_marseille","lat":43.26277,"lon":5.39841,"is_reserved":false,"is_disabled":false,"rental_uris":{"android":"levelo://app?vid=846b9ad1-a37c-4e96-83a1-cfe56d80f0d2","ios":"levelo://app?vid=846b9ad1-a37c-4e96-83a1-cfe56d80f0d2"},"vehicle_type_id":"4","last_reported":1759137156,"current_range_meters":6400,"station_id":"","pricing_plan_id":"cebpf4jnsgd1na2vs0mg"},{"bike_id":"26172944-106b-4b4e-9e3c-562a87d00a0c","system_id":"levelo_inurba_marseille","lat":43.290321,"lon":5.376542,"is_reserved":false,"is_disabled":false,"rental_uris":{"android":"levelo://app?vid=26172944-106b-4b4e-9e3c-562a87d00a0c","ios":"levelo://app?vid=26172944-106b-4b4e-9e3c-562a87d00a0c"},"vehicle_type_id":"4","last_reported":1759137156,"current_range_meters":6400,"station_id":"","pricing_plan_id":"cebpf4jnsgd1na2vs0mg"},{"bike_id":"695662ab-65fe-4c59-81b6-3dceb9f5066d","system_id":"levelo_inurba_marseille","lat":43.25582,"lon":5.382394,"is_reserved":false,"is_disabled":false,"rental_uris":{"android":"levelo://app?vid=695662ab-65fe-4c59-81b6-3dceb9f5066d","ios":"levelo://app?vid=695662ab-65fe-4c59-81b6-3dceb9f5066d"},"vehicle_type_id":"4","last_reported":1759137156,"current_range_meters":6400,"station_id":"ce4bhih2rcd13ifvqfs0","pricing_plan_id":"cebpf4jnsgd1na2vs0mg"},{"bike_id":"079b9803-05df-4785-ad52-7e5160aaa81b","system_id":"levelo_inurba_marseille","lat":43.32487,"lon":5.36577,"is_reserved":false,"is_disabled":false,"rental_uris":{"android":"levelo://app?vid=079b9803-05df-4785-ad52-7e5160aaa81b","ios":"levelo://app?vid=079b9803-05df-4785-ad52-7e5160aaa81b"},"vehicle_type_id":"4","last_reported":1759137156,"current_range_meters":6800,"station_id":"ce4bhs12rcd13ifvqhvg","pricing_plan_id":"cebpf4jnsgd1na2vs0mg"},{"bike_id":"4374b62d-f325-4370-9a52-73e508643767","system_id":"levelo_inurba_marseille","lat":43.32095,"lon":5.36807,"is_reserved":false,"is_disabled":false,"rental_uris":{"android":"levelo://app?vid=4374b62d-f325-4370-9a52-73e508643767","ios":"levelo://app?vid=4374b62d-f325-4370-9a52-73e508643767"},"vehicle_type_id":"4","last_reported":1759137156,"current_range_meters":6800,"station_id":"ce4bhrh2rcd13ifvqhug","pricing_plan_id":"cebpf4jnsgd1na2vs0mg"},{"bike_id":"b22d389d-eafe-4619-a950-ce9525b0a59c","system_id":"levelo_inurba_marseille","lat":43.30276,"lon":5.37677,"is_reserved":false,"is_disabled":false,"rental_uris":{"android":"levelo://app?vid=b22d389d-eafe-4619-a950-ce9525b0a59c","ios":"levelo://app?vid=b22d389d-eafe-4619-a950-ce9525b0a59c"},"vehicle_type_id":"4","last_reported":1759137156,"current_range_meters":6400,"station_id":"ce4bguh2rcd13ifvqcj0","pricing_plan_id":"cebpf4jnsgd1na2vs0mg"},{"bike_id":"118b6fcb-d907-4978-b9e1-524bd8650281","system_id":"levelo_inurba_marseille","lat":43.24386,"lon":5.37052,"is_reserved":false,"is_disabled":false,"rental_uris":{"android":"levelo://app?vid=118b6fcb-d907-4978-b9e1-524bd8650281","ios":"levelo://app?vid=118b6fcb-d907-4978-b9e1-524bd8650281"},"vehicle_type_id":"4","last_reported":1759137156,"current_range_meters":6400,"station_id":"ce4bhhh2rcd13ifvqfk0","pricing_plan_id":"cebpf4jnsgd1na2vs0mg"},{"bike_id":"dfcc3830-d601-465c-91cb-6a47f797e443","system_id":"levelo_inurba_marseille","lat":43.24836,"lon":5.37437,"is_reserved":false,"is_disabled":false,"rental_uris":{"android":"levelo://app?vid=dfcc3830-d601-465c-91cb-6a47f797e443","ios":"levelo://app?vid=dfcc3830-d601-465c-91cb-6a47f797e443"},"vehicle_type_id":"4","last_reported":1759137156,"current_range_meters":6800,"station_id":"ce4bhgh2rcd13ifvqfb0","pricing_plan_id":"cebpf4jnsgd1na2vs0mg"},{"bike_id":"1d988d48-4abb-4636-977c-34358db2fd33","system_id":"levelo_inurba_marseille","lat":43.30943,"lon":5.36828,"is_reserved":false,"is_disabled":false,"rental_uris":{"android":"levelo://app?vid=1d988d48-4abb-4636-977c-34358db2fd33","ios":"levelo://app?vid=1d988d48-4abb-4636-977c-34358db2fd33"},"vehicle_type_id":"4","last_reported":1759137156,"current_range_meters":7200,"station_id":"ce4bgn92rcd13ifvqbvg","pricing_plan_id":"cebpf4jnsgd1na2vs0mg"},{"bike_id":"4c02c545-ad59-45b1-9b9c-d3678a5922c7","system_id":"levelo_inurba_marseille","lat":43.337444,"lon":5.374475,"is_reserved":false,"is_disabled":false,"rental_uris":{"android":"levelo://app?vid=4c02c545-ad59-45b1-9b9c-d3678a5922c7","ios":"levelo://app?vid=4c02c545-ad59-45b1-9b9c-d3678a5922c7"},"vehicle_type_id":"4","last_reported":1759137156,"current_range_meters":7200,"station_id":"","pricing_plan_id":"cebpf4jnsgd1na2vs0mg"},{"bike_id":"ae4c2b27-5e66-4178-937f-f74582b99b84","system_id":"levelo_inurba_marseille","lat":43.26199,"lon":5.37937,"is_reserved":false,"is_disabled":false,"rental_uris":{"android":"levelo://app?vid=ae4c2b27-5e66-4178-937f-f74582b99b84","ios":"levelo://app?vid=ae4c2b27-5e66-4178-937f-f74582b99b84"},"vehicle_type_id":"4","last_reported":1759137156,"current_range_meters":7200,"station_id":"ce4bhjp2rcd13ifvqg90","pricing_plan_id":"cebpf4jnsgd1na2vs0mg"},{"bike_id":"20f0e3cc-39b0-4c89-bad5-e656a2b383b2","system_id":"levelo_inurba_marseille","lat":43.27912,"lon":5.39577,"is_reserved":false,"is_disabled":false,"rental_uris":{"android":"levelo://app?vid=20f0e3cc-39b0-4c89-bad5-e656a2b383b2","ios":"levelo://app?vid=20f0e3cc-39b0-4c89-bad5-e656a2b383b2"},"vehicle_type_id":"4","last_reported":1759137156,"current_range_meters":7200,"station_id":"ce4bhf92rcd13ifvqf40","pricing_plan_id":"cebpf4jnsgd1na2vs0mg"},{"bike_id":"6eaf4cc9-dbc6-4320-ba42-0757086cd748","system_id":"levelo_inurba_marseille","lat":43.29914,"lon":5.37506,"is_reserved":false,"is_disabled":false,"rental_uris":{"android":"levelo://app?vid=6eaf4cc9-dbc6-4320-ba42-0757086cd748","ios":"levelo://app?vid=6eaf4cc9-dbc6-4320-ba42-0757086cd748"},"vehicle_type_id":"4","last_reported":1759137156,"current_range_meters":8000,"station_id":"ce4bgjh2rcd13ifvqbg0","pricing_plan_id":"cebpf4jnsgd1na2vs0mg"},{"bike_id":"eeb57905-d13e-4f09-ad20-abfa73bdc039","system_id":"levelo_inurba_marseille","lat":43.269231,"lon":5.389104,"is_reserved":false,"is_disabled":false,"rental_uris":{"android":"levelo://app?vid=eeb57905-d13e-4f09-ad20-abfa73bdc039","ios":"levelo://app?vid=eeb57905-d13e-4f09-ad20-abfa73bdc039"},"vehicle_type_id":"4","last_reported":1759137156,"current_range_meters":8000,"station_id":"ce4bhhh2rcd13ifvqfl0","pricing_plan_id":"cebpf4jnsgd1na2vs0mg"},{"bike_id":"8ce72daa-da19-4468-b750-5258ca6351c8","system_id":"levelo_inurba_marseille","lat":43.31337,"lon":5.36692,"is_reserved":false,"is_disabled":false,"rental_uris":{"android":"levelo://app?vid=8ce72daa-da19-4468-b750-5258ca6351c8","ios":"levelo://app?vid=8ce72daa-da19-4468-b750-5258ca6351c8"},"vehicle_type_id":"4","last_reported":1759137156,"current_range_meters":8000,"station_id":"ce4bgr92rcd13ifvqc6g","pricing_plan_id":"cebpf4jnsgd1na2vs0mg"},{"bike_id":"99f8e706-cfb0-4eb6-929e-527298f2a0db","system_id":"levelo_inurba_marseille","lat":43.283502,"lon":5.376491,"is_reserved":false,"is_disabled":false,"rental_uris":{"android":"levelo://app?vid=99f8e706-cfb0-4eb6-929e-527298f2a0db","ios":"levelo://app?vid=99f8e706-cfb0-4eb6-929e-527298f2a0db"},"vehicle_type_id":"4","last_reported":1759137156,"current_range_meters":8000,"station_id":"","pricing_plan_id":"cebpf4jnsgd1na2vs0mg"},{"bike_id":"ce5e4eaa-de3a-4356-a5d0-7fda370da3a0","system_id":"levelo_inurba_marseille","lat":43.27306,"lon":5.39131,"is_reserved":false,"is_disabled":false,"rental_uris":{"android":"levelo://app?vid=ce5e4eaa-de3a-4356-a5d0-7fda370da3a0","ios":"levelo://app?vid=ce5e4eaa-de3a-4356-a5d0-7fda370da3a0"},"vehicle_type_id":"4","last_reported":1759137156,"current_range_meters":8000,"station_id":"ce4bhgp2rcd13ifvqfe0","pricing_plan_id":"cebpf4jnsgd1na2vs0mg"},{"bike_id":"6d98ab21-1faa-4b15-97b2-a1dd6f53a5a7","system_id":"levelo_inurba_marseille","lat":43.27406,"lon":5.393651,"is_reserved":false,"is_disabled":false,"rental_uris":{"android":"levelo://app?vid=6d98ab21-1faa-4b15-97b2-a1dd6f53a5a7","ios":"levelo://app?vid=6d98ab21-1faa-4b15-97b2-a1dd6f53a5a7"},"vehicle_type_id":"4","last_reported":1759137156,"current_range_meters":8000,"station_id":"ce4bhdp2rcd13ifvqf20","pricing_plan_id":"cebpf4jnsgd1na2vs0mg"},{"bike_id":"bace4886-a317-4722-82a0-089598a10f3f","system_id":"levelo_inurba_marseille","lat":43.2406,"lon":5.37744,"is_reserved":false,"is_disabled":false,"rental_uris":{"android":"levelo://app?vid=bace4886-a317-4722-82a0-089598a10f3f","ios":"levelo://app?vid=bace4886-a317-4722-82a0-089598a10f3f"},"vehicle_type_id":"4","last_reported":1759137156,"current_range_meters":8000,"station_id":"ce4bhnp2rcd13ifvqgvg","pricing_plan_id":"cebpf4jnsgd1na2vs0mg"},{"bike_id":"d16f46f5-3d43-4933-b088-bc397093924a","system_id":"levelo_inurba_marseille","lat":43.298454,"lon":5.362868,"is_reserved":false,"is_disabled":false,"rental_uris":{"android":"levelo://app?vid=d16f46f5-3d43-4933-b088-bc397093924a","ios":"levelo://app?vid=d16f46f5-3d43-4933-b088-bc397093924a"},"vehicle_type_id":"4","last_reported":1759137156,"current_range_meters":8000,"station_id":"ce4bgpp2rcd13ifvqc3g","pricing_plan_id":"cebpf4jnsgd1na2vs0mg"},{"bike_id":"699c52f8-fda0-473f-a930-c54b05bb27f1","system_id":"levelo_inurba_marseille","lat":43.26559,"lon":5.39008,"is_reserved":false,"is_disabled":false,"rental_uris":{"android":"levelo://app?vid=699c52f8-fda0-473f-a930-c54b05bb27f1","ios":"levelo://app?vid=699c52f8-fda0-473f-a930-c54b05bb27f1"},"vehicle_type_id":"4","last_reported":1759137156,"current_range_meters":8000,"station_id":"ce4bhe12rcd13ifvqf30","pricing_plan_id":"cebpf4jnsgd1na2vs0mg"},{"bike_id":"c097f066-7651-435e-913f-a8a7838aba88","system_id":"levelo_inurba_marseille","lat":43.33722,"lon":5.37459,"is_reserved":false,"is_disabled":false,"rental_uris":{"android":"levelo://app?vid=c097f066-7651-435e-913f-a8a7838aba88","ios":"levelo://app?vid=c097f066-7651-435e-913f-a8a7838aba88"},"vehicle_type_id":"4","last_reported":1759137156,"current_range_meters":8000,"station_id":"","pricing_plan_id":"cebpf4jnsgd1na2vs0mg"},{"bike_id":"281eaf06-0b5f-4dac-891d-2eac31720b7f","system_id":"levelo_inurba_marseille","lat":43.30609,"lon":5.37251,"is_reserved":false,"is_disabled":false,"rental_uris":{"android":"levelo://app?vid=281eaf06-0b5f-4dac-891d-2eac31720b7f","ios":"levelo://app?vid=281eaf06-0b5f-4dac-891d-2eac31720b7f"},"vehicle_type_id":"4","last_reported":1759137156,"current_range_meters":8000,"station_id":"ce4bgqh2rcd13ifvqc4g","pricing_plan_id":"cebpf4jnsgd1na2vs0mg"},{"bike_id":"c16dc229-4229-4dbb-a3e5-0f60b32fb440","system_id":"levelo_inurba_marseille","lat":43.24069,"lon":5.37726,"is_reserved":false,"is_disabled":false,"rental_uris":{"android":"levelo://app?vid=c16dc229-4229-4dbb-a3e5-0f60b32fb440","ios":"levelo://app?vid=c16dc229-4229-4dbb-a3e5-0f60b32fb440"},"vehicle_type_id":"4","last_reported":1759137156,"current_range_meters":8000,"station_id":"ce4bhnp2rcd13ifvqgvg","pricing_plan_id":"cebpf4jnsgd1na2vs0mg"},{"bike_id":"cb1ec72c-fd74-46f9-831f-d5978a00f6c5","system_id":"levelo_inurba_marseille","lat":43.29254,"lon":5.37626,"is_reserved":false,"is_disabled":false,"rental_uris":{"android":"levelo://app?vid=cb1ec72c-fd74-46f9-831f-d5978a00f6c5","ios":"levelo://app?vid=cb1ec72c-fd74-46f9-831f-d5978a00f6c5"},"vehicle_type_id":"4","last_reported":1759137156,"current_range_meters":8000,"station_id":"ce4bgi12rcd13ifvqb80","pricing_plan_id":"cebpf4jnsgd1na2vs0mg"},{"bike_id":"03350417-1098-4d6c-b8fe-9e64358744bf","system_id":"levelo_inurba_marseille","lat":43.33229,"lon":5.41289,"is_reserved":false,"is_disabled":false,"rental_uris":{"android":"levelo://app?vid=03350417-1098-4d6c-b8fe-9e64358744bf","ios":"levelo://app?vid=03350417-1098-4d6c-b8fe-9e64358744bf"},"vehicle_type_id":"4","last_reported":1759137156,"current_range_meters":8000,"station_id":"","pricing_plan_id":"cebpf4jnsgd1na2vs0mg"},{"bike_id":"c9916796-5f07-4d22-aceb-87882fb08ac5","system_id":"levelo_inurba_marseille","lat":43.30597,"lon":5.36586,"is_reserved":false,"is_disabled":false,"rental_uris":{"android":"levelo://app?vid=c9916796-5f07-4d22-aceb-87882fb08ac5","ios":"levelo://app?vid=c9916796-5f07-4d22-aceb-87882fb08ac5"},"vehicle_type_id":"4","last_reported":1759137156,"current_range_meters":8400,"station_id":"ce4bgs12rcd13ifvqcag","pricing_plan_id":"cebpf4jnsgd1na2vs0mg"},{"bike_id":"92f32335-9bc9-42db-b48b-10c77ea9b2d7","system_id":"levelo_inurba_marseille","lat":43.23999,"lon":5.37729,"is_reserved":false,"is_disabled":false,"rental_uris":{"android":"levelo://app?vid=92f32335-9bc9-42db-b48b-10c77ea9b2d7","ios":"levelo://app?vid=92f32335-9bc9-42db-b48b-10c77ea9b2d7"},"vehicle_type_id":"4","last_reported":1759137156,"current_range_meters":8400,"station_id":"","pricing_plan_id":"cebpf4jnsgd1na2vs0mg"},{"bike_id":"93e1a5ec-519b-4646-a0f0-5d40d72f58e6","system_id":"levelo_inurba_marseille","lat":43.245454,"lon":5.395306,"is_reserved":false,"is_disabled":false,"rental_uris":{"android":"levelo://app?vid=93e1a5ec-519b-4646-a0f0-5d40d72f58e6","ios":"levelo://app?vid=93e1a5ec-519b-4646-a0f0-5d40d72f58e6"},"vehicle_type_id":"4","last_reported":1759137156,"current_range_meters":8400,"station_id":"ce4bhlp2rcd13ifvqgjg","pricing_plan_id":"cebpf4jnsgd1na2vs0mg"},{"bike_id":"8a4a8404-2223-404b-b9d6-fda388efd3eb","system_id":"levelo_inurba_marseille","lat":43.225399,"lon":5.348524,"is_reserved":false,"is_disabled":false,"rental_uris":{"android":"levelo://app?vid=8a4a8404-2223-404b-b9d6-fda388efd3eb","ios":"levelo://app?vid=8a4a8404-2223-404b-b9d6-fda388efd3eb"},"vehicle_type_id":"4","last_reported":1759137156,"current_range_meters":8800,"station_id":"","pricing_plan_id":"cebpf4jnsgd1na2vs0mg"},{"bike_id":"ee96a502-9b76-492e-840a-498b02aefe72","system_id":"levelo_inurba_marseille","lat":43.32357,"lon":5.39211,"is_reserved":false,"is_disabled":false,"rental_uris":{"android":"levelo://app?vid=ee96a502-9b76-492e-840a-498b02aefe72","ios":"levelo://app?vid=ee96a502-9b76-492e-840a-498b02aefe72"},"vehicle_type_id":"4","last_reported":1759137156,"current_range_meters":8800,"station_id":"","pricing_plan_id":"cebpf4jnsgd1na2vs0mg"},{"bike_id":"d4fc93f1-a772-4add-98f0-3d8daec618fc","system_id":"levelo_inurba_marseille","lat":43.29812,"lon":5.38091,"is_reserved":false,"is_disabled":false,"rental_uris":{"android":"levelo://app?vid=d4fc93f1-a772-4add-98f0-3d8daec618fc","ios":"levelo://app?vid=d4fc93f1-a772-4add-98f0-3d8daec618fc"},"vehicle_type_id":"4","last_reported":1759137156,"current_range_meters":8800,"station_id":"ce4bgip2rcd13ifvqbb0","pricing_plan_id":"cebpf4jnsgd1na2vs0mg"},{"bike_id":"8321e5f9-5e44-4707-9a9b-ae7fd9337b37","system_id":"levelo_inurba_marseille","lat":43.24801,"lon":5.37453,"is_reserved":false,"is_disabled":false,"rental_uris":{"android":"levelo://app?vid=8321e5f9-5e44-4707-9a9b-ae7fd9337b37","ios":"levelo://app?vid=8321e5f9-5e44-4707-9a9b-ae7fd9337b37"},"vehicle_type_id":"4","last_reported":1759137156,"current_range_meters":8800,"station_id":"ce4bhgh2rcd13ifvqfb0","pricing_plan_id":"cebpf4jnsgd1na2vs0mg"},{"bike_id":"258ab053-1083-4ca9-a32a-1e85f085fc22","system_id":"levelo_inurba_marseille","lat":43.337444,"lon":5.374475,"is_reserved":false,"is_disabled":false,"rental_uris":{"android":"levelo://app?vid=258ab053-1083-4ca9-a32a-1e85f085fc22","ios":"levelo://app?vid=258ab053-1083-4ca9-a32a-1e85f085fc22"},"vehicle_type_id":"4","last_reported":1759137156,"current_range_meters":8800,"station_id":"","pricing_plan_id":"cebpf4jnsgd1na2vs0mg"},{"bike_id":"b24f0625-802e-4b5d-80be-dc26037da81f","system_id":"levelo_inurba_marseille","lat":43.29911,"lon":5.38145,"is_reserved":false,"is_disabled":false,"rental_uris":{"android":"levelo://app?vid=b24f0625-802e-4b5d-80be-dc26037da81f","ios":"levelo://app?vid=b24f0625-802e-4b5d-80be-dc26037da81f"},"vehicle_type_id":"4","last_reported":1759137156,"current_range_meters":8800,"station_id":"ce4bgj12rcd13ifvqbc0","pricing_plan_id":"cebpf4jnsgd1na2vs0mg"},{"bike_id":"52dd35c8-b4d9-4df7-9721-a8456d5250be","system_id":"levelo_inurba_marseille","lat":43.24065,"lon":5.37733,"is_reserved":false,"is_disabled":false,"rental_uris":{"android":"levelo://app?vid=52dd35c8-b4d9-4df7-9721-a8456d5250be","ios":"levelo://app?vid=52dd35c8-b4d9-4df7-9721-a8456d5250be"},"vehicle_type_id":"4","last_reported":1759137156,"current_range_meters":9200,"station_id":"ce4bhnp2rcd13ifvqgvg","pricing_plan_id":"cebpf4jnsgd1na2vs0mg"},{"bike_id":"17a1570a-9be3-48d1-b106-0b3edeb2ef86","system_id":"levelo_inurba_marseille","lat":43.24052,"lon":5.37709,"is_reserved":false,"is_disabled":false,"rental_uris":{"android":"levelo://app?vid=17a1570a-9be3-48d1-b106-0b3edeb2ef86","ios":"levelo://app?vid=17a1570a-9be3-48d1-b106-0b3edeb2ef86"},"vehicle_type_id":"4","last_reported":1759137156,"current_range_meters":9200,"station_id":"ce4bhnp2rcd13ifvqgvg","pricing_plan_id":"cebpf4jnsgd1na2vs0mg"},{"bike_id":"e3fe1c25-77d6-4c99-a172-35c670f24da9","system_id":"levelo_inurba_marseille","lat":43.28624,"lon":5.35087,"is_reserved":false,"is_disabled":true,"rental_uris":{"android":"levelo://app?vid=e3fe1c25-77d6-4c99-a172-35c670f24da9","ios":"levelo://app?vid=e3fe1c25-77d6-4c99-a172-35c670f24da9"},"vehicle_type_id":"4","last_reported":1759137156,"current_range_meters":9200,"station_id":"ce4bhch2rcd13ifvqeug","pricing_plan_id":"cebpf4jnsgd1na2vs0mg"},{"bike_id":"afb3a0b1-c807-4eff-8fb4-4964910f49c8","system_id":"levelo_inurba_marseille","lat":43.21747,"lon":5.34602,"is_reserved":false,"is_disabled":true,"rental_uris":{"android":"levelo://app?vid=afb3a0b1-c807-4eff-8fb4-4964910f49c8","ios":"levelo://app?vid=afb3a0b1-c807-4eff-8fb4-4964910f49c8"},"vehicle_type_id":"4","last_reported":1759137156,"current_range_meters":9200,"station_id":"st_cvj6r9ubvosntc0bgbag","pricing_plan_id":"cebpf4jnsgd1na2vs0mg"},{"bike_id":"40ebcd48-f90f-4ca3-947d-e6c5bd6f4631","system_id":"levelo_inurba_marseille","lat":43.30146,"lon":5.38077,"is_reserved":false,"is_disabled":false,"rental_uris":{"android":"levelo://app?vid=40ebcd48-f90f-4ca3-947d-e6c5bd6f4631","ios":"levelo://app?vid=40ebcd48-f90f-4ca3-947d-e6c5bd6f4631"},"vehicle_type_id":"4","last_reported":1759137156,"current_range_meters":9200,"station_id":"ce4bgjp2rcd13ifvqbh0","pricing_plan_id":"cebpf4jnsgd1na2vs0mg"},{"bike_id":"8b353c9e-13c5-42ee-a76f-ccbd6269a3dc","system_id":"levelo_inurba_marseille","lat":43.30424,"lon":5.366666,"is_reserved":false,"is_disabled":false,"rental_uris":{"android":"levelo://app?vid=8b353c9e-13c5-42ee-a76f-ccbd6269a3dc","ios":"levelo://app?vid=8b353c9e-13c5-42ee-a76f-ccbd6269a3dc"},"vehicle_type_id":"4","last_reported":1759137156,"current_range_meters":9600,"station_id":"","pricing_plan_id":"cebpf4jnsgd1na2vs0mg"},{"bike_id":"2c6518be-b3f0-42d2-93c9-c1de9e54885f","system_id":"levelo_inurba_marseille","lat":43.29227,"lon":5.38219,"is_reserved":false,"is_disabled":false,"rental_uris":{"android":"levelo://app?vid=2c6518be-b3f0-42d2-93c9-c1de9e54885f","ios":"levelo://app?vid=2c6518be-b3f0-42d2-93c9-c1de9e54885f"},"vehicle_type_id":"4","last_reported":1759137156,"current_range_meters":9600,"station_id":"","pricing_plan_id":"cebpf4jnsgd1na2vs0mg"},{"bike_id":"f4c53ff4-73a4-4134-bb3f-bbf464878afb","system_id":"levelo_inurba_marseille","lat":43.2417,"lon":5.36415,"is_reserved":false,"is_disabled":true,"rental_uris":{"android":"levelo://app?vid=f4c53ff4-73a4-4134-bb3f-bbf464878afb","ios":"levelo://app?vid=f4c53ff4-73a4-4134-bb3f-bbf464878afb"},"vehicle_type_id":"4","last_reported":1759137156,"current_range_meters":9600,"station_id":"cpo36qri1sfpv3e86is0","pricing_plan_id":"cebpf4jnsgd1na2vs0mg"},{"bike_id":"5fe7f407-3191-4d84-bcf8-5bce6d58e56d","system_id":"levelo_inurba_marseille","lat":43.229275,"lon":5.353656,"is_reserved":false,"is_disabled":false,"rental_uris":{"android":"levelo://app?vid=5fe7f407-3191-4d84-bcf8-5bce6d58e56d","ios":"levelo://app?vid=5fe7f407-3191-4d84-bcf8-5bce6d58e56d"},"vehicle_type_id":"4","last_reported":1759137156,"current_range_meters":9600,"station_id":"cpo3532slgdg3j2ikp40","pricing_plan_id":"cebpf4jnsgd1na2vs0mg"},{"bike_id":"ccb1c832-d99e-4751-bf27-5b3f169d9b10","system_id":"levelo_inurba_marseille","lat":43.28617,"lon":5.35103,"is_reserved":false,"is_disabled":false,"rental_uris":{"android":"levelo://app?vid=ccb1c832-d99e-4751-bf27-5b3f169d9b10","ios":"levelo://app?vid=ccb1c832-d99e-4751-bf27-5b3f169d9b10"},"vehicle_type_id":"4","last_reported":1759137156,"current_range_meters":9600,"station_id":"ce4bhch2rcd13ifvqeug","pricing_plan_id":"cebpf4jnsgd1na2vs0mg"},{"bike_id":"ca8b55f6-b10a-4821-a516-d0fff08c8977","system_id":"levelo_inurba_marseille","lat":43.24044,"lon":5.37741,"is_reserved":false,"is_disabled":false,"rental_uris":{"android":"levelo://app?vid=ca8b55f6-b10a-4821-a516-d0fff08c8977","ios":"levelo://app?vid=ca8b55f6-b10a-4821-a516-d0fff08c8977"},"vehicle_type_id":"4","last_reported":1759137156,"current_range_meters":9600,"station_id":"ce4bhnp2rcd13ifvqgvg","pricing_plan_id":"cebpf4jnsgd1na2vs0mg"},{"bike_id":"13fc6e71-747c-4716-ac34-f55fd611ca5a","system_id":"levelo_inurba_marseille","lat":43.29623,"lon":5.37158,"is_reserved":false,"is_disabled":false,"rental_uris":{"android":"levelo://app?vid=13fc6e71-747c-4716-ac34-f55fd611ca5a","ios":"levelo://app?vid=13fc6e71-747c-4716-ac34-f55fd611ca5a"},"vehicle_type_id":"4","last_reported":1759137156,"current_range_meters":9600,"station_id":"ce4bgnh2rcd13ifvqc0g","pricing_plan_id":"cebpf4jnsgd1na2vs0mg"},{"bike_id":"5fb6bf0d-5e73-4899-9dcb-6a9a1fa6134a","system_id":"levelo_inurba_marseille","lat":43.33605,"lon":5.41024,"is_reserved":false,"is_disabled":false,"rental_uris":{"android":"levelo://app?vid=5fb6bf0d-5e73-4899-9dcb-6a9a1fa6134a","ios":"levelo://app?vid=5fb6bf0d-5e73-4899-9dcb-6a9a1fa6134a"},"vehicle_type_id":"4","last_reported":1759137156,"current_range_meters":9600,"station_id":"ce4bhqh2rcd13ifvqhmg","pricing_plan_id":"cebpf4jnsgd1na2vs0mg"},{"bike_id":"1dad2113-89e2-44fc-a0b6-ddd6a09baff1","system_id":"levelo_inurba_marseille","lat":43.337444,"lon":5.374475,"is_reserved":false,"is_disabled":false,"rental_uris":{"android":"levelo://app?vid=1dad2113-89e2-44fc-a0b6-ddd6a09baff1","ios":"levelo://app?vid=1dad2113-89e2-44fc-a0b6-ddd6a09baff1"},"vehicle_type_id":"4","last_reported":1759137156,"current_range_meters":9600,"station_id":"","pricing_plan_id":"cebpf4jnsgd1na2vs0mg"},{"bike_id":"3cb1dae7-6bcd-41e5-b1b7-c1d25c751a99","system_id":"levelo_inurba_marseille","lat":43.337635,"lon":5.374385,"is_reserved":false,"is_disabled":false,"rental_uris":{"android":"levelo://app?vid=3cb1dae7-6bcd-41e5-b1b7-c1d25c751a99","ios":"levelo://app?vid=3cb1dae7-6bcd-41e5-b1b7-c1d25c751a99"},"vehicle_type_id":"4","last_reported":1759137156,"current_range_meters":10000,"station_id":"","pricing_plan_id":"cebpf4jnsgd1na2vs0mg"},{"bike_id":"d58ddcbe-70d7-4259-abad-73cc43b8b8b9","system_id":"levelo_inurba_marseille","lat":43.23064,"lon":5.35504,"is_reserved":false,"is_disabled":true,"rental_uris":{"android":"levelo://app?vid=d58ddcbe-70d7-4259-abad-73cc43b8b8b9","ios":"levelo://app?vid=d58ddcbe-70d7-4259-abad-73cc43b8b8b9"},"vehicle_type_id":"4","last_reported":1759137156,"current_range_meters":10000,"station_id":"cpo3342slgdg3j2ifvpg","pricing_plan_id":"cebpf4jnsgd1na2vs0mg"},{"bike_id":"8360fe96-8a6b-4a67-9ba4-0ef948b002e1","system_id":"levelo_inurba_marseille","lat":43.249995,"lon":5.389263,"is_reserved":false,"is_disabled":false,"rental_uris":{"android":"levelo://app?vid=8360fe96-8a6b-4a67-9ba4-0ef948b002e1","ios":"levelo://app?vid=8360fe96-8a6b-4a67-9ba4-0ef948b002e1"},"vehicle_type_id":"4","last_reported":1759137156,"current_range_meters":10000,"station_id":"ce4bhgp2rcd13ifvqfd0","pricing_plan_id":"cebpf4jnsgd1na2vs0mg"},{"bike_id":"60ad53a9-07b6-4a56-99b0-02ed35588634","system_id":"levelo_inurba_marseille","lat":43.31313,"lon":5.368,"is_reserved":false,"is_disabled":false,"rental_uris":{"android":"levelo://app?vid=60ad53a9-07b6-4a56-99b0-02ed35588634","ios":"levelo://app?vid=60ad53a9-07b6-4a56-99b0-02ed35588634"},"vehicle_type_id":"4","last_reported":1759137156,"current_range_meters":10000,"station_id":"","pricing_plan_id":"cebpf4jnsgd1na2vs0mg"},{"bike_id":"e7a07ee7-ff27-4e97-adec-6f7b9b9085bf","system_id":"levelo_inurba_marseille","lat":43.28862,"lon":5.42512,"is_reserved":false,"is_disabled":false,"rental_uris":{"android":"levelo://app?vid=e7a07ee7-ff27-4e97-adec-6f7b9b9085bf","ios":"levelo://app?vid=e7a07ee7-ff27-4e97-adec-6f7b9b9085bf"},"vehicle_type_id":"4","last_reported":1759137156,"current_range_meters":10000,"station_id":"st_d3b462108ojc7389ooeg","pricing_plan_id":"cebpf4jnsgd1na2vs0mg"},{"bike_id":"a9f7f3ef-0730-4c02-a0ce-cef86cc09ab6","system_id":"levelo_inurba_marseille","lat":43.21739,"lon":5.34616,"is_reserved":false,"is_disabled":false,"rental_uris":{"android":"levelo://app?vid=a9f7f3ef-0730-4c02-a0ce-cef86cc09ab6","ios":"levelo://app?vid=a9f7f3ef-0730-4c02-a0ce-cef86cc09ab6"},"vehicle_type_id":"4","last_reported":1759137156,"current_range_meters":10000,"station_id":"st_cvj6r9ubvosntc0bgbag","pricing_plan_id":"cebpf4jnsgd1na2vs0mg"},{"bike_id":"81259658-6d51-4b3d-be38-018c2d5f28d5","system_id":"levelo_inurba_marseille","lat":43.24066,"lon":5.37754,"is_reserved":false,"is_disabled":false,"rental_uris":{"android":"levelo://app?vid=81259658-6d51-4b3d-be38-018c2d5f28d5","ios":"levelo://app?vid=81259658-6d51-4b3d-be38-018c2d5f28d5"},"vehicle_type_id":"4","last_reported":1759137156,"current_range_meters":10000,"station_id":"ce4bhnp2rcd13ifvqgvg","pricing_plan_id":"cebpf4jnsgd1na2vs0mg"},{"bike_id":"2f41f5aa-4389-4a7c-a410-f410c497ff50","system_id":"levelo_inurba_marseille","lat":43.24397,"lon":5.37061,"is_reserved":false,"is_disabled":true,"rental_uris":{"android":"levelo://app?vid=2f41f5aa-4389-4a7c-a410-f410c497ff50","ios":"levelo://app?vid=2f41f5aa-4389-4a7c-a410-f410c497ff50"},"vehicle_type_id":"4","last_reported":1759137156,"current_range_meters":10000,"station_id":"ce4bhhh2rcd13ifvqfk0","pricing_plan_id":"cebpf4jnsgd1na2vs0mg"},{"bike_id":"6f141813-4ef1-40c6-9742-146b78e5431f","system_id":"levelo_inurba_marseille","lat":43.30302,"lon":5.36896,"is_reserved":false,"is_disabled":false,"rental_uris":{"android":"levelo://app?vid=6f141813-4ef1-40c6-9742-146b78e5431f","ios":"levelo://app?vid=6f141813-4ef1-40c6-9742-146b78e5431f"},"vehicle_type_id":"4","last_reported":1759137156,"current_range_meters":10000,"station_id":"ce4bgqh2rcd13ifvqc5g","pricing_plan_id":"cebpf4jnsgd1na2vs0mg"},{"bike_id":"59c4dbd7-dbd4-4486-8522-d6ae7607623d","system_id":"levelo_inurba_marseille","lat":43.306006,"lon":5.372348,"is_reserved":false,"is_disabled":false,"rental_uris":{"android":"levelo://app?vid=59c4dbd7-dbd4-4486-8522-d6ae7607623d","ios":"levelo://app?vid=59c4dbd7-dbd4-4486-8522-d6ae7607623d"},"vehicle_type_id":"4","last_reported":1759137156,"current_range_meters":10000,"station_id":"ce4bgqh2rcd13ifvqc4g","pricing_plan_id":"cebpf4jnsgd1na2vs0mg"},{"bike_id":"20c1c77a-f4d0-45da-bf37-9dfdc8268d18","system_id":"levelo_inurba_marseille","lat":43.319926,"lon":5.381505,"is_reserved":false,"is_disabled":false,"rental_uris":{"android":"levelo://app?vid=20c1c77a-f4d0-45da-bf37-9dfdc8268d18","ios":"levelo://app?vid=20c1c77a-f4d0-45da-bf37-9dfdc8268d18"},"vehicle_type_id":"4","last_reported":1759137156,"current_range_meters":10800,"station_id":"ce4bhr12rcd13ifvqhpg","pricing_plan_id":"cebpf4jnsgd1na2vs0mg"},{"bike_id":"aef170f6-3306-46fe-9dab-25f26114ab13","system_id":"levelo_inurba_marseille","lat":43.323793,"lon":5.367442,"is_reserved":false,"is_disabled":false,"rental_uris":{"android":"levelo://app?vid=aef170f6-3306-46fe-9dab-25f26114ab13","ios":"levelo://app?vid=aef170f6-3306-46fe-9dab-25f26114ab13"},"vehicle_type_id":"4","last_reported":1759137156,"current_range_meters":10800,"station_id":"ce4bhsh2rcd13ifvqi2g","pricing_plan_id":"cebpf4jnsgd1na2vs0mg"},{"bike_id":"d7d09523-34bb-44d2-9695-02f0abea9b47","system_id":"levelo_inurba_marseille","lat":43.29736,"lon":5.37915,"is_reserved":false,"is_disabled":false,"rental_uris":{"android":"levelo://app?vid=d7d09523-34bb-44d2-9695-02f0abea9b47","ios":"levelo://app?vid=d7d09523-34bb-44d2-9695-02f0abea9b47"},"vehicle_type_id":"4","last_reported":1759137156,"current_range_meters":10800,"station_id":"","pricing_plan_id":"cebpf4jnsgd1na2vs0mg"},{"bike_id":"33bf058e-7df4-4d51-83ee-61b09650fee5","system_id":"levelo_inurba_marseille","lat":43.27491,"lon":5.42449,"is_reserved":false,"is_disabled":false,"rental_uris":{"android":"levelo://app?vid=33bf058e-7df4-4d51-83ee-61b09650fee5","ios":"levelo://app?vid=33bf058e-7df4-4d51-83ee-61b09650fee5"},"vehicle_type_id":"4","last_reported":1759137156,"current_range_meters":10800,"station_id":"ce4bhn92rcd13ifvqgrg","pricing_plan_id":"cebpf4jnsgd1na2vs0mg"},{"bike_id":"c8956137-335c-4ace-8361-651c509e6c8a","system_id":"levelo_inurba_marseille","lat":43.27486,"lon":5.42436,"is_reserved":false,"is_disabled":false,"rental_uris":{"android":"levelo://app?vid=c8956137-335c-4ace-8361-651c509e6c8a","ios":"levelo://app?vid=c8956137-335c-4ace-8361-651c509e6c8a"},"vehicle_type_id":"4","last_reported":1759137156,"current_range_meters":10800,"station_id":"ce4bhn92rcd13ifvqgrg","pricing_plan_id":"cebpf4jnsgd1na2vs0mg"},{"bike_id":"e5cca1d3-7b83-4815-adc1-45ead40eb28d","system_id":"levelo_inurba_marseille","lat":43.320911,"lon":5.367714,"is_reserved":false,"is_disabled":false,"rental_uris":{"android":"levelo://app?vid=e5cca1d3-7b83-4815-adc1-45ead40eb28d","ios":"levelo://app?vid=e5cca1d3-7b83-4815-adc1-45ead40eb28d"},"vehicle_type_id":"4","last_reported":1759137156,"current_range_meters":10800,"station_id":"ce4bhrh2rcd13ifvqhug","pricing_plan_id":"cebpf4jnsgd1na2vs0mg"},{"bike_id":"f3bba9fa-b4ea-4a10-b6b0-efa7bb4fa8bf","system_id":"levelo_inurba_marseille","lat":43.27326,"lon":5.39062,"is_reserved":false,"is_disabled":false,"rental_uris":{"android":"levelo://app?vid=f3bba9fa-b4ea-4a10-b6b0-efa7bb4fa8bf","ios":"levelo://app?vid=f3bba9fa-b4ea-4a10-b6b0-efa7bb4fa8bf"},"vehicle_type_id":"4","last_reported":1759137156,"current_range_meters":11200,"station_id":"ce4bhgp2rcd13ifvqfe0","pricing_plan_id":"cebpf4jnsgd1na2vs0mg"},{"bike_id":"5f7ca2cd-1bbf-4bcf-aa46-5dac96fb545d","system_id":"levelo_inurba_marseille","lat":43.32479,"lon":5.36561,"is_reserved":false,"is_disabled":false,"rental_uris":{"android":"levelo://app?vid=5f7ca2cd-1bbf-4bcf-aa46-5dac96fb545d","ios":"levelo://app?vid=5f7ca2cd-1bbf-4bcf-aa46-5dac96fb545d"},"vehicle_type_id":"4","last_reported":1759137156,"current_range_meters":11200,"station_id":"ce4bhs12rcd13ifvqhvg","pricing_plan_id":"cebpf4jnsgd1na2vs0mg"},{"bike_id":"bfc5bab3-8a4a-4295-9b61-e3b3c733b634","system_id":"levelo_inurba_marseille","lat":43.24079,"lon":5.37675,"is_reserved":false,"is_disabled":false,"rental_uris":{"android":"levelo://app?vid=bfc5bab3-8a4a-4295-9b61-e3b3c733b634","ios":"levelo://app?vid=bfc5bab3-8a4a-4295-9b61-e3b3c733b634"},"vehicle_type_id":"4","last_reported":1759137156,"current_range_meters":11200,"station_id":"","pricing_plan_id":"cebpf4jnsgd1na2vs0mg"},{"bike_id":"826aa570-ad64-48c7-a02b-4520700056d4","system_id":"levelo_inurba_marseille","lat":43.3373,"lon":5.39184,"is_reserved":false,"is_disabled":false,"rental_uris":{"android":"levelo://app?vid=826aa570-ad64-48c7-a02b-4520700056d4","ios":"levelo://app?vid=826aa570-ad64-48c7-a02b-4520700056d4"},"vehicle_type_id":"4","last_reported":1759137156,"current_range_meters":11200,"station_id":"ce4bhr92rcd13ifvqhsg","pricing_plan_id":"cebpf4jnsgd1na2vs0mg"},{"bike_id":"35e8f722-b82a-4247-beb8-7e2827829ce6","system_id":"levelo_inurba_marseille","lat":43.32405,"lon":5.3911,"is_reserved":false,"is_disabled":false,"rental_uris":{"android":"levelo://app?vid=35e8f722-b82a-4247-beb8-7e2827829ce6","ios":"levelo://app?vid=35e8f722-b82a-4247-beb8-7e2827829ce6"},"vehicle_type_id":"4","last_reported":1759137156,"current_range_meters":11200,"station_id":"","pricing_plan_id":"cebpf4jnsgd1na2vs0mg"},{"bike_id":"c2816559-486d-429d-a124-699442bf00af","system_id":"levelo_inurba_marseille","lat":43.32487,"lon":5.36583,"is_reserved":false,"is_disabled":false,"rental_uris":{"android":"levelo://app?vid=c2816559-486d-429d-a124-699442bf00af","ios":"levelo://app?vid=c2816559-486d-429d-a124-699442bf00af"},"vehicle_type_id":"4","last_reported":1759137156,"current_range_meters":11200,"station_id":"ce4bhs12rcd13ifvqhvg","pricing_plan_id":"cebpf4jnsgd1na2vs0mg"},{"bike_id":"e254d7bf-19d8-4099-8210-8c0dd3fc6ec2","system_id":"levelo_inurba_marseille","lat":43.26681,"lon":5.38267,"is_reserved":false,"is_disabled":false,"rental_uris":{"android":"levelo://app?vid=e254d7bf-19d8-4099-8210-8c0dd3fc6ec2","ios":"levelo://app?vid=e254d7bf-19d8-4099-8210-8c0dd3fc6ec2"},"vehicle_type_id":"4","last_reported":1759137156,"current_range_meters":11200,"station_id":"ce4bhg92rcd13ifvqf90","pricing_plan_id":"cebpf4jnsgd1na2vs0mg"},{"bike_id":"e5378695-fba9-432a-9cfb-3b5b05e40fec","system_id":"levelo_inurba_marseille","lat":43.337986,"lon":5.374304,"is_reserved":false,"is_disabled":false,"rental_uris":{"android":"levelo://app?vid=e5378695-fba9-432a-9cfb-3b5b05e40fec","ios":"levelo://app?vid=e5378695-fba9-432a-9cfb-3b5b05e40fec"},"vehicle_type_id":"4","last_reported":1759137156,"current_range_meters":11200,"station_id":"","pricing_plan_id":"cebpf4jnsgd1na2vs0mg"},{"bike_id":"d6eec4ad-fd4c-48f0-9ae8-f517e66bfcd7","system_id":"levelo_inurba_marseille","lat":43.301362,"lon":5.38765,"is_reserved":false,"is_disabled":false,"rental_uris":{"android":"levelo://app?vid=d6eec4ad-fd4c-48f0-9ae8-f517e66bfcd7","ios":"levelo://app?vid=d6eec4ad-fd4c-48f0-9ae8-f517e66bfcd7"},"vehicle_type_id":"4","last_reported":1759137156,"current_range_meters":11200,"station_id":"ce4bghh2rcd13ifvqb60","pricing_plan_id":"cebpf4jnsgd1na2vs0mg"},{"bike_id":"ac398275-b1b4-49c5-856e-668d1cc1e0af","system_id":"levelo_inurba_marseille","lat":43.25715,"lon":5.41115,"is_reserved":false,"is_disabled":false,"rental_uris":{"android":"levelo://app?vid=ac398275-b1b4-49c5-856e-668d1cc1e0af","ios":"levelo://app?vid=ac398275-b1b4-49c5-856e-668d1cc1e0af"},"vehicle_type_id":"4","last_reported":1759137156,"current_range_meters":11200,"station_id":"ce4bhkp2rcd13ifvqgd0","pricing_plan_id":"cebpf4jnsgd1na2vs0mg"},{"bike_id":"4822dd99-56ec-44f6-a9b9-ee0ae5dcc1bf","system_id":"levelo_inurba_marseille","lat":43.30009,"lon":5.39994,"is_reserved":false,"is_disabled":false,"rental_uris":{"android":"levelo://app?vid=4822dd99-56ec-44f6-a9b9-ee0ae5dcc1bf","ios":"levelo://app?vid=4822dd99-56ec-44f6-a9b9-ee0ae5dcc1bf"},"vehicle_type_id":"4","last_reported":1759137156,"current_range_meters":11600,"station_id":"ce4bh0h2rcd13ifvqd40","pricing_plan_id":"cebpf4jnsgd1na2vs0mg"},{"bike_id":"bcd11a31-1d3d-4960-95fe-9154926751b4","system_id":"levelo_inurba_marseille","lat":43.24063,"lon":5.37753,"is_reserved":false,"is_disabled":false,"rental_uris":{"android":"levelo://app?vid=bcd11a31-1d3d-4960-95fe-9154926751b4","ios":"levelo://app?vid=bcd11a31-1d3d-4960-95fe-9154926751b4"},"vehicle_type_id":"4","last_reported":1759137156,"current_range_meters":11600,"station_id":"ce4bhnp2rcd13ifvqgvg","pricing_plan_id":"cebpf4jnsgd1na2vs0mg"},{"bike_id":"ec1905ab-9e0d-45d0-ac09-6a27173e211e","system_id":"levelo_inurba_marseille","lat":43.25119,"lon":5.40335,"is_reserved":false,"is_disabled":false,"rental_uris":{"android":"levelo://app?vid=ec1905ab-9e0d-45d0-ac09-6a27173e211e","ios":"levelo://app?vid=ec1905ab-9e0d-45d0-ac09-6a27173e211e"},"vehicle_type_id":"4","last_reported":1759137156,"current_range_meters":11600,"station_id":"ce4bhlh2rcd13ifvqgig","pricing_plan_id":"cebpf4jnsgd1na2vs0mg"},{"bike_id":"e0e9194b-710d-4981-ad65-ba5929d7512b","system_id":"levelo_inurba_marseille","lat":43.306022,"lon":5.384559,"is_reserved":false,"is_disabled":false,"rental_uris":{"android":"levelo://app?vid=e0e9194b-710d-4981-ad65-ba5929d7512b","ios":"levelo://app?vid=e0e9194b-710d-4981-ad65-ba5929d7512b"},"vehicle_type_id":"4","last_reported":1759137156,"current_range_meters":12000,"station_id":"","pricing_plan_id":"cebpf4jnsgd1na2vs0mg"},{"bike_id":"ade00133-316a-486b-ad8e-40009b44a891","system_id":"levelo_inurba_marseille","lat":43.26687,"lon":5.38266,"is_reserved":false,"is_disabled":false,"rental_uris":{"android":"levelo://app?vid=ade00133-316a-486b-ad8e-40009b44a891","ios":"levelo://app?vid=ade00133-316a-486b-ad8e-40009b44a891"},"vehicle_type_id":"4","last_reported":1759137156,"current_range_meters":12000,"station_id":"ce4bhg92rcd13ifvqf90","pricing_plan_id":"cebpf4jnsgd1na2vs0mg"},{"bike_id":"dcfd86cd-dfa8-40c4-b294-c64ccdcfe512","system_id":"levelo_inurba_marseille","lat":43.26197,"lon":5.37936,"is_reserved":false,"is_disabled":false,"rental_uris":{"android":"levelo://app?vid=dcfd86cd-dfa8-40c4-b294-c64ccdcfe512","ios":"levelo://app?vid=dcfd86cd-dfa8-40c4-b294-c64ccdcfe512"},"vehicle_type_id":"4","last_reported":1759137156,"current_range_meters":12000,"station_id":"ce4bhjp2rcd13ifvqg90","pricing_plan_id":"cebpf4jnsgd1na2vs0mg"},{"bike_id":"944c8fef-1921-48ea-9f3b-89f8418ee8d6","system_id":"levelo_inurba_marseille","lat":43.28423,"lon":5.34977,"is_reserved":false,"is_disabled":false,"rental_uris":{"android":"levelo://app?vid=944c8fef-1921-48ea-9f3b-89f8418ee8d6","ios":"levelo://app?vid=944c8fef-1921-48ea-9f3b-89f8418ee8d6"},"vehicle_type_id":"4","last_reported":1759137156,"current_range_meters":12000,"station_id":"ce4bhbh2rcd13ifvqepg","pricing_plan_id":"cebpf4jnsgd1na2vs0mg"},{"bike_id":"80b98ce0-3233-47ce-84db-722943723d1e","system_id":"levelo_inurba_marseille","lat":43.269329,"lon":5.38928,"is_reserved":false,"is_disabled":false,"rental_uris":{"android":"levelo://app?vid=80b98ce0-3233-47ce-84db-722943723d1e","ios":"levelo://app?vid=80b98ce0-3233-47ce-84db-722943723d1e"},"vehicle_type_id":"4","last_reported":1759137156,"current_range_meters":12000,"station_id":"","pricing_plan_id":"cebpf4jnsgd1na2vs0mg"},{"bike_id":"6b205b81-c3e6-44f0-9d0e-eeb6393ccb11","system_id":"levelo_inurba_marseille","lat":43.30297,"lon":5.36911,"is_reserved":false,"is_disabled":false,"rental_uris":{"android":"levelo://app?vid=6b205b81-c3e6-44f0-9d0e-eeb6393ccb11","ios":"levelo://app?vid=6b205b81-c3e6-44f0-9d0e-eeb6393ccb11"},"vehicle_type_id":"4","last_reported":1759137156,"current_range_meters":12000,"station_id":"ce4bgqh2rcd13ifvqc5g","pricing_plan_id":"cebpf4jnsgd1na2vs0mg"},{"bike_id":"9c4235da-d3d0-4056-aa6b-c6aa6e8e7367","system_id":"levelo_inurba_marseille","lat":43.306874,"lon":5.374858,"is_reserved":false,"is_disabled":false,"rental_uris":{"android":"levelo://app?vid=9c4235da-d3d0-4056-aa6b-c6aa6e8e7367","ios":"levelo://app?vid=9c4235da-d3d0-4056-aa6b-c6aa6e8e7367"},"vehicle_type_id":"4","last_reported":1759137156,"current_range_meters":12000,"station_id":"","pricing_plan_id":"cebpf4jnsgd1na2vs0mg"},{"bike_id":"6617a11f-1e07-463f-8239-3ea7de871097","system_id":"levelo_inurba_marseille","lat":43.24077,"lon":5.3774,"is_reserved":false,"is_disabled":false,"rental_uris":{"android":"levelo://app?vid=6617a11f-1e07-463f-8239-3ea7de871097","ios":"levelo://app?vid=6617a11f-1e07-463f-8239-3ea7de871097"},"vehicle_type_id":"4","last_reported":1759137156,"current_range_meters":12000,"station_id":"ce4bhnp2rcd13ifvqgvg","pricing_plan_id":"cebpf4jnsgd1na2vs0mg"},{"bike_id":"f060d515-f268-4371-95a2-f04eea0ad05f","system_id":"levelo_inurba_marseille","lat":43.24631,"lon":5.43147,"is_reserved":false,"is_disabled":false,"rental_uris":{"android":"levelo://app?vid=f060d515-f268-4371-95a2-f04eea0ad05f","ios":"levelo://app?vid=f060d515-f268-4371-95a2-f04eea0ad05f"},"vehicle_type_id":"4","last_reported":1759137156,"current_range_meters":12000,"station_id":"st_d2m6c4gdas8pm72e190g","pricing_plan_id":"cebpf4jnsgd1na2vs0mg"},{"bike_id":"ee6406f7-9f33-4935-a835-0f3904e54bc4","system_id":"levelo_inurba_marseille","lat":43.31875,"lon":5.37317,"is_reserved":false,"is_disabled":false,"rental_uris":{"android":"levelo://app?vid=ee6406f7-9f33-4935-a835-0f3904e54bc4","ios":"levelo://app?vid=ee6406f7-9f33-4935-a835-0f3904e54bc4"},"vehicle_type_id":"4","last_reported":1759137156,"current_range_meters":12400,"station_id":"ce4bgt12rcd13ifvqcd0","pricing_plan_id":"cebpf4jnsgd1na2vs0mg"},{"bike_id":"32be1559-2215-427f-bee5-7a0451a5266a","system_id":"levelo_inurba_marseille","lat":43.2407,"lon":5.37763,"is_reserved":false,"is_disabled":false,"rental_uris":{"android":"levelo://app?vid=32be1559-2215-427f-bee5-7a0451a5266a","ios":"levelo://app?vid=32be1559-2215-427f-bee5-7a0451a5266a"},"vehicle_type_id":"4","last_reported":1759137156,"current_range_meters":12400,"station_id":"ce4bhnp2rcd13ifvqgvg","pricing_plan_id":"cebpf4jnsgd1na2vs0mg"},{"bike_id":"273d896c-0ea5-4f73-b051-9de3fa6299de","system_id":"levelo_inurba_marseille","lat":43.2396,"lon":5.36651,"is_reserved":false,"is_disabled":false,"rental_uris":{"android":"levelo://app?vid=273d896c-0ea5-4f73-b051-9de3fa6299de","ios":"levelo://app?vid=273d896c-0ea5-4f73-b051-9de3fa6299de"},"vehicle_type_id":"4","last_reported":1759137156,"current_range_meters":12400,"station_id":"ce4bhi12rcd13ifvqfp0","pricing_plan_id":"cebpf4jnsgd1na2vs0mg"},{"bike_id":"615260d9-6c36-458f-922e-bb8f2433b292","system_id":"levelo_inurba_marseille","lat":43.23942,"lon":5.36626,"is_reserved":false,"is_disabled":false,"rental_uris":{"android":"levelo://app?vid=615260d9-6c36-458f-922e-bb8f2433b292","ios":"levelo://app?vid=615260d9-6c36-458f-922e-bb8f2433b292"},"vehicle_type_id":"4","last_reported":1759137156,"current_range_meters":12400,"station_id":"ce4bhi12rcd13ifvqfp0","pricing_plan_id":"cebpf4jnsgd1na2vs0mg"},{"bike_id":"0c9de558-bd89-4a96-822a-e0d89ff41c26","system_id":"levelo_inurba_marseille","lat":43.29053,"lon":5.39991,"is_reserved":false,"is_disabled":false,"rental_uris":{"android":"levelo://app?vid=0c9de558-bd89-4a96-822a-e0d89ff41c26","ios":"levelo://app?vid=0c9de558-bd89-4a96-822a-e0d89ff41c26"},"vehicle_type_id":"4","last_reported":1759137156,"current_range_meters":12400,"station_id":"ce4bh392rcd13ifvqdm0","pricing_plan_id":"cebpf4jnsgd1na2vs0mg"},{"bike_id":"24ccb1ec-b61e-4fe8-9271-25b08c928377","system_id":"levelo_inurba_marseille","lat":43.27181,"lon":5.392,"is_reserved":false,"is_disabled":false,"rental_uris":{"android":"levelo://app?vid=24ccb1ec-b61e-4fe8-9271-25b08c928377","ios":"levelo://app?vid=24ccb1ec-b61e-4fe8-9271-25b08c928377"},"vehicle_type_id":"4","last_reported":1759137156,"current_range_meters":12800,"station_id":"","pricing_plan_id":"cebpf4jnsgd1na2vs0mg"},{"bike_id":"391e4d0c-84a7-42f6-9312-2ada7c2397ee","system_id":"levelo_inurba_marseille","lat":43.28274,"lon":5.35073,"is_reserved":false,"is_disabled":false,"rental_uris":{"android":"levelo://app?vid=391e4d0c-84a7-42f6-9312-2ada7c2397ee","ios":"levelo://app?vid=391e4d0c-84a7-42f6-9312-2ada7c2397ee"},"vehicle_type_id":"4","last_reported":1759137156,"current_range_meters":12800,"station_id":"ce4bhbp2rcd13ifvqerg","pricing_plan_id":"cebpf4jnsgd1na2vs0mg"},{"bike_id":"9b4f4d66-027c-4943-abdc-43736a5de892","system_id":"levelo_inurba_marseille","lat":43.24071,"lon":5.37756,"is_reserved":false,"is_disabled":false,"rental_uris":{"android":"levelo://app?vid=9b4f4d66-027c-4943-abdc-43736a5de892","ios":"levelo://app?vid=9b4f4d66-027c-4943-abdc-43736a5de892"},"vehicle_type_id":"4","last_reported":1759137156,"current_range_meters":12800,"station_id":"ce4bhnp2rcd13ifvqgvg","pricing_plan_id":"cebpf4jnsgd1na2vs0mg"},{"bike_id":"8e22cf14-b2b4-4b09-90a7-6c182d85a696","system_id":"levelo_inurba_marseille","lat":43.30512,"lon":5.36707,"is_reserved":false,"is_disabled":false,"rental_uris":{"android":"levelo://app?vid=8e22cf14-b2b4-4b09-90a7-6c182d85a696","ios":"levelo://app?vid=8e22cf14-b2b4-4b09-90a7-6c182d85a696"},"vehicle_type_id":"4","last_reported":1759137156,"current_range_meters":12800,"station_id":"ce4bgrp2rcd13ifvqc9g","pricing_plan_id":"cebpf4jnsgd1na2vs0mg"},{"bike_id":"2dd2ea87-e401-44f9-ac32-a534d3fa425e","system_id":"levelo_inurba_marseille","lat":43.32536,"lon":5.41435,"is_reserved":false,"is_disabled":false,"rental_uris":{"android":"levelo://app?vid=2dd2ea87-e401-44f9-ac32-a534d3fa425e","ios":"levelo://app?vid=2dd2ea87-e401-44f9-ac32-a534d3fa425e"},"vehicle_type_id":"4","last_reported":1759137156,"current_range_meters":12800,"station_id":"ce4bhq12rcd13ifvqhhg","pricing_plan_id":"cebpf4jnsgd1na2vs0mg"},{"bike_id":"1c77f3ed-ea02-460c-87d5-c0e9ee8c0afd","system_id":"levelo_inurba_marseille","lat":43.307985,"lon":5.381516,"is_reserved":false,"is_disabled":false,"rental_uris":{"android":"levelo://app?vid=1c77f3ed-ea02-460c-87d5-c0e9ee8c0afd","ios":"levelo://app?vid=1c77f3ed-ea02-460c-87d5-c0e9ee8c0afd"},"vehicle_type_id":"4","last_reported":1759137156,"current_range_meters":13600,"station_id":"ce4bgt12rcd13ifvqce0","pricing_plan_id":"cebpf4jnsgd1na2vs0mg"},{"bike_id":"18caf31b-da45-42e9-9508-d07a0cbd4944","system_id":"levelo_inurba_marseille","lat":43.23968,"lon":5.36626,"is_reserved":false,"is_disabled":false,"rental_uris":{"android":"levelo://app?vid=18caf31b-da45-42e9-9508-d07a0cbd4944","ios":"levelo://app?vid=18caf31b-da45-42e9-9508-d07a0cbd4944"},"vehicle_type_id":"4","last_reported":1759137156,"current_range_meters":13600,"station_id":"ce4bhi12rcd13ifvqfp0","pricing_plan_id":"cebpf4jnsgd1na2vs0mg"},{"bike_id":"7dc10ae7-7366-4aef-afb3-946c513f88ef","system_id":"levelo_inurba_marseille","lat":43.279972,"lon":5.364106,"is_reserved":false,"is_disabled":false,"rental_uris":{"android":"levelo://app?vid=7dc10ae7-7366-4aef-afb3-946c513f88ef","ios":"levelo://app?vid=7dc10ae7-7366-4aef-afb3-946c513f88ef"},"vehicle_type_id":"4","last_reported":1759137156,"current_range_meters":14000,"station_id":"ce4bha12rcd13ifvqef0","pricing_plan_id":"cebpf4jnsgd1na2vs0mg"},{"bike_id":"80389b25-e56a-485f-a160-f3ba107f17d6","system_id":"levelo_inurba_marseille","lat":43.26055,"lon":5.39385,"is_reserved":false,"is_disabled":false,"rental_uris":{"android":"levelo://app?vid=80389b25-e56a-485f-a160-f3ba107f17d6","ios":"levelo://app?vid=80389b25-e56a-485f-a160-f3ba107f17d6"},"vehicle_type_id":"4","last_reported":1759137156,"current_range_meters":13600,"station_id":"ce4bhh92rcd13ifvqfj0","pricing_plan_id":"cebpf4jnsgd1na2vs0mg"},{"bike_id":"8c986307-df22-41f8-9c2d-42ccabc665aa","system_id":"levelo_inurba_marseille","lat":43.302113,"lon":5.366327,"is_reserved":false,"is_disabled":false,"rental_uris":{"android":"levelo://app?vid=8c986307-df22-41f8-9c2d-42ccabc665aa","ios":"levelo://app?vid=8c986307-df22-41f8-9c2d-42ccabc665aa"},"vehicle_type_id":"4","last_reported":1759137156,"current_range_meters":14000,"station_id":"ce4bgrh2rcd13ifvqc8g","pricing_plan_id":"cebpf4jnsgd1na2vs0mg"},{"bike_id":"a02cb57c-79c6-4727-919f-351bec1f6168","system_id":"levelo_inurba_marseille","lat":43.27497,"lon":5.42449,"is_reserved":false,"is_disabled":false,"rental_uris":{"android":"levelo://app?vid=a02cb57c-79c6-4727-919f-351bec1f6168","ios":"levelo://app?vid=a02cb57c-79c6-4727-919f-351bec1f6168"},"vehicle_type_id":"4","last_reported":1759137156,"current_range_meters":14000,"station_id":"ce4bhn92rcd13ifvqgrg","pricing_plan_id":"cebpf4jnsgd1na2vs0mg"},{"bike_id":"ea59b303-6900-42ad-9e79-5b0f95bedd6c","system_id":"levelo_inurba_marseille","lat":43.304578,"lon":5.369007,"is_reserved":false,"is_disabled":false,"rental_uris":{"android":"levelo://app?vid=ea59b303-6900-42ad-9e79-5b0f95bedd6c","ios":"levelo://app?vid=ea59b303-6900-42ad-9e79-5b0f95bedd6c"},"vehicle_type_id":"4","last_reported":1759137156,"current_range_meters":14000,"station_id":"","pricing_plan_id":"cebpf4jnsgd1na2vs0mg"},{"bike_id":"7f46228e-4ed4-4fb2-9b7c-2773cead13c2","system_id":"levelo_inurba_marseille","lat":43.24162,"lon":5.36409,"is_reserved":false,"is_disabled":true,"rental_uris":{"android":"levelo://app?vid=7f46228e-4ed4-4fb2-9b7c-2773cead13c2","ios":"levelo://app?vid=7f46228e-4ed4-4fb2-9b7c-2773cead13c2"},"vehicle_type_id":"4","last_reported":1759137156,"current_range_meters":14000,"station_id":"cpo36qri1sfpv3e86is0","pricing_plan_id":"cebpf4jnsgd1na2vs0mg"},{"bike_id":"a07a513e-e5a9-4481-8592-d991379bc662","system_id":"levelo_inurba_marseille","lat":43.33735,"lon":5.37481,"is_reserved":false,"is_disabled":false,"rental_uris":{"android":"levelo://app?vid=a07a513e-e5a9-4481-8592-d991379bc662","ios":"levelo://app?vid=a07a513e-e5a9-4481-8592-d991379bc662"},"vehicle_type_id":"4","last_reported":1759137156,"current_range_meters":14000,"station_id":"","pricing_plan_id":"cebpf4jnsgd1na2vs0mg"},{"bike_id":"8c0227e3-55e8-4994-aa0c-9b6ee99b7e26","system_id":"levelo_inurba_marseille","lat":43.230495,"lon":5.354945,"is_reserved":false,"is_disabled":false,"rental_uris":{"android":"levelo://app?vid=8c0227e3-55e8-4994-aa0c-9b6ee99b7e26","ios":"levelo://app?vid=8c0227e3-55e8-4994-aa0c-9b6ee99b7e26"},"vehicle_type_id":"4","last_reported":1759137156,"current_range_meters":14400,"station_id":"cpo3342slgdg3j2ifvpg","pricing_plan_id":"cebpf4jnsgd1na2vs0mg"},{"bike_id":"eaccc7e1-4cde-49c3-a901-4d03b0835636","system_id":"levelo_inurba_marseille","lat":43.24074,"lon":5.37766,"is_reserved":false,"is_disabled":false,"rental_uris":{"android":"levelo://app?vid=eaccc7e1-4cde-49c3-a901-4d03b0835636","ios":"levelo://app?vid=eaccc7e1-4cde-49c3-a901-4d03b0835636"},"vehicle_type_id":"4","last_reported":1759137156,"current_range_meters":14400,"station_id":"ce4bhnp2rcd13ifvqgvg","pricing_plan_id":"cebpf4jnsgd1na2vs0mg"},{"bike_id":"6f71c8ab-46bd-474b-9e4d-6687104c1d2a","system_id":"levelo_inurba_marseille","lat":43.270852,"lon":5.401744,"is_reserved":false,"is_disabled":false,"rental_uris":{"android":"levelo://app?vid=6f71c8ab-46bd-474b-9e4d-6687104c1d2a","ios":"levelo://app?vid=6f71c8ab-46bd-474b-9e4d-6687104c1d2a"},"vehicle_type_id":"4","last_reported":1759137156,"current_range_meters":14400,"station_id":"ce4bhk92rcd13ifvqgc0","pricing_plan_id":"cebpf4jnsgd1na2vs0mg"},{"bike_id":"bc5b9e06-5213-45b1-aa18-aa7f6a34a6b7","system_id":"levelo_inurba_marseille","lat":43.334184,"lon":5.410203,"is_reserved":false,"is_disabled":false,"rental_uris":{"android":"levelo://app?vid=bc5b9e06-5213-45b1-aa18-aa7f6a34a6b7","ios":"levelo://app?vid=bc5b9e06-5213-45b1-aa18-aa7f6a34a6b7"},"vehicle_type_id":"4","last_reported":1759137156,"current_range_meters":14400,"station_id":"ce4bhqh2rcd13ifvqhmg","pricing_plan_id":"cebpf4jnsgd1na2vs0mg"},{"bike_id":"ffb057b2-3a48-4ee4-8e12-39422a3bc47f","system_id":"levelo_inurba_marseille","lat":43.26214,"lon":5.37435,"is_reserved":false,"is_disabled":false,"rental_uris":{"android":"levelo://app?vid=ffb057b2-3a48-4ee4-8e12-39422a3bc47f","ios":"levelo://app?vid=ffb057b2-3a48-4ee4-8e12-39422a3bc47f"},"vehicle_type_id":"4","last_reported":1759137156,"current_range_meters":14400,"station_id":"ce4bhgp2rcd13ifvqfc0","pricing_plan_id":"cebpf4jnsgd1na2vs0mg"},{"bike_id":"a63906d9-70e3-4694-a19f-f783d775e9bb","system_id":"levelo_inurba_marseille","lat":43.31267,"lon":5.37407,"is_reserved":false,"is_disabled":false,"rental_uris":{"android":"levelo://app?vid=a63906d9-70e3-4694-a19f-f783d775e9bb","ios":"levelo://app?vid=a63906d9-70e3-4694-a19f-f783d775e9bb"},"vehicle_type_id":"4","last_reported":1759137156,"current_range_meters":14400,"station_id":"","pricing_plan_id":"cebpf4jnsgd1na2vs0mg"},{"bike_id":"6208b55e-5829-429c-bbd4-b74a6a76be82","system_id":"levelo_inurba_marseille","lat":43.3361,"lon":5.41026,"is_reserved":false,"is_disabled":false,"rental_uris":{"android":"levelo://app?vid=6208b55e-5829-429c-bbd4-b74a6a76be82","ios":"levelo://app?vid=6208b55e-5829-429c-bbd4-b74a6a76be82"},"vehicle_type_id":"4","last_reported":1759137156,"current_range_meters":14800,"station_id":"ce4bhqh2rcd13ifvqhmg","pricing_plan_id":"cebpf4jnsgd1na2vs0mg"},{"bike_id":"d60dc148-253b-4625-ae0c-8c88dcdb4260","system_id":"levelo_inurba_marseille","lat":43.272127,"lon":5.391798,"is_reserved":false,"is_disabled":false,"rental_uris":{"android":"levelo://app?vid=d60dc148-253b-4625-ae0c-8c88dcdb4260","ios":"levelo://app?vid=d60dc148-253b-4625-ae0c-8c88dcdb4260"},"vehicle_type_id":"4","last_reported":1759137156,"current_range_meters":14800,"station_id":"","pricing_plan_id":"cebpf4jnsgd1na2vs0mg"},{"bike_id":"bd1e0cae-2855-429e-9c08-2261d3e1705d","system_id":"levelo_inurba_marseille","lat":43.27493,"lon":5.42447,"is_reserved":false,"is_disabled":false,"rental_uris":{"android":"levelo://app?vid=bd1e0cae-2855-429e-9c08-2261d3e1705d","ios":"levelo://app?vid=bd1e0cae-2855-429e-9c08-2261d3e1705d"},"vehicle_type_id":"4","last_reported":1759137156,"current_range_meters":14800,"station_id":"ce4bhn92rcd13ifvqgrg","pricing_plan_id":"cebpf4jnsgd1na2vs0mg"},{"bike_id":"9f8016d4-7cfd-4da9-98fe-979484415ac7","system_id":"levelo_inurba_marseille","lat":43.30541,"lon":5.36703,"is_reserved":false,"is_disabled":false,"rental_uris":{"android":"levelo://app?vid=9f8016d4-7cfd-4da9-98fe-979484415ac7","ios":"levelo://app?vid=9f8016d4-7cfd-4da9-98fe-979484415ac7"},"vehicle_type_id":"4","last_reported":1759137156,"current_range_meters":14800,"station_id":"ce4bgrp2rcd13ifvqc9g","pricing_plan_id":"cebpf4jnsgd1na2vs0mg"},{"bike_id":"2254d234-e250-4758-90da-5ef7cea81368","system_id":"levelo_inurba_marseille","lat":43.289401,"lon":5.366452,"is_reserved":false,"is_disabled":false,"rental_uris":{"android":"levelo://app?vid=2254d234-e250-4758-90da-5ef7cea81368","ios":"levelo://app?vid=2254d234-e250-4758-90da-5ef7cea81368"},"vehicle_type_id":"4","last_reported":1759137156,"current_range_meters":14800,"station_id":"ce4bhap2rcd13ifvqek0","pricing_plan_id":"cebpf4jnsgd1na2vs0mg"},{"bike_id":"c627b34a-8e81-4438-af3b-4fd0aab1c160","system_id":"levelo_inurba_marseille","lat":43.296594,"lon":5.360016,"is_reserved":false,"is_disabled":false,"rental_uris":{"android":"levelo://app?vid=c627b34a-8e81-4438-af3b-4fd0aab1c160","ios":"levelo://app?vid=c627b34a-8e81-4438-af3b-4fd0aab1c160"},"vehicle_type_id":"4","last_reported":1759137156,"current_range_meters":14800,"station_id":"","pricing_plan_id":"cebpf4jnsgd1na2vs0mg"},{"bike_id":"e7c18a1a-808f-4d44-bd59-2e6ab6703229","system_id":"levelo_inurba_marseille","lat":43.30163,"lon":5.38081,"is_reserved":false,"is_disabled":false,"rental_uris":{"android":"levelo://app?vid=e7c18a1a-808f-4d44-bd59-2e6ab6703229","ios":"levelo://app?vid=e7c18a1a-808f-4d44-bd59-2e6ab6703229"},"vehicle_type_id":"4","last_reported":1759137156,"current_range_meters":15200,"station_id":"ce4bgjp2rcd13ifvqbh0","pricing_plan_id":"cebpf4jnsgd1na2vs0mg"},{"bike_id":"0030cf69-75f8-4719-a372-efc52bdb748a","system_id":"levelo_inurba_marseille","lat":43.32859,"lon":5.45363,"is_reserved":false,"is_disabled":false,"rental_uris":{"android":"levelo://app?vid=0030cf69-75f8-4719-a372-efc52bdb748a","ios":"levelo://app?vid=0030cf69-75f8-4719-a372-efc52bdb748a"},"vehicle_type_id":"4","last_reported":1759137156,"current_range_meters":15200,"station_id":"","pricing_plan_id":"cebpf4jnsgd1na2vs0mg"},{"bike_id":"dc0e4970-2a89-4556-a3c1-0eecb81fbb93","system_id":"levelo_inurba_marseille","lat":43.3363,"lon":5.41048,"is_reserved":false,"is_disabled":false,"rental_uris":{"android":"levelo://app?vid=dc0e4970-2a89-4556-a3c1-0eecb81fbb93","ios":"levelo://app?vid=dc0e4970-2a89-4556-a3c1-0eecb81fbb93"},"vehicle_type_id":"4","last_reported":1759137156,"current_range_meters":15200,"station_id":"ce4bhqh2rcd13ifvqhmg","pricing_plan_id":"cebpf4jnsgd1na2vs0mg"},{"bike_id":"aa123961-c527-4db0-9350-7d548f67905a","system_id":"levelo_inurba_marseille","lat":43.27946,"lon":5.38753,"is_reserved":false,"is_disabled":false,"rental_uris":{"android":"levelo://app?vid=aa123961-c527-4db0-9350-7d548f67905a","ios":"levelo://app?vid=aa123961-c527-4db0-9350-7d548f67905a"},"vehicle_type_id":"4","last_reported":1759137156,"current_range_meters":15200,"station_id":"ce4bh492rcd13ifvqdvg","pricing_plan_id":"cebpf4jnsgd1na2vs0mg"},{"bike_id":"ba1cfbb3-555c-4e6c-85db-b50e9395062e","system_id":"levelo_inurba_marseille","lat":43.246877,"lon":5.381936,"is_reserved":false,"is_disabled":false,"rental_uris":{"android":"levelo://app?vid=ba1cfbb3-555c-4e6c-85db-b50e9395062e","ios":"levelo://app?vid=ba1cfbb3-555c-4e6c-85db-b50e9395062e"},"vehicle_type_id":"4","last_reported":1759137156,"current_range_meters":15200,"station_id":"","pricing_plan_id":"cebpf4jnsgd1na2vs0mg"},{"bike_id":"10baf174-97c7-4514-95bf-33ba4deb3e4f","system_id":"levelo_inurba_marseille","lat":43.21218,"lon":5.35066,"is_reserved":false,"is_disabled":true,"rental_uris":{"android":"levelo://app?vid=10baf174-97c7-4514-95bf-33ba4deb3e4f","ios":"levelo://app?vid=10baf174-97c7-4514-95bf-33ba4deb3e4f"},"vehicle_type_id":"4","last_reported":1759137156,"current_range_meters":15200,"station_id":"st_cvj6sg6p6f1abm77japg","pricing_plan_id":"cebpf4jnsgd1na2vs0mg"},{"bike_id":"668a5b19-6455-4810-aedc-eb87dbfdbe3e","system_id":"levelo_inurba_marseille","lat":43.336087,"lon":5.41034,"is_reserved":false,"is_disabled":false,"rental_uris":{"android":"levelo://app?vid=668a5b19-6455-4810-aedc-eb87dbfdbe3e","ios":"levelo://app?vid=668a5b19-6455-4810-aedc-eb87dbfdbe3e"},"vehicle_type_id":"4","last_reported":1759137156,"current_range_meters":15200,"station_id":"ce4bhqh2rcd13ifvqhmg","pricing_plan_id":"cebpf4jnsgd1na2vs0mg"},{"bike_id":"ce5e157e-4ef2-4c41-9b3b-54d3eecbfa45","system_id":"levelo_inurba_marseille","lat":43.225355,"lon":5.348444,"is_reserved":false,"is_disabled":false,"rental_uris":{"android":"levelo://app?vid=ce5e157e-4ef2-4c41-9b3b-54d3eecbfa45","ios":"levelo://app?vid=ce5e157e-4ef2-4c41-9b3b-54d3eecbfa45"},"vehicle_type_id":"4","last_reported":1759137156,"current_range_meters":15200,"station_id":"","pricing_plan_id":"cebpf4jnsgd1na2vs0mg"},{"bike_id":"aebf0e68-ba27-412a-9ce2-11cc42127dee","system_id":"levelo_inurba_marseille","lat":43.337444,"lon":5.374475,"is_reserved":false,"is_disabled":false,"rental_uris":{"android":"levelo://app?vid=aebf0e68-ba27-412a-9ce2-11cc42127dee","ios":"levelo://app?vid=aebf0e68-ba27-412a-9ce2-11cc42127dee"},"vehicle_type_id":"4","last_reported":1759137156,"current_range_meters":15200,"station_id":"","pricing_plan_id":"cebpf4jnsgd1na2vs0mg"},{"bike_id":"e18b0798-8d8e-4b05-bfef-0e7a989f1f56","system_id":"levelo_inurba_marseille","lat":43.306,"lon":5.37239,"is_reserved":false,"is_disabled":false,"rental_uris":{"android":"levelo://app?vid=e18b0798-8d8e-4b05-bfef-0e7a989f1f56","ios":"levelo://app?vid=e18b0798-8d8e-4b05-bfef-0e7a989f1f56"},"vehicle_type_id":"4","last_reported":1759137156,"current_range_meters":16000,"station_id":"ce4bgqh2rcd13ifvqc4g","pricing_plan_id":"cebpf4jnsgd1na2vs0mg"},{"bike_id":"385fa573-6758-43e7-a2f4-f27be30ea572","system_id":"levelo_inurba_marseille","lat":43.321095,"lon":5.367881,"is_reserved":false,"is_disabled":false,"rental_uris":{"android":"levelo://app?vid=385fa573-6758-43e7-a2f4-f27be30ea572","ios":"levelo://app?vid=385fa573-6758-43e7-a2f4-f27be30ea572"},"vehicle_type_id":"4","last_reported":1759137156,"current_range_meters":16000,"station_id":"ce4bhrh2rcd13ifvqhug","pricing_plan_id":"cebpf4jnsgd1na2vs0mg"},{"bike_id":"2ce37526-f3cb-41ea-9b47-c9862d982941","system_id":"levelo_inurba_marseille","lat":43.295751,"lon":5.367434,"is_reserved":false,"is_disabled":false,"rental_uris":{"android":"levelo://app?vid=2ce37526-f3cb-41ea-9b47-c9862d982941","ios":"levelo://app?vid=2ce37526-f3cb-41ea-9b47-c9862d982941"},"vehicle_type_id":"4","last_reported":1759137156,"current_range_meters":16000,"station_id":"ce4bgph2rcd13ifvqc2g","pricing_plan_id":"cebpf4jnsgd1na2vs0mg"},{"bike_id":"1bde57f9-eedb-41ca-95cf-2b811fab1f26","system_id":"levelo_inurba_marseille","lat":43.29681,"lon":5.37295,"is_reserved":false,"is_disabled":false,"rental_uris":{"android":"levelo://app?vid=1bde57f9-eedb-41ca-95cf-2b811fab1f26","ios":"levelo://app?vid=1bde57f9-eedb-41ca-95cf-2b811fab1f26"},"vehicle_type_id":"4","last_reported":1759137156,"current_range_meters":16000,"station_id":"ce4bgk12rcd13ifvqbj0","pricing_plan_id":"cebpf4jnsgd1na2vs0mg"},{"bike_id":"1a04738a-bd05-4e7f-b716-ba8d78a51904","system_id":"levelo_inurba_marseille","lat":43.2871,"lon":5.3931,"is_reserved":false,"is_disabled":false,"rental_uris":{"android":"levelo://app?vid=1a04738a-bd05-4e7f-b716-ba8d78a51904","ios":"levelo://app?vid=1a04738a-bd05-4e7f-b716-ba8d78a51904"},"vehicle_type_id":"4","last_reported":1759137156,"current_range_meters":16000,"station_id":"","pricing_plan_id":"cebpf4jnsgd1na2vs0mg"},{"bike_id":"33f7e39a-63d4-4845-a01d-b658c3e7c2ce","system_id":"levelo_inurba_marseille","lat":43.23183,"lon":5.3999,"is_reserved":false,"is_disabled":false,"rental_uris":{"android":"levelo://app?vid=33f7e39a-63d4-4845-a01d-b658c3e7c2ce","ios":"levelo://app?vid=33f7e39a-63d4-4845-a01d-b658c3e7c2ce"},"vehicle_type_id":"4","last_reported":1759137156,"current_range_meters":16000,"station_id":"ce4bhn12rcd13ifvqgqg","pricing_plan_id":"cebpf4jnsgd1na2vs0mg"},{"bike_id":"320b3e04-41e9-4e33-a652-09aa9b7906cd","system_id":"levelo_inurba_marseille","lat":43.33601,"lon":5.41004,"is_reserved":false,"is_disabled":false,"rental_uris":{"android":"levelo://app?vid=320b3e04-41e9-4e33-a652-09aa9b7906cd","ios":"levelo://app?vid=320b3e04-41e9-4e33-a652-09aa9b7906cd"},"vehicle_type_id":"4","last_reported":1759137156,"current_range_meters":16000,"station_id":"ce4bhqh2rcd13ifvqhmg","pricing_plan_id":"cebpf4jnsgd1na2vs0mg"},{"bike_id":"8cbcf5e7-b804-4925-bbed-5f57e8580ccf","system_id":"levelo_inurba_marseille","lat":43.31519,"lon":5.36803,"is_reserved":false,"is_disabled":false,"rental_uris":{"android":"levelo://app?vid=8cbcf5e7-b804-4925-bbed-5f57e8580ccf","ios":"levelo://app?vid=8cbcf5e7-b804-4925-bbed-5f57e8580ccf"},"vehicle_type_id":"4","last_reported":1759137156,"current_range_meters":16000,"station_id":"","pricing_plan_id":"cebpf4jnsgd1na2vs0mg"},{"bike_id":"56d6a008-a903-4bd5-8ee3-1cec5d05c634","system_id":"levelo_inurba_marseille","lat":43.31749,"lon":5.39024,"is_reserved":false,"is_disabled":false,"rental_uris":{"android":"levelo://app?vid=56d6a008-a903-4bd5-8ee3-1cec5d05c634","ios":"levelo://app?vid=56d6a008-a903-4bd5-8ee3-1cec5d05c634"},"vehicle_type_id":"4","last_reported":1759137156,"current_range_meters":16000,"station_id":"ce4bhqp2rcd13ifvqhng","pricing_plan_id":"cebpf4jnsgd1na2vs0mg"},{"bike_id":"9dab0dbb-99ad-48b0-9a34-3531b7753743","system_id":"levelo_inurba_marseille","lat":43.29273,"lon":5.368453,"is_reserved":false,"is_disabled":false,"rental_uris":{"android":"levelo://app?vid=9dab0dbb-99ad-48b0-9a34-3531b7753743","ios":"levelo://app?vid=9dab0dbb-99ad-48b0-9a34-3531b7753743"},"vehicle_type_id":"4","last_reported":1759137156,"current_range_meters":16000,"station_id":"ce4bhbp2rcd13ifvqesg","pricing_plan_id":"cebpf4jnsgd1na2vs0mg"},{"bike_id":"1ef3b659-c848-489a-b9e1-ae0e2f01dc5a","system_id":"levelo_inurba_marseille","lat":43.2926,"lon":5.37639,"is_reserved":false,"is_disabled":false,"rental_uris":{"android":"levelo://app?vid=1ef3b659-c848-489a-b9e1-ae0e2f01dc5a","ios":"levelo://app?vid=1ef3b659-c848-489a-b9e1-ae0e2f01dc5a"},"vehicle_type_id":"4","last_reported":1759137156,"current_range_meters":16000,"station_id":"ce4bgi12rcd13ifvqb80","pricing_plan_id":"cebpf4jnsgd1na2vs0mg"},{"bike_id":"41b81af7-59fb-4949-9e67-b7731c5ee494","system_id":"levelo_inurba_marseille","lat":43.26057,"lon":5.39395,"is_reserved":false,"is_disabled":false,"rental_uris":{"android":"levelo://app?vid=41b81af7-59fb-4949-9e67-b7731c5ee494","ios":"levelo://app?vid=41b81af7-59fb-4949-9e67-b7731c5ee494"},"vehicle_type_id":"4","last_reported":1759137156,"current_range_meters":16000,"station_id":"ce4bhh92rcd13ifvqfj0","pricing_plan_id":"cebpf4jnsgd1na2vs0mg"},{"bike_id":"c8164b01-2c86-4b75-bd7b-3abbdc1fdd29","system_id":"levelo_inurba_marseille","lat":43.296297,"lon":5.37718,"is_reserved":false,"is_disabled":false,"rental_uris":{"android":"levelo://app?vid=c8164b01-2c86-4b75-bd7b-3abbdc1fdd29","ios":"levelo://app?vid=c8164b01-2c86-4b75-bd7b-3abbdc1fdd29"},"vehicle_type_id":"4","last_reported":1759137156,"current_range_meters":16000,"station_id":"ce4bgup2rcd13ifvqcn0","pricing_plan_id":"cebpf4jnsgd1na2vs0mg"},{"bike_id":"6ef86d80-c793-4394-b0e0-1422e47b4e67","system_id":"levelo_inurba_marseille","lat":43.25939,"lon":5.40915,"is_reserved":false,"is_disabled":false,"rental_uris":{"android":"levelo://app?vid=6ef86d80-c793-4394-b0e0-1422e47b4e67","ios":"levelo://app?vid=6ef86d80-c793-4394-b0e0-1422e47b4e67"},"vehicle_type_id":"4","last_reported":1759137156,"current_range_meters":16000,"station_id":"ce4bhm92rcd13ifvqglg","pricing_plan_id":"cebpf4jnsgd1na2vs0mg"},{"bike_id":"0d9c40ec-031a-4831-b45d-0985976c931c","system_id":"levelo_inurba_marseille","lat":43.24055,"lon":5.37701,"is_reserved":false,"is_disabled":false,"rental_uris":{"android":"levelo://app?vid=0d9c40ec-031a-4831-b45d-0985976c931c","ios":"levelo://app?vid=0d9c40ec-031a-4831-b45d-0985976c931c"},"vehicle_type_id":"4","last_reported":1759137156,"current_range_meters":16400,"station_id":"","pricing_plan_id":"cebpf4jnsgd1na2vs0mg"},{"bike_id":"f870ed24-999e-4694-a429-2c5a647be260","system_id":"levelo_inurba_marseille","lat":43.30235,"lon":5.40045,"is_reserved":false,"is_disabled":true,"rental_uris":{"android":"levelo://app?vid=f870ed24-999e-4694-a429-2c5a647be260","ios":"levelo://app?vid=f870ed24-999e-4694-a429-2c5a647be260"},"vehicle_type_id":"4","last_reported":1759137156,"current_range_meters":16400,"station_id":"ce4bgvh2rcd13ifvqcs0","pricing_plan_id":"cebpf4jnsgd1na2vs0mg"},{"bike_id":"2ddd7f1b-02b4-45ce-b3cf-8c38f9624c4d","system_id":"levelo_inurba_marseille","lat":43.26195,"lon":5.37936,"is_reserved":false,"is_disabled":false,"rental_uris":{"android":"levelo://app?vid=2ddd7f1b-02b4-45ce-b3cf-8c38f9624c4d","ios":"levelo://app?vid=2ddd7f1b-02b4-45ce-b3cf-8c38f9624c4d"},"vehicle_type_id":"4","last_reported":1759137156,"current_range_meters":16400,"station_id":"ce4bhjp2rcd13ifvqg90","pricing_plan_id":"cebpf4jnsgd1na2vs0mg"},{"bike_id":"78edd212-3bd8-4a45-bced-089e3907902a","system_id":"levelo_inurba_marseille","lat":43.327392,"lon":5.42382,"is_reserved":false,"is_disabled":false,"rental_uris":{"android":"levelo://app?vid=78edd212-3bd8-4a45-bced-089e3907902a","ios":"levelo://app?vid=78edd212-3bd8-4a45-bced-089e3907902a"},"vehicle_type_id":"4","last_reported":1759137156,"current_range_meters":16400,"station_id":"","pricing_plan_id":"cebpf4jnsgd1na2vs0mg"},{"bike_id":"4348b5e0-69d6-4737-aa5f-3e487399916c","system_id":"levelo_inurba_marseille","lat":43.24179,"lon":5.39725,"is_reserved":false,"is_disabled":false,"rental_uris":{"android":"levelo://app?vid=4348b5e0-69d6-4737-aa5f-3e487399916c","ios":"levelo://app?vid=4348b5e0-69d6-4737-aa5f-3e487399916c"},"vehicle_type_id":"4","last_reported":1759137156,"current_range_meters":16400,"station_id":"ce4bhn12rcd13ifvqgpg","pricing_plan_id":"cebpf4jnsgd1na2vs0mg"},{"bike_id":"e27e1b84-fcb9-4229-ab17-6ab0cecb8bea","system_id":"levelo_inurba_marseille","lat":43.301361,"lon":5.37399,"is_reserved":false,"is_disabled":false,"rental_uris":{"android":"levelo://app?vid=e27e1b84-fcb9-4229-ab17-6ab0cecb8bea","ios":"levelo://app?vid=e27e1b84-fcb9-4229-ab17-6ab0cecb8bea"},"vehicle_type_id":"4","last_reported":1759137156,"current_range_meters":16400,"station_id":"ce4bgs92rcd13ifvqcc0","pricing_plan_id":"cebpf4jnsgd1na2vs0mg"},{"bike_id":"91658db2-d6ae-4346-bb4d-02353c95c4ab","system_id":"levelo_inurba_marseille","lat":43.24087,"lon":5.37757,"is_reserved":false,"is_disabled":false,"rental_uris":{"android":"levelo://app?vid=91658db2-d6ae-4346-bb4d-02353c95c4ab","ios":"levelo://app?vid=91658db2-d6ae-4346-bb4d-02353c95c4ab"},"vehicle_type_id":"4","last_reported":1759137156,"current_range_meters":16400,"station_id":"ce4bhnp2rcd13ifvqgvg","pricing_plan_id":"cebpf4jnsgd1na2vs0mg"},{"bike_id":"051eb41f-71c0-452f-8a8e-387b983bfecf","system_id":"levelo_inurba_marseille","lat":43.32224,"lon":5.3693,"is_reserved":false,"is_disabled":false,"rental_uris":{"android":"levelo://app?vid=051eb41f-71c0-452f-8a8e-387b983bfecf","ios":"levelo://app?vid=051eb41f-71c0-452f-8a8e-387b983bfecf"},"vehicle_type_id":"4","last_reported":1759137156,"current_range_meters":16400,"station_id":"","pricing_plan_id":"cebpf4jnsgd1na2vs0mg"},{"bike_id":"de75bb05-c0a1-44e5-8474-bee5ed3ecdf2","system_id":"levelo_inurba_marseille","lat":43.29901,"lon":5.3977,"is_reserved":false,"is_disabled":false,"rental_uris":{"android":"levelo://app?vid=de75bb05-c0a1-44e5-8474-bee5ed3ecdf2","ios":"levelo://app?vid=de75bb05-c0a1-44e5-8474-bee5ed3ecdf2"},"vehicle_type_id":"4","last_reported":1759137156,"current_range_meters":16400,"station_id":"ce4bh0h2rcd13ifvqd50","pricing_plan_id":"cebpf4jnsgd1na2vs0mg"},{"bike_id":"5a915109-04f7-4d8f-a4b5-d66c9c44b349","system_id":"levelo_inurba_marseille","lat":43.29611,"lon":5.37713,"is_reserved":false,"is_disabled":true,"rental_uris":{"android":"levelo://app?vid=5a915109-04f7-4d8f-a4b5-d66c9c44b349","ios":"levelo://app?vid=5a915109-04f7-4d8f-a4b5-d66c9c44b349"},"vehicle_type_id":"4","last_reported":1759137156,"current_range_meters":16400,"station_id":"ce4bgi92rcd13ifvqb90","pricing_plan_id":"cebpf4jnsgd1na2vs0mg"},{"bike_id":"46eeeac6-ae5a-48cb-b2c3-6907016efbe2","system_id":"levelo_inurba_marseille","lat":43.30889,"lon":5.37213,"is_reserved":false,"is_disabled":false,"rental_uris":{"android":"levelo://app?vid=46eeeac6-ae5a-48cb-b2c3-6907016efbe2","ios":"levelo://app?vid=46eeeac6-ae5a-48cb-b2c3-6907016efbe2"},"vehicle_type_id":"4","last_reported":1759137156,"current_range_meters":16400,"station_id":"ce4bguh2rcd13ifvqckg","pricing_plan_id":"cebpf4jnsgd1na2vs0mg"},{"bike_id":"904a2447-c517-4f66-b10b-611abaa09843","system_id":"levelo_inurba_marseille","lat":43.25917,"lon":5.40869,"is_reserved":false,"is_disabled":false,"rental_uris":{"android":"levelo://app?vid=904a2447-c517-4f66-b10b-611abaa09843","ios":"levelo://app?vid=904a2447-c517-4f66-b10b-611abaa09843"},"vehicle_type_id":"4","last_reported":1759137156,"current_range_meters":16400,"station_id":"ce4bhm92rcd13ifvqglg","pricing_plan_id":"cebpf4jnsgd1na2vs0mg"},{"bike_id":"99ce2063-5dfb-4ed3-a4a6-8fc3a54c4890","system_id":"levelo_inurba_marseille","lat":43.337444,"lon":5.374475,"is_reserved":false,"is_disabled":false,"rental_uris":{"android":"levelo://app?vid=99ce2063-5dfb-4ed3-a4a6-8fc3a54c4890","ios":"levelo://app?vid=99ce2063-5dfb-4ed3-a4a6-8fc3a54c4890"},"vehicle_type_id":"4","last_reported":1759137156,"current_range_meters":16400,"station_id":"","pricing_plan_id":"cebpf4jnsgd1na2vs0mg"},{"bike_id":"18dd01b8-81c6-48d0-97a5-6aa730792d80","system_id":"levelo_inurba_marseille","lat":43.27491,"lon":5.42446,"is_reserved":false,"is_disabled":false,"rental_uris":{"android":"levelo://app?vid=18dd01b8-81c6-48d0-97a5-6aa730792d80","ios":"levelo://app?vid=18dd01b8-81c6-48d0-97a5-6aa730792d80"},"vehicle_type_id":"4","last_reported":1759137156,"current_range_meters":16800,"station_id":"ce4bhn92rcd13ifvqgrg","pricing_plan_id":"cebpf4jnsgd1na2vs0mg"},{"bike_id":"5f8608f2-10e3-40a5-9b66-b5df0761fec4","system_id":"levelo_inurba_marseille","lat":43.28697,"lon":5.39975,"is_reserved":false,"is_disabled":false,"rental_uris":{"android":"levelo://app?vid=5f8608f2-10e3-40a5-9b66-b5df0761fec4","ios":"levelo://app?vid=5f8608f2-10e3-40a5-9b66-b5df0761fec4"},"vehicle_type_id":"4","last_reported":1759137156,"current_range_meters":16800,"station_id":"ce4bho92rcd13ifvqh3g","pricing_plan_id":"cebpf4jnsgd1na2vs0mg"},{"bike_id":"ed39613a-0413-4204-b200-326e24ae963d","system_id":"levelo_inurba_marseille","lat":43.31115,"lon":5.37762,"is_reserved":false,"is_disabled":false,"rental_uris":{"android":"levelo://app?vid=ed39613a-0413-4204-b200-326e24ae963d","ios":"levelo://app?vid=ed39613a-0413-4204-b200-326e24ae963d"},"vehicle_type_id":"4","last_reported":1759137156,"current_range_meters":16800,"station_id":"ce4bgt92rcd13ifvqcg0","pricing_plan_id":"cebpf4jnsgd1na2vs0mg"},{"bike_id":"1ac20363-2a92-4a12-8fa6-f11dcfbce8f9","system_id":"levelo_inurba_marseille","lat":43.23153,"lon":5.43708,"is_reserved":false,"is_disabled":false,"rental_uris":{"android":"levelo://app?vid=1ac20363-2a92-4a12-8fa6-f11dcfbce8f9","ios":"levelo://app?vid=1ac20363-2a92-4a12-8fa6-f11dcfbce8f9"},"vehicle_type_id":"4","last_reported":1759137156,"current_range_meters":16800,"station_id":"ce4bhmp2rcd13ifvqgog","pricing_plan_id":"cebpf4jnsgd1na2vs0mg"},{"bike_id":"c622f243-50cc-4435-98ad-aaac51ff224a","system_id":"levelo_inurba_marseille","lat":43.337467,"lon":5.37436,"is_reserved":false,"is_disabled":false,"rental_uris":{"android":"levelo://app?vid=c622f243-50cc-4435-98ad-aaac51ff224a","ios":"levelo://app?vid=c622f243-50cc-4435-98ad-aaac51ff224a"},"vehicle_type_id":"4","last_reported":1759137156,"current_range_meters":16800,"station_id":"","pricing_plan_id":"cebpf4jnsgd1na2vs0mg"},{"bike_id":"872b098e-8d73-4e68-9657-856be53a7655","system_id":"levelo_inurba_marseille","lat":43.30905,"lon":5.36856,"is_reserved":false,"is_disabled":false,"rental_uris":{"android":"levelo://app?vid=872b098e-8d73-4e68-9657-856be53a7655","ios":"levelo://app?vid=872b098e-8d73-4e68-9657-856be53a7655"},"vehicle_type_id":"4","last_reported":1759137156,"current_range_meters":16800,"station_id":"ce4bgn92rcd13ifvqbvg","pricing_plan_id":"cebpf4jnsgd1na2vs0mg"},{"bike_id":"60439a97-5dd2-4616-ad31-e3dd28bda889","system_id":"levelo_inurba_marseille","lat":43.311053,"lon":5.385775,"is_reserved":false,"is_disabled":false,"rental_uris":{"android":"levelo://app?vid=60439a97-5dd2-4616-ad31-e3dd28bda889","ios":"levelo://app?vid=60439a97-5dd2-4616-ad31-e3dd28bda889"},"vehicle_type_id":"4","last_reported":1759137156,"current_range_meters":16800,"station_id":"","pricing_plan_id":"cebpf4jnsgd1na2vs0mg"},{"bike_id":"00b3c5d5-9ad5-4872-b372-089fa3a04914","system_id":"levelo_inurba_marseille","lat":43.286376,"lon":5.354934,"is_reserved":false,"is_disabled":false,"rental_uris":{"android":"levelo://app?vid=00b3c5d5-9ad5-4872-b372-089fa3a04914","ios":"levelo://app?vid=00b3c5d5-9ad5-4872-b372-089fa3a04914"},"vehicle_type_id":"4","last_reported":1759137156,"current_range_meters":16800,"station_id":"","pricing_plan_id":"cebpf4jnsgd1na2vs0mg"},{"bike_id":"d310fb3c-51fd-428a-947a-97a053af481f","system_id":"levelo_inurba_marseille","lat":43.31406,"lon":5.36674,"is_reserved":false,"is_disabled":false,"rental_uris":{"android":"levelo://app?vid=d310fb3c-51fd-428a-947a-97a053af481f","ios":"levelo://app?vid=d310fb3c-51fd-428a-947a-97a053af481f"},"vehicle_type_id":"4","last_reported":1759137156,"current_range_meters":16800,"station_id":"","pricing_plan_id":"cebpf4jnsgd1na2vs0mg"},{"bike_id":"56ca0258-bee9-4eb2-b3c5-63b5cd0b9e67","system_id":"levelo_inurba_marseille","lat":43.33737,"lon":5.37445,"is_reserved":false,"is_disabled":false,"rental_uris":{"android":"levelo://app?vid=56ca0258-bee9-4eb2-b3c5-63b5cd0b9e67","ios":"levelo://app?vid=56ca0258-bee9-4eb2-b3c5-63b5cd0b9e67"},"vehicle_type_id":"4","last_reported":1759137156,"current_range_meters":16800,"station_id":"","pricing_plan_id":"cebpf4jnsgd1na2vs0mg"},{"bike_id":"92662833-c6ac-4b02-b7df-1638b54b1972","system_id":"levelo_inurba_marseille","lat":43.33742,"lon":5.37449,"is_reserved":false,"is_disabled":false,"rental_uris":{"android":"levelo://app?vid=92662833-c6ac-4b02-b7df-1638b54b1972","ios":"levelo://app?vid=92662833-c6ac-4b02-b7df-1638b54b1972"},"vehicle_type_id":"4","last_reported":1759137156,"current_range_meters":16800,"station_id":"","pricing_plan_id":"cebpf4jnsgd1na2vs0mg"},{"bike_id":"f8d78e5f-60e1-4623-939f-49e76ff16505","system_id":"levelo_inurba_marseille","lat":43.33742,"lon":5.37448,"is_reserved":false,"is_disabled":false,"rental_uris":{"android":"levelo://app?vid=f8d78e5f-60e1-4623-939f-49e76ff16505","ios":"levelo://app?vid=f8d78e5f-60e1-4623-939f-49e76ff16505"},"vehicle_type_id":"4","last_reported":1759137156,"current_range_meters":16800,"station_id":"","pricing_plan_id":"cebpf4jnsgd1na2vs0mg"},{"bike_id":"d48aecbf-fbb8-4a01-989e-943a70b920d5","system_id":"levelo_inurba_marseille","lat":43.313271,"lon":5.371043,"is_reserved":false,"is_disabled":false,"rental_uris":{"android":"levelo://app?vid=d48aecbf-fbb8-4a01-989e-943a70b920d5","ios":"levelo://app?vid=d48aecbf-fbb8-4a01-989e-943a70b920d5"},"vehicle_type_id":"4","last_reported":1759137156,"current_range_meters":17200,"station_id":"","pricing_plan_id":"cebpf4jnsgd1na2vs0mg"},{"bike_id":"35674f30-45d2-4192-a400-f0f8445d4437","system_id":"levelo_inurba_marseille","lat":43.31062,"lon":5.40113,"is_reserved":false,"is_disabled":false,"rental_uris":{"android":"levelo://app?vid=35674f30-45d2-4192-a400-f0f8445d4437","ios":"levelo://app?vid=35674f30-45d2-4192-a400-f0f8445d4437"},"vehicle_type_id":"4","last_reported":1759137156,"current_range_meters":17200,"station_id":"","pricing_plan_id":"cebpf4jnsgd1na2vs0mg"},{"bike_id":"f8112d7e-b2af-4b4a-8516-22f282422c69","system_id":"levelo_inurba_marseille","lat":43.23959,"lon":5.36638,"is_reserved":false,"is_disabled":false,"rental_uris":{"android":"levelo://app?vid=f8112d7e-b2af-4b4a-8516-22f282422c69","ios":"levelo://app?vid=f8112d7e-b2af-4b4a-8516-22f282422c69"},"vehicle_type_id":"4","last_reported":1759137156,"current_range_meters":17200,"station_id":"ce4bhi12rcd13ifvqfp0","pricing_plan_id":"cebpf4jnsgd1na2vs0mg"},{"bike_id":"96520869-d013-4e0c-a355-f7bbd728ba84","system_id":"levelo_inurba_marseille","lat":43.323654,"lon":5.367438,"is_reserved":false,"is_disabled":false,"rental_uris":{"android":"levelo://app?vid=96520869-d013-4e0c-a355-f7bbd728ba84","ios":"levelo://app?vid=96520869-d013-4e0c-a355-f7bbd728ba84"},"vehicle_type_id":"4","last_reported":1759137156,"current_range_meters":17200,"station_id":"ce4bhsh2rcd13ifvqi2g","pricing_plan_id":"cebpf4jnsgd1na2vs0mg"},{"bike_id":"a05bd468-c6b8-49b8-ade3-15e52e32f754","system_id":"levelo_inurba_marseille","lat":43.24062,"lon":5.37767,"is_reserved":false,"is_disabled":false,"rental_uris":{"android":"levelo://app?vid=a05bd468-c6b8-49b8-ade3-15e52e32f754","ios":"levelo://app?vid=a05bd468-c6b8-49b8-ade3-15e52e32f754"},"vehicle_type_id":"4","last_reported":1759137156,"current_range_meters":17200,"station_id":"ce4bhnp2rcd13ifvqgvg","pricing_plan_id":"cebpf4jnsgd1na2vs0mg"},{"bike_id":"f11d13b2-3fb1-4881-bf70-a7de55eef17d","system_id":"levelo_inurba_marseille","lat":43.29599,"lon":5.36742,"is_reserved":false,"is_disabled":false,"rental_uris":{"android":"levelo://app?vid=f11d13b2-3fb1-4881-bf70-a7de55eef17d","ios":"levelo://app?vid=f11d13b2-3fb1-4881-bf70-a7de55eef17d"},"vehicle_type_id":"4","last_reported":1759137156,"current_range_meters":17200,"station_id":"ce4bgph2rcd13ifvqc2g","pricing_plan_id":"cebpf4jnsgd1na2vs0mg"},{"bike_id":"738a51a6-02d0-4def-8f3f-9c82f6a6dd05","system_id":"levelo_inurba_marseille","lat":43.323647,"lon":5.367285,"is_reserved":false,"is_disabled":false,"rental_uris":{"android":"levelo://app?vid=738a51a6-02d0-4def-8f3f-9c82f6a6dd05","ios":"levelo://app?vid=738a51a6-02d0-4def-8f3f-9c82f6a6dd05"},"vehicle_type_id":"4","last_reported":1759137156,"current_range_meters":17200,"station_id":"ce4bhsh2rcd13ifvqi2g","pricing_plan_id":"cebpf4jnsgd1na2vs0mg"},{"bike_id":"5c3b4228-b227-402c-a874-06485013760e","system_id":"levelo_inurba_marseille","lat":43.2314,"lon":5.43712,"is_reserved":false,"is_disabled":false,"rental_uris":{"android":"levelo://app?vid=5c3b4228-b227-402c-a874-06485013760e","ios":"levelo://app?vid=5c3b4228-b227-402c-a874-06485013760e"},"vehicle_type_id":"4","last_reported":1759137156,"current_range_meters":17200,"station_id":"ce4bhmp2rcd13ifvqgog","pricing_plan_id":"cebpf4jnsgd1na2vs0mg"},{"bike_id":"c64842eb-0f04-44f0-ab7e-8a910d80de06","system_id":"levelo_inurba_marseille","lat":43.30905,"lon":5.36879,"is_reserved":false,"is_disabled":false,"rental_uris":{"android":"levelo://app?vid=c64842eb-0f04-44f0-ab7e-8a910d80de06","ios":"levelo://app?vid=c64842eb-0f04-44f0-ab7e-8a910d80de06"},"vehicle_type_id":"4","last_reported":1759137156,"current_range_meters":17600,"station_id":"ce4bgn92rcd13ifvqbvg","pricing_plan_id":"cebpf4jnsgd1na2vs0mg"},{"bike_id":"4a32ca82-f23b-4f1c-990f-c8e5505ca5a6","system_id":"levelo_inurba_marseille","lat":43.30136,"lon":5.37413,"is_reserved":false,"is_disabled":false,"rental_uris":{"android":"levelo://app?vid=4a32ca82-f23b-4f1c-990f-c8e5505ca5a6","ios":"levelo://app?vid=4a32ca82-f23b-4f1c-990f-c8e5505ca5a6"},"vehicle_type_id":"4","last_reported":1759137156,"current_range_meters":17600,"station_id":"ce4bgs92rcd13ifvqcc0","pricing_plan_id":"cebpf4jnsgd1na2vs0mg"},{"bike_id":"0aba4fe3-5dca-4d79-8b9d-2fc77d6e7d70","system_id":"levelo_inurba_marseille","lat":43.28418,"lon":5.349815,"is_reserved":false,"is_disabled":false,"rental_uris":{"android":"levelo://app?vid=0aba4fe3-5dca-4d79-8b9d-2fc77d6e7d70","ios":"levelo://app?vid=0aba4fe3-5dca-4d79-8b9d-2fc77d6e7d70"},"vehicle_type_id":"4","last_reported":1759137156,"current_range_meters":17600,"station_id":"","pricing_plan_id":"cebpf4jnsgd1na2vs0mg"},{"bike_id":"52576dd9-7d84-47d7-b048-e13be6d74734","system_id":"levelo_inurba_marseille","lat":43.32053,"lon":5.41573,"is_reserved":false,"is_disabled":false,"rental_uris":{"android":"levelo://app?vid=52576dd9-7d84-47d7-b048-e13be6d74734","ios":"levelo://app?vid=52576dd9-7d84-47d7-b048-e13be6d74734"},"vehicle_type_id":"4","last_reported":1759137156,"current_range_meters":17200,"station_id":"ce4bhq92rcd13ifvqhkg","pricing_plan_id":"cebpf4jnsgd1na2vs0mg"},{"bike_id":"74898dc7-8c2d-4900-a548-e66777267953","system_id":"levelo_inurba_marseille","lat":43.27565,"lon":5.35944,"is_reserved":false,"is_disabled":false,"rental_uris":{"android":"levelo://app?vid=74898dc7-8c2d-4900-a548-e66777267953","ios":"levelo://app?vid=74898dc7-8c2d-4900-a548-e66777267953"},"vehicle_type_id":"4","last_reported":1759137156,"current_range_meters":17600,"station_id":"","pricing_plan_id":"cebpf4jnsgd1na2vs0mg"},{"bike_id":"6ca7f74e-0578-429c-8d66-5e02da2e17f6","system_id":"levelo_inurba_marseille","lat":43.30938,"lon":5.37294,"is_reserved":false,"is_disabled":false,"rental_uris":{"android":"levelo://app?vid=6ca7f74e-0578-429c-8d66-5e02da2e17f6","ios":"levelo://app?vid=6ca7f74e-0578-429c-8d66-5e02da2e17f6"},"vehicle_type_id":"4","last_reported":1759137156,"current_range_meters":17600,"station_id":"","pricing_plan_id":"cebpf4jnsgd1na2vs0mg"},{"bike_id":"09dc7070-767f-485c-8bab-bf9eefcad225","system_id":"levelo_inurba_marseille","lat":43.29455,"lon":5.38056,"is_reserved":false,"is_disabled":false,"rental_uris":{"android":"levelo://app?vid=09dc7070-767f-485c-8bab-bf9eefcad225","ios":"levelo://app?vid=09dc7070-767f-485c-8bab-bf9eefcad225"},"vehicle_type_id":"4","last_reported":1759137156,"current_range_meters":17600,"station_id":"","pricing_plan_id":"cebpf4jnsgd1na2vs0mg"},{"bike_id":"39fb06e6-4289-48d2-8715-a4b1a9535772","system_id":"levelo_inurba_marseille","lat":43.25585,"lon":5.38244,"is_reserved":false,"is_disabled":false,"rental_uris":{"android":"levelo://app?vid=39fb06e6-4289-48d2-8715-a4b1a9535772","ios":"levelo://app?vid=39fb06e6-4289-48d2-8715-a4b1a9535772"},"vehicle_type_id":"4","last_reported":1759137156,"current_range_meters":17600,"station_id":"ce4bhih2rcd13ifvqfs0","pricing_plan_id":"cebpf4jnsgd1na2vs0mg"},{"bike_id":"23060896-6333-463c-a762-0dd3fb9f3d7b","system_id":"levelo_inurba_marseille","lat":43.24065,"lon":5.37756,"is_reserved":false,"is_disabled":false,"rental_uris":{"android":"levelo://app?vid=23060896-6333-463c-a762-0dd3fb9f3d7b","ios":"levelo://app?vid=23060896-6333-463c-a762-0dd3fb9f3d7b"},"vehicle_type_id":"4","last_reported":1759137156,"current_range_meters":17600,"station_id":"ce4bhnp2rcd13ifvqgvg","pricing_plan_id":"cebpf4jnsgd1na2vs0mg"},{"bike_id":"fb370b30-a194-4833-bdb8-856e7a2a298d","system_id":"levelo_inurba_marseille","lat":43.24172,"lon":5.39742,"is_reserved":false,"is_disabled":false,"rental_uris":{"android":"levelo://app?vid=fb370b30-a194-4833-bdb8-856e7a2a298d","ios":"levelo://app?vid=fb370b30-a194-4833-bdb8-856e7a2a298d"},"vehicle_type_id":"4","last_reported":1759137156,"current_range_meters":17600,"station_id":"ce4bhn12rcd13ifvqgpg","pricing_plan_id":"cebpf4jnsgd1na2vs0mg"},{"bike_id":"38701304-5b66-4c23-8a7b-e99751e876fd","system_id":"levelo_inurba_marseille","lat":43.29684,"lon":5.37295,"is_reserved":false,"is_disabled":false,"rental_uris":{"android":"levelo://app?vid=38701304-5b66-4c23-8a7b-e99751e876fd","ios":"levelo://app?vid=38701304-5b66-4c23-8a7b-e99751e876fd"},"vehicle_type_id":"4","last_reported":1759137156,"current_range_meters":17600,"station_id":"ce4bgk12rcd13ifvqbj0","pricing_plan_id":"cebpf4jnsgd1na2vs0mg"},{"bike_id":"472ee532-77ff-4d7d-8b4b-121f9de88fe6","system_id":"levelo_inurba_marseille","lat":43.24549,"lon":5.39534,"is_reserved":false,"is_disabled":false,"rental_uris":{"android":"levelo://app?vid=472ee532-77ff-4d7d-8b4b-121f9de88fe6","ios":"levelo://app?vid=472ee532-77ff-4d7d-8b4b-121f9de88fe6"},"vehicle_type_id":"4","last_reported":1759137156,"current_range_meters":18000,"station_id":"ce4bhlp2rcd13ifvqgjg","pricing_plan_id":"cebpf4jnsgd1na2vs0mg"},{"bike_id":"c05ff2b9-0da9-41c8-8b4a-14033c31c1eb","system_id":"levelo_inurba_marseille","lat":43.295483,"lon":5.422209,"is_reserved":false,"is_disabled":false,"rental_uris":{"android":"levelo://app?vid=c05ff2b9-0da9-41c8-8b4a-14033c31c1eb","ios":"levelo://app?vid=c05ff2b9-0da9-41c8-8b4a-14033c31c1eb"},"vehicle_type_id":"4","last_reported":1759137156,"current_range_meters":18000,"station_id":"ce4bhph2rcd13ifvqhdg","pricing_plan_id":"cebpf4jnsgd1na2vs0mg"},{"bike_id":"463c595e-bacc-4795-bc47-ee32036bc33a","system_id":"levelo_inurba_marseille","lat":43.299321,"lon":5.365617,"is_reserved":false,"is_disabled":false,"rental_uris":{"android":"levelo://app?vid=463c595e-bacc-4795-bc47-ee32036bc33a","ios":"levelo://app?vid=463c595e-bacc-4795-bc47-ee32036bc33a"},"vehicle_type_id":"4","last_reported":1759137156,"current_range_meters":18000,"station_id":"ce4bgm92rcd13ifvqbr0","pricing_plan_id":"cebpf4jnsgd1na2vs0mg"},{"bike_id":"3c7327db-8da8-428c-88f7-23a1e610f5d9","system_id":"levelo_inurba_marseille","lat":43.311736,"lon":5.387179,"is_reserved":false,"is_disabled":false,"rental_uris":{"android":"levelo://app?vid=3c7327db-8da8-428c-88f7-23a1e610f5d9","ios":"levelo://app?vid=3c7327db-8da8-428c-88f7-23a1e610f5d9"},"vehicle_type_id":"4","last_reported":1759137156,"current_range_meters":18000,"station_id":"ce4bgv12rcd13ifvqcp0","pricing_plan_id":"cebpf4jnsgd1na2vs0mg"},{"bike_id":"33c22d45-451e-4404-877b-8de38f6e4e67","system_id":"levelo_inurba_marseille","lat":43.29862,"lon":5.37669,"is_reserved":false,"is_disabled":false,"rental_uris":{"android":"levelo://app?vid=33c22d45-451e-4404-877b-8de38f6e4e67","ios":"levelo://app?vid=33c22d45-451e-4404-877b-8de38f6e4e67"},"vehicle_type_id":"4","last_reported":1759137156,"current_range_meters":18000,"station_id":"","pricing_plan_id":"cebpf4jnsgd1na2vs0mg"},{"bike_id":"f44df0c8-3c0a-4103-982e-900169d96e81","system_id":"levelo_inurba_marseille","lat":43.32122,"lon":5.36785,"is_reserved":false,"is_disabled":false,"rental_uris":{"android":"levelo://app?vid=f44df0c8-3c0a-4103-982e-900169d96e81","ios":"levelo://app?vid=f44df0c8-3c0a-4103-982e-900169d96e81"},"vehicle_type_id":"4","last_reported":1759137156,"current_range_meters":18000,"station_id":"ce4bhrh2rcd13ifvqhug","pricing_plan_id":"cebpf4jnsgd1na2vs0mg"},{"bike_id":"13604148-437a-4148-9ed9-019ca4e03ec3","system_id":"levelo_inurba_marseille","lat":43.2462,"lon":5.43149,"is_reserved":false,"is_disabled":false,"rental_uris":{"android":"levelo://app?vid=13604148-437a-4148-9ed9-019ca4e03ec3","ios":"levelo://app?vid=13604148-437a-4148-9ed9-019ca4e03ec3"},"vehicle_type_id":"4","last_reported":1759137156,"current_range_meters":18000,"station_id":"st_d2m6c4gdas8pm72e190g","pricing_plan_id":"cebpf4jnsgd1na2vs0mg"},{"bike_id":"7bb1a9d6-e543-4f0c-9890-a0a92e415c72","system_id":"levelo_inurba_marseille","lat":43.27494,"lon":5.42451,"is_reserved":false,"is_disabled":false,"rental_uris":{"android":"levelo://app?vid=7bb1a9d6-e543-4f0c-9890-a0a92e415c72","ios":"levelo://app?vid=7bb1a9d6-e543-4f0c-9890-a0a92e415c72"},"vehicle_type_id":"4","last_reported":1759137156,"current_range_meters":18800,"station_id":"ce4bhn92rcd13ifvqgrg","pricing_plan_id":"cebpf4jnsgd1na2vs0mg"},{"bike_id":"f9574d5b-4a67-43fc-9668-2c2e41a8a8b8","system_id":"levelo_inurba_marseille","lat":43.23151,"lon":5.43727,"is_reserved":false,"is_disabled":false,"rental_uris":{"android":"levelo://app?vid=f9574d5b-4a67-43fc-9668-2c2e41a8a8b8","ios":"levelo://app?vid=f9574d5b-4a67-43fc-9668-2c2e41a8a8b8"},"vehicle_type_id":"4","last_reported":1759137156,"current_range_meters":18800,"station_id":"ce4bhmp2rcd13ifvqgog","pricing_plan_id":"cebpf4jnsgd1na2vs0mg"},{"bike_id":"4e86af77-d5ed-4c99-98f9-052caca24cd7","system_id":"levelo_inurba_marseille","lat":43.27477,"lon":5.42451,"is_reserved":false,"is_disabled":false,"rental_uris":{"android":"levelo://app?vid=4e86af77-d5ed-4c99-98f9-052caca24cd7","ios":"levelo://app?vid=4e86af77-d5ed-4c99-98f9-052caca24cd7"},"vehicle_type_id":"4","last_reported":1759137156,"current_range_meters":18800,"station_id":"ce4bhn92rcd13ifvqgrg","pricing_plan_id":"cebpf4jnsgd1na2vs0mg"},{"bike_id":"e082e7fa-26cc-4f5d-8f47-444032b456a5","system_id":"levelo_inurba_marseille","lat":43.23967,"lon":5.36629,"is_reserved":false,"is_disabled":false,"rental_uris":{"android":"levelo://app?vid=e082e7fa-26cc-4f5d-8f47-444032b456a5","ios":"levelo://app?vid=e082e7fa-26cc-4f5d-8f47-444032b456a5"},"vehicle_type_id":"4","last_reported":1759137156,"current_range_meters":18800,"station_id":"ce4bhi12rcd13ifvqfp0","pricing_plan_id":"cebpf4jnsgd1na2vs0mg"},{"bike_id":"8c1aaf6a-8e5e-4d43-a152-105ef3126416","system_id":"levelo_inurba_marseille","lat":43.313008,"lon":5.367699,"is_reserved":false,"is_disabled":false,"rental_uris":{"android":"levelo://app?vid=8c1aaf6a-8e5e-4d43-a152-105ef3126416","ios":"levelo://app?vid=8c1aaf6a-8e5e-4d43-a152-105ef3126416"},"vehicle_type_id":"4","last_reported":1759137156,"current_range_meters":18800,"station_id":"","pricing_plan_id":"cebpf4jnsgd1na2vs0mg"},{"bike_id":"211afd9f-58b0-436e-9b6b-1acbadc34392","system_id":"levelo_inurba_marseille","lat":43.32365,"lon":5.3674,"is_reserved":false,"is_disabled":false,"rental_uris":{"android":"levelo://app?vid=211afd9f-58b0-436e-9b6b-1acbadc34392","ios":"levelo://app?vid=211afd9f-58b0-436e-9b6b-1acbadc34392"},"vehicle_type_id":"4","last_reported":1759137156,"current_range_meters":18800,"station_id":"ce4bhsh2rcd13ifvqi2g","pricing_plan_id":"cebpf4jnsgd1na2vs0mg"},{"bike_id":"17bbf4dd-fba9-4826-8c7d-9be0609a6e2f","system_id":"levelo_inurba_marseille","lat":43.31149,"lon":5.37689,"is_reserved":false,"is_disabled":false,"rental_uris":{"android":"levelo://app?vid=17bbf4dd-fba9-4826-8c7d-9be0609a6e2f","ios":"levelo://app?vid=17bbf4dd-fba9-4826-8c7d-9be0609a6e2f"},"vehicle_type_id":"4","last_reported":1759137156,"current_range_meters":18800,"station_id":"","pricing_plan_id":"cebpf4jnsgd1na2vs0mg"},{"bike_id":"d2f46c9e-a53c-42a7-ad54-fd7c896f4565","system_id":"levelo_inurba_marseille","lat":43.33797,"lon":5.37428,"is_reserved":false,"is_disabled":false,"rental_uris":{"android":"levelo://app?vid=d2f46c9e-a53c-42a7-ad54-fd7c896f4565","ios":"levelo://app?vid=d2f46c9e-a53c-42a7-ad54-fd7c896f4565"},"vehicle_type_id":"4","last_reported":1759137156,"current_range_meters":18800,"station_id":"","pricing_plan_id":"cebpf4jnsgd1na2vs0mg"},{"bike_id":"c47f5c3e-1ff3-43b7-b740-1c081ef57305","system_id":"levelo_inurba_marseille","lat":43.296089,"lon":5.377258,"is_reserved":false,"is_disabled":false,"rental_uris":{"android":"levelo://app?vid=c47f5c3e-1ff3-43b7-b740-1c081ef57305","ios":"levelo://app?vid=c47f5c3e-1ff3-43b7-b740-1c081ef57305"},"vehicle_type_id":"4","last_reported":1759137156,"current_range_meters":19200,"station_id":"","pricing_plan_id":"cebpf4jnsgd1na2vs0mg"},