{"last_updated":1742411283,"ttl":60,"version":"2.2","data":{"bikes":[{"bike_id":"80880732-c2c1-4e93-b6b6-0267ace7f41b","system_id":"levelo_inurba_marseille","lat":43.29041,"lon":5.39969,"is_reserved":false,"is_disabled":false,"rental_uris":{"android":"levelo://app?vid=80880732-c2c1-4e93-b6b6-0267ace7f41b","ios":"levelo://app?vid=80880732-c2c1-4e93-b6b6-0267ace7f41b"},"vehicle_type_id":"4","last_reported":1742411283,"current_range_meters":2800,"station_id":"ce4bh392rcd13ifvqdm0","pricing_plan_id":"cebpf4jnsgd1na2vs0mg"},{"bike_id":"b546d303-3346-4344-a961-85eeb38b652f","system_id":"levelo_inurba_marseille","lat":43.3211,"lon":5.3677,"is_reserved":false,"is_disabled":false,"rental_uris":{"android":"levelo://app?vid=b546d303-3346-4344-a961-85eeb38b652f","ios":"levelo://app?vid=b546d303-3346-4344-a961-85eeb38b652f"},"vehicle_type_id":"4","last_reported":1742411283,"current_range_meters":2800,"station_id":"ce4bhrh2rcd13ifvqhug","pricing_plan_id":"cebpf4jnsgd1na2vs0mg"},{"bike_id":"71044a76-f1ce-4662-b2f9-40ff739b1703","system_id":"levelo_inurba_marseille","lat":43.287861,"lon":5.352271,"is_reserved":false,"is_disabled":false,"rental_uris":{"android":"levelo://app?vid=71044a76-f1ce-4662-b2f9-40ff739b1703","ios":"levelo://app?vid=71044a76-f1ce-4662-b2f9-40ff739b1703"},"vehicle_type_id":"4","last_reported":1742411283,"current_range_meters":2000,"station_id":"ce4bhbp2rcd13ifvqerg","pricing_plan_id":"cebpf4jnsgd1na2vs0mg"},{"bike_id":"e8854283-5005-44ed-875a-857dba5682a2","system_id":"levelo_inurba_marseille","lat":43.2749,"lon":5.42423,"is_reserved":false,"is_disabled":false,"rental_uris":{"android":"levelo://app?vid=e8854283-5005-44ed-875a-857dba5682a2","ios":"levelo://app?vid=e8854283-5005-44ed-875a-857dba5682a2"},"vehicle_type_id":"4","last_reported":1742411283,"current_range_meters":2800,"station_id":"ce4bhn92rcd13ifvqgrg","pricing_plan_id":"cebpf4jnsgd1na2vs0mg"},{"bike_id":"2528dc53-a64c-4ff1-b48e-c57b45dea9bb","system_id":"levelo_inurba_marseille","lat":43.23188,"lon":5.39993,"is_reserved":false,"is_disabled":true,"rental_uris":{"android":"levelo://app?vid=2528dc53-a64c-4ff1-b48e-c57b45dea9bb","ios":"levelo://app?vid=2528dc53-a64c-4ff1-b48e-c57b45dea9bb"},"vehicle_type_id":"4","last_reported":1742411283,"current_range_meters":2800,"station_id":"ce4bhn12rcd13ifvqgqg","pricing_plan_id":"cebpf4jnsgd1na2vs0mg"},{"bike_id":"73e76bed-394b-49e6-a65a-f7abed5787a9","system_id":"levelo_inurba_marseille","lat":43.23174,"lon":5.43689,"is_reserved":false,"is_disabled":true,"rental_uris":{"android":"levelo://app?vid=73e76bed-394b-49e6-a65a-f7abed5787a9","ios":"levelo://app?vid=73e76bed-394b-49e6-a65a-f7abed5787a9"},"vehicle_type_id":"4","last_reported":1742411283,"current_range_meters":2800,"station_id":"ce4bhmp2rcd13ifvqgog","pricing_plan_id":"cebpf4jnsgd1na2vs0mg"},{"bike_id":"c3e98aef-66da-44bf-94c3-56dc44ae2775","system_id":"levelo_inurba_marseille","lat":43.30426,"lon":5.38882,"is_reserved":false,"is_disabled":false,"rental_uris":{"android":"levelo://app?vid=c3e98aef-66da-44bf-94c3-56dc44ae2775","ios":"levelo://app?vid=c3e98aef-66da-44bf-94c3-56dc44ae2775"},"vehicle_type_id":"4","last_reported":1742411283,"current_range_meters":3200,"station_id":"ce4bgk12rcd13ifvqbi0","pricing_plan_id":"cebpf4jnsgd1na2vs0mg"},{"bike_id":"5a1cd899-4e0d-4ee6-833d-d3757b812ef0","system_id":"levelo_inurba_marseille","lat":43.25599,"lon":5.38261,"is_reserved":false,"is_disabled":false,"rental_uris":{"android":"levelo://app?vid=5a1cd899-4e0d-4ee6-833d-d3757b812ef0","ios":"levelo://app?vid=5a1cd899-4e0d-4ee6-833d-d3757b812ef0"},"vehicle_type_id":"4","last_reported":1742411283,"current_range_meters":3200,"station_id":"ce4bhih2rcd13ifvqfs0","pricing_plan_id":"cebpf4jnsgd1na2vs0mg"},{"bike_id":"b50fd3af-5f4a-42ff-bbce-84ec6219a441","system_id":"levelo_inurba_marseille","lat":43.2409,"lon":5.37741,"is_reserved":false,"is_disabled":false,"rental_uris":{"android":"levelo://app?vid=b50fd3af-5f4a-42ff-bbce-84ec6219a441","ios":"levelo://app?vid=b50fd3af-5f4a-42ff-bbce-84ec6219a441"},"vehicle_type_id":"4","last_reported":1742411283,"current_range_meters":1200,"station_id":"ce4bhnp2rcd13ifvqgvg","pricing_plan_id":"cebpf4jnsgd1na2vs0mg"},{"bike_id":"73538fb0-9c1d-48fb-8c58-c339cb78b628","system_id":"levelo_inurba_marseille","lat":43.26574,"lon":5.39005,"is_reserved":false,"is_disabled":false,"rental_uris":{"android":"levelo://app?vid=73538fb0-9c1d-48fb-8c58-c339cb78b628","ios":"levelo://app?vid=73538fb0-9c1d-48fb-8c58-c339cb78b628"},"vehicle_type_id":"4","last_reported":1742411283,"current_range_meters":3200,"station_id":"ce4bhe12rcd13ifvqf30","pricing_plan_id":"cebpf4jnsgd1na2vs0mg"},{"bike_id":"bc684fb0-b3cc-485b-a02f-cf532253de5c","system_id":"levelo_inurba_marseille","lat":43.25586,"lon":5.3827,"is_reserved":false,"is_disabled":false,"rental_uris":{"android":"levelo://app?vid=bc684fb0-b3cc-485b-a02f-cf532253de5c","ios":"levelo://app?vid=bc684fb0-b3cc-485b-a02f-cf532253de5c"},"vehicle_type_id":"4","last_reported":1742411283,"current_range_meters":3200,"station_id":"ce4bhih2rcd13ifvqfs0","pricing_plan_id":"cebpf4jnsgd1na2vs0mg"},{"bike_id":"4f6d11f4-8d23-4e35-8c59-e818e64ce7ab","system_id":"levelo_inurba_marseille","lat":43.29528,"lon":5.43899,"is_reserved":false,"is_disabled":false,"rental_uris":{"android":"levelo://app?vid=4f6d11f4-8d23-4e35-8c59-e818e64ce7ab","ios":"levelo://app?vid=4f6d11f4-8d23-4e35-8c59-e818e64ce7ab"},"vehicle_type_id":"4","last_reported":1742411283,"current_range_meters":3200,"station_id":"","pricing_plan_id":"cebpf4jnsgd1na2vs0mg"},{"bike_id":"8a2aee9f-027f-415a-9d5c-83912e4bbe0d","system_id":"levelo_inurba_marseille","lat":43.31767,"lon":5.3904,"is_reserved":false,"is_disabled":false,"rental_uris":{"android":"levelo://app?vid=8a2aee9f-027f-415a-9d5c-83912e4bbe0d","ios":"levelo://app?vid=8a2aee9f-027f-415a-9d5c-83912e4bbe0d"},"vehicle_type_id":"4","last_reported":1742411283,"current_range_meters":3200,"station_id":"ce4bhqp2rcd13ifvqhng","pricing_plan_id":"cebpf4jnsgd1na2vs0mg"},{"bike_id":"f0e5c236-df92-45cf-9f90-30236736fe50","system_id":"levelo_inurba_marseille","lat":43.26204,"lon":5.37933,"is_reserved":false,"is_disabled":false,"rental_uris":{"android":"levelo://app?vid=f0e5c236-df92-45cf-9f90-30236736fe50","ios":"levelo://app?vid=f0e5c236-df92-45cf-9f90-30236736fe50"},"vehicle_type_id":"4","last_reported":1742411283,"current_range_meters":2800,"station_id":"ce4bhjp2rcd13ifvqg90","pricing_plan_id":"cebpf4jnsgd1na2vs0mg"},{"bike_id":"3aea41c8-26f6-4b95-b0a4-a203fabe2e4e","system_id":"levelo_inurba_marseille","lat":43.23207,"lon":5.35533,"is_reserved":false,"is_disabled":false,"rental_uris":{"android":"levelo://app?vid=3aea41c8-26f6-4b95-b0a4-a203fabe2e4e","ios":"levelo://app?vid=3aea41c8-26f6-4b95-b0a4-a203fabe2e4e"},"vehicle_type_id":"4","last_reported":1742411283,"current_range_meters":3200,"station_id":"ce4bhu92rcd13ifvqi70","pricing_plan_id":"cebpf4jnsgd1na2vs0mg"},{"bike_id":"6368f354-6da7-4884-a394-062f1a963ed6","system_id":"levelo_inurba_marseille","lat":43.29283,"lon":5.42813,"is_reserved":false,"is_disabled":false,"rental_uris":{"android":"levelo://app?vid=6368f354-6da7-4884-a394-062f1a963ed6","ios":"levelo://app?vid=6368f354-6da7-4884-a394-062f1a963ed6"},"vehicle_type_id":"4","last_reported":1742411283,"current_range_meters":3200,"station_id":"","pricing_plan_id":"cebpf4jnsgd1na2vs0mg"},{"bike_id":"9ae796bc-d523-4ae2-81a3-e354f3f71109","system_id":"levelo_inurba_marseille","lat":43.32328,"lon":5.38902,"is_reserved":false,"is_disabled":false,"rental_uris":{"android":"levelo://app?vid=9ae796bc-d523-4ae2-81a3-e354f3f71109","ios":"levelo://app?vid=9ae796bc-d523-4ae2-81a3-e354f3f71109"},"vehicle_type_id":"4","last_reported":1742411283,"current_range_meters":3600,"station_id":"ce4bhqp2rcd13ifvqhog","pricing_plan_id":"cebpf4jnsgd1na2vs0mg"},{"bike_id":"287397f1-301a-46cd-a566-760697ced275","system_id":"levelo_inurba_marseille","lat":43.28154,"lon":5.42667,"is_reserved":false,"is_disabled":false,"rental_uris":{"android":"levelo://app?vid=287397f1-301a-46cd-a566-760697ced275","ios":"levelo://app?vid=287397f1-301a-46cd-a566-760697ced275"},"vehicle_type_id":"4","last_reported":1742411283,"current_range_meters":3600,"station_id":"ce4bhnh2rcd13ifvqgug","pricing_plan_id":"cebpf4jnsgd1na2vs0mg"},{"bike_id":"e582d1fe-4879-4f27-8671-77ca2ba0d27e","system_id":"levelo_inurba_marseille","lat":43.24762,"lon":5.37449,"is_reserved":false,"is_disabled":false,"rental_uris":{"android":"levelo://app?vid=e582d1fe-4879-4f27-8671-77ca2ba0d27e","ios":"levelo://app?vid=e582d1fe-4879-4f27-8671-77ca2ba0d27e"},"vehicle_type_id":"4","last_reported":1742411283,"current_range_meters":3600,"station_id":"ce4bhgh2rcd13ifvqfb0","pricing_plan_id":"cebpf4jnsgd1na2vs0mg"},{"bike_id":"069193f3-f6a6-4386-ad77-afcc65018eac","system_id":"levelo_inurba_marseille","lat":43.3065,"lon":5.401,"is_reserved":false,"is_disabled":false,"rental_uris":{"android":"levelo://app?vid=069193f3-f6a6-4386-ad77-afcc65018eac","ios":"levelo://app?vid=069193f3-f6a6-4386-ad77-afcc65018eac"},"vehicle_type_id":"4","last_reported":1742411283,"current_range_meters":800,"station_id":"ce4bh112rcd13ifvqda0","pricing_plan_id":"cebpf4jnsgd1na2vs0mg"},{"bike_id":"b059d35a-c3ea-442d-8093-556e2da7b96b","system_id":"levelo_inurba_marseille","lat":43.26576,"lon":5.39007,"is_reserved":false,"is_disabled":false,"rental_uris":{"android":"levelo://app?vid=b059d35a-c3ea-442d-8093-556e2da7b96b","ios":"levelo://app?vid=b059d35a-c3ea-442d-8093-556e2da7b96b"},"vehicle_type_id":"4","last_reported":1742411283,"current_range_meters":3600,"station_id":"ce4bhe12rcd13ifvqf30","pricing_plan_id":"cebpf4jnsgd1na2vs0mg"},{"bike_id":"7be357ca-49f9-45d6-a962-754132a73fd4","system_id":"levelo_inurba_marseille","lat":43.30428,"lon":5.41287,"is_reserved":false,"is_disabled":false,"rental_uris":{"android":"levelo://app?vid=7be357ca-49f9-45d6-a962-754132a73fd4","ios":"levelo://app?vid=7be357ca-49f9-45d6-a962-754132a73fd4"},"vehicle_type_id":"4","last_reported":1742411283,"current_range_meters":3600,"station_id":"ce4bhop2rcd13ifvqh8g","pricing_plan_id":"cebpf4jnsgd1na2vs0mg"},{"bike_id":"3184137b-bd88-4a39-a5a1-f224b75e8760","system_id":"levelo_inurba_marseille","lat":43.29965,"lon":5.38496,"is_reserved":false,"is_disabled":false,"rental_uris":{"android":"levelo://app?vid=3184137b-bd88-4a39-a5a1-f224b75e8760","ios":"levelo://app?vid=3184137b-bd88-4a39-a5a1-f224b75e8760"},"vehicle_type_id":"4","last_reported":1742411283,"current_range_meters":3600,"station_id":"ce4bgj92rcd13ifvqbd0","pricing_plan_id":"cebpf4jnsgd1na2vs0mg"},{"bike_id":"d835339a-815c-4f2d-bc5f-06df97638758","system_id":"levelo_inurba_marseille","lat":43.31387,"lon":5.38585,"is_reserved":false,"is_disabled":false,"rental_uris":{"android":"levelo://app?vid=d835339a-815c-4f2d-bc5f-06df97638758","ios":"levelo://app?vid=d835339a-815c-4f2d-bc5f-06df97638758"},"vehicle_type_id":"4","last_reported":1742411283,"current_range_meters":3600,"station_id":"","pricing_plan_id":"cebpf4jnsgd1na2vs0mg"},{"bike_id":"18fd64b8-2336-4ce9-8d1f-43452767bf25","system_id":"levelo_inurba_marseille","lat":43.30641,"lon":5.40099,"is_reserved":false,"is_disabled":false,"rental_uris":{"android":"levelo://app?vid=18fd64b8-2336-4ce9-8d1f-43452767bf25","ios":"levelo://app?vid=18fd64b8-2336-4ce9-8d1f-43452767bf25"},"vehicle_type_id":"4","last_reported":1742411283,"current_range_meters":3600,"station_id":"ce4bh112rcd13ifvqda0","pricing_plan_id":"cebpf4jnsgd1na2vs0mg"},{"bike_id":"97820cc4-93f7-472f-a6a3-bb0b3708ecd1","system_id":"levelo_inurba_marseille","lat":43.26553,"lon":5.3729,"is_reserved":false,"is_disabled":true,"rental_uris":{"android":"levelo://app?vid=97820cc4-93f7-472f-a6a3-bb0b3708ecd1","ios":"levelo://app?vid=97820cc4-93f7-472f-a6a3-bb0b3708ecd1"},"vehicle_type_id":"4","last_reported":1742411283,"current_range_meters":4000,"station_id":"ce4bhg12rcd13ifvqf70","pricing_plan_id":"cebpf4jnsgd1na2vs0mg"},{"bike_id":"ba86a560-2ccc-4610-a643-5c7333cfc032","system_id":"levelo_inurba_marseille","lat":43.28616,"lon":5.3511,"is_reserved":false,"is_disabled":true,"rental_uris":{"android":"levelo://app?vid=ba86a560-2ccc-4610-a643-5c7333cfc032","ios":"levelo://app?vid=ba86a560-2ccc-4610-a643-5c7333cfc032"},"vehicle_type_id":"4","last_reported":1742411283,"current_range_meters":4000,"station_id":"ce4bhch2rcd13ifvqeug","pricing_plan_id":"cebpf4jnsgd1na2vs0mg"},{"bike_id":"ee653d05-29ad-46b8-8f1d-e8e3963578bf","system_id":"levelo_inurba_marseille","lat":43.24391,"lon":5.3706,"is_reserved":false,"is_disabled":false,"rental_uris":{"android":"levelo://app?vid=ee653d05-29ad-46b8-8f1d-e8e3963578bf","ios":"levelo://app?vid=ee653d05-29ad-46b8-8f1d-e8e3963578bf"},"vehicle_type_id":"4","last_reported":1742411283,"current_range_meters":4000,"station_id":"ce4bhhh2rcd13ifvqfk0","pricing_plan_id":"cebpf4jnsgd1na2vs0mg"},{"bike_id":"280966b2-702a-4dce-8663-d279a359d7c1","system_id":"levelo_inurba_marseille","lat":43.31079,"lon":5.38367,"is_reserved":false,"is_disabled":false,"rental_uris":{"android":"levelo://app?vid=280966b2-702a-4dce-8663-d279a359d7c1","ios":"levelo://app?vid=280966b2-702a-4dce-8663-d279a359d7c1"},"vehicle_type_id":"4","last_reported":1742411283,"current_range_meters":4000,"station_id":"ce4bgv92rcd13ifvqcr0","pricing_plan_id":"cebpf4jnsgd1na2vs0mg"},{"bike_id":"ce31b160-7e8a-4225-be11-fe712cc3aa10","system_id":"levelo_inurba_marseille","lat":43.28873,"lon":5.39314,"is_reserved":false,"is_disabled":false,"rental_uris":{"android":"levelo://app?vid=ce31b160-7e8a-4225-be11-fe712cc3aa10","ios":"levelo://app?vid=ce31b160-7e8a-4225-be11-fe712cc3aa10"},"vehicle_type_id":"4","last_reported":1742411283,"current_range_meters":4000,"station_id":"ce4bh2p2rcd13ifvqdi0","pricing_plan_id":"cebpf4jnsgd1na2vs0mg"},{"bike_id":"170eaec0-9d26-4e46-ae13-fe1d46568ce9","system_id":"levelo_inurba_marseille","lat":43.280212,"lon":5.400435,"is_reserved":false,"is_disabled":false,"rental_uris":{"android":"levelo://app?vid=170eaec0-9d26-4e46-ae13-fe1d46568ce9","ios":"levelo://app?vid=170eaec0-9d26-4e46-ae13-fe1d46568ce9"},"vehicle_type_id":"4","last_reported":1742411283,"current_range_meters":4000,"station_id":"ce4bho92rcd13ifvqh4g","pricing_plan_id":"cebpf4jnsgd1na2vs0mg"},{"bike_id":"d124e5b8-4768-45b7-8a7a-97197d5ad01a","system_id":"levelo_inurba_marseille","lat":43.28162,"lon":5.42653,"is_reserved":false,"is_disabled":false,"rental_uris":{"android":"levelo://app?vid=d124e5b8-4768-45b7-8a7a-97197d5ad01a","ios":"levelo://app?vid=d124e5b8-4768-45b7-8a7a-97197d5ad01a"},"vehicle_type_id":"4","last_reported":1742411283,"current_range_meters":4400,"station_id":"ce4bhnh2rcd13ifvqgug","pricing_plan_id":"cebpf4jnsgd1na2vs0mg"},{"bike_id":"65f2e387-3d15-4850-beb7-26b206f9b3c5","system_id":"levelo_inurba_marseille","lat":43.2904,"lon":5.38154,"is_reserved":false,"is_disabled":false,"rental_uris":{"android":"levelo://app?vid=65f2e387-3d15-4850-beb7-26b206f9b3c5","ios":"levelo://app?vid=65f2e387-3d15-4850-beb7-26b206f9b3c5"},"vehicle_type_id":"4","last_reported":1742411283,"current_range_meters":4400,"station_id":"ce4bh4p2rcd13ifvqe1g","pricing_plan_id":"cebpf4jnsgd1na2vs0mg"},{"bike_id":"433e4a7d-2413-4449-bd14-1b64f2b6aab4","system_id":"levelo_inurba_marseille","lat":43.24822,"lon":5.37435,"is_reserved":false,"is_disabled":false,"rental_uris":{"android":"levelo://app?vid=433e4a7d-2413-4449-bd14-1b64f2b6aab4","ios":"levelo://app?vid=433e4a7d-2413-4449-bd14-1b64f2b6aab4"},"vehicle_type_id":"4","last_reported":1742411283,"current_range_meters":4400,"station_id":"ce4bhgh2rcd13ifvqfb0","pricing_plan_id":"cebpf4jnsgd1na2vs0mg"},{"bike_id":"1a4580d6-8a2e-434e-8afa-4c672588fbf5","system_id":"levelo_inurba_marseille","lat":43.29616,"lon":5.38107,"is_reserved":false,"is_disabled":false,"rental_uris":{"android":"levelo://app?vid=1a4580d6-8a2e-434e-8afa-4c672588fbf5","ios":"levelo://app?vid=1a4580d6-8a2e-434e-8afa-4c672588fbf5"},"vehicle_type_id":"4","last_reported":1742411283,"current_range_meters":4400,"station_id":"ce4bgl12rcd13ifvqbo0","pricing_plan_id":"cebpf4jnsgd1na2vs0mg"},{"bike_id":"a24eed54-6587-4320-af03-d015940e3b38","system_id":"levelo_inurba_marseille","lat":43.31761,"lon":5.39006,"is_reserved":false,"is_disabled":false,"rental_uris":{"android":"levelo://app?vid=a24eed54-6587-4320-af03-d015940e3b38","ios":"levelo://app?vid=a24eed54-6587-4320-af03-d015940e3b38"},"vehicle_type_id":"4","last_reported":1742411283,"current_range_meters":4400,"station_id":"ce4bhqp2rcd13ifvqhng","pricing_plan_id":"cebpf4jnsgd1na2vs0mg"},{"bike_id":"1ab08012-4af8-4039-9d45-984fe3288201","system_id":"levelo_inurba_marseille","lat":43.29196,"lon":5.39329,"is_reserved":false,"is_disabled":false,"rental_uris":{"android":"levelo://app?vid=1ab08012-4af8-4039-9d45-984fe3288201","ios":"levelo://app?vid=1ab08012-4af8-4039-9d45-984fe3288201"},"vehicle_type_id":"4","last_reported":1742411283,"current_range_meters":4400,"station_id":"ce4bh192rcd13ifvqdd0","pricing_plan_id":"cebpf4jnsgd1na2vs0mg"},{"bike_id":"13c50ce8-ac37-403c-9a91-fd3d918d2a4f","system_id":"levelo_inurba_marseille","lat":43.27823,"lon":5.40713,"is_reserved":false,"is_disabled":false,"rental_uris":{"android":"levelo://app?vid=13c50ce8-ac37-403c-9a91-fd3d918d2a4f","ios":"levelo://app?vid=13c50ce8-ac37-403c-9a91-fd3d918d2a4f"},"vehicle_type_id":"4","last_reported":1742411283,"current_range_meters":4400,"station_id":"ce4bhnh2rcd13ifvqgtg","pricing_plan_id":"cebpf4jnsgd1na2vs0mg"},{"bike_id":"6e836711-e185-438e-a5b9-e188bca9d9fe","system_id":"levelo_inurba_marseille","lat":43.23191,"lon":5.39997,"is_reserved":false,"is_disabled":false,"rental_uris":{"android":"levelo://app?vid=6e836711-e185-438e-a5b9-e188bca9d9fe","ios":"levelo://app?vid=6e836711-e185-438e-a5b9-e188bca9d9fe"},"vehicle_type_id":"4","last_reported":1742411283,"current_range_meters":4400,"station_id":"ce4bhn12rcd13ifvqgqg","pricing_plan_id":"cebpf4jnsgd1na2vs0mg"},{"bike_id":"dfd4787a-8f83-47ad-9e31-85c3f8ce5b3f","system_id":"levelo_inurba_marseille","lat":43.24823,"lon":5.37438,"is_reserved":false,"is_disabled":false,"rental_uris":{"android":"levelo://app?vid=dfd4787a-8f83-47ad-9e31-85c3f8ce5b3f","ios":"levelo://app?vid=dfd4787a-8f83-47ad-9e31-85c3f8ce5b3f"},"vehicle_type_id":"4","last_reported":1742411283,"current_range_meters":4800,"station_id":"ce4bhgh2rcd13ifvqfb0","pricing_plan_id":"cebpf4jnsgd1na2vs0mg"},{"bike_id":"55e8ed10-daa2-413a-980d-6a6eb45a229d","system_id":"levelo_inurba_marseille","lat":43.28371,"lon":5.38656,"is_reserved":false,"is_disabled":false,"rental_uris":{"android":"levelo://app?vid=55e8ed10-daa2-413a-980d-6a6eb45a229d","ios":"levelo://app?vid=55e8ed10-daa2-413a-980d-6a6eb45a229d"},"vehicle_type_id":"4","last_reported":1742411283,"current_range_meters":4800,"station_id":"ce4bh492rcd13ifvqdvg","pricing_plan_id":"cebpf4jnsgd1na2vs0mg"},{"bike_id":"5f39953e-4fef-4ce9-a79c-30e7d9af2e57","system_id":"levelo_inurba_marseille","lat":43.28724,"lon":5.36096,"is_reserved":false,"is_disabled":false,"rental_uris":{"android":"levelo://app?vid=5f39953e-4fef-4ce9-a79c-30e7d9af2e57","ios":"levelo://app?vid=5f39953e-4fef-4ce9-a79c-30e7d9af2e57"},"vehicle_type_id":"4","last_reported":1742411283,"current_range_meters":4800,"station_id":"cki0cbj6b192h4jlfktg","pricing_plan_id":"cebpf4jnsgd1na2vs0mg"},{"bike_id":"d2c1a11c-d057-43f0-b13a-fdac85636ab1","system_id":"levelo_inurba_marseille","lat":43.28953,"lon":5.36412,"is_reserved":false,"is_disabled":false,"rental_uris":{"android":"levelo://app?vid=d2c1a11c-d057-43f0-b13a-fdac85636ab1","ios":"levelo://app?vid=d2c1a11c-d057-43f0-b13a-fdac85636ab1"},"vehicle_type_id":"4","last_reported":1742411283,"current_range_meters":5600,"station_id":"ce4bhc92rcd13ifvqetg","pricing_plan_id":"cebpf4jnsgd1na2vs0mg"},{"bike_id":"4ab60c3c-0e31-4a02-9d5f-acb594ff22ad","system_id":"levelo_inurba_marseille","lat":43.29901,"lon":5.37482,"is_reserved":false,"is_disabled":true,"rental_uris":{"android":"levelo://app?vid=4ab60c3c-0e31-4a02-9d5f-acb594ff22ad","ios":"levelo://app?vid=4ab60c3c-0e31-4a02-9d5f-acb594ff22ad"},"vehicle_type_id":"4","last_reported":1742411283,"current_range_meters":5600,"station_id":"ce4bgjh2rcd13ifvqbg0","pricing_plan_id":"cebpf4jnsgd1na2vs0mg"},{"bike_id":"5da21120-765c-493a-addc-469da6f3f383","system_id":"levelo_inurba_marseille","lat":43.30846,"lon":5.37504,"is_reserved":false,"is_disabled":false,"rental_uris":{"android":"levelo://app?vid=5da21120-765c-493a-addc-469da6f3f383","ios":"levelo://app?vid=5da21120-765c-493a-addc-469da6f3f383"},"vehicle_type_id":"4","last_reported":1742411283,"current_range_meters":5600,"station_id":"","pricing_plan_id":"cebpf4jnsgd1na2vs0mg"},{"bike_id":"49a665a6-492f-4035-8e5c-b509b662cae2","system_id":"levelo_inurba_marseille","lat":43.27819,"lon":5.40717,"is_reserved":false,"is_disabled":false,"rental_uris":{"android":"levelo://app?vid=49a665a6-492f-4035-8e5c-b509b662cae2","ios":"levelo://app?vid=49a665a6-492f-4035-8e5c-b509b662cae2"},"vehicle_type_id":"4","last_reported":1742411283,"current_range_meters":5600,"station_id":"ce4bhnh2rcd13ifvqgtg","pricing_plan_id":"cebpf4jnsgd1na2vs0mg"},{"bike_id":"ba59b005-75fe-4eba-b561-bbe291edc68c","system_id":"levelo_inurba_marseille","lat":43.28348,"lon":5.38101,"is_reserved":false,"is_disabled":false,"rental_uris":{"android":"levelo://app?vid=ba59b005-75fe-4eba-b561-bbe291edc68c","ios":"levelo://app?vid=ba59b005-75fe-4eba-b561-bbe291edc68c"},"vehicle_type_id":"4","last_reported":1742411283,"current_range_meters":5600,"station_id":"ce4bh412rcd13ifvqdr0","pricing_plan_id":"cebpf4jnsgd1na2vs0mg"},{"bike_id":"b64597d3-d67d-4e6b-ad9a-0f911b85bb45","system_id":"levelo_inurba_marseille","lat":43.2927,"lon":5.38436,"is_reserved":false,"is_disabled":false,"rental_uris":{"android":"levelo://app?vid=b64597d3-d67d-4e6b-ad9a-0f911b85bb45","ios":"levelo://app?vid=b64597d3-d67d-4e6b-ad9a-0f911b85bb45"},"vehicle_type_id":"4","last_reported":1742411283,"current_range_meters":5600,"station_id":"ce4bh692rcd13ifvqea0","pricing_plan_id":"cebpf4jnsgd1na2vs0mg"},{"bike_id":"a73e357e-3db4-4251-9a76-7c174c89eaa5","system_id":"levelo_inurba_marseille","lat":43.254852,"lon":5.376466,"is_reserved":false,"is_disabled":false,"rental_uris":{"android":"levelo://app?vid=a73e357e-3db4-4251-9a76-7c174c89eaa5","ios":"levelo://app?vid=a73e357e-3db4-4251-9a76-7c174c89eaa5"},"vehicle_type_id":"4","last_reported":1742411283,"current_range_meters":5600,"station_id":"ce4bhh12rcd13ifvqff0","pricing_plan_id":"cebpf4jnsgd1na2vs0mg"},{"bike_id":"61e9e054-76f7-4ae3-8d7b-f656c2a86204","system_id":"levelo_inurba_marseille","lat":43.29237,"lon":5.36084,"is_reserved":false,"is_disabled":false,"rental_uris":{"android":"levelo://app?vid=61e9e054-76f7-4ae3-8d7b-f656c2a86204","ios":"levelo://app?vid=61e9e054-76f7-4ae3-8d7b-f656c2a86204"},"vehicle_type_id":"4","last_reported":1742411283,"current_range_meters":5600,"station_id":"ce4bhbh2rcd13ifvqeqg","pricing_plan_id":"cebpf4jnsgd1na2vs0mg"},{"bike_id":"dd8419bd-cf17-4608-999b-08aad10dc248","system_id":"levelo_inurba_marseille","lat":43.27835,"lon":5.392,"is_reserved":false,"is_disabled":false,"rental_uris":{"android":"levelo://app?vid=dd8419bd-cf17-4608-999b-08aad10dc248","ios":"levelo://app?vid=dd8419bd-cf17-4608-999b-08aad10dc248"},"vehicle_type_id":"4","last_reported":1742411283,"current_range_meters":5600,"station_id":"ce4bhjp2rcd13ifvqga0","pricing_plan_id":"cebpf4jnsgd1na2vs0mg"},{"bike_id":"2fc9495d-c829-4229-a4db-5c8674880d7a","system_id":"levelo_inurba_marseille","lat":43.23069,"lon":5.35469,"is_reserved":false,"is_disabled":false,"rental_uris":{"android":"levelo://app?vid=2fc9495d-c829-4229-a4db-5c8674880d7a","ios":"levelo://app?vid=2fc9495d-c829-4229-a4db-5c8674880d7a"},"vehicle_type_id":"4","last_reported":1742411283,"current_range_meters":5600,"station_id":"cpo3342slgdg3j2ifvpg","pricing_plan_id":"cebpf4jnsgd1na2vs0mg"},{"bike_id":"b627c9ad-3c9c-4e71-ac51-64e10127430c","system_id":"levelo_inurba_marseille","lat":43.27898,"lon":5.38009,"is_reserved":false,"is_disabled":false,"rental_uris":{"android":"levelo://app?vid=b627c9ad-3c9c-4e71-ac51-64e10127430c","ios":"levelo://app?vid=b627c9ad-3c9c-4e71-ac51-64e10127430c"},"vehicle_type_id":"4","last_reported":1742411283,"current_range_meters":6000,"station_id":"ce4bhf92rcd13ifvqf50","pricing_plan_id":"cebpf4jnsgd1na2vs0mg"},{"bike_id":"01c99056-5f66-456b-85d4-413f7f155469","system_id":"levelo_inurba_marseille","lat":43.29983,"lon":5.37176,"is_reserved":false,"is_disabled":false,"rental_uris":{"android":"levelo://app?vid=01c99056-5f66-456b-85d4-413f7f155469","ios":"levelo://app?vid=01c99056-5f66-456b-85d4-413f7f155469"},"vehicle_type_id":"4","last_reported":1742411283,"current_range_meters":6400,"station_id":"ce4bgr92rcd13ifvqc7g","pricing_plan_id":"cebpf4jnsgd1na2vs0mg"},{"bike_id":"6ae6f76c-6a01-4d75-9d3f-dfa610803a78","system_id":"levelo_inurba_marseille","lat":43.23077,"lon":5.35484,"is_reserved":false,"is_disabled":false,"rental_uris":{"android":"levelo://app?vid=6ae6f76c-6a01-4d75-9d3f-dfa610803a78","ios":"levelo://app?vid=6ae6f76c-6a01-4d75-9d3f-dfa610803a78"},"vehicle_type_id":"4","last_reported":1742411283,"current_range_meters":6000,"station_id":"cpo3342slgdg3j2ifvpg","pricing_plan_id":"cebpf4jnsgd1na2vs0mg"},{"bike_id":"c849e512-8241-40ea-82b7-ef1c1b5cdc02","system_id":"levelo_inurba_marseille","lat":43.26044,"lon":5.39404,"is_reserved":false,"is_disabled":false,"rental_uris":{"android":"levelo://app?vid=c849e512-8241-40ea-82b7-ef1c1b5cdc02","ios":"levelo://app?vid=c849e512-8241-40ea-82b7-ef1c1b5cdc02"},"vehicle_type_id":"4","last_reported":1742411283,"current_range_meters":6000,"station_id":"ce4bhh92rcd13ifvqfj0","pricing_plan_id":"cebpf4jnsgd1na2vs0mg"},{"bike_id":"41ccd72c-504a-4b33-907d-e3b6bd114bcb","system_id":"levelo_inurba_marseille","lat":43.23213,"lon":5.35535,"is_reserved":false,"is_disabled":false,"rental_uris":{"android":"levelo://app?vid=41ccd72c-504a-4b33-907d-e3b6bd114bcb","ios":"levelo://app?vid=41ccd72c-504a-4b33-907d-e3b6bd114bcb"},"vehicle_type_id":"4","last_reported":1742411283,"current_range_meters":6000,"station_id":"ce4bhu92rcd13ifvqi70","pricing_plan_id":"cebpf4jnsgd1na2vs0mg"},{"bike_id":"b8f005ce-dd22-490d-aa51-8c2089bf6f7b","system_id":"levelo_inurba_marseille","lat":43.29274,"lon":5.36832,"is_reserved":false,"is_disabled":false,"rental_uris":{"android":"levelo://app?vid=b8f005ce-dd22-490d-aa51-8c2089bf6f7b","ios":"levelo://app?vid=b8f005ce-dd22-490d-aa51-8c2089bf6f7b"},"vehicle_type_id":"4","last_reported":1742411283,"current_range_meters":6000,"station_id":"ce4bhbp2rcd13ifvqesg","pricing_plan_id":"cebpf4jnsgd1na2vs0mg"},{"bike_id":"2e1119ec-9588-4bef-957f-8e0f78d7c894","system_id":"levelo_inurba_marseille","lat":43.31165,"lon":5.38715,"is_reserved":false,"is_disabled":false,"rental_uris":{"android":"levelo://app?vid=2e1119ec-9588-4bef-957f-8e0f78d7c894","ios":"levelo://app?vid=2e1119ec-9588-4bef-957f-8e0f78d7c894"},"vehicle_type_id":"4","last_reported":1742411283,"current_range_meters":6000,"station_id":"ce4bgv12rcd13ifvqcp0","pricing_plan_id":"cebpf4jnsgd1na2vs0mg"},{"bike_id":"704bac85-0999-494b-ab70-f77e05470586","system_id":"levelo_inurba_marseille","lat":43.2794,"lon":5.41044,"is_reserved":false,"is_disabled":false,"rental_uris":{"android":"levelo://app?vid=704bac85-0999-494b-ab70-f77e05470586","ios":"levelo://app?vid=704bac85-0999-494b-ab70-f77e05470586"},"vehicle_type_id":"4","last_reported":1742411283,"current_range_meters":6000,"station_id":"ce4bhnp2rcd13ifvqh0g","pricing_plan_id":"cebpf4jnsgd1na2vs0mg"},{"bike_id":"ea28acd0-36df-4e22-930e-210ae842664e","system_id":"levelo_inurba_marseille","lat":43.24658,"lon":5.3889,"is_reserved":false,"is_disabled":false,"rental_uris":{"android":"levelo://app?vid=ea28acd0-36df-4e22-930e-210ae842664e","ios":"levelo://app?vid=ea28acd0-36df-4e22-930e-210ae842664e"},"vehicle_type_id":"4","last_reported":1742411283,"current_range_meters":6000,"station_id":"ce4bhg12rcd13ifvqf60","pricing_plan_id":"cebpf4jnsgd1na2vs0mg"},{"bike_id":"0b60e72b-d8b1-4266-9b63-b94b87c1ad4b","system_id":"levelo_inurba_marseille","lat":43.23195,"lon":5.39984,"is_reserved":false,"is_disabled":false,"rental_uris":{"android":"levelo://app?vid=0b60e72b-d8b1-4266-9b63-b94b87c1ad4b","ios":"levelo://app?vid=0b60e72b-d8b1-4266-9b63-b94b87c1ad4b"},"vehicle_type_id":"4","last_reported":1742411283,"current_range_meters":6400,"station_id":"ce4bhn12rcd13ifvqgqg","pricing_plan_id":"cebpf4jnsgd1na2vs0mg"},{"bike_id":"c1ccf0a5-89fe-4d49-a5d7-808fb720c652","system_id":"levelo_inurba_marseille","lat":43.26041,"lon":5.41721,"is_reserved":false,"is_disabled":false,"rental_uris":{"android":"levelo://app?vid=c1ccf0a5-89fe-4d49-a5d7-808fb720c652","ios":"levelo://app?vid=c1ccf0a5-89fe-4d49-a5d7-808fb720c652"},"vehicle_type_id":"4","last_reported":1742411283,"current_range_meters":6400,"station_id":"","pricing_plan_id":"cebpf4jnsgd1na2vs0mg"},{"bike_id":"534ac748-eb2d-4a57-a0d9-68a966fdc280","system_id":"levelo_inurba_marseille","lat":43.28154,"lon":5.42645,"is_reserved":false,"is_disabled":false,"rental_uris":{"android":"levelo://app?vid=534ac748-eb2d-4a57-a0d9-68a966fdc280","ios":"levelo://app?vid=534ac748-eb2d-4a57-a0d9-68a966fdc280"},"vehicle_type_id":"4","last_reported":1742411283,"current_range_meters":6400,"station_id":"ce4bhnh2rcd13ifvqgug","pricing_plan_id":"cebpf4jnsgd1na2vs0mg"},{"bike_id":"68d4838a-57f2-42cd-a205-c8f2122adcff","system_id":"levelo_inurba_marseille","lat":43.32661,"lon":5.40996,"is_reserved":false,"is_disabled":false,"rental_uris":{"android":"levelo://app?vid=68d4838a-57f2-42cd-a205-c8f2122adcff","ios":"levelo://app?vid=68d4838a-57f2-42cd-a205-c8f2122adcff"},"vehicle_type_id":"4","last_reported":1742411283,"current_range_meters":9600,"station_id":"ce4bhpp2rcd13ifvqhgg","pricing_plan_id":"cebpf4jnsgd1na2vs0mg"},{"bike_id":"5edb3c9d-ffdb-4b2a-b674-17f6a28418bf","system_id":"levelo_inurba_marseille","lat":43.32289,"lon":5.38272,"is_reserved":false,"is_disabled":false,"rental_uris":{"android":"levelo://app?vid=5edb3c9d-ffdb-4b2a-b674-17f6a28418bf","ios":"levelo://app?vid=5edb3c9d-ffdb-4b2a-b674-17f6a28418bf"},"vehicle_type_id":"4","last_reported":1742411283,"current_range_meters":6400,"station_id":"ce4bhr12rcd13ifvqhqg","pricing_plan_id":"cebpf4jnsgd1na2vs0mg"},{"bike_id":"90aec765-5d96-4c4f-ab28-5efd4b0bd31c","system_id":"levelo_inurba_marseille","lat":43.28929,"lon":5.3839,"is_reserved":false,"is_disabled":false,"rental_uris":{"android":"levelo://app?vid=90aec765-5d96-4c4f-ab28-5efd4b0bd31c","ios":"levelo://app?vid=90aec765-5d96-4c4f-ab28-5efd4b0bd31c"},"vehicle_type_id":"4","last_reported":1742411283,"current_range_meters":6400,"station_id":"ce4bh612rcd13ifvqe6g","pricing_plan_id":"cebpf4jnsgd1na2vs0mg"},{"bike_id":"e8cc8a2b-d028-4330-b4f3-4606e4f04fbb","system_id":"levelo_inurba_marseille","lat":43.31077,"lon":5.38353,"is_reserved":false,"is_disabled":false,"rental_uris":{"android":"levelo://app?vid=e8cc8a2b-d028-4330-b4f3-4606e4f04fbb","ios":"levelo://app?vid=e8cc8a2b-d028-4330-b4f3-4606e4f04fbb"},"vehicle_type_id":"4","last_reported":1742411283,"current_range_meters":6400,"station_id":"ce4bgv92rcd13ifvqcr0","pricing_plan_id":"cebpf4jnsgd1na2vs0mg"},{"bike_id":"b47c0c36-c47a-4e66-b1a3-2a64c290a37c","system_id":"levelo_inurba_marseille","lat":43.27817,"lon":5.40716,"is_reserved":false,"is_disabled":false,"rental_uris":{"android":"levelo://app?vid=b47c0c36-c47a-4e66-b1a3-2a64c290a37c","ios":"levelo://app?vid=b47c0c36-c47a-4e66-b1a3-2a64c290a37c"},"vehicle_type_id":"4","last_reported":1742411283,"current_range_meters":6400,"station_id":"ce4bhnh2rcd13ifvqgtg","pricing_plan_id":"cebpf4jnsgd1na2vs0mg"},{"bike_id":"3971f77a-b88d-4f35-bb02-cd0729f773be","system_id":"levelo_inurba_marseille","lat":43.25828,"lon":5.39421,"is_reserved":false,"is_disabled":false,"rental_uris":{"android":"levelo://app?vid=3971f77a-b88d-4f35-bb02-cd0729f773be","ios":"levelo://app?vid=3971f77a-b88d-4f35-bb02-cd0729f773be"},"vehicle_type_id":"4","last_reported":1742411283,"current_range_meters":6400,"station_id":"ce4bhip2rcd13ifvqft0","pricing_plan_id":"cebpf4jnsgd1na2vs0mg"},{"bike_id":"687f92ca-476d-4b73-9856-5dea25b138f3","system_id":"levelo_inurba_marseille","lat":43.26955,"lon":5.3864,"is_reserved":false,"is_disabled":false,"rental_uris":{"android":"levelo://app?vid=687f92ca-476d-4b73-9856-5dea25b138f3","ios":"levelo://app?vid=687f92ca-476d-4b73-9856-5dea25b138f3"},"vehicle_type_id":"4","last_reported":1742411283,"current_range_meters":6400,"station_id":"ce4bhh92rcd13ifvqfh0","pricing_plan_id":"cebpf4jnsgd1na2vs0mg"},{"bike_id":"59178e30-46d4-43d2-80d4-d1da58ee1f4e","system_id":"levelo_inurba_marseille","lat":43.33028,"lon":5.39049,"is_reserved":false,"is_disabled":false,"rental_uris":{"android":"levelo://app?vid=59178e30-46d4-43d2-80d4-d1da58ee1f4e","ios":"levelo://app?vid=59178e30-46d4-43d2-80d4-d1da58ee1f4e"},"vehicle_type_id":"4","last_reported":1742411283,"current_range_meters":6800,"station_id":"ce4bhr92rcd13ifvqhrg","pricing_plan_id":"cebpf4jnsgd1na2vs0mg"},{"bike_id":"93c8459b-99b3-44b8-ba99-136ecf8bee55","system_id":"levelo_inurba_marseille","lat":43.24815,"lon":5.37467,"is_reserved":false,"is_disabled":false,"rental_uris":{"android":"levelo://app?vid=93c8459b-99b3-44b8-ba99-136ecf8bee55","ios":"levelo://app?vid=93c8459b-99b3-44b8-ba99-136ecf8bee55"},"vehicle_type_id":"4","last_reported":1742411283,"current_range_meters":6800,"station_id":"ce4bhgh2rcd13ifvqfb0","pricing_plan_id":"cebpf4jnsgd1na2vs0mg"},{"bike_id":"361822fa-663c-449d-9c8f-b3dec5b6d89a","system_id":"levelo_inurba_marseille","lat":43.275,"lon":5.4247,"is_reserved":false,"is_disabled":false,"rental_uris":{"android":"levelo://app?vid=361822fa-663c-449d-9c8f-b3dec5b6d89a","ios":"levelo://app?vid=361822fa-663c-449d-9c8f-b3dec5b6d89a"},"vehicle_type_id":"4","last_reported":1742411283,"current_range_meters":6800,"station_id":"ce4bhn92rcd13ifvqgrg","pricing_plan_id":"cebpf4jnsgd1na2vs0mg"},{"bike_id":"ca1c0a28-8faf-435f-9d8b-370c3a07ff34","system_id":"levelo_inurba_marseille","lat":43.24169,"lon":5.36406,"is_reserved":false,"is_disabled":false,"rental_uris":{"android":"levelo://app?vid=ca1c0a28-8faf-435f-9d8b-370c3a07ff34","ios":"levelo://app?vid=ca1c0a28-8faf-435f-9d8b-370c3a07ff34"},"vehicle_type_id":"4","last_reported":1742411283,"current_range_meters":6800,"station_id":"cpo36qri1sfpv3e86is0","pricing_plan_id":"cebpf4jnsgd1na2vs0mg"},{"bike_id":"a342afa1-fe1b-4de5-8f98-f3f81167fac6","system_id":"levelo_inurba_marseille","lat":43.22934,"lon":5.35361,"is_reserved":false,"is_disabled":false,"rental_uris":{"android":"levelo://app?vid=a342afa1-fe1b-4de5-8f98-f3f81167fac6","ios":"levelo://app?vid=a342afa1-fe1b-4de5-8f98-f3f81167fac6"},"vehicle_type_id":"4","last_reported":1742411283,"current_range_meters":6800,"station_id":"cpo3532slgdg3j2ikp40","pricing_plan_id":"cebpf4jnsgd1na2vs0mg"},{"bike_id":"093b5d33-ea09-48e1-8a11-1d4c28602b4f","system_id":"levelo_inurba_marseille","lat":43.28705,"lon":5.39996,"is_reserved":false,"is_disabled":false,"rental_uris":{"android":"levelo://app?vid=093b5d33-ea09-48e1-8a11-1d4c28602b4f","ios":"levelo://app?vid=093b5d33-ea09-48e1-8a11-1d4c28602b4f"},"vehicle_type_id":"4","last_reported":1742411283,"current_range_meters":6800,"station_id":"ce4bho92rcd13ifvqh3g","pricing_plan_id":"cebpf4jnsgd1na2vs0mg"},{"bike_id":"4557e539-e1ea-4680-b967-601a10cfaeff","system_id":"levelo_inurba_marseille","lat":43.28395,"lon":5.3753,"is_reserved":false,"is_disabled":false,"rental_uris":{"android":"levelo://app?vid=4557e539-e1ea-4680-b967-601a10cfaeff","ios":"levelo://app?vid=4557e539-e1ea-4680-b967-601a10cfaeff"},"vehicle_type_id":"4","last_reported":1742411283,"current_range_meters":6800,"station_id":"ce4bh412rcd13ifvqds0","pricing_plan_id":"cebpf4jnsgd1na2vs0mg"},{"bike_id":"297ba900-c4ca-490b-ab94-a47a3412a747","system_id":"levelo_inurba_marseille","lat":43.25872,"lon":5.39895,"is_reserved":false,"is_disabled":false,"rental_uris":{"android":"levelo://app?vid=297ba900-c4ca-490b-ab94-a47a3412a747","ios":"levelo://app?vid=297ba900-c4ca-490b-ab94-a47a3412a747"},"vehicle_type_id":"4","last_reported":1742411283,"current_range_meters":6800,"station_id":"ce4bhl92rcd13ifvqghg","pricing_plan_id":"cebpf4jnsgd1na2vs0mg"},{"bike_id":"c6f4f93f-3fb5-4150-89f6-50dbcbf3ff9b","system_id":"levelo_inurba_marseille","lat":43.27814,"lon":5.40718,"is_reserved":false,"is_disabled":false,"rental_uris":{"android":"levelo://app?vid=c6f4f93f-3fb5-4150-89f6-50dbcbf3ff9b","ios":"levelo://app?vid=c6f4f93f-3fb5-4150-89f6-50dbcbf3ff9b"},"vehicle_type_id":"4","last_reported":1742411283,"current_range_meters":7200,"station_id":"ce4bhnh2rcd13ifvqgtg","pricing_plan_id":"cebpf4jnsgd1na2vs0mg"},{"bike_id":"81df0e61-bcdf-48a3-b10e-7afb5da7c921","system_id":"levelo_inurba_marseille","lat":43.27816,"lon":5.40712,"is_reserved":false,"is_disabled":false,"rental_uris":{"android":"levelo://app?vid=81df0e61-bcdf-48a3-b10e-7afb5da7c921","ios":"levelo://app?vid=81df0e61-bcdf-48a3-b10e-7afb5da7c921"},"vehicle_type_id":"4","last_reported":1742411283,"current_range_meters":7200,"station_id":"ce4bhnh2rcd13ifvqgtg","pricing_plan_id":"cebpf4jnsgd1na2vs0mg"},{"bike_id":"85800d54-d7a2-40a6-9243-e13ab31e3f8f","system_id":"levelo_inurba_marseille","lat":43.29173,"lon":5.37168,"is_reserved":false,"is_disabled":false,"rental_uris":{"android":"levelo://app?vid=85800d54-d7a2-40a6-9243-e13ab31e3f8f","ios":"levelo://app?vid=85800d54-d7a2-40a6-9243-e13ab31e3f8f"},"vehicle_type_id":"4","last_reported":1742411283,"current_range_meters":7200,"station_id":"ce4bha92rcd13ifvqeh0","pricing_plan_id":"cebpf4jnsgd1na2vs0mg"},{"bike_id":"d7f6f6b9-1ec9-4927-b145-999383361c96","system_id":"levelo_inurba_marseille","lat":43.28931,"lon":5.36641,"is_reserved":false,"is_disabled":false,"rental_uris":{"android":"levelo://app?vid=d7f6f6b9-1ec9-4927-b145-999383361c96","ios":"levelo://app?vid=d7f6f6b9-1ec9-4927-b145-999383361c96"},"vehicle_type_id":"4","last_reported":1742411283,"current_range_meters":7200,"station_id":"ce4bhap2rcd13ifvqek0","pricing_plan_id":"cebpf4jnsgd1na2vs0mg"},{"bike_id":"de61fdb3-e535-45aa-a63c-6af8d5317538","system_id":"levelo_inurba_marseille","lat":43.29258,"lon":5.38436,"is_reserved":false,"is_disabled":false,"rental_uris":{"android":"levelo://app?vid=de61fdb3-e535-45aa-a63c-6af8d5317538","ios":"levelo://app?vid=de61fdb3-e535-45aa-a63c-6af8d5317538"},"vehicle_type_id":"4","last_reported":1742411283,"current_range_meters":7200,"station_id":"","pricing_plan_id":"cebpf4jnsgd1na2vs0mg"},{"bike_id":"0028c8b4-53a5-4c27-bf90-2e6270c5b49c","system_id":"levelo_inurba_marseille","lat":43.30313,"lon":5.40433,"is_reserved":false,"is_disabled":false,"rental_uris":{"android":"levelo://app?vid=0028c8b4-53a5-4c27-bf90-2e6270c5b49c","ios":"levelo://app?vid=0028c8b4-53a5-4c27-bf90-2e6270c5b49c"},"vehicle_type_id":"4","last_reported":1742411283,"current_range_meters":7200,"station_id":"ce4bh012rcd13ifvqd10","pricing_plan_id":"cebpf4jnsgd1na2vs0mg"},{"bike_id":"0c790c76-0b2d-42cb-b251-111e7ee613d5","system_id":"levelo_inurba_marseille","lat":43.30131,"lon":5.38786,"is_reserved":false,"is_disabled":false,"rental_uris":{"android":"levelo://app?vid=0c790c76-0b2d-42cb-b251-111e7ee613d5","ios":"levelo://app?vid=0c790c76-0b2d-42cb-b251-111e7ee613d5"},"vehicle_type_id":"4","last_reported":1742411283,"current_range_meters":3600,"station_id":"ce4bghh2rcd13ifvqb60","pricing_plan_id":"cebpf4jnsgd1na2vs0mg"},{"bike_id":"852a308d-d48d-46f4-a3f0-05690533f2a2","system_id":"levelo_inurba_marseille","lat":43.2923,"lon":5.36077,"is_reserved":false,"is_disabled":false,"rental_uris":{"android":"levelo://app?vid=852a308d-d48d-46f4-a3f0-05690533f2a2","ios":"levelo://app?vid=852a308d-d48d-46f4-a3f0-05690533f2a2"},"vehicle_type_id":"4","last_reported":1742411283,"current_range_meters":7200,"station_id":"ce4bhbh2rcd13ifvqeqg","pricing_plan_id":"cebpf4jnsgd1na2vs0mg"},{"bike_id":"4156866b-a0ed-4dcf-b9d2-e7765ca102e2","system_id":"levelo_inurba_marseille","lat":43.30573,"lon":5.3671,"is_reserved":false,"is_disabled":true,"rental_uris":{"android":"levelo://app?vid=4156866b-a0ed-4dcf-b9d2-e7765ca102e2","ios":"levelo://app?vid=4156866b-a0ed-4dcf-b9d2-e7765ca102e2"},"vehicle_type_id":"4","last_reported":1742411283,"current_range_meters":7200,"station_id":"ce4bgrp2rcd13ifvqc9g","pricing_plan_id":"cebpf4jnsgd1na2vs0mg"},{"bike_id":"c3f3b42f-a7aa-41b4-90a1-dcc7f2a75230","system_id":"levelo_inurba_marseille","lat":43.28867,"lon":5.3586,"is_reserved":false,"is_disabled":false,"rental_uris":{"android":"levelo://app?vid=c3f3b42f-a7aa-41b4-90a1-dcc7f2a75230","ios":"levelo://app?vid=c3f3b42f-a7aa-41b4-90a1-dcc7f2a75230"},"vehicle_type_id":"4","last_reported":1742411283,"current_range_meters":7200,"station_id":"ce4bhb12rcd13ifvqem0","pricing_plan_id":"cebpf4jnsgd1na2vs0mg"},{"bike_id":"c632951f-97ff-4417-a231-2f19dfc211bb","system_id":"levelo_inurba_marseille","lat":43.27816,"lon":5.40719,"is_reserved":false,"is_disabled":false,"rental_uris":{"android":"levelo://app?vid=c632951f-97ff-4417-a231-2f19dfc211bb","ios":"levelo://app?vid=c632951f-97ff-4417-a231-2f19dfc211bb"},"vehicle_type_id":"4","last_reported":1742411283,"current_range_meters":7200,"station_id":"ce4bhnh2rcd13ifvqgtg","pricing_plan_id":"cebpf4jnsgd1na2vs0mg"},{"bike_id":"c82bca0e-f843-4937-9035-1f49f74c7f19","system_id":"levelo_inurba_marseille","lat":43.29929,"lon":5.37492,"is_reserved":false,"is_disabled":false,"rental_uris":{"android":"levelo://app?vid=c82bca0e-f843-4937-9035-1f49f74c7f19","ios":"levelo://app?vid=c82bca0e-f843-4937-9035-1f49f74c7f19"},"vehicle_type_id":"4","last_reported":1742411283,"current_range_meters":7200,"station_id":"ce4bgjh2rcd13ifvqbg0","pricing_plan_id":"cebpf4jnsgd1na2vs0mg"},{"bike_id":"6b162ed9-3599-4156-a34b-2df90433ae5c","system_id":"levelo_inurba_marseille","lat":43.2418,"lon":5.39729,"is_reserved":false,"is_disabled":false,"rental_uris":{"android":"levelo://app?vid=6b162ed9-3599-4156-a34b-2df90433ae5c","ios":"levelo://app?vid=6b162ed9-3599-4156-a34b-2df90433ae5c"},"vehicle_type_id":"4","last_reported":1742411283,"current_range_meters":7200,"station_id":"ce4bhn12rcd13ifvqgpg","pricing_plan_id":"cebpf4jnsgd1na2vs0mg"},{"bike_id":"ce833641-c9b8-4e5e-b4f0-11f2f3fc1573","system_id":"levelo_inurba_marseille","lat":43.29213,"lon":5.39321,"is_reserved":false,"is_disabled":false,"rental_uris":{"android":"levelo://app?vid=ce833641-c9b8-4e5e-b4f0-11f2f3fc1573","ios":"levelo://app?vid=ce833641-c9b8-4e5e-b4f0-11f2f3fc1573"},"vehicle_type_id":"4","last_reported":1742411283,"current_range_meters":7200,"station_id":"ce4bh192rcd13ifvqdd0","pricing_plan_id":"cebpf4jnsgd1na2vs0mg"},{"bike_id":"a2ad3ef3-40b0-40fc-8ad0-893f4e20ab03","system_id":"levelo_inurba_marseille","lat":43.24806,"lon":5.37456,"is_reserved":false,"is_disabled":false,"rental_uris":{"android":"levelo://app?vid=a2ad3ef3-40b0-40fc-8ad0-893f4e20ab03","ios":"levelo://app?vid=a2ad3ef3-40b0-40fc-8ad0-893f4e20ab03"},"vehicle_type_id":"4","last_reported":1742411283,"current_range_meters":7200,"station_id":"ce4bhgh2rcd13ifvqfb0","pricing_plan_id":"cebpf4jnsgd1na2vs0mg"},{"bike_id":"ce0cc948-e467-4b5b-b77b-bc6fc312ce93","system_id":"levelo_inurba_marseille","lat":43.29869,"lon":5.39749,"is_reserved":false,"is_disabled":false,"rental_uris":{"android":"levelo://app?vid=ce0cc948-e467-4b5b-b77b-bc6fc312ce93","ios":"levelo://app?vid=ce0cc948-e467-4b5b-b77b-bc6fc312ce93"},"vehicle_type_id":"4","last_reported":1742411283,"current_range_meters":7200,"station_id":"ce4bh0h2rcd13ifvqd50","pricing_plan_id":"cebpf4jnsgd1na2vs0mg"},{"bike_id":"ba7a19ec-12a9-48b9-95b7-6fd9cf0195ce","system_id":"levelo_inurba_marseille","lat":43.29546,"lon":5.38557,"is_reserved":false,"is_disabled":false,"rental_uris":{"android":"levelo://app?vid=ba7a19ec-12a9-48b9-95b7-6fd9cf0195ce","ios":"levelo://app?vid=ba7a19ec-12a9-48b9-95b7-6fd9cf0195ce"},"vehicle_type_id":"4","last_reported":1742411283,"current_range_meters":7200,"station_id":"ce4bgih2rcd13ifvqba0","pricing_plan_id":"cebpf4jnsgd1na2vs0mg"},{"bike_id":"6a02b16b-6b01-401c-9ecc-2a4df284b787","system_id":"levelo_inurba_marseille","lat":43.29788,"lon":5.38136,"is_reserved":false,"is_disabled":false,"rental_uris":{"android":"levelo://app?vid=6a02b16b-6b01-401c-9ecc-2a4df284b787","ios":"levelo://app?vid=6a02b16b-6b01-401c-9ecc-2a4df284b787"},"vehicle_type_id":"4","last_reported":1742411283,"current_range_meters":7200,"station_id":"ce4bgip2rcd13ifvqbb0","pricing_plan_id":"cebpf4jnsgd1na2vs0mg"},{"bike_id":"8763b2fb-df4c-43b9-b66c-3b696e0664a4","system_id":"levelo_inurba_marseille","lat":43.27989,"lon":5.41662,"is_reserved":false,"is_disabled":false,"rental_uris":{"android":"levelo://app?vid=8763b2fb-df4c-43b9-b66c-3b696e0664a4","ios":"levelo://app?vid=8763b2fb-df4c-43b9-b66c-3b696e0664a4"},"vehicle_type_id":"4","last_reported":1742411283,"current_range_meters":8000,"station_id":"ce4bho12rcd13ifvqh1g","pricing_plan_id":"cebpf4jnsgd1na2vs0mg"},{"bike_id":"ed32af05-a93a-40af-b3e3-3171404acc80","system_id":"levelo_inurba_marseille","lat":43.27364,"lon":5.36242,"is_reserved":false,"is_disabled":false,"rental_uris":{"android":"levelo://app?vid=ed32af05-a93a-40af-b3e3-3171404acc80","ios":"levelo://app?vid=ed32af05-a93a-40af-b3e3-3171404acc80"},"vehicle_type_id":"4","last_reported":1742411283,"current_range_meters":8000,"station_id":"ce4bhbh2rcd13ifvqeo0","pricing_plan_id":"cebpf4jnsgd1na2vs0mg"},{"bike_id":"3c0f86bf-2134-4462-a7ab-79aaede557c9","system_id":"levelo_inurba_marseille","lat":43.31719,"lon":5.43706,"is_reserved":false,"is_disabled":false,"rental_uris":{"android":"levelo://app?vid=3c0f86bf-2134-4462-a7ab-79aaede557c9","ios":"levelo://app?vid=3c0f86bf-2134-4462-a7ab-79aaede557c9"},"vehicle_type_id":"4","last_reported":1742411283,"current_range_meters":8000,"station_id":"ce4bhp92rcd13ifvqhcg","pricing_plan_id":"cebpf4jnsgd1na2vs0mg"},{"bike_id":"39f2146b-8f0a-4751-9cdc-8ff9a52bd18a","system_id":"levelo_inurba_marseille","lat":43.28735,"lon":5.37941,"is_reserved":false,"is_disabled":false,"rental_uris":{"android":"levelo://app?vid=39f2146b-8f0a-4751-9cdc-8ff9a52bd18a","ios":"levelo://app?vid=39f2146b-8f0a-4751-9cdc-8ff9a52bd18a"},"vehicle_type_id":"4","last_reported":1742411283,"current_range_meters":8000,"station_id":"ce4bh9p2rcd13ifvqec0","pricing_plan_id":"cebpf4jnsgd1na2vs0mg"},{"bike_id":"4858167e-edc8-4792-9d1c-05670cc1275f","system_id":"levelo_inurba_marseille","lat":43.29282,"lon":5.42763,"is_reserved":false,"is_disabled":false,"rental_uris":{"android":"levelo://app?vid=4858167e-edc8-4792-9d1c-05670cc1275f","ios":"levelo://app?vid=4858167e-edc8-4792-9d1c-05670cc1275f"},"vehicle_type_id":"4","last_reported":1742411283,"current_range_meters":8000,"station_id":"","pricing_plan_id":"cebpf4jnsgd1na2vs0mg"},{"bike_id":"4f70ebff-4208-422e-8c95-09d5bebf9c84","system_id":"levelo_inurba_marseille","lat":43.27911,"lon":5.39588,"is_reserved":false,"is_disabled":false,"rental_uris":{"android":"levelo://app?vid=4f70ebff-4208-422e-8c95-09d5bebf9c84","ios":"levelo://app?vid=4f70ebff-4208-422e-8c95-09d5bebf9c84"},"vehicle_type_id":"4","last_reported":1742411283,"current_range_meters":8000,"station_id":"ce4bhf92rcd13ifvqf40","pricing_plan_id":"cebpf4jnsgd1na2vs0mg"},{"bike_id":"5f0234ff-6f71-4fd1-a8c3-ea663f2b44be","system_id":"levelo_inurba_marseille","lat":43.29053,"lon":5.37577,"is_reserved":false,"is_disabled":false,"rental_uris":{"android":"levelo://app?vid=5f0234ff-6f71-4fd1-a8c3-ea663f2b44be","ios":"levelo://app?vid=5f0234ff-6f71-4fd1-a8c3-ea663f2b44be"},"vehicle_type_id":"4","last_reported":1742411283,"current_range_meters":8000,"station_id":"ce4bh692rcd13ifvqe90","pricing_plan_id":"cebpf4jnsgd1na2vs0mg"},{"bike_id":"312572e5-e87d-40ca-add9-0df98384a151","system_id":"levelo_inurba_marseille","lat":43.29007,"lon":5.3814,"is_reserved":false,"is_disabled":false,"rental_uris":{"android":"levelo://app?vid=312572e5-e87d-40ca-add9-0df98384a151","ios":"levelo://app?vid=312572e5-e87d-40ca-add9-0df98384a151"},"vehicle_type_id":"4","last_reported":1742411283,"current_range_meters":4400,"station_id":"ce4bh4p2rcd13ifvqe1g","pricing_plan_id":"cebpf4jnsgd1na2vs0mg"},{"bike_id":"20df28b8-63d2-4593-9af7-4b359afeb27a","system_id":"levelo_inurba_marseille","lat":43.27544,"lon":5.3846,"is_reserved":false,"is_disabled":false,"rental_uris":{"android":"levelo://app?vid=20df28b8-63d2-4593-9af7-4b359afeb27a","ios":"levelo://app?vid=20df28b8-63d2-4593-9af7-4b359afeb27a"},"vehicle_type_id":"4","last_reported":1742411283,"current_range_meters":8000,"station_id":"ce4bhh92rcd13ifvqfi0","pricing_plan_id":"cebpf4jnsgd1na2vs0mg"},{"bike_id":"227ea19f-289e-4a92-895e-218ec5d5c552","system_id":"levelo_inurba_marseille","lat":43.27503,"lon":5.42485,"is_reserved":false,"is_disabled":false,"rental_uris":{"android":"levelo://app?vid=227ea19f-289e-4a92-895e-218ec5d5c552","ios":"levelo://app?vid=227ea19f-289e-4a92-895e-218ec5d5c552"},"vehicle_type_id":"4","last_reported":1742411283,"current_range_meters":8000,"station_id":"ce4bhn92rcd13ifvqgrg","pricing_plan_id":"cebpf4jnsgd1na2vs0mg"},{"bike_id":"cd3f6418-d471-43bd-a8af-c4289f0429a3","system_id":"levelo_inurba_marseille","lat":43.24184,"lon":5.39737,"is_reserved":false,"is_disabled":false,"rental_uris":{"android":"levelo://app?vid=cd3f6418-d471-43bd-a8af-c4289f0429a3","ios":"levelo://app?vid=cd3f6418-d471-43bd-a8af-c4289f0429a3"},"vehicle_type_id":"4","last_reported":1742411283,"current_range_meters":8400,"station_id":"ce4bhn12rcd13ifvqgpg","pricing_plan_id":"cebpf4jnsgd1na2vs0mg"},{"bike_id":"1fe8cbb2-e61f-4748-8f3f-eff906305549","system_id":"levelo_inurba_marseille","lat":43.230683,"lon":5.354962,"is_reserved":false,"is_disabled":false,"rental_uris":{"android":"levelo://app?vid=1fe8cbb2-e61f-4748-8f3f-eff906305549","ios":"levelo://app?vid=1fe8cbb2-e61f-4748-8f3f-eff906305549"},"vehicle_type_id":"4","last_reported":1742411283,"current_range_meters":8400,"station_id":"cpo3342slgdg3j2ifvpg","pricing_plan_id":"cebpf4jnsgd1na2vs0mg"},{"bike_id":"25793b0d-d8a7-4fb7-bbd3-bb61178801a0","system_id":"levelo_inurba_marseille","lat":43.30996,"lon":5.37021,"is_reserved":false,"is_disabled":false,"rental_uris":{"android":"levelo://app?vid=25793b0d-d8a7-4fb7-bbd3-bb61178801a0","ios":"levelo://app?vid=25793b0d-d8a7-4fb7-bbd3-bb61178801a0"},"vehicle_type_id":"4","last_reported":1742411283,"current_range_meters":8400,"station_id":"","pricing_plan_id":"cebpf4jnsgd1na2vs0mg"},{"bike_id":"10eed6fd-0341-4510-a4a6-4c8769f4a4be","system_id":"levelo_inurba_marseille","lat":43.26702,"lon":5.38261,"is_reserved":false,"is_disabled":false,"rental_uris":{"android":"levelo://app?vid=10eed6fd-0341-4510-a4a6-4c8769f4a4be","ios":"levelo://app?vid=10eed6fd-0341-4510-a4a6-4c8769f4a4be"},"vehicle_type_id":"4","last_reported":1742411283,"current_range_meters":8400,"station_id":"ce4bhg92rcd13ifvqf90","pricing_plan_id":"cebpf4jnsgd1na2vs0mg"},{"bike_id":"f9ff2843-6a11-4e3b-9e65-9998fbe82454","system_id":"levelo_inurba_marseille","lat":43.25132,"lon":5.4035,"is_reserved":false,"is_disabled":false,"rental_uris":{"android":"levelo://app?vid=f9ff2843-6a11-4e3b-9e65-9998fbe82454","ios":"levelo://app?vid=f9ff2843-6a11-4e3b-9e65-9998fbe82454"},"vehicle_type_id":"4","last_reported":1742411283,"current_range_meters":8400,"station_id":"ce4bhlh2rcd13ifvqgig","pricing_plan_id":"cebpf4jnsgd1na2vs0mg"},{"bike_id":"b7bf7083-7ca4-4038-8b28-f05525cd1eb2","system_id":"levelo_inurba_marseille","lat":43.26787,"lon":5.39424,"is_reserved":false,"is_disabled":false,"rental_uris":{"android":"levelo://app?vid=b7bf7083-7ca4-4038-8b28-f05525cd1eb2","ios":"levelo://app?vid=b7bf7083-7ca4-4038-8b28-f05525cd1eb2"},"vehicle_type_id":"4","last_reported":1742411283,"current_range_meters":8400,"station_id":"ce4bhh12rcd13ifvqfg0","pricing_plan_id":"cebpf4jnsgd1na2vs0mg"},{"bike_id":"41bb32ef-9462-45bf-bc9e-7604a03a4f7f","system_id":"levelo_inurba_marseille","lat":43.32366,"lon":5.38879,"is_reserved":false,"is_disabled":false,"rental_uris":{"android":"levelo://app?vid=41bb32ef-9462-45bf-bc9e-7604a03a4f7f","ios":"levelo://app?vid=41bb32ef-9462-45bf-bc9e-7604a03a4f7f"},"vehicle_type_id":"4","last_reported":1742411283,"current_range_meters":8400,"station_id":"ce4bhqp2rcd13ifvqhog","pricing_plan_id":"cebpf4jnsgd1na2vs0mg"},{"bike_id":"cf817709-fbaf-4d02-b0ac-82d1d400bae0","system_id":"levelo_inurba_marseille","lat":43.27967,"lon":5.41033,"is_reserved":false,"is_disabled":false,"rental_uris":{"android":"levelo://app?vid=cf817709-fbaf-4d02-b0ac-82d1d400bae0","ios":"levelo://app?vid=cf817709-fbaf-4d02-b0ac-82d1d400bae0"},"vehicle_type_id":"4","last_reported":1742411283,"current_range_meters":8400,"station_id":"ce4bhnp2rcd13ifvqh0g","pricing_plan_id":"cebpf4jnsgd1na2vs0mg"},{"bike_id":"d59eb3e1-2764-4592-8b85-c67c7e750e8c","system_id":"levelo_inurba_marseille","lat":43.30611,"lon":5.37234,"is_reserved":false,"is_disabled":false,"rental_uris":{"android":"levelo://app?vid=d59eb3e1-2764-4592-8b85-c67c7e750e8c","ios":"levelo://app?vid=d59eb3e1-2764-4592-8b85-c67c7e750e8c"},"vehicle_type_id":"4","last_reported":1742411283,"current_range_meters":8400,"station_id":"ce4bgqh2rcd13ifvqc4g","pricing_plan_id":"cebpf4jnsgd1na2vs0mg"},{"bike_id":"f900da6c-7e5c-4ec1-bb80-501e71312a52","system_id":"levelo_inurba_marseille","lat":43.27386,"lon":5.36239,"is_reserved":false,"is_disabled":false,"rental_uris":{"android":"levelo://app?vid=f900da6c-7e5c-4ec1-bb80-501e71312a52","ios":"levelo://app?vid=f900da6c-7e5c-4ec1-bb80-501e71312a52"},"vehicle_type_id":"4","last_reported":1742411283,"current_range_meters":8400,"station_id":"ce4bhbh2rcd13ifvqeo0","pricing_plan_id":"cebpf4jnsgd1na2vs0mg"},{"bike_id":"dda30b36-aeb3-40b9-90fa-ff79926a5a91","system_id":"levelo_inurba_marseille","lat":43.3171,"lon":5.37737,"is_reserved":false,"is_disabled":false,"rental_uris":{"android":"levelo://app?vid=dda30b36-aeb3-40b9-90fa-ff79926a5a91","ios":"levelo://app?vid=dda30b36-aeb3-40b9-90fa-ff79926a5a91"},"vehicle_type_id":"4","last_reported":1742411283,"current_range_meters":8400,"station_id":"ce4bgth2rcd13ifvqch0","pricing_plan_id":"cebpf4jnsgd1na2vs0mg"},{"bike_id":"a1bd96f5-2184-4b07-b0ee-fad3e45f6530","system_id":"levelo_inurba_marseille","lat":43.246129,"lon":5.388502,"is_reserved":false,"is_disabled":false,"rental_uris":{"android":"levelo://app?vid=a1bd96f5-2184-4b07-b0ee-fad3e45f6530","ios":"levelo://app?vid=a1bd96f5-2184-4b07-b0ee-fad3e45f6530"},"vehicle_type_id":"4","last_reported":1742411283,"current_range_meters":8400,"station_id":"ce4bhg12rcd13ifvqf60","pricing_plan_id":"cebpf4jnsgd1na2vs0mg"},{"bike_id":"c88fbe28-9402-4ce3-9d2b-7ab1e41f63e4","system_id":"levelo_inurba_marseille","lat":43.27624,"lon":5.36106,"is_reserved":false,"is_disabled":false,"rental_uris":{"android":"levelo://app?vid=c88fbe28-9402-4ce3-9d2b-7ab1e41f63e4","ios":"levelo://app?vid=c88fbe28-9402-4ce3-9d2b-7ab1e41f63e4"},"vehicle_type_id":"4","last_reported":1742411283,"current_range_meters":8400,"station_id":"ce4bgj92rcd13ifvqbe0","pricing_plan_id":"cebpf4jnsgd1na2vs0mg"},{"bike_id":"4fa0322d-b201-409d-9218-57726b4a4ca2","system_id":"levelo_inurba_marseille","lat":43.30671,"lon":5.40097,"is_reserved":false,"is_disabled":false,"rental_uris":{"android":"levelo://app?vid=4fa0322d-b201-409d-9218-57726b4a4ca2","ios":"levelo://app?vid=4fa0322d-b201-409d-9218-57726b4a4ca2"},"vehicle_type_id":"4","last_reported":1742411283,"current_range_meters":8400,"station_id":"ce4bh112rcd13ifvqda0","pricing_plan_id":"cebpf4jnsgd1na2vs0mg"},{"bike_id":"0c06756d-d8d7-4045-8c67-32253162c6ab","system_id":"levelo_inurba_marseille","lat":43.3108,"lon":5.38332,"is_reserved":false,"is_disabled":false,"rental_uris":{"android":"levelo://app?vid=0c06756d-d8d7-4045-8c67-32253162c6ab","ios":"levelo://app?vid=0c06756d-d8d7-4045-8c67-32253162c6ab"},"vehicle_type_id":"4","last_reported":1742411283,"current_range_meters":8400,"station_id":"ce4bgv92rcd13ifvqcr0","pricing_plan_id":"cebpf4jnsgd1na2vs0mg"},{"bike_id":"ca5ec2af-d9c0-4bf6-a9d8-72576ec4b622","system_id":"levelo_inurba_marseille","lat":43.2792,"lon":5.3958,"is_reserved":false,"is_disabled":false,"rental_uris":{"android":"levelo://app?vid=ca5ec2af-d9c0-4bf6-a9d8-72576ec4b622","ios":"levelo://app?vid=ca5ec2af-d9c0-4bf6-a9d8-72576ec4b622"},"vehicle_type_id":"4","last_reported":1742411283,"current_range_meters":8800,"station_id":"ce4bhf92rcd13ifvqf40","pricing_plan_id":"cebpf4jnsgd1na2vs0mg"},{"bike_id":"3058eb37-35b9-4277-898b-f9025638e045","system_id":"levelo_inurba_marseille","lat":43.25939,"lon":5.40907,"is_reserved":false,"is_disabled":false,"rental_uris":{"android":"levelo://app?vid=3058eb37-35b9-4277-898b-f9025638e045","ios":"levelo://app?vid=3058eb37-35b9-4277-898b-f9025638e045"},"vehicle_type_id":"4","last_reported":1742411283,"current_range_meters":8800,"station_id":"ce4bhm92rcd13ifvqglg","pricing_plan_id":"cebpf4jnsgd1na2vs0mg"},{"bike_id":"133de0ee-5472-42fe-9976-e6dfbab5ddf7","system_id":"levelo_inurba_marseille","lat":43.2997,"lon":5.3718,"is_reserved":false,"is_disabled":false,"rental_uris":{"android":"levelo://app?vid=133de0ee-5472-42fe-9976-e6dfbab5ddf7","ios":"levelo://app?vid=133de0ee-5472-42fe-9976-e6dfbab5ddf7"},"vehicle_type_id":"4","last_reported":1742411283,"current_range_meters":8800,"station_id":"ce4bgr92rcd13ifvqc7g","pricing_plan_id":"cebpf4jnsgd1na2vs0mg"},{"bike_id":"44447000-040c-49f9-9a08-0a0676c008c2","system_id":"levelo_inurba_marseille","lat":43.31728,"lon":5.43717,"is_reserved":false,"is_disabled":false,"rental_uris":{"android":"levelo://app?vid=44447000-040c-49f9-9a08-0a0676c008c2","ios":"levelo://app?vid=44447000-040c-49f9-9a08-0a0676c008c2"},"vehicle_type_id":"4","last_reported":1742411283,"current_range_meters":8800,"station_id":"ce4bhp92rcd13ifvqhcg","pricing_plan_id":"cebpf4jnsgd1na2vs0mg"},{"bike_id":"3c151b15-4ac0-42c3-a056-8705c49501b8","system_id":"levelo_inurba_marseille","lat":43.31372,"lon":5.38502,"is_reserved":false,"is_disabled":false,"rental_uris":{"android":"levelo://app?vid=3c151b15-4ac0-42c3-a056-8705c49501b8","ios":"levelo://app?vid=3c151b15-4ac0-42c3-a056-8705c49501b8"},"vehicle_type_id":"4","last_reported":1742411283,"current_range_meters":8800,"station_id":"ce4bgt92rcd13ifvqcf0","pricing_plan_id":"cebpf4jnsgd1na2vs0mg"},{"bike_id":"054b79e5-3c6c-4562-a1d6-d64bd099ac6b","system_id":"levelo_inurba_marseille","lat":43.24691,"lon":5.38147,"is_reserved":false,"is_disabled":false,"rental_uris":{"android":"levelo://app?vid=054b79e5-3c6c-4562-a1d6-d64bd099ac6b","ios":"levelo://app?vid=054b79e5-3c6c-4562-a1d6-d64bd099ac6b"},"vehicle_type_id":"4","last_reported":1742411283,"current_range_meters":8800,"station_id":"ce4bhih2rcd13ifvqfr0","pricing_plan_id":"cebpf4jnsgd1na2vs0mg"},{"bike_id":"2f1dbe17-bb30-49c8-b2f3-1637fbcaa93e","system_id":"levelo_inurba_marseille","lat":43.28948,"lon":5.38407,"is_reserved":false,"is_disabled":false,"rental_uris":{"android":"levelo://app?vid=2f1dbe17-bb30-49c8-b2f3-1637fbcaa93e","ios":"levelo://app?vid=2f1dbe17-bb30-49c8-b2f3-1637fbcaa93e"},"vehicle_type_id":"4","last_reported":1742411283,"current_range_meters":9200,"station_id":"ce4bh612rcd13ifvqe6g","pricing_plan_id":"cebpf4jnsgd1na2vs0mg"},{"bike_id":"6e5922eb-2e7c-4aaa-a38b-2650fdc242d9","system_id":"levelo_inurba_marseille","lat":43.30804,"lon":5.38147,"is_reserved":false,"is_disabled":false,"rental_uris":{"android":"levelo://app?vid=6e5922eb-2e7c-4aaa-a38b-2650fdc242d9","ios":"levelo://app?vid=6e5922eb-2e7c-4aaa-a38b-2650fdc242d9"},"vehicle_type_id":"4","last_reported":1742411283,"current_range_meters":9200,"station_id":"ce4bgt12rcd13ifvqce0","pricing_plan_id":"cebpf4jnsgd1na2vs0mg"},{"bike_id":"ebd45e7b-1c45-4b94-a31a-e5fdc9535d41","system_id":"levelo_inurba_marseille","lat":43.23961,"lon":5.36646,"is_reserved":false,"is_disabled":false,"rental_uris":{"android":"levelo://app?vid=ebd45e7b-1c45-4b94-a31a-e5fdc9535d41","ios":"levelo://app?vid=ebd45e7b-1c45-4b94-a31a-e5fdc9535d41"},"vehicle_type_id":"4","last_reported":1742411283,"current_range_meters":9200,"station_id":"ce4bhi12rcd13ifvqfp0","pricing_plan_id":"cebpf4jnsgd1na2vs0mg"},{"bike_id":"d45aa902-4bcb-471b-8a0f-8cdc3416ec8c","system_id":"levelo_inurba_marseille","lat":43.27616,"lon":5.36126,"is_reserved":false,"is_disabled":false,"rental_uris":{"android":"levelo://app?vid=d45aa902-4bcb-471b-8a0f-8cdc3416ec8c","ios":"levelo://app?vid=d45aa902-4bcb-471b-8a0f-8cdc3416ec8c"},"vehicle_type_id":"4","last_reported":1742411283,"current_range_meters":9200,"station_id":"ce4bgj92rcd13ifvqbe0","pricing_plan_id":"cebpf4jnsgd1na2vs0mg"},{"bike_id":"3455258b-4135-46b9-9a26-10bf95160e40","system_id":"levelo_inurba_marseille","lat":43.23189,"lon":5.35549,"is_reserved":false,"is_disabled":false,"rental_uris":{"android":"levelo://app?vid=3455258b-4135-46b9-9a26-10bf95160e40","ios":"levelo://app?vid=3455258b-4135-46b9-9a26-10bf95160e40"},"vehicle_type_id":"4","last_reported":1742411283,"current_range_meters":9200,"station_id":"ce4bhu92rcd13ifvqi70","pricing_plan_id":"cebpf4jnsgd1na2vs0mg"},{"bike_id":"4ff9555b-3e84-4648-9068-131d37def819","system_id":"levelo_inurba_marseille","lat":43.29566,"lon":5.42278,"is_reserved":false,"is_disabled":false,"rental_uris":{"android":"levelo://app?vid=4ff9555b-3e84-4648-9068-131d37def819","ios":"levelo://app?vid=4ff9555b-3e84-4648-9068-131d37def819"},"vehicle_type_id":"4","last_reported":1742411283,"current_range_meters":9200,"station_id":"ce4bhph2rcd13ifvqhdg","pricing_plan_id":"cebpf4jnsgd1na2vs0mg"},{"bike_id":"0cf839ab-e587-4ab8-b08d-84e42ef6ef98","system_id":"levelo_inurba_marseille","lat":43.23964,"lon":5.36627,"is_reserved":false,"is_disabled":false,"rental_uris":{"android":"levelo://app?vid=0cf839ab-e587-4ab8-b08d-84e42ef6ef98","ios":"levelo://app?vid=0cf839ab-e587-4ab8-b08d-84e42ef6ef98"},"vehicle_type_id":"4","last_reported":1742411283,"current_range_meters":9200,"station_id":"ce4bhi12rcd13ifvqfp0","pricing_plan_id":"cebpf4jnsgd1na2vs0mg"},{"bike_id":"ca97ae5c-ae78-4d19-9390-1492a4b5212b","system_id":"levelo_inurba_marseille","lat":43.24392,"lon":5.37061,"is_reserved":false,"is_disabled":false,"rental_uris":{"android":"levelo://app?vid=ca97ae5c-ae78-4d19-9390-1492a4b5212b","ios":"levelo://app?vid=ca97ae5c-ae78-4d19-9390-1492a4b5212b"},"vehicle_type_id":"4","last_reported":1742411283,"current_range_meters":9200,"station_id":"ce4bhhh2rcd13ifvqfk0","pricing_plan_id":"cebpf4jnsgd1na2vs0mg"},{"bike_id":"8528cfd6-758c-4197-aaac-800294acfea6","system_id":"levelo_inurba_marseille","lat":43.25879,"lon":5.39927,"is_reserved":false,"is_disabled":false,"rental_uris":{"android":"levelo://app?vid=8528cfd6-758c-4197-aaac-800294acfea6","ios":"levelo://app?vid=8528cfd6-758c-4197-aaac-800294acfea6"},"vehicle_type_id":"4","last_reported":1742411283,"current_range_meters":9200,"station_id":"ce4bhl92rcd13ifvqghg","pricing_plan_id":"cebpf4jnsgd1na2vs0mg"},{"bike_id":"dff22bde-84fd-490a-8837-d6c39b979395","system_id":"levelo_inurba_marseille","lat":43.2864,"lon":5.37072,"is_reserved":false,"is_disabled":false,"rental_uris":{"android":"levelo://app?vid=dff22bde-84fd-490a-8837-d6c39b979395","ios":"levelo://app?vid=dff22bde-84fd-490a-8837-d6c39b979395"},"vehicle_type_id":"4","last_reported":1742411283,"current_range_meters":9200,"station_id":"ce4bht12rcd13ifvqi60","pricing_plan_id":"cebpf4jnsgd1na2vs0mg"},{"bike_id":"fe43f2e2-68ef-4fcd-bb23-84fd515f2ed0","system_id":"levelo_inurba_marseille","lat":43.31286,"lon":5.40174,"is_reserved":false,"is_disabled":false,"rental_uris":{"android":"levelo://app?vid=fe43f2e2-68ef-4fcd-bb23-84fd515f2ed0","ios":"levelo://app?vid=fe43f2e2-68ef-4fcd-bb23-84fd515f2ed0"},"vehicle_type_id":"4","last_reported":1742411283,"current_range_meters":9200,"station_id":"ce4bh092rcd13ifvqd30","pricing_plan_id":"cebpf4jnsgd1na2vs0mg"},{"bike_id":"1fea0b3c-94ab-41af-b18e-d9bbaa7dda49","system_id":"levelo_inurba_marseille","lat":43.31721,"lon":5.43709,"is_reserved":false,"is_disabled":false,"rental_uris":{"android":"levelo://app?vid=1fea0b3c-94ab-41af-b18e-d9bbaa7dda49","ios":"levelo://app?vid=1fea0b3c-94ab-41af-b18e-d9bbaa7dda49"},"vehicle_type_id":"4","last_reported":1742411283,"current_range_meters":9200,"station_id":"ce4bhp92rcd13ifvqhcg","pricing_plan_id":"cebpf4jnsgd1na2vs0mg"},{"bike_id":"859a57ec-43bc-4aaa-8844-7e7bd1bf3955","system_id":"levelo_inurba_marseille","lat":43.30799,"lon":5.38153,"is_reserved":false,"is_disabled":false,"rental_uris":{"android":"levelo://app?vid=859a57ec-43bc-4aaa-8844-7e7bd1bf3955","ios":"levelo://app?vid=859a57ec-43bc-4aaa-8844-7e7bd1bf3955"},"vehicle_type_id":"4","last_reported":1742411283,"current_range_meters":9200,"station_id":"ce4bgt12rcd13ifvqce0","pricing_plan_id":"cebpf4jnsgd1na2vs0mg"},{"bike_id":"92f79865-c939-48c4-acc7-fa55da7dd831","system_id":"levelo_inurba_marseille","lat":43.29572,"lon":5.39987,"is_reserved":false,"is_disabled":false,"rental_uris":{"android":"levelo://app?vid=92f79865-c939-48c4-acc7-fa55da7dd831","ios":"levelo://app?vid=92f79865-c939-48c4-acc7-fa55da7dd831"},"vehicle_type_id":"4","last_reported":1742411283,"current_range_meters":9600,"station_id":"ce4bh312rcd13ifvqdj0","pricing_plan_id":"cebpf4jnsgd1na2vs0mg"},{"bike_id":"deb6031e-91bc-49d4-8f41-f252f523b2c5","system_id":"levelo_inurba_marseille","lat":43.27949,"lon":5.41022,"is_reserved":false,"is_disabled":false,"rental_uris":{"android":"levelo://app?vid=deb6031e-91bc-49d4-8f41-f252f523b2c5","ios":"levelo://app?vid=deb6031e-91bc-49d4-8f41-f252f523b2c5"},"vehicle_type_id":"4","last_reported":1742411283,"current_range_meters":9600,"station_id":"ce4bhnp2rcd13ifvqh0g","pricing_plan_id":"cebpf4jnsgd1na2vs0mg"},{"bike_id":"71f2cd9d-ef15-44a1-a9cf-33002d842832","system_id":"levelo_inurba_marseille","lat":43.24658,"lon":5.38172,"is_reserved":false,"is_disabled":false,"rental_uris":{"android":"levelo://app?vid=71f2cd9d-ef15-44a1-a9cf-33002d842832","ios":"levelo://app?vid=71f2cd9d-ef15-44a1-a9cf-33002d842832"},"vehicle_type_id":"4","last_reported":1742411283,"current_range_meters":9600,"station_id":"ce4bhih2rcd13ifvqfr0","pricing_plan_id":"cebpf4jnsgd1na2vs0mg"},{"bike_id":"bfd67b10-fd7c-4b25-bc6e-0830b23c1f4b","system_id":"levelo_inurba_marseille","lat":43.25826,"lon":5.39449,"is_reserved":false,"is_disabled":false,"rental_uris":{"android":"levelo://app?vid=bfd67b10-fd7c-4b25-bc6e-0830b23c1f4b","ios":"levelo://app?vid=bfd67b10-fd7c-4b25-bc6e-0830b23c1f4b"},"vehicle_type_id":"4","last_reported":1742411283,"current_range_meters":9600,"station_id":"ce4bhip2rcd13ifvqft0","pricing_plan_id":"cebpf4jnsgd1na2vs0mg"},{"bike_id":"568db082-8949-4a48-9581-eb25b858fb65","system_id":"levelo_inurba_marseille","lat":43.33027,"lon":5.39043,"is_reserved":false,"is_disabled":false,"rental_uris":{"android":"levelo://app?vid=568db082-8949-4a48-9581-eb25b858fb65","ios":"levelo://app?vid=568db082-8949-4a48-9581-eb25b858fb65"},"vehicle_type_id":"4","last_reported":1742411283,"current_range_meters":9600,"station_id":"ce4bhr92rcd13ifvqhrg","pricing_plan_id":"cebpf4jnsgd1na2vs0mg"},{"bike_id":"d3269e03-9275-4322-bf89-882128b5d35e","system_id":"levelo_inurba_marseille","lat":43.3129,"lon":5.40168,"is_reserved":false,"is_disabled":false,"rental_uris":{"android":"levelo://app?vid=d3269e03-9275-4322-bf89-882128b5d35e","ios":"levelo://app?vid=d3269e03-9275-4322-bf89-882128b5d35e"},"vehicle_type_id":"4","last_reported":1742411283,"current_range_meters":9600,"station_id":"ce4bh092rcd13ifvqd30","pricing_plan_id":"cebpf4jnsgd1na2vs0mg"},{"bike_id":"3da64548-8b6a-42d6-898f-dc427d7ab309","system_id":"levelo_inurba_marseille","lat":43.27956,"lon":5.41039,"is_reserved":false,"is_disabled":false,"rental_uris":{"android":"levelo://app?vid=3da64548-8b6a-42d6-898f-dc427d7ab309","ios":"levelo://app?vid=3da64548-8b6a-42d6-898f-dc427d7ab309"},"vehicle_type_id":"4","last_reported":1742411283,"current_range_meters":9600,"station_id":"ce4bhnp2rcd13ifvqh0g","pricing_plan_id":"cebpf4jnsgd1na2vs0mg"},{"bike_id":"398e1717-a4fe-498e-a043-65270bc50644","system_id":"levelo_inurba_marseille","lat":43.29261,"lon":5.38443,"is_reserved":false,"is_disabled":false,"rental_uris":{"android":"levelo://app?vid=398e1717-a4fe-498e-a043-65270bc50644","ios":"levelo://app?vid=398e1717-a4fe-498e-a043-65270bc50644"},"vehicle_type_id":"4","last_reported":1742411283,"current_range_meters":9600,"station_id":"ce4bh692rcd13ifvqea0","pricing_plan_id":"cebpf4jnsgd1na2vs0mg"},{"bike_id":"963a17fa-4222-4f93-b414-09c4cce8d25a","system_id":"levelo_inurba_marseille","lat":43.28408,"lon":5.38491,"is_reserved":false,"is_disabled":false,"rental_uris":{"android":"levelo://app?vid=963a17fa-4222-4f93-b414-09c4cce8d25a","ios":"levelo://app?vid=963a17fa-4222-4f93-b414-09c4cce8d25a"},"vehicle_type_id":"4","last_reported":1742411283,"current_range_meters":9600,"station_id":"","pricing_plan_id":"cebpf4jnsgd1na2vs0mg"},{"bike_id":"838ebb3a-2ee8-4ad8-b551-ef95b357d1bf","system_id":"levelo_inurba_marseille","lat":43.27815,"lon":5.40732,"is_reserved":false,"is_disabled":false,"rental_uris":{"android":"levelo://app?vid=838ebb3a-2ee8-4ad8-b551-ef95b357d1bf","ios":"levelo://app?vid=838ebb3a-2ee8-4ad8-b551-ef95b357d1bf"},"vehicle_type_id":"4","last_reported":1742411283,"current_range_meters":9600,"station_id":"ce4bhnh2rcd13ifvqgtg","pricing_plan_id":"cebpf4jnsgd1na2vs0mg"},{"bike_id":"269bf388-a16e-4cb3-84c2-8bb7d29cac8f","system_id":"levelo_inurba_marseille","lat":43.25121,"lon":5.403209,"is_reserved":false,"is_disabled":false,"rental_uris":{"android":"levelo://app?vid=269bf388-a16e-4cb3-84c2-8bb7d29cac8f","ios":"levelo://app?vid=269bf388-a16e-4cb3-84c2-8bb7d29cac8f"},"vehicle_type_id":"4","last_reported":1742411283,"current_range_meters":9600,"station_id":"ce4bhlh2rcd13ifvqgig","pricing_plan_id":"cebpf4jnsgd1na2vs0mg"},{"bike_id":"32d1f1d5-6810-4da6-8afc-99172c3bda3d","system_id":"levelo_inurba_marseille","lat":43.28451,"lon":5.35881,"is_reserved":false,"is_disabled":false,"rental_uris":{"android":"levelo://app?vid=32d1f1d5-6810-4da6-8afc-99172c3bda3d","ios":"levelo://app?vid=32d1f1d5-6810-4da6-8afc-99172c3bda3d"},"vehicle_type_id":"4","last_reported":1742411283,"current_range_meters":10000,"station_id":"ce4bhah2rcd13ifvqei0","pricing_plan_id":"cebpf4jnsgd1na2vs0mg"},{"bike_id":"2b988328-c16b-481a-8f53-6b6628ce27f1","system_id":"levelo_inurba_marseille","lat":43.2885,"lon":5.39317,"is_reserved":false,"is_disabled":false,"rental_uris":{"android":"levelo://app?vid=2b988328-c16b-481a-8f53-6b6628ce27f1","ios":"levelo://app?vid=2b988328-c16b-481a-8f53-6b6628ce27f1"},"vehicle_type_id":"4","last_reported":1742411283,"current_range_meters":10000,"station_id":"ce4bh2p2rcd13ifvqdi0","pricing_plan_id":"cebpf4jnsgd1na2vs0mg"},{"bike_id":"45ac9175-6117-41d7-a189-7c5a8d8c8381","system_id":"levelo_inurba_marseille","lat":43.30649,"lon":5.40086,"is_reserved":false,"is_disabled":false,"rental_uris":{"android":"levelo://app?vid=45ac9175-6117-41d7-a189-7c5a8d8c8381","ios":"levelo://app?vid=45ac9175-6117-41d7-a189-7c5a8d8c8381"},"vehicle_type_id":"4","last_reported":1742411283,"current_range_meters":10000,"station_id":"ce4bh112rcd13ifvqda0","pricing_plan_id":"cebpf4jnsgd1na2vs0mg"},{"bike_id":"1efcb04e-b109-43e2-8c8e-698a511e9a10","system_id":"levelo_inurba_marseille","lat":43.28379,"lon":5.38642,"is_reserved":false,"is_disabled":false,"rental_uris":{"android":"levelo://app?vid=1efcb04e-b109-43e2-8c8e-698a511e9a10","ios":"levelo://app?vid=1efcb04e-b109-43e2-8c8e-698a511e9a10"},"vehicle_type_id":"4","last_reported":1742411283,"current_range_meters":10000,"station_id":"ce4bh492rcd13ifvqdvg","pricing_plan_id":"cebpf4jnsgd1na2vs0mg"},{"bike_id":"78b95c41-f57f-46b7-8807-c311e5a77278","system_id":"levelo_inurba_marseille","lat":43.23965,"lon":5.3663,"is_reserved":false,"is_disabled":false,"rental_uris":{"android":"levelo://app?vid=78b95c41-f57f-46b7-8807-c311e5a77278","ios":"levelo://app?vid=78b95c41-f57f-46b7-8807-c311e5a77278"},"vehicle_type_id":"4","last_reported":1742411283,"current_range_meters":10000,"station_id":"ce4bhi12rcd13ifvqfp0","pricing_plan_id":"cebpf4jnsgd1na2vs0mg"},{"bike_id":"88ccd002-5cc7-4436-b03a-a5333eda4374","system_id":"levelo_inurba_marseille","lat":43.26696,"lon":5.38265,"is_reserved":false,"is_disabled":false,"rental_uris":{"android":"levelo://app?vid=88ccd002-5cc7-4436-b03a-a5333eda4374","ios":"levelo://app?vid=88ccd002-5cc7-4436-b03a-a5333eda4374"},"vehicle_type_id":"4","last_reported":1742411283,"current_range_meters":10000,"station_id":"ce4bhg92rcd13ifvqf90","pricing_plan_id":"cebpf4jnsgd1na2vs0mg"},{"bike_id":"f830c3ea-789a-4fab-8908-95b2ddb579a5","system_id":"levelo_inurba_marseille","lat":43.29265,"lon":5.38438,"is_reserved":false,"is_disabled":false,"rental_uris":{"android":"levelo://app?vid=f830c3ea-789a-4fab-8908-95b2ddb579a5","ios":"levelo://app?vid=f830c3ea-789a-4fab-8908-95b2ddb579a5"},"vehicle_type_id":"4","last_reported":1742411283,"current_range_meters":10000,"station_id":"ce4bh692rcd13ifvqea0","pricing_plan_id":"cebpf4jnsgd1na2vs0mg"},{"bike_id":"72fa9ad8-ea98-4a51-af5f-c7ea4330b9e0","system_id":"levelo_inurba_marseille","lat":43.26794,"lon":5.39411,"is_reserved":false,"is_disabled":false,"rental_uris":{"android":"levelo://app?vid=72fa9ad8-ea98-4a51-af5f-c7ea4330b9e0","ios":"levelo://app?vid=72fa9ad8-ea98-4a51-af5f-c7ea4330b9e0"},"vehicle_type_id":"4","last_reported":1742411283,"current_range_meters":10000,"station_id":"ce4bhh12rcd13ifvqfg0","pricing_plan_id":"cebpf4jnsgd1na2vs0mg"},{"bike_id":"96c79031-88be-472f-ba9e-6813fb6bce9e","system_id":"levelo_inurba_marseille","lat":43.30145,"lon":5.39895,"is_reserved":false,"is_disabled":false,"rental_uris":{"android":"levelo://app?vid=96c79031-88be-472f-ba9e-6813fb6bce9e","ios":"levelo://app?vid=96c79031-88be-472f-ba9e-6813fb6bce9e"},"vehicle_type_id":"4","last_reported":1742411283,"current_range_meters":10000,"station_id":"ce4bh0h2rcd13ifvqd40","pricing_plan_id":"cebpf4jnsgd1na2vs0mg"},{"bike_id":"1aeca2c4-e5de-4844-ad11-09b9cc6a03fe","system_id":"levelo_inurba_marseille","lat":43.29184,"lon":5.37148,"is_reserved":false,"is_disabled":false,"rental_uris":{"android":"levelo://app?vid=1aeca2c4-e5de-4844-ad11-09b9cc6a03fe","ios":"levelo://app?vid=1aeca2c4-e5de-4844-ad11-09b9cc6a03fe"},"vehicle_type_id":"4","last_reported":1742411283,"current_range_meters":10000,"station_id":"ce4bha92rcd13ifvqeh0","pricing_plan_id":"cebpf4jnsgd1na2vs0mg"},{"bike_id":"71cee084-4971-41dd-8931-6915b0a1225e","system_id":"levelo_inurba_marseille","lat":43.27815,"lon":5.40718,"is_reserved":false,"is_disabled":false,"rental_uris":{"android":"levelo://app?vid=71cee084-4971-41dd-8931-6915b0a1225e","ios":"levelo://app?vid=71cee084-4971-41dd-8931-6915b0a1225e"},"vehicle_type_id":"4","last_reported":1742411283,"current_range_meters":10000,"station_id":"ce4bhnh2rcd13ifvqgtg","pricing_plan_id":"cebpf4jnsgd1na2vs0mg"},{"bike_id":"010947dc-e025-465b-84f5-89986f4e1dff","system_id":"levelo_inurba_marseille","lat":43.26571,"lon":5.39022,"is_reserved":false,"is_disabled":false,"rental_uris":{"android":"levelo://app?vid=010947dc-e025-465b-84f5-89986f4e1dff","ios":"levelo://app?vid=010947dc-e025-465b-84f5-89986f4e1dff"},"vehicle_type_id":"4","last_reported":1742411283,"current_range_meters":10000,"station_id":"ce4bhe12rcd13ifvqf30","pricing_plan_id":"cebpf4jnsgd1na2vs0mg"},{"bike_id":"5ae11415-2fcc-481d-95c4-2763e2d58ea1","system_id":"levelo_inurba_marseille","lat":43.30602,"lon":5.37236,"is_reserved":false,"is_disabled":false,"rental_uris":{"android":"levelo://app?vid=5ae11415-2fcc-481d-95c4-2763e2d58ea1","ios":"levelo://app?vid=5ae11415-2fcc-481d-95c4-2763e2d58ea1"},"vehicle_type_id":"4","last_reported":1742411283,"current_range_meters":10000,"station_id":"ce4bgqh2rcd13ifvqc4g","pricing_plan_id":"cebpf4jnsgd1na2vs0mg"},{"bike_id":"4555c9db-daf7-48d5-ba70-0f38ad526007","system_id":"levelo_inurba_marseille","lat":43.269581,"lon":5.386128,"is_reserved":false,"is_disabled":false,"rental_uris":{"android":"levelo://app?vid=4555c9db-daf7-48d5-ba70-0f38ad526007","ios":"levelo://app?vid=4555c9db-daf7-48d5-ba70-0f38ad526007"},"vehicle_type_id":"4","last_reported":1742411283,"current_range_meters":6800,"station_id":"ce4bhg92rcd13ifvqf90","pricing_plan_id":"cebpf4jnsgd1na2vs0mg"},{"bike_id":"a8b8dae1-87ef-4f8a-a2c8-fe9fd9bf0f77","system_id":"levelo_inurba_marseille","lat":43.2353,"lon":5.37757,"is_reserved":false,"is_disabled":false,"rental_uris":{"android":"levelo://app?vid=a8b8dae1-87ef-4f8a-a2c8-fe9fd9bf0f77","ios":"levelo://app?vid=a8b8dae1-87ef-4f8a-a2c8-fe9fd9bf0f77"},"vehicle_type_id":"4","last_reported":1742411283,"current_range_meters":10800,"station_id":"","pricing_plan_id":"cebpf4jnsgd1na2vs0mg"},{"bike_id":"d88a0ac2-d1ba-49a6-863f-3f4f308ddb46","system_id":"levelo_inurba_marseille","lat":43.28707,"lon":5.37406,"is_reserved":false,"is_disabled":false,"rental_uris":{"android":"levelo://app?vid=d88a0ac2-d1ba-49a6-863f-3f4f308ddb46","ios":"levelo://app?vid=d88a0ac2-d1ba-49a6-863f-3f4f308ddb46"},"vehicle_type_id":"4","last_reported":1742411283,"current_range_meters":10800,"station_id":"ce4bh3p2rcd13ifvqdq0","pricing_plan_id":"cebpf4jnsgd1na2vs0mg"},{"bike_id":"573edf84-3408-4820-bcfd-34a468bdee5e","system_id":"levelo_inurba_marseille","lat":43.29273,"lon":5.36841,"is_reserved":false,"is_disabled":false,"rental_uris":{"android":"levelo://app?vid=573edf84-3408-4820-bcfd-34a468bdee5e","ios":"levelo://app?vid=573edf84-3408-4820-bcfd-34a468bdee5e"},"vehicle_type_id":"4","last_reported":1742411283,"current_range_meters":10800,"station_id":"ce4bhbp2rcd13ifvqesg","pricing_plan_id":"cebpf4jnsgd1na2vs0mg"},{"bike_id":"ee0f687c-08bb-4e36-98a2-e3de6b954481","system_id":"levelo_inurba_marseille","lat":43.24185,"lon":5.39742,"is_reserved":false,"is_disabled":false,"rental_uris":{"android":"levelo://app?vid=ee0f687c-08bb-4e36-98a2-e3de6b954481","ios":"levelo://app?vid=ee0f687c-08bb-4e36-98a2-e3de6b954481"},"vehicle_type_id":"4","last_reported":1742411283,"current_range_meters":10800,"station_id":"ce4bhn12rcd13ifvqgpg","pricing_plan_id":"cebpf4jnsgd1na2vs0mg"},{"bike_id":"e6c8473b-6f16-40c7-9d09-903e0bcd4e87","system_id":"levelo_inurba_marseille","lat":43.32558,"lon":5.41951,"is_reserved":false,"is_disabled":false,"rental_uris":{"android":"levelo://app?vid=e6c8473b-6f16-40c7-9d09-903e0bcd4e87","ios":"levelo://app?vid=e6c8473b-6f16-40c7-9d09-903e0bcd4e87"},"vehicle_type_id":"4","last_reported":1742411283,"current_range_meters":10800,"station_id":"","pricing_plan_id":"cebpf4jnsgd1na2vs0mg"},{"bike_id":"5e0bf5e8-4b28-46e2-bee9-5ebcbe5bdbad","system_id":"levelo_inurba_marseille","lat":43.31893,"lon":5.40729,"is_reserved":false,"is_disabled":false,"rental_uris":{"android":"levelo://app?vid=5e0bf5e8-4b28-46e2-bee9-5ebcbe5bdbad","ios":"levelo://app?vid=5e0bf5e8-4b28-46e2-bee9-5ebcbe5bdbad"},"vehicle_type_id":"4","last_reported":1742411283,"current_range_meters":10800,"station_id":"ce4bhq12rcd13ifvqhig","pricing_plan_id":"cebpf4jnsgd1na2vs0mg"},{"bike_id":"d034de08-8bae-488a-bd4f-ba1570a3511e","system_id":"levelo_inurba_marseille","lat":43.29879,"lon":5.39743,"is_reserved":false,"is_disabled":false,"rental_uris":{"android":"levelo://app?vid=d034de08-8bae-488a-bd4f-ba1570a3511e","ios":"levelo://app?vid=d034de08-8bae-488a-bd4f-ba1570a3511e"},"vehicle_type_id":"4","last_reported":1742411283,"current_range_meters":10800,"station_id":"ce4bh0h2rcd13ifvqd50","pricing_plan_id":"cebpf4jnsgd1na2vs0mg"},{"bike_id":"02f43b01-3b74-45fa-a40e-2df823c84cda","system_id":"levelo_inurba_marseille","lat":43.242,"lon":5.39724,"is_reserved":false,"is_disabled":false,"rental_uris":{"android":"levelo://app?vid=02f43b01-3b74-45fa-a40e-2df823c84cda","ios":"levelo://app?vid=02f43b01-3b74-45fa-a40e-2df823c84cda"},"vehicle_type_id":"4","last_reported":1742411283,"current_range_meters":10800,"station_id":"ce4bhn12rcd13ifvqgpg","pricing_plan_id":"cebpf4jnsgd1na2vs0mg"},{"bike_id":"149a7237-4b0c-4c09-b5e1-e29dc8e198e1","system_id":"levelo_inurba_marseille","lat":43.31284,"lon":5.40172,"is_reserved":false,"is_disabled":false,"rental_uris":{"android":"levelo://app?vid=149a7237-4b0c-4c09-b5e1-e29dc8e198e1","ios":"levelo://app?vid=149a7237-4b0c-4c09-b5e1-e29dc8e198e1"},"vehicle_type_id":"4","last_reported":1742411283,"current_range_meters":10800,"station_id":"ce4bh092rcd13ifvqd30","pricing_plan_id":"cebpf4jnsgd1na2vs0mg"},{"bike_id":"be036af4-450f-4ade-b2e8-93dd30177e73","system_id":"levelo_inurba_marseille","lat":43.28343,"lon":5.38114,"is_reserved":false,"is_disabled":false,"rental_uris":{"android":"levelo://app?vid=be036af4-450f-4ade-b2e8-93dd30177e73","ios":"levelo://app?vid=be036af4-450f-4ade-b2e8-93dd30177e73"},"vehicle_type_id":"4","last_reported":1742411283,"current_range_meters":16400,"station_id":"ce4bh412rcd13ifvqdr0","pricing_plan_id":"cebpf4jnsgd1na2vs0mg"},{"bike_id":"9d26c008-8ec1-4269-9cd2-f45774f03ccb","system_id":"levelo_inurba_marseille","lat":43.27936,"lon":5.37927,"is_reserved":false,"is_disabled":false,"rental_uris":{"android":"levelo://app?vid=9d26c008-8ec1-4269-9cd2-f45774f03ccb","ios":"levelo://app?vid=9d26c008-8ec1-4269-9cd2-f45774f03ccb"},"vehicle_type_id":"4","last_reported":1742411283,"current_range_meters":10800,"station_id":"","pricing_plan_id":"cebpf4jnsgd1na2vs0mg"},{"bike_id":"c139966f-679a-4129-9815-b81a5cdff23f","system_id":"levelo_inurba_marseille","lat":43.30594,"lon":5.39384,"is_reserved":false,"is_disabled":false,"rental_uris":{"android":"levelo://app?vid=c139966f-679a-4129-9815-b81a5cdff23f","ios":"levelo://app?vid=c139966f-679a-4129-9815-b81a5cdff23f"},"vehicle_type_id":"4","last_reported":1742411283,"current_range_meters":10800,"station_id":"ce4bh0p2rcd13ifvqd80","pricing_plan_id":"cebpf4jnsgd1na2vs0mg"},{"bike_id":"6b467574-69f1-40a2-a88f-6859ed54971d","system_id":"levelo_inurba_marseille","lat":43.33423,"lon":5.40048,"is_reserved":false,"is_disabled":false,"rental_uris":{"android":"levelo://app?vid=6b467574-69f1-40a2-a88f-6859ed54971d","ios":"levelo://app?vid=6b467574-69f1-40a2-a88f-6859ed54971d"},"vehicle_type_id":"4","last_reported":1742411283,"current_range_meters":10800,"station_id":"","pricing_plan_id":"cebpf4jnsgd1na2vs0mg"},{"bike_id":"6eb98e18-92f8-411c-92c0-82d5569fb85c","system_id":"levelo_inurba_marseille","lat":43.32364,"lon":5.36744,"is_reserved":false,"is_disabled":false,"rental_uris":{"android":"levelo://app?vid=6eb98e18-92f8-411c-92c0-82d5569fb85c","ios":"levelo://app?vid=6eb98e18-92f8-411c-92c0-82d5569fb85c"},"vehicle_type_id":"4","last_reported":1742411283,"current_range_meters":11200,"station_id":"ce4bhsh2rcd13ifvqi2g","pricing_plan_id":"cebpf4jnsgd1na2vs0mg"},{"bike_id":"d76ef15b-c569-4952-babe-60e55edc0838","system_id":"levelo_inurba_marseille","lat":43.29915,"lon":5.37483,"is_reserved":false,"is_disabled":false,"rental_uris":{"android":"levelo://app?vid=d76ef15b-c569-4952-babe-60e55edc0838","ios":"levelo://app?vid=d76ef15b-c569-4952-babe-60e55edc0838"},"vehicle_type_id":"4","last_reported":1742411283,"current_range_meters":11200,"station_id":"ce4bgjh2rcd13ifvqbg0","pricing_plan_id":"cebpf4jnsgd1na2vs0mg"},{"bike_id":"5859ac4a-6b2b-4060-b0b9-dee1768b4bfb","system_id":"levelo_inurba_marseille","lat":43.29169,"lon":5.37176,"is_reserved":false,"is_disabled":false,"rental_uris":{"android":"levelo://app?vid=5859ac4a-6b2b-4060-b0b9-dee1768b4bfb","ios":"levelo://app?vid=5859ac4a-6b2b-4060-b0b9-dee1768b4bfb"},"vehicle_type_id":"4","last_reported":1742411283,"current_range_meters":8000,"station_id":"ce4bha92rcd13ifvqeh0","pricing_plan_id":"cebpf4jnsgd1na2vs0mg"},{"bike_id":"4de03db8-98f0-4442-9f47-5d0a4ef807b1","system_id":"levelo_inurba_marseille","lat":43.28722,"lon":5.36107,"is_reserved":false,"is_disabled":false,"rental_uris":{"android":"levelo://app?vid=4de03db8-98f0-4442-9f47-5d0a4ef807b1","ios":"levelo://app?vid=4de03db8-98f0-4442-9f47-5d0a4ef807b1"},"vehicle_type_id":"4","last_reported":1742411283,"current_range_meters":11200,"station_id":"cki0cbj6b192h4jlfktg","pricing_plan_id":"cebpf4jnsgd1na2vs0mg"},{"bike_id":"f4c4bf6d-48a4-4198-942b-eda89b945e41","system_id":"levelo_inurba_marseille","lat":43.27367,"lon":5.36258,"is_reserved":false,"is_disabled":false,"rental_uris":{"android":"levelo://app?vid=f4c4bf6d-48a4-4198-942b-eda89b945e41","ios":"levelo://app?vid=f4c4bf6d-48a4-4198-942b-eda89b945e41"},"vehicle_type_id":"4","last_reported":1742411283,"current_range_meters":11200,"station_id":"ce4bhbh2rcd13ifvqeo0","pricing_plan_id":"cebpf4jnsgd1na2vs0mg"},{"bike_id":"189ee55e-baa1-4ab1-8760-6cbbbeff95f9","system_id":"levelo_inurba_marseille","lat":43.29976,"lon":5.36546,"is_reserved":false,"is_disabled":false,"rental_uris":{"android":"levelo://app?vid=189ee55e-baa1-4ab1-8760-6cbbbeff95f9","ios":"levelo://app?vid=189ee55e-baa1-4ab1-8760-6cbbbeff95f9"},"vehicle_type_id":"4","last_reported":1742411283,"current_range_meters":11200,"station_id":"ce4bgm92rcd13ifvqbr0","pricing_plan_id":"cebpf4jnsgd1na2vs0mg"},{"bike_id":"38700e88-0eed-4189-a7cd-49878612c994","system_id":"levelo_inurba_marseille","lat":43.3157,"lon":5.38908,"is_reserved":false,"is_disabled":false,"rental_uris":{"android":"levelo://app?vid=38700e88-0eed-4189-a7cd-49878612c994","ios":"levelo://app?vid=38700e88-0eed-4189-a7cd-49878612c994"},"vehicle_type_id":"4","last_reported":1742411283,"current_range_meters":11200,"station_id":"","pricing_plan_id":"cebpf4jnsgd1na2vs0mg"},{"bike_id":"074588d8-0ba9-45a0-bfc5-6e66f399a254","system_id":"levelo_inurba_marseille","lat":43.31086,"lon":5.4243,"is_reserved":false,"is_disabled":false,"rental_uris":{"android":"levelo://app?vid=074588d8-0ba9-45a0-bfc5-6e66f399a254","ios":"levelo://app?vid=074588d8-0ba9-45a0-bfc5-6e66f399a254"},"vehicle_type_id":"4","last_reported":1742411283,"current_range_meters":11200,"station_id":"ce4bhp92rcd13ifvqhag","pricing_plan_id":"cebpf4jnsgd1na2vs0mg"},{"bike_id":"50052a34-cd4d-455e-89a2-d030d8c6c1ad","system_id":"levelo_inurba_marseille","lat":43.24144,"lon":5.38929,"is_reserved":false,"is_disabled":false,"rental_uris":{"android":"levelo://app?vid=50052a34-cd4d-455e-89a2-d030d8c6c1ad","ios":"levelo://app?vid=50052a34-cd4d-455e-89a2-d030d8c6c1ad"},"vehicle_type_id":"4","last_reported":1742411283,"current_range_meters":11600,"station_id":"","pricing_plan_id":"cebpf4jnsgd1na2vs0mg"},{"bike_id":"fb08d9c7-5c3f-45fd-a88a-cbc364d06f90","system_id":"levelo_inurba_marseille","lat":43.29986,"lon":5.37171,"is_reserved":false,"is_disabled":false,"rental_uris":{"android":"levelo://app?vid=fb08d9c7-5c3f-45fd-a88a-cbc364d06f90","ios":"levelo://app?vid=fb08d9c7-5c3f-45fd-a88a-cbc364d06f90"},"vehicle_type_id":"4","last_reported":1742411283,"current_range_meters":11600,"station_id":"ce4bgr92rcd13ifvqc7g","pricing_plan_id":"cebpf4jnsgd1na2vs0mg"},{"bike_id":"7487c017-9012-4d7c-970a-b99461f7c155","system_id":"levelo_inurba_marseille","lat":43.32355,"lon":5.40624,"is_reserved":false,"is_disabled":false,"rental_uris":{"android":"levelo://app?vid=7487c017-9012-4d7c-970a-b99461f7c155","ios":"levelo://app?vid=7487c017-9012-4d7c-970a-b99461f7c155"},"vehicle_type_id":"4","last_reported":1742411283,"current_range_meters":11600,"station_id":"ce4bhq92rcd13ifvqhjg","pricing_plan_id":"cebpf4jnsgd1na2vs0mg"},{"bike_id":"ef52c551-eb67-486d-85cc-ce2612d4cc9c","system_id":"levelo_inurba_marseille","lat":43.30326,"lon":5.40445,"is_reserved":false,"is_disabled":false,"rental_uris":{"android":"levelo://app?vid=ef52c551-eb67-486d-85cc-ce2612d4cc9c","ios":"levelo://app?vid=ef52c551-eb67-486d-85cc-ce2612d4cc9c"},"vehicle_type_id":"4","last_reported":1742411283,"current_range_meters":11600,"station_id":"ce4bh012rcd13ifvqd10","pricing_plan_id":"cebpf4jnsgd1na2vs0mg"},{"bike_id":"c4f57f35-d09f-4ca7-9341-258bbbe6b121","system_id":"levelo_inurba_marseille","lat":43.29264,"lon":5.38432,"is_reserved":false,"is_disabled":false,"rental_uris":{"android":"levelo://app?vid=c4f57f35-d09f-4ca7-9341-258bbbe6b121","ios":"levelo://app?vid=c4f57f35-d09f-4ca7-9341-258bbbe6b121"},"vehicle_type_id":"4","last_reported":1742411283,"current_range_meters":11600,"station_id":"ce4bh692rcd13ifvqea0","pricing_plan_id":"cebpf4jnsgd1na2vs0mg"},{"bike_id":"94ffa62a-c0a8-48b0-83e4-7237e17e0e07","system_id":"levelo_inurba_marseille","lat":43.27955,"lon":5.41047,"is_reserved":false,"is_disabled":false,"rental_uris":{"android":"levelo://app?vid=94ffa62a-c0a8-48b0-83e4-7237e17e0e07","ios":"levelo://app?vid=94ffa62a-c0a8-48b0-83e4-7237e17e0e07"},"vehicle_type_id":"4","last_reported":1742411283,"current_range_meters":11600,"station_id":"ce4bhnp2rcd13ifvqh0g","pricing_plan_id":"cebpf4jnsgd1na2vs0mg"},{"bike_id":"7c23dcb0-31a4-457d-8cd5-05a913c017d4","system_id":"levelo_inurba_marseille","lat":43.33046,"lon":5.39032,"is_reserved":false,"is_disabled":false,"rental_uris":{"android":"levelo://app?vid=7c23dcb0-31a4-457d-8cd5-05a913c017d4","ios":"levelo://app?vid=7c23dcb0-31a4-457d-8cd5-05a913c017d4"},"vehicle_type_id":"4","last_reported":1742411283,"current_range_meters":11600,"station_id":"ce4bhr92rcd13ifvqhrg","pricing_plan_id":"cebpf4jnsgd1na2vs0mg"},{"bike_id":"176d2e0b-da43-4b98-b92e-b45d4ab12b2f","system_id":"levelo_inurba_marseille","lat":43.30226,"lon":5.3848,"is_reserved":false,"is_disabled":false,"rental_uris":{"android":"levelo://app?vid=176d2e0b-da43-4b98-b92e-b45d4ab12b2f","ios":"levelo://app?vid=176d2e0b-da43-4b98-b92e-b45d4ab12b2f"},"vehicle_type_id":"4","last_reported":1742411283,"current_range_meters":11600,"station_id":"","pricing_plan_id":"cebpf4jnsgd1na2vs0mg"},{"bike_id":"9a407e55-d314-42fc-8c32-c5b5dcba6239","system_id":"levelo_inurba_marseille","lat":43.26238,"lon":5.40452,"is_reserved":false,"is_disabled":false,"rental_uris":{"android":"levelo://app?vid=9a407e55-d314-42fc-8c32-c5b5dcba6239","ios":"levelo://app?vid=9a407e55-d314-42fc-8c32-c5b5dcba6239"},"vehicle_type_id":"4","last_reported":1742411283,"current_range_meters":12000,"station_id":"ce4bhmh2rcd13ifvqgmg","pricing_plan_id":"cebpf4jnsgd1na2vs0mg"},{"bike_id":"3d6e5bb2-49a5-4ae9-ac7c-7c3250491a49","system_id":"levelo_inurba_marseille","lat":43.28903,"lon":5.35952,"is_reserved":false,"is_disabled":false,"rental_uris":{"android":"levelo://app?vid=3d6e5bb2-49a5-4ae9-ac7c-7c3250491a49","ios":"levelo://app?vid=3d6e5bb2-49a5-4ae9-ac7c-7c3250491a49"},"vehicle_type_id":"4","last_reported":1742411283,"current_range_meters":12000,"station_id":"","pricing_plan_id":"cebpf4jnsgd1na2vs0mg"},{"bike_id":"3b7d6bb1-5d76-4e9a-a8f0-a3fefca51555","system_id":"levelo_inurba_marseille","lat":43.29203,"lon":5.3934,"is_reserved":false,"is_disabled":false,"rental_uris":{"android":"levelo://app?vid=3b7d6bb1-5d76-4e9a-a8f0-a3fefca51555","ios":"levelo://app?vid=3b7d6bb1-5d76-4e9a-a8f0-a3fefca51555"},"vehicle_type_id":"4","last_reported":1742411283,"current_range_meters":12000,"station_id":"ce4bh192rcd13ifvqdd0","pricing_plan_id":"cebpf4jnsgd1na2vs0mg"},{"bike_id":"671210b1-9e8f-4893-953f-985ab8b97e34","system_id":"levelo_inurba_marseille","lat":43.32093,"lon":5.36793,"is_reserved":false,"is_disabled":false,"rental_uris":{"android":"levelo://app?vid=671210b1-9e8f-4893-953f-985ab8b97e34","ios":"levelo://app?vid=671210b1-9e8f-4893-953f-985ab8b97e34"},"vehicle_type_id":"4","last_reported":1742411283,"current_range_meters":12000,"station_id":"ce4bhrh2rcd13ifvqhug","pricing_plan_id":"cebpf4jnsgd1na2vs0mg"},{"bike_id":"477b3b7f-28c2-49ea-8f4e-2b4d1861b94d","system_id":"levelo_inurba_marseille","lat":43.25579,"lon":5.38259,"is_reserved":false,"is_disabled":false,"rental_uris":{"android":"levelo://app?vid=477b3b7f-28c2-49ea-8f4e-2b4d1861b94d","ios":"levelo://app?vid=477b3b7f-28c2-49ea-8f4e-2b4d1861b94d"},"vehicle_type_id":"4","last_reported":1742411283,"current_range_meters":12000,"station_id":"ce4bhih2rcd13ifvqfs0","pricing_plan_id":"cebpf4jnsgd1na2vs0mg"},{"bike_id":"a829f83b-8d02-4109-b41a-56f2d834466a","system_id":"levelo_inurba_marseille","lat":43.25496,"lon":5.37646,"is_reserved":false,"is_disabled":false,"rental_uris":{"android":"levelo://app?vid=a829f83b-8d02-4109-b41a-56f2d834466a","ios":"levelo://app?vid=a829f83b-8d02-4109-b41a-56f2d834466a"},"vehicle_type_id":"4","last_reported":1742411283,"current_range_meters":12000,"station_id":"ce4bhh12rcd13ifvqff0","pricing_plan_id":"cebpf4jnsgd1na2vs0mg"},{"bike_id":"5fa9603c-7d67-4643-b711-7a88e9c9a8a2","system_id":"levelo_inurba_marseille","lat":43.2695,"lon":5.38652,"is_reserved":false,"is_disabled":false,"rental_uris":{"android":"levelo://app?vid=5fa9603c-7d67-4643-b711-7a88e9c9a8a2","ios":"levelo://app?vid=5fa9603c-7d67-4643-b711-7a88e9c9a8a2"},"vehicle_type_id":"4","last_reported":1742411283,"current_range_meters":12000,"station_id":"ce4bhh92rcd13ifvqfh0","pricing_plan_id":"cebpf4jnsgd1na2vs0mg"},{"bike_id":"08d7c67c-f042-4ce8-ad6a-f8598c3a26c7","system_id":"levelo_inurba_marseille","lat":43.27816,"lon":5.40713,"is_reserved":false,"is_disabled":false,"rental_uris":{"android":"levelo://app?vid=08d7c67c-f042-4ce8-ad6a-f8598c3a26c7","ios":"levelo://app?vid=08d7c67c-f042-4ce8-ad6a-f8598c3a26c7"},"vehicle_type_id":"4","last_reported":1742411283,"current_range_meters":12400,"station_id":"ce4bhnh2rcd13ifvqgtg","pricing_plan_id":"cebpf4jnsgd1na2vs0mg"},{"bike_id":"d83fba53-f25b-4d9c-910d-f2dc16b1fbe2","system_id":"levelo_inurba_marseille","lat":43.29969,"lon":5.38491,"is_reserved":false,"is_disabled":false,"rental_uris":{"android":"levelo://app?vid=d83fba53-f25b-4d9c-910d-f2dc16b1fbe2","ios":"levelo://app?vid=d83fba53-f25b-4d9c-910d-f2dc16b1fbe2"},"vehicle_type_id":"4","last_reported":1742411283,"current_range_meters":12400,"station_id":"ce4bgj92rcd13ifvqbd0","pricing_plan_id":"cebpf4jnsgd1na2vs0mg"},{"bike_id":"88d769fa-ee51-4053-8d1a-3b5657a9a492","system_id":"levelo_inurba_marseille","lat":43.29261,"lon":5.38426,"is_reserved":false,"is_disabled":false,"rental_uris":{"android":"levelo://app?vid=88d769fa-ee51-4053-8d1a-3b5657a9a492","ios":"levelo://app?vid=88d769fa-ee51-4053-8d1a-3b5657a9a492"},"vehicle_type_id":"4","last_reported":1742411283,"current_range_meters":12400,"station_id":"ce4bh692rcd13ifvqea0","pricing_plan_id":"cebpf4jnsgd1na2vs0mg"},{"bike_id":"6de380d4-76f4-4890-ab2a-21d109add169","system_id":"levelo_inurba_marseille","lat":43.290924,"lon":5.381331,"is_reserved":false,"is_disabled":false,"rental_uris":{"android":"levelo://app?vid=6de380d4-76f4-4890-ab2a-21d109add169","ios":"levelo://app?vid=6de380d4-76f4-4890-ab2a-21d109add169"},"vehicle_type_id":"4","last_reported":1742411283,"current_range_meters":12400,"station_id":"ce4bhc92rcd13ifvqetg","pricing_plan_id":"cebpf4jnsgd1na2vs0mg"},{"bike_id":"0af285be-0294-4c23-9728-cedd0c1ca6b2","system_id":"levelo_inurba_marseille","lat":43.23207,"lon":5.39965,"is_reserved":false,"is_disabled":false,"rental_uris":{"android":"levelo://app?vid=0af285be-0294-4c23-9728-cedd0c1ca6b2","ios":"levelo://app?vid=0af285be-0294-4c23-9728-cedd0c1ca6b2"},"vehicle_type_id":"4","last_reported":1742411283,"current_range_meters":12400,"station_id":"ce4bhn12rcd13ifvqgqg","pricing_plan_id":"cebpf4jnsgd1na2vs0mg"},{"bike_id":"471b8c1a-1a85-4080-b533-fb41f3dbfd81","system_id":"levelo_inurba_marseille","lat":43.23198,"lon":5.35557,"is_reserved":false,"is_disabled":false,"rental_uris":{"android":"levelo://app?vid=471b8c1a-1a85-4080-b533-fb41f3dbfd81","ios":"levelo://app?vid=471b8c1a-1a85-4080-b533-fb41f3dbfd81"},"vehicle_type_id":"4","last_reported":1742411283,"current_range_meters":12400,"station_id":"ce4bhu92rcd13ifvqi70","pricing_plan_id":"cebpf4jnsgd1na2vs0mg"},{"bike_id":"080df194-4e82-4c97-98e7-b535b0bf6501","system_id":"levelo_inurba_marseille","lat":43.30135,"lon":5.39877,"is_reserved":false,"is_disabled":false,"rental_uris":{"android":"levelo://app?vid=080df194-4e82-4c97-98e7-b535b0bf6501","ios":"levelo://app?vid=080df194-4e82-4c97-98e7-b535b0bf6501"},"vehicle_type_id":"4","last_reported":1742411283,"current_range_meters":12400,"station_id":"ce4bh0h2rcd13ifvqd40","pricing_plan_id":"cebpf4jnsgd1na2vs0mg"},{"bike_id":"2841284f-de3f-4cd5-a5a2-d8c36e4314ed","system_id":"levelo_inurba_marseille","lat":43.2893,"lon":5.36632,"is_reserved":false,"is_disabled":false,"rental_uris":{"android":"levelo://app?vid=2841284f-de3f-4cd5-a5a2-d8c36e4314ed","ios":"levelo://app?vid=2841284f-de3f-4cd5-a5a2-d8c36e4314ed"},"vehicle_type_id":"4","last_reported":1742411283,"current_range_meters":12400,"station_id":"ce4bhap2rcd13ifvqek0","pricing_plan_id":"cebpf4jnsgd1na2vs0mg"},{"bike_id":"c897b19b-dc00-4ea4-be4b-8f530c8c1a8d","system_id":"levelo_inurba_marseille","lat":43.24074,"lon":5.37764,"is_reserved":false,"is_disabled":false,"rental_uris":{"android":"levelo://app?vid=c897b19b-dc00-4ea4-be4b-8f530c8c1a8d","ios":"levelo://app?vid=c897b19b-dc00-4ea4-be4b-8f530c8c1a8d"},"vehicle_type_id":"4","last_reported":1742411283,"current_range_meters":12400,"station_id":"ce4bhnp2rcd13ifvqgvg","pricing_plan_id":"cebpf4jnsgd1na2vs0mg"},{"bike_id":"804f10ab-f7c1-40bb-b804-59bfbcddb4d8","system_id":"levelo_inurba_marseille","lat":43.27857,"lon":5.4074,"is_reserved":false,"is_disabled":false,"rental_uris":{"android":"levelo://app?vid=804f10ab-f7c1-40bb-b804-59bfbcddb4d8","ios":"levelo://app?vid=804f10ab-f7c1-40bb-b804-59bfbcddb4d8"},"vehicle_type_id":"4","last_reported":1742411283,"current_range_meters":12400,"station_id":"","pricing_plan_id":"cebpf4jnsgd1na2vs0mg"},{"bike_id":"c405ab68-223f-47db-99ed-c18c10d1f19e","system_id":"levelo_inurba_marseille","lat":43.28642,"lon":5.35105,"is_reserved":false,"is_disabled":false,"rental_uris":{"android":"levelo://app?vid=c405ab68-223f-47db-99ed-c18c10d1f19e","ios":"levelo://app?vid=c405ab68-223f-47db-99ed-c18c10d1f19e"},"vehicle_type_id":"4","last_reported":1742411283,"current_range_meters":12400,"station_id":"ce4bhch2rcd13ifvqeug","pricing_plan_id":"cebpf4jnsgd1na2vs0mg"},{"bike_id":"e4834f49-b485-46fe-afd0-ed2a95c04bc1","system_id":"levelo_inurba_marseille","lat":43.295697,"lon":5.399716,"is_reserved":false,"is_disabled":false,"rental_uris":{"android":"levelo://app?vid=e4834f49-b485-46fe-afd0-ed2a95c04bc1","ios":"levelo://app?vid=e4834f49-b485-46fe-afd0-ed2a95c04bc1"},"vehicle_type_id":"4","last_reported":1742411283,"current_range_meters":12400,"station_id":"ce4bh312rcd13ifvqdj0","pricing_plan_id":"cebpf4jnsgd1na2vs0mg"},{"bike_id":"448032fa-36d3-4141-a79a-f70672d9c5e7","system_id":"levelo_inurba_marseille","lat":43.28002,"lon":5.40018,"is_reserved":false,"is_disabled":false,"rental_uris":{"android":"levelo://app?vid=448032fa-36d3-4141-a79a-f70672d9c5e7","ios":"levelo://app?vid=448032fa-36d3-4141-a79a-f70672d9c5e7"},"vehicle_type_id":"4","last_reported":1742411283,"current_range_meters":12400,"station_id":"ce4bho92rcd13ifvqh4g","pricing_plan_id":"cebpf4jnsgd1na2vs0mg"},{"bike_id":"6c7e51d2-e2f9-4032-b4ac-95afc513e72e","system_id":"levelo_inurba_marseille","lat":43.2738,"lon":5.36246,"is_reserved":false,"is_disabled":false,"rental_uris":{"android":"levelo://app?vid=6c7e51d2-e2f9-4032-b4ac-95afc513e72e","ios":"levelo://app?vid=6c7e51d2-e2f9-4032-b4ac-95afc513e72e"},"vehicle_type_id":"4","last_reported":1742411283,"current_range_meters":12800,"station_id":"ce4bhbh2rcd13ifvqeo0","pricing_plan_id":"cebpf4jnsgd1na2vs0mg"},{"bike_id":"cb6062cd-3cfa-4917-b79b-5707b99e3c03","system_id":"levelo_inurba_marseille","lat":43.321185,"lon":5.367534,"is_reserved":false,"is_disabled":false,"rental_uris":{"android":"levelo://app?vid=cb6062cd-3cfa-4917-b79b-5707b99e3c03","ios":"levelo://app?vid=cb6062cd-3cfa-4917-b79b-5707b99e3c03"},"vehicle_type_id":"4","last_reported":1742411283,"current_range_meters":12800,"station_id":"ce4bho92rcd13ifvqh3g","pricing_plan_id":"cebpf4jnsgd1na2vs0mg"},{"bike_id":"76136702-02e6-4307-a2bd-14b4c39ee8c8","system_id":"levelo_inurba_marseille","lat":43.25587,"lon":5.38234,"is_reserved":false,"is_disabled":false,"rental_uris":{"android":"levelo://app?vid=76136702-02e6-4307-a2bd-14b4c39ee8c8","ios":"levelo://app?vid=76136702-02e6-4307-a2bd-14b4c39ee8c8"},"vehicle_type_id":"4","last_reported":1742411283,"current_range_meters":12800,"station_id":"ce4bhih2rcd13ifvqfs0","pricing_plan_id":"cebpf4jnsgd1na2vs0mg"},{"bike_id":"fa8c7382-63e1-40d7-a9d0-be4a609ab3ae","system_id":"levelo_inurba_marseille","lat":43.28835,"lon":5.39319,"is_reserved":false,"is_disabled":false,"rental_uris":{"android":"levelo://app?vid=fa8c7382-63e1-40d7-a9d0-be4a609ab3ae","ios":"levelo://app?vid=fa8c7382-63e1-40d7-a9d0-be4a609ab3ae"},"vehicle_type_id":"4","last_reported":1742411283,"current_range_meters":12800,"station_id":"ce4bh2p2rcd13ifvqdi0","pricing_plan_id":"cebpf4jnsgd1na2vs0mg"},{"bike_id":"b1524aa3-adf1-4734-92c9-120faa2f5dcb","system_id":"levelo_inurba_marseille","lat":43.30598,"lon":5.37225,"is_reserved":false,"is_disabled":false,"rental_uris":{"android":"levelo://app?vid=b1524aa3-adf1-4734-92c9-120faa2f5dcb","ios":"levelo://app?vid=b1524aa3-adf1-4734-92c9-120faa2f5dcb"},