{"last_updated":1777378731,"ttl":60,"version":"2.2","data":{"bikes":[{"bike_id":"95fcacf0-7086-4a79-916d-eb3549d744d3","system_id":"levelo_inurba_marseille","lat":43.337444,"lon":5.374475,"is_reserved":false,"is_disabled":false,"rental_uris":{"android":"levelo://app?vid=95fcacf0-7086-4a79-916d-eb3549d744d3","ios":"levelo://app?vid=95fcacf0-7086-4a79-916d-eb3549d744d3"},"vehicle_type_id":"4","last_reported":1777378731,"current_range_meters":2800,"station_id":"","pricing_plan_id":"cebpf4jnsgd1na2vs0mg"},{"bike_id":"a12bff03-7417-452f-8acb-a1d3c1fe28e2","system_id":"levelo_inurba_marseille","lat":43.33752,"lon":5.37473,"is_reserved":false,"is_disabled":true,"rental_uris":{"android":"levelo://app?vid=a12bff03-7417-452f-8acb-a1d3c1fe28e2","ios":"levelo://app?vid=a12bff03-7417-452f-8acb-a1d3c1fe28e2"},"vehicle_type_id":"4","last_reported":1777378731,"current_range_meters":2800,"station_id":"","pricing_plan_id":"cebpf4jnsgd1na2vs0mg"},{"bike_id":"f06ae8ee-2b19-4e8d-9be9-10c4d5308c2e","system_id":"levelo_inurba_marseille","lat":43.25015,"lon":5.3891,"is_reserved":false,"is_disabled":true,"rental_uris":{"android":"levelo://app?vid=f06ae8ee-2b19-4e8d-9be9-10c4d5308c2e","ios":"levelo://app?vid=f06ae8ee-2b19-4e8d-9be9-10c4d5308c2e"},"vehicle_type_id":"4","last_reported":1777378731,"current_range_meters":2800,"station_id":"ce4bhgp2rcd13ifvqfd0","pricing_plan_id":"cebpf4jnsgd1na2vs0mg"},{"bike_id":"28873531-60e8-41b8-a7f0-41d33833775e","system_id":"levelo_inurba_marseille","lat":43.28479,"lon":5.4839,"is_reserved":false,"is_disabled":false,"rental_uris":{"android":"levelo://app?vid=28873531-60e8-41b8-a7f0-41d33833775e","ios":"levelo://app?vid=28873531-60e8-41b8-a7f0-41d33833775e"},"vehicle_type_id":"4","last_reported":1777378731,"current_range_meters":2800,"station_id":"","pricing_plan_id":"cebpf4jnsgd1na2vs0mg"},{"bike_id":"c765ce5c-45bc-447e-9efa-85d8e386f7bb","system_id":"levelo_inurba_marseille","lat":43.26211,"lon":5.37436,"is_reserved":false,"is_disabled":false,"rental_uris":{"android":"levelo://app?vid=c765ce5c-45bc-447e-9efa-85d8e386f7bb","ios":"levelo://app?vid=c765ce5c-45bc-447e-9efa-85d8e386f7bb"},"vehicle_type_id":"4","last_reported":1777378731,"current_range_meters":2800,"station_id":"ce4bhgp2rcd13ifvqfc0","pricing_plan_id":"cebpf4jnsgd1na2vs0mg"},{"bike_id":"5eb2f4a7-c22e-4c35-972f-0451af81298e","system_id":"levelo_inurba_marseille","lat":43.240795,"lon":5.377559,"is_reserved":false,"is_disabled":false,"rental_uris":{"android":"levelo://app?vid=5eb2f4a7-c22e-4c35-972f-0451af81298e","ios":"levelo://app?vid=5eb2f4a7-c22e-4c35-972f-0451af81298e"},"vehicle_type_id":"4","last_reported":1777378731,"current_range_meters":2800,"station_id":"ce4bhnp2rcd13ifvqgvg","pricing_plan_id":"cebpf4jnsgd1na2vs0mg"},{"bike_id":"68544c27-fd60-449e-8db4-a86f2ca974c8","system_id":"levelo_inurba_marseille","lat":43.24387,"lon":5.37059,"is_reserved":false,"is_disabled":false,"rental_uris":{"android":"levelo://app?vid=68544c27-fd60-449e-8db4-a86f2ca974c8","ios":"levelo://app?vid=68544c27-fd60-449e-8db4-a86f2ca974c8"},"vehicle_type_id":"4","last_reported":1777378731,"current_range_meters":2800,"station_id":"ce4bhhh2rcd13ifvqfk0","pricing_plan_id":"cebpf4jnsgd1na2vs0mg"},{"bike_id":"1cf91fff-0ad3-423b-882e-2a9e42ce42f8","system_id":"levelo_inurba_marseille","lat":43.28973,"lon":5.37826,"is_reserved":false,"is_disabled":false,"rental_uris":{"android":"levelo://app?vid=1cf91fff-0ad3-423b-882e-2a9e42ce42f8","ios":"levelo://app?vid=1cf91fff-0ad3-423b-882e-2a9e42ce42f8"},"vehicle_type_id":"4","last_reported":1777378731,"current_range_meters":3200,"station_id":"ce4bh9p2rcd13ifvqed0","pricing_plan_id":"cebpf4jnsgd1na2vs0mg"},{"bike_id":"2e44a002-26ef-4663-8fe8-03b7e4ad6ae2","system_id":"levelo_inurba_marseille","lat":43.25133,"lon":5.40327,"is_reserved":false,"is_disabled":false,"rental_uris":{"android":"levelo://app?vid=2e44a002-26ef-4663-8fe8-03b7e4ad6ae2","ios":"levelo://app?vid=2e44a002-26ef-4663-8fe8-03b7e4ad6ae2"},"vehicle_type_id":"4","last_reported":1777378731,"current_range_meters":3200,"station_id":"ce4bhlh2rcd13ifvqgig","pricing_plan_id":"cebpf4jnsgd1na2vs0mg"},{"bike_id":"e641ec13-e12f-4915-afd7-d4c914b25653","system_id":"levelo_inurba_marseille","lat":43.29776,"lon":5.36954,"is_reserved":false,"is_disabled":false,"rental_uris":{"android":"levelo://app?vid=e641ec13-e12f-4915-afd7-d4c914b25653","ios":"levelo://app?vid=e641ec13-e12f-4915-afd7-d4c914b25653"},"vehicle_type_id":"4","last_reported":1777378731,"current_range_meters":3200,"station_id":"","pricing_plan_id":"cebpf4jnsgd1na2vs0mg"},{"bike_id":"c7367a6f-9739-4138-9601-45004d62171e","system_id":"levelo_inurba_marseille","lat":43.30262,"lon":5.40073,"is_reserved":false,"is_disabled":false,"rental_uris":{"android":"levelo://app?vid=c7367a6f-9739-4138-9601-45004d62171e","ios":"levelo://app?vid=c7367a6f-9739-4138-9601-45004d62171e"},"vehicle_type_id":"4","last_reported":1777378731,"current_range_meters":3200,"station_id":"ce4bgvh2rcd13ifvqcs0","pricing_plan_id":"cebpf4jnsgd1na2vs0mg"},{"bike_id":"87048b71-a564-4cde-b485-a2f98217d8ac","system_id":"levelo_inurba_marseille","lat":43.30536,"lon":5.36518,"is_reserved":false,"is_disabled":false,"rental_uris":{"android":"levelo://app?vid=87048b71-a564-4cde-b485-a2f98217d8ac","ios":"levelo://app?vid=87048b71-a564-4cde-b485-a2f98217d8ac"},"vehicle_type_id":"4","last_reported":1777378731,"current_range_meters":3200,"station_id":"ce4bgs12rcd13ifvqcag","pricing_plan_id":"cebpf4jnsgd1na2vs0mg"},{"bike_id":"ad9d8ab7-7c37-4963-8c0c-47ae3ffe382d","system_id":"levelo_inurba_marseille","lat":43.29862,"lon":5.38655,"is_reserved":false,"is_disabled":false,"rental_uris":{"android":"levelo://app?vid=ad9d8ab7-7c37-4963-8c0c-47ae3ffe382d","ios":"levelo://app?vid=ad9d8ab7-7c37-4963-8c0c-47ae3ffe382d"},"vehicle_type_id":"4","last_reported":1777378731,"current_range_meters":3200,"station_id":"","pricing_plan_id":"cebpf4jnsgd1na2vs0mg"},{"bike_id":"6c0e44b5-b4c6-4989-a0ec-b3c6d257ac1d","system_id":"levelo_inurba_marseille","lat":43.33186,"lon":5.37828,"is_reserved":false,"is_disabled":false,"rental_uris":{"android":"levelo://app?vid=6c0e44b5-b4c6-4989-a0ec-b3c6d257ac1d","ios":"levelo://app?vid=6c0e44b5-b4c6-4989-a0ec-b3c6d257ac1d"},"vehicle_type_id":"4","last_reported":1777378731,"current_range_meters":3600,"station_id":"","pricing_plan_id":"cebpf4jnsgd1na2vs0mg"},{"bike_id":"c883aa90-76c2-46e6-a718-c77cfef7cdf8","system_id":"levelo_inurba_marseille","lat":43.26556,"lon":5.37281,"is_reserved":false,"is_disabled":false,"rental_uris":{"android":"levelo://app?vid=c883aa90-76c2-46e6-a718-c77cfef7cdf8","ios":"levelo://app?vid=c883aa90-76c2-46e6-a718-c77cfef7cdf8"},"vehicle_type_id":"4","last_reported":1777378731,"current_range_meters":3600,"station_id":"ce4bhg12rcd13ifvqf70","pricing_plan_id":"cebpf4jnsgd1na2vs0mg"},{"bike_id":"8f13b61e-8a25-4927-8213-0f8d3090195b","system_id":"levelo_inurba_marseille","lat":43.28463,"lon":5.4842,"is_reserved":false,"is_disabled":false,"rental_uris":{"android":"levelo://app?vid=8f13b61e-8a25-4927-8213-0f8d3090195b","ios":"levelo://app?vid=8f13b61e-8a25-4927-8213-0f8d3090195b"},"vehicle_type_id":"4","last_reported":1777378731,"current_range_meters":3600,"station_id":"","pricing_plan_id":"cebpf4jnsgd1na2vs0mg"},{"bike_id":"ef8152fa-69a8-4897-80ba-16fd9081cac1","system_id":"levelo_inurba_marseille","lat":43.261912,"lon":5.374502,"is_reserved":false,"is_disabled":true,"rental_uris":{"android":"levelo://app?vid=ef8152fa-69a8-4897-80ba-16fd9081cac1","ios":"levelo://app?vid=ef8152fa-69a8-4897-80ba-16fd9081cac1"},"vehicle_type_id":"4","last_reported":1777378731,"current_range_meters":3600,"station_id":"","pricing_plan_id":"cebpf4jnsgd1na2vs0mg"},{"bike_id":"9f77f16b-502d-4ac5-8568-c59f78ec076e","system_id":"levelo_inurba_marseille","lat":43.2905,"lon":5.37717,"is_reserved":false,"is_disabled":false,"rental_uris":{"android":"levelo://app?vid=9f77f16b-502d-4ac5-8568-c59f78ec076e","ios":"levelo://app?vid=9f77f16b-502d-4ac5-8568-c59f78ec076e"},"vehicle_type_id":"4","last_reported":1777378731,"current_range_meters":3600,"station_id":"","pricing_plan_id":"cebpf4jnsgd1na2vs0mg"},{"bike_id":"6b9ceb44-f98b-4474-bf14-5e53602be7a5","system_id":"levelo_inurba_marseille","lat":43.33539,"lon":5.37453,"is_reserved":false,"is_disabled":false,"rental_uris":{"android":"levelo://app?vid=6b9ceb44-f98b-4474-bf14-5e53602be7a5","ios":"levelo://app?vid=6b9ceb44-f98b-4474-bf14-5e53602be7a5"},"vehicle_type_id":"4","last_reported":1777378731,"current_range_meters":3600,"station_id":"st_d46tts09ee8s73dlu43g","pricing_plan_id":"cebpf4jnsgd1na2vs0mg"},{"bike_id":"01e32da3-c184-4297-8e0f-e8722beaff12","system_id":"levelo_inurba_marseille","lat":43.280037,"lon":5.40017,"is_reserved":false,"is_disabled":false,"rental_uris":{"android":"levelo://app?vid=01e32da3-c184-4297-8e0f-e8722beaff12","ios":"levelo://app?vid=01e32da3-c184-4297-8e0f-e8722beaff12"},"vehicle_type_id":"4","last_reported":1777378731,"current_range_meters":3600,"station_id":"ce4bho92rcd13ifvqh4g","pricing_plan_id":"cebpf4jnsgd1na2vs0mg"},{"bike_id":"a2c89f30-5d86-437c-9c55-5e168ee70d47","system_id":"levelo_inurba_marseille","lat":43.28725,"lon":5.37936,"is_reserved":false,"is_disabled":false,"rental_uris":{"android":"levelo://app?vid=a2c89f30-5d86-437c-9c55-5e168ee70d47","ios":"levelo://app?vid=a2c89f30-5d86-437c-9c55-5e168ee70d47"},"vehicle_type_id":"4","last_reported":1777378731,"current_range_meters":3600,"station_id":"ce4bh9p2rcd13ifvqec0","pricing_plan_id":"cebpf4jnsgd1na2vs0mg"},{"bike_id":"f2a07287-abae-45e6-89bf-0adaa9ee5818","system_id":"levelo_inurba_marseille","lat":43.29172,"lon":5.37169,"is_reserved":false,"is_disabled":false,"rental_uris":{"android":"levelo://app?vid=f2a07287-abae-45e6-89bf-0adaa9ee5818","ios":"levelo://app?vid=f2a07287-abae-45e6-89bf-0adaa9ee5818"},"vehicle_type_id":"4","last_reported":1777378731,"current_range_meters":3600,"station_id":"ce4bha92rcd13ifvqeh0","pricing_plan_id":"cebpf4jnsgd1na2vs0mg"},{"bike_id":"5cbef2a7-8e83-4097-9949-5967c82353a9","system_id":"levelo_inurba_marseille","lat":43.32476,"lon":5.38281,"is_reserved":false,"is_disabled":false,"rental_uris":{"android":"levelo://app?vid=5cbef2a7-8e83-4097-9949-5967c82353a9","ios":"levelo://app?vid=5cbef2a7-8e83-4097-9949-5967c82353a9"},"vehicle_type_id":"4","last_reported":1777378731,"current_range_meters":4000,"station_id":"st_d4asgbiv49dc73anf9m0","pricing_plan_id":"cebpf4jnsgd1na2vs0mg"},{"bike_id":"b1cea831-5991-44e8-a8f3-6dd3d79c393d","system_id":"levelo_inurba_marseille","lat":43.3015,"lon":5.37407,"is_reserved":false,"is_disabled":false,"rental_uris":{"android":"levelo://app?vid=b1cea831-5991-44e8-a8f3-6dd3d79c393d","ios":"levelo://app?vid=b1cea831-5991-44e8-a8f3-6dd3d79c393d"},"vehicle_type_id":"4","last_reported":1777378731,"current_range_meters":4000,"station_id":"ce4bgs92rcd13ifvqcc0","pricing_plan_id":"cebpf4jnsgd1na2vs0mg"},{"bike_id":"77f1be50-d55c-4753-b02a-0b5e7117e7c7","system_id":"levelo_inurba_marseille","lat":43.31305,"lon":5.38194,"is_reserved":false,"is_disabled":false,"rental_uris":{"android":"levelo://app?vid=77f1be50-d55c-4753-b02a-0b5e7117e7c7","ios":"levelo://app?vid=77f1be50-d55c-4753-b02a-0b5e7117e7c7"},"vehicle_type_id":"4","last_reported":1777378731,"current_range_meters":4000,"station_id":"","pricing_plan_id":"cebpf4jnsgd1na2vs0mg"},{"bike_id":"3a90175f-92e1-4e40-8474-f22298d75423","system_id":"levelo_inurba_marseille","lat":43.27972,"lon":5.38733,"is_reserved":false,"is_disabled":false,"rental_uris":{"android":"levelo://app?vid=3a90175f-92e1-4e40-8474-f22298d75423","ios":"levelo://app?vid=3a90175f-92e1-4e40-8474-f22298d75423"},"vehicle_type_id":"4","last_reported":1777378731,"current_range_meters":4000,"station_id":"ce4bhg12rcd13ifvqf80","pricing_plan_id":"cebpf4jnsgd1na2vs0mg"},{"bike_id":"a1a8075c-c77e-4006-9e1e-0ae31d391c9d","system_id":"levelo_inurba_marseille","lat":43.27016,"lon":5.40239,"is_reserved":false,"is_disabled":false,"rental_uris":{"android":"levelo://app?vid=a1a8075c-c77e-4006-9e1e-0ae31d391c9d","ios":"levelo://app?vid=a1a8075c-c77e-4006-9e1e-0ae31d391c9d"},"vehicle_type_id":"4","last_reported":1777378731,"current_range_meters":4000,"station_id":"ce4bhk92rcd13ifvqgc0","pricing_plan_id":"cebpf4jnsgd1na2vs0mg"},{"bike_id":"6deabe31-7d63-47f7-9a2e-49343e89a2f8","system_id":"levelo_inurba_marseille","lat":43.26564,"lon":5.38999,"is_reserved":false,"is_disabled":true,"rental_uris":{"android":"levelo://app?vid=6deabe31-7d63-47f7-9a2e-49343e89a2f8","ios":"levelo://app?vid=6deabe31-7d63-47f7-9a2e-49343e89a2f8"},"vehicle_type_id":"4","last_reported":1777378731,"current_range_meters":4000,"station_id":"ce4bhe12rcd13ifvqf30","pricing_plan_id":"cebpf4jnsgd1na2vs0mg"},{"bike_id":"ecfeaa26-c805-44bd-8ceb-101ef04e8850","system_id":"levelo_inurba_marseille","lat":43.25815,"lon":5.39414,"is_reserved":false,"is_disabled":false,"rental_uris":{"android":"levelo://app?vid=ecfeaa26-c805-44bd-8ceb-101ef04e8850","ios":"levelo://app?vid=ecfeaa26-c805-44bd-8ceb-101ef04e8850"},"vehicle_type_id":"4","last_reported":1777378731,"current_range_meters":4000,"station_id":"ce4bhip2rcd13ifvqft0","pricing_plan_id":"cebpf4jnsgd1na2vs0mg"},{"bike_id":"fad41aa5-1aa5-4615-8eb5-3784e21b6d54","system_id":"levelo_inurba_marseille","lat":43.286986,"lon":5.466748,"is_reserved":false,"is_disabled":false,"rental_uris":{"android":"levelo://app?vid=fad41aa5-1aa5-4615-8eb5-3784e21b6d54","ios":"levelo://app?vid=fad41aa5-1aa5-4615-8eb5-3784e21b6d54"},"vehicle_type_id":"4","last_reported":1777378731,"current_range_meters":4000,"station_id":"st_d6tc3vkotcvc738tfjhg","pricing_plan_id":"cebpf4jnsgd1na2vs0mg"},{"bike_id":"519a7803-0aa0-4278-b835-c2dd547922e2","system_id":"levelo_inurba_marseille","lat":43.23152,"lon":5.43713,"is_reserved":false,"is_disabled":false,"rental_uris":{"android":"levelo://app?vid=519a7803-0aa0-4278-b835-c2dd547922e2","ios":"levelo://app?vid=519a7803-0aa0-4278-b835-c2dd547922e2"},"vehicle_type_id":"4","last_reported":1777378731,"current_range_meters":4000,"station_id":"ce4bhmp2rcd13ifvqgog","pricing_plan_id":"cebpf4jnsgd1na2vs0mg"},{"bike_id":"c04c42cf-36a4-4a3c-b656-dde2fe1bae7e","system_id":"levelo_inurba_marseille","lat":43.31904,"lon":5.36794,"is_reserved":false,"is_disabled":false,"rental_uris":{"android":"levelo://app?vid=c04c42cf-36a4-4a3c-b656-dde2fe1bae7e","ios":"levelo://app?vid=c04c42cf-36a4-4a3c-b656-dde2fe1bae7e"},"vehicle_type_id":"4","last_reported":1777378731,"current_range_meters":4000,"station_id":"st_d6o2h0d0559c73evc1b0","pricing_plan_id":"cebpf4jnsgd1na2vs0mg"},{"bike_id":"8b1f5d0b-fff3-453f-8e5c-32008a7ce404","system_id":"levelo_inurba_marseille","lat":43.26948,"lon":5.40254,"is_reserved":false,"is_disabled":false,"rental_uris":{"android":"levelo://app?vid=8b1f5d0b-fff3-453f-8e5c-32008a7ce404","ios":"levelo://app?vid=8b1f5d0b-fff3-453f-8e5c-32008a7ce404"},"vehicle_type_id":"4","last_reported":1777378731,"current_range_meters":4400,"station_id":"cjm6bp8fraef2m0cb0m0","pricing_plan_id":"cebpf4jnsgd1na2vs0mg"},{"bike_id":"248241ed-a435-44bc-81d7-733d752b62c6","system_id":"levelo_inurba_marseille","lat":43.3134,"lon":5.36778,"is_reserved":false,"is_disabled":false,"rental_uris":{"android":"levelo://app?vid=248241ed-a435-44bc-81d7-733d752b62c6","ios":"levelo://app?vid=248241ed-a435-44bc-81d7-733d752b62c6"},"vehicle_type_id":"4","last_reported":1777378731,"current_range_meters":4400,"station_id":"ce4bgr92rcd13ifvqc6g","pricing_plan_id":"cebpf4jnsgd1na2vs0mg"},{"bike_id":"d6fdf13f-3dc2-4c74-8c8b-6c68f684f3f3","system_id":"levelo_inurba_marseille","lat":43.28404,"lon":5.37511,"is_reserved":false,"is_disabled":false,"rental_uris":{"android":"levelo://app?vid=d6fdf13f-3dc2-4c74-8c8b-6c68f684f3f3","ios":"levelo://app?vid=d6fdf13f-3dc2-4c74-8c8b-6c68f684f3f3"},"vehicle_type_id":"4","last_reported":1777378731,"current_range_meters":4400,"station_id":"ce4bh412rcd13ifvqds0","pricing_plan_id":"cebpf4jnsgd1na2vs0mg"},{"bike_id":"bdc74eaa-48a1-4aa2-a00f-bca8d5016b1a","system_id":"levelo_inurba_marseille","lat":43.25927,"lon":5.40889,"is_reserved":false,"is_disabled":false,"rental_uris":{"android":"levelo://app?vid=bdc74eaa-48a1-4aa2-a00f-bca8d5016b1a","ios":"levelo://app?vid=bdc74eaa-48a1-4aa2-a00f-bca8d5016b1a"},"vehicle_type_id":"4","last_reported":1777378731,"current_range_meters":4400,"station_id":"ce4bhm92rcd13ifvqglg","pricing_plan_id":"cebpf4jnsgd1na2vs0mg"},{"bike_id":"2e1487b5-ffbe-4174-a3cb-5f2ca03b60ce","system_id":"levelo_inurba_marseille","lat":43.28478,"lon":5.48393,"is_reserved":false,"is_disabled":false,"rental_uris":{"android":"levelo://app?vid=2e1487b5-ffbe-4174-a3cb-5f2ca03b60ce","ios":"levelo://app?vid=2e1487b5-ffbe-4174-a3cb-5f2ca03b60ce"},"vehicle_type_id":"4","last_reported":1777378731,"current_range_meters":4400,"station_id":"st_d3svhcjqgbts73a3dn0g","pricing_plan_id":"cebpf4jnsgd1na2vs0mg"},{"bike_id":"87cc790b-60cd-436a-82f4-3796eb0e0cc9","system_id":"levelo_inurba_marseille","lat":43.29166,"lon":5.43575,"is_reserved":false,"is_disabled":false,"rental_uris":{"android":"levelo://app?vid=87cc790b-60cd-436a-82f4-3796eb0e0cc9","ios":"levelo://app?vid=87cc790b-60cd-436a-82f4-3796eb0e0cc9"},"vehicle_type_id":"4","last_reported":1777378731,"current_range_meters":4400,"station_id":"","pricing_plan_id":"cebpf4jnsgd1na2vs0mg"},{"bike_id":"4762e09b-59b8-41ab-9c32-7fa1853bb9b6","system_id":"levelo_inurba_marseille","lat":43.25491,"lon":5.41632,"is_reserved":false,"is_disabled":false,"rental_uris":{"android":"levelo://app?vid=4762e09b-59b8-41ab-9c32-7fa1853bb9b6","ios":"levelo://app?vid=4762e09b-59b8-41ab-9c32-7fa1853bb9b6"},"vehicle_type_id":"4","last_reported":1777378731,"current_range_meters":4400,"station_id":"","pricing_plan_id":"cebpf4jnsgd1na2vs0mg"},{"bike_id":"be8dc537-138a-46f2-8add-814e5d756daa","system_id":"levelo_inurba_marseille","lat":43.27617,"lon":5.36113,"is_reserved":false,"is_disabled":false,"rental_uris":{"android":"levelo://app?vid=be8dc537-138a-46f2-8add-814e5d756daa","ios":"levelo://app?vid=be8dc537-138a-46f2-8add-814e5d756daa"},"vehicle_type_id":"4","last_reported":1777378731,"current_range_meters":4400,"station_id":"ce4bgj92rcd13ifvqbe0","pricing_plan_id":"cebpf4jnsgd1na2vs0mg"},{"bike_id":"94ef7915-27f9-4408-a3cf-058abef5d435","system_id":"levelo_inurba_marseille","lat":43.28824,"lon":5.35921,"is_reserved":false,"is_disabled":false,"rental_uris":{"android":"levelo://app?vid=94ef7915-27f9-4408-a3cf-058abef5d435","ios":"levelo://app?vid=94ef7915-27f9-4408-a3cf-058abef5d435"},"vehicle_type_id":"4","last_reported":1777378731,"current_range_meters":4400,"station_id":"","pricing_plan_id":"cebpf4jnsgd1na2vs0mg"},{"bike_id":"6f11fda0-a8d9-49fd-bba9-9c851d3d327f","system_id":"levelo_inurba_marseille","lat":43.30544,"lon":5.36705,"is_reserved":false,"is_disabled":false,"rental_uris":{"android":"levelo://app?vid=6f11fda0-a8d9-49fd-bba9-9c851d3d327f","ios":"levelo://app?vid=6f11fda0-a8d9-49fd-bba9-9c851d3d327f"},"vehicle_type_id":"4","last_reported":1777378731,"current_range_meters":4800,"station_id":"ce4bgrp2rcd13ifvqc9g","pricing_plan_id":"cebpf4jnsgd1na2vs0mg"},{"bike_id":"7d24a3ee-0eb9-47a1-8904-33af700bdc69","system_id":"levelo_inurba_marseille","lat":43.28487,"lon":5.48385,"is_reserved":false,"is_disabled":false,"rental_uris":{"android":"levelo://app?vid=7d24a3ee-0eb9-47a1-8904-33af700bdc69","ios":"levelo://app?vid=7d24a3ee-0eb9-47a1-8904-33af700bdc69"},"vehicle_type_id":"4","last_reported":1777378731,"current_range_meters":4800,"station_id":"st_d3svhcjqgbts73a3dn0g","pricing_plan_id":"cebpf4jnsgd1na2vs0mg"},{"bike_id":"8ac0bd5f-2f2a-4833-ada5-2e9beded5ddb","system_id":"levelo_inurba_marseille","lat":43.31503,"lon":5.39136,"is_reserved":false,"is_disabled":false,"rental_uris":{"android":"levelo://app?vid=8ac0bd5f-2f2a-4833-ada5-2e9beded5ddb","ios":"levelo://app?vid=8ac0bd5f-2f2a-4833-ada5-2e9beded5ddb"},"vehicle_type_id":"4","last_reported":1777378731,"current_range_meters":4800,"station_id":"","pricing_plan_id":"cebpf4jnsgd1na2vs0mg"},{"bike_id":"14869599-ab60-4e86-8f2c-d0b35d29b95e","system_id":"levelo_inurba_marseille","lat":43.2565,"lon":5.41867,"is_reserved":false,"is_disabled":false,"rental_uris":{"android":"levelo://app?vid=14869599-ab60-4e86-8f2c-d0b35d29b95e","ios":"levelo://app?vid=14869599-ab60-4e86-8f2c-d0b35d29b95e"},"vehicle_type_id":"4","last_reported":1777378731,"current_range_meters":4800,"station_id":"","pricing_plan_id":"cebpf4jnsgd1na2vs0mg"},{"bike_id":"c57cd684-555b-441e-893b-2c046cfccd08","system_id":"levelo_inurba_marseille","lat":43.30557,"lon":5.36502,"is_reserved":false,"is_disabled":false,"rental_uris":{"android":"levelo://app?vid=c57cd684-555b-441e-893b-2c046cfccd08","ios":"levelo://app?vid=c57cd684-555b-441e-893b-2c046cfccd08"},"vehicle_type_id":"4","last_reported":1777378731,"current_range_meters":4800,"station_id":"ce4bgs12rcd13ifvqcag","pricing_plan_id":"cebpf4jnsgd1na2vs0mg"},{"bike_id":"2735ea2d-c96f-4ceb-aefb-b92c23c11e43","system_id":"levelo_inurba_marseille","lat":43.31131,"lon":5.37772,"is_reserved":false,"is_disabled":false,"rental_uris":{"android":"levelo://app?vid=2735ea2d-c96f-4ceb-aefb-b92c23c11e43","ios":"levelo://app?vid=2735ea2d-c96f-4ceb-aefb-b92c23c11e43"},"vehicle_type_id":"4","last_reported":1777378731,"current_range_meters":4800,"station_id":"ce4bgt92rcd13ifvqcg0","pricing_plan_id":"cebpf4jnsgd1na2vs0mg"},{"bike_id":"4380c71f-5b2e-44eb-8cd9-17a49a47f503","system_id":"levelo_inurba_marseille","lat":43.30217,"lon":5.39471,"is_reserved":false,"is_disabled":false,"rental_uris":{"android":"levelo://app?vid=4380c71f-5b2e-44eb-8cd9-17a49a47f503","ios":"levelo://app?vid=4380c71f-5b2e-44eb-8cd9-17a49a47f503"},"vehicle_type_id":"4","last_reported":1777378731,"current_range_meters":4800,"station_id":"ce4bh0p2rcd13ifvqd70","pricing_plan_id":"cebpf4jnsgd1na2vs0mg"},{"bike_id":"dc1e148b-dd60-4e5a-acc2-5e8e8362a765","system_id":"levelo_inurba_marseille","lat":43.25363,"lon":5.42173,"is_reserved":false,"is_disabled":false,"rental_uris":{"android":"levelo://app?vid=dc1e148b-dd60-4e5a-acc2-5e8e8362a765","ios":"levelo://app?vid=dc1e148b-dd60-4e5a-acc2-5e8e8362a765"},"vehicle_type_id":"4","last_reported":1777378731,"current_range_meters":4800,"station_id":"st_d2m65c5bi1j21697t3ng","pricing_plan_id":"cebpf4jnsgd1na2vs0mg"},{"bike_id":"82e651bc-a703-4ef0-91c1-6dfff28e2aab","system_id":"levelo_inurba_marseille","lat":43.29268,"lon":5.38437,"is_reserved":false,"is_disabled":false,"rental_uris":{"android":"levelo://app?vid=82e651bc-a703-4ef0-91c1-6dfff28e2aab","ios":"levelo://app?vid=82e651bc-a703-4ef0-91c1-6dfff28e2aab"},"vehicle_type_id":"4","last_reported":1777378731,"current_range_meters":4800,"station_id":"ce4bh692rcd13ifvqea0","pricing_plan_id":"cebpf4jnsgd1na2vs0mg"},{"bike_id":"ca05d757-aee0-497c-918a-e06e06e3c564","system_id":"levelo_inurba_marseille","lat":43.30548,"lon":5.36691,"is_reserved":false,"is_disabled":false,"rental_uris":{"android":"levelo://app?vid=ca05d757-aee0-497c-918a-e06e06e3c564","ios":"levelo://app?vid=ca05d757-aee0-497c-918a-e06e06e3c564"},"vehicle_type_id":"4","last_reported":1777378731,"current_range_meters":4800,"station_id":"ce4bgrp2rcd13ifvqc9g","pricing_plan_id":"cebpf4jnsgd1na2vs0mg"},{"bike_id":"ec0dd121-321f-45cc-81d3-74527a637e7e","system_id":"levelo_inurba_marseille","lat":43.297097,"lon":5.376966,"is_reserved":false,"is_disabled":false,"rental_uris":{"android":"levelo://app?vid=ec0dd121-321f-45cc-81d3-74527a637e7e","ios":"levelo://app?vid=ec0dd121-321f-45cc-81d3-74527a637e7e"},"vehicle_type_id":"4","last_reported":1777378731,"current_range_meters":4800,"station_id":"ce4bgkh2rcd13ifvqbl0","pricing_plan_id":"cebpf4jnsgd1na2vs0mg"},{"bike_id":"8dc10202-9a69-432a-842e-086a8b87b1ab","system_id":"levelo_inurba_marseille","lat":43.26953,"lon":5.3865,"is_reserved":false,"is_disabled":false,"rental_uris":{"android":"levelo://app?vid=8dc10202-9a69-432a-842e-086a8b87b1ab","ios":"levelo://app?vid=8dc10202-9a69-432a-842e-086a8b87b1ab"},"vehicle_type_id":"4","last_reported":1777378731,"current_range_meters":5600,"station_id":"ce4bhh92rcd13ifvqfh0","pricing_plan_id":"cebpf4jnsgd1na2vs0mg"},{"bike_id":"ad40a6e0-1825-4608-890e-5faf961bf270","system_id":"levelo_inurba_marseille","lat":43.31379,"lon":5.36746,"is_reserved":false,"is_disabled":false,"rental_uris":{"android":"levelo://app?vid=ad40a6e0-1825-4608-890e-5faf961bf270","ios":"levelo://app?vid=ad40a6e0-1825-4608-890e-5faf961bf270"},"vehicle_type_id":"4","last_reported":1777378731,"current_range_meters":5600,"station_id":"","pricing_plan_id":"cebpf4jnsgd1na2vs0mg"},{"bike_id":"af55b616-686c-4f41-b2ac-4c942482ac16","system_id":"levelo_inurba_marseille","lat":43.29288,"lon":5.36835,"is_reserved":false,"is_disabled":false,"rental_uris":{"android":"levelo://app?vid=af55b616-686c-4f41-b2ac-4c942482ac16","ios":"levelo://app?vid=af55b616-686c-4f41-b2ac-4c942482ac16"},"vehicle_type_id":"4","last_reported":1777378731,"current_range_meters":5600,"station_id":"ce4bhbp2rcd13ifvqesg","pricing_plan_id":"cebpf4jnsgd1na2vs0mg"},{"bike_id":"3462feaa-c9a2-441c-b3a1-f70058c367e6","system_id":"levelo_inurba_marseille","lat":43.24398,"lon":5.37062,"is_reserved":false,"is_disabled":false,"rental_uris":{"android":"levelo://app?vid=3462feaa-c9a2-441c-b3a1-f70058c367e6","ios":"levelo://app?vid=3462feaa-c9a2-441c-b3a1-f70058c367e6"},"vehicle_type_id":"4","last_reported":1777378731,"current_range_meters":5600,"station_id":"ce4bhhh2rcd13ifvqfk0","pricing_plan_id":"cebpf4jnsgd1na2vs0mg"},{"bike_id":"f447fec5-f118-42c2-be2c-8ef32b6d20a2","system_id":"levelo_inurba_marseille","lat":43.25963,"lon":5.41685,"is_reserved":false,"is_disabled":false,"rental_uris":{"android":"levelo://app?vid=f447fec5-f118-42c2-be2c-8ef32b6d20a2","ios":"levelo://app?vid=f447fec5-f118-42c2-be2c-8ef32b6d20a2"},"vehicle_type_id":"4","last_reported":1777378731,"current_range_meters":5600,"station_id":"","pricing_plan_id":"cebpf4jnsgd1na2vs0mg"},{"bike_id":"16d472fe-eb19-4acc-8aa8-94088ad37de6","system_id":"levelo_inurba_marseille","lat":43.35199,"lon":5.36377,"is_reserved":false,"is_disabled":false,"rental_uris":{"android":"levelo://app?vid=16d472fe-eb19-4acc-8aa8-94088ad37de6","ios":"levelo://app?vid=16d472fe-eb19-4acc-8aa8-94088ad37de6"},"vehicle_type_id":"4","last_reported":1777378731,"current_range_meters":5600,"station_id":"","pricing_plan_id":"cebpf4jnsgd1na2vs0mg"},{"bike_id":"f9b0bbfb-5a69-42c6-9680-d6c5c920cebb","system_id":"levelo_inurba_marseille","lat":43.29034,"lon":5.37579,"is_reserved":false,"is_disabled":false,"rental_uris":{"android":"levelo://app?vid=f9b0bbfb-5a69-42c6-9680-d6c5c920cebb","ios":"levelo://app?vid=f9b0bbfb-5a69-42c6-9680-d6c5c920cebb"},"vehicle_type_id":"4","last_reported":1777378731,"current_range_meters":5600,"station_id":"ce4bh692rcd13ifvqe90","pricing_plan_id":"cebpf4jnsgd1na2vs0mg"},{"bike_id":"87d5af0a-788f-47c5-b656-fda044bf7da6","system_id":"levelo_inurba_marseille","lat":43.28275,"lon":5.35058,"is_reserved":false,"is_disabled":false,"rental_uris":{"android":"levelo://app?vid=87d5af0a-788f-47c5-b656-fda044bf7da6","ios":"levelo://app?vid=87d5af0a-788f-47c5-b656-fda044bf7da6"},"vehicle_type_id":"4","last_reported":1777378731,"current_range_meters":5600,"station_id":"ce4bhbp2rcd13ifvqerg","pricing_plan_id":"cebpf4jnsgd1na2vs0mg"},{"bike_id":"e5cd69c7-9379-4379-93b8-62cf25a54177","system_id":"levelo_inurba_marseille","lat":43.337497,"lon":5.374492,"is_reserved":false,"is_disabled":false,"rental_uris":{"android":"levelo://app?vid=e5cd69c7-9379-4379-93b8-62cf25a54177","ios":"levelo://app?vid=e5cd69c7-9379-4379-93b8-62cf25a54177"},"vehicle_type_id":"4","last_reported":1777378731,"current_range_meters":5600,"station_id":"","pricing_plan_id":"cebpf4jnsgd1na2vs0mg"},{"bike_id":"09a00132-8621-41d8-ac82-8d6cfa6a8c48","system_id":"levelo_inurba_marseille","lat":43.30121,"lon":5.43107,"is_reserved":false,"is_disabled":false,"rental_uris":{"android":"levelo://app?vid=09a00132-8621-41d8-ac82-8d6cfa6a8c48","ios":"levelo://app?vid=09a00132-8621-41d8-ac82-8d6cfa6a8c48"},"vehicle_type_id":"4","last_reported":1777378731,"current_range_meters":5600,"station_id":"st_d3js3co5814s73ftftug","pricing_plan_id":"cebpf4jnsgd1na2vs0mg"},{"bike_id":"65d177b3-86d4-4820-8e58-7f1315e7a2ce","system_id":"levelo_inurba_marseille","lat":43.309999,"lon":5.390561,"is_reserved":false,"is_disabled":false,"rental_uris":{"android":"levelo://app?vid=65d177b3-86d4-4820-8e58-7f1315e7a2ce","ios":"levelo://app?vid=65d177b3-86d4-4820-8e58-7f1315e7a2ce"},"vehicle_type_id":"4","last_reported":1777378731,"current_range_meters":5600,"station_id":"ce4bgup2rcd13ifvqco0","pricing_plan_id":"cebpf4jnsgd1na2vs0mg"},{"bike_id":"9daae5fc-029a-4575-8080-71abfd7ee94e","system_id":"levelo_inurba_marseille","lat":43.21196,"lon":5.35076,"is_reserved":false,"is_disabled":false,"rental_uris":{"android":"levelo://app?vid=9daae5fc-029a-4575-8080-71abfd7ee94e","ios":"levelo://app?vid=9daae5fc-029a-4575-8080-71abfd7ee94e"},"vehicle_type_id":"4","last_reported":1777378731,"current_range_meters":5600,"station_id":"st_cvj6sg6p6f1abm77japg","pricing_plan_id":"cebpf4jnsgd1na2vs0mg"},{"bike_id":"486a6bd7-6877-47a7-872d-b6d92138ce35","system_id":"levelo_inurba_marseille","lat":43.28126,"lon":5.42718,"is_reserved":false,"is_disabled":false,"rental_uris":{"android":"levelo://app?vid=486a6bd7-6877-47a7-872d-b6d92138ce35","ios":"levelo://app?vid=486a6bd7-6877-47a7-872d-b6d92138ce35"},"vehicle_type_id":"4","last_reported":1777378731,"current_range_meters":5600,"station_id":"","pricing_plan_id":"cebpf4jnsgd1na2vs0mg"},{"bike_id":"dc4f256b-dad1-4b0e-b0aa-70815278bacb","system_id":"levelo_inurba_marseille","lat":43.28967,"lon":5.39318,"is_reserved":false,"is_disabled":false,"rental_uris":{"android":"levelo://app?vid=dc4f256b-dad1-4b0e-b0aa-70815278bacb","ios":"levelo://app?vid=dc4f256b-dad1-4b0e-b0aa-70815278bacb"},"vehicle_type_id":"4","last_reported":1777378731,"current_range_meters":5600,"station_id":"","pricing_plan_id":"cebpf4jnsgd1na2vs0mg"},{"bike_id":"d26c5941-a5d6-4584-84cd-83aa8a62ebc8","system_id":"levelo_inurba_marseille","lat":43.30245,"lon":5.40055,"is_reserved":false,"is_disabled":false,"rental_uris":{"android":"levelo://app?vid=d26c5941-a5d6-4584-84cd-83aa8a62ebc8","ios":"levelo://app?vid=d26c5941-a5d6-4584-84cd-83aa8a62ebc8"},"vehicle_type_id":"4","last_reported":1777378731,"current_range_meters":5600,"station_id":"ce4bgvh2rcd13ifvqcs0","pricing_plan_id":"cebpf4jnsgd1na2vs0mg"},{"bike_id":"dac2bb74-d747-4e47-a598-ec9284312632","system_id":"levelo_inurba_marseille","lat":43.26557,"lon":5.38996,"is_reserved":false,"is_disabled":false,"rental_uris":{"android":"levelo://app?vid=dac2bb74-d747-4e47-a598-ec9284312632","ios":"levelo://app?vid=dac2bb74-d747-4e47-a598-ec9284312632"},"vehicle_type_id":"4","last_reported":1777378731,"current_range_meters":5600,"station_id":"ce4bhe12rcd13ifvqf30","pricing_plan_id":"cebpf4jnsgd1na2vs0mg"},{"bike_id":"0135f6f6-b713-4d3f-a318-6cdce325dc34","system_id":"levelo_inurba_marseille","lat":43.29891,"lon":5.42084,"is_reserved":false,"is_disabled":false,"rental_uris":{"android":"levelo://app?vid=0135f6f6-b713-4d3f-a318-6cdce325dc34","ios":"levelo://app?vid=0135f6f6-b713-4d3f-a318-6cdce325dc34"},"vehicle_type_id":"4","last_reported":1777378731,"current_range_meters":6000,"station_id":"st_d6tc004otcvc738tfe70","pricing_plan_id":"cebpf4jnsgd1na2vs0mg"},{"bike_id":"e5d36b8e-c5dd-43ac-a1bd-b0196adefd6a","system_id":"levelo_inurba_marseille","lat":43.23153,"lon":5.43722,"is_reserved":false,"is_disabled":false,"rental_uris":{"android":"levelo://app?vid=e5d36b8e-c5dd-43ac-a1bd-b0196adefd6a","ios":"levelo://app?vid=e5d36b8e-c5dd-43ac-a1bd-b0196adefd6a"},"vehicle_type_id":"4","last_reported":1777378731,"current_range_meters":6000,"station_id":"ce4bhmp2rcd13ifvqgog","pricing_plan_id":"cebpf4jnsgd1na2vs0mg"},{"bike_id":"55ffa9cb-0e63-4320-8c55-2d765a24cf5f","system_id":"levelo_inurba_marseille","lat":43.24169,"lon":5.36399,"is_reserved":false,"is_disabled":false,"rental_uris":{"android":"levelo://app?vid=55ffa9cb-0e63-4320-8c55-2d765a24cf5f","ios":"levelo://app?vid=55ffa9cb-0e63-4320-8c55-2d765a24cf5f"},"vehicle_type_id":"4","last_reported":1777378731,"current_range_meters":6000,"station_id":"cpo36qri1sfpv3e86is0","pricing_plan_id":"cebpf4jnsgd1na2vs0mg"},{"bike_id":"b5088cd7-5e45-457a-ae9f-32446d67355c","system_id":"levelo_inurba_marseille","lat":43.32471,"lon":5.36572,"is_reserved":false,"is_disabled":false,"rental_uris":{"android":"levelo://app?vid=b5088cd7-5e45-457a-ae9f-32446d67355c","ios":"levelo://app?vid=b5088cd7-5e45-457a-ae9f-32446d67355c"},"vehicle_type_id":"4","last_reported":1777378731,"current_range_meters":6000,"station_id":"ce4bhs12rcd13ifvqhvg","pricing_plan_id":"cebpf4jnsgd1na2vs0mg"},{"bike_id":"74929e98-c2e0-43cc-b447-0901251d01cb","system_id":"levelo_inurba_marseille","lat":43.2549,"lon":5.37677,"is_reserved":false,"is_disabled":false,"rental_uris":{"android":"levelo://app?vid=74929e98-c2e0-43cc-b447-0901251d01cb","ios":"levelo://app?vid=74929e98-c2e0-43cc-b447-0901251d01cb"},"vehicle_type_id":"4","last_reported":1777378731,"current_range_meters":6000,"station_id":"ce4bhh12rcd13ifvqff0","pricing_plan_id":"cebpf4jnsgd1na2vs0mg"},{"bike_id":"16e943be-0880-430f-b619-cbe210a96917","system_id":"levelo_inurba_marseille","lat":43.32495,"lon":5.38284,"is_reserved":false,"is_disabled":false,"rental_uris":{"android":"levelo://app?vid=16e943be-0880-430f-b619-cbe210a96917","ios":"levelo://app?vid=16e943be-0880-430f-b619-cbe210a96917"},"vehicle_type_id":"4","last_reported":1777378731,"current_range_meters":6000,"station_id":"st_d4asgbiv49dc73anf9m0","pricing_plan_id":"cebpf4jnsgd1na2vs0mg"},{"bike_id":"2fef60ff-ac84-42ee-b964-c9c3134e0cef","system_id":"levelo_inurba_marseille","lat":43.25518,"lon":5.37623,"is_reserved":false,"is_disabled":false,"rental_uris":{"android":"levelo://app?vid=2fef60ff-ac84-42ee-b964-c9c3134e0cef","ios":"levelo://app?vid=2fef60ff-ac84-42ee-b964-c9c3134e0cef"},"vehicle_type_id":"4","last_reported":1777378731,"current_range_meters":6000,"station_id":"ce4bhh12rcd13ifvqff0","pricing_plan_id":"cebpf4jnsgd1na2vs0mg"},{"bike_id":"9feac244-8f6d-4afc-bfad-32db7367a2cb","system_id":"levelo_inurba_marseille","lat":43.28714,"lon":5.37965,"is_reserved":false,"is_disabled":false,"rental_uris":{"android":"levelo://app?vid=9feac244-8f6d-4afc-bfad-32db7367a2cb","ios":"levelo://app?vid=9feac244-8f6d-4afc-bfad-32db7367a2cb"},"vehicle_type_id":"4","last_reported":1777378731,"current_range_meters":6000,"station_id":"ce4bh9p2rcd13ifvqec0","pricing_plan_id":"cebpf4jnsgd1na2vs0mg"},{"bike_id":"a3742366-35d0-4a9e-9423-c91ba6591c89","system_id":"levelo_inurba_marseille","lat":43.29172,"lon":5.37168,"is_reserved":false,"is_disabled":false,"rental_uris":{"android":"levelo://app?vid=a3742366-35d0-4a9e-9423-c91ba6591c89","ios":"levelo://app?vid=a3742366-35d0-4a9e-9423-c91ba6591c89"},"vehicle_type_id":"4","last_reported":1777378731,"current_range_meters":6000,"station_id":"ce4bha92rcd13ifvqeh0","pricing_plan_id":"cebpf4jnsgd1na2vs0mg"},{"bike_id":"d409acef-90c3-44da-bb14-6fcd1ce56d67","system_id":"levelo_inurba_marseille","lat":43.29941,"lon":5.36559,"is_reserved":false,"is_disabled":false,"rental_uris":{"android":"levelo://app?vid=d409acef-90c3-44da-bb14-6fcd1ce56d67","ios":"levelo://app?vid=d409acef-90c3-44da-bb14-6fcd1ce56d67"},"vehicle_type_id":"4","last_reported":1777378731,"current_range_meters":6000,"station_id":"ce4bgm92rcd13ifvqbr0","pricing_plan_id":"cebpf4jnsgd1na2vs0mg"},{"bike_id":"a1541b1c-c703-46f7-b3e2-6d675e1e9717","system_id":"levelo_inurba_marseille","lat":43.28358,"lon":5.38097,"is_reserved":false,"is_disabled":false,"rental_uris":{"android":"levelo://app?vid=a1541b1c-c703-46f7-b3e2-6d675e1e9717","ios":"levelo://app?vid=a1541b1c-c703-46f7-b3e2-6d675e1e9717"},"vehicle_type_id":"4","last_reported":1777378731,"current_range_meters":6000,"station_id":"ce4bh412rcd13ifvqdr0","pricing_plan_id":"cebpf4jnsgd1na2vs0mg"},{"bike_id":"a10e22c0-2094-41f5-a62f-acd4ff322bf4","system_id":"levelo_inurba_marseille","lat":43.29909,"lon":5.38112,"is_reserved":false,"is_disabled":false,"rental_uris":{"android":"levelo://app?vid=a10e22c0-2094-41f5-a62f-acd4ff322bf4","ios":"levelo://app?vid=a10e22c0-2094-41f5-a62f-acd4ff322bf4"},"vehicle_type_id":"4","last_reported":1777378731,"current_range_meters":6000,"station_id":"ce4bgj12rcd13ifvqbc0","pricing_plan_id":"cebpf4jnsgd1na2vs0mg"},{"bike_id":"17c1c35e-3d69-45b2-a399-d7c56e71b7e8","system_id":"levelo_inurba_marseille","lat":43.27336,"lon":5.39072,"is_reserved":false,"is_disabled":false,"rental_uris":{"android":"levelo://app?vid=17c1c35e-3d69-45b2-a399-d7c56e71b7e8","ios":"levelo://app?vid=17c1c35e-3d69-45b2-a399-d7c56e71b7e8"},"vehicle_type_id":"4","last_reported":1777378731,"current_range_meters":6000,"station_id":"ce4bhgp2rcd13ifvqfe0","pricing_plan_id":"cebpf4jnsgd1na2vs0mg"},{"bike_id":"5367fafd-42a5-4c52-bd35-5d85953af91c","system_id":"levelo_inurba_marseille","lat":43.3145,"lon":5.37379,"is_reserved":false,"is_disabled":true,"rental_uris":{"android":"levelo://app?vid=5367fafd-42a5-4c52-bd35-5d85953af91c","ios":"levelo://app?vid=5367fafd-42a5-4c52-bd35-5d85953af91c"},"vehicle_type_id":"4","last_reported":1777378731,"current_range_meters":6400,"station_id":"","pricing_plan_id":"cebpf4jnsgd1na2vs0mg"},{"bike_id":"53dda291-caff-4c5b-a904-ced786c0d3b0","system_id":"levelo_inurba_marseille","lat":43.29905,"lon":5.37475,"is_reserved":false,"is_disabled":true,"rental_uris":{"android":"levelo://app?vid=53dda291-caff-4c5b-a904-ced786c0d3b0","ios":"levelo://app?vid=53dda291-caff-4c5b-a904-ced786c0d3b0"},"vehicle_type_id":"4","last_reported":1777378731,"current_range_meters":6400,"station_id":"ce4bgjh2rcd13ifvqbg0","pricing_plan_id":"cebpf4jnsgd1na2vs0mg"},{"bike_id":"92df0730-a111-4eb7-9ac5-5b2e60ace000","system_id":"levelo_inurba_marseille","lat":43.28641,"lon":5.38512,"is_reserved":false,"is_disabled":false,"rental_uris":{"android":"levelo://app?vid=92df0730-a111-4eb7-9ac5-5b2e60ace000","ios":"levelo://app?vid=92df0730-a111-4eb7-9ac5-5b2e60ace000"},"vehicle_type_id":"4","last_reported":1777378731,"current_range_meters":6400,"station_id":"","pricing_plan_id":"cebpf4jnsgd1na2vs0mg"},{"bike_id":"080d2be9-7388-4f0e-81ef-44ed08923221","system_id":"levelo_inurba_marseille","lat":43.26056,"lon":5.39394,"is_reserved":false,"is_disabled":false,"rental_uris":{"android":"levelo://app?vid=080d2be9-7388-4f0e-81ef-44ed08923221","ios":"levelo://app?vid=080d2be9-7388-4f0e-81ef-44ed08923221"},"vehicle_type_id":"4","last_reported":1777378731,"current_range_meters":6400,"station_id":"ce4bhh92rcd13ifvqfj0","pricing_plan_id":"cebpf4jnsgd1na2vs0mg"},{"bike_id":"e593377f-0b04-468e-be39-461905e9f322","system_id":"levelo_inurba_marseille","lat":43.24652,"lon":5.38862,"is_reserved":false,"is_disabled":false,"rental_uris":{"android":"levelo://app?vid=e593377f-0b04-468e-be39-461905e9f322","ios":"levelo://app?vid=e593377f-0b04-468e-be39-461905e9f322"},"vehicle_type_id":"4","last_reported":1777378731,"current_range_meters":6400,"station_id":"ce4bhg12rcd13ifvqf60","pricing_plan_id":"cebpf4jnsgd1na2vs0mg"},{"bike_id":"4f586e90-3833-4b14-a473-3f90b0878578","system_id":"levelo_inurba_marseille","lat":43.31262,"lon":5.36874,"is_reserved":false,"is_disabled":true,"rental_uris":{"android":"levelo://app?vid=4f586e90-3833-4b14-a473-3f90b0878578","ios":"levelo://app?vid=4f586e90-3833-4b14-a473-3f90b0878578"},"vehicle_type_id":"4","last_reported":1777378731,"current_range_meters":6400,"station_id":"ce4bgl92rcd13ifvqbq0","pricing_plan_id":"cebpf4jnsgd1na2vs0mg"},{"bike_id":"0bf512bd-c8f2-490b-955a-8752f811e1d2","system_id":"levelo_inurba_marseille","lat":43.29679,"lon":5.37156,"is_reserved":false,"is_disabled":false,"rental_uris":{"android":"levelo://app?vid=0bf512bd-c8f2-490b-955a-8752f811e1d2","ios":"levelo://app?vid=0bf512bd-c8f2-490b-955a-8752f811e1d2"},"vehicle_type_id":"4","last_reported":1777378731,"current_range_meters":6400,"station_id":"","pricing_plan_id":"cebpf4jnsgd1na2vs0mg"},{"bike_id":"a6cfd14b-75d2-4f9d-9367-3fa42b7b1d2c","system_id":"levelo_inurba_marseille","lat":43.32108,"lon":5.36766,"is_reserved":false,"is_disabled":false,"rental_uris":{"android":"levelo://app?vid=a6cfd14b-75d2-4f9d-9367-3fa42b7b1d2c","ios":"levelo://app?vid=a6cfd14b-75d2-4f9d-9367-3fa42b7b1d2c"},"vehicle_type_id":"4","last_reported":1777378731,"current_range_meters":6400,"station_id":"ce4bhrh2rcd13ifvqhug","pricing_plan_id":"cebpf4jnsgd1na2vs0mg"},{"bike_id":"7f110d6c-acab-4634-8c14-7b04d30cfbaa","system_id":"levelo_inurba_marseille","lat":43.29161,"lon":5.37146,"is_reserved":false,"is_disabled":false,"rental_uris":{"android":"levelo://app?vid=7f110d6c-acab-4634-8c14-7b04d30cfbaa","ios":"levelo://app?vid=7f110d6c-acab-4634-8c14-7b04d30cfbaa"},"vehicle_type_id":"4","last_reported":1777378731,"current_range_meters":6400,"station_id":"ce4bha92rcd13ifvqeh0","pricing_plan_id":"cebpf4jnsgd1na2vs0mg"},{"bike_id":"b6713226-0c86-4926-99e6-119fae9c3e62","system_id":"levelo_inurba_marseille","lat":43.28264,"lon":5.35054,"is_reserved":false,"is_disabled":false,"rental_uris":{"android":"levelo://app?vid=b6713226-0c86-4926-99e6-119fae9c3e62","ios":"levelo://app?vid=b6713226-0c86-4926-99e6-119fae9c3e62"},"vehicle_type_id":"4","last_reported":1777378731,"current_range_meters":6400,"station_id":"ce4bhbp2rcd13ifvqerg","pricing_plan_id":"cebpf4jnsgd1na2vs0mg"},{"bike_id":"c571a18b-ebb0-4522-80fc-b0aa2f0b2a0f","system_id":"levelo_inurba_marseille","lat":43.26226,"lon":5.38772,"is_reserved":false,"is_disabled":false,"rental_uris":{"android":"levelo://app?vid=c571a18b-ebb0-4522-80fc-b0aa2f0b2a0f","ios":"levelo://app?vid=c571a18b-ebb0-4522-80fc-b0aa2f0b2a0f"},"vehicle_type_id":"4","last_reported":1777378731,"current_range_meters":6400,"station_id":"","pricing_plan_id":"cebpf4jnsgd1na2vs0mg"},{"bike_id":"14a6d846-26d9-42d5-bd29-69d55a0abd06","system_id":"levelo_inurba_marseille","lat":43.290048,"lon":5.356138,"is_reserved":false,"is_disabled":false,"rental_uris":{"android":"levelo://app?vid=14a6d846-26d9-42d5-bd29-69d55a0abd06","ios":"levelo://app?vid=14a6d846-26d9-42d5-bd29-69d55a0abd06"},"vehicle_type_id":"4","last_reported":1777378731,"current_range_meters":6400,"station_id":"ce4bhb92rcd13ifvqen0","pricing_plan_id":"cebpf4jnsgd1na2vs0mg"},{"bike_id":"750a05e1-ff8d-469d-b1be-693d6dac94a2","system_id":"levelo_inurba_marseille","lat":43.2467,"lon":5.38156,"is_reserved":false,"is_disabled":false,"rental_uris":{"android":"levelo://app?vid=750a05e1-ff8d-469d-b1be-693d6dac94a2","ios":"levelo://app?vid=750a05e1-ff8d-469d-b1be-693d6dac94a2"},"vehicle_type_id":"4","last_reported":1777378731,"current_range_meters":6400,"station_id":"ce4bhih2rcd13ifvqfr0","pricing_plan_id":"cebpf4jnsgd1na2vs0mg"},{"bike_id":"e3d89de9-9ba3-4985-bd2d-26947f6bd77d","system_id":"levelo_inurba_marseille","lat":43.30236,"lon":5.40068,"is_reserved":false,"is_disabled":false,"rental_uris":{"android":"levelo://app?vid=e3d89de9-9ba3-4985-bd2d-26947f6bd77d","ios":"levelo://app?vid=e3d89de9-9ba3-4985-bd2d-26947f6bd77d"},"vehicle_type_id":"4","last_reported":1777378731,"current_range_meters":6800,"station_id":"ce4bgvh2rcd13ifvqcs0","pricing_plan_id":"cebpf4jnsgd1na2vs0mg"},{"bike_id":"62f19b7a-e2cc-48e1-8c2d-badef76c3087","system_id":"levelo_inurba_marseille","lat":43.29729,"lon":5.3767,"is_reserved":false,"is_disabled":false,"rental_uris":{"android":"levelo://app?vid=62f19b7a-e2cc-48e1-8c2d-badef76c3087","ios":"levelo://app?vid=62f19b7a-e2cc-48e1-8c2d-badef76c3087"},"vehicle_type_id":"4","last_reported":1777378731,"current_range_meters":6800,"station_id":"ce4bgkh2rcd13ifvqbl0","pricing_plan_id":"cebpf4jnsgd1na2vs0mg"},{"bike_id":"697127b7-1804-466b-9498-68aed56aef76","system_id":"levelo_inurba_marseille","lat":43.29046,"lon":5.39944,"is_reserved":false,"is_disabled":false,"rental_uris":{"android":"levelo://app?vid=697127b7-1804-466b-9498-68aed56aef76","ios":"levelo://app?vid=697127b7-1804-466b-9498-68aed56aef76"},"vehicle_type_id":"4","last_reported":1777378731,"current_range_meters":6800,"station_id":"ce4bh392rcd13ifvqdm0","pricing_plan_id":"cebpf4jnsgd1na2vs0mg"},{"bike_id":"f34173ba-e522-42fc-89f1-ad871c6b29c4","system_id":"levelo_inurba_marseille","lat":43.29475,"lon":5.43338,"is_reserved":false,"is_disabled":false,"rental_uris":{"android":"levelo://app?vid=f34173ba-e522-42fc-89f1-ad871c6b29c4","ios":"levelo://app?vid=f34173ba-e522-42fc-89f1-ad871c6b29c4"},"vehicle_type_id":"4","last_reported":1777378731,"current_range_meters":6800,"station_id":"st_d3j5ugp08ojc73fj9d10","pricing_plan_id":"cebpf4jnsgd1na2vs0mg"},{"bike_id":"3616f8ba-73fd-4d6a-af1a-77151a1973e8","system_id":"levelo_inurba_marseille","lat":43.28695,"lon":5.37937,"is_reserved":false,"is_disabled":false,"rental_uris":{"android":"levelo://app?vid=3616f8ba-73fd-4d6a-af1a-77151a1973e8","ios":"levelo://app?vid=3616f8ba-73fd-4d6a-af1a-77151a1973e8"},"vehicle_type_id":"4","last_reported":1777378731,"current_range_meters":6800,"station_id":"ce4bh9p2rcd13ifvqec0","pricing_plan_id":"cebpf4jnsgd1na2vs0mg"},{"bike_id":"083ceade-7532-4d86-8d74-bebdf8a0da38","system_id":"levelo_inurba_marseille","lat":43.27376,"lon":5.36251,"is_reserved":false,"is_disabled":false,"rental_uris":{"android":"levelo://app?vid=083ceade-7532-4d86-8d74-bebdf8a0da38","ios":"levelo://app?vid=083ceade-7532-4d86-8d74-bebdf8a0da38"},"vehicle_type_id":"4","last_reported":1777378731,"current_range_meters":6800,"station_id":"ce4bhbh2rcd13ifvqeo0","pricing_plan_id":"cebpf4jnsgd1na2vs0mg"},{"bike_id":"8e18a4ee-5453-4edd-9ccf-093d4d754d6c","system_id":"levelo_inurba_marseille","lat":43.28979,"lon":5.37816,"is_reserved":false,"is_disabled":false,"rental_uris":{"android":"levelo://app?vid=8e18a4ee-5453-4edd-9ccf-093d4d754d6c","ios":"levelo://app?vid=8e18a4ee-5453-4edd-9ccf-093d4d754d6c"},"vehicle_type_id":"4","last_reported":1777378731,"current_range_meters":6800,"station_id":"ce4bh9p2rcd13ifvqed0","pricing_plan_id":"cebpf4jnsgd1na2vs0mg"},{"bike_id":"28677d1d-df50-46f8-bceb-ad3e9f2744d3","system_id":"levelo_inurba_marseille","lat":43.30474,"lon":5.37904,"is_reserved":false,"is_disabled":false,"rental_uris":{"android":"levelo://app?vid=28677d1d-df50-46f8-bceb-ad3e9f2744d3","ios":"levelo://app?vid=28677d1d-df50-46f8-bceb-ad3e9f2744d3"},"vehicle_type_id":"4","last_reported":1777378731,"current_range_meters":6800,"station_id":"ce4bgup2rcd13ifvqcn0","pricing_plan_id":"cebpf4jnsgd1na2vs0mg"},{"bike_id":"f9f92c5c-5f51-4e1c-a4a4-da02d7396e3a","system_id":"levelo_inurba_marseille","lat":43.21729,"lon":5.34577,"is_reserved":false,"is_disabled":false,"rental_uris":{"android":"levelo://app?vid=f9f92c5c-5f51-4e1c-a4a4-da02d7396e3a","ios":"levelo://app?vid=f9f92c5c-5f51-4e1c-a4a4-da02d7396e3a"},"vehicle_type_id":"4","last_reported":1777378731,"current_range_meters":6800,"station_id":"st_cvj6r9ubvosntc0bgbag","pricing_plan_id":"cebpf4jnsgd1na2vs0mg"},{"bike_id":"843a000b-5946-4c68-ae79-870b84c26d16","system_id":"levelo_inurba_marseille","lat":43.24477,"lon":5.42521,"is_reserved":false,"is_disabled":false,"rental_uris":{"android":"levelo://app?vid=843a000b-5946-4c68-ae79-870b84c26d16","ios":"levelo://app?vid=843a000b-5946-4c68-ae79-870b84c26d16"},"vehicle_type_id":"4","last_reported":1777378731,"current_range_meters":6800,"station_id":"st_d4a3vfp97mjs738cd8kg","pricing_plan_id":"cebpf4jnsgd1na2vs0mg"},{"bike_id":"2b2662f1-d28b-44f2-b2c8-61c6569e4c3d","system_id":"levelo_inurba_marseille","lat":43.29232,"lon":5.40163,"is_reserved":false,"is_disabled":true,"rental_uris":{"android":"levelo://app?vid=2b2662f1-d28b-44f2-b2c8-61c6569e4c3d","ios":"levelo://app?vid=2b2662f1-d28b-44f2-b2c8-61c6569e4c3d"},"vehicle_type_id":"4","last_reported":1777378731,"current_range_meters":6800,"station_id":"ce4bh312rcd13ifvqdk0","pricing_plan_id":"cebpf4jnsgd1na2vs0mg"},{"bike_id":"626afedd-d732-4bc8-be6f-6408a29380b2","system_id":"levelo_inurba_marseille","lat":43.21228,"lon":5.35034,"is_reserved":false,"is_disabled":false,"rental_uris":{"android":"levelo://app?vid=626afedd-d732-4bc8-be6f-6408a29380b2","ios":"levelo://app?vid=626afedd-d732-4bc8-be6f-6408a29380b2"},"vehicle_type_id":"4","last_reported":1777378731,"current_range_meters":6800,"station_id":"","pricing_plan_id":"cebpf4jnsgd1na2vs0mg"},{"bike_id":"a7ef47ae-ac7a-4811-8371-2ebdbd6eea38","system_id":"levelo_inurba_marseille","lat":43.21755,"lon":5.34603,"is_reserved":false,"is_disabled":false,"rental_uris":{"android":"levelo://app?vid=a7ef47ae-ac7a-4811-8371-2ebdbd6eea38","ios":"levelo://app?vid=a7ef47ae-ac7a-4811-8371-2ebdbd6eea38"},"vehicle_type_id":"4","last_reported":1777378731,"current_range_meters":6800,"station_id":"st_cvj6r9ubvosntc0bgbag","pricing_plan_id":"cebpf4jnsgd1na2vs0mg"},{"bike_id":"987eda33-b3ad-4fac-a63c-0e3ff496e921","system_id":"levelo_inurba_marseille","lat":43.32348,"lon":5.36748,"is_reserved":false,"is_disabled":false,"rental_uris":{"android":"levelo://app?vid=987eda33-b3ad-4fac-a63c-0e3ff496e921","ios":"levelo://app?vid=987eda33-b3ad-4fac-a63c-0e3ff496e921"},"vehicle_type_id":"4","last_reported":1777378731,"current_range_meters":6800,"station_id":"ce4bhsh2rcd13ifvqi2g","pricing_plan_id":"cebpf4jnsgd1na2vs0mg"},{"bike_id":"afde96ac-1493-4085-af72-e5da568a87fd","system_id":"levelo_inurba_marseille","lat":43.28727,"lon":5.48424,"is_reserved":false,"is_disabled":false,"rental_uris":{"android":"levelo://app?vid=afde96ac-1493-4085-af72-e5da568a87fd","ios":"levelo://app?vid=afde96ac-1493-4085-af72-e5da568a87fd"},"vehicle_type_id":"4","last_reported":1777378731,"current_range_meters":6800,"station_id":"st_d3svhcjqgbts73a3dn0g","pricing_plan_id":"cebpf4jnsgd1na2vs0mg"},{"bike_id":"934d24fd-bc0f-4086-ad83-8ea475709d64","system_id":"levelo_inurba_marseille","lat":43.31357,"lon":5.36757,"is_reserved":false,"is_disabled":false,"rental_uris":{"android":"levelo://app?vid=934d24fd-bc0f-4086-ad83-8ea475709d64","ios":"levelo://app?vid=934d24fd-bc0f-4086-ad83-8ea475709d64"},"vehicle_type_id":"4","last_reported":1777378731,"current_range_meters":6800,"station_id":"ce4bgr92rcd13ifvqc6g","pricing_plan_id":"cebpf4jnsgd1na2vs0mg"},{"bike_id":"eec401be-82ad-4f63-b0db-33abd6b577d0","system_id":"levelo_inurba_marseille","lat":43.30127,"lon":5.43107,"is_reserved":false,"is_disabled":false,"rental_uris":{"android":"levelo://app?vid=eec401be-82ad-4f63-b0db-33abd6b577d0","ios":"levelo://app?vid=eec401be-82ad-4f63-b0db-33abd6b577d0"},"vehicle_type_id":"4","last_reported":1777378731,"current_range_meters":6800,"station_id":"st_d3js3co5814s73ftftug","pricing_plan_id":"cebpf4jnsgd1na2vs0mg"},{"bike_id":"6b4aa15b-259f-4e69-9c10-9ad064f7be7c","system_id":"levelo_inurba_marseille","lat":43.25589,"lon":5.38226,"is_reserved":false,"is_disabled":false,"rental_uris":{"android":"levelo://app?vid=6b4aa15b-259f-4e69-9c10-9ad064f7be7c","ios":"levelo://app?vid=6b4aa15b-259f-4e69-9c10-9ad064f7be7c"},"vehicle_type_id":"4","last_reported":1777378731,"current_range_meters":6800,"station_id":"ce4bhih2rcd13ifvqfs0","pricing_plan_id":"cebpf4jnsgd1na2vs0mg"},{"bike_id":"600c63a4-0cb5-4e8e-966a-e75ec06fd14a","system_id":"levelo_inurba_marseille","lat":43.26966,"lon":5.38621,"is_reserved":false,"is_disabled":false,"rental_uris":{"android":"levelo://app?vid=600c63a4-0cb5-4e8e-966a-e75ec06fd14a","ios":"levelo://app?vid=600c63a4-0cb5-4e8e-966a-e75ec06fd14a"},"vehicle_type_id":"4","last_reported":1777378731,"current_range_meters":6800,"station_id":"ce4bhh92rcd13ifvqfh0","pricing_plan_id":"cebpf4jnsgd1na2vs0mg"},{"bike_id":"9f543810-4dfb-4951-9c10-acd2d2940820","system_id":"levelo_inurba_marseille","lat":43.28598,"lon":5.395,"is_reserved":false,"is_disabled":true,"rental_uris":{"android":"levelo://app?vid=9f543810-4dfb-4951-9c10-acd2d2940820","ios":"levelo://app?vid=9f543810-4dfb-4951-9c10-acd2d2940820"},"vehicle_type_id":"4","last_reported":1777378731,"current_range_meters":6800,"station_id":"ce4bh292rcd13ifvqdg0","pricing_plan_id":"cebpf4jnsgd1na2vs0mg"},{"bike_id":"93a03888-12b3-4ccc-b435-7f12038be2f7","system_id":"levelo_inurba_marseille","lat":43.21197,"lon":5.35066,"is_reserved":false,"is_disabled":false,"rental_uris":{"android":"levelo://app?vid=93a03888-12b3-4ccc-b435-7f12038be2f7","ios":"levelo://app?vid=93a03888-12b3-4ccc-b435-7f12038be2f7"},"vehicle_type_id":"4","last_reported":1777378731,"current_range_meters":6800,"station_id":"st_cvj6sg6p6f1abm77japg","pricing_plan_id":"cebpf4jnsgd1na2vs0mg"},{"bike_id":"d86c4c64-b860-458f-bbb1-39678625195b","system_id":"levelo_inurba_marseille","lat":43.27219,"lon":5.39195,"is_reserved":false,"is_disabled":false,"rental_uris":{"android":"levelo://app?vid=d86c4c64-b860-458f-bbb1-39678625195b","ios":"levelo://app?vid=d86c4c64-b860-458f-bbb1-39678625195b"},"vehicle_type_id":"4","last_reported":1777378731,"current_range_meters":6800,"station_id":"ce4bhhp2rcd13ifvqfm0","pricing_plan_id":"cebpf4jnsgd1na2vs0mg"},{"bike_id":"ca2b8675-1cc8-40d7-81de-9074596d7e98","system_id":"levelo_inurba_marseille","lat":43.26689,"lon":5.38245,"is_reserved":false,"is_disabled":false,"rental_uris":{"android":"levelo://app?vid=ca2b8675-1cc8-40d7-81de-9074596d7e98","ios":"levelo://app?vid=ca2b8675-1cc8-40d7-81de-9074596d7e98"},"vehicle_type_id":"4","last_reported":1777378731,"current_range_meters":7200,"station_id":"ce4bhg92rcd13ifvqf90","pricing_plan_id":"cebpf4jnsgd1na2vs0mg"},{"bike_id":"27cd71a7-0940-4415-a67f-21597fbf1cd9","system_id":"levelo_inurba_marseille","lat":43.34534,"lon":5.37787,"is_reserved":false,"is_disabled":true,"rental_uris":{"android":"levelo://app?vid=27cd71a7-0940-4415-a67f-21597fbf1cd9","ios":"levelo://app?vid=27cd71a7-0940-4415-a67f-21597fbf1cd9"},"vehicle_type_id":"4","last_reported":1777378731,"current_range_meters":7200,"station_id":"","pricing_plan_id":"cebpf4jnsgd1na2vs0mg"},{"bike_id":"66fd292d-5970-4e69-8ee6-9c6a1e0f9e63","system_id":"levelo_inurba_marseille","lat":43.26541,"lon":5.37293,"is_reserved":false,"is_disabled":true,"rental_uris":{"android":"levelo://app?vid=66fd292d-5970-4e69-8ee6-9c6a1e0f9e63","ios":"levelo://app?vid=66fd292d-5970-4e69-8ee6-9c6a1e0f9e63"},"vehicle_type_id":"4","last_reported":1777378731,"current_range_meters":7200,"station_id":"ce4bhg12rcd13ifvqf70","pricing_plan_id":"cebpf4jnsgd1na2vs0mg"},{"bike_id":"94b1d427-102e-4c64-aa76-0c93e226150f","system_id":"levelo_inurba_marseille","lat":43.2846,"lon":5.48421,"is_reserved":false,"is_disabled":false,"rental_uris":{"android":"levelo://app?vid=94b1d427-102e-4c64-aa76-0c93e226150f","ios":"levelo://app?vid=94b1d427-102e-4c64-aa76-0c93e226150f"},"vehicle_type_id":"4","last_reported":1777378731,"current_range_meters":7200,"station_id":"st_d3svhcjqgbts73a3dn0g","pricing_plan_id":"cebpf4jnsgd1na2vs0mg"},{"bike_id":"d2276d1c-4dd8-4805-b674-72347073e05f","system_id":"levelo_inurba_marseille","lat":43.28855,"lon":5.42516,"is_reserved":false,"is_disabled":false,"rental_uris":{"android":"levelo://app?vid=d2276d1c-4dd8-4805-b674-72347073e05f","ios":"levelo://app?vid=d2276d1c-4dd8-4805-b674-72347073e05f"},"vehicle_type_id":"4","last_reported":1777378731,"current_range_meters":7200,"station_id":"st_d3b462108ojc7389ooeg","pricing_plan_id":"cebpf4jnsgd1na2vs0mg"},{"bike_id":"e2f4f5b7-b06b-4898-bad0-3e342eb52875","system_id":"levelo_inurba_marseille","lat":43.2897,"lon":5.37828,"is_reserved":false,"is_disabled":false,"rental_uris":{"android":"levelo://app?vid=e2f4f5b7-b06b-4898-bad0-3e342eb52875","ios":"levelo://app?vid=e2f4f5b7-b06b-4898-bad0-3e342eb52875"},"vehicle_type_id":"4","last_reported":1777378731,"current_range_meters":7200,"station_id":"ce4bh9p2rcd13ifvqed0","pricing_plan_id":"cebpf4jnsgd1na2vs0mg"},{"bike_id":"1703046e-cf28-42a2-9464-4df44b581407","system_id":"levelo_inurba_marseille","lat":43.2733,"lon":5.39065,"is_reserved":false,"is_disabled":false,"rental_uris":{"android":"levelo://app?vid=1703046e-cf28-42a2-9464-4df44b581407","ios":"levelo://app?vid=1703046e-cf28-42a2-9464-4df44b581407"},"vehicle_type_id":"4","last_reported":1777378731,"current_range_meters":7200,"station_id":"ce4bhgp2rcd13ifvqfe0","pricing_plan_id":"cebpf4jnsgd1na2vs0mg"},{"bike_id":"d4da6088-5730-4218-8b5e-4b7f81d89798","system_id":"levelo_inurba_marseille","lat":43.29266,"lon":5.38454,"is_reserved":false,"is_disabled":false,"rental_uris":{"android":"levelo://app?vid=d4da6088-5730-4218-8b5e-4b7f81d89798","ios":"levelo://app?vid=d4da6088-5730-4218-8b5e-4b7f81d89798"},"vehicle_type_id":"4","last_reported":1777378731,"current_range_meters":7200,"station_id":"ce4bh692rcd13ifvqea0","pricing_plan_id":"cebpf4jnsgd1na2vs0mg"},{"bike_id":"92b0e79d-5118-4cdc-a154-ad1d52d847b8","system_id":"levelo_inurba_marseille","lat":43.29608,"lon":5.36065,"is_reserved":false,"is_disabled":false,"rental_uris":{"android":"levelo://app?vid=92b0e79d-5118-4cdc-a154-ad1d52d847b8","ios":"levelo://app?vid=92b0e79d-5118-4cdc-a154-ad1d52d847b8"},"vehicle_type_id":"4","last_reported":1777378731,"current_range_meters":7200,"station_id":"","pricing_plan_id":"cebpf4jnsgd1na2vs0mg"},{"bike_id":"122ae6e6-deea-458c-9848-9ac3c0ddaca7","system_id":"levelo_inurba_marseille","lat":43.29051,"lon":5.40569,"is_reserved":false,"is_disabled":false,"rental_uris":{"android":"levelo://app?vid=122ae6e6-deea-458c-9848-9ac3c0ddaca7","ios":"levelo://app?vid=122ae6e6-deea-458c-9848-9ac3c0ddaca7"},"vehicle_type_id":"4","last_reported":1777378731,"current_range_meters":7200,"station_id":"","pricing_plan_id":"cebpf4jnsgd1na2vs0mg"},{"bike_id":"0a574d3a-e748-4d44-8038-09cea149d3c8","system_id":"levelo_inurba_marseille","lat":43.29524,"lon":5.39028,"is_reserved":false,"is_disabled":false,"rental_uris":{"android":"levelo://app?vid=0a574d3a-e748-4d44-8038-09cea149d3c8","ios":"levelo://app?vid=0a574d3a-e748-4d44-8038-09cea149d3c8"},"vehicle_type_id":"4","last_reported":1777378731,"current_range_meters":7200,"station_id":"ce4bh3p2rcd13ifvqdp0","pricing_plan_id":"cebpf4jnsgd1na2vs0mg"},{"bike_id":"8b4e6bd3-1e82-4277-a45a-3a8abaa4e3ab","system_id":"levelo_inurba_marseille","lat":43.2848,"lon":5.48393,"is_reserved":false,"is_disabled":false,"rental_uris":{"android":"levelo://app?vid=8b4e6bd3-1e82-4277-a45a-3a8abaa4e3ab","ios":"levelo://app?vid=8b4e6bd3-1e82-4277-a45a-3a8abaa4e3ab"},"vehicle_type_id":"4","last_reported":1777378731,"current_range_meters":7200,"station_id":"","pricing_plan_id":"cebpf4jnsgd1na2vs0mg"},{"bike_id":"9a3827a2-1bbe-4a97-ac5d-91efb9cbc07e","system_id":"levelo_inurba_marseille","lat":43.29916,"lon":5.374713,"is_reserved":false,"is_disabled":false,"rental_uris":{"android":"levelo://app?vid=9a3827a2-1bbe-4a97-ac5d-91efb9cbc07e","ios":"levelo://app?vid=9a3827a2-1bbe-4a97-ac5d-91efb9cbc07e"},"vehicle_type_id":"4","last_reported":1777378731,"current_range_meters":7200,"station_id":"ce4bgjh2rcd13ifvqbg0","pricing_plan_id":"cebpf4jnsgd1na2vs0mg"},{"bike_id":"5099fcc8-f95e-4589-bb9a-71165fa185c1","system_id":"levelo_inurba_marseille","lat":43.28472,"lon":5.38541,"is_reserved":false,"is_disabled":false,"rental_uris":{"android":"levelo://app?vid=5099fcc8-f95e-4589-bb9a-71165fa185c1","ios":"levelo://app?vid=5099fcc8-f95e-4589-bb9a-71165fa185c1"},"vehicle_type_id":"4","last_reported":1777378731,"current_range_meters":8000,"station_id":"ce4bh8p2rcd13ifvqeb0","pricing_plan_id":"cebpf4jnsgd1na2vs0mg"},{"bike_id":"ca970bed-dff0-40b1-aa6e-d0db5b10d8ee","system_id":"levelo_inurba_marseille","lat":43.27438,"lon":5.39397,"is_reserved":false,"is_disabled":false,"rental_uris":{"android":"levelo://app?vid=ca970bed-dff0-40b1-aa6e-d0db5b10d8ee","ios":"levelo://app?vid=ca970bed-dff0-40b1-aa6e-d0db5b10d8ee"},"vehicle_type_id":"4","last_reported":1777378731,"current_range_meters":8000,"station_id":"ce4bhdp2rcd13ifvqf20","pricing_plan_id":"cebpf4jnsgd1na2vs0mg"},{"bike_id":"227e4028-246b-4a4b-bf88-36b7ff5228dd","system_id":"levelo_inurba_marseille","lat":43.29499,"lon":5.37581,"is_reserved":false,"is_disabled":false,"rental_uris":{"android":"levelo://app?vid=227e4028-246b-4a4b-bf88-36b7ff5228dd","ios":"levelo://app?vid=227e4028-246b-4a4b-bf88-36b7ff5228dd"},"vehicle_type_id":"4","last_reported":1777378731,"current_range_meters":8000,"station_id":"","pricing_plan_id":"cebpf4jnsgd1na2vs0mg"},{"bike_id":"5cf8ad82-5414-44c7-bc57-e0ff2023b295","system_id":"levelo_inurba_marseille","lat":43.28697,"lon":5.37396,"is_reserved":false,"is_disabled":false,"rental_uris":{"android":"levelo://app?vid=5cf8ad82-5414-44c7-bc57-e0ff2023b295","ios":"levelo://app?vid=5cf8ad82-5414-44c7-bc57-e0ff2023b295"},"vehicle_type_id":"4","last_reported":1777378731,"current_range_meters":8000,"station_id":"ce4bh3p2rcd13ifvqdq0","pricing_plan_id":"cebpf4jnsgd1na2vs0mg"},{"bike_id":"02ebb0f5-8793-4f8a-8f6e-65aad3bcbf41","system_id":"levelo_inurba_marseille","lat":43.30936,"lon":5.39032,"is_reserved":false,"is_disabled":false,"rental_uris":{"android":"levelo://app?vid=02ebb0f5-8793-4f8a-8f6e-65aad3bcbf41","ios":"levelo://app?vid=02ebb0f5-8793-4f8a-8f6e-65aad3bcbf41"},"vehicle_type_id":"4","last_reported":1777378731,"current_range_meters":8000,"station_id":"ce4bgup2rcd13ifvqco0","pricing_plan_id":"cebpf4jnsgd1na2vs0mg"},{"bike_id":"b26f72b1-3436-474e-8d21-a89781343c8b","system_id":"levelo_inurba_marseille","lat":43.2594,"lon":5.40892,"is_reserved":false,"is_disabled":false,"rental_uris":{"android":"levelo://app?vid=b26f72b1-3436-474e-8d21-a89781343c8b","ios":"levelo://app?vid=b26f72b1-3436-474e-8d21-a89781343c8b"},"vehicle_type_id":"4","last_reported":1777378731,"current_range_meters":8000,"station_id":"ce4bhm92rcd13ifvqglg","pricing_plan_id":"cebpf4jnsgd1na2vs0mg"},{"bike_id":"81e52b6e-bff7-4875-a0d8-d533ea21c465","system_id":"levelo_inurba_marseille","lat":43.2815,"lon":5.42635,"is_reserved":false,"is_disabled":false,"rental_uris":{"android":"levelo://app?vid=81e52b6e-bff7-4875-a0d8-d533ea21c465","ios":"levelo://app?vid=81e52b6e-bff7-4875-a0d8-d533ea21c465"},"vehicle_type_id":"4","last_reported":1777378731,"current_range_meters":8000,"station_id":"ce4bhnh2rcd13ifvqgug","pricing_plan_id":"cebpf4jnsgd1na2vs0mg"},{"bike_id":"cea5c900-6846-469c-a102-14a14fb7cb4f","system_id":"levelo_inurba_marseille","lat":43.29572,"lon":5.37475,"is_reserved":false,"is_disabled":false,"rental_uris":{"android":"levelo://app?vid=cea5c900-6846-469c-a102-14a14fb7cb4f","ios":"levelo://app?vid=cea5c900-6846-469c-a102-14a14fb7cb4f"},"vehicle_type_id":"4","last_reported":1777378731,"current_range_meters":8000,"station_id":"ce4bgh92rcd13ifvqb50","pricing_plan_id":"cebpf4jnsgd1na2vs0mg"},{"bike_id":"7d0e029d-b46b-45df-a2df-9698f77d4f30","system_id":"levelo_inurba_marseille","lat":43.26561,"lon":5.3729,"is_reserved":false,"is_disabled":false,"rental_uris":{"android":"levelo://app?vid=7d0e029d-b46b-45df-a2df-9698f77d4f30","ios":"levelo://app?vid=7d0e029d-b46b-45df-a2df-9698f77d4f30"},"vehicle_type_id":"4","last_reported":1777378731,"current_range_meters":8000,"station_id":"ce4bhg12rcd13ifvqf70","pricing_plan_id":"cebpf4jnsgd1na2vs0mg"},{"bike_id":"76907408-a8ff-4688-9cbf-66e48bb415e8","system_id":"levelo_inurba_marseille","lat":43.28705,"lon":5.467,"is_reserved":false,"is_disabled":false,"rental_uris":{"android":"levelo://app?vid=76907408-a8ff-4688-9cbf-66e48bb415e8","ios":"levelo://app?vid=76907408-a8ff-4688-9cbf-66e48bb415e8"},"vehicle_type_id":"4","last_reported":1777378731,"current_range_meters":8000,"station_id":"st_d6tc3vkotcvc738tfjhg","pricing_plan_id":"cebpf4jnsgd1na2vs0mg"},{"bike_id":"02e7ced1-f2ae-4573-875a-b296871f6646","system_id":"levelo_inurba_marseille","lat":43.30935,"lon":5.36768,"is_reserved":false,"is_disabled":false,"rental_uris":{"android":"levelo://app?vid=02e7ced1-f2ae-4573-875a-b296871f6646","ios":"levelo://app?vid=02e7ced1-f2ae-4573-875a-b296871f6646"},"vehicle_type_id":"4","last_reported":1777378731,"current_range_meters":8000,"station_id":"","pricing_plan_id":"cebpf4jnsgd1na2vs0mg"},{"bike_id":"f13c1412-9987-4b53-aa5c-79a6ecb2ba2d","system_id":"levelo_inurba_marseille","lat":43.32372,"lon":5.36765,"is_reserved":false,"is_disabled":false,"rental_uris":{"android":"levelo://app?vid=f13c1412-9987-4b53-aa5c-79a6ecb2ba2d","ios":"levelo://app?vid=f13c1412-9987-4b53-aa5c-79a6ecb2ba2d"},"vehicle_type_id":"4","last_reported":1777378731,"current_range_meters":8000,"station_id":"ce4bhsh2rcd13ifvqi2g","pricing_plan_id":"cebpf4jnsgd1na2vs0mg"},{"bike_id":"fd4f0760-9fb8-43ea-b81d-a30a73892935","system_id":"levelo_inurba_marseille","lat":43.28152,"lon":5.4262,"is_reserved":false,"is_disabled":false,"rental_uris":{"android":"levelo://app?vid=fd4f0760-9fb8-43ea-b81d-a30a73892935","ios":"levelo://app?vid=fd4f0760-9fb8-43ea-b81d-a30a73892935"},"vehicle_type_id":"4","last_reported":1777378731,"current_range_meters":8000,"station_id":"ce4bhnh2rcd13ifvqgug","pricing_plan_id":"cebpf4jnsgd1na2vs0mg"},{"bike_id":"928892cf-2dcb-41b6-8f5f-2e6db66bc781","system_id":"levelo_inurba_marseille","lat":43.30161,"lon":5.38088,"is_reserved":false,"is_disabled":false,"rental_uris":{"android":"levelo://app?vid=928892cf-2dcb-41b6-8f5f-2e6db66bc781","ios":"levelo://app?vid=928892cf-2dcb-41b6-8f5f-2e6db66bc781"},"vehicle_type_id":"4","last_reported":1777378731,"current_range_meters":8000,"station_id":"ce4bgjp2rcd13ifvqbh0","pricing_plan_id":"cebpf4jnsgd1na2vs0mg"},{"bike_id":"e22334e1-b673-4bd9-90cf-73a329be8cbd","system_id":"levelo_inurba_marseille","lat":43.24085,"lon":5.37742,"is_reserved":false,"is_disabled":false,"rental_uris":{"android":"levelo://app?vid=e22334e1-b673-4bd9-90cf-73a329be8cbd","ios":"levelo://app?vid=e22334e1-b673-4bd9-90cf-73a329be8cbd"},"vehicle_type_id":"4","last_reported":1777378731,"current_range_meters":8000,"station_id":"ce4bhnp2rcd13ifvqgvg","pricing_plan_id":"cebpf4jnsgd1na2vs0mg"},{"bike_id":"60dba6de-54c0-480e-929d-4ee08e29c2b6","system_id":"levelo_inurba_marseille","lat":43.31188,"lon":5.3685,"is_reserved":false,"is_disabled":false,"rental_uris":{"android":"levelo://app?vid=60dba6de-54c0-480e-929d-4ee08e29c2b6","ios":"levelo://app?vid=60dba6de-54c0-480e-929d-4ee08e29c2b6"},"vehicle_type_id":"4","last_reported":1777378731,"current_range_meters":8000,"station_id":"ce4bgl92rcd13ifvqbq0","pricing_plan_id":"cebpf4jnsgd1na2vs0mg"},{"bike_id":"bcd67e65-43b0-4b23-bb5c-0bdd7484ac57","system_id":"levelo_inurba_marseille","lat":43.33173,"lon":5.37785,"is_reserved":false,"is_disabled":false,"rental_uris":{"android":"levelo://app?vid=bcd67e65-43b0-4b23-bb5c-0bdd7484ac57","ios":"levelo://app?vid=bcd67e65-43b0-4b23-bb5c-0bdd7484ac57"},"vehicle_type_id":"4","last_reported":1777378731,"current_range_meters":8400,"station_id":"","pricing_plan_id":"cebpf4jnsgd1na2vs0mg"},{"bike_id":"dabc5e28-b9df-4b1a-affa-f2e365a8b45b","system_id":"levelo_inurba_marseille","lat":43.32089,"lon":5.36798,"is_reserved":false,"is_disabled":false,"rental_uris":{"android":"levelo://app?vid=dabc5e28-b9df-4b1a-affa-f2e365a8b45b","ios":"levelo://app?vid=dabc5e28-b9df-4b1a-affa-f2e365a8b45b"},"vehicle_type_id":"4","last_reported":1777378731,"current_range_meters":8400,"station_id":"ce4bhrh2rcd13ifvqhug","pricing_plan_id":"cebpf4jnsgd1na2vs0mg"},{"bike_id":"4541a58b-5803-4873-8531-8182c7674429","system_id":"levelo_inurba_marseille","lat":43.28476,"lon":5.48386,"is_reserved":false,"is_disabled":false,"rental_uris":{"android":"levelo://app?vid=4541a58b-5803-4873-8531-8182c7674429","ios":"levelo://app?vid=4541a58b-5803-4873-8531-8182c7674429"},"vehicle_type_id":"4","last_reported":1777378731,"current_range_meters":8400,"station_id":"st_d3svhcjqgbts73a3dn0g","pricing_plan_id":"cebpf4jnsgd1na2vs0mg"},{"bike_id":"cfa8725f-01e0-40ad-939b-6b6194cf6c41","system_id":"levelo_inurba_marseille","lat":43.30155,"lon":5.38091,"is_reserved":false,"is_disabled":false,"rental_uris":{"android":"levelo://app?vid=cfa8725f-01e0-40ad-939b-6b6194cf6c41","ios":"levelo://app?vid=cfa8725f-01e0-40ad-939b-6b6194cf6c41"},"vehicle_type_id":"4","last_reported":1777378731,"current_range_meters":8400,"station_id":"ce4bgjp2rcd13ifvqbh0","pricing_plan_id":"cebpf4jnsgd1na2vs0mg"},{"bike_id":"bef32b62-67f2-4968-9e2e-e412361e670c","system_id":"levelo_inurba_marseille","lat":43.28898,"lon":5.36387,"is_reserved":false,"is_disabled":false,"rental_uris":{"android":"levelo://app?vid=bef32b62-67f2-4968-9e2e-e412361e670c","ios":"levelo://app?vid=bef32b62-67f2-4968-9e2e-e412361e670c"},"vehicle_type_id":"4","last_reported":1777378731,"current_range_meters":8400,"station_id":"ce4bhc92rcd13ifvqetg","pricing_plan_id":"cebpf4jnsgd1na2vs0mg"},{"bike_id":"11effbb2-3489-4e85-aec9-0e018fcdcc03","system_id":"levelo_inurba_marseille","lat":43.23198,"lon":5.35541,"is_reserved":false,"is_disabled":false,"rental_uris":{"android":"levelo://app?vid=11effbb2-3489-4e85-aec9-0e018fcdcc03","ios":"levelo://app?vid=11effbb2-3489-4e85-aec9-0e018fcdcc03"},"vehicle_type_id":"4","last_reported":1777378731,"current_range_meters":8400,"station_id":"ce4bhu92rcd13ifvqi70","pricing_plan_id":"cebpf4jnsgd1na2vs0mg"},{"bike_id":"c5fb7c9c-a63a-49a1-8aed-b33f29d7e52d","system_id":"levelo_inurba_marseille","lat":43.24655,"lon":5.38879,"is_reserved":false,"is_disabled":false,"rental_uris":{"android":"levelo://app?vid=c5fb7c9c-a63a-49a1-8aed-b33f29d7e52d","ios":"levelo://app?vid=c5fb7c9c-a63a-49a1-8aed-b33f29d7e52d"},"vehicle_type_id":"4","last_reported":1777378731,"current_range_meters":8400,"station_id":"ce4bhg12rcd13ifvqf60","pricing_plan_id":"cebpf4jnsgd1na2vs0mg"},{"bike_id":"99720f46-dc29-4273-8e93-19fe8a38dccd","system_id":"levelo_inurba_marseille","lat":43.30879,"lon":5.37194,"is_reserved":false,"is_disabled":false,"rental_uris":{"android":"levelo://app?vid=99720f46-dc29-4273-8e93-19fe8a38dccd","ios":"levelo://app?vid=99720f46-dc29-4273-8e93-19fe8a38dccd"},"vehicle_type_id":"4","last_reported":1777378731,"current_range_meters":8400,"station_id":"ce4bguh2rcd13ifvqckg","pricing_plan_id":"cebpf4jnsgd1na2vs0mg"},{"bike_id":"4ea7aba7-cc99-48d3-a1c7-28938d2ee343","system_id":"levelo_inurba_marseille","lat":43.28024,"lon":5.41629,"is_reserved":false,"is_disabled":false,"rental_uris":{"android":"levelo://app?vid=4ea7aba7-cc99-48d3-a1c7-28938d2ee343","ios":"levelo://app?vid=4ea7aba7-cc99-48d3-a1c7-28938d2ee343"},"vehicle_type_id":"4","last_reported":1777378731,"current_range_meters":8400,"station_id":"ce4bho12rcd13ifvqh1g","pricing_plan_id":"cebpf4jnsgd1na2vs0mg"},{"bike_id":"ccc64b12-fba8-4953-9e4c-789c15629674","system_id":"levelo_inurba_marseille","lat":43.23191,"lon":5.35089,"is_reserved":false,"is_disabled":false,"rental_uris":{"android":"levelo://app?vid=ccc64b12-fba8-4953-9e4c-789c15629674","ios":"levelo://app?vid=ccc64b12-fba8-4953-9e4c-789c15629674"},"vehicle_type_id":"4","last_reported":1777378731,"current_range_meters":8400,"station_id":"","pricing_plan_id":"cebpf4jnsgd1na2vs0mg"},{"bike_id":"7411c997-4373-4930-94c6-bccc1a2fb4d9","system_id":"levelo_inurba_marseille","lat":43.30278,"lon":5.39905,"is_reserved":false,"is_disabled":false,"rental_uris":{"android":"levelo://app?vid=7411c997-4373-4930-94c6-bccc1a2fb4d9","ios":"levelo://app?vid=7411c997-4373-4930-94c6-bccc1a2fb4d9"},"vehicle_type_id":"4","last_reported":1777378731,"current_range_meters":8400,"station_id":"","pricing_plan_id":"cebpf4jnsgd1na2vs0mg"},{"bike_id":"b9824a6b-1abf-4f9e-80f4-56c02deb08e1","system_id":"levelo_inurba_marseille","lat":43.30546,"lon":5.36527,"is_reserved":false,"is_disabled":false,"rental_uris":{"android":"levelo://app?vid=b9824a6b-1abf-4f9e-80f4-56c02deb08e1","ios":"levelo://app?vid=b9824a6b-1abf-4f9e-80f4-56c02deb08e1"},"vehicle_type_id":"4","last_reported":1777378731,"current_range_meters":8400,"station_id":"ce4bgs12rcd13ifvqcag","pricing_plan_id":"cebpf4jnsgd1na2vs0mg"},{"bike_id":"4a1cbfec-4d87-49b2-b072-5c838fd1bbc0","system_id":"levelo_inurba_marseille","lat":43.22562,"lon":5.41609,"is_reserved":false,"is_disabled":false,"rental_uris":{"android":"levelo://app?vid=4a1cbfec-4d87-49b2-b072-5c838fd1bbc0","ios":"levelo://app?vid=4a1cbfec-4d87-49b2-b072-5c838fd1bbc0"},"vehicle_type_id":"4","last_reported":1777378731,"current_range_meters":8800,"station_id":"st_d2o4gvlbi1j2169b742g","pricing_plan_id":"cebpf4jnsgd1na2vs0mg"},{"bike_id":"eb27abcf-4f01-48a4-9495-dcda68cace44","system_id":"levelo_inurba_marseille","lat":43.30153,"lon":5.38069,"is_reserved":false,"is_disabled":false,"rental_uris":{"android":"levelo://app?vid=eb27abcf-4f01-48a4-9495-dcda68cace44","ios":"levelo://app?vid=eb27abcf-4f01-48a4-9495-dcda68cace44"},"vehicle_type_id":"4","last_reported":1777378731,"current_range_meters":8800,"station_id":"ce4bgjp2rcd13ifvqbh0","pricing_plan_id":"cebpf4jnsgd1na2vs0mg"},{"bike_id":"16320a3d-e1d4-46a0-9255-ac02b6bca132","system_id":"levelo_inurba_marseille","lat":43.30475,"lon":5.379,"is_reserved":false,"is_disabled":false,"rental_uris":{"android":"levelo://app?vid=16320a3d-e1d4-46a0-9255-ac02b6bca132","ios":"levelo://app?vid=16320a3d-e1d4-46a0-9255-ac02b6bca132"},"vehicle_type_id":"4","last_reported":1777378731,"current_range_meters":8800,"station_id":"ce4bgup2rcd13ifvqcn0","pricing_plan_id":"cebpf4jnsgd1na2vs0mg"},{"bike_id":"e43e6601-2e16-471e-8f57-8abf089d636b","system_id":"levelo_inurba_marseille","lat":43.24463,"lon":5.42527,"is_reserved":false,"is_disabled":false,"rental_uris":{"android":"levelo://app?vid=e43e6601-2e16-471e-8f57-8abf089d636b","ios":"levelo://app?vid=e43e6601-2e16-471e-8f57-8abf089d636b"},"vehicle_type_id":"4","last_reported":1777378731,"current_range_meters":8800,"station_id":"st_d4a3vfp97mjs738cd8kg","pricing_plan_id":"cebpf4jnsgd1na2vs0mg"},{"bike_id":"23b9edcd-305b-48b3-b42b-c5b2d1a2cdca","system_id":"levelo_inurba_marseille","lat":43.27038,"lon":5.38609,"is_reserved":false,"is_disabled":false,"rental_uris":{"android":"levelo://app?vid=23b9edcd-305b-48b3-b42b-c5b2d1a2cdca","ios":"levelo://app?vid=23b9edcd-305b-48b3-b42b-c5b2d1a2cdca"},"vehicle_type_id":"4","last_reported":1777378731,"current_range_meters":8800,"station_id":"","pricing_plan_id":"cebpf4jnsgd1na2vs0mg"},{"bike_id":"80e1e11c-3ddb-4ade-a02f-05f6f042e922","system_id":"levelo_inurba_marseille","lat":43.30144,"lon":5.37408,"is_reserved":false,"is_disabled":false,"rental_uris":{"android":"levelo://app?vid=80e1e11c-3ddb-4ade-a02f-05f6f042e922","ios":"levelo://app?vid=80e1e11c-3ddb-4ade-a02f-05f6f042e922"},"vehicle_type_id":"4","last_reported":1777378731,"current_range_meters":8800,"station_id":"ce4bgs92rcd13ifvqcc0","pricing_plan_id":"cebpf4jnsgd1na2vs0mg"},{"bike_id":"879e92af-a08b-4550-983a-fe38aeb5346f","system_id":"levelo_inurba_marseille","lat":43.32449,"lon":5.36607,"is_reserved":false,"is_disabled":false,"rental_uris":{"android":"levelo://app?vid=879e92af-a08b-4550-983a-fe38aeb5346f","ios":"levelo://app?vid=879e92af-a08b-4550-983a-fe38aeb5346f"},"vehicle_type_id":"4","last_reported":1777378731,"current_range_meters":8800,"station_id":"","pricing_plan_id":"cebpf4jnsgd1na2vs0mg"},{"bike_id":"8ddf78e6-7053-4f51-a052-cbf410efa6bf","system_id":"levelo_inurba_marseille","lat":43.31237,"lon":5.36867,"is_reserved":false,"is_disabled":false,"rental_uris":{"android":"levelo://app?vid=8ddf78e6-7053-4f51-a052-cbf410efa6bf","ios":"levelo://app?vid=8ddf78e6-7053-4f51-a052-cbf410efa6bf"},"vehicle_type_id":"4","last_reported":1777378731,"current_range_meters":8800,"station_id":"ce4bgl92rcd13ifvqbq0","pricing_plan_id":"cebpf4jnsgd1na2vs0mg"},{"bike_id":"8db8d472-b87b-4adf-a58d-94efbb33b674","system_id":"levelo_inurba_marseille","lat":43.28963,"lon":5.37838,"is_reserved":false,"is_disabled":false,"rental_uris":{"android":"levelo://app?vid=8db8d472-b87b-4adf-a58d-94efbb33b674","ios":"levelo://app?vid=8db8d472-b87b-4adf-a58d-94efbb33b674"},"vehicle_type_id":"4","last_reported":1777378731,"current_range_meters":8800,"station_id":"ce4bh9p2rcd13ifvqed0","pricing_plan_id":"cebpf4jnsgd1na2vs0mg"},{"bike_id":"e03a9553-f014-4591-84d1-bb481db182e5","system_id":"levelo_inurba_marseille","lat":43.28702,"lon":5.46692,"is_reserved":false,"is_disabled":false,"rental_uris":{"android":"levelo://app?vid=e03a9553-f014-4591-84d1-bb481db182e5","ios":"levelo://app?vid=e03a9553-f014-4591-84d1-bb481db182e5"},"vehicle_type_id":"4","last_reported":1777378731,"current_range_meters":8800,"station_id":"st_d6tc3vkotcvc738tfjhg","pricing_plan_id":"cebpf4jnsgd1na2vs0mg"},{"bike_id":"ba8f88d0-eff0-482e-bdf6-248ce15d8bea","system_id":"levelo_inurba_marseille","lat":43.28272,"lon":5.35073,"is_reserved":false,"is_disabled":false,"rental_uris":{"android":"levelo://app?vid=ba8f88d0-eff0-482e-bdf6-248ce15d8bea","ios":"levelo://app?vid=ba8f88d0-eff0-482e-bdf6-248ce15d8bea"},"vehicle_type_id":"4","last_reported":1777378731,"current_range_meters":8800,"station_id":"ce4bhbp2rcd13ifvqerg","pricing_plan_id":"cebpf4jnsgd1na2vs0mg"},{"bike_id":"ef809088-19f7-4902-a559-51469dadba8c","system_id":"levelo_inurba_marseille","lat":43.27076,"lon":5.39069,"is_reserved":false,"is_disabled":false,"rental_uris":{"android":"levelo://app?vid=ef809088-19f7-4902-a559-51469dadba8c","ios":"levelo://app?vid=ef809088-19f7-4902-a559-51469dadba8c"},"vehicle_type_id":"4","last_reported":1777378731,"current_range_meters":8800,"station_id":"","pricing_plan_id":"cebpf4jnsgd1na2vs0mg"},{"bike_id":"c40ca731-2ed7-40f2-9fb4-d29501a2485f","system_id":"levelo_inurba_marseille","lat":43.284089,"lon":5.374998,"is_reserved":false,"is_disabled":false,"rental_uris":{"android":"levelo://app?vid=c40ca731-2ed7-40f2-9fb4-d29501a2485f","ios":"levelo://app?vid=c40ca731-2ed7-40f2-9fb4-d29501a2485f"},"vehicle_type_id":"4","last_reported":1777378731,"current_range_meters":8800,"station_id":"ce4bh412rcd13ifvqds0","pricing_plan_id":"cebpf4jnsgd1na2vs0mg"},{"bike_id":"f11e3633-986d-40f4-8b5f-6b5e41220dfc","system_id":"levelo_inurba_marseille","lat":43.31905,"lon":5.36795,"is_reserved":false,"is_disabled":false,"rental_uris":{"android":"levelo://app?vid=f11e3633-986d-40f4-8b5f-6b5e41220dfc","ios":"levelo://app?vid=f11e3633-986d-40f4-8b5f-6b5e41220dfc"},"vehicle_type_id":"4","last_reported":1777378731,"current_range_meters":8800,"station_id":"st_d6o2h0d0559c73evc1b0","pricing_plan_id":"cebpf4jnsgd1na2vs0mg"},{"bike_id":"35a6cb4b-5d8c-4bef-b99f-fe238abc9fa9","system_id":"levelo_inurba_marseille","lat":43.21744,"lon":5.34588,"is_reserved":false,"is_disabled":false,"rental_uris":{"android":"levelo://app?vid=35a6cb4b-5d8c-4bef-b99f-fe238abc9fa9","ios":"levelo://app?vid=35a6cb4b-5d8c-4bef-b99f-fe238abc9fa9"},"vehicle_type_id":"4","last_reported":1777378731,"current_range_meters":8800,"station_id":"st_cvj6r9ubvosntc0bgbag","pricing_plan_id":"cebpf4jnsgd1na2vs0mg"},{"bike_id":"04d07930-42f0-4c92-9bce-6eaea7bbfac2","system_id":"levelo_inurba_marseille","lat":43.29573,"lon":5.3822,"is_reserved":false,"is_disabled":false,"rental_uris":{"android":"levelo://app?vid=04d07930-42f0-4c92-9bce-6eaea7bbfac2","ios":"levelo://app?vid=04d07930-42f0-4c92-9bce-6eaea7bbfac2"},"vehicle_type_id":"4","last_reported":1777378731,"current_range_meters":8800,"station_id":"","pricing_plan_id":"cebpf4jnsgd1na2vs0mg"},{"bike_id":"765c2aea-ed10-4860-ab56-958547a127e5","system_id":"levelo_inurba_marseille","lat":43.27986,"lon":5.4165,"is_reserved":false,"is_disabled":false,"rental_uris":{"android":"levelo://app?vid=765c2aea-ed10-4860-ab56-958547a127e5","ios":"levelo://app?vid=765c2aea-ed10-4860-ab56-958547a127e5"},"vehicle_type_id":"4","last_reported":1777378731,"current_range_meters":8800,"station_id":"ce4bho12rcd13ifvqh1g","pricing_plan_id":"cebpf4jnsgd1na2vs0mg"},{"bike_id":"9d7c73b7-5862-4a34-b7aa-8e8cb18fe607","system_id":"levelo_inurba_marseille","lat":43.27565,"lon":5.38429,"is_reserved":false,"is_disabled":false,"rental_uris":{"android":"levelo://app?vid=9d7c73b7-5862-4a34-b7aa-8e8cb18fe607","ios":"levelo://app?vid=9d7c73b7-5862-4a34-b7aa-8e8cb18fe607"},"vehicle_type_id":"4","last_reported":1777378731,"current_range_meters":8800,"station_id":"ce4bhh92rcd13ifvqfi0","pricing_plan_id":"cebpf4jnsgd1na2vs0mg"},{"bike_id":"a0faf62e-3fd3-41e6-8c3f-14765bb7d79d","system_id":"levelo_inurba_marseille","lat":43.29607,"lon":5.38017,"is_reserved":false,"is_disabled":false,"rental_uris":{"android":"levelo://app?vid=a0faf62e-3fd3-41e6-8c3f-14765bb7d79d","ios":"levelo://app?vid=a0faf62e-3fd3-41e6-8c3f-14765bb7d79d"},"vehicle_type_id":"4","last_reported":1777378731,"current_range_meters":8800,"station_id":"","pricing_plan_id":"cebpf4jnsgd1na2vs0mg"},{"bike_id":"0c17c7bb-7d23-4755-9f4b-21aa0ae2cf05","system_id":"levelo_inurba_marseille","lat":43.24388,"lon":5.37076,"is_reserved":false,"is_disabled":false,"rental_uris":{"android":"levelo://app?vid=0c17c7bb-7d23-4755-9f4b-21aa0ae2cf05","ios":"levelo://app?vid=0c17c7bb-7d23-4755-9f4b-21aa0ae2cf05"},"vehicle_type_id":"4","last_reported":1777378731,"current_range_meters":9200,"station_id":"ce4bhhh2rcd13ifvqfk0","pricing_plan_id":"cebpf4jnsgd1na2vs0mg"},{"bike_id":"e001880b-7f92-49fe-a5c6-685b6c9005ac","system_id":"levelo_inurba_marseille","lat":43.28689,"lon":5.38649,"is_reserved":false,"is_disabled":false,"rental_uris":{"android":"levelo://app?vid=e001880b-7f92-49fe-a5c6-685b6c9005ac","ios":"levelo://app?vid=e001880b-7f92-49fe-a5c6-685b6c9005ac"},"vehicle_type_id":"4","last_reported":1777378731,"current_range_meters":9200,"station_id":"ce4bh492rcd13ifvqdug","pricing_plan_id":"cebpf4jnsgd1na2vs0mg"},{"bike_id":"f7a5267e-ffda-4cb3-8f6e-89eeda61dbbe","system_id":"levelo_inurba_marseille","lat":43.2783,"lon":5.40717,"is_reserved":false,"is_disabled":true,"rental_uris":{"android":"levelo://app?vid=f7a5267e-ffda-4cb3-8f6e-89eeda61dbbe","ios":"levelo://app?vid=f7a5267e-ffda-4cb3-8f6e-89eeda61dbbe"},"vehicle_type_id":"4","last_reported":1777378731,"current_range_meters":9200,"station_id":"ce4bhnh2rcd13ifvqgtg","pricing_plan_id":"cebpf4jnsgd1na2vs0mg"},{"bike_id":"e116e98a-e7c1-4e2d-9ae3-1a759c33b548","system_id":"levelo_inurba_marseille","lat":43.337444,"lon":5.374475,"is_reserved":false,"is_disabled":false,"rental_uris":{"android":"levelo://app?vid=e116e98a-e7c1-4e2d-9ae3-1a759c33b548","ios":"levelo://app?vid=e116e98a-e7c1-4e2d-9ae3-1a759c33b548"},"vehicle_type_id":"4","last_reported":1777378731,"current_range_meters":9200,"station_id":"ce4bgop2rcd13ifvqc1g","pricing_plan_id":"cebpf4jnsgd1na2vs0mg"},{"bike_id":"b9c0ca4a-61af-4a0b-994f-7b554a71a91c","system_id":"levelo_inurba_marseille","lat":43.32362,"lon":5.36713,"is_reserved":false,"is_disabled":false,"rental_uris":{"android":"levelo://app?vid=b9c0ca4a-61af-4a0b-994f-7b554a71a91c","ios":"levelo://app?vid=b9c0ca4a-61af-4a0b-994f-7b554a71a91c"},"vehicle_type_id":"4","last_reported":1777378731,"current_range_meters":9200,"station_id":"ce4bhsh2rcd13ifvqi2g","pricing_plan_id":"cebpf4jnsgd1na2vs0mg"},{"bike_id":"b4e349b1-3758-41c0-986d-367554a0653c","system_id":"levelo_inurba_marseille","lat":43.28036,"lon":5.36937,"is_reserved":false,"is_disabled":true,"rental_uris":{"android":"levelo://app?vid=b4e349b1-3758-41c0-986d-367554a0653c","ios":"levelo://app?vid=b4e349b1-3758-41c0-986d-367554a0653c"},"vehicle_type_id":"4","last_reported":1777378731,"current_range_meters":9200,"station_id":"ce4bha12rcd13ifvqef0","pricing_plan_id":"cebpf4jnsgd1na2vs0mg"},{"bike_id":"3c2f4a7a-43d9-4d2f-b294-2554393813f3","system_id":"levelo_inurba_marseille","lat":43.26798,"lon":5.3939,"is_reserved":false,"is_disabled":false,"rental_uris":{"android":"levelo://app?vid=3c2f4a7a-43d9-4d2f-b294-2554393813f3","ios":"levelo://app?vid=3c2f4a7a-43d9-4d2f-b294-2554393813f3"},"vehicle_type_id":"4","last_reported":1777378731,"current_range_meters":9200,"station_id":"ce4bhh12rcd13ifvqfg0","pricing_plan_id":"cebpf4jnsgd1na2vs0mg"},{"bike_id":"ea369790-847a-4a5e-b85c-f9d75e7eaabd","system_id":"levelo_inurba_marseille","lat":43.30555,"lon":5.36706,"is_reserved":false,"is_disabled":false,"rental_uris":{"android":"levelo://app?vid=ea369790-847a-4a5e-b85c-f9d75e7eaabd","ios":"levelo://app?vid=ea369790-847a-4a5e-b85c-f9d75e7eaabd"},"vehicle_type_id":"4","last_reported":1777378731,"current_range_meters":9200,"station_id":"ce4bgrp2rcd13ifvqc9g","pricing_plan_id":"cebpf4jnsgd1na2vs0mg"},{"bike_id":"5f89b9c1-7d43-4b08-937e-eab558419f59","system_id":"levelo_inurba_marseille","lat":43.30553,"lon":5.36523,"is_reserved":false,"is_disabled":false,"rental_uris":{"android":"levelo://app?vid=5f89b9c1-7d43-4b08-937e-eab558419f59","ios":"levelo://app?vid=5f89b9c1-7d43-4b08-937e-eab558419f59"},"vehicle_type_id":"4","last_reported":1777378731,"current_range_meters":9200,"station_id":"ce4bgs12rcd13ifvqcag","pricing_plan_id":"cebpf4jnsgd1na2vs0mg"},{"bike_id":"ee5bca21-2a39-4c24-aced-c94d2451e251","system_id":"levelo_inurba_marseille","lat":43.27988,"lon":5.41648,"is_reserved":false,"is_disabled":false,"rental_uris":{"android":"levelo://app?vid=ee5bca21-2a39-4c24-aced-c94d2451e251","ios":"levelo://app?vid=ee5bca21-2a39-4c24-aced-c94d2451e251"},"vehicle_type_id":"4","last_reported":1777378731,"current_range_meters":9200,"station_id":"ce4bho12rcd13ifvqh1g","pricing_plan_id":"cebpf4jnsgd1na2vs0mg"},{"bike_id":"5ce673ec-a1a2-42b4-80ef-3ea3d989f001","system_id":"levelo_inurba_marseille","lat":43.28271,"lon":5.35062,"is_reserved":false,"is_disabled":false,"rental_uris":{"android":"levelo://app?vid=5ce673ec-a1a2-42b4-80ef-3ea3d989f001","ios":"levelo://app?vid=5ce673ec-a1a2-42b4-80ef-3ea3d989f001"},"vehicle_type_id":"4","last_reported":1777378731,"current_range_meters":9200,"station_id":"ce4bhbp2rcd13ifvqerg","pricing_plan_id":"cebpf4jnsgd1na2vs0mg"},{"bike_id":"d8ed8289-69e9-4e21-809b-47a820f4cbed","system_id":"levelo_inurba_marseille","lat":43.2668,"lon":5.3826,"is_reserved":false,"is_disabled":false,"rental_uris":{"android":"levelo://app?vid=d8ed8289-69e9-4e21-809b-47a820f4cbed","ios":"levelo://app?vid=d8ed8289-69e9-4e21-809b-47a820f4cbed"},"vehicle_type_id":"4","last_reported":1777378731,"current_range_meters":9200,"station_id":"ce4bhg92rcd13ifvqf90","pricing_plan_id":"cebpf4jnsgd1na2vs0mg"},{"bike_id":"c66f0dc9-c7b0-4370-a87a-7a5a98d6427e","system_id":"levelo_inurba_marseille","lat":43.27215,"lon":5.39193,"is_reserved":false,"is_disabled":false,"rental_uris":{"android":"levelo://app?vid=c66f0dc9-c7b0-4370-a87a-7a5a98d6427e","ios":"levelo://app?vid=c66f0dc9-c7b0-4370-a87a-7a5a98d6427e"},"vehicle_type_id":"4","last_reported":1777378731,"current_range_meters":9200,"station_id":"ce4bhhp2rcd13ifvqfm0","pricing_plan_id":"cebpf4jnsgd1na2vs0mg"},{"bike_id":"2a9f517f-dc7e-442a-8a6e-b3ad6200cb4e","system_id":"levelo_inurba_marseille","lat":43.33532,"lon":5.37476,"is_reserved":false,"is_disabled":false,"rental_uris":{"android":"levelo://app?vid=2a9f517f-dc7e-442a-8a6e-b3ad6200cb4e","ios":"levelo://app?vid=2a9f517f-dc7e-442a-8a6e-b3ad6200cb4e"},"vehicle_type_id":"4","last_reported":1777378731,"current_range_meters":9200,"station_id":"st_d46tts09ee8s73dlu43g","pricing_plan_id":"cebpf4jnsgd1na2vs0mg"},{"bike_id":"642e5e4c-40a8-4d02-8536-9d0a5e30a962","system_id":"levelo_inurba_marseille","lat":43.25335,"lon":5.42168,"is_reserved":false,"is_disabled":false,"rental_uris":{"android":"levelo://app?vid=642e5e4c-40a8-4d02-8536-9d0a5e30a962","ios":"levelo://app?vid=642e5e4c-40a8-4d02-8536-9d0a5e30a962"},"vehicle_type_id":"4","last_reported":1777378731,"current_range_meters":9200,"station_id":"st_d2m65c5bi1j21697t3ng","pricing_plan_id":"cebpf4jnsgd1na2vs0mg"},{"bike_id":"97101e97-9dc1-46b9-aa51-c662f292853d","system_id":"levelo_inurba_marseille","lat":43.28157,"lon":5.42619,"is_reserved":false,"is_disabled":false,"rental_uris":{"android":"levelo://app?vid=97101e97-9dc1-46b9-aa51-c662f292853d","ios":"levelo://app?vid=97101e97-9dc1-46b9-aa51-c662f292853d"},"vehicle_type_id":"4","last_reported":1777378731,"current_range_meters":9200,"station_id":"ce4bhnh2rcd13ifvqgug","pricing_plan_id":"cebpf4jnsgd1na2vs0mg"},{"bike_id":"053259a3-4045-4741-b282-03034908f9fe","system_id":"levelo_inurba_marseille","lat":43.29003,"lon":5.3559,"is_reserved":false,"is_disabled":false,"rental_uris":{"android":"levelo://app?vid=053259a3-4045-4741-b282-03034908f9fe","ios":"levelo://app?vid=053259a3-4045-4741-b282-03034908f9fe"},"vehicle_type_id":"4","last_reported":1777378731,"current_range_meters":9200,"station_id":"ce4bhb92rcd13ifvqen0","pricing_plan_id":"cebpf4jnsgd1na2vs0mg"},{"bike_id":"fadbd9a5-2a49-4734-8db0-528994d97e40","system_id":"levelo_inurba_marseille","lat":43.29272,"lon":5.38362,"is_reserved":false,"is_disabled":false,"rental_uris":{"android":"levelo://app?vid=fadbd9a5-2a49-4734-8db0-528994d97e40","ios":"levelo://app?vid=fadbd9a5-2a49-4734-8db0-528994d97e40"},"vehicle_type_id":"4","last_reported":1777378731,"current_range_meters":9200,"station_id":"","pricing_plan_id":"cebpf4jnsgd1na2vs0mg"},{"bike_id":"f4305cf3-082c-4833-a706-5ba897c6cdf1","system_id":"levelo_inurba_marseille","lat":43.27331,"lon":5.39076,"is_reserved":false,"is_disabled":false,"rental_uris":{"android":"levelo://app?vid=f4305cf3-082c-4833-a706-5ba897c6cdf1","ios":"levelo://app?vid=f4305cf3-082c-4833-a706-5ba897c6cdf1"},"vehicle_type_id":"4","last_reported":1777378731,"current_range_meters":9200,"station_id":"ce4bhgp2rcd13ifvqfe0","pricing_plan_id":"cebpf4jnsgd1na2vs0mg"},{"bike_id":"b2f4375d-7e08-4ebd-b4b6-9f49c6fdecbb","system_id":"levelo_inurba_marseille","lat":43.21188,"lon":5.35063,"is_reserved":false,"is_disabled":false,"rental_uris":{"android":"levelo://app?vid=b2f4375d-7e08-4ebd-b4b6-9f49c6fdecbb","ios":"levelo://app?vid=b2f4375d-7e08-4ebd-b4b6-9f49c6fdecbb"},"vehicle_type_id":"4","last_reported":1777378731,"current_range_meters":9200,"station_id":"st_cvj6sg6p6f1abm77japg","pricing_plan_id":"cebpf4jnsgd1na2vs0mg"},{"bike_id":"37f3091b-6628-4722-b3e5-d568f9ceb68f","system_id":"levelo_inurba_marseille","lat":43.2306,"lon":5.35492,"is_reserved":false,"is_disabled":false,"rental_uris":{"android":"levelo://app?vid=37f3091b-6628-4722-b3e5-d568f9ceb68f","ios":"levelo://app?vid=37f3091b-6628-4722-b3e5-d568f9ceb68f"},"vehicle_type_id":"4","last_reported":1777378731,"current_range_meters":9200,"station_id":"cpo3342slgdg3j2ifvpg","pricing_plan_id":"cebpf4jnsgd1na2vs0mg"},{"bike_id":"1b55fdcc-1f2a-4648-812d-a6e9c84071f1","system_id":"levelo_inurba_marseille","lat":43.2799,"lon":5.38737,"is_reserved":false,"is_disabled":false,"rental_uris":{"android":"levelo://app?vid=1b55fdcc-1f2a-4648-812d-a6e9c84071f1","ios":"levelo://app?vid=1b55fdcc-1f2a-4648-812d-a6e9c84071f1"},"vehicle_type_id":"4","last_reported":1777378731,"current_range_meters":9200,"station_id":"ce4bhg12rcd13ifvqf80","pricing_plan_id":"cebpf4jnsgd1na2vs0mg"},{"bike_id":"04ad3113-27a5-48ea-ae18-79eeaf0717d1","system_id":"levelo_inurba_marseille","lat":43.30349,"lon":5.41881,"is_reserved":false,"is_disabled":false,"rental_uris":{"android":"levelo://app?vid=04ad3113-27a5-48ea-ae18-79eeaf0717d1","ios":"levelo://app?vid=04ad3113-27a5-48ea-ae18-79eeaf0717d1"},"vehicle_type_id":"4","last_reported":1777378731,"current_range_meters":9200,"station_id":"ce4bhop2rcd13ifvqh7g","pricing_plan_id":"cebpf4jnsgd1na2vs0mg"},{"bike_id":"025b0dd6-a6d6-4231-a248-4bf1d595788c","system_id":"levelo_inurba_marseille","lat":43.28694,"lon":5.46685,"is_reserved":false,"is_disabled":false,"rental_uris":{"android":"levelo://app?vid=025b0dd6-a6d6-4231-a248-4bf1d595788c","ios":"levelo://app?vid=025b0dd6-a6d6-4231-a248-4bf1d595788c"},"vehicle_type_id":"4","last_reported":1777378731,"current_range_meters":9200,"station_id":"st_d6tc3vkotcvc738tfjhg","pricing_plan_id":"cebpf4jnsgd1na2vs0mg"},{"bike_id":"adc781f1-1b75-4ca5-92e9-200a26dfa019","system_id":"levelo_inurba_marseille","lat":43.279684,"lon":5.38752,"is_reserved":false,"is_disabled":false,"rental_uris":{"android":"levelo://app?vid=adc781f1-1b75-4ca5-92e9-200a26dfa019","ios":"levelo://app?vid=adc781f1-1b75-4ca5-92e9-200a26dfa019"},"vehicle_type_id":"4","last_reported":1777378731,"current_range_meters":9200,"station_id":"ce4bhg12rcd13ifvqf80","pricing_plan_id":"cebpf4jnsgd1na2vs0mg"},{"bike_id":"475b56ab-fd61-45ae-be40-05696313ed1d","system_id":"levelo_inurba_marseille","lat":43.29415,"lon":5.40179,"is_reserved":false,"is_disabled":true,"rental_uris":{"android":"levelo://app?vid=475b56ab-fd61-45ae-be40-05696313ed1d","ios":"levelo://app?vid=475b56ab-fd61-45ae-be40-05696313ed1d"},"vehicle_type_id":"4","last_reported":1777378731,"current_range_meters":9200,"station_id":"","pricing_plan_id":"cebpf4jnsgd1na2vs0mg"},{"bike_id":"752a708a-d32b-4493-9075-adb254f815d8","system_id":"levelo_inurba_marseille","lat":43.2972,"lon":5.377088,"is_reserved":false,"is_disabled":false,"rental_uris":{"android":"levelo://app?vid=752a708a-d32b-4493-9075-adb254f815d8","ios":"levelo://app?vid=752a708a-d32b-4493-9075-adb254f815d8"},"vehicle_type_id":"4","last_reported":1777378731,"current_range_meters":9600,"station_id":"ce4bgkh2rcd13ifvqbl0","pricing_plan_id":"cebpf4jnsgd1na2vs0mg"},{"bike_id":"a4c652d9-601b-416d-a69c-74566345572f","system_id":"levelo_inurba_marseille","lat":43.241,"lon":5.3774,"is_reserved":false,"is_disabled":false,"rental_uris":{"android":"levelo://app?vid=a4c652d9-601b-416d-a69c-74566345572f","ios":"levelo://app?vid=a4c652d9-601b-416d-a69c-74566345572f"},"vehicle_type_id":"4","last_reported":1777378731,"current_range_meters":9600,"station_id":"ce4bhnp2rcd13ifvqgvg","pricing_plan_id":"cebpf4jnsgd1na2vs0mg"},{"bike_id":"c2fcc733-6492-4678-b97d-3fc84d1b63ea","system_id":"levelo_inurba_marseille","lat":43.30903,"lon":5.36855,"is_reserved":false,"is_disabled":false,"rental_uris":{"android":"levelo://app?vid=c2fcc733-6492-4678-b97d-3fc84d1b63ea","ios":"levelo://app?vid=c2fcc733-6492-4678-b97d-3fc84d1b63ea"},"vehicle_type_id":"4","last_reported":1777378731,"current_range_meters":9600,"station_id":"ce4bgn92rcd13ifvqbvg","pricing_plan_id":"cebpf4jnsgd1na2vs0mg"},{"bike_id":"44620b1b-5f85-41e4-9394-c720a89b90ed","system_id":"levelo_inurba_marseille","lat":43.32059,"lon":5.41509,"is_reserved":false,"is_disabled":false,"rental_uris":{"android":"levelo://app?vid=44620b1b-5f85-41e4-9394-c720a89b90ed","ios":"levelo://app?vid=44620b1b-5f85-41e4-9394-c720a89b90ed"},"vehicle_type_id":"4","last_reported":1777378731,"current_range_meters":9600,"station_id":"ce4bhq92rcd13ifvqhkg","pricing_plan_id":"cebpf4jnsgd1na2vs0mg"},{"bike_id":"f54c8d1b-321e-429b-a2b9-753ff69a66bf","system_id":"levelo_inurba_marseille","lat":43.2316,"lon":5.43707,"is_reserved":false,"is_disabled":false,"rental_uris":{"android":"levelo://app?vid=f54c8d1b-321e-429b-a2b9-753ff69a66bf","ios":"levelo://app?vid=f54c8d1b-321e-429b-a2b9-753ff69a66bf"},"vehicle_type_id":"4","last_reported":1777378731,"current_range_meters":9600,"station_id":"ce4bhmp2rcd13ifvqgog","pricing_plan_id":"cebpf4jnsgd1na2vs0mg"},{"bike_id":"6e641140-5c09-4610-8fa4-d2408ed91774","system_id":"levelo_inurba_marseille","lat":43.29593,"lon":5.38087,"is_reserved":false,"is_disabled":false,"rental_uris":{"android":"levelo://app?vid=6e641140-5c09-4610-8fa4-d2408ed91774","ios":"levelo://app?vid=6e641140-5c09-4610-8fa4-d2408ed91774"},"vehicle_type_id":"4","last_reported":1777378731,"current_range_meters":9600,"station_id":"ce4bgl12rcd13ifvqbo0","pricing_plan_id":"cebpf4jnsgd1na2vs0mg"},{"bike_id":"114100ef-6fbd-4605-ae0d-8f71fe920c18","system_id":"levelo_inurba_marseille","lat":43.25585,"lon":5.38245,"is_reserved":false,"is_disabled":false,"rental_uris":{"android":"levelo://app?vid=114100ef-6fbd-4605-ae0d-8f71fe920c18","ios":"levelo://app?vid=114100ef-6fbd-4605-ae0d-8f71fe920c18"},"vehicle_type_id":"4","last_reported":1777378731,"current_range_meters":9600,"station_id":"ce4bhih2rcd13ifvqfs0","pricing_plan_id":"cebpf4jnsgd1na2vs0mg"},{"bike_id":"2c0808ca-959e-46d2-bd7d-5fa523a2fa9a","system_id":"levelo_inurba_marseille","lat":43.30635,"lon":5.43654,"is_reserved":false,"is_disabled":false,"rental_uris":{"android":"levelo://app?vid=2c0808ca-959e-46d2-bd7d-5fa523a2fa9a","ios":"levelo://app?vid=2c0808ca-959e-46d2-bd7d-5fa523a2fa9a"},"vehicle_type_id":"4","last_reported":1777378731,"current_range_meters":9600,"station_id":"","pricing_plan_id":"cebpf4jnsgd1na2vs0mg"},{"bike_id":"8c1ed4f7-6c2b-44cc-9c9e-92a099a9a009","system_id":"levelo_inurba_marseille","lat":43.2721,"lon":5.3918,"is_reserved":false,"is_disabled":true,"rental_uris":{"android":"levelo://app?vid=8c1ed4f7-6c2b-44cc-9c9e-92a099a9a009","ios":"levelo://app?vid=8c1ed4f7-6c2b-44cc-9c9e-92a099a9a009"},"vehicle_type_id":"4","last_reported":1777378731,"current_range_meters":9600,"station_id":"ce4bhhp2rcd13ifvqfm0","pricing_plan_id":"cebpf4jnsgd1na2vs0mg"},{"bike_id":"5a082d0b-9dcd-4b27-b749-e7a082c3a4b6","system_id":"levelo_inurba_marseille","lat":43.25145,"lon":5.40454,"is_reserved":false,"is_disabled":false,"rental_uris":{"android":"levelo://app?vid=5a082d0b-9dcd-4b27-b749-e7a082c3a4b6","ios":"levelo://app?vid=5a082d0b-9dcd-4b27-b749-e7a082c3a4b6"},"vehicle_type_id":"4","last_reported":1777378731,"current_range_meters":9600,"station_id":"","pricing_plan_id":"cebpf4jnsgd1na2vs0mg"},{"bike_id":"72bf9885-97f7-4fdc-9b4b-f530bb38d3f1","system_id":"levelo_inurba_marseille","lat":43.2783,"lon":5.39206,"is_reserved":false,"is_disabled":false,"rental_uris":{"android":"levelo://app?vid=72bf9885-97f7-4fdc-9b4b-f530bb38d3f1","ios":"levelo://app?vid=72bf9885-97f7-4fdc-9b4b-f530bb38d3f1"},"vehicle_type_id":"4","last_reported":1777378731,"current_range_meters":9600,"station_id":"ce4bhjp2rcd13ifvqga0","pricing_plan_id":"cebpf4jnsgd1na2vs0mg"},{"bike_id":"1db04ab9-03bf-4ecf-865d-d89dbe023324","system_id":"levelo_inurba_marseille","lat":43.30946,"lon":5.39028,"is_reserved":false,"is_disabled":false,"rental_uris":{"android":"levelo://app?vid=1db04ab9-03bf-4ecf-865d-d89dbe023324","ios":"levelo://app?vid=1db04ab9-03bf-4ecf-865d-d89dbe023324"},"vehicle_type_id":"4","last_reported":1777378731,"current_range_meters":9600,"station_id":"ce4bgup2rcd13ifvqco0","pricing_plan_id":"cebpf4jnsgd1na2vs0mg"},{"bike_id":"d3988bf6-f906-4ae1-89c5-71a6d8fd9cd1","system_id":"levelo_inurba_marseille","lat":43.283506,"lon":5.381051,"is_reserved":false,"is_disabled":false,"rental_uris":{"android":"levelo://app?vid=d3988bf6-f906-4ae1-89c5-71a6d8fd9cd1","ios":"levelo://app?vid=d3988bf6-f906-4ae1-89c5-71a6d8fd9cd1"},"vehicle_type_id":"4","last_reported":1777378731,"current_range_meters":9600,"station_id":"ce4bh412rcd13ifvqdr0","pricing_plan_id":"cebpf4jnsgd1na2vs0mg"},{"bike_id":"65010c6b-26f0-4ad8-b6d9-a2be7775660c","system_id":"levelo_inurba_marseille","lat":43.25569,"lon":5.38214,"is_reserved":false,"is_disabled":false,"rental_uris":{"android":"levelo://app?vid=65010c6b-26f0-4ad8-b6d9-a2be7775660c","ios":"levelo://app?vid=65010c6b-26f0-4ad8-b6d9-a2be7775660c"},"vehicle_type_id":"4","last_reported":1777378731,"current_range_meters":9600,"station_id":"ce4bhih2rcd13ifvqfs0","pricing_plan_id":"cebpf4jnsgd1na2vs0mg"},{"bike_id":"edb23de9-ebee-45e1-87d0-c897e1618846","system_id":"levelo_inurba_marseille","lat":43.28035,"lon":5.36939,"is_reserved":false,"is_disabled":false,"rental_uris":{"android":"levelo://app?vid=edb23de9-ebee-45e1-87d0-c897e1618846","ios":"levelo://app?vid=edb23de9-ebee-45e1-87d0-c897e1618846"},"vehicle_type_id":"4","last_reported":1777378731,"current_range_meters":10000,"station_id":"ce4bha12rcd13ifvqef0","pricing_plan_id":"cebpf4jnsgd1na2vs0mg"},{"bike_id":"e7cff22e-d428-4ba3-b289-ffb8fd911fb5","system_id":"levelo_inurba_marseille","lat":43.30962,"lon":5.39041,"is_reserved":false,"is_disabled":false,"rental_uris":{"android":"levelo://app?vid=e7cff22e-d428-4ba3-b289-ffb8fd911fb5","ios":"levelo://app?vid=e7cff22e-d428-4ba3-b289-ffb8fd911fb5"},"vehicle_type_id":"4","last_reported":1777378731,"current_range_meters":10000,"station_id":"ce4bgup2rcd13ifvqco0","pricing_plan_id":"cebpf4jnsgd1na2vs0mg"},{"bike_id":"c5b11747-9480-4f76-becd-b3f69b042f65","system_id":"levelo_inurba_marseille","lat":43.30143,"lon":5.37415,"is_reserved":false,"is_disabled":false,"rental_uris":{"android":"levelo://app?vid=c5b11747-9480-4f76-becd-b3f69b042f65","ios":"levelo://app?vid=c5b11747-9480-4f76-becd-b3f69b042f65"},"vehicle_type_id":"4","last_reported":1777378731,"current_range_meters":10000,"station_id":"ce4bgs92rcd13ifvqcc0","pricing_plan_id":"cebpf4jnsgd1na2vs0mg"},{"bike_id":"28ec2429-3fba-4d12-a270-2f969e1eada4","system_id":"levelo_inurba_marseille","lat":43.24572,"lon":5.39342,"is_reserved":false,"is_disabled":false,"rental_uris":{"android":"levelo://app?vid=28ec2429-3fba-4d12-a270-2f969e1eada4","ios":"levelo://app?vid=28ec2429-3fba-4d12-a270-2f969e1eada4"},"vehicle_type_id":"4","last_reported":1777378731,"current_range_meters":10000,"station_id":"","pricing_plan_id":"cebpf4jnsgd1na2vs0mg"},{"bike_id":"1e712c63-873e-4843-a64f-c213ea063b7b","system_id":"levelo_inurba_marseille","lat":43.31399,"lon":5.36678,"is_reserved":false,"is_disabled":false,"rental_uris":{"android":"levelo://app?vid=1e712c63-873e-4843-a64f-c213ea063b7b","ios":"levelo://app?vid=1e712c63-873e-4843-a64f-c213ea063b7b"},"vehicle_type_id":"4","last_reported":1777378731,"current_range_meters":10000,"station_id":"","pricing_plan_id":"cebpf4jnsgd1na2vs0mg"},