{"last_updated":1736842346,"ttl":60,"version":"2.2","data":{"bikes":[{"bike_id":"8b877a16-2c6f-4913-a8ea-b53aacb81218","system_id":"levelo_inurba_marseille","lat":43.28078,"lon":5.39658,"is_reserved":false,"is_disabled":false,"rental_uris":{"android":"levelo://app?vid=8b877a16-2c6f-4913-a8ea-b53aacb81218","ios":"levelo://app?vid=8b877a16-2c6f-4913-a8ea-b53aacb81218"},"vehicle_type_id":"4","last_reported":1736842346,"current_range_meters":38400,"station_id":"ce4bho12rcd13ifvqh2g","pricing_plan_id":"cebpf4jnsgd1na2vs0mg"},{"bike_id":"5fc5076e-d929-45df-990c-0ddf1b1510cc","system_id":"levelo_inurba_marseille","lat":43.29521,"lon":5.37496,"is_reserved":false,"is_disabled":false,"rental_uris":{"android":"levelo://app?vid=5fc5076e-d929-45df-990c-0ddf1b1510cc","ios":"levelo://app?vid=5fc5076e-d929-45df-990c-0ddf1b1510cc"},"vehicle_type_id":"4","last_reported":1736842346,"current_range_meters":26000,"station_id":"ce4bgkp2rcd13ifvqbmg","pricing_plan_id":"cebpf4jnsgd1na2vs0mg"},{"bike_id":"48868e6b-b462-44fb-add4-de9b053971d0","system_id":"levelo_inurba_marseille","lat":43.28491,"lon":5.38435,"is_reserved":false,"is_disabled":true,"rental_uris":{"android":"levelo://app?vid=48868e6b-b462-44fb-add4-de9b053971d0","ios":"levelo://app?vid=48868e6b-b462-44fb-add4-de9b053971d0"},"vehicle_type_id":"4","last_reported":1736842346,"current_range_meters":34800,"station_id":"ce4bh512rcd13ifvqe3g","pricing_plan_id":"cebpf4jnsgd1na2vs0mg"},{"bike_id":"98d8f861-c9dc-4d79-ad5c-eca49444ff7b","system_id":"levelo_inurba_marseille","lat":43.30096,"lon":5.39094,"is_reserved":false,"is_disabled":false,"rental_uris":{"android":"levelo://app?vid=98d8f861-c9dc-4d79-ad5c-eca49444ff7b","ios":"levelo://app?vid=98d8f861-c9dc-4d79-ad5c-eca49444ff7b"},"vehicle_type_id":"4","last_reported":1736842346,"current_range_meters":36800,"station_id":"ce4bh192rcd13ifvqdb0","pricing_plan_id":"cebpf4jnsgd1na2vs0mg"},{"bike_id":"3d2b5a8a-b7d5-4d2f-9946-f9fe728d22f1","system_id":"levelo_inurba_marseille","lat":43.30464,"lon":5.37881,"is_reserved":false,"is_disabled":false,"rental_uris":{"android":"levelo://app?vid=3d2b5a8a-b7d5-4d2f-9946-f9fe728d22f1","ios":"levelo://app?vid=3d2b5a8a-b7d5-4d2f-9946-f9fe728d22f1"},"vehicle_type_id":"4","last_reported":1736842346,"current_range_meters":32400,"station_id":"ce4bgup2rcd13ifvqcn0","pricing_plan_id":"cebpf4jnsgd1na2vs0mg"},{"bike_id":"3953439b-f509-49e5-bb8d-9b9887e5086e","system_id":"levelo_inurba_marseille","lat":43.31064,"lon":5.38339,"is_reserved":false,"is_disabled":false,"rental_uris":{"android":"levelo://app?vid=3953439b-f509-49e5-bb8d-9b9887e5086e","ios":"levelo://app?vid=3953439b-f509-49e5-bb8d-9b9887e5086e"},"vehicle_type_id":"4","last_reported":1736842346,"current_range_meters":28800,"station_id":"ce4bgv92rcd13ifvqcr0","pricing_plan_id":"cebpf4jnsgd1na2vs0mg"},{"bike_id":"a9caf45c-9b62-4fad-bb25-cf9cfd1dff86","system_id":"levelo_inurba_marseille","lat":43.33734,"lon":5.39183,"is_reserved":false,"is_disabled":false,"rental_uris":{"android":"levelo://app?vid=a9caf45c-9b62-4fad-bb25-cf9cfd1dff86","ios":"levelo://app?vid=a9caf45c-9b62-4fad-bb25-cf9cfd1dff86"},"vehicle_type_id":"4","last_reported":1736842346,"current_range_meters":38000,"station_id":"ce4bhr92rcd13ifvqhsg","pricing_plan_id":"cebpf4jnsgd1na2vs0mg"},{"bike_id":"5e0b46d4-53a6-4a9b-81ed-42b3629948b7","system_id":"levelo_inurba_marseille","lat":43.321058,"lon":5.367764,"is_reserved":false,"is_disabled":false,"rental_uris":{"android":"levelo://app?vid=5e0b46d4-53a6-4a9b-81ed-42b3629948b7","ios":"levelo://app?vid=5e0b46d4-53a6-4a9b-81ed-42b3629948b7"},"vehicle_type_id":"4","last_reported":1736842346,"current_range_meters":38400,"station_id":"ce4bhrh2rcd13ifvqhug","pricing_plan_id":"cebpf4jnsgd1na2vs0mg"},{"bike_id":"ac511c71-61c9-4661-85d6-510ca657315b","system_id":"levelo_inurba_marseille","lat":43.26193,"lon":5.37445,"is_reserved":false,"is_disabled":false,"rental_uris":{"android":"levelo://app?vid=ac511c71-61c9-4661-85d6-510ca657315b","ios":"levelo://app?vid=ac511c71-61c9-4661-85d6-510ca657315b"},"vehicle_type_id":"4","last_reported":1736842346,"current_range_meters":11600,"station_id":"ce4bhgp2rcd13ifvqfc0","pricing_plan_id":"cebpf4jnsgd1na2vs0mg"},{"bike_id":"d7f851be-3276-40aa-8188-4dc6d2538f9f","system_id":"levelo_inurba_marseille","lat":43.26933,"lon":5.3866,"is_reserved":false,"is_disabled":false,"rental_uris":{"android":"levelo://app?vid=d7f851be-3276-40aa-8188-4dc6d2538f9f","ios":"levelo://app?vid=d7f851be-3276-40aa-8188-4dc6d2538f9f"},"vehicle_type_id":"4","last_reported":1736842346,"current_range_meters":9200,"station_id":"ce4bhh92rcd13ifvqfh0","pricing_plan_id":"cebpf4jnsgd1na2vs0mg"},{"bike_id":"e6063051-52de-4350-93ec-1bcbc969816b","system_id":"levelo_inurba_marseille","lat":43.29805,"lon":5.38106,"is_reserved":false,"is_disabled":true,"rental_uris":{"android":"levelo://app?vid=e6063051-52de-4350-93ec-1bcbc969816b","ios":"levelo://app?vid=e6063051-52de-4350-93ec-1bcbc969816b"},"vehicle_type_id":"4","last_reported":1736842346,"current_range_meters":38400,"station_id":"ce4bgip2rcd13ifvqbb0","pricing_plan_id":"cebpf4jnsgd1na2vs0mg"},{"bike_id":"5bb5758f-37be-496e-ac0a-3712e6b43125","system_id":"levelo_inurba_marseille","lat":43.26195,"lon":5.37923,"is_reserved":false,"is_disabled":false,"rental_uris":{"android":"levelo://app?vid=5bb5758f-37be-496e-ac0a-3712e6b43125","ios":"levelo://app?vid=5bb5758f-37be-496e-ac0a-3712e6b43125"},"vehicle_type_id":"4","last_reported":1736842346,"current_range_meters":38800,"station_id":"ce4bhjp2rcd13ifvqg90","pricing_plan_id":"cebpf4jnsgd1na2vs0mg"},{"bike_id":"fbdc1be9-0896-4827-9983-8a84e7013511","system_id":"levelo_inurba_marseille","lat":43.25196,"lon":5.39088,"is_reserved":false,"is_disabled":true,"rental_uris":{"android":"levelo://app?vid=fbdc1be9-0896-4827-9983-8a84e7013511","ios":"levelo://app?vid=fbdc1be9-0896-4827-9983-8a84e7013511"},"vehicle_type_id":"4","last_reported":1736842346,"current_range_meters":32400,"station_id":"","pricing_plan_id":"cebpf4jnsgd1na2vs0mg"},{"bike_id":"226fba15-616e-44d6-8a36-73834238165d","system_id":"levelo_inurba_marseille","lat":43.26932,"lon":5.38914,"is_reserved":false,"is_disabled":true,"rental_uris":{"android":"levelo://app?vid=226fba15-616e-44d6-8a36-73834238165d","ios":"levelo://app?vid=226fba15-616e-44d6-8a36-73834238165d"},"vehicle_type_id":"4","last_reported":1736842346,"current_range_meters":38800,"station_id":"ce4bhhh2rcd13ifvqfl0","pricing_plan_id":"cebpf4jnsgd1na2vs0mg"},{"bike_id":"afa956c1-a024-460a-8f3b-934d75beef2c","system_id":"levelo_inurba_marseille","lat":43.27973,"lon":5.38736,"is_reserved":false,"is_disabled":false,"rental_uris":{"android":"levelo://app?vid=afa956c1-a024-460a-8f3b-934d75beef2c","ios":"levelo://app?vid=afa956c1-a024-460a-8f3b-934d75beef2c"},"vehicle_type_id":"4","last_reported":1736842346,"current_range_meters":25600,"station_id":"ce4bhg12rcd13ifvqf80","pricing_plan_id":"cebpf4jnsgd1na2vs0mg"},{"bike_id":"962cc5cc-fec7-46f8-84df-102fbfaf51f6","system_id":"levelo_inurba_marseille","lat":43.25934,"lon":5.40935,"is_reserved":false,"is_disabled":false,"rental_uris":{"android":"levelo://app?vid=962cc5cc-fec7-46f8-84df-102fbfaf51f6","ios":"levelo://app?vid=962cc5cc-fec7-46f8-84df-102fbfaf51f6"},"vehicle_type_id":"4","last_reported":1736842346,"current_range_meters":38000,"station_id":"ce4bhm92rcd13ifvqglg","pricing_plan_id":"cebpf4jnsgd1na2vs0mg"},{"bike_id":"766fcbc5-2274-4a2f-90b2-b81c8e781bf8","system_id":"levelo_inurba_marseille","lat":43.29606,"lon":5.37723,"is_reserved":false,"is_disabled":false,"rental_uris":{"android":"levelo://app?vid=766fcbc5-2274-4a2f-90b2-b81c8e781bf8","ios":"levelo://app?vid=766fcbc5-2274-4a2f-90b2-b81c8e781bf8"},"vehicle_type_id":"4","last_reported":1736842346,"current_range_meters":37600,"station_id":"ce4bgi92rcd13ifvqb90","pricing_plan_id":"cebpf4jnsgd1na2vs0mg"},{"bike_id":"b130ce1b-0a59-478f-8453-c9f5cf6aa63a","system_id":"levelo_inurba_marseille","lat":43.26495,"lon":5.39533,"is_reserved":false,"is_disabled":false,"rental_uris":{"android":"levelo://app?vid=b130ce1b-0a59-478f-8453-c9f5cf6aa63a","ios":"levelo://app?vid=b130ce1b-0a59-478f-8453-c9f5cf6aa63a"},"vehicle_type_id":"4","last_reported":1736842346,"current_range_meters":17200,"station_id":"ce4bhi12rcd13ifvqfq0","pricing_plan_id":"cebpf4jnsgd1na2vs0mg"},{"bike_id":"50200358-a7c0-440c-84d7-23dc433dfbf0","system_id":"levelo_inurba_marseille","lat":43.25002,"lon":5.38938,"is_reserved":false,"is_disabled":false,"rental_uris":{"android":"levelo://app?vid=50200358-a7c0-440c-84d7-23dc433dfbf0","ios":"levelo://app?vid=50200358-a7c0-440c-84d7-23dc433dfbf0"},"vehicle_type_id":"4","last_reported":1736842346,"current_range_meters":35600,"station_id":"ce4bhgp2rcd13ifvqfd0","pricing_plan_id":"cebpf4jnsgd1na2vs0mg"},{"bike_id":"25201559-3be6-490e-b049-639df5366fcd","system_id":"levelo_inurba_marseille","lat":43.29978,"lon":5.38479,"is_reserved":false,"is_disabled":true,"rental_uris":{"android":"levelo://app?vid=25201559-3be6-490e-b049-639df5366fcd","ios":"levelo://app?vid=25201559-3be6-490e-b049-639df5366fcd"},"vehicle_type_id":"4","last_reported":1736842346,"current_range_meters":37600,"station_id":"ce4bgj92rcd13ifvqbd0","pricing_plan_id":"cebpf4jnsgd1na2vs0mg"},{"bike_id":"94440fca-9d66-4315-a057-b48311229f6d","system_id":"levelo_inurba_marseille","lat":43.3361,"lon":5.41012,"is_reserved":false,"is_disabled":true,"rental_uris":{"android":"levelo://app?vid=94440fca-9d66-4315-a057-b48311229f6d","ios":"levelo://app?vid=94440fca-9d66-4315-a057-b48311229f6d"},"vehicle_type_id":"4","last_reported":1736842346,"current_range_meters":35200,"station_id":"ce4bhqh2rcd13ifvqhmg","pricing_plan_id":"cebpf4jnsgd1na2vs0mg"},{"bike_id":"cce9877c-165d-4a0d-a28f-bcd521cb7ac9","system_id":"levelo_inurba_marseille","lat":43.29304,"lon":5.37168,"is_reserved":false,"is_disabled":false,"rental_uris":{"android":"levelo://app?vid=cce9877c-165d-4a0d-a28f-bcd521cb7ac9","ios":"levelo://app?vid=cce9877c-165d-4a0d-a28f-bcd521cb7ac9"},"vehicle_type_id":"4","last_reported":1736842346,"current_range_meters":16000,"station_id":"ce4bgh92rcd13ifvqb40","pricing_plan_id":"cebpf4jnsgd1na2vs0mg"},{"bike_id":"bdab11e4-0b4c-4df8-8ae1-6fa926fce99e","system_id":"levelo_inurba_marseille","lat":43.27955,"lon":5.41024,"is_reserved":false,"is_disabled":true,"rental_uris":{"android":"levelo://app?vid=bdab11e4-0b4c-4df8-8ae1-6fa926fce99e","ios":"levelo://app?vid=bdab11e4-0b4c-4df8-8ae1-6fa926fce99e"},"vehicle_type_id":"4","last_reported":1736842346,"current_range_meters":0,"station_id":"ce4bhnp2rcd13ifvqh0g","pricing_plan_id":"cebpf4jnsgd1na2vs0mg"},{"bike_id":"eee11371-2924-4946-b434-8143dbaa4fd3","system_id":"levelo_inurba_marseille","lat":43.30533,"lon":5.36569,"is_reserved":false,"is_disabled":false,"rental_uris":{"android":"levelo://app?vid=eee11371-2924-4946-b434-8143dbaa4fd3","ios":"levelo://app?vid=eee11371-2924-4946-b434-8143dbaa4fd3"},"vehicle_type_id":"4","last_reported":1736842346,"current_range_meters":20400,"station_id":"ce4bgs12rcd13ifvqcag","pricing_plan_id":"cebpf4jnsgd1na2vs0mg"},{"bike_id":"94d00723-79f7-443c-bc62-0c89ddbb1d1c","system_id":"levelo_inurba_marseille","lat":43.2816,"lon":5.42643,"is_reserved":false,"is_disabled":true,"rental_uris":{"android":"levelo://app?vid=94d00723-79f7-443c-bc62-0c89ddbb1d1c","ios":"levelo://app?vid=94d00723-79f7-443c-bc62-0c89ddbb1d1c"},"vehicle_type_id":"4","last_reported":1736842346,"current_range_meters":16800,"station_id":"ce4bhnh2rcd13ifvqgug","pricing_plan_id":"cebpf4jnsgd1na2vs0mg"},{"bike_id":"106cf5c9-2577-4942-a4b0-5d37c81228cb","system_id":"levelo_inurba_marseille","lat":43.30207,"lon":5.39465,"is_reserved":false,"is_disabled":false,"rental_uris":{"android":"levelo://app?vid=106cf5c9-2577-4942-a4b0-5d37c81228cb","ios":"levelo://app?vid=106cf5c9-2577-4942-a4b0-5d37c81228cb"},"vehicle_type_id":"4","last_reported":1736842346,"current_range_meters":36400,"station_id":"ce4bh0p2rcd13ifvqd70","pricing_plan_id":"cebpf4jnsgd1na2vs0mg"},{"bike_id":"e35d110b-0ca6-4c99-b711-04ba364d3860","system_id":"levelo_inurba_marseille","lat":43.23198,"lon":5.355573,"is_reserved":false,"is_disabled":false,"rental_uris":{"android":"levelo://app?vid=e35d110b-0ca6-4c99-b711-04ba364d3860","ios":"levelo://app?vid=e35d110b-0ca6-4c99-b711-04ba364d3860"},"vehicle_type_id":"4","last_reported":1736842346,"current_range_meters":35600,"station_id":"ce4bhu92rcd13ifvqi70","pricing_plan_id":"cebpf4jnsgd1na2vs0mg"},{"bike_id":"15e73dd5-b3d5-4879-81a8-72e783e5d381","system_id":"levelo_inurba_marseille","lat":43.26569,"lon":5.39007,"is_reserved":false,"is_disabled":false,"rental_uris":{"android":"levelo://app?vid=15e73dd5-b3d5-4879-81a8-72e783e5d381","ios":"levelo://app?vid=15e73dd5-b3d5-4879-81a8-72e783e5d381"},"vehicle_type_id":"4","last_reported":1736842346,"current_range_meters":22000,"station_id":"ce4bhe12rcd13ifvqf30","pricing_plan_id":"cebpf4jnsgd1na2vs0mg"},{"bike_id":"76c2d752-0e42-4788-88b6-cb72a4111614","system_id":"levelo_inurba_marseille","lat":43.30974,"lon":5.39053,"is_reserved":false,"is_disabled":false,"rental_uris":{"android":"levelo://app?vid=76c2d752-0e42-4788-88b6-cb72a4111614","ios":"levelo://app?vid=76c2d752-0e42-4788-88b6-cb72a4111614"},"vehicle_type_id":"4","last_reported":1736842346,"current_range_meters":37600,"station_id":"ce4bgup2rcd13ifvqco0","pricing_plan_id":"cebpf4jnsgd1na2vs0mg"},{"bike_id":"7ced0135-1286-4817-bef0-3fa55de62cf3","system_id":"levelo_inurba_marseille","lat":43.29576,"lon":5.37527,"is_reserved":false,"is_disabled":false,"rental_uris":{"android":"levelo://app?vid=7ced0135-1286-4817-bef0-3fa55de62cf3","ios":"levelo://app?vid=7ced0135-1286-4817-bef0-3fa55de62cf3"},"vehicle_type_id":"4","last_reported":1736842346,"current_range_meters":25200,"station_id":"ce4bgh92rcd13ifvqb50","pricing_plan_id":"cebpf4jnsgd1na2vs0mg"},{"bike_id":"edaae5f4-f840-439b-8d8a-04561c36b49c","system_id":"levelo_inurba_marseille","lat":43.29296,"lon":5.37466,"is_reserved":false,"is_disabled":true,"rental_uris":{"android":"levelo://app?vid=edaae5f4-f840-439b-8d8a-04561c36b49c","ios":"levelo://app?vid=edaae5f4-f840-439b-8d8a-04561c36b49c"},"vehicle_type_id":"4","last_reported":1736842346,"current_range_meters":2000,"station_id":"ce4bgi12rcd13ifvqb70","pricing_plan_id":"cebpf4jnsgd1na2vs0mg"},{"bike_id":"a402044d-1041-4786-a63f-9d18af3bc82f","system_id":"levelo_inurba_marseille","lat":43.24168,"lon":5.36391,"is_reserved":false,"is_disabled":true,"rental_uris":{"android":"levelo://app?vid=a402044d-1041-4786-a63f-9d18af3bc82f","ios":"levelo://app?vid=a402044d-1041-4786-a63f-9d18af3bc82f"},"vehicle_type_id":"4","last_reported":1736842346,"current_range_meters":8800,"station_id":"cpo36qri1sfpv3e86is0","pricing_plan_id":"cebpf4jnsgd1na2vs0mg"},{"bike_id":"04242d7d-6524-4840-9376-c0bce1fa64bb","system_id":"levelo_inurba_marseille","lat":43.25483,"lon":5.37659,"is_reserved":false,"is_disabled":false,"rental_uris":{"android":"levelo://app?vid=04242d7d-6524-4840-9376-c0bce1fa64bb","ios":"levelo://app?vid=04242d7d-6524-4840-9376-c0bce1fa64bb"},"vehicle_type_id":"4","last_reported":1736842346,"current_range_meters":12400,"station_id":"ce4bhh12rcd13ifvqff0","pricing_plan_id":"cebpf4jnsgd1na2vs0mg"},{"bike_id":"87ecfd66-ef43-4d79-bb7a-de8e0aaaaf45","system_id":"levelo_inurba_marseille","lat":43.26938,"lon":5.38643,"is_reserved":false,"is_disabled":true,"rental_uris":{"android":"levelo://app?vid=87ecfd66-ef43-4d79-bb7a-de8e0aaaaf45","ios":"levelo://app?vid=87ecfd66-ef43-4d79-bb7a-de8e0aaaaf45"},"vehicle_type_id":"4","last_reported":1736842346,"current_range_meters":38400,"station_id":"ce4bhh92rcd13ifvqfh0","pricing_plan_id":"cebpf4jnsgd1na2vs0mg"},{"bike_id":"0be51738-d57f-4e23-877e-205a9a4ca8c1","system_id":"levelo_inurba_marseille","lat":43.26954,"lon":5.38635,"is_reserved":false,"is_disabled":false,"rental_uris":{"android":"levelo://app?vid=0be51738-d57f-4e23-877e-205a9a4ca8c1","ios":"levelo://app?vid=0be51738-d57f-4e23-877e-205a9a4ca8c1"},"vehicle_type_id":"4","last_reported":1736842346,"current_range_meters":12800,"station_id":"ce4bhh92rcd13ifvqfh0","pricing_plan_id":"cebpf4jnsgd1na2vs0mg"},{"bike_id":"7855b5cd-fbd6-4d6d-8731-19c257408fa0","system_id":"levelo_inurba_marseille","lat":43.24182,"lon":5.3973,"is_reserved":false,"is_disabled":false,"rental_uris":{"android":"levelo://app?vid=7855b5cd-fbd6-4d6d-8731-19c257408fa0","ios":"levelo://app?vid=7855b5cd-fbd6-4d6d-8731-19c257408fa0"},"vehicle_type_id":"4","last_reported":1736842346,"current_range_meters":27600,"station_id":"ce4bhn12rcd13ifvqgpg","pricing_plan_id":"cebpf4jnsgd1na2vs0mg"},{"bike_id":"400587df-40e5-4341-9d83-632d1ca1cf41","system_id":"levelo_inurba_marseille","lat":43.31346,"lon":5.36715,"is_reserved":false,"is_disabled":false,"rental_uris":{"android":"levelo://app?vid=400587df-40e5-4341-9d83-632d1ca1cf41","ios":"levelo://app?vid=400587df-40e5-4341-9d83-632d1ca1cf41"},"vehicle_type_id":"4","last_reported":1736842346,"current_range_meters":27600,"station_id":"ce4bgr92rcd13ifvqc6g","pricing_plan_id":"cebpf4jnsgd1na2vs0mg"},{"bike_id":"c8e997c0-8580-4d0f-8d9f-0766596381e1","system_id":"levelo_inurba_marseille","lat":43.33997,"lon":5.37537,"is_reserved":false,"is_disabled":true,"rental_uris":{"android":"levelo://app?vid=c8e997c0-8580-4d0f-8d9f-0766596381e1","ios":"levelo://app?vid=c8e997c0-8580-4d0f-8d9f-0766596381e1"},"vehicle_type_id":"4","last_reported":1736842346,"current_range_meters":0,"station_id":"","pricing_plan_id":"cebpf4jnsgd1na2vs0mg"},{"bike_id":"b3f2c5a8-957b-4f42-84ac-8f18f141282e","system_id":"levelo_inurba_marseille","lat":43.30907,"lon":5.36837,"is_reserved":false,"is_disabled":false,"rental_uris":{"android":"levelo://app?vid=b3f2c5a8-957b-4f42-84ac-8f18f141282e","ios":"levelo://app?vid=b3f2c5a8-957b-4f42-84ac-8f18f141282e"},"vehicle_type_id":"4","last_reported":1736842346,"current_range_meters":30000,"station_id":"ce4bgn92rcd13ifvqbvg","pricing_plan_id":"cebpf4jnsgd1na2vs0mg"},{"bike_id":"5e16ec8e-2e42-41a5-98c3-d7ec14fc7cea","system_id":"levelo_inurba_marseille","lat":43.23141,"lon":5.43713,"is_reserved":false,"is_disabled":false,"rental_uris":{"android":"levelo://app?vid=5e16ec8e-2e42-41a5-98c3-d7ec14fc7cea","ios":"levelo://app?vid=5e16ec8e-2e42-41a5-98c3-d7ec14fc7cea"},"vehicle_type_id":"4","last_reported":1736842346,"current_range_meters":9200,"station_id":"ce4bhmp2rcd13ifvqgog","pricing_plan_id":"cebpf4jnsgd1na2vs0mg"},{"bike_id":"ba5df164-d25c-4a1c-8679-1bd1a1db0642","system_id":"levelo_inurba_marseille","lat":43.33715,"lon":5.39196,"is_reserved":false,"is_disabled":false,"rental_uris":{"android":"levelo://app?vid=ba5df164-d25c-4a1c-8679-1bd1a1db0642","ios":"levelo://app?vid=ba5df164-d25c-4a1c-8679-1bd1a1db0642"},"vehicle_type_id":"4","last_reported":1736842346,"current_range_meters":36800,"station_id":"ce4bhr92rcd13ifvqhsg","pricing_plan_id":"cebpf4jnsgd1na2vs0mg"},{"bike_id":"ee3a8e62-9612-4383-a90d-e2bce1f472cd","system_id":"levelo_inurba_marseille","lat":43.27493,"lon":5.42463,"is_reserved":false,"is_disabled":true,"rental_uris":{"android":"levelo://app?vid=ee3a8e62-9612-4383-a90d-e2bce1f472cd","ios":"levelo://app?vid=ee3a8e62-9612-4383-a90d-e2bce1f472cd"},"vehicle_type_id":"4","last_reported":1736842346,"current_range_meters":19200,"station_id":"ce4bhn92rcd13ifvqgrg","pricing_plan_id":"cebpf4jnsgd1na2vs0mg"},{"bike_id":"67317968-c309-4feb-bf23-6e6015093d36","system_id":"levelo_inurba_marseille","lat":43.26953,"lon":5.38631,"is_reserved":false,"is_disabled":false,"rental_uris":{"android":"levelo://app?vid=67317968-c309-4feb-bf23-6e6015093d36","ios":"levelo://app?vid=67317968-c309-4feb-bf23-6e6015093d36"},"vehicle_type_id":"4","last_reported":1736842346,"current_range_meters":9600,"station_id":"ce4bhh92rcd13ifvqfh0","pricing_plan_id":"cebpf4jnsgd1na2vs0mg"},{"bike_id":"ddb41cf1-08d5-4912-801d-fd0c3b376b8a","system_id":"levelo_inurba_marseille","lat":43.29973,"lon":5.3719,"is_reserved":false,"is_disabled":true,"rental_uris":{"android":"levelo://app?vid=ddb41cf1-08d5-4912-801d-fd0c3b376b8a","ios":"levelo://app?vid=ddb41cf1-08d5-4912-801d-fd0c3b376b8a"},"vehicle_type_id":"4","last_reported":1736842346,"current_range_meters":400,"station_id":"ce4bgr92rcd13ifvqc7g","pricing_plan_id":"cebpf4jnsgd1na2vs0mg"},{"bike_id":"1e72500a-a638-4270-b0f0-d3bef5f78eaa","system_id":"levelo_inurba_marseille","lat":43.2315,"lon":5.43713,"is_reserved":false,"is_disabled":false,"rental_uris":{"android":"levelo://app?vid=1e72500a-a638-4270-b0f0-d3bef5f78eaa","ios":"levelo://app?vid=1e72500a-a638-4270-b0f0-d3bef5f78eaa"},"vehicle_type_id":"4","last_reported":1736842346,"current_range_meters":28800,"station_id":"ce4bhmp2rcd13ifvqgog","pricing_plan_id":"cebpf4jnsgd1na2vs0mg"},{"bike_id":"9ff45d91-29d6-4e2b-a952-c5923c490e28","system_id":"levelo_inurba_marseille","lat":43.260279,"lon":5.375521,"is_reserved":false,"is_disabled":false,"rental_uris":{"android":"levelo://app?vid=9ff45d91-29d6-4e2b-a952-c5923c490e28","ios":"levelo://app?vid=9ff45d91-29d6-4e2b-a952-c5923c490e28"},"vehicle_type_id":"4","last_reported":1736842346,"current_range_meters":38000,"station_id":"ce4bhgh2rcd13ifvqfa0","pricing_plan_id":"cebpf4jnsgd1na2vs0mg"},{"bike_id":"d85a1d9b-f035-4b2a-858c-2526acab5ed6","system_id":"levelo_inurba_marseille","lat":43.30163,"lon":5.37421,"is_reserved":false,"is_disabled":true,"rental_uris":{"android":"levelo://app?vid=d85a1d9b-f035-4b2a-858c-2526acab5ed6","ios":"levelo://app?vid=d85a1d9b-f035-4b2a-858c-2526acab5ed6"},"vehicle_type_id":"4","last_reported":1736842346,"current_range_meters":35600,"station_id":"ce4bgs92rcd13ifvqcc0","pricing_plan_id":"cebpf4jnsgd1na2vs0mg"},{"bike_id":"c0b74adc-1200-45f2-b990-75a202f7838e","system_id":"levelo_inurba_marseille","lat":43.30285,"lon":5.37713,"is_reserved":false,"is_disabled":false,"rental_uris":{"android":"levelo://app?vid=c0b74adc-1200-45f2-b990-75a202f7838e","ios":"levelo://app?vid=c0b74adc-1200-45f2-b990-75a202f7838e"},"vehicle_type_id":"4","last_reported":1736842346,"current_range_meters":15200,"station_id":"ce4bguh2rcd13ifvqcj0","pricing_plan_id":"cebpf4jnsgd1na2vs0mg"},{"bike_id":"5901f4de-f320-42a7-a3ee-cdd54016ad77","system_id":"levelo_inurba_marseille","lat":43.27964,"lon":5.38748,"is_reserved":false,"is_disabled":true,"rental_uris":{"android":"levelo://app?vid=5901f4de-f320-42a7-a3ee-cdd54016ad77","ios":"levelo://app?vid=5901f4de-f320-42a7-a3ee-cdd54016ad77"},"vehicle_type_id":"4","last_reported":1736842346,"current_range_meters":38800,"station_id":"ce4bhg12rcd13ifvqf80","pricing_plan_id":"cebpf4jnsgd1na2vs0mg"},{"bike_id":"4d8f2bd3-28e6-4a6b-bf9a-7e46e3c91edf","system_id":"levelo_inurba_marseille","lat":43.30128,"lon":5.37443,"is_reserved":false,"is_disabled":false,"rental_uris":{"android":"levelo://app?vid=4d8f2bd3-28e6-4a6b-bf9a-7e46e3c91edf","ios":"levelo://app?vid=4d8f2bd3-28e6-4a6b-bf9a-7e46e3c91edf"},"vehicle_type_id":"4","last_reported":1736842346,"current_range_meters":38800,"station_id":"ce4bgs92rcd13ifvqcc0","pricing_plan_id":"cebpf4jnsgd1na2vs0mg"},{"bike_id":"42cfeef1-ded8-43ac-8888-284da4376b57","system_id":"levelo_inurba_marseille","lat":43.32483,"lon":5.365687,"is_reserved":false,"is_disabled":false,"rental_uris":{"android":"levelo://app?vid=42cfeef1-ded8-43ac-8888-284da4376b57","ios":"levelo://app?vid=42cfeef1-ded8-43ac-8888-284da4376b57"},"vehicle_type_id":"4","last_reported":1736842346,"current_range_meters":28800,"station_id":"ce4bhs12rcd13ifvqhvg","pricing_plan_id":"cebpf4jnsgd1na2vs0mg"},{"bike_id":"c914e9c6-6e6b-4dbd-afce-1f90576b3e13","system_id":"levelo_inurba_marseille","lat":43.31696,"lon":5.40482,"is_reserved":false,"is_disabled":false,"rental_uris":{"android":"levelo://app?vid=c914e9c6-6e6b-4dbd-afce-1f90576b3e13","ios":"levelo://app?vid=c914e9c6-6e6b-4dbd-afce-1f90576b3e13"},"vehicle_type_id":"4","last_reported":1736842346,"current_range_meters":8400,"station_id":"ce4bh012rcd13ifvqd00","pricing_plan_id":"cebpf4jnsgd1na2vs0mg"},{"bike_id":"6ba8d844-4be9-4966-b91c-0b5bcfe6a94b","system_id":"levelo_inurba_marseille","lat":43.29167,"lon":5.37145,"is_reserved":false,"is_disabled":true,"rental_uris":{"android":"levelo://app?vid=6ba8d844-4be9-4966-b91c-0b5bcfe6a94b","ios":"levelo://app?vid=6ba8d844-4be9-4966-b91c-0b5bcfe6a94b"},"vehicle_type_id":"4","last_reported":1736842346,"current_range_meters":38000,"station_id":"ce4bha92rcd13ifvqeh0","pricing_plan_id":"cebpf4jnsgd1na2vs0mg"},{"bike_id":"650ff21f-46ce-4467-a01d-dc0d9ee78835","system_id":"levelo_inurba_marseille","lat":43.31598,"lon":5.37823,"is_reserved":false,"is_disabled":true,"rental_uris":{"android":"levelo://app?vid=650ff21f-46ce-4467-a01d-dc0d9ee78835","ios":"levelo://app?vid=650ff21f-46ce-4467-a01d-dc0d9ee78835"},"vehicle_type_id":"4","last_reported":1736842346,"current_range_meters":36800,"station_id":"ce4bgth2rcd13ifvqch0","pricing_plan_id":"cebpf4jnsgd1na2vs0mg"},{"bike_id":"59d914a9-7941-4d0c-ad3f-66ae0befc663","system_id":"levelo_inurba_marseille","lat":43.28025,"lon":5.36965,"is_reserved":false,"is_disabled":false,"rental_uris":{"android":"levelo://app?vid=59d914a9-7941-4d0c-ad3f-66ae0befc663","ios":"levelo://app?vid=59d914a9-7941-4d0c-ad3f-66ae0befc663"},"vehicle_type_id":"4","last_reported":1736842346,"current_range_meters":8400,"station_id":"ce4bha12rcd13ifvqef0","pricing_plan_id":"cebpf4jnsgd1na2vs0mg"},{"bike_id":"ecba5606-36d5-434b-865e-a098b66a9460","system_id":"levelo_inurba_marseille","lat":43.27044,"lon":5.4026,"is_reserved":false,"is_disabled":false,"rental_uris":{"android":"levelo://app?vid=ecba5606-36d5-434b-865e-a098b66a9460","ios":"levelo://app?vid=ecba5606-36d5-434b-865e-a098b66a9460"},"vehicle_type_id":"4","last_reported":1736842346,"current_range_meters":38800,"station_id":"ce4bhk92rcd13ifvqgc0","pricing_plan_id":"cebpf4jnsgd1na2vs0mg"},{"bike_id":"426ee80e-06b0-4d0f-86a5-ea8ad64aaa11","system_id":"levelo_inurba_marseille","lat":43.28915,"lon":5.43767,"is_reserved":false,"is_disabled":false,"rental_uris":{"android":"levelo://app?vid=426ee80e-06b0-4d0f-86a5-ea8ad64aaa11","ios":"levelo://app?vid=426ee80e-06b0-4d0f-86a5-ea8ad64aaa11"},"vehicle_type_id":"4","last_reported":1736842346,"current_range_meters":6400,"station_id":"","pricing_plan_id":"cebpf4jnsgd1na2vs0mg"},{"bike_id":"0e149c29-3117-4028-b082-f697f135dae1","system_id":"levelo_inurba_marseille","lat":43.33611,"lon":5.41035,"is_reserved":false,"is_disabled":false,"rental_uris":{"android":"levelo://app?vid=0e149c29-3117-4028-b082-f697f135dae1","ios":"levelo://app?vid=0e149c29-3117-4028-b082-f697f135dae1"},"vehicle_type_id":"4","last_reported":1736842346,"current_range_meters":18000,"station_id":"ce4bhqh2rcd13ifvqhmg","pricing_plan_id":"cebpf4jnsgd1na2vs0mg"},{"bike_id":"c5c04f6c-9c6c-4ae6-88fd-993dfe6f1d69","system_id":"levelo_inurba_marseille","lat":43.26952,"lon":5.38635,"is_reserved":false,"is_disabled":false,"rental_uris":{"android":"levelo://app?vid=c5c04f6c-9c6c-4ae6-88fd-993dfe6f1d69","ios":"levelo://app?vid=c5c04f6c-9c6c-4ae6-88fd-993dfe6f1d69"},"vehicle_type_id":"4","last_reported":1736842346,"current_range_meters":12000,"station_id":"ce4bhh92rcd13ifvqfh0","pricing_plan_id":"cebpf4jnsgd1na2vs0mg"},{"bike_id":"b28c733a-9074-4465-b8f3-397a69876096","system_id":"levelo_inurba_marseille","lat":43.336,"lon":5.41009,"is_reserved":false,"is_disabled":true,"rental_uris":{"android":"levelo://app?vid=b28c733a-9074-4465-b8f3-397a69876096","ios":"levelo://app?vid=b28c733a-9074-4465-b8f3-397a69876096"},"vehicle_type_id":"4","last_reported":1736842346,"current_range_meters":16000,"station_id":"ce4bhqh2rcd13ifvqhmg","pricing_plan_id":"cebpf4jnsgd1na2vs0mg"},{"bike_id":"969e27ab-5a9e-459e-9526-3b57e6f57682","system_id":"levelo_inurba_marseille","lat":43.22926,"lon":5.35375,"is_reserved":false,"is_disabled":false,"rental_uris":{"android":"levelo://app?vid=969e27ab-5a9e-459e-9526-3b57e6f57682","ios":"levelo://app?vid=969e27ab-5a9e-459e-9526-3b57e6f57682"},"vehicle_type_id":"4","last_reported":1736842346,"current_range_meters":38800,"station_id":"cpo3532slgdg3j2ikp40","pricing_plan_id":"cebpf4jnsgd1na2vs0mg"},{"bike_id":"1a0edb26-6918-425b-8387-f290be87a2c0","system_id":"levelo_inurba_marseille","lat":43.33104,"lon":5.38229,"is_reserved":false,"is_disabled":false,"rental_uris":{"android":"levelo://app?vid=1a0edb26-6918-425b-8387-f290be87a2c0","ios":"levelo://app?vid=1a0edb26-6918-425b-8387-f290be87a2c0"},"vehicle_type_id":"4","last_reported":1736842346,"current_range_meters":36400,"station_id":"","pricing_plan_id":"cebpf4jnsgd1na2vs0mg"},{"bike_id":"7b0c98a6-72bb-4757-be5b-3b59397ff6ba","system_id":"levelo_inurba_marseille","lat":43.29034,"lon":5.37574,"is_reserved":false,"is_disabled":false,"rental_uris":{"android":"levelo://app?vid=7b0c98a6-72bb-4757-be5b-3b59397ff6ba","ios":"levelo://app?vid=7b0c98a6-72bb-4757-be5b-3b59397ff6ba"},"vehicle_type_id":"4","last_reported":1736842346,"current_range_meters":30800,"station_id":"ce4bh692rcd13ifvqe90","pricing_plan_id":"cebpf4jnsgd1na2vs0mg"},{"bike_id":"13fe195f-e01b-4420-aa12-4802e9b2b635","system_id":"levelo_inurba_marseille","lat":43.31336,"lon":5.36802,"is_reserved":false,"is_disabled":false,"rental_uris":{"android":"levelo://app?vid=13fe195f-e01b-4420-aa12-4802e9b2b635","ios":"levelo://app?vid=13fe195f-e01b-4420-aa12-4802e9b2b635"},"vehicle_type_id":"4","last_reported":1736842346,"current_range_meters":38400,"station_id":"ce4bgr92rcd13ifvqc6g","pricing_plan_id":"cebpf4jnsgd1na2vs0mg"},{"bike_id":"ab10846d-13f2-4f21-8075-25b6583e29b0","system_id":"levelo_inurba_marseille","lat":43.25929,"lon":5.40913,"is_reserved":false,"is_disabled":true,"rental_uris":{"android":"levelo://app?vid=ab10846d-13f2-4f21-8075-25b6583e29b0","ios":"levelo://app?vid=ab10846d-13f2-4f21-8075-25b6583e29b0"},"vehicle_type_id":"4","last_reported":1736842346,"current_range_meters":19200,"station_id":"ce4bhm92rcd13ifvqglg","pricing_plan_id":"cebpf4jnsgd1na2vs0mg"},{"bike_id":"d31ee1ee-c230-4e1e-91e4-50de4be7609e","system_id":"levelo_inurba_marseille","lat":43.32365,"lon":5.38874,"is_reserved":false,"is_disabled":true,"rental_uris":{"android":"levelo://app?vid=d31ee1ee-c230-4e1e-91e4-50de4be7609e","ios":"levelo://app?vid=d31ee1ee-c230-4e1e-91e4-50de4be7609e"},"vehicle_type_id":"4","last_reported":1736842346,"current_range_meters":8400,"station_id":"ce4bhqp2rcd13ifvqhog","pricing_plan_id":"cebpf4jnsgd1na2vs0mg"},{"bike_id":"f4dbc556-58b0-4dfd-be99-18a51c032520","system_id":"levelo_inurba_marseille","lat":43.24159,"lon":5.39718,"is_reserved":false,"is_disabled":false,"rental_uris":{"android":"levelo://app?vid=f4dbc556-58b0-4dfd-be99-18a51c032520","ios":"levelo://app?vid=f4dbc556-58b0-4dfd-be99-18a51c032520"},"vehicle_type_id":"4","last_reported":1736842346,"current_range_meters":28000,"station_id":"ce4bhn12rcd13ifvqgpg","pricing_plan_id":"cebpf4jnsgd1na2vs0mg"},{"bike_id":"57bb7513-7675-4671-be03-1846f0e57be8","system_id":"levelo_inurba_marseille","lat":43.30476,"lon":5.37918,"is_reserved":false,"is_disabled":false,"rental_uris":{"android":"levelo://app?vid=57bb7513-7675-4671-be03-1846f0e57be8","ios":"levelo://app?vid=57bb7513-7675-4671-be03-1846f0e57be8"},"vehicle_type_id":"4","last_reported":1736842346,"current_range_meters":27600,"station_id":"ce4bgup2rcd13ifvqcn0","pricing_plan_id":"cebpf4jnsgd1na2vs0mg"},{"bike_id":"2c706f5e-b3a2-4f62-b5b0-817900f3e0ad","system_id":"levelo_inurba_marseille","lat":43.30539,"lon":5.36705,"is_reserved":false,"is_disabled":false,"rental_uris":{"android":"levelo://app?vid=2c706f5e-b3a2-4f62-b5b0-817900f3e0ad","ios":"levelo://app?vid=2c706f5e-b3a2-4f62-b5b0-817900f3e0ad"},"vehicle_type_id":"4","last_reported":1736842346,"current_range_meters":38400,"station_id":"ce4bgrp2rcd13ifvqc9g","pricing_plan_id":"cebpf4jnsgd1na2vs0mg"},{"bike_id":"d868d77f-7805-419a-a8ab-84b74acf4c18","system_id":"levelo_inurba_marseille","lat":43.3039,"lon":5.36521,"is_reserved":false,"is_disabled":false,"rental_uris":{"android":"levelo://app?vid=d868d77f-7805-419a-a8ab-84b74acf4c18","ios":"levelo://app?vid=d868d77f-7805-419a-a8ab-84b74acf4c18"},"vehicle_type_id":"4","last_reported":1736842346,"current_range_meters":33200,"station_id":"ce4bgs12rcd13ifvqcag","pricing_plan_id":"cebpf4jnsgd1na2vs0mg"},{"bike_id":"a9d6e941-c378-47e2-8f05-e8f71bdb383e","system_id":"levelo_inurba_marseille","lat":43.2679,"lon":5.39413,"is_reserved":false,"is_disabled":false,"rental_uris":{"android":"levelo://app?vid=a9d6e941-c378-47e2-8f05-e8f71bdb383e","ios":"levelo://app?vid=a9d6e941-c378-47e2-8f05-e8f71bdb383e"},"vehicle_type_id":"4","last_reported":1736842346,"current_range_meters":27600,"station_id":"ce4bhh12rcd13ifvqfg0","pricing_plan_id":"cebpf4jnsgd1na2vs0mg"},{"bike_id":"6a965f90-9889-4bbe-b9c1-05721bef4edf","system_id":"levelo_inurba_marseille","lat":43.29713,"lon":5.37705,"is_reserved":false,"is_disabled":false,"rental_uris":{"android":"levelo://app?vid=6a965f90-9889-4bbe-b9c1-05721bef4edf","ios":"levelo://app?vid=6a965f90-9889-4bbe-b9c1-05721bef4edf"},"vehicle_type_id":"4","last_reported":1736842346,"current_range_meters":18000,"station_id":"ce4bgkh2rcd13ifvqbl0","pricing_plan_id":"cebpf4jnsgd1na2vs0mg"},{"bike_id":"ade1ffd7-379f-44ee-93e1-8c261178e187","system_id":"levelo_inurba_marseille","lat":43.24795,"lon":5.37458,"is_reserved":false,"is_disabled":false,"rental_uris":{"android":"levelo://app?vid=ade1ffd7-379f-44ee-93e1-8c261178e187","ios":"levelo://app?vid=ade1ffd7-379f-44ee-93e1-8c261178e187"},"vehicle_type_id":"4","last_reported":1736842346,"current_range_meters":21600,"station_id":"ce4bhgh2rcd13ifvqfb0","pricing_plan_id":"cebpf4jnsgd1na2vs0mg"},{"bike_id":"2a2b7f5d-1ba7-4717-b89c-c54ba9c57f17","system_id":"levelo_inurba_marseille","lat":43.26954,"lon":5.38634,"is_reserved":false,"is_disabled":false,"rental_uris":{"android":"levelo://app?vid=2a2b7f5d-1ba7-4717-b89c-c54ba9c57f17","ios":"levelo://app?vid=2a2b7f5d-1ba7-4717-b89c-c54ba9c57f17"},"vehicle_type_id":"4","last_reported":1736842346,"current_range_meters":17200,"station_id":"ce4bhh92rcd13ifvqfh0","pricing_plan_id":"cebpf4jnsgd1na2vs0mg"},{"bike_id":"9f90ab46-c373-4698-9418-c8ef5e2133b0","system_id":"levelo_inurba_marseille","lat":43.231989,"lon":5.355532,"is_reserved":false,"is_disabled":false,"rental_uris":{"android":"levelo://app?vid=9f90ab46-c373-4698-9418-c8ef5e2133b0","ios":"levelo://app?vid=9f90ab46-c373-4698-9418-c8ef5e2133b0"},"vehicle_type_id":"4","last_reported":1736842346,"current_range_meters":18000,"station_id":"ce4bhu92rcd13ifvqi70","pricing_plan_id":"cebpf4jnsgd1na2vs0mg"},{"bike_id":"7a869afa-fc4c-4b30-aea6-e0d8b156eb83","system_id":"levelo_inurba_marseille","lat":43.246577,"lon":5.381807,"is_reserved":false,"is_disabled":true,"rental_uris":{"android":"levelo://app?vid=7a869afa-fc4c-4b30-aea6-e0d8b156eb83","ios":"levelo://app?vid=7a869afa-fc4c-4b30-aea6-e0d8b156eb83"},"vehicle_type_id":"4","last_reported":1736842346,"current_range_meters":28400,"station_id":"ce4bhih2rcd13ifvqfr0","pricing_plan_id":"cebpf4jnsgd1na2vs0mg"},{"bike_id":"755e5c0a-8de7-4ee5-9d4e-5ec609711170","system_id":"levelo_inurba_marseille","lat":43.2959,"lon":5.38089,"is_reserved":false,"is_disabled":true,"rental_uris":{"android":"levelo://app?vid=755e5c0a-8de7-4ee5-9d4e-5ec609711170","ios":"levelo://app?vid=755e5c0a-8de7-4ee5-9d4e-5ec609711170"},"vehicle_type_id":"4","last_reported":1736842346,"current_range_meters":31200,"station_id":"ce4bgl12rcd13ifvqbo0","pricing_plan_id":"cebpf4jnsgd1na2vs0mg"},{"bike_id":"89096f8f-b31f-4f84-85ad-b01b669e00f2","system_id":"levelo_inurba_marseille","lat":43.29783,"lon":5.37617,"is_reserved":false,"is_disabled":false,"rental_uris":{"android":"levelo://app?vid=89096f8f-b31f-4f84-85ad-b01b669e00f2","ios":"levelo://app?vid=89096f8f-b31f-4f84-85ad-b01b669e00f2"},"vehicle_type_id":"4","last_reported":1736842346,"current_range_meters":25600,"station_id":"","pricing_plan_id":"cebpf4jnsgd1na2vs0mg"},{"bike_id":"7a1457f0-7f09-4eea-b1f3-2e9174a14fd4","system_id":"levelo_inurba_marseille","lat":43.28414,"lon":5.37512,"is_reserved":false,"is_disabled":true,"rental_uris":{"android":"levelo://app?vid=7a1457f0-7f09-4eea-b1f3-2e9174a14fd4","ios":"levelo://app?vid=7a1457f0-7f09-4eea-b1f3-2e9174a14fd4"},"vehicle_type_id":"4","last_reported":1736842346,"current_range_meters":2800,"station_id":"ce4bh412rcd13ifvqds0","pricing_plan_id":"cebpf4jnsgd1na2vs0mg"},{"bike_id":"cc9cf4e4-bd05-4828-9c34-27bb5e5951f4","system_id":"levelo_inurba_marseille","lat":43.25888,"lon":5.40897,"is_reserved":false,"is_disabled":false,"rental_uris":{"android":"levelo://app?vid=cc9cf4e4-bd05-4828-9c34-27bb5e5951f4","ios":"levelo://app?vid=cc9cf4e4-bd05-4828-9c34-27bb5e5951f4"},"vehicle_type_id":"4","last_reported":1736842346,"current_range_meters":4400,"station_id":"ce4bhm92rcd13ifvqglg","pricing_plan_id":"cebpf4jnsgd1na2vs0mg"},{"bike_id":"a15980ac-c225-4e68-8982-6cc8c4cbfd79","system_id":"levelo_inurba_marseille","lat":43.23185,"lon":5.35562,"is_reserved":false,"is_disabled":false,"rental_uris":{"android":"levelo://app?vid=a15980ac-c225-4e68-8982-6cc8c4cbfd79","ios":"levelo://app?vid=a15980ac-c225-4e68-8982-6cc8c4cbfd79"},"vehicle_type_id":"4","last_reported":1736842346,"current_range_meters":6800,"station_id":"ce4bhu92rcd13ifvqi70","pricing_plan_id":"cebpf4jnsgd1na2vs0mg"},{"bike_id":"93a600be-ac9b-457f-8b76-cc9ed16758ce","system_id":"levelo_inurba_marseille","lat":43.23182,"lon":5.39992,"is_reserved":false,"is_disabled":false,"rental_uris":{"android":"levelo://app?vid=93a600be-ac9b-457f-8b76-cc9ed16758ce","ios":"levelo://app?vid=93a600be-ac9b-457f-8b76-cc9ed16758ce"},"vehicle_type_id":"4","last_reported":1736842346,"current_range_meters":8400,"station_id":"ce4bhn12rcd13ifvqgqg","pricing_plan_id":"cebpf4jnsgd1na2vs0mg"},{"bike_id":"de369d66-4ee8-4b8e-8ccf-cb20a5d87581","system_id":"levelo_inurba_marseille","lat":43.2902,"lon":5.3756,"is_reserved":false,"is_disabled":false,"rental_uris":{"android":"levelo://app?vid=de369d66-4ee8-4b8e-8ccf-cb20a5d87581","ios":"levelo://app?vid=de369d66-4ee8-4b8e-8ccf-cb20a5d87581"},"vehicle_type_id":"4","last_reported":1736842346,"current_range_meters":36800,"station_id":"ce4bh692rcd13ifvqe90","pricing_plan_id":"cebpf4jnsgd1na2vs0mg"},{"bike_id":"3b9d8bd4-42e6-461b-8794-9af02bd014c6","system_id":"levelo_inurba_marseille","lat":43.30947,"lon":5.39037,"is_reserved":false,"is_disabled":false,"rental_uris":{"android":"levelo://app?vid=3b9d8bd4-42e6-461b-8794-9af02bd014c6","ios":"levelo://app?vid=3b9d8bd4-42e6-461b-8794-9af02bd014c6"},"vehicle_type_id":"4","last_reported":1736842346,"current_range_meters":20400,"station_id":"ce4bgup2rcd13ifvqco0","pricing_plan_id":"cebpf4jnsgd1na2vs0mg"},{"bike_id":"985c1c01-e0fb-4b6e-8af5-6b2ea74c2b5d","system_id":"levelo_inurba_marseille","lat":43.27495,"lon":5.42465,"is_reserved":false,"is_disabled":false,"rental_uris":{"android":"levelo://app?vid=985c1c01-e0fb-4b6e-8af5-6b2ea74c2b5d","ios":"levelo://app?vid=985c1c01-e0fb-4b6e-8af5-6b2ea74c2b5d"},"vehicle_type_id":"4","last_reported":1736842346,"current_range_meters":25600,"station_id":"ce4bhn92rcd13ifvqgrg","pricing_plan_id":"cebpf4jnsgd1na2vs0mg"},{"bike_id":"3b74a056-c0cf-4f44-8772-22ed33115fcd","system_id":"levelo_inurba_marseille","lat":43.231896,"lon":5.399729,"is_reserved":false,"is_disabled":false,"rental_uris":{"android":"levelo://app?vid=3b74a056-c0cf-4f44-8772-22ed33115fcd","ios":"levelo://app?vid=3b74a056-c0cf-4f44-8772-22ed33115fcd"},"vehicle_type_id":"4","last_reported":1736842346,"current_range_meters":9200,"station_id":"ce4bhn12rcd13ifvqgqg","pricing_plan_id":"cebpf4jnsgd1na2vs0mg"},{"bike_id":"8ea63c67-c242-4094-beda-b37084591416","system_id":"levelo_inurba_marseille","lat":43.29617,"lon":5.37726,"is_reserved":false,"is_disabled":false,"rental_uris":{"android":"levelo://app?vid=8ea63c67-c242-4094-beda-b37084591416","ios":"levelo://app?vid=8ea63c67-c242-4094-beda-b37084591416"},"vehicle_type_id":"4","last_reported":1736842346,"current_range_meters":30400,"station_id":"ce4bgi92rcd13ifvqb90","pricing_plan_id":"cebpf4jnsgd1na2vs0mg"},{"bike_id":"3f404148-f2c7-44b8-a466-977741fe2f8d","system_id":"levelo_inurba_marseille","lat":43.27919,"lon":5.39576,"is_reserved":false,"is_disabled":false,"rental_uris":{"android":"levelo://app?vid=3f404148-f2c7-44b8-a466-977741fe2f8d","ios":"levelo://app?vid=3f404148-f2c7-44b8-a466-977741fe2f8d"},"vehicle_type_id":"4","last_reported":1736842346,"current_range_meters":29600,"station_id":"ce4bhf92rcd13ifvqf40","pricing_plan_id":"cebpf4jnsgd1na2vs0mg"},{"bike_id":"7a6c262a-cea0-4455-9870-5049b5036297","system_id":"levelo_inurba_marseille","lat":43.24084,"lon":5.37754,"is_reserved":false,"is_disabled":false,"rental_uris":{"android":"levelo://app?vid=7a6c262a-cea0-4455-9870-5049b5036297","ios":"levelo://app?vid=7a6c262a-cea0-4455-9870-5049b5036297"},"vehicle_type_id":"4","last_reported":1736842346,"current_range_meters":18800,"station_id":"ce4bhnp2rcd13ifvqgvg","pricing_plan_id":"cebpf4jnsgd1na2vs0mg"},{"bike_id":"988277d2-e4af-4d55-b043-26d410f9bb0c","system_id":"levelo_inurba_marseille","lat":43.2573,"lon":5.41106,"is_reserved":false,"is_disabled":false,"rental_uris":{"android":"levelo://app?vid=988277d2-e4af-4d55-b043-26d410f9bb0c","ios":"levelo://app?vid=988277d2-e4af-4d55-b043-26d410f9bb0c"},"vehicle_type_id":"4","last_reported":1736842346,"current_range_meters":25600,"station_id":"ce4bhkp2rcd13ifvqgd0","pricing_plan_id":"cebpf4jnsgd1na2vs0mg"},{"bike_id":"51bb6953-dea8-4e82-96bf-52696267905f","system_id":"levelo_inurba_marseille","lat":43.2306,"lon":5.355,"is_reserved":false,"is_disabled":false,"rental_uris":{"android":"levelo://app?vid=51bb6953-dea8-4e82-96bf-52696267905f","ios":"levelo://app?vid=51bb6953-dea8-4e82-96bf-52696267905f"},"vehicle_type_id":"4","last_reported":1736842346,"current_range_meters":8800,"station_id":"cpo3342slgdg3j2ifvpg","pricing_plan_id":"cebpf4jnsgd1na2vs0mg"},{"bike_id":"b413a30a-d8c2-448a-9150-43fabed4d7a6","system_id":"levelo_inurba_marseille","lat":43.30282,"lon":5.37713,"is_reserved":false,"is_disabled":false,"rental_uris":{"android":"levelo://app?vid=b413a30a-d8c2-448a-9150-43fabed4d7a6","ios":"levelo://app?vid=b413a30a-d8c2-448a-9150-43fabed4d7a6"},"vehicle_type_id":"4","last_reported":1736842346,"current_range_meters":32400,"station_id":"ce4bguh2rcd13ifvqcj0","pricing_plan_id":"cebpf4jnsgd1na2vs0mg"},{"bike_id":"a66780a5-bc12-4740-a93c-6b52209daab3","system_id":"levelo_inurba_marseille","lat":43.31353,"lon":5.36714,"is_reserved":false,"is_disabled":false,"rental_uris":{"android":"levelo://app?vid=a66780a5-bc12-4740-a93c-6b52209daab3","ios":"levelo://app?vid=a66780a5-bc12-4740-a93c-6b52209daab3"},"vehicle_type_id":"4","last_reported":1736842346,"current_range_meters":23200,"station_id":"ce4bgr92rcd13ifvqc6g","pricing_plan_id":"cebpf4jnsgd1na2vs0mg"},{"bike_id":"c84c60ce-c7f6-42eb-bb3c-f11a697bd396","system_id":"levelo_inurba_marseille","lat":43.29981,"lon":5.38485,"is_reserved":false,"is_disabled":true,"rental_uris":{"android":"levelo://app?vid=c84c60ce-c7f6-42eb-bb3c-f11a697bd396","ios":"levelo://app?vid=c84c60ce-c7f6-42eb-bb3c-f11a697bd396"},"vehicle_type_id":"4","last_reported":1736842346,"current_range_meters":36400,"station_id":"ce4bgj92rcd13ifvqbd0","pricing_plan_id":"cebpf4jnsgd1na2vs0mg"},{"bike_id":"5b6f32ca-27c0-4ddf-ba56-69f237bfef76","system_id":"levelo_inurba_marseille","lat":43.28611,"lon":5.35106,"is_reserved":false,"is_disabled":false,"rental_uris":{"android":"levelo://app?vid=5b6f32ca-27c0-4ddf-ba56-69f237bfef76","ios":"levelo://app?vid=5b6f32ca-27c0-4ddf-ba56-69f237bfef76"},"vehicle_type_id":"4","last_reported":1736842346,"current_range_meters":35200,"station_id":"ce4bhch2rcd13ifvqeug","pricing_plan_id":"cebpf4jnsgd1na2vs0mg"},{"bike_id":"0692f5cb-322a-4ce9-bdd8-a8004dac8c3a","system_id":"levelo_inurba_marseille","lat":43.30149,"lon":5.37425,"is_reserved":false,"is_disabled":false,"rental_uris":{"android":"levelo://app?vid=0692f5cb-322a-4ce9-bdd8-a8004dac8c3a","ios":"levelo://app?vid=0692f5cb-322a-4ce9-bdd8-a8004dac8c3a"},"vehicle_type_id":"4","last_reported":1736842346,"current_range_meters":27200,"station_id":"ce4bgs92rcd13ifvqcc0","pricing_plan_id":"cebpf4jnsgd1na2vs0mg"},{"bike_id":"443c5dde-f0e0-4ba1-b742-bb081179ae11","system_id":"levelo_inurba_marseille","lat":43.30466,"lon":5.379,"is_reserved":false,"is_disabled":false,"rental_uris":{"android":"levelo://app?vid=443c5dde-f0e0-4ba1-b742-bb081179ae11","ios":"levelo://app?vid=443c5dde-f0e0-4ba1-b742-bb081179ae11"},"vehicle_type_id":"4","last_reported":1736842346,"current_range_meters":36000,"station_id":"ce4bgup2rcd13ifvqcn0","pricing_plan_id":"cebpf4jnsgd1na2vs0mg"},{"bike_id":"56a37990-c381-414a-8c27-59f20eae88ce","system_id":"levelo_inurba_marseille","lat":43.24991,"lon":5.38936,"is_reserved":false,"is_disabled":false,"rental_uris":{"android":"levelo://app?vid=56a37990-c381-414a-8c27-59f20eae88ce","ios":"levelo://app?vid=56a37990-c381-414a-8c27-59f20eae88ce"},"vehicle_type_id":"4","last_reported":1736842346,"current_range_meters":6800,"station_id":"ce4bhgp2rcd13ifvqfd0","pricing_plan_id":"cebpf4jnsgd1na2vs0mg"},{"bike_id":"e114c682-1978-4a27-880c-63e24c43365d","system_id":"levelo_inurba_marseille","lat":43.30903,"lon":5.37182,"is_reserved":false,"is_disabled":false,"rental_uris":{"android":"levelo://app?vid=e114c682-1978-4a27-880c-63e24c43365d","ios":"levelo://app?vid=e114c682-1978-4a27-880c-63e24c43365d"},"vehicle_type_id":"4","last_reported":1736842346,"current_range_meters":19600,"station_id":"ce4bguh2rcd13ifvqckg","pricing_plan_id":"cebpf4jnsgd1na2vs0mg"},{"bike_id":"a56bdef2-14b8-4e02-b3bc-538917283971","system_id":"levelo_inurba_marseille","lat":43.25083,"lon":5.39536,"is_reserved":false,"is_disabled":true,"rental_uris":{"android":"levelo://app?vid=a56bdef2-14b8-4e02-b3bc-538917283971","ios":"levelo://app?vid=a56bdef2-14b8-4e02-b3bc-538917283971"},"vehicle_type_id":"4","last_reported":1736842346,"current_range_meters":9200,"station_id":"ce4bhm12rcd13ifvqgkg","pricing_plan_id":"cebpf4jnsgd1na2vs0mg"},{"bike_id":"0125c28b-780b-4ed9-9399-11893fafb8ed","system_id":"levelo_inurba_marseille","lat":43.3116,"lon":5.38715,"is_reserved":false,"is_disabled":true,"rental_uris":{"android":"levelo://app?vid=0125c28b-780b-4ed9-9399-11893fafb8ed","ios":"levelo://app?vid=0125c28b-780b-4ed9-9399-11893fafb8ed"},"vehicle_type_id":"4","last_reported":1736842346,"current_range_meters":12400,"station_id":"ce4bgv12rcd13ifvqcp0","pricing_plan_id":"cebpf4jnsgd1na2vs0mg"},{"bike_id":"acf852fd-1291-46ab-92eb-253f85c91d29","system_id":"levelo_inurba_marseille","lat":43.26953,"lon":5.3863,"is_reserved":false,"is_disabled":false,"rental_uris":{"android":"levelo://app?vid=acf852fd-1291-46ab-92eb-253f85c91d29","ios":"levelo://app?vid=acf852fd-1291-46ab-92eb-253f85c91d29"},"vehicle_type_id":"4","last_reported":1736842346,"current_range_meters":16800,"station_id":"ce4bhh92rcd13ifvqfh0","pricing_plan_id":"cebpf4jnsgd1na2vs0mg"},{"bike_id":"037031b6-39dd-486b-99bb-ebe05f9a77df","system_id":"levelo_inurba_marseille","lat":43.26933,"lon":5.38655,"is_reserved":false,"is_disabled":false,"rental_uris":{"android":"levelo://app?vid=037031b6-39dd-486b-99bb-ebe05f9a77df","ios":"levelo://app?vid=037031b6-39dd-486b-99bb-ebe05f9a77df"},"vehicle_type_id":"4","last_reported":1736842346,"current_range_meters":37600,"station_id":"ce4bhh92rcd13ifvqfh0","pricing_plan_id":"cebpf4jnsgd1na2vs0mg"},{"bike_id":"86241bda-fbbe-4026-924d-d399d3f1efb2","system_id":"levelo_inurba_marseille","lat":43.29591,"lon":5.38098,"is_reserved":false,"is_disabled":false,"rental_uris":{"android":"levelo://app?vid=86241bda-fbbe-4026-924d-d399d3f1efb2","ios":"levelo://app?vid=86241bda-fbbe-4026-924d-d399d3f1efb2"},"vehicle_type_id":"4","last_reported":1736842346,"current_range_meters":38800,"station_id":"ce4bgl12rcd13ifvqbo0","pricing_plan_id":"cebpf4jnsgd1na2vs0mg"},{"bike_id":"84e0cf06-80ea-4581-bc12-cd6f4a982eec","system_id":"levelo_inurba_marseille","lat":43.28829,"lon":5.39337,"is_reserved":false,"is_disabled":false,"rental_uris":{"android":"levelo://app?vid=84e0cf06-80ea-4581-bc12-cd6f4a982eec","ios":"levelo://app?vid=84e0cf06-80ea-4581-bc12-cd6f4a982eec"},"vehicle_type_id":"4","last_reported":1736842346,"current_range_meters":34000,"station_id":"ce4bh2p2rcd13ifvqdi0","pricing_plan_id":"cebpf4jnsgd1na2vs0mg"},{"bike_id":"a754abf4-87cb-4915-a97f-0b4d0e8971f5","system_id":"levelo_inurba_marseille","lat":43.28612,"lon":5.35109,"is_reserved":false,"is_disabled":false,"rental_uris":{"android":"levelo://app?vid=a754abf4-87cb-4915-a97f-0b4d0e8971f5","ios":"levelo://app?vid=a754abf4-87cb-4915-a97f-0b4d0e8971f5"},"vehicle_type_id":"4","last_reported":1736842346,"current_range_meters":29600,"station_id":"ce4bhch2rcd13ifvqeug","pricing_plan_id":"cebpf4jnsgd1na2vs0mg"},{"bike_id":"b51b8509-c21e-40ac-802b-edd56e55cdd0","system_id":"levelo_inurba_marseille","lat":43.30358,"lon":5.41886,"is_reserved":false,"is_disabled":true,"rental_uris":{"android":"levelo://app?vid=b51b8509-c21e-40ac-802b-edd56e55cdd0","ios":"levelo://app?vid=b51b8509-c21e-40ac-802b-edd56e55cdd0"},"vehicle_type_id":"4","last_reported":1736842346,"current_range_meters":21600,"station_id":"ce4bhop2rcd13ifvqh7g","pricing_plan_id":"cebpf4jnsgd1na2vs0mg"},{"bike_id":"512c7bd5-5643-4f7d-a8c3-5cceff4f5ebd","system_id":"levelo_inurba_marseille","lat":43.273724,"lon":5.362535,"is_reserved":false,"is_disabled":false,"rental_uris":{"android":"levelo://app?vid=512c7bd5-5643-4f7d-a8c3-5cceff4f5ebd","ios":"levelo://app?vid=512c7bd5-5643-4f7d-a8c3-5cceff4f5ebd"},"vehicle_type_id":"4","last_reported":1736842346,"current_range_meters":9600,"station_id":"ce4bhbh2rcd13ifvqeo0","pricing_plan_id":"cebpf4jnsgd1na2vs0mg"},{"bike_id":"78fc2529-851e-44ea-9e17-e5a76c9197b1","system_id":"levelo_inurba_marseille","lat":43.29716,"lon":5.37747,"is_reserved":false,"is_disabled":true,"rental_uris":{"android":"levelo://app?vid=78fc2529-851e-44ea-9e17-e5a76c9197b1","ios":"levelo://app?vid=78fc2529-851e-44ea-9e17-e5a76c9197b1"},"vehicle_type_id":"4","last_reported":1736842346,"current_range_meters":35600,"station_id":"ce4bgkh2rcd13ifvqbl0","pricing_plan_id":"cebpf4jnsgd1na2vs0mg"},{"bike_id":"018313d9-eaeb-4426-bc4b-d6b85b690c64","system_id":"levelo_inurba_marseille","lat":43.3253,"lon":5.41434,"is_reserved":false,"is_disabled":true,"rental_uris":{"android":"levelo://app?vid=018313d9-eaeb-4426-bc4b-d6b85b690c64","ios":"levelo://app?vid=018313d9-eaeb-4426-bc4b-d6b85b690c64"},"vehicle_type_id":"4","last_reported":1736842346,"current_range_meters":0,"station_id":"ce4bhq12rcd13ifvqhhg","pricing_plan_id":"cebpf4jnsgd1na2vs0mg"},{"bike_id":"526dd1cc-89ce-48bf-bf8c-c113d03a552f","system_id":"levelo_inurba_marseille","lat":43.29574,"lon":5.37515,"is_reserved":false,"is_disabled":false,"rental_uris":{"android":"levelo://app?vid=526dd1cc-89ce-48bf-bf8c-c113d03a552f","ios":"levelo://app?vid=526dd1cc-89ce-48bf-bf8c-c113d03a552f"},"vehicle_type_id":"4","last_reported":1736842346,"current_range_meters":38800,"station_id":"ce4bgh92rcd13ifvqb50","pricing_plan_id":"cebpf4jnsgd1na2vs0mg"},{"bike_id":"83453a62-37b0-4dd2-b5e3-f6306cc1d647","system_id":"levelo_inurba_marseille","lat":43.29607,"lon":5.37723,"is_reserved":false,"is_disabled":false,"rental_uris":{"android":"levelo://app?vid=83453a62-37b0-4dd2-b5e3-f6306cc1d647","ios":"levelo://app?vid=83453a62-37b0-4dd2-b5e3-f6306cc1d647"},"vehicle_type_id":"4","last_reported":1736842346,"current_range_meters":38800,"station_id":"ce4bgi92rcd13ifvqb90","pricing_plan_id":"cebpf4jnsgd1na2vs0mg"},{"bike_id":"70ff0b6f-4edb-4638-8845-80cb9ae03b4e","system_id":"levelo_inurba_marseille","lat":43.27377,"lon":5.36258,"is_reserved":false,"is_disabled":false,"rental_uris":{"android":"levelo://app?vid=70ff0b6f-4edb-4638-8845-80cb9ae03b4e","ios":"levelo://app?vid=70ff0b6f-4edb-4638-8845-80cb9ae03b4e"},"vehicle_type_id":"4","last_reported":1736842346,"current_range_meters":3200,"station_id":"ce4bhbh2rcd13ifvqeo0","pricing_plan_id":"cebpf4jnsgd1na2vs0mg"},{"bike_id":"68b1e43b-9c71-4641-91bf-78c3b9641aaa","system_id":"levelo_inurba_marseille","lat":43.27436,"lon":5.39404,"is_reserved":false,"is_disabled":false,"rental_uris":{"android":"levelo://app?vid=68b1e43b-9c71-4641-91bf-78c3b9641aaa","ios":"levelo://app?vid=68b1e43b-9c71-4641-91bf-78c3b9641aaa"},"vehicle_type_id":"4","last_reported":1736842346,"current_range_meters":27200,"station_id":"ce4bhdp2rcd13ifvqf20","pricing_plan_id":"cebpf4jnsgd1na2vs0mg"},{"bike_id":"bab91d98-571b-4af7-8b79-c1830922d13d","system_id":"levelo_inurba_marseille","lat":43.28751,"lon":5.38233,"is_reserved":false,"is_disabled":true,"rental_uris":{"android":"levelo://app?vid=bab91d98-571b-4af7-8b79-c1830922d13d","ios":"levelo://app?vid=bab91d98-571b-4af7-8b79-c1830922d13d"},"vehicle_type_id":"4","last_reported":1736842346,"current_range_meters":800,"station_id":"","pricing_plan_id":"cebpf4jnsgd1na2vs0mg"},{"bike_id":"2d5d85e6-9e24-4e9b-93d1-6044f943d06d","system_id":"levelo_inurba_marseille","lat":43.30145,"lon":5.38114,"is_reserved":false,"is_disabled":false,"rental_uris":{"android":"levelo://app?vid=2d5d85e6-9e24-4e9b-93d1-6044f943d06d","ios":"levelo://app?vid=2d5d85e6-9e24-4e9b-93d1-6044f943d06d"},"vehicle_type_id":"4","last_reported":1736842346,"current_range_meters":29600,"station_id":"ce4bgjp2rcd13ifvqbh0","pricing_plan_id":"cebpf4jnsgd1na2vs0mg"},{"bike_id":"fee790cf-be92-453e-8567-99a139b0ba33","system_id":"levelo_inurba_marseille","lat":43.27211,"lon":5.39171,"is_reserved":false,"is_disabled":true,"rental_uris":{"android":"levelo://app?vid=fee790cf-be92-453e-8567-99a139b0ba33","ios":"levelo://app?vid=fee790cf-be92-453e-8567-99a139b0ba33"},"vehicle_type_id":"4","last_reported":1736842346,"current_range_meters":0,"station_id":"ce4bhhp2rcd13ifvqfm0","pricing_plan_id":"cebpf4jnsgd1na2vs0mg"},{"bike_id":"45324790-abcf-4a91-8b9e-6b7c17eae013","system_id":"levelo_inurba_marseille","lat":43.273735,"lon":5.362588,"is_reserved":false,"is_disabled":false,"rental_uris":{"android":"levelo://app?vid=45324790-abcf-4a91-8b9e-6b7c17eae013","ios":"levelo://app?vid=45324790-abcf-4a91-8b9e-6b7c17eae013"},"vehicle_type_id":"4","last_reported":1736842346,"current_range_meters":6400,"station_id":"ce4bhbh2rcd13ifvqeo0","pricing_plan_id":"cebpf4jnsgd1na2vs0mg"},{"bike_id":"72602ff9-e633-4ab9-926e-a56b25830ac5","system_id":"levelo_inurba_marseille","lat":43.2732,"lon":5.39117,"is_reserved":false,"is_disabled":false,"rental_uris":{"android":"levelo://app?vid=72602ff9-e633-4ab9-926e-a56b25830ac5","ios":"levelo://app?vid=72602ff9-e633-4ab9-926e-a56b25830ac5"},"vehicle_type_id":"4","last_reported":1736842346,"current_range_meters":6800,"station_id":"ce4bhgp2rcd13ifvqfe0","pricing_plan_id":"cebpf4jnsgd1na2vs0mg"},{"bike_id":"52b9c89b-59e1-4ffb-8f5b-c4403b64930a","system_id":"levelo_inurba_marseille","lat":43.2439,"lon":5.37069,"is_reserved":false,"is_disabled":false,"rental_uris":{"android":"levelo://app?vid=52b9c89b-59e1-4ffb-8f5b-c4403b64930a","ios":"levelo://app?vid=52b9c89b-59e1-4ffb-8f5b-c4403b64930a"},"vehicle_type_id":"4","last_reported":1736842346,"current_range_meters":8800,"station_id":"ce4bhhh2rcd13ifvqfk0","pricing_plan_id":"cebpf4jnsgd1na2vs0mg"},{"bike_id":"47f63191-6673-4167-8a58-1a164b7d4b7e","system_id":"levelo_inurba_marseille","lat":43.240668,"lon":5.377598,"is_reserved":false,"is_disabled":false,"rental_uris":{"android":"levelo://app?vid=47f63191-6673-4167-8a58-1a164b7d4b7e","ios":"levelo://app?vid=47f63191-6673-4167-8a58-1a164b7d4b7e"},"vehicle_type_id":"4","last_reported":1736842346,"current_range_meters":35600,"station_id":"ce4bhnp2rcd13ifvqgvg","pricing_plan_id":"cebpf4jnsgd1na2vs0mg"},{"bike_id":"70918db5-00cc-4843-a9f7-9d932aead9b0","system_id":"levelo_inurba_marseille","lat":43.29918,"lon":5.37461,"is_reserved":false,"is_disabled":false,"rental_uris":{"android":"levelo://app?vid=70918db5-00cc-4843-a9f7-9d932aead9b0","ios":"levelo://app?vid=70918db5-00cc-4843-a9f7-9d932aead9b0"},"vehicle_type_id":"4","last_reported":1736842346,"current_range_meters":36400,"station_id":"ce4bgjh2rcd13ifvqbg0","pricing_plan_id":"cebpf4jnsgd1na2vs0mg"},{"bike_id":"a86fe1f4-7545-4b33-8097-0e91725c0bb3","system_id":"levelo_inurba_marseille","lat":43.31387,"lon":5.3724,"is_reserved":false,"is_disabled":true,"rental_uris":{"android":"levelo://app?vid=a86fe1f4-7545-4b33-8097-0e91725c0bb3","ios":"levelo://app?vid=a86fe1f4-7545-4b33-8097-0e91725c0bb3"},"vehicle_type_id":"4","last_reported":1736842346,"current_range_meters":400,"station_id":"","pricing_plan_id":"cebpf4jnsgd1na2vs0mg"},{"bike_id":"7bac73ef-85ca-4f7d-ab70-1b546026811a","system_id":"levelo_inurba_marseille","lat":43.28044,"lon":5.36945,"is_reserved":false,"is_disabled":false,"rental_uris":{"android":"levelo://app?vid=7bac73ef-85ca-4f7d-ab70-1b546026811a","ios":"levelo://app?vid=7bac73ef-85ca-4f7d-ab70-1b546026811a"},"vehicle_type_id":"4","last_reported":1736842346,"current_range_meters":8800,"station_id":"ce4bha12rcd13ifvqef0","pricing_plan_id":"cebpf4jnsgd1na2vs0mg"},{"bike_id":"321a1127-d864-44e1-88ee-18a86707c918","system_id":"levelo_inurba_marseille","lat":43.24548,"lon":5.39518,"is_reserved":false,"is_disabled":false,"rental_uris":{"android":"levelo://app?vid=321a1127-d864-44e1-88ee-18a86707c918","ios":"levelo://app?vid=321a1127-d864-44e1-88ee-18a86707c918"},"vehicle_type_id":"4","last_reported":1736842346,"current_range_meters":22800,"station_id":"ce4bhlp2rcd13ifvqgjg","pricing_plan_id":"cebpf4jnsgd1na2vs0mg"},{"bike_id":"2335f6e3-1c37-44c5-9df8-b868e3f27b4a","system_id":"levelo_inurba_marseille","lat":43.29585,"lon":5.37514,"is_reserved":false,"is_disabled":true,"rental_uris":{"android":"levelo://app?vid=2335f6e3-1c37-44c5-9df8-b868e3f27b4a","ios":"levelo://app?vid=2335f6e3-1c37-44c5-9df8-b868e3f27b4a"},"vehicle_type_id":"4","last_reported":1736842346,"current_range_meters":1600,"station_id":"ce4bgh92rcd13ifvqb50","pricing_plan_id":"cebpf4jnsgd1na2vs0mg"},{"bike_id":"3b6c8338-06e4-461f-bc7b-56a2216a0fbc","system_id":"levelo_inurba_marseille","lat":43.30097,"lon":5.39088,"is_reserved":false,"is_disabled":false,"rental_uris":{"android":"levelo://app?vid=3b6c8338-06e4-461f-bc7b-56a2216a0fbc","ios":"levelo://app?vid=3b6c8338-06e4-461f-bc7b-56a2216a0fbc"},"vehicle_type_id":"4","last_reported":1736842346,"current_range_meters":26000,"station_id":"ce4bh192rcd13ifvqdb0","pricing_plan_id":"cebpf4jnsgd1na2vs0mg"},{"bike_id":"8ca57a1a-ed8d-4ff6-9696-9e64713deb6f","system_id":"levelo_inurba_marseille","lat":43.3014,"lon":5.37416,"is_reserved":false,"is_disabled":false,"rental_uris":{"android":"levelo://app?vid=8ca57a1a-ed8d-4ff6-9696-9e64713deb6f","ios":"levelo://app?vid=8ca57a1a-ed8d-4ff6-9696-9e64713deb6f"},"vehicle_type_id":"4","last_reported":1736842346,"current_range_meters":36800,"station_id":"ce4bgs92rcd13ifvqcc0","pricing_plan_id":"cebpf4jnsgd1na2vs0mg"},{"bike_id":"4f33525b-ad77-45f3-a5ca-48f52317317a","system_id":"levelo_inurba_marseille","lat":43.29216,"lon":5.36028,"is_reserved":false,"is_disabled":true,"rental_uris":{"android":"levelo://app?vid=4f33525b-ad77-45f3-a5ca-48f52317317a","ios":"levelo://app?vid=4f33525b-ad77-45f3-a5ca-48f52317317a"},"vehicle_type_id":"4","last_reported":1736842346,"current_range_meters":0,"station_id":"ce4bhbh2rcd13ifvqeqg","pricing_plan_id":"cebpf4jnsgd1na2vs0mg"},{"bike_id":"255540e7-4058-4f44-8c33-194a2017cef2","system_id":"levelo_inurba_marseille","lat":43.25864,"lon":5.39904,"is_reserved":false,"is_disabled":false,"rental_uris":{"android":"levelo://app?vid=255540e7-4058-4f44-8c33-194a2017cef2","ios":"levelo://app?vid=255540e7-4058-4f44-8c33-194a2017cef2"},"vehicle_type_id":"4","last_reported":1736842346,"current_range_meters":38800,"station_id":"ce4bhl92rcd13ifvqghg","pricing_plan_id":"cebpf4jnsgd1na2vs0mg"},{"bike_id":"1299e77e-6da9-45c1-9a42-231380813012","system_id":"levelo_inurba_marseille","lat":43.283433,"lon":5.381144,"is_reserved":false,"is_disabled":true,"rental_uris":{"android":"levelo://app?vid=1299e77e-6da9-45c1-9a42-231380813012","ios":"levelo://app?vid=1299e77e-6da9-45c1-9a42-231380813012"},"vehicle_type_id":"4","last_reported":1736842346,"current_range_meters":24400,"station_id":"","pricing_plan_id":"cebpf4jnsgd1na2vs0mg"},{"bike_id":"77c125dd-0570-435e-ae36-92a459b4cd7d","system_id":"levelo_inurba_marseille","lat":43.2583,"lon":5.39445,"is_reserved":false,"is_disabled":true,"rental_uris":{"android":"levelo://app?vid=77c125dd-0570-435e-ae36-92a459b4cd7d","ios":"levelo://app?vid=77c125dd-0570-435e-ae36-92a459b4cd7d"},"vehicle_type_id":"4","last_reported":1736842346,"current_range_meters":6800,"station_id":"ce4bhip2rcd13ifvqft0","pricing_plan_id":"cebpf4jnsgd1na2vs0mg"},{"bike_id":"86aa91d7-5e7f-4d06-a29a-f0330d396a6d","system_id":"levelo_inurba_marseille","lat":43.31345,"lon":5.36727,"is_reserved":false,"is_disabled":false,"rental_uris":{"android":"levelo://app?vid=86aa91d7-5e7f-4d06-a29a-f0330d396a6d","ios":"levelo://app?vid=86aa91d7-5e7f-4d06-a29a-f0330d396a6d"},"vehicle_type_id":"4","last_reported":1736842346,"current_range_meters":32000,"station_id":"ce4bgr92rcd13ifvqc6g","pricing_plan_id":"cebpf4jnsgd1na2vs0mg"},{"bike_id":"624fd665-76a1-4073-91c0-a4db8dfd6228","system_id":"levelo_inurba_marseille","lat":43.31312,"lon":5.36832,"is_reserved":false,"is_disabled":false,"rental_uris":{"android":"levelo://app?vid=624fd665-76a1-4073-91c0-a4db8dfd6228","ios":"levelo://app?vid=624fd665-76a1-4073-91c0-a4db8dfd6228"},"vehicle_type_id":"4","last_reported":1736842346,"current_range_meters":30000,"station_id":"","pricing_plan_id":"cebpf4jnsgd1na2vs0mg"},{"bike_id":"7b4d1b47-5678-441b-99e6-d51f2a1e45e8","system_id":"levelo_inurba_marseille","lat":43.24181,"lon":5.39724,"is_reserved":false,"is_disabled":false,"rental_uris":{"android":"levelo://app?vid=7b4d1b47-5678-441b-99e6-d51f2a1e45e8","ios":"levelo://app?vid=7b4d1b47-5678-441b-99e6-d51f2a1e45e8"},"vehicle_type_id":"4","last_reported":1736842346,"current_range_meters":38000,"station_id":"ce4bhn12rcd13ifvqgpg","pricing_plan_id":"cebpf4jnsgd1na2vs0mg"},{"bike_id":"acb789d3-c42d-465c-982b-20d6256e9026","system_id":"levelo_inurba_marseille","lat":43.243926,"lon":5.370569,"is_reserved":false,"is_disabled":false,"rental_uris":{"android":"levelo://app?vid=acb789d3-c42d-465c-982b-20d6256e9026","ios":"levelo://app?vid=acb789d3-c42d-465c-982b-20d6256e9026"},"vehicle_type_id":"4","last_reported":1736842346,"current_range_meters":36800,"station_id":"ce4bhhh2rcd13ifvqfk0","pricing_plan_id":"cebpf4jnsgd1na2vs0mg"},{"bike_id":"6d3cdd29-dd0a-4622-b8db-30d652c69dd0","system_id":"levelo_inurba_marseille","lat":43.31229,"lon":5.36863,"is_reserved":false,"is_disabled":false,"rental_uris":{"android":"levelo://app?vid=6d3cdd29-dd0a-4622-b8db-30d652c69dd0","ios":"levelo://app?vid=6d3cdd29-dd0a-4622-b8db-30d652c69dd0"},"vehicle_type_id":"4","last_reported":1736842346,"current_range_meters":20800,"station_id":"ce4bgl92rcd13ifvqbq0","pricing_plan_id":"cebpf4jnsgd1na2vs0mg"},{"bike_id":"2fddc15e-04aa-4382-b037-006c18d06765","system_id":"levelo_inurba_marseille","lat":43.28007,"lon":5.38591,"is_reserved":false,"is_disabled":false,"rental_uris":{"android":"levelo://app?vid=2fddc15e-04aa-4382-b037-006c18d06765","ios":"levelo://app?vid=2fddc15e-04aa-4382-b037-006c18d06765"},"vehicle_type_id":"4","last_reported":1736842346,"current_range_meters":18000,"station_id":"ce4bhg12rcd13ifvqf80","pricing_plan_id":"cebpf4jnsgd1na2vs0mg"},{"bike_id":"c2d5fd29-d5c7-4c17-84cd-2259421931b6","system_id":"levelo_inurba_marseille","lat":43.2748,"lon":5.4248,"is_reserved":false,"is_disabled":true,"rental_uris":{"android":"levelo://app?vid=c2d5fd29-d5c7-4c17-84cd-2259421931b6","ios":"levelo://app?vid=c2d5fd29-d5c7-4c17-84cd-2259421931b6"},"vehicle_type_id":"4","last_reported":1736842346,"current_range_meters":800,"station_id":"ce4bhn92rcd13ifvqgrg","pricing_plan_id":"cebpf4jnsgd1na2vs0mg"},{"bike_id":"295bd26f-64bb-4f9a-b1ce-9227768f18ec","system_id":"levelo_inurba_marseille","lat":43.29178,"lon":5.37136,"is_reserved":false,"is_disabled":true,"rental_uris":{"android":"levelo://app?vid=295bd26f-64bb-4f9a-b1ce-9227768f18ec","ios":"levelo://app?vid=295bd26f-64bb-4f9a-b1ce-9227768f18ec"},"vehicle_type_id":"4","last_reported":1736842346,"current_range_meters":26000,"station_id":"ce4bha92rcd13ifvqeh0","pricing_plan_id":"cebpf4jnsgd1na2vs0mg"},{"bike_id":"99589ca0-b9e5-4b34-8292-94abd90f7d83","system_id":"levelo_inurba_marseille","lat":43.29724,"lon":5.37699,"is_reserved":false,"is_disabled":false,"rental_uris":{"android":"levelo://app?vid=99589ca0-b9e5-4b34-8292-94abd90f7d83","ios":"levelo://app?vid=99589ca0-b9e5-4b34-8292-94abd90f7d83"},"vehicle_type_id":"4","last_reported":1736842346,"current_range_meters":20400,"station_id":"ce4bgkh2rcd13ifvqbl0","pricing_plan_id":"cebpf4jnsgd1na2vs0mg"},{"bike_id":"fbde0ca5-08bd-4c51-ab80-3b8f82a7dc49","system_id":"levelo_inurba_marseille","lat":43.29913,"lon":5.3815,"is_reserved":false,"is_disabled":false,"rental_uris":{"android":"levelo://app?vid=fbde0ca5-08bd-4c51-ab80-3b8f82a7dc49","ios":"levelo://app?vid=fbde0ca5-08bd-4c51-ab80-3b8f82a7dc49"},"vehicle_type_id":"4","last_reported":1736842346,"current_range_meters":16800,"station_id":"ce4bgj12rcd13ifvqbc0","pricing_plan_id":"cebpf4jnsgd1na2vs0mg"},{"bike_id":"ae29e0de-7b5a-45d6-ace3-313c5e88010a","system_id":"levelo_inurba_marseille","lat":43.28002,"lon":5.41661,"is_reserved":false,"is_disabled":false,"rental_uris":{"android":"levelo://app?vid=ae29e0de-7b5a-45d6-ace3-313c5e88010a","ios":"levelo://app?vid=ae29e0de-7b5a-45d6-ace3-313c5e88010a"},"vehicle_type_id":"4","last_reported":1736842346,"current_range_meters":38000,"station_id":"ce4bho12rcd13ifvqh1g","pricing_plan_id":"cebpf4jnsgd1na2vs0mg"},{"bike_id":"ce4f9219-d241-4008-9aec-b8a5f369f454","system_id":"levelo_inurba_marseille","lat":43.3248,"lon":5.36568,"is_reserved":false,"is_disabled":false,"rental_uris":{"android":"levelo://app?vid=ce4f9219-d241-4008-9aec-b8a5f369f454","ios":"levelo://app?vid=ce4f9219-d241-4008-9aec-b8a5f369f454"},"vehicle_type_id":"4","last_reported":1736842346,"current_range_meters":29600,"station_id":"ce4bhs12rcd13ifvqhvg","pricing_plan_id":"cebpf4jnsgd1na2vs0mg"},{"bike_id":"60c48e84-151f-4edd-83cd-789ff87c7f63","system_id":"levelo_inurba_marseille","lat":43.28696,"lon":5.37408,"is_reserved":false,"is_disabled":true,"rental_uris":{"android":"levelo://app?vid=60c48e84-151f-4edd-83cd-789ff87c7f63","ios":"levelo://app?vid=60c48e84-151f-4edd-83cd-789ff87c7f63"},"vehicle_type_id":"4","last_reported":1736842346,"current_range_meters":34800,"station_id":"ce4bh3p2rcd13ifvqdq0","pricing_plan_id":"cebpf4jnsgd1na2vs0mg"},{"bike_id":"03349009-e6e3-4cde-b992-a2acca682bbe","system_id":"levelo_inurba_marseille","lat":43.28088,"lon":5.39662,"is_reserved":false,"is_disabled":true,"rental_uris":{"android":"levelo://app?vid=03349009-e6e3-4cde-b992-a2acca682bbe","ios":"levelo://app?vid=03349009-e6e3-4cde-b992-a2acca682bbe"},"vehicle_type_id":"4","last_reported":1736842346,"current_range_meters":0,"station_id":"ce4bho12rcd13ifvqh2g","pricing_plan_id":"cebpf4jnsgd1na2vs0mg"},{"bike_id":"65e4bbbc-3a81-48a5-8ddf-1dbbd6fe93d5","system_id":"levelo_inurba_marseille","lat":43.29601,"lon":5.37492,"is_reserved":false,"is_disabled":true,"rental_uris":{"android":"levelo://app?vid=65e4bbbc-3a81-48a5-8ddf-1dbbd6fe93d5","ios":"levelo://app?vid=65e4bbbc-3a81-48a5-8ddf-1dbbd6fe93d5"},"vehicle_type_id":"4","last_reported":1736842346,"current_range_meters":3200,"station_id":"ce4bgh92rcd13ifvqb50","pricing_plan_id":"cebpf4jnsgd1na2vs0mg"},{"bike_id":"d1dc4ad9-186b-444e-9d19-7e7fc8f9a273","system_id":"levelo_inurba_marseille","lat":43.25587,"lon":5.38227,"is_reserved":false,"is_disabled":false,"rental_uris":{"android":"levelo://app?vid=d1dc4ad9-186b-444e-9d19-7e7fc8f9a273","ios":"levelo://app?vid=d1dc4ad9-186b-444e-9d19-7e7fc8f9a273"},"vehicle_type_id":"4","last_reported":1736842346,"current_range_meters":38400,"station_id":"ce4bhih2rcd13ifvqfs0","pricing_plan_id":"cebpf4jnsgd1na2vs0mg"},{"bike_id":"6fcb3384-c9bc-4ab3-9c0b-f62a500684d1","system_id":"levelo_inurba_marseille","lat":43.2952,"lon":5.39029,"is_reserved":false,"is_disabled":true,"rental_uris":{"android":"levelo://app?vid=6fcb3384-c9bc-4ab3-9c0b-f62a500684d1","ios":"levelo://app?vid=6fcb3384-c9bc-4ab3-9c0b-f62a500684d1"},"vehicle_type_id":"4","last_reported":1736842346,"current_range_meters":27200,"station_id":"ce4bh3p2rcd13ifvqdp0","pricing_plan_id":"cebpf4jnsgd1na2vs0mg"},{"bike_id":"de05f028-7450-4792-8d5b-e268410faa9d","system_id":"levelo_inurba_marseille","lat":43.3211,"lon":5.36766,"is_reserved":false,"is_disabled":false,"rental_uris":{"android":"levelo://app?vid=de05f028-7450-4792-8d5b-e268410faa9d","ios":"levelo://app?vid=de05f028-7450-4792-8d5b-e268410faa9d"},"vehicle_type_id":"4","last_reported":1736842346,"current_range_meters":29600,"station_id":"ce4bhrh2rcd13ifvqhug","pricing_plan_id":"cebpf4jnsgd1na2vs0mg"},{"bike_id":"4218abb1-97a1-4e69-a779-b2859c95cf9a","system_id":"levelo_inurba_marseille","lat":43.23957,"lon":5.36628,"is_reserved":false,"is_disabled":false,"rental_uris":{"android":"levelo://app?vid=4218abb1-97a1-4e69-a779-b2859c95cf9a","ios":"levelo://app?vid=4218abb1-97a1-4e69-a779-b2859c95cf9a"},"vehicle_type_id":"4","last_reported":1736842346,"current_range_meters":16000,"station_id":"ce4bhi12rcd13ifvqfp0","pricing_plan_id":"cebpf4jnsgd1na2vs0mg"},{"bike_id":"7da73b08-06e3-43ca-8e0f-9447fe50ccbf","system_id":"levelo_inurba_marseille","lat":43.2749,"lon":5.42468,"is_reserved":false,"is_disabled":true,"rental_uris":{"android":"levelo://app?vid=7da73b08-06e3-43ca-8e0f-9447fe50ccbf","ios":"levelo://app?vid=7da73b08-06e3-43ca-8e0f-9447fe50ccbf"},"vehicle_type_id":"4","last_reported":1736842346,"current_range_meters":0,"station_id":"ce4bhn92rcd13ifvqgrg","pricing_plan_id":"cebpf4jnsgd1na2vs0mg"},{"bike_id":"f2af2ca6-447c-496c-ad3d-731c1377ca61","system_id":"levelo_inurba_marseille","lat":43.30092,"lon":5.37986,"is_reserved":false,"is_disabled":false,"rental_uris":{"android":"levelo://app?vid=f2af2ca6-447c-496c-ad3d-731c1377ca61","ios":"levelo://app?vid=f2af2ca6-447c-496c-ad3d-731c1377ca61"},"vehicle_type_id":"4","last_reported":1736842346,"current_range_meters":11200,"station_id":"","pricing_plan_id":"cebpf4jnsgd1na2vs0mg"},{"bike_id":"74da4619-7c34-41ef-ade0-705cb8285085","system_id":"levelo_inurba_marseille","lat":43.28844,"lon":5.35868,"is_reserved":false,"is_disabled":false,"rental_uris":{"android":"levelo://app?vid=74da4619-7c34-41ef-ade0-705cb8285085","ios":"levelo://app?vid=74da4619-7c34-41ef-ade0-705cb8285085"},"vehicle_type_id":"4","last_reported":1736842346,"current_range_meters":27200,"station_id":"ce4bhb12rcd13ifvqem0","pricing_plan_id":"cebpf4jnsgd1na2vs0mg"},{"bike_id":"34d1187a-0d2f-42da-8bcd-6376169d385a","system_id":"levelo_inurba_marseille","lat":43.25924,"lon":5.40907,"is_reserved":false,"is_disabled":false,"rental_uris":{"android":"levelo://app?vid=34d1187a-0d2f-42da-8bcd-6376169d385a","ios":"levelo://app?vid=34d1187a-0d2f-42da-8bcd-6376169d385a"},"vehicle_type_id":"4","last_reported":1736842346,"current_range_meters":37600,"station_id":"ce4bhm92rcd13ifvqglg","pricing_plan_id":"cebpf4jnsgd1na2vs0mg"},{"bike_id":"8f3d19ca-6788-4fa8-a3b9-31a1f06d17f5","system_id":"levelo_inurba_marseille","lat":43.2803,"lon":5.3694,"is_reserved":false,"is_disabled":true,"rental_uris":{"android":"levelo://app?vid=8f3d19ca-6788-4fa8-a3b9-31a1f06d17f5","ios":"levelo://app?vid=8f3d19ca-6788-4fa8-a3b9-31a1f06d17f5"},"vehicle_type_id":"4","last_reported":1736842346,"current_range_meters":1200,"station_id":"ce4bha12rcd13ifvqef0","pricing_plan_id":"cebpf4jnsgd1na2vs0mg"},{"bike_id":"b704bf42-2bc7-4506-b669-8ca7a3330fef","system_id":"levelo_inurba_marseille","lat":43.28158,"lon":5.42622,"is_reserved":false,"is_disabled":true,"rental_uris":{"android":"levelo://app?vid=b704bf42-2bc7-4506-b669-8ca7a3330fef","ios":"levelo://app?vid=b704bf42-2bc7-4506-b669-8ca7a3330fef"},"vehicle_type_id":"4","last_reported":1736842346,"current_range_meters":22000,"station_id":"ce4bhnh2rcd13ifvqgug","pricing_plan_id":"cebpf4jnsgd1na2vs0mg"},{"bike_id":"a048c638-bc64-432f-b13c-9572667cfd5f","system_id":"levelo_inurba_marseille","lat":43.32474,"lon":5.36569,"is_reserved":false,"is_disabled":false,"rental_uris":{"android":"levelo://app?vid=a048c638-bc64-432f-b13c-9572667cfd5f","ios":"levelo://app?vid=a048c638-bc64-432f-b13c-9572667cfd5f"},"vehicle_type_id":"4","last_reported":1736842346,"current_range_meters":33200,"station_id":"ce4bhs12rcd13ifvqhvg","pricing_plan_id":"cebpf4jnsgd1na2vs0mg"},{"bike_id":"efdf6e72-46a9-4201-b253-5e7a8c8a3bbf","system_id":"levelo_inurba_marseille","lat":43.27176,"lon":5.4099,"is_reserved":false,"is_disabled":false,"rental_uris":{"android":"levelo://app?vid=efdf6e72-46a9-4201-b253-5e7a8c8a3bbf","ios":"levelo://app?vid=efdf6e72-46a9-4201-b253-5e7a8c8a3bbf"},"vehicle_type_id":"4","last_reported":1736842346,"current_range_meters":32000,"station_id":"ce4bhl12rcd13ifvqgf0","pricing_plan_id":"cebpf4jnsgd1na2vs0mg"},{"bike_id":"af387531-ee60-443d-a45e-a1c347f006cc","system_id":"levelo_inurba_marseille","lat":43.28375,"lon":5.40959,"is_reserved":false,"is_disabled":true,"rental_uris":{"android":"levelo://app?vid=af387531-ee60-443d-a45e-a1c347f006cc","ios":"levelo://app?vid=af387531-ee60-443d-a45e-a1c347f006cc"},"vehicle_type_id":"4","last_reported":1736842346,"current_range_meters":0,"station_id":"","pricing_plan_id":"cebpf4jnsgd1na2vs0mg"},{"bike_id":"f62a7ed4-7c80-4ed8-9568-a4dea62069d1","system_id":"levelo_inurba_marseille","lat":43.280895,"lon":5.396675,"is_reserved":false,"is_disabled":false,"rental_uris":{"android":"levelo://app?vid=f62a7ed4-7c80-4ed8-9568-a4dea62069d1","ios":"levelo://app?vid=f62a7ed4-7c80-4ed8-9568-a4dea62069d1"},"vehicle_type_id":"4","last_reported":1736842346,"current_range_meters":25600,"station_id":"ce4bho12rcd13ifvqh2g","pricing_plan_id":"cebpf4jnsgd1na2vs0mg"},{"bike_id":"f3fc842e-57ba-458d-b6a8-557d1168aac2","system_id":"levelo_inurba_marseille","lat":43.30724,"lon":5.36809,"is_reserved":false,"is_disabled":false,"rental_uris":{"android":"levelo://app?vid=f3fc842e-57ba-458d-b6a8-557d1168aac2","ios":"levelo://app?vid=f3fc842e-57ba-458d-b6a8-557d1168aac2"},"vehicle_type_id":"4","last_reported":1736842346,"current_range_meters":20000,"station_id":"","pricing_plan_id":"cebpf4jnsgd1na2vs0mg"},{"bike_id":"6b12ee66-809f-4b5e-9c16-325ceee1f017","system_id":"levelo_inurba_marseille","lat":43.26668,"lon":5.38286,"is_reserved":false,"is_disabled":false,"rental_uris":{"android":"levelo://app?vid=6b12ee66-809f-4b5e-9c16-325ceee1f017","ios":"levelo://app?vid=6b12ee66-809f-4b5e-9c16-325ceee1f017"},"vehicle_type_id":"4","last_reported":1736842346,"current_range_meters":24000,"station_id":"ce4bhg92rcd13ifvqf90","pricing_plan_id":"cebpf4jnsgd1na2vs0mg"},{"bike_id":"e3ce0a6d-84df-4747-bda1-48ca26d77468","system_id":"levelo_inurba_marseille","lat":43.26739,"lon":5.39513,"is_reserved":false,"is_disabled":false,"rental_uris":{"android":"levelo://app?vid=e3ce0a6d-84df-4747-bda1-48ca26d77468","ios":"levelo://app?vid=e3ce0a6d-84df-4747-bda1-48ca26d77468"},"vehicle_type_id":"4","last_reported":1736842346,"current_range_meters":38800,"station_id":"ce4bhh12rcd13ifvqfg0","pricing_plan_id":"cebpf4jnsgd1na2vs0mg"},{"bike_id":"bfdc1c53-74a1-4f64-b32d-a2601c0c2029","system_id":"levelo_inurba_marseille","lat":43.33576,"lon":5.41049,"is_reserved":false,"is_disabled":false,"rental_uris":{"android":"levelo://app?vid=bfdc1c53-74a1-4f64-b32d-a2601c0c2029","ios":"levelo://app?vid=bfdc1c53-74a1-4f64-b32d-a2601c0c2029"},"vehicle_type_id":"4","last_reported":1736842346,"current_range_meters":25600,"station_id":"ce4bhqh2rcd13ifvqhmg","pricing_plan_id":"cebpf4jnsgd1na2vs0mg"},{"bike_id":"52b86d23-bb78-4ec5-b77d-73bb1b705963","system_id":"levelo_inurba_marseille","lat":43.27496,"lon":5.42467,"is_reserved":false,"is_disabled":false,"rental_uris":{"android":"levelo://app?vid=52b86d23-bb78-4ec5-b77d-73bb1b705963","ios":"levelo://app?vid=52b86d23-bb78-4ec5-b77d-73bb1b705963"},"vehicle_type_id":"4","last_reported":1736842346,"current_range_meters":8400,"station_id":"ce4bhn92rcd13ifvqgrg","pricing_plan_id":"cebpf4jnsgd1na2vs0mg"},{"bike_id":"028b290a-7d1d-4c76-ac26-d1913cf1772c","system_id":"levelo_inurba_marseille","lat":43.28151,"lon":5.42642,"is_reserved":false,"is_disabled":false,"rental_uris":{"android":"levelo://app?vid=028b290a-7d1d-4c76-ac26-d1913cf1772c","ios":"levelo://app?vid=028b290a-7d1d-4c76-ac26-d1913cf1772c"},"vehicle_type_id":"4","last_reported":1736842346,"current_range_meters":38000,"station_id":"ce4bhnh2rcd13ifvqgug","pricing_plan_id":"cebpf4jnsgd1na2vs0mg"},{"bike_id":"31240ca4-9f64-4406-9c52-14b4354e548c","system_id":"levelo_inurba_marseille","lat":43.28648,"lon":5.35082,"is_reserved":false,"is_disabled":false,"rental_uris":{"android":"levelo://app?vid=31240ca4-9f64-4406-9c52-14b4354e548c","ios":"levelo://app?vid=31240ca4-9f64-4406-9c52-14b4354e548c"},"vehicle_type_id":"4","last_reported":1736842346,"current_range_meters":29600,"station_id":"ce4bhch2rcd13ifvqeug","pricing_plan_id":"cebpf4jnsgd1na2vs0mg"},{"bike_id":"56319cf7-adb1-4f1e-8057-252da0132dc4","system_id":"levelo_inurba_marseille","lat":43.3025,"lon":5.37748,"is_reserved":false,"is_disabled":false,"rental_uris":{"android":"levelo://app?vid=56319cf7-adb1-4f1e-8057-252da0132dc4","ios":"levelo://app?vid=56319cf7-adb1-4f1e-8057-252da0132dc4"},"vehicle_type_id":"4","last_reported":1736842346,"current_range_meters":38800,"station_id":"ce4bguh2rcd13ifvqcj0","pricing_plan_id":"cebpf4jnsgd1na2vs0mg"},{"bike_id":"c57da018-bfbb-4cbc-9a23-aaed6c1fa365","system_id":"levelo_inurba_marseille","lat":43.276067,"lon":5.361142,"is_reserved":false,"is_disabled":false,"rental_uris":{"android":"levelo://app?vid=c57da018-bfbb-4cbc-9a23-aaed6c1fa365","ios":"levelo://app?vid=c57da018-bfbb-4cbc-9a23-aaed6c1fa365"},"vehicle_type_id":"4","last_reported":1736842346,"current_range_meters":33600,"station_id":"ce4bgj92rcd13ifvqbe0","pricing_plan_id":"cebpf4jnsgd1na2vs0mg"},{"bike_id":"9ab81923-8131-4504-a975-23acc1bd6027","system_id":"levelo_inurba_marseille","lat":43.28289,"lon":5.35059,"is_reserved":false,"is_disabled":false,"rental_uris":{"android":"levelo://app?vid=9ab81923-8131-4504-a975-23acc1bd6027","ios":"levelo://app?vid=9ab81923-8131-4504-a975-23acc1bd6027"},"vehicle_type_id":"4","last_reported":1736842346,"current_range_meters":2800,"station_id":"ce4bhbp2rcd13ifvqerg","pricing_plan_id":"cebpf4jnsgd1na2vs0mg"},{"bike_id":"735ec82c-3ba1-4c1f-99f4-15a352013b3d","system_id":"levelo_inurba_marseille","lat":43.29236,"lon":5.36056,"is_reserved":false,"is_disabled":true,"rental_uris":{"android":"levelo://app?vid=735ec82c-3ba1-4c1f-99f4-15a352013b3d","ios":"levelo://app?vid=735ec82c-3ba1-4c1f-99f4-15a352013b3d"},"vehicle_type_id":"4","last_reported":1736842346,"current_range_meters":37600,"station_id":"ce4bhbh2rcd13ifvqeqg","pricing_plan_id":"cebpf4jnsgd1na2vs0mg"},{"bike_id":"04c4acfe-460f-4fee-a445-0befff4463d3","system_id":"levelo_inurba_marseille","lat":43.2721,"lon":5.39184,"is_reserved":false,"is_disabled":false,"rental_uris":{"android":"levelo://app?vid=04c4acfe-460f-4fee-a445-0befff4463d3","ios":"levelo://app?vid=04c4acfe-460f-4fee-a445-0befff4463d3"},"vehicle_type_id":"4","last_reported":1736842346,"current_range_meters":37600,"station_id":"ce4bhhp2rcd13ifvqfm0","pricing_plan_id":"cebpf4jnsgd1na2vs0mg"},{"bike_id":"451e0abc-f3a9-44c3-8ae6-f0be266c1ed6","system_id":"levelo_inurba_marseille","lat":43.25718,"lon":5.41114,"is_reserved":false,"is_disabled":false,"rental_uris":{"android":"levelo://app?vid=451e0abc-f3a9-44c3-8ae6-f0be266c1ed6","ios":"levelo://app?vid=451e0abc-f3a9-44c3-8ae6-f0be266c1ed6"},"vehicle_type_id":"4","last_reported":1736842346,"current_range_meters":16400,"station_id":"ce4bhkp2rcd13ifvqgd0","pricing_plan_id":"cebpf4jnsgd1na2vs0mg"},{"bike_id":"fc8be740-0043-4f9d-b31c-15f19071a736","system_id":"levelo_inurba_marseille","lat":43.25478,"lon":5.37676,"is_reserved":false,"is_disabled":false,"rental_uris":{"android":"levelo://app?vid=fc8be740-0043-4f9d-b31c-15f19071a736","ios":"levelo://app?vid=fc8be740-0043-4f9d-b31c-15f19071a736"},"vehicle_type_id":"4","last_reported":1736842346,"current_range_meters":35200,"station_id":"ce4bhh12rcd13ifvqff0","pricing_plan_id":"cebpf4jnsgd1na2vs0mg"},{"bike_id":"f92ca2f6-b2af-4f6a-ae7e-0db3ad388627","system_id":"levelo_inurba_marseille","lat":43.26828,"lon":5.39442,"is_reserved":false,"is_disabled":false,"rental_uris":{"android":"levelo://app?vid=f92ca2f6-b2af-4f6a-ae7e-0db3ad388627","ios":"levelo://app?vid=f92ca2f6-b2af-4f6a-ae7e-0db3ad388627"},"vehicle_type_id":"4","last_reported":1736842346,"current_range_meters":38000,"station_id":"ce4bhh12rcd13ifvqfg0","pricing_plan_id":"cebpf4jnsgd1na2vs0mg"},{"bike_id":"739b9309-56f3-4b21-b61d-ade9ae6cc990","system_id":"levelo_inurba_marseille","lat":43.29286,"lon":5.40094,"is_reserved":false,"is_disabled":true,"rental_uris":{"android":"levelo://app?vid=739b9309-56f3-4b21-b61d-ade9ae6cc990","ios":"levelo://app?vid=739b9309-56f3-4b21-b61d-ade9ae6cc990"},"vehicle_type_id":"4","last_reported":1736842346,"current_range_meters":36400,"station_id":"ce4bh312rcd13ifvqdk0","pricing_plan_id":"cebpf4jnsgd1na2vs0mg"},{"bike_id":"3e80b2fb-3555-4ac9-b768-2084968df978","system_id":"levelo_inurba_marseille","lat":43.24078,"lon":5.37754,"is_reserved":false,"is_disabled":false,"rental_uris":{"android":"levelo://app?vid=3e80b2fb-3555-4ac9-b768-2084968df978","ios":"levelo://app?vid=3e80b2fb-3555-4ac9-b768-2084968df978"},"vehicle_type_id":"4","last_reported":1736842346,"current_range_meters":17600,"station_id":"ce4bhnp2rcd13ifvqgvg","pricing_plan_id":"cebpf4jnsgd1na2vs0mg"},{"bike_id":"3c3c287f-e835-4040-bdb7-259026d8f5b9","system_id":"levelo_inurba_marseille","lat":43.29013,"lon":5.38124,"is_reserved":false,"is_disabled":true,"rental_uris":{"android":"levelo://app?vid=3c3c287f-e835-4040-bdb7-259026d8f5b9","ios":"levelo://app?vid=3c3c287f-e835-4040-bdb7-259026d8f5b9"},"vehicle_type_id":"4","last_reported":1736842346,"current_range_meters":0,"station_id":"ce4bh4p2rcd13ifvqe1g","pricing_plan_id":"cebpf4jnsgd1na2vs0mg"},{"bike_id":"01e8c37a-485a-4689-82d6-32555e2cc552","system_id":"levelo_inurba_marseille","lat":43.30517,"lon":5.3657,"is_reserved":false,"is_disabled":false,"rental_uris":{"android":"levelo://app?vid=01e8c37a-485a-4689-82d6-32555e2cc552","ios":"levelo://app?vid=01e8c37a-485a-4689-82d6-32555e2cc552"},"vehicle_type_id":"4","last_reported":1736842346,"current_range_meters":38800,"station_id":"ce4bgs12rcd13ifvqcag","pricing_plan_id":"cebpf4jnsgd1na2vs0mg"},{"bike_id":"c946b593-2463-4927-8346-eca5378c4fa9","system_id":"levelo_inurba_marseille","lat":43.26951,"lon":5.38624,"is_reserved":false,"is_disabled":false,"rental_uris":{"android":"levelo://app?vid=c946b593-2463-4927-8346-eca5378c4fa9","ios":"levelo://app?vid=c946b593-2463-4927-8346-eca5378c4fa9"},"vehicle_type_id":"4","last_reported":1736842346,"current_range_meters":25600,"station_id":"ce4bhh92rcd13ifvqfh0","pricing_plan_id":"cebpf4jnsgd1na2vs0mg"},{"bike_id":"ac018859-ee3a-4912-85df-df4309cced09","system_id":"levelo_inurba_marseille","lat":43.299486,"lon":5.374218,"is_reserved":false,"is_disabled":false,"rental_uris":{"android":"levelo://app?vid=ac018859-ee3a-4912-85df-df4309cced09","ios":"levelo://app?vid=ac018859-ee3a-4912-85df-df4309cced09"},"vehicle_type_id":"4","last_reported":1736842346,"current_range_meters":32400,"station_id":"ce4bguh2rcd13ifvqcj0","pricing_plan_id":"cebpf4jnsgd1na2vs0mg"},{"bike_id":"41922604-c7b8-4e93-9da5-3903771d7233","system_id":"levelo_inurba_marseille","lat":43.2482,"lon":5.37461,"is_reserved":false,"is_disabled":false,"rental_uris":{"android":"levelo://app?vid=41922604-c7b8-4e93-9da5-3903771d7233","ios":"levelo://app?vid=41922604-c7b8-4e93-9da5-3903771d7233"},"vehicle_type_id":"4","last_reported":1736842346,"current_range_meters":23200,"station_id":"ce4bhgh2rcd13ifvqfb0","pricing_plan_id":"cebpf4jnsgd1na2vs0mg"},{"bike_id":"306db636-fa13-4023-a4f6-43177835b6db","system_id":"levelo_inurba_marseille","lat":43.2594,"lon":5.40897,"is_reserved":false,"is_disabled":false,"rental_uris":{"android":"levelo://app?vid=306db636-fa13-4023-a4f6-43177835b6db","ios":"levelo://app?vid=306db636-fa13-4023-a4f6-43177835b6db"},"vehicle_type_id":"4","last_reported":1736842346,"current_range_meters":29600,"station_id":"ce4bhm92rcd13ifvqglg","pricing_plan_id":"cebpf4jnsgd1na2vs0mg"},{"bike_id":"24343b1d-036f-47e4-89b8-02d4eda95fd3","system_id":"levelo_inurba_marseille","lat":43.2898,"lon":5.37838,"is_reserved":false,"is_disabled":false,"rental_uris":{"android":"levelo://app?vid=24343b1d-036f-47e4-89b8-02d4eda95fd3","ios":"levelo://app?vid=24343b1d-036f-47e4-89b8-02d4eda95fd3"},"vehicle_type_id":"4","last_reported":1736842346,"current_range_meters":38800,"station_id":"ce4bh9p2rcd13ifvqed0","pricing_plan_id":"cebpf4jnsgd1na2vs0mg"},{"bike_id":"369f728c-acb1-40f0-8b27-9b3f4c2375af","system_id":"levelo_inurba_marseille","lat":43.26684,"lon":5.38271,"is_reserved":false,"is_disabled":false,"rental_uris":{"android":"levelo://app?vid=369f728c-acb1-40f0-8b27-9b3f4c2375af","ios":"levelo://app?vid=369f728c-acb1-40f0-8b27-9b3f4c2375af"},"vehicle_type_id":"4","last_reported":1736842346,"current_range_meters":23200,"station_id":"ce4bhg92rcd13ifvqf90","pricing_plan_id":"cebpf4jnsgd1na2vs0mg"},{"bike_id":"a6550df1-39e6-4769-8451-3127e7928530","system_id":"levelo_inurba_marseille","lat":43.30945,"lon":5.39034,"is_reserved":false,"is_disabled":false,"rental_uris":{"android":"levelo://app?vid=a6550df1-39e6-4769-8451-3127e7928530","ios":"levelo://app?vid=a6550df1-39e6-4769-8451-3127e7928530"},"vehicle_type_id":"4","last_reported":1736842346,"current_range_meters":19200,"station_id":"ce4bgup2rcd13ifvqco0","pricing_plan_id":"cebpf4jnsgd1na2vs0mg"},{"bike_id":"a43a661f-04a5-479e-b575-6ca3bae0f2eb","system_id":"levelo_inurba_marseille","lat":43.24072,"lon":5.37768,"is_reserved":false,"is_disabled":false,"rental_uris":{"android":"levelo://app?vid=a43a661f-04a5-479e-b575-6ca3bae0f2eb","ios":"levelo://app?vid=a43a661f-04a5-479e-b575-6ca3bae0f2eb"},"vehicle_type_id":"4","last_reported":1736842346,"current_range_meters":11600,"station_id":"ce4bhnp2rcd13ifvqgvg","pricing_plan_id":"cebpf4jnsgd1na2vs0mg"},{"bike_id":"317217f4-252a-4ff2-8a17-cbcec96dc79e","system_id":"levelo_inurba_marseille","lat":43.24071,"lon":5.37744,"is_reserved":false,"is_disabled":true,"rental_uris":{"android":"levelo://app?vid=317217f4-252a-4ff2-8a17-cbcec96dc79e","ios":"levelo://app?vid=317217f4-252a-4ff2-8a17-cbcec96dc79e"},"vehicle_type_id":"4","last_reported":1736842346,"current_range_meters":32400,"station_id":"ce4bhnp2rcd13ifvqgvg","pricing_plan_id":"cebpf4jnsgd1na2vs0mg"},{"bike_id":"2a2cfab8-bdd4-4f0c-9382-b3948972832d","system_id":"levelo_inurba_marseille","lat":43.33578,"lon":5.39204,"is_reserved":false,"is_disabled":false,"rental_uris":{"android":"levelo://app?vid=2a2cfab8-bdd4-4f0c-9382-b3948972832d","ios":"levelo://app?vid=2a2cfab8-bdd4-4f0c-9382-b3948972832d"},"vehicle_type_id":"4","last_reported":1736842346,"current_range_meters":25200,"station_id":"ce4bhr92rcd13ifvqhsg","pricing_plan_id":"cebpf4jnsgd1na2vs0mg"},{"bike_id":"85603f95-286b-4848-8682-ec6ae6094237","system_id":"levelo_inurba_marseille","lat":43.27057,"lon":5.40264,"is_reserved":false,"is_disabled":true,"rental_uris":{"android":"levelo://app?vid=85603f95-286b-4848-8682-ec6ae6094237","ios":"levelo://app?vid=85603f95-286b-4848-8682-ec6ae6094237"},"vehicle_type_id":"4","last_reported":1736842346,"current_range_meters":38800,"station_id":"ce4bhk92rcd13ifvqgc0","pricing_plan_id":"cebpf4jnsgd1na2vs0mg"},{"bike_id":"55178c83-e8c1-42d0-85eb-2ae9bbbd47cf","system_id":"levelo_inurba_marseille","lat":43.23193,"lon":5.35551,"is_reserved":false,"is_disabled":false,"rental_uris":{"android":"levelo://app?vid=55178c83-e8c1-42d0-85eb-2ae9bbbd47cf","ios":"levelo://app?vid=55178c83-e8c1-42d0-85eb-2ae9bbbd47cf"},"vehicle_type_id":"4","last_reported":1736842346,"current_range_meters":36400,"station_id":"ce4bhu92rcd13ifvqi70","pricing_plan_id":"cebpf4jnsgd1na2vs0mg"},{"bike_id":"69c47c65-964f-40bd-929d-41de97277039","system_id":"levelo_inurba_marseille","lat":43.33621,"lon":5.40991,"is_reserved":false,"is_disabled":true,"rental_uris":{"android":"levelo://app?vid=69c47c65-964f-40bd-929d-41de97277039","ios":"levelo://app?vid=69c47c65-964f-40bd-929d-41de97277039"},"vehicle_type_id":"4","last_reported":1736842346,"current_range_meters":400,"station_id":"ce4bhqh2rcd13ifvqhmg","pricing_plan_id":"cebpf4jnsgd1na2vs0mg"},{"bike_id":"231f1dd8-6336-4c22-9dd1-c1357dbe6eef","system_id":"levelo_inurba_marseille","lat":43.29706,"lon":5.37703,"is_reserved":false,"is_disabled":true,"rental_uris":{"android":"levelo://app?vid=231f1dd8-6336-4c22-9dd1-c1357dbe6eef","ios":"levelo://app?vid=231f1dd8-6336-4c22-9dd1-c1357dbe6eef"},"vehicle_type_id":"4","last_reported":1736842346,"current_range_meters":22400,"station_id":"ce4bgkh2rcd13ifvqbl0","pricing_plan_id":"cebpf4jnsgd1na2vs0mg"},{"bike_id":"34fbdfbb-3fce-4a0e-b0ab-cce98eace863","system_id":"levelo_inurba_marseille","lat":43.2606,"lon":5.39404,"is_reserved":false,"is_disabled":true,"rental_uris":{"android":"levelo://app?vid=34fbdfbb-3fce-4a0e-b0ab-cce98eace863","ios":"levelo://app?vid=34fbdfbb-3fce-4a0e-b0ab-cce98eace863"},"vehicle_type_id":"4","last_reported":1736842346,"current_range_meters":28400,"station_id":"ce4bhh92rcd13ifvqfj0","pricing_plan_id":"cebpf4jnsgd1na2vs0mg"},{"bike_id":"314cbafc-87cd-4b71-b9ac-738dafd7c92a","system_id":"levelo_inurba_marseille","lat":43.29043,"lon":5.37569,"is_reserved":false,"is_disabled":false,"rental_uris":{"android":"levelo://app?vid=314cbafc-87cd-4b71-b9ac-738dafd7c92a","ios":"levelo://app?vid=314cbafc-87cd-4b71-b9ac-738dafd7c92a"},"vehicle_type_id":"4","last_reported":1736842346,"current_range_meters":28400,"station_id":"ce4bh692rcd13ifvqe90","pricing_plan_id":"cebpf4jnsgd1na2vs0mg"},{"bike_id":"7326cbd7-b6b4-4933-ad30-b3aa57d05c93","system_id":"levelo_inurba_marseille","lat":43.23155,"lon":5.43709,"is_reserved":false,"is_disabled":false,"rental_uris":{"android":"levelo://app?vid=7326cbd7-b6b4-4933-ad30-b3aa57d05c93","ios":"levelo://app?vid=7326cbd7-b6b4-4933-ad30-b3aa57d05c93"},"vehicle_type_id":"4","last_reported":1736842346,"current_range_meters":18800,"station_id":"ce4bhmp2rcd13ifvqgog","pricing_plan_id":"cebpf4jnsgd1na2vs0mg"},{"bike_id":"87339157-d961-4cf9-9dd5-00fb3246061f","system_id":"levelo_inurba_marseille","lat":43.25922,"lon":5.40899,"is_reserved":false,"is_disabled":false,"rental_uris":{"android":"levelo://app?vid=87339157-d961-4cf9-9dd5-00fb3246061f","ios":"levelo://app?vid=87339157-d961-4cf9-9dd5-00fb3246061f"},"vehicle_type_id":"4","last_reported":1736842346,"current_range_meters":28400,"station_id":"ce4bhm92rcd13ifvqglg","pricing_plan_id":"cebpf4jnsgd1na2vs0mg"},{"bike_id":"1dc64d76-fff0-460c-af84-eaea7614f529","system_id":"levelo_inurba_marseille","lat":43.26935,"lon":5.40259,"is_reserved":false,"is_disabled":true,"rental_uris":{"android":"levelo://app?vid=1dc64d76-fff0-460c-af84-eaea7614f529","ios":"levelo://app?vid=1dc64d76-fff0-460c-af84-eaea7614f529"},"vehicle_type_id":"4","last_reported":1736842346,"current_range_meters":38400,"station_id":"cjm6bp8fraef2m0cb0m0","pricing_plan_id":"cebpf4jnsgd1na2vs0mg"},{"bike_id":"eb317062-0a7c-40d4-8c67-9f7bd12e4769","system_id":"levelo_inurba_marseille","lat":43.25866,"lon":5.39898,"is_reserved":false,"is_disabled":false,"rental_uris":{"android":"levelo://app?vid=eb317062-0a7c-40d4-8c67-9f7bd12e4769","ios":"levelo://app?vid=eb317062-0a7c-40d4-8c67-9f7bd12e4769"},"vehicle_type_id":"4","last_reported":1736842346,"current_range_meters":39200,"station_id":"ce4bhl92rcd13ifvqghg","pricing_plan_id":"cebpf4jnsgd1na2vs0mg"},{"bike_id":"df28f796-5a0c-416c-8088-630e87a8cc6b","system_id":"levelo_inurba_marseille","lat":43.30312,"lon":5.36891,"is_reserved":false,"is_disabled":false,"rental_uris":{"android":"levelo://app?vid=df28f796-5a0c-416c-8088-630e87a8cc6b","ios":"levelo://app?vid=df28f796-5a0c-416c-8088-630e87a8cc6b"},"vehicle_type_id":"4","last_reported":1736842346,"current_range_meters":3200,"station_id":"ce4bgqh2rcd13ifvqc5g","pricing_plan_id":"cebpf4jnsgd1na2vs0mg"},{"bike_id":"c0fd2063-31ae-4171-af17-771dbb4fa212","system_id":"levelo_inurba_marseille","lat":43.22927,"lon":5.35385,"is_reserved":false,"is_disabled":false,"rental_uris":{"android":"levelo://app?vid=c0fd2063-31ae-4171-af17-771dbb4fa212","ios":"levelo://app?vid=c0fd2063-31ae-4171-af17-771dbb4fa212"},"vehicle_type_id":"4","last_reported":1736842346,"current_range_meters":37600,"station_id":"cpo3532slgdg3j2ikp40","pricing_plan_id":"cebpf4jnsgd1na2vs0mg"},{"bike_id":"ad1d59f0-a710-4f28-8a33-72f0b4ee5973","system_id":"levelo_inurba_marseille","lat":43.31374,"lon":5.36654,"is_reserved":false,"is_disabled":false,"rental_uris":{"android":"levelo://app?vid=ad1d59f0-a710-4f28-8a33-72f0b4ee5973","ios":"levelo://app?vid=ad1d59f0-a710-4f28-8a33-72f0b4ee5973"},"vehicle_type_id":"4","last_reported":1736842346,"current_range_meters":11600,"station_id":"","pricing_plan_id":"cebpf4jnsgd1na2vs0mg"},{"bike_id":"f196a6c1-5828-4489-87fc-d1e4182a9236","system_id":"levelo_inurba_marseille","lat":43.29599,"lon":5.3674,"is_reserved":false,"is_disabled":true,"rental_uris":{"android":"levelo://app?vid=f196a6c1-5828-4489-87fc-d1e4182a9236","ios":"levelo://app?vid=f196a6c1-5828-4489-87fc-d1e4182a9236"},"vehicle_type_id":"4","last_reported":1736842346,"current_range_meters":39200,"station_id":"ce4bgph2rcd13ifvqc2g","pricing_plan_id":"cebpf4jnsgd1na2vs0mg"},{"bike_id":"b7a9a420-00a3-4d99-a8aa-4068befb8c88","system_id":"levelo_inurba_marseille","lat":43.29573,"lon":5.37521,"is_reserved":false,"is_disabled":false,"rental_uris":{"android":"levelo://app?vid=b7a9a420-00a3-4d99-a8aa-4068befb8c88","ios":"levelo://app?vid=b7a9a420-00a3-4d99-a8aa-4068befb8c88"},"vehicle_type_id":"4","last_reported":1736842346,"current_range_meters":30000,"station_id":"ce4bgh92rcd13ifvqb50","pricing_plan_id":"cebpf4jnsgd1na2vs0mg"},{"bike_id":"6c4320ef-ee73-4a4c-8038-dee291c4d56b","system_id":"levelo_inurba_marseille","lat":43.31006,"lon":5.37918,"is_reserved":false,"is_disabled":false,"rental_uris":{"android":"levelo://app?vid=6c4320ef-ee73-4a4c-8038-dee291c4d56b","ios":"levelo://app?vid=6c4320ef-ee73-4a4c-8038-dee291c4d56b"},"vehicle_type_id":"4","last_reported":1736842346,"current_range_meters":18800,"station_id":"","pricing_plan_id":"cebpf4jnsgd1na2vs0mg"},{"bike_id":"b9d7d6b1-ee39-4fc9-9215-de5b669eed86","system_id":"levelo_inurba_marseille","lat":43.29847,"lon":5.36283,"is_reserved":false,"is_disabled":false,"rental_uris":{"android":"levelo://app?vid=b9d7d6b1-ee39-4fc9-9215-de5b669eed86","ios":"levelo://app?vid=b9d7d6b1-ee39-4fc9-9215-de5b669eed86"},"vehicle_type_id":"4","last_reported":1736842346,"current_range_meters":38800,"station_id":"ce4bgpp2rcd13ifvqc3g","pricing_plan_id":"cebpf4jnsgd1na2vs0mg"},{"bike_id":"8e1700e2-2825-47f3-9373-6fc227095b7d","system_id":"levelo_inurba_marseille","lat":43.24161,"lon":5.3639,"is_reserved":false,"is_disabled":false,"rental_uris":{"android":"levelo://app?vid=8e1700e2-2825-47f3-9373-6fc227095b7d","ios":"levelo://app?vid=8e1700e2-2825-47f3-9373-6fc227095b7d"},"vehicle_type_id":"4","last_reported":1736842346,"current_range_meters":13600,"station_id":"cpo36qri1sfpv3e86is0","pricing_plan_id":"cebpf4jnsgd1na2vs0mg"},{"bike_id":"748c449d-4658-4a55-8f45-775113e62416","system_id":"levelo_inurba_marseille","lat":43.27709,"lon":5.38915,"is_reserved":false,"is_disabled":false,"rental_uris":{"android":"levelo://app?vid=748c449d-4658-4a55-8f45-775113e62416","ios":"levelo://app?vid=748c449d-4658-4a55-8f45-775113e62416"},"vehicle_type_id":"4","last_reported":1736842346,"current_range_meters":38800,"station_id":"ce4bhi12rcd13ifvqfo0","pricing_plan_id":"cebpf4jnsgd1na2vs0mg"},{"bike_id":"b31c05a9-6487-4217-80a6-25821a78c060","system_id":"levelo_inurba_marseille","lat":43.23164,"lon":5.35604,"is_reserved":false,"is_disabled":false,"rental_uris":{"android":"levelo://app?vid=b31c05a9-6487-4217-80a6-25821a78c060","ios":"levelo://app?vid=b31c05a9-6487-4217-80a6-25821a78c060"},"vehicle_type_id":"4","last_reported":1736842346,"current_range_meters":30800,"station_id":"ce4bhu92rcd13ifvqi70","pricing_plan_id":"cebpf4jnsgd1na2vs0mg"},{"bike_id":"4a4d296c-e71a-4d73-8515-0b49a9079d8d","system_id":"levelo_inurba_marseille","lat":43.23181,"lon":5.39971,"is_reserved":false,"is_disabled":false,"rental_uris":{"android":"levelo://app?vid=4a4d296c-e71a-4d73-8515-0b49a9079d8d","ios":"levelo://app?vid=4a4d296c-e71a-4d73-8515-0b49a9079d8d"},"vehicle_type_id":"4","last_reported":1736842346,"current_range_meters":30000,"station_id":"ce4bhn12rcd13ifvqgqg","pricing_plan_id":"cebpf4jnsgd1na2vs0mg"},{"bike_id":"e6b34210-7978-4137-b534-a3b03a983e63","system_id":"levelo_inurba_marseille","lat":43.29517,"lon":5.37501,"is_reserved":false,"is_disabled":true,"rental_uris":{"android":"levelo://app?vid=e6b34210-7978-4137-b534-a3b03a983e63","ios":"levelo://app?vid=e6b34210-7978-4137-b534-a3b03a983e63"},"vehicle_type_id":"4","last_reported":1736842346,"current_range_meters":33600,"station_id":"ce4bgkp2rcd13ifvqbmg","pricing_plan_id":"cebpf4jnsgd1na2vs0mg"},{"bike_id":"ff93661d-1238-4d5c-981e-903c6af12983","system_id":"levelo_inurba_marseille","lat":43.2934,"lon":5.37691,"is_reserved":false,"is_disabled":false,"rental_uris":{"android":"levelo://app?vid=ff93661d-1238-4d5c-981e-903c6af12983","ios":"levelo://app?vid=ff93661d-1238-4d5c-981e-903c6af12983"},"vehicle_type_id":"4","last_reported":1736842346,"current_range_meters":20400,"station_id":"ce4bgn92rcd13ifvqbvg","pricing_plan_id":"cebpf4jnsgd1na2vs0mg"},{"bike_id":"12a77688-55d2-40a5-9210-63376f169f15","system_id":"levelo_inurba_marseille","lat":43.24977,"lon":5.38941,"is_reserved":false,"is_disabled":false,"rental_uris":{"android":"levelo://app?vid=12a77688-55d2-40a5-9210-63376f169f15","ios":"levelo://app?vid=12a77688-55d2-40a5-9210-63376f169f15"},"vehicle_type_id":"4","last_reported":1736842346,"current_range_meters":17600,"station_id":"ce4bhgp2rcd13ifvqfd0","pricing_plan_id":"cebpf4jnsgd1na2vs0mg"},{"bike_id":"1e5e4d7d-24bb-463e-8bfb-6c57d58916a3","system_id":"levelo_inurba_marseille","lat":43.32661,"lon":5.40992,"is_reserved":false,"is_disabled":false,"rental_uris":{"android":"levelo://app?vid=1e5e4d7d-24bb-463e-8bfb-6c57d58916a3","ios":"levelo://app?vid=1e5e4d7d-24bb-463e-8bfb-6c57d58916a3"},"vehicle_type_id":"4","last_reported":1736842346,"current_range_meters":31200,"station_id":"ce4bhpp2rcd13ifvqhgg","pricing_plan_id":"cebpf4jnsgd1na2vs0mg"},{"bike_id":"044c7368-d383-4001-921a-b790fb7e704f","system_id":"levelo_inurba_marseille","lat":43.31711,"lon":5.37791,"is_reserved":false,"is_disabled":false,"rental_uris":{"android":"levelo://app?vid=044c7368-d383-4001-921a-b790fb7e704f","ios":"levelo://app?vid=044c7368-d383-4001-921a-b790fb7e704f"},"vehicle_type_id":"4","last_reported":1736842346,"current_range_meters":38800,"station_id":"ce4bgth2rcd13ifvqch0","pricing_plan_id":"cebpf4jnsgd1na2vs0mg"},{"bike_id":"7f6b3803-3314-4891-84bf-e061fb79df27","system_id":"levelo_inurba_marseille","lat":43.32457,"lon":5.41376,"is_reserved":false,"is_disabled":true,"rental_uris":{"android":"levelo://app?vid=7f6b3803-3314-4891-84bf-e061fb79df27","ios":"levelo://app?vid=7f6b3803-3314-4891-84bf-e061fb79df27"},"vehicle_type_id":"4","last_reported":1736842346,"current_range_meters":24400,"station_id":"ce4bhq12rcd13ifvqhhg","pricing_plan_id":"cebpf4jnsgd1na2vs0mg"},{"bike_id":"4725ae05-b600-47b7-ba70-7352c8181ea5","system_id":"levelo_inurba_marseille","lat":43.2744,"lon":5.38992,"is_reserved":false,"is_disabled":true,"rental_uris":{"android":"levelo://app?vid=4725ae05-b600-47b7-ba70-7352c8181ea5","ios":"levelo://app?vid=4725ae05-b600-47b7-ba70-7352c8181ea5"},"vehicle_type_id":"4","last_reported":1736842346,"current_range_meters":0,"station_id":"","pricing_plan_id":"cebpf4jnsgd1na2vs0mg"},{"bike_id":"215cae93-9e75-45ee-9016-a2bd3889cbe2","system_id":"levelo_inurba_marseille","lat":43.32537,"lon":5.41463,"is_reserved":false,"is_disabled":false,"rental_uris":{"android":"levelo://app?vid=215cae93-9e75-45ee-9016-a2bd3889cbe2","ios":"levelo://app?vid=215cae93-9e75-45ee-9016-a2bd3889cbe2"},"vehicle_type_id":"4","last_reported":1736842346,"current_range_meters":38800,"station_id":"ce4bhq12rcd13ifvqhhg","pricing_plan_id":"cebpf4jnsgd1na2vs0mg"},{"bike_id":"c4cde0fb-c675-4e24-b173-87fc44dcdf1d","system_id":"levelo_inurba_marseille","lat":43.31349,"lon":5.3671,"is_reserved":false,"is_disabled":false,"rental_uris":{"android":"levelo://app?vid=c4cde0fb-c675-4e24-b173-87fc44dcdf1d","ios":"levelo://app?vid=c4cde0fb-c675-4e24-b173-87fc44dcdf1d"},