{"last_updated":1741691264,"ttl":60,"version":"2.2","data":{"bikes":[{"bike_id":"3fc702ed-329f-4307-b932-fa074e478481","system_id":"levelo_inurba_marseille","lat":43.32482,"lon":5.36567,"is_reserved":false,"is_disabled":false,"rental_uris":{"android":"levelo://app?vid=3fc702ed-329f-4307-b932-fa074e478481","ios":"levelo://app?vid=3fc702ed-329f-4307-b932-fa074e478481"},"vehicle_type_id":"4","last_reported":1741691264,"current_range_meters":2800,"station_id":"ce4bhs12rcd13ifvqhvg","pricing_plan_id":"cebpf4jnsgd1na2vs0mg"},{"bike_id":"85858945-288d-4d7b-aac5-8cf9d060c580","system_id":"levelo_inurba_marseille","lat":43.32361,"lon":5.36755,"is_reserved":false,"is_disabled":false,"rental_uris":{"android":"levelo://app?vid=85858945-288d-4d7b-aac5-8cf9d060c580","ios":"levelo://app?vid=85858945-288d-4d7b-aac5-8cf9d060c580"},"vehicle_type_id":"4","last_reported":1741691264,"current_range_meters":2800,"station_id":"ce4bhsh2rcd13ifvqi2g","pricing_plan_id":"cebpf4jnsgd1na2vs0mg"},{"bike_id":"a6ebfcce-436e-4037-80d2-0889dcd41833","system_id":"levelo_inurba_marseille","lat":43.28853,"lon":5.39316,"is_reserved":false,"is_disabled":true,"rental_uris":{"android":"levelo://app?vid=a6ebfcce-436e-4037-80d2-0889dcd41833","ios":"levelo://app?vid=a6ebfcce-436e-4037-80d2-0889dcd41833"},"vehicle_type_id":"4","last_reported":1741691264,"current_range_meters":3200,"station_id":"ce4bh2p2rcd13ifvqdi0","pricing_plan_id":"cebpf4jnsgd1na2vs0mg"},{"bike_id":"57bb9620-7e1d-4375-9183-8aca42377c8c","system_id":"levelo_inurba_marseille","lat":43.30472,"lon":5.38203,"is_reserved":false,"is_disabled":false,"rental_uris":{"android":"levelo://app?vid=57bb9620-7e1d-4375-9183-8aca42377c8c","ios":"levelo://app?vid=57bb9620-7e1d-4375-9183-8aca42377c8c"},"vehicle_type_id":"4","last_reported":1741691264,"current_range_meters":3200,"station_id":"","pricing_plan_id":"cebpf4jnsgd1na2vs0mg"},{"bike_id":"9eed3181-a1d1-4683-a88f-0c9a53fb55e7","system_id":"levelo_inurba_marseille","lat":43.29416,"lon":5.38631,"is_reserved":false,"is_disabled":false,"rental_uris":{"android":"levelo://app?vid=9eed3181-a1d1-4683-a88f-0c9a53fb55e7","ios":"levelo://app?vid=9eed3181-a1d1-4683-a88f-0c9a53fb55e7"},"vehicle_type_id":"4","last_reported":1741691264,"current_range_meters":3600,"station_id":"ce4bh2h2rcd13ifvqdh0","pricing_plan_id":"cebpf4jnsgd1na2vs0mg"},{"bike_id":"f26f7df1-2553-4216-8e34-41fd66da3faf","system_id":"levelo_inurba_marseille","lat":43.3134,"lon":5.36696,"is_reserved":false,"is_disabled":false,"rental_uris":{"android":"levelo://app?vid=f26f7df1-2553-4216-8e34-41fd66da3faf","ios":"levelo://app?vid=f26f7df1-2553-4216-8e34-41fd66da3faf"},"vehicle_type_id":"4","last_reported":1741691264,"current_range_meters":3600,"station_id":"ce4bgr92rcd13ifvqc6g","pricing_plan_id":"cebpf4jnsgd1na2vs0mg"},{"bike_id":"03d6dbf2-c6f3-41b8-aeda-0f5f06502b13","system_id":"levelo_inurba_marseille","lat":43.29772,"lon":5.3934,"is_reserved":false,"is_disabled":false,"rental_uris":{"android":"levelo://app?vid=03d6dbf2-c6f3-41b8-aeda-0f5f06502b13","ios":"levelo://app?vid=03d6dbf2-c6f3-41b8-aeda-0f5f06502b13"},"vehicle_type_id":"4","last_reported":1741691264,"current_range_meters":4000,"station_id":"chh1huq6cuj3fo74tm60","pricing_plan_id":"cebpf4jnsgd1na2vs0mg"},{"bike_id":"06602cd9-19e8-4133-a020-4c175a2b377d","system_id":"levelo_inurba_marseille","lat":43.31358,"lon":5.36698,"is_reserved":false,"is_disabled":false,"rental_uris":{"android":"levelo://app?vid=06602cd9-19e8-4133-a020-4c175a2b377d","ios":"levelo://app?vid=06602cd9-19e8-4133-a020-4c175a2b377d"},"vehicle_type_id":"4","last_reported":1741691264,"current_range_meters":4000,"station_id":"ce4bgr92rcd13ifvqc6g","pricing_plan_id":"cebpf4jnsgd1na2vs0mg"},{"bike_id":"1cb978eb-1202-40a8-a7b4-3fa918ec06bc","system_id":"levelo_inurba_marseille","lat":43.29779,"lon":5.39338,"is_reserved":false,"is_disabled":false,"rental_uris":{"android":"levelo://app?vid=1cb978eb-1202-40a8-a7b4-3fa918ec06bc","ios":"levelo://app?vid=1cb978eb-1202-40a8-a7b4-3fa918ec06bc"},"vehicle_type_id":"4","last_reported":1741691264,"current_range_meters":3600,"station_id":"chh1huq6cuj3fo74tm60","pricing_plan_id":"cebpf4jnsgd1na2vs0mg"},{"bike_id":"b104001a-10f7-4c93-b613-2b76cb885027","system_id":"levelo_inurba_marseille","lat":43.31144,"lon":5.37094,"is_reserved":false,"is_disabled":false,"rental_uris":{"android":"levelo://app?vid=b104001a-10f7-4c93-b613-2b76cb885027","ios":"levelo://app?vid=b104001a-10f7-4c93-b613-2b76cb885027"},"vehicle_type_id":"4","last_reported":1741691264,"current_range_meters":4000,"station_id":"","pricing_plan_id":"cebpf4jnsgd1na2vs0mg"},{"bike_id":"b721eb50-abed-42ba-86f7-ef91b0c0cfd7","system_id":"levelo_inurba_marseille","lat":43.24388,"lon":5.37056,"is_reserved":false,"is_disabled":false,"rental_uris":{"android":"levelo://app?vid=b721eb50-abed-42ba-86f7-ef91b0c0cfd7","ios":"levelo://app?vid=b721eb50-abed-42ba-86f7-ef91b0c0cfd7"},"vehicle_type_id":"4","last_reported":1741691264,"current_range_meters":4000,"station_id":"ce4bhhh2rcd13ifvqfk0","pricing_plan_id":"cebpf4jnsgd1na2vs0mg"},{"bike_id":"612efb80-9041-40f1-b4c6-010e4d86d8ef","system_id":"levelo_inurba_marseille","lat":43.32552,"lon":5.41439,"is_reserved":false,"is_disabled":false,"rental_uris":{"android":"levelo://app?vid=612efb80-9041-40f1-b4c6-010e4d86d8ef","ios":"levelo://app?vid=612efb80-9041-40f1-b4c6-010e4d86d8ef"},"vehicle_type_id":"4","last_reported":1741691264,"current_range_meters":4400,"station_id":"ce4bhq12rcd13ifvqhhg","pricing_plan_id":"cebpf4jnsgd1na2vs0mg"},{"bike_id":"0e74fd1f-eaa3-4d4e-8241-d5fba15781cb","system_id":"levelo_inurba_marseille","lat":43.30571,"lon":5.36529,"is_reserved":false,"is_disabled":false,"rental_uris":{"android":"levelo://app?vid=0e74fd1f-eaa3-4d4e-8241-d5fba15781cb","ios":"levelo://app?vid=0e74fd1f-eaa3-4d4e-8241-d5fba15781cb"},"vehicle_type_id":"4","last_reported":1741691264,"current_range_meters":4400,"station_id":"ce4bgs12rcd13ifvqcag","pricing_plan_id":"cebpf4jnsgd1na2vs0mg"},{"bike_id":"04ec183c-91b8-462d-a27e-3a575fa79c37","system_id":"levelo_inurba_marseille","lat":43.26567,"lon":5.39005,"is_reserved":false,"is_disabled":false,"rental_uris":{"android":"levelo://app?vid=04ec183c-91b8-462d-a27e-3a575fa79c37","ios":"levelo://app?vid=04ec183c-91b8-462d-a27e-3a575fa79c37"},"vehicle_type_id":"4","last_reported":1741691264,"current_range_meters":4400,"station_id":"ce4bhe12rcd13ifvqf30","pricing_plan_id":"cebpf4jnsgd1na2vs0mg"},{"bike_id":"53e3f744-f0fe-4c52-9c20-b4ad94adab1b","system_id":"levelo_inurba_marseille","lat":43.26207,"lon":5.3744,"is_reserved":false,"is_disabled":false,"rental_uris":{"android":"levelo://app?vid=53e3f744-f0fe-4c52-9c20-b4ad94adab1b","ios":"levelo://app?vid=53e3f744-f0fe-4c52-9c20-b4ad94adab1b"},"vehicle_type_id":"4","last_reported":1741691264,"current_range_meters":4800,"station_id":"ce4bhgp2rcd13ifvqfc0","pricing_plan_id":"cebpf4jnsgd1na2vs0mg"},{"bike_id":"2fbb2f0e-b64e-445e-a2b3-ee5227dc63e4","system_id":"levelo_inurba_marseille","lat":43.269307,"lon":5.367072,"is_reserved":false,"is_disabled":false,"rental_uris":{"android":"levelo://app?vid=2fbb2f0e-b64e-445e-a2b3-ee5227dc63e4","ios":"levelo://app?vid=2fbb2f0e-b64e-445e-a2b3-ee5227dc63e4"},"vehicle_type_id":"4","last_reported":1741691264,"current_range_meters":4800,"station_id":"","pricing_plan_id":"cebpf4jnsgd1na2vs0mg"},{"bike_id":"7f08542c-3622-4bee-8852-d0974c0ec085","system_id":"levelo_inurba_marseille","lat":43.24184,"lon":5.36319,"is_reserved":false,"is_disabled":false,"rental_uris":{"android":"levelo://app?vid=7f08542c-3622-4bee-8852-d0974c0ec085","ios":"levelo://app?vid=7f08542c-3622-4bee-8852-d0974c0ec085"},"vehicle_type_id":"4","last_reported":1741691264,"current_range_meters":4800,"station_id":"","pricing_plan_id":"cebpf4jnsgd1na2vs0mg"},{"bike_id":"019756c2-cc6b-4663-be6f-4797bac229d1","system_id":"levelo_inurba_marseille","lat":43.304,"lon":5.3932,"is_reserved":false,"is_disabled":false,"rental_uris":{"android":"levelo://app?vid=019756c2-cc6b-4663-be6f-4797bac229d1","ios":"levelo://app?vid=019756c2-cc6b-4663-be6f-4797bac229d1"},"vehicle_type_id":"4","last_reported":1741691264,"current_range_meters":4800,"station_id":"chh1huq6cuj3fo74tm60","pricing_plan_id":"cebpf4jnsgd1na2vs0mg"},{"bike_id":"b5fb951e-075b-4ccd-90c9-aec120361862","system_id":"levelo_inurba_marseille","lat":43.26539,"lon":5.39018,"is_reserved":false,"is_disabled":false,"rental_uris":{"android":"levelo://app?vid=b5fb951e-075b-4ccd-90c9-aec120361862","ios":"levelo://app?vid=b5fb951e-075b-4ccd-90c9-aec120361862"},"vehicle_type_id":"4","last_reported":1741691264,"current_range_meters":4800,"station_id":"ce4bhe12rcd13ifvqf30","pricing_plan_id":"cebpf4jnsgd1na2vs0mg"},{"bike_id":"5d44eec5-0f76-4d9d-87c9-f425c19e364b","system_id":"levelo_inurba_marseille","lat":43.25094,"lon":5.39512,"is_reserved":false,"is_disabled":false,"rental_uris":{"android":"levelo://app?vid=5d44eec5-0f76-4d9d-87c9-f425c19e364b","ios":"levelo://app?vid=5d44eec5-0f76-4d9d-87c9-f425c19e364b"},"vehicle_type_id":"4","last_reported":1741691264,"current_range_meters":4800,"station_id":"ce4bhm12rcd13ifvqgkg","pricing_plan_id":"cebpf4jnsgd1na2vs0mg"},{"bike_id":"870d3d8b-da06-4143-967c-3128da579363","system_id":"levelo_inurba_marseille","lat":43.25872,"lon":5.39894,"is_reserved":false,"is_disabled":false,"rental_uris":{"android":"levelo://app?vid=870d3d8b-da06-4143-967c-3128da579363","ios":"levelo://app?vid=870d3d8b-da06-4143-967c-3128da579363"},"vehicle_type_id":"4","last_reported":1741691264,"current_range_meters":5600,"station_id":"ce4bhl92rcd13ifvqghg","pricing_plan_id":"cebpf4jnsgd1na2vs0mg"},{"bike_id":"ce4d618d-a090-462a-af94-5e66f4cc9c62","system_id":"levelo_inurba_marseille","lat":43.27492,"lon":5.42471,"is_reserved":false,"is_disabled":false,"rental_uris":{"android":"levelo://app?vid=ce4d618d-a090-462a-af94-5e66f4cc9c62","ios":"levelo://app?vid=ce4d618d-a090-462a-af94-5e66f4cc9c62"},"vehicle_type_id":"4","last_reported":1741691264,"current_range_meters":5600,"station_id":"ce4bhn92rcd13ifvqgrg","pricing_plan_id":"cebpf4jnsgd1na2vs0mg"},{"bike_id":"cff4445f-6b70-4c92-a3aa-728d1723639c","system_id":"levelo_inurba_marseille","lat":43.25105,"lon":5.39525,"is_reserved":false,"is_disabled":false,"rental_uris":{"android":"levelo://app?vid=cff4445f-6b70-4c92-a3aa-728d1723639c","ios":"levelo://app?vid=cff4445f-6b70-4c92-a3aa-728d1723639c"},"vehicle_type_id":"4","last_reported":1741691264,"current_range_meters":6000,"station_id":"ce4bhm12rcd13ifvqgkg","pricing_plan_id":"cebpf4jnsgd1na2vs0mg"},{"bike_id":"f1459b28-1738-42f1-b12a-1bb0ad48378e","system_id":"levelo_inurba_marseille","lat":43.24654,"lon":5.3813,"is_reserved":false,"is_disabled":false,"rental_uris":{"android":"levelo://app?vid=f1459b28-1738-42f1-b12a-1bb0ad48378e","ios":"levelo://app?vid=f1459b28-1738-42f1-b12a-1bb0ad48378e"},"vehicle_type_id":"4","last_reported":1741691264,"current_range_meters":6000,"station_id":"ce4bhih2rcd13ifvqfr0","pricing_plan_id":"cebpf4jnsgd1na2vs0mg"},{"bike_id":"db7b4edc-0eb2-4d6c-a049-e1c31062207f","system_id":"levelo_inurba_marseille","lat":43.2922,"lon":5.36078,"is_reserved":false,"is_disabled":false,"rental_uris":{"android":"levelo://app?vid=db7b4edc-0eb2-4d6c-a049-e1c31062207f","ios":"levelo://app?vid=db7b4edc-0eb2-4d6c-a049-e1c31062207f"},"vehicle_type_id":"4","last_reported":1741691264,"current_range_meters":6000,"station_id":"ce4bhbh2rcd13ifvqeqg","pricing_plan_id":"cebpf4jnsgd1na2vs0mg"},{"bike_id":"8491cda4-d252-4bdf-b67e-48c1786b57b0","system_id":"levelo_inurba_marseille","lat":43.2315,"lon":5.43716,"is_reserved":false,"is_disabled":false,"rental_uris":{"android":"levelo://app?vid=8491cda4-d252-4bdf-b67e-48c1786b57b0","ios":"levelo://app?vid=8491cda4-d252-4bdf-b67e-48c1786b57b0"},"vehicle_type_id":"4","last_reported":1741691264,"current_range_meters":6000,"station_id":"ce4bhmp2rcd13ifvqgog","pricing_plan_id":"cebpf4jnsgd1na2vs0mg"},{"bike_id":"1f72adc6-3d1a-4fad-a905-cb9dcd596e26","system_id":"levelo_inurba_marseille","lat":43.23839,"lon":5.43566,"is_reserved":false,"is_disabled":false,"rental_uris":{"android":"levelo://app?vid=1f72adc6-3d1a-4fad-a905-cb9dcd596e26","ios":"levelo://app?vid=1f72adc6-3d1a-4fad-a905-cb9dcd596e26"},"vehicle_type_id":"4","last_reported":1741691264,"current_range_meters":6000,"station_id":"","pricing_plan_id":"cebpf4jnsgd1na2vs0mg"},{"bike_id":"87ddaf85-1fbb-46e2-9b87-9664a6062f9a","system_id":"levelo_inurba_marseille","lat":43.2655,"lon":5.37288,"is_reserved":false,"is_disabled":false,"rental_uris":{"android":"levelo://app?vid=87ddaf85-1fbb-46e2-9b87-9664a6062f9a","ios":"levelo://app?vid=87ddaf85-1fbb-46e2-9b87-9664a6062f9a"},"vehicle_type_id":"4","last_reported":1741691264,"current_range_meters":6400,"station_id":"ce4bhg12rcd13ifvqf70","pricing_plan_id":"cebpf4jnsgd1na2vs0mg"},{"bike_id":"240b31d1-b7e9-47d6-84e5-30b2c8ae593f","system_id":"levelo_inurba_marseille","lat":43.27175,"lon":5.40986,"is_reserved":false,"is_disabled":false,"rental_uris":{"android":"levelo://app?vid=240b31d1-b7e9-47d6-84e5-30b2c8ae593f","ios":"levelo://app?vid=240b31d1-b7e9-47d6-84e5-30b2c8ae593f"},"vehicle_type_id":"4","last_reported":1741691264,"current_range_meters":6400,"station_id":"ce4bhl12rcd13ifvqgf0","pricing_plan_id":"cebpf4jnsgd1na2vs0mg"},{"bike_id":"27ec60e3-b2e3-435c-ba4c-8372ab285bb1","system_id":"levelo_inurba_marseille","lat":43.281527,"lon":5.426479,"is_reserved":false,"is_disabled":false,"rental_uris":{"android":"levelo://app?vid=27ec60e3-b2e3-435c-ba4c-8372ab285bb1","ios":"levelo://app?vid=27ec60e3-b2e3-435c-ba4c-8372ab285bb1"},"vehicle_type_id":"4","last_reported":1741691264,"current_range_meters":6400,"station_id":"ce4bhnh2rcd13ifvqgug","pricing_plan_id":"cebpf4jnsgd1na2vs0mg"},{"bike_id":"4db736b9-68d3-4f2a-9431-002ce7a44183","system_id":"levelo_inurba_marseille","lat":43.23156,"lon":5.43719,"is_reserved":false,"is_disabled":false,"rental_uris":{"android":"levelo://app?vid=4db736b9-68d3-4f2a-9431-002ce7a44183","ios":"levelo://app?vid=4db736b9-68d3-4f2a-9431-002ce7a44183"},"vehicle_type_id":"4","last_reported":1741691264,"current_range_meters":6400,"station_id":"ce4bhmp2rcd13ifvqgog","pricing_plan_id":"cebpf4jnsgd1na2vs0mg"},{"bike_id":"edb857b4-1bfb-4342-b5b8-95cfecfaa77c","system_id":"levelo_inurba_marseille","lat":43.25003,"lon":5.38918,"is_reserved":false,"is_disabled":false,"rental_uris":{"android":"levelo://app?vid=edb857b4-1bfb-4342-b5b8-95cfecfaa77c","ios":"levelo://app?vid=edb857b4-1bfb-4342-b5b8-95cfecfaa77c"},"vehicle_type_id":"4","last_reported":1741691264,"current_range_meters":6800,"station_id":"ce4bhgp2rcd13ifvqfd0","pricing_plan_id":"cebpf4jnsgd1na2vs0mg"},{"bike_id":"58e479a9-c3a4-4826-ad96-179cb000b7c3","system_id":"levelo_inurba_marseille","lat":43.313582,"lon":5.367222,"is_reserved":false,"is_disabled":false,"rental_uris":{"android":"levelo://app?vid=58e479a9-c3a4-4826-ad96-179cb000b7c3","ios":"levelo://app?vid=58e479a9-c3a4-4826-ad96-179cb000b7c3"},"vehicle_type_id":"4","last_reported":1741691264,"current_range_meters":6800,"station_id":"ce4bgr92rcd13ifvqc6g","pricing_plan_id":"cebpf4jnsgd1na2vs0mg"},{"bike_id":"d8eea2f0-e64c-4a9c-99df-51826acd0edd","system_id":"levelo_inurba_marseille","lat":43.29864,"lon":5.39746,"is_reserved":false,"is_disabled":false,"rental_uris":{"android":"levelo://app?vid=d8eea2f0-e64c-4a9c-99df-51826acd0edd","ios":"levelo://app?vid=d8eea2f0-e64c-4a9c-99df-51826acd0edd"},"vehicle_type_id":"4","last_reported":1741691264,"current_range_meters":6800,"station_id":"ce4bh3h2rcd13ifvqdo0","pricing_plan_id":"cebpf4jnsgd1na2vs0mg"},{"bike_id":"af7cad9e-fa8d-48b7-9985-2a246121bd34","system_id":"levelo_inurba_marseille","lat":43.28621,"lon":5.35101,"is_reserved":false,"is_disabled":false,"rental_uris":{"android":"levelo://app?vid=af7cad9e-fa8d-48b7-9985-2a246121bd34","ios":"levelo://app?vid=af7cad9e-fa8d-48b7-9985-2a246121bd34"},"vehicle_type_id":"4","last_reported":1741691264,"current_range_meters":6800,"station_id":"ce4bhch2rcd13ifvqeug","pricing_plan_id":"cebpf4jnsgd1na2vs0mg"},{"bike_id":"eda074eb-77af-4e4c-901c-478d03102cf3","system_id":"levelo_inurba_marseille","lat":43.33568,"lon":5.40994,"is_reserved":false,"is_disabled":false,"rental_uris":{"android":"levelo://app?vid=eda074eb-77af-4e4c-901c-478d03102cf3","ios":"levelo://app?vid=eda074eb-77af-4e4c-901c-478d03102cf3"},"vehicle_type_id":"4","last_reported":1741691264,"current_range_meters":6800,"station_id":"","pricing_plan_id":"cebpf4jnsgd1na2vs0mg"},{"bike_id":"d33cf472-6174-4eb8-ace8-45d6f80fbec5","system_id":"levelo_inurba_marseille","lat":43.29552,"lon":5.42283,"is_reserved":false,"is_disabled":false,"rental_uris":{"android":"levelo://app?vid=d33cf472-6174-4eb8-ace8-45d6f80fbec5","ios":"levelo://app?vid=d33cf472-6174-4eb8-ace8-45d6f80fbec5"},"vehicle_type_id":"4","last_reported":1741691264,"current_range_meters":6800,"station_id":"ce4bhph2rcd13ifvqhdg","pricing_plan_id":"cebpf4jnsgd1na2vs0mg"},{"bike_id":"42b8606a-5a39-4c18-ab8e-ae2998dcaace","system_id":"levelo_inurba_marseille","lat":43.2991,"lon":5.43658,"is_reserved":false,"is_disabled":false,"rental_uris":{"android":"levelo://app?vid=42b8606a-5a39-4c18-ab8e-ae2998dcaace","ios":"levelo://app?vid=42b8606a-5a39-4c18-ab8e-ae2998dcaace"},"vehicle_type_id":"4","last_reported":1741691264,"current_range_meters":7200,"station_id":"ce4bhpp2rcd13ifvqhfg","pricing_plan_id":"cebpf4jnsgd1na2vs0mg"},{"bike_id":"3594b121-1026-4236-abac-8602433cb8d2","system_id":"levelo_inurba_marseille","lat":43.31102,"lon":5.42435,"is_reserved":false,"is_disabled":false,"rental_uris":{"android":"levelo://app?vid=3594b121-1026-4236-abac-8602433cb8d2","ios":"levelo://app?vid=3594b121-1026-4236-abac-8602433cb8d2"},"vehicle_type_id":"4","last_reported":1741691264,"current_range_meters":7200,"station_id":"ce4bhp92rcd13ifvqhag","pricing_plan_id":"cebpf4jnsgd1na2vs0mg"},{"bike_id":"cbd6f8ee-d91a-4c06-a50f-8aefa40d8ceb","system_id":"levelo_inurba_marseille","lat":43.29893,"lon":5.43666,"is_reserved":false,"is_disabled":false,"rental_uris":{"android":"levelo://app?vid=cbd6f8ee-d91a-4c06-a50f-8aefa40d8ceb","ios":"levelo://app?vid=cbd6f8ee-d91a-4c06-a50f-8aefa40d8ceb"},"vehicle_type_id":"4","last_reported":1741691264,"current_range_meters":7200,"station_id":"ce4bhpp2rcd13ifvqhfg","pricing_plan_id":"cebpf4jnsgd1na2vs0mg"},{"bike_id":"79c57314-f027-4667-abbf-97a0360ae6ae","system_id":"levelo_inurba_marseille","lat":43.30546,"lon":5.36704,"is_reserved":false,"is_disabled":false,"rental_uris":{"android":"levelo://app?vid=79c57314-f027-4667-abbf-97a0360ae6ae","ios":"levelo://app?vid=79c57314-f027-4667-abbf-97a0360ae6ae"},"vehicle_type_id":"4","last_reported":1741691264,"current_range_meters":7200,"station_id":"ce4bgrp2rcd13ifvqc9g","pricing_plan_id":"cebpf4jnsgd1na2vs0mg"},{"bike_id":"e1fb214b-50ac-4f88-a289-c135b5a642f9","system_id":"levelo_inurba_marseille","lat":43.31376,"lon":5.36698,"is_reserved":false,"is_disabled":false,"rental_uris":{"android":"levelo://app?vid=e1fb214b-50ac-4f88-a289-c135b5a642f9","ios":"levelo://app?vid=e1fb214b-50ac-4f88-a289-c135b5a642f9"},"vehicle_type_id":"4","last_reported":1741691264,"current_range_meters":7200,"station_id":"ce4bgr92rcd13ifvqc6g","pricing_plan_id":"cebpf4jnsgd1na2vs0mg"},{"bike_id":"3a9f1510-f8d4-4520-9575-bff84fd1b83a","system_id":"levelo_inurba_marseille","lat":43.28078,"lon":5.39628,"is_reserved":false,"is_disabled":false,"rental_uris":{"android":"levelo://app?vid=3a9f1510-f8d4-4520-9575-bff84fd1b83a","ios":"levelo://app?vid=3a9f1510-f8d4-4520-9575-bff84fd1b83a"},"vehicle_type_id":"4","last_reported":1741691264,"current_range_meters":7200,"station_id":"ce4bho12rcd13ifvqh2g","pricing_plan_id":"cebpf4jnsgd1na2vs0mg"},{"bike_id":"69aa2b75-9d7c-466d-bc14-65793932c8a1","system_id":"levelo_inurba_marseille","lat":43.284058,"lon":5.374963,"is_reserved":false,"is_disabled":false,"rental_uris":{"android":"levelo://app?vid=69aa2b75-9d7c-466d-bc14-65793932c8a1","ios":"levelo://app?vid=69aa2b75-9d7c-466d-bc14-65793932c8a1"},"vehicle_type_id":"4","last_reported":1741691264,"current_range_meters":7200,"station_id":"ce4bhf92rcd13ifvqf50","pricing_plan_id":"cebpf4jnsgd1na2vs0mg"},{"bike_id":"ea3efb9d-b1c2-4491-a831-4732bd30c124","system_id":"levelo_inurba_marseille","lat":43.29221,"lon":5.36064,"is_reserved":false,"is_disabled":false,"rental_uris":{"android":"levelo://app?vid=ea3efb9d-b1c2-4491-a831-4732bd30c124","ios":"levelo://app?vid=ea3efb9d-b1c2-4491-a831-4732bd30c124"},"vehicle_type_id":"4","last_reported":1741691264,"current_range_meters":7200,"station_id":"ce4bhbh2rcd13ifvqeqg","pricing_plan_id":"cebpf4jnsgd1na2vs0mg"},{"bike_id":"7967c65f-c8a6-43c6-9b08-5a1f5b9319e4","system_id":"levelo_inurba_marseille","lat":43.28612,"lon":5.35101,"is_reserved":false,"is_disabled":false,"rental_uris":{"android":"levelo://app?vid=7967c65f-c8a6-43c6-9b08-5a1f5b9319e4","ios":"levelo://app?vid=7967c65f-c8a6-43c6-9b08-5a1f5b9319e4"},"vehicle_type_id":"4","last_reported":1741691264,"current_range_meters":7200,"station_id":"ce4bhch2rcd13ifvqeug","pricing_plan_id":"cebpf4jnsgd1na2vs0mg"},{"bike_id":"550f4f9f-afbd-4396-bec2-cdce79ad77cc","system_id":"levelo_inurba_marseille","lat":43.3249,"lon":5.36554,"is_reserved":false,"is_disabled":false,"rental_uris":{"android":"levelo://app?vid=550f4f9f-afbd-4396-bec2-cdce79ad77cc","ios":"levelo://app?vid=550f4f9f-afbd-4396-bec2-cdce79ad77cc"},"vehicle_type_id":"4","last_reported":1741691264,"current_range_meters":8000,"station_id":"ce4bhs12rcd13ifvqhvg","pricing_plan_id":"cebpf4jnsgd1na2vs0mg"},{"bike_id":"54afd193-ee95-4f5e-975a-c9018d9dcb98","system_id":"levelo_inurba_marseille","lat":43.32348,"lon":5.36724,"is_reserved":false,"is_disabled":false,"rental_uris":{"android":"levelo://app?vid=54afd193-ee95-4f5e-975a-c9018d9dcb98","ios":"levelo://app?vid=54afd193-ee95-4f5e-975a-c9018d9dcb98"},"vehicle_type_id":"4","last_reported":1741691264,"current_range_meters":8000,"station_id":"ce4bhsh2rcd13ifvqi2g","pricing_plan_id":"cebpf4jnsgd1na2vs0mg"},{"bike_id":"7f59646a-2d98-41f1-be7c-a690e01f50fe","system_id":"levelo_inurba_marseille","lat":43.25927,"lon":5.40892,"is_reserved":false,"is_disabled":false,"rental_uris":{"android":"levelo://app?vid=7f59646a-2d98-41f1-be7c-a690e01f50fe","ios":"levelo://app?vid=7f59646a-2d98-41f1-be7c-a690e01f50fe"},"vehicle_type_id":"4","last_reported":1741691264,"current_range_meters":8000,"station_id":"ce4bhm92rcd13ifvqglg","pricing_plan_id":"cebpf4jnsgd1na2vs0mg"},{"bike_id":"8dc02748-fd0d-499c-9998-f2d0ad394b1a","system_id":"levelo_inurba_marseille","lat":43.2925,"lon":5.36084,"is_reserved":false,"is_disabled":false,"rental_uris":{"android":"levelo://app?vid=8dc02748-fd0d-499c-9998-f2d0ad394b1a","ios":"levelo://app?vid=8dc02748-fd0d-499c-9998-f2d0ad394b1a"},"vehicle_type_id":"4","last_reported":1741691264,"current_range_meters":8000,"station_id":"ce4bhbh2rcd13ifvqeqg","pricing_plan_id":"cebpf4jnsgd1na2vs0mg"},{"bike_id":"a3333a80-ceb6-497f-bfb6-2c6506d392f1","system_id":"levelo_inurba_marseille","lat":43.31214,"lon":5.36853,"is_reserved":false,"is_disabled":false,"rental_uris":{"android":"levelo://app?vid=a3333a80-ceb6-497f-bfb6-2c6506d392f1","ios":"levelo://app?vid=a3333a80-ceb6-497f-bfb6-2c6506d392f1"},"vehicle_type_id":"4","last_reported":1741691264,"current_range_meters":8000,"station_id":"ce4bgl92rcd13ifvqbq0","pricing_plan_id":"cebpf4jnsgd1na2vs0mg"},{"bike_id":"a414cb9c-b4e7-447e-ab4d-03711c7ac409","system_id":"levelo_inurba_marseille","lat":43.30301,"lon":5.36898,"is_reserved":false,"is_disabled":false,"rental_uris":{"android":"levelo://app?vid=a414cb9c-b4e7-447e-ab4d-03711c7ac409","ios":"levelo://app?vid=a414cb9c-b4e7-447e-ab4d-03711c7ac409"},"vehicle_type_id":"4","last_reported":1741691264,"current_range_meters":8400,"station_id":"ce4bgqh2rcd13ifvqc5g","pricing_plan_id":"cebpf4jnsgd1na2vs0mg"},{"bike_id":"51adcbf7-cc40-40b2-a2e5-10a977595c60","system_id":"levelo_inurba_marseille","lat":43.26682,"lon":5.38267,"is_reserved":false,"is_disabled":false,"rental_uris":{"android":"levelo://app?vid=51adcbf7-cc40-40b2-a2e5-10a977595c60","ios":"levelo://app?vid=51adcbf7-cc40-40b2-a2e5-10a977595c60"},"vehicle_type_id":"4","last_reported":1741691264,"current_range_meters":8400,"station_id":"ce4bhg92rcd13ifvqf90","pricing_plan_id":"cebpf4jnsgd1na2vs0mg"},{"bike_id":"85cb7eb7-3d37-40fa-b045-81c98babb917","system_id":"levelo_inurba_marseille","lat":43.29258,"lon":5.40901,"is_reserved":false,"is_disabled":false,"rental_uris":{"android":"levelo://app?vid=85cb7eb7-3d37-40fa-b045-81c98babb917","ios":"levelo://app?vid=85cb7eb7-3d37-40fa-b045-81c98babb917"},"vehicle_type_id":"4","last_reported":1741691264,"current_range_meters":8000,"station_id":"ce4bh192rcd13ifvqdc0","pricing_plan_id":"cebpf4jnsgd1na2vs0mg"},{"bike_id":"9338325f-bdc2-4a47-b9fe-83d7d57a482e","system_id":"levelo_inurba_marseille","lat":43.29523,"lon":5.39405,"is_reserved":false,"is_disabled":false,"rental_uris":{"android":"levelo://app?vid=9338325f-bdc2-4a47-b9fe-83d7d57a482e","ios":"levelo://app?vid=9338325f-bdc2-4a47-b9fe-83d7d57a482e"},"vehicle_type_id":"4","last_reported":1741691264,"current_range_meters":8000,"station_id":"ce4bh292rcd13ifvqdf0","pricing_plan_id":"cebpf4jnsgd1na2vs0mg"},{"bike_id":"10ce59be-2641-495d-943a-e62fa611fee6","system_id":"levelo_inurba_marseille","lat":43.305447,"lon":5.367063,"is_reserved":false,"is_disabled":false,"rental_uris":{"android":"levelo://app?vid=10ce59be-2641-495d-943a-e62fa611fee6","ios":"levelo://app?vid=10ce59be-2641-495d-943a-e62fa611fee6"},"vehicle_type_id":"4","last_reported":1741691264,"current_range_meters":8400,"station_id":"ce4bgrp2rcd13ifvqc9g","pricing_plan_id":"cebpf4jnsgd1na2vs0mg"},{"bike_id":"5a50e134-6a8f-479b-ac8b-ade00cdb374b","system_id":"levelo_inurba_marseille","lat":43.27835,"lon":5.39197,"is_reserved":false,"is_disabled":false,"rental_uris":{"android":"levelo://app?vid=5a50e134-6a8f-479b-ac8b-ade00cdb374b","ios":"levelo://app?vid=5a50e134-6a8f-479b-ac8b-ade00cdb374b"},"vehicle_type_id":"4","last_reported":1741691264,"current_range_meters":8400,"station_id":"ce4bhjp2rcd13ifvqga0","pricing_plan_id":"cebpf4jnsgd1na2vs0mg"},{"bike_id":"92ca3278-5c64-4a2a-a439-8ce0fd240c51","system_id":"levelo_inurba_marseille","lat":43.2827,"lon":5.35071,"is_reserved":false,"is_disabled":false,"rental_uris":{"android":"levelo://app?vid=92ca3278-5c64-4a2a-a439-8ce0fd240c51","ios":"levelo://app?vid=92ca3278-5c64-4a2a-a439-8ce0fd240c51"},"vehicle_type_id":"4","last_reported":1741691264,"current_range_meters":8400,"station_id":"ce4bhbp2rcd13ifvqerg","pricing_plan_id":"cebpf4jnsgd1na2vs0mg"},{"bike_id":"9dd92cbb-b700-4b83-a5ad-213d617533ef","system_id":"levelo_inurba_marseille","lat":43.24399,"lon":5.37064,"is_reserved":false,"is_disabled":false,"rental_uris":{"android":"levelo://app?vid=9dd92cbb-b700-4b83-a5ad-213d617533ef","ios":"levelo://app?vid=9dd92cbb-b700-4b83-a5ad-213d617533ef"},"vehicle_type_id":"4","last_reported":1741691264,"current_range_meters":8400,"station_id":"ce4bhhh2rcd13ifvqfk0","pricing_plan_id":"cebpf4jnsgd1na2vs0mg"},{"bike_id":"ad9885b8-46bd-41dc-b0e6-4f15bcb85518","system_id":"levelo_inurba_marseille","lat":43.31079,"lon":5.42425,"is_reserved":false,"is_disabled":false,"rental_uris":{"android":"levelo://app?vid=ad9885b8-46bd-41dc-b0e6-4f15bcb85518","ios":"levelo://app?vid=ad9885b8-46bd-41dc-b0e6-4f15bcb85518"},"vehicle_type_id":"4","last_reported":1741691264,"current_range_meters":8400,"station_id":"ce4bhp92rcd13ifvqhag","pricing_plan_id":"cebpf4jnsgd1na2vs0mg"},{"bike_id":"5794d9b1-295f-49d6-bfe5-7b2aec6cc62c","system_id":"levelo_inurba_marseille","lat":43.30898,"lon":5.37186,"is_reserved":false,"is_disabled":false,"rental_uris":{"android":"levelo://app?vid=5794d9b1-295f-49d6-bfe5-7b2aec6cc62c","ios":"levelo://app?vid=5794d9b1-295f-49d6-bfe5-7b2aec6cc62c"},"vehicle_type_id":"4","last_reported":1741691264,"current_range_meters":8400,"station_id":"ce4bguh2rcd13ifvqckg","pricing_plan_id":"cebpf4jnsgd1na2vs0mg"},{"bike_id":"9a2d1593-c35b-402f-a575-064a228a8b10","system_id":"levelo_inurba_marseille","lat":43.30529,"lon":5.38423,"is_reserved":false,"is_disabled":false,"rental_uris":{"android":"levelo://app?vid=9a2d1593-c35b-402f-a575-064a228a8b10","ios":"levelo://app?vid=9a2d1593-c35b-402f-a575-064a228a8b10"},"vehicle_type_id":"4","last_reported":1741691264,"current_range_meters":8800,"station_id":"ce4bgg92rcd13ifvqb30","pricing_plan_id":"cebpf4jnsgd1na2vs0mg"},{"bike_id":"bfe8d041-b5b1-4782-b6f5-24dc03c310e6","system_id":"levelo_inurba_marseille","lat":43.30203,"lon":5.38169,"is_reserved":false,"is_disabled":false,"rental_uris":{"android":"levelo://app?vid=bfe8d041-b5b1-4782-b6f5-24dc03c310e6","ios":"levelo://app?vid=bfe8d041-b5b1-4782-b6f5-24dc03c310e6"},"vehicle_type_id":"4","last_reported":1741691264,"current_range_meters":8800,"station_id":"","pricing_plan_id":"cebpf4jnsgd1na2vs0mg"},{"bike_id":"8dc2c2dc-de0f-4fd2-b739-faf253fff5e5","system_id":"levelo_inurba_marseille","lat":43.23159,"lon":5.43728,"is_reserved":false,"is_disabled":false,"rental_uris":{"android":"levelo://app?vid=8dc2c2dc-de0f-4fd2-b739-faf253fff5e5","ios":"levelo://app?vid=8dc2c2dc-de0f-4fd2-b739-faf253fff5e5"},"vehicle_type_id":"4","last_reported":1741691264,"current_range_meters":8800,"station_id":"ce4bhmp2rcd13ifvqgog","pricing_plan_id":"cebpf4jnsgd1na2vs0mg"},{"bike_id":"f1f296ee-65c2-4573-826c-cc429d93b7ff","system_id":"levelo_inurba_marseille","lat":43.29374,"lon":5.37819,"is_reserved":false,"is_disabled":false,"rental_uris":{"android":"levelo://app?vid=f1f296ee-65c2-4573-826c-cc429d93b7ff","ios":"levelo://app?vid=f1f296ee-65c2-4573-826c-cc429d93b7ff"},"vehicle_type_id":"4","last_reported":1741691264,"current_range_meters":8800,"station_id":"ce4bgjh2rcd13ifvqbf0","pricing_plan_id":"cebpf4jnsgd1na2vs0mg"},{"bike_id":"9bfdda7f-d374-4894-af73-aba33c2f01c5","system_id":"levelo_inurba_marseille","lat":43.30145,"lon":5.38073,"is_reserved":false,"is_disabled":false,"rental_uris":{"android":"levelo://app?vid=9bfdda7f-d374-4894-af73-aba33c2f01c5","ios":"levelo://app?vid=9bfdda7f-d374-4894-af73-aba33c2f01c5"},"vehicle_type_id":"4","last_reported":1741691264,"current_range_meters":8800,"station_id":"ce4bgjp2rcd13ifvqbh0","pricing_plan_id":"cebpf4jnsgd1na2vs0mg"},{"bike_id":"58e7e74a-6fe3-4395-83b9-7f798a5fff57","system_id":"levelo_inurba_marseille","lat":43.29034,"lon":5.39958,"is_reserved":false,"is_disabled":false,"rental_uris":{"android":"levelo://app?vid=58e7e74a-6fe3-4395-83b9-7f798a5fff57","ios":"levelo://app?vid=58e7e74a-6fe3-4395-83b9-7f798a5fff57"},"vehicle_type_id":"4","last_reported":1741691264,"current_range_meters":8800,"station_id":"ce4bh392rcd13ifvqdm0","pricing_plan_id":"cebpf4jnsgd1na2vs0mg"},{"bike_id":"e8555e48-5f1e-4553-9bf1-c7b9fcf68bb4","system_id":"levelo_inurba_marseille","lat":43.29361,"lon":5.37846,"is_reserved":false,"is_disabled":false,"rental_uris":{"android":"levelo://app?vid=e8555e48-5f1e-4553-9bf1-c7b9fcf68bb4","ios":"levelo://app?vid=e8555e48-5f1e-4553-9bf1-c7b9fcf68bb4"},"vehicle_type_id":"4","last_reported":1741691264,"current_range_meters":8800,"station_id":"ce4bgjh2rcd13ifvqbf0","pricing_plan_id":"cebpf4jnsgd1na2vs0mg"},{"bike_id":"09bbb690-af86-458c-bbad-70d10e2033ee","system_id":"levelo_inurba_marseille","lat":43.23037,"lon":5.35422,"is_reserved":false,"is_disabled":false,"rental_uris":{"android":"levelo://app?vid=09bbb690-af86-458c-bbad-70d10e2033ee","ios":"levelo://app?vid=09bbb690-af86-458c-bbad-70d10e2033ee"},"vehicle_type_id":"4","last_reported":1741691264,"current_range_meters":8800,"station_id":"cpo3342slgdg3j2ifvpg","pricing_plan_id":"cebpf4jnsgd1na2vs0mg"},{"bike_id":"e6bfedde-b8d3-483f-9c12-e45beb87d7c9","system_id":"levelo_inurba_marseille","lat":43.23164,"lon":5.43715,"is_reserved":false,"is_disabled":false,"rental_uris":{"android":"levelo://app?vid=e6bfedde-b8d3-483f-9c12-e45beb87d7c9","ios":"levelo://app?vid=e6bfedde-b8d3-483f-9c12-e45beb87d7c9"},"vehicle_type_id":"4","last_reported":1741691264,"current_range_meters":8800,"station_id":"ce4bhmp2rcd13ifvqgog","pricing_plan_id":"cebpf4jnsgd1na2vs0mg"},{"bike_id":"51772d6c-c0b3-48d9-81cb-ae5466e6f822","system_id":"levelo_inurba_marseille","lat":43.23151,"lon":5.43737,"is_reserved":false,"is_disabled":false,"rental_uris":{"android":"levelo://app?vid=51772d6c-c0b3-48d9-81cb-ae5466e6f822","ios":"levelo://app?vid=51772d6c-c0b3-48d9-81cb-ae5466e6f822"},"vehicle_type_id":"4","last_reported":1741691264,"current_range_meters":8800,"station_id":"ce4bhmp2rcd13ifvqgog","pricing_plan_id":"cebpf4jnsgd1na2vs0mg"},{"bike_id":"acc1658b-7ea3-44a5-a65b-40f1faa0438d","system_id":"levelo_inurba_marseille","lat":43.32527,"lon":5.41437,"is_reserved":false,"is_disabled":false,"rental_uris":{"android":"levelo://app?vid=acc1658b-7ea3-44a5-a65b-40f1faa0438d","ios":"levelo://app?vid=acc1658b-7ea3-44a5-a65b-40f1faa0438d"},"vehicle_type_id":"4","last_reported":1741691264,"current_range_meters":9200,"station_id":"ce4bhq12rcd13ifvqhhg","pricing_plan_id":"cebpf4jnsgd1na2vs0mg"},{"bike_id":"becd39d3-f5e3-4be9-9165-ebb87c8ec59e","system_id":"levelo_inurba_marseille","lat":43.22936,"lon":5.35369,"is_reserved":false,"is_disabled":false,"rental_uris":{"android":"levelo://app?vid=becd39d3-f5e3-4be9-9165-ebb87c8ec59e","ios":"levelo://app?vid=becd39d3-f5e3-4be9-9165-ebb87c8ec59e"},"vehicle_type_id":"4","last_reported":1741691264,"current_range_meters":9200,"station_id":"","pricing_plan_id":"cebpf4jnsgd1na2vs0mg"},{"bike_id":"1920f354-c4b5-4d1a-bc6f-aba0c6cd151e","system_id":"levelo_inurba_marseille","lat":43.27817,"lon":5.4072,"is_reserved":false,"is_disabled":false,"rental_uris":{"android":"levelo://app?vid=1920f354-c4b5-4d1a-bc6f-aba0c6cd151e","ios":"levelo://app?vid=1920f354-c4b5-4d1a-bc6f-aba0c6cd151e"},"vehicle_type_id":"4","last_reported":1741691264,"current_range_meters":9200,"station_id":"ce4bhnh2rcd13ifvqgtg","pricing_plan_id":"cebpf4jnsgd1na2vs0mg"},{"bike_id":"4501c576-1765-4386-9892-da298b574701","system_id":"levelo_inurba_marseille","lat":43.29557,"lon":5.37507,"is_reserved":false,"is_disabled":false,"rental_uris":{"android":"levelo://app?vid=4501c576-1765-4386-9892-da298b574701","ios":"levelo://app?vid=4501c576-1765-4386-9892-da298b574701"},"vehicle_type_id":"4","last_reported":1741691264,"current_range_meters":9200,"station_id":"ce4bgkp2rcd13ifvqbmg","pricing_plan_id":"cebpf4jnsgd1na2vs0mg"},{"bike_id":"27459785-4edf-4f27-b842-1984a62c6dde","system_id":"levelo_inurba_marseille","lat":43.25076,"lon":5.39507,"is_reserved":false,"is_disabled":false,"rental_uris":{"android":"levelo://app?vid=27459785-4edf-4f27-b842-1984a62c6dde","ios":"levelo://app?vid=27459785-4edf-4f27-b842-1984a62c6dde"},"vehicle_type_id":"4","last_reported":1741691264,"current_range_meters":9200,"station_id":"ce4bhm12rcd13ifvqgkg","pricing_plan_id":"cebpf4jnsgd1na2vs0mg"},{"bike_id":"80771939-f406-42f7-81c5-33180fd8a338","system_id":"levelo_inurba_marseille","lat":43.23184,"lon":5.35525,"is_reserved":false,"is_disabled":false,"rental_uris":{"android":"levelo://app?vid=80771939-f406-42f7-81c5-33180fd8a338","ios":"levelo://app?vid=80771939-f406-42f7-81c5-33180fd8a338"},"vehicle_type_id":"4","last_reported":1741691264,"current_range_meters":9200,"station_id":"ce4bhu92rcd13ifvqi70","pricing_plan_id":"cebpf4jnsgd1na2vs0mg"},{"bike_id":"c1bda9e2-cfd4-46ef-b129-54b2ad3b2e00","system_id":"levelo_inurba_marseille","lat":43.26959,"lon":5.38631,"is_reserved":false,"is_disabled":false,"rental_uris":{"android":"levelo://app?vid=c1bda9e2-cfd4-46ef-b129-54b2ad3b2e00","ios":"levelo://app?vid=c1bda9e2-cfd4-46ef-b129-54b2ad3b2e00"},"vehicle_type_id":"4","last_reported":1741691264,"current_range_meters":9200,"station_id":"ce4bhh92rcd13ifvqfh0","pricing_plan_id":"cebpf4jnsgd1na2vs0mg"},{"bike_id":"ae8af7b7-c05b-4384-9261-7a9f39e0a5b5","system_id":"levelo_inurba_marseille","lat":43.32504,"lon":5.36558,"is_reserved":false,"is_disabled":false,"rental_uris":{"android":"levelo://app?vid=ae8af7b7-c05b-4384-9261-7a9f39e0a5b5","ios":"levelo://app?vid=ae8af7b7-c05b-4384-9261-7a9f39e0a5b5"},"vehicle_type_id":"4","last_reported":1741691264,"current_range_meters":9200,"station_id":"ce4bhs12rcd13ifvqhvg","pricing_plan_id":"cebpf4jnsgd1na2vs0mg"},{"bike_id":"2086f1cf-dfc9-404d-a5f9-2993e5052ea5","system_id":"levelo_inurba_marseille","lat":43.29276,"lon":5.36844,"is_reserved":false,"is_disabled":false,"rental_uris":{"android":"levelo://app?vid=2086f1cf-dfc9-404d-a5f9-2993e5052ea5","ios":"levelo://app?vid=2086f1cf-dfc9-404d-a5f9-2993e5052ea5"},"vehicle_type_id":"4","last_reported":1741691264,"current_range_meters":9600,"station_id":"ce4bhbp2rcd13ifvqesg","pricing_plan_id":"cebpf4jnsgd1na2vs0mg"},{"bike_id":"c30a5f55-cc1b-4590-b8ef-3b9f2512cc45","system_id":"levelo_inurba_marseille","lat":43.26061,"lon":5.39382,"is_reserved":false,"is_disabled":false,"rental_uris":{"android":"levelo://app?vid=c30a5f55-cc1b-4590-b8ef-3b9f2512cc45","ios":"levelo://app?vid=c30a5f55-cc1b-4590-b8ef-3b9f2512cc45"},"vehicle_type_id":"4","last_reported":1741691264,"current_range_meters":9600,"station_id":"ce4bhh92rcd13ifvqfj0","pricing_plan_id":"cebpf4jnsgd1na2vs0mg"},{"bike_id":"a6907114-91e5-4406-958d-4b895c3084d0","system_id":"levelo_inurba_marseille","lat":43.29893,"lon":5.43666,"is_reserved":false,"is_disabled":false,"rental_uris":{"android":"levelo://app?vid=a6907114-91e5-4406-958d-4b895c3084d0","ios":"levelo://app?vid=a6907114-91e5-4406-958d-4b895c3084d0"},"vehicle_type_id":"4","last_reported":1741691264,"current_range_meters":9600,"station_id":"ce4bhpp2rcd13ifvqhfg","pricing_plan_id":"cebpf4jnsgd1na2vs0mg"},{"bike_id":"7618e03b-050f-4081-bb05-075b3e21f7e0","system_id":"levelo_inurba_marseille","lat":43.27546,"lon":5.38412,"is_reserved":false,"is_disabled":false,"rental_uris":{"android":"levelo://app?vid=7618e03b-050f-4081-bb05-075b3e21f7e0","ios":"levelo://app?vid=7618e03b-050f-4081-bb05-075b3e21f7e0"},"vehicle_type_id":"4","last_reported":1741691264,"current_range_meters":9600,"station_id":"ce4bgkp2rcd13ifvqbmg","pricing_plan_id":"cebpf4jnsgd1na2vs0mg"},{"bike_id":"36aaebeb-5723-4e35-912b-26b63b3a7089","system_id":"levelo_inurba_marseille","lat":43.3042,"lon":5.39744,"is_reserved":false,"is_disabled":false,"rental_uris":{"android":"levelo://app?vid=36aaebeb-5723-4e35-912b-26b63b3a7089","ios":"levelo://app?vid=36aaebeb-5723-4e35-912b-26b63b3a7089"},"vehicle_type_id":"4","last_reported":1741691264,"current_range_meters":9600,"station_id":"ce4bh092rcd13ifvqd20","pricing_plan_id":"cebpf4jnsgd1na2vs0mg"},{"bike_id":"9ec52ed9-9c0e-4e61-a378-5327e3711632","system_id":"levelo_inurba_marseille","lat":43.24774,"lon":5.41189,"is_reserved":false,"is_disabled":false,"rental_uris":{"android":"levelo://app?vid=9ec52ed9-9c0e-4e61-a378-5327e3711632","ios":"levelo://app?vid=9ec52ed9-9c0e-4e61-a378-5327e3711632"},"vehicle_type_id":"4","last_reported":1741691264,"current_range_meters":9600,"station_id":"","pricing_plan_id":"cebpf4jnsgd1na2vs0mg"},{"bike_id":"1a8ab441-f02f-439e-9fd3-0bbc0b1b97af","system_id":"levelo_inurba_marseille","lat":43.32547,"lon":5.41423,"is_reserved":false,"is_disabled":false,"rental_uris":{"android":"levelo://app?vid=1a8ab441-f02f-439e-9fd3-0bbc0b1b97af","ios":"levelo://app?vid=1a8ab441-f02f-439e-9fd3-0bbc0b1b97af"},"vehicle_type_id":"4","last_reported":1741691264,"current_range_meters":10000,"station_id":"ce4bhq12rcd13ifvqhhg","pricing_plan_id":"cebpf4jnsgd1na2vs0mg"},{"bike_id":"b9680ac6-d12e-4a12-9dd8-1396db5e067b","system_id":"levelo_inurba_marseille","lat":43.23152,"lon":5.43699,"is_reserved":false,"is_disabled":false,"rental_uris":{"android":"levelo://app?vid=b9680ac6-d12e-4a12-9dd8-1396db5e067b","ios":"levelo://app?vid=b9680ac6-d12e-4a12-9dd8-1396db5e067b"},"vehicle_type_id":"4","last_reported":1741691264,"current_range_meters":10000,"station_id":"ce4bhmp2rcd13ifvqgog","pricing_plan_id":"cebpf4jnsgd1na2vs0mg"},{"bike_id":"ffb286e2-62fa-45b6-a590-5e88edf52383","system_id":"levelo_inurba_marseille","lat":43.292972,"lon":5.374613,"is_reserved":false,"is_disabled":false,"rental_uris":{"android":"levelo://app?vid=ffb286e2-62fa-45b6-a590-5e88edf52383","ios":"levelo://app?vid=ffb286e2-62fa-45b6-a590-5e88edf52383"},"vehicle_type_id":"4","last_reported":1741691264,"current_range_meters":10000,"station_id":"","pricing_plan_id":"cebpf4jnsgd1na2vs0mg"},{"bike_id":"301c8de4-8782-48bb-ba23-25ee745d055a","system_id":"levelo_inurba_marseille","lat":43.26966,"lon":5.38624,"is_reserved":false,"is_disabled":false,"rental_uris":{"android":"levelo://app?vid=301c8de4-8782-48bb-ba23-25ee745d055a","ios":"levelo://app?vid=301c8de4-8782-48bb-ba23-25ee745d055a"},"vehicle_type_id":"4","last_reported":1741691264,"current_range_meters":10000,"station_id":"ce4bhh92rcd13ifvqfh0","pricing_plan_id":"cebpf4jnsgd1na2vs0mg"},{"bike_id":"215138ca-6679-4f10-ac6e-99fa837f238a","system_id":"levelo_inurba_marseille","lat":43.28462,"lon":5.35888,"is_reserved":false,"is_disabled":false,"rental_uris":{"android":"levelo://app?vid=215138ca-6679-4f10-ac6e-99fa837f238a","ios":"levelo://app?vid=215138ca-6679-4f10-ac6e-99fa837f238a"},"vehicle_type_id":"4","last_reported":1741691264,"current_range_meters":10000,"station_id":"ce4bhah2rcd13ifvqei0","pricing_plan_id":"cebpf4jnsgd1na2vs0mg"},{"bike_id":"0d9431e1-f868-427a-acb7-8ddd048ba317","system_id":"levelo_inurba_marseille","lat":43.29844,"lon":5.36269,"is_reserved":false,"is_disabled":false,"rental_uris":{"android":"levelo://app?vid=0d9431e1-f868-427a-acb7-8ddd048ba317","ios":"levelo://app?vid=0d9431e1-f868-427a-acb7-8ddd048ba317"},"vehicle_type_id":"4","last_reported":1741691264,"current_range_meters":10000,"station_id":"ce4bgpp2rcd13ifvqc3g","pricing_plan_id":"cebpf4jnsgd1na2vs0mg"},{"bike_id":"58d1b5b3-d322-4418-97d0-3066ec3d9afc","system_id":"levelo_inurba_marseille","lat":43.23195,"lon":5.35542,"is_reserved":false,"is_disabled":false,"rental_uris":{"android":"levelo://app?vid=58d1b5b3-d322-4418-97d0-3066ec3d9afc","ios":"levelo://app?vid=58d1b5b3-d322-4418-97d0-3066ec3d9afc"},"vehicle_type_id":"4","last_reported":1741691264,"current_range_meters":10000,"station_id":"ce4bhu92rcd13ifvqi70","pricing_plan_id":"cebpf4jnsgd1na2vs0mg"},{"bike_id":"08ace7c2-d904-4174-9db1-3488abc407fd","system_id":"levelo_inurba_marseille","lat":43.30965,"lon":5.39046,"is_reserved":false,"is_disabled":true,"rental_uris":{"android":"levelo://app?vid=08ace7c2-d904-4174-9db1-3488abc407fd","ios":"levelo://app?vid=08ace7c2-d904-4174-9db1-3488abc407fd"},"vehicle_type_id":"4","last_reported":1741691264,"current_range_meters":10800,"station_id":"ce4bgup2rcd13ifvqco0","pricing_plan_id":"cebpf4jnsgd1na2vs0mg"},{"bike_id":"1118824c-8a47-4408-ba38-d35bafacbe41","system_id":"levelo_inurba_marseille","lat":43.26225,"lon":5.40452,"is_reserved":false,"is_disabled":false,"rental_uris":{"android":"levelo://app?vid=1118824c-8a47-4408-ba38-d35bafacbe41","ios":"levelo://app?vid=1118824c-8a47-4408-ba38-d35bafacbe41"},"vehicle_type_id":"4","last_reported":1741691264,"current_range_meters":10800,"station_id":"ce4bhmh2rcd13ifvqgmg","pricing_plan_id":"cebpf4jnsgd1na2vs0mg"},{"bike_id":"2c1fac1b-7deb-4276-b5a7-c1ca47daa5d4","system_id":"levelo_inurba_marseille","lat":43.29628,"lon":5.37164,"is_reserved":false,"is_disabled":false,"rental_uris":{"android":"levelo://app?vid=2c1fac1b-7deb-4276-b5a7-c1ca47daa5d4","ios":"levelo://app?vid=2c1fac1b-7deb-4276-b5a7-c1ca47daa5d4"},"vehicle_type_id":"4","last_reported":1741691264,"current_range_meters":10800,"station_id":"ce4bgnh2rcd13ifvqc0g","pricing_plan_id":"cebpf4jnsgd1na2vs0mg"},{"bike_id":"22c1b124-17ac-42c8-8cbc-63b67f27fa86","system_id":"levelo_inurba_marseille","lat":43.3045,"lon":5.38942,"is_reserved":false,"is_disabled":false,"rental_uris":{"android":"levelo://app?vid=22c1b124-17ac-42c8-8cbc-63b67f27fa86","ios":"levelo://app?vid=22c1b124-17ac-42c8-8cbc-63b67f27fa86"},"vehicle_type_id":"4","last_reported":1741691264,"current_range_meters":10800,"station_id":"ce4bgk12rcd13ifvqbi0","pricing_plan_id":"cebpf4jnsgd1na2vs0mg"},{"bike_id":"bfe76b26-4cce-4a8d-8e2e-190cbae21f24","system_id":"levelo_inurba_marseille","lat":43.271783,"lon":5.409866,"is_reserved":false,"is_disabled":false,"rental_uris":{"android":"levelo://app?vid=bfe76b26-4cce-4a8d-8e2e-190cbae21f24","ios":"levelo://app?vid=bfe76b26-4cce-4a8d-8e2e-190cbae21f24"},"vehicle_type_id":"4","last_reported":1741691264,"current_range_meters":10800,"station_id":"ce4bhl12rcd13ifvqgf0","pricing_plan_id":"cebpf4jnsgd1na2vs0mg"},{"bike_id":"e854be8b-4f55-4667-9523-0c0d6f564e89","system_id":"levelo_inurba_marseille","lat":43.25723,"lon":5.41106,"is_reserved":false,"is_disabled":false,"rental_uris":{"android":"levelo://app?vid=e854be8b-4f55-4667-9523-0c0d6f564e89","ios":"levelo://app?vid=e854be8b-4f55-4667-9523-0c0d6f564e89"},"vehicle_type_id":"4","last_reported":1741691264,"current_range_meters":10800,"station_id":"ce4bhkp2rcd13ifvqgd0","pricing_plan_id":"cebpf4jnsgd1na2vs0mg"},{"bike_id":"57c3a8a5-2efc-486b-81b0-cccc2effcde9","system_id":"levelo_inurba_marseille","lat":43.30134,"lon":5.39863,"is_reserved":false,"is_disabled":false,"rental_uris":{"android":"levelo://app?vid=57c3a8a5-2efc-486b-81b0-cccc2effcde9","ios":"levelo://app?vid=57c3a8a5-2efc-486b-81b0-cccc2effcde9"},"vehicle_type_id":"4","last_reported":1741691264,"current_range_meters":10800,"station_id":"ce4bh0h2rcd13ifvqd40","pricing_plan_id":"cebpf4jnsgd1na2vs0mg"},{"bike_id":"a5c7d98a-715d-43e8-a33d-2d65e32c7035","system_id":"levelo_inurba_marseille","lat":43.30086,"lon":5.39068,"is_reserved":false,"is_disabled":false,"rental_uris":{"android":"levelo://app?vid=a5c7d98a-715d-43e8-a33d-2d65e32c7035","ios":"levelo://app?vid=a5c7d98a-715d-43e8-a33d-2d65e32c7035"},"vehicle_type_id":"4","last_reported":1741691264,"current_range_meters":10800,"station_id":"ce4bh192rcd13ifvqdb0","pricing_plan_id":"cebpf4jnsgd1na2vs0mg"},{"bike_id":"c2e1af69-d78f-48f0-8f7e-1c47eac158ad","system_id":"levelo_inurba_marseille","lat":43.30535,"lon":5.38415,"is_reserved":false,"is_disabled":false,"rental_uris":{"android":"levelo://app?vid=c2e1af69-d78f-48f0-8f7e-1c47eac158ad","ios":"levelo://app?vid=c2e1af69-d78f-48f0-8f7e-1c47eac158ad"},"vehicle_type_id":"4","last_reported":1741691264,"current_range_meters":10800,"station_id":"ce4bgg92rcd13ifvqb30","pricing_plan_id":"cebpf4jnsgd1na2vs0mg"},{"bike_id":"57b39e70-8a4a-4028-92c7-e77c35b9bc64","system_id":"levelo_inurba_marseille","lat":43.28462,"lon":5.35887,"is_reserved":false,"is_disabled":false,"rental_uris":{"android":"levelo://app?vid=57b39e70-8a4a-4028-92c7-e77c35b9bc64","ios":"levelo://app?vid=57b39e70-8a4a-4028-92c7-e77c35b9bc64"},"vehicle_type_id":"4","last_reported":1741691264,"current_range_meters":10800,"station_id":"ce4bhah2rcd13ifvqei0","pricing_plan_id":"cebpf4jnsgd1na2vs0mg"},{"bike_id":"c835eee2-01bf-4ff1-a164-4c90e0a065d9","system_id":"levelo_inurba_marseille","lat":43.249986,"lon":5.389288,"is_reserved":false,"is_disabled":false,"rental_uris":{"android":"levelo://app?vid=c835eee2-01bf-4ff1-a164-4c90e0a065d9","ios":"levelo://app?vid=c835eee2-01bf-4ff1-a164-4c90e0a065d9"},"vehicle_type_id":"4","last_reported":1741691264,"current_range_meters":10800,"station_id":"ce4bhgp2rcd13ifvqfd0","pricing_plan_id":"cebpf4jnsgd1na2vs0mg"},{"bike_id":"f640465e-8c9e-425a-8e36-08d8d5201bf6","system_id":"levelo_inurba_marseille","lat":43.23188,"lon":5.35548,"is_reserved":false,"is_disabled":false,"rental_uris":{"android":"levelo://app?vid=f640465e-8c9e-425a-8e36-08d8d5201bf6","ios":"levelo://app?vid=f640465e-8c9e-425a-8e36-08d8d5201bf6"},"vehicle_type_id":"4","last_reported":1741691264,"current_range_meters":10800,"station_id":"ce4bhu92rcd13ifvqi70","pricing_plan_id":"cebpf4jnsgd1na2vs0mg"},{"bike_id":"1ee9dbf5-b0e2-4af5-8fd1-f41f66f7bf91","system_id":"levelo_inurba_marseille","lat":43.30817,"lon":5.38151,"is_reserved":false,"is_disabled":false,"rental_uris":{"android":"levelo://app?vid=1ee9dbf5-b0e2-4af5-8fd1-f41f66f7bf91","ios":"levelo://app?vid=1ee9dbf5-b0e2-4af5-8fd1-f41f66f7bf91"},"vehicle_type_id":"4","last_reported":1741691264,"current_range_meters":11200,"station_id":"ce4bgt12rcd13ifvqce0","pricing_plan_id":"cebpf4jnsgd1na2vs0mg"},{"bike_id":"00908d4f-71bd-4213-8323-0f8989ff20fd","system_id":"levelo_inurba_marseille","lat":43.28376,"lon":5.38646,"is_reserved":false,"is_disabled":false,"rental_uris":{"android":"levelo://app?vid=00908d4f-71bd-4213-8323-0f8989ff20fd","ios":"levelo://app?vid=00908d4f-71bd-4213-8323-0f8989ff20fd"},"vehicle_type_id":"4","last_reported":1741691264,"current_range_meters":11200,"station_id":"ce4bh492rcd13ifvqdvg","pricing_plan_id":"cebpf4jnsgd1na2vs0mg"},{"bike_id":"847b7ee0-0e84-437d-8853-9e88ceccf4e3","system_id":"levelo_inurba_marseille","lat":43.23152,"lon":5.437043,"is_reserved":false,"is_disabled":false,"rental_uris":{"android":"levelo://app?vid=847b7ee0-0e84-437d-8853-9e88ceccf4e3","ios":"levelo://app?vid=847b7ee0-0e84-437d-8853-9e88ceccf4e3"},"vehicle_type_id":"4","last_reported":1741691264,"current_range_meters":11200,"station_id":"ce4bhmp2rcd13ifvqgog","pricing_plan_id":"cebpf4jnsgd1na2vs0mg"},{"bike_id":"d9e9e2ab-40c6-49f5-924e-92afb4b8ff1b","system_id":"levelo_inurba_marseille","lat":43.29974,"lon":5.37169,"is_reserved":false,"is_disabled":false,"rental_uris":{"android":"levelo://app?vid=d9e9e2ab-40c6-49f5-924e-92afb4b8ff1b","ios":"levelo://app?vid=d9e9e2ab-40c6-49f5-924e-92afb4b8ff1b"},"vehicle_type_id":"4","last_reported":1741691264,"current_range_meters":11600,"station_id":"ce4bgr92rcd13ifvqc7g","pricing_plan_id":"cebpf4jnsgd1na2vs0mg"},{"bike_id":"69af4c50-9077-436a-8c73-2ffdc4c386f1","system_id":"levelo_inurba_marseille","lat":43.24187,"lon":5.39719,"is_reserved":false,"is_disabled":false,"rental_uris":{"android":"levelo://app?vid=69af4c50-9077-436a-8c73-2ffdc4c386f1","ios":"levelo://app?vid=69af4c50-9077-436a-8c73-2ffdc4c386f1"},"vehicle_type_id":"4","last_reported":1741691264,"current_range_meters":11600,"station_id":"ce4bhn12rcd13ifvqgpg","pricing_plan_id":"cebpf4jnsgd1na2vs0mg"},{"bike_id":"a0179ea9-9490-4a7d-971c-4a3a669949b9","system_id":"levelo_inurba_marseille","lat":43.29301,"lon":5.37461,"is_reserved":false,"is_disabled":false,"rental_uris":{"android":"levelo://app?vid=a0179ea9-9490-4a7d-971c-4a3a669949b9","ios":"levelo://app?vid=a0179ea9-9490-4a7d-971c-4a3a669949b9"},"vehicle_type_id":"4","last_reported":1741691264,"current_range_meters":11600,"station_id":"ce4bgi12rcd13ifvqb70","pricing_plan_id":"cebpf4jnsgd1na2vs0mg"},{"bike_id":"9acab34d-76c9-4fd5-bed6-0265a89df8bb","system_id":"levelo_inurba_marseille","lat":43.25739,"lon":5.41124,"is_reserved":false,"is_disabled":false,"rental_uris":{"android":"levelo://app?vid=9acab34d-76c9-4fd5-bed6-0265a89df8bb","ios":"levelo://app?vid=9acab34d-76c9-4fd5-bed6-0265a89df8bb"},"vehicle_type_id":"4","last_reported":1741691264,"current_range_meters":11600,"station_id":"ce4bhkp2rcd13ifvqgd0","pricing_plan_id":"cebpf4jnsgd1na2vs0mg"},{"bike_id":"8dc57d42-8656-49f0-8fc7-54913f8bed81","system_id":"levelo_inurba_marseille","lat":43.30137,"lon":5.39869,"is_reserved":false,"is_disabled":false,"rental_uris":{"android":"levelo://app?vid=8dc57d42-8656-49f0-8fc7-54913f8bed81","ios":"levelo://app?vid=8dc57d42-8656-49f0-8fc7-54913f8bed81"},"vehicle_type_id":"4","last_reported":1741691264,"current_range_meters":11600,"station_id":"ce4bh0h2rcd13ifvqd40","pricing_plan_id":"cebpf4jnsgd1na2vs0mg"},{"bike_id":"02ccda15-ca98-4f66-a5ee-609c485d624e","system_id":"levelo_inurba_marseille","lat":43.23963,"lon":5.36624,"is_reserved":false,"is_disabled":false,"rental_uris":{"android":"levelo://app?vid=02ccda15-ca98-4f66-a5ee-609c485d624e","ios":"levelo://app?vid=02ccda15-ca98-4f66-a5ee-609c485d624e"},"vehicle_type_id":"4","last_reported":1741691264,"current_range_meters":11600,"station_id":"ce4bhi12rcd13ifvqfp0","pricing_plan_id":"cebpf4jnsgd1na2vs0mg"},{"bike_id":"c3435cd3-e09c-44fb-b284-5d50b00a129d","system_id":"levelo_inurba_marseille","lat":43.29316,"lon":5.37179,"is_reserved":false,"is_disabled":false,"rental_uris":{"android":"levelo://app?vid=c3435cd3-e09c-44fb-b284-5d50b00a129d","ios":"levelo://app?vid=c3435cd3-e09c-44fb-b284-5d50b00a129d"},"vehicle_type_id":"4","last_reported":1741691264,"current_range_meters":11600,"station_id":"ce4bgh92rcd13ifvqb40","pricing_plan_id":"cebpf4jnsgd1na2vs0mg"},{"bike_id":"602d068b-17ec-4c43-a941-51f4b635d1bf","system_id":"levelo_inurba_marseille","lat":43.25927,"lon":5.40886,"is_reserved":false,"is_disabled":false,"rental_uris":{"android":"levelo://app?vid=602d068b-17ec-4c43-a941-51f4b635d1bf","ios":"levelo://app?vid=602d068b-17ec-4c43-a941-51f4b635d1bf"},"vehicle_type_id":"4","last_reported":1741691264,"current_range_meters":11600,"station_id":"ce4bhm92rcd13ifvqglg","pricing_plan_id":"cebpf4jnsgd1na2vs0mg"},{"bike_id":"6bf2a12c-8e2e-4305-995a-5ba524d947aa","system_id":"levelo_inurba_marseille","lat":43.31692,"lon":5.40466,"is_reserved":false,"is_disabled":false,"rental_uris":{"android":"levelo://app?vid=6bf2a12c-8e2e-4305-995a-5ba524d947aa","ios":"levelo://app?vid=6bf2a12c-8e2e-4305-995a-5ba524d947aa"},"vehicle_type_id":"4","last_reported":1741691264,"current_range_meters":11600,"station_id":"ce4bh012rcd13ifvqd00","pricing_plan_id":"cebpf4jnsgd1na2vs0mg"},{"bike_id":"415e7a31-245d-4ead-9f33-dad092a04302","system_id":"levelo_inurba_marseille","lat":43.23068,"lon":5.35509,"is_reserved":false,"is_disabled":false,"rental_uris":{"android":"levelo://app?vid=415e7a31-245d-4ead-9f33-dad092a04302","ios":"levelo://app?vid=415e7a31-245d-4ead-9f33-dad092a04302"},"vehicle_type_id":"4","last_reported":1741691264,"current_range_meters":12000,"station_id":"cpo3342slgdg3j2ifvpg","pricing_plan_id":"cebpf4jnsgd1na2vs0mg"},{"bike_id":"5683d8a9-b608-4c39-92f4-712ef412a2b7","system_id":"levelo_inurba_marseille","lat":43.27992,"lon":5.41665,"is_reserved":false,"is_disabled":false,"rental_uris":{"android":"levelo://app?vid=5683d8a9-b608-4c39-92f4-712ef412a2b7","ios":"levelo://app?vid=5683d8a9-b608-4c39-92f4-712ef412a2b7"},"vehicle_type_id":"4","last_reported":1741691264,"current_range_meters":12000,"station_id":"ce4bho12rcd13ifvqh1g","pricing_plan_id":"cebpf4jnsgd1na2vs0mg"},{"bike_id":"fb629ba8-b376-4f9a-a280-fa2aa29efcd1","system_id":"levelo_inurba_marseille","lat":43.29857,"lon":5.36282,"is_reserved":false,"is_disabled":false,"rental_uris":{"android":"levelo://app?vid=fb629ba8-b376-4f9a-a280-fa2aa29efcd1","ios":"levelo://app?vid=fb629ba8-b376-4f9a-a280-fa2aa29efcd1"},"vehicle_type_id":"4","last_reported":1741691264,"current_range_meters":12000,"station_id":"ce4bgpp2rcd13ifvqc3g","pricing_plan_id":"cebpf4jnsgd1na2vs0mg"},{"bike_id":"a49936c4-c00d-4c05-bb68-f9fdf64edd96","system_id":"levelo_inurba_marseille","lat":43.30317,"lon":5.36905,"is_reserved":false,"is_disabled":false,"rental_uris":{"android":"levelo://app?vid=a49936c4-c00d-4c05-bb68-f9fdf64edd96","ios":"levelo://app?vid=a49936c4-c00d-4c05-bb68-f9fdf64edd96"},"vehicle_type_id":"4","last_reported":1741691264,"current_range_meters":12000,"station_id":"ce4bgqh2rcd13ifvqc5g","pricing_plan_id":"cebpf4jnsgd1na2vs0mg"},{"bike_id":"77bfb7e8-ad22-4b73-ba0a-38f2fe9c7d0e","system_id":"levelo_inurba_marseille","lat":43.30429,"lon":5.39747,"is_reserved":false,"is_disabled":false,"rental_uris":{"android":"levelo://app?vid=77bfb7e8-ad22-4b73-ba0a-38f2fe9c7d0e","ios":"levelo://app?vid=77bfb7e8-ad22-4b73-ba0a-38f2fe9c7d0e"},"vehicle_type_id":"4","last_reported":1741691264,"current_range_meters":12000,"station_id":"ce4bh092rcd13ifvqd20","pricing_plan_id":"cebpf4jnsgd1na2vs0mg"},{"bike_id":"31fe666b-4d10-46d0-b2ee-25c9d00ec515","system_id":"levelo_inurba_marseille","lat":43.24666,"lon":5.38878,"is_reserved":false,"is_disabled":false,"rental_uris":{"android":"levelo://app?vid=31fe666b-4d10-46d0-b2ee-25c9d00ec515","ios":"levelo://app?vid=31fe666b-4d10-46d0-b2ee-25c9d00ec515"},"vehicle_type_id":"4","last_reported":1741691264,"current_range_meters":12000,"station_id":"ce4bhg12rcd13ifvqf60","pricing_plan_id":"cebpf4jnsgd1na2vs0mg"},{"bike_id":"adbda3f8-bf28-42b6-b199-11ee1a621649","system_id":"levelo_inurba_marseille","lat":43.33807,"lon":5.37406,"is_reserved":false,"is_disabled":false,"rental_uris":{"android":"levelo://app?vid=adbda3f8-bf28-42b6-b199-11ee1a621649","ios":"levelo://app?vid=adbda3f8-bf28-42b6-b199-11ee1a621649"},"vehicle_type_id":"4","last_reported":1741691264,"current_range_meters":12000,"station_id":"","pricing_plan_id":"cebpf4jnsgd1na2vs0mg"},{"bike_id":"3e37f03c-e5a4-4e97-951f-7786bb1c3928","system_id":"levelo_inurba_marseille","lat":43.23168,"lon":5.4372,"is_reserved":false,"is_disabled":false,"rental_uris":{"android":"levelo://app?vid=3e37f03c-e5a4-4e97-951f-7786bb1c3928","ios":"levelo://app?vid=3e37f03c-e5a4-4e97-951f-7786bb1c3928"},"vehicle_type_id":"4","last_reported":1741691264,"current_range_meters":12000,"station_id":"ce4bhmp2rcd13ifvqgog","pricing_plan_id":"cebpf4jnsgd1na2vs0mg"},{"bike_id":"0deda062-d4bb-4b43-a043-ab193698c8cc","system_id":"levelo_inurba_marseille","lat":43.272,"lon":5.39176,"is_reserved":false,"is_disabled":false,"rental_uris":{"android":"levelo://app?vid=0deda062-d4bb-4b43-a043-ab193698c8cc","ios":"levelo://app?vid=0deda062-d4bb-4b43-a043-ab193698c8cc"},"vehicle_type_id":"4","last_reported":1741691264,"current_range_meters":12000,"station_id":"ce4bhhp2rcd13ifvqfm0","pricing_plan_id":"cebpf4jnsgd1na2vs0mg"},{"bike_id":"aa4f3a55-ef86-4e5d-95a8-9249c5d9493a","system_id":"levelo_inurba_marseille","lat":43.31342,"lon":5.36711,"is_reserved":false,"is_disabled":false,"rental_uris":{"android":"levelo://app?vid=aa4f3a55-ef86-4e5d-95a8-9249c5d9493a","ios":"levelo://app?vid=aa4f3a55-ef86-4e5d-95a8-9249c5d9493a"},"vehicle_type_id":"4","last_reported":1741691264,"current_range_meters":12000,"station_id":"ce4bgr92rcd13ifvqc7g","pricing_plan_id":"cebpf4jnsgd1na2vs0mg"},{"bike_id":"35dcf94e-d1ae-4d5d-9b57-d9685bdffaf6","system_id":"levelo_inurba_marseille","lat":43.2991,"lon":5.37484,"is_reserved":false,"is_disabled":false,"rental_uris":{"android":"levelo://app?vid=35dcf94e-d1ae-4d5d-9b57-d9685bdffaf6","ios":"levelo://app?vid=35dcf94e-d1ae-4d5d-9b57-d9685bdffaf6"},"vehicle_type_id":"4","last_reported":1741691264,"current_range_meters":12400,"station_id":"ce4bgjh2rcd13ifvqbg0","pricing_plan_id":"cebpf4jnsgd1na2vs0mg"},{"bike_id":"7f58d9e5-acbe-40df-8048-40fec1830ecf","system_id":"levelo_inurba_marseille","lat":43.32503,"lon":5.36557,"is_reserved":false,"is_disabled":false,"rental_uris":{"android":"levelo://app?vid=7f58d9e5-acbe-40df-8048-40fec1830ecf","ios":"levelo://app?vid=7f58d9e5-acbe-40df-8048-40fec1830ecf"},"vehicle_type_id":"4","last_reported":1741691264,"current_range_meters":12400,"station_id":"ce4bhs12rcd13ifvqhvg","pricing_plan_id":"cebpf4jnsgd1na2vs0mg"},{"bike_id":"716492ae-81b6-4ed5-8177-f4759b370b67","system_id":"levelo_inurba_marseille","lat":43.28148,"lon":5.42624,"is_reserved":false,"is_disabled":false,"rental_uris":{"android":"levelo://app?vid=716492ae-81b6-4ed5-8177-f4759b370b67","ios":"levelo://app?vid=716492ae-81b6-4ed5-8177-f4759b370b67"},"vehicle_type_id":"4","last_reported":1741691264,"current_range_meters":12400,"station_id":"ce4bhnh2rcd13ifvqgug","pricing_plan_id":"cebpf4jnsgd1na2vs0mg"},{"bike_id":"f73e1436-2829-4d1f-ab79-6598fa5aede2","system_id":"levelo_inurba_marseille","lat":43.29901,"lon":5.43667,"is_reserved":false,"is_disabled":false,"rental_uris":{"android":"levelo://app?vid=f73e1436-2829-4d1f-ab79-6598fa5aede2","ios":"levelo://app?vid=f73e1436-2829-4d1f-ab79-6598fa5aede2"},"vehicle_type_id":"4","last_reported":1741691264,"current_range_meters":12800,"station_id":"ce4bhpp2rcd13ifvqhfg","pricing_plan_id":"cebpf4jnsgd1na2vs0mg"},{"bike_id":"0f3b7328-3ff3-465a-8a33-bf6947070461","system_id":"levelo_inurba_marseille","lat":43.29254,"lon":5.38448,"is_reserved":false,"is_disabled":false,"rental_uris":{"android":"levelo://app?vid=0f3b7328-3ff3-465a-8a33-bf6947070461","ios":"levelo://app?vid=0f3b7328-3ff3-465a-8a33-bf6947070461"},"vehicle_type_id":"4","last_reported":1741691264,"current_range_meters":12800,"station_id":"ce4bh692rcd13ifvqea0","pricing_plan_id":"cebpf4jnsgd1na2vs0mg"},{"bike_id":"2f1f1d6f-8d34-4119-be85-7c2a63855b20","system_id":"levelo_inurba_marseille","lat":43.25869,"lon":5.39897,"is_reserved":false,"is_disabled":false,"rental_uris":{"android":"levelo://app?vid=2f1f1d6f-8d34-4119-be85-7c2a63855b20","ios":"levelo://app?vid=2f1f1d6f-8d34-4119-be85-7c2a63855b20"},"vehicle_type_id":"4","last_reported":1741691264,"current_range_meters":12800,"station_id":"ce4bhl92rcd13ifvqghg","pricing_plan_id":"cebpf4jnsgd1na2vs0mg"},{"bike_id":"30664257-dfcc-4059-a107-c6344a16de62","system_id":"levelo_inurba_marseille","lat":43.26945,"lon":5.3892,"is_reserved":false,"is_disabled":false,"rental_uris":{"android":"levelo://app?vid=30664257-dfcc-4059-a107-c6344a16de62","ios":"levelo://app?vid=30664257-dfcc-4059-a107-c6344a16de62"},"vehicle_type_id":"4","last_reported":1741691264,"current_range_meters":12400,"station_id":"ce4bhhh2rcd13ifvqfl0","pricing_plan_id":"cebpf4jnsgd1na2vs0mg"},{"bike_id":"2931d81f-abb3-45b8-9224-dc3fce2fae31","system_id":"levelo_inurba_marseille","lat":43.32319,"lon":5.36684,"is_reserved":false,"is_disabled":false,"rental_uris":{"android":"levelo://app?vid=2931d81f-abb3-45b8-9224-dc3fce2fae31","ios":"levelo://app?vid=2931d81f-abb3-45b8-9224-dc3fce2fae31"},"vehicle_type_id":"4","last_reported":1741691264,"current_range_meters":12800,"station_id":"ce4bhsh2rcd13ifvqi2g","pricing_plan_id":"cebpf4jnsgd1na2vs0mg"},{"bike_id":"20c1e358-1c7f-4912-9588-5a74dcb84090","system_id":"levelo_inurba_marseille","lat":43.249973,"lon":5.389323,"is_reserved":false,"is_disabled":false,"rental_uris":{"android":"levelo://app?vid=20c1e358-1c7f-4912-9588-5a74dcb84090","ios":"levelo://app?vid=20c1e358-1c7f-4912-9588-5a74dcb84090"},"vehicle_type_id":"4","last_reported":1741691264,"current_range_meters":12800,"station_id":"ce4bhgp2rcd13ifvqfd0","pricing_plan_id":"cebpf4jnsgd1na2vs0mg"},{"bike_id":"fe737f7b-d6c5-47f1-82b4-4c7527e03af6","system_id":"levelo_inurba_marseille","lat":43.31071,"lon":5.38352,"is_reserved":false,"is_disabled":false,"rental_uris":{"android":"levelo://app?vid=fe737f7b-d6c5-47f1-82b4-4c7527e03af6","ios":"levelo://app?vid=fe737f7b-d6c5-47f1-82b4-4c7527e03af6"},"vehicle_type_id":"4","last_reported":1741691264,"current_range_meters":13600,"station_id":"ce4bgv92rcd13ifvqcr0","pricing_plan_id":"cebpf4jnsgd1na2vs0mg"},{"bike_id":"7efac877-4bac-4d33-81c2-5e8339d415d6","system_id":"levelo_inurba_marseille","lat":43.31363,"lon":5.3667,"is_reserved":false,"is_disabled":false,"rental_uris":{"android":"levelo://app?vid=7efac877-4bac-4d33-81c2-5e8339d415d6","ios":"levelo://app?vid=7efac877-4bac-4d33-81c2-5e8339d415d6"},"vehicle_type_id":"4","last_reported":1741691264,"current_range_meters":13600,"station_id":"ce4bgr92rcd13ifvqc6g","pricing_plan_id":"cebpf4jnsgd1na2vs0mg"},{"bike_id":"2cdec81d-2593-4153-a426-2f527f1b29e2","system_id":"levelo_inurba_marseille","lat":43.23595,"lon":5.391,"is_reserved":false,"is_disabled":false,"rental_uris":{"android":"levelo://app?vid=2cdec81d-2593-4153-a426-2f527f1b29e2","ios":"levelo://app?vid=2cdec81d-2593-4153-a426-2f527f1b29e2"},"vehicle_type_id":"4","last_reported":1741691264,"current_range_meters":13600,"station_id":"","pricing_plan_id":"cebpf4jnsgd1na2vs0mg"},{"bike_id":"3b2944f3-8e5c-4c0a-b8a2-e98188282f5e","system_id":"levelo_inurba_marseille","lat":43.30129,"lon":5.38781,"is_reserved":false,"is_disabled":false,"rental_uris":{"android":"levelo://app?vid=3b2944f3-8e5c-4c0a-b8a2-e98188282f5e","ios":"levelo://app?vid=3b2944f3-8e5c-4c0a-b8a2-e98188282f5e"},"vehicle_type_id":"4","last_reported":1741691264,"current_range_meters":13600,"station_id":"ce4bghh2rcd13ifvqb60","pricing_plan_id":"cebpf4jnsgd1na2vs0mg"},{"bike_id":"ebdc0adc-86d4-4882-8983-2d6c86413625","system_id":"levelo_inurba_marseille","lat":43.23146,"lon":5.43719,"is_reserved":false,"is_disabled":false,"rental_uris":{"android":"levelo://app?vid=ebdc0adc-86d4-4882-8983-2d6c86413625","ios":"levelo://app?vid=ebdc0adc-86d4-4882-8983-2d6c86413625"},"vehicle_type_id":"4","last_reported":1741691264,"current_range_meters":13600,"station_id":"ce4bhmp2rcd13ifvqgog","pricing_plan_id":"cebpf4jnsgd1na2vs0mg"},{"bike_id":"773270fc-21a6-4c2e-9a6f-c7bc2e5b2ab4","system_id":"levelo_inurba_marseille","lat":43.291641,"lon":5.371539,"is_reserved":false,"is_disabled":false,"rental_uris":{"android":"levelo://app?vid=773270fc-21a6-4c2e-9a6f-c7bc2e5b2ab4","ios":"levelo://app?vid=773270fc-21a6-4c2e-9a6f-c7bc2e5b2ab4"},"vehicle_type_id":"4","last_reported":1741691264,"current_range_meters":13600,"station_id":"ce4bh4p2rcd13ifvqe1g","pricing_plan_id":"cebpf4jnsgd1na2vs0mg"},{"bike_id":"f3bb8725-4b68-4c77-94ca-e14587dc5a22","system_id":"levelo_inurba_marseille","lat":43.24173,"lon":5.39738,"is_reserved":false,"is_disabled":false,"rental_uris":{"android":"levelo://app?vid=f3bb8725-4b68-4c77-94ca-e14587dc5a22","ios":"levelo://app?vid=f3bb8725-4b68-4c77-94ca-e14587dc5a22"},"vehicle_type_id":"4","last_reported":1741691264,"current_range_meters":13600,"station_id":"ce4bhn12rcd13ifvqgpg","pricing_plan_id":"cebpf4jnsgd1na2vs0mg"},{"bike_id":"768b095f-42d3-4b5b-beca-2399fee03556","system_id":"levelo_inurba_marseille","lat":43.27911,"lon":5.39574,"is_reserved":false,"is_disabled":false,"rental_uris":{"android":"levelo://app?vid=768b095f-42d3-4b5b-beca-2399fee03556","ios":"levelo://app?vid=768b095f-42d3-4b5b-beca-2399fee03556"},"vehicle_type_id":"4","last_reported":1741691264,"current_range_meters":13600,"station_id":"ce4bhf92rcd13ifvqf40","pricing_plan_id":"cebpf4jnsgd1na2vs0mg"},{"bike_id":"4f212208-d422-41f4-b458-0504d2a42f61","system_id":"levelo_inurba_marseille","lat":43.30407,"lon":5.39716,"is_reserved":false,"is_disabled":false,"rental_uris":{"android":"levelo://app?vid=4f212208-d422-41f4-b458-0504d2a42f61","ios":"levelo://app?vid=4f212208-d422-41f4-b458-0504d2a42f61"},"vehicle_type_id":"4","last_reported":1741691264,"current_range_meters":13600,"station_id":"ce4bh092rcd13ifvqd20","pricing_plan_id":"cebpf4jnsgd1na2vs0mg"},{"bike_id":"9776d519-3376-4f51-aaa3-2da63911d7cc","system_id":"levelo_inurba_marseille","lat":43.25103,"lon":5.3953,"is_reserved":false,"is_disabled":false,"rental_uris":{"android":"levelo://app?vid=9776d519-3376-4f51-aaa3-2da63911d7cc","ios":"levelo://app?vid=9776d519-3376-4f51-aaa3-2da63911d7cc"},"vehicle_type_id":"4","last_reported":1741691264,"current_range_meters":14000,"station_id":"ce4bhm12rcd13ifvqgkg","pricing_plan_id":"cebpf4jnsgd1na2vs0mg"},{"bike_id":"e2e50c8b-2be9-4799-be1d-84e89edb13bc","system_id":"levelo_inurba_marseille","lat":43.29938,"lon":5.3655,"is_reserved":false,"is_disabled":false,"rental_uris":{"android":"levelo://app?vid=e2e50c8b-2be9-4799-be1d-84e89edb13bc","ios":"levelo://app?vid=e2e50c8b-2be9-4799-be1d-84e89edb13bc"},"vehicle_type_id":"4","last_reported":1741691264,"current_range_meters":14000,"station_id":"ce4bgm92rcd13ifvqbr0","pricing_plan_id":"cebpf4jnsgd1na2vs0mg"},{"bike_id":"7a10686d-dcd9-412b-94b7-ec3e6de43bbf","system_id":"levelo_inurba_marseille","lat":43.28163,"lon":5.42646,"is_reserved":false,"is_disabled":false,"rental_uris":{"android":"levelo://app?vid=7a10686d-dcd9-412b-94b7-ec3e6de43bbf","ios":"levelo://app?vid=7a10686d-dcd9-412b-94b7-ec3e6de43bbf"},"vehicle_type_id":"4","last_reported":1741691264,"current_range_meters":14800,"station_id":"ce4bhnh2rcd13ifvqgug","pricing_plan_id":"cebpf4jnsgd1na2vs0mg"},{"bike_id":"e345ecaf-820c-4c52-990c-d13b2fa46450","system_id":"levelo_inurba_marseille","lat":43.29272,"lon":5.36848,"is_reserved":false,"is_disabled":false,"rental_uris":{"android":"levelo://app?vid=e345ecaf-820c-4c52-990c-d13b2fa46450","ios":"levelo://app?vid=e345ecaf-820c-4c52-990c-d13b2fa46450"},"vehicle_type_id":"4","last_reported":1741691264,"current_range_meters":14000,"station_id":"ce4bhbp2rcd13ifvqesg","pricing_plan_id":"cebpf4jnsgd1na2vs0mg"},{"bike_id":"21a98077-97a5-4182-b1fc-3570e927fac1","system_id":"levelo_inurba_marseille","lat":43.25838,"lon":5.39402,"is_reserved":false,"is_disabled":false,"rental_uris":{"android":"levelo://app?vid=21a98077-97a5-4182-b1fc-3570e927fac1","ios":"levelo://app?vid=21a98077-97a5-4182-b1fc-3570e927fac1"},"vehicle_type_id":"4","last_reported":1741691264,"current_range_meters":14000,"station_id":"ce4bhip2rcd13ifvqft0","pricing_plan_id":"cebpf4jnsgd1na2vs0mg"},{"bike_id":"a3e991cd-2936-493d-9fcb-48f77e04aeb1","system_id":"levelo_inurba_marseille","lat":43.30529,"lon":5.36505,"is_reserved":false,"is_disabled":false,"rental_uris":{"android":"levelo://app?vid=a3e991cd-2936-493d-9fcb-48f77e04aeb1","ios":"levelo://app?vid=a3e991cd-2936-493d-9fcb-48f77e04aeb1"},"vehicle_type_id":"4","last_reported":1741691264,"current_range_meters":14400,"station_id":"ce4bgs12rcd13ifvqcag","pricing_plan_id":"cebpf4jnsgd1na2vs0mg"},{"bike_id":"0a2a62da-ee93-460c-8a93-9566cf3095ea","system_id":"levelo_inurba_marseille","lat":43.25115,"lon":5.40334,"is_reserved":false,"is_disabled":false,"rental_uris":{"android":"levelo://app?vid=0a2a62da-ee93-460c-8a93-9566cf3095ea","ios":"levelo://app?vid=0a2a62da-ee93-460c-8a93-9566cf3095ea"},"vehicle_type_id":"4","last_reported":1741691264,"current_range_meters":14400,"station_id":"ce4bhlh2rcd13ifvqgig","pricing_plan_id":"cebpf4jnsgd1na2vs0mg"},{"bike_id":"3c21f16d-39e5-4055-a464-9f911b44fd27","system_id":"levelo_inurba_marseille","lat":43.33727,"lon":5.39177,"is_reserved":false,"is_disabled":false,"rental_uris":{"android":"levelo://app?vid=3c21f16d-39e5-4055-a464-9f911b44fd27","ios":"levelo://app?vid=3c21f16d-39e5-4055-a464-9f911b44fd27"},"vehicle_type_id":"4","last_reported":1741691264,"current_range_meters":14400,"station_id":"ce4bhr92rcd13ifvqhsg","pricing_plan_id":"cebpf4jnsgd1na2vs0mg"},{"bike_id":"ab133eb8-7645-481b-8d68-7b7e97d89317","system_id":"levelo_inurba_marseille","lat":43.22928,"lon":5.35382,"is_reserved":false,"is_disabled":false,"rental_uris":{"android":"levelo://app?vid=ab133eb8-7645-481b-8d68-7b7e97d89317","ios":"levelo://app?vid=ab133eb8-7645-481b-8d68-7b7e97d89317"},"vehicle_type_id":"4","last_reported":1741691264,"current_range_meters":14800,"station_id":"","pricing_plan_id":"cebpf4jnsgd1na2vs0mg"},{"bike_id":"5c2aa1ed-67ce-4ac7-a122-1eabfecc0b35","system_id":"levelo_inurba_marseille","lat":43.32095,"lon":5.36804,"is_reserved":false,"is_disabled":false,"rental_uris":{"android":"levelo://app?vid=5c2aa1ed-67ce-4ac7-a122-1eabfecc0b35","ios":"levelo://app?vid=5c2aa1ed-67ce-4ac7-a122-1eabfecc0b35"},"vehicle_type_id":"4","last_reported":1741691264,"current_range_meters":14800,"station_id":"ce4bhrh2rcd13ifvqhug","pricing_plan_id":"cebpf4jnsgd1na2vs0mg"},{"bike_id":"72b00567-1151-4b86-a5da-91b46034bd63","system_id":"levelo_inurba_marseille","lat":43.29717,"lon":5.37694,"is_reserved":false,"is_disabled":false,"rental_uris":{"android":"levelo://app?vid=72b00567-1151-4b86-a5da-91b46034bd63","ios":"levelo://app?vid=72b00567-1151-4b86-a5da-91b46034bd63"},"vehicle_type_id":"4","last_reported":1741691264,"current_range_meters":14400,"station_id":"ce4bgkh2rcd13ifvqbl0","pricing_plan_id":"cebpf4jnsgd1na2vs0mg"},{"bike_id":"37e6d503-9d47-4d9d-a3fc-9e83bcf4b4a1","system_id":"levelo_inurba_marseille","lat":43.29295,"lon":5.37447,"is_reserved":false,"is_disabled":false,"rental_uris":{"android":"levelo://app?vid=37e6d503-9d47-4d9d-a3fc-9e83bcf4b4a1","ios":"levelo://app?vid=37e6d503-9d47-4d9d-a3fc-9e83bcf4b4a1"},"vehicle_type_id":"4","last_reported":1741691264,"current_range_meters":14800,"station_id":"ce4bgi12rcd13ifvqb70","pricing_plan_id":"cebpf4jnsgd1na2vs0mg"},{"bike_id":"c1fdf776-5ff6-4f38-96ad-d3bee4a7cebb","system_id":"levelo_inurba_marseille","lat":43.23139,"lon":5.43715,"is_reserved":false,"is_disabled":false,"rental_uris":{"android":"levelo://app?vid=c1fdf776-5ff6-4f38-96ad-d3bee4a7cebb","ios":"levelo://app?vid=c1fdf776-5ff6-4f38-96ad-d3bee4a7cebb"},"vehicle_type_id":"4","last_reported":1741691264,"current_range_meters":14800,"station_id":"ce4bhmp2rcd13ifvqgog","pricing_plan_id":"cebpf4jnsgd1na2vs0mg"},{"bike_id":"4227f142-720c-4f29-bccf-1e0e1ebee957","system_id":"levelo_inurba_marseille","lat":43.32472,"lon":5.3658,"is_reserved":false,"is_disabled":false,"rental_uris":{"android":"levelo://app?vid=4227f142-720c-4f29-bccf-1e0e1ebee957","ios":"levelo://app?vid=4227f142-720c-4f29-bccf-1e0e1ebee957"},"vehicle_type_id":"4","last_reported":1741691264,"current_range_meters":14800,"station_id":"ce4bhs12rcd13ifvqhvg","pricing_plan_id":"cebpf4jnsgd1na2vs0mg"},{"bike_id":"1f38eeaa-6c79-4140-a258-0812a6d15c9a","system_id":"levelo_inurba_marseille","lat":43.30298,"lon":5.39194,"is_reserved":false,"is_disabled":false,"rental_uris":{"android":"levelo://app?vid=1f38eeaa-6c79-4140-a258-0812a6d15c9a","ios":"levelo://app?vid=1f38eeaa-6c79-4140-a258-0812a6d15c9a"},"vehicle_type_id":"4","last_reported":1741691264,"current_range_meters":14800,"station_id":"ce4bgkh2rcd13ifvqbk0","pricing_plan_id":"cebpf4jnsgd1na2vs0mg"},{"bike_id":"81ebf633-21c8-4fe1-a0ef-3e4784ba4330","system_id":"levelo_inurba_marseille","lat":43.28215,"lon":5.40252,"is_reserved":false,"is_disabled":false,"rental_uris":{"android":"levelo://app?vid=81ebf633-21c8-4fe1-a0ef-3e4784ba4330","ios":"levelo://app?vid=81ebf633-21c8-4fe1-a0ef-3e4784ba4330"},"vehicle_type_id":"4","last_reported":1741691264,"current_range_meters":14800,"station_id":"","pricing_plan_id":"cebpf4jnsgd1na2vs0mg"},{"bike_id":"a268dcbc-ddd2-4b2c-89cc-fbb307910755","system_id":"levelo_inurba_marseille","lat":43.30449,"lon":5.3791,"is_reserved":false,"is_disabled":false,"rental_uris":{"android":"levelo://app?vid=a268dcbc-ddd2-4b2c-89cc-fbb307910755","ios":"levelo://app?vid=a268dcbc-ddd2-4b2c-89cc-fbb307910755"},"vehicle_type_id":"4","last_reported":1741691264,"current_range_meters":14800,"station_id":"ce4bgup2rcd13ifvqcn0","pricing_plan_id":"cebpf4jnsgd1na2vs0mg"},{"bike_id":"262ed5cd-dcd3-4df4-8953-e5f7601271d9","system_id":"levelo_inurba_marseille","lat":43.26951,"lon":5.3863,"is_reserved":false,"is_disabled":false,"rental_uris":{"android":"levelo://app?vid=262ed5cd-dcd3-4df4-8953-e5f7601271d9","ios":"levelo://app?vid=262ed5cd-dcd3-4df4-8953-e5f7601271d9"},"vehicle_type_id":"4","last_reported":1741691264,"current_range_meters":15200,"station_id":"ce4bhh92rcd13ifvqfh0","pricing_plan_id":"cebpf4jnsgd1na2vs0mg"},{"bike_id":"90e4636f-5acf-4803-a3ed-f0ba6d29d559","system_id":"levelo_inurba_marseille","lat":43.30455,"lon":5.38889,"is_reserved":false,"is_disabled":false,"rental_uris":{"android":"levelo://app?vid=90e4636f-5acf-4803-a3ed-f0ba6d29d559","ios":"levelo://app?vid=90e4636f-5acf-4803-a3ed-f0ba6d29d559"},"vehicle_type_id":"4","last_reported":1741691264,"current_range_meters":15200,"station_id":"ce4bgk12rcd13ifvqbi0","pricing_plan_id":"cebpf4jnsgd1na2vs0mg"},{"bike_id":"fa819ad7-652c-44a7-accd-a73e42e25c1f","system_id":"levelo_inurba_marseille","lat":43.31341,"lon":5.39702,"is_reserved":false,"is_disabled":false,"rental_uris":{"android":"levelo://app?vid=fa819ad7-652c-44a7-accd-a73e42e25c1f","ios":"levelo://app?vid=fa819ad7-652c-44a7-accd-a73e42e25c1f"},"vehicle_type_id":"4","last_reported":1741691264,"current_range_meters":15200,"station_id":"ce4bgvp2rcd13ifvqcu0","pricing_plan_id":"cebpf4jnsgd1na2vs0mg"},{"bike_id":"cbc68403-909e-4f9f-b7d4-9f0ff5d8a4cd","system_id":"levelo_inurba_marseille","lat":43.303618,"lon":5.376764,"is_reserved":false,"is_disabled":false,"rental_uris":{"android":"levelo://app?vid=cbc68403-909e-4f9f-b7d4-9f0ff5d8a4cd","ios":"levelo://app?vid=cbc68403-909e-4f9f-b7d4-9f0ff5d8a4cd"},"vehicle_type_id":"4","last_reported":1741691264,"current_range_meters":15200,"station_id":"ce4bguh2rcd13ifvqcj0","pricing_plan_id":"cebpf4jnsgd1na2vs0mg"},{"bike_id":"9f5ffd05-b2c4-4285-a079-6e0cf794377b","system_id":"levelo_inurba_marseille","lat":43.30317,"lon":5.36904,"is_reserved":false,"is_disabled":false,"rental_uris":{"android":"levelo://app?vid=9f5ffd05-b2c4-4285-a079-6e0cf794377b","ios":"levelo://app?vid=9f5ffd05-b2c4-4285-a079-6e0cf794377b"},"vehicle_type_id":"4","last_reported":1741691264,"current_range_meters":15200,"station_id":"ce4bgqh2rcd13ifvqc5g","pricing_plan_id":"cebpf4jnsgd1na2vs0mg"},{"bike_id":"6dcd2f97-8f89-4829-880e-b7d1ee595031","system_id":"levelo_inurba_marseille","lat":43.31222,"lon":5.36858,"is_reserved":false,"is_disabled":false,"rental_uris":{"android":"levelo://app?vid=6dcd2f97-8f89-4829-880e-b7d1ee595031","ios":"levelo://app?vid=6dcd2f97-8f89-4829-880e-b7d1ee595031"},"vehicle_type_id":"4","last_reported":1741691264,"current_range_meters":15200,"station_id":"ce4bgl92rcd13ifvqbq0","pricing_plan_id":"cebpf4jnsgd1na2vs0mg"},{"bike_id":"28ddcdf4-024a-4f42-80ff-fb3bac3f5f61","system_id":"levelo_inurba_marseille","lat":43.24168,"lon":5.36387,"is_reserved":false,"is_disabled":false,"rental_uris":{"android":"levelo://app?vid=28ddcdf4-024a-4f42-80ff-fb3bac3f5f61","ios":"levelo://app?vid=28ddcdf4-024a-4f42-80ff-fb3bac3f5f61"},"vehicle_type_id":"4","last_reported":1741691264,"current_range_meters":16000,"station_id":"cpo36qri1sfpv3e86is0","pricing_plan_id":"cebpf4jnsgd1na2vs0mg"},{"bike_id":"8ce9b9a8-c069-4c4b-95bf-5f95cb0601ac","system_id":"levelo_inurba_marseille","lat":43.29266,"lon":5.37623,"is_reserved":false,"is_disabled":false,"rental_uris":{"android":"levelo://app?vid=8ce9b9a8-c069-4c4b-95bf-5f95cb0601ac","ios":"levelo://app?vid=8ce9b9a8-c069-4c4b-95bf-5f95cb0601ac"},"vehicle_type_id":"4","last_reported":1741691264,"current_range_meters":16000,"station_id":"ce4bgi12rcd13ifvqb80","pricing_plan_id":"cebpf4jnsgd1na2vs0mg"},{"bike_id":"17b872eb-086c-460e-bcad-782a4a781cf9","system_id":"levelo_inurba_marseille","lat":43.25217,"lon":5.42726,"is_reserved":false,"is_disabled":false,"rental_uris":{"android":"levelo://app?vid=17b872eb-086c-460e-bcad-782a4a781cf9","ios":"levelo://app?vid=17b872eb-086c-460e-bcad-782a4a781cf9"},"vehicle_type_id":"4","last_reported":1741691264,"current_range_meters":16000,"station_id":"","pricing_plan_id":"cebpf4jnsgd1na2vs0mg"},{"bike_id":"f1f0ab11-aff7-4650-9b2d-74667c903cb6","system_id":"levelo_inurba_marseille","lat":43.305835,"lon":5.393014,"is_reserved":false,"is_disabled":false,"rental_uris":{"android":"levelo://app?vid=f1f0ab11-aff7-4650-9b2d-74667c903cb6","ios":"levelo://app?vid=f1f0ab11-aff7-4650-9b2d-74667c903cb6"},"vehicle_type_id":"4","last_reported":1741691264,"current_range_meters":16000,"station_id":"ce4bh392rcd13ifvqdl0","pricing_plan_id":"cebpf4jnsgd1na2vs0mg"},{"bike_id":"1d29006d-4d43-4a57-a6a2-1b55f406bf4a","system_id":"levelo_inurba_marseille","lat":43.30533,"lon":5.36691,"is_reserved":false,"is_disabled":false,"rental_uris":{"android":"levelo://app?vid=1d29006d-4d43-4a57-a6a2-1b55f406bf4a","ios":"levelo://app?vid=1d29006d-4d43-4a57-a6a2-1b55f406bf4a"},"vehicle_type_id":"4","last_reported":1741691264,"current_range_meters":16000,"station_id":"ce4bgrp2rcd13ifvqc9g","pricing_plan_id":"cebpf4jnsgd1na2vs0mg"},{"bike_id":"aac30127-a1e3-4c73-9272-f3afaf1d3a7f","system_id":"levelo_inurba_marseille","lat":43.24059,"lon":5.37716,"is_reserved":false,"is_disabled":false,"rental_uris":{"android":"levelo://app?vid=aac30127-a1e3-4c73-9272-f3afaf1d3a7f","ios":"levelo://app?vid=aac30127-a1e3-4c73-9272-f3afaf1d3a7f"},"vehicle_type_id":"4","last_reported":1741691264,"current_range_meters":16000,"station_id":"ce4bhnp2rcd13ifvqgvg","pricing_plan_id":"cebpf4jnsgd1na2vs0mg"},{"bike_id":"03fcef79-f017-4d15-a10d-891c5cd96db2","system_id":"levelo_inurba_marseille","lat":43.230669,"lon":5.354933,"is_reserved":false,"is_disabled":false,"rental_uris":{"android":"levelo://app?vid=03fcef79-f017-4d15-a10d-891c5cd96db2","ios":"levelo://app?vid=03fcef79-f017-4d15-a10d-891c5cd96db2"},"vehicle_type_id":"4","last_reported":1741691264,"current_range_meters":16000,"station_id":"cpo3342slgdg3j2ifvpg","pricing_plan_id":"cebpf4jnsgd1na2vs0mg"},{"bike_id":"f829a819-671e-4b71-9c22-56c5f8047725","system_id":"levelo_inurba_marseille","lat":43.32355,"lon":5.36752,"is_reserved":false,"is_disabled":false,"rental_uris":{"android":"levelo://app?vid=f829a819-671e-4b71-9c22-56c5f8047725","ios":"levelo://app?vid=f829a819-671e-4b71-9c22-56c5f8047725"},"vehicle_type_id":"4","last_reported":1741691264,"current_range_meters":16000,"station_id":"ce4bhsh2rcd13ifvqi2g","pricing_plan_id":"cebpf4jnsgd1na2vs0mg"},{"bike_id":"8bca6b52-28c0-4932-8ec1-82b13d2e0c6d","system_id":"levelo_inurba_marseille","lat":43.29273,"lon":5.37625,"is_reserved":false,"is_disabled":false,"rental_uris":{"android":"levelo://app?vid=8bca6b52-28c0-4932-8ec1-82b13d2e0c6d","ios":"levelo://app?vid=8bca6b52-28c0-4932-8ec1-82b13d2e0c6d"},"vehicle_type_id":"4","last_reported":1741691264,"current_range_meters":16400,"station_id":"ce4bgi12rcd13ifvqb80","pricing_plan_id":"cebpf4jnsgd1na2vs0mg"},{"bike_id":"c012cb5d-cc6c-48db-8d04-a321ffc6e266","system_id":"levelo_inurba_marseille","lat":43.30531,"lon":5.36697,"is_reserved":false,"is_disabled":false,"rental_uris":{"android":"levelo://app?vid=c012cb5d-cc6c-48db-8d04-a321ffc6e266","ios":"levelo://app?vid=c012cb5d-cc6c-48db-8d04-a321ffc6e266"},"vehicle_type_id":"4","last_reported":1741691264,"current_range_meters":16400,"station_id":"ce4bgrp2rcd13ifvqc9g","pricing_plan_id":"cebpf4jnsgd1na2vs0mg"},{"bike_id":"85ce4108-dda4-48b8-be9b-ebe4f4f7b018","system_id":"levelo_inurba_marseille","lat":43.30433,"lon":5.39739,"is_reserved":false,"is_disabled":false,"rental_uris":{"android":"levelo://app?vid=85ce4108-dda4-48b8-be9b-ebe4f4f7b018","ios":"levelo://app?vid=85ce4108-dda4-48b8-be9b-ebe4f4f7b018"},"vehicle_type_id":"4","last_reported":1741691264,"current_range_meters":16400,"station_id":"ce4bh092rcd13ifvqd20","pricing_plan_id":"cebpf4jnsgd1na2vs0mg"},{"bike_id":"4e794de7-c889-4738-afea-8ae2f5a70719","system_id":"levelo_inurba_marseille","lat":43.3054,"lon":5.36537,"is_reserved":false,"is_disabled":false,"rental_uris":{"android":"levelo://app?vid=4e794de7-c889-4738-afea-8ae2f5a70719","ios":"levelo://app?vid=4e794de7-c889-4738-afea-8ae2f5a70719"},"vehicle_type_id":"4","last_reported":1741691264,"current_range_meters":16400,"station_id":"ce4bgs12rcd13ifvqcag","pricing_plan_id":"cebpf4jnsgd1na2vs0mg"},{"bike_id":"a6588cc6-c0dd-4951-b701-c5de46fb9979","system_id":"levelo_inurba_marseille","lat":43.29647,"lon":5.37149,"is_reserved":false,"is_disabled":false,"rental_uris":{"android":"levelo://app?vid=a6588cc6-c0dd-4951-b701-c5de46fb9979","ios":"levelo://app?vid=a6588cc6-c0dd-4951-b701-c5de46fb9979"},"vehicle_type_id":"4","last_reported":1741691264,"current_range_meters":16000,"station_id":"ce4bgnh2rcd13ifvqc0g","pricing_plan_id":"cebpf4jnsgd1na2vs0mg"},{"bike_id":"e6c5fe14-0971-46e2-b0e0-4626cf8ee696","system_id":"levelo_inurba_marseille","lat":43.30481,"lon":5.37906,"is_reserved":false,"is_disabled":false,"rental_uris":{"android":"levelo://app?vid=e6c5fe14-0971-46e2-b0e0-4626cf8ee696","ios":"levelo://app?vid=e6c5fe14-0971-46e2-b0e0-4626cf8ee696"},"vehicle_type_id":"4","last_reported":1741691264,"current_range_meters":16400,"station_id":"ce4bgup2rcd13ifvqcn0","pricing_plan_id":"cebpf4jnsgd1na2vs0mg"},{"bike_id":"3ea8914c-4d1e-4908-8e3f-d1ca0cffded0","system_id":"levelo_inurba_marseille","lat":43.25928,"lon":5.40903,"is_reserved":false,"is_disabled":false,"rental_uris":{"android":"levelo://app?vid=3ea8914c-4d1e-4908-8e3f-d1ca0cffded0","ios":"levelo://app?vid=3ea8914c-4d1e-4908-8e3f-d1ca0cffded0"},"vehicle_type_id":"4","last_reported":1741691264,"current_range_meters":16400,"station_id":"ce4bhm92rcd13ifvqglg","pricing_plan_id":"cebpf4jnsgd1na2vs0mg"},{"bike_id":"be04fb7b-49e7-491b-ab49-5893cbae4799","system_id":"levelo_inurba_marseille","lat":43.25024,"lon":5.38902,"is_reserved":false,"is_disabled":false,"rental_uris":{"android":"levelo://app?vid=be04fb7b-49e7-491b-ab49-5893cbae4799","ios":"levelo://app?vid=be04fb7b-49e7-491b-ab49-5893cbae4799"},"vehicle_type_id":"4","last_reported":1741691264,"current_range_meters":16400,"station_id":"ce4bhgp2rcd13ifvqfd0","pricing_plan_id":"cebpf4jnsgd1na2vs0mg"},{"bike_id":"4f864840-af18-4a00-a857-cc2a34d14dfd","system_id":"levelo_inurba_marseille","lat":43.29262,"lon":5.38439,"is_reserved":false,"is_disabled":false,"rental_uris":{"android":"levelo://app?vid=4f864840-af18-4a00-a857-cc2a34d14dfd","ios":"levelo://app?vid=4f864840-af18-4a00-a857-cc2a34d14dfd"},"vehicle_type_id":"4","last_reported":1741691264,"current_range_meters":16400,"station_id":"ce4bh692rcd13ifvqea0","pricing_plan_id":"cebpf4jnsgd1na2vs0mg"},{"bike_id":"5b40fcbb-5339-4d09-8622-7ef474631ab1","system_id":"levelo_inurba_marseille","lat":43.30549,"lon":5.36688,"is_reserved":false,"is_disabled":false,"rental_uris":{"android":"levelo://app?vid=5b40fcbb-5339-4d09-8622-7ef474631ab1","ios":"levelo://app?vid=5b40fcbb-5339-4d09-8622-7ef474631ab1"},"vehicle_type_id":"4","last_reported":1741691264,"current_range_meters":16400,"station_id":"ce4bgrp2rcd13ifvqc9g","pricing_plan_id":"cebpf4jnsgd1na2vs0mg"},{"bike_id":"803ea8dd-d180-4e7f-8cac-6164ca1b88ff","system_id":"levelo_inurba_marseille","lat":43.27805,"lon":5.40716,"is_reserved":false,"is_disabled":false,"rental_uris":{"android":"levelo://app?vid=803ea8dd-d180-4e7f-8cac-6164ca1b88ff","ios":"levelo://app?vid=803ea8dd-d180-4e7f-8cac-6164ca1b88ff"},"vehicle_type_id":"4","last_reported":1741691264,"current_range_meters":16400,"station_id":"ce4bhnh2rcd13ifvqgtg","pricing_plan_id":"cebpf4jnsgd1na2vs0mg"},{"bike_id":"d8f8b9d4-699d-4feb-9a45-c202cb90c6f0","system_id":"levelo_inurba_marseille","lat":43.25106,"lon":5.39506,"is_reserved":false,"is_disabled":false,"rental_uris":{"android":"levelo://app?vid=d8f8b9d4-699d-4feb-9a45-c202cb90c6f0","ios":"levelo://app?vid=d8f8b9d4-699d-4feb-9a45-c202cb90c6f0"},"vehicle_type_id":"4","last_reported":1741691264,"current_range_meters":16400,"station_id":"ce4bhm12rcd13ifvqgkg","pricing_plan_id":"cebpf4jnsgd1na2vs0mg"},{"bike_id":"c29ef17b-038c-4552-a43c-17f4ffb3b605","system_id":"levelo_inurba_marseille","lat":43.29028,"lon":5.35898,"is_reserved":false,"is_disabled":false,"rental_uris":{"android":"levelo://app?vid=c29ef17b-038c-4552-a43c-17f4ffb3b605","ios":"levelo://app?vid=c29ef17b-038c-4552-a43c-17f4ffb3b605"},"vehicle_type_id":"4","last_reported":1741691264,"current_range_meters":16800,"station_id":"ce4bha92rcd13ifvqeg0","pricing_plan_id":"cebpf4jnsgd1na2vs0mg"},{"bike_id":"bb6388ec-21b2-40d4-86e4-837e36c85c50","system_id":"levelo_inurba_marseille","lat":43.24173,"lon":5.36392,"is_reserved":false,"is_disabled":false,"rental_uris":{"android":"levelo://app?vid=bb6388ec-21b2-40d4-86e4-837e36c85c50","ios":"levelo://app?vid=bb6388ec-21b2-40d4-86e4-837e36c85c50"},"vehicle_type_id":"4","last_reported":1741691264,"current_range_meters":16800,"station_id":"cpo36qri1sfpv3e86is0","pricing_plan_id":"cebpf4jnsgd1na2vs0mg"},{"bike_id":"f3b197bc-36e4-4968-b987-704264304381","system_id":"levelo_inurba_marseille","lat":43.2707,"lon":5.4025,"is_reserved":false,"is_disabled":false,"rental_uris":{"android":"levelo://app?vid=f3b197bc-36e4-4968-b987-704264304381","ios":"levelo://app?vid=f3b197bc-36e4-4968-b987-704264304381"},"vehicle_type_id":"4","last_reported":1741691264,"current_range_meters":16800,"station_id":"ce4bhk92rcd13ifvqgc0","pricing_plan_id":"cebpf4jnsgd1na2vs0mg"},{"bike_id":"8ad85dbe-e75c-44b7-a59f-2827b8a24433","system_id":"levelo_inurba_marseille","lat":43.29223,"lon":5.36054,"is_reserved":false,"is_disabled":false,"rental_uris":{"android":"levelo://app?vid=8ad85dbe-e75c-44b7-a59f-2827b8a24433","ios":"levelo://app?vid=8ad85dbe-e75c-44b7-a59f-2827b8a24433"},"vehicle_type_id":"4","last_reported":1741691264,"current_range_meters":16800,"station_id":"ce4bhbh2rcd13ifvqeqg","pricing_plan_id":"cebpf4jnsgd1na2vs0mg"},{"bike_id":"b44022d5-a3c8-45f9-9984-eaba76929c7b","system_id":"levelo_inurba_marseille","lat":43.2781,"lon":5.4071,"is_reserved":false,"is_disabled":false,"rental_uris":{"android":"levelo://app?vid=b44022d5-a3c8-45f9-9984-eaba76929c7b","ios":"levelo://app?vid=b44022d5-a3c8-45f9-9984-eaba76929c7b"},"vehicle_type_id":"4","last_reported":1741691264,"current_range_meters":16800,"station_id":"ce4bhnh2rcd13ifvqgtg","pricing_plan_id":"cebpf4jnsgd1na2vs0mg"},{"bike_id":"a4ce6389-69c8-41eb-a2cb-27e113df5153","system_id":"levelo_inurba_marseille","lat":43.28626,"lon":5.35097,"is_reserved":false,"is_disabled":false,"rental_uris":{"android":"levelo://app?vid=a4ce6389-69c8-41eb-a2cb-27e113df5153","ios":"levelo://app?vid=a4ce6389-69c8-41eb-a2cb-27e113df5153"},"vehicle_type_id":"4","last_reported":1741691264,"current_range_meters":17200,"station_id":"ce4bhch2rcd13ifvqeug","pricing_plan_id":"cebpf4jnsgd1na2vs0mg"},{"bike_id":"0a995a9a-6122-4f4b-b298-a8b06cbca7e2","system_id":"levelo_inurba_marseille","lat":43.25005,"lon":5.38917,"is_reserved":false,"is_disabled":false,"rental_uris":{"android":"levelo://app?vid=0a995a9a-6122-4f4b-b298-a8b06cbca7e2","ios":"levelo://app?vid=0a995a9a-6122-4f4b-b298-a8b06cbca7e2"},"vehicle_type_id":"4","last_reported":1741691264,"current_range_meters":17200,"station_id":"ce4bhgp2rcd13ifvqfd0","pricing_plan_id":"cebpf4jnsgd1na2vs0mg"},{"bike_id":"bd61afa9-c73c-4c27-baad-5bbcf752eafb","system_id":"levelo_inurba_marseille","lat":43.26681,"lon":5.3827,"is_reserved":false,"is_disabled":false,"rental_uris":{"android":"levelo://app?vid=bd61afa9-c73c-4c27-baad-5bbcf752eafb","ios":"levelo://app?vid=bd61afa9-c73c-4c27-baad-5bbcf752eafb"},"vehicle_type_id":"4","last_reported":1741691264,"current_range_meters":17200,"station_id":"ce4bhg92rcd13ifvqf90","pricing_plan_id":"cebpf4jnsgd1na2vs0mg"},{"bike_id":"4f23cdcb-4a0c-482b-92b2-ae01477750dd","system_id":"levelo_inurba_marseille","lat":43.29669,"lon":5.37552,"is_reserved":false,"is_disabled":false,"rental_uris":{"android":"levelo://app?vid=4f23cdcb-4a0c-482b-92b2-ae01477750dd","ios":"levelo://app?vid=4f23cdcb-4a0c-482b-92b2-ae01477750dd"},"vehicle_type_id":"4","last_reported":1741691264,"current_range_meters":17200,"station_id":"","pricing_plan_id":"cebpf4jnsgd1na2vs0mg"},{"bike_id":"ee8e82a7-5b6b-4c9e-a2e6-740bd380c17e","system_id":"levelo_inurba_marseille","lat":43.32489,"lon":5.365608,"is_reserved":false,"is_disabled":false,"rental_uris":{"android":"levelo://app?vid=ee8e82a7-5b6b-4c9e-a2e6-740bd380c17e","ios":"levelo://app?vid=ee8e82a7-5b6b-4c9e-a2e6-740bd380c17e"},"vehicle_type_id":"4","last_reported":1741691264,"current_range_meters":17200,"station_id":"ce4bhs12rcd13ifvqhvg","pricing_plan_id":"cebpf4jnsgd1na2vs0mg"},{"bike_id":"24b4b104-5c89-4fc6-8924-6d1684e13415","system_id":"levelo_inurba_marseille","lat":43.23159,"lon":5.43707,"is_reserved":false,"is_disabled":false,"rental_uris":{"android":"levelo://app?vid=24b4b104-5c89-4fc6-8924-6d1684e13415","ios":"levelo://app?vid=24b4b104-5c89-4fc6-8924-6d1684e13415"},"vehicle_type_id":"4","last_reported":1741691264,"current_range_meters":17200,"station_id":"ce4bhmp2rcd13ifvqgog","pricing_plan_id":"cebpf4jnsgd1na2vs0mg"},{"bike_id":"97a476ec-ebb2-47e9-9d47-3f7832a2c8e6","system_id":"levelo_inurba_marseille","lat":43.29847,"lon":5.3628,"is_reserved":false,"is_disabled":false,"rental_uris":{"android":"levelo://app?vid=97a476ec-ebb2-47e9-9d47-3f7832a2c8e6","ios":"levelo://app?vid=97a476ec-ebb2-47e9-9d47-3f7832a2c8e6"},"vehicle_type_id":"4","last_reported":1741691264,"current_range_meters":17200,"station_id":"ce4bgpp2rcd13ifvqc3g","pricing_plan_id":"cebpf4jnsgd1na2vs0mg"},{"bike_id":"0373d851-0e68-4e12-aa72-9c00b653dcb5","system_id":"levelo_inurba_marseille","lat":43.31427,"lon":5.37671,"is_reserved":false,"is_disabled":false,"rental_uris":{"android":"levelo://app?vid=0373d851-0e68-4e12-aa72-9c00b653dcb5","ios":"levelo://app?vid=0373d851-0e68-4e12-aa72-9c00b653dcb5"},"vehicle_type_id":"4","last_reported":1741691264,"current_range_meters":17200,"station_id":"","pricing_plan_id":"cebpf4jnsgd1na2vs0mg"},{"bike_id":"2167c054-9e8b-4b99-9bdf-41f5e2ac86e0","system_id":"levelo_inurba_marseille","lat":43.32471,"lon":5.36573,"is_reserved":false,"is_disabled":false,"rental_uris":{"android":"levelo://app?vid=2167c054-9e8b-4b99-9bdf-41f5e2ac86e0","ios":"levelo://app?vid=2167c054-9e8b-4b99-9bdf-41f5e2ac86e0"},"vehicle_type_id":"4","last_reported":1741691264,"current_range_meters":17200,"station_id":"ce4bhs12rcd13ifvqhvg","pricing_plan_id":"cebpf4jnsgd1na2vs0mg"},{"bike_id":"6dbc9b4a-c5a1-4dbf-a00f-5bb7462d2694","system_id":"levelo_inurba_marseille","lat":43.28106,"lon":5.39857,"is_reserved":false,"is_disabled":false,"rental_uris":{"android":"levelo://app?vid=6dbc9b4a-c5a1-4dbf-a00f-5bb7462d2694","ios":"levelo://app?vid=6dbc9b4a-c5a1-4dbf-a00f-5bb7462d2694"},"vehicle_type_id":"4","last_reported":1741691264,"current_range_meters":17200,"station_id":"","pricing_plan_id":"cebpf4jnsgd1na2vs0mg"},{"bike_id":"1bddbc37-0e00-4efd-b04d-dc4ea5b3009f","system_id":"levelo_inurba_marseille","lat":43.31221,"lon":5.36862,"is_reserved":false,"is_disabled":false,"rental_uris":{"android":"levelo://app?vid=1bddbc37-0e00-4efd-b04d-dc4ea5b3009f","ios":"levelo://app?vid=1bddbc37-0e00-4efd-b04d-dc4ea5b3009f"},"vehicle_type_id":"4","last_reported":1741691264,"current_range_meters":17200,"station_id":"ce4bgl92rcd13ifvqbq0","pricing_plan_id":"cebpf4jnsgd1na2vs0mg"},{"bike_id":"77bbe8a5-b9e1-4f12-9fee-2d69a0447b20","system_id":"levelo_inurba_marseille","lat":43.27212,"lon":5.39178,"is_reserved":false,"is_disabled":false,"rental_uris":{"android":"levelo://app?vid=77bbe8a5-b9e1-4f12-9fee-2d69a0447b20","ios":"levelo://app?vid=77bbe8a5-b9e1-4f12-9fee-2d69a0447b20"},"vehicle_type_id":"4","last_reported":1741691264,"current_range_meters":17600,"station_id":"ce4bhhp2rcd13ifvqfm0","pricing_plan_id":"cebpf4jnsgd1na2vs0mg"},{"bike_id":"be6339ea-4a58-4dc6-96ef-f23be0cfa6d2","system_id":"levelo_inurba_marseille","lat":43.275364,"lon":5.384502,"is_reserved":false,"is_disabled":false,"rental_uris":{"android":"levelo://app?vid=be6339ea-4a58-4dc6-96ef-f23be0cfa6d2","ios":"levelo://app?vid=be6339ea-4a58-4dc6-96ef-f23be0cfa6d2"},"vehicle_type_id":"4","last_reported":1741691264,"current_range_meters":17600,"station_id":"ce4bhh92rcd13ifvqfi0","pricing_plan_id":"cebpf4jnsgd1na2vs0mg"},{"bike_id":"10f6d00d-cc17-481c-974e-615935f6830b","system_id":"levelo_inurba_marseille","lat":43.25582,"lon":5.3823,"is_reserved":false,"is_disabled":false,"rental_uris":{"android":"levelo://app?vid=10f6d00d-cc17-481c-974e-615935f6830b","ios":"levelo://app?vid=10f6d00d-cc17-481c-974e-615935f6830b"},"vehicle_type_id":"4","last_reported":1741691264,"current_range_meters":17600,"station_id":"ce4bhih2rcd13ifvqfs0","pricing_plan_id":"cebpf4jnsgd1na2vs0mg"},{"bike_id":"c4250e82-8c81-4e44-ba6b-37b6bdb4676e","system_id":"levelo_inurba_marseille","lat":43.30544,"lon":5.36704,"is_reserved":false,"is_disabled":false,"rental_uris":{"android":"levelo://app?vid=c4250e82-8c81-4e44-ba6b-37b6bdb4676e","ios":"levelo://app?vid=c4250e82-8c81-4e44-ba6b-37b6bdb4676e"},"vehicle_type_id":"4","last_reported":1741691264,"current_range_meters":17600,"station_id":"ce4bgrp2rcd13ifvqc9g","pricing_plan_id":"cebpf4jnsgd1na2vs0mg"},{"bike_id":"5559a053-7fc7-4b9d-bfdb-281953baff79","system_id":"levelo_inurba_marseille","lat":43.24651,"lon":5.38891,"is_reserved":false,"is_disabled":false,"rental_uris":{"android":"levelo://app?vid=5559a053-7fc7-4b9d-bfdb-281953baff79","ios":"levelo://app?vid=5559a053-7fc7-4b9d-bfdb-281953baff79"},"vehicle_type_id":"4","last_reported":1741691264,"current_range_meters":17600,"station_id":"ce4bhg12rcd13ifvqf60","pricing_plan_id":"cebpf4jnsgd1na2vs0mg"},{"bike_id":"dac7894f-9ad4-451b-b610-9d0ecdb3dfed","system_id":"levelo_inurba_marseille","lat":43.30478,"lon":5.37899,"is_reserved":false,"is_disabled":false,"rental_uris":{"android":"levelo://app?vid=dac7894f-9ad4-451b-b610-9d0ecdb3dfed","ios":"levelo://app?vid=dac7894f-9ad4-451b-b610-9d0ecdb3dfed"},"vehicle_type_id":"4","last_reported":1741691264,"current_range_meters":17600,"station_id":"ce4bgup2rcd13ifvqcn0","pricing_plan_id":"cebpf4jnsgd1na2vs0mg"},{"bike_id":"7107f99a-6852-412f-86e5-4c9ad5518257","system_id":"levelo_inurba_marseille","lat":43.28926,"lon":5.36389,"is_reserved":false,"is_disabled":false,"rental_uris":{"android":"levelo://app?vid=7107f99a-6852-412f-86e5-4c9ad5518257","ios":"levelo://app?vid=7107f99a-6852-412f-86e5-4c9ad5518257"},"vehicle_type_id":"4","last_reported":1741691264,"current_range_meters":20000,"station_id":"ce4bhc92rcd13ifvqetg","pricing_plan_id":"cebpf4jnsgd1na2vs0mg"},{"bike_id":"27b4d3c2-aafd-4046-baf1-9eaf91a2556c","system_id":"levelo_inurba_marseille","lat":43.30097,"lon":5.39074,"is_reserved":false,"is_disabled":false,"rental_uris":{"android":"levelo://app?vid=27b4d3c2-aafd-4046-baf1-9eaf91a2556c","ios":"levelo://app?vid=27b4d3c2-aafd-4046-baf1-9eaf91a2556c"},"vehicle_type_id":"4","last_reported":1741691264,"current_range_meters":17600,"station_id":"ce4bh192rcd13ifvqdb0","pricing_plan_id":"cebpf4jnsgd1na2vs0mg"},{"bike_id":"64c5fc67-aeb4-414f-b97c-b56948e42698","system_id":"levelo_inurba_marseille","lat":43.26952,"lon":5.38636,"is_reserved":false,"is_disabled":false,"rental_uris":{"android":"levelo://app?vid=64c5fc67-aeb4-414f-b97c-b56948e42698","ios":"levelo://app?vid=64c5fc67-aeb4-414f-b97c-b56948e42698"},"vehicle_type_id":"4","last_reported":1741691264,"current_range_meters":18000,"station_id":"ce4bhh92rcd13ifvqfh0","pricing_plan_id":"cebpf4jnsgd1na2vs0mg"},{"bike_id":"fe6f7921-3d30-4807-b07a-70e9a8ca71f8","system_id":"levelo_inurba_marseille","lat":43.25104,"lon":5.39506,"is_reserved":false,"is_disabled":false,"rental_uris":{"android":"levelo://app?vid=fe6f7921-3d30-4807-b07a-70e9a8ca71f8","ios":"levelo://app?vid=fe6f7921-3d30-4807-b07a-70e9a8ca71f8"},"vehicle_type_id":"4","last_reported":1741691264,"current_range_meters":18000,"station_id":"ce4bhm12rcd13ifvqgkg","pricing_plan_id":"cebpf4jnsgd1na2vs0mg"},{"bike_id":"36451336-d252-4cc2-b484-d9b7c938cccf","system_id":"levelo_inurba_marseille","lat":43.286197,"lon":5.379344,"is_reserved":false,"is_disabled":false,"rental_uris":{"android":"levelo://app?vid=36451336-d252-4cc2-b484-d9b7c938cccf","ios":"levelo://app?vid=36451336-d252-4cc2-b484-d9b7c938cccf"},"vehicle_type_id":"4","last_reported":1741691264,"current_range_meters":18000,"station_id":"ce4bh412rcd13ifvqdr0","pricing_plan_id":"cebpf4jnsgd1na2vs0mg"},{"bike_id":"2f93c42c-c88d-476b-a3a3-2eee2d201720","system_id":"levelo_inurba_marseille","lat":43.23069,"lon":5.354956,"is_reserved":false,"is_disabled":false,"rental_uris":{"android":"levelo://app?vid=2f93c42c-c88d-476b-a3a3-2eee2d201720","ios":"levelo://app?vid=2f93c42c-c88d-476b-a3a3-2eee2d201720"},"vehicle_type_id":"4","last_reported":1741691264,"current_range_meters":18000,"station_id":"cpo3342slgdg3j2ifvpg","pricing_plan_id":"cebpf4jnsgd1na2vs0mg"},{"bike_id":"a13e253a-70c5-4c36-aec8-6e0937c664fc","system_id":"levelo_inurba_marseille","lat":43.30924,"lon":5.36814,"is_reserved":false,"is_disabled":false,"rental_uris":{"android":"levelo://app?vid=a13e253a-70c5-4c36-aec8-6e0937c664fc","ios":"levelo://app?vid=a13e253a-70c5-4c36-aec8-6e0937c664fc"},"vehicle_type_id":"4","last_reported":1741691264,"current_range_meters":18000,"station_id":"ce4bgn92rcd13ifvqbvg","pricing_plan_id":"cebpf4jnsgd1na2vs0mg"},{"bike_id":"e21ca403-46ad-4cc6-a18c-46d6506c779d","system_id":"levelo_inurba_marseille","lat":43.28077,"lon":5.39656,"is_reserved":false,"is_disabled":false,"rental_uris":{"android":"levelo://app?vid=e21ca403-46ad-4cc6-a18c-46d6506c779d","ios":"levelo://app?vid=e21ca403-46ad-4cc6-a18c-46d6506c779d"},"vehicle_type_id":"4","last_reported":1741691264,"current_range_meters":18000,"station_id":"ce4bho12rcd13ifvqh2g","pricing_plan_id":"cebpf4jnsgd1na2vs0mg"},{"bike_id":"ba4e4246-4c5a-4b53-8158-f3de0fd9698b","system_id":"levelo_inurba_marseille","lat":43.25125,"lon":5.40334,"is_reserved":false,"is_disabled":false,"rental_uris":{"android":"levelo://app?vid=ba4e4246-4c5a-4b53-8158-f3de0fd9698b","ios":"levelo://app?vid=ba4e4246-4c5a-4b53-8158-f3de0fd9698b"},"vehicle_type_id":"4","last_reported":1741691264,"current_range_meters":18000,"station_id":"ce4bhlh2rcd13ifvqgig","pricing_plan_id":"cebpf4jnsgd1na2vs0mg"},{"bike_id":"dde2fbb2-2c86-41c6-a477-392cc352912e","system_id":"levelo_inurba_marseille","lat":43.29309,"lon":5.37431,"is_reserved":false,"is_disabled":false,"rental_uris":{"android":"levelo://app?vid=dde2fbb2-2c86-41c6-a477-392cc352912e","ios":"levelo://app?vid=dde2fbb2-2c86-41c6-a477-392cc352912e"},"vehicle_type_id":"4","last_reported":1741691264,"current_range_meters":18000,"station_id":"ce4bgi12rcd13ifvqb70","pricing_plan_id":"cebpf4jnsgd1na2vs0mg"},