{"last_updated":1722190224,"ttl":30,"version":"2.2","data":{"bikes":[{"bike_id":"248a5d56-54f6-495f-aae5-edfd232af173","system_id":"levelo_inurba_marseille","lat":43.312239,"lon":5.368562,"is_reserved":false,"is_disabled":false,"rental_uris":{"android":"levelo://app?vid=248a5d56-54f6-495f-aae5-edfd232af173","ios":"levelo://app?vid=248a5d56-54f6-495f-aae5-edfd232af173"},"vehicle_type_id":"4","last_reported":1722190224,"current_range_meters":0,"station_id":"ce4bgl92rcd13ifvqbq0","pricing_plan_id":"cebpf4jnsgd1na2vs0mg"},{"bike_id":"13900946-e726-4c2c-bcb1-9c8508d61913","system_id":"levelo_inurba_marseille","lat":43.312239,"lon":5.368562,"is_reserved":false,"is_disabled":false,"rental_uris":{"android":"levelo://app?vid=13900946-e726-4c2c-bcb1-9c8508d61913","ios":"levelo://app?vid=13900946-e726-4c2c-bcb1-9c8508d61913"},"vehicle_type_id":"4","last_reported":1722190224,"current_range_meters":0,"station_id":"ce4bgl92rcd13ifvqbq0","pricing_plan_id":"cebpf4jnsgd1na2vs0mg"},{"bike_id":"4e2209f9-19a7-4c00-b4f2-18e1f4cf4ed5","system_id":"levelo_inurba_marseille","lat":43.312239,"lon":5.368562,"is_reserved":false,"is_disabled":false,"rental_uris":{"android":"levelo://app?vid=4e2209f9-19a7-4c00-b4f2-18e1f4cf4ed5","ios":"levelo://app?vid=4e2209f9-19a7-4c00-b4f2-18e1f4cf4ed5"},"vehicle_type_id":"4","last_reported":1722190224,"current_range_meters":0,"station_id":"ce4bgl92rcd13ifvqbq0","pricing_plan_id":"cebpf4jnsgd1na2vs0mg"},{"bike_id":"f732f6c8-8ce3-460c-8515-5bd62eec506d","system_id":"levelo_inurba_marseille","lat":43.31225,"lon":5.36863,"is_reserved":false,"is_disabled":false,"rental_uris":{"android":"levelo://app?vid=f732f6c8-8ce3-460c-8515-5bd62eec506d","ios":"levelo://app?vid=f732f6c8-8ce3-460c-8515-5bd62eec506d"},"vehicle_type_id":"4","last_reported":1722190224,"current_range_meters":400,"station_id":"ce4bgl92rcd13ifvqbq0","pricing_plan_id":"cebpf4jnsgd1na2vs0mg"},{"bike_id":"07bafce9-ca5d-47fd-b9df-4bd8b8e292dd","system_id":"levelo_inurba_marseille","lat":43.3091,"lon":5.36845,"is_reserved":false,"is_disabled":false,"rental_uris":{"android":"levelo://app?vid=07bafce9-ca5d-47fd-b9df-4bd8b8e292dd","ios":"levelo://app?vid=07bafce9-ca5d-47fd-b9df-4bd8b8e292dd"},"vehicle_type_id":"4","last_reported":1722190224,"current_range_meters":0,"station_id":"ce4bgn92rcd13ifvqbvg","pricing_plan_id":"cebpf4jnsgd1na2vs0mg"},{"bike_id":"46ab75bb-c16d-45eb-a080-eb369ba46493","system_id":"levelo_inurba_marseille","lat":43.314811,"lon":5.373103,"is_reserved":false,"is_disabled":false,"rental_uris":{"android":"levelo://app?vid=46ab75bb-c16d-45eb-a080-eb369ba46493","ios":"levelo://app?vid=46ab75bb-c16d-45eb-a080-eb369ba46493"},"vehicle_type_id":"4","last_reported":1722190224,"current_range_meters":2800,"station_id":"ce4bgt12rcd13ifvqcd0","pricing_plan_id":"cebpf4jnsgd1na2vs0mg"},{"bike_id":"7f90634e-e358-4527-b633-52dc3d06c517","system_id":"levelo_inurba_marseille","lat":43.314811,"lon":5.373103,"is_reserved":false,"is_disabled":false,"rental_uris":{"android":"levelo://app?vid=7f90634e-e358-4527-b633-52dc3d06c517","ios":"levelo://app?vid=7f90634e-e358-4527-b633-52dc3d06c517"},"vehicle_type_id":"4","last_reported":1722190224,"current_range_meters":17200,"station_id":"ce4bgt12rcd13ifvqcd0","pricing_plan_id":"cebpf4jnsgd1na2vs0mg"},{"bike_id":"978a0795-7438-4c64-9a6a-b1e426d188d6","system_id":"levelo_inurba_marseille","lat":43.317532,"lon":5.368748,"is_reserved":false,"is_disabled":false,"rental_uris":{"android":"levelo://app?vid=978a0795-7438-4c64-9a6a-b1e426d188d6","ios":"levelo://app?vid=978a0795-7438-4c64-9a6a-b1e426d188d6"},"vehicle_type_id":"4","last_reported":1722190224,"current_range_meters":1200,"station_id":"","pricing_plan_id":"cebpf4jnsgd1na2vs0mg"},{"bike_id":"e8cd644e-86f5-4a10-8d06-ff009f6f9425","system_id":"levelo_inurba_marseille","lat":43.314811,"lon":5.373103,"is_reserved":false,"is_disabled":false,"rental_uris":{"android":"levelo://app?vid=e8cd644e-86f5-4a10-8d06-ff009f6f9425","ios":"levelo://app?vid=e8cd644e-86f5-4a10-8d06-ff009f6f9425"},"vehicle_type_id":"4","last_reported":1722190224,"current_range_meters":26800,"station_id":"ce4bgt12rcd13ifvqcd0","pricing_plan_id":"cebpf4jnsgd1na2vs0mg"},{"bike_id":"577ff7ff-12aa-4e40-97e9-888254599493","system_id":"levelo_inurba_marseille","lat":43.314811,"lon":5.373104,"is_reserved":false,"is_disabled":false,"rental_uris":{"android":"levelo://app?vid=577ff7ff-12aa-4e40-97e9-888254599493","ios":"levelo://app?vid=577ff7ff-12aa-4e40-97e9-888254599493"},"vehicle_type_id":"4","last_reported":1722190224,"current_range_meters":4800,"station_id":"ce4bgt12rcd13ifvqcd0","pricing_plan_id":"cebpf4jnsgd1na2vs0mg"},{"bike_id":"9f3bb714-553f-4586-a516-998447857eaa","system_id":"levelo_inurba_marseille","lat":43.30891,"lon":5.37202,"is_reserved":false,"is_disabled":false,"rental_uris":{"android":"levelo://app?vid=9f3bb714-553f-4586-a516-998447857eaa","ios":"levelo://app?vid=9f3bb714-553f-4586-a516-998447857eaa"},"vehicle_type_id":"4","last_reported":1722190224,"current_range_meters":0,"station_id":"ce4bguh2rcd13ifvqckg","pricing_plan_id":"cebpf4jnsgd1na2vs0mg"},{"bike_id":"ba6c295b-7b42-4216-8a1b-759ff451829d","system_id":"levelo_inurba_marseille","lat":43.30882,"lon":5.37191,"is_reserved":false,"is_disabled":false,"rental_uris":{"android":"levelo://app?vid=ba6c295b-7b42-4216-8a1b-759ff451829d","ios":"levelo://app?vid=ba6c295b-7b42-4216-8a1b-759ff451829d"},"vehicle_type_id":"4","last_reported":1722190224,"current_range_meters":10000,"station_id":"ce4bguh2rcd13ifvqckg","pricing_plan_id":"cebpf4jnsgd1na2vs0mg"},{"bike_id":"e31b7490-3e3e-448d-983c-d14bde2bf611","system_id":"levelo_inurba_marseille","lat":43.30706,"lon":5.37307,"is_reserved":false,"is_disabled":false,"rental_uris":{"android":"levelo://app?vid=e31b7490-3e3e-448d-983c-d14bde2bf611","ios":"levelo://app?vid=e31b7490-3e3e-448d-983c-d14bde2bf611"},"vehicle_type_id":"4","last_reported":1722190224,"current_range_meters":2000,"station_id":"","pricing_plan_id":"cebpf4jnsgd1na2vs0mg"},{"bike_id":"0d8def8d-b395-4d10-85a8-54adcaaf98fb","system_id":"levelo_inurba_marseille","lat":43.305989,"lon":5.37225,"is_reserved":false,"is_disabled":false,"rental_uris":{"android":"levelo://app?vid=0d8def8d-b395-4d10-85a8-54adcaaf98fb","ios":"levelo://app?vid=0d8def8d-b395-4d10-85a8-54adcaaf98fb"},"vehicle_type_id":"4","last_reported":1722190224,"current_range_meters":18000,"station_id":"ce4bgqh2rcd13ifvqc4g","pricing_plan_id":"cebpf4jnsgd1na2vs0mg"},{"bike_id":"3c8f093a-72b1-4d50-be15-baf93e267693","system_id":"levelo_inurba_marseille","lat":43.311125,"lon":5.377624,"is_reserved":false,"is_disabled":false,"rental_uris":{"android":"levelo://app?vid=3c8f093a-72b1-4d50-be15-baf93e267693","ios":"levelo://app?vid=3c8f093a-72b1-4d50-be15-baf93e267693"},"vehicle_type_id":"4","last_reported":1722190224,"current_range_meters":24400,"station_id":"ce4bgt92rcd13ifvqcg0","pricing_plan_id":"cebpf4jnsgd1na2vs0mg"},{"bike_id":"85c60f54-36b2-4676-b6d1-93173bd5b63f","system_id":"levelo_inurba_marseille","lat":43.311125,"lon":5.377624,"is_reserved":false,"is_disabled":false,"rental_uris":{"android":"levelo://app?vid=85c60f54-36b2-4676-b6d1-93173bd5b63f","ios":"levelo://app?vid=85c60f54-36b2-4676-b6d1-93173bd5b63f"},"vehicle_type_id":"4","last_reported":1722190224,"current_range_meters":12800,"station_id":"ce4bgt92rcd13ifvqcg0","pricing_plan_id":"cebpf4jnsgd1na2vs0mg"},{"bike_id":"e49c1c57-98cc-42d5-878b-fd769b32c01a","system_id":"levelo_inurba_marseille","lat":43.311125,"lon":5.377624,"is_reserved":false,"is_disabled":false,"rental_uris":{"android":"levelo://app?vid=e49c1c57-98cc-42d5-878b-fd769b32c01a","ios":"levelo://app?vid=e49c1c57-98cc-42d5-878b-fd769b32c01a"},"vehicle_type_id":"4","last_reported":1722190224,"current_range_meters":18400,"station_id":"ce4bgt92rcd13ifvqcg0","pricing_plan_id":"cebpf4jnsgd1na2vs0mg"},{"bike_id":"730ea826-ae0c-4665-909a-f9ae3a607f5e","system_id":"levelo_inurba_marseille","lat":43.311125,"lon":5.377624,"is_reserved":false,"is_disabled":false,"rental_uris":{"android":"levelo://app?vid=730ea826-ae0c-4665-909a-f9ae3a607f5e","ios":"levelo://app?vid=730ea826-ae0c-4665-909a-f9ae3a607f5e"},"vehicle_type_id":"4","last_reported":1722190224,"current_range_meters":0,"station_id":"ce4bgt92rcd13ifvqcg0","pricing_plan_id":"cebpf4jnsgd1na2vs0mg"},{"bike_id":"303affda-ec3c-4de7-81ce-c15a5d05f270","system_id":"levelo_inurba_marseille","lat":43.303046,"lon":5.368981,"is_reserved":false,"is_disabled":false,"rental_uris":{"android":"levelo://app?vid=303affda-ec3c-4de7-81ce-c15a5d05f270","ios":"levelo://app?vid=303affda-ec3c-4de7-81ce-c15a5d05f270"},"vehicle_type_id":"4","last_reported":1722190224,"current_range_meters":15200,"station_id":"ce4bgqh2rcd13ifvqc5g","pricing_plan_id":"cebpf4jnsgd1na2vs0mg"},{"bike_id":"d3c250da-6402-4f0a-85fd-3e12524ae4b3","system_id":"levelo_inurba_marseille","lat":43.31562,"lon":5.38018,"is_reserved":false,"is_disabled":false,"rental_uris":{"android":"levelo://app?vid=d3c250da-6402-4f0a-85fd-3e12524ae4b3","ios":"levelo://app?vid=d3c250da-6402-4f0a-85fd-3e12524ae4b3"},"vehicle_type_id":"4","last_reported":1722190224,"current_range_meters":6800,"station_id":"ce4bhsp2rcd13ifvqi50","pricing_plan_id":"cebpf4jnsgd1na2vs0mg"},{"bike_id":"9cc5f6bb-fa3e-4462-ac34-d6bbe05c8357","system_id":"levelo_inurba_marseille","lat":43.308012,"lon":5.381511,"is_reserved":false,"is_disabled":false,"rental_uris":{"android":"levelo://app?vid=9cc5f6bb-fa3e-4462-ac34-d6bbe05c8357","ios":"levelo://app?vid=9cc5f6bb-fa3e-4462-ac34-d6bbe05c8357"},"vehicle_type_id":"4","last_reported":1722190224,"current_range_meters":14400,"station_id":"ce4bgt12rcd13ifvqce0","pricing_plan_id":"cebpf4jnsgd1na2vs0mg"},{"bike_id":"4c48d82a-cbee-4be5-9c95-5e7cec3acf71","system_id":"levelo_inurba_marseille","lat":43.308012,"lon":5.381511,"is_reserved":false,"is_disabled":false,"rental_uris":{"android":"levelo://app?vid=4c48d82a-cbee-4be5-9c95-5e7cec3acf71","ios":"levelo://app?vid=4c48d82a-cbee-4be5-9c95-5e7cec3acf71"},"vehicle_type_id":"4","last_reported":1722190224,"current_range_meters":31200,"station_id":"ce4bgt12rcd13ifvqce0","pricing_plan_id":"cebpf4jnsgd1na2vs0mg"},{"bike_id":"c9627781-812f-46fa-991a-70cf19f2c3a4","system_id":"levelo_inurba_marseille","lat":43.30457,"lon":5.37901,"is_reserved":false,"is_disabled":false,"rental_uris":{"android":"levelo://app?vid=c9627781-812f-46fa-991a-70cf19f2c3a4","ios":"levelo://app?vid=c9627781-812f-46fa-991a-70cf19f2c3a4"},"vehicle_type_id":"4","last_reported":1722190224,"current_range_meters":0,"station_id":"ce4bgup2rcd13ifvqcn0","pricing_plan_id":"cebpf4jnsgd1na2vs0mg"},{"bike_id":"57229261-01d0-4126-8c2c-355178a15004","system_id":"levelo_inurba_marseille","lat":43.324771,"lon":5.36557,"is_reserved":false,"is_disabled":false,"rental_uris":{"android":"levelo://app?vid=57229261-01d0-4126-8c2c-355178a15004","ios":"levelo://app?vid=57229261-01d0-4126-8c2c-355178a15004"},"vehicle_type_id":"4","last_reported":1722190224,"current_range_meters":28400,"station_id":"ce4bhs12rcd13ifvqhvg","pricing_plan_id":"cebpf4jnsgd1na2vs0mg"},{"bike_id":"da535827-0883-4959-b125-135aab87750b","system_id":"levelo_inurba_marseille","lat":43.324771,"lon":5.36557,"is_reserved":false,"is_disabled":false,"rental_uris":{"android":"levelo://app?vid=da535827-0883-4959-b125-135aab87750b","ios":"levelo://app?vid=da535827-0883-4959-b125-135aab87750b"},"vehicle_type_id":"4","last_reported":1722190224,"current_range_meters":27600,"station_id":"ce4bhs12rcd13ifvqhvg","pricing_plan_id":"cebpf4jnsgd1na2vs0mg"},{"bike_id":"8add2df5-9e48-4842-a4c4-c9ad89537666","system_id":"levelo_inurba_marseille","lat":43.310804,"lon":5.38359,"is_reserved":false,"is_disabled":false,"rental_uris":{"android":"levelo://app?vid=8add2df5-9e48-4842-a4c4-c9ad89537666","ios":"levelo://app?vid=8add2df5-9e48-4842-a4c4-c9ad89537666"},"vehicle_type_id":"4","last_reported":1722190224,"current_range_meters":0,"station_id":"ce4bgv92rcd13ifvqcr0","pricing_plan_id":"cebpf4jnsgd1na2vs0mg"},{"bike_id":"eb9fc5cc-8d95-4989-b679-0e99c5a9bf5b","system_id":"levelo_inurba_marseille","lat":43.310804,"lon":5.38359,"is_reserved":false,"is_disabled":false,"rental_uris":{"android":"levelo://app?vid=eb9fc5cc-8d95-4989-b679-0e99c5a9bf5b","ios":"levelo://app?vid=eb9fc5cc-8d95-4989-b679-0e99c5a9bf5b"},"vehicle_type_id":"4","last_reported":1722190224,"current_range_meters":0,"station_id":"ce4bgv92rcd13ifvqcr0","pricing_plan_id":"cebpf4jnsgd1na2vs0mg"},{"bike_id":"614a80b9-813e-4348-965b-7794b0b628c0","system_id":"levelo_inurba_marseille","lat":43.310804,"lon":5.38359,"is_reserved":false,"is_disabled":false,"rental_uris":{"android":"levelo://app?vid=614a80b9-813e-4348-965b-7794b0b628c0","ios":"levelo://app?vid=614a80b9-813e-4348-965b-7794b0b628c0"},"vehicle_type_id":"4","last_reported":1722190224,"current_range_meters":27200,"station_id":"ce4bgv92rcd13ifvqcr0","pricing_plan_id":"cebpf4jnsgd1na2vs0mg"},{"bike_id":"51bb31d1-1eba-459f-932c-893ee7f727fe","system_id":"levelo_inurba_marseille","lat":43.30143,"lon":5.37413,"is_reserved":false,"is_disabled":false,"rental_uris":{"android":"levelo://app?vid=51bb31d1-1eba-459f-932c-893ee7f727fe","ios":"levelo://app?vid=51bb31d1-1eba-459f-932c-893ee7f727fe"},"vehicle_type_id":"4","last_reported":1722190224,"current_range_meters":24400,"station_id":"ce4bgs92rcd13ifvqcc0","pricing_plan_id":"cebpf4jnsgd1na2vs0mg"},{"bike_id":"64efb8ba-933f-47fc-b58f-b13d857f90b0","system_id":"levelo_inurba_marseille","lat":43.31606,"lon":5.38379,"is_reserved":false,"is_disabled":false,"rental_uris":{"android":"levelo://app?vid=64efb8ba-933f-47fc-b58f-b13d857f90b0","ios":"levelo://app?vid=64efb8ba-933f-47fc-b58f-b13d857f90b0"},"vehicle_type_id":"4","last_reported":1722190224,"current_range_meters":27600,"station_id":"","pricing_plan_id":"cebpf4jnsgd1na2vs0mg"},{"bike_id":"19008cde-9a12-4135-abc5-dabb76ecd2c7","system_id":"levelo_inurba_marseille","lat":43.319939,"lon":5.381443,"is_reserved":false,"is_disabled":false,"rental_uris":{"android":"levelo://app?vid=19008cde-9a12-4135-abc5-dabb76ecd2c7","ios":"levelo://app?vid=19008cde-9a12-4135-abc5-dabb76ecd2c7"},"vehicle_type_id":"4","last_reported":1722190224,"current_range_meters":20800,"station_id":"ce4bhr12rcd13ifvqhpg","pricing_plan_id":"cebpf4jnsgd1na2vs0mg"},{"bike_id":"4d6b4c40-7b62-48e5-8564-aedcc4292781","system_id":"levelo_inurba_marseille","lat":43.31994,"lon":5.38148,"is_reserved":false,"is_disabled":false,"rental_uris":{"android":"levelo://app?vid=4d6b4c40-7b62-48e5-8564-aedcc4292781","ios":"levelo://app?vid=4d6b4c40-7b62-48e5-8564-aedcc4292781"},"vehicle_type_id":"4","last_reported":1722190224,"current_range_meters":10400,"station_id":"ce4bhr12rcd13ifvqhpg","pricing_plan_id":"cebpf4jnsgd1na2vs0mg"},{"bike_id":"12746713-ee6d-432a-b9c6-4fc99a98fcda","system_id":"levelo_inurba_marseille","lat":43.310804,"lon":5.38359,"is_reserved":false,"is_disabled":false,"rental_uris":{"android":"levelo://app?vid=12746713-ee6d-432a-b9c6-4fc99a98fcda","ios":"levelo://app?vid=12746713-ee6d-432a-b9c6-4fc99a98fcda"},"vehicle_type_id":"4","last_reported":1722190224,"current_range_meters":25200,"station_id":"ce4bgv92rcd13ifvqcr0","pricing_plan_id":"cebpf4jnsgd1na2vs0mg"},{"bike_id":"ba751eab-e386-4f42-b81e-204bfba1b413","system_id":"levelo_inurba_marseille","lat":43.319935,"lon":5.381699,"is_reserved":false,"is_disabled":false,"rental_uris":{"android":"levelo://app?vid=ba751eab-e386-4f42-b81e-204bfba1b413","ios":"levelo://app?vid=ba751eab-e386-4f42-b81e-204bfba1b413"},"vehicle_type_id":"4","last_reported":1722190224,"current_range_meters":24400,"station_id":"ce4bhr12rcd13ifvqhpg","pricing_plan_id":"cebpf4jnsgd1na2vs0mg"},{"bike_id":"34d5f260-e33f-4b30-b4e5-1d675d64a8a0","system_id":"levelo_inurba_marseille","lat":43.319935,"lon":5.381699,"is_reserved":false,"is_disabled":false,"rental_uris":{"android":"levelo://app?vid=34d5f260-e33f-4b30-b4e5-1d675d64a8a0","ios":"levelo://app?vid=34d5f260-e33f-4b30-b4e5-1d675d64a8a0"},"vehicle_type_id":"4","last_reported":1722190224,"current_range_meters":17600,"station_id":"ce4bhr12rcd13ifvqhpg","pricing_plan_id":"cebpf4jnsgd1na2vs0mg"},{"bike_id":"dcc1714c-60f6-41b9-be94-0bd57bf21d2e","system_id":"levelo_inurba_marseille","lat":43.319935,"lon":5.381699,"is_reserved":false,"is_disabled":false,"rental_uris":{"android":"levelo://app?vid=dcc1714c-60f6-41b9-be94-0bd57bf21d2e","ios":"levelo://app?vid=dcc1714c-60f6-41b9-be94-0bd57bf21d2e"},"vehicle_type_id":"4","last_reported":1722190224,"current_range_meters":17200,"station_id":"ce4bhr12rcd13ifvqhpg","pricing_plan_id":"cebpf4jnsgd1na2vs0mg"},{"bike_id":"b8933570-0d0c-44fb-becd-57b714f64a48","system_id":"levelo_inurba_marseille","lat":43.32,"lon":5.38162,"is_reserved":false,"is_disabled":false,"rental_uris":{"android":"levelo://app?vid=b8933570-0d0c-44fb-becd-57b714f64a48","ios":"levelo://app?vid=b8933570-0d0c-44fb-becd-57b714f64a48"},"vehicle_type_id":"4","last_reported":1722190224,"current_range_meters":6400,"station_id":"ce4bhr12rcd13ifvqhpg","pricing_plan_id":"cebpf4jnsgd1na2vs0mg"},{"bike_id":"f0014437-ab10-475d-8dee-d8fc6feaa1ae","system_id":"levelo_inurba_marseille","lat":43.313571,"lon":5.384829,"is_reserved":false,"is_disabled":false,"rental_uris":{"android":"levelo://app?vid=f0014437-ab10-475d-8dee-d8fc6feaa1ae","ios":"levelo://app?vid=f0014437-ab10-475d-8dee-d8fc6feaa1ae"},"vehicle_type_id":"4","last_reported":1722190224,"current_range_meters":24400,"station_id":"ce4bgt92rcd13ifvqcf0","pricing_plan_id":"cebpf4jnsgd1na2vs0mg"},{"bike_id":"aa731fb1-a64d-471d-9780-5069ede97fdb","system_id":"levelo_inurba_marseille","lat":43.313571,"lon":5.384829,"is_reserved":false,"is_disabled":false,"rental_uris":{"android":"levelo://app?vid=aa731fb1-a64d-471d-9780-5069ede97fdb","ios":"levelo://app?vid=aa731fb1-a64d-471d-9780-5069ede97fdb"},"vehicle_type_id":"4","last_reported":1722190224,"current_range_meters":13200,"station_id":"ce4bgt92rcd13ifvqcf0","pricing_plan_id":"cebpf4jnsgd1na2vs0mg"},{"bike_id":"a49e79f8-05f9-4cea-b7b6-760fe7d6cff4","system_id":"levelo_inurba_marseille","lat":43.299724,"lon":5.371829,"is_reserved":false,"is_disabled":false,"rental_uris":{"android":"levelo://app?vid=a49e79f8-05f9-4cea-b7b6-760fe7d6cff4","ios":"levelo://app?vid=a49e79f8-05f9-4cea-b7b6-760fe7d6cff4"},"vehicle_type_id":"4","last_reported":1722190224,"current_range_meters":0,"station_id":"ce4bgr92rcd13ifvqc7g","pricing_plan_id":"cebpf4jnsgd1na2vs0mg"},{"bike_id":"f54c5307-5aed-4e81-ab0c-a67d9f8cb4e6","system_id":"levelo_inurba_marseille","lat":43.299724,"lon":5.371829,"is_reserved":false,"is_disabled":false,"rental_uris":{"android":"levelo://app?vid=f54c5307-5aed-4e81-ab0c-a67d9f8cb4e6","ios":"levelo://app?vid=f54c5307-5aed-4e81-ab0c-a67d9f8cb4e6"},"vehicle_type_id":"4","last_reported":1722190224,"current_range_meters":16000,"station_id":"ce4bgr92rcd13ifvqc7g","pricing_plan_id":"cebpf4jnsgd1na2vs0mg"},{"bike_id":"b2365876-3ee3-4464-a13c-6993da50e25e","system_id":"levelo_inurba_marseille","lat":43.299724,"lon":5.371829,"is_reserved":false,"is_disabled":false,"rental_uris":{"android":"levelo://app?vid=b2365876-3ee3-4464-a13c-6993da50e25e","ios":"levelo://app?vid=b2365876-3ee3-4464-a13c-6993da50e25e"},"vehicle_type_id":"4","last_reported":1722190224,"current_range_meters":0,"station_id":"ce4bgr92rcd13ifvqc7g","pricing_plan_id":"cebpf4jnsgd1na2vs0mg"},{"bike_id":"c99fc7b1-7196-4dea-ba48-8fa278b5121d","system_id":"levelo_inurba_marseille","lat":43.313571,"lon":5.384829,"is_reserved":false,"is_disabled":false,"rental_uris":{"android":"levelo://app?vid=c99fc7b1-7196-4dea-ba48-8fa278b5121d","ios":"levelo://app?vid=c99fc7b1-7196-4dea-ba48-8fa278b5121d"},"vehicle_type_id":"4","last_reported":1722190224,"current_range_meters":7600,"station_id":"ce4bgt92rcd13ifvqcf0","pricing_plan_id":"cebpf4jnsgd1na2vs0mg"},{"bike_id":"113b6bec-471d-4f45-9e99-9359db9d67d9","system_id":"levelo_inurba_marseille","lat":43.299243,"lon":5.374807,"is_reserved":false,"is_disabled":false,"rental_uris":{"android":"levelo://app?vid=113b6bec-471d-4f45-9e99-9359db9d67d9","ios":"levelo://app?vid=113b6bec-471d-4f45-9e99-9359db9d67d9"},"vehicle_type_id":"4","last_reported":1722190224,"current_range_meters":23600,"station_id":"ce4bgjh2rcd13ifvqbg0","pricing_plan_id":"cebpf4jnsgd1na2vs0mg"},{"bike_id":"f5b51a29-bb45-4076-9ec9-77fb18da44ad","system_id":"levelo_inurba_marseille","lat":43.299243,"lon":5.374807,"is_reserved":false,"is_disabled":false,"rental_uris":{"android":"levelo://app?vid=f5b51a29-bb45-4076-9ec9-77fb18da44ad","ios":"levelo://app?vid=f5b51a29-bb45-4076-9ec9-77fb18da44ad"},"vehicle_type_id":"4","last_reported":1722190224,"current_range_meters":19200,"station_id":"ce4bgjh2rcd13ifvqbg0","pricing_plan_id":"cebpf4jnsgd1na2vs0mg"},{"bike_id":"e62584c1-b4e3-453e-ac8f-59c0064bc674","system_id":"levelo_inurba_marseille","lat":43.299243,"lon":5.374807,"is_reserved":false,"is_disabled":false,"rental_uris":{"android":"levelo://app?vid=e62584c1-b4e3-453e-ac8f-59c0064bc674","ios":"levelo://app?vid=e62584c1-b4e3-453e-ac8f-59c0064bc674"},"vehicle_type_id":"4","last_reported":1722190224,"current_range_meters":10800,"station_id":"ce4bgjh2rcd13ifvqbg0","pricing_plan_id":"cebpf4jnsgd1na2vs0mg"},{"bike_id":"dc7be166-0a6c-4551-ba28-8573f623609a","system_id":"levelo_inurba_marseille","lat":43.298433,"lon":5.362774,"is_reserved":false,"is_disabled":false,"rental_uris":{"android":"levelo://app?vid=dc7be166-0a6c-4551-ba28-8573f623609a","ios":"levelo://app?vid=dc7be166-0a6c-4551-ba28-8573f623609a"},"vehicle_type_id":"4","last_reported":1722190224,"current_range_meters":18400,"station_id":"ce4bgpp2rcd13ifvqc3g","pricing_plan_id":"cebpf4jnsgd1na2vs0mg"},{"bike_id":"06e35db2-179a-4337-b4dc-46faed2eb62d","system_id":"levelo_inurba_marseille","lat":43.298433,"lon":5.362774,"is_reserved":false,"is_disabled":false,"rental_uris":{"android":"levelo://app?vid=06e35db2-179a-4337-b4dc-46faed2eb62d","ios":"levelo://app?vid=06e35db2-179a-4337-b4dc-46faed2eb62d"},"vehicle_type_id":"4","last_reported":1722190224,"current_range_meters":400,"station_id":"ce4bgpp2rcd13ifvqc3g","pricing_plan_id":"cebpf4jnsgd1na2vs0mg"},{"bike_id":"40487929-b3bd-47d9-8936-14d89d6d8adb","system_id":"levelo_inurba_marseille","lat":43.29912,"lon":5.37463,"is_reserved":false,"is_disabled":false,"rental_uris":{"android":"levelo://app?vid=40487929-b3bd-47d9-8936-14d89d6d8adb","ios":"levelo://app?vid=40487929-b3bd-47d9-8936-14d89d6d8adb"},"vehicle_type_id":"4","last_reported":1722190224,"current_range_meters":0,"station_id":"ce4bgjh2rcd13ifvqbg0","pricing_plan_id":"cebpf4jnsgd1na2vs0mg"},{"bike_id":"5f200a1d-3c4d-4a1d-bb63-6e7f73b0e776","system_id":"levelo_inurba_marseille","lat":43.305226,"lon":5.38437,"is_reserved":false,"is_disabled":false,"rental_uris":{"android":"levelo://app?vid=5f200a1d-3c4d-4a1d-bb63-6e7f73b0e776","ios":"levelo://app?vid=5f200a1d-3c4d-4a1d-bb63-6e7f73b0e776"},"vehicle_type_id":"4","last_reported":1722190224,"current_range_meters":31200,"station_id":"ce4bgg92rcd13ifvqb30","pricing_plan_id":"cebpf4jnsgd1na2vs0mg"},{"bike_id":"4a3b9827-c8a8-4a76-8458-dce38e61ba58","system_id":"levelo_inurba_marseille","lat":43.299243,"lon":5.37481,"is_reserved":false,"is_disabled":false,"rental_uris":{"android":"levelo://app?vid=4a3b9827-c8a8-4a76-8458-dce38e61ba58","ios":"levelo://app?vid=4a3b9827-c8a8-4a76-8458-dce38e61ba58"},"vehicle_type_id":"4","last_reported":1722190224,"current_range_meters":20000,"station_id":"ce4bgjh2rcd13ifvqbg0","pricing_plan_id":"cebpf4jnsgd1na2vs0mg"},{"bike_id":"a4f99128-57a0-41f7-8ea4-a1590777d9b0","system_id":"levelo_inurba_marseille","lat":43.311722,"lon":5.387247,"is_reserved":false,"is_disabled":false,"rental_uris":{"android":"levelo://app?vid=a4f99128-57a0-41f7-8ea4-a1590777d9b0","ios":"levelo://app?vid=a4f99128-57a0-41f7-8ea4-a1590777d9b0"},"vehicle_type_id":"4","last_reported":1722190224,"current_range_meters":13200,"station_id":"ce4bgv12rcd13ifvqcp0","pricing_plan_id":"cebpf4jnsgd1na2vs0mg"},{"bike_id":"873f9d85-0aa3-4296-b3b7-1b3f161cd88b","system_id":"levelo_inurba_marseille","lat":43.311722,"lon":5.387247,"is_reserved":false,"is_disabled":false,"rental_uris":{"android":"levelo://app?vid=873f9d85-0aa3-4296-b3b7-1b3f161cd88b","ios":"levelo://app?vid=873f9d85-0aa3-4296-b3b7-1b3f161cd88b"},"vehicle_type_id":"4","last_reported":1722190224,"current_range_meters":13200,"station_id":"ce4bgv12rcd13ifvqcp0","pricing_plan_id":"cebpf4jnsgd1na2vs0mg"},{"bike_id":"17cac7ca-2467-42b2-8bc3-b69847907e2b","system_id":"levelo_inurba_marseille","lat":43.311722,"lon":5.387247,"is_reserved":false,"is_disabled":false,"rental_uris":{"android":"levelo://app?vid=17cac7ca-2467-42b2-8bc3-b69847907e2b","ios":"levelo://app?vid=17cac7ca-2467-42b2-8bc3-b69847907e2b"},"vehicle_type_id":"4","last_reported":1722190224,"current_range_meters":10800,"station_id":"ce4bgv12rcd13ifvqcp0","pricing_plan_id":"cebpf4jnsgd1na2vs0mg"},{"bike_id":"8fa61796-ac79-46a3-a296-78e73808cfcc","system_id":"levelo_inurba_marseille","lat":43.311722,"lon":5.387247,"is_reserved":false,"is_disabled":false,"rental_uris":{"android":"levelo://app?vid=8fa61796-ac79-46a3-a296-78e73808cfcc","ios":"levelo://app?vid=8fa61796-ac79-46a3-a296-78e73808cfcc"},"vehicle_type_id":"4","last_reported":1722190224,"current_range_meters":28000,"station_id":"ce4bgv12rcd13ifvqcp0","pricing_plan_id":"cebpf4jnsgd1na2vs0mg"},{"bike_id":"010c1456-6bf2-4196-b26c-85aa9e754f79","system_id":"levelo_inurba_marseille","lat":43.311722,"lon":5.387247,"is_reserved":false,"is_disabled":false,"rental_uris":{"android":"levelo://app?vid=010c1456-6bf2-4196-b26c-85aa9e754f79","ios":"levelo://app?vid=010c1456-6bf2-4196-b26c-85aa9e754f79"},"vehicle_type_id":"4","last_reported":1722190224,"current_range_meters":3200,"station_id":"ce4bgv12rcd13ifvqcp0","pricing_plan_id":"cebpf4jnsgd1na2vs0mg"},{"bike_id":"c628c607-1905-4746-bf17-7fa81f9495f3","system_id":"levelo_inurba_marseille","lat":43.30153,"lon":5.38076,"is_reserved":false,"is_disabled":false,"rental_uris":{"android":"levelo://app?vid=c628c607-1905-4746-bf17-7fa81f9495f3","ios":"levelo://app?vid=c628c607-1905-4746-bf17-7fa81f9495f3"},"vehicle_type_id":"4","last_reported":1722190224,"current_range_meters":20400,"station_id":"","pricing_plan_id":"cebpf4jnsgd1na2vs0mg"},{"bike_id":"0d58cdb0-6ace-4da8-9f18-47c24354ffe9","system_id":"levelo_inurba_marseille","lat":43.30148,"lon":5.38074,"is_reserved":false,"is_disabled":false,"rental_uris":{"android":"levelo://app?vid=0d58cdb0-6ace-4da8-9f18-47c24354ffe9","ios":"levelo://app?vid=0d58cdb0-6ace-4da8-9f18-47c24354ffe9"},"vehicle_type_id":"4","last_reported":1722190224,"current_range_meters":4800,"station_id":"","pricing_plan_id":"cebpf4jnsgd1na2vs0mg"},{"bike_id":"159637fe-bc24-4cf9-88b7-46c4bdf23e61","system_id":"levelo_inurba_marseille","lat":43.322872,"lon":5.382756,"is_reserved":false,"is_disabled":false,"rental_uris":{"android":"levelo://app?vid=159637fe-bc24-4cf9-88b7-46c4bdf23e61","ios":"levelo://app?vid=159637fe-bc24-4cf9-88b7-46c4bdf23e61"},"vehicle_type_id":"4","last_reported":1722190224,"current_range_meters":26400,"station_id":"ce4bhr12rcd13ifvqhqg","pricing_plan_id":"cebpf4jnsgd1na2vs0mg"},{"bike_id":"5aa48966-c231-4791-8578-e14a8abea024","system_id":"levelo_inurba_marseille","lat":43.322872,"lon":5.382756,"is_reserved":false,"is_disabled":false,"rental_uris":{"android":"levelo://app?vid=5aa48966-c231-4791-8578-e14a8abea024","ios":"levelo://app?vid=5aa48966-c231-4791-8578-e14a8abea024"},"vehicle_type_id":"4","last_reported":1722190224,"current_range_meters":26000,"station_id":"ce4bhr12rcd13ifvqhqg","pricing_plan_id":"cebpf4jnsgd1na2vs0mg"},{"bike_id":"22e41778-51bb-4239-91a8-cf2d50ed1db8","system_id":"levelo_inurba_marseille","lat":43.31887,"lon":5.3863,"is_reserved":false,"is_disabled":false,"rental_uris":{"android":"levelo://app?vid=22e41778-51bb-4239-91a8-cf2d50ed1db8","ios":"levelo://app?vid=22e41778-51bb-4239-91a8-cf2d50ed1db8"},"vehicle_type_id":"4","last_reported":1722190224,"current_range_meters":27200,"station_id":"","pricing_plan_id":"cebpf4jnsgd1na2vs0mg"},{"bike_id":"ab4411fc-11aa-4056-9e17-2e1f9669a672","system_id":"levelo_inurba_marseille","lat":43.29717,"lon":5.36612,"is_reserved":false,"is_disabled":false,"rental_uris":{"android":"levelo://app?vid=ab4411fc-11aa-4056-9e17-2e1f9669a672","ios":"levelo://app?vid=ab4411fc-11aa-4056-9e17-2e1f9669a672"},"vehicle_type_id":"4","last_reported":1722190224,"current_range_meters":0,"station_id":"ce4bgn12rcd13ifvqbt0","pricing_plan_id":"cebpf4jnsgd1na2vs0mg"},{"bike_id":"77ebd6f7-0e15-4246-8feb-b1d720ac899a","system_id":"levelo_inurba_marseille","lat":43.30059,"lon":5.38222,"is_reserved":false,"is_disabled":false,"rental_uris":{"android":"levelo://app?vid=77ebd6f7-0e15-4246-8feb-b1d720ac899a","ios":"levelo://app?vid=77ebd6f7-0e15-4246-8feb-b1d720ac899a"},"vehicle_type_id":"4","last_reported":1722190224,"current_range_meters":14400,"station_id":"","pricing_plan_id":"cebpf4jnsgd1na2vs0mg"},{"bike_id":"2cb12738-bc76-4703-8d1c-da124a768e16","system_id":"levelo_inurba_marseille","lat":43.29573,"lon":5.367355,"is_reserved":false,"is_disabled":false,"rental_uris":{"android":"levelo://app?vid=2cb12738-bc76-4703-8d1c-da124a768e16","ios":"levelo://app?vid=2cb12738-bc76-4703-8d1c-da124a768e16"},"vehicle_type_id":"4","last_reported":1722190224,"current_range_meters":22400,"station_id":"ce4bgph2rcd13ifvqc2g","pricing_plan_id":"cebpf4jnsgd1na2vs0mg"},{"bike_id":"9d635dc4-9646-4866-a8fb-50e63df1433e","system_id":"levelo_inurba_marseille","lat":43.29573,"lon":5.367355,"is_reserved":false,"is_disabled":false,"rental_uris":{"android":"levelo://app?vid=9d635dc4-9646-4866-a8fb-50e63df1433e","ios":"levelo://app?vid=9d635dc4-9646-4866-a8fb-50e63df1433e"},"vehicle_type_id":"4","last_reported":1722190224,"current_range_meters":6400,"station_id":"ce4bgph2rcd13ifvqc2g","pricing_plan_id":"cebpf4jnsgd1na2vs0mg"},{"bike_id":"9aa46d0e-d8d0-48ef-8b62-28691e10acf6","system_id":"levelo_inurba_marseille","lat":43.296921,"lon":5.376579,"is_reserved":false,"is_disabled":false,"rental_uris":{"android":"levelo://app?vid=9aa46d0e-d8d0-48ef-8b62-28691e10acf6","ios":"levelo://app?vid=9aa46d0e-d8d0-48ef-8b62-28691e10acf6"},"vehicle_type_id":"4","last_reported":1722190224,"current_range_meters":31200,"station_id":"ce4bgkh2rcd13ifvqbl0","pricing_plan_id":"cebpf4jnsgd1na2vs0mg"},{"bike_id":"7a46cb3f-bfd9-4ab1-8d48-0ab6e238fcfa","system_id":"levelo_inurba_marseille","lat":43.29607,"lon":5.36126,"is_reserved":false,"is_disabled":false,"rental_uris":{"android":"levelo://app?vid=7a46cb3f-bfd9-4ab1-8d48-0ab6e238fcfa","ios":"levelo://app?vid=7a46cb3f-bfd9-4ab1-8d48-0ab6e238fcfa"},"vehicle_type_id":"4","last_reported":1722190224,"current_range_meters":25600,"station_id":"","pricing_plan_id":"cebpf4jnsgd1na2vs0mg"},{"bike_id":"fb401741-58ae-4e90-96a4-3cc21cbdcf47","system_id":"levelo_inurba_marseille","lat":43.30949,"lon":5.39028,"is_reserved":false,"is_disabled":false,"rental_uris":{"android":"levelo://app?vid=fb401741-58ae-4e90-96a4-3cc21cbdcf47","ios":"levelo://app?vid=fb401741-58ae-4e90-96a4-3cc21cbdcf47"},"vehicle_type_id":"4","last_reported":1722190224,"current_range_meters":16000,"station_id":"ce4bgup2rcd13ifvqco0","pricing_plan_id":"cebpf4jnsgd1na2vs0mg"},{"bike_id":"38fff7c0-3744-4ec8-8d3d-947e413274f6","system_id":"levelo_inurba_marseille","lat":43.30945,"lon":5.39029,"is_reserved":false,"is_disabled":false,"rental_uris":{"android":"levelo://app?vid=38fff7c0-3744-4ec8-8d3d-947e413274f6","ios":"levelo://app?vid=38fff7c0-3744-4ec8-8d3d-947e413274f6"},"vehicle_type_id":"4","last_reported":1722190224,"current_range_meters":14800,"station_id":"ce4bgup2rcd13ifvqco0","pricing_plan_id":"cebpf4jnsgd1na2vs0mg"},{"bike_id":"fcbd4340-c6f5-4337-94f8-c9e35389f02d","system_id":"levelo_inurba_marseille","lat":43.30948,"lon":5.39033,"is_reserved":false,"is_disabled":false,"rental_uris":{"android":"levelo://app?vid=fcbd4340-c6f5-4337-94f8-c9e35389f02d","ios":"levelo://app?vid=fcbd4340-c6f5-4337-94f8-c9e35389f02d"},"vehicle_type_id":"4","last_reported":1722190224,"current_range_meters":5200,"station_id":"ce4bgup2rcd13ifvqco0","pricing_plan_id":"cebpf4jnsgd1na2vs0mg"},{"bike_id":"6515f95a-5f45-4135-912a-c2c4fb72819c","system_id":"levelo_inurba_marseille","lat":43.309589,"lon":5.390258,"is_reserved":false,"is_disabled":false,"rental_uris":{"android":"levelo://app?vid=6515f95a-5f45-4135-912a-c2c4fb72819c","ios":"levelo://app?vid=6515f95a-5f45-4135-912a-c2c4fb72819c"},"vehicle_type_id":"4","last_reported":1722190224,"current_range_meters":0,"station_id":"ce4bgup2rcd13ifvqco0","pricing_plan_id":"cebpf4jnsgd1na2vs0mg"},{"bike_id":"a766d1b9-6759-4601-ad87-78600800b7cd","system_id":"levelo_inurba_marseille","lat":43.30952,"lon":5.39042,"is_reserved":false,"is_disabled":false,"rental_uris":{"android":"levelo://app?vid=a766d1b9-6759-4601-ad87-78600800b7cd","ios":"levelo://app?vid=a766d1b9-6759-4601-ad87-78600800b7cd"},"vehicle_type_id":"4","last_reported":1722190224,"current_range_meters":0,"station_id":"ce4bgup2rcd13ifvqco0","pricing_plan_id":"cebpf4jnsgd1na2vs0mg"},{"bike_id":"c7f6eec2-5842-4c85-96c0-a3768584abeb","system_id":"levelo_inurba_marseille","lat":43.317557,"lon":5.390173,"is_reserved":false,"is_disabled":false,"rental_uris":{"android":"levelo://app?vid=c7f6eec2-5842-4c85-96c0-a3768584abeb","ios":"levelo://app?vid=c7f6eec2-5842-4c85-96c0-a3768584abeb"},"vehicle_type_id":"4","last_reported":1722190224,"current_range_meters":6000,"station_id":"ce4bhqp2rcd13ifvqhng","pricing_plan_id":"cebpf4jnsgd1na2vs0mg"},{"bike_id":"78239700-18de-4937-849c-4777c9e522de","system_id":"levelo_inurba_marseille","lat":43.317557,"lon":5.390173,"is_reserved":false,"is_disabled":false,"rental_uris":{"android":"levelo://app?vid=78239700-18de-4937-849c-4777c9e522de","ios":"levelo://app?vid=78239700-18de-4937-849c-4777c9e522de"},"vehicle_type_id":"4","last_reported":1722190224,"current_range_meters":27600,"station_id":"ce4bhqp2rcd13ifvqhng","pricing_plan_id":"cebpf4jnsgd1na2vs0mg"},{"bike_id":"865fcc44-c144-4782-ad64-88f28333599e","system_id":"levelo_inurba_marseille","lat":43.317557,"lon":5.390173,"is_reserved":false,"is_disabled":false,"rental_uris":{"android":"levelo://app?vid=865fcc44-c144-4782-ad64-88f28333599e","ios":"levelo://app?vid=865fcc44-c144-4782-ad64-88f28333599e"},"vehicle_type_id":"4","last_reported":1722190224,"current_range_meters":31600,"station_id":"ce4bhqp2rcd13ifvqhng","pricing_plan_id":"cebpf4jnsgd1na2vs0mg"},{"bike_id":"238fd733-5562-4f4f-8773-19fc0990fa27","system_id":"levelo_inurba_marseille","lat":43.295748,"lon":5.37522,"is_reserved":false,"is_disabled":false,"rental_uris":{"android":"levelo://app?vid=238fd733-5562-4f4f-8773-19fc0990fa27","ios":"levelo://app?vid=238fd733-5562-4f4f-8773-19fc0990fa27"},"vehicle_type_id":"4","last_reported":1722190224,"current_range_meters":0,"station_id":"ce4bgh92rcd13ifvqb50","pricing_plan_id":"cebpf4jnsgd1na2vs0mg"},{"bike_id":"7ec8b593-5c3e-4344-bfe4-08c7370fc646","system_id":"levelo_inurba_marseille","lat":43.304274,"lon":5.388873,"is_reserved":false,"is_disabled":false,"rental_uris":{"android":"levelo://app?vid=7ec8b593-5c3e-4344-bfe4-08c7370fc646","ios":"levelo://app?vid=7ec8b593-5c3e-4344-bfe4-08c7370fc646"},"vehicle_type_id":"4","last_reported":1722190224,"current_range_meters":26400,"station_id":"ce4bgk12rcd13ifvqbi0","pricing_plan_id":"cebpf4jnsgd1na2vs0mg"},{"bike_id":"9e54e024-b33c-441f-9fba-8717dd08cc8c","system_id":"levelo_inurba_marseille","lat":43.296277,"lon":5.377108,"is_reserved":false,"is_disabled":false,"rental_uris":{"android":"levelo://app?vid=9e54e024-b33c-441f-9fba-8717dd08cc8c","ios":"levelo://app?vid=9e54e024-b33c-441f-9fba-8717dd08cc8c"},"vehicle_type_id":"4","last_reported":1722190224,"current_range_meters":21600,"station_id":"ce4bgi92rcd13ifvqb90","pricing_plan_id":"cebpf4jnsgd1na2vs0mg"},{"bike_id":"3935880b-0251-409b-b6c4-a6aba3ddb923","system_id":"levelo_inurba_marseille","lat":43.2979,"lon":5.38109,"is_reserved":false,"is_disabled":false,"rental_uris":{"android":"levelo://app?vid=3935880b-0251-409b-b6c4-a6aba3ddb923","ios":"levelo://app?vid=3935880b-0251-409b-b6c4-a6aba3ddb923"},"vehicle_type_id":"4","last_reported":1722190224,"current_range_meters":16800,"station_id":"ce4bgip2rcd13ifvqbb0","pricing_plan_id":"cebpf4jnsgd1na2vs0mg"},{"bike_id":"e8ee1af2-a465-4b95-8d2a-1165ecbf8673","system_id":"levelo_inurba_marseille","lat":43.29801,"lon":5.38131,"is_reserved":false,"is_disabled":false,"rental_uris":{"android":"levelo://app?vid=e8ee1af2-a465-4b95-8d2a-1165ecbf8673","ios":"levelo://app?vid=e8ee1af2-a465-4b95-8d2a-1165ecbf8673"},"vehicle_type_id":"4","last_reported":1722190224,"current_range_meters":31200,"station_id":"ce4bgip2rcd13ifvqbb0","pricing_plan_id":"cebpf4jnsgd1na2vs0mg"},{"bike_id":"be9603ee-cb60-44c0-86b5-420fae11c452","system_id":"levelo_inurba_marseille","lat":43.29788,"lon":5.38114,"is_reserved":false,"is_disabled":false,"rental_uris":{"android":"levelo://app?vid=be9603ee-cb60-44c0-86b5-420fae11c452","ios":"levelo://app?vid=be9603ee-cb60-44c0-86b5-420fae11c452"},"vehicle_type_id":"4","last_reported":1722190224,"current_range_meters":31200,"station_id":"ce4bgip2rcd13ifvqbb0","pricing_plan_id":"cebpf4jnsgd1na2vs0mg"},{"bike_id":"ffddf3af-e267-4e89-808a-8f4aedcda0a1","system_id":"levelo_inurba_marseille","lat":43.299707,"lon":5.384859,"is_reserved":false,"is_disabled":false,"rental_uris":{"android":"levelo://app?vid=ffddf3af-e267-4e89-808a-8f4aedcda0a1","ios":"levelo://app?vid=ffddf3af-e267-4e89-808a-8f4aedcda0a1"},"vehicle_type_id":"4","last_reported":1722190224,"current_range_meters":0,"station_id":"ce4bgj92rcd13ifvqbd0","pricing_plan_id":"cebpf4jnsgd1na2vs0mg"},{"bike_id":"483c6c73-922c-49cc-992c-a123158d4554","system_id":"levelo_inurba_marseille","lat":43.32367,"lon":5.388836,"is_reserved":false,"is_disabled":false,"rental_uris":{"android":"levelo://app?vid=483c6c73-922c-49cc-992c-a123158d4554","ios":"levelo://app?vid=483c6c73-922c-49cc-992c-a123158d4554"},"vehicle_type_id":"4","last_reported":1722190224,"current_range_meters":19200,"station_id":"ce4bhqp2rcd13ifvqhog","pricing_plan_id":"cebpf4jnsgd1na2vs0mg"},{"bike_id":"6a60a62a-575f-4518-830c-e8e47c8b46dd","system_id":"levelo_inurba_marseille","lat":43.32367,"lon":5.388836,"is_reserved":false,"is_disabled":false,"rental_uris":{"android":"levelo://app?vid=6a60a62a-575f-4518-830c-e8e47c8b46dd","ios":"levelo://app?vid=6a60a62a-575f-4518-830c-e8e47c8b46dd"},"vehicle_type_id":"4","last_reported":1722190224,"current_range_meters":0,"station_id":"ce4bhqp2rcd13ifvqhog","pricing_plan_id":"cebpf4jnsgd1na2vs0mg"},{"bike_id":"c15b24c4-b77e-49a6-bf53-30269e940a61","system_id":"levelo_inurba_marseille","lat":43.32367,"lon":5.388836,"is_reserved":false,"is_disabled":false,"rental_uris":{"android":"levelo://app?vid=c15b24c4-b77e-49a6-bf53-30269e940a61","ios":"levelo://app?vid=c15b24c4-b77e-49a6-bf53-30269e940a61"},"vehicle_type_id":"4","last_reported":1722190224,"current_range_meters":8000,"station_id":"ce4bhqp2rcd13ifvqhog","pricing_plan_id":"cebpf4jnsgd1na2vs0mg"},{"bike_id":"fff9ce80-e3a6-4300-a750-f133cdb858c3","system_id":"levelo_inurba_marseille","lat":43.29351,"lon":5.37132,"is_reserved":false,"is_disabled":false,"rental_uris":{"android":"levelo://app?vid=fff9ce80-e3a6-4300-a750-f133cdb858c3","ios":"levelo://app?vid=fff9ce80-e3a6-4300-a750-f133cdb858c3"},"vehicle_type_id":"4","last_reported":1722190224,"current_range_meters":10000,"station_id":"","pricing_plan_id":"cebpf4jnsgd1na2vs0mg"},{"bike_id":"e7773f3c-6ca8-431e-8b0b-e151e3d6e72e","system_id":"levelo_inurba_marseille","lat":43.29602,"lon":5.381084,"is_reserved":false,"is_disabled":false,"rental_uris":{"android":"levelo://app?vid=e7773f3c-6ca8-431e-8b0b-e151e3d6e72e","ios":"levelo://app?vid=e7773f3c-6ca8-431e-8b0b-e151e3d6e72e"},"vehicle_type_id":"4","last_reported":1722190224,"current_range_meters":29200,"station_id":"ce4bgl12rcd13ifvqbo0","pricing_plan_id":"cebpf4jnsgd1na2vs0mg"},{"bike_id":"60f3fee5-9c92-4cd2-b0a9-d66a98f1ba5d","system_id":"levelo_inurba_marseille","lat":43.29609,"lon":5.38109,"is_reserved":false,"is_disabled":false,"rental_uris":{"android":"levelo://app?vid=60f3fee5-9c92-4cd2-b0a9-d66a98f1ba5d","ios":"levelo://app?vid=60f3fee5-9c92-4cd2-b0a9-d66a98f1ba5d"},"vehicle_type_id":"4","last_reported":1722190224,"current_range_meters":24400,"station_id":"ce4bgl12rcd13ifvqbo0","pricing_plan_id":"cebpf4jnsgd1na2vs0mg"},{"bike_id":"b592f696-1270-41a6-ae99-ad22a2dd6413","system_id":"levelo_inurba_marseille","lat":43.29602,"lon":5.381084,"is_reserved":false,"is_disabled":false,"rental_uris":{"android":"levelo://app?vid=b592f696-1270-41a6-ae99-ad22a2dd6413","ios":"levelo://app?vid=b592f696-1270-41a6-ae99-ad22a2dd6413"},"vehicle_type_id":"4","last_reported":1722190224,"current_range_meters":8800,"station_id":"ce4bgl12rcd13ifvqbo0","pricing_plan_id":"cebpf4jnsgd1na2vs0mg"},{"bike_id":"d4161467-74f2-4386-9be5-3f9adbec4748","system_id":"levelo_inurba_marseille","lat":43.293249,"lon":5.371578,"is_reserved":false,"is_disabled":false,"rental_uris":{"android":"levelo://app?vid=d4161467-74f2-4386-9be5-3f9adbec4748","ios":"levelo://app?vid=d4161467-74f2-4386-9be5-3f9adbec4748"},"vehicle_type_id":"4","last_reported":1722190224,"current_range_meters":28800,"station_id":"ce4bgh92rcd13ifvqb40","pricing_plan_id":"cebpf4jnsgd1na2vs0mg"},{"bike_id":"689281a6-766e-4e43-8a38-efb7f1131332","system_id":"levelo_inurba_marseille","lat":43.29309,"lon":5.37181,"is_reserved":false,"is_disabled":false,"rental_uris":{"android":"levelo://app?vid=689281a6-766e-4e43-8a38-efb7f1131332","ios":"levelo://app?vid=689281a6-766e-4e43-8a38-efb7f1131332"},"vehicle_type_id":"4","last_reported":1722190224,"current_range_meters":0,"station_id":"ce4bgh92rcd13ifvqb40","pricing_plan_id":"cebpf4jnsgd1na2vs0mg"},{"bike_id":"3fe882f7-73d6-455f-a752-938f1e14d97e","system_id":"levelo_inurba_marseille","lat":43.292749,"lon":5.368402,"is_reserved":false,"is_disabled":false,"rental_uris":{"android":"levelo://app?vid=3fe882f7-73d6-455f-a752-938f1e14d97e","ios":"levelo://app?vid=3fe882f7-73d6-455f-a752-938f1e14d97e"},"vehicle_type_id":"4","last_reported":1722190224,"current_range_meters":2000,"station_id":"ce4bhbp2rcd13ifvqesg","pricing_plan_id":"cebpf4jnsgd1na2vs0mg"},{"bike_id":"dadcec8b-9707-44ff-bc60-9b766a5cb29c","system_id":"levelo_inurba_marseille","lat":43.29304,"lon":5.37174,"is_reserved":false,"is_disabled":false,"rental_uris":{"android":"levelo://app?vid=dadcec8b-9707-44ff-bc60-9b766a5cb29c","ios":"levelo://app?vid=dadcec8b-9707-44ff-bc60-9b766a5cb29c"},"vehicle_type_id":"4","last_reported":1722190224,"current_range_meters":18000,"station_id":"ce4bgh92rcd13ifvqb40","pricing_plan_id":"cebpf4jnsgd1na2vs0mg"},{"bike_id":"5a85840f-2914-462e-9d95-090343380c05","system_id":"levelo_inurba_marseille","lat":43.292749,"lon":5.368402,"is_reserved":false,"is_disabled":false,"rental_uris":{"android":"levelo://app?vid=5a85840f-2914-462e-9d95-090343380c05","ios":"levelo://app?vid=5a85840f-2914-462e-9d95-090343380c05"},"vehicle_type_id":"4","last_reported":1722190224,"current_range_meters":400,"station_id":"ce4bhbp2rcd13ifvqesg","pricing_plan_id":"cebpf4jnsgd1na2vs0mg"},{"bike_id":"08ee91d2-8bbb-4914-95d2-429be32bcac0","system_id":"levelo_inurba_marseille","lat":43.29264,"lon":5.36776,"is_reserved":false,"is_disabled":false,"rental_uris":{"android":"levelo://app?vid=08ee91d2-8bbb-4914-95d2-429be32bcac0","ios":"levelo://app?vid=08ee91d2-8bbb-4914-95d2-429be32bcac0"},"vehicle_type_id":"4","last_reported":1722190224,"current_range_meters":20000,"station_id":"","pricing_plan_id":"cebpf4jnsgd1na2vs0mg"},{"bike_id":"7c2821cd-eddd-47cc-9cf8-6f6d20e7ee4e","system_id":"levelo_inurba_marseille","lat":43.305994,"lon":5.393687,"is_reserved":false,"is_disabled":false,"rental_uris":{"android":"levelo://app?vid=7c2821cd-eddd-47cc-9cf8-6f6d20e7ee4e","ios":"levelo://app?vid=7c2821cd-eddd-47cc-9cf8-6f6d20e7ee4e"},"vehicle_type_id":"4","last_reported":1722190224,"current_range_meters":4800,"station_id":"ce4bh0p2rcd13ifvqd80","pricing_plan_id":"cebpf4jnsgd1na2vs0mg"},{"bike_id":"97dc7e65-11d3-4d6d-ad66-62c5a5541582","system_id":"levelo_inurba_marseille","lat":43.305994,"lon":5.393687,"is_reserved":false,"is_disabled":false,"rental_uris":{"android":"levelo://app?vid=97dc7e65-11d3-4d6d-ad66-62c5a5541582","ios":"levelo://app?vid=97dc7e65-11d3-4d6d-ad66-62c5a5541582"},"vehicle_type_id":"4","last_reported":1722190224,"current_range_meters":8800,"station_id":"ce4bh0p2rcd13ifvqd80","pricing_plan_id":"cebpf4jnsgd1na2vs0mg"},{"bike_id":"0547ead3-7c90-4362-87b3-6ba0babfdd70","system_id":"levelo_inurba_marseille","lat":43.305994,"lon":5.393687,"is_reserved":false,"is_disabled":false,"rental_uris":{"android":"levelo://app?vid=0547ead3-7c90-4362-87b3-6ba0babfdd70","ios":"levelo://app?vid=0547ead3-7c90-4362-87b3-6ba0babfdd70"},"vehicle_type_id":"4","last_reported":1722190224,"current_range_meters":6400,"station_id":"ce4bh0p2rcd13ifvqd80","pricing_plan_id":"cebpf4jnsgd1na2vs0mg"},{"bike_id":"903cd775-ff3d-43de-bf72-de39cf947a6a","system_id":"levelo_inurba_marseille","lat":43.30316,"lon":5.39206,"is_reserved":false,"is_disabled":false,"rental_uris":{"android":"levelo://app?vid=903cd775-ff3d-43de-bf72-de39cf947a6a","ios":"levelo://app?vid=903cd775-ff3d-43de-bf72-de39cf947a6a"},"vehicle_type_id":"4","last_reported":1722190224,"current_range_meters":31200,"station_id":"","pricing_plan_id":"cebpf4jnsgd1na2vs0mg"},{"bike_id":"ef296ee8-3201-4bbd-a332-c8554ec176e6","system_id":"levelo_inurba_marseille","lat":43.303002,"lon":5.392142,"is_reserved":false,"is_disabled":false,"rental_uris":{"android":"levelo://app?vid=ef296ee8-3201-4bbd-a332-c8554ec176e6","ios":"levelo://app?vid=ef296ee8-3201-4bbd-a332-c8554ec176e6"},"vehicle_type_id":"4","last_reported":1722190224,"current_range_meters":31200,"station_id":"ce4bgkh2rcd13ifvqbk0","pricing_plan_id":"cebpf4jnsgd1na2vs0mg"},{"bike_id":"6e2708ec-4dd5-43e2-901a-a1d5982f6d53","system_id":"levelo_inurba_marseille","lat":43.29226,"lon":5.36264,"is_reserved":false,"is_disabled":false,"rental_uris":{"android":"levelo://app?vid=6e2708ec-4dd5-43e2-901a-a1d5982f6d53","ios":"levelo://app?vid=6e2708ec-4dd5-43e2-901a-a1d5982f6d53"},"vehicle_type_id":"4","last_reported":1722190224,"current_range_meters":0,"station_id":"","pricing_plan_id":"cebpf4jnsgd1na2vs0mg"},{"bike_id":"2c013a47-c6f5-4aba-9b88-42ebae2701b1","system_id":"levelo_inurba_marseille","lat":43.303002,"lon":5.392142,"is_reserved":false,"is_disabled":false,"rental_uris":{"android":"levelo://app?vid=2c013a47-c6f5-4aba-9b88-42ebae2701b1","ios":"levelo://app?vid=2c013a47-c6f5-4aba-9b88-42ebae2701b1"},"vehicle_type_id":"4","last_reported":1722190224,"current_range_meters":31200,"station_id":"ce4bgkh2rcd13ifvqbk0","pricing_plan_id":"cebpf4jnsgd1na2vs0mg"},{"bike_id":"f9a6aeae-7e22-4aab-b836-cac03c9d579f","system_id":"levelo_inurba_marseille","lat":43.303002,"lon":5.392142,"is_reserved":false,"is_disabled":false,"rental_uris":{"android":"levelo://app?vid=f9a6aeae-7e22-4aab-b836-cac03c9d579f","ios":"levelo://app?vid=f9a6aeae-7e22-4aab-b836-cac03c9d579f"},"vehicle_type_id":"4","last_reported":1722190224,"current_range_meters":31200,"station_id":"ce4bgkh2rcd13ifvqbk0","pricing_plan_id":"cebpf4jnsgd1na2vs0mg"},{"bike_id":"b9553453-dfb4-42b1-884c-2315ed3ef2cd","system_id":"levelo_inurba_marseille","lat":43.2936,"lon":5.37835,"is_reserved":false,"is_disabled":false,"rental_uris":{"android":"levelo://app?vid=b9553453-dfb4-42b1-884c-2315ed3ef2cd","ios":"levelo://app?vid=b9553453-dfb4-42b1-884c-2315ed3ef2cd"},"vehicle_type_id":"4","last_reported":1722190224,"current_range_meters":2800,"station_id":"ce4bgjh2rcd13ifvqbf0","pricing_plan_id":"cebpf4jnsgd1na2vs0mg"},{"bike_id":"62f3f407-337a-4266-8b93-0c6bc32949a0","system_id":"levelo_inurba_marseille","lat":43.30085,"lon":5.390856,"is_reserved":false,"is_disabled":false,"rental_uris":{"android":"levelo://app?vid=62f3f407-337a-4266-8b93-0c6bc32949a0","ios":"levelo://app?vid=62f3f407-337a-4266-8b93-0c6bc32949a0"},"vehicle_type_id":"4","last_reported":1722190224,"current_range_meters":0,"station_id":"ce4bh192rcd13ifvqdb0","pricing_plan_id":"cebpf4jnsgd1na2vs0mg"},{"bike_id":"d62e3954-1441-4353-b0cf-8855a23141fe","system_id":"levelo_inurba_marseille","lat":43.292311,"lon":5.360731,"is_reserved":false,"is_disabled":false,"rental_uris":{"android":"levelo://app?vid=d62e3954-1441-4353-b0cf-8855a23141fe","ios":"levelo://app?vid=d62e3954-1441-4353-b0cf-8855a23141fe"},"vehicle_type_id":"4","last_reported":1722190224,"current_range_meters":22400,"station_id":"ce4bhbh2rcd13ifvqeqg","pricing_plan_id":"cebpf4jnsgd1na2vs0mg"},{"bike_id":"a5196313-73ba-4e6c-87a5-ca42198c21fa","system_id":"levelo_inurba_marseille","lat":43.29217,"lon":5.36048,"is_reserved":false,"is_disabled":false,"rental_uris":{"android":"levelo://app?vid=a5196313-73ba-4e6c-87a5-ca42198c21fa","ios":"levelo://app?vid=a5196313-73ba-4e6c-87a5-ca42198c21fa"},"vehicle_type_id":"4","last_reported":1722190224,"current_range_meters":0,"station_id":"ce4bhbh2rcd13ifvqeqg","pricing_plan_id":"cebpf4jnsgd1na2vs0mg"},{"bike_id":"b9a95ba9-77be-4d93-9120-045b0f891c83","system_id":"levelo_inurba_marseille","lat":43.298764,"lon":5.388973,"is_reserved":false,"is_disabled":false,"rental_uris":{"android":"levelo://app?vid=b9a95ba9-77be-4d93-9120-045b0f891c83","ios":"levelo://app?vid=b9a95ba9-77be-4d93-9120-045b0f891c83"},"vehicle_type_id":"4","last_reported":1722190224,"current_range_meters":28000,"station_id":"ce4bh392rcd13ifvqdl0","pricing_plan_id":"cebpf4jnsgd1na2vs0mg"},{"bike_id":"68b39355-020f-478f-b604-97af105ac807","system_id":"levelo_inurba_marseille","lat":43.291671,"lon":5.371575,"is_reserved":false,"is_disabled":false,"rental_uris":{"android":"levelo://app?vid=68b39355-020f-478f-b604-97af105ac807","ios":"levelo://app?vid=68b39355-020f-478f-b604-97af105ac807"},"vehicle_type_id":"4","last_reported":1722190224,"current_range_meters":23200,"station_id":"ce4bha92rcd13ifvqeh0","pricing_plan_id":"cebpf4jnsgd1na2vs0mg"},{"bike_id":"32b7679d-9bc8-4873-bf47-b18929681f6d","system_id":"levelo_inurba_marseille","lat":43.29168,"lon":5.37167,"is_reserved":false,"is_disabled":false,"rental_uris":{"android":"levelo://app?vid=32b7679d-9bc8-4873-bf47-b18929681f6d","ios":"levelo://app?vid=32b7679d-9bc8-4873-bf47-b18929681f6d"},"vehicle_type_id":"4","last_reported":1722190224,"current_range_meters":0,"station_id":"ce4bha92rcd13ifvqeh0","pricing_plan_id":"cebpf4jnsgd1na2vs0mg"},{"bike_id":"e81e9610-1e5a-4941-9347-8a985aeb8c77","system_id":"levelo_inurba_marseille","lat":43.298764,"lon":5.388973,"is_reserved":false,"is_disabled":false,"rental_uris":{"android":"levelo://app?vid=e81e9610-1e5a-4941-9347-8a985aeb8c77","ios":"levelo://app?vid=e81e9610-1e5a-4941-9347-8a985aeb8c77"},"vehicle_type_id":"4","last_reported":1722190224,"current_range_meters":0,"station_id":"ce4bh392rcd13ifvqdl0","pricing_plan_id":"cebpf4jnsgd1na2vs0mg"},{"bike_id":"b27a82ad-a505-4b11-a89a-ee05cc727eaa","system_id":"levelo_inurba_marseille","lat":43.313291,"lon":5.396759,"is_reserved":false,"is_disabled":false,"rental_uris":{"android":"levelo://app?vid=b27a82ad-a505-4b11-a89a-ee05cc727eaa","ios":"levelo://app?vid=b27a82ad-a505-4b11-a89a-ee05cc727eaa"},"vehicle_type_id":"4","last_reported":1722190224,"current_range_meters":0,"station_id":"ce4bgvp2rcd13ifvqcu0","pricing_plan_id":"cebpf4jnsgd1na2vs0mg"},{"bike_id":"8bc94f58-4575-4542-b11b-80cefa5ed45f","system_id":"levelo_inurba_marseille","lat":43.309038,"lon":5.396546,"is_reserved":false,"is_disabled":false,"rental_uris":{"android":"levelo://app?vid=8bc94f58-4575-4542-b11b-80cefa5ed45f","ios":"levelo://app?vid=8bc94f58-4575-4542-b11b-80cefa5ed45f"},"vehicle_type_id":"4","last_reported":1722190224,"current_range_meters":24000,"station_id":"ce4bh012rcd13ifvqcv0","pricing_plan_id":"cebpf4jnsgd1na2vs0mg"},{"bike_id":"5d50f4a7-200a-4ea2-99b7-201ca06cd9f1","system_id":"levelo_inurba_marseille","lat":43.309047,"lon":5.396551,"is_reserved":false,"is_disabled":false,"rental_uris":{"android":"levelo://app?vid=5d50f4a7-200a-4ea2-99b7-201ca06cd9f1","ios":"levelo://app?vid=5d50f4a7-200a-4ea2-99b7-201ca06cd9f1"},"vehicle_type_id":"4","last_reported":1722190224,"current_range_meters":9600,"station_id":"ce4bh012rcd13ifvqcv0","pricing_plan_id":"cebpf4jnsgd1na2vs0mg"},{"bike_id":"c0bcc74f-a59f-44ca-b2a8-3cfa3b09e04b","system_id":"levelo_inurba_marseille","lat":43.29534,"lon":5.38546,"is_reserved":false,"is_disabled":false,"rental_uris":{"android":"levelo://app?vid=c0bcc74f-a59f-44ca-b2a8-3cfa3b09e04b","ios":"levelo://app?vid=c0bcc74f-a59f-44ca-b2a8-3cfa3b09e04b"},"vehicle_type_id":"4","last_reported":1722190224,"current_range_meters":0,"station_id":"ce4bgih2rcd13ifvqba0","pricing_plan_id":"cebpf4jnsgd1na2vs0mg"},{"bike_id":"257c3bd5-f841-4973-aa9c-9aa3adee9e37","system_id":"levelo_inurba_marseille","lat":43.29529,"lon":5.38548,"is_reserved":false,"is_disabled":false,"rental_uris":{"android":"levelo://app?vid=257c3bd5-f841-4973-aa9c-9aa3adee9e37","ios":"levelo://app?vid=257c3bd5-f841-4973-aa9c-9aa3adee9e37"},"vehicle_type_id":"4","last_reported":1722190224,"current_range_meters":0,"station_id":"ce4bgih2rcd13ifvqba0","pricing_plan_id":"cebpf4jnsgd1na2vs0mg"},{"bike_id":"0da568cd-ca44-4361-8703-eca5deadab46","system_id":"levelo_inurba_marseille","lat":43.290779,"lon":5.371482,"is_reserved":false,"is_disabled":false,"rental_uris":{"android":"levelo://app?vid=0da568cd-ca44-4361-8703-eca5deadab46","ios":"levelo://app?vid=0da568cd-ca44-4361-8703-eca5deadab46"},"vehicle_type_id":"4","last_reported":1722190224,"current_range_meters":14000,"station_id":"ce4bh5p2rcd13ifvqe4g","pricing_plan_id":"cebpf4jnsgd1na2vs0mg"},{"bike_id":"4bd1e5a1-d871-4228-b7c7-f968b15d7918","system_id":"levelo_inurba_marseille","lat":43.290779,"lon":5.371482,"is_reserved":false,"is_disabled":false,"rental_uris":{"android":"levelo://app?vid=4bd1e5a1-d871-4228-b7c7-f968b15d7918","ios":"levelo://app?vid=4bd1e5a1-d871-4228-b7c7-f968b15d7918"},"vehicle_type_id":"4","last_reported":1722190224,"current_range_meters":29600,"station_id":"ce4bh5p2rcd13ifvqe4g","pricing_plan_id":"cebpf4jnsgd1na2vs0mg"},{"bike_id":"681fbde8-0047-4933-a20c-fdb4d11f738c","system_id":"levelo_inurba_marseille","lat":43.302008,"lon":5.394694,"is_reserved":false,"is_disabled":false,"rental_uris":{"android":"levelo://app?vid=681fbde8-0047-4933-a20c-fdb4d11f738c","ios":"levelo://app?vid=681fbde8-0047-4933-a20c-fdb4d11f738c"},"vehicle_type_id":"4","last_reported":1722190224,"current_range_meters":0,"station_id":"ce4bh0p2rcd13ifvqd70","pricing_plan_id":"cebpf4jnsgd1na2vs0mg"},{"bike_id":"72afa79d-fda8-4992-bbe0-613c746f3962","system_id":"levelo_inurba_marseille","lat":43.290631,"lon":5.359244,"is_reserved":false,"is_disabled":false,"rental_uris":{"android":"levelo://app?vid=72afa79d-fda8-4992-bbe0-613c746f3962","ios":"levelo://app?vid=72afa79d-fda8-4992-bbe0-613c746f3962"},"vehicle_type_id":"4","last_reported":1722190224,"current_range_meters":5600,"station_id":"ce4bha92rcd13ifvqeg0","pricing_plan_id":"cebpf4jnsgd1na2vs0mg"},{"bike_id":"6065ca7b-7197-405e-870e-dcfec60d775c","system_id":"levelo_inurba_marseille","lat":43.290319,"lon":5.375732,"is_reserved":false,"is_disabled":false,"rental_uris":{"android":"levelo://app?vid=6065ca7b-7197-405e-870e-dcfec60d775c","ios":"levelo://app?vid=6065ca7b-7197-405e-870e-dcfec60d775c"},"vehicle_type_id":"4","last_reported":1722190224,"current_range_meters":8400,"station_id":"ce4bh692rcd13ifvqe90","pricing_plan_id":"cebpf4jnsgd1na2vs0mg"},{"bike_id":"5bf93956-342f-4d87-b33d-4b01eb4c23be","system_id":"levelo_inurba_marseille","lat":43.294153,"lon":5.386305,"is_reserved":false,"is_disabled":false,"rental_uris":{"android":"levelo://app?vid=5bf93956-342f-4d87-b33d-4b01eb4c23be","ios":"levelo://app?vid=5bf93956-342f-4d87-b33d-4b01eb4c23be"},"vehicle_type_id":"4","last_reported":1722190224,"current_range_meters":0,"station_id":"ce4bh2h2rcd13ifvqdh0","pricing_plan_id":"cebpf4jnsgd1na2vs0mg"},{"bike_id":"79bc3001-c1a0-4ce9-8fdd-0988d4f3f04b","system_id":"levelo_inurba_marseille","lat":43.294153,"lon":5.386305,"is_reserved":false,"is_disabled":false,"rental_uris":{"android":"levelo://app?vid=79bc3001-c1a0-4ce9-8fdd-0988d4f3f04b","ios":"levelo://app?vid=79bc3001-c1a0-4ce9-8fdd-0988d4f3f04b"},"vehicle_type_id":"4","last_reported":1722190224,"current_range_meters":2400,"station_id":"ce4bh2h2rcd13ifvqdh0","pricing_plan_id":"cebpf4jnsgd1na2vs0mg"},{"bike_id":"7245c66b-3268-4ec2-9d74-63964ebaa3c7","system_id":"levelo_inurba_marseille","lat":43.290319,"lon":5.375732,"is_reserved":false,"is_disabled":false,"rental_uris":{"android":"levelo://app?vid=7245c66b-3268-4ec2-9d74-63964ebaa3c7","ios":"levelo://app?vid=7245c66b-3268-4ec2-9d74-63964ebaa3c7"},"vehicle_type_id":"4","last_reported":1722190224,"current_range_meters":20400,"station_id":"ce4bh692rcd13ifvqe90","pricing_plan_id":"cebpf4jnsgd1na2vs0mg"},{"bike_id":"2a7d5bb6-4877-4ba8-aa54-b7467557306d","system_id":"levelo_inurba_marseille","lat":43.294162,"lon":5.386292,"is_reserved":false,"is_disabled":false,"rental_uris":{"android":"levelo://app?vid=2a7d5bb6-4877-4ba8-aa54-b7467557306d","ios":"levelo://app?vid=2a7d5bb6-4877-4ba8-aa54-b7467557306d"},"vehicle_type_id":"4","last_reported":1722190224,"current_range_meters":29200,"station_id":"ce4bh2h2rcd13ifvqdh0","pricing_plan_id":"cebpf4jnsgd1na2vs0mg"},{"bike_id":"67a05b44-1b02-4bba-81fe-17dbe92868b5","system_id":"levelo_inurba_marseille","lat":43.289912,"lon":5.373314,"is_reserved":false,"is_disabled":false,"rental_uris":{"android":"levelo://app?vid=67a05b44-1b02-4bba-81fe-17dbe92868b5","ios":"levelo://app?vid=67a05b44-1b02-4bba-81fe-17dbe92868b5"},"vehicle_type_id":"4","last_reported":1722190224,"current_range_meters":17200,"station_id":"","pricing_plan_id":"cebpf4jnsgd1na2vs0mg"},{"bike_id":"2ea3bad2-30ee-4180-9925-8c431d8c4d36","system_id":"levelo_inurba_marseille","lat":43.294167,"lon":5.386263,"is_reserved":false,"is_disabled":false,"rental_uris":{"android":"levelo://app?vid=2ea3bad2-30ee-4180-9925-8c431d8c4d36","ios":"levelo://app?vid=2ea3bad2-30ee-4180-9925-8c431d8c4d36"},"vehicle_type_id":"4","last_reported":1722190224,"current_range_meters":31200,"station_id":"ce4bh2h2rcd13ifvqdh0","pricing_plan_id":"cebpf4jnsgd1na2vs0mg"},{"bike_id":"0b1acc85-b3bc-44e6-9ad3-f54b09a9abd1","system_id":"levelo_inurba_marseille","lat":43.289184,"lon":5.366408,"is_reserved":false,"is_disabled":false,"rental_uris":{"android":"levelo://app?vid=0b1acc85-b3bc-44e6-9ad3-f54b09a9abd1","ios":"levelo://app?vid=0b1acc85-b3bc-44e6-9ad3-f54b09a9abd1"},"vehicle_type_id":"4","last_reported":1722190224,"current_range_meters":30000,"station_id":"ce4bhap2rcd13ifvqek0","pricing_plan_id":"cebpf4jnsgd1na2vs0mg"},{"bike_id":"bee8c8ae-5355-4503-b9c4-42c109d36767","system_id":"levelo_inurba_marseille","lat":43.289184,"lon":5.366408,"is_reserved":false,"is_disabled":false,"rental_uris":{"android":"levelo://app?vid=bee8c8ae-5355-4503-b9c4-42c109d36767","ios":"levelo://app?vid=bee8c8ae-5355-4503-b9c4-42c109d36767"},"vehicle_type_id":"4","last_reported":1722190224,"current_range_meters":12000,"station_id":"ce4bhap2rcd13ifvqek0","pricing_plan_id":"cebpf4jnsgd1na2vs0mg"},{"bike_id":"ede8c4e1-a7c3-497a-ba3f-15597b62708a","system_id":"levelo_inurba_marseille","lat":43.289184,"lon":5.366408,"is_reserved":false,"is_disabled":false,"rental_uris":{"android":"levelo://app?vid=ede8c4e1-a7c3-497a-ba3f-15597b62708a","ios":"levelo://app?vid=ede8c4e1-a7c3-497a-ba3f-15597b62708a"},"vehicle_type_id":"4","last_reported":1722190224,"current_range_meters":6400,"station_id":"ce4bhap2rcd13ifvqek0","pricing_plan_id":"cebpf4jnsgd1na2vs0mg"},{"bike_id":"0e56561a-6353-4ced-b3f7-8248f854be11","system_id":"levelo_inurba_marseille","lat":43.289184,"lon":5.366408,"is_reserved":false,"is_disabled":false,"rental_uris":{"android":"levelo://app?vid=0e56561a-6353-4ced-b3f7-8248f854be11","ios":"levelo://app?vid=0e56561a-6353-4ced-b3f7-8248f854be11"},"vehicle_type_id":"4","last_reported":1722190224,"current_range_meters":20800,"station_id":"ce4bhap2rcd13ifvqek0","pricing_plan_id":"cebpf4jnsgd1na2vs0mg"},{"bike_id":"0a127e75-e8a0-4993-ba40-6804ec2f3db8","system_id":"levelo_inurba_marseille","lat":43.292644,"lon":5.384257,"is_reserved":false,"is_disabled":false,"rental_uris":{"android":"levelo://app?vid=0a127e75-e8a0-4993-ba40-6804ec2f3db8","ios":"levelo://app?vid=0a127e75-e8a0-4993-ba40-6804ec2f3db8"},"vehicle_type_id":"4","last_reported":1722190224,"current_range_meters":12000,"station_id":"ce4bh692rcd13ifvqea0","pricing_plan_id":"cebpf4jnsgd1na2vs0mg"},{"bike_id":"9efc551f-7d82-4952-b4a4-adf2a27578f0","system_id":"levelo_inurba_marseille","lat":43.292644,"lon":5.384257,"is_reserved":false,"is_disabled":false,"rental_uris":{"android":"levelo://app?vid=9efc551f-7d82-4952-b4a4-adf2a27578f0","ios":"levelo://app?vid=9efc551f-7d82-4952-b4a4-adf2a27578f0"},"vehicle_type_id":"4","last_reported":1722190224,"current_range_meters":0,"station_id":"ce4bh692rcd13ifvqea0","pricing_plan_id":"cebpf4jnsgd1na2vs0mg"},{"bike_id":"d6d2837c-a02a-4229-906b-49dda3d86a00","system_id":"levelo_inurba_marseille","lat":43.292644,"lon":5.384257,"is_reserved":false,"is_disabled":false,"rental_uris":{"android":"levelo://app?vid=d6d2837c-a02a-4229-906b-49dda3d86a00","ios":"levelo://app?vid=d6d2837c-a02a-4229-906b-49dda3d86a00"},"vehicle_type_id":"4","last_reported":1722190224,"current_range_meters":0,"station_id":"ce4bh692rcd13ifvqea0","pricing_plan_id":"cebpf4jnsgd1na2vs0mg"},{"bike_id":"99bfc0d7-c654-4a61-be32-d425ec482d97","system_id":"levelo_inurba_marseille","lat":43.304296,"lon":5.397513,"is_reserved":false,"is_disabled":false,"rental_uris":{"android":"levelo://app?vid=99bfc0d7-c654-4a61-be32-d425ec482d97","ios":"levelo://app?vid=99bfc0d7-c654-4a61-be32-d425ec482d97"},"vehicle_type_id":"4","last_reported":1722190224,"current_range_meters":25200,"station_id":"ce4bh092rcd13ifvqd20","pricing_plan_id":"cebpf4jnsgd1na2vs0mg"},{"bike_id":"e15c66bf-5dc8-46e9-a499-7857cbc8f536","system_id":"levelo_inurba_marseille","lat":43.29265,"lon":5.38439,"is_reserved":false,"is_disabled":false,"rental_uris":{"android":"levelo://app?vid=e15c66bf-5dc8-46e9-a499-7857cbc8f536","ios":"levelo://app?vid=e15c66bf-5dc8-46e9-a499-7857cbc8f536"},"vehicle_type_id":"4","last_reported":1722190224,"current_range_meters":0,"station_id":"ce4bh692rcd13ifvqea0","pricing_plan_id":"cebpf4jnsgd1na2vs0mg"},{"bike_id":"774395fe-5cff-4e5f-8a92-9cb388511aad","system_id":"levelo_inurba_marseille","lat":43.29262,"lon":5.38433,"is_reserved":false,"is_disabled":false,"rental_uris":{"android":"levelo://app?vid=774395fe-5cff-4e5f-8a92-9cb388511aad","ios":"levelo://app?vid=774395fe-5cff-4e5f-8a92-9cb388511aad"},"vehicle_type_id":"4","last_reported":1722190224,"current_range_meters":0,"station_id":"ce4bh692rcd13ifvqea0","pricing_plan_id":"cebpf4jnsgd1na2vs0mg"},{"bike_id":"07043f1a-f787-42b9-a40a-c7887189b4c7","system_id":"levelo_inurba_marseille","lat":43.30269,"lon":5.39655,"is_reserved":false,"is_disabled":false,"rental_uris":{"android":"levelo://app?vid=07043f1a-f787-42b9-a40a-c7887189b4c7","ios":"levelo://app?vid=07043f1a-f787-42b9-a40a-c7887189b4c7"},"vehicle_type_id":"4","last_reported":1722190224,"current_range_meters":0,"station_id":"","pricing_plan_id":"cebpf4jnsgd1na2vs0mg"},{"bike_id":"fc9c4445-85c9-4202-a975-927657be02f6","system_id":"levelo_inurba_marseille","lat":43.29263,"lon":5.38449,"is_reserved":false,"is_disabled":false,"rental_uris":{"android":"levelo://app?vid=fc9c4445-85c9-4202-a975-927657be02f6","ios":"levelo://app?vid=fc9c4445-85c9-4202-a975-927657be02f6"},"vehicle_type_id":"4","last_reported":1722190224,"current_range_meters":30400,"station_id":"ce4bh692rcd13ifvqea0","pricing_plan_id":"cebpf4jnsgd1na2vs0mg"},{"bike_id":"bc5db632-5aec-44db-9588-fc71613a96a3","system_id":"levelo_inurba_marseille","lat":43.292547,"lon":5.384491,"is_reserved":false,"is_disabled":false,"rental_uris":{"android":"levelo://app?vid=bc5db632-5aec-44db-9588-fc71613a96a3","ios":"levelo://app?vid=bc5db632-5aec-44db-9588-fc71613a96a3"},"vehicle_type_id":"4","last_reported":1722190224,"current_range_meters":30800,"station_id":"ce4bh692rcd13ifvqea0","pricing_plan_id":"cebpf4jnsgd1na2vs0mg"},{"bike_id":"75f75fa5-99e5-41df-9d22-1fb63430bb4c","system_id":"levelo_inurba_marseille","lat":43.290103,"lon":5.356114,"is_reserved":false,"is_disabled":false,"rental_uris":{"android":"levelo://app?vid=75f75fa5-99e5-41df-9d22-1fb63430bb4c","ios":"levelo://app?vid=75f75fa5-99e5-41df-9d22-1fb63430bb4c"},"vehicle_type_id":"4","last_reported":1722190224,"current_range_meters":0,"station_id":"ce4bhb92rcd13ifvqen0","pricing_plan_id":"cebpf4jnsgd1na2vs0mg"},{"bike_id":"bc622ecd-9575-4828-a25b-38c02ff34037","system_id":"levelo_inurba_marseille","lat":43.290104,"lon":5.356111,"is_reserved":false,"is_disabled":false,"rental_uris":{"android":"levelo://app?vid=bc622ecd-9575-4828-a25b-38c02ff34037","ios":"levelo://app?vid=bc622ecd-9575-4828-a25b-38c02ff34037"},"vehicle_type_id":"4","last_reported":1722190224,"current_range_meters":6400,"station_id":"ce4bhb92rcd13ifvqen0","pricing_plan_id":"cebpf4jnsgd1na2vs0mg"},{"bike_id":"f1aae6cc-c421-4d37-9f1a-4b3a7a719bde","system_id":"levelo_inurba_marseille","lat":43.290103,"lon":5.356114,"is_reserved":false,"is_disabled":false,"rental_uris":{"android":"levelo://app?vid=f1aae6cc-c421-4d37-9f1a-4b3a7a719bde","ios":"levelo://app?vid=f1aae6cc-c421-4d37-9f1a-4b3a7a719bde"},"vehicle_type_id":"4","last_reported":1722190224,"current_range_meters":0,"station_id":"ce4bhb92rcd13ifvqen0","pricing_plan_id":"cebpf4jnsgd1na2vs0mg"},{"bike_id":"5e40db35-a044-4ef3-bd44-de9328bee124","system_id":"levelo_inurba_marseille","lat":43.290995,"lon":5.381361,"is_reserved":false,"is_disabled":false,"rental_uris":{"android":"levelo://app?vid=5e40db35-a044-4ef3-bd44-de9328bee124","ios":"levelo://app?vid=5e40db35-a044-4ef3-bd44-de9328bee124"},"vehicle_type_id":"4","last_reported":1722190224,"current_range_meters":0,"station_id":"ce4bh512rcd13ifvqe2g","pricing_plan_id":"cebpf4jnsgd1na2vs0mg"},{"bike_id":"ada4466b-87b8-4dc3-a3e7-6a9220710192","system_id":"levelo_inurba_marseille","lat":43.290995,"lon":5.381361,"is_reserved":false,"is_disabled":false,"rental_uris":{"android":"levelo://app?vid=ada4466b-87b8-4dc3-a3e7-6a9220710192","ios":"levelo://app?vid=ada4466b-87b8-4dc3-a3e7-6a9220710192"},"vehicle_type_id":"4","last_reported":1722190224,"current_range_meters":2400,"station_id":"ce4bh512rcd13ifvqe2g","pricing_plan_id":"cebpf4jnsgd1na2vs0mg"},{"bike_id":"b295bae0-edc7-4c95-a67c-325effda7a19","system_id":"levelo_inurba_marseille","lat":43.29014,"lon":5.35513,"is_reserved":false,"is_disabled":false,"rental_uris":{"android":"levelo://app?vid=b295bae0-edc7-4c95-a67c-325effda7a19","ios":"levelo://app?vid=b295bae0-edc7-4c95-a67c-325effda7a19"},"vehicle_type_id":"4","last_reported":1722190224,"current_range_meters":2800,"station_id":"","pricing_plan_id":"cebpf4jnsgd1na2vs0mg"},{"bike_id":"4a568b73-9a5d-435d-8203-c528336926de","system_id":"levelo_inurba_marseille","lat":43.297807,"lon":5.393533,"is_reserved":false,"is_disabled":false,"rental_uris":{"android":"levelo://app?vid=4a568b73-9a5d-435d-8203-c528336926de","ios":"levelo://app?vid=4a568b73-9a5d-435d-8203-c528336926de"},"vehicle_type_id":"4","last_reported":1722190224,"current_range_meters":0,"station_id":"chh1huq6cuj3fo74tm60","pricing_plan_id":"cebpf4jnsgd1na2vs0mg"},{"bike_id":"96ca8405-4da2-4b25-9a13-5e96c6552c1a","system_id":"levelo_inurba_marseille","lat":43.28846,"lon":5.36539,"is_reserved":false,"is_disabled":false,"rental_uris":{"android":"levelo://app?vid=96ca8405-4da2-4b25-9a13-5e96c6552c1a","ios":"levelo://app?vid=96ca8405-4da2-4b25-9a13-5e96c6552c1a"},"vehicle_type_id":"4","last_reported":1722190224,"current_range_meters":6000,"station_id":"","pricing_plan_id":"cebpf4jnsgd1na2vs0mg"},{"bike_id":"fc83e3e8-89ef-4cf8-9e0d-799759f55de8","system_id":"levelo_inurba_marseille","lat":43.29785,"lon":5.39342,"is_reserved":false,"is_disabled":false,"rental_uris":{"android":"levelo://app?vid=fc83e3e8-89ef-4cf8-9e0d-799759f55de8","ios":"levelo://app?vid=fc83e3e8-89ef-4cf8-9e0d-799759f55de8"},"vehicle_type_id":"4","last_reported":1722190224,"current_range_meters":26400,"station_id":"chh1huq6cuj3fo74tm60","pricing_plan_id":"cebpf4jnsgd1na2vs0mg"},{"bike_id":"0ef062ba-1607-4b74-a8f7-20daf32ed961","system_id":"levelo_inurba_marseille","lat":43.289743,"lon":5.378304,"is_reserved":false,"is_disabled":false,"rental_uris":{"android":"levelo://app?vid=0ef062ba-1607-4b74-a8f7-20daf32ed961","ios":"levelo://app?vid=0ef062ba-1607-4b74-a8f7-20daf32ed961"},"vehicle_type_id":"4","last_reported":1722190224,"current_range_meters":2400,"station_id":"ce4bh9p2rcd13ifvqed0","pricing_plan_id":"cebpf4jnsgd1na2vs0mg"},{"bike_id":"ddde3c43-a5dc-4b8b-9ca8-29724e6fec81","system_id":"levelo_inurba_marseille","lat":43.295169,"lon":5.390426,"is_reserved":false,"is_disabled":false,"rental_uris":{"android":"levelo://app?vid=ddde3c43-a5dc-4b8b-9ca8-29724e6fec81","ios":"levelo://app?vid=ddde3c43-a5dc-4b8b-9ca8-29724e6fec81"},"vehicle_type_id":"4","last_reported":1722190224,"current_range_meters":2000,"station_id":"ce4bh3p2rcd13ifvqdp0","pricing_plan_id":"cebpf4jnsgd1na2vs0mg"},{"bike_id":"2de381e5-d23b-4aa9-a034-b86d7b3c0c6c","system_id":"levelo_inurba_marseille","lat":43.330442,"lon":5.389148,"is_reserved":false,"is_disabled":false,"rental_uris":{"android":"levelo://app?vid=2de381e5-d23b-4aa9-a034-b86d7b3c0c6c","ios":"levelo://app?vid=2de381e5-d23b-4aa9-a034-b86d7b3c0c6c"},"vehicle_type_id":"4","last_reported":1722190224,"current_range_meters":4000,"station_id":"ce4bhr92rcd13ifvqhrg","pricing_plan_id":"cebpf4jnsgd1na2vs0mg"},{"bike_id":"14821740-0e1e-4153-ba52-5536bbebf94c","system_id":"levelo_inurba_marseille","lat":43.33024,"lon":5.39043,"is_reserved":false,"is_disabled":false,"rental_uris":{"android":"levelo://app?vid=14821740-0e1e-4153-ba52-5536bbebf94c","ios":"levelo://app?vid=14821740-0e1e-4153-ba52-5536bbebf94c"},"vehicle_type_id":"4","last_reported":1722190224,"current_range_meters":6400,"station_id":"ce4bhr92rcd13ifvqhrg","pricing_plan_id":"cebpf4jnsgd1na2vs0mg"},{"bike_id":"69989144-f3c0-4488-a92c-62e2a5b56472","system_id":"levelo_inurba_marseille","lat":43.33025,"lon":5.39043,"is_reserved":false,"is_disabled":false,"rental_uris":{"android":"levelo://app?vid=69989144-f3c0-4488-a92c-62e2a5b56472","ios":"levelo://app?vid=69989144-f3c0-4488-a92c-62e2a5b56472"},"vehicle_type_id":"4","last_reported":1722190224,"current_range_meters":1600,"station_id":"ce4bhr92rcd13ifvqhrg","pricing_plan_id":"cebpf4jnsgd1na2vs0mg"},{"bike_id":"6c85b1c8-fcb3-4920-a7bf-12d3f3c81925","system_id":"levelo_inurba_marseille","lat":43.33026,"lon":5.39044,"is_reserved":false,"is_disabled":false,"rental_uris":{"android":"levelo://app?vid=6c85b1c8-fcb3-4920-a7bf-12d3f3c81925","ios":"levelo://app?vid=6c85b1c8-fcb3-4920-a7bf-12d3f3c81925"},"vehicle_type_id":"4","last_reported":1722190224,"current_range_meters":400,"station_id":"ce4bhr92rcd13ifvqhrg","pricing_plan_id":"cebpf4jnsgd1na2vs0mg"},{"bike_id":"75284fbb-5e3b-48c1-b78a-f5f34bc62fba","system_id":"levelo_inurba_marseille","lat":43.295169,"lon":5.390426,"is_reserved":false,"is_disabled":false,"rental_uris":{"android":"levelo://app?vid=75284fbb-5e3b-48c1-b78a-f5f34bc62fba","ios":"levelo://app?vid=75284fbb-5e3b-48c1-b78a-f5f34bc62fba"},"vehicle_type_id":"4","last_reported":1722190224,"current_range_meters":5600,"station_id":"ce4bh3p2rcd13ifvqdp0","pricing_plan_id":"cebpf4jnsgd1na2vs0mg"},{"bike_id":"90a14470-381a-467d-9c09-f5f2bd0b940b","system_id":"levelo_inurba_marseille","lat":43.3068,"lon":5.40015,"is_reserved":false,"is_disabled":false,"rental_uris":{"android":"levelo://app?vid=90a14470-381a-467d-9c09-f5f2bd0b940b","ios":"levelo://app?vid=90a14470-381a-467d-9c09-f5f2bd0b940b"},"vehicle_type_id":"4","last_reported":1722190224,"current_range_meters":0,"station_id":"","pricing_plan_id":"cebpf4jnsgd1na2vs0mg"},{"bike_id":"9d91b821-9c7a-4457-8bf7-d52787a48503","system_id":"levelo_inurba_marseille","lat":43.29007,"lon":5.38128,"is_reserved":false,"is_disabled":false,"rental_uris":{"android":"levelo://app?vid=9d91b821-9c7a-4457-8bf7-d52787a48503","ios":"levelo://app?vid=9d91b821-9c7a-4457-8bf7-d52787a48503"},"vehicle_type_id":"4","last_reported":1722190224,"current_range_meters":1600,"station_id":"ce4bh4p2rcd13ifvqe1g","pricing_plan_id":"cebpf4jnsgd1na2vs0mg"},{"bike_id":"3e79250c-7764-488c-b465-61fd16d31170","system_id":"levelo_inurba_marseille","lat":43.33736,"lon":5.37477,"is_reserved":false,"is_disabled":false,"rental_uris":{"android":"levelo://app?vid=3e79250c-7764-488c-b465-61fd16d31170","ios":"levelo://app?vid=3e79250c-7764-488c-b465-61fd16d31170"},"vehicle_type_id":"4","last_reported":1722190224,"current_range_meters":24400,"station_id":"","pricing_plan_id":"cebpf4jnsgd1na2vs0mg"},{"bike_id":"6ff48f3c-927a-470d-a08e-7714539082f0","system_id":"levelo_inurba_marseille","lat":43.33737,"lon":5.37476,"is_reserved":false,"is_disabled":false,"rental_uris":{"android":"levelo://app?vid=6ff48f3c-927a-470d-a08e-7714539082f0","ios":"levelo://app?vid=6ff48f3c-927a-470d-a08e-7714539082f0"},"vehicle_type_id":"4","last_reported":1722190224,"current_range_meters":0,"station_id":"","pricing_plan_id":"cebpf4jnsgd1na2vs0mg"},{"bike_id":"20a7bf81-31fd-4cb5-b454-68d5314a31b8","system_id":"levelo_inurba_marseille","lat":43.337399,"lon":5.374662,"is_reserved":false,"is_disabled":false,"rental_uris":{"android":"levelo://app?vid=20a7bf81-31fd-4cb5-b454-68d5314a31b8","ios":"levelo://app?vid=20a7bf81-31fd-4cb5-b454-68d5314a31b8"},"vehicle_type_id":"4","last_reported":1722190224,"current_range_meters":26400,"station_id":"","pricing_plan_id":"cebpf4jnsgd1na2vs0mg"},{"bike_id":"e92bf1d5-b1ca-44cd-9b31-a0496082825d","system_id":"levelo_inurba_marseille","lat":43.33733,"lon":5.37507,"is_reserved":false,"is_disabled":false,"rental_uris":{"android":"levelo://app?vid=e92bf1d5-b1ca-44cd-9b31-a0496082825d","ios":"levelo://app?vid=e92bf1d5-b1ca-44cd-9b31-a0496082825d"},"vehicle_type_id":"4","last_reported":1722190224,"current_range_meters":24800,"station_id":"","pricing_plan_id":"cebpf4jnsgd1na2vs0mg"},{"bike_id":"f8e8dd66-c7d6-4bd0-91ac-ef4274ae24f3","system_id":"levelo_inurba_marseille","lat":43.337409,"lon":5.37467,"is_reserved":false,"is_disabled":false,"rental_uris":{"android":"levelo://app?vid=f8e8dd66-c7d6-4bd0-91ac-ef4274ae24f3","ios":"levelo://app?vid=f8e8dd66-c7d6-4bd0-91ac-ef4274ae24f3"},"vehicle_type_id":"4","last_reported":1722190224,"current_range_meters":15200,"station_id":"","pricing_plan_id":"cebpf4jnsgd1na2vs0mg"},{"bike_id":"28ff567c-281c-4a43-913e-e1206badf942","system_id":"levelo_inurba_marseille","lat":43.337401,"lon":5.37472,"is_reserved":false,"is_disabled":false,"rental_uris":{"android":"levelo://app?vid=28ff567c-281c-4a43-913e-e1206badf942","ios":"levelo://app?vid=28ff567c-281c-4a43-913e-e1206badf942"},"vehicle_type_id":"4","last_reported":1722190224,"current_range_meters":18000,"station_id":"","pricing_plan_id":"cebpf4jnsgd1na2vs0mg"},{"bike_id":"93a9a631-7d73-48ac-92b3-e76a2578aeef","system_id":"levelo_inurba_marseille","lat":43.309371,"lon":5.401449,"is_reserved":false,"is_disabled":false,"rental_uris":{"android":"levelo://app?vid=93a9a631-7d73-48ac-92b3-e76a2578aeef","ios":"levelo://app?vid=93a9a631-7d73-48ac-92b3-e76a2578aeef"},"vehicle_type_id":"4","last_reported":1722190224,"current_range_meters":0,"station_id":"ce4bgvp2rcd13ifvqct0","pricing_plan_id":"cebpf4jnsgd1na2vs0mg"},{"bike_id":"0aa226e6-2195-431b-bdc4-34bf44420451","system_id":"levelo_inurba_marseille","lat":43.337467,"lon":5.374397,"is_reserved":false,"is_disabled":false,"rental_uris":{"android":"levelo://app?vid=0aa226e6-2195-431b-bdc4-34bf44420451","ios":"levelo://app?vid=0aa226e6-2195-431b-bdc4-34bf44420451"},"vehicle_type_id":"4","last_reported":1722190224,"current_range_meters":22400,"station_id":"","pricing_plan_id":"cebpf4jnsgd1na2vs0mg"},{"bike_id":"6cf0c176-f7c0-4e29-a014-f3a3b29e1d2a","system_id":"levelo_inurba_marseille","lat":43.337506,"lon":5.374435,"is_reserved":false,"is_disabled":false,"rental_uris":{"android":"levelo://app?vid=6cf0c176-f7c0-4e29-a014-f3a3b29e1d2a","ios":"levelo://app?vid=6cf0c176-f7c0-4e29-a014-f3a3b29e1d2a"},"vehicle_type_id":"4","last_reported":1722190224,"current_range_meters":23600,"station_id":"","pricing_plan_id":"cebpf4jnsgd1na2vs0mg"},{"bike_id":"f0338c4f-2f14-449f-abf8-25e44f36ca55","system_id":"levelo_inurba_marseille","lat":43.337503,"lon":5.374507,"is_reserved":false,"is_disabled":false,"rental_uris":{"android":"levelo://app?vid=f0338c4f-2f14-449f-abf8-25e44f36ca55","ios":"levelo://app?vid=f0338c4f-2f14-449f-abf8-25e44f36ca55"},"vehicle_type_id":"4","last_reported":1722190224,"current_range_meters":25200,"station_id":"","pricing_plan_id":"cebpf4jnsgd1na2vs0mg"},{"bike_id":"3f6f5449-7556-4e5a-8f11-22a350fce75e","system_id":"levelo_inurba_marseille","lat":43.309371,"lon":5.401449,"is_reserved":false,"is_disabled":false,"rental_uris":{"android":"levelo://app?vid=3f6f5449-7556-4e5a-8f11-22a350fce75e","ios":"levelo://app?vid=3f6f5449-7556-4e5a-8f11-22a350fce75e"},"vehicle_type_id":"4","last_reported":1722190224,"current_range_meters":2400,"station_id":"ce4bgvp2rcd13ifvqct0","pricing_plan_id":"cebpf4jnsgd1na2vs0mg"},{"bike_id":"ce2a281f-6b17-464e-8289-d463ea4cfa07","system_id":"levelo_inurba_marseille","lat":43.337553,"lon":5.374554,"is_reserved":false,"is_disabled":false,"rental_uris":{"android":"levelo://app?vid=ce2a281f-6b17-464e-8289-d463ea4cfa07","ios":"levelo://app?vid=ce2a281f-6b17-464e-8289-d463ea4cfa07"},"vehicle_type_id":"4","last_reported":1722190224,"current_range_meters":25200,"station_id":"","pricing_plan_id":"cebpf4jnsgd1na2vs0mg"},{"bike_id":"4e4124cc-d5a8-4a19-9ce3-c5ba98e727fe","system_id":"levelo_inurba_marseille","lat":43.306412,"lon":5.401035,"is_reserved":false,"is_disabled":false,"rental_uris":{"android":"levelo://app?vid=4e4124cc-d5a8-4a19-9ce3-c5ba98e727fe","ios":"levelo://app?vid=4e4124cc-d5a8-4a19-9ce3-c5ba98e727fe"},"vehicle_type_id":"4","last_reported":1722190224,"current_range_meters":0,"station_id":"ce4bh112rcd13ifvqda0","pricing_plan_id":"cebpf4jnsgd1na2vs0mg"},{"bike_id":"80697556-1b16-4909-9bd0-1db36569eb97","system_id":"levelo_inurba_marseille","lat":43.30642,"lon":5.401031,"is_reserved":false,"is_disabled":false,"rental_uris":{"android":"levelo://app?vid=80697556-1b16-4909-9bd0-1db36569eb97","ios":"levelo://app?vid=80697556-1b16-4909-9bd0-1db36569eb97"},"vehicle_type_id":"4","last_reported":1722190224,"current_range_meters":0,"station_id":"ce4bh112rcd13ifvqda0","pricing_plan_id":"cebpf4jnsgd1na2vs0mg"},{"bike_id":"20211d45-4875-42bc-8b13-adf6546c8412","system_id":"levelo_inurba_marseille","lat":43.30125,"lon":5.39848,"is_reserved":false,"is_disabled":false,"rental_uris":{"android":"levelo://app?vid=20211d45-4875-42bc-8b13-adf6546c8412","ios":"levelo://app?vid=20211d45-4875-42bc-8b13-adf6546c8412"},"vehicle_type_id":"4","last_reported":1722190224,"current_range_meters":5600,"station_id":"ce4bh0h2rcd13ifvqd40","pricing_plan_id":"cebpf4jnsgd1na2vs0mg"},{"bike_id":"84f3b22d-5aaa-405a-b4dd-a6a8298af61e","system_id":"levelo_inurba_marseille","lat":43.28727,"lon":5.36078,"is_reserved":false,"is_disabled":false,"rental_uris":{"android":"levelo://app?vid=84f3b22d-5aaa-405a-b4dd-a6a8298af61e","ios":"levelo://app?vid=84f3b22d-5aaa-405a-b4dd-a6a8298af61e"},"vehicle_type_id":"4","last_reported":1722190224,"current_range_meters":28400,"station_id":"cki0cbj6b192h4jlfktg","pricing_plan_id":"cebpf4jnsgd1na2vs0mg"},{"bike_id":"d802e6e2-0818-49eb-9b42-aa51bfa6942e","system_id":"levelo_inurba_marseille","lat":43.28727,"lon":5.36078,"is_reserved":false,"is_disabled":false,"rental_uris":{"android":"levelo://app?vid=d802e6e2-0818-49eb-9b42-aa51bfa6942e","ios":"levelo://app?vid=d802e6e2-0818-49eb-9b42-aa51bfa6942e"},"vehicle_type_id":"4","last_reported":1722190224,"current_range_meters":5600,"station_id":"cki0cbj6b192h4jlfktg","pricing_plan_id":"cebpf4jnsgd1na2vs0mg"},{"bike_id":"5251ac1d-68f9-42f4-a41e-dcb9de1f0a51","system_id":"levelo_inurba_marseille","lat":43.286961,"lon":5.373785,"is_reserved":false,"is_disabled":false,"rental_uris":{"android":"levelo://app?vid=5251ac1d-68f9-42f4-a41e-dcb9de1f0a51","ios":"levelo://app?vid=5251ac1d-68f9-42f4-a41e-dcb9de1f0a51"},"vehicle_type_id":"4","last_reported":1722190224,"current_range_meters":7200,"station_id":"ce4bh3p2rcd13ifvqdq0","pricing_plan_id":"cebpf4jnsgd1na2vs0mg"},{"bike_id":"a9fa7ed7-7967-476c-9041-f72bbd1f00e7","system_id":"levelo_inurba_marseille","lat":43.286961,"lon":5.373785,"is_reserved":false,"is_disabled":false,"rental_uris":{"android":"levelo://app?vid=a9fa7ed7-7967-476c-9041-f72bbd1f00e7","ios":"levelo://app?vid=a9fa7ed7-7967-476c-9041-f72bbd1f00e7"},"vehicle_type_id":"4","last_reported":1722190224,"current_range_meters":3200,"station_id":"ce4bh3p2rcd13ifvqdq0","pricing_plan_id":"cebpf4jnsgd1na2vs0mg"},{"bike_id":"9e2934e3-1d47-4151-9459-9f9662d6f598","system_id":"levelo_inurba_marseille","lat":43.286961,"lon":5.373785,"is_reserved":false,"is_disabled":false,"rental_uris":{"android":"levelo://app?vid=9e2934e3-1d47-4151-9459-9f9662d6f598","ios":"levelo://app?vid=9e2934e3-1d47-4151-9459-9f9662d6f598"},"vehicle_type_id":"4","last_reported":1722190224,"current_range_meters":8000,"station_id":"ce4bh3p2rcd13ifvqdq0","pricing_plan_id":"cebpf4jnsgd1na2vs0mg"},{"bike_id":"1f174632-7235-4dbf-9dbf-4cbcaf005015","system_id":"levelo_inurba_marseille","lat":43.287016,"lon":5.373881,"is_reserved":false,"is_disabled":false,"rental_uris":{"android":"levelo://app?vid=1f174632-7235-4dbf-9dbf-4cbcaf005015","ios":"levelo://app?vid=1f174632-7235-4dbf-9dbf-4cbcaf005015"},"vehicle_type_id":"4","last_reported":1722190224,"current_range_meters":19600,"station_id":"ce4bh3p2rcd13ifvqdq0","pricing_plan_id":"cebpf4jnsgd1na2vs0mg"},{"bike_id":"628fb775-351a-492f-baa7-7927a20eb08e","system_id":"levelo_inurba_marseille","lat":43.286961,"lon":5.373785,"is_reserved":false,"is_disabled":false,"rental_uris":{"android":"levelo://app?vid=628fb775-351a-492f-baa7-7927a20eb08e","ios":"levelo://app?vid=628fb775-351a-492f-baa7-7927a20eb08e"},"vehicle_type_id":"4","last_reported":1722190224,"current_range_meters":23200,"station_id":"ce4bh3p2rcd13ifvqdq0","pricing_plan_id":"cebpf4jnsgd1na2vs0mg"},{"bike_id":"960c274c-09c7-4fc2-91d3-0195caec2725","system_id":"levelo_inurba_marseille","lat":43.28697,"lon":5.37392,"is_reserved":false,"is_disabled":false,"rental_uris":{"android":"levelo://app?vid=960c274c-09c7-4fc2-91d3-0195caec2725","ios":"levelo://app?vid=960c274c-09c7-4fc2-91d3-0195caec2725"},"vehicle_type_id":"4","last_reported":1722190224,"current_range_meters":14800,"station_id":"ce4bh3p2rcd13ifvqdq0","pricing_plan_id":"cebpf4jnsgd1na2vs0mg"},{"bike_id":"c359364b-ca80-420d-8a08-956ee084e655","system_id":"levelo_inurba_marseille","lat":43.286933,"lon":5.37397,"is_reserved":false,"is_disabled":false,"rental_uris":{"android":"levelo://app?vid=c359364b-ca80-420d-8a08-956ee084e655","ios":"levelo://app?vid=c359364b-ca80-420d-8a08-956ee084e655"},"vehicle_type_id":"4","last_reported":1722190224,"current_range_meters":30000,"station_id":"ce4bh3p2rcd13ifvqdq0","pricing_plan_id":"cebpf4jnsgd1na2vs0mg"},{"bike_id":"191283b0-cba7-458c-81af-d063e1a5f559","system_id":"levelo_inurba_marseille","lat":43.33177,"lon":5.39212,"is_reserved":false,"is_disabled":false,"rental_uris":{"android":"levelo://app?vid=191283b0-cba7-458c-81af-d063e1a5f559","ios":"levelo://app?vid=191283b0-cba7-458c-81af-d063e1a5f559"},"vehicle_type_id":"4","last_reported":1722190224,"current_range_meters":26800,"station_id":"","pricing_plan_id":"cebpf4jnsgd1na2vs0mg"},{"bike_id":"5e017dd3-dc4a-40f5-81a2-37360630560b","system_id":"levelo_inurba_marseille","lat":43.289307,"lon":5.38406,"is_reserved":false,"is_disabled":false,"rental_uris":{"android":"levelo://app?vid=5e017dd3-dc4a-40f5-81a2-37360630560b","ios":"levelo://app?vid=5e017dd3-dc4a-40f5-81a2-37360630560b"},"vehicle_type_id":"4","last_reported":1722190224,"current_range_meters":13600,"station_id":"ce4bh612rcd13ifvqe6g","pricing_plan_id":"cebpf4jnsgd1na2vs0mg"},{"bike_id":"b913779d-5ec2-411c-af27-fec12ca64527","system_id":"levelo_inurba_marseille","lat":43.295279,"lon":5.375048,"is_reserved":false,"is_disabled":false,"rental_uris":{"android":"levelo://app?vid=b913779d-5ec2-411c-af27-fec12ca64527","ios":"levelo://app?vid=b913779d-5ec2-411c-af27-fec12ca64527"},"vehicle_type_id":"4","last_reported":1722190224,"current_range_meters":2000,"station_id":"ce4bgkp2rcd13ifvqbmg","pricing_plan_id":"cebpf4jnsgd1na2vs0mg"},{"bike_id":"c199fcc9-1fe6-4cca-bbbf-054028a15ba1","system_id":"levelo_inurba_marseille","lat":43.290336,"lon":5.386425,"is_reserved":false,"is_disabled":false,"rental_uris":{"android":"levelo://app?vid=c199fcc9-1fe6-4cca-bbbf-054028a15ba1","ios":"levelo://app?vid=c199fcc9-1fe6-4cca-bbbf-054028a15ba1"},"vehicle_type_id":"4","last_reported":1722190224,"current_range_meters":8400,"station_id":"ce4bh4p2rcd13ifvqe0g","pricing_plan_id":"cebpf4jnsgd1na2vs0mg"},{"bike_id":"3caea964-1119-4639-92d4-8d27dc65492e","system_id":"levelo_inurba_marseille","lat":43.3025,"lon":5.40069,"is_reserved":false,"is_disabled":false,"rental_uris":{"android":"levelo://app?vid=3caea964-1119-4639-92d4-8d27dc65492e","ios":"levelo://app?vid=3caea964-1119-4639-92d4-8d27dc65492e"},"vehicle_type_id":"4","last_reported":1722190224,"current_range_meters":0,"station_id":"ce4bgvh2rcd13ifvqcs0","pricing_plan_id":"cebpf4jnsgd1na2vs0mg"},{"bike_id":"e1398ad1-0700-410c-b23f-7aafc1ba2690","system_id":"levelo_inurba_marseille","lat":43.290336,"lon":5.386425,"is_reserved":false,"is_disabled":false,"rental_uris":{"android":"levelo://app?vid=e1398ad1-0700-410c-b23f-7aafc1ba2690","ios":"levelo://app?vid=e1398ad1-0700-410c-b23f-7aafc1ba2690"},"vehicle_type_id":"4","last_reported":1722190224,"current_range_meters":21600,"station_id":"ce4bh4p2rcd13ifvqe0g","pricing_plan_id":"cebpf4jnsgd1na2vs0mg"},{"bike_id":"3cc1dbf9-b6b1-4c42-9c72-dc6c2e896502","system_id":"levelo_inurba_marseille","lat":43.302759,"lon":5.400793,"is_reserved":false,"is_disabled":false,"rental_uris":{"android":"levelo://app?vid=3cc1dbf9-b6b1-4c42-9c72-dc6c2e896502","ios":"levelo://app?vid=3cc1dbf9-b6b1-4c42-9c72-dc6c2e896502"},"vehicle_type_id":"4","last_reported":1722190224,"current_range_meters":3600,"station_id":"ce4bgvh2rcd13ifvqcs0","pricing_plan_id":"cebpf4jnsgd1na2vs0mg"},{"bike_id":"59ccdeef-e46c-481b-9fe8-bfb1308d5251","system_id":"levelo_inurba_marseille","lat":43.287184,"lon":5.37937,"is_reserved":false,"is_disabled":false,"rental_uris":{"android":"levelo://app?vid=59ccdeef-e46c-481b-9fe8-bfb1308d5251","ios":"levelo://app?vid=59ccdeef-e46c-481b-9fe8-bfb1308d5251"},"vehicle_type_id":"4","last_reported":1722190224,"current_range_meters":0,"station_id":"ce4bh9p2rcd13ifvqec0","pricing_plan_id":"cebpf4jnsgd1na2vs0mg"},{"bike_id":"1568d3b6-6243-415e-a09b-a2330775a04e","system_id":"levelo_inurba_marseille","lat":43.323464,"lon":5.406297,"is_reserved":false,"is_disabled":false,"rental_uris":{"android":"levelo://app?vid=1568d3b6-6243-415e-a09b-a2330775a04e","ios":"levelo://app?vid=1568d3b6-6243-415e-a09b-a2330775a04e"},"vehicle_type_id":"4","last_reported":1722190224,"current_range_meters":14800,"station_id":"ce4bhq92rcd13ifvqhjg","pricing_plan_id":"cebpf4jnsgd1na2vs0mg"},{"bike_id":"2992aa2a-c57c-4820-b788-ec68daf5faa4","system_id":"levelo_inurba_marseille","lat":43.28617,"lon":5.35108,"is_reserved":false,"is_disabled":false,"rental_uris":{"android":"levelo://app?vid=2992aa2a-c57c-4820-b788-ec68daf5faa4","ios":"levelo://app?vid=2992aa2a-c57c-4820-b788-ec68daf5faa4"},"vehicle_type_id":"4","last_reported":1722190224,"current_range_meters":0,"station_id":"ce4bhch2rcd13ifvqeug","pricing_plan_id":"cebpf4jnsgd1na2vs0mg"},{"bike_id":"ac5bc277-8d12-4215-806a-cf2d17934ea9","system_id":"levelo_inurba_marseille","lat":43.28614,"lon":5.35106,"is_reserved":false,"is_disabled":false,"rental_uris":{"android":"levelo://app?vid=ac5bc277-8d12-4215-806a-cf2d17934ea9","ios":"levelo://app?vid=ac5bc277-8d12-4215-806a-cf2d17934ea9"},"vehicle_type_id":"4","last_reported":1722190224,"current_range_meters":800,"station_id":"ce4bhch2rcd13ifvqeug","pricing_plan_id":"cebpf4jnsgd1na2vs0mg"},{"bike_id":"0acad598-a118-485f-bc73-55452d758084","system_id":"levelo_inurba_marseille","lat":43.28613,"lon":5.35104,"is_reserved":false,"is_disabled":false,"rental_uris":{"android":"levelo://app?vid=0acad598-a118-485f-bc73-55452d758084","ios":"levelo://app?vid=0acad598-a118-485f-bc73-55452d758084"},"vehicle_type_id":"4","last_reported":1722190224,"current_range_meters":0,"station_id":"ce4bhch2rcd13ifvqeug","pricing_plan_id":"cebpf4jnsgd1na2vs0mg"},{"bike_id":"4b5a7e9b-efc5-44a4-bf1c-9c1a48401595","system_id":"levelo_inurba_marseille","lat":43.28414,"lon":5.37498,"is_reserved":false,"is_disabled":false,"rental_uris":{"android":"levelo://app?vid=4b5a7e9b-efc5-44a4-bf1c-9c1a48401595","ios":"levelo://app?vid=4b5a7e9b-efc5-44a4-bf1c-9c1a48401595"},"vehicle_type_id":"4","last_reported":1722190224,"current_range_meters":800,"station_id":"ce4bh412rcd13ifvqds0","pricing_plan_id":"cebpf4jnsgd1na2vs0mg"},{"bike_id":"9bffc3d5-e908-4f00-92e0-05c091321b70","system_id":"levelo_inurba_marseille","lat":43.283998,"lon":5.375062,"is_reserved":false,"is_disabled":false,"rental_uris":{"android":"levelo://app?vid=9bffc3d5-e908-4f00-92e0-05c091321b70","ios":"levelo://app?vid=9bffc3d5-e908-4f00-92e0-05c091321b70"},"vehicle_type_id":"4","last_reported":1722190224,"current_range_meters":0,"station_id":"ce4bh412rcd13ifvqds0","pricing_plan_id":"cebpf4jnsgd1na2vs0mg"},{"bike_id":"a45a790e-e4b3-47c4-8430-8a9eb16b896d","system_id":"levelo_inurba_marseille","lat":43.295713,"lon":5.399639,"is_reserved":false,"is_disabled":false,"rental_uris":{"android":"levelo://app?vid=a45a790e-e4b3-47c4-8430-8a9eb16b896d","ios":"levelo://app?vid=a45a790e-e4b3-47c4-8430-8a9eb16b896d"},"vehicle_type_id":"4","last_reported":1722190224,"current_range_meters":0,"station_id":"ce4bh312rcd13ifvqdj0","pricing_plan_id":"cebpf4jnsgd1na2vs0mg"},{"bike_id":"7e65c525-01c6-43f3-a2d5-67b918985c6f","system_id":"levelo_inurba_marseille","lat":43.295737,"lon":5.399833,"is_reserved":false,"is_disabled":false,"rental_uris":{"android":"levelo://app?vid=7e65c525-01c6-43f3-a2d5-67b918985c6f","ios":"levelo://app?vid=7e65c525-01c6-43f3-a2d5-67b918985c6f"},"vehicle_type_id":"4","last_reported":1722190224,"current_range_meters":0,"station_id":"ce4bh312rcd13ifvqdj0","pricing_plan_id":"cebpf4jnsgd1na2vs0mg"},{"bike_id":"fa958f03-0bf7-435e-a875-d6e1b3be7f7e","system_id":"levelo_inurba_marseille","lat":43.2868,"lon":5.38655,"is_reserved":false,"is_disabled":false,"rental_uris":{"android":"levelo://app?vid=fa958f03-0bf7-435e-a875-d6e1b3be7f7e","ios":"levelo://app?vid=fa958f03-0bf7-435e-a875-d6e1b3be7f7e"},"vehicle_type_id":"4","last_reported":1722190224,"current_range_meters":0,"station_id":"ce4bh492rcd13ifvqdug","pricing_plan_id":"cebpf4jnsgd1na2vs0mg"},{"bike_id":"4162bab6-59c7-48b6-ad73-ecfcf0d6fb8b","system_id":"levelo_inurba_marseille","lat":43.319179,"lon":5.407725,"is_reserved":false,"is_disabled":false,"rental_uris":{"android":"levelo://app?vid=4162bab6-59c7-48b6-ad73-ecfcf0d6fb8b","ios":"levelo://app?vid=4162bab6-59c7-48b6-ad73-ecfcf0d6fb8b"},"vehicle_type_id":"4","last_reported":1722190224,"current_range_meters":14800,"station_id":"ce4bhq12rcd13ifvqhig","pricing_plan_id":"cebpf4jnsgd1na2vs0mg"},{"bike_id":"11d3d36a-ce3f-49a4-9e47-01027a25010d","system_id":"levelo_inurba_marseille","lat":43.323464,"lon":5.406297,"is_reserved":false,"is_disabled":false,"rental_uris":{"android":"levelo://app?vid=11d3d36a-ce3f-49a4-9e47-01027a25010d","ios":"levelo://app?vid=11d3d36a-ce3f-49a4-9e47-01027a25010d"},"vehicle_type_id":"4","last_reported":1722190224,"current_range_meters":16000,"station_id":"ce4bhq92rcd13ifvqhjg","pricing_plan_id":"cebpf4jnsgd1na2vs0mg"},{"bike_id":"156787cb-d488-460b-b98a-1f0b1ec7bdea","system_id":"levelo_inurba_marseille","lat":43.337168,"lon":5.391825,"is_reserved":false,"is_disabled":false,"rental_uris":{"android":"levelo://app?vid=156787cb-d488-460b-b98a-1f0b1ec7bdea","ios":"levelo://app?vid=156787cb-d488-460b-b98a-1f0b1ec7bdea"},"vehicle_type_id":"4","last_reported":1722190224,"current_range_meters":400,"station_id":"ce4bhr92rcd13ifvqhsg","pricing_plan_id":"cebpf4jnsgd1na2vs0mg"},{"bike_id":"80e75956-b831-43c6-ab6c-da3687670501","system_id":"levelo_inurba_marseille","lat":43.283494,"lon":5.380945,"is_reserved":false,"is_disabled":false,"rental_uris":{"android":"levelo://app?vid=80e75956-b831-43c6-ab6c-da3687670501","ios":"levelo://app?vid=80e75956-b831-43c6-ab6c-da3687670501"},"vehicle_type_id":"4","last_reported":1722190224,"current_range_meters":16400,"station_id":"ce4bh412rcd13ifvqdr0","pricing_plan_id":"cebpf4jnsgd1na2vs0mg"},{"bike_id":"d471fdb7-8eb7-4806-8610-f09e72ea7f51","system_id":"levelo_inurba_marseille","lat":43.28344,"lon":5.38096,"is_reserved":false,"is_disabled":false,"rental_uris":{"android":"levelo://app?vid=d471fdb7-8eb7-4806-8610-f09e72ea7f51","ios":"levelo://app?vid=d471fdb7-8eb7-4806-8610-f09e72ea7f51"},"vehicle_type_id":"4","last_reported":1722190224,"current_range_meters":0,"station_id":"ce4bh412rcd13ifvqdr0","pricing_plan_id":"cebpf4jnsgd1na2vs0mg"},{"bike_id":"074229ca-f5ee-4419-afd5-21e721720fec","system_id":"levelo_inurba_marseille","lat":43.283494,"lon":5.380945,"is_reserved":false,"is_disabled":false,"rental_uris":{"android":"levelo://app?vid=074229ca-f5ee-4419-afd5-21e721720fec","ios":"levelo://app?vid=074229ca-f5ee-4419-afd5-21e721720fec"},"vehicle_type_id":"4","last_reported":1722190224,"current_range_meters":0,"station_id":"ce4bh412rcd13ifvqdr0","pricing_plan_id":"cebpf4jnsgd1na2vs0mg"},{"bike_id":"50d612df-67a9-4956-a63b-c86bc64af640","system_id":"levelo_inurba_marseille","lat":43.284217,"lon":5.349697,"is_reserved":false,"is_disabled":false,"rental_uris":{"android":"levelo://app?vid=50d612df-67a9-4956-a63b-c86bc64af640","ios":"levelo://app?vid=50d612df-67a9-4956-a63b-c86bc64af640"},"vehicle_type_id":"4","last_reported":1722190224,"current_range_meters":22400,"station_id":"ce4bhbh2rcd13ifvqepg","pricing_plan_id":"cebpf4jnsgd1na2vs0mg"},{"bike_id":"ee6d045d-41b3-4efd-b75c-33cc0db1ce64","system_id":"levelo_inurba_marseille","lat":43.289363,"lon":5.396322,"is_reserved":false,"is_disabled":false,"rental_uris":{"android":"levelo://app?vid=ee6d045d-41b3-4efd-b75c-33cc0db1ce64","ios":"levelo://app?vid=ee6d045d-41b3-4efd-b75c-33cc0db1ce64"},"vehicle_type_id":"4","last_reported":1722190224,"current_range_meters":10000,"station_id":"ce4bh3h2rcd13ifvqdn0","pricing_plan_id":"cebpf4jnsgd1na2vs0mg"},{"bike_id":"9228e1d4-1118-4362-8246-a1d23cc21a34","system_id":"levelo_inurba_marseille","lat":43.289363,"lon":5.396322,"is_reserved":false,"is_disabled":false,"rental_uris":{"android":"levelo://app?vid=9228e1d4-1118-4362-8246-a1d23cc21a34","ios":"levelo://app?vid=9228e1d4-1118-4362-8246-a1d23cc21a34"},"vehicle_type_id":"4","last_reported":1722190224,"current_range_meters":3200,"station_id":"ce4bh3h2rcd13ifvqdn0","pricing_plan_id":"cebpf4jnsgd1na2vs0mg"},{"bike_id":"90b293d3-d465-4f52-b169-b243bd11c725","system_id":"levelo_inurba_marseille","lat":43.292724,"lon":5.401131,"is_reserved":false,"is_disabled":false,"rental_uris":{"android":"levelo://app?vid=90b293d3-d465-4f52-b169-b243bd11c725","ios":"levelo://app?vid=90b293d3-d465-4f52-b169-b243bd11c725"},"vehicle_type_id":"4","last_reported":1722190224,"current_range_meters":0,"station_id":"ce4bh312rcd13ifvqdk0","pricing_plan_id":"cebpf4jnsgd1na2vs0mg"},{"bike_id":"ea87eae2-81b1-4f40-a08b-7e3f88828bb1","system_id":"levelo_inurba_marseille","lat":43.28039,"lon":5.369297,"is_reserved":false,"is_disabled":false,"rental_uris":{"android":"levelo://app?vid=ea87eae2-81b1-4f40-a08b-7e3f88828bb1","ios":"levelo://app?vid=ea87eae2-81b1-4f40-a08b-7e3f88828bb1"},"vehicle_type_id":"4","last_reported":1722190224,"current_range_meters":20400,"station_id":"ce4bha12rcd13ifvqef0","pricing_plan_id":"cebpf4jnsgd1na2vs0mg"},{"bike_id":"01413dfe-1a50-455b-8c06-fd656b13015f","system_id":"levelo_inurba_marseille","lat":43.2827,"lon":5.35067,"is_reserved":false,"is_disabled":false,"rental_uris":{"android":"levelo://app?vid=01413dfe-1a50-455b-8c06-fd656b13015f","ios":"levelo://app?vid=01413dfe-1a50-455b-8c06-fd656b13015f"},"vehicle_type_id":"4","last_reported":1722190224,"current_range_meters":1600,"station_id":"ce4bhbp2rcd13ifvqerg","pricing_plan_id":"cebpf4jnsgd1na2vs0mg"},{"bike_id":"b37fd288-dcc7-4817-b8f6-de7f9594767b","system_id":"levelo_inurba_marseille","lat":43.28039,"lon":5.369297,"is_reserved":false,"is_disabled":false,"rental_uris":{"android":"levelo://app?vid=b37fd288-dcc7-4817-b8f6-de7f9594767b","ios":"levelo://app?vid=b37fd288-dcc7-4817-b8f6-de7f9594767b"},"vehicle_type_id":"4","last_reported":1722190224,"current_range_meters":3600,"station_id":"ce4bha12rcd13ifvqef0","pricing_plan_id":"cebpf4jnsgd1na2vs0mg"},{"bike_id":"705566d5-b257-4794-b57c-9f10709b514c","system_id":"levelo_inurba_marseille","lat":43.280382,"lon":5.369291,"is_reserved":false,"is_disabled":false,"rental_uris":{"android":"levelo://app?vid=705566d5-b257-4794-b57c-9f10709b514c","ios":"levelo://app?vid=705566d5-b257-4794-b57c-9f10709b514c"},"vehicle_type_id":"4","last_reported":1722190224,"current_range_meters":28000,"station_id":"ce4bha12rcd13ifvqef0","pricing_plan_id":"cebpf4jnsgd1na2vs0mg"},{"bike_id":"4b86e1fb-bf38-41f4-87b7-cbcf2b2c70a9","system_id":"levelo_inurba_marseille","lat":43.280382,"lon":5.369291,"is_reserved":false,"is_disabled":false,"rental_uris":{"android":"levelo://app?vid=4b86e1fb-bf38-41f4-87b7-cbcf2b2c70a9","ios":"levelo://app?vid=4b86e1fb-bf38-41f4-87b7-cbcf2b2c70a9"},"vehicle_type_id":"4","last_reported":1722190224,"current_range_meters":20800,"station_id":"ce4bha12rcd13ifvqef0","pricing_plan_id":"cebpf4jnsgd1na2vs0mg"},{"bike_id":"e81e4f2e-96b7-47b4-9eb8-52372e299d5a","system_id":"levelo_inurba_marseille","lat":43.28035,"lon":5.36942,"is_reserved":false,"is_disabled":false,"rental_uris":{"android":"levelo://app?vid=e81e4f2e-96b7-47b4-9eb8-52372e299d5a","ios":"levelo://app?vid=e81e4f2e-96b7-47b4-9eb8-52372e299d5a"},"vehicle_type_id":"4","last_reported":1722190224,"current_range_meters":8400,"station_id":"ce4bha12rcd13ifvqef0","pricing_plan_id":"cebpf4jnsgd1na2vs0mg"},{"bike_id":"82a973ae-549c-49c0-bc60-362f86f2dc01","system_id":"levelo_inurba_marseille","lat":43.28034,"lon":5.369371,"is_reserved":false,"is_disabled":false,"rental_uris":{"android":"levelo://app?vid=82a973ae-549c-49c0-bc60-362f86f2dc01","ios":"levelo://app?vid=82a973ae-549c-49c0-bc60-362f86f2dc01"},"vehicle_type_id":"4","last_reported":1722190224,"current_range_meters":23600,"station_id":"","pricing_plan_id":"cebpf4jnsgd1na2vs0mg"},{"bike_id":"7826f292-05ff-4949-82f7-fc0a1a9ed0ae","system_id":"levelo_inurba_marseille","lat":43.29041,"lon":5.399634,"is_reserved":false,"is_disabled":false,"rental_uris":{"android":"levelo://app?vid=7826f292-05ff-4949-82f7-fc0a1a9ed0ae","ios":"levelo://app?vid=7826f292-05ff-4949-82f7-fc0a1a9ed0ae"},"vehicle_type_id":"4","last_reported":1722190224,"current_range_meters":0,"station_id":"ce4bh392rcd13ifvqdm0","pricing_plan_id":"cebpf4jnsgd1na2vs0mg"},{"bike_id":"e60fbfd2-ddc0-446b-8700-0ec45eb66207","system_id":"levelo_inurba_marseille","lat":43.28112,"lon":5.37837,"is_reserved":false,"is_disabled":false,"rental_uris":{"android":"levelo://app?vid=e60fbfd2-ddc0-446b-8700-0ec45eb66207","ios":"levelo://app?vid=e60fbfd2-ddc0-446b-8700-0ec45eb66207"},"vehicle_type_id":"4","last_reported":1722190224,"current_range_meters":0,"station_id":"ce4bha12rcd13ifvqee0","pricing_plan_id":"cebpf4jnsgd1na2vs0mg"},{"bike_id":"3081c2f7-810f-4c07-b767-5c00d31ecf16","system_id":"levelo_inurba_marseille","lat":43.281044,"lon":5.378308,"is_reserved":false,"is_disabled":false,"rental_uris":{"android":"levelo://app?vid=3081c2f7-810f-4c07-b767-5c00d31ecf16","ios":"levelo://app?vid=3081c2f7-810f-4c07-b767-5c00d31ecf16"},"vehicle_type_id":"4","last_reported":1722190224,"current_range_meters":7200,"station_id":"ce4bha12rcd13ifvqee0","pricing_plan_id":"cebpf4jnsgd1na2vs0mg"},{"bike_id":"b7126ed5-65c6-44f9-8ea1-b2f8d2265074","system_id":"levelo_inurba_marseille","lat":43.281044,"lon":5.378308,"is_reserved":false,"is_disabled":false,"rental_uris":{"android":"levelo://app?vid=b7126ed5-65c6-44f9-8ea1-b2f8d2265074","ios":"levelo://app?vid=b7126ed5-65c6-44f9-8ea1-b2f8d2265074"},