{"last_updated":1731938957,"ttl":60,"version":"2.2","data":{"bikes":[{"bike_id":"6b893b8c-4f33-465a-bddc-64f5161d5051","system_id":"levelo_inurba_marseille","lat":43.28714,"lon":5.37955,"is_reserved":false,"is_disabled":false,"rental_uris":{"android":"levelo://app?vid=6b893b8c-4f33-465a-bddc-64f5161d5051","ios":"levelo://app?vid=6b893b8c-4f33-465a-bddc-64f5161d5051"},"vehicle_type_id":"4","last_reported":1731938957,"current_range_meters":35600,"station_id":"ce4bh9p2rcd13ifvqec0","pricing_plan_id":"cebpf4jnsgd1na2vs0mg"},{"bike_id":"82acd50d-28e4-48db-a93f-d9af8580c852","system_id":"levelo_inurba_marseille","lat":43.30116,"lon":5.39864,"is_reserved":false,"is_disabled":false,"rental_uris":{"android":"levelo://app?vid=82acd50d-28e4-48db-a93f-d9af8580c852","ios":"levelo://app?vid=82acd50d-28e4-48db-a93f-d9af8580c852"},"vehicle_type_id":"4","last_reported":1731938957,"current_range_meters":18000,"station_id":"ce4bh0h2rcd13ifvqd40","pricing_plan_id":"cebpf4jnsgd1na2vs0mg"},{"bike_id":"71ad5317-72da-49ab-bd09-9f41acc7f593","system_id":"levelo_inurba_marseille","lat":43.29895,"lon":5.43667,"is_reserved":false,"is_disabled":false,"rental_uris":{"android":"levelo://app?vid=71ad5317-72da-49ab-bd09-9f41acc7f593","ios":"levelo://app?vid=71ad5317-72da-49ab-bd09-9f41acc7f593"},"vehicle_type_id":"4","last_reported":1731938957,"current_range_meters":30000,"station_id":"ce4bhpp2rcd13ifvqhfg","pricing_plan_id":"cebpf4jnsgd1na2vs0mg"},{"bike_id":"fb3af305-4514-454e-b4a1-f28931733540","system_id":"levelo_inurba_marseille","lat":43.23178,"lon":5.39987,"is_reserved":false,"is_disabled":false,"rental_uris":{"android":"levelo://app?vid=fb3af305-4514-454e-b4a1-f28931733540","ios":"levelo://app?vid=fb3af305-4514-454e-b4a1-f28931733540"},"vehicle_type_id":"4","last_reported":1731938957,"current_range_meters":33200,"station_id":"ce4bhn12rcd13ifvqgqg","pricing_plan_id":"cebpf4jnsgd1na2vs0mg"},{"bike_id":"d6d6e01c-1dd2-4c4e-9e17-cd6012080766","system_id":"levelo_inurba_marseille","lat":43.28972,"lon":5.37837,"is_reserved":false,"is_disabled":false,"rental_uris":{"android":"levelo://app?vid=d6d6e01c-1dd2-4c4e-9e17-cd6012080766","ios":"levelo://app?vid=d6d6e01c-1dd2-4c4e-9e17-cd6012080766"},"vehicle_type_id":"4","last_reported":1731938957,"current_range_meters":35600,"station_id":"ce4bh9p2rcd13ifvqed0","pricing_plan_id":"cebpf4jnsgd1na2vs0mg"},{"bike_id":"4b576895-5f0b-4f5e-805b-59bd5bfe967a","system_id":"levelo_inurba_marseille","lat":43.28404,"lon":5.34984,"is_reserved":false,"is_disabled":false,"rental_uris":{"android":"levelo://app?vid=4b576895-5f0b-4f5e-805b-59bd5bfe967a","ios":"levelo://app?vid=4b576895-5f0b-4f5e-805b-59bd5bfe967a"},"vehicle_type_id":"4","last_reported":1731938957,"current_range_meters":38000,"station_id":"ce4bhbh2rcd13ifvqepg","pricing_plan_id":"cebpf4jnsgd1na2vs0mg"},{"bike_id":"0c057894-f92e-412f-a9b9-0db10c46375d","system_id":"levelo_inurba_marseille","lat":43.312283,"lon":5.36863,"is_reserved":false,"is_disabled":false,"rental_uris":{"android":"levelo://app?vid=0c057894-f92e-412f-a9b9-0db10c46375d","ios":"levelo://app?vid=0c057894-f92e-412f-a9b9-0db10c46375d"},"vehicle_type_id":"4","last_reported":1731938957,"current_range_meters":28800,"station_id":"ce4bgl92rcd13ifvqbq0","pricing_plan_id":"cebpf4jnsgd1na2vs0mg"},{"bike_id":"f922dd03-25c5-44f3-8018-f79789f80708","system_id":"levelo_inurba_marseille","lat":43.2885,"lon":5.39312,"is_reserved":false,"is_disabled":false,"rental_uris":{"android":"levelo://app?vid=f922dd03-25c5-44f3-8018-f79789f80708","ios":"levelo://app?vid=f922dd03-25c5-44f3-8018-f79789f80708"},"vehicle_type_id":"4","last_reported":1731938957,"current_range_meters":30400,"station_id":"ce4bh2p2rcd13ifvqdi0","pricing_plan_id":"cebpf4jnsgd1na2vs0mg"},{"bike_id":"caca5fa2-526a-43f4-b01d-4582dfe72b45","system_id":"levelo_inurba_marseille","lat":43.29287,"lon":5.40185,"is_reserved":false,"is_disabled":false,"rental_uris":{"android":"levelo://app?vid=caca5fa2-526a-43f4-b01d-4582dfe72b45","ios":"levelo://app?vid=caca5fa2-526a-43f4-b01d-4582dfe72b45"},"vehicle_type_id":"4","last_reported":1731938957,"current_range_meters":27600,"station_id":"ce4bh312rcd13ifvqdk0","pricing_plan_id":"cebpf4jnsgd1na2vs0mg"},{"bike_id":"41fac2c1-5c60-4f0d-adaf-9408c37eb491","system_id":"levelo_inurba_marseille","lat":43.29794,"lon":5.381,"is_reserved":false,"is_disabled":false,"rental_uris":{"android":"levelo://app?vid=41fac2c1-5c60-4f0d-adaf-9408c37eb491","ios":"levelo://app?vid=41fac2c1-5c60-4f0d-adaf-9408c37eb491"},"vehicle_type_id":"4","last_reported":1731938957,"current_range_meters":26000,"station_id":"ce4bgip2rcd13ifvqbb0","pricing_plan_id":"cebpf4jnsgd1na2vs0mg"},{"bike_id":"146a3823-33a3-4516-9b2a-ac2d224483b3","system_id":"levelo_inurba_marseille","lat":43.29972,"lon":5.37176,"is_reserved":false,"is_disabled":false,"rental_uris":{"android":"levelo://app?vid=146a3823-33a3-4516-9b2a-ac2d224483b3","ios":"levelo://app?vid=146a3823-33a3-4516-9b2a-ac2d224483b3"},"vehicle_type_id":"4","last_reported":1731938957,"current_range_meters":19600,"station_id":"ce4bgr92rcd13ifvqc7g","pricing_plan_id":"cebpf4jnsgd1na2vs0mg"},{"bike_id":"ed5b05e7-b26e-41d6-9d68-dd5fd185b190","system_id":"levelo_inurba_marseille","lat":43.28359,"lon":5.38628,"is_reserved":false,"is_disabled":false,"rental_uris":{"android":"levelo://app?vid=ed5b05e7-b26e-41d6-9d68-dd5fd185b190","ios":"levelo://app?vid=ed5b05e7-b26e-41d6-9d68-dd5fd185b190"},"vehicle_type_id":"4","last_reported":1731938957,"current_range_meters":26800,"station_id":"ce4bh492rcd13ifvqdvg","pricing_plan_id":"cebpf4jnsgd1na2vs0mg"},{"bike_id":"b5f7c1f2-0951-4be9-a94b-b070d0c25c35","system_id":"levelo_inurba_marseille","lat":43.27069,"lon":5.42284,"is_reserved":false,"is_disabled":false,"rental_uris":{"android":"levelo://app?vid=b5f7c1f2-0951-4be9-a94b-b070d0c25c35","ios":"levelo://app?vid=b5f7c1f2-0951-4be9-a94b-b070d0c25c35"},"vehicle_type_id":"4","last_reported":1731938957,"current_range_meters":26800,"station_id":"ce4bhk92rcd13ifvqgb0","pricing_plan_id":"cebpf4jnsgd1na2vs0mg"},{"bike_id":"dd619c0c-dd3c-4dce-abbc-9c97ef935d0d","system_id":"levelo_inurba_marseille","lat":43.29793,"lon":5.38094,"is_reserved":false,"is_disabled":false,"rental_uris":{"android":"levelo://app?vid=dd619c0c-dd3c-4dce-abbc-9c97ef935d0d","ios":"levelo://app?vid=dd619c0c-dd3c-4dce-abbc-9c97ef935d0d"},"vehicle_type_id":"4","last_reported":1731938957,"current_range_meters":22800,"station_id":"ce4bgip2rcd13ifvqbb0","pricing_plan_id":"cebpf4jnsgd1na2vs0mg"},{"bike_id":"3d931d75-d710-4a94-bc9b-adb0f29cf7c4","system_id":"levelo_inurba_marseille","lat":43.337444,"lon":5.374475,"is_reserved":false,"is_disabled":false,"rental_uris":{"android":"levelo://app?vid=3d931d75-d710-4a94-bc9b-adb0f29cf7c4","ios":"levelo://app?vid=3d931d75-d710-4a94-bc9b-adb0f29cf7c4"},"vehicle_type_id":"4","last_reported":1731938957,"current_range_meters":38800,"station_id":"","pricing_plan_id":"cebpf4jnsgd1na2vs0mg"},{"bike_id":"0672d165-d197-4474-bbec-2df95543fd2f","system_id":"levelo_inurba_marseille","lat":43.29897,"lon":5.43659,"is_reserved":false,"is_disabled":false,"rental_uris":{"android":"levelo://app?vid=0672d165-d197-4474-bbec-2df95543fd2f","ios":"levelo://app?vid=0672d165-d197-4474-bbec-2df95543fd2f"},"vehicle_type_id":"4","last_reported":1731938957,"current_range_meters":37600,"station_id":"ce4bhpp2rcd13ifvqhfg","pricing_plan_id":"cebpf4jnsgd1na2vs0mg"},{"bike_id":"a23e7fbf-6ffb-494a-b265-5e9ca328a13d","system_id":"levelo_inurba_marseille","lat":43.25868,"lon":5.39905,"is_reserved":false,"is_disabled":false,"rental_uris":{"android":"levelo://app?vid=a23e7fbf-6ffb-494a-b265-5e9ca328a13d","ios":"levelo://app?vid=a23e7fbf-6ffb-494a-b265-5e9ca328a13d"},"vehicle_type_id":"4","last_reported":1731938957,"current_range_meters":37600,"station_id":"ce4bhl92rcd13ifvqghg","pricing_plan_id":"cebpf4jnsgd1na2vs0mg"},{"bike_id":"5cf6163b-0b69-4ea6-9575-0a2ed6c16fe9","system_id":"levelo_inurba_marseille","lat":43.27068,"lon":5.42278,"is_reserved":false,"is_disabled":false,"rental_uris":{"android":"levelo://app?vid=5cf6163b-0b69-4ea6-9575-0a2ed6c16fe9","ios":"levelo://app?vid=5cf6163b-0b69-4ea6-9575-0a2ed6c16fe9"},"vehicle_type_id":"4","last_reported":1731938957,"current_range_meters":5600,"station_id":"ce4bhk92rcd13ifvqgb0","pricing_plan_id":"cebpf4jnsgd1na2vs0mg"},{"bike_id":"4a8c199e-ab89-4b13-8aa0-a3cd296b6478","system_id":"levelo_inurba_marseille","lat":43.3133,"lon":5.39693,"is_reserved":false,"is_disabled":false,"rental_uris":{"android":"levelo://app?vid=4a8c199e-ab89-4b13-8aa0-a3cd296b6478","ios":"levelo://app?vid=4a8c199e-ab89-4b13-8aa0-a3cd296b6478"},"vehicle_type_id":"4","last_reported":1731938957,"current_range_meters":38800,"station_id":"ce4bgvp2rcd13ifvqcu0","pricing_plan_id":"cebpf4jnsgd1na2vs0mg"},{"bike_id":"66b263f2-3f26-4f34-a1cf-e201e386381d","system_id":"levelo_inurba_marseille","lat":43.28694,"lon":5.37394,"is_reserved":false,"is_disabled":false,"rental_uris":{"android":"levelo://app?vid=66b263f2-3f26-4f34-a1cf-e201e386381d","ios":"levelo://app?vid=66b263f2-3f26-4f34-a1cf-e201e386381d"},"vehicle_type_id":"4","last_reported":1731938957,"current_range_meters":35200,"station_id":"ce4bh3p2rcd13ifvqdq0","pricing_plan_id":"cebpf4jnsgd1na2vs0mg"},{"bike_id":"44a8d448-fd1f-4e4a-80ce-a94368837126","system_id":"levelo_inurba_marseille","lat":43.23156,"lon":5.43703,"is_reserved":false,"is_disabled":false,"rental_uris":{"android":"levelo://app?vid=44a8d448-fd1f-4e4a-80ce-a94368837126","ios":"levelo://app?vid=44a8d448-fd1f-4e4a-80ce-a94368837126"},"vehicle_type_id":"4","last_reported":1731938957,"current_range_meters":24000,"station_id":"ce4bhmp2rcd13ifvqgog","pricing_plan_id":"cebpf4jnsgd1na2vs0mg"},{"bike_id":"657d423b-a348-4c29-ac63-23578a87ec1a","system_id":"levelo_inurba_marseille","lat":43.29034,"lon":5.37565,"is_reserved":false,"is_disabled":false,"rental_uris":{"android":"levelo://app?vid=657d423b-a348-4c29-ac63-23578a87ec1a","ios":"levelo://app?vid=657d423b-a348-4c29-ac63-23578a87ec1a"},"vehicle_type_id":"4","last_reported":1731938957,"current_range_meters":17600,"station_id":"ce4bh692rcd13ifvqe90","pricing_plan_id":"cebpf4jnsgd1na2vs0mg"},{"bike_id":"4c167bc3-2964-4625-adc0-c92e539ad80f","system_id":"levelo_inurba_marseille","lat":43.28282,"lon":5.40816,"is_reserved":false,"is_disabled":false,"rental_uris":{"android":"levelo://app?vid=4c167bc3-2964-4625-adc0-c92e539ad80f","ios":"levelo://app?vid=4c167bc3-2964-4625-adc0-c92e539ad80f"},"vehicle_type_id":"4","last_reported":1731938957,"current_range_meters":28800,"station_id":"","pricing_plan_id":"cebpf4jnsgd1na2vs0mg"},{"bike_id":"0635a70c-9379-4f16-9af9-23c1f49758f6","system_id":"levelo_inurba_marseille","lat":43.31785,"lon":5.40705,"is_reserved":false,"is_disabled":false,"rental_uris":{"android":"levelo://app?vid=0635a70c-9379-4f16-9af9-23c1f49758f6","ios":"levelo://app?vid=0635a70c-9379-4f16-9af9-23c1f49758f6"},"vehicle_type_id":"4","last_reported":1731938957,"current_range_meters":11200,"station_id":"ce4bhop2rcd13ifvqh7g","pricing_plan_id":"cebpf4jnsgd1na2vs0mg"},{"bike_id":"dc24ccdd-f78a-4bfd-b60d-87b5aafd671c","system_id":"levelo_inurba_marseille","lat":43.3053,"lon":5.36544,"is_reserved":false,"is_disabled":false,"rental_uris":{"android":"levelo://app?vid=dc24ccdd-f78a-4bfd-b60d-87b5aafd671c","ios":"levelo://app?vid=dc24ccdd-f78a-4bfd-b60d-87b5aafd671c"},"vehicle_type_id":"4","last_reported":1731938957,"current_range_meters":32000,"station_id":"ce4bgs12rcd13ifvqcag","pricing_plan_id":"cebpf4jnsgd1na2vs0mg"},{"bike_id":"0fba3e27-f618-4ca2-9183-adf2f73c8ad9","system_id":"levelo_inurba_marseille","lat":43.29797,"lon":5.38095,"is_reserved":false,"is_disabled":false,"rental_uris":{"android":"levelo://app?vid=0fba3e27-f618-4ca2-9183-adf2f73c8ad9","ios":"levelo://app?vid=0fba3e27-f618-4ca2-9183-adf2f73c8ad9"},"vehicle_type_id":"4","last_reported":1731938957,"current_range_meters":27200,"station_id":"ce4bgip2rcd13ifvqbb0","pricing_plan_id":"cebpf4jnsgd1na2vs0mg"},{"bike_id":"973c7bc1-2a92-488a-a6e2-3db13b1107dc","system_id":"levelo_inurba_marseille","lat":43.31084,"lon":5.38891,"is_reserved":false,"is_disabled":false,"rental_uris":{"android":"levelo://app?vid=973c7bc1-2a92-488a-a6e2-3db13b1107dc","ios":"levelo://app?vid=973c7bc1-2a92-488a-a6e2-3db13b1107dc"},"vehicle_type_id":"4","last_reported":1731938957,"current_range_meters":24800,"station_id":"","pricing_plan_id":"cebpf4jnsgd1na2vs0mg"},{"bike_id":"c3e4d78a-dd1f-4cf1-b44e-038eff147532","system_id":"levelo_inurba_marseille","lat":43.29581,"lon":5.36736,"is_reserved":false,"is_disabled":false,"rental_uris":{"android":"levelo://app?vid=c3e4d78a-dd1f-4cf1-b44e-038eff147532","ios":"levelo://app?vid=c3e4d78a-dd1f-4cf1-b44e-038eff147532"},"vehicle_type_id":"4","last_reported":1731938957,"current_range_meters":38000,"station_id":"ce4bgph2rcd13ifvqc2g","pricing_plan_id":"cebpf4jnsgd1na2vs0mg"},{"bike_id":"e0f453cb-3132-42ab-921c-0d33066f47c1","system_id":"levelo_inurba_marseille","lat":43.32649,"lon":5.40991,"is_reserved":false,"is_disabled":false,"rental_uris":{"android":"levelo://app?vid=e0f453cb-3132-42ab-921c-0d33066f47c1","ios":"levelo://app?vid=e0f453cb-3132-42ab-921c-0d33066f47c1"},"vehicle_type_id":"4","last_reported":1731938957,"current_range_meters":37600,"station_id":"ce4bhpp2rcd13ifvqhgg","pricing_plan_id":"cebpf4jnsgd1na2vs0mg"},{"bike_id":"3de79762-7d3a-4ddd-9398-05d2c68d3618","system_id":"levelo_inurba_marseille","lat":43.33738,"lon":5.37441,"is_reserved":false,"is_disabled":false,"rental_uris":{"android":"levelo://app?vid=3de79762-7d3a-4ddd-9398-05d2c68d3618","ios":"levelo://app?vid=3de79762-7d3a-4ddd-9398-05d2c68d3618"},"vehicle_type_id":"4","last_reported":1731938957,"current_range_meters":36400,"station_id":"","pricing_plan_id":"cebpf4jnsgd1na2vs0mg"},{"bike_id":"f65f2de6-593f-43d7-85e7-8d6d4605c51b","system_id":"levelo_inurba_marseille","lat":43.2481,"lon":5.37462,"is_reserved":false,"is_disabled":false,"rental_uris":{"android":"levelo://app?vid=f65f2de6-593f-43d7-85e7-8d6d4605c51b","ios":"levelo://app?vid=f65f2de6-593f-43d7-85e7-8d6d4605c51b"},"vehicle_type_id":"4","last_reported":1731938957,"current_range_meters":6800,"station_id":"ce4bhgh2rcd13ifvqfb0","pricing_plan_id":"cebpf4jnsgd1na2vs0mg"},{"bike_id":"e0b967c0-b35f-4934-9248-f55c41b4f08b","system_id":"levelo_inurba_marseille","lat":43.28191,"lon":5.44257,"is_reserved":false,"is_disabled":false,"rental_uris":{"android":"levelo://app?vid=e0b967c0-b35f-4934-9248-f55c41b4f08b","ios":"levelo://app?vid=e0b967c0-b35f-4934-9248-f55c41b4f08b"},"vehicle_type_id":"4","last_reported":1731938957,"current_range_meters":2800,"station_id":"","pricing_plan_id":"cebpf4jnsgd1na2vs0mg"},{"bike_id":"57edd0e2-68de-4e93-a8c5-cbb7808c0b01","system_id":"levelo_inurba_marseille","lat":43.24806,"lon":5.37457,"is_reserved":false,"is_disabled":false,"rental_uris":{"android":"levelo://app?vid=57edd0e2-68de-4e93-a8c5-cbb7808c0b01","ios":"levelo://app?vid=57edd0e2-68de-4e93-a8c5-cbb7808c0b01"},"vehicle_type_id":"4","last_reported":1731938957,"current_range_meters":18800,"station_id":"ce4bhgh2rcd13ifvqfb0","pricing_plan_id":"cebpf4jnsgd1na2vs0mg"},{"bike_id":"0b38b36a-cb8f-48e5-a013-7abb6c4dcc0e","system_id":"levelo_inurba_marseille","lat":43.27996,"lon":5.40012,"is_reserved":false,"is_disabled":false,"rental_uris":{"android":"levelo://app?vid=0b38b36a-cb8f-48e5-a013-7abb6c4dcc0e","ios":"levelo://app?vid=0b38b36a-cb8f-48e5-a013-7abb6c4dcc0e"},"vehicle_type_id":"4","last_reported":1731938957,"current_range_meters":28800,"station_id":"ce4bho92rcd13ifvqh4g","pricing_plan_id":"cebpf4jnsgd1na2vs0mg"},{"bike_id":"110ec820-d660-4aa4-8bb9-78227d43b052","system_id":"levelo_inurba_marseille","lat":43.29895,"lon":5.3814,"is_reserved":false,"is_disabled":false,"rental_uris":{"android":"levelo://app?vid=110ec820-d660-4aa4-8bb9-78227d43b052","ios":"levelo://app?vid=110ec820-d660-4aa4-8bb9-78227d43b052"},"vehicle_type_id":"4","last_reported":1731938957,"current_range_meters":17600,"station_id":"ce4bgj12rcd13ifvqbc0","pricing_plan_id":"cebpf4jnsgd1na2vs0mg"},{"bike_id":"8ca4dc5c-cd15-44cc-8183-e304aae3b74f","system_id":"levelo_inurba_marseille","lat":43.31495,"lon":5.37309,"is_reserved":false,"is_disabled":false,"rental_uris":{"android":"levelo://app?vid=8ca4dc5c-cd15-44cc-8183-e304aae3b74f","ios":"levelo://app?vid=8ca4dc5c-cd15-44cc-8183-e304aae3b74f"},"vehicle_type_id":"4","last_reported":1731938957,"current_range_meters":35600,"station_id":"ce4bgt12rcd13ifvqcd0","pricing_plan_id":"cebpf4jnsgd1na2vs0mg"},{"bike_id":"45aaf411-8352-46a7-9f53-ea21681af78e","system_id":"levelo_inurba_marseille","lat":43.27175,"lon":5.40997,"is_reserved":false,"is_disabled":false,"rental_uris":{"android":"levelo://app?vid=45aaf411-8352-46a7-9f53-ea21681af78e","ios":"levelo://app?vid=45aaf411-8352-46a7-9f53-ea21681af78e"},"vehicle_type_id":"4","last_reported":1731938957,"current_range_meters":38000,"station_id":"ce4bhl12rcd13ifvqgf0","pricing_plan_id":"cebpf4jnsgd1na2vs0mg"},{"bike_id":"fa24f433-8299-40f7-ad0e-56445a05e40f","system_id":"levelo_inurba_marseille","lat":43.29715,"lon":5.37701,"is_reserved":false,"is_disabled":false,"rental_uris":{"android":"levelo://app?vid=fa24f433-8299-40f7-ad0e-56445a05e40f","ios":"levelo://app?vid=fa24f433-8299-40f7-ad0e-56445a05e40f"},"vehicle_type_id":"4","last_reported":1731938957,"current_range_meters":35600,"station_id":"ce4bgkh2rcd13ifvqbl0","pricing_plan_id":"cebpf4jnsgd1na2vs0mg"},{"bike_id":"1445ebc1-fb2b-4af0-88f0-491cf3eac85f","system_id":"levelo_inurba_marseille","lat":43.28151,"lon":5.42652,"is_reserved":false,"is_disabled":false,"rental_uris":{"android":"levelo://app?vid=1445ebc1-fb2b-4af0-88f0-491cf3eac85f","ios":"levelo://app?vid=1445ebc1-fb2b-4af0-88f0-491cf3eac85f"},"vehicle_type_id":"4","last_reported":1731938957,"current_range_meters":10000,"station_id":"ce4bhnh2rcd13ifvqgug","pricing_plan_id":"cebpf4jnsgd1na2vs0mg"},{"bike_id":"4305c1d1-ca62-4e47-ac96-b9970d6e957d","system_id":"levelo_inurba_marseille","lat":43.2319,"lon":5.35549,"is_reserved":false,"is_disabled":false,"rental_uris":{"android":"levelo://app?vid=4305c1d1-ca62-4e47-ac96-b9970d6e957d","ios":"levelo://app?vid=4305c1d1-ca62-4e47-ac96-b9970d6e957d"},"vehicle_type_id":"4","last_reported":1731938957,"current_range_meters":38800,"station_id":"ce4bhu92rcd13ifvqi70","pricing_plan_id":"cebpf4jnsgd1na2vs0mg"},{"bike_id":"eab3eae8-a43f-4122-8978-63ff168676a6","system_id":"levelo_inurba_marseille","lat":43.2796,"lon":5.387,"is_reserved":false,"is_disabled":false,"rental_uris":{"android":"levelo://app?vid=eab3eae8-a43f-4122-8978-63ff168676a6","ios":"levelo://app?vid=eab3eae8-a43f-4122-8978-63ff168676a6"},"vehicle_type_id":"4","last_reported":1731938957,"current_range_meters":36800,"station_id":"ce4bhg12rcd13ifvqf80","pricing_plan_id":"cebpf4jnsgd1na2vs0mg"},{"bike_id":"2bd3ae1c-22d2-4b0f-9fd7-42d6b84fc3a3","system_id":"levelo_inurba_marseille","lat":43.33599,"lon":5.41026,"is_reserved":false,"is_disabled":false,"rental_uris":{"android":"levelo://app?vid=2bd3ae1c-22d2-4b0f-9fd7-42d6b84fc3a3","ios":"levelo://app?vid=2bd3ae1c-22d2-4b0f-9fd7-42d6b84fc3a3"},"vehicle_type_id":"4","last_reported":1731938957,"current_range_meters":10800,"station_id":"ce4bhqh2rcd13ifvqhmg","pricing_plan_id":"cebpf4jnsgd1na2vs0mg"},{"bike_id":"cd3a7cc8-9fa1-4fab-bc94-8b5320c7bc23","system_id":"levelo_inurba_marseille","lat":43.24079,"lon":5.37755,"is_reserved":false,"is_disabled":false,"rental_uris":{"android":"levelo://app?vid=cd3a7cc8-9fa1-4fab-bc94-8b5320c7bc23","ios":"levelo://app?vid=cd3a7cc8-9fa1-4fab-bc94-8b5320c7bc23"},"vehicle_type_id":"4","last_reported":1731938957,"current_range_meters":17200,"station_id":"ce4bhnp2rcd13ifvqgvg","pricing_plan_id":"cebpf4jnsgd1na2vs0mg"},{"bike_id":"29d31d29-5bb6-4fc0-98ac-0447c0a773aa","system_id":"levelo_inurba_marseille","lat":43.26785,"lon":5.39413,"is_reserved":false,"is_disabled":false,"rental_uris":{"android":"levelo://app?vid=29d31d29-5bb6-4fc0-98ac-0447c0a773aa","ios":"levelo://app?vid=29d31d29-5bb6-4fc0-98ac-0447c0a773aa"},"vehicle_type_id":"4","last_reported":1731938957,"current_range_meters":38000,"station_id":"ce4bhh12rcd13ifvqfg0","pricing_plan_id":"cebpf4jnsgd1na2vs0mg"},{"bike_id":"43cef654-d5ca-4905-95d5-e54788e09d69","system_id":"levelo_inurba_marseille","lat":43.3254,"lon":5.41438,"is_reserved":false,"is_disabled":false,"rental_uris":{"android":"levelo://app?vid=43cef654-d5ca-4905-95d5-e54788e09d69","ios":"levelo://app?vid=43cef654-d5ca-4905-95d5-e54788e09d69"},"vehicle_type_id":"4","last_reported":1731938957,"current_range_meters":20000,"station_id":"ce4bhq12rcd13ifvqhhg","pricing_plan_id":"cebpf4jnsgd1na2vs0mg"},{"bike_id":"d1ea8802-2f7a-4375-8ab8-7eb38e9ba54b","system_id":"levelo_inurba_marseille","lat":43.24073,"lon":5.37761,"is_reserved":false,"is_disabled":false,"rental_uris":{"android":"levelo://app?vid=d1ea8802-2f7a-4375-8ab8-7eb38e9ba54b","ios":"levelo://app?vid=d1ea8802-2f7a-4375-8ab8-7eb38e9ba54b"},"vehicle_type_id":"4","last_reported":1731938957,"current_range_meters":12000,"station_id":"ce4bhnp2rcd13ifvqgvg","pricing_plan_id":"cebpf4jnsgd1na2vs0mg"},{"bike_id":"9a9db904-ecd7-4fc3-b6d5-a1be79196d87","system_id":"levelo_inurba_marseille","lat":43.27511,"lon":5.3943,"is_reserved":false,"is_disabled":false,"rental_uris":{"android":"levelo://app?vid=9a9db904-ecd7-4fc3-b6d5-a1be79196d87","ios":"levelo://app?vid=9a9db904-ecd7-4fc3-b6d5-a1be79196d87"},"vehicle_type_id":"4","last_reported":1731938957,"current_range_meters":9600,"station_id":"ce4bhdp2rcd13ifvqf20","pricing_plan_id":"cebpf4jnsgd1na2vs0mg"},{"bike_id":"57ad4db7-d586-447b-b87c-ff696e31b362","system_id":"levelo_inurba_marseille","lat":43.31756,"lon":5.39025,"is_reserved":false,"is_disabled":false,"rental_uris":{"android":"levelo://app?vid=57ad4db7-d586-447b-b87c-ff696e31b362","ios":"levelo://app?vid=57ad4db7-d586-447b-b87c-ff696e31b362"},"vehicle_type_id":"4","last_reported":1731938957,"current_range_meters":36800,"station_id":"ce4bhqp2rcd13ifvqhng","pricing_plan_id":"cebpf4jnsgd1na2vs0mg"},{"bike_id":"d2f0f3fe-5594-42dd-8e69-8cdbebee7e7d","system_id":"levelo_inurba_marseille","lat":43.23142,"lon":5.43719,"is_reserved":false,"is_disabled":false,"rental_uris":{"android":"levelo://app?vid=d2f0f3fe-5594-42dd-8e69-8cdbebee7e7d","ios":"levelo://app?vid=d2f0f3fe-5594-42dd-8e69-8cdbebee7e7d"},"vehicle_type_id":"4","last_reported":1731938957,"current_range_meters":16400,"station_id":"ce4bhmp2rcd13ifvqgog","pricing_plan_id":"cebpf4jnsgd1na2vs0mg"},{"bike_id":"a2f3c2f4-9dad-4f7f-9e7e-19c7aabc94a4","system_id":"levelo_inurba_marseille","lat":43.26673,"lon":5.38269,"is_reserved":false,"is_disabled":false,"rental_uris":{"android":"levelo://app?vid=a2f3c2f4-9dad-4f7f-9e7e-19c7aabc94a4","ios":"levelo://app?vid=a2f3c2f4-9dad-4f7f-9e7e-19c7aabc94a4"},"vehicle_type_id":"4","last_reported":1731938957,"current_range_meters":38800,"station_id":"ce4bhg92rcd13ifvqf90","pricing_plan_id":"cebpf4jnsgd1na2vs0mg"},{"bike_id":"1bd08af7-93e8-44e6-abbf-1ebeb0b2262e","system_id":"levelo_inurba_marseille","lat":43.28943,"lon":5.36382,"is_reserved":false,"is_disabled":false,"rental_uris":{"android":"levelo://app?vid=1bd08af7-93e8-44e6-abbf-1ebeb0b2262e","ios":"levelo://app?vid=1bd08af7-93e8-44e6-abbf-1ebeb0b2262e"},"vehicle_type_id":"4","last_reported":1731938957,"current_range_meters":4800,"station_id":"ce4bhc92rcd13ifvqetg","pricing_plan_id":"cebpf4jnsgd1na2vs0mg"},{"bike_id":"ea84334a-850b-43e4-8803-f31653391df4","system_id":"levelo_inurba_marseille","lat":43.26195,"lon":5.37459,"is_reserved":false,"is_disabled":false,"rental_uris":{"android":"levelo://app?vid=ea84334a-850b-43e4-8803-f31653391df4","ios":"levelo://app?vid=ea84334a-850b-43e4-8803-f31653391df4"},"vehicle_type_id":"4","last_reported":1731938957,"current_range_meters":15200,"station_id":"ce4bhgp2rcd13ifvqfc0","pricing_plan_id":"cebpf4jnsgd1na2vs0mg"},{"bike_id":"20b8bb00-4fa4-49d3-b00f-f353e411e243","system_id":"levelo_inurba_marseille","lat":43.27072,"lon":5.42278,"is_reserved":false,"is_disabled":false,"rental_uris":{"android":"levelo://app?vid=20b8bb00-4fa4-49d3-b00f-f353e411e243","ios":"levelo://app?vid=20b8bb00-4fa4-49d3-b00f-f353e411e243"},"vehicle_type_id":"4","last_reported":1731938957,"current_range_meters":15200,"station_id":"ce4bhk92rcd13ifvqgb0","pricing_plan_id":"cebpf4jnsgd1na2vs0mg"},{"bike_id":"5f89f61e-343d-4cfe-8829-222555f36d01","system_id":"levelo_inurba_marseille","lat":43.31335,"lon":5.36729,"is_reserved":false,"is_disabled":false,"rental_uris":{"android":"levelo://app?vid=5f89f61e-343d-4cfe-8829-222555f36d01","ios":"levelo://app?vid=5f89f61e-343d-4cfe-8829-222555f36d01"},"vehicle_type_id":"4","last_reported":1731938957,"current_range_meters":38800,"station_id":"ce4bgr92rcd13ifvqc6g","pricing_plan_id":"cebpf4jnsgd1na2vs0mg"},{"bike_id":"ae412919-caa1-446b-bff2-b8972b762e0e","system_id":"levelo_inurba_marseille","lat":43.29564,"lon":5.39982,"is_reserved":false,"is_disabled":false,"rental_uris":{"android":"levelo://app?vid=ae412919-caa1-446b-bff2-b8972b762e0e","ios":"levelo://app?vid=ae412919-caa1-446b-bff2-b8972b762e0e"},"vehicle_type_id":"4","last_reported":1731938957,"current_range_meters":38800,"station_id":"ce4bh312rcd13ifvqdj0","pricing_plan_id":"cebpf4jnsgd1na2vs0mg"},{"bike_id":"b13d8285-c95b-434b-9cea-e7cee1eba7be","system_id":"levelo_inurba_marseille","lat":43.29532,"lon":5.39393,"is_reserved":false,"is_disabled":false,"rental_uris":{"android":"levelo://app?vid=b13d8285-c95b-434b-9cea-e7cee1eba7be","ios":"levelo://app?vid=b13d8285-c95b-434b-9cea-e7cee1eba7be"},"vehicle_type_id":"4","last_reported":1731938957,"current_range_meters":23200,"station_id":"ce4bh292rcd13ifvqdf0","pricing_plan_id":"cebpf4jnsgd1na2vs0mg"},{"bike_id":"6bfc7366-0d55-412d-9d43-5a76f76083bd","system_id":"levelo_inurba_marseille","lat":43.29895,"lon":5.43669,"is_reserved":false,"is_disabled":false,"rental_uris":{"android":"levelo://app?vid=6bfc7366-0d55-412d-9d43-5a76f76083bd","ios":"levelo://app?vid=6bfc7366-0d55-412d-9d43-5a76f76083bd"},"vehicle_type_id":"4","last_reported":1731938957,"current_range_meters":8800,"station_id":"ce4bhpp2rcd13ifvqhfg","pricing_plan_id":"cebpf4jnsgd1na2vs0mg"},{"bike_id":"94c66a18-b3f6-48b3-b98e-397cd1e7b11c","system_id":"levelo_inurba_marseille","lat":43.26571,"lon":5.39019,"is_reserved":false,"is_disabled":false,"rental_uris":{"android":"levelo://app?vid=94c66a18-b3f6-48b3-b98e-397cd1e7b11c","ios":"levelo://app?vid=94c66a18-b3f6-48b3-b98e-397cd1e7b11c"},"vehicle_type_id":"4","last_reported":1731938957,"current_range_meters":11600,"station_id":"ce4bhe12rcd13ifvqf30","pricing_plan_id":"cebpf4jnsgd1na2vs0mg"},{"bike_id":"e14a62ab-1558-41f8-874c-05dfab3edd80","system_id":"levelo_inurba_marseille","lat":43.29977,"lon":5.38487,"is_reserved":false,"is_disabled":false,"rental_uris":{"android":"levelo://app?vid=e14a62ab-1558-41f8-874c-05dfab3edd80","ios":"levelo://app?vid=e14a62ab-1558-41f8-874c-05dfab3edd80"},"vehicle_type_id":"4","last_reported":1731938957,"current_range_meters":39200,"station_id":"ce4bgj92rcd13ifvqbd0","pricing_plan_id":"cebpf4jnsgd1na2vs0mg"},{"bike_id":"53238208-a97e-4bfd-b0d6-1870d5e03961","system_id":"levelo_inurba_marseille","lat":43.28685,"lon":5.37942,"is_reserved":false,"is_disabled":false,"rental_uris":{"android":"levelo://app?vid=53238208-a97e-4bfd-b0d6-1870d5e03961","ios":"levelo://app?vid=53238208-a97e-4bfd-b0d6-1870d5e03961"},"vehicle_type_id":"4","last_reported":1731938957,"current_range_meters":10800,"station_id":"ce4bh9p2rcd13ifvqec0","pricing_plan_id":"cebpf4jnsgd1na2vs0mg"},{"bike_id":"a36ba72d-3d06-483b-9446-1d8a138e0b00","system_id":"levelo_inurba_marseille","lat":43.279643,"lon":5.387307,"is_reserved":false,"is_disabled":false,"rental_uris":{"android":"levelo://app?vid=a36ba72d-3d06-483b-9446-1d8a138e0b00","ios":"levelo://app?vid=a36ba72d-3d06-483b-9446-1d8a138e0b00"},"vehicle_type_id":"4","last_reported":1731938957,"current_range_meters":36800,"station_id":"ce4bhg12rcd13ifvqf80","pricing_plan_id":"cebpf4jnsgd1na2vs0mg"},{"bike_id":"0f795b55-23d9-4128-b1db-04955bac9d3f","system_id":"levelo_inurba_marseille","lat":43.30957,"lon":5.39041,"is_reserved":false,"is_disabled":false,"rental_uris":{"android":"levelo://app?vid=0f795b55-23d9-4128-b1db-04955bac9d3f","ios":"levelo://app?vid=0f795b55-23d9-4128-b1db-04955bac9d3f"},"vehicle_type_id":"4","last_reported":1731938957,"current_range_meters":28400,"station_id":"ce4bgup2rcd13ifvqco0","pricing_plan_id":"cebpf4jnsgd1na2vs0mg"},{"bike_id":"f6f6fb64-2de3-4514-a632-55eb0b74bc5c","system_id":"levelo_inurba_marseille","lat":43.24996,"lon":5.38935,"is_reserved":false,"is_disabled":false,"rental_uris":{"android":"levelo://app?vid=f6f6fb64-2de3-4514-a632-55eb0b74bc5c","ios":"levelo://app?vid=f6f6fb64-2de3-4514-a632-55eb0b74bc5c"},"vehicle_type_id":"4","last_reported":1731938957,"current_range_meters":34800,"station_id":"ce4bhgp2rcd13ifvqfd0","pricing_plan_id":"cebpf4jnsgd1na2vs0mg"},{"bike_id":"27757d2e-94cc-46f1-b4e2-8780c773e562","system_id":"levelo_inurba_marseille","lat":43.34134,"lon":5.40901,"is_reserved":false,"is_disabled":false,"rental_uris":{"android":"levelo://app?vid=27757d2e-94cc-46f1-b4e2-8780c773e562","ios":"levelo://app?vid=27757d2e-94cc-46f1-b4e2-8780c773e562"},"vehicle_type_id":"4","last_reported":1731938957,"current_range_meters":28400,"station_id":"ce4bhqh2rcd13ifvqhlg","pricing_plan_id":"cebpf4jnsgd1na2vs0mg"},{"bike_id":"4c521251-6677-4340-b730-6ae914498eee","system_id":"levelo_inurba_marseille","lat":43.31342,"lon":5.36716,"is_reserved":false,"is_disabled":false,"rental_uris":{"android":"levelo://app?vid=4c521251-6677-4340-b730-6ae914498eee","ios":"levelo://app?vid=4c521251-6677-4340-b730-6ae914498eee"},"vehicle_type_id":"4","last_reported":1731938957,"current_range_meters":36800,"station_id":"ce4bgr92rcd13ifvqc6g","pricing_plan_id":"cebpf4jnsgd1na2vs0mg"},{"bike_id":"b2ba89af-6757-479d-bac0-4ca56f0725ca","system_id":"levelo_inurba_marseille","lat":43.31203,"lon":5.37025,"is_reserved":false,"is_disabled":false,"rental_uris":{"android":"levelo://app?vid=b2ba89af-6757-479d-bac0-4ca56f0725ca","ios":"levelo://app?vid=b2ba89af-6757-479d-bac0-4ca56f0725ca"},"vehicle_type_id":"4","last_reported":1731938957,"current_range_meters":32000,"station_id":"","pricing_plan_id":"cebpf4jnsgd1na2vs0mg"},{"bike_id":"bd62a05e-c457-4c11-8df5-104c68618dab","system_id":"levelo_inurba_marseille","lat":43.337444,"lon":5.374475,"is_reserved":false,"is_disabled":false,"rental_uris":{"android":"levelo://app?vid=bd62a05e-c457-4c11-8df5-104c68618dab","ios":"levelo://app?vid=bd62a05e-c457-4c11-8df5-104c68618dab"},"vehicle_type_id":"4","last_reported":1731938957,"current_range_meters":37600,"station_id":"","pricing_plan_id":"cebpf4jnsgd1na2vs0mg"},{"bike_id":"bf40769c-9e57-4101-a01f-0cdfb81a5d94","system_id":"levelo_inurba_marseille","lat":43.3021,"lon":5.39475,"is_reserved":false,"is_disabled":false,"rental_uris":{"android":"levelo://app?vid=bf40769c-9e57-4101-a01f-0cdfb81a5d94","ios":"levelo://app?vid=bf40769c-9e57-4101-a01f-0cdfb81a5d94"},"vehicle_type_id":"4","last_reported":1731938957,"current_range_meters":19200,"station_id":"ce4bh0p2rcd13ifvqd70","pricing_plan_id":"cebpf4jnsgd1na2vs0mg"},{"bike_id":"0ecd2994-5694-47c3-b5ef-6f9f94d9a678","system_id":"levelo_inurba_marseille","lat":43.267766,"lon":5.394331,"is_reserved":false,"is_disabled":false,"rental_uris":{"android":"levelo://app?vid=0ecd2994-5694-47c3-b5ef-6f9f94d9a678","ios":"levelo://app?vid=0ecd2994-5694-47c3-b5ef-6f9f94d9a678"},"vehicle_type_id":"4","last_reported":1731938957,"current_range_meters":5600,"station_id":"ce4bhh12rcd13ifvqfg0","pricing_plan_id":"cebpf4jnsgd1na2vs0mg"},{"bike_id":"0f12159f-c7ec-4e3b-bd6a-10581cca2364","system_id":"levelo_inurba_marseille","lat":43.27491,"lon":5.42457,"is_reserved":false,"is_disabled":false,"rental_uris":{"android":"levelo://app?vid=0f12159f-c7ec-4e3b-bd6a-10581cca2364","ios":"levelo://app?vid=0f12159f-c7ec-4e3b-bd6a-10581cca2364"},"vehicle_type_id":"4","last_reported":1731938957,"current_range_meters":26000,"station_id":"ce4bhn92rcd13ifvqgrg","pricing_plan_id":"cebpf4jnsgd1na2vs0mg"},{"bike_id":"f493fbd1-a6d2-46e7-bd5f-a282c47329e6","system_id":"levelo_inurba_marseille","lat":43.29893,"lon":5.43655,"is_reserved":false,"is_disabled":false,"rental_uris":{"android":"levelo://app?vid=f493fbd1-a6d2-46e7-bd5f-a282c47329e6","ios":"levelo://app?vid=f493fbd1-a6d2-46e7-bd5f-a282c47329e6"},"vehicle_type_id":"4","last_reported":1731938957,"current_range_meters":39200,"station_id":"ce4bhpp2rcd13ifvqhfg","pricing_plan_id":"cebpf4jnsgd1na2vs0mg"},{"bike_id":"caa6207f-417f-4529-8da9-9310fd916be2","system_id":"levelo_inurba_marseille","lat":43.28428,"lon":5.39186,"is_reserved":false,"is_disabled":false,"rental_uris":{"android":"levelo://app?vid=caa6207f-417f-4529-8da9-9310fd916be2","ios":"levelo://app?vid=caa6207f-417f-4529-8da9-9310fd916be2"},"vehicle_type_id":"4","last_reported":1731938957,"current_range_meters":38800,"station_id":"ce4bhoh2rcd13ifvqh5g","pricing_plan_id":"cebpf4jnsgd1na2vs0mg"},{"bike_id":"f302c6e8-8ccb-4c57-9877-a6289c22a1f9","system_id":"levelo_inurba_marseille","lat":43.279694,"lon":5.387547,"is_reserved":false,"is_disabled":false,"rental_uris":{"android":"levelo://app?vid=f302c6e8-8ccb-4c57-9877-a6289c22a1f9","ios":"levelo://app?vid=f302c6e8-8ccb-4c57-9877-a6289c22a1f9"},"vehicle_type_id":"4","last_reported":1731938957,"current_range_meters":36800,"station_id":"ce4bhg12rcd13ifvqf80","pricing_plan_id":"cebpf4jnsgd1na2vs0mg"},{"bike_id":"1398d84b-65ff-42c5-a82e-3cd2e71cf14b","system_id":"levelo_inurba_marseille","lat":43.27417,"lon":5.39418,"is_reserved":false,"is_disabled":false,"rental_uris":{"android":"levelo://app?vid=1398d84b-65ff-42c5-a82e-3cd2e71cf14b","ios":"levelo://app?vid=1398d84b-65ff-42c5-a82e-3cd2e71cf14b"},"vehicle_type_id":"4","last_reported":1731938957,"current_range_meters":25200,"station_id":"ce4bhdp2rcd13ifvqf20","pricing_plan_id":"cebpf4jnsgd1na2vs0mg"},{"bike_id":"0e841474-d88b-404e-8cc1-c96b9af392c3","system_id":"levelo_inurba_marseille","lat":43.24661,"lon":5.38165,"is_reserved":false,"is_disabled":false,"rental_uris":{"android":"levelo://app?vid=0e841474-d88b-404e-8cc1-c96b9af392c3","ios":"levelo://app?vid=0e841474-d88b-404e-8cc1-c96b9af392c3"},"vehicle_type_id":"4","last_reported":1731938957,"current_range_meters":38800,"station_id":"ce4bhih2rcd13ifvqfr0","pricing_plan_id":"cebpf4jnsgd1na2vs0mg"},{"bike_id":"5f7af20b-8740-416c-a770-66f799e39f12","system_id":"levelo_inurba_marseille","lat":43.30521,"lon":5.36547,"is_reserved":false,"is_disabled":false,"rental_uris":{"android":"levelo://app?vid=5f7af20b-8740-416c-a770-66f799e39f12","ios":"levelo://app?vid=5f7af20b-8740-416c-a770-66f799e39f12"},"vehicle_type_id":"4","last_reported":1731938957,"current_range_meters":38800,"station_id":"ce4bgs12rcd13ifvqcag","pricing_plan_id":"cebpf4jnsgd1na2vs0mg"},{"bike_id":"84224ccb-c473-401a-82b7-1eb00590305a","system_id":"levelo_inurba_marseille","lat":43.29957,"lon":5.41324,"is_reserved":false,"is_disabled":false,"rental_uris":{"android":"levelo://app?vid=84224ccb-c473-401a-82b7-1eb00590305a","ios":"levelo://app?vid=84224ccb-c473-401a-82b7-1eb00590305a"},"vehicle_type_id":"4","last_reported":1731938957,"current_range_meters":38800,"station_id":"ce4bhp12rcd13ifvqh9g","pricing_plan_id":"cebpf4jnsgd1na2vs0mg"},{"bike_id":"bda6c3e6-ef39-4a09-9550-83db497746cc","system_id":"levelo_inurba_marseille","lat":43.28706,"lon":5.37937,"is_reserved":false,"is_disabled":false,"rental_uris":{"android":"levelo://app?vid=bda6c3e6-ef39-4a09-9550-83db497746cc","ios":"levelo://app?vid=bda6c3e6-ef39-4a09-9550-83db497746cc"},"vehicle_type_id":"4","last_reported":1731938957,"current_range_meters":38800,"station_id":"ce4bh9p2rcd13ifvqec0","pricing_plan_id":"cebpf4jnsgd1na2vs0mg"},{"bike_id":"c3b2f2e4-a56b-4032-90ec-36bdae251001","system_id":"levelo_inurba_marseille","lat":43.30533,"lon":5.36542,"is_reserved":false,"is_disabled":false,"rental_uris":{"android":"levelo://app?vid=c3b2f2e4-a56b-4032-90ec-36bdae251001","ios":"levelo://app?vid=c3b2f2e4-a56b-4032-90ec-36bdae251001"},"vehicle_type_id":"4","last_reported":1731938957,"current_range_meters":39200,"station_id":"ce4bgs12rcd13ifvqcag","pricing_plan_id":"cebpf4jnsgd1na2vs0mg"},{"bike_id":"6b75bb88-b668-4a1b-989e-77151dadea7a","system_id":"levelo_inurba_marseille","lat":43.29988,"lon":5.38479,"is_reserved":false,"is_disabled":false,"rental_uris":{"android":"levelo://app?vid=6b75bb88-b668-4a1b-989e-77151dadea7a","ios":"levelo://app?vid=6b75bb88-b668-4a1b-989e-77151dadea7a"},"vehicle_type_id":"4","last_reported":1731938957,"current_range_meters":23200,"station_id":"ce4bgj92rcd13ifvqbd0","pricing_plan_id":"cebpf4jnsgd1na2vs0mg"},{"bike_id":"c1f3a3f3-0955-4131-b780-88ad759c52c0","system_id":"levelo_inurba_marseille","lat":43.26936,"lon":5.38917,"is_reserved":false,"is_disabled":false,"rental_uris":{"android":"levelo://app?vid=c1f3a3f3-0955-4131-b780-88ad759c52c0","ios":"levelo://app?vid=c1f3a3f3-0955-4131-b780-88ad759c52c0"},"vehicle_type_id":"4","last_reported":1731938957,"current_range_meters":8800,"station_id":"ce4bhhh2rcd13ifvqfl0","pricing_plan_id":"cebpf4jnsgd1na2vs0mg"},{"bike_id":"18e6b12c-a8e8-4e95-afa8-7f2f7c431e33","system_id":"levelo_inurba_marseille","lat":43.26204,"lon":5.37445,"is_reserved":false,"is_disabled":false,"rental_uris":{"android":"levelo://app?vid=18e6b12c-a8e8-4e95-afa8-7f2f7c431e33","ios":"levelo://app?vid=18e6b12c-a8e8-4e95-afa8-7f2f7c431e33"},"vehicle_type_id":"4","last_reported":1731938957,"current_range_meters":28400,"station_id":"ce4bhgp2rcd13ifvqfc0","pricing_plan_id":"cebpf4jnsgd1na2vs0mg"},{"bike_id":"7e79dce0-7f1a-45cb-91da-b4632d85d6e2","system_id":"levelo_inurba_marseille","lat":43.3107,"lon":5.3835,"is_reserved":false,"is_disabled":false,"rental_uris":{"android":"levelo://app?vid=7e79dce0-7f1a-45cb-91da-b4632d85d6e2","ios":"levelo://app?vid=7e79dce0-7f1a-45cb-91da-b4632d85d6e2"},"vehicle_type_id":"4","last_reported":1731938957,"current_range_meters":20800,"station_id":"ce4bgv92rcd13ifvqcr0","pricing_plan_id":"cebpf4jnsgd1na2vs0mg"},{"bike_id":"faab3ca5-30f0-40a6-8324-59366b4e4b30","system_id":"levelo_inurba_marseille","lat":43.26484,"lon":5.39538,"is_reserved":false,"is_disabled":false,"rental_uris":{"android":"levelo://app?vid=faab3ca5-30f0-40a6-8324-59366b4e4b30","ios":"levelo://app?vid=faab3ca5-30f0-40a6-8324-59366b4e4b30"},"vehicle_type_id":"4","last_reported":1731938957,"current_range_meters":4000,"station_id":"ce4bhi12rcd13ifvqfq0","pricing_plan_id":"cebpf4jnsgd1na2vs0mg"},{"bike_id":"2a8f586a-e561-47ac-9801-f134edd869eb","system_id":"levelo_inurba_marseille","lat":43.29519,"lon":5.39039,"is_reserved":false,"is_disabled":false,"rental_uris":{"android":"levelo://app?vid=2a8f586a-e561-47ac-9801-f134edd869eb","ios":"levelo://app?vid=2a8f586a-e561-47ac-9801-f134edd869eb"},"vehicle_type_id":"4","last_reported":1731938957,"current_range_meters":24000,"station_id":"ce4bh3p2rcd13ifvqdp0","pricing_plan_id":"cebpf4jnsgd1na2vs0mg"},{"bike_id":"2ceb381d-055b-443a-a811-465434289111","system_id":"levelo_inurba_marseille","lat":43.30321,"lon":5.40426,"is_reserved":false,"is_disabled":false,"rental_uris":{"android":"levelo://app?vid=2ceb381d-055b-443a-a811-465434289111","ios":"levelo://app?vid=2ceb381d-055b-443a-a811-465434289111"},"vehicle_type_id":"4","last_reported":1731938957,"current_range_meters":22800,"station_id":"ce4bh012rcd13ifvqd10","pricing_plan_id":"cebpf4jnsgd1na2vs0mg"},{"bike_id":"4c066924-4e2a-409b-9838-1c83614d8743","system_id":"levelo_inurba_marseille","lat":43.29917,"lon":5.37469,"is_reserved":false,"is_disabled":false,"rental_uris":{"android":"levelo://app?vid=4c066924-4e2a-409b-9838-1c83614d8743","ios":"levelo://app?vid=4c066924-4e2a-409b-9838-1c83614d8743"},"vehicle_type_id":"4","last_reported":1731938957,"current_range_meters":9600,"station_id":"ce4bgjh2rcd13ifvqbg0","pricing_plan_id":"cebpf4jnsgd1na2vs0mg"},{"bike_id":"39a8296c-ef63-4e5a-95f7-12c2260127b5","system_id":"levelo_inurba_marseille","lat":43.29019,"lon":5.38647,"is_reserved":false,"is_disabled":false,"rental_uris":{"android":"levelo://app?vid=39a8296c-ef63-4e5a-95f7-12c2260127b5","ios":"levelo://app?vid=39a8296c-ef63-4e5a-95f7-12c2260127b5"},"vehicle_type_id":"4","last_reported":1731938957,"current_range_meters":28800,"station_id":"ce4bh4p2rcd13ifvqe0g","pricing_plan_id":"cebpf4jnsgd1na2vs0mg"},{"bike_id":"cb3165b9-4890-480d-ae63-784fba188dfc","system_id":"levelo_inurba_marseille","lat":43.27063,"lon":5.42279,"is_reserved":false,"is_disabled":false,"rental_uris":{"android":"levelo://app?vid=cb3165b9-4890-480d-ae63-784fba188dfc","ios":"levelo://app?vid=cb3165b9-4890-480d-ae63-784fba188dfc"},"vehicle_type_id":"4","last_reported":1731938957,"current_range_meters":38800,"station_id":"ce4bhk92rcd13ifvqgb0","pricing_plan_id":"cebpf4jnsgd1na2vs0mg"},{"bike_id":"686f7aac-3b09-4535-bb65-bd5180cb6ffc","system_id":"levelo_inurba_marseille","lat":43.2737,"lon":5.3626,"is_reserved":false,"is_disabled":false,"rental_uris":{"android":"levelo://app?vid=686f7aac-3b09-4535-bb65-bd5180cb6ffc","ios":"levelo://app?vid=686f7aac-3b09-4535-bb65-bd5180cb6ffc"},"vehicle_type_id":"4","last_reported":1731938957,"current_range_meters":36800,"station_id":"ce4bhbh2rcd13ifvqeo0","pricing_plan_id":"cebpf4jnsgd1na2vs0mg"},{"bike_id":"87aeddb8-5c6a-470f-b943-4a471568686e","system_id":"levelo_inurba_marseille","lat":43.27984,"lon":5.41662,"is_reserved":false,"is_disabled":false,"rental_uris":{"android":"levelo://app?vid=87aeddb8-5c6a-470f-b943-4a471568686e","ios":"levelo://app?vid=87aeddb8-5c6a-470f-b943-4a471568686e"},"vehicle_type_id":"4","last_reported":1731938957,"current_range_meters":26000,"station_id":"ce4bho12rcd13ifvqh1g","pricing_plan_id":"cebpf4jnsgd1na2vs0mg"},{"bike_id":"35e7f4dd-1710-4233-8e4e-e20c05772655","system_id":"levelo_inurba_marseille","lat":43.29583,"lon":5.3674,"is_reserved":false,"is_disabled":false,"rental_uris":{"android":"levelo://app?vid=35e7f4dd-1710-4233-8e4e-e20c05772655","ios":"levelo://app?vid=35e7f4dd-1710-4233-8e4e-e20c05772655"},"vehicle_type_id":"4","last_reported":1731938957,"current_range_meters":37600,"station_id":"ce4bgph2rcd13ifvqc2g","pricing_plan_id":"cebpf4jnsgd1na2vs0mg"},{"bike_id":"5938f129-0be9-4612-acac-86791f6673ad","system_id":"levelo_inurba_marseille","lat":43.28199,"lon":5.4437,"is_reserved":false,"is_disabled":false,"rental_uris":{"android":"levelo://app?vid=5938f129-0be9-4612-acac-86791f6673ad","ios":"levelo://app?vid=5938f129-0be9-4612-acac-86791f6673ad"},"vehicle_type_id":"4","last_reported":1731938957,"current_range_meters":8000,"station_id":"","pricing_plan_id":"cebpf4jnsgd1na2vs0mg"},{"bike_id":"76dcb117-182f-43bb-ae73-5c4e86a185c9","system_id":"levelo_inurba_marseille","lat":43.28944,"lon":5.36634,"is_reserved":false,"is_disabled":false,"rental_uris":{"android":"levelo://app?vid=76dcb117-182f-43bb-ae73-5c4e86a185c9","ios":"levelo://app?vid=76dcb117-182f-43bb-ae73-5c4e86a185c9"},"vehicle_type_id":"4","last_reported":1731938957,"current_range_meters":3200,"station_id":"ce4bhap2rcd13ifvqek0","pricing_plan_id":"cebpf4jnsgd1na2vs0mg"},{"bike_id":"4400186c-3128-46ba-910f-96b121dfa442","system_id":"levelo_inurba_marseille","lat":43.29553,"lon":5.42291,"is_reserved":false,"is_disabled":false,"rental_uris":{"android":"levelo://app?vid=4400186c-3128-46ba-910f-96b121dfa442","ios":"levelo://app?vid=4400186c-3128-46ba-910f-96b121dfa442"},"vehicle_type_id":"4","last_reported":1731938957,"current_range_meters":38400,"station_id":"ce4bhph2rcd13ifvqhdg","pricing_plan_id":"cebpf4jnsgd1na2vs0mg"},{"bike_id":"b3c69ae4-5ee9-4041-b5a4-be3bfe7ad4eb","system_id":"levelo_inurba_marseille","lat":43.30101,"lon":5.39085,"is_reserved":false,"is_disabled":false,"rental_uris":{"android":"levelo://app?vid=b3c69ae4-5ee9-4041-b5a4-be3bfe7ad4eb","ios":"levelo://app?vid=b3c69ae4-5ee9-4041-b5a4-be3bfe7ad4eb"},"vehicle_type_id":"4","last_reported":1731938957,"current_range_meters":36000,"station_id":"ce4bh192rcd13ifvqdb0","pricing_plan_id":"cebpf4jnsgd1na2vs0mg"},{"bike_id":"55a046e2-4e0a-45d3-8285-361db32f7d97","system_id":"levelo_inurba_marseille","lat":43.296182,"lon":5.371543,"is_reserved":false,"is_disabled":false,"rental_uris":{"android":"levelo://app?vid=55a046e2-4e0a-45d3-8285-361db32f7d97","ios":"levelo://app?vid=55a046e2-4e0a-45d3-8285-361db32f7d97"},"vehicle_type_id":"4","last_reported":1731938957,"current_range_meters":26800,"station_id":"ce4bgnh2rcd13ifvqc0g","pricing_plan_id":"cebpf4jnsgd1na2vs0mg"},{"bike_id":"27955258-328f-4f80-ad3a-16bbf0b55c19","system_id":"levelo_inurba_marseille","lat":43.31336,"lon":5.36733,"is_reserved":false,"is_disabled":false,"rental_uris":{"android":"levelo://app?vid=27955258-328f-4f80-ad3a-16bbf0b55c19","ios":"levelo://app?vid=27955258-328f-4f80-ad3a-16bbf0b55c19"},"vehicle_type_id":"4","last_reported":1731938957,"current_range_meters":27600,"station_id":"ce4bgr92rcd13ifvqc6g","pricing_plan_id":"cebpf4jnsgd1na2vs0mg"},{"bike_id":"5ed22230-ed97-489b-a6af-ba06152c21b7","system_id":"levelo_inurba_marseille","lat":43.2315,"lon":5.43722,"is_reserved":false,"is_disabled":false,"rental_uris":{"android":"levelo://app?vid=5ed22230-ed97-489b-a6af-ba06152c21b7","ios":"levelo://app?vid=5ed22230-ed97-489b-a6af-ba06152c21b7"},"vehicle_type_id":"4","last_reported":1731938957,"current_range_meters":30000,"station_id":"ce4bhmp2rcd13ifvqgog","pricing_plan_id":"cebpf4jnsgd1na2vs0mg"},{"bike_id":"dd95171b-b7cd-481f-acac-ba220ac8462f","system_id":"levelo_inurba_marseille","lat":43.29263,"lon":5.38453,"is_reserved":false,"is_disabled":false,"rental_uris":{"android":"levelo://app?vid=dd95171b-b7cd-481f-acac-ba220ac8462f","ios":"levelo://app?vid=dd95171b-b7cd-481f-acac-ba220ac8462f"},"vehicle_type_id":"4","last_reported":1731938957,"current_range_meters":10000,"station_id":"ce4bh692rcd13ifvqea0","pricing_plan_id":"cebpf4jnsgd1na2vs0mg"},{"bike_id":"4e6098fd-1bf3-43af-8cc8-8d78b43936d6","system_id":"levelo_inurba_marseille","lat":43.32346,"lon":5.389,"is_reserved":false,"is_disabled":false,"rental_uris":{"android":"levelo://app?vid=4e6098fd-1bf3-43af-8cc8-8d78b43936d6","ios":"levelo://app?vid=4e6098fd-1bf3-43af-8cc8-8d78b43936d6"},"vehicle_type_id":"4","last_reported":1731938957,"current_range_meters":26800,"station_id":"ce4bhqp2rcd13ifvqhog","pricing_plan_id":"cebpf4jnsgd1na2vs0mg"},{"bike_id":"bf19e9e0-777d-4f4c-b96e-77cb5959a858","system_id":"levelo_inurba_marseille","lat":43.28418,"lon":5.34974,"is_reserved":false,"is_disabled":false,"rental_uris":{"android":"levelo://app?vid=bf19e9e0-777d-4f4c-b96e-77cb5959a858","ios":"levelo://app?vid=bf19e9e0-777d-4f4c-b96e-77cb5959a858"},"vehicle_type_id":"4","last_reported":1731938957,"current_range_meters":26800,"station_id":"ce4bhbh2rcd13ifvqepg","pricing_plan_id":"cebpf4jnsgd1na2vs0mg"},{"bike_id":"b3ec17fb-3876-4d40-ae8e-85c8e1939a7c","system_id":"levelo_inurba_marseille","lat":43.29902,"lon":5.38142,"is_reserved":false,"is_disabled":false,"rental_uris":{"android":"levelo://app?vid=b3ec17fb-3876-4d40-ae8e-85c8e1939a7c","ios":"levelo://app?vid=b3ec17fb-3876-4d40-ae8e-85c8e1939a7c"},"vehicle_type_id":"4","last_reported":1731938957,"current_range_meters":38800,"station_id":"ce4bgj12rcd13ifvqbc0","pricing_plan_id":"cebpf4jnsgd1na2vs0mg"},{"bike_id":"8b0bb4bc-2cfb-4f00-819f-32c7336e86f5","system_id":"levelo_inurba_marseille","lat":43.29794,"lon":5.38105,"is_reserved":false,"is_disabled":false,"rental_uris":{"android":"levelo://app?vid=8b0bb4bc-2cfb-4f00-819f-32c7336e86f5","ios":"levelo://app?vid=8b0bb4bc-2cfb-4f00-819f-32c7336e86f5"},"vehicle_type_id":"4","last_reported":1731938957,"current_range_meters":20800,"station_id":"ce4bgip2rcd13ifvqbb0","pricing_plan_id":"cebpf4jnsgd1na2vs0mg"},{"bike_id":"cac93446-cc2c-4a53-be42-a1845861f162","system_id":"levelo_inurba_marseille","lat":43.29531,"lon":5.38542,"is_reserved":false,"is_disabled":false,"rental_uris":{"android":"levelo://app?vid=cac93446-cc2c-4a53-be42-a1845861f162","ios":"levelo://app?vid=cac93446-cc2c-4a53-be42-a1845861f162"},"vehicle_type_id":"4","last_reported":1731938957,"current_range_meters":20800,"station_id":"ce4bgih2rcd13ifvqba0","pricing_plan_id":"cebpf4jnsgd1na2vs0mg"},{"bike_id":"cdd9efa8-9865-44df-93ca-6275f6e737c6","system_id":"levelo_inurba_marseille","lat":43.28263,"lon":5.35063,"is_reserved":false,"is_disabled":false,"rental_uris":{"android":"levelo://app?vid=cdd9efa8-9865-44df-93ca-6275f6e737c6","ios":"levelo://app?vid=cdd9efa8-9865-44df-93ca-6275f6e737c6"},"vehicle_type_id":"4","last_reported":1731938957,"current_range_meters":18800,"station_id":"ce4bhbp2rcd13ifvqerg","pricing_plan_id":"cebpf4jnsgd1na2vs0mg"},{"bike_id":"7a771648-63f5-4c34-b7b5-423a1240d23d","system_id":"levelo_inurba_marseille","lat":43.29837,"lon":5.36259,"is_reserved":false,"is_disabled":false,"rental_uris":{"android":"levelo://app?vid=7a771648-63f5-4c34-b7b5-423a1240d23d","ios":"levelo://app?vid=7a771648-63f5-4c34-b7b5-423a1240d23d"},"vehicle_type_id":"4","last_reported":1731938957,"current_range_meters":38800,"station_id":"ce4bgpp2rcd13ifvqc3g","pricing_plan_id":"cebpf4jnsgd1na2vs0mg"},{"bike_id":"26312c2b-cc9f-49cb-9980-2f93531a666e","system_id":"levelo_inurba_marseille","lat":43.29645,"lon":5.37778,"is_reserved":false,"is_disabled":false,"rental_uris":{"android":"levelo://app?vid=26312c2b-cc9f-49cb-9980-2f93531a666e","ios":"levelo://app?vid=26312c2b-cc9f-49cb-9980-2f93531a666e"},"vehicle_type_id":"4","last_reported":1731938957,"current_range_meters":30400,"station_id":"ce4bgip2rcd13ifvqbb0","pricing_plan_id":"cebpf4jnsgd1na2vs0mg"},{"bike_id":"f49e9c01-e19f-4af4-8e43-13b996ce4f99","system_id":"levelo_inurba_marseille","lat":43.28666,"lon":5.38672,"is_reserved":false,"is_disabled":false,"rental_uris":{"android":"levelo://app?vid=f49e9c01-e19f-4af4-8e43-13b996ce4f99","ios":"levelo://app?vid=f49e9c01-e19f-4af4-8e43-13b996ce4f99"},"vehicle_type_id":"4","last_reported":1731938957,"current_range_meters":31200,"station_id":"ce4bh492rcd13ifvqdug","pricing_plan_id":"cebpf4jnsgd1na2vs0mg"},{"bike_id":"d7858290-a409-4351-861d-a1a90bf483cf","system_id":"levelo_inurba_marseille","lat":43.30532,"lon":5.36541,"is_reserved":false,"is_disabled":false,"rental_uris":{"android":"levelo://app?vid=d7858290-a409-4351-861d-a1a90bf483cf","ios":"levelo://app?vid=d7858290-a409-4351-861d-a1a90bf483cf"},"vehicle_type_id":"4","last_reported":1731938957,"current_range_meters":38800,"station_id":"ce4bgs12rcd13ifvqcag","pricing_plan_id":"cebpf4jnsgd1na2vs0mg"},{"bike_id":"b75a3327-5ade-4ebf-b64c-754f2e2a3abf","system_id":"levelo_inurba_marseille","lat":43.26185,"lon":5.37442,"is_reserved":false,"is_disabled":false,"rental_uris":{"android":"levelo://app?vid=b75a3327-5ade-4ebf-b64c-754f2e2a3abf","ios":"levelo://app?vid=b75a3327-5ade-4ebf-b64c-754f2e2a3abf"},"vehicle_type_id":"4","last_reported":1731938957,"current_range_meters":38800,"station_id":"ce4bhgp2rcd13ifvqfc0","pricing_plan_id":"cebpf4jnsgd1na2vs0mg"},{"bike_id":"bd5a58f3-1770-4ff8-9b17-5488958a7444","system_id":"levelo_inurba_marseille","lat":43.29276,"lon":5.36842,"is_reserved":false,"is_disabled":false,"rental_uris":{"android":"levelo://app?vid=bd5a58f3-1770-4ff8-9b17-5488958a7444","ios":"levelo://app?vid=bd5a58f3-1770-4ff8-9b17-5488958a7444"},"vehicle_type_id":"4","last_reported":1731938957,"current_range_meters":34000,"station_id":"ce4bhbp2rcd13ifvqesg","pricing_plan_id":"cebpf4jnsgd1na2vs0mg"},{"bike_id":"1fd2d64d-d384-469e-a427-962e4555a6c4","system_id":"levelo_inurba_marseille","lat":43.28439,"lon":5.39186,"is_reserved":false,"is_disabled":false,"rental_uris":{"android":"levelo://app?vid=1fd2d64d-d384-469e-a427-962e4555a6c4","ios":"levelo://app?vid=1fd2d64d-d384-469e-a427-962e4555a6c4"},"vehicle_type_id":"4","last_reported":1731938957,"current_range_meters":36800,"station_id":"ce4bhoh2rcd13ifvqh5g","pricing_plan_id":"cebpf4jnsgd1na2vs0mg"},{"bike_id":"3030fe04-d94f-466f-8288-c2c2252d769a","system_id":"levelo_inurba_marseille","lat":43.30872,"lon":5.37787,"is_reserved":false,"is_disabled":false,"rental_uris":{"android":"levelo://app?vid=3030fe04-d94f-466f-8288-c2c2252d769a","ios":"levelo://app?vid=3030fe04-d94f-466f-8288-c2c2252d769a"},"vehicle_type_id":"4","last_reported":1731938957,"current_range_meters":36400,"station_id":"","pricing_plan_id":"cebpf4jnsgd1na2vs0mg"},{"bike_id":"f5a042e4-9244-45ca-a000-cfabc5edd18a","system_id":"levelo_inurba_marseille","lat":43.27052,"lon":5.42272,"is_reserved":false,"is_disabled":false,"rental_uris":{"android":"levelo://app?vid=f5a042e4-9244-45ca-a000-cfabc5edd18a","ios":"levelo://app?vid=f5a042e4-9244-45ca-a000-cfabc5edd18a"},"vehicle_type_id":"4","last_reported":1731938957,"current_range_meters":8400,"station_id":"ce4bhk92rcd13ifvqgb0","pricing_plan_id":"cebpf4jnsgd1na2vs0mg"},{"bike_id":"438c7460-0f2d-492b-8a11-5a4b3f82e315","system_id":"levelo_inurba_marseille","lat":43.27981,"lon":5.4166,"is_reserved":false,"is_disabled":false,"rental_uris":{"android":"levelo://app?vid=438c7460-0f2d-492b-8a11-5a4b3f82e315","ios":"levelo://app?vid=438c7460-0f2d-492b-8a11-5a4b3f82e315"},"vehicle_type_id":"4","last_reported":1731938957,"current_range_meters":39200,"station_id":"ce4bho12rcd13ifvqh1g","pricing_plan_id":"cebpf4jnsgd1na2vs0mg"},{"bike_id":"7a33c110-f890-4511-b7a8-b65b18bdb57c","system_id":"levelo_inurba_marseille","lat":43.28703,"lon":5.37942,"is_reserved":false,"is_disabled":false,"rental_uris":{"android":"levelo://app?vid=7a33c110-f890-4511-b7a8-b65b18bdb57c","ios":"levelo://app?vid=7a33c110-f890-4511-b7a8-b65b18bdb57c"},"vehicle_type_id":"4","last_reported":1731938957,"current_range_meters":17200,"station_id":"ce4bh9p2rcd13ifvqec0","pricing_plan_id":"cebpf4jnsgd1na2vs0mg"},{"bike_id":"85542315-2c18-43ed-b557-c17d485b4a45","system_id":"levelo_inurba_marseille","lat":43.26552,"lon":5.37287,"is_reserved":false,"is_disabled":false,"rental_uris":{"android":"levelo://app?vid=85542315-2c18-43ed-b557-c17d485b4a45","ios":"levelo://app?vid=85542315-2c18-43ed-b557-c17d485b4a45"},"vehicle_type_id":"4","last_reported":1731938957,"current_range_meters":29600,"station_id":"ce4bhg12rcd13ifvqf70","pricing_plan_id":"cebpf4jnsgd1na2vs0mg"},{"bike_id":"5eb323e1-50f6-4470-a117-f73a14c76bb9","system_id":"levelo_inurba_marseille","lat":43.26949,"lon":5.38649,"is_reserved":false,"is_disabled":false,"rental_uris":{"android":"levelo://app?vid=5eb323e1-50f6-4470-a117-f73a14c76bb9","ios":"levelo://app?vid=5eb323e1-50f6-4470-a117-f73a14c76bb9"},"vehicle_type_id":"4","last_reported":1731938957,"current_range_meters":30400,"station_id":"ce4bhh92rcd13ifvqfh0","pricing_plan_id":"cebpf4jnsgd1na2vs0mg"},{"bike_id":"b60b51d6-a67c-4cf9-b095-ff598e5d8752","system_id":"levelo_inurba_marseille","lat":43.24668,"lon":5.3816,"is_reserved":false,"is_disabled":false,"rental_uris":{"android":"levelo://app?vid=b60b51d6-a67c-4cf9-b095-ff598e5d8752","ios":"levelo://app?vid=b60b51d6-a67c-4cf9-b095-ff598e5d8752"},"vehicle_type_id":"4","last_reported":1731938957,"current_range_meters":22800,"station_id":"ce4bhih2rcd13ifvqfr0","pricing_plan_id":"cebpf4jnsgd1na2vs0mg"},{"bike_id":"0b87a3c6-f9c9-421e-8d3e-5c1b81aa8469","system_id":"levelo_inurba_marseille","lat":43.28153,"lon":5.42646,"is_reserved":false,"is_disabled":false,"rental_uris":{"android":"levelo://app?vid=0b87a3c6-f9c9-421e-8d3e-5c1b81aa8469","ios":"levelo://app?vid=0b87a3c6-f9c9-421e-8d3e-5c1b81aa8469"},"vehicle_type_id":"4","last_reported":1731938957,"current_range_meters":18000,"station_id":"ce4bhnh2rcd13ifvqgug","pricing_plan_id":"cebpf4jnsgd1na2vs0mg"},{"bike_id":"914e9dc2-91a0-46dc-bd97-5433a548b2af","system_id":"levelo_inurba_marseille","lat":43.28704,"lon":5.37934,"is_reserved":false,"is_disabled":false,"rental_uris":{"android":"levelo://app?vid=914e9dc2-91a0-46dc-bd97-5433a548b2af","ios":"levelo://app?vid=914e9dc2-91a0-46dc-bd97-5433a548b2af"},"vehicle_type_id":"4","last_reported":1731938957,"current_range_meters":25600,"station_id":"ce4bh9p2rcd13ifvqec0","pricing_plan_id":"cebpf4jnsgd1na2vs0mg"},{"bike_id":"2ec448d8-ab1e-4b5b-9ab7-4092c37c8982","system_id":"levelo_inurba_marseille","lat":43.31218,"lon":5.36857,"is_reserved":false,"is_disabled":false,"rental_uris":{"android":"levelo://app?vid=2ec448d8-ab1e-4b5b-9ab7-4092c37c8982","ios":"levelo://app?vid=2ec448d8-ab1e-4b5b-9ab7-4092c37c8982"},"vehicle_type_id":"4","last_reported":1731938957,"current_range_meters":38800,"station_id":"ce4bgl92rcd13ifvqbq0","pricing_plan_id":"cebpf4jnsgd1na2vs0mg"},{"bike_id":"fe452959-f152-41c8-8a20-9e0e74f17d40","system_id":"levelo_inurba_marseille","lat":43.29899,"lon":5.43658,"is_reserved":false,"is_disabled":false,"rental_uris":{"android":"levelo://app?vid=fe452959-f152-41c8-8a20-9e0e74f17d40","ios":"levelo://app?vid=fe452959-f152-41c8-8a20-9e0e74f17d40"},"vehicle_type_id":"4","last_reported":1731938957,"current_range_meters":29600,"station_id":"ce4bhpp2rcd13ifvqhfg","pricing_plan_id":"cebpf4jnsgd1na2vs0mg"},{"bike_id":"6270ed28-16ff-4bd6-bad3-571e23977127","system_id":"levelo_inurba_marseille","lat":43.30779,"lon":5.37658,"is_reserved":false,"is_disabled":false,"rental_uris":{"android":"levelo://app?vid=6270ed28-16ff-4bd6-bad3-571e23977127","ios":"levelo://app?vid=6270ed28-16ff-4bd6-bad3-571e23977127"},"vehicle_type_id":"4","last_reported":1731938957,"current_range_meters":38400,"station_id":"ce4bgv92rcd13ifvqcq0","pricing_plan_id":"cebpf4jnsgd1na2vs0mg"},{"bike_id":"596a6bb8-ab6a-45b1-9280-db7f1ece4778","system_id":"levelo_inurba_marseille","lat":43.26673,"lon":5.38265,"is_reserved":false,"is_disabled":false,"rental_uris":{"android":"levelo://app?vid=596a6bb8-ab6a-45b1-9280-db7f1ece4778","ios":"levelo://app?vid=596a6bb8-ab6a-45b1-9280-db7f1ece4778"},"vehicle_type_id":"4","last_reported":1731938957,"current_range_meters":31200,"station_id":"ce4bhg92rcd13ifvqf90","pricing_plan_id":"cebpf4jnsgd1na2vs0mg"},{"bike_id":"88287dca-2bbd-4607-9d69-749d3b5798fd","system_id":"levelo_inurba_marseille","lat":43.27931,"lon":5.41048,"is_reserved":false,"is_disabled":false,"rental_uris":{"android":"levelo://app?vid=88287dca-2bbd-4607-9d69-749d3b5798fd","ios":"levelo://app?vid=88287dca-2bbd-4607-9d69-749d3b5798fd"},"vehicle_type_id":"4","last_reported":1731938957,"current_range_meters":34800,"station_id":"ce4bhnp2rcd13ifvqh0g","pricing_plan_id":"cebpf4jnsgd1na2vs0mg"},{"bike_id":"e0ccf5c4-e4de-40cb-9ebb-75d6cfead0e6","system_id":"levelo_inurba_marseille","lat":43.26204,"lon":5.37444,"is_reserved":false,"is_disabled":false,"rental_uris":{"android":"levelo://app?vid=e0ccf5c4-e4de-40cb-9ebb-75d6cfead0e6","ios":"levelo://app?vid=e0ccf5c4-e4de-40cb-9ebb-75d6cfead0e6"},"vehicle_type_id":"4","last_reported":1731938957,"current_range_meters":6400,"station_id":"ce4bhgp2rcd13ifvqfc0","pricing_plan_id":"cebpf4jnsgd1na2vs0mg"},{"bike_id":"fa3753ab-72bf-4d18-865d-951c8a3990e6","system_id":"levelo_inurba_marseille","lat":43.27613,"lon":5.3612,"is_reserved":false,"is_disabled":false,"rental_uris":{"android":"levelo://app?vid=fa3753ab-72bf-4d18-865d-951c8a3990e6","ios":"levelo://app?vid=fa3753ab-72bf-4d18-865d-951c8a3990e6"},"vehicle_type_id":"4","last_reported":1731938957,"current_range_meters":28000,"station_id":"ce4bgj92rcd13ifvqbe0","pricing_plan_id":"cebpf4jnsgd1na2vs0mg"},{"bike_id":"0fe417ea-457e-4f72-9503-57894c995363","system_id":"levelo_inurba_marseille","lat":43.29876,"lon":5.38914,"is_reserved":false,"is_disabled":false,"rental_uris":{"android":"levelo://app?vid=0fe417ea-457e-4f72-9503-57894c995363","ios":"levelo://app?vid=0fe417ea-457e-4f72-9503-57894c995363"},"vehicle_type_id":"4","last_reported":1731938957,"current_range_meters":38800,"station_id":"ce4bh392rcd13ifvqdl0","pricing_plan_id":"cebpf4jnsgd1na2vs0mg"},{"bike_id":"0cb888e9-ce51-408d-b0bf-adde5efd95e8","system_id":"levelo_inurba_marseille","lat":43.30348,"lon":5.4188,"is_reserved":false,"is_disabled":false,"rental_uris":{"android":"levelo://app?vid=0cb888e9-ce51-408d-b0bf-adde5efd95e8","ios":"levelo://app?vid=0cb888e9-ce51-408d-b0bf-adde5efd95e8"},"vehicle_type_id":"4","last_reported":1731938957,"current_range_meters":8000,"station_id":"ce4bhop2rcd13ifvqh7g","pricing_plan_id":"cebpf4jnsgd1na2vs0mg"},{"bike_id":"0a6bba3a-d4e9-421d-97e3-caab2480d856","system_id":"levelo_inurba_marseille","lat":43.27966,"lon":5.38749,"is_reserved":false,"is_disabled":false,"rental_uris":{"android":"levelo://app?vid=0a6bba3a-d4e9-421d-97e3-caab2480d856","ios":"levelo://app?vid=0a6bba3a-d4e9-421d-97e3-caab2480d856"},"vehicle_type_id":"4","last_reported":1731938957,"current_range_meters":19200,"station_id":"ce4bhg12rcd13ifvqf80","pricing_plan_id":"cebpf4jnsgd1na2vs0mg"},{"bike_id":"3f25cf5a-8f53-4399-ac00-b22e8bae0820","system_id":"levelo_inurba_marseille","lat":43.33603,"lon":5.41034,"is_reserved":false,"is_disabled":false,"rental_uris":{"android":"levelo://app?vid=3f25cf5a-8f53-4399-ac00-b22e8bae0820","ios":"levelo://app?vid=3f25cf5a-8f53-4399-ac00-b22e8bae0820"},"vehicle_type_id":"4","last_reported":1731938957,"current_range_meters":11200,"station_id":"ce4bhqh2rcd13ifvqhmg","pricing_plan_id":"cebpf4jnsgd1na2vs0mg"},{"bike_id":"d6e20374-3939-4cac-b1b0-b1024a1a302c","system_id":"levelo_inurba_marseille","lat":43.25095,"lon":5.40333,"is_reserved":false,"is_disabled":false,"rental_uris":{"android":"levelo://app?vid=d6e20374-3939-4cac-b1b0-b1024a1a302c","ios":"levelo://app?vid=d6e20374-3939-4cac-b1b0-b1024a1a302c"},"vehicle_type_id":"4","last_reported":1731938957,"current_range_meters":29600,"station_id":"ce4bhlh2rcd13ifvqgig","pricing_plan_id":"cebpf4jnsgd1na2vs0mg"},{"bike_id":"7bc056d0-9eaf-4007-8a40-131c893c7096","system_id":"levelo_inurba_marseille","lat":43.32652,"lon":5.40995,"is_reserved":false,"is_disabled":false,"rental_uris":{"android":"levelo://app?vid=7bc056d0-9eaf-4007-8a40-131c893c7096","ios":"levelo://app?vid=7bc056d0-9eaf-4007-8a40-131c893c7096"},"vehicle_type_id":"4","last_reported":1731938957,"current_range_meters":35200,"station_id":"ce4bhpp2rcd13ifvqhgg","pricing_plan_id":"cebpf4jnsgd1na2vs0mg"},{"bike_id":"f49e08d0-0108-4101-8f0e-d41496630ebd","system_id":"levelo_inurba_marseille","lat":43.29721,"lon":5.377,"is_reserved":false,"is_disabled":false,"rental_uris":{"android":"levelo://app?vid=f49e08d0-0108-4101-8f0e-d41496630ebd","ios":"levelo://app?vid=f49e08d0-0108-4101-8f0e-d41496630ebd"},"vehicle_type_id":"4","last_reported":1731938957,"current_range_meters":38800,"station_id":"ce4bgkh2rcd13ifvqbl0","pricing_plan_id":"cebpf4jnsgd1na2vs0mg"},{"bike_id":"7d672f00-807f-4797-bc98-b9c9999e1004","system_id":"levelo_inurba_marseille","lat":43.25113,"lon":5.40325,"is_reserved":false,"is_disabled":false,"rental_uris":{"android":"levelo://app?vid=7d672f00-807f-4797-bc98-b9c9999e1004","ios":"levelo://app?vid=7d672f00-807f-4797-bc98-b9c9999e1004"},"vehicle_type_id":"4","last_reported":1731938957,"current_range_meters":38800,"station_id":"ce4bhlh2rcd13ifvqgig","pricing_plan_id":"cebpf4jnsgd1na2vs0mg"},{"bike_id":"53739fb7-4843-4474-aaeb-689dd9669665","system_id":"levelo_inurba_marseille","lat":43.26209,"lon":5.37445,"is_reserved":false,"is_disabled":false,"rental_uris":{"android":"levelo://app?vid=53739fb7-4843-4474-aaeb-689dd9669665","ios":"levelo://app?vid=53739fb7-4843-4474-aaeb-689dd9669665"},"vehicle_type_id":"4","last_reported":1731938957,"current_range_meters":33600,"station_id":"ce4bhgp2rcd13ifvqfc0","pricing_plan_id":"cebpf4jnsgd1na2vs0mg"},{"bike_id":"90d75165-e93d-4a9f-98ce-8622e0aaa885","system_id":"levelo_inurba_marseille","lat":43.30139,"lon":5.38079,"is_reserved":false,"is_disabled":false,"rental_uris":{"android":"levelo://app?vid=90d75165-e93d-4a9f-98ce-8622e0aaa885","ios":"levelo://app?vid=90d75165-e93d-4a9f-98ce-8622e0aaa885"},"vehicle_type_id":"4","last_reported":1731938957,"current_range_meters":36800,"station_id":"ce4bgjp2rcd13ifvqbh0","pricing_plan_id":"cebpf4jnsgd1na2vs0mg"},{"bike_id":"2831a421-b6d9-4b4a-bef0-b960399d0032","system_id":"levelo_inurba_marseille","lat":43.29298,"lon":5.37161,"is_reserved":false,"is_disabled":false,"rental_uris":{"android":"levelo://app?vid=2831a421-b6d9-4b4a-bef0-b960399d0032","ios":"levelo://app?vid=2831a421-b6d9-4b4a-bef0-b960399d0032"},"vehicle_type_id":"4","last_reported":1731938957,"current_range_meters":38800,"station_id":"ce4bgh92rcd13ifvqb40","pricing_plan_id":"cebpf4jnsgd1na2vs0mg"},{"bike_id":"9fcc73df-50a1-4fda-985d-13f150794445","system_id":"levelo_inurba_marseille","lat":43.2781,"lon":5.40709,"is_reserved":false,"is_disabled":false,"rental_uris":{"android":"levelo://app?vid=9fcc73df-50a1-4fda-985d-13f150794445","ios":"levelo://app?vid=9fcc73df-50a1-4fda-985d-13f150794445"},"vehicle_type_id":"4","last_reported":1731938957,"current_range_meters":20800,"station_id":"ce4bhnh2rcd13ifvqgtg","pricing_plan_id":"cebpf4jnsgd1na2vs0mg"},{"bike_id":"b4d9d088-57d6-4dd5-89c3-7854e196b249","system_id":"levelo_inurba_marseille","lat":43.29285,"lon":5.37449,"is_reserved":false,"is_disabled":false,"rental_uris":{"android":"levelo://app?vid=b4d9d088-57d6-4dd5-89c3-7854e196b249","ios":"levelo://app?vid=b4d9d088-57d6-4dd5-89c3-7854e196b249"},"vehicle_type_id":"4","last_reported":1731938957,"current_range_meters":36400,"station_id":"ce4bgi12rcd13ifvqb70","pricing_plan_id":"cebpf4jnsgd1na2vs0mg"},{"bike_id":"0a6aa031-63d1-4568-a200-618213b1d186","system_id":"levelo_inurba_marseille","lat":43.30462,"lon":5.37899,"is_reserved":false,"is_disabled":false,"rental_uris":{"android":"levelo://app?vid=0a6aa031-63d1-4568-a200-618213b1d186","ios":"levelo://app?vid=0a6aa031-63d1-4568-a200-618213b1d186"},"vehicle_type_id":"4","last_reported":1731938957,"current_range_meters":32000,"station_id":"ce4bgup2rcd13ifvqcn0","pricing_plan_id":"cebpf4jnsgd1na2vs0mg"},{"bike_id":"733ca8f1-c844-4b25-ac1b-2adbadd4d5f0","system_id":"levelo_inurba_marseille","lat":43.28849,"lon":5.35866,"is_reserved":false,"is_disabled":false,"rental_uris":{"android":"levelo://app?vid=733ca8f1-c844-4b25-ac1b-2adbadd4d5f0","ios":"levelo://app?vid=733ca8f1-c844-4b25-ac1b-2adbadd4d5f0"},"vehicle_type_id":"4","last_reported":1731938957,"current_range_meters":20800,"station_id":"ce4bhb12rcd13ifvqem0","pricing_plan_id":"cebpf4jnsgd1na2vs0mg"},{"bike_id":"534c28a4-3b56-4b68-92d6-3b225c4067ae","system_id":"levelo_inurba_marseille","lat":43.295762,"lon":5.399699,"is_reserved":false,"is_disabled":false,"rental_uris":{"android":"levelo://app?vid=534c28a4-3b56-4b68-92d6-3b225c4067ae","ios":"levelo://app?vid=534c28a4-3b56-4b68-92d6-3b225c4067ae"},"vehicle_type_id":"4","last_reported":1731938957,"current_range_meters":34000,"station_id":"ce4bgt92rcd13ifvqcf0","pricing_plan_id":"cebpf4jnsgd1na2vs0mg"},{"bike_id":"2b509831-39a2-4248-9088-482dbf190e04","system_id":"levelo_inurba_marseille","lat":43.26196,"lon":5.37935,"is_reserved":false,"is_disabled":false,"rental_uris":{"android":"levelo://app?vid=2b509831-39a2-4248-9088-482dbf190e04","ios":"levelo://app?vid=2b509831-39a2-4248-9088-482dbf190e04"},"vehicle_type_id":"4","last_reported":1731938957,"current_range_meters":26800,"station_id":"ce4bhjp2rcd13ifvqg90","pricing_plan_id":"cebpf4jnsgd1na2vs0mg"},{"bike_id":"685e9afd-df2c-4e83-a637-066f202ffa1c","system_id":"levelo_inurba_marseille","lat":43.33718,"lon":5.39191,"is_reserved":false,"is_disabled":false,"rental_uris":{"android":"levelo://app?vid=685e9afd-df2c-4e83-a637-066f202ffa1c","ios":"levelo://app?vid=685e9afd-df2c-4e83-a637-066f202ffa1c"},"vehicle_type_id":"4","last_reported":1731938957,"current_range_meters":21600,"station_id":"ce4bhr92rcd13ifvqhsg","pricing_plan_id":"cebpf4jnsgd1na2vs0mg"},{"bike_id":"ebdd5171-4bf2-4429-b782-cca50adf46a2","system_id":"levelo_inurba_marseille","lat":43.29806,"lon":5.38109,"is_reserved":false,"is_disabled":false,"rental_uris":{"android":"levelo://app?vid=ebdd5171-4bf2-4429-b782-cca50adf46a2","ios":"levelo://app?vid=ebdd5171-4bf2-4429-b782-cca50adf46a2"},"vehicle_type_id":"4","last_reported":1731938957,"current_range_meters":24800,"station_id":"ce4bgip2rcd13ifvqbb0","pricing_plan_id":"cebpf4jnsgd1na2vs0mg"},{"bike_id":"d3505644-f70d-45f6-a023-7f9c0a49153e","system_id":"levelo_inurba_marseille","lat":43.26951,"lon":5.38643,"is_reserved":false,"is_disabled":false,"rental_uris":{"android":"levelo://app?vid=d3505644-f70d-45f6-a023-7f9c0a49153e","ios":"levelo://app?vid=d3505644-f70d-45f6-a023-7f9c0a49153e"},"vehicle_type_id":"4","last_reported":1731938957,"current_range_meters":12800,"station_id":"ce4bhh92rcd13ifvqfh0","pricing_plan_id":"cebpf4jnsgd1na2vs0mg"},{"bike_id":"547ca12d-357b-4a7c-afff-1c2f4138f935","system_id":"levelo_inurba_marseille","lat":43.31223,"lon":5.36866,"is_reserved":false,"is_disabled":false,"rental_uris":{"android":"levelo://app?vid=547ca12d-357b-4a7c-afff-1c2f4138f935","ios":"levelo://app?vid=547ca12d-357b-4a7c-afff-1c2f4138f935"},"vehicle_type_id":"4","last_reported":1731938957,"current_range_meters":27600,"station_id":"ce4bgl92rcd13ifvqbq0","pricing_plan_id":"cebpf4jnsgd1na2vs0mg"},{"bike_id":"9d0ff97e-4153-45c9-bb5a-0bdd6df51804","system_id":"levelo_inurba_marseille","lat":43.3248,"lon":5.36582,"is_reserved":false,"is_disabled":false,"rental_uris":{"android":"levelo://app?vid=9d0ff97e-4153-45c9-bb5a-0bdd6df51804","ios":"levelo://app?vid=9d0ff97e-4153-45c9-bb5a-0bdd6df51804"},"vehicle_type_id":"4","last_reported":1731938957,"current_range_meters":10000,"station_id":"ce4bhs12rcd13ifvqhvg","pricing_plan_id":"cebpf4jnsgd1na2vs0mg"},{"bike_id":"bf1c144c-f9d3-4903-8962-6df8f77b8814","system_id":"levelo_inurba_marseille","lat":43.25931,"lon":5.40917,"is_reserved":false,"is_disabled":false,"rental_uris":{"android":"levelo://app?vid=bf1c144c-f9d3-4903-8962-6df8f77b8814","ios":"levelo://app?vid=bf1c144c-f9d3-4903-8962-6df8f77b8814"},"vehicle_type_id":"4","last_reported":1731938957,"current_range_meters":14000,"station_id":"ce4bhm92rcd13ifvqglg","pricing_plan_id":"cebpf4jnsgd1na2vs0mg"},{"bike_id":"8c485897-ff32-4938-8d01-a01a0e258010","system_id":"levelo_inurba_marseille","lat":43.29521,"lon":5.38535,"is_reserved":false,"is_disabled":false,"rental_uris":{"android":"levelo://app?vid=8c485897-ff32-4938-8d01-a01a0e258010","ios":"levelo://app?vid=8c485897-ff32-4938-8d01-a01a0e258010"},"vehicle_type_id":"4","last_reported":1731938957,"current_range_meters":34800,"station_id":"ce4bgih2rcd13ifvqba0","pricing_plan_id":"cebpf4jnsgd1na2vs0mg"},{"bike_id":"e150caea-119d-4fee-a5d7-7010da4309a1","system_id":"levelo_inurba_marseille","lat":43.29522,"lon":5.3854,"is_reserved":false,"is_disabled":false,"rental_uris":{"android":"levelo://app?vid=e150caea-119d-4fee-a5d7-7010da4309a1","ios":"levelo://app?vid=e150caea-119d-4fee-a5d7-7010da4309a1"},"vehicle_type_id":"4","last_reported":1731938957,"current_range_meters":32000,"station_id":"ce4bgih2rcd13ifvqba0","pricing_plan_id":"cebpf4jnsgd1na2vs0mg"},{"bike_id":"99e250a3-df4c-4b34-9509-c05720c8abf5","system_id":"levelo_inurba_marseille","lat":43.30525,"lon":5.36538,"is_reserved":false,"is_disabled":false,"rental_uris":{"android":"levelo://app?vid=99e250a3-df4c-4b34-9509-c05720c8abf5","ios":"levelo://app?vid=99e250a3-df4c-4b34-9509-c05720c8abf5"},"vehicle_type_id":"4","last_reported":1731938957,"current_range_meters":38800,"station_id":"ce4bgs12rcd13ifvqcag","pricing_plan_id":"cebpf4jnsgd1na2vs0mg"},{"bike_id":"c137ad19-1d76-4102-b396-b36fb3e5c779","system_id":"levelo_inurba_marseille","lat":43.31226,"lon":5.36877,"is_reserved":false,"is_disabled":false,"rental_uris":{"android":"levelo://app?vid=c137ad19-1d76-4102-b396-b36fb3e5c779","ios":"levelo://app?vid=c137ad19-1d76-4102-b396-b36fb3e5c779"},"vehicle_type_id":"4","last_reported":1731938957,"current_range_meters":30800,"station_id":"ce4bgl92rcd13ifvqbq0","pricing_plan_id":"cebpf4jnsgd1na2vs0mg"},{"bike_id":"8058c8cd-ade9-41bc-9113-45d654642975","system_id":"levelo_inurba_marseille","lat":43.23955,"lon":5.36636,"is_reserved":false,"is_disabled":false,"rental_uris":{"android":"levelo://app?vid=8058c8cd-ade9-41bc-9113-45d654642975","ios":"levelo://app?vid=8058c8cd-ade9-41bc-9113-45d654642975"},"vehicle_type_id":"4","last_reported":1731938957,"current_range_meters":35200,"station_id":"ce4bhi12rcd13ifvqfp0","pricing_plan_id":"cebpf4jnsgd1na2vs0mg"},{"bike_id":"bdadc3b0-cd9b-4292-8488-1c834c12b9bd","system_id":"levelo_inurba_marseille","lat":43.29624,"lon":5.37149,"is_reserved":false,"is_disabled":false,"rental_uris":{"android":"levelo://app?vid=bdadc3b0-cd9b-4292-8488-1c834c12b9bd","ios":"levelo://app?vid=bdadc3b0-cd9b-4292-8488-1c834c12b9bd"},"vehicle_type_id":"4","last_reported":1731938957,"current_range_meters":36800,"station_id":"ce4bgnh2rcd13ifvqc0g","pricing_plan_id":"cebpf4jnsgd1na2vs0mg"},{"bike_id":"b5bd30ad-5f4a-4214-a9b1-f77a3c87df32","system_id":"levelo_inurba_marseille","lat":43.2979,"lon":5.38098,"is_reserved":false,"is_disabled":false,"rental_uris":{"android":"levelo://app?vid=b5bd30ad-5f4a-4214-a9b1-f77a3c87df32","ios":"levelo://app?vid=b5bd30ad-5f4a-4214-a9b1-f77a3c87df32"},"vehicle_type_id":"4","last_reported":1731938957,"current_range_meters":28400,"station_id":"ce4bgip2rcd13ifvqbb0","pricing_plan_id":"cebpf4jnsgd1na2vs0mg"},{"bike_id":"0270cb2e-1a0d-4631-8989-41e122753d72","system_id":"levelo_inurba_marseille","lat":43.29574,"lon":5.37518,"is_reserved":false,"is_disabled":false,"rental_uris":{"android":"levelo://app?vid=0270cb2e-1a0d-4631-8989-41e122753d72","ios":"levelo://app?vid=0270cb2e-1a0d-4631-8989-41e122753d72"},"vehicle_type_id":"4","last_reported":1731938957,"current_range_meters":7200,"station_id":"ce4bgh92rcd13ifvqb50","pricing_plan_id":"cebpf4jnsgd1na2vs0mg"},{"bike_id":"68c1aae3-683a-47ff-b0bc-b70140aa7745","system_id":"levelo_inurba_marseille","lat":43.266803,"lon":5.402799,"is_reserved":false,"is_disabled":false,"rental_uris":{"android":"levelo://app?vid=68c1aae3-683a-47ff-b0bc-b70140aa7745","ios":"levelo://app?vid=68c1aae3-683a-47ff-b0bc-b70140aa7745"},"vehicle_type_id":"4","last_reported":1731938957,"current_range_meters":19200,"station_id":"ce4bhkp2rcd13ifvqgd0","pricing_plan_id":"cebpf4jnsgd1na2vs0mg"},{"bike_id":"ce249102-5132-45ee-9b83-fc2ea0c15102","system_id":"levelo_inurba_marseille","lat":43.25871,"lon":5.39893,"is_reserved":false,"is_disabled":false,"rental_uris":{"android":"levelo://app?vid=ce249102-5132-45ee-9b83-fc2ea0c15102","ios":"levelo://app?vid=ce249102-5132-45ee-9b83-fc2ea0c15102"},"vehicle_type_id":"4","last_reported":1731938957,"current_range_meters":38800,"station_id":"ce4bhl92rcd13ifvqghg","pricing_plan_id":"cebpf4jnsgd1na2vs0mg"},{"bike_id":"94f27bd2-53d7-4501-a7e0-f59cc75bd6d4","system_id":"levelo_inurba_marseille","lat":43.27983,"lon":5.41649,"is_reserved":false,"is_disabled":false,"rental_uris":{"android":"levelo://app?vid=94f27bd2-53d7-4501-a7e0-f59cc75bd6d4","ios":"levelo://app?vid=94f27bd2-53d7-4501-a7e0-f59cc75bd6d4"},"vehicle_type_id":"4","last_reported":1731938957,"current_range_meters":36800,"station_id":"ce4bho12rcd13ifvqh1g","pricing_plan_id":"cebpf4jnsgd1na2vs0mg"},{"bike_id":"6d757fef-4f26-43f9-ac2c-ffab39bf7dae","system_id":"levelo_inurba_marseille","lat":43.32249,"lon":5.36901,"is_reserved":false,"is_disabled":false,"rental_uris":{"android":"levelo://app?vid=6d757fef-4f26-43f9-ac2c-ffab39bf7dae","ios":"levelo://app?vid=6d757fef-4f26-43f9-ac2c-ffab39bf7dae"},"vehicle_type_id":"4","last_reported":1731938957,"current_range_meters":10800,"station_id":"","pricing_plan_id":"cebpf4jnsgd1na2vs0mg"},{"bike_id":"3cd69cd0-05e8-4c5e-ab3e-193df1d85848","system_id":"levelo_inurba_marseille","lat":43.24998,"lon":5.38928,"is_reserved":false,"is_disabled":false,"rental_uris":{"android":"levelo://app?vid=3cd69cd0-05e8-4c5e-ab3e-193df1d85848","ios":"levelo://app?vid=3cd69cd0-05e8-4c5e-ab3e-193df1d85848"},"vehicle_type_id":"4","last_reported":1731938957,"current_range_meters":17200,"station_id":"ce4bhgp2rcd13ifvqfd0","pricing_plan_id":"cebpf4jnsgd1na2vs0mg"},{"bike_id":"d21d17e7-2f48-45e6-a424-c15abbaa2ab7","system_id":"levelo_inurba_marseille","lat":43.24543,"lon":5.39523,"is_reserved":false,"is_disabled":false,"rental_uris":{"android":"levelo://app?vid=d21d17e7-2f48-45e6-a424-c15abbaa2ab7","ios":"levelo://app?vid=d21d17e7-2f48-45e6-a424-c15abbaa2ab7"},"vehicle_type_id":"4","last_reported":1731938957,"current_range_meters":22000,"station_id":"ce4bhlp2rcd13ifvqgjg","pricing_plan_id":"cebpf4jnsgd1na2vs0mg"},{"bike_id":"eb0c467f-8f8d-4a80-aec4-472cf60b053f","system_id":"levelo_inurba_marseille","lat":43.29259,"lon":5.38451,"is_reserved":false,"is_disabled":false,"rental_uris":{"android":"levelo://app?vid=eb0c467f-8f8d-4a80-aec4-472cf60b053f","ios":"levelo://app?vid=eb0c467f-8f8d-4a80-aec4-472cf60b053f"},"vehicle_type_id":"4","last_reported":1731938957,"current_range_meters":24400,"station_id":"ce4bh692rcd13ifvqea0","pricing_plan_id":"cebpf4jnsgd1na2vs0mg"},{"bike_id":"54619b09-c653-478d-92c7-269098531e24","system_id":"levelo_inurba_marseille","lat":43.30921,"lon":5.40157,"is_reserved":false,"is_disabled":false,"rental_uris":{"android":"levelo://app?vid=54619b09-c653-478d-92c7-269098531e24","ios":"levelo://app?vid=54619b09-c653-478d-92c7-269098531e24"},"vehicle_type_id":"4","last_reported":1731938957,"current_range_meters":12000,"station_id":"ce4bgvp2rcd13ifvqct0","pricing_plan_id":"cebpf4jnsgd1na2vs0mg"},{"bike_id":"fdca06ae-ab02-40c7-b198-309af33dd329","system_id":"levelo_inurba_marseille","lat":43.26492,"lon":5.39539,"is_reserved":false,"is_disabled":false,"rental_uris":{"android":"levelo://app?vid=fdca06ae-ab02-40c7-b198-309af33dd329","ios":"levelo://app?vid=fdca06ae-ab02-40c7-b198-309af33dd329"},"vehicle_type_id":"4","last_reported":1731938957,"current_range_meters":20000,"station_id":"ce4bhi12rcd13ifvqfq0","pricing_plan_id":"cebpf4jnsgd1na2vs0mg"},{"bike_id":"f3226602-1e37-4891-970a-ea68caff7bd9","system_id":"levelo_inurba_marseille","lat":43.27048,"lon":5.40268,"is_reserved":false,"is_disabled":false,"rental_uris":{"android":"levelo://app?vid=f3226602-1e37-4891-970a-ea68caff7bd9","ios":"levelo://app?vid=f3226602-1e37-4891-970a-ea68caff7bd9"},"vehicle_type_id":"4","last_reported":1731938957,"current_range_meters":28400,"station_id":"ce4bhk92rcd13ifvqgc0","pricing_plan_id":"cebpf4jnsgd1na2vs0mg"},{"bike_id":"bb1913e1-009a-4a58-bc51-7156383d6a0c","system_id":"levelo_inurba_marseille","lat":43.28076,"lon":5.39659,"is_reserved":false,"is_disabled":false,"rental_uris":{"android":"levelo://app?vid=bb1913e1-009a-4a58-bc51-7156383d6a0c","ios":"levelo://app?vid=bb1913e1-009a-4a58-bc51-7156383d6a0c"},"vehicle_type_id":"4","last_reported":1731938957,"current_range_meters":30000,"station_id":"ce4bho12rcd13ifvqh2g","pricing_plan_id":"cebpf4jnsgd1na2vs0mg"},{"bike_id":"9f92d049-3a1a-4141-89b2-25baffceb1ba","system_id":"levelo_inurba_marseille","lat":43.2894,"lon":5.364,"is_reserved":false,"is_disabled":false,"rental_uris":{"android":"levelo://app?vid=9f92d049-3a1a-4141-89b2-25baffceb1ba","ios":"levelo://app?vid=9f92d049-3a1a-4141-89b2-25baffceb1ba"},"vehicle_type_id":"4","last_reported":1731938957,"current_range_meters":7200,"station_id":"ce4bhc92rcd13ifvqetg","pricing_plan_id":"cebpf4jnsgd1na2vs0mg"},{"bike_id":"086334ca-d347-4d6d-aa83-ac6bbdc8e4b2","system_id":"levelo_inurba_marseille","lat":43.30208,"lon":5.39469,"is_reserved":false,"is_disabled":false,"rental_uris":{"android":"levelo://app?vid=086334ca-d347-4d6d-aa83-ac6bbdc8e4b2","ios":"levelo://app?vid=086334ca-d347-4d6d-aa83-ac6bbdc8e4b2"},"vehicle_type_id":"4","last_reported":1731938957,"current_range_meters":12000,"station_id":"ce4bh0p2rcd13ifvqd70","pricing_plan_id":"cebpf4jnsgd1na2vs0mg"},{"bike_id":"6b8c4514-cb85-4a2a-9925-6fb4153b9632","system_id":"levelo_inurba_marseille","lat":43.29553,"lon":5.42277,"is_reserved":false,"is_disabled":false,"rental_uris":{"android":"levelo://app?vid=6b8c4514-cb85-4a2a-9925-6fb4153b9632","ios":"levelo://app?vid=6b8c4514-cb85-4a2a-9925-6fb4153b9632"},"vehicle_type_id":"4","last_reported":1731938957,"current_range_meters":38000,"station_id":"ce4bhph2rcd13ifvqhdg","pricing_plan_id":"cebpf4jnsgd1na2vs0mg"},{"bike_id":"d0d4f36c-9e8b-45d4-bb3b-1be90e067aea","system_id":"levelo_inurba_marseille","lat":43.29779,"lon":5.39331,"is_reserved":false,"is_disabled":false,"rental_uris":{"android":"levelo://app?vid=d0d4f36c-9e8b-45d4-bb3b-1be90e067aea","ios":"levelo://app?vid=d0d4f36c-9e8b-45d4-bb3b-1be90e067aea"},"vehicle_type_id":"4","last_reported":1731938957,"current_range_meters":33600,"station_id":"chh1huq6cuj3fo74tm60","pricing_plan_id":"cebpf4jnsgd1na2vs0mg"},{"bike_id":"e0f5da7b-9e8e-4d73-a3fe-b92673f9289c","system_id":"levelo_inurba_marseille","lat":43.31488,"lon":5.373102,"is_reserved":false,"is_disabled":false,"rental_uris":{"android":"levelo://app?vid=e0f5da7b-9e8e-4d73-a3fe-b92673f9289c","ios":"levelo://app?vid=e0f5da7b-9e8e-4d73-a3fe-b92673f9289c"},"vehicle_type_id":"4","last_reported":1731938957,"current_range_meters":20000,"station_id":"ce4bgt12rcd13ifvqcd0","pricing_plan_id":"cebpf4jnsgd1na2vs0mg"},{"bike_id":"5796d193-b47f-4795-ab13-d7441ffac838","system_id":"levelo_inurba_marseille","lat":43.27624,"lon":5.36111,"is_reserved":false,"is_disabled":false,"rental_uris":{"android":"levelo://app?vid=5796d193-b47f-4795-ab13-d7441ffac838","ios":"levelo://app?vid=5796d193-b47f-4795-ab13-d7441ffac838"},"vehicle_type_id":"4","last_reported":1731938957,"current_range_meters":33600,"station_id":"ce4bgj92rcd13ifvqbe0","pricing_plan_id":"cebpf4jnsgd1na2vs0mg"},{"bike_id":"061a6493-3c54-46e6-a744-ae1cac9f7319","system_id":"levelo_inurba_marseille","lat":43.284637,"lon":5.358726,"is_reserved":false,"is_disabled":false,"rental_uris":{"android":"levelo://app?vid=061a6493-3c54-46e6-a744-ae1cac9f7319","ios":"levelo://app?vid=061a6493-3c54-46e6-a744-ae1cac9f7319"},"vehicle_type_id":"4","last_reported":1731938957,"current_range_meters":14800,"station_id":"ce4bhah2rcd13ifvqei0","pricing_plan_id":"cebpf4jnsgd1na2vs0mg"},{"bike_id":"1648b433-26ee-4cd6-8cfd-b0f40190cfa5","system_id":"levelo_inurba_marseille","lat":43.24182,"lon":5.39724,"is_reserved":false,"is_disabled":false,"rental_uris":{"android":"levelo://app?vid=1648b433-26ee-4cd6-8cfd-b0f40190cfa5","ios":"levelo://app?vid=1648b433-26ee-4cd6-8cfd-b0f40190cfa5"},"vehicle_type_id":"4","last_reported":1731938957,"current_range_meters":27200,"station_id":"ce4bhn12rcd13ifvqgpg","pricing_plan_id":"cebpf4jnsgd1na2vs0mg"},{"bike_id":"0012cbe6-d201-4833-b200-976c7b58a4cb","system_id":"levelo_inurba_marseille","lat":43.26212,"lon":5.37447,"is_reserved":false,"is_disabled":false,"rental_uris":{"android":"levelo://app?vid=0012cbe6-d201-4833-b200-976c7b58a4cb","ios":"levelo://app?vid=0012cbe6-d201-4833-b200-976c7b58a4cb"},"vehicle_type_id":"4","last_reported":1731938957,"current_range_meters":38800,"station_id":"ce4bhgp2rcd13ifvqfc0","pricing_plan_id":"cebpf4jnsgd1na2vs0mg"},{"bike_id":"a2dd6b57-a547-45a6-b610-a6c3dfa05e2c","system_id":"levelo_inurba_marseille","lat":43.30145,"lon":5.38092,"is_reserved":false,"is_disabled":false,"rental_uris":{"android":"levelo://app?vid=a2dd6b57-a547-45a6-b610-a6c3dfa05e2c","ios":"levelo://app?vid=a2dd6b57-a547-45a6-b610-a6c3dfa05e2c"},"vehicle_type_id":"4","last_reported":1731938957,"current_range_meters":2000,"station_id":"ce4bgjp2rcd13ifvqbh0","pricing_plan_id":"cebpf4jnsgd1na2vs0mg"},{"bike_id":"0dcbbb91-66ab-43f8-a4ca-a317b192d3ae","system_id":"levelo_inurba_marseille","lat":43.27069,"lon":5.42282,"is_reserved":false,"is_disabled":false,"rental_uris":{"android":"levelo://app?vid=0dcbbb91-66ab-43f8-a4ca-a317b192d3ae","ios":"levelo://app?vid=0dcbbb91-66ab-43f8-a4ca-a317b192d3ae"},"vehicle_type_id":"4","last_reported":1731938957,"current_range_meters":18800,"station_id":"ce4bhk92rcd13ifvqgb0","pricing_plan_id":"cebpf4jnsgd1na2vs0mg"},{"bike_id":"cc911dbc-2c04-4373-b6ec-a968894c44ba","system_id":"levelo_inurba_marseille","lat":43.299311,"lon":5.36535,"is_reserved":false,"is_disabled":false,"rental_uris":{"android":"levelo://app?vid=cc911dbc-2c04-4373-b6ec-a968894c44ba","ios":"levelo://app?vid=cc911dbc-2c04-4373-b6ec-a968894c44ba"},"vehicle_type_id":"4","last_reported":1731938957,"current_range_meters":30400,"station_id":"ce4bgm92rcd13ifvqbr0","pricing_plan_id":"cebpf4jnsgd1na2vs0mg"},{"bike_id":"70953ba8-c1d0-4850-95c1-592e9cf5db66","system_id":"levelo_inurba_marseille","lat":43.30951,"lon":5.39046,"is_reserved":false,"is_disabled":false,"rental_uris":{"android":"levelo://app?vid=70953ba8-c1d0-4850-95c1-592e9cf5db66","ios":"levelo://app?vid=70953ba8-c1d0-4850-95c1-592e9cf5db66"},"vehicle_type_id":"4","last_reported":1731938957,"current_range_meters":30400,"station_id":"ce4bgup2rcd13ifvqco0","pricing_plan_id":"cebpf4jnsgd1na2vs0mg"},{"bike_id":"fc24aac1-6d84-4a21-9982-e3e30c297a56","system_id":"levelo_inurba_marseille","lat":43.23194,"lon":5.3555,"is_reserved":false,"is_disabled":false,"rental_uris":{"android":"levelo://app?vid=fc24aac1-6d84-4a21-9982-e3e30c297a56","ios":"levelo://app?vid=fc24aac1-6d84-4a21-9982-e3e30c297a56"},"vehicle_type_id":"4","last_reported":1731938957,"current_range_meters":18800,"station_id":"ce4bhu92rcd13ifvqi70","pricing_plan_id":"cebpf4jnsgd1na2vs0mg"},{"bike_id":"18cdf0b1-0772-4340-a682-1c734cd9d7dc","system_id":"levelo_inurba_marseille","lat":43.27429,"lon":5.39418,"is_reserved":false,"is_disabled":false,"rental_uris":{"android":"levelo://app?vid=18cdf0b1-0772-4340-a682-1c734cd9d7dc","ios":"levelo://app?vid=18cdf0b1-0772-4340-a682-1c734cd9d7dc"},"vehicle_type_id":"4","last_reported":1731938957,"current_range_meters":10000,"station_id":"ce4bhdp2rcd13ifvqf20","pricing_plan_id":"cebpf4jnsgd1na2vs0mg"},{"bike_id":"5657292d-cbb4-439c-81c5-bb02027734b1","system_id":"levelo_inurba_marseille","lat":43.2767,"lon":5.38881,"is_reserved":false,"is_disabled":false,"rental_uris":{"android":"levelo://app?vid=5657292d-cbb4-439c-81c5-bb02027734b1","ios":"levelo://app?vid=5657292d-cbb4-439c-81c5-bb02027734b1"},"vehicle_type_id":"4","last_reported":1731938957,"current_range_meters":39200,"station_id":"ce4bhi12rcd13ifvqfo0","pricing_plan_id":"cebpf4jnsgd1na2vs0mg"},{"bike_id":"bcfae24b-e804-4d53-b9bc-0a4b45e72e6e","system_id":"levelo_inurba_marseille","lat":43.28698,"lon":5.37927,"is_reserved":false,"is_disabled":false,"rental_uris":{"android":"levelo://app?vid=bcfae24b-e804-4d53-b9bc-0a4b45e72e6e","ios":"levelo://app?vid=bcfae24b-e804-4d53-b9bc-0a4b45e72e6e"},"vehicle_type_id":"4","last_reported":1731938957,"current_range_meters":14800,"station_id":"ce4bh9p2rcd13ifvqec0","pricing_plan_id":"cebpf4jnsgd1na2vs0mg"},{"bike_id":"e75e2119-d837-403f-9abd-1e303afada11","system_id":"levelo_inurba_marseille","lat":43.2396,"lon":5.36631,"is_reserved":false,"is_disabled":false,"rental_uris":{"android":"levelo://app?vid=e75e2119-d837-403f-9abd-1e303afada11","ios":"levelo://app?vid=e75e2119-d837-403f-9abd-1e303afada11"},"vehicle_type_id":"4","last_reported":1731938957,"current_range_meters":38800,"station_id":"ce4bhi12rcd13ifvqfp0","pricing_plan_id":"cebpf4jnsgd1na2vs0mg"},{"bike_id":"d0feaae7-c4ff-48fb-bc6c-cfcb3c4f4b95","system_id":"levelo_inurba_marseille","lat":43.30425,"lon":5.39752,"is_reserved":false,"is_disabled":false,"rental_uris":{"android":"levelo://app?vid=d0feaae7-c4ff-48fb-bc6c-cfcb3c4f4b95","ios":"levelo://app?vid=d0feaae7-c4ff-48fb-bc6c-cfcb3c4f4b95"},"vehicle_type_id":"4","last_reported":1731938957,"current_range_meters":36800,"station_id":"ce4bh092rcd13ifvqd20","pricing_plan_id":"cebpf4jnsgd1na2vs0mg"},{"bike_id":"9c577393-f35c-4b59-82b1-f7c1bb6a1b8f","system_id":"levelo_inurba_marseille","lat":43.24559,"lon":5.3951,"is_reserved":false,"is_disabled":false,"rental_uris":{"android":"levelo://app?vid=9c577393-f35c-4b59-82b1-f7c1bb6a1b8f","ios":"levelo://app?vid=9c577393-f35c-4b59-82b1-f7c1bb6a1b8f"},"vehicle_type_id":"4","last_reported":1731938957,"current_range_meters":16400,"station_id":"ce4bhlp2rcd13ifvqgjg","pricing_plan_id":"cebpf4jnsgd1na2vs0mg"},{"bike_id":"81ef1c69-b66e-42d4-8c0f-cd41b6796b35","system_id":"levelo_inurba_marseille","lat":43.29918,"lon":5.3747,"is_reserved":false,"is_disabled":false,"rental_uris":{"android":"levelo://app?vid=81ef1c69-b66e-42d4-8c0f-cd41b6796b35","ios":"levelo://app?vid=81ef1c69-b66e-42d4-8c0f-cd41b6796b35"},"vehicle_type_id":"4","last_reported":1731938957,"current_range_meters":30000,"station_id":"ce4bgjh2rcd13ifvqbg0","pricing_plan_id":"cebpf4jnsgd1na2vs0mg"},{"bike_id":"000bbcc5-291b-4365-9f84-9ac6e1b6e584","system_id":"levelo_inurba_marseille","lat":43.27998,"lon":5.4002,"is_reserved":false,"is_disabled":false,"rental_uris":{"android":"levelo://app?vid=000bbcc5-291b-4365-9f84-9ac6e1b6e584","ios":"levelo://app?vid=000bbcc5-291b-4365-9f84-9ac6e1b6e584"},"vehicle_type_id":"4","last_reported":1731938957,"current_range_meters":34000,"station_id":"ce4bho92rcd13ifvqh4g","pricing_plan_id":"cebpf4jnsgd1na2vs0mg"},{"bike_id":"677756f5-a559-46c8-ae90-03f718d2b9e3","system_id":"levelo_inurba_marseille","lat":43.30137,"lon":5.37427,"is_reserved":false,"is_disabled":false,"rental_uris":{"android":"levelo://app?vid=677756f5-a559-46c8-ae90-03f718d2b9e3","ios":"levelo://app?vid=677756f5-a559-46c8-ae90-03f718d2b9e3"},"vehicle_type_id":"4","last_reported":1731938957,"current_range_meters":28800,"station_id":"","pricing_plan_id":"cebpf4jnsgd1na2vs0mg"},{"bike_id":"f475b1f6-1516-4c27-b348-66ec714aba60","system_id":"levelo_inurba_marseille","lat":43.28464,"lon":5.38416,"is_reserved":false,"is_disabled":false,"rental_uris":{"android":"levelo://app?vid=f475b1f6-1516-4c27-b348-66ec714aba60","ios":"levelo://app?vid=f475b1f6-1516-4c27-b348-66ec714aba60"},"vehicle_type_id":"4","last_reported":1731938957,"current_range_meters":4400,"station_id":"ce4bh512rcd13ifvqe3g","pricing_plan_id":"cebpf4jnsgd1na2vs0mg"},{"bike_id":"1204551e-1731-45fc-ad6e-69f86735d437","system_id":"levelo_inurba_marseille","lat":43.25821,"lon":5.39441,"is_reserved":false,"is_disabled":false,"rental_uris":{"android":"levelo://app?vid=1204551e-1731-45fc-ad6e-69f86735d437","ios":"levelo://app?vid=1204551e-1731-45fc-ad6e-69f86735d437"},"vehicle_type_id":"4","last_reported":1731938957,"current_range_meters":20000,"station_id":"ce4bhip2rcd13ifvqft0","pricing_plan_id":"cebpf4jnsgd1na2vs0mg"},{"bike_id":"475290c4-27aa-445d-baab-c53c24b225ac","system_id":"levelo_inurba_marseille","lat":43.24548,"lon":5.39524,"is_reserved":false,"is_disabled":false,"rental_uris":{"android":"levelo://app?vid=475290c4-27aa-445d-baab-c53c24b225ac","ios":"levelo://app?vid=475290c4-27aa-445d-baab-c53c24b225ac"},"vehicle_type_id":"4","last_reported":1731938957,"current_range_meters":38800,"station_id":"ce4bhlp2rcd13ifvqgjg","pricing_plan_id":"cebpf4jnsgd1na2vs0mg"},{"bike_id":"48a9996f-d95f-47d6-b8b6-1a3091a08b32","system_id":"levelo_inurba_marseille","lat":43.27676,"lon":5.38884,"is_reserved":false,"is_disabled":false,"rental_uris":{"android":"levelo://app?vid=48a9996f-d95f-47d6-b8b6-1a3091a08b32","ios":"levelo://app?vid=48a9996f-d95f-47d6-b8b6-1a3091a08b32"},"vehicle_type_id":"4","last_reported":1731938957,"current_range_meters":36800,"station_id":"ce4bhi12rcd13ifvqfo0","pricing_plan_id":"cebpf4jnsgd1na2vs0mg"},{"bike_id":"dd8568b8-cf0e-4818-bc61-607ef53ed22e","system_id":"levelo_inurba_marseille","lat":43.31175,"lon":5.38715,"is_reserved":false,"is_disabled":false,"rental_uris":{"android":"levelo://app?vid=dd8568b8-cf0e-4818-bc61-607ef53ed22e","ios":"levelo://app?vid=dd8568b8-cf0e-4818-bc61-607ef53ed22e"},"vehicle_type_id":"4","last_reported":1731938957,"current_range_meters":29600,"station_id":"ce4bgv12rcd13ifvqcp0","pricing_plan_id":"cebpf4jnsgd1na2vs0mg"},{"bike_id":"f2cf744a-362f-4ec0-a942-9b72a2ded9a5","system_id":"levelo_inurba_marseille","lat":43.337444,"lon":5.374475,"is_reserved":false,"is_disabled":false,"rental_uris":{"android":"levelo://app?vid=f2cf744a-362f-4ec0-a942-9b72a2ded9a5","ios":"levelo://app?vid=f2cf744a-362f-4ec0-a942-9b72a2ded9a5"},"vehicle_type_id":"4","last_reported":1731938957,"current_range_meters":29600,"station_id":"","pricing_plan_id":"cebpf4jnsgd1na2vs0mg"},{"bike_id":"d2518d23-ec3f-4eda-ba5b-552c63eb3893","system_id":"levelo_inurba_marseille","lat":43.27491,"lon":5.42456,"is_reserved":false,"is_disabled":false,"rental_uris":{"android":"levelo://app?vid=d2518d23-ec3f-4eda-ba5b-552c63eb3893","ios":"levelo://app?vid=d2518d23-ec3f-4eda-ba5b-552c63eb3893"},"vehicle_type_id":"4","last_reported":1731938957,"current_range_meters":24000,"station_id":"ce4bhn92rcd13ifvqgrg","pricing_plan_id":"cebpf4jnsgd1na2vs0mg"},{"bike_id":"6f41a04c-b36d-4229-bd32-b215b478999f","system_id":"levelo_inurba_marseille","lat":43.23178,"lon":5.39988,"is_reserved":false,"is_disabled":false,"rental_uris":{"android":"levelo://app?vid=6f41a04c-b36d-4229-bd32-b215b478999f","ios":"levelo://app?vid=6f41a04c-b36d-4229-bd32-b215b478999f"},"vehicle_type_id":"4","last_reported":1731938957,"current_range_meters":18800,"station_id":"ce4bhn12rcd13ifvqgqg","pricing_plan_id":"cebpf4jnsgd1na2vs0mg"},{"bike_id":"d5f763d8-e8cd-41e4-a7c2-40a9a1ceea83","system_id":"levelo_inurba_marseille","lat":43.30136,"lon":5.38083,"is_reserved":false,"is_disabled":false,"rental_uris":{"android":"levelo://app?vid=d5f763d8-e8cd-41e4-a7c2-40a9a1ceea83","ios":"levelo://app?vid=d5f763d8-e8cd-41e4-a7c2-40a9a1ceea83"},"vehicle_type_id":"4","last_reported":1731938957,"current_range_meters":22000,"station_id":"ce4bgjp2rcd13ifvqbh0","pricing_plan_id":"cebpf4jnsgd1na2vs0mg"},{"bike_id":"57e4cbd9-496a-46ca-92ab-a9501b32000d","system_id":"levelo_inurba_marseille","lat":43.23179,"lon":5.39991,"is_reserved":false,"is_disabled":false,"rental_uris":{"android":"levelo://app?vid=57e4cbd9-496a-46ca-92ab-a9501b32000d","ios":"levelo://app?vid=57e4cbd9-496a-46ca-92ab-a9501b32000d"},"vehicle_type_id":"4","last_reported":1731938957,"current_range_meters":39200,"station_id":"ce4bhn12rcd13ifvqgqg","pricing_plan_id":"cebpf4jnsgd1na2vs0mg"},{"bike_id":"4eff7712-a7ec-48e4-b9e1-f0c027db5128","system_id":"levelo_inurba_marseille","lat":43.27677,"lon":5.38879,"is_reserved":false,"is_disabled":false,"rental_uris":{"android":"levelo://app?vid=4eff7712-a7ec-48e4-b9e1-f0c027db5128","ios":"levelo://app?vid=4eff7712-a7ec-48e4-b9e1-f0c027db5128"},"vehicle_type_id":"4","last_reported":1731938957,"current_range_meters":24000,"station_id":"ce4bhi12rcd13ifvqfo0","pricing_plan_id":"cebpf4jnsgd1na2vs0mg"},{"bike_id":"a6b8c285-acc9-4039-9531-1aae39136a33","system_id":"levelo_inurba_marseille","lat":43.312042,"lon":5.367348,"is_reserved":false,"is_disabled":false,"rental_uris":{"android":"levelo://app?vid=a6b8c285-acc9-4039-9531-1aae39136a33","ios":"levelo://app?vid=a6b8c285-acc9-4039-9531-1aae39136a33"},"vehicle_type_id":"4","last_reported":1731938957,"current_range_meters":5600,"station_id":"","pricing_plan_id":"cebpf4jnsgd1na2vs0mg"},{"bike_id":"11f81d72-c8e7-4ef6-b62d-17f40c3efe62","system_id":"levelo_inurba_marseille","lat":43.32103,"lon":5.36786,"is_reserved":false,"is_disabled":false,"rental_uris":{"android":"levelo://app?vid=11f81d72-c8e7-4ef6-b62d-17f40c3efe62","ios":"levelo://app?vid=11f81d72-c8e7-4ef6-b62d-17f40c3efe62"},"vehicle_type_id":"4","last_reported":1731938957,"current_range_meters":35600,"station_id":"ce4bhrh2rcd13ifvqhug","pricing_plan_id":"cebpf4jnsgd1na2vs0mg"},{"bike_id":"34b9f970-27e7-43cb-bb06-ac9397ebf150","system_id":"levelo_inurba_marseille","lat":43.24083,"lon":5.37741,"is_reserved":false,"is_disabled":false,"rental_uris":{"android":"levelo://app?vid=34b9f970-27e7-43cb-bb06-ac9397ebf150","ios":"levelo://app?vid=34b9f970-27e7-43cb-bb06-ac9397ebf150"},"vehicle_type_id":"4","last_reported":1731938957,"current_range_meters":17600,"station_id":"ce4bhnp2rcd13ifvqgvg","pricing_plan_id":"cebpf4jnsgd1na2vs0mg"},{"bike_id":"39208c10-828e-4392-9aa2-019dd2bc97c3","system_id":"levelo_inurba_marseille","lat":43.27991,"lon":5.40032,"is_reserved":false,"is_disabled":false,"rental_uris":{"android":"levelo://app?vid=39208c10-828e-4392-9aa2-019dd2bc97c3","ios":"levelo://app?vid=39208c10-828e-4392-9aa2-019dd2bc97c3"},"vehicle_type_id":"4","last_reported":1731938957,"current_range_meters":24800,"station_id":"ce4bho92rcd13ifvqh4g","pricing_plan_id":"cebpf4jnsgd1na2vs0mg"},{"bike_id":"619db373-f1f0-43f3-9355-6e3d6f677c5d","system_id":"levelo_inurba_marseille","lat":43.27492,"lon":5.42459,"is_reserved":false,"is_disabled":false,"rental_uris":{"android":"levelo://app?vid=619db373-f1f0-43f3-9355-6e3d6f677c5d","ios":"levelo://app?vid=619db373-f1f0-43f3-9355-6e3d6f677c5d"},"vehicle_type_id":"4","last_reported":1731938957,"current_range_meters":34000,"station_id":"ce4bhn92rcd13ifvqgrg","pricing_plan_id":"cebpf4jnsgd1na2vs0mg"},{"bike_id":"ce541349-1396-4b74-9797-2664b5c1def3","system_id":"levelo_inurba_marseille","lat":43.29018,"lon":5.38629,"is_reserved":false,"is_disabled":false,"rental_uris":{"android":"levelo://app?vid=ce541349-1396-4b74-9797-2664b5c1def3","ios":"levelo://app?vid=ce541349-1396-4b74-9797-2664b5c1def3"},"vehicle_type_id":"4","last_reported":1731938957,"current_range_meters":26000,"station_id":"ce4bh612rcd13ifvqe6g","pricing_plan_id":"cebpf4jnsgd1na2vs0mg"},{"bike_id":"9af42060-b48b-40dd-b16f-1988f274a433","system_id":"levelo_inurba_marseille","lat":43.29785,"lon":5.38091,"is_reserved":false,"is_disabled":false,"rental_uris":{"android":"levelo://app?vid=9af42060-b48b-40dd-b16f-1988f274a433","ios":"levelo://app?vid=9af42060-b48b-40dd-b16f-1988f274a433"},"vehicle_type_id":"4","last_reported":1731938957,"current_range_meters":38000,"station_id":"ce4bgip2rcd13ifvqbb0","pricing_plan_id":"cebpf4jnsgd1na2vs0mg"},{"bike_id":"034fdf6f-4f78-44c1-9981-8a8407a03a87","system_id":"levelo_inurba_marseille","lat":43.280308,"lon":5.369584,"is_reserved":false,"is_disabled":false,"rental_uris":{"android":"levelo://app?vid=034fdf6f-4f78-44c1-9981-8a8407a03a87","ios":"levelo://app?vid=034fdf6f-4f78-44c1-9981-8a8407a03a87"},"vehicle_type_id":"4","last_reported":1731938957,"current_range_meters":38800,"station_id":"ce4bha12rcd13ifvqef0","pricing_plan_id":"cebpf4jnsgd1na2vs0mg"},{"bike_id":"dea47267-ead3-4a38-8e51-2b910e9fa9dc","system_id":"levelo_inurba_marseille","lat":43.26489,"lon":5.39556,"is_reserved":false,"is_disabled":false,"rental_uris":{"android":"levelo://app?vid=dea47267-ead3-4a38-8e51-2b910e9fa9dc","ios":"levelo://app?vid=dea47267-ead3-4a38-8e51-2b910e9fa9dc"},"vehicle_type_id":"4","last_reported":1731938957,"current_range_meters":22400,"station_id":"ce4bhi12rcd13ifvqfq0","pricing_plan_id":"cebpf4jnsgd1na2vs0mg"},{"bike_id":"30623e0d-666e-459c-8ee2-dd2be51ba16a","system_id":"levelo_inurba_marseille","lat":43.27992,"lon":5.40021,"is_reserved":false,"is_disabled":false,"rental_uris":{"android":"levelo://app?vid=30623e0d-666e-459c-8ee2-dd2be51ba16a","ios":"levelo://app?vid=30623e0d-666e-459c-8ee2-dd2be51ba16a"},"vehicle_type_id":"4","last_reported":1731938957,"current_range_meters":28800,"station_id":"ce4bho92rcd13ifvqh4g","pricing_plan_id":"cebpf4jnsgd1na2vs0mg"},{"bike_id":"2c23006b-9ddb-466d-a1a9-568a7492296a","system_id":"levelo_inurba_marseille","lat":43.24388,"lon":5.37061,"is_reserved":false,"is_disabled":false,"rental_uris":{"android":"levelo://app?vid=2c23006b-9ddb-466d-a1a9-568a7492296a","ios":"levelo://app?vid=2c23006b-9ddb-466d-a1a9-568a7492296a"},"vehicle_type_id":"4","last_reported":1731938957,"current_range_meters":5600,"station_id":"ce4bhhh2rcd13ifvqfk0","pricing_plan_id":"cebpf4jnsgd1na2vs0mg"},{"bike_id":"72f62598-1a11-49af-8685-276b8b1b520f","system_id":"levelo_inurba_marseille","lat":43.30942,"lon":5.39046,"is_reserved":false,"is_disabled":false,"rental_uris":{"android":"levelo://app?vid=72f62598-1a11-49af-8685-276b8b1b520f","ios":"levelo://app?vid=72f62598-1a11-49af-8685-276b8b1b520f"},"vehicle_type_id":"4","last_reported":1731938957,"current_range_meters":27600,"station_id":"ce4bgup2rcd13ifvqco0","pricing_plan_id":"cebpf4jnsgd1na2vs0mg"},{"bike_id":"195831d8-8af8-48df-a502-e3976f14bb4b","system_id":"levelo_inurba_marseille","lat":43.27415,"lon":5.39416,"is_reserved":false,"is_disabled":false,"rental_uris":{"android":"levelo://app?vid=195831d8-8af8-48df-a502-e3976f14bb4b","ios":"levelo://app?vid=195831d8-8af8-48df-a502-e3976f14bb4b"},"vehicle_type_id":"4","last_reported":1731938957,"current_range_meters":26800,"station_id":"ce4bhdp2rcd13ifvqf20","pricing_plan_id":"cebpf4jnsgd1na2vs0mg"},{"bike_id":"3e9e2261-f4da-4512-bb13-0ece90364f08","system_id":"levelo_inurba_marseille","lat":43.26207,"lon":5.37452,"is_reserved":false,"is_disabled":false,"rental_uris":{"android":"levelo://app?vid=3e9e2261-f4da-4512-bb13-0ece90364f08","ios":"levelo://app?vid=3e9e2261-f4da-4512-bb13-0ece90364f08"},"vehicle_type_id":"4","last_reported":1731938957,"current_range_meters":23200,"station_id":"ce4bhgp2rcd13ifvqfc0","pricing_plan_id":"cebpf4jnsgd1na2vs0mg"},