{"last_updated":1729541414,"ttl":60,"version":"2.2","data":{"bikes":[{"bike_id":"ddbdcd22-9bd1-491a-aac3-aff9b5287cb0","system_id":"levelo_inurba_marseille","lat":43.23183,"lon":5.39989,"is_reserved":false,"is_disabled":false,"rental_uris":{"android":"levelo://app?vid=ddbdcd22-9bd1-491a-aac3-aff9b5287cb0","ios":"levelo://app?vid=ddbdcd22-9bd1-491a-aac3-aff9b5287cb0"},"vehicle_type_id":"4","last_reported":1729541414,"current_range_meters":3600,"station_id":"ce4bhn12rcd13ifvqgqg","pricing_plan_id":"cebpf4jnsgd1na2vs0mg"},{"bike_id":"79f4a7ed-a12f-4ecd-9744-df7d81e740b6","system_id":"levelo_inurba_marseille","lat":43.2482,"lon":5.37457,"is_reserved":false,"is_disabled":false,"rental_uris":{"android":"levelo://app?vid=79f4a7ed-a12f-4ecd-9744-df7d81e740b6","ios":"levelo://app?vid=79f4a7ed-a12f-4ecd-9744-df7d81e740b6"},"vehicle_type_id":"4","last_reported":1729541414,"current_range_meters":36800,"station_id":"ce4bhgh2rcd13ifvqfb0","pricing_plan_id":"cebpf4jnsgd1na2vs0mg"},{"bike_id":"3fd009ee-ebb0-46e8-a8da-dfa9e09b0ef4","system_id":"levelo_inurba_marseille","lat":43.30139,"lon":5.38784,"is_reserved":false,"is_disabled":false,"rental_uris":{"android":"levelo://app?vid=3fd009ee-ebb0-46e8-a8da-dfa9e09b0ef4","ios":"levelo://app?vid=3fd009ee-ebb0-46e8-a8da-dfa9e09b0ef4"},"vehicle_type_id":"4","last_reported":1729541414,"current_range_meters":38800,"station_id":"ce4bghh2rcd13ifvqb60","pricing_plan_id":"cebpf4jnsgd1na2vs0mg"},{"bike_id":"faa7e7cd-15e9-4ba1-aba2-11bbf3e08543","system_id":"levelo_inurba_marseille","lat":43.28713,"lon":5.36094,"is_reserved":false,"is_disabled":false,"rental_uris":{"android":"levelo://app?vid=faa7e7cd-15e9-4ba1-aba2-11bbf3e08543","ios":"levelo://app?vid=faa7e7cd-15e9-4ba1-aba2-11bbf3e08543"},"vehicle_type_id":"4","last_reported":1729541414,"current_range_meters":22800,"station_id":"cki0cbj6b192h4jlfktg","pricing_plan_id":"cebpf4jnsgd1na2vs0mg"},{"bike_id":"413c7d50-16b9-4f26-922e-862945ae5f5f","system_id":"levelo_inurba_marseille","lat":43.31526,"lon":5.38032,"is_reserved":false,"is_disabled":false,"rental_uris":{"android":"levelo://app?vid=413c7d50-16b9-4f26-922e-862945ae5f5f","ios":"levelo://app?vid=413c7d50-16b9-4f26-922e-862945ae5f5f"},"vehicle_type_id":"4","last_reported":1729541414,"current_range_meters":7200,"station_id":"ce4bhsp2rcd13ifvqi50","pricing_plan_id":"cebpf4jnsgd1na2vs0mg"},{"bike_id":"056124ee-b6f9-468d-94ef-5fa46e18bd36","system_id":"levelo_inurba_marseille","lat":43.33608,"lon":5.41037,"is_reserved":false,"is_disabled":false,"rental_uris":{"android":"levelo://app?vid=056124ee-b6f9-468d-94ef-5fa46e18bd36","ios":"levelo://app?vid=056124ee-b6f9-468d-94ef-5fa46e18bd36"},"vehicle_type_id":"4","last_reported":1729541414,"current_range_meters":30800,"station_id":"ce4bhqh2rcd13ifvqhmg","pricing_plan_id":"cebpf4jnsgd1na2vs0mg"},{"bike_id":"ca27c3f9-b62f-497f-8297-8104895ccd43","system_id":"levelo_inurba_marseille","lat":43.30915,"lon":5.36849,"is_reserved":false,"is_disabled":false,"rental_uris":{"android":"levelo://app?vid=ca27c3f9-b62f-497f-8297-8104895ccd43","ios":"levelo://app?vid=ca27c3f9-b62f-497f-8297-8104895ccd43"},"vehicle_type_id":"4","last_reported":1729541414,"current_range_meters":30400,"station_id":"ce4bgn92rcd13ifvqbvg","pricing_plan_id":"cebpf4jnsgd1na2vs0mg"},{"bike_id":"62820b8a-f7ba-4cf6-acba-c81209d0c550","system_id":"levelo_inurba_marseille","lat":43.2872,"lon":5.37933,"is_reserved":false,"is_disabled":false,"rental_uris":{"android":"levelo://app?vid=62820b8a-f7ba-4cf6-acba-c81209d0c550","ios":"levelo://app?vid=62820b8a-f7ba-4cf6-acba-c81209d0c550"},"vehicle_type_id":"4","last_reported":1729541414,"current_range_meters":37600,"station_id":"ce4bh9p2rcd13ifvqec0","pricing_plan_id":"cebpf4jnsgd1na2vs0mg"},{"bike_id":"e8da7035-62e8-4d17-b866-cbda054d0ece","system_id":"levelo_inurba_marseille","lat":43.25006,"lon":5.3893,"is_reserved":false,"is_disabled":false,"rental_uris":{"android":"levelo://app?vid=e8da7035-62e8-4d17-b866-cbda054d0ece","ios":"levelo://app?vid=e8da7035-62e8-4d17-b866-cbda054d0ece"},"vehicle_type_id":"4","last_reported":1729541414,"current_range_meters":18000,"station_id":"ce4bhgp2rcd13ifvqfd0","pricing_plan_id":"cebpf4jnsgd1na2vs0mg"},{"bike_id":"9b1487a2-da53-4fbd-9677-1d244e024493","system_id":"levelo_inurba_marseille","lat":43.29976,"lon":5.37179,"is_reserved":false,"is_disabled":false,"rental_uris":{"android":"levelo://app?vid=9b1487a2-da53-4fbd-9677-1d244e024493","ios":"levelo://app?vid=9b1487a2-da53-4fbd-9677-1d244e024493"},"vehicle_type_id":"4","last_reported":1729541414,"current_range_meters":38000,"station_id":"ce4bgr92rcd13ifvqc7g","pricing_plan_id":"cebpf4jnsgd1na2vs0mg"},{"bike_id":"dda2d351-1eab-421c-b87f-4111e4062a04","system_id":"levelo_inurba_marseille","lat":43.3229,"lon":5.3827,"is_reserved":false,"is_disabled":false,"rental_uris":{"android":"levelo://app?vid=dda2d351-1eab-421c-b87f-4111e4062a04","ios":"levelo://app?vid=dda2d351-1eab-421c-b87f-4111e4062a04"},"vehicle_type_id":"4","last_reported":1729541414,"current_range_meters":16400,"station_id":"ce4bhr12rcd13ifvqhqg","pricing_plan_id":"cebpf4jnsgd1na2vs0mg"},{"bike_id":"1c0f6829-14a3-4271-bcd8-99f64663c829","system_id":"levelo_inurba_marseille","lat":43.29205,"lon":5.39331,"is_reserved":false,"is_disabled":false,"rental_uris":{"android":"levelo://app?vid=1c0f6829-14a3-4271-bcd8-99f64663c829","ios":"levelo://app?vid=1c0f6829-14a3-4271-bcd8-99f64663c829"},"vehicle_type_id":"4","last_reported":1729541414,"current_range_meters":28400,"station_id":"ce4bh192rcd13ifvqdd0","pricing_plan_id":"cebpf4jnsgd1na2vs0mg"},{"bike_id":"b144b6c5-d61c-4184-a8df-bd1bc4538cf6","system_id":"levelo_inurba_marseille","lat":43.30216,"lon":5.3947,"is_reserved":false,"is_disabled":false,"rental_uris":{"android":"levelo://app?vid=b144b6c5-d61c-4184-a8df-bd1bc4538cf6","ios":"levelo://app?vid=b144b6c5-d61c-4184-a8df-bd1bc4538cf6"},"vehicle_type_id":"4","last_reported":1729541414,"current_range_meters":27200,"station_id":"ce4bh0p2rcd13ifvqd70","pricing_plan_id":"cebpf4jnsgd1na2vs0mg"},{"bike_id":"38f6b8b7-d4d9-40d0-8ab3-ab44d2d3a0d6","system_id":"levelo_inurba_marseille","lat":43.27618,"lon":5.36115,"is_reserved":false,"is_disabled":false,"rental_uris":{"android":"levelo://app?vid=38f6b8b7-d4d9-40d0-8ab3-ab44d2d3a0d6","ios":"levelo://app?vid=38f6b8b7-d4d9-40d0-8ab3-ab44d2d3a0d6"},"vehicle_type_id":"4","last_reported":1729541414,"current_range_meters":38800,"station_id":"ce4bgj92rcd13ifvqbe0","pricing_plan_id":"cebpf4jnsgd1na2vs0mg"},{"bike_id":"b43308bb-7c20-4692-b35d-b74472836822","system_id":"levelo_inurba_marseille","lat":43.30428,"lon":5.3889,"is_reserved":false,"is_disabled":false,"rental_uris":{"android":"levelo://app?vid=b43308bb-7c20-4692-b35d-b74472836822","ios":"levelo://app?vid=b43308bb-7c20-4692-b35d-b74472836822"},"vehicle_type_id":"4","last_reported":1729541414,"current_range_meters":38000,"station_id":"ce4bgk12rcd13ifvqbi0","pricing_plan_id":"cebpf4jnsgd1na2vs0mg"},{"bike_id":"eb69d266-7f9f-4bad-bf4b-cb0a701a9511","system_id":"levelo_inurba_marseille","lat":43.27939,"lon":5.41771,"is_reserved":false,"is_disabled":false,"rental_uris":{"android":"levelo://app?vid=eb69d266-7f9f-4bad-bf4b-cb0a701a9511","ios":"levelo://app?vid=eb69d266-7f9f-4bad-bf4b-cb0a701a9511"},"vehicle_type_id":"4","last_reported":1729541414,"current_range_meters":8400,"station_id":"","pricing_plan_id":"cebpf4jnsgd1na2vs0mg"},{"bike_id":"5700ca7b-4b04-4654-9ace-208c9e150bc3","system_id":"levelo_inurba_marseille","lat":43.2396,"lon":5.36631,"is_reserved":false,"is_disabled":false,"rental_uris":{"android":"levelo://app?vid=5700ca7b-4b04-4654-9ace-208c9e150bc3","ios":"levelo://app?vid=5700ca7b-4b04-4654-9ace-208c9e150bc3"},"vehicle_type_id":"4","last_reported":1729541414,"current_range_meters":36800,"station_id":"ce4bhi12rcd13ifvqfp0","pricing_plan_id":"cebpf4jnsgd1na2vs0mg"},{"bike_id":"4b19648d-fc61-4687-a460-ebaf89ea0e69","system_id":"levelo_inurba_marseille","lat":43.28264,"lon":5.35073,"is_reserved":false,"is_disabled":false,"rental_uris":{"android":"levelo://app?vid=4b19648d-fc61-4687-a460-ebaf89ea0e69","ios":"levelo://app?vid=4b19648d-fc61-4687-a460-ebaf89ea0e69"},"vehicle_type_id":"4","last_reported":1729541414,"current_range_meters":14400,"station_id":"ce4bhbp2rcd13ifvqerg","pricing_plan_id":"cebpf4jnsgd1na2vs0mg"},{"bike_id":"f792edc2-f37f-4f87-8f69-b580882ca5b4","system_id":"levelo_inurba_marseille","lat":43.2738,"lon":5.36247,"is_reserved":false,"is_disabled":false,"rental_uris":{"android":"levelo://app?vid=f792edc2-f37f-4f87-8f69-b580882ca5b4","ios":"levelo://app?vid=f792edc2-f37f-4f87-8f69-b580882ca5b4"},"vehicle_type_id":"4","last_reported":1729541414,"current_range_meters":38800,"station_id":"ce4bhbh2rcd13ifvqeo0","pricing_plan_id":"cebpf4jnsgd1na2vs0mg"},{"bike_id":"195396b1-c18d-4fe1-b51d-0db2711cf396","system_id":"levelo_inurba_marseille","lat":43.26217,"lon":5.37445,"is_reserved":false,"is_disabled":false,"rental_uris":{"android":"levelo://app?vid=195396b1-c18d-4fe1-b51d-0db2711cf396","ios":"levelo://app?vid=195396b1-c18d-4fe1-b51d-0db2711cf396"},"vehicle_type_id":"4","last_reported":1729541414,"current_range_meters":38800,"station_id":"ce4bhgp2rcd13ifvqfc0","pricing_plan_id":"cebpf4jnsgd1na2vs0mg"},{"bike_id":"ed56ed89-f60c-4c55-9007-4f6c1714c1b3","system_id":"levelo_inurba_marseille","lat":43.31759,"lon":5.39021,"is_reserved":false,"is_disabled":false,"rental_uris":{"android":"levelo://app?vid=ed56ed89-f60c-4c55-9007-4f6c1714c1b3","ios":"levelo://app?vid=ed56ed89-f60c-4c55-9007-4f6c1714c1b3"},"vehicle_type_id":"4","last_reported":1729541414,"current_range_meters":38800,"station_id":"ce4bhqp2rcd13ifvqhng","pricing_plan_id":"cebpf4jnsgd1na2vs0mg"},{"bike_id":"d8fcc4fa-ed39-4df3-8a67-0231297479c5","system_id":"levelo_inurba_marseille","lat":43.32662,"lon":5.40996,"is_reserved":false,"is_disabled":false,"rental_uris":{"android":"levelo://app?vid=d8fcc4fa-ed39-4df3-8a67-0231297479c5","ios":"levelo://app?vid=d8fcc4fa-ed39-4df3-8a67-0231297479c5"},"vehicle_type_id":"4","last_reported":1729541414,"current_range_meters":14400,"station_id":"ce4bhpp2rcd13ifvqhgg","pricing_plan_id":"cebpf4jnsgd1na2vs0mg"},{"bike_id":"d970d10c-e96e-4e1c-8618-8405093b98cb","system_id":"levelo_inurba_marseille","lat":43.29037,"lon":5.38646,"is_reserved":false,"is_disabled":false,"rental_uris":{"android":"levelo://app?vid=d970d10c-e96e-4e1c-8618-8405093b98cb","ios":"levelo://app?vid=d970d10c-e96e-4e1c-8618-8405093b98cb"},"vehicle_type_id":"4","last_reported":1729541414,"current_range_meters":16800,"station_id":"ce4bh4p2rcd13ifvqe0g","pricing_plan_id":"cebpf4jnsgd1na2vs0mg"},{"bike_id":"d96eba5d-e2b2-4959-8939-12f2b6d85764","system_id":"levelo_inurba_marseille","lat":43.26066,"lon":5.39399,"is_reserved":false,"is_disabled":false,"rental_uris":{"android":"levelo://app?vid=d96eba5d-e2b2-4959-8939-12f2b6d85764","ios":"levelo://app?vid=d96eba5d-e2b2-4959-8939-12f2b6d85764"},"vehicle_type_id":"4","last_reported":1729541414,"current_range_meters":9600,"station_id":"ce4bhh92rcd13ifvqfj0","pricing_plan_id":"cebpf4jnsgd1na2vs0mg"},{"bike_id":"cba2af9b-3719-4b16-aa61-d05fec60a0ee","system_id":"levelo_inurba_marseille","lat":43.31716,"lon":5.43709,"is_reserved":false,"is_disabled":false,"rental_uris":{"android":"levelo://app?vid=cba2af9b-3719-4b16-aa61-d05fec60a0ee","ios":"levelo://app?vid=cba2af9b-3719-4b16-aa61-d05fec60a0ee"},"vehicle_type_id":"4","last_reported":1729541414,"current_range_meters":37600,"station_id":"ce4bhp92rcd13ifvqhcg","pricing_plan_id":"cebpf4jnsgd1na2vs0mg"},{"bike_id":"abe658d4-12a8-41db-b6b3-738fdbd608a2","system_id":"levelo_inurba_marseille","lat":43.23196,"lon":5.35553,"is_reserved":false,"is_disabled":false,"rental_uris":{"android":"levelo://app?vid=abe658d4-12a8-41db-b6b3-738fdbd608a2","ios":"levelo://app?vid=abe658d4-12a8-41db-b6b3-738fdbd608a2"},"vehicle_type_id":"4","last_reported":1729541414,"current_range_meters":34000,"station_id":"ce4bhu92rcd13ifvqi70","pricing_plan_id":"cebpf4jnsgd1na2vs0mg"},{"bike_id":"583f7146-4d0c-474b-abcb-843001f0bb42","system_id":"levelo_inurba_marseille","lat":43.30211,"lon":5.39477,"is_reserved":false,"is_disabled":false,"rental_uris":{"android":"levelo://app?vid=583f7146-4d0c-474b-abcb-843001f0bb42","ios":"levelo://app?vid=583f7146-4d0c-474b-abcb-843001f0bb42"},"vehicle_type_id":"4","last_reported":1729541414,"current_range_meters":38800,"station_id":"ce4bh0p2rcd13ifvqd70","pricing_plan_id":"cebpf4jnsgd1na2vs0mg"},{"bike_id":"27436add-a26d-44df-8506-9f86a55efe32","system_id":"levelo_inurba_marseille","lat":43.31361,"lon":5.38492,"is_reserved":false,"is_disabled":false,"rental_uris":{"android":"levelo://app?vid=27436add-a26d-44df-8506-9f86a55efe32","ios":"levelo://app?vid=27436add-a26d-44df-8506-9f86a55efe32"},"vehicle_type_id":"4","last_reported":1729541414,"current_range_meters":16400,"station_id":"ce4bgt92rcd13ifvqcf0","pricing_plan_id":"cebpf4jnsgd1na2vs0mg"},{"bike_id":"fadc1e21-426b-4cc7-bb10-c492620dd599","system_id":"levelo_inurba_marseille","lat":43.30136,"lon":5.38771,"is_reserved":false,"is_disabled":false,"rental_uris":{"android":"levelo://app?vid=fadc1e21-426b-4cc7-bb10-c492620dd599","ios":"levelo://app?vid=fadc1e21-426b-4cc7-bb10-c492620dd599"},"vehicle_type_id":"4","last_reported":1729541414,"current_range_meters":38800,"station_id":"ce4bghh2rcd13ifvqb60","pricing_plan_id":"cebpf4jnsgd1na2vs0mg"},{"bike_id":"1ec16de5-9ac0-497e-b627-148b746fa226","system_id":"levelo_inurba_marseille","lat":43.28467,"lon":5.35888,"is_reserved":false,"is_disabled":false,"rental_uris":{"android":"levelo://app?vid=1ec16de5-9ac0-497e-b627-148b746fa226","ios":"levelo://app?vid=1ec16de5-9ac0-497e-b627-148b746fa226"},"vehicle_type_id":"4","last_reported":1729541414,"current_range_meters":30400,"station_id":"ce4bhah2rcd13ifvqei0","pricing_plan_id":"cebpf4jnsgd1na2vs0mg"},{"bike_id":"f8d4fc2f-6c65-4577-a483-2bded2a41922","system_id":"levelo_inurba_marseille","lat":43.30588,"lon":5.39358,"is_reserved":false,"is_disabled":false,"rental_uris":{"android":"levelo://app?vid=f8d4fc2f-6c65-4577-a483-2bded2a41922","ios":"levelo://app?vid=f8d4fc2f-6c65-4577-a483-2bded2a41922"},"vehicle_type_id":"4","last_reported":1729541414,"current_range_meters":38800,"station_id":"ce4bh0p2rcd13ifvqd80","pricing_plan_id":"cebpf4jnsgd1na2vs0mg"},{"bike_id":"3c6b34ca-b3b4-40d9-a018-4b315aab8d71","system_id":"levelo_inurba_marseille","lat":43.300819,"lon":5.390676,"is_reserved":false,"is_disabled":false,"rental_uris":{"android":"levelo://app?vid=3c6b34ca-b3b4-40d9-a018-4b315aab8d71","ios":"levelo://app?vid=3c6b34ca-b3b4-40d9-a018-4b315aab8d71"},"vehicle_type_id":"4","last_reported":1729541414,"current_range_meters":17200,"station_id":"ce4bh192rcd13ifvqdb0","pricing_plan_id":"cebpf4jnsgd1na2vs0mg"},{"bike_id":"03956cf4-b4c9-4328-a552-f6930328cd66","system_id":"levelo_inurba_marseille","lat":43.30099,"lon":5.39081,"is_reserved":false,"is_disabled":false,"rental_uris":{"android":"levelo://app?vid=03956cf4-b4c9-4328-a552-f6930328cd66","ios":"levelo://app?vid=03956cf4-b4c9-4328-a552-f6930328cd66"},"vehicle_type_id":"4","last_reported":1729541414,"current_range_meters":32000,"station_id":"ce4bh192rcd13ifvqdb0","pricing_plan_id":"cebpf4jnsgd1na2vs0mg"},{"bike_id":"bcb848aa-e230-495a-94c2-a77b97e99a4a","system_id":"levelo_inurba_marseille","lat":43.28081,"lon":5.39663,"is_reserved":false,"is_disabled":false,"rental_uris":{"android":"levelo://app?vid=bcb848aa-e230-495a-94c2-a77b97e99a4a","ios":"levelo://app?vid=bcb848aa-e230-495a-94c2-a77b97e99a4a"},"vehicle_type_id":"4","last_reported":1729541414,"current_range_meters":37600,"station_id":"ce4bho12rcd13ifvqh2g","pricing_plan_id":"cebpf4jnsgd1na2vs0mg"},{"bike_id":"0d9fea0d-5188-4ebc-a956-c466b2766e8c","system_id":"levelo_inurba_marseille","lat":43.27491,"lon":5.42457,"is_reserved":false,"is_disabled":false,"rental_uris":{"android":"levelo://app?vid=0d9fea0d-5188-4ebc-a956-c466b2766e8c","ios":"levelo://app?vid=0d9fea0d-5188-4ebc-a956-c466b2766e8c"},"vehicle_type_id":"4","last_reported":1729541414,"current_range_meters":6800,"station_id":"ce4bhn92rcd13ifvqgrg","pricing_plan_id":"cebpf4jnsgd1na2vs0mg"},{"bike_id":"3c2e9290-6792-4e2d-b00d-712b965be0bd","system_id":"levelo_inurba_marseille","lat":43.26423,"lon":5.38686,"is_reserved":false,"is_disabled":false,"rental_uris":{"android":"levelo://app?vid=3c2e9290-6792-4e2d-b00d-712b965be0bd","ios":"levelo://app?vid=3c2e9290-6792-4e2d-b00d-712b965be0bd"},"vehicle_type_id":"4","last_reported":1729541414,"current_range_meters":11200,"station_id":"","pricing_plan_id":"cebpf4jnsgd1na2vs0mg"},{"bike_id":"2285a859-8771-4553-a542-7e5e6ed70fa5","system_id":"levelo_inurba_marseille","lat":43.30436,"lon":5.38889,"is_reserved":false,"is_disabled":false,"rental_uris":{"android":"levelo://app?vid=2285a859-8771-4553-a542-7e5e6ed70fa5","ios":"levelo://app?vid=2285a859-8771-4553-a542-7e5e6ed70fa5"},"vehicle_type_id":"4","last_reported":1729541414,"current_range_meters":36000,"station_id":"ce4bgk12rcd13ifvqbi0","pricing_plan_id":"cebpf4jnsgd1na2vs0mg"},{"bike_id":"27685428-2c57-4186-b9d0-2a7d0583632e","system_id":"levelo_inurba_marseille","lat":43.28149,"lon":5.4265,"is_reserved":false,"is_disabled":false,"rental_uris":{"android":"levelo://app?vid=27685428-2c57-4186-b9d0-2a7d0583632e","ios":"levelo://app?vid=27685428-2c57-4186-b9d0-2a7d0583632e"},"vehicle_type_id":"4","last_reported":1729541414,"current_range_meters":38800,"station_id":"ce4bhnh2rcd13ifvqgug","pricing_plan_id":"cebpf4jnsgd1na2vs0mg"},{"bike_id":"49b771e0-2b36-4c36-aa9e-6045f69e627e","system_id":"levelo_inurba_marseille","lat":43.30646,"lon":5.4009,"is_reserved":false,"is_disabled":false,"rental_uris":{"android":"levelo://app?vid=49b771e0-2b36-4c36-aa9e-6045f69e627e","ios":"levelo://app?vid=49b771e0-2b36-4c36-aa9e-6045f69e627e"},"vehicle_type_id":"4","last_reported":1729541414,"current_range_meters":13600,"station_id":"ce4bh112rcd13ifvqda0","pricing_plan_id":"cebpf4jnsgd1na2vs0mg"},{"bike_id":"566ef3cd-3e87-4087-a6aa-32a145c590e2","system_id":"levelo_inurba_marseille","lat":43.25577,"lon":5.38248,"is_reserved":false,"is_disabled":false,"rental_uris":{"android":"levelo://app?vid=566ef3cd-3e87-4087-a6aa-32a145c590e2","ios":"levelo://app?vid=566ef3cd-3e87-4087-a6aa-32a145c590e2"},"vehicle_type_id":"4","last_reported":1729541414,"current_range_meters":16800,"station_id":"ce4bhih2rcd13ifvqfs0","pricing_plan_id":"cebpf4jnsgd1na2vs0mg"},{"bike_id":"e73397ec-41ef-401f-966f-7b0b12ace5aa","system_id":"levelo_inurba_marseille","lat":43.23195,"lon":5.35554,"is_reserved":false,"is_disabled":false,"rental_uris":{"android":"levelo://app?vid=e73397ec-41ef-401f-966f-7b0b12ace5aa","ios":"levelo://app?vid=e73397ec-41ef-401f-966f-7b0b12ace5aa"},"vehicle_type_id":"4","last_reported":1729541414,"current_range_meters":8000,"station_id":"ce4bhu92rcd13ifvqi70","pricing_plan_id":"cebpf4jnsgd1na2vs0mg"},{"bike_id":"8d716763-2d1c-4074-b18b-e7392f675dd8","system_id":"levelo_inurba_marseille","lat":43.27841,"lon":5.3921,"is_reserved":false,"is_disabled":false,"rental_uris":{"android":"levelo://app?vid=8d716763-2d1c-4074-b18b-e7392f675dd8","ios":"levelo://app?vid=8d716763-2d1c-4074-b18b-e7392f675dd8"},"vehicle_type_id":"4","last_reported":1729541414,"current_range_meters":16800,"station_id":"ce4bhjp2rcd13ifvqga0","pricing_plan_id":"cebpf4jnsgd1na2vs0mg"},{"bike_id":"d587daae-0a71-435c-957b-ace6ff74f13a","system_id":"levelo_inurba_marseille","lat":43.23963,"lon":5.36633,"is_reserved":false,"is_disabled":false,"rental_uris":{"android":"levelo://app?vid=d587daae-0a71-435c-957b-ace6ff74f13a","ios":"levelo://app?vid=d587daae-0a71-435c-957b-ace6ff74f13a"},"vehicle_type_id":"4","last_reported":1729541414,"current_range_meters":15200,"station_id":"ce4bhi12rcd13ifvqfp0","pricing_plan_id":"cebpf4jnsgd1na2vs0mg"},{"bike_id":"0027311c-7fe4-4e51-9995-5a7779e37a89","system_id":"levelo_inurba_marseille","lat":43.30933,"lon":5.40145,"is_reserved":false,"is_disabled":false,"rental_uris":{"android":"levelo://app?vid=0027311c-7fe4-4e51-9995-5a7779e37a89","ios":"levelo://app?vid=0027311c-7fe4-4e51-9995-5a7779e37a89"},"vehicle_type_id":"4","last_reported":1729541414,"current_range_meters":8800,"station_id":"ce4bgvp2rcd13ifvqct0","pricing_plan_id":"cebpf4jnsgd1na2vs0mg"},{"bike_id":"79eeff7f-5ee3-466c-909b-748c2533c98c","system_id":"levelo_inurba_marseille","lat":43.28577,"lon":5.39499,"is_reserved":false,"is_disabled":false,"rental_uris":{"android":"levelo://app?vid=79eeff7f-5ee3-466c-909b-748c2533c98c","ios":"levelo://app?vid=79eeff7f-5ee3-466c-909b-748c2533c98c"},"vehicle_type_id":"4","last_reported":1729541414,"current_range_meters":38400,"station_id":"ce4bh292rcd13ifvqdg0","pricing_plan_id":"cebpf4jnsgd1na2vs0mg"},{"bike_id":"6500c164-02c8-4d61-bd40-ecb76f51559e","system_id":"levelo_inurba_marseille","lat":43.31333,"lon":5.39704,"is_reserved":false,"is_disabled":false,"rental_uris":{"android":"levelo://app?vid=6500c164-02c8-4d61-bd40-ecb76f51559e","ios":"levelo://app?vid=6500c164-02c8-4d61-bd40-ecb76f51559e"},"vehicle_type_id":"4","last_reported":1729541414,"current_range_meters":30400,"station_id":"ce4bgvp2rcd13ifvqcu0","pricing_plan_id":"cebpf4jnsgd1na2vs0mg"},{"bike_id":"0542018d-404c-4931-92ac-7d497686214b","system_id":"levelo_inurba_marseille","lat":43.29555,"lon":5.42282,"is_reserved":false,"is_disabled":false,"rental_uris":{"android":"levelo://app?vid=0542018d-404c-4931-92ac-7d497686214b","ios":"levelo://app?vid=0542018d-404c-4931-92ac-7d497686214b"},"vehicle_type_id":"4","last_reported":1729541414,"current_range_meters":3200,"station_id":"ce4bhph2rcd13ifvqhdg","pricing_plan_id":"cebpf4jnsgd1na2vs0mg"},{"bike_id":"85c4819e-7224-49ab-b6ed-2b7d507ee433","system_id":"levelo_inurba_marseille","lat":43.29266,"lon":5.40155,"is_reserved":false,"is_disabled":false,"rental_uris":{"android":"levelo://app?vid=85c4819e-7224-49ab-b6ed-2b7d507ee433","ios":"levelo://app?vid=85c4819e-7224-49ab-b6ed-2b7d507ee433"},"vehicle_type_id":"4","last_reported":1729541414,"current_range_meters":38800,"station_id":"ce4bh312rcd13ifvqdk0","pricing_plan_id":"cebpf4jnsgd1na2vs0mg"},{"bike_id":"bc1c4b65-b2ef-458a-9377-0e29b328aa0e","system_id":"levelo_inurba_marseille","lat":43.30357,"lon":5.4188,"is_reserved":false,"is_disabled":false,"rental_uris":{"android":"levelo://app?vid=bc1c4b65-b2ef-458a-9377-0e29b328aa0e","ios":"levelo://app?vid=bc1c4b65-b2ef-458a-9377-0e29b328aa0e"},"vehicle_type_id":"4","last_reported":1729541414,"current_range_meters":38400,"station_id":"ce4bhop2rcd13ifvqh7g","pricing_plan_id":"cebpf4jnsgd1na2vs0mg"},{"bike_id":"c50c36bc-ffdd-4757-a33b-4cc74935f3ba","system_id":"levelo_inurba_marseille","lat":43.2971,"lon":5.36601,"is_reserved":false,"is_disabled":false,"rental_uris":{"android":"levelo://app?vid=c50c36bc-ffdd-4757-a33b-4cc74935f3ba","ios":"levelo://app?vid=c50c36bc-ffdd-4757-a33b-4cc74935f3ba"},"vehicle_type_id":"4","last_reported":1729541414,"current_range_meters":6400,"station_id":"ce4bgn12rcd13ifvqbt0","pricing_plan_id":"cebpf4jnsgd1na2vs0mg"},{"bike_id":"fe2a8dea-e15c-4b37-acda-a8e3b708d9cf","system_id":"levelo_inurba_marseille","lat":43.291687,"lon":5.371515,"is_reserved":false,"is_disabled":false,"rental_uris":{"android":"levelo://app?vid=fe2a8dea-e15c-4b37-acda-a8e3b708d9cf","ios":"levelo://app?vid=fe2a8dea-e15c-4b37-acda-a8e3b708d9cf"},"vehicle_type_id":"4","last_reported":1729541414,"current_range_meters":6400,"station_id":"ce4bhah2rcd13ifvqej0","pricing_plan_id":"cebpf4jnsgd1na2vs0mg"},{"bike_id":"39ee9764-c305-469f-9d9c-27c097ea855c","system_id":"levelo_inurba_marseille","lat":43.2397,"lon":5.36627,"is_reserved":false,"is_disabled":false,"rental_uris":{"android":"levelo://app?vid=39ee9764-c305-469f-9d9c-27c097ea855c","ios":"levelo://app?vid=39ee9764-c305-469f-9d9c-27c097ea855c"},"vehicle_type_id":"4","last_reported":1729541414,"current_range_meters":35200,"station_id":"ce4bhi12rcd13ifvqfp0","pricing_plan_id":"cebpf4jnsgd1na2vs0mg"},{"bike_id":"402860a9-1bb0-48d8-80d8-061e2104214b","system_id":"levelo_inurba_marseille","lat":43.29595,"lon":5.38096,"is_reserved":false,"is_disabled":false,"rental_uris":{"android":"levelo://app?vid=402860a9-1bb0-48d8-80d8-061e2104214b","ios":"levelo://app?vid=402860a9-1bb0-48d8-80d8-061e2104214b"},"vehicle_type_id":"4","last_reported":1729541414,"current_range_meters":32800,"station_id":"ce4bgl12rcd13ifvqbo0","pricing_plan_id":"cebpf4jnsgd1na2vs0mg"},{"bike_id":"18431119-24c9-45a6-9531-47169e7975f0","system_id":"levelo_inurba_marseille","lat":43.28156,"lon":5.42643,"is_reserved":false,"is_disabled":false,"rental_uris":{"android":"levelo://app?vid=18431119-24c9-45a6-9531-47169e7975f0","ios":"levelo://app?vid=18431119-24c9-45a6-9531-47169e7975f0"},"vehicle_type_id":"4","last_reported":1729541414,"current_range_meters":10000,"station_id":"ce4bhnh2rcd13ifvqgug","pricing_plan_id":"cebpf4jnsgd1na2vs0mg"},{"bike_id":"4a5ea8ae-0160-45b8-b71c-2214ca46587d","system_id":"levelo_inurba_marseille","lat":43.30648,"lon":5.40096,"is_reserved":false,"is_disabled":false,"rental_uris":{"android":"levelo://app?vid=4a5ea8ae-0160-45b8-b71c-2214ca46587d","ios":"levelo://app?vid=4a5ea8ae-0160-45b8-b71c-2214ca46587d"},"vehicle_type_id":"4","last_reported":1729541414,"current_range_meters":11200,"station_id":"ce4bh112rcd13ifvqda0","pricing_plan_id":"cebpf4jnsgd1na2vs0mg"},{"bike_id":"4db6f0fb-f309-41ad-b7f3-12a5f754ef7c","system_id":"levelo_inurba_marseille","lat":43.29582,"lon":5.36743,"is_reserved":false,"is_disabled":false,"rental_uris":{"android":"levelo://app?vid=4db6f0fb-f309-41ad-b7f3-12a5f754ef7c","ios":"levelo://app?vid=4db6f0fb-f309-41ad-b7f3-12a5f754ef7c"},"vehicle_type_id":"4","last_reported":1729541414,"current_range_meters":36400,"station_id":"ce4bgph2rcd13ifvqc2g","pricing_plan_id":"cebpf4jnsgd1na2vs0mg"},{"bike_id":"9eb1a5f7-26a2-4236-9784-8acf029dcd3d","system_id":"levelo_inurba_marseille","lat":43.28118,"lon":5.37839,"is_reserved":false,"is_disabled":false,"rental_uris":{"android":"levelo://app?vid=9eb1a5f7-26a2-4236-9784-8acf029dcd3d","ios":"levelo://app?vid=9eb1a5f7-26a2-4236-9784-8acf029dcd3d"},"vehicle_type_id":"4","last_reported":1729541414,"current_range_meters":25200,"station_id":"ce4bha12rcd13ifvqee0","pricing_plan_id":"cebpf4jnsgd1na2vs0mg"},{"bike_id":"d67659aa-1879-49ff-9e21-343007f69c6c","system_id":"levelo_inurba_marseille","lat":43.30805,"lon":5.43524,"is_reserved":false,"is_disabled":false,"rental_uris":{"android":"levelo://app?vid=d67659aa-1879-49ff-9e21-343007f69c6c","ios":"levelo://app?vid=d67659aa-1879-49ff-9e21-343007f69c6c"},"vehicle_type_id":"4","last_reported":1729541414,"current_range_meters":25600,"station_id":"ce4bhph2rcd13ifvqheg","pricing_plan_id":"cebpf4jnsgd1na2vs0mg"},{"bike_id":"22f0e9f1-4795-468e-91c9-9da47019dc8a","system_id":"levelo_inurba_marseille","lat":43.25083,"lon":5.39515,"is_reserved":false,"is_disabled":false,"rental_uris":{"android":"levelo://app?vid=22f0e9f1-4795-468e-91c9-9da47019dc8a","ios":"levelo://app?vid=22f0e9f1-4795-468e-91c9-9da47019dc8a"},"vehicle_type_id":"4","last_reported":1729541414,"current_range_meters":27200,"station_id":"ce4bhm12rcd13ifvqgkg","pricing_plan_id":"cebpf4jnsgd1na2vs0mg"},{"bike_id":"cf4acd3f-54d0-43a7-b880-61a7ba6d0dd0","system_id":"levelo_inurba_marseille","lat":43.30788,"lon":5.37653,"is_reserved":false,"is_disabled":false,"rental_uris":{"android":"levelo://app?vid=cf4acd3f-54d0-43a7-b880-61a7ba6d0dd0","ios":"levelo://app?vid=cf4acd3f-54d0-43a7-b880-61a7ba6d0dd0"},"vehicle_type_id":"4","last_reported":1729541414,"current_range_meters":7200,"station_id":"ce4bgv92rcd13ifvqcq0","pricing_plan_id":"cebpf4jnsgd1na2vs0mg"},{"bike_id":"fca5ef4a-640b-4926-b58c-ead23c70f9d3","system_id":"levelo_inurba_marseille","lat":43.26552,"lon":5.37291,"is_reserved":false,"is_disabled":false,"rental_uris":{"android":"levelo://app?vid=fca5ef4a-640b-4926-b58c-ead23c70f9d3","ios":"levelo://app?vid=fca5ef4a-640b-4926-b58c-ead23c70f9d3"},"vehicle_type_id":"4","last_reported":1729541414,"current_range_meters":39200,"station_id":"ce4bhg12rcd13ifvqf70","pricing_plan_id":"cebpf4jnsgd1na2vs0mg"},{"bike_id":"3f93d603-921b-4a4e-befa-30d9d8a80713","system_id":"levelo_inurba_marseille","lat":43.31071,"lon":5.38352,"is_reserved":false,"is_disabled":false,"rental_uris":{"android":"levelo://app?vid=3f93d603-921b-4a4e-befa-30d9d8a80713","ios":"levelo://app?vid=3f93d603-921b-4a4e-befa-30d9d8a80713"},"vehicle_type_id":"4","last_reported":1729541414,"current_range_meters":38000,"station_id":"ce4bgv92rcd13ifvqcr0","pricing_plan_id":"cebpf4jnsgd1na2vs0mg"},{"bike_id":"fc0c144a-a517-46d7-afc7-73ccb9f83d82","system_id":"levelo_inurba_marseille","lat":43.29263,"lon":5.40904,"is_reserved":false,"is_disabled":false,"rental_uris":{"android":"levelo://app?vid=fc0c144a-a517-46d7-afc7-73ccb9f83d82","ios":"levelo://app?vid=fc0c144a-a517-46d7-afc7-73ccb9f83d82"},"vehicle_type_id":"4","last_reported":1729541414,"current_range_meters":24000,"station_id":"ce4bh192rcd13ifvqdc0","pricing_plan_id":"cebpf4jnsgd1na2vs0mg"},{"bike_id":"3edcc9de-82f8-488a-80ec-7f7f41bf5d14","system_id":"levelo_inurba_marseille","lat":43.32339,"lon":5.40625,"is_reserved":false,"is_disabled":false,"rental_uris":{"android":"levelo://app?vid=3edcc9de-82f8-488a-80ec-7f7f41bf5d14","ios":"levelo://app?vid=3edcc9de-82f8-488a-80ec-7f7f41bf5d14"},"vehicle_type_id":"4","last_reported":1729541414,"current_range_meters":6800,"station_id":"ce4bhq92rcd13ifvqhjg","pricing_plan_id":"cebpf4jnsgd1na2vs0mg"},{"bike_id":"4ad44da5-24b6-4b29-a7f1-5598a1e8c144","system_id":"levelo_inurba_marseille","lat":43.3176,"lon":5.39015,"is_reserved":false,"is_disabled":false,"rental_uris":{"android":"levelo://app?vid=4ad44da5-24b6-4b29-a7f1-5598a1e8c144","ios":"levelo://app?vid=4ad44da5-24b6-4b29-a7f1-5598a1e8c144"},"vehicle_type_id":"4","last_reported":1729541414,"current_range_meters":38800,"station_id":"ce4bhqp2rcd13ifvqhng","pricing_plan_id":"cebpf4jnsgd1na2vs0mg"},{"bike_id":"864575c1-85b8-4008-92ba-391073d4ed51","system_id":"levelo_inurba_marseille","lat":43.23196,"lon":5.35549,"is_reserved":false,"is_disabled":false,"rental_uris":{"android":"levelo://app?vid=864575c1-85b8-4008-92ba-391073d4ed51","ios":"levelo://app?vid=864575c1-85b8-4008-92ba-391073d4ed51"},"vehicle_type_id":"4","last_reported":1729541414,"current_range_meters":27600,"station_id":"ce4bhu92rcd13ifvqi70","pricing_plan_id":"cebpf4jnsgd1na2vs0mg"},{"bike_id":"7d8aca0e-587d-4f56-9100-5267c022ff19","system_id":"levelo_inurba_marseille","lat":43.27614,"lon":5.36112,"is_reserved":false,"is_disabled":false,"rental_uris":{"android":"levelo://app?vid=7d8aca0e-587d-4f56-9100-5267c022ff19","ios":"levelo://app?vid=7d8aca0e-587d-4f56-9100-5267c022ff19"},"vehicle_type_id":"4","last_reported":1729541414,"current_range_meters":7200,"station_id":"ce4bgj92rcd13ifvqbe0","pricing_plan_id":"cebpf4jnsgd1na2vs0mg"},{"bike_id":"dfd33d42-13ef-40e4-b3a7-47aff436e16c","system_id":"levelo_inurba_marseille","lat":43.3267,"lon":5.40855,"is_reserved":false,"is_disabled":false,"rental_uris":{"android":"levelo://app?vid=dfd33d42-13ef-40e4-b3a7-47aff436e16c","ios":"levelo://app?vid=dfd33d42-13ef-40e4-b3a7-47aff436e16c"},"vehicle_type_id":"4","last_reported":1729541414,"current_range_meters":20400,"station_id":"","pricing_plan_id":"cebpf4jnsgd1na2vs0mg"},{"bike_id":"8ab26b0d-dae7-40e5-9d79-84dfb6f3c2b3","system_id":"levelo_inurba_marseille","lat":43.26806,"lon":5.40268,"is_reserved":false,"is_disabled":false,"rental_uris":{"android":"levelo://app?vid=8ab26b0d-dae7-40e5-9d79-84dfb6f3c2b3","ios":"levelo://app?vid=8ab26b0d-dae7-40e5-9d79-84dfb6f3c2b3"},"vehicle_type_id":"4","last_reported":1729541414,"current_range_meters":38800,"station_id":"ce501612rcd8frsf0b60","pricing_plan_id":"cebpf4jnsgd1na2vs0mg"},{"bike_id":"422e5c54-e3d3-4de4-9bb5-49bc42820586","system_id":"levelo_inurba_marseille","lat":43.30426,"lon":5.38891,"is_reserved":false,"is_disabled":false,"rental_uris":{"android":"levelo://app?vid=422e5c54-e3d3-4de4-9bb5-49bc42820586","ios":"levelo://app?vid=422e5c54-e3d3-4de4-9bb5-49bc42820586"},"vehicle_type_id":"4","last_reported":1729541414,"current_range_meters":31200,"station_id":"ce4bgk12rcd13ifvqbi0","pricing_plan_id":"cebpf4jnsgd1na2vs0mg"},{"bike_id":"9d89d63e-cd4d-4ed5-81e5-1dca3a7b87ce","system_id":"levelo_inurba_marseille","lat":43.27417,"lon":5.39415,"is_reserved":false,"is_disabled":false,"rental_uris":{"android":"levelo://app?vid=9d89d63e-cd4d-4ed5-81e5-1dca3a7b87ce","ios":"levelo://app?vid=9d89d63e-cd4d-4ed5-81e5-1dca3a7b87ce"},"vehicle_type_id":"4","last_reported":1729541414,"current_range_meters":16400,"station_id":"ce4bhdp2rcd13ifvqf20","pricing_plan_id":"cebpf4jnsgd1na2vs0mg"},{"bike_id":"0728974d-1ad5-4181-91f2-6035aab7157d","system_id":"levelo_inurba_marseille","lat":43.23198,"lon":5.35554,"is_reserved":false,"is_disabled":false,"rental_uris":{"android":"levelo://app?vid=0728974d-1ad5-4181-91f2-6035aab7157d","ios":"levelo://app?vid=0728974d-1ad5-4181-91f2-6035aab7157d"},"vehicle_type_id":"4","last_reported":1729541414,"current_range_meters":39200,"station_id":"ce4bhu92rcd13ifvqi70","pricing_plan_id":"cebpf4jnsgd1na2vs0mg"},{"bike_id":"af1c763e-26c9-4576-b526-6eaec75e2909","system_id":"levelo_inurba_marseille","lat":43.29715,"lon":5.36615,"is_reserved":false,"is_disabled":false,"rental_uris":{"android":"levelo://app?vid=af1c763e-26c9-4576-b526-6eaec75e2909","ios":"levelo://app?vid=af1c763e-26c9-4576-b526-6eaec75e2909"},"vehicle_type_id":"4","last_reported":1729541414,"current_range_meters":6800,"station_id":"ce4bgn12rcd13ifvqbt0","pricing_plan_id":"cebpf4jnsgd1na2vs0mg"},{"bike_id":"40789e63-bb12-414a-9e11-b14620ea6085","system_id":"levelo_inurba_marseille","lat":43.31712,"lon":5.37758,"is_reserved":false,"is_disabled":false,"rental_uris":{"android":"levelo://app?vid=40789e63-bb12-414a-9e11-b14620ea6085","ios":"levelo://app?vid=40789e63-bb12-414a-9e11-b14620ea6085"},"vehicle_type_id":"4","last_reported":1729541414,"current_range_meters":18000,"station_id":"ce4bgth2rcd13ifvqch0","pricing_plan_id":"cebpf4jnsgd1na2vs0mg"},{"bike_id":"2c2f3718-7209-4389-9d1d-d985a7daaef2","system_id":"levelo_inurba_marseille","lat":43.31676,"lon":5.375463,"is_reserved":false,"is_disabled":false,"rental_uris":{"android":"levelo://app?vid=2c2f3718-7209-4389-9d1d-d985a7daaef2","ios":"levelo://app?vid=2c2f3718-7209-4389-9d1d-d985a7daaef2"},"vehicle_type_id":"4","last_reported":1729541414,"current_range_meters":14000,"station_id":"","pricing_plan_id":"cebpf4jnsgd1na2vs0mg"},{"bike_id":"d8d89625-f310-4792-9c33-22b2f61dc041","system_id":"levelo_inurba_marseille","lat":43.30595,"lon":5.39357,"is_reserved":false,"is_disabled":false,"rental_uris":{"android":"levelo://app?vid=d8d89625-f310-4792-9c33-22b2f61dc041","ios":"levelo://app?vid=d8d89625-f310-4792-9c33-22b2f61dc041"},"vehicle_type_id":"4","last_reported":1729541414,"current_range_meters":38000,"station_id":"ce4bh0p2rcd13ifvqd80","pricing_plan_id":"cebpf4jnsgd1na2vs0mg"},{"bike_id":"a7f80de7-a396-441c-acc3-f366d505c8c9","system_id":"levelo_inurba_marseille","lat":43.30435,"lon":5.38888,"is_reserved":false,"is_disabled":false,"rental_uris":{"android":"levelo://app?vid=a7f80de7-a396-441c-acc3-f366d505c8c9","ios":"levelo://app?vid=a7f80de7-a396-441c-acc3-f366d505c8c9"},"vehicle_type_id":"4","last_reported":1729541414,"current_range_meters":38800,"station_id":"ce4bgk12rcd13ifvqbi0","pricing_plan_id":"cebpf4jnsgd1na2vs0mg"},{"bike_id":"d1b6f4d6-fba9-4fd7-90ee-d95deb1346f3","system_id":"levelo_inurba_marseille","lat":43.28572,"lon":5.39492,"is_reserved":false,"is_disabled":false,"rental_uris":{"android":"levelo://app?vid=d1b6f4d6-fba9-4fd7-90ee-d95deb1346f3","ios":"levelo://app?vid=d1b6f4d6-fba9-4fd7-90ee-d95deb1346f3"},"vehicle_type_id":"4","last_reported":1729541414,"current_range_meters":28000,"station_id":"ce4bh292rcd13ifvqdg0","pricing_plan_id":"cebpf4jnsgd1na2vs0mg"},{"bike_id":"19ff0f05-c0e2-4604-af2a-52b734cc85d3","system_id":"levelo_inurba_marseille","lat":43.31493,"lon":5.37309,"is_reserved":false,"is_disabled":false,"rental_uris":{"android":"levelo://app?vid=19ff0f05-c0e2-4604-af2a-52b734cc85d3","ios":"levelo://app?vid=19ff0f05-c0e2-4604-af2a-52b734cc85d3"},"vehicle_type_id":"4","last_reported":1729541414,"current_range_meters":33200,"station_id":"ce4bgt12rcd13ifvqcd0","pricing_plan_id":"cebpf4jnsgd1na2vs0mg"},{"bike_id":"a83c7b68-cf4e-46de-88aa-de72078f7bcd","system_id":"levelo_inurba_marseille","lat":43.31171,"lon":5.38705,"is_reserved":false,"is_disabled":false,"rental_uris":{"android":"levelo://app?vid=a83c7b68-cf4e-46de-88aa-de72078f7bcd","ios":"levelo://app?vid=a83c7b68-cf4e-46de-88aa-de72078f7bcd"},"vehicle_type_id":"4","last_reported":1729541414,"current_range_meters":36400,"station_id":"ce4bgv12rcd13ifvqcp0","pricing_plan_id":"cebpf4jnsgd1na2vs0mg"},{"bike_id":"79a1e020-318b-42a1-a8c0-a424b1daf69e","system_id":"levelo_inurba_marseille","lat":43.296,"lon":5.36142,"is_reserved":false,"is_disabled":false,"rental_uris":{"android":"levelo://app?vid=79a1e020-318b-42a1-a8c0-a424b1daf69e","ios":"levelo://app?vid=79a1e020-318b-42a1-a8c0-a424b1daf69e"},"vehicle_type_id":"4","last_reported":1729541414,"current_range_meters":9200,"station_id":"","pricing_plan_id":"cebpf4jnsgd1na2vs0mg"},{"bike_id":"9bf9a108-7d5c-4517-b690-aa3ce06ef443","system_id":"levelo_inurba_marseille","lat":43.30355,"lon":5.41877,"is_reserved":false,"is_disabled":false,"rental_uris":{"android":"levelo://app?vid=9bf9a108-7d5c-4517-b690-aa3ce06ef443","ios":"levelo://app?vid=9bf9a108-7d5c-4517-b690-aa3ce06ef443"},"vehicle_type_id":"4","last_reported":1729541414,"current_range_meters":38400,"station_id":"ce4bhop2rcd13ifvqh7g","pricing_plan_id":"cebpf4jnsgd1na2vs0mg"},{"bike_id":"2126bf8c-a8cd-4395-a818-f63095918cf1","system_id":"levelo_inurba_marseille","lat":43.25823,"lon":5.39436,"is_reserved":false,"is_disabled":false,"rental_uris":{"android":"levelo://app?vid=2126bf8c-a8cd-4395-a818-f63095918cf1","ios":"levelo://app?vid=2126bf8c-a8cd-4395-a818-f63095918cf1"},"vehicle_type_id":"4","last_reported":1729541414,"current_range_meters":38000,"station_id":"ce4bhip2rcd13ifvqft0","pricing_plan_id":"cebpf4jnsgd1na2vs0mg"},{"bike_id":"4312a60c-2b05-4084-bfea-dc0d928f5f8f","system_id":"levelo_inurba_marseille","lat":43.28453,"lon":5.35894,"is_reserved":false,"is_disabled":false,"rental_uris":{"android":"levelo://app?vid=4312a60c-2b05-4084-bfea-dc0d928f5f8f","ios":"levelo://app?vid=4312a60c-2b05-4084-bfea-dc0d928f5f8f"},"vehicle_type_id":"4","last_reported":1729541414,"current_range_meters":18000,"station_id":"ce4bhah2rcd13ifvqei0","pricing_plan_id":"cebpf4jnsgd1na2vs0mg"},{"bike_id":"25e0444d-821b-4875-b8ad-634d36229b7a","system_id":"levelo_inurba_marseille","lat":43.299687,"lon":5.384892,"is_reserved":false,"is_disabled":false,"rental_uris":{"android":"levelo://app?vid=25e0444d-821b-4875-b8ad-634d36229b7a","ios":"levelo://app?vid=25e0444d-821b-4875-b8ad-634d36229b7a"},"vehicle_type_id":"4","last_reported":1729541414,"current_range_meters":12800,"station_id":"ce4bgjh2rcd13ifvqbf0","pricing_plan_id":"cebpf4jnsgd1na2vs0mg"},{"bike_id":"bf6cb37d-0a66-4fd9-9d8e-e5daa4e46a73","system_id":"levelo_inurba_marseille","lat":43.2892,"lon":5.38371,"is_reserved":false,"is_disabled":false,"rental_uris":{"android":"levelo://app?vid=bf6cb37d-0a66-4fd9-9d8e-e5daa4e46a73","ios":"levelo://app?vid=bf6cb37d-0a66-4fd9-9d8e-e5daa4e46a73"},"vehicle_type_id":"4","last_reported":1729541414,"current_range_meters":11200,"station_id":"","pricing_plan_id":"cebpf4jnsgd1na2vs0mg"},{"bike_id":"7adf842b-4b8c-4356-a23f-1be0cbaf4d21","system_id":"levelo_inurba_marseille","lat":43.23198,"lon":5.35555,"is_reserved":false,"is_disabled":false,"rental_uris":{"android":"levelo://app?vid=7adf842b-4b8c-4356-a23f-1be0cbaf4d21","ios":"levelo://app?vid=7adf842b-4b8c-4356-a23f-1be0cbaf4d21"},"vehicle_type_id":"4","last_reported":1729541414,"current_range_meters":14000,"station_id":"ce4bhu92rcd13ifvqi70","pricing_plan_id":"cebpf4jnsgd1na2vs0mg"},{"bike_id":"8d66234d-ed10-4a56-b9bf-7024ed1a6c9c","system_id":"levelo_inurba_marseille","lat":43.32294,"lon":5.38264,"is_reserved":false,"is_disabled":false,"rental_uris":{"android":"levelo://app?vid=8d66234d-ed10-4a56-b9bf-7024ed1a6c9c","ios":"levelo://app?vid=8d66234d-ed10-4a56-b9bf-7024ed1a6c9c"},"vehicle_type_id":"4","last_reported":1729541414,"current_range_meters":8400,"station_id":"ce4bhr12rcd13ifvqhqg","pricing_plan_id":"cebpf4jnsgd1na2vs0mg"},{"bike_id":"c9596d43-eeee-4e9d-85ab-26dca0438156","system_id":"levelo_inurba_marseille","lat":43.26806,"lon":5.40276,"is_reserved":false,"is_disabled":false,"rental_uris":{"android":"levelo://app?vid=c9596d43-eeee-4e9d-85ab-26dca0438156","ios":"levelo://app?vid=c9596d43-eeee-4e9d-85ab-26dca0438156"},"vehicle_type_id":"4","last_reported":1729541414,"current_range_meters":16400,"station_id":"ce501612rcd8frsf0b60","pricing_plan_id":"cebpf4jnsgd1na2vs0mg"},{"bike_id":"fb1780c5-1a83-49a0-a659-61b6fd9d8871","system_id":"levelo_inurba_marseille","lat":43.29021,"lon":5.38642,"is_reserved":false,"is_disabled":false,"rental_uris":{"android":"levelo://app?vid=fb1780c5-1a83-49a0-a659-61b6fd9d8871","ios":"levelo://app?vid=fb1780c5-1a83-49a0-a659-61b6fd9d8871"},"vehicle_type_id":"4","last_reported":1729541414,"current_range_meters":38800,"station_id":"ce4bh4p2rcd13ifvqe0g","pricing_plan_id":"cebpf4jnsgd1na2vs0mg"},{"bike_id":"355f1dc2-3476-4496-8420-f36b2652912a","system_id":"levelo_inurba_marseille","lat":43.31331,"lon":5.39698,"is_reserved":false,"is_disabled":false,"rental_uris":{"android":"levelo://app?vid=355f1dc2-3476-4496-8420-f36b2652912a","ios":"levelo://app?vid=355f1dc2-3476-4496-8420-f36b2652912a"},"vehicle_type_id":"4","last_reported":1729541414,"current_range_meters":17200,"station_id":"ce4bgvp2rcd13ifvqcu0","pricing_plan_id":"cebpf4jnsgd1na2vs0mg"},{"bike_id":"2e7e341d-6647-47b6-9b4f-10b43bf22d61","system_id":"levelo_inurba_marseille","lat":43.304207,"lon":5.412873,"is_reserved":false,"is_disabled":false,"rental_uris":{"android":"levelo://app?vid=2e7e341d-6647-47b6-9b4f-10b43bf22d61","ios":"levelo://app?vid=2e7e341d-6647-47b6-9b4f-10b43bf22d61"},"vehicle_type_id":"4","last_reported":1729541414,"current_range_meters":30400,"station_id":"ce4bhop2rcd13ifvqh8g","pricing_plan_id":"cebpf4jnsgd1na2vs0mg"},{"bike_id":"9926919b-200e-4ea0-a4a8-95ae624636d3","system_id":"levelo_inurba_marseille","lat":43.25087,"lon":5.39523,"is_reserved":false,"is_disabled":false,"rental_uris":{"android":"levelo://app?vid=9926919b-200e-4ea0-a4a8-95ae624636d3","ios":"levelo://app?vid=9926919b-200e-4ea0-a4a8-95ae624636d3"},"vehicle_type_id":"4","last_reported":1729541414,"current_range_meters":30400,"station_id":"ce4bhm12rcd13ifvqgkg","pricing_plan_id":"cebpf4jnsgd1na2vs0mg"},{"bike_id":"e34fdb2e-8644-451c-8069-b133a92de5fd","system_id":"levelo_inurba_marseille","lat":43.2738,"lon":5.36253,"is_reserved":false,"is_disabled":false,"rental_uris":{"android":"levelo://app?vid=e34fdb2e-8644-451c-8069-b133a92de5fd","ios":"levelo://app?vid=e34fdb2e-8644-451c-8069-b133a92de5fd"},"vehicle_type_id":"4","last_reported":1729541414,"current_range_meters":38800,"station_id":"ce4bhbh2rcd13ifvqeo0","pricing_plan_id":"cebpf4jnsgd1na2vs0mg"},{"bike_id":"f44a77f9-50ab-4208-aaff-a85096304b44","system_id":"levelo_inurba_marseille","lat":43.291979,"lon":5.393224,"is_reserved":false,"is_disabled":false,"rental_uris":{"android":"levelo://app?vid=f44a77f9-50ab-4208-aaff-a85096304b44","ios":"levelo://app?vid=f44a77f9-50ab-4208-aaff-a85096304b44"},"vehicle_type_id":"4","last_reported":1729541414,"current_range_meters":38800,"station_id":"ce4bh192rcd13ifvqdd0","pricing_plan_id":"cebpf4jnsgd1na2vs0mg"},{"bike_id":"b3104e33-9459-48f1-a6de-d63ef857c18a","system_id":"levelo_inurba_marseille","lat":43.32662,"lon":5.40998,"is_reserved":false,"is_disabled":false,"rental_uris":{"android":"levelo://app?vid=b3104e33-9459-48f1-a6de-d63ef857c18a","ios":"levelo://app?vid=b3104e33-9459-48f1-a6de-d63ef857c18a"},"vehicle_type_id":"4","last_reported":1729541414,"current_range_meters":33600,"station_id":"ce4bhpp2rcd13ifvqhgg","pricing_plan_id":"cebpf4jnsgd1na2vs0mg"},{"bike_id":"effaaa36-be46-4f3d-b58c-ca2717c9f68a","system_id":"levelo_inurba_marseille","lat":43.27426,"lon":5.39426,"is_reserved":false,"is_disabled":false,"rental_uris":{"android":"levelo://app?vid=effaaa36-be46-4f3d-b58c-ca2717c9f68a","ios":"levelo://app?vid=effaaa36-be46-4f3d-b58c-ca2717c9f68a"},"vehicle_type_id":"4","last_reported":1729541414,"current_range_meters":27200,"station_id":"ce4bhdp2rcd13ifvqf20","pricing_plan_id":"cebpf4jnsgd1na2vs0mg"},{"bike_id":"a92d0740-fa15-4c8c-b577-387103616be9","system_id":"levelo_inurba_marseille","lat":43.28936,"lon":5.36637,"is_reserved":false,"is_disabled":false,"rental_uris":{"android":"levelo://app?vid=a92d0740-fa15-4c8c-b577-387103616be9","ios":"levelo://app?vid=a92d0740-fa15-4c8c-b577-387103616be9"},"vehicle_type_id":"4","last_reported":1729541414,"current_range_meters":36800,"station_id":"ce4bhap2rcd13ifvqek0","pricing_plan_id":"cebpf4jnsgd1na2vs0mg"},{"bike_id":"a28221e9-a1a9-4fdb-abf6-3e4386cfaae2","system_id":"levelo_inurba_marseille","lat":43.3117,"lon":5.38719,"is_reserved":false,"is_disabled":false,"rental_uris":{"android":"levelo://app?vid=a28221e9-a1a9-4fdb-abf6-3e4386cfaae2","ios":"levelo://app?vid=a28221e9-a1a9-4fdb-abf6-3e4386cfaae2"},"vehicle_type_id":"4","last_reported":1729541414,"current_range_meters":36400,"station_id":"ce4bgv12rcd13ifvqcp0","pricing_plan_id":"cebpf4jnsgd1na2vs0mg"},{"bike_id":"3b295b64-52e6-4032-bc9e-c62b902d9ea4","system_id":"levelo_inurba_marseille","lat":43.283234,"lon":5.350213,"is_reserved":false,"is_disabled":false,"rental_uris":{"android":"levelo://app?vid=3b295b64-52e6-4032-bc9e-c62b902d9ea4","ios":"levelo://app?vid=3b295b64-52e6-4032-bc9e-c62b902d9ea4"},"vehicle_type_id":"4","last_reported":1729541414,"current_range_meters":24400,"station_id":"ce4bhbp2rcd13ifvqerg","pricing_plan_id":"cebpf4jnsgd1na2vs0mg"},{"bike_id":"773428ac-f2af-48e2-8731-75abfd73f78c","system_id":"levelo_inurba_marseille","lat":43.31176,"lon":5.38716,"is_reserved":false,"is_disabled":false,"rental_uris":{"android":"levelo://app?vid=773428ac-f2af-48e2-8731-75abfd73f78c","ios":"levelo://app?vid=773428ac-f2af-48e2-8731-75abfd73f78c"},"vehicle_type_id":"4","last_reported":1729541414,"current_range_meters":36400,"station_id":"ce4bgv12rcd13ifvqcp0","pricing_plan_id":"cebpf4jnsgd1na2vs0mg"},{"bike_id":"f13dd7de-5c2c-4da6-8267-724644937d09","system_id":"levelo_inurba_marseille","lat":43.301,"lon":5.39069,"is_reserved":false,"is_disabled":false,"rental_uris":{"android":"levelo://app?vid=f13dd7de-5c2c-4da6-8267-724644937d09","ios":"levelo://app?vid=f13dd7de-5c2c-4da6-8267-724644937d09"},"vehicle_type_id":"4","last_reported":1729541414,"current_range_meters":35600,"station_id":"ce4bh192rcd13ifvqdb0","pricing_plan_id":"cebpf4jnsgd1na2vs0mg"},{"bike_id":"3b14897a-daf5-4d7e-8b82-86c5bdae4669","system_id":"levelo_inurba_marseille","lat":43.28608,"lon":5.37072,"is_reserved":false,"is_disabled":false,"rental_uris":{"android":"levelo://app?vid=3b14897a-daf5-4d7e-8b82-86c5bdae4669","ios":"levelo://app?vid=3b14897a-daf5-4d7e-8b82-86c5bdae4669"},"vehicle_type_id":"4","last_reported":1729541414,"current_range_meters":28800,"station_id":"ce4bht12rcd13ifvqi60","pricing_plan_id":"cebpf4jnsgd1na2vs0mg"},{"bike_id":"c3945b60-e38d-4106-8f18-92c7f436cc4f","system_id":"levelo_inurba_marseille","lat":43.33757,"lon":5.37448,"is_reserved":false,"is_disabled":false,"rental_uris":{"android":"levelo://app?vid=c3945b60-e38d-4106-8f18-92c7f436cc4f","ios":"levelo://app?vid=c3945b60-e38d-4106-8f18-92c7f436cc4f"},"vehicle_type_id":"4","last_reported":1729541414,"current_range_meters":35200,"station_id":"","pricing_plan_id":"cebpf4jnsgd1na2vs0mg"},{"bike_id":"a4ca392d-cfa5-4379-9784-1e22a9b4455c","system_id":"levelo_inurba_marseille","lat":43.28479,"lon":5.38414,"is_reserved":false,"is_disabled":false,"rental_uris":{"android":"levelo://app?vid=a4ca392d-cfa5-4379-9784-1e22a9b4455c","ios":"levelo://app?vid=a4ca392d-cfa5-4379-9784-1e22a9b4455c"},"vehicle_type_id":"4","last_reported":1729541414,"current_range_meters":10800,"station_id":"ce4bh512rcd13ifvqe3g","pricing_plan_id":"cebpf4jnsgd1na2vs0mg"},{"bike_id":"de1ff86d-3061-40a1-be1e-8be446e6115e","system_id":"levelo_inurba_marseille","lat":43.2959,"lon":5.3817,"is_reserved":false,"is_disabled":false,"rental_uris":{"android":"levelo://app?vid=de1ff86d-3061-40a1-be1e-8be446e6115e","ios":"levelo://app?vid=de1ff86d-3061-40a1-be1e-8be446e6115e"},"vehicle_type_id":"4","last_reported":1729541414,"current_range_meters":18000,"station_id":"","pricing_plan_id":"cebpf4jnsgd1na2vs0mg"},{"bike_id":"d4f78131-9ff8-46cf-a2ee-5bc67ac59958","system_id":"levelo_inurba_marseille","lat":43.27374,"lon":5.36248,"is_reserved":false,"is_disabled":false,"rental_uris":{"android":"levelo://app?vid=d4f78131-9ff8-46cf-a2ee-5bc67ac59958","ios":"levelo://app?vid=d4f78131-9ff8-46cf-a2ee-5bc67ac59958"},"vehicle_type_id":"4","last_reported":1729541414,"current_range_meters":38800,"station_id":"ce4bhbh2rcd13ifvqeo0","pricing_plan_id":"cebpf4jnsgd1na2vs0mg"},{"bike_id":"34a02f78-fe56-46f7-876c-4e280c15acfa","system_id":"levelo_inurba_marseille","lat":43.302612,"lon":5.377263,"is_reserved":false,"is_disabled":false,"rental_uris":{"android":"levelo://app?vid=34a02f78-fe56-46f7-876c-4e280c15acfa","ios":"levelo://app?vid=34a02f78-fe56-46f7-876c-4e280c15acfa"},"vehicle_type_id":"4","last_reported":1729541414,"current_range_meters":21600,"station_id":"ce4bguh2rcd13ifvqcj0","pricing_plan_id":"cebpf4jnsgd1na2vs0mg"},{"bike_id":"a3ff3686-f6e1-4bb2-8c90-55bcda7549c2","system_id":"levelo_inurba_marseille","lat":43.307769,"lon":5.38171,"is_reserved":false,"is_disabled":false,"rental_uris":{"android":"levelo://app?vid=a3ff3686-f6e1-4bb2-8c90-55bcda7549c2","ios":"levelo://app?vid=a3ff3686-f6e1-4bb2-8c90-55bcda7549c2"},"vehicle_type_id":"4","last_reported":1729541414,"current_range_meters":29600,"station_id":"ce4bgip2rcd13ifvqbb0","pricing_plan_id":"cebpf4jnsgd1na2vs0mg"},{"bike_id":"14e7d692-0ab9-40d6-8124-440d2cc5d039","system_id":"levelo_inurba_marseille","lat":43.28096,"lon":5.37841,"is_reserved":false,"is_disabled":false,"rental_uris":{"android":"levelo://app?vid=14e7d692-0ab9-40d6-8124-440d2cc5d039","ios":"levelo://app?vid=14e7d692-0ab9-40d6-8124-440d2cc5d039"},"vehicle_type_id":"4","last_reported":1729541414,"current_range_meters":26800,"station_id":"ce4bha12rcd13ifvqee0","pricing_plan_id":"cebpf4jnsgd1na2vs0mg"},{"bike_id":"088e248b-abbb-4bf8-af31-3069cd4a1be2","system_id":"levelo_inurba_marseille","lat":43.25834,"lon":5.3944,"is_reserved":false,"is_disabled":false,"rental_uris":{"android":"levelo://app?vid=088e248b-abbb-4bf8-af31-3069cd4a1be2","ios":"levelo://app?vid=088e248b-abbb-4bf8-af31-3069cd4a1be2"},"vehicle_type_id":"4","last_reported":1729541414,"current_range_meters":24000,"station_id":"ce4bhip2rcd13ifvqft0","pricing_plan_id":"cebpf4jnsgd1na2vs0mg"},{"bike_id":"d6302fba-4a4b-48e2-955d-c7fff95e7dbf","system_id":"levelo_inurba_marseille","lat":43.31268,"lon":5.40171,"is_reserved":false,"is_disabled":false,"rental_uris":{"android":"levelo://app?vid=d6302fba-4a4b-48e2-955d-c7fff95e7dbf","ios":"levelo://app?vid=d6302fba-4a4b-48e2-955d-c7fff95e7dbf"},"vehicle_type_id":"4","last_reported":1729541414,"current_range_meters":7200,"station_id":"ce4bh092rcd13ifvqd30","pricing_plan_id":"cebpf4jnsgd1na2vs0mg"},{"bike_id":"b98c53b4-846d-4a89-a172-20ae0f114d2d","system_id":"levelo_inurba_marseille","lat":43.30637,"lon":5.40075,"is_reserved":false,"is_disabled":false,"rental_uris":{"android":"levelo://app?vid=b98c53b4-846d-4a89-a172-20ae0f114d2d","ios":"levelo://app?vid=b98c53b4-846d-4a89-a172-20ae0f114d2d"},"vehicle_type_id":"4","last_reported":1729541414,"current_range_meters":26000,"station_id":"ce4bh112rcd13ifvqda0","pricing_plan_id":"cebpf4jnsgd1na2vs0mg"},{"bike_id":"ab4867db-7662-4a17-9204-8cf9e78260e5","system_id":"levelo_inurba_marseille","lat":43.2762,"lon":5.36115,"is_reserved":false,"is_disabled":false,"rental_uris":{"android":"levelo://app?vid=ab4867db-7662-4a17-9204-8cf9e78260e5","ios":"levelo://app?vid=ab4867db-7662-4a17-9204-8cf9e78260e5"},"vehicle_type_id":"4","last_reported":1729541414,"current_range_meters":39200,"station_id":"ce4bgj92rcd13ifvqbe0","pricing_plan_id":"cebpf4jnsgd1na2vs0mg"},{"bike_id":"588c6f94-63a1-426d-953d-b7bc8db3f709","system_id":"levelo_inurba_marseille","lat":43.27904,"lon":5.38003,"is_reserved":false,"is_disabled":false,"rental_uris":{"android":"levelo://app?vid=588c6f94-63a1-426d-953d-b7bc8db3f709","ios":"levelo://app?vid=588c6f94-63a1-426d-953d-b7bc8db3f709"},"vehicle_type_id":"4","last_reported":1729541414,"current_range_meters":2800,"station_id":"ce4bhf92rcd13ifvqf50","pricing_plan_id":"cebpf4jnsgd1na2vs0mg"},{"bike_id":"72f63983-e112-4b56-a265-24560ff50b47","system_id":"levelo_inurba_marseille","lat":43.31062,"lon":5.38356,"is_reserved":false,"is_disabled":false,"rental_uris":{"android":"levelo://app?vid=72f63983-e112-4b56-a265-24560ff50b47","ios":"levelo://app?vid=72f63983-e112-4b56-a265-24560ff50b47"},"vehicle_type_id":"4","last_reported":1729541414,"current_range_meters":30000,"station_id":"ce4bgv92rcd13ifvqcr0","pricing_plan_id":"cebpf4jnsgd1na2vs0mg"},{"bike_id":"c4bd4984-7993-47cd-a212-6b533f74abb4","system_id":"levelo_inurba_marseille","lat":43.31179,"lon":5.38707,"is_reserved":false,"is_disabled":false,"rental_uris":{"android":"levelo://app?vid=c4bd4984-7993-47cd-a212-6b533f74abb4","ios":"levelo://app?vid=c4bd4984-7993-47cd-a212-6b533f74abb4"},"vehicle_type_id":"4","last_reported":1729541414,"current_range_meters":24000,"station_id":"ce4bgv12rcd13ifvqcp0","pricing_plan_id":"cebpf4jnsgd1na2vs0mg"},{"bike_id":"5f7d4f90-4785-4f38-85ff-282113d1a444","system_id":"levelo_inurba_marseille","lat":43.29789,"lon":5.39355,"is_reserved":false,"is_disabled":false,"rental_uris":{"android":"levelo://app?vid=5f7d4f90-4785-4f38-85ff-282113d1a444","ios":"levelo://app?vid=5f7d4f90-4785-4f38-85ff-282113d1a444"},"vehicle_type_id":"4","last_reported":1729541414,"current_range_meters":38800,"station_id":"chh1huq6cuj3fo74tm60","pricing_plan_id":"cebpf4jnsgd1na2vs0mg"},{"bike_id":"b7e9d7b1-337d-4222-9e82-5748a0f9aff7","system_id":"levelo_inurba_marseille","lat":43.29878,"lon":5.3891,"is_reserved":false,"is_disabled":false,"rental_uris":{"android":"levelo://app?vid=b7e9d7b1-337d-4222-9e82-5748a0f9aff7","ios":"levelo://app?vid=b7e9d7b1-337d-4222-9e82-5748a0f9aff7"},"vehicle_type_id":"4","last_reported":1729541414,"current_range_meters":38800,"station_id":"ce4bh392rcd13ifvqdl0","pricing_plan_id":"cebpf4jnsgd1na2vs0mg"},{"bike_id":"838134ea-11b7-4776-aad5-c9292871a849","system_id":"levelo_inurba_marseille","lat":43.3176,"lon":5.39016,"is_reserved":false,"is_disabled":false,"rental_uris":{"android":"levelo://app?vid=838134ea-11b7-4776-aad5-c9292871a849","ios":"levelo://app?vid=838134ea-11b7-4776-aad5-c9292871a849"},"vehicle_type_id":"4","last_reported":1729541414,"current_range_meters":38800,"station_id":"ce4bhqp2rcd13ifvqhng","pricing_plan_id":"cebpf4jnsgd1na2vs0mg"},{"bike_id":"34212dd2-b618-4159-a4a9-6b8d037c0b10","system_id":"levelo_inurba_marseille","lat":43.27649,"lon":5.38889,"is_reserved":false,"is_disabled":false,"rental_uris":{"android":"levelo://app?vid=34212dd2-b618-4159-a4a9-6b8d037c0b10","ios":"levelo://app?vid=34212dd2-b618-4159-a4a9-6b8d037c0b10"},"vehicle_type_id":"4","last_reported":1729541414,"current_range_meters":8000,"station_id":"ce4bhi12rcd13ifvqfo0","pricing_plan_id":"cebpf4jnsgd1na2vs0mg"},{"bike_id":"8913b4e4-7c4d-48af-ba57-e2c3579843d0","system_id":"levelo_inurba_marseille","lat":43.27613,"lon":5.36109,"is_reserved":false,"is_disabled":false,"rental_uris":{"android":"levelo://app?vid=8913b4e4-7c4d-48af-ba57-e2c3579843d0","ios":"levelo://app?vid=8913b4e4-7c4d-48af-ba57-e2c3579843d0"},"vehicle_type_id":"4","last_reported":1729541414,"current_range_meters":6000,"station_id":"ce4bgj92rcd13ifvqbe0","pricing_plan_id":"cebpf4jnsgd1na2vs0mg"},{"bike_id":"64f203eb-4e95-43c3-ad61-3b4d38b293ea","system_id":"levelo_inurba_marseille","lat":43.28464,"lon":5.35876,"is_reserved":false,"is_disabled":false,"rental_uris":{"android":"levelo://app?vid=64f203eb-4e95-43c3-ad61-3b4d38b293ea","ios":"levelo://app?vid=64f203eb-4e95-43c3-ad61-3b4d38b293ea"},"vehicle_type_id":"4","last_reported":1729541414,"current_range_meters":38400,"station_id":"ce4bhah2rcd13ifvqei0","pricing_plan_id":"cebpf4jnsgd1na2vs0mg"},{"bike_id":"0705f38a-5e3d-4526-8d8f-b375c831f19b","system_id":"levelo_inurba_marseille","lat":43.29526,"lon":5.39404,"is_reserved":false,"is_disabled":false,"rental_uris":{"android":"levelo://app?vid=0705f38a-5e3d-4526-8d8f-b375c831f19b","ios":"levelo://app?vid=0705f38a-5e3d-4526-8d8f-b375c831f19b"},"vehicle_type_id":"4","last_reported":1729541414,"current_range_meters":28800,"station_id":"ce4bh292rcd13ifvqdf0","pricing_plan_id":"cebpf4jnsgd1na2vs0mg"},{"bike_id":"b3aefb73-1d8f-4ee1-8ee0-9c59a9b98a9a","system_id":"levelo_inurba_marseille","lat":43.298028,"lon":5.381063,"is_reserved":false,"is_disabled":false,"rental_uris":{"android":"levelo://app?vid=b3aefb73-1d8f-4ee1-8ee0-9c59a9b98a9a","ios":"levelo://app?vid=b3aefb73-1d8f-4ee1-8ee0-9c59a9b98a9a"},"vehicle_type_id":"4","last_reported":1729541414,"current_range_meters":21600,"station_id":"ce4bhkp2rcd13ifvqgd0","pricing_plan_id":"cebpf4jnsgd1na2vs0mg"},{"bike_id":"815dd284-1bd2-4bb9-992a-b2116e2485bc","system_id":"levelo_inurba_marseille","lat":43.32783,"lon":5.36156,"is_reserved":false,"is_disabled":false,"rental_uris":{"android":"levelo://app?vid=815dd284-1bd2-4bb9-992a-b2116e2485bc","ios":"levelo://app?vid=815dd284-1bd2-4bb9-992a-b2116e2485bc"},"vehicle_type_id":"4","last_reported":1729541414,"current_range_meters":36400,"station_id":"","pricing_plan_id":"cebpf4jnsgd1na2vs0mg"},{"bike_id":"81c3754e-8434-466f-a3c8-cb133df57504","system_id":"levelo_inurba_marseille","lat":43.284584,"lon":5.358884,"is_reserved":false,"is_disabled":false,"rental_uris":{"android":"levelo://app?vid=81c3754e-8434-466f-a3c8-cb133df57504","ios":"levelo://app?vid=81c3754e-8434-466f-a3c8-cb133df57504"},"vehicle_type_id":"4","last_reported":1729541414,"current_range_meters":30400,"station_id":"ce4bhah2rcd13ifvqei0","pricing_plan_id":"cebpf4jnsgd1na2vs0mg"},{"bike_id":"63789488-69ca-4cfc-ab5a-7ccb9e54e62c","system_id":"levelo_inurba_marseille","lat":43.30184,"lon":5.36603,"is_reserved":false,"is_disabled":false,"rental_uris":{"android":"levelo://app?vid=63789488-69ca-4cfc-ab5a-7ccb9e54e62c","ios":"levelo://app?vid=63789488-69ca-4cfc-ab5a-7ccb9e54e62c"},"vehicle_type_id":"4","last_reported":1729541414,"current_range_meters":14000,"station_id":"ce4bgrh2rcd13ifvqc8g","pricing_plan_id":"cebpf4jnsgd1na2vs0mg"},{"bike_id":"2c1fae55-921d-4a72-86b0-19b559b438c8","system_id":"levelo_inurba_marseille","lat":43.31718,"lon":5.42405,"is_reserved":false,"is_disabled":false,"rental_uris":{"android":"levelo://app?vid=2c1fae55-921d-4a72-86b0-19b559b438c8","ios":"levelo://app?vid=2c1fae55-921d-4a72-86b0-19b559b438c8"},"vehicle_type_id":"4","last_reported":1729541414,"current_range_meters":39200,"station_id":"ce4bhp92rcd13ifvqhbg","pricing_plan_id":"cebpf4jnsgd1na2vs0mg"},{"bike_id":"2ab93123-291c-4979-b02a-b3d3b98ed9ea","system_id":"levelo_inurba_marseille","lat":43.24815,"lon":5.37451,"is_reserved":false,"is_disabled":false,"rental_uris":{"android":"levelo://app?vid=2ab93123-291c-4979-b02a-b3d3b98ed9ea","ios":"levelo://app?vid=2ab93123-291c-4979-b02a-b3d3b98ed9ea"},"vehicle_type_id":"4","last_reported":1729541414,"current_range_meters":39200,"station_id":"ce4bhgh2rcd13ifvqfb0","pricing_plan_id":"cebpf4jnsgd1na2vs0mg"},{"bike_id":"52cacf59-1ce4-4969-8f48-ccbb6523a4f6","system_id":"levelo_inurba_marseille","lat":43.273733,"lon":5.362626,"is_reserved":false,"is_disabled":false,"rental_uris":{"android":"levelo://app?vid=52cacf59-1ce4-4969-8f48-ccbb6523a4f6","ios":"levelo://app?vid=52cacf59-1ce4-4969-8f48-ccbb6523a4f6"},"vehicle_type_id":"4","last_reported":1729541414,"current_range_meters":10000,"station_id":"ce4bhbh2rcd13ifvqeo0","pricing_plan_id":"cebpf4jnsgd1na2vs0mg"},{"bike_id":"1aa14e46-d046-4cdd-b86b-2ba1e9f61538","system_id":"levelo_inurba_marseille","lat":43.288918,"lon":5.359405,"is_reserved":false,"is_disabled":false,"rental_uris":{"android":"levelo://app?vid=1aa14e46-d046-4cdd-b86b-2ba1e9f61538","ios":"levelo://app?vid=1aa14e46-d046-4cdd-b86b-2ba1e9f61538"},"vehicle_type_id":"4","last_reported":1729541414,"current_range_meters":13600,"station_id":"ce4bhb12rcd13ifvqem0","pricing_plan_id":"cebpf4jnsgd1na2vs0mg"},{"bike_id":"f91cd0e2-7fe1-48d9-8e04-1ed2d04f7c33","system_id":"levelo_inurba_marseille","lat":43.30888,"lon":5.3963,"is_reserved":false,"is_disabled":false,"rental_uris":{"android":"levelo://app?vid=f91cd0e2-7fe1-48d9-8e04-1ed2d04f7c33","ios":"levelo://app?vid=f91cd0e2-7fe1-48d9-8e04-1ed2d04f7c33"},"vehicle_type_id":"4","last_reported":1729541414,"current_range_meters":26000,"station_id":"ce4bh012rcd13ifvqcv0","pricing_plan_id":"cebpf4jnsgd1na2vs0mg"},{"bike_id":"44b2505f-d298-45bb-ac9a-ed4a09cbbda2","system_id":"levelo_inurba_marseille","lat":43.31173,"lon":5.38717,"is_reserved":false,"is_disabled":false,"rental_uris":{"android":"levelo://app?vid=44b2505f-d298-45bb-ac9a-ed4a09cbbda2","ios":"levelo://app?vid=44b2505f-d298-45bb-ac9a-ed4a09cbbda2"},"vehicle_type_id":"4","last_reported":1729541414,"current_range_meters":29600,"station_id":"ce4bgv12rcd13ifvqcp0","pricing_plan_id":"cebpf4jnsgd1na2vs0mg"},{"bike_id":"480400dc-e3f6-417e-aa86-020754f281f9","system_id":"levelo_inurba_marseille","lat":43.30099,"lon":5.39085,"is_reserved":false,"is_disabled":false,"rental_uris":{"android":"levelo://app?vid=480400dc-e3f6-417e-aa86-020754f281f9","ios":"levelo://app?vid=480400dc-e3f6-417e-aa86-020754f281f9"},"vehicle_type_id":"4","last_reported":1729541414,"current_range_meters":36800,"station_id":"ce4bh192rcd13ifvqdb0","pricing_plan_id":"cebpf4jnsgd1na2vs0mg"},{"bike_id":"44d195bb-cfb4-4f79-a98c-1e55ff1748d3","system_id":"levelo_inurba_marseille","lat":43.3171,"lon":5.43708,"is_reserved":false,"is_disabled":false,"rental_uris":{"android":"levelo://app?vid=44d195bb-cfb4-4f79-a98c-1e55ff1748d3","ios":"levelo://app?vid=44d195bb-cfb4-4f79-a98c-1e55ff1748d3"},"vehicle_type_id":"4","last_reported":1729541414,"current_range_meters":38800,"station_id":"ce4bhp92rcd13ifvqhcg","pricing_plan_id":"cebpf4jnsgd1na2vs0mg"},{"bike_id":"cfab42e8-0473-4da4-a67b-8c84ed6e084e","system_id":"levelo_inurba_marseille","lat":43.2846,"lon":5.3588,"is_reserved":false,"is_disabled":false,"rental_uris":{"android":"levelo://app?vid=cfab42e8-0473-4da4-a67b-8c84ed6e084e","ios":"levelo://app?vid=cfab42e8-0473-4da4-a67b-8c84ed6e084e"},"vehicle_type_id":"4","last_reported":1729541414,"current_range_meters":21600,"station_id":"ce4bhah2rcd13ifvqei0","pricing_plan_id":"cebpf4jnsgd1na2vs0mg"},{"bike_id":"14b132de-19fe-4829-9e1a-1b2248bbbc44","system_id":"levelo_inurba_marseille","lat":43.239652,"lon":5.366278,"is_reserved":false,"is_disabled":false,"rental_uris":{"android":"levelo://app?vid=14b132de-19fe-4829-9e1a-1b2248bbbc44","ios":"levelo://app?vid=14b132de-19fe-4829-9e1a-1b2248bbbc44"},"vehicle_type_id":"4","last_reported":1729541414,"current_range_meters":38000,"station_id":"ce4bhi12rcd13ifvqfp0","pricing_plan_id":"cebpf4jnsgd1na2vs0mg"},{"bike_id":"ae3fcb04-be9a-4eda-86cc-c69683243e47","system_id":"levelo_inurba_marseille","lat":43.23965,"lon":5.36637,"is_reserved":false,"is_disabled":false,"rental_uris":{"android":"levelo://app?vid=ae3fcb04-be9a-4eda-86cc-c69683243e47","ios":"levelo://app?vid=ae3fcb04-be9a-4eda-86cc-c69683243e47"},"vehicle_type_id":"4","last_reported":1729541414,"current_range_meters":38800,"station_id":"ce4bhi12rcd13ifvqfp0","pricing_plan_id":"cebpf4jnsgd1na2vs0mg"},{"bike_id":"e01af3fb-a46a-472a-a9ce-4d0d6e75d0db","system_id":"levelo_inurba_marseille","lat":43.2846,"lon":5.35883,"is_reserved":false,"is_disabled":false,"rental_uris":{"android":"levelo://app?vid=e01af3fb-a46a-472a-a9ce-4d0d6e75d0db","ios":"levelo://app?vid=e01af3fb-a46a-472a-a9ce-4d0d6e75d0db"},"vehicle_type_id":"4","last_reported":1729541414,"current_range_meters":39200,"station_id":"ce4bhah2rcd13ifvqei0","pricing_plan_id":"cebpf4jnsgd1na2vs0mg"},{"bike_id":"a1bc3ce7-8c88-44d8-9ded-ea2db720c646","system_id":"levelo_inurba_marseille","lat":43.31069,"lon":5.38351,"is_reserved":false,"is_disabled":false,"rental_uris":{"android":"levelo://app?vid=a1bc3ce7-8c88-44d8-9ded-ea2db720c646","ios":"levelo://app?vid=a1bc3ce7-8c88-44d8-9ded-ea2db720c646"},"vehicle_type_id":"4","last_reported":1729541414,"current_range_meters":38000,"station_id":"ce4bgv92rcd13ifvqcr0","pricing_plan_id":"cebpf4jnsgd1na2vs0mg"},{"bike_id":"1f568f62-7910-45fc-bf42-9e1be550d85c","system_id":"levelo_inurba_marseille","lat":43.30913,"lon":5.36847,"is_reserved":false,"is_disabled":false,"rental_uris":{"android":"levelo://app?vid=1f568f62-7910-45fc-bf42-9e1be550d85c","ios":"levelo://app?vid=1f568f62-7910-45fc-bf42-9e1be550d85c"},"vehicle_type_id":"4","last_reported":1729541414,"current_range_meters":35600,"station_id":"ce4bgn92rcd13ifvqbvg","pricing_plan_id":"cebpf4jnsgd1na2vs0mg"},{"bike_id":"ec1dfb87-3281-46d1-92f5-1976aca8b0df","system_id":"levelo_inurba_marseille","lat":43.28477,"lon":5.38421,"is_reserved":false,"is_disabled":false,"rental_uris":{"android":"levelo://app?vid=ec1dfb87-3281-46d1-92f5-1976aca8b0df","ios":"levelo://app?vid=ec1dfb87-3281-46d1-92f5-1976aca8b0df"},"vehicle_type_id":"4","last_reported":1729541414,"current_range_meters":28400,"station_id":"ce4bh512rcd13ifvqe3g","pricing_plan_id":"cebpf4jnsgd1na2vs0mg"},{"bike_id":"e7b170f7-1a10-4029-971a-cccd271075f8","system_id":"levelo_inurba_marseille","lat":43.30917,"lon":5.36853,"is_reserved":false,"is_disabled":false,"rental_uris":{"android":"levelo://app?vid=e7b170f7-1a10-4029-971a-cccd271075f8","ios":"levelo://app?vid=e7b170f7-1a10-4029-971a-cccd271075f8"},"vehicle_type_id":"4","last_reported":1729541414,"current_range_meters":34000,"station_id":"ce4bgn92rcd13ifvqbvg","pricing_plan_id":"cebpf4jnsgd1na2vs0mg"},{"bike_id":"02829b49-ab20-4ede-ac0a-dc584fa52b02","system_id":"levelo_inurba_marseille","lat":43.29797,"lon":5.40403,"is_reserved":false,"is_disabled":false,"rental_uris":{"android":"levelo://app?vid=02829b49-ab20-4ede-ac0a-dc584fa52b02","ios":"levelo://app?vid=02829b49-ab20-4ede-ac0a-dc584fa52b02"},"vehicle_type_id":"4","last_reported":1729541414,"current_range_meters":38800,"station_id":"ce4bh112rcd13ifvqd90","pricing_plan_id":"cebpf4jnsgd1na2vs0mg"},{"bike_id":"b6d3ee1b-dd46-42bc-ad40-96db8e46ace6","system_id":"levelo_inurba_marseille","lat":43.280358,"lon":5.369434,"is_reserved":false,"is_disabled":false,"rental_uris":{"android":"levelo://app?vid=b6d3ee1b-dd46-42bc-ad40-96db8e46ace6","ios":"levelo://app?vid=b6d3ee1b-dd46-42bc-ad40-96db8e46ace6"},"vehicle_type_id":"4","last_reported":1729541414,"current_range_meters":38000,"station_id":"ce4bha12rcd13ifvqef0","pricing_plan_id":"cebpf4jnsgd1na2vs0mg"},{"bike_id":"c3d8c5f8-b3d2-4acd-80b2-268d0bec6afe","system_id":"levelo_inurba_marseille","lat":43.2318,"lon":5.39989,"is_reserved":false,"is_disabled":false,"rental_uris":{"android":"levelo://app?vid=c3d8c5f8-b3d2-4acd-80b2-268d0bec6afe","ios":"levelo://app?vid=c3d8c5f8-b3d2-4acd-80b2-268d0bec6afe"},"vehicle_type_id":"4","last_reported":1729541414,"current_range_meters":4400,"station_id":"ce4bhn12rcd13ifvqgqg","pricing_plan_id":"cebpf4jnsgd1na2vs0mg"},{"bike_id":"7f237824-6a97-49f1-b298-e8b8565491cf","system_id":"levelo_inurba_marseille","lat":43.31222,"lon":5.36851,"is_reserved":false,"is_disabled":false,"rental_uris":{"android":"levelo://app?vid=7f237824-6a97-49f1-b298-e8b8565491cf","ios":"levelo://app?vid=7f237824-6a97-49f1-b298-e8b8565491cf"},"vehicle_type_id":"4","last_reported":1729541414,"current_range_meters":30000,"station_id":"ce4bgl92rcd13ifvqbq0","pricing_plan_id":"cebpf4jnsgd1na2vs0mg"},{"bike_id":"7a794860-11b2-476b-959f-bb389c2acd7c","system_id":"levelo_inurba_marseille","lat":43.29876,"lon":5.39749,"is_reserved":false,"is_disabled":false,"rental_uris":{"android":"levelo://app?vid=7a794860-11b2-476b-959f-bb389c2acd7c","ios":"levelo://app?vid=7a794860-11b2-476b-959f-bb389c2acd7c"},"vehicle_type_id":"4","last_reported":1729541414,"current_range_meters":32000,"station_id":"ce4bh0h2rcd13ifvqd50","pricing_plan_id":"cebpf4jnsgd1na2vs0mg"},{"bike_id":"197bc34a-aaae-4c08-94c2-cecf7343d4b4","system_id":"levelo_inurba_marseille","lat":43.27375,"lon":5.3626,"is_reserved":false,"is_disabled":false,"rental_uris":{"android":"levelo://app?vid=197bc34a-aaae-4c08-94c2-cecf7343d4b4","ios":"levelo://app?vid=197bc34a-aaae-4c08-94c2-cecf7343d4b4"},"vehicle_type_id":"4","last_reported":1729541414,"current_range_meters":38800,"station_id":"ce4bhbh2rcd13ifvqeo0","pricing_plan_id":"cebpf4jnsgd1na2vs0mg"},{"bike_id":"dea505d1-a491-450a-8799-669d2c846e1b","system_id":"levelo_inurba_marseille","lat":43.24183,"lon":5.39725,"is_reserved":false,"is_disabled":false,"rental_uris":{"android":"levelo://app?vid=dea505d1-a491-450a-8799-669d2c846e1b","ios":"levelo://app?vid=dea505d1-a491-450a-8799-669d2c846e1b"},"vehicle_type_id":"4","last_reported":1729541414,"current_range_meters":22800,"station_id":"ce4bhn12rcd13ifvqgpg","pricing_plan_id":"cebpf4jnsgd1na2vs0mg"},{"bike_id":"ea2087a3-c32a-4158-91ea-aedbc76597e2","system_id":"levelo_inurba_marseille","lat":43.31371,"lon":5.38479,"is_reserved":false,"is_disabled":false,"rental_uris":{"android":"levelo://app?vid=ea2087a3-c32a-4158-91ea-aedbc76597e2","ios":"levelo://app?vid=ea2087a3-c32a-4158-91ea-aedbc76597e2"},"vehicle_type_id":"4","last_reported":1729541414,"current_range_meters":3200,"station_id":"ce4bgt92rcd13ifvqcf0","pricing_plan_id":"cebpf4jnsgd1na2vs0mg"},{"bike_id":"6c74d909-b25a-4916-9720-05db7139c59f","system_id":"levelo_inurba_marseille","lat":43.25721,"lon":5.41115,"is_reserved":false,"is_disabled":false,"rental_uris":{"android":"levelo://app?vid=6c74d909-b25a-4916-9720-05db7139c59f","ios":"levelo://app?vid=6c74d909-b25a-4916-9720-05db7139c59f"},"vehicle_type_id":"4","last_reported":1729541414,"current_range_meters":20000,"station_id":"ce4bhkp2rcd13ifvqgd0","pricing_plan_id":"cebpf4jnsgd1na2vs0mg"},{"bike_id":"7fcafa7d-3c42-4b8e-b394-dd49059b8d92","system_id":"levelo_inurba_marseille","lat":43.30298,"lon":5.39216,"is_reserved":false,"is_disabled":false,"rental_uris":{"android":"levelo://app?vid=7fcafa7d-3c42-4b8e-b394-dd49059b8d92","ios":"levelo://app?vid=7fcafa7d-3c42-4b8e-b394-dd49059b8d92"},"vehicle_type_id":"4","last_reported":1729541414,"current_range_meters":28000,"station_id":"ce4bgkh2rcd13ifvqbk0","pricing_plan_id":"cebpf4jnsgd1na2vs0mg"},{"bike_id":"b894b3a8-6e2a-4efa-8099-357feb0fe150","system_id":"levelo_inurba_marseille","lat":43.28279,"lon":5.35081,"is_reserved":false,"is_disabled":false,"rental_uris":{"android":"levelo://app?vid=b894b3a8-6e2a-4efa-8099-357feb0fe150","ios":"levelo://app?vid=b894b3a8-6e2a-4efa-8099-357feb0fe150"},"vehicle_type_id":"4","last_reported":1729541414,"current_range_meters":13600,"station_id":"ce4bhbp2rcd13ifvqerg","pricing_plan_id":"cebpf4jnsgd1na2vs0mg"},{"bike_id":"2cd47a4e-c103-45e9-a12b-82e873e085f1","system_id":"levelo_inurba_marseille","lat":43.28859,"lon":5.39323,"is_reserved":false,"is_disabled":false,"rental_uris":{"android":"levelo://app?vid=2cd47a4e-c103-45e9-a12b-82e873e085f1","ios":"levelo://app?vid=2cd47a4e-c103-45e9-a12b-82e873e085f1"},"vehicle_type_id":"4","last_reported":1729541414,"current_range_meters":38800,"station_id":"ce4bh2p2rcd13ifvqdi0","pricing_plan_id":"cebpf4jnsgd1na2vs0mg"},{"bike_id":"4b321f9c-d240-4200-bb60-7b70406f810a","system_id":"levelo_inurba_marseille","lat":43.25083,"lon":5.39523,"is_reserved":false,"is_disabled":false,"rental_uris":{"android":"levelo://app?vid=4b321f9c-d240-4200-bb60-7b70406f810a","ios":"levelo://app?vid=4b321f9c-d240-4200-bb60-7b70406f810a"},"vehicle_type_id":"4","last_reported":1729541414,"current_range_meters":16800,"station_id":"ce4bhm12rcd13ifvqgkg","pricing_plan_id":"cebpf4jnsgd1na2vs0mg"},{"bike_id":"a9002a5d-a535-42b5-88b4-26d81fd5238e","system_id":"levelo_inurba_marseille","lat":43.32335,"lon":5.40622,"is_reserved":false,"is_disabled":false,"rental_uris":{"android":"levelo://app?vid=a9002a5d-a535-42b5-88b4-26d81fd5238e","ios":"levelo://app?vid=a9002a5d-a535-42b5-88b4-26d81fd5238e"},"vehicle_type_id":"4","last_reported":1729541414,"current_range_meters":8000,"station_id":"ce4bhq92rcd13ifvqhjg","pricing_plan_id":"cebpf4jnsgd1na2vs0mg"},{"bike_id":"116ecbca-0cab-487a-9fcc-1fb040a57309","system_id":"levelo_inurba_marseille","lat":43.3013,"lon":5.38767,"is_reserved":false,"is_disabled":false,"rental_uris":{"android":"levelo://app?vid=116ecbca-0cab-487a-9fcc-1fb040a57309","ios":"levelo://app?vid=116ecbca-0cab-487a-9fcc-1fb040a57309"},"vehicle_type_id":"4","last_reported":1729541414,"current_range_meters":38800,"station_id":"ce4bghh2rcd13ifvqb60","pricing_plan_id":"cebpf4jnsgd1na2vs0mg"},{"bike_id":"b832b1ba-71c3-41fb-8ede-14eac9d4a090","system_id":"levelo_inurba_marseille","lat":43.30917,"lon":5.3686,"is_reserved":false,"is_disabled":false,"rental_uris":{"android":"levelo://app?vid=b832b1ba-71c3-41fb-8ede-14eac9d4a090","ios":"levelo://app?vid=b832b1ba-71c3-41fb-8ede-14eac9d4a090"},"vehicle_type_id":"4","last_reported":1729541414,"current_range_meters":39200,"station_id":"ce4bgn92rcd13ifvqbvg","pricing_plan_id":"cebpf4jnsgd1na2vs0mg"},{"bike_id":"6675c379-1f8f-4999-9b70-2c61ecec15dd","system_id":"levelo_inurba_marseille","lat":43.30422,"lon":5.38891,"is_reserved":false,"is_disabled":false,"rental_uris":{"android":"levelo://app?vid=6675c379-1f8f-4999-9b70-2c61ecec15dd","ios":"levelo://app?vid=6675c379-1f8f-4999-9b70-2c61ecec15dd"},"vehicle_type_id":"4","last_reported":1729541414,"current_range_meters":24400,"station_id":"ce4bgk12rcd13ifvqbi0","pricing_plan_id":"cebpf4jnsgd1na2vs0mg"},{"bike_id":"1a4055fa-f792-4be2-a545-13404d5ad208","system_id":"levelo_inurba_marseille","lat":43.2762,"lon":5.36109,"is_reserved":false,"is_disabled":false,"rental_uris":{"android":"levelo://app?vid=1a4055fa-f792-4be2-a545-13404d5ad208","ios":"levelo://app?vid=1a4055fa-f792-4be2-a545-13404d5ad208"},"vehicle_type_id":"4","last_reported":1729541414,"current_range_meters":38800,"station_id":"ce4bgj92rcd13ifvqbe0","pricing_plan_id":"cebpf4jnsgd1na2vs0mg"},{"bike_id":"2adaa7e6-e7e4-4c71-94a8-6b6dda34ebf9","system_id":"levelo_inurba_marseille","lat":43.30098,"lon":5.39076,"is_reserved":false,"is_disabled":false,"rental_uris":{"android":"levelo://app?vid=2adaa7e6-e7e4-4c71-94a8-6b6dda34ebf9","ios":"levelo://app?vid=2adaa7e6-e7e4-4c71-94a8-6b6dda34ebf9"},"vehicle_type_id":"4","last_reported":1729541414,"current_range_meters":30400,"station_id":"","pricing_plan_id":"cebpf4jnsgd1na2vs0mg"},{"bike_id":"07a06f29-95a6-4e03-b330-ac0d52fc59a2","system_id":"levelo_inurba_marseille","lat":43.32487,"lon":5.36573,"is_reserved":false,"is_disabled":false,"rental_uris":{"android":"levelo://app?vid=07a06f29-95a6-4e03-b330-ac0d52fc59a2","ios":"levelo://app?vid=07a06f29-95a6-4e03-b330-ac0d52fc59a2"},"vehicle_type_id":"4","last_reported":1729541414,"current_range_meters":3200,"station_id":"ce4bhs12rcd13ifvqhvg","pricing_plan_id":"cebpf4jnsgd1na2vs0mg"},{"bike_id":"2b6d7389-3f0f-4763-9fef-35d7bb3b5124","system_id":"levelo_inurba_marseille","lat":43.2917,"lon":5.37153,"is_reserved":false,"is_disabled":false,"rental_uris":{"android":"levelo://app?vid=2b6d7389-3f0f-4763-9fef-35d7bb3b5124","ios":"levelo://app?vid=2b6d7389-3f0f-4763-9fef-35d7bb3b5124"},"vehicle_type_id":"4","last_reported":1729541414,"current_range_meters":34000,"station_id":"ce4bha92rcd13ifvqeh0","pricing_plan_id":"cebpf4jnsgd1na2vs0mg"},{"bike_id":"c222ecdf-c704-4ada-9a17-3ff47379126f","system_id":"levelo_inurba_marseille","lat":43.2846,"lon":5.3588,"is_reserved":false,"is_disabled":false,"rental_uris":{"android":"levelo://app?vid=c222ecdf-c704-4ada-9a17-3ff47379126f","ios":"levelo://app?vid=c222ecdf-c704-4ada-9a17-3ff47379126f"},"vehicle_type_id":"4","last_reported":1729541414,"current_range_meters":28400,"station_id":"ce4bhah2rcd13ifvqei0","pricing_plan_id":"cebpf4jnsgd1na2vs0mg"},{"bike_id":"1ab83269-2bc4-44e8-be8b-dfcbd57bdbf5","system_id":"levelo_inurba_marseille","lat":43.243854,"lon":5.370671,"is_reserved":false,"is_disabled":false,"rental_uris":{"android":"levelo://app?vid=1ab83269-2bc4-44e8-be8b-dfcbd57bdbf5","ios":"levelo://app?vid=1ab83269-2bc4-44e8-be8b-dfcbd57bdbf5"},"vehicle_type_id":"4","last_reported":1729541414,"current_range_meters":16400,"station_id":"ce4bhhh2rcd13ifvqfk0","pricing_plan_id":"cebpf4jnsgd1na2vs0mg"},{"bike_id":"ebc9ea45-3609-4818-8576-895debc68104","system_id":"levelo_inurba_marseille","lat":43.25547,"lon":5.39062,"is_reserved":false,"is_disabled":false,"rental_uris":{"android":"levelo://app?vid=ebc9ea45-3609-4818-8576-895debc68104","ios":"levelo://app?vid=ebc9ea45-3609-4818-8576-895debc68104"},"vehicle_type_id":"4","last_reported":1729541414,"current_range_meters":36400,"station_id":"","pricing_plan_id":"cebpf4jnsgd1na2vs0mg"},{"bike_id":"8e8c1152-0d97-40bb-b78b-175b82389400","system_id":"levelo_inurba_marseille","lat":43.23961,"lon":5.3664,"is_reserved":false,"is_disabled":false,"rental_uris":{"android":"levelo://app?vid=8e8c1152-0d97-40bb-b78b-175b82389400","ios":"levelo://app?vid=8e8c1152-0d97-40bb-b78b-175b82389400"},"vehicle_type_id":"4","last_reported":1729541414,"current_range_meters":16800,"station_id":"ce4bhi12rcd13ifvqfp0","pricing_plan_id":"cebpf4jnsgd1na2vs0mg"},{"bike_id":"44034aed-59d3-4bb9-a078-9684442d4d7f","system_id":"levelo_inurba_marseille","lat":43.27898,"lon":5.38008,"is_reserved":false,"is_disabled":false,"rental_uris":{"android":"levelo://app?vid=44034aed-59d3-4bb9-a078-9684442d4d7f","ios":"levelo://app?vid=44034aed-59d3-4bb9-a078-9684442d4d7f"},"vehicle_type_id":"4","last_reported":1729541414,"current_range_meters":10000,"station_id":"ce4bhf92rcd13ifvqf50","pricing_plan_id":"cebpf4jnsgd1na2vs0mg"},{"bike_id":"ae5b0838-832e-4df1-9248-7cf76dc1ac79","system_id":"levelo_inurba_marseille","lat":43.27369,"lon":5.36257,"is_reserved":false,"is_disabled":false,"rental_uris":{"android":"levelo://app?vid=ae5b0838-832e-4df1-9248-7cf76dc1ac79","ios":"levelo://app?vid=ae5b0838-832e-4df1-9248-7cf76dc1ac79"},"vehicle_type_id":"4","last_reported":1729541414,"current_range_meters":38400,"station_id":"ce4bhbh2rcd13ifvqeo0","pricing_plan_id":"cebpf4jnsgd1na2vs0mg"},{"bike_id":"3c22c1a4-538a-4723-b2ed-f12538739d73","system_id":"levelo_inurba_marseille","lat":43.28456,"lon":5.35895,"is_reserved":false,"is_disabled":false,"rental_uris":{"android":"levelo://app?vid=3c22c1a4-538a-4723-b2ed-f12538739d73","ios":"levelo://app?vid=3c22c1a4-538a-4723-b2ed-f12538739d73"},"vehicle_type_id":"4","last_reported":1729541414,"current_range_meters":36000,"station_id":"ce4bhah2rcd13ifvqei0","pricing_plan_id":"cebpf4jnsgd1na2vs0mg"},{"bike_id":"a828ccdc-bbd0-47c4-8c31-edaa5e1fcbb4","system_id":"levelo_inurba_marseille","lat":43.23179,"lon":5.39987,"is_reserved":false,"is_disabled":false,"rental_uris":{"android":"levelo://app?vid=a828ccdc-bbd0-47c4-8c31-edaa5e1fcbb4","ios":"levelo://app?vid=a828ccdc-bbd0-47c4-8c31-edaa5e1fcbb4"},"vehicle_type_id":"4","last_reported":1729541414,"current_range_meters":16400,"station_id":"ce4bhn12rcd13ifvqgqg","pricing_plan_id":"cebpf4jnsgd1na2vs0mg"},{"bike_id":"98f5304c-57d9-4749-a960-145892b4889b","system_id":"levelo_inurba_marseille","lat":43.28413,"lon":5.34993,"is_reserved":false,"is_disabled":false,"rental_uris":{"android":"levelo://app?vid=98f5304c-57d9-4749-a960-145892b4889b","ios":"levelo://app?vid=98f5304c-57d9-4749-a960-145892b4889b"},"vehicle_type_id":"4","last_reported":1729541414,"current_range_meters":36400,"station_id":"ce4bhbh2rcd13ifvqepg","pricing_plan_id":"cebpf4jnsgd1na2vs0mg"},{"bike_id":"82b28940-f5a6-4510-977d-3d5ba59f514e","system_id":"levelo_inurba_marseille","lat":43.301697,"lon":5.389144,"is_reserved":false,"is_disabled":false,"rental_uris":{"android":"levelo://app?vid=82b28940-f5a6-4510-977d-3d5ba59f514e","ios":"levelo://app?vid=82b28940-f5a6-4510-977d-3d5ba59f514e"},"vehicle_type_id":"4","last_reported":1729541414,"current_range_meters":18800,"station_id":"ce4bh092rcd13ifvqd20","pricing_plan_id":"cebpf4jnsgd1na2vs0mg"},{"bike_id":"7cfeb973-2c45-478c-8f05-90dbbb5bf70a","system_id":"levelo_inurba_marseille","lat":43.28462,"lon":5.35883,"is_reserved":false,"is_disabled":false,"rental_uris":{"android":"levelo://app?vid=7cfeb973-2c45-478c-8f05-90dbbb5bf70a","ios":"levelo://app?vid=7cfeb973-2c45-478c-8f05-90dbbb5bf70a"},"vehicle_type_id":"4","last_reported":1729541414,"current_range_meters":38800,"station_id":"ce4bhah2rcd13ifvqei0","pricing_plan_id":"cebpf4jnsgd1na2vs0mg"},{"bike_id":"901e5492-56fe-4e15-98af-77f3e936c5e7","system_id":"levelo_inurba_marseille","lat":43.31326,"lon":5.39701,"is_reserved":false,"is_disabled":false,"rental_uris":{"android":"levelo://app?vid=901e5492-56fe-4e15-98af-77f3e936c5e7","ios":"levelo://app?vid=901e5492-56fe-4e15-98af-77f3e936c5e7"},"vehicle_type_id":"4","last_reported":1729541414,"current_range_meters":11600,"station_id":"ce4bgvp2rcd13ifvqcu0","pricing_plan_id":"cebpf4jnsgd1na2vs0mg"},{"bike_id":"40c0bc0a-74ea-451a-8758-d5d25437ce7e","system_id":"levelo_inurba_marseille","lat":43.3014,"lon":5.38772,"is_reserved":false,"is_disabled":false,"rental_uris":{"android":"levelo://app?vid=40c0bc0a-74ea-451a-8758-d5d25437ce7e","ios":"levelo://app?vid=40c0bc0a-74ea-451a-8758-d5d25437ce7e"},"vehicle_type_id":"4","last_reported":1729541414,"current_range_meters":14000,"station_id":"ce4bghh2rcd13ifvqb60","pricing_plan_id":"cebpf4jnsgd1na2vs0mg"},{"bike_id":"67643aa6-6d63-4f00-94f1-aafe6c1d2c4c","system_id":"levelo_inurba_marseille","lat":43.31173,"lon":5.38706,"is_reserved":false,"is_disabled":false,"rental_uris":{"android":"levelo://app?vid=67643aa6-6d63-4f00-94f1-aafe6c1d2c4c","ios":"levelo://app?vid=67643aa6-6d63-4f00-94f1-aafe6c1d2c4c"},"vehicle_type_id":"4","last_reported":1729541414,"current_range_meters":38800,"station_id":"ce4bgv12rcd13ifvqcp0","pricing_plan_id":"cebpf4jnsgd1na2vs0mg"},{"bike_id":"b08806d8-a7d6-4afc-8f16-0b9e5cace6b2","system_id":"levelo_inurba_marseille","lat":43.318807,"lon":5.407374,"is_reserved":false,"is_disabled":false,"rental_uris":{"android":"levelo://app?vid=b08806d8-a7d6-4afc-8f16-0b9e5cace6b2","ios":"levelo://app?vid=b08806d8-a7d6-4afc-8f16-0b9e5cace6b2"},"vehicle_type_id":"4","last_reported":1729541414,"current_range_meters":36800,"station_id":"ce4bhq12rcd13ifvqhig","pricing_plan_id":"cebpf4jnsgd1na2vs0mg"},{"bike_id":"4950b9e5-6fb9-4c19-add8-2cbce3b85a79","system_id":"levelo_inurba_marseille","lat":43.296173,"lon":5.371623,"is_reserved":false,"is_disabled":false,"rental_uris":{"android":"levelo://app?vid=4950b9e5-6fb9-4c19-add8-2cbce3b85a79","ios":"levelo://app?vid=4950b9e5-6fb9-4c19-add8-2cbce3b85a79"},"vehicle_type_id":"4","last_reported":1729541414,"current_range_meters":37600,"station_id":"ce4bgnh2rcd13ifvqc0g","pricing_plan_id":"cebpf4jnsgd1na2vs0mg"},{"bike_id":"926c78b5-c75d-49f7-b847-bce505991a66","system_id":"levelo_inurba_marseille","lat":43.323408,"lon":5.406256,"is_reserved":false,"is_disabled":false,"rental_uris":{"android":"levelo://app?vid=926c78b5-c75d-49f7-b847-bce505991a66","ios":"levelo://app?vid=926c78b5-c75d-49f7-b847-bce505991a66"},"vehicle_type_id":"4","last_reported":1729541414,"current_range_meters":23200,"station_id":"ce4bhq92rcd13ifvqhjg","pricing_plan_id":"cebpf4jnsgd1na2vs0mg"},{"bike_id":"0be0705b-5de6-42c7-8193-4fc62119d866","system_id":"levelo_inurba_marseille","lat":43.29027,"lon":5.38642,"is_reserved":false,"is_disabled":false,"rental_uris":{"android":"levelo://app?vid=0be0705b-5de6-42c7-8193-4fc62119d866","ios":"levelo://app?vid=0be0705b-5de6-42c7-8193-4fc62119d866"},"vehicle_type_id":"4","last_reported":1729541414,"current_range_meters":38800,"station_id":"ce4bh4p2rcd13ifvqe0g","pricing_plan_id":"cebpf4jnsgd1na2vs0mg"},{"bike_id":"14da6c1d-990f-4654-817f-07a1766af5db","system_id":"levelo_inurba_marseille","lat":43.27499,"lon":5.42447,"is_reserved":false,"is_disabled":false,"rental_uris":{"android":"levelo://app?vid=14da6c1d-990f-4654-817f-07a1766af5db","ios":"levelo://app?vid=14da6c1d-990f-4654-817f-07a1766af5db"},"vehicle_type_id":"4","last_reported":1729541414,"current_range_meters":30400,"station_id":"ce4bhn92rcd13ifvqgrg","pricing_plan_id":"cebpf4jnsgd1na2vs0mg"},{"bike_id":"45eaa57f-57e0-484d-85a0-b9ad910da9d5","system_id":"levelo_inurba_marseille","lat":43.31226,"lon":5.3686,"is_reserved":false,"is_disabled":false,"rental_uris":{"android":"levelo://app?vid=45eaa57f-57e0-484d-85a0-b9ad910da9d5","ios":"levelo://app?vid=45eaa57f-57e0-484d-85a0-b9ad910da9d5"},"vehicle_type_id":"4","last_reported":1729541414,"current_range_meters":10800,"station_id":"ce4bgl92rcd13ifvqbq0","pricing_plan_id":"cebpf4jnsgd1na2vs0mg"},{"bike_id":"fa360f0b-f9bd-4eae-a452-c749572ab2db","system_id":"levelo_inurba_marseille","lat":43.28935,"lon":5.39628,"is_reserved":false,"is_disabled":false,"rental_uris":{"android":"levelo://app?vid=fa360f0b-f9bd-4eae-a452-c749572ab2db","ios":"levelo://app?vid=fa360f0b-f9bd-4eae-a452-c749572ab2db"},"vehicle_type_id":"4","last_reported":1729541414,"current_range_meters":3600,"station_id":"ce4bh3h2rcd13ifvqdn0","pricing_plan_id":"cebpf4jnsgd1na2vs0mg"},{"bike_id":"e78e73ad-4d1c-4cb8-ae44-cd31c5eb04b4","system_id":"levelo_inurba_marseille","lat":43.29874,"lon":5.39733,"is_reserved":false,"is_disabled":false,"rental_uris":{"android":"levelo://app?vid=e78e73ad-4d1c-4cb8-ae44-cd31c5eb04b4","ios":"levelo://app?vid=e78e73ad-4d1c-4cb8-ae44-cd31c5eb04b4"},"vehicle_type_id":"4","last_reported":1729541414,"current_range_meters":24800,"station_id":"ce4bh0h2rcd13ifvqd50","pricing_plan_id":"cebpf4jnsgd1na2vs0mg"},{"bike_id":"c4e1ab4c-e817-417b-818a-3cfe70bddf05","system_id":"levelo_inurba_marseille","lat":43.23195,"lon":5.35557,"is_reserved":false,"is_disabled":false,"rental_uris":{"android":"levelo://app?vid=c4e1ab4c-e817-417b-818a-3cfe70bddf05","ios":"levelo://app?vid=c4e1ab4c-e817-417b-818a-3cfe70bddf05"},"vehicle_type_id":"4","last_reported":1729541414,"current_range_meters":22800,"station_id":"ce4bhu92rcd13ifvqi70","pricing_plan_id":"cebpf4jnsgd1na2vs0mg"},{"bike_id":"437b3ea7-3627-45d9-9104-1918477df0e5","system_id":"levelo_inurba_marseille","lat":43.32367,"lon":5.38888,"is_reserved":false,"is_disabled":false,"rental_uris":{"android":"levelo://app?vid=437b3ea7-3627-45d9-9104-1918477df0e5","ios":"levelo://app?vid=437b3ea7-3627-45d9-9104-1918477df0e5"},"vehicle_type_id":"4","last_reported":1729541414,"current_range_meters":27600,"station_id":"ce4bhqp2rcd13ifvqhog","pricing_plan_id":"cebpf4jnsgd1na2vs0mg"},{"bike_id":"6ce6e776-baff-4970-a6c2-9f1ce22e318b","system_id":"levelo_inurba_marseille","lat":43.30299,"lon":5.39206,"is_reserved":false,"is_disabled":false,"rental_uris":{"android":"levelo://app?vid=6ce6e776-baff-4970-a6c2-9f1ce22e318b","ios":"levelo://app?vid=6ce6e776-baff-4970-a6c2-9f1ce22e318b"},"vehicle_type_id":"4","last_reported":1729541414,"current_range_meters":38000,"station_id":"ce4bgkh2rcd13ifvqbk0","pricing_plan_id":"cebpf4jnsgd1na2vs0mg"},{"bike_id":"1d430869-0ea0-46ed-951b-27da168e80a4","system_id":"levelo_inurba_marseille","lat":43.26206,"lon":5.37929,"is_reserved":false,"is_disabled":false,"rental_uris":{"android":"levelo://app?vid=1d430869-0ea0-46ed-951b-27da168e80a4","ios":"levelo://app?vid=1d430869-0ea0-46ed-951b-27da168e80a4"},"vehicle_type_id":"4","last_reported":1729541414,"current_range_meters":38000,"station_id":"ce4bhjp2rcd13ifvqg90","pricing_plan_id":"cebpf4jnsgd1na2vs0mg"},{"bike_id":"d16738e0-79d6-42e3-877c-43cdce8bc283","system_id":"levelo_inurba_marseille","lat":43.26581,"lon":5.39012,"is_reserved":false,"is_disabled":false,"rental_uris":{"android":"levelo://app?vid=d16738e0-79d6-42e3-877c-43cdce8bc283","ios":"levelo://app?vid=d16738e0-79d6-42e3-877c-43cdce8bc283"},"vehicle_type_id":"4","last_reported":1729541414,"current_range_meters":18000,"station_id":"ce4bhe12rcd13ifvqf30","pricing_plan_id":"cebpf4jnsgd1na2vs0mg"},{"bike_id":"015242de-3434-4912-b888-748a7408a74c","system_id":"levelo_inurba_marseille","lat":43.29792,"lon":5.39355,"is_reserved":false,"is_disabled":false,"rental_uris":{"android":"levelo://app?vid=015242de-3434-4912-b888-748a7408a74c","ios":"levelo://app?vid=015242de-3434-4912-b888-748a7408a74c"},"vehicle_type_id":"4","last_reported":1729541414,"current_range_meters":38000,"station_id":"chh1huq6cuj3fo74tm60","pricing_plan_id":"cebpf4jnsgd1na2vs0mg"},{"bike_id":"2977d63f-cd19-4f99-ad54-a472e6bf2edb","system_id":"levelo_inurba_marseille","lat":43.317597,"lon":5.390177,"is_reserved":false,"is_disabled":false,"rental_uris":{"android":"levelo://app?vid=2977d63f-cd19-4f99-ad54-a472e6bf2edb","ios":"levelo://app?vid=2977d63f-cd19-4f99-ad54-a472e6bf2edb"},"vehicle_type_id":"4","last_reported":1729541414,"current_range_meters":37600,"station_id":"ce4bhqp2rcd13ifvqhng","pricing_plan_id":"cebpf4jnsgd1na2vs0mg"},{"bike_id":"388b496f-bdc7-4937-9931-9e3af645ca20","system_id":"levelo_inurba_marseille","lat":43.2737,"lon":5.36256,"is_reserved":false,"is_disabled":false,"rental_uris":{"android":"levelo://app?vid=388b496f-bdc7-4937-9931-9e3af645ca20","ios":"levelo://app?vid=388b496f-bdc7-4937-9931-9e3af645ca20"},"vehicle_type_id":"4","last_reported":1729541414,"current_range_meters":38800,"station_id":"ce4bhbh2rcd13ifvqeo0","pricing_plan_id":"cebpf4jnsgd1na2vs0mg"},{"bike_id":"f01d0cc0-943e-4034-adcb-a207913f465e","system_id":"levelo_inurba_marseille","lat":43.30431,"lon":5.38889,"is_reserved":false,"is_disabled":false,"rental_uris":{"android":"levelo://app?vid=f01d0cc0-943e-4034-adcb-a207913f465e","ios":"levelo://app?vid=f01d0cc0-943e-4034-adcb-a207913f465e"},"vehicle_type_id":"4","last_reported":1729541414,"current_range_meters":33600,"station_id":"ce4bgk12rcd13ifvqbi0","pricing_plan_id":"cebpf4jnsgd1na2vs0mg"},{"bike_id":"6c07be62-b3bc-4a76-8867-ab8110211138","system_id":"levelo_inurba_marseille","lat":43.27488,"lon":5.42462,"is_reserved":false,"is_disabled":false,"rental_uris":{"android":"levelo://app?vid=6c07be62-b3bc-4a76-8867-ab8110211138","ios":"levelo://app?vid=6c07be62-b3bc-4a76-8867-ab8110211138"},"vehicle_type_id":"4","last_reported":1729541414,"current_range_meters":27200,"station_id":"ce4bhn92rcd13ifvqgrg","pricing_plan_id":"cebpf4jnsgd1na2vs0mg"},{"bike_id":"13ddbdf9-3757-4801-a1c6-5d4dc1d7881b","system_id":"levelo_inurba_marseille","lat":43.32338,"lon":5.40623,"is_reserved":false,"is_disabled":false,"rental_uris":{"android":"levelo://app?vid=13ddbdf9-3757-4801-a1c6-5d4dc1d7881b","ios":"levelo://app?vid=13ddbdf9-3757-4801-a1c6-5d4dc1d7881b"},"vehicle_type_id":"4","last_reported":1729541414,"current_range_meters":8800,"station_id":"ce4bhq92rcd13ifvqhjg","pricing_plan_id":"cebpf4jnsgd1na2vs0mg"},{"bike_id":"58ae58b8-d7dc-4437-8bfc-70feefef6f76","system_id":"levelo_inurba_marseille","lat":43.24173,"lon":5.39817,"is_reserved":false,"is_disabled":false,"rental_uris":{"android":"levelo://app?vid=58ae58b8-d7dc-4437-8bfc-70feefef6f76","ios":"levelo://app?vid=58ae58b8-d7dc-4437-8bfc-70feefef6f76"},"vehicle_type_id":"4","last_reported":1729541414,"current_range_meters":7200,"station_id":"","pricing_plan_id":"cebpf4jnsgd1na2vs0mg"},{"bike_id":"41cbaf0d-aca3-40e6-8283-c851904fad1d","system_id":"levelo_inurba_marseille","lat":43.293285,"lon":5.385601,"is_reserved":false,"is_disabled":false,"rental_uris":{"android":"levelo://app?vid=41cbaf0d-aca3-40e6-8283-c851904fad1d","ios":"levelo://app?vid=41cbaf0d-aca3-40e6-8283-c851904fad1d"},"vehicle_type_id":"4","last_reported":1729541414,"current_range_meters":18000,"station_id":"ce4bho92rcd13ifvqh3g","pricing_plan_id":"cebpf4jnsgd1na2vs0mg"},{"bike_id":"bdda591d-8e5e-4d2a-944f-c90cc525f38e","system_id":"levelo_inurba_marseille","lat":43.28695,"lon":5.37379,"is_reserved":false,"is_disabled":false,"rental_uris":{"android":"levelo://app?vid=bdda591d-8e5e-4d2a-944f-c90cc525f38e","ios":"levelo://app?vid=bdda591d-8e5e-4d2a-944f-c90cc525f38e"},"vehicle_type_id":"4","last_reported":1729541414,"current_range_meters":28400,"station_id":"ce4bh3p2rcd13ifvqdq0","pricing_plan_id":"cebpf4jnsgd1na2vs0mg"},{"bike_id":"fc05ed07-5be1-4ba1-8075-9048f1e26290","system_id":"levelo_inurba_marseille","lat":43.23964,"lon":5.36634,"is_reserved":false,"is_disabled":false,"rental_uris":{"android":"levelo://app?vid=fc05ed07-5be1-4ba1-8075-9048f1e26290","ios":"levelo://app?vid=fc05ed07-5be1-4ba1-8075-9048f1e26290"},"vehicle_type_id":"4","last_reported":1729541414,"current_range_meters":34800,"station_id":"ce4bhi12rcd13ifvqfp0","pricing_plan_id":"cebpf4jnsgd1na2vs0mg"},{"bike_id":"2aae9bee-3033-4568-a4e8-0adf7d1a3b75","system_id":"levelo_inurba_marseille","lat":43.31327,"lon":5.39697,"is_reserved":false,"is_disabled":false,"rental_uris":{"android":"levelo://app?vid=2aae9bee-3033-4568-a4e8-0adf7d1a3b75","ios":"levelo://app?vid=2aae9bee-3033-4568-a4e8-0adf7d1a3b75"},"vehicle_type_id":"4","last_reported":1729541414,"current_range_meters":39200,"station_id":"ce4bgvp2rcd13ifvqcu0","pricing_plan_id":"cebpf4jnsgd1na2vs0mg"},{"bike_id":"e9047bd8-45fc-4e91-b32c-0808546f0b99","system_id":"levelo_inurba_marseille","lat":43.31269,"lon":5.40172,"is_reserved":false,"is_disabled":false,"rental_uris":{"android":"levelo://app?vid=e9047bd8-45fc-4e91-b32c-0808546f0b99","ios":"levelo://app?vid=e9047bd8-45fc-4e91-b32c-0808546f0b99"},"vehicle_type_id":"4","last_reported":1729541414,"current_range_meters":38800,"station_id":"ce4bh092rcd13ifvqd30","pricing_plan_id":"cebpf4jnsgd1na2vs0mg"},{"bike_id":"e2faad71-1b09-4a9e-8542-1d801af33164","system_id":"levelo_inurba_marseille","lat":43.31714,"lon":5.4371,"is_reserved":false,"is_disabled":false,"rental_uris":{"android":"levelo://app?vid=e2faad71-1b09-4a9e-8542-1d801af33164","ios":"levelo://app?vid=e2faad71-1b09-4a9e-8542-1d801af33164"},"vehicle_type_id":"4","last_reported":1729541414,"current_range_meters":37600,"station_id":"ce4bhp92rcd13ifvqhcg","pricing_plan_id":"cebpf4jnsgd1na2vs0mg"},{"bike_id":"2abf55fd-b123-4c7e-aa61-85cc09948193","system_id":"levelo_inurba_marseille","lat":43.29522,"lon":5.39402,"is_reserved":false,"is_disabled":false,"rental_uris":{"android":"levelo://app?vid=2abf55fd-b123-4c7e-aa61-85cc09948193","ios":"levelo://app?vid=2abf55fd-b123-4c7e-aa61-85cc09948193"},"vehicle_type_id":"4","last_reported":1729541414,"current_range_meters":17600,"station_id":"ce4bh292rcd13ifvqdf0","pricing_plan_id":"cebpf4jnsgd1na2vs0mg"},{"bike_id":"cd19304b-b1de-4f45-8183-4016ab1962db","system_id":"levelo_inurba_marseille","lat":43.30943,"lon":5.39038,"is_reserved":false,"is_disabled":false,"rental_uris":{"android":"levelo://app?vid=cd19304b-b1de-4f45-8183-4016ab1962db","ios":"levelo://app?vid=cd19304b-b1de-4f45-8183-4016ab1962db"},"vehicle_type_id":"4","last_reported":1729541414,"current_range_meters":28000,"station_id":"ce4bgup2rcd13ifvqco0","pricing_plan_id":"cebpf4jnsgd1na2vs0mg"},{"bike_id":"4f87eafc-98b2-47bb-b7d4-b7f4f3d665e2","system_id":"levelo_inurba_marseille","lat":43.28047,"lon":5.36937,"is_reserved":false,"is_disabled":false,"rental_uris":{"android":"levelo://app?vid=4f87eafc-98b2-47bb-b7d4-b7f4f3d665e2","ios":"levelo://app?vid=4f87eafc-98b2-47bb-b7d4-b7f4f3d665e2"},"vehicle_type_id":"4","last_reported":1729541414,"current_range_meters":30800,"station_id":"ce4bh412rcd13ifvqdr0","pricing_plan_id":"cebpf4jnsgd1na2vs0mg"},{"bike_id":"d4255aca-93e3-492c-8980-617e3e34b04e","system_id":"levelo_inurba_marseille","lat":43.27173,"lon":5.40994,"is_reserved":false,"is_disabled":false,"rental_uris":{"android":"levelo://app?vid=d4255aca-93e3-492c-8980-617e3e34b04e","ios":"levelo://app?vid=d4255aca-93e3-492c-8980-617e3e34b04e"},"vehicle_type_id":"4","last_reported":1729541414,"current_range_meters":27200,"station_id":"ce4bhl12rcd13ifvqgf0","pricing_plan_id":"cebpf4jnsgd1na2vs0mg"},{"bike_id":"4f62ecb1-b229-40cf-bba9-cbc0f7afd5b4","system_id":"levelo_inurba_marseille","lat":43.30308,"lon":5.36896,"is_reserved":false,"is_disabled":false,"rental_uris":{"android":"levelo://app?vid=4f62ecb1-b229-40cf-bba9-cbc0f7afd5b4","ios":"levelo://app?vid=4f62ecb1-b229-40cf-bba9-cbc0f7afd5b4"},"vehicle_type_id":"4","last_reported":1729541414,"current_range_meters":12000,"station_id":"ce4bgqh2rcd13ifvqc5g","pricing_plan_id":"cebpf4jnsgd1na2vs0mg"},{"bike_id":"0ce095b6-6795-4d98-a284-db614f54d20f","system_id":"levelo_inurba_marseille","lat":43.27175,"lon":5.40996,"is_reserved":false,"is_disabled":false,"rental_uris":{"android":"levelo://app?vid=0ce095b6-6795-4d98-a284-db614f54d20f","ios":"levelo://app?vid=0ce095b6-6795-4d98-a284-db614f54d20f"},"vehicle_type_id":"4","last_reported":1729541414,"current_range_meters":10800,"station_id":"ce4bhl12rcd13ifvqgf0","pricing_plan_id":"cebpf4jnsgd1na2vs0mg"},{"bike_id":"47475981-d3e4-4136-b942-c083a1c60bf9","system_id":"levelo_inurba_marseille","lat":43.31318,"lon":5.3851,"is_reserved":false,"is_disabled":false,"rental_uris":{"android":"levelo://app?vid=47475981-d3e4-4136-b942-c083a1c60bf9","ios":"levelo://app?vid=47475981-d3e4-4136-b942-c083a1c60bf9"},"vehicle_type_id":"4","last_reported":1729541414,"current_range_meters":8000,"station_id":"ce4bgt92rcd13ifvqcf0","pricing_plan_id":"cebpf4jnsgd1na2vs0mg"},{"bike_id":"3677be9f-d0a4-4569-9590-338b25af78f8","system_id":"levelo_inurba_marseille","lat":43.31326,"lon":5.39697,"is_reserved":false,"is_disabled":false,"rental_uris":{"android":"levelo://app?vid=3677be9f-d0a4-4569-9590-338b25af78f8","ios":"levelo://app?vid=3677be9f-d0a4-4569-9590-338b25af78f8"},"vehicle_type_id":"4","last_reported":1729541414,"current_range_meters":19200,"station_id":"ce4bgvp2rcd13ifvqcu0","pricing_plan_id":"cebpf4jnsgd1na2vs0mg"},{"bike_id":"32d4047d-039a-44c2-9045-d6d6171069d1","system_id":"levelo_inurba_marseille","lat":43.301801,"lon":5.389587,"is_reserved":false,"is_disabled":false,"rental_uris":{"android":"levelo://app?vid=32d4047d-039a-44c2-9045-d6d6171069d1","ios":"levelo://app?vid=32d4047d-039a-44c2-9045-d6d6171069d1"},"vehicle_type_id":"4","last_reported":1729541414,"current_range_meters":4000,"station_id":"ce4bgkh2rcd13ifvqbk0","pricing_plan_id":"cebpf4jnsgd1na2vs0mg"},{"bike_id":"7e582089-bd7d-459c-9107-f9f2bb6f302d","system_id":"levelo_inurba_marseille","lat":43.25503,"lon":5.3765,"is_reserved":false,"is_disabled":false,"rental_uris":{"android":"levelo://app?vid=7e582089-bd7d-459c-9107-f9f2bb6f302d","ios":"levelo://app?vid=7e582089-bd7d-459c-9107-f9f2bb6f302d"},"vehicle_type_id":"4","last_reported":1729541414,"current_range_meters":36800,"station_id":"ce4bhh12rcd13ifvqff0","pricing_plan_id":"cebpf4jnsgd1na2vs0mg"},{"bike_id":"21781c91-5aff-4ca4-892f-3be9dcb547e6","system_id":"levelo_inurba_marseille","lat":43.30795,"lon":5.43527,"is_reserved":false,"is_disabled":false,"rental_uris":{"android":"levelo://app?vid=21781c91-5aff-4ca4-892f-3be9dcb547e6","ios":"levelo://app?vid=21781c91-5aff-4ca4-892f-3be9dcb547e6"},"vehicle_type_id":"4","last_reported":1729541414,"current_range_meters":14800,"station_id":"ce4bhph2rcd13ifvqheg","pricing_plan_id":"cebpf4jnsgd1na2vs0mg"},{"bike_id":"691f147c-6e9a-4a4e-971c-ad933122022e","system_id":"levelo_inurba_marseille","lat":43.32367,"lon":5.38887,"is_reserved":false,"is_disabled":false,"rental_uris":{"android":"levelo://app?vid=691f147c-6e9a-4a4e-971c-ad933122022e","ios":"levelo://app?vid=691f147c-6e9a-4a4e-971c-ad933122022e"},"vehicle_type_id":"4","last_reported":1729541414,"current_range_meters":16800,"station_id":"ce4bhqp2rcd13ifvqhog","pricing_plan_id":"cebpf4jnsgd1na2vs0mg"},{"bike_id":"8f0b1f13-26f1-4a73-96d0-90da5344e554","system_id":"levelo_inurba_marseille","lat":43.30421,"lon":5.41277,"is_reserved":false,"is_disabled":false,"rental_uris":{"android":"levelo://app?vid=8f0b1f13-26f1-4a73-96d0-90da5344e554","ios":"levelo://app?vid=8f0b1f13-26f1-4a73-96d0-90da5344e554"},"vehicle_type_id":"4","last_reported":1729541414,"current_range_meters":27600,"station_id":"ce4bhop2rcd13ifvqh8g","pricing_plan_id":"cebpf4jnsgd1na2vs0mg"},{"bike_id":"f664508d-c703-410b-8571-546ad2f855e9","system_id":"levelo_inurba_marseille","lat":43.22936,"lon":5.35378,"is_reserved":false,"is_disabled":false,"rental_uris":{"android":"levelo://app?vid=f664508d-c703-410b-8571-546ad2f855e9","ios":"levelo://app?vid=f664508d-c703-410b-8571-546ad2f855e9"},"vehicle_type_id":"4","last_reported":1729541414,"current_range_meters":37600,"station_id":"cpo3532slgdg3j2ikp40","pricing_plan_id":"cebpf4jnsgd1na2vs0mg"},