{"last_updated":1746630679,"ttl":60,"version":"2.2","data":{"bikes":[{"bike_id":"89b48789-4e78-492c-9027-14bae3228b1e","system_id":"levelo_inurba_marseille","lat":43.29521,"lon":5.39403,"is_reserved":false,"is_disabled":false,"rental_uris":{"android":"levelo://app?vid=89b48789-4e78-492c-9027-14bae3228b1e","ios":"levelo://app?vid=89b48789-4e78-492c-9027-14bae3228b1e"},"vehicle_type_id":"4","last_reported":1746630679,"current_range_meters":2800,"station_id":"ce4bh292rcd13ifvqdf0","pricing_plan_id":"cebpf4jnsgd1na2vs0mg"},{"bike_id":"48abd5fb-2f1b-4f6f-a368-fc62f5b4d633","system_id":"levelo_inurba_marseille","lat":43.26938,"lon":5.38917,"is_reserved":false,"is_disabled":false,"rental_uris":{"android":"levelo://app?vid=48abd5fb-2f1b-4f6f-a368-fc62f5b4d633","ios":"levelo://app?vid=48abd5fb-2f1b-4f6f-a368-fc62f5b4d633"},"vehicle_type_id":"4","last_reported":1746630679,"current_range_meters":3200,"station_id":"ce4bhhh2rcd13ifvqfl0","pricing_plan_id":"cebpf4jnsgd1na2vs0mg"},{"bike_id":"cdbbf1ae-b6f3-4a7f-98d1-29dd92e0296e","system_id":"levelo_inurba_marseille","lat":43.27609,"lon":5.36117,"is_reserved":false,"is_disabled":false,"rental_uris":{"android":"levelo://app?vid=cdbbf1ae-b6f3-4a7f-98d1-29dd92e0296e","ios":"levelo://app?vid=cdbbf1ae-b6f3-4a7f-98d1-29dd92e0296e"},"vehicle_type_id":"4","last_reported":1746630679,"current_range_meters":3200,"station_id":"ce4bgj92rcd13ifvqbe0","pricing_plan_id":"cebpf4jnsgd1na2vs0mg"},{"bike_id":"dce814c0-4c4e-4a20-a33b-97af480f0bcb","system_id":"levelo_inurba_marseille","lat":43.29028,"lon":5.42634,"is_reserved":false,"is_disabled":false,"rental_uris":{"android":"levelo://app?vid=dce814c0-4c4e-4a20-a33b-97af480f0bcb","ios":"levelo://app?vid=dce814c0-4c4e-4a20-a33b-97af480f0bcb"},"vehicle_type_id":"4","last_reported":1746630679,"current_range_meters":3200,"station_id":"","pricing_plan_id":"cebpf4jnsgd1na2vs0mg"},{"bike_id":"43d0fd12-bc1a-4686-a82e-8652f9d101fc","system_id":"levelo_inurba_marseille","lat":43.23962,"lon":5.36625,"is_reserved":false,"is_disabled":false,"rental_uris":{"android":"levelo://app?vid=43d0fd12-bc1a-4686-a82e-8652f9d101fc","ios":"levelo://app?vid=43d0fd12-bc1a-4686-a82e-8652f9d101fc"},"vehicle_type_id":"4","last_reported":1746630679,"current_range_meters":3600,"station_id":"ce4bhi12rcd13ifvqfp0","pricing_plan_id":"cebpf4jnsgd1na2vs0mg"},{"bike_id":"dae75200-70ba-488f-a9a0-5ff992fb6ff8","system_id":"levelo_inurba_marseille","lat":43.254887,"lon":5.37659,"is_reserved":false,"is_disabled":false,"rental_uris":{"android":"levelo://app?vid=dae75200-70ba-488f-a9a0-5ff992fb6ff8","ios":"levelo://app?vid=dae75200-70ba-488f-a9a0-5ff992fb6ff8"},"vehicle_type_id":"4","last_reported":1746630679,"current_range_meters":3600,"station_id":"ce4bhh12rcd13ifvqff0","pricing_plan_id":"cebpf4jnsgd1na2vs0mg"},{"bike_id":"e92f2fa9-0548-427f-b745-e31884f7b6ee","system_id":"levelo_inurba_marseille","lat":43.2988,"lon":5.39728,"is_reserved":false,"is_disabled":false,"rental_uris":{"android":"levelo://app?vid=e92f2fa9-0548-427f-b745-e31884f7b6ee","ios":"levelo://app?vid=e92f2fa9-0548-427f-b745-e31884f7b6ee"},"vehicle_type_id":"4","last_reported":1746630679,"current_range_meters":4000,"station_id":"ce4bh0h2rcd13ifvqd50","pricing_plan_id":"cebpf4jnsgd1na2vs0mg"},{"bike_id":"85497dcb-3cfb-4475-b6d3-244410d41a7d","system_id":"levelo_inurba_marseille","lat":43.301453,"lon":5.380916,"is_reserved":false,"is_disabled":false,"rental_uris":{"android":"levelo://app?vid=85497dcb-3cfb-4475-b6d3-244410d41a7d","ios":"levelo://app?vid=85497dcb-3cfb-4475-b6d3-244410d41a7d"},"vehicle_type_id":"4","last_reported":1746630679,"current_range_meters":3600,"station_id":"ce4bgjp2rcd13ifvqbh0","pricing_plan_id":"cebpf4jnsgd1na2vs0mg"},{"bike_id":"879af0e5-5368-4c8a-a113-a9d279bec406","system_id":"levelo_inurba_marseille","lat":43.30716,"lon":5.37124,"is_reserved":false,"is_disabled":false,"rental_uris":{"android":"levelo://app?vid=879af0e5-5368-4c8a-a113-a9d279bec406","ios":"levelo://app?vid=879af0e5-5368-4c8a-a113-a9d279bec406"},"vehicle_type_id":"4","last_reported":1746630679,"current_range_meters":4000,"station_id":"","pricing_plan_id":"cebpf4jnsgd1na2vs0mg"},{"bike_id":"9d8f73eb-df09-4699-86a7-d631e2319093","system_id":"levelo_inurba_marseille","lat":43.26272,"lon":5.37447,"is_reserved":false,"is_disabled":false,"rental_uris":{"android":"levelo://app?vid=9d8f73eb-df09-4699-86a7-d631e2319093","ios":"levelo://app?vid=9d8f73eb-df09-4699-86a7-d631e2319093"},"vehicle_type_id":"4","last_reported":1746630679,"current_range_meters":4000,"station_id":"","pricing_plan_id":"cebpf4jnsgd1na2vs0mg"},{"bike_id":"646e0e2e-def9-4837-9b0c-5e1ad55042d2","system_id":"levelo_inurba_marseille","lat":43.29028,"lon":5.38659,"is_reserved":false,"is_disabled":false,"rental_uris":{"android":"levelo://app?vid=646e0e2e-def9-4837-9b0c-5e1ad55042d2","ios":"levelo://app?vid=646e0e2e-def9-4837-9b0c-5e1ad55042d2"},"vehicle_type_id":"4","last_reported":1746630679,"current_range_meters":4400,"station_id":"ce4bh4p2rcd13ifvqe0g","pricing_plan_id":"cebpf4jnsgd1na2vs0mg"},{"bike_id":"18c7b1d7-acfc-4093-8d5c-03aca5d8e582","system_id":"levelo_inurba_marseille","lat":43.30934,"lon":5.40138,"is_reserved":false,"is_disabled":false,"rental_uris":{"android":"levelo://app?vid=18c7b1d7-acfc-4093-8d5c-03aca5d8e582","ios":"levelo://app?vid=18c7b1d7-acfc-4093-8d5c-03aca5d8e582"},"vehicle_type_id":"4","last_reported":1746630679,"current_range_meters":4400,"station_id":"ce4bgvp2rcd13ifvqct0","pricing_plan_id":"cebpf4jnsgd1na2vs0mg"},{"bike_id":"557c7b97-7ae2-4895-860e-718d4e656551","system_id":"levelo_inurba_marseille","lat":43.23202,"lon":5.35548,"is_reserved":false,"is_disabled":false,"rental_uris":{"android":"levelo://app?vid=557c7b97-7ae2-4895-860e-718d4e656551","ios":"levelo://app?vid=557c7b97-7ae2-4895-860e-718d4e656551"},"vehicle_type_id":"4","last_reported":1746630679,"current_range_meters":4400,"station_id":"ce4bhu92rcd13ifvqi70","pricing_plan_id":"cebpf4jnsgd1na2vs0mg"},{"bike_id":"86151ff3-04bc-4997-bec2-695a12683954","system_id":"levelo_inurba_marseille","lat":43.2958,"lon":5.36738,"is_reserved":false,"is_disabled":false,"rental_uris":{"android":"levelo://app?vid=86151ff3-04bc-4997-bec2-695a12683954","ios":"levelo://app?vid=86151ff3-04bc-4997-bec2-695a12683954"},"vehicle_type_id":"4","last_reported":1746630679,"current_range_meters":4400,"station_id":"ce4bgph2rcd13ifvqc2g","pricing_plan_id":"cebpf4jnsgd1na2vs0mg"},{"bike_id":"c0faf23e-81a7-4ca3-895d-283152fd6265","system_id":"levelo_inurba_marseille","lat":43.29606,"lon":5.39608,"is_reserved":false,"is_disabled":false,"rental_uris":{"android":"levelo://app?vid=c0faf23e-81a7-4ca3-895d-283152fd6265","ios":"levelo://app?vid=c0faf23e-81a7-4ca3-895d-283152fd6265"},"vehicle_type_id":"4","last_reported":1746630679,"current_range_meters":5600,"station_id":"","pricing_plan_id":"cebpf4jnsgd1na2vs0mg"},{"bike_id":"23bed6c4-2429-4e19-9d20-27f6e4d64d2d","system_id":"levelo_inurba_marseille","lat":43.29173,"lon":5.37159,"is_reserved":false,"is_disabled":false,"rental_uris":{"android":"levelo://app?vid=23bed6c4-2429-4e19-9d20-27f6e4d64d2d","ios":"levelo://app?vid=23bed6c4-2429-4e19-9d20-27f6e4d64d2d"},"vehicle_type_id":"4","last_reported":1746630679,"current_range_meters":5600,"station_id":"ce4bha92rcd13ifvqeh0","pricing_plan_id":"cebpf4jnsgd1na2vs0mg"},{"bike_id":"f46ae0d7-03f3-41e1-96db-970fe58465cc","system_id":"levelo_inurba_marseille","lat":43.3299,"lon":5.38311,"is_reserved":false,"is_disabled":false,"rental_uris":{"android":"levelo://app?vid=f46ae0d7-03f3-41e1-96db-970fe58465cc","ios":"levelo://app?vid=f46ae0d7-03f3-41e1-96db-970fe58465cc"},"vehicle_type_id":"4","last_reported":1746630679,"current_range_meters":6000,"station_id":"","pricing_plan_id":"cebpf4jnsgd1na2vs0mg"},{"bike_id":"07300ab4-e198-4cf8-a47f-0cadcb7faf2c","system_id":"levelo_inurba_marseille","lat":43.24072,"lon":5.37762,"is_reserved":false,"is_disabled":false,"rental_uris":{"android":"levelo://app?vid=07300ab4-e198-4cf8-a47f-0cadcb7faf2c","ios":"levelo://app?vid=07300ab4-e198-4cf8-a47f-0cadcb7faf2c"},"vehicle_type_id":"4","last_reported":1746630679,"current_range_meters":6400,"station_id":"ce4bhnp2rcd13ifvqgvg","pricing_plan_id":"cebpf4jnsgd1na2vs0mg"},{"bike_id":"aa20ffc6-0325-41a5-bd3c-4dd01208c88b","system_id":"levelo_inurba_marseille","lat":43.28082,"lon":5.39661,"is_reserved":false,"is_disabled":false,"rental_uris":{"android":"levelo://app?vid=aa20ffc6-0325-41a5-bd3c-4dd01208c88b","ios":"levelo://app?vid=aa20ffc6-0325-41a5-bd3c-4dd01208c88b"},"vehicle_type_id":"4","last_reported":1746630679,"current_range_meters":6400,"station_id":"ce4bho12rcd13ifvqh2g","pricing_plan_id":"cebpf4jnsgd1na2vs0mg"},{"bike_id":"149af097-398a-4a6f-b95f-841f6b87d36c","system_id":"levelo_inurba_marseille","lat":43.26113,"lon":5.41459,"is_reserved":false,"is_disabled":false,"rental_uris":{"android":"levelo://app?vid=149af097-398a-4a6f-b95f-841f6b87d36c","ios":"levelo://app?vid=149af097-398a-4a6f-b95f-841f6b87d36c"},"vehicle_type_id":"4","last_reported":1746630679,"current_range_meters":6400,"station_id":"","pricing_plan_id":"cebpf4jnsgd1na2vs0mg"},{"bike_id":"c9592205-9409-4f74-aed1-7c4141a58caa","system_id":"levelo_inurba_marseille","lat":43.27181,"lon":5.36339,"is_reserved":false,"is_disabled":false,"rental_uris":{"android":"levelo://app?vid=c9592205-9409-4f74-aed1-7c4141a58caa","ios":"levelo://app?vid=c9592205-9409-4f74-aed1-7c4141a58caa"},"vehicle_type_id":"4","last_reported":1746630679,"current_range_meters":6400,"station_id":"","pricing_plan_id":"cebpf4jnsgd1na2vs0mg"},{"bike_id":"8422a034-62e7-4d21-8962-4953f6400b01","system_id":"levelo_inurba_marseille","lat":43.2466,"lon":5.38168,"is_reserved":false,"is_disabled":false,"rental_uris":{"android":"levelo://app?vid=8422a034-62e7-4d21-8962-4953f6400b01","ios":"levelo://app?vid=8422a034-62e7-4d21-8962-4953f6400b01"},"vehicle_type_id":"4","last_reported":1746630679,"current_range_meters":6400,"station_id":"ce4bhih2rcd13ifvqfr0","pricing_plan_id":"cebpf4jnsgd1na2vs0mg"},{"bike_id":"63cb73aa-86fe-4599-9b76-3790ec130780","system_id":"levelo_inurba_marseille","lat":43.29595,"lon":5.37844,"is_reserved":false,"is_disabled":false,"rental_uris":{"android":"levelo://app?vid=63cb73aa-86fe-4599-9b76-3790ec130780","ios":"levelo://app?vid=63cb73aa-86fe-4599-9b76-3790ec130780"},"vehicle_type_id":"4","last_reported":1746630679,"current_range_meters":6400,"station_id":"","pricing_plan_id":"cebpf4jnsgd1na2vs0mg"},{"bike_id":"668c20c8-71e7-401f-bf1d-ccccf041a906","system_id":"levelo_inurba_marseille","lat":43.31308,"lon":5.37088,"is_reserved":false,"is_disabled":false,"rental_uris":{"android":"levelo://app?vid=668c20c8-71e7-401f-bf1d-ccccf041a906","ios":"levelo://app?vid=668c20c8-71e7-401f-bf1d-ccccf041a906"},"vehicle_type_id":"4","last_reported":1746630679,"current_range_meters":6800,"station_id":"","pricing_plan_id":"cebpf4jnsgd1na2vs0mg"},{"bike_id":"515eab63-1e04-46a6-9373-18626289f9e2","system_id":"levelo_inurba_marseille","lat":43.305338,"lon":5.372848,"is_reserved":false,"is_disabled":false,"rental_uris":{"android":"levelo://app?vid=515eab63-1e04-46a6-9373-18626289f9e2","ios":"levelo://app?vid=515eab63-1e04-46a6-9373-18626289f9e2"},"vehicle_type_id":"4","last_reported":1746630679,"current_range_meters":6800,"station_id":"","pricing_plan_id":"cebpf4jnsgd1na2vs0mg"},{"bike_id":"eb0ab778-07d3-4e77-9c9e-f2a89f5517c5","system_id":"levelo_inurba_marseille","lat":43.231962,"lon":5.355472,"is_reserved":false,"is_disabled":false,"rental_uris":{"android":"levelo://app?vid=eb0ab778-07d3-4e77-9c9e-f2a89f5517c5","ios":"levelo://app?vid=eb0ab778-07d3-4e77-9c9e-f2a89f5517c5"},"vehicle_type_id":"4","last_reported":1746630679,"current_range_meters":7200,"station_id":"ce4bhu92rcd13ifvqi70","pricing_plan_id":"cebpf4jnsgd1na2vs0mg"},{"bike_id":"13104f93-2d8b-4e86-be46-d486b7c173d9","system_id":"levelo_inurba_marseille","lat":43.304615,"lon":5.397771,"is_reserved":false,"is_disabled":false,"rental_uris":{"android":"levelo://app?vid=13104f93-2d8b-4e86-be46-d486b7c173d9","ios":"levelo://app?vid=13104f93-2d8b-4e86-be46-d486b7c173d9"},"vehicle_type_id":"4","last_reported":1746630679,"current_range_meters":7200,"station_id":"ce4bh092rcd13ifvqd20","pricing_plan_id":"cebpf4jnsgd1na2vs0mg"},{"bike_id":"058c04c0-a83a-4af5-a5f8-af2e07c7895c","system_id":"levelo_inurba_marseille","lat":43.329881,"lon":5.394013,"is_reserved":false,"is_disabled":false,"rental_uris":{"android":"levelo://app?vid=058c04c0-a83a-4af5-a5f8-af2e07c7895c","ios":"levelo://app?vid=058c04c0-a83a-4af5-a5f8-af2e07c7895c"},"vehicle_type_id":"4","last_reported":1746630679,"current_range_meters":7200,"station_id":"","pricing_plan_id":"cebpf4jnsgd1na2vs0mg"},{"bike_id":"c596c2d8-a473-404a-8a26-fa4812d717bf","system_id":"levelo_inurba_marseille","lat":43.29771,"lon":5.37622,"is_reserved":false,"is_disabled":false,"rental_uris":{"android":"levelo://app?vid=c596c2d8-a473-404a-8a26-fa4812d717bf","ios":"levelo://app?vid=c596c2d8-a473-404a-8a26-fa4812d717bf"},"vehicle_type_id":"4","last_reported":1746630679,"current_range_meters":7200,"station_id":"","pricing_plan_id":"cebpf4jnsgd1na2vs0mg"},{"bike_id":"60a021f5-eb6d-4ffc-aeae-ff18fe0f2c37","system_id":"levelo_inurba_marseille","lat":43.295978,"lon":5.380999,"is_reserved":false,"is_disabled":false,"rental_uris":{"android":"levelo://app?vid=60a021f5-eb6d-4ffc-aeae-ff18fe0f2c37","ios":"levelo://app?vid=60a021f5-eb6d-4ffc-aeae-ff18fe0f2c37"},"vehicle_type_id":"4","last_reported":1746630679,"current_range_meters":7200,"station_id":"ce4bgl12rcd13ifvqbo0","pricing_plan_id":"cebpf4jnsgd1na2vs0mg"},{"bike_id":"e7dd3eaa-d1af-439b-bbe2-4c2b3716fdb7","system_id":"levelo_inurba_marseille","lat":43.30799,"lon":5.38176,"is_reserved":false,"is_disabled":false,"rental_uris":{"android":"levelo://app?vid=e7dd3eaa-d1af-439b-bbe2-4c2b3716fdb7","ios":"levelo://app?vid=e7dd3eaa-d1af-439b-bbe2-4c2b3716fdb7"},"vehicle_type_id":"4","last_reported":1746630679,"current_range_meters":7200,"station_id":"ce4bgt12rcd13ifvqce0","pricing_plan_id":"cebpf4jnsgd1na2vs0mg"},{"bike_id":"0b5c7ea2-0be8-46bf-b77c-ca7186d065f2","system_id":"levelo_inurba_marseille","lat":43.23184,"lon":5.39984,"is_reserved":false,"is_disabled":false,"rental_uris":{"android":"levelo://app?vid=0b5c7ea2-0be8-46bf-b77c-ca7186d065f2","ios":"levelo://app?vid=0b5c7ea2-0be8-46bf-b77c-ca7186d065f2"},"vehicle_type_id":"4","last_reported":1746630679,"current_range_meters":7200,"station_id":"ce4bhn12rcd13ifvqgqg","pricing_plan_id":"cebpf4jnsgd1na2vs0mg"},{"bike_id":"705f1f6f-d92c-4df1-a512-943b0bf79900","system_id":"levelo_inurba_marseille","lat":43.22505,"lon":5.34774,"is_reserved":false,"is_disabled":false,"rental_uris":{"android":"levelo://app?vid=705f1f6f-d92c-4df1-a512-943b0bf79900","ios":"levelo://app?vid=705f1f6f-d92c-4df1-a512-943b0bf79900"},"vehicle_type_id":"4","last_reported":1746630679,"current_range_meters":7200,"station_id":"st_cvj5dfep6f1abm77gieg","pricing_plan_id":"cebpf4jnsgd1na2vs0mg"},{"bike_id":"86a8be81-1099-4eb7-8c92-ebc1455e1128","system_id":"levelo_inurba_marseille","lat":43.32365,"lon":5.36573,"is_reserved":false,"is_disabled":false,"rental_uris":{"android":"levelo://app?vid=86a8be81-1099-4eb7-8c92-ebc1455e1128","ios":"levelo://app?vid=86a8be81-1099-4eb7-8c92-ebc1455e1128"},"vehicle_type_id":"4","last_reported":1746630679,"current_range_meters":8000,"station_id":"ce4bhs12rcd13ifvqhvg","pricing_plan_id":"cebpf4jnsgd1na2vs0mg"},{"bike_id":"9e1ba95b-d75d-40c6-9b57-739e63e0aa79","system_id":"levelo_inurba_marseille","lat":43.2557,"lon":5.38231,"is_reserved":false,"is_disabled":false,"rental_uris":{"android":"levelo://app?vid=9e1ba95b-d75d-40c6-9b57-739e63e0aa79","ios":"levelo://app?vid=9e1ba95b-d75d-40c6-9b57-739e63e0aa79"},"vehicle_type_id":"4","last_reported":1746630679,"current_range_meters":8000,"station_id":"ce4bhih2rcd13ifvqfs0","pricing_plan_id":"cebpf4jnsgd1na2vs0mg"},{"bike_id":"36a3f3b9-69d0-42fd-914f-318ed6ca3a52","system_id":"levelo_inurba_marseille","lat":43.30145,"lon":5.38763,"is_reserved":false,"is_disabled":false,"rental_uris":{"android":"levelo://app?vid=36a3f3b9-69d0-42fd-914f-318ed6ca3a52","ios":"levelo://app?vid=36a3f3b9-69d0-42fd-914f-318ed6ca3a52"},"vehicle_type_id":"4","last_reported":1746630679,"current_range_meters":7200,"station_id":"ce4bghh2rcd13ifvqb60","pricing_plan_id":"cebpf4jnsgd1na2vs0mg"},{"bike_id":"c8a67766-1800-43b8-a479-99db7704e9c6","system_id":"levelo_inurba_marseille","lat":43.29971,"lon":5.38496,"is_reserved":false,"is_disabled":false,"rental_uris":{"android":"levelo://app?vid=c8a67766-1800-43b8-a479-99db7704e9c6","ios":"levelo://app?vid=c8a67766-1800-43b8-a479-99db7704e9c6"},"vehicle_type_id":"4","last_reported":1746630679,"current_range_meters":8000,"station_id":"ce4bgj92rcd13ifvqbd0","pricing_plan_id":"cebpf4jnsgd1na2vs0mg"},{"bike_id":"d2de57c7-3c56-4ecc-9f22-bcf517f3c83a","system_id":"levelo_inurba_marseille","lat":43.29186,"lon":5.37137,"is_reserved":false,"is_disabled":false,"rental_uris":{"android":"levelo://app?vid=d2de57c7-3c56-4ecc-9f22-bcf517f3c83a","ios":"levelo://app?vid=d2de57c7-3c56-4ecc-9f22-bcf517f3c83a"},"vehicle_type_id":"4","last_reported":1746630679,"current_range_meters":8000,"station_id":"ce4bha92rcd13ifvqeh0","pricing_plan_id":"cebpf4jnsgd1na2vs0mg"},{"bike_id":"028c3799-fdb4-49d4-90e9-300404e8fc36","system_id":"levelo_inurba_marseille","lat":43.324771,"lon":5.365643,"is_reserved":false,"is_disabled":true,"rental_uris":{"android":"levelo://app?vid=028c3799-fdb4-49d4-90e9-300404e8fc36","ios":"levelo://app?vid=028c3799-fdb4-49d4-90e9-300404e8fc36"},"vehicle_type_id":"4","last_reported":1746630679,"current_range_meters":8000,"station_id":"ce4bhs12rcd13ifvqhvg","pricing_plan_id":"cebpf4jnsgd1na2vs0mg"},{"bike_id":"b9039d10-a5ef-4e5c-b573-6ab7930121c1","system_id":"levelo_inurba_marseille","lat":43.268033,"lon":5.402648,"is_reserved":false,"is_disabled":false,"rental_uris":{"android":"levelo://app?vid=b9039d10-a5ef-4e5c-b573-6ab7930121c1","ios":"levelo://app?vid=b9039d10-a5ef-4e5c-b573-6ab7930121c1"},"vehicle_type_id":"4","last_reported":1746630679,"current_range_meters":8000,"station_id":"ce501612rcd8frsf0b60","pricing_plan_id":"cebpf4jnsgd1na2vs0mg"},{"bike_id":"f12b603f-7cc6-4a1d-a5b3-2b5d13773bd0","system_id":"levelo_inurba_marseille","lat":43.2952,"lon":5.39057,"is_reserved":false,"is_disabled":false,"rental_uris":{"android":"levelo://app?vid=f12b603f-7cc6-4a1d-a5b3-2b5d13773bd0","ios":"levelo://app?vid=f12b603f-7cc6-4a1d-a5b3-2b5d13773bd0"},"vehicle_type_id":"4","last_reported":1746630679,"current_range_meters":8400,"station_id":"ce4bh3p2rcd13ifvqdp0","pricing_plan_id":"cebpf4jnsgd1na2vs0mg"},{"bike_id":"65e1084f-ebcf-4601-908e-c0c52240a2e5","system_id":"levelo_inurba_marseille","lat":43.26208,"lon":5.37927,"is_reserved":false,"is_disabled":true,"rental_uris":{"android":"levelo://app?vid=65e1084f-ebcf-4601-908e-c0c52240a2e5","ios":"levelo://app?vid=65e1084f-ebcf-4601-908e-c0c52240a2e5"},"vehicle_type_id":"4","last_reported":1746630679,"current_range_meters":8400,"station_id":"ce4bhjp2rcd13ifvqg90","pricing_plan_id":"cebpf4jnsgd1na2vs0mg"},{"bike_id":"3efbb977-8da9-4d15-b061-aead095e06bf","system_id":"levelo_inurba_marseille","lat":43.28468,"lon":5.39127,"is_reserved":false,"is_disabled":false,"rental_uris":{"android":"levelo://app?vid=3efbb977-8da9-4d15-b061-aead095e06bf","ios":"levelo://app?vid=3efbb977-8da9-4d15-b061-aead095e06bf"},"vehicle_type_id":"4","last_reported":1746630679,"current_range_meters":8400,"station_id":"","pricing_plan_id":"cebpf4jnsgd1na2vs0mg"},{"bike_id":"3e1ca513-aa1b-4a6f-a747-9f51804048af","system_id":"levelo_inurba_marseille","lat":43.27617,"lon":5.361,"is_reserved":false,"is_disabled":false,"rental_uris":{"android":"levelo://app?vid=3e1ca513-aa1b-4a6f-a747-9f51804048af","ios":"levelo://app?vid=3e1ca513-aa1b-4a6f-a747-9f51804048af"},"vehicle_type_id":"4","last_reported":1746630679,"current_range_meters":8400,"station_id":"ce4bgj92rcd13ifvqbe0","pricing_plan_id":"cebpf4jnsgd1na2vs0mg"},{"bike_id":"0e915056-1f53-416d-a765-f412cba293de","system_id":"levelo_inurba_marseille","lat":43.24386,"lon":5.37051,"is_reserved":false,"is_disabled":false,"rental_uris":{"android":"levelo://app?vid=0e915056-1f53-416d-a765-f412cba293de","ios":"levelo://app?vid=0e915056-1f53-416d-a765-f412cba293de"},"vehicle_type_id":"4","last_reported":1746630679,"current_range_meters":8400,"station_id":"ce4bhhh2rcd13ifvqfk0","pricing_plan_id":"cebpf4jnsgd1na2vs0mg"},{"bike_id":"19b57b22-766a-45b5-92d4-f945b6830682","system_id":"levelo_inurba_marseille","lat":43.30654,"lon":5.40099,"is_reserved":false,"is_disabled":false,"rental_uris":{"android":"levelo://app?vid=19b57b22-766a-45b5-92d4-f945b6830682","ios":"levelo://app?vid=19b57b22-766a-45b5-92d4-f945b6830682"},"vehicle_type_id":"4","last_reported":1746630679,"current_range_meters":8800,"station_id":"ce4bh112rcd13ifvqda0","pricing_plan_id":"cebpf4jnsgd1na2vs0mg"},{"bike_id":"58fd925f-ad3e-4a26-997c-fed962d6e683","system_id":"levelo_inurba_marseille","lat":43.30128,"lon":5.38788,"is_reserved":false,"is_disabled":true,"rental_uris":{"android":"levelo://app?vid=58fd925f-ad3e-4a26-997c-fed962d6e683","ios":"levelo://app?vid=58fd925f-ad3e-4a26-997c-fed962d6e683"},"vehicle_type_id":"4","last_reported":1746630679,"current_range_meters":8800,"station_id":"ce4bghh2rcd13ifvqb60","pricing_plan_id":"cebpf4jnsgd1na2vs0mg"},{"bike_id":"dfd27e22-9b34-42f8-9fdf-f3a07c5bdce7","system_id":"levelo_inurba_marseille","lat":43.24165,"lon":5.36394,"is_reserved":false,"is_disabled":false,"rental_uris":{"android":"levelo://app?vid=dfd27e22-9b34-42f8-9fdf-f3a07c5bdce7","ios":"levelo://app?vid=dfd27e22-9b34-42f8-9fdf-f3a07c5bdce7"},"vehicle_type_id":"4","last_reported":1746630679,"current_range_meters":8800,"station_id":"cpo36qri1sfpv3e86is0","pricing_plan_id":"cebpf4jnsgd1na2vs0mg"},{"bike_id":"c7741849-e541-44df-8dea-1d3f1b8cc5f0","system_id":"levelo_inurba_marseille","lat":43.330156,"lon":5.390387,"is_reserved":false,"is_disabled":false,"rental_uris":{"android":"levelo://app?vid=c7741849-e541-44df-8dea-1d3f1b8cc5f0","ios":"levelo://app?vid=c7741849-e541-44df-8dea-1d3f1b8cc5f0"},"vehicle_type_id":"4","last_reported":1746630679,"current_range_meters":8800,"station_id":"ce4bhr92rcd13ifvqhrg","pricing_plan_id":"cebpf4jnsgd1na2vs0mg"},{"bike_id":"3fa98c14-39a7-4ec9-b610-6a40922a207f","system_id":"levelo_inurba_marseille","lat":43.305417,"lon":5.384458,"is_reserved":false,"is_disabled":false,"rental_uris":{"android":"levelo://app?vid=3fa98c14-39a7-4ec9-b610-6a40922a207f","ios":"levelo://app?vid=3fa98c14-39a7-4ec9-b610-6a40922a207f"},"vehicle_type_id":"4","last_reported":1746630679,"current_range_meters":9200,"station_id":"ce4bgg92rcd13ifvqb30","pricing_plan_id":"cebpf4jnsgd1na2vs0mg"},{"bike_id":"52e1afe7-419b-4439-a6f0-4583e1c0ad38","system_id":"levelo_inurba_marseille","lat":43.27996,"lon":5.40015,"is_reserved":false,"is_disabled":false,"rental_uris":{"android":"levelo://app?vid=52e1afe7-419b-4439-a6f0-4583e1c0ad38","ios":"levelo://app?vid=52e1afe7-419b-4439-a6f0-4583e1c0ad38"},"vehicle_type_id":"4","last_reported":1746630679,"current_range_meters":9200,"station_id":"ce4bho92rcd13ifvqh4g","pricing_plan_id":"cebpf4jnsgd1na2vs0mg"},{"bike_id":"517a2850-729e-4345-95ae-e4fceb0c3ee9","system_id":"levelo_inurba_marseille","lat":43.28086,"lon":5.39639,"is_reserved":false,"is_disabled":false,"rental_uris":{"android":"levelo://app?vid=517a2850-729e-4345-95ae-e4fceb0c3ee9","ios":"levelo://app?vid=517a2850-729e-4345-95ae-e4fceb0c3ee9"},"vehicle_type_id":"4","last_reported":1746630679,"current_range_meters":9600,"station_id":"ce4bho12rcd13ifvqh2g","pricing_plan_id":"cebpf4jnsgd1na2vs0mg"},{"bike_id":"fa63a7e4-e781-4293-89ae-80fbf3b33863","system_id":"levelo_inurba_marseille","lat":43.25452,"lon":5.41888,"is_reserved":false,"is_disabled":false,"rental_uris":{"android":"levelo://app?vid=fa63a7e4-e781-4293-89ae-80fbf3b33863","ios":"levelo://app?vid=fa63a7e4-e781-4293-89ae-80fbf3b33863"},"vehicle_type_id":"4","last_reported":1746630679,"current_range_meters":9600,"station_id":"","pricing_plan_id":"cebpf4jnsgd1na2vs0mg"},{"bike_id":"65335f78-9b4c-4a95-86d2-53d0f70e30c5","system_id":"levelo_inurba_marseille","lat":43.2827,"lon":5.3506,"is_reserved":false,"is_disabled":false,"rental_uris":{"android":"levelo://app?vid=65335f78-9b4c-4a95-86d2-53d0f70e30c5","ios":"levelo://app?vid=65335f78-9b4c-4a95-86d2-53d0f70e30c5"},"vehicle_type_id":"4","last_reported":1746630679,"current_range_meters":9600,"station_id":"ce4bhbp2rcd13ifvqerg","pricing_plan_id":"cebpf4jnsgd1na2vs0mg"},{"bike_id":"6da7ecc0-f3e3-4c8d-8f18-092e326a55a7","system_id":"levelo_inurba_marseille","lat":43.31085,"lon":5.42429,"is_reserved":false,"is_disabled":false,"rental_uris":{"android":"levelo://app?vid=6da7ecc0-f3e3-4c8d-8f18-092e326a55a7","ios":"levelo://app?vid=6da7ecc0-f3e3-4c8d-8f18-092e326a55a7"},"vehicle_type_id":"4","last_reported":1746630679,"current_range_meters":9600,"station_id":"ce4bhp92rcd13ifvqhag","pricing_plan_id":"cebpf4jnsgd1na2vs0mg"},{"bike_id":"b7bdbe3a-b7ec-4256-908f-dfa71835a5d1","system_id":"levelo_inurba_marseille","lat":43.28616,"lon":5.37058,"is_reserved":false,"is_disabled":false,"rental_uris":{"android":"levelo://app?vid=b7bdbe3a-b7ec-4256-908f-dfa71835a5d1","ios":"levelo://app?vid=b7bdbe3a-b7ec-4256-908f-dfa71835a5d1"},"vehicle_type_id":"4","last_reported":1746630679,"current_range_meters":9600,"station_id":"ce4bht12rcd13ifvqi60","pricing_plan_id":"cebpf4jnsgd1na2vs0mg"},{"bike_id":"751c3fdd-3f14-4f73-b9de-bf2b403c6ea0","system_id":"levelo_inurba_marseille","lat":43.25109,"lon":5.40325,"is_reserved":false,"is_disabled":false,"rental_uris":{"android":"levelo://app?vid=751c3fdd-3f14-4f73-b9de-bf2b403c6ea0","ios":"levelo://app?vid=751c3fdd-3f14-4f73-b9de-bf2b403c6ea0"},"vehicle_type_id":"4","last_reported":1746630679,"current_range_meters":10000,"station_id":"ce4bhlh2rcd13ifvqgig","pricing_plan_id":"cebpf4jnsgd1na2vs0mg"},{"bike_id":"c0aa3111-7325-42e0-9c70-cd2ff131bdb3","system_id":"levelo_inurba_marseille","lat":43.30593,"lon":5.37227,"is_reserved":false,"is_disabled":false,"rental_uris":{"android":"levelo://app?vid=c0aa3111-7325-42e0-9c70-cd2ff131bdb3","ios":"levelo://app?vid=c0aa3111-7325-42e0-9c70-cd2ff131bdb3"},"vehicle_type_id":"4","last_reported":1746630679,"current_range_meters":10000,"station_id":"ce4bgqh2rcd13ifvqc4g","pricing_plan_id":"cebpf4jnsgd1na2vs0mg"},{"bike_id":"45082317-7477-4476-8774-36dc2a137585","system_id":"levelo_inurba_marseille","lat":43.33156,"lon":5.38168,"is_reserved":false,"is_disabled":false,"rental_uris":{"android":"levelo://app?vid=45082317-7477-4476-8774-36dc2a137585","ios":"levelo://app?vid=45082317-7477-4476-8774-36dc2a137585"},"vehicle_type_id":"4","last_reported":1746630679,"current_range_meters":10000,"station_id":"","pricing_plan_id":"cebpf4jnsgd1na2vs0mg"},{"bike_id":"741922f7-49ff-4751-a228-5a73f2c8c24d","system_id":"levelo_inurba_marseille","lat":43.241714,"lon":5.36402,"is_reserved":false,"is_disabled":false,"rental_uris":{"android":"levelo://app?vid=741922f7-49ff-4751-a228-5a73f2c8c24d","ios":"levelo://app?vid=741922f7-49ff-4751-a228-5a73f2c8c24d"},"vehicle_type_id":"4","last_reported":1746630679,"current_range_meters":10000,"station_id":"cpo36qri1sfpv3e86is0","pricing_plan_id":"cebpf4jnsgd1na2vs0mg"},{"bike_id":"ab983aad-0ba0-4258-b876-e95b521bf374","system_id":"levelo_inurba_marseille","lat":43.26208,"lon":5.37441,"is_reserved":false,"is_disabled":false,"rental_uris":{"android":"levelo://app?vid=ab983aad-0ba0-4258-b876-e95b521bf374","ios":"levelo://app?vid=ab983aad-0ba0-4258-b876-e95b521bf374"},"vehicle_type_id":"4","last_reported":1746630679,"current_range_meters":10000,"station_id":"ce4bhgp2rcd13ifvqfc0","pricing_plan_id":"cebpf4jnsgd1na2vs0mg"},{"bike_id":"89420609-8590-4e4d-9042-8fb0e02b5686","system_id":"levelo_inurba_marseille","lat":43.2417,"lon":5.36396,"is_reserved":false,"is_disabled":false,"rental_uris":{"android":"levelo://app?vid=89420609-8590-4e4d-9042-8fb0e02b5686","ios":"levelo://app?vid=89420609-8590-4e4d-9042-8fb0e02b5686"},"vehicle_type_id":"4","last_reported":1746630679,"current_range_meters":10800,"station_id":"cpo36qri1sfpv3e86is0","pricing_plan_id":"cebpf4jnsgd1na2vs0mg"},{"bike_id":"4204c217-78bf-4f2e-9204-63c409fc3750","system_id":"levelo_inurba_marseille","lat":43.29168,"lon":5.3716,"is_reserved":false,"is_disabled":false,"rental_uris":{"android":"levelo://app?vid=4204c217-78bf-4f2e-9204-63c409fc3750","ios":"levelo://app?vid=4204c217-78bf-4f2e-9204-63c409fc3750"},"vehicle_type_id":"4","last_reported":1746630679,"current_range_meters":10800,"station_id":"ce4bha92rcd13ifvqeh0","pricing_plan_id":"cebpf4jnsgd1na2vs0mg"},{"bike_id":"c650db92-e467-494a-8ffb-fba552729a60","system_id":"levelo_inurba_marseille","lat":43.23962,"lon":5.36633,"is_reserved":false,"is_disabled":false,"rental_uris":{"android":"levelo://app?vid=c650db92-e467-494a-8ffb-fba552729a60","ios":"levelo://app?vid=c650db92-e467-494a-8ffb-fba552729a60"},"vehicle_type_id":"4","last_reported":1746630679,"current_range_meters":10800,"station_id":"ce4bhi12rcd13ifvqfp0","pricing_plan_id":"cebpf4jnsgd1na2vs0mg"},{"bike_id":"55976b27-01d3-4b1b-9385-28739f4b93ef","system_id":"levelo_inurba_marseille","lat":43.243873,"lon":5.370863,"is_reserved":false,"is_disabled":false,"rental_uris":{"android":"levelo://app?vid=55976b27-01d3-4b1b-9385-28739f4b93ef","ios":"levelo://app?vid=55976b27-01d3-4b1b-9385-28739f4b93ef"},"vehicle_type_id":"4","last_reported":1746630679,"current_range_meters":10800,"station_id":"ce4bhhh2rcd13ifvqfk0","pricing_plan_id":"cebpf4jnsgd1na2vs0mg"},{"bike_id":"4b85b4c8-cd31-4da8-ac79-14c923241785","system_id":"levelo_inurba_marseille","lat":43.31393,"lon":5.36829,"is_reserved":false,"is_disabled":false,"rental_uris":{"android":"levelo://app?vid=4b85b4c8-cd31-4da8-ac79-14c923241785","ios":"levelo://app?vid=4b85b4c8-cd31-4da8-ac79-14c923241785"},"vehicle_type_id":"4","last_reported":1746630679,"current_range_meters":11200,"station_id":"","pricing_plan_id":"cebpf4jnsgd1na2vs0mg"},{"bike_id":"26346828-3bdc-4d5e-a933-008e010c6706","system_id":"levelo_inurba_marseille","lat":43.32112,"lon":5.36763,"is_reserved":false,"is_disabled":false,"rental_uris":{"android":"levelo://app?vid=26346828-3bdc-4d5e-a933-008e010c6706","ios":"levelo://app?vid=26346828-3bdc-4d5e-a933-008e010c6706"},"vehicle_type_id":"4","last_reported":1746630679,"current_range_meters":11600,"station_id":"ce4bhrh2rcd13ifvqhug","pricing_plan_id":"cebpf4jnsgd1na2vs0mg"},{"bike_id":"65a029e4-2630-4624-8ec7-bcf9b5dd7c31","system_id":"levelo_inurba_marseille","lat":43.27922,"lon":5.39589,"is_reserved":false,"is_disabled":false,"rental_uris":{"android":"levelo://app?vid=65a029e4-2630-4624-8ec7-bcf9b5dd7c31","ios":"levelo://app?vid=65a029e4-2630-4624-8ec7-bcf9b5dd7c31"},"vehicle_type_id":"4","last_reported":1746630679,"current_range_meters":11600,"station_id":"ce4bhf92rcd13ifvqf40","pricing_plan_id":"cebpf4jnsgd1na2vs0mg"},{"bike_id":"0614d551-8290-4e61-bbe1-7b6973a0b641","system_id":"levelo_inurba_marseille","lat":43.29925,"lon":5.37478,"is_reserved":false,"is_disabled":false,"rental_uris":{"android":"levelo://app?vid=0614d551-8290-4e61-bbe1-7b6973a0b641","ios":"levelo://app?vid=0614d551-8290-4e61-bbe1-7b6973a0b641"},"vehicle_type_id":"4","last_reported":1746630679,"current_range_meters":11600,"station_id":"ce4bgjh2rcd13ifvqbg0","pricing_plan_id":"cebpf4jnsgd1na2vs0mg"},{"bike_id":"493be061-2a33-418a-b173-b73150da20a2","system_id":"levelo_inurba_marseille","lat":43.29171,"lon":5.37168,"is_reserved":false,"is_disabled":false,"rental_uris":{"android":"levelo://app?vid=493be061-2a33-418a-b173-b73150da20a2","ios":"levelo://app?vid=493be061-2a33-418a-b173-b73150da20a2"},"vehicle_type_id":"4","last_reported":1746630679,"current_range_meters":11200,"station_id":"ce4bha92rcd13ifvqeh0","pricing_plan_id":"cebpf4jnsgd1na2vs0mg"},{"bike_id":"6be3c6d1-d9ed-4352-a215-25f2f7e4b6c2","system_id":"levelo_inurba_marseille","lat":43.29057,"lon":5.35914,"is_reserved":false,"is_disabled":false,"rental_uris":{"android":"levelo://app?vid=6be3c6d1-d9ed-4352-a215-25f2f7e4b6c2","ios":"levelo://app?vid=6be3c6d1-d9ed-4352-a215-25f2f7e4b6c2"},"vehicle_type_id":"4","last_reported":1746630679,"current_range_meters":12000,"station_id":"ce4bha92rcd13ifvqeg0","pricing_plan_id":"cebpf4jnsgd1na2vs0mg"},{"bike_id":"a96833c3-7aad-4769-953e-d8192a324355","system_id":"levelo_inurba_marseille","lat":43.337444,"lon":5.374475,"is_reserved":false,"is_disabled":false,"rental_uris":{"android":"levelo://app?vid=a96833c3-7aad-4769-953e-d8192a324355","ios":"levelo://app?vid=a96833c3-7aad-4769-953e-d8192a324355"},"vehicle_type_id":"4","last_reported":1746630679,"current_range_meters":12000,"station_id":"","pricing_plan_id":"cebpf4jnsgd1na2vs0mg"},{"bike_id":"90f42e27-769b-4eb9-9fe6-413357340ef9","system_id":"levelo_inurba_marseille","lat":43.24654,"lon":5.38889,"is_reserved":false,"is_disabled":false,"rental_uris":{"android":"levelo://app?vid=90f42e27-769b-4eb9-9fe6-413357340ef9","ios":"levelo://app?vid=90f42e27-769b-4eb9-9fe6-413357340ef9"},"vehicle_type_id":"4","last_reported":1746630679,"current_range_meters":12000,"station_id":"ce4bhg12rcd13ifvqf60","pricing_plan_id":"cebpf4jnsgd1na2vs0mg"},{"bike_id":"3b3a2e00-6109-4b78-b5f7-f6daf45c5928","system_id":"levelo_inurba_marseille","lat":43.22932,"lon":5.35375,"is_reserved":false,"is_disabled":false,"rental_uris":{"android":"levelo://app?vid=3b3a2e00-6109-4b78-b5f7-f6daf45c5928","ios":"levelo://app?vid=3b3a2e00-6109-4b78-b5f7-f6daf45c5928"},"vehicle_type_id":"4","last_reported":1746630679,"current_range_meters":12400,"station_id":"cpo3532slgdg3j2ikp40","pricing_plan_id":"cebpf4jnsgd1na2vs0mg"},{"bike_id":"5ba8bc33-ae35-41c5-9fc0-89bf2036ef22","system_id":"levelo_inurba_marseille","lat":43.29259,"lon":5.40907,"is_reserved":false,"is_disabled":false,"rental_uris":{"android":"levelo://app?vid=5ba8bc33-ae35-41c5-9fc0-89bf2036ef22","ios":"levelo://app?vid=5ba8bc33-ae35-41c5-9fc0-89bf2036ef22"},"vehicle_type_id":"4","last_reported":1746630679,"current_range_meters":12400,"station_id":"ce4bh192rcd13ifvqdc0","pricing_plan_id":"cebpf4jnsgd1na2vs0mg"},{"bike_id":"da969974-22aa-46db-8410-739525a3b9a9","system_id":"levelo_inurba_marseille","lat":43.22927,"lon":5.35399,"is_reserved":false,"is_disabled":false,"rental_uris":{"android":"levelo://app?vid=da969974-22aa-46db-8410-739525a3b9a9","ios":"levelo://app?vid=da969974-22aa-46db-8410-739525a3b9a9"},"vehicle_type_id":"4","last_reported":1746630679,"current_range_meters":12400,"station_id":"cpo3532slgdg3j2ikp40","pricing_plan_id":"cebpf4jnsgd1na2vs0mg"},{"bike_id":"1cb8737d-c92f-4439-9e31-47b11fd0ae82","system_id":"levelo_inurba_marseille","lat":43.31376,"lon":5.38492,"is_reserved":false,"is_disabled":false,"rental_uris":{"android":"levelo://app?vid=1cb8737d-c92f-4439-9e31-47b11fd0ae82","ios":"levelo://app?vid=1cb8737d-c92f-4439-9e31-47b11fd0ae82"},"vehicle_type_id":"4","last_reported":1746630679,"current_range_meters":12800,"station_id":"ce4bgt92rcd13ifvqcf0","pricing_plan_id":"cebpf4jnsgd1na2vs0mg"},{"bike_id":"0c6afa10-0393-445a-88a3-07139fa1ddbf","system_id":"levelo_inurba_marseille","lat":43.29975,"lon":5.37186,"is_reserved":false,"is_disabled":false,"rental_uris":{"android":"levelo://app?vid=0c6afa10-0393-445a-88a3-07139fa1ddbf","ios":"levelo://app?vid=0c6afa10-0393-445a-88a3-07139fa1ddbf"},"vehicle_type_id":"4","last_reported":1746630679,"current_range_meters":12800,"station_id":"ce4bgr92rcd13ifvqc7g","pricing_plan_id":"cebpf4jnsgd1na2vs0mg"},{"bike_id":"4da0ac59-daf7-4063-b4f5-0df9adc7ea10","system_id":"levelo_inurba_marseille","lat":43.33415,"lon":5.40038,"is_reserved":false,"is_disabled":false,"rental_uris":{"android":"levelo://app?vid=4da0ac59-daf7-4063-b4f5-0df9adc7ea10","ios":"levelo://app?vid=4da0ac59-daf7-4063-b4f5-0df9adc7ea10"},"vehicle_type_id":"4","last_reported":1746630679,"current_range_meters":12800,"station_id":"","pricing_plan_id":"cebpf4jnsgd1na2vs0mg"},{"bike_id":"cb804ca6-4e74-4d08-aea7-2b4aae9112aa","system_id":"levelo_inurba_marseille","lat":43.29955,"lon":5.37924,"is_reserved":false,"is_disabled":false,"rental_uris":{"android":"levelo://app?vid=cb804ca6-4e74-4d08-aea7-2b4aae9112aa","ios":"levelo://app?vid=cb804ca6-4e74-4d08-aea7-2b4aae9112aa"},"vehicle_type_id":"4","last_reported":1746630679,"current_range_meters":13600,"station_id":"","pricing_plan_id":"cebpf4jnsgd1na2vs0mg"},{"bike_id":"a76fca93-b221-4bc4-b715-43dcc35b811a","system_id":"levelo_inurba_marseille","lat":43.28416,"lon":5.34984,"is_reserved":false,"is_disabled":false,"rental_uris":{"android":"levelo://app?vid=a76fca93-b221-4bc4-b715-43dcc35b811a","ios":"levelo://app?vid=a76fca93-b221-4bc4-b715-43dcc35b811a"},"vehicle_type_id":"4","last_reported":1746630679,"current_range_meters":14000,"station_id":"ce4bhbh2rcd13ifvqepg","pricing_plan_id":"cebpf4jnsgd1na2vs0mg"},{"bike_id":"d3323fc0-a213-4171-90e6-7b820412bdc2","system_id":"levelo_inurba_marseille","lat":43.24668,"lon":5.38157,"is_reserved":false,"is_disabled":false,"rental_uris":{"android":"levelo://app?vid=d3323fc0-a213-4171-90e6-7b820412bdc2","ios":"levelo://app?vid=d3323fc0-a213-4171-90e6-7b820412bdc2"},"vehicle_type_id":"4","last_reported":1746630679,"current_range_meters":14000,"station_id":"ce4bhih2rcd13ifvqfr0","pricing_plan_id":"cebpf4jnsgd1na2vs0mg"},{"bike_id":"84c74aab-20fb-499b-943a-22f3617f3034","system_id":"levelo_inurba_marseille","lat":43.26504,"lon":5.39547,"is_reserved":false,"is_disabled":false,"rental_uris":{"android":"levelo://app?vid=84c74aab-20fb-499b-943a-22f3617f3034","ios":"levelo://app?vid=84c74aab-20fb-499b-943a-22f3617f3034"},"vehicle_type_id":"4","last_reported":1746630679,"current_range_meters":13600,"station_id":"ce4bhi12rcd13ifvqfq0","pricing_plan_id":"cebpf4jnsgd1na2vs0mg"},{"bike_id":"ffa577e3-38a3-4ad2-beb5-8e5326dd9bf9","system_id":"levelo_inurba_marseille","lat":43.29316,"lon":5.37175,"is_reserved":false,"is_disabled":false,"rental_uris":{"android":"levelo://app?vid=ffa577e3-38a3-4ad2-beb5-8e5326dd9bf9","ios":"levelo://app?vid=ffa577e3-38a3-4ad2-beb5-8e5326dd9bf9"},"vehicle_type_id":"4","last_reported":1746630679,"current_range_meters":14400,"station_id":"ce4bgh92rcd13ifvqb40","pricing_plan_id":"cebpf4jnsgd1na2vs0mg"},{"bike_id":"1b3e7067-b4bc-4fd6-bfd4-02962c636e7d","system_id":"levelo_inurba_marseille","lat":43.31494,"lon":5.37311,"is_reserved":false,"is_disabled":false,"rental_uris":{"android":"levelo://app?vid=1b3e7067-b4bc-4fd6-bfd4-02962c636e7d","ios":"levelo://app?vid=1b3e7067-b4bc-4fd6-bfd4-02962c636e7d"},"vehicle_type_id":"4","last_reported":1746630679,"current_range_meters":14400,"station_id":"ce4bgt12rcd13ifvqcd0","pricing_plan_id":"cebpf4jnsgd1na2vs0mg"},{"bike_id":"31c4615a-5a90-4db7-b39a-7c3a88c1d021","system_id":"levelo_inurba_marseille","lat":43.31378,"lon":5.38491,"is_reserved":false,"is_disabled":false,"rental_uris":{"android":"levelo://app?vid=31c4615a-5a90-4db7-b39a-7c3a88c1d021","ios":"levelo://app?vid=31c4615a-5a90-4db7-b39a-7c3a88c1d021"},"vehicle_type_id":"4","last_reported":1746630679,"current_range_meters":14400,"station_id":"ce4bgt92rcd13ifvqcf0","pricing_plan_id":"cebpf4jnsgd1na2vs0mg"},{"bike_id":"28d26925-f859-4029-a5ec-9db610a1740c","system_id":"levelo_inurba_marseille","lat":43.28074,"lon":5.39659,"is_reserved":false,"is_disabled":false,"rental_uris":{"android":"levelo://app?vid=28d26925-f859-4029-a5ec-9db610a1740c","ios":"levelo://app?vid=28d26925-f859-4029-a5ec-9db610a1740c"},"vehicle_type_id":"4","last_reported":1746630679,"current_range_meters":14400,"station_id":"ce4bho12rcd13ifvqh2g","pricing_plan_id":"cebpf4jnsgd1na2vs0mg"},{"bike_id":"81d9e756-e611-4379-b626-5e6439c21fb6","system_id":"levelo_inurba_marseille","lat":43.32344,"lon":5.40653,"is_reserved":false,"is_disabled":false,"rental_uris":{"android":"levelo://app?vid=81d9e756-e611-4379-b626-5e6439c21fb6","ios":"levelo://app?vid=81d9e756-e611-4379-b626-5e6439c21fb6"},"vehicle_type_id":"4","last_reported":1746630679,"current_range_meters":14400,"station_id":"ce4bhq92rcd13ifvqhjg","pricing_plan_id":"cebpf4jnsgd1na2vs0mg"},{"bike_id":"ab44e1f0-c56c-47a3-a07a-26b90817c5b5","system_id":"levelo_inurba_marseille","lat":43.30432,"lon":5.3975,"is_reserved":false,"is_disabled":false,"rental_uris":{"android":"levelo://app?vid=ab44e1f0-c56c-47a3-a07a-26b90817c5b5","ios":"levelo://app?vid=ab44e1f0-c56c-47a3-a07a-26b90817c5b5"},"vehicle_type_id":"4","last_reported":1746630679,"current_range_meters":14400,"station_id":"ce4bh092rcd13ifvqd20","pricing_plan_id":"cebpf4jnsgd1na2vs0mg"},{"bike_id":"10554388-48f4-48c1-937e-7829c87ea57d","system_id":"levelo_inurba_marseille","lat":43.28033,"lon":5.36948,"is_reserved":false,"is_disabled":false,"rental_uris":{"android":"levelo://app?vid=10554388-48f4-48c1-937e-7829c87ea57d","ios":"levelo://app?vid=10554388-48f4-48c1-937e-7829c87ea57d"},"vehicle_type_id":"4","last_reported":1746630679,"current_range_meters":14400,"station_id":"ce4bha12rcd13ifvqef0","pricing_plan_id":"cebpf4jnsgd1na2vs0mg"},{"bike_id":"2042f4ec-6314-4888-a650-66bc02cd123e","system_id":"levelo_inurba_marseille","lat":43.29022,"lon":5.38646,"is_reserved":false,"is_disabled":false,"rental_uris":{"android":"levelo://app?vid=2042f4ec-6314-4888-a650-66bc02cd123e","ios":"levelo://app?vid=2042f4ec-6314-4888-a650-66bc02cd123e"},"vehicle_type_id":"4","last_reported":1746630679,"current_range_meters":14800,"station_id":"ce4bh4p2rcd13ifvqe0g","pricing_plan_id":"cebpf4jnsgd1na2vs0mg"},{"bike_id":"76b434c2-c643-4211-b411-cece9b438d25","system_id":"levelo_inurba_marseille","lat":43.26785,"lon":5.39413,"is_reserved":false,"is_disabled":false,"rental_uris":{"android":"levelo://app?vid=76b434c2-c643-4211-b411-cece9b438d25","ios":"levelo://app?vid=76b434c2-c643-4211-b411-cece9b438d25"},"vehicle_type_id":"4","last_reported":1746630679,"current_range_meters":15200,"station_id":"ce4bhh12rcd13ifvqfg0","pricing_plan_id":"cebpf4jnsgd1na2vs0mg"},{"bike_id":"53a849fe-cc1d-41de-8553-5fe743cdd90a","system_id":"levelo_inurba_marseille","lat":43.26064,"lon":5.39397,"is_reserved":false,"is_disabled":false,"rental_uris":{"android":"levelo://app?vid=53a849fe-cc1d-41de-8553-5fe743cdd90a","ios":"levelo://app?vid=53a849fe-cc1d-41de-8553-5fe743cdd90a"},"vehicle_type_id":"4","last_reported":1746630679,"current_range_meters":14800,"station_id":"ce4bhh92rcd13ifvqfj0","pricing_plan_id":"cebpf4jnsgd1na2vs0mg"},{"bike_id":"b51c4b1e-3410-49bf-934f-d001491bf2cd","system_id":"levelo_inurba_marseille","lat":43.2465,"lon":5.38893,"is_reserved":false,"is_disabled":false,"rental_uris":{"android":"levelo://app?vid=b51c4b1e-3410-49bf-934f-d001491bf2cd","ios":"levelo://app?vid=b51c4b1e-3410-49bf-934f-d001491bf2cd"},"vehicle_type_id":"4","last_reported":1746630679,"current_range_meters":16000,"station_id":"ce4bhg12rcd13ifvqf60","pricing_plan_id":"cebpf4jnsgd1na2vs0mg"},{"bike_id":"532a56b0-4a9d-456a-9d51-13651c8ec1c2","system_id":"levelo_inurba_marseille","lat":43.306455,"lon":5.400923,"is_reserved":false,"is_disabled":false,"rental_uris":{"android":"levelo://app?vid=532a56b0-4a9d-456a-9d51-13651c8ec1c2","ios":"levelo://app?vid=532a56b0-4a9d-456a-9d51-13651c8ec1c2"},"vehicle_type_id":"4","last_reported":1746630679,"current_range_meters":16000,"station_id":"ce4bh112rcd13ifvqda0","pricing_plan_id":"cebpf4jnsgd1na2vs0mg"},{"bike_id":"809c8673-c032-46b9-aa07-62c38e26d44e","system_id":"levelo_inurba_marseille","lat":43.25054,"lon":5.38774,"is_reserved":false,"is_disabled":false,"rental_uris":{"android":"levelo://app?vid=809c8673-c032-46b9-aa07-62c38e26d44e","ios":"levelo://app?vid=809c8673-c032-46b9-aa07-62c38e26d44e"},"vehicle_type_id":"4","last_reported":1746630679,"current_range_meters":16400,"station_id":"","pricing_plan_id":"cebpf4jnsgd1na2vs0mg"},{"bike_id":"4aae8f2e-5422-4b0e-be12-8def74dd8bcf","system_id":"levelo_inurba_marseille","lat":43.33029,"lon":5.39049,"is_reserved":false,"is_disabled":false,"rental_uris":{"android":"levelo://app?vid=4aae8f2e-5422-4b0e-be12-8def74dd8bcf","ios":"levelo://app?vid=4aae8f2e-5422-4b0e-be12-8def74dd8bcf"},"vehicle_type_id":"4","last_reported":1746630679,"current_range_meters":16400,"station_id":"ce4bhr92rcd13ifvqhrg","pricing_plan_id":"cebpf4jnsgd1na2vs0mg"},{"bike_id":"e945a495-d359-4bb7-bb94-1340aff95955","system_id":"levelo_inurba_marseille","lat":43.2812,"lon":5.40607,"is_reserved":false,"is_disabled":false,"rental_uris":{"android":"levelo://app?vid=e945a495-d359-4bb7-bb94-1340aff95955","ios":"levelo://app?vid=e945a495-d359-4bb7-bb94-1340aff95955"},"vehicle_type_id":"4","last_reported":1746630679,"current_range_meters":16800,"station_id":"","pricing_plan_id":"cebpf4jnsgd1na2vs0mg"},{"bike_id":"e6282093-23fb-41a9-859d-c0d9ad966535","system_id":"levelo_inurba_marseille","lat":43.31795,"lon":5.37887,"is_reserved":false,"is_disabled":false,"rental_uris":{"android":"levelo://app?vid=e6282093-23fb-41a9-859d-c0d9ad966535","ios":"levelo://app?vid=e6282093-23fb-41a9-859d-c0d9ad966535"},"vehicle_type_id":"4","last_reported":1746630679,"current_range_meters":16400,"station_id":"","pricing_plan_id":"cebpf4jnsgd1na2vs0mg"},{"bike_id":"d2723f34-3549-49cb-b994-8985dc267ee1","system_id":"levelo_inurba_marseille","lat":43.250985,"lon":5.395038,"is_reserved":false,"is_disabled":false,"rental_uris":{"android":"levelo://app?vid=d2723f34-3549-49cb-b994-8985dc267ee1","ios":"levelo://app?vid=d2723f34-3549-49cb-b994-8985dc267ee1"},"vehicle_type_id":"4","last_reported":1746630679,"current_range_meters":16000,"station_id":"ce4bhm12rcd13ifvqgkg","pricing_plan_id":"cebpf4jnsgd1na2vs0mg"},{"bike_id":"233a0ef5-278e-43fe-8e2d-dbd5e1f9a4a6","system_id":"levelo_inurba_marseille","lat":43.29772,"lon":5.38113,"is_reserved":false,"is_disabled":false,"rental_uris":{"android":"levelo://app?vid=233a0ef5-278e-43fe-8e2d-dbd5e1f9a4a6","ios":"levelo://app?vid=233a0ef5-278e-43fe-8e2d-dbd5e1f9a4a6"},"vehicle_type_id":"4","last_reported":1746630679,"current_range_meters":16400,"station_id":"ce4bgip2rcd13ifvqbb0","pricing_plan_id":"cebpf4jnsgd1na2vs0mg"},{"bike_id":"4c09d59c-da6e-4d16-890b-de6b93fc3274","system_id":"levelo_inurba_marseille","lat":43.27954,"lon":5.4104,"is_reserved":false,"is_disabled":false,"rental_uris":{"android":"levelo://app?vid=4c09d59c-da6e-4d16-890b-de6b93fc3274","ios":"levelo://app?vid=4c09d59c-da6e-4d16-890b-de6b93fc3274"},"vehicle_type_id":"4","last_reported":1746630679,"current_range_meters":16000,"station_id":"ce4bhnp2rcd13ifvqh0g","pricing_plan_id":"cebpf4jnsgd1na2vs0mg"},{"bike_id":"fa82ee4e-21d5-47ac-80c4-e843c58939ec","system_id":"levelo_inurba_marseille","lat":43.231865,"lon":5.399955,"is_reserved":false,"is_disabled":false,"rental_uris":{"android":"levelo://app?vid=fa82ee4e-21d5-47ac-80c4-e843c58939ec","ios":"levelo://app?vid=fa82ee4e-21d5-47ac-80c4-e843c58939ec"},"vehicle_type_id":"4","last_reported":1746630679,"current_range_meters":16400,"station_id":"ce4bhn12rcd13ifvqgqg","pricing_plan_id":"cebpf4jnsgd1na2vs0mg"},{"bike_id":"656521ee-4f14-4c6b-aaec-84ac797faec1","system_id":"levelo_inurba_marseille","lat":43.24699,"lon":5.38121,"is_reserved":false,"is_disabled":false,"rental_uris":{"android":"levelo://app?vid=656521ee-4f14-4c6b-aaec-84ac797faec1","ios":"levelo://app?vid=656521ee-4f14-4c6b-aaec-84ac797faec1"},"vehicle_type_id":"4","last_reported":1746630679,"current_range_meters":16000,"station_id":"ce4bhih2rcd13ifvqfr0","pricing_plan_id":"cebpf4jnsgd1na2vs0mg"},{"bike_id":"3efa8577-f404-454a-a9a1-24e47819dab8","system_id":"levelo_inurba_marseille","lat":43.23963,"lon":5.36639,"is_reserved":false,"is_disabled":false,"rental_uris":{"android":"levelo://app?vid=3efa8577-f404-454a-a9a1-24e47819dab8","ios":"levelo://app?vid=3efa8577-f404-454a-a9a1-24e47819dab8"},"vehicle_type_id":"4","last_reported":1746630679,"current_range_meters":16400,"station_id":"ce4bhi12rcd13ifvqfp0","pricing_plan_id":"cebpf4jnsgd1na2vs0mg"},{"bike_id":"1deecae1-e097-454b-8933-aaed0640ce15","system_id":"levelo_inurba_marseille","lat":43.3015,"lon":5.38089,"is_reserved":false,"is_disabled":false,"rental_uris":{"android":"levelo://app?vid=1deecae1-e097-454b-8933-aaed0640ce15","ios":"levelo://app?vid=1deecae1-e097-454b-8933-aaed0640ce15"},"vehicle_type_id":"4","last_reported":1746630679,"current_range_meters":16000,"station_id":"ce4bgjp2rcd13ifvqbh0","pricing_plan_id":"cebpf4jnsgd1na2vs0mg"},{"bike_id":"1e66c277-a851-4897-acdf-a8fc7322d07a","system_id":"levelo_inurba_marseille","lat":43.31711,"lon":5.43712,"is_reserved":false,"is_disabled":false,"rental_uris":{"android":"levelo://app?vid=1e66c277-a851-4897-acdf-a8fc7322d07a","ios":"levelo://app?vid=1e66c277-a851-4897-acdf-a8fc7322d07a"},"vehicle_type_id":"4","last_reported":1746630679,"current_range_meters":16800,"station_id":"ce4bhp92rcd13ifvqhcg","pricing_plan_id":"cebpf4jnsgd1na2vs0mg"},{"bike_id":"a88eec37-c6d7-4a7b-94cd-14741758fbb5","system_id":"levelo_inurba_marseille","lat":43.3065,"lon":5.40062,"is_reserved":false,"is_disabled":false,"rental_uris":{"android":"levelo://app?vid=a88eec37-c6d7-4a7b-94cd-14741758fbb5","ios":"levelo://app?vid=a88eec37-c6d7-4a7b-94cd-14741758fbb5"},"vehicle_type_id":"4","last_reported":1746630679,"current_range_meters":16800,"station_id":"ce4bh112rcd13ifvqda0","pricing_plan_id":"cebpf4jnsgd1na2vs0mg"},{"bike_id":"231812b0-73cf-4f8d-8b8b-fcf276b5c57a","system_id":"levelo_inurba_marseille","lat":43.27073,"lon":5.42283,"is_reserved":false,"is_disabled":false,"rental_uris":{"android":"levelo://app?vid=231812b0-73cf-4f8d-8b8b-fcf276b5c57a","ios":"levelo://app?vid=231812b0-73cf-4f8d-8b8b-fcf276b5c57a"},"vehicle_type_id":"4","last_reported":1746630679,"current_range_meters":16800,"station_id":"ce4bhk92rcd13ifvqgb0","pricing_plan_id":"cebpf4jnsgd1na2vs0mg"},{"bike_id":"614161a8-67b0-496e-a209-0cd2db9a4bf5","system_id":"levelo_inurba_marseille","lat":43.279177,"lon":5.395757,"is_reserved":false,"is_disabled":false,"rental_uris":{"android":"levelo://app?vid=614161a8-67b0-496e-a209-0cd2db9a4bf5","ios":"levelo://app?vid=614161a8-67b0-496e-a209-0cd2db9a4bf5"},"vehicle_type_id":"4","last_reported":1746630679,"current_range_meters":17200,"station_id":"ce4bhf92rcd13ifvqf40","pricing_plan_id":"cebpf4jnsgd1na2vs0mg"},{"bike_id":"2ed327f6-8175-4783-a942-a15e7df3127f","system_id":"levelo_inurba_marseille","lat":43.31759,"lon":5.39022,"is_reserved":false,"is_disabled":true,"rental_uris":{"android":"levelo://app?vid=2ed327f6-8175-4783-a942-a15e7df3127f","ios":"levelo://app?vid=2ed327f6-8175-4783-a942-a15e7df3127f"},"vehicle_type_id":"4","last_reported":1746630679,"current_range_meters":17200,"station_id":"ce4bhqp2rcd13ifvqhng","pricing_plan_id":"cebpf4jnsgd1na2vs0mg"},{"bike_id":"cb5561fb-3ed2-49bf-bd58-7c8862116c78","system_id":"levelo_inurba_marseille","lat":43.21195,"lon":5.3507,"is_reserved":false,"is_disabled":false,"rental_uris":{"android":"levelo://app?vid=cb5561fb-3ed2-49bf-bd58-7c8862116c78","ios":"levelo://app?vid=cb5561fb-3ed2-49bf-bd58-7c8862116c78"},"vehicle_type_id":"4","last_reported":1746630679,"current_range_meters":17200,"station_id":"st_cvj6sg6p6f1abm77japg","pricing_plan_id":"cebpf4jnsgd1na2vs0mg"},{"bike_id":"bb745cee-af37-4b23-afc5-3d5aa5ce7aed","system_id":"levelo_inurba_marseille","lat":43.26213,"lon":5.40454,"is_reserved":false,"is_disabled":false,"rental_uris":{"android":"levelo://app?vid=bb745cee-af37-4b23-afc5-3d5aa5ce7aed","ios":"levelo://app?vid=bb745cee-af37-4b23-afc5-3d5aa5ce7aed"},"vehicle_type_id":"4","last_reported":1746630679,"current_range_meters":17200,"station_id":"ce4bhmh2rcd13ifvqgmg","pricing_plan_id":"cebpf4jnsgd1na2vs0mg"},{"bike_id":"24b61a76-28fb-45e0-9f3e-1c10328e0181","system_id":"levelo_inurba_marseille","lat":43.30171,"lon":5.38089,"is_reserved":false,"is_disabled":false,"rental_uris":{"android":"levelo://app?vid=24b61a76-28fb-45e0-9f3e-1c10328e0181","ios":"levelo://app?vid=24b61a76-28fb-45e0-9f3e-1c10328e0181"},"vehicle_type_id":"4","last_reported":1746630679,"current_range_meters":17600,"station_id":"ce4bgjp2rcd13ifvqbh0","pricing_plan_id":"cebpf4jnsgd1na2vs0mg"},{"bike_id":"287a9bad-b763-4dc0-a51a-fa01934d8e5f","system_id":"levelo_inurba_marseille","lat":43.2397,"lon":5.36631,"is_reserved":false,"is_disabled":false,"rental_uris":{"android":"levelo://app?vid=287a9bad-b763-4dc0-a51a-fa01934d8e5f","ios":"levelo://app?vid=287a9bad-b763-4dc0-a51a-fa01934d8e5f"},"vehicle_type_id":"4","last_reported":1746630679,"current_range_meters":17600,"station_id":"ce4bhi12rcd13ifvqfp0","pricing_plan_id":"cebpf4jnsgd1na2vs0mg"},{"bike_id":"fc9aa7a7-7940-4243-9ec4-56691e214b3c","system_id":"levelo_inurba_marseille","lat":43.27376,"lon":5.36261,"is_reserved":false,"is_disabled":false,"rental_uris":{"android":"levelo://app?vid=fc9aa7a7-7940-4243-9ec4-56691e214b3c","ios":"levelo://app?vid=fc9aa7a7-7940-4243-9ec4-56691e214b3c"},"vehicle_type_id":"4","last_reported":1746630679,"current_range_meters":17600,"station_id":"ce4bhbh2rcd13ifvqeo0","pricing_plan_id":"cebpf4jnsgd1na2vs0mg"},{"bike_id":"179e39d6-f393-46e0-b36a-f5293148431d","system_id":"levelo_inurba_marseille","lat":43.32487,"lon":5.36581,"is_reserved":false,"is_disabled":true,"rental_uris":{"android":"levelo://app?vid=179e39d6-f393-46e0-b36a-f5293148431d","ios":"levelo://app?vid=179e39d6-f393-46e0-b36a-f5293148431d"},"vehicle_type_id":"4","last_reported":1746630679,"current_range_meters":17600,"station_id":"ce4bhs12rcd13ifvqhvg","pricing_plan_id":"cebpf4jnsgd1na2vs0mg"},{"bike_id":"0717b6a1-6ebd-47df-bb3e-9a6ed8c256bb","system_id":"levelo_inurba_marseille","lat":43.308207,"lon":5.369667,"is_reserved":false,"is_disabled":false,"rental_uris":{"android":"levelo://app?vid=0717b6a1-6ebd-47df-bb3e-9a6ed8c256bb","ios":"levelo://app?vid=0717b6a1-6ebd-47df-bb3e-9a6ed8c256bb"},"vehicle_type_id":"4","last_reported":1746630679,"current_range_meters":17600,"station_id":"","pricing_plan_id":"cebpf4jnsgd1na2vs0mg"},{"bike_id":"089f9653-311e-41a3-b9c3-ab824c11ffe8","system_id":"levelo_inurba_marseille","lat":43.30662,"lon":5.40074,"is_reserved":false,"is_disabled":false,"rental_uris":{"android":"levelo://app?vid=089f9653-311e-41a3-b9c3-ab824c11ffe8","ios":"levelo://app?vid=089f9653-311e-41a3-b9c3-ab824c11ffe8"},"vehicle_type_id":"4","last_reported":1746630679,"current_range_meters":18000,"station_id":"ce4bh112rcd13ifvqda0","pricing_plan_id":"cebpf4jnsgd1na2vs0mg"},{"bike_id":"3b7d3853-558c-47e2-a913-325fadeefe92","system_id":"levelo_inurba_marseille","lat":43.2582,"lon":5.39448,"is_reserved":false,"is_disabled":false,"rental_uris":{"android":"levelo://app?vid=3b7d3853-558c-47e2-a913-325fadeefe92","ios":"levelo://app?vid=3b7d3853-558c-47e2-a913-325fadeefe92"},"vehicle_type_id":"4","last_reported":1746630679,"current_range_meters":18000,"station_id":"ce4bhip2rcd13ifvqft0","pricing_plan_id":"cebpf4jnsgd1na2vs0mg"},{"bike_id":"f96724f5-21c8-46e7-be00-d51d1fddfdc4","system_id":"levelo_inurba_marseille","lat":43.28106,"lon":5.37831,"is_reserved":false,"is_disabled":false,"rental_uris":{"android":"levelo://app?vid=f96724f5-21c8-46e7-be00-d51d1fddfdc4","ios":"levelo://app?vid=f96724f5-21c8-46e7-be00-d51d1fddfdc4"},"vehicle_type_id":"4","last_reported":1746630679,"current_range_meters":17600,"station_id":"ce4bha12rcd13ifvqee0","pricing_plan_id":"cebpf4jnsgd1na2vs0mg"},{"bike_id":"46f83161-f60c-4f7c-9541-c0bb26d0ae24","system_id":"levelo_inurba_marseille","lat":43.21748,"lon":5.34639,"is_reserved":false,"is_disabled":false,"rental_uris":{"android":"levelo://app?vid=46f83161-f60c-4f7c-9541-c0bb26d0ae24","ios":"levelo://app?vid=46f83161-f60c-4f7c-9541-c0bb26d0ae24"},"vehicle_type_id":"4","last_reported":1746630679,"current_range_meters":18800,"station_id":"st_cvj6r9ubvosntc0bgbag","pricing_plan_id":"cebpf4jnsgd1na2vs0mg"},{"bike_id":"89f953df-2061-408d-8f0d-6a2938e5443a","system_id":"levelo_inurba_marseille","lat":43.23674,"lon":5.40353,"is_reserved":false,"is_disabled":false,"rental_uris":{"android":"levelo://app?vid=89f953df-2061-408d-8f0d-6a2938e5443a","ios":"levelo://app?vid=89f953df-2061-408d-8f0d-6a2938e5443a"},"vehicle_type_id":"4","last_reported":1746630679,"current_range_meters":18800,"station_id":"","pricing_plan_id":"cebpf4jnsgd1na2vs0mg"},{"bike_id":"520f93a9-cbb4-4de6-ae9a-c52f7261fbc5","system_id":"levelo_inurba_marseille","lat":43.29962,"lon":5.38462,"is_reserved":false,"is_disabled":false,"rental_uris":{"android":"levelo://app?vid=520f93a9-cbb4-4de6-ae9a-c52f7261fbc5","ios":"levelo://app?vid=520f93a9-cbb4-4de6-ae9a-c52f7261fbc5"},"vehicle_type_id":"4","last_reported":1746630679,"current_range_meters":18800,"station_id":"ce4bgj92rcd13ifvqbd0","pricing_plan_id":"cebpf4jnsgd1na2vs0mg"},{"bike_id":"270ae53d-7a87-4c13-b6a7-c9b7e031c7b7","system_id":"levelo_inurba_marseille","lat":43.28095,"lon":5.39641,"is_reserved":false,"is_disabled":false,"rental_uris":{"android":"levelo://app?vid=270ae53d-7a87-4c13-b6a7-c9b7e031c7b7","ios":"levelo://app?vid=270ae53d-7a87-4c13-b6a7-c9b7e031c7b7"},"vehicle_type_id":"4","last_reported":1746630679,"current_range_meters":18800,"station_id":"ce4bho12rcd13ifvqh2g","pricing_plan_id":"cebpf4jnsgd1na2vs0mg"},{"bike_id":"7cb84a55-eae0-4ff8-a8e8-801fd7179396","system_id":"levelo_inurba_marseille","lat":43.30617,"lon":5.37441,"is_reserved":false,"is_disabled":false,"rental_uris":{"android":"levelo://app?vid=7cb84a55-eae0-4ff8-a8e8-801fd7179396","ios":"levelo://app?vid=7cb84a55-eae0-4ff8-a8e8-801fd7179396"},"vehicle_type_id":"4","last_reported":1746630679,"current_range_meters":18800,"station_id":"","pricing_plan_id":"cebpf4jnsgd1na2vs0mg"},{"bike_id":"8d5a3390-41ad-46e2-bb07-621181b91fe8","system_id":"levelo_inurba_marseille","lat":43.29026,"lon":5.38133,"is_reserved":false,"is_disabled":false,"rental_uris":{"android":"levelo://app?vid=8d5a3390-41ad-46e2-bb07-621181b91fe8","ios":"levelo://app?vid=8d5a3390-41ad-46e2-bb07-621181b91fe8"},"vehicle_type_id":"4","last_reported":1746630679,"current_range_meters":18800,"station_id":"ce4bh4p2rcd13ifvqe1g","pricing_plan_id":"cebpf4jnsgd1na2vs0mg"},{"bike_id":"da54801b-ca54-410d-81f0-2fa4c8cd9203","system_id":"levelo_inurba_marseille","lat":43.31356,"lon":5.38499,"is_reserved":false,"is_disabled":false,"rental_uris":{"android":"levelo://app?vid=da54801b-ca54-410d-81f0-2fa4c8cd9203","ios":"levelo://app?vid=da54801b-ca54-410d-81f0-2fa4c8cd9203"},"vehicle_type_id":"4","last_reported":1746630679,"current_range_meters":18800,"station_id":"ce4bgt92rcd13ifvqcf0","pricing_plan_id":"cebpf4jnsgd1na2vs0mg"},{"bike_id":"81224a35-d4b7-410c-8b60-1a427b36e7f8","system_id":"levelo_inurba_marseille","lat":43.28105,"lon":5.37837,"is_reserved":false,"is_disabled":false,"rental_uris":{"android":"levelo://app?vid=81224a35-d4b7-410c-8b60-1a427b36e7f8","ios":"levelo://app?vid=81224a35-d4b7-410c-8b60-1a427b36e7f8"},"vehicle_type_id":"4","last_reported":1746630679,"current_range_meters":18800,"station_id":"ce4bha12rcd13ifvqee0","pricing_plan_id":"cebpf4jnsgd1na2vs0mg"},{"bike_id":"d1e375a3-694e-4b95-a56b-caed0b1eb776","system_id":"levelo_inurba_marseille","lat":43.28719,"lon":5.3793,"is_reserved":false,"is_disabled":false,"rental_uris":{"android":"levelo://app?vid=d1e375a3-694e-4b95-a56b-caed0b1eb776","ios":"levelo://app?vid=d1e375a3-694e-4b95-a56b-caed0b1eb776"},"vehicle_type_id":"4","last_reported":1746630679,"current_range_meters":19200,"station_id":"ce4bh9p2rcd13ifvqec0","pricing_plan_id":"cebpf4jnsgd1na2vs0mg"},{"bike_id":"481133aa-d1a8-42b3-b1b4-30b853f8c2cf","system_id":"levelo_inurba_marseille","lat":43.254873,"lon":5.376446,"is_reserved":false,"is_disabled":false,"rental_uris":{"android":"levelo://app?vid=481133aa-d1a8-42b3-b1b4-30b853f8c2cf","ios":"levelo://app?vid=481133aa-d1a8-42b3-b1b4-30b853f8c2cf"},"vehicle_type_id":"4","last_reported":1746630679,"current_range_meters":19200,"station_id":"ce4bhh12rcd13ifvqff0","pricing_plan_id":"cebpf4jnsgd1na2vs0mg"},{"bike_id":"5685c192-af0e-432e-a78b-7859fcd0e0d6","system_id":"levelo_inurba_marseille","lat":43.30939,"lon":5.37978,"is_reserved":false,"is_disabled":false,"rental_uris":{"android":"levelo://app?vid=5685c192-af0e-432e-a78b-7859fcd0e0d6","ios":"levelo://app?vid=5685c192-af0e-432e-a78b-7859fcd0e0d6"},"vehicle_type_id":"4","last_reported":1746630679,"current_range_meters":19200,"station_id":"","pricing_plan_id":"cebpf4jnsgd1na2vs0mg"},{"bike_id":"f5d8f854-6aa2-4d1f-b975-339afe2e6489","system_id":"levelo_inurba_marseille","lat":43.30439,"lon":5.38891,"is_reserved":false,"is_disabled":false,"rental_uris":{"android":"levelo://app?vid=f5d8f854-6aa2-4d1f-b975-339afe2e6489","ios":"levelo://app?vid=f5d8f854-6aa2-4d1f-b975-339afe2e6489"},"vehicle_type_id":"4","last_reported":1746630679,"current_range_meters":19200,"station_id":"ce4bgk12rcd13ifvqbi0","pricing_plan_id":"cebpf4jnsgd1na2vs0mg"},{"bike_id":"386fe4c0-24a8-498f-bf25-63bcd700d63e","system_id":"levelo_inurba_marseille","lat":43.29784,"lon":5.38115,"is_reserved":false,"is_disabled":true,"rental_uris":{"android":"levelo://app?vid=386fe4c0-24a8-498f-bf25-63bcd700d63e","ios":"levelo://app?vid=386fe4c0-24a8-498f-bf25-63bcd700d63e"},"vehicle_type_id":"4","last_reported":1746630679,"current_range_meters":19600,"station_id":"ce4bgip2rcd13ifvqbb0","pricing_plan_id":"cebpf4jnsgd1na2vs0mg"},{"bike_id":"25972028-c88c-4f03-82b5-b3f60930cbb7","system_id":"levelo_inurba_marseille","lat":43.29315,"lon":5.37173,"is_reserved":false,"is_disabled":false,"rental_uris":{"android":"levelo://app?vid=25972028-c88c-4f03-82b5-b3f60930cbb7","ios":"levelo://app?vid=25972028-c88c-4f03-82b5-b3f60930cbb7"},"vehicle_type_id":"4","last_reported":1746630679,"current_range_meters":19600,"station_id":"ce4bgh92rcd13ifvqb40","pricing_plan_id":"cebpf4jnsgd1na2vs0mg"},{"bike_id":"a0a0785f-70ad-4d1a-beaa-17e53b13b109","system_id":"levelo_inurba_marseille","lat":43.2558,"lon":5.38246,"is_reserved":false,"is_disabled":false,"rental_uris":{"android":"levelo://app?vid=a0a0785f-70ad-4d1a-beaa-17e53b13b109","ios":"levelo://app?vid=a0a0785f-70ad-4d1a-beaa-17e53b13b109"},"vehicle_type_id":"4","last_reported":1746630679,"current_range_meters":19600,"station_id":"ce4bhih2rcd13ifvqfs0","pricing_plan_id":"cebpf4jnsgd1na2vs0mg"},{"bike_id":"150935c7-32f0-4a59-b27d-8bcb707454bb","system_id":"levelo_inurba_marseille","lat":43.3169,"lon":5.40473,"is_reserved":false,"is_disabled":false,"rental_uris":{"android":"levelo://app?vid=150935c7-32f0-4a59-b27d-8bcb707454bb","ios":"levelo://app?vid=150935c7-32f0-4a59-b27d-8bcb707454bb"},"vehicle_type_id":"4","last_reported":1746630679,"current_range_meters":19600,"station_id":"ce4bh012rcd13ifvqd00","pricing_plan_id":"cebpf4jnsgd1na2vs0mg"},{"bike_id":"a3d23501-5537-4dc6-9e67-a12af6c851b4","system_id":"levelo_inurba_marseille","lat":43.31085,"lon":5.42427,"is_reserved":false,"is_disabled":false,"rental_uris":{"android":"levelo://app?vid=a3d23501-5537-4dc6-9e67-a12af6c851b4","ios":"levelo://app?vid=a3d23501-5537-4dc6-9e67-a12af6c851b4"},"vehicle_type_id":"4","last_reported":1746630679,"current_range_meters":19600,"station_id":"ce4bhp92rcd13ifvqhag","pricing_plan_id":"cebpf4jnsgd1na2vs0mg"},{"bike_id":"4cbd2c65-9942-4f0f-a189-cd952c23fb29","system_id":"levelo_inurba_marseille","lat":43.28867,"lon":5.35853,"is_reserved":false,"is_disabled":false,"rental_uris":{"android":"levelo://app?vid=4cbd2c65-9942-4f0f-a189-cd952c23fb29","ios":"levelo://app?vid=4cbd2c65-9942-4f0f-a189-cd952c23fb29"},"vehicle_type_id":"4","last_reported":1746630679,"current_range_meters":19600,"station_id":"ce4bhb12rcd13ifvqem0","pricing_plan_id":"cebpf4jnsgd1na2vs0mg"},{"bike_id":"0b61db27-f678-45d2-8e16-2b9f897eaff2","system_id":"levelo_inurba_marseille","lat":43.31298,"lon":5.37069,"is_reserved":false,"is_disabled":false,"rental_uris":{"android":"levelo://app?vid=0b61db27-f678-45d2-8e16-2b9f897eaff2","ios":"levelo://app?vid=0b61db27-f678-45d2-8e16-2b9f897eaff2"},"vehicle_type_id":"4","last_reported":1746630679,"current_range_meters":20000,"station_id":"","pricing_plan_id":"cebpf4jnsgd1na2vs0mg"},{"bike_id":"f1eade1a-a4db-4ff4-bee2-79b92e5c05a5","system_id":"levelo_inurba_marseille","lat":43.30434,"lon":5.3888,"is_reserved":false,"is_disabled":false,"rental_uris":{"android":"levelo://app?vid=f1eade1a-a4db-4ff4-bee2-79b92e5c05a5","ios":"levelo://app?vid=f1eade1a-a4db-4ff4-bee2-79b92e5c05a5"},"vehicle_type_id":"4","last_reported":1746630679,"current_range_meters":20000,"station_id":"ce4bgk12rcd13ifvqbi0","pricing_plan_id":"cebpf4jnsgd1na2vs0mg"},{"bike_id":"70a29a45-574c-4ff1-aca3-740aa0e705be","system_id":"levelo_inurba_marseille","lat":43.24165,"lon":5.36412,"is_reserved":false,"is_disabled":false,"rental_uris":{"android":"levelo://app?vid=70a29a45-574c-4ff1-aca3-740aa0e705be","ios":"levelo://app?vid=70a29a45-574c-4ff1-aca3-740aa0e705be"},"vehicle_type_id":"4","last_reported":1746630679,"current_range_meters":20000,"station_id":"cpo36qri1sfpv3e86is0","pricing_plan_id":"cebpf4jnsgd1na2vs0mg"},{"bike_id":"9a8ef222-1432-4745-ba1e-8b217a00a188","system_id":"levelo_inurba_marseille","lat":43.26216,"lon":5.37437,"is_reserved":false,"is_disabled":false,"rental_uris":{"android":"levelo://app?vid=9a8ef222-1432-4745-ba1e-8b217a00a188","ios":"levelo://app?vid=9a8ef222-1432-4745-ba1e-8b217a00a188"},"vehicle_type_id":"4","last_reported":1746630679,"current_range_meters":20000,"station_id":"ce4bhgp2rcd13ifvqfc0","pricing_plan_id":"cebpf4jnsgd1na2vs0mg"},{"bike_id":"f0767e20-d0b5-4b30-9814-611821df230a","system_id":"levelo_inurba_marseille","lat":43.29535,"lon":5.3903,"is_reserved":false,"is_disabled":false,"rental_uris":{"android":"levelo://app?vid=f0767e20-d0b5-4b30-9814-611821df230a","ios":"levelo://app?vid=f0767e20-d0b5-4b30-9814-611821df230a"},"vehicle_type_id":"4","last_reported":1746630679,"current_range_meters":20000,"station_id":"ce4bh3p2rcd13ifvqdp0","pricing_plan_id":"cebpf4jnsgd1na2vs0mg"},{"bike_id":"cc428438-5f3c-4821-bc0d-bdadadd88110","system_id":"levelo_inurba_marseille","lat":43.28351,"lon":5.38111,"is_reserved":false,"is_disabled":false,"rental_uris":{"android":"levelo://app?vid=cc428438-5f3c-4821-bc0d-bdadadd88110","ios":"levelo://app?vid=cc428438-5f3c-4821-bc0d-bdadadd88110"},"vehicle_type_id":"4","last_reported":1746630679,"current_range_meters":20400,"station_id":"ce4bh412rcd13ifvqdr0","pricing_plan_id":"cebpf4jnsgd1na2vs0mg"},{"bike_id":"e47eb1b8-fd87-4638-820c-bb9b168222bc","system_id":"levelo_inurba_marseille","lat":43.27074,"lon":5.42277,"is_reserved":false,"is_disabled":false,"rental_uris":{"android":"levelo://app?vid=e47eb1b8-fd87-4638-820c-bb9b168222bc","ios":"levelo://app?vid=e47eb1b8-fd87-4638-820c-bb9b168222bc"},"vehicle_type_id":"4","last_reported":1746630679,"current_range_meters":20400,"station_id":"ce4bhk92rcd13ifvqgb0","pricing_plan_id":"cebpf4jnsgd1na2vs0mg"},{"bike_id":"88785440-2243-4947-a294-745c1998930a","system_id":"levelo_inurba_marseille","lat":43.2844,"lon":5.39192,"is_reserved":false,"is_disabled":false,"rental_uris":{"android":"levelo://app?vid=88785440-2243-4947-a294-745c1998930a","ios":"levelo://app?vid=88785440-2243-4947-a294-745c1998930a"},"vehicle_type_id":"4","last_reported":1746630679,"current_range_meters":20400,"station_id":"ce4bhoh2rcd13ifvqh5g","pricing_plan_id":"cebpf4jnsgd1na2vs0mg"},{"bike_id":"327cc39f-d91f-4b77-aab9-5dc3bf60ad82","system_id":"levelo_inurba_marseille","lat":43.25089,"lon":5.39524,"is_reserved":false,"is_disabled":false,"rental_uris":{"android":"levelo://app?vid=327cc39f-d91f-4b77-aab9-5dc3bf60ad82","ios":"levelo://app?vid=327cc39f-d91f-4b77-aab9-5dc3bf60ad82"},"vehicle_type_id":"4","last_reported":1746630679,"current_range_meters":20400,"station_id":"ce4bhm12rcd13ifvqgkg","pricing_plan_id":"cebpf4jnsgd1na2vs0mg"},{"bike_id":"e5fae8f7-f2df-4c05-8b0e-597c6fc1929a","system_id":"levelo_inurba_marseille","lat":43.29253,"lon":5.38443,"is_reserved":false,"is_disabled":false,"rental_uris":{"android":"levelo://app?vid=e5fae8f7-f2df-4c05-8b0e-597c6fc1929a","ios":"levelo://app?vid=e5fae8f7-f2df-4c05-8b0e-597c6fc1929a"},"vehicle_type_id":"4","last_reported":1746630679,"current_range_meters":20800,"station_id":"ce4bh692rcd13ifvqea0","pricing_plan_id":"cebpf4jnsgd1na2vs0mg"},{"bike_id":"52ff0f98-2d42-4438-9e50-a3496c9628fc","system_id":"levelo_inurba_marseille","lat":43.28101,"lon":5.37843,"is_reserved":false,"is_disabled":false,"rental_uris":{"android":"levelo://app?vid=52ff0f98-2d42-4438-9e50-a3496c9628fc","ios":"levelo://app?vid=52ff0f98-2d42-4438-9e50-a3496c9628fc"},"vehicle_type_id":"4","last_reported":1746630679,"current_range_meters":20800,"station_id":"ce4bha12rcd13ifvqee0","pricing_plan_id":"cebpf4jnsgd1na2vs0mg"},{"bike_id":"3ec79bd9-a66e-422e-b6fc-809e7147c63c","system_id":"levelo_inurba_marseille","lat":43.30137,"lon":5.38779,"is_reserved":false,"is_disabled":false,"rental_uris":{"android":"levelo://app?vid=3ec79bd9-a66e-422e-b6fc-809e7147c63c","ios":"levelo://app?vid=3ec79bd9-a66e-422e-b6fc-809e7147c63c"},"vehicle_type_id":"4","last_reported":1746630679,"current_range_meters":20800,"station_id":"ce4bghh2rcd13ifvqb60","pricing_plan_id":"cebpf4jnsgd1na2vs0mg"},{"bike_id":"475a33e4-8f4f-400e-b705-0eb98eea5dad","system_id":"levelo_inurba_marseille","lat":43.28936,"lon":5.36648,"is_reserved":false,"is_disabled":false,"rental_uris":{"android":"levelo://app?vid=475a33e4-8f4f-400e-b705-0eb98eea5dad","ios":"levelo://app?vid=475a33e4-8f4f-400e-b705-0eb98eea5dad"},"vehicle_type_id":"4","last_reported":1746630679,"current_range_meters":20800,"station_id":"ce4bhap2rcd13ifvqek0","pricing_plan_id":"cebpf4jnsgd1na2vs0mg"},{"bike_id":"9fae2e4f-64e6-46a2-8687-2b0e2ae604da","system_id":"levelo_inurba_marseille","lat":43.30876,"lon":5.39656,"is_reserved":false,"is_disabled":false,"rental_uris":{"android":"levelo://app?vid=9fae2e4f-64e6-46a2-8687-2b0e2ae604da","ios":"levelo://app?vid=9fae2e4f-64e6-46a2-8687-2b0e2ae604da"},"vehicle_type_id":"4","last_reported":1746630679,"current_range_meters":20800,"station_id":"","pricing_plan_id":"cebpf4jnsgd1na2vs0mg"},{"bike_id":"65ff781f-7747-492c-b169-eeb8438a05f0","system_id":"levelo_inurba_marseille","lat":43.31528,"lon":5.38036,"is_reserved":false,"is_disabled":false,"rental_uris":{"android":"levelo://app?vid=65ff781f-7747-492c-b169-eeb8438a05f0","ios":"levelo://app?vid=65ff781f-7747-492c-b169-eeb8438a05f0"},"vehicle_type_id":"4","last_reported":1746630679,"current_range_meters":20800,"station_id":"ce4bhsp2rcd13ifvqi50","pricing_plan_id":"cebpf4jnsgd1na2vs0mg"},{"bike_id":"6f97f8aa-dc3f-4d2a-9639-a6948ba00f71","system_id":"levelo_inurba_marseille","lat":43.243913,"lon":5.370621,"is_reserved":false,"is_disabled":false,"rental_uris":{"android":"levelo://app?vid=6f97f8aa-dc3f-4d2a-9639-a6948ba00f71","ios":"levelo://app?vid=6f97f8aa-dc3f-4d2a-9639-a6948ba00f71"},"vehicle_type_id":"4","last_reported":1746630679,"current_range_meters":21600,"station_id":"ce4bhhh2rcd13ifvqfk0","pricing_plan_id":"cebpf4jnsgd1na2vs0mg"},{"bike_id":"81f1602e-a6de-43d5-a7c0-68393fd7686e","system_id":"levelo_inurba_marseille","lat":43.24676,"lon":5.38179,"is_reserved":false,"is_disabled":false,"rental_uris":{"android":"levelo://app?vid=81f1602e-a6de-43d5-a7c0-68393fd7686e","ios":"levelo://app?vid=81f1602e-a6de-43d5-a7c0-68393fd7686e"},"vehicle_type_id":"4","last_reported":1746630679,"current_range_meters":21600,"station_id":"ce4bhih2rcd13ifvqfr0","pricing_plan_id":"cebpf4jnsgd1na2vs0mg"},{"bike_id":"89b5c51b-cd9c-475c-ba7a-726b12d22f75","system_id":"levelo_inurba_marseille","lat":43.21192,"lon":5.35048,"is_reserved":false,"is_disabled":false,"rental_uris":{"android":"levelo://app?vid=89b5c51b-cd9c-475c-ba7a-726b12d22f75","ios":"levelo://app?vid=89b5c51b-cd9c-475c-ba7a-726b12d22f75"},"vehicle_type_id":"4","last_reported":1746630679,"current_range_meters":21600,"station_id":"st_cvj6sg6p6f1abm77japg","pricing_plan_id":"cebpf4jnsgd1na2vs0mg"},{"bike_id":"02e7fd36-9322-45ae-b573-3293b82b8c97","system_id":"levelo_inurba_marseille","lat":43.23964,"lon":5.36635,"is_reserved":false,"is_disabled":false,"rental_uris":{"android":"levelo://app?vid=02e7fd36-9322-45ae-b573-3293b82b8c97","ios":"levelo://app?vid=02e7fd36-9322-45ae-b573-3293b82b8c97"},"vehicle_type_id":"4","last_reported":1746630679,"current_range_meters":20800,"station_id":"ce4bhi12rcd13ifvqfp0","pricing_plan_id":"cebpf4jnsgd1na2vs0mg"},{"bike_id":"16d82653-e2e5-4531-a384-7902e244f0cf","system_id":"levelo_inurba_marseille","lat":43.22542,"lon":5.34777,"is_reserved":false,"is_disabled":false,"rental_uris":{"android":"levelo://app?vid=16d82653-e2e5-4531-a384-7902e244f0cf","ios":"levelo://app?vid=16d82653-e2e5-4531-a384-7902e244f0cf"},"vehicle_type_id":"4","last_reported":1746630679,"current_range_meters":22000,"station_id":"st_cvj5dfep6f1abm77gieg","pricing_plan_id":"cebpf4jnsgd1na2vs0mg"},{"bike_id":"c666616b-9813-4a03-a3bf-04e667a0b50b","system_id":"levelo_inurba_marseille","lat":43.27921,"lon":5.39576,"is_reserved":false,"is_disabled":false,"rental_uris":{"android":"levelo://app?vid=c666616b-9813-4a03-a3bf-04e667a0b50b","ios":"levelo://app?vid=c666616b-9813-4a03-a3bf-04e667a0b50b"},"vehicle_type_id":"4","last_reported":1746630679,"current_range_meters":22000,"station_id":"ce4bhf92rcd13ifvqf40","pricing_plan_id":"cebpf4jnsgd1na2vs0mg"},{"bike_id":"ac437fa4-ad58-4abe-915e-14f6b9aec297","system_id":"levelo_inurba_marseille","lat":43.323669,"lon":5.388854,"is_reserved":false,"is_disabled":false,"rental_uris":{"android":"levelo://app?vid=ac437fa4-ad58-4abe-915e-14f6b9aec297","ios":"levelo://app?vid=ac437fa4-ad58-4abe-915e-14f6b9aec297"},"vehicle_type_id":"4","last_reported":1746630679,"current_range_meters":22000,"station_id":"ce4bhqp2rcd13ifvqhog","pricing_plan_id":"cebpf4jnsgd1na2vs0mg"},{"bike_id":"ca3de6b4-f513-4bc7-bccc-44d2433dc1cf","system_id":"levelo_inurba_marseille","lat":43.30548,"lon":5.38427,"is_reserved":false,"is_disabled":false,"rental_uris":{"android":"levelo://app?vid=ca3de6b4-f513-4bc7-bccc-44d2433dc1cf","ios":"levelo://app?vid=ca3de6b4-f513-4bc7-bccc-44d2433dc1cf"},"vehicle_type_id":"4","last_reported":1746630679,"current_range_meters":22000,"station_id":"ce4bgg92rcd13ifvqb30","pricing_plan_id":"cebpf4jnsgd1na2vs0mg"},{"bike_id":"ec36d719-dd3a-4b26-a5b1-cb837db68b3b","system_id":"levelo_inurba_marseille","lat":43.31758,"lon":5.39021,"is_reserved":false,"is_disabled":false,"rental_uris":{"android":"levelo://app?vid=ec36d719-dd3a-4b26-a5b1-cb837db68b3b","ios":"levelo://app?vid=ec36d719-dd3a-4b26-a5b1-cb837db68b3b"},"vehicle_type_id":"4","last_reported":1746630679,"current_range_meters":21600,"station_id":"ce4bhqp2rcd13ifvqhng","pricing_plan_id":"cebpf4jnsgd1na2vs0mg"},{"bike_id":"ff807334-3ad3-4e40-bbde-648eb2b1c45b","system_id":"levelo_inurba_marseille","lat":43.21185,"lon":5.35098,"is_reserved":false,"is_disabled":false,"rental_uris":{"android":"levelo://app?vid=ff807334-3ad3-4e40-bbde-648eb2b1c45b","ios":"levelo://app?vid=ff807334-3ad3-4e40-bbde-648eb2b1c45b"},"vehicle_type_id":"4","last_reported":1746630679,"current_range_meters":22000,"station_id":"st_cvj6sg6p6f1abm77japg","pricing_plan_id":"cebpf4jnsgd1na2vs0mg"},{"bike_id":"385efc73-c8f2-4acf-91a3-ae63842dcfc6","system_id":"levelo_inurba_marseille","lat":43.28588,"lon":5.37056,"is_reserved":false,"is_disabled":false,"rental_uris":{"android":"levelo://app?vid=385efc73-c8f2-4acf-91a3-ae63842dcfc6","ios":"levelo://app?vid=385efc73-c8f2-4acf-91a3-ae63842dcfc6"},"vehicle_type_id":"4","last_reported":1746630679,"current_range_meters":22400,"station_id":"ce4bht12rcd13ifvqi60","pricing_plan_id":"cebpf4jnsgd1na2vs0mg"},{"bike_id":"4d2c822c-547a-4dee-a5df-6b813bac0bc0","system_id":"levelo_inurba_marseille","lat":43.32103,"lon":5.36771,"is_reserved":false,"is_disabled":false,"rental_uris":{"android":"levelo://app?vid=4d2c822c-547a-4dee-a5df-6b813bac0bc0","ios":"levelo://app?vid=4d2c822c-547a-4dee-a5df-6b813bac0bc0"},"vehicle_type_id":"4","last_reported":1746630679,"current_range_meters":22400,"station_id":"ce4bhrh2rcd13ifvqhug","pricing_plan_id":"cebpf4jnsgd1na2vs0mg"},{"bike_id":"a38c5fcd-2a3e-4e2c-b5be-bfb908394086","system_id":"levelo_inurba_marseille","lat":43.32785,"lon":5.39135,"is_reserved":false,"is_disabled":false,"rental_uris":{"android":"levelo://app?vid=a38c5fcd-2a3e-4e2c-b5be-bfb908394086","ios":"levelo://app?vid=a38c5fcd-2a3e-4e2c-b5be-bfb908394086"},"vehicle_type_id":"4","last_reported":1746630679,"current_range_meters":22400,"station_id":"","pricing_plan_id":"cebpf4jnsgd1na2vs0mg"},{"bike_id":"0078e013-1a39-4d8b-a252-a5e131773f13","system_id":"levelo_inurba_marseille","lat":43.286078,"lon":5.350902,"is_reserved":false,"is_disabled":true,"rental_uris":{"android":"levelo://app?vid=0078e013-1a39-4d8b-a252-a5e131773f13","ios":"levelo://app?vid=0078e013-1a39-4d8b-a252-a5e131773f13"},"vehicle_type_id":"4","last_reported":1746630679,"current_range_meters":22400,"station_id":"","pricing_plan_id":"cebpf4jnsgd1na2vs0mg"},{"bike_id":"6dd915d1-b0da-42f3-89c6-d0d4458dd991","system_id":"levelo_inurba_marseille","lat":43.23071,"lon":5.35488,"is_reserved":false,"is_disabled":false,"rental_uris":{"android":"levelo://app?vid=6dd915d1-b0da-42f3-89c6-d0d4458dd991","ios":"levelo://app?vid=6dd915d1-b0da-42f3-89c6-d0d4458dd991"},"vehicle_type_id":"4","last_reported":1746630679,"current_range_meters":22400,"station_id":"cpo3342slgdg3j2ifvpg","pricing_plan_id":"cebpf4jnsgd1na2vs0mg"},{"bike_id":"b19a981f-4ad2-4d35-841f-ae5482747a93","system_id":"levelo_inurba_marseille","lat":43.29581,"lon":5.36747,"is_reserved":false,"is_disabled":false,"rental_uris":{"android":"levelo://app?vid=b19a981f-4ad2-4d35-841f-ae5482747a93","ios":"levelo://app?vid=b19a981f-4ad2-4d35-841f-ae5482747a93"},"vehicle_type_id":"4","last_reported":1746630679,"current_range_meters":22800,"station_id":"ce4bgph2rcd13ifvqc2g","pricing_plan_id":"cebpf4jnsgd1na2vs0mg"},{"bike_id":"eb9fbffd-f508-4871-9ef6-4793d6d6779d","system_id":"levelo_inurba_marseille","lat":43.29268,"lon":5.38435,"is_reserved":false,"is_disabled":false,"rental_uris":{"android":"levelo://app?vid=eb9fbffd-f508-4871-9ef6-4793d6d6779d","ios":"levelo://app?vid=eb9fbffd-f508-4871-9ef6-4793d6d6779d"},"vehicle_type_id":"4","last_reported":1746630679,"current_range_meters":22800,"station_id":"ce4bh692rcd13ifvqea0","pricing_plan_id":"cebpf4jnsgd1na2vs0mg"},{"bike_id":"07a1ed5c-fecf-4572-8c2c-63d0d72056d6","system_id":"levelo_inurba_marseille","lat":43.24802,"lon":5.37453,"is_reserved":false,"is_disabled":false,"rental_uris":{"android":"levelo://app?vid=07a1ed5c-fecf-4572-8c2c-63d0d72056d6","ios":"levelo://app?vid=07a1ed5c-fecf-4572-8c2c-63d0d72056d6"},"vehicle_type_id":"4","last_reported":1746630679,"current_range_meters":22800,"station_id":"ce4bhgh2rcd13ifvqfb0","pricing_plan_id":"cebpf4jnsgd1na2vs0mg"},{"bike_id":"f29fbbee-fdd9-40a2-91c2-c7fba9ce5327","system_id":"levelo_inurba_marseille","lat":43.299742,"lon":5.384914,"is_reserved":false,"is_disabled":false,"rental_uris":{"android":"levelo://app?vid=f29fbbee-fdd9-40a2-91c2-c7fba9ce5327","ios":"levelo://app?vid=f29fbbee-fdd9-40a2-91c2-c7fba9ce5327"},"vehicle_type_id":"4","last_reported":1746630679,"current_range_meters":22800,"station_id":"","pricing_plan_id":"cebpf4jnsgd1na2vs0mg"},{"bike_id":"f71b2b4e-d481-4174-bb92-25e3ca8694a0","system_id":"levelo_inurba_marseille","lat":43.27813,"lon":5.40711,"is_reserved":false,"is_disabled":false,"rental_uris":{"android":"levelo://app?vid=f71b2b4e-d481-4174-bb92-25e3ca8694a0","ios":"levelo://app?vid=f71b2b4e-d481-4174-bb92-25e3ca8694a0"},"vehicle_type_id":"4","last_reported":1746630679,"current_range_meters":22400,"station_id":"ce4bhnh2rcd13ifvqgtg","pricing_plan_id":"cebpf4jnsgd1na2vs0mg"},{"bike_id":"707d4897-3a28-47e3-936b-2e25dcdc7939","system_id":"levelo_inurba_marseille","lat":43.3171,"lon":5.43719,"is_reserved":false,"is_disabled":false,"rental_uris":{"android":"levelo://app?vid=707d4897-3a28-47e3-936b-2e25dcdc7939","ios":"levelo://app?vid=707d4897-3a28-47e3-936b-2e25dcdc7939"},"vehicle_type_id":"4","last_reported":1746630679,"current_range_meters":22800,"station_id":"ce4bhp92rcd13ifvqhcg","pricing_plan_id":"cebpf4jnsgd1na2vs0mg"},{"bike_id":"8877d2f6-0ef9-48c8-be5f-3408cd409722","system_id":"levelo_inurba_marseille","lat":43.29007,"lon":5.35609,"is_reserved":false,"is_disabled":false,"rental_uris":{"android":"levelo://app?vid=8877d2f6-0ef9-48c8-be5f-3408cd409722","ios":"levelo://app?vid=8877d2f6-0ef9-48c8-be5f-3408cd409722"},"vehicle_type_id":"4","last_reported":1746630679,"current_range_meters":22800,"station_id":"ce4bhb92rcd13ifvqen0","pricing_plan_id":"cebpf4jnsgd1na2vs0mg"},{"bike_id":"8eecb949-78d2-47f0-b39c-36cbebec6379","system_id":"levelo_inurba_marseille","lat":43.2953,"lon":5.39406,"is_reserved":false,"is_disabled":false,"rental_uris":{"android":"levelo://app?vid=8eecb949-78d2-47f0-b39c-36cbebec6379","ios":"levelo://app?vid=8eecb949-78d2-47f0-b39c-36cbebec6379"},"vehicle_type_id":"4","last_reported":1746630679,"current_range_meters":22400,"station_id":"ce4bh292rcd13ifvqdf0","pricing_plan_id":"cebpf4jnsgd1na2vs0mg"},{"bike_id":"91e162dc-df90-4b10-94c0-748de28a9b55","system_id":"levelo_inurba_marseille","lat":43.27801,"lon":5.39967,"is_reserved":false,"is_disabled":false,"rental_uris":{"android":"levelo://app?vid=91e162dc-df90-4b10-94c0-748de28a9b55","ios":"levelo://app?vid=91e162dc-df90-4b10-94c0-748de28a9b55"},"vehicle_type_id":"4","last_reported":1746630679,"current_range_meters":23200,"station_id":"","pricing_plan_id":"cebpf4jnsgd1na2vs0mg"},{"bike_id":"62efafa9-835c-491e-9318-c25f2a06ce3e","system_id":"levelo_inurba_marseille","lat":43.29972,"lon":5.37177,"is_reserved":false,"is_disabled":false,"rental_uris":{"android":"levelo://app?vid=62efafa9-835c-491e-9318-c25f2a06ce3e","ios":"levelo://app?vid=62efafa9-835c-491e-9318-c25f2a06ce3e"},"vehicle_type_id":"4","last_reported":1746630679,"current_range_meters":23200,"station_id":"ce4bgr92rcd13ifvqc7g","pricing_plan_id":"cebpf4jnsgd1na2vs0mg"},{"bike_id":"ef75221d-603e-49b3-a93f-a2e40c3e0660","system_id":"levelo_inurba_marseille","lat":43.24177,"lon":5.39717,"is_reserved":false,"is_disabled":false,"rental_uris":{"android":"levelo://app?vid=ef75221d-603e-49b3-a93f-a2e40c3e0660","ios":"levelo://app?vid=ef75221d-603e-49b3-a93f-a2e40c3e0660"},"vehicle_type_id":"4","last_reported":1746630679,"current_range_meters":23200,"station_id":"ce4bhn12rcd13ifvqgpg","pricing_plan_id":"cebpf4jnsgd1na2vs0mg"},{"bike_id":"5340ee3a-3715-406b-865c-69b21e34c993","system_id":"levelo_inurba_marseille","lat":43.23959,"lon":5.36636,"is_reserved":false,"is_disabled":false,"rental_uris":{"android":"levelo://app?vid=5340ee3a-3715-406b-865c-69b21e34c993","ios":"levelo://app?vid=5340ee3a-3715-406b-865c-69b21e34c993"},"vehicle_type_id":"4","last_reported":1746630679,"current_range_meters":23200,"station_id":"ce4bhi12rcd13ifvqfp0","pricing_plan_id":"cebpf4jnsgd1na2vs0mg"},{"bike_id":"1b617b33-4bbe-49ab-862d-58bf6223d8e9","system_id":"levelo_inurba_marseille","lat":43.31884,"lon":5.40732,"is_reserved":false,"is_disabled":false,"rental_uris":{"android":"levelo://app?vid=1b617b33-4bbe-49ab-862d-58bf6223d8e9","ios":"levelo://app?vid=1b617b33-4bbe-49ab-862d-58bf6223d8e9"},"vehicle_type_id":"4","last_reported":1746630679,"current_range_meters":23200,"station_id":"ce4bhq12rcd13ifvqhig","pricing_plan_id":"cebpf4jnsgd1na2vs0mg"},{"bike_id":"fe2069ec-e5e8-445b-b830-b7f2041414eb","system_id":"levelo_inurba_marseille","lat":43.315211,"lon":5.380328,"is_reserved":false,"is_disabled":false,"rental_uris":{"android":"levelo://app?vid=fe2069ec-e5e8-445b-b830-b7f2041414eb","ios":"levelo://app?vid=fe2069ec-e5e8-445b-b830-b7f2041414eb"},"vehicle_type_id":"4","last_reported":1746630679,"current_range_meters":23200,"station_id":"ce4bhsp2rcd13ifvqi50","pricing_plan_id":"cebpf4jnsgd1na2vs0mg"},{"bike_id":"7849defd-7a44-46b1-9519-d61e1c894ccd","system_id":"levelo_inurba_marseille","lat":43.32109,"lon":5.36797,"is_reserved":false,"is_disabled":false,"rental_uris":{"android":"levelo://app?vid=7849defd-7a44-46b1-9519-d61e1c894ccd","ios":"levelo://app?vid=7849defd-7a44-46b1-9519-d61e1c894ccd"},"vehicle_type_id":"4","last_reported":1746630679,"current_range_meters":24000,"station_id":"ce4bhrh2rcd13ifvqhug","pricing_plan_id":"cebpf4jnsgd1na2vs0mg"},{"bike_id":"f73d450b-fde6-4898-99b1-916875a407c6","system_id":"levelo_inurba_marseille","lat":43.22505,"lon":5.34786,"is_reserved":false,"is_disabled":false,"rental_uris":{"android":"levelo://app?vid=f73d450b-fde6-4898-99b1-916875a407c6","ios":"levelo://app?vid=f73d450b-fde6-4898-99b1-916875a407c6"},"vehicle_type_id":"4","last_reported":1746630679,"current_range_meters":24000,"station_id":"st_cvj5dfep6f1abm77gieg","pricing_plan_id":"cebpf4jnsgd1na2vs0mg"},{"bike_id":"cd76fe3c-457e-4979-a9cc-442905f874ee","system_id":"levelo_inurba_marseille","lat":43.31381,"lon":5.36895,"is_reserved":false,"is_disabled":false,"rental_uris":{"android":"levelo://app?vid=cd76fe3c-457e-4979-a9cc-442905f874ee","ios":"levelo://app?vid=cd76fe3c-457e-4979-a9cc-442905f874ee"},"vehicle_type_id":"4","last_reported":1746630679,"current_range_meters":24000,"station_id":"","pricing_plan_id":"cebpf4jnsgd1na2vs0mg"},{"bike_id":"61be39cd-62ad-4ee8-a728-abfaa4e58570","system_id":"levelo_inurba_marseille","lat":43.27367,"lon":5.36246,"is_reserved":false,"is_disabled":false,"rental_uris":{"android":"levelo://app?vid=61be39cd-62ad-4ee8-a728-abfaa4e58570","ios":"levelo://app?vid=61be39cd-62ad-4ee8-a728-abfaa4e58570"},"vehicle_type_id":"4","last_reported":1746630679,"current_range_meters":24000,"station_id":"ce4bhbh2rcd13ifvqeo0","pricing_plan_id":"cebpf4jnsgd1na2vs0mg"},{"bike_id":"0d91efea-bdd0-4f79-beff-92aa880ead40","system_id":"levelo_inurba_marseille","lat":43.301095,"lon":5.391397,"is_reserved":false,"is_disabled":false,"rental_uris":{"android":"levelo://app?vid=0d91efea-bdd0-4f79-beff-92aa880ead40","ios":"levelo://app?vid=0d91efea-bdd0-4f79-beff-92aa880ead40"},"vehicle_type_id":"4","last_reported":1746630679,"current_range_meters":24000,"station_id":"","pricing_plan_id":"cebpf4jnsgd1na2vs0mg"},{"bike_id":"2d30c84a-d561-455a-8c15-417fdf32393e","system_id":"levelo_inurba_marseille","lat":43.293182,"lon":5.376414,"is_reserved":false,"is_disabled":false,"rental_uris":{"android":"levelo://app?vid=2d30c84a-d561-455a-8c15-417fdf32393e","ios":"levelo://app?vid=2d30c84a-d561-455a-8c15-417fdf32393e"},"vehicle_type_id":"4","last_reported":1746630679,"current_range_meters":24000,"station_id":"ce4bgi12rcd13ifvqb70","pricing_plan_id":"cebpf4jnsgd1na2vs0mg"},{"bike_id":"f3e9ab38-3242-4aa5-83f9-529a16ccf936","system_id":"levelo_inurba_marseille","lat":43.22515,"lon":5.34779,"is_reserved":false,"is_disabled":false,"rental_uris":{"android":"levelo://app?vid=f3e9ab38-3242-4aa5-83f9-529a16ccf936","ios":"levelo://app?vid=f3e9ab38-3242-4aa5-83f9-529a16ccf936"},"vehicle_type_id":"4","last_reported":1746630679,"current_range_meters":24000,"station_id":"st_cvj5dfep6f1abm77gieg","pricing_plan_id":"cebpf4jnsgd1na2vs0mg"},{"bike_id":"77f59214-f429-4425-8487-9600e7eabd23","system_id":"levelo_inurba_marseille","lat":43.31307,"lon":5.37107,"is_reserved":false,"is_disabled":false,"rental_uris":{"android":"levelo://app?vid=77f59214-f429-4425-8487-9600e7eabd23","ios":"levelo://app?vid=77f59214-f429-4425-8487-9600e7eabd23"},"vehicle_type_id":"4","last_reported":1746630679,"current_range_meters":24400,"station_id":"","pricing_plan_id":"cebpf4jnsgd1na2vs0mg"},{"bike_id":"bafbdd82-1bcb-44d9-b19b-b9ce5a72149f","system_id":"levelo_inurba_marseille","lat":43.257392,"lon":5.382293,"is_reserved":false,"is_disabled":false,"rental_uris":{"android":"levelo://app?vid=bafbdd82-1bcb-44d9-b19b-b9ce5a72149f","ios":"levelo://app?vid=bafbdd82-1bcb-44d9-b19b-b9ce5a72149f"},"vehicle_type_id":"4","last_reported":1746630679,"current_range_meters":24400,"station_id":"","pricing_plan_id":"cebpf4jnsgd1na2vs0mg"},{"bike_id":"0039013b-bf87-430a-97f7-7b7ee3de1c9d","system_id":"levelo_inurba_marseille","lat":43.25494,"lon":5.37637,"is_reserved":false,"is_disabled":false,"rental_uris":{"android":"levelo://app?vid=0039013b-bf87-430a-97f7-7b7ee3de1c9d","ios":"levelo://app?vid=0039013b-bf87-430a-97f7-7b7ee3de1c9d"},"vehicle_type_id":"4","last_reported":1746630679,"current_range_meters":24400,"station_id":"ce4bhh12rcd13ifvqff0","pricing_plan_id":"cebpf4jnsgd1na2vs0mg"},{"bike_id":"a41b76c5-4808-4280-83e6-d2a277f10da4","system_id":"levelo_inurba_marseille","lat":43.29782,"lon":5.37094,"is_reserved":false,"is_disabled":false,"rental_uris":{"android":"levelo://app?vid=a41b76c5-4808-4280-83e6-d2a277f10da4","ios":"levelo://app?vid=a41b76c5-4808-4280-83e6-d2a277f10da4"},"vehicle_type_id":"4","last_reported":1746630679,"current_range_meters":24400,"station_id":"","pricing_plan_id":"cebpf4jnsgd1na2vs0mg"},{"bike_id":"f50fa817-5177-49cc-a8c3-ff533be07c21","system_id":"levelo_inurba_marseille","lat":43.302765,"lon":5.377116,"is_reserved":false,"is_disabled":false,"rental_uris":{"android":"levelo://app?vid=f50fa817-5177-49cc-a8c3-ff533be07c21","ios":"levelo://app?vid=f50fa817-5177-49cc-a8c3-ff533be07c21"},"vehicle_type_id":"4","last_reported":1746630679,"current_range_meters":24400,"station_id":"ce4bguh2rcd13ifvqcj0","pricing_plan_id":"cebpf4jnsgd1na2vs0mg"},{"bike_id":"deb79c29-e446-4f7a-83f8-447a1ea83a21","system_id":"levelo_inurba_marseille","lat":43.30769,"lon":5.38265,"is_reserved":false,"is_disabled":false,"rental_uris":{"android":"levelo://app?vid=deb79c29-e446-4f7a-83f8-447a1ea83a21","ios":"levelo://app?vid=deb79c29-e446-4f7a-83f8-447a1ea83a21"},"vehicle_type_id":"4","last_reported":1746630679,"current_range_meters":24800,"station_id":"","pricing_plan_id":"cebpf4jnsgd1na2vs0mg"},{"bike_id":"7945f0a5-616f-4195-9297-f9c18894c4c6","system_id":"levelo_inurba_marseille","lat":43.23058,"lon":5.35494,"is_reserved":false,"is_disabled":false,"rental_uris":{"android":"levelo://app?vid=7945f0a5-616f-4195-9297-f9c18894c4c6","ios":"levelo://app?vid=7945f0a5-616f-4195-9297-f9c18894c4c6"},"vehicle_type_id":"4","last_reported":1746630679,"current_range_meters":24800,"station_id":"cpo3342slgdg3j2ifvpg","pricing_plan_id":"cebpf4jnsgd1na2vs0mg"},{"bike_id":"f5a5a6db-7888-4440-a499-182cb0f03ffd","system_id":"levelo_inurba_marseille","lat":43.30437,"lon":5.38886,"is_reserved":false,"is_disabled":false,"rental_uris":{"android":"levelo://app?vid=f5a5a6db-7888-4440-a499-182cb0f03ffd","ios":"levelo://app?vid=f5a5a6db-7888-4440-a499-182cb0f03ffd"},"vehicle_type_id":"4","last_reported":1746630679,"current_range_meters":24800,"station_id":"ce4bgk12rcd13ifvqbi0","pricing_plan_id":"cebpf4jnsgd1na2vs0mg"},{"bike_id":"7c6f5ae3-d727-4cb5-a4af-1453dabb8054","system_id":"levelo_inurba_marseille","lat":43.28105,"lon":5.37835,"is_reserved":false,"is_disabled":false,"rental_uris":{"android":"levelo://app?vid=7c6f5ae3-d727-4cb5-a4af-1453dabb8054","ios":"levelo://app?vid=7c6f5ae3-d727-4cb5-a4af-1453dabb8054"},"vehicle_type_id":"4","last_reported":1746630679,"current_range_meters":24800,"station_id":"ce4bha12rcd13ifvqee0","pricing_plan_id":"cebpf4jnsgd1na2vs0mg"},{"bike_id":"58a8259c-0dd9-4f59-98ac-0a0c3fc7641a","system_id":"levelo_inurba_marseille","lat":43.26201,"lon":5.3793,"is_reserved":false,"is_disabled":false,"rental_uris":{"android":"levelo://app?vid=58a8259c-0dd9-4f59-98ac-0a0c3fc7641a","ios":"levelo://app?vid=58a8259c-0dd9-4f59-98ac-0a0c3fc7641a"},"vehicle_type_id":"4","last_reported":1746630679,"current_range_meters":24400,"station_id":"ce4bhjp2rcd13ifvqg90","pricing_plan_id":"cebpf4jnsgd1na2vs0mg"},{"bike_id":"090a1b42-2f60-4ac3-9cf8-722aa5abba5e","system_id":"levelo_inurba_marseille","lat":43.31081,"lon":5.38345,"is_reserved":false,"is_disabled":false,"rental_uris":{"android":"levelo://app?vid=090a1b42-2f60-4ac3-9cf8-722aa5abba5e","ios":"levelo://app?vid=090a1b42-2f60-4ac3-9cf8-722aa5abba5e"},"vehicle_type_id":"4","last_reported":1746630679,"current_range_meters":25200,"station_id":"ce4bgv92rcd13ifvqcr0","pricing_plan_id":"cebpf4jnsgd1na2vs0mg"},{"bike_id":"b4c5f569-86b0-45f5-b55a-c2587db1b919","system_id":"levelo_inurba_marseille","lat":43.23059,"lon":5.35483,"is_reserved":false,"is_disabled":false,"rental_uris":{"android":"levelo://app?vid=b4c5f569-86b0-45f5-b55a-c2587db1b919","ios":"levelo://app?vid=b4c5f569-86b0-45f5-b55a-c2587db1b919"},"vehicle_type_id":"4","last_reported":1746630679,"current_range_meters":25200,"station_id":"cpo3342slgdg3j2ifvpg","pricing_plan_id":"cebpf4jnsgd1na2vs0mg"},{"bike_id":"dfa6fc98-4c50-4f0a-a7d7-aa25de52aca0","system_id":"levelo_inurba_marseille","lat":43.29848,"lon":5.36267,"is_reserved":false,"is_disabled":false,"rental_uris":{"android":"levelo://app?vid=dfa6fc98-4c50-4f0a-a7d7-aa25de52aca0","ios":"levelo://app?vid=dfa6fc98-4c50-4f0a-a7d7-aa25de52aca0"},"vehicle_type_id":"4","last_reported":1746630679,"current_range_meters":25200,"station_id":"ce4bgpp2rcd13ifvqc3g","pricing_plan_id":"cebpf4jnsgd1na2vs0mg"},{"bike_id":"c1041c9f-2085-470a-b13c-f88fd8323115","system_id":"levelo_inurba_marseille","lat":43.27703,"lon":5.38675,"is_reserved":false,"is_disabled":false,"rental_uris":{"android":"levelo://app?vid=c1041c9f-2085-470a-b13c-f88fd8323115","ios":"levelo://app?vid=c1041c9f-2085-470a-b13c-f88fd8323115"},"vehicle_type_id":"4","last_reported":1746630679,"current_range_meters":25200,"station_id":"","pricing_plan_id":"cebpf4jnsgd1na2vs0mg"},{"bike_id":"4b269610-5053-4b30-82b7-2dfd24524806","system_id":"levelo_inurba_marseille","lat":43.32747,"lon":5.39299,"is_reserved":false,"is_disabled":false,"rental_uris":{"android":"levelo://app?vid=4b269610-5053-4b30-82b7-2dfd24524806","ios":"levelo://app?vid=4b269610-5053-4b30-82b7-2dfd24524806"},"vehicle_type_id":"4","last_reported":1746630679,"current_range_meters":25200,"station_id":"","pricing_plan_id":"cebpf4jnsgd1na2vs0mg"},{"bike_id":"060c245d-e5b1-482b-822c-60dded309208","system_id":"levelo_inurba_marseille","lat":43.3233,"lon":5.40639,"is_reserved":false,"is_disabled":false,"rental_uris":{"android":"levelo://app?vid=060c245d-e5b1-482b-822c-60dded309208","ios":"levelo://app?vid=060c245d-e5b1-482b-822c-60dded309208"},"vehicle_type_id":"4","last_reported":1746630679,"current_range_meters":25200,"station_id":"ce4bhq92rcd13ifvqhjg","pricing_plan_id":"cebpf4jnsgd1na2vs0mg"},{"bike_id":"d555e0d6-19ba-408b-ad9f-2e129d0a634e","system_id":"levelo_inurba_marseille","lat":43.31065,"lon":5.37557,"is_reserved":false,"is_disabled":false,"rental_uris":{"android":"levelo://app?vid=d555e0d6-19ba-408b-ad9f-2e129d0a634e","ios":"levelo://app?vid=d555e0d6-19ba-408b-ad9f-2e129d0a634e"},"vehicle_type_id":"4","last_reported":1746630679,"current_range_meters":25200,"station_id":"","pricing_plan_id":"cebpf4jnsgd1na2vs0mg"},{"bike_id":"6536cb6e-d928-4440-9089-a7deb10c7d96","system_id":"levelo_inurba_marseille","lat":43.24169,"lon":5.36391,"is_reserved":false,"is_disabled":false,"rental_uris":{"android":"levelo://app?vid=6536cb6e-d928-4440-9089-a7deb10c7d96","ios":"levelo://app?vid=6536cb6e-d928-4440-9089-a7deb10c7d96"},"vehicle_type_id":"4","last_reported":1746630679,"current_range_meters":25200,"station_id":"cpo36qri1sfpv3e86is0","pricing_plan_id":"cebpf4jnsgd1na2vs0mg"},{"bike_id":"2455a508-7d49-47f6-94db-75584f1c8ba3","system_id":"levelo_inurba_marseille","lat":43.30652,"lon":5.37391,"is_reserved":false,"is_disabled":false,"rental_uris":{"android":"levelo://app?vid=2455a508-7d49-47f6-94db-75584f1c8ba3","ios":"levelo://app?vid=2455a508-7d49-47f6-94db-75584f1c8ba3"},"vehicle_type_id":"4","last_reported":1746630679,"current_range_meters":25200,"station_id":"","pricing_plan_id":"cebpf4jnsgd1na2vs0mg"},{"bike_id":"8c1ccade-ff78-4a78-8dfb-42ea051a6f1d","system_id":"levelo_inurba_marseille","lat":43.30101,"lon":5.39061,"is_reserved":false,"is_disabled":false,"rental_uris":{"android":"levelo://app?vid=8c1ccade-ff78-4a78-8dfb-42ea051a6f1d","ios":"levelo://app?vid=8c1ccade-ff78-4a78-8dfb-42ea051a6f1d"},"vehicle_type_id":"4","last_reported":1746630679,"current_range_meters":25200,"station_id":"ce4bh192rcd13ifvqdb0","pricing_plan_id":"cebpf4jnsgd1na2vs0mg"},{"bike_id":"6cf75322-f351-4c65-be28-e7de93aed1a8","system_id":"levelo_inurba_marseille","lat":43.28408,"lon":5.37514,"is_reserved":false,"is_disabled":false,"rental_uris":{"android":"levelo://app?vid=6cf75322-f351-4c65-be28-e7de93aed1a8","ios":"levelo://app?vid=6cf75322-f351-4c65-be28-e7de93aed1a8"},"vehicle_type_id":"4","last_reported":1746630679,"current_range_meters":25200,"station_id":"ce4bh412rcd13ifvqds0","pricing_plan_id":"cebpf4jnsgd1na2vs0mg"},{"bike_id":"ff4a8081-8ce9-4fb4-8970-6eaa0ca3bedb","system_id":"levelo_inurba_marseille","lat":43.29835,"lon":5.36292,"is_reserved":false,"is_disabled":false,"rental_uris":{"android":"levelo://app?vid=ff4a8081-8ce9-4fb4-8970-6eaa0ca3bedb","ios":"levelo://app?vid=ff4a8081-8ce9-4fb4-8970-6eaa0ca3bedb"},"vehicle_type_id":"4","last_reported":1746630679,"current_range_meters":25600,"station_id":"ce4bgpp2rcd13ifvqc3g","pricing_plan_id":"cebpf4jnsgd1na2vs0mg"},{"bike_id":"6b01c0dd-005b-42b4-81b6-9b4cc709d63e","system_id":"levelo_inurba_marseille","lat":43.3372,"lon":5.39199,"is_reserved":false,"is_disabled":false,"rental_uris":{"android":"levelo://app?vid=6b01c0dd-005b-42b4-81b6-9b4cc709d63e","ios":"levelo://app?vid=6b01c0dd-005b-42b4-81b6-9b4cc709d63e"},"vehicle_type_id":"4","last_reported":1746630679,"current_range_meters":25600,"station_id":"ce4bhr92rcd13ifvqhsg","pricing_plan_id":"cebpf4jnsgd1na2vs0mg"},{"bike_id":"a49c3212-2ebf-4640-933d-e5784397b8d7","system_id":"levelo_inurba_marseille","lat":43.27505,"lon":5.3958,"is_reserved":false,"is_disabled":false,"rental_uris":{"android":"levelo://app?vid=a49c3212-2ebf-4640-933d-e5784397b8d7","ios":"levelo://app?vid=a49c3212-2ebf-4640-933d-e5784397b8d7"},"vehicle_type_id":"4","last_reported":1746630679,"current_range_meters":25600,"station_id":"","pricing_plan_id":"cebpf4jnsgd1na2vs0mg"},{"bike_id":"5670140d-0d32-4bc0-8499-1a072ff4fb8a","system_id":"levelo_inurba_marseille","lat":43.29198,"lon":5.35796,"is_reserved":false,"is_disabled":false,"rental_uris":{"android":"levelo://app?vid=5670140d-0d32-4bc0-8499-1a072ff4fb8a","ios":"levelo://app?vid=5670140d-0d32-4bc0-8499-1a072ff4fb8a"},"vehicle_type_id":"4","last_reported":1746630679,"current_range_meters":25200,"station_id":"","pricing_plan_id":"cebpf4jnsgd1na2vs0mg"},{"bike_id":"73a96462-742c-4ec2-a702-fbe73f64d02f","system_id":"levelo_inurba_marseille","lat":43.27814,"lon":5.40689,"is_reserved":false,"is_disabled":false,"rental_uris":{"android":"levelo://app?vid=73a96462-742c-4ec2-a702-fbe73f64d02f","ios":"levelo://app?vid=73a96462-742c-4ec2-a702-fbe73f64d02f"},"vehicle_type_id":"4","last_reported":1746630679,"current_range_meters":25600,"station_id":"ce4bhnh2rcd13ifvqgtg","pricing_plan_id":"cebpf4jnsgd1na2vs0mg"},{"bike_id":"af953555-8406-4025-baee-742f3d55aa0c","system_id":"levelo_inurba_marseille","lat":43.28157,"lon":5.42648,"is_reserved":false,"is_disabled":false,"rental_uris":{"android":"levelo://app?vid=af953555-8406-4025-baee-742f3d55aa0c","ios":"levelo://app?vid=af953555-8406-4025-baee-742f3d55aa0c"},"vehicle_type_id":"4","last_reported":1746630679,"current_range_meters":25200,"station_id":"ce4bhnh2rcd13ifvqgug","pricing_plan_id":"cebpf4jnsgd1na2vs0mg"},{"bike_id":"e1c07d39-bc9c-4286-97ac-ccff53a9e43b","system_id":"levelo_inurba_marseille","lat":43.30331,"lon":5.40434,"is_reserved":false,"is_disabled":false,"rental_uris":{"android":"levelo://app?vid=e1c07d39-bc9c-4286-97ac-ccff53a9e43b","ios":"levelo://app?vid=e1c07d39-bc9c-4286-97ac-ccff53a9e43b"},"vehicle_type_id":"4","last_reported":1746630679,"current_range_meters":26000,"station_id":"ce4bh012rcd13ifvqd10","pricing_plan_id":"cebpf4jnsgd1na2vs0mg"},{"bike_id":"e2232072-8631-44cc-9672-2c2ea8e39a31","system_id":"levelo_inurba_marseille","lat":43.29569,"lon":5.3753,"is_reserved":false,"is_disabled":false,"rental_uris":{"android":"levelo://app?vid=e2232072-8631-44cc-9672-2c2ea8e39a31","ios":"levelo://app?vid=e2232072-8631-44cc-9672-2c2ea8e39a31"},"vehicle_type_id":"4","last_reported":1746630679,"current_range_meters":26000,"station_id":"ce4bgh92rcd13ifvqb50","pricing_plan_id":"cebpf4jnsgd1na2vs0mg"},{"bike_id":"2c5ede8d-03ae-4162-aee7-883bba047fd2","system_id":"levelo_inurba_marseille","lat":43.29903,"lon":5.37474,"is_reserved":false,"is_disabled":false,"rental_uris":{"android":"levelo://app?vid=2c5ede8d-03ae-4162-aee7-883bba047fd2","ios":"levelo://app?vid=2c5ede8d-03ae-4162-aee7-883bba047fd2"},"vehicle_type_id":"4","last_reported":1746630679,"current_range_meters":25600,"station_id":"ce4bgjh2rcd13ifvqbg0","pricing_plan_id":"cebpf4jnsgd1na2vs0mg"},