{"last_updated":1773602383,"ttl":60,"version":"2.2","data":{"bikes":[{"bike_id":"9ac9e797-21c5-4c29-9cb6-1b4470cfe4c4","system_id":"levelo_inurba_marseille","lat":43.29032,"lon":5.38634,"is_reserved":false,"is_disabled":false,"rental_uris":{"android":"levelo://app?vid=9ac9e797-21c5-4c29-9cb6-1b4470cfe4c4","ios":"levelo://app?vid=9ac9e797-21c5-4c29-9cb6-1b4470cfe4c4"},"vehicle_type_id":"4","last_reported":1773602383,"current_range_meters":31200,"station_id":"ce4bh4p2rcd13ifvqe0g","pricing_plan_id":"cebpf4jnsgd1na2vs0mg"},{"bike_id":"78b4a3b0-364f-4a8c-9298-50f60f0b0027","system_id":"levelo_inurba_marseille","lat":43.29034,"lon":5.39946,"is_reserved":false,"is_disabled":true,"rental_uris":{"android":"levelo://app?vid=78b4a3b0-364f-4a8c-9298-50f60f0b0027","ios":"levelo://app?vid=78b4a3b0-364f-4a8c-9298-50f60f0b0027"},"vehicle_type_id":"4","last_reported":1773602383,"current_range_meters":32400,"station_id":"ce4bh392rcd13ifvqdm0","pricing_plan_id":"cebpf4jnsgd1na2vs0mg"},{"bike_id":"a9e1d94c-0192-42b7-8417-1fd326761e14","system_id":"levelo_inurba_marseille","lat":43.24659,"lon":5.38159,"is_reserved":false,"is_disabled":false,"rental_uris":{"android":"levelo://app?vid=a9e1d94c-0192-42b7-8417-1fd326761e14","ios":"levelo://app?vid=a9e1d94c-0192-42b7-8417-1fd326761e14"},"vehicle_type_id":"4","last_reported":1773602383,"current_range_meters":26000,"station_id":"ce4bhih2rcd13ifvqfr0","pricing_plan_id":"cebpf4jnsgd1na2vs0mg"},{"bike_id":"e4c6d513-0f75-4d36-ab87-e09b44465632","system_id":"levelo_inurba_marseille","lat":43.27419,"lon":5.36278,"is_reserved":false,"is_disabled":true,"rental_uris":{"android":"levelo://app?vid=e4c6d513-0f75-4d36-ab87-e09b44465632","ios":"levelo://app?vid=e4c6d513-0f75-4d36-ab87-e09b44465632"},"vehicle_type_id":"4","last_reported":1773602383,"current_range_meters":33200,"station_id":"","pricing_plan_id":"cebpf4jnsgd1na2vs0mg"},{"bike_id":"38f2a5c3-b83c-4fa7-81ca-0a644c9af4ab","system_id":"levelo_inurba_marseille","lat":43.32261,"lon":5.38344,"is_reserved":false,"is_disabled":false,"rental_uris":{"android":"levelo://app?vid=38f2a5c3-b83c-4fa7-81ca-0a644c9af4ab","ios":"levelo://app?vid=38f2a5c3-b83c-4fa7-81ca-0a644c9af4ab"},"vehicle_type_id":"4","last_reported":1773602383,"current_range_meters":19200,"station_id":"","pricing_plan_id":"cebpf4jnsgd1na2vs0mg"},{"bike_id":"1cf259df-4e5a-4977-9414-ac7c110ac7b2","system_id":"levelo_inurba_marseille","lat":43.25708,"lon":5.41079,"is_reserved":false,"is_disabled":false,"rental_uris":{"android":"levelo://app?vid=1cf259df-4e5a-4977-9414-ac7c110ac7b2","ios":"levelo://app?vid=1cf259df-4e5a-4977-9414-ac7c110ac7b2"},"vehicle_type_id":"4","last_reported":1773602383,"current_range_meters":30400,"station_id":"ce4bhkp2rcd13ifvqgd0","pricing_plan_id":"cebpf4jnsgd1na2vs0mg"},{"bike_id":"11d99503-16d5-4a2a-9e64-d4be2809c1ac","system_id":"levelo_inurba_marseille","lat":43.29254,"lon":5.38444,"is_reserved":false,"is_disabled":false,"rental_uris":{"android":"levelo://app?vid=11d99503-16d5-4a2a-9e64-d4be2809c1ac","ios":"levelo://app?vid=11d99503-16d5-4a2a-9e64-d4be2809c1ac"},"vehicle_type_id":"4","last_reported":1773602383,"current_range_meters":17600,"station_id":"ce4bh692rcd13ifvqea0","pricing_plan_id":"cebpf4jnsgd1na2vs0mg"},{"bike_id":"18f35d94-7133-4b4b-a629-0bec9d48af36","system_id":"levelo_inurba_marseille","lat":43.28467,"lon":5.48385,"is_reserved":false,"is_disabled":false,"rental_uris":{"android":"levelo://app?vid=18f35d94-7133-4b4b-a629-0bec9d48af36","ios":"levelo://app?vid=18f35d94-7133-4b4b-a629-0bec9d48af36"},"vehicle_type_id":"4","last_reported":1773602383,"current_range_meters":21600,"station_id":"","pricing_plan_id":"cebpf4jnsgd1na2vs0mg"},{"bike_id":"058a40ef-aca0-46a1-b31e-3c5dc3514929","system_id":"levelo_inurba_marseille","lat":43.28433,"lon":5.34986,"is_reserved":false,"is_disabled":false,"rental_uris":{"android":"levelo://app?vid=058a40ef-aca0-46a1-b31e-3c5dc3514929","ios":"levelo://app?vid=058a40ef-aca0-46a1-b31e-3c5dc3514929"},"vehicle_type_id":"4","last_reported":1773602383,"current_range_meters":26000,"station_id":"ce4bhbh2rcd13ifvqepg","pricing_plan_id":"cebpf4jnsgd1na2vs0mg"},{"bike_id":"65d10f3b-fdb1-4316-80cd-8ee00585fdd2","system_id":"levelo_inurba_marseille","lat":43.31364,"lon":5.36703,"is_reserved":false,"is_disabled":false,"rental_uris":{"android":"levelo://app?vid=65d10f3b-fdb1-4316-80cd-8ee00585fdd2","ios":"levelo://app?vid=65d10f3b-fdb1-4316-80cd-8ee00585fdd2"},"vehicle_type_id":"4","last_reported":1773602383,"current_range_meters":36400,"station_id":"ce4bgr92rcd13ifvqc6g","pricing_plan_id":"cebpf4jnsgd1na2vs0mg"},{"bike_id":"7db92065-fd6e-4014-982f-daf9b3e1e88d","system_id":"levelo_inurba_marseille","lat":43.25834,"lon":5.39423,"is_reserved":false,"is_disabled":false,"rental_uris":{"android":"levelo://app?vid=7db92065-fd6e-4014-982f-daf9b3e1e88d","ios":"levelo://app?vid=7db92065-fd6e-4014-982f-daf9b3e1e88d"},"vehicle_type_id":"4","last_reported":1773602383,"current_range_meters":9200,"station_id":"ce4bhip2rcd13ifvqft0","pricing_plan_id":"cebpf4jnsgd1na2vs0mg"},{"bike_id":"0bca780e-422b-4854-83f6-74f6102aad07","system_id":"levelo_inurba_marseille","lat":43.27846,"lon":5.40727,"is_reserved":false,"is_disabled":false,"rental_uris":{"android":"levelo://app?vid=0bca780e-422b-4854-83f6-74f6102aad07","ios":"levelo://app?vid=0bca780e-422b-4854-83f6-74f6102aad07"},"vehicle_type_id":"4","last_reported":1773602383,"current_range_meters":34000,"station_id":"ce4bhnh2rcd13ifvqgtg","pricing_plan_id":"cebpf4jnsgd1na2vs0mg"},{"bike_id":"33b16ff4-aa90-4e96-a65b-80fdeacb58de","system_id":"levelo_inurba_marseille","lat":43.30541,"lon":5.36537,"is_reserved":false,"is_disabled":false,"rental_uris":{"android":"levelo://app?vid=33b16ff4-aa90-4e96-a65b-80fdeacb58de","ios":"levelo://app?vid=33b16ff4-aa90-4e96-a65b-80fdeacb58de"},"vehicle_type_id":"4","last_reported":1773602383,"current_range_meters":23200,"station_id":"ce4bgs12rcd13ifvqcag","pricing_plan_id":"cebpf4jnsgd1na2vs0mg"},{"bike_id":"362ee393-5919-418f-81d1-e66c99083136","system_id":"levelo_inurba_marseille","lat":43.30194,"lon":5.36621,"is_reserved":false,"is_disabled":false,"rental_uris":{"android":"levelo://app?vid=362ee393-5919-418f-81d1-e66c99083136","ios":"levelo://app?vid=362ee393-5919-418f-81d1-e66c99083136"},"vehicle_type_id":"4","last_reported":1773602383,"current_range_meters":28800,"station_id":"ce4bgrh2rcd13ifvqc8g","pricing_plan_id":"cebpf4jnsgd1na2vs0mg"},{"bike_id":"a078ced6-d429-4156-85ab-301f40f9c90e","system_id":"levelo_inurba_marseille","lat":43.27073,"lon":5.38303,"is_reserved":false,"is_disabled":false,"rental_uris":{"android":"levelo://app?vid=a078ced6-d429-4156-85ab-301f40f9c90e","ios":"levelo://app?vid=a078ced6-d429-4156-85ab-301f40f9c90e"},"vehicle_type_id":"4","last_reported":1773602383,"current_range_meters":30800,"station_id":"st_d3n2fo6cfp8s73cte1j0","pricing_plan_id":"cebpf4jnsgd1na2vs0mg"},{"bike_id":"5e41dc5c-d587-47f2-a73b-209fc0146bcf","system_id":"levelo_inurba_marseille","lat":43.29624,"lon":5.40633,"is_reserved":false,"is_disabled":false,"rental_uris":{"android":"levelo://app?vid=5e41dc5c-d587-47f2-a73b-209fc0146bcf","ios":"levelo://app?vid=5e41dc5c-d587-47f2-a73b-209fc0146bcf"},"vehicle_type_id":"4","last_reported":1773602383,"current_range_meters":25600,"station_id":"ce4bh0h2rcd13ifvqd60","pricing_plan_id":"cebpf4jnsgd1na2vs0mg"},{"bike_id":"8c9b3dae-0149-40eb-baf1-4b5ca1da76df","system_id":"levelo_inurba_marseille","lat":43.30543,"lon":5.36544,"is_reserved":false,"is_disabled":false,"rental_uris":{"android":"levelo://app?vid=8c9b3dae-0149-40eb-baf1-4b5ca1da76df","ios":"levelo://app?vid=8c9b3dae-0149-40eb-baf1-4b5ca1da76df"},"vehicle_type_id":"4","last_reported":1773602383,"current_range_meters":32800,"station_id":"ce4bgs12rcd13ifvqcag","pricing_plan_id":"cebpf4jnsgd1na2vs0mg"},{"bike_id":"6f61d387-d66c-4612-94f7-67c0f0b415c5","system_id":"levelo_inurba_marseille","lat":43.30174,"lon":5.3737,"is_reserved":false,"is_disabled":false,"rental_uris":{"android":"levelo://app?vid=6f61d387-d66c-4612-94f7-67c0f0b415c5","ios":"levelo://app?vid=6f61d387-d66c-4612-94f7-67c0f0b415c5"},"vehicle_type_id":"4","last_reported":1773602383,"current_range_meters":26000,"station_id":"ce4bgs92rcd13ifvqcc0","pricing_plan_id":"cebpf4jnsgd1na2vs0mg"},{"bike_id":"da385f78-6396-4965-90a0-0943e7ec39a9","system_id":"levelo_inurba_marseille","lat":43.2843,"lon":5.37557,"is_reserved":false,"is_disabled":false,"rental_uris":{"android":"levelo://app?vid=da385f78-6396-4965-90a0-0943e7ec39a9","ios":"levelo://app?vid=da385f78-6396-4965-90a0-0943e7ec39a9"},"vehicle_type_id":"4","last_reported":1773602383,"current_range_meters":20000,"station_id":"","pricing_plan_id":"cebpf4jnsgd1na2vs0mg"},{"bike_id":"76018294-dcc7-4c7d-ad2d-1448d43240dc","system_id":"levelo_inurba_marseille","lat":43.25134,"lon":5.40335,"is_reserved":false,"is_disabled":false,"rental_uris":{"android":"levelo://app?vid=76018294-dcc7-4c7d-ad2d-1448d43240dc","ios":"levelo://app?vid=76018294-dcc7-4c7d-ad2d-1448d43240dc"},"vehicle_type_id":"4","last_reported":1773602383,"current_range_meters":24800,"station_id":"ce4bhlh2rcd13ifvqgig","pricing_plan_id":"cebpf4jnsgd1na2vs0mg"},{"bike_id":"701edb85-5aa2-4cdb-ae1a-76fccb058ba0","system_id":"levelo_inurba_marseille","lat":43.30143,"lon":5.37424,"is_reserved":false,"is_disabled":false,"rental_uris":{"android":"levelo://app?vid=701edb85-5aa2-4cdb-ae1a-76fccb058ba0","ios":"levelo://app?vid=701edb85-5aa2-4cdb-ae1a-76fccb058ba0"},"vehicle_type_id":"4","last_reported":1773602383,"current_range_meters":34000,"station_id":"ce4bgs92rcd13ifvqcc0","pricing_plan_id":"cebpf4jnsgd1na2vs0mg"},{"bike_id":"491d8f46-2be8-495f-9728-de67d7e66051","system_id":"levelo_inurba_marseille","lat":43.30802,"lon":5.38158,"is_reserved":false,"is_disabled":false,"rental_uris":{"android":"levelo://app?vid=491d8f46-2be8-495f-9728-de67d7e66051","ios":"levelo://app?vid=491d8f46-2be8-495f-9728-de67d7e66051"},"vehicle_type_id":"4","last_reported":1773602383,"current_range_meters":22800,"station_id":"ce4bgt12rcd13ifvqce0","pricing_plan_id":"cebpf4jnsgd1na2vs0mg"},{"bike_id":"806b261a-db94-4d3f-a83b-ece799b2cd32","system_id":"levelo_inurba_marseille","lat":43.28687,"lon":5.38674,"is_reserved":false,"is_disabled":false,"rental_uris":{"android":"levelo://app?vid=806b261a-db94-4d3f-a83b-ece799b2cd32","ios":"levelo://app?vid=806b261a-db94-4d3f-a83b-ece799b2cd32"},"vehicle_type_id":"4","last_reported":1773602383,"current_range_meters":34800,"station_id":"ce4bh492rcd13ifvqdug","pricing_plan_id":"cebpf4jnsgd1na2vs0mg"},{"bike_id":"13eecf55-fc78-4d2a-b864-65eaaa1152e0","system_id":"levelo_inurba_marseille","lat":43.30177,"lon":5.3662,"is_reserved":false,"is_disabled":false,"rental_uris":{"android":"levelo://app?vid=13eecf55-fc78-4d2a-b864-65eaaa1152e0","ios":"levelo://app?vid=13eecf55-fc78-4d2a-b864-65eaaa1152e0"},"vehicle_type_id":"4","last_reported":1773602383,"current_range_meters":39200,"station_id":"ce4bgrh2rcd13ifvqc8g","pricing_plan_id":"cebpf4jnsgd1na2vs0mg"},{"bike_id":"4ded1ea9-5b3d-4f53-a836-a25d65fd599d","system_id":"levelo_inurba_marseille","lat":43.31187,"lon":5.36847,"is_reserved":false,"is_disabled":false,"rental_uris":{"android":"levelo://app?vid=4ded1ea9-5b3d-4f53-a836-a25d65fd599d","ios":"levelo://app?vid=4ded1ea9-5b3d-4f53-a836-a25d65fd599d"},"vehicle_type_id":"4","last_reported":1773602383,"current_range_meters":28000,"station_id":"ce4bgl92rcd13ifvqbq0","pricing_plan_id":"cebpf4jnsgd1na2vs0mg"},{"bike_id":"3c7690d1-a097-4dc1-a920-49c74ad74917","system_id":"levelo_inurba_marseille","lat":43.29063,"lon":5.37147,"is_reserved":false,"is_disabled":true,"rental_uris":{"android":"levelo://app?vid=3c7690d1-a097-4dc1-a920-49c74ad74917","ios":"levelo://app?vid=3c7690d1-a097-4dc1-a920-49c74ad74917"},"vehicle_type_id":"4","last_reported":1773602383,"current_range_meters":25600,"station_id":"ce4bh5p2rcd13ifvqe4g","pricing_plan_id":"cebpf4jnsgd1na2vs0mg"},{"bike_id":"9fdaf863-2190-4d2c-abe8-e311e709d276","system_id":"levelo_inurba_marseille","lat":43.30186,"lon":5.36624,"is_reserved":false,"is_disabled":false,"rental_uris":{"android":"levelo://app?vid=9fdaf863-2190-4d2c-abe8-e311e709d276","ios":"levelo://app?vid=9fdaf863-2190-4d2c-abe8-e311e709d276"},"vehicle_type_id":"4","last_reported":1773602383,"current_range_meters":22400,"station_id":"ce4bgrh2rcd13ifvqc8g","pricing_plan_id":"cebpf4jnsgd1na2vs0mg"},{"bike_id":"2f862d03-e88c-4088-99c2-e008a308cbbf","system_id":"levelo_inurba_marseille","lat":43.23964,"lon":5.36649,"is_reserved":false,"is_disabled":false,"rental_uris":{"android":"levelo://app?vid=2f862d03-e88c-4088-99c2-e008a308cbbf","ios":"levelo://app?vid=2f862d03-e88c-4088-99c2-e008a308cbbf"},"vehicle_type_id":"4","last_reported":1773602383,"current_range_meters":24400,"station_id":"ce4bhi12rcd13ifvqfp0","pricing_plan_id":"cebpf4jnsgd1na2vs0mg"},{"bike_id":"7e7249ab-ffda-4a8b-b45a-917693570120","system_id":"levelo_inurba_marseille","lat":43.28959,"lon":5.36389,"is_reserved":false,"is_disabled":false,"rental_uris":{"android":"levelo://app?vid=7e7249ab-ffda-4a8b-b45a-917693570120","ios":"levelo://app?vid=7e7249ab-ffda-4a8b-b45a-917693570120"},"vehicle_type_id":"4","last_reported":1773602383,"current_range_meters":27600,"station_id":"ce4bhc92rcd13ifvqetg","pricing_plan_id":"cebpf4jnsgd1na2vs0mg"},{"bike_id":"ffad090c-cae3-4270-b25f-e63b153ea950","system_id":"levelo_inurba_marseille","lat":43.26786,"lon":5.39451,"is_reserved":false,"is_disabled":false,"rental_uris":{"android":"levelo://app?vid=ffad090c-cae3-4270-b25f-e63b153ea950","ios":"levelo://app?vid=ffad090c-cae3-4270-b25f-e63b153ea950"},"vehicle_type_id":"4","last_reported":1773602383,"current_range_meters":37600,"station_id":"ce4bhh12rcd13ifvqfg0","pricing_plan_id":"cebpf4jnsgd1na2vs0mg"},{"bike_id":"ced05e86-2551-48cf-8692-7f3559e5deac","system_id":"levelo_inurba_marseille","lat":43.29482,"lon":5.43291,"is_reserved":false,"is_disabled":false,"rental_uris":{"android":"levelo://app?vid=ced05e86-2551-48cf-8692-7f3559e5deac","ios":"levelo://app?vid=ced05e86-2551-48cf-8692-7f3559e5deac"},"vehicle_type_id":"4","last_reported":1773602383,"current_range_meters":3600,"station_id":"st_d3j5ugp08ojc73fj9d10","pricing_plan_id":"cebpf4jnsgd1na2vs0mg"},{"bike_id":"1f2881ee-157b-4338-885d-9e2cd4f87dbd","system_id":"levelo_inurba_marseille","lat":43.27916,"lon":5.39607,"is_reserved":false,"is_disabled":false,"rental_uris":{"android":"levelo://app?vid=1f2881ee-157b-4338-885d-9e2cd4f87dbd","ios":"levelo://app?vid=1f2881ee-157b-4338-885d-9e2cd4f87dbd"},"vehicle_type_id":"4","last_reported":1773602383,"current_range_meters":39200,"station_id":"ce4bhf92rcd13ifvqf40","pricing_plan_id":"cebpf4jnsgd1na2vs0mg"},{"bike_id":"6152ef78-b464-49f9-b02f-37b215c6d4f3","system_id":"levelo_inurba_marseille","lat":43.25859,"lon":5.39916,"is_reserved":false,"is_disabled":true,"rental_uris":{"android":"levelo://app?vid=6152ef78-b464-49f9-b02f-37b215c6d4f3","ios":"levelo://app?vid=6152ef78-b464-49f9-b02f-37b215c6d4f3"},"vehicle_type_id":"4","last_reported":1773602383,"current_range_meters":37600,"station_id":"ce4bhl92rcd13ifvqghg","pricing_plan_id":"cebpf4jnsgd1na2vs0mg"},{"bike_id":"b89cd1c2-db43-4410-9d32-79ebd5d302f9","system_id":"levelo_inurba_marseille","lat":43.29532,"lon":5.39391,"is_reserved":false,"is_disabled":false,"rental_uris":{"android":"levelo://app?vid=b89cd1c2-db43-4410-9d32-79ebd5d302f9","ios":"levelo://app?vid=b89cd1c2-db43-4410-9d32-79ebd5d302f9"},"vehicle_type_id":"4","last_reported":1773602383,"current_range_meters":38800,"station_id":"ce4bh292rcd13ifvqdf0","pricing_plan_id":"cebpf4jnsgd1na2vs0mg"},{"bike_id":"92fbc6cc-0ce6-4f56-b7c8-95405ce28d0f","system_id":"levelo_inurba_marseille","lat":43.29629,"lon":5.40602,"is_reserved":false,"is_disabled":false,"rental_uris":{"android":"levelo://app?vid=92fbc6cc-0ce6-4f56-b7c8-95405ce28d0f","ios":"levelo://app?vid=92fbc6cc-0ce6-4f56-b7c8-95405ce28d0f"},"vehicle_type_id":"4","last_reported":1773602383,"current_range_meters":20000,"station_id":"ce4bh0h2rcd13ifvqd60","pricing_plan_id":"cebpf4jnsgd1na2vs0mg"},{"bike_id":"41ae287c-9cc1-430a-84ca-70506bc523b6","system_id":"levelo_inurba_marseille","lat":43.22566,"lon":5.41666,"is_reserved":false,"is_disabled":false,"rental_uris":{"android":"levelo://app?vid=41ae287c-9cc1-430a-84ca-70506bc523b6","ios":"levelo://app?vid=41ae287c-9cc1-430a-84ca-70506bc523b6"},"vehicle_type_id":"4","last_reported":1773602383,"current_range_meters":33600,"station_id":"st_d2o4gvlbi1j2169b742g","pricing_plan_id":"cebpf4jnsgd1na2vs0mg"},{"bike_id":"fe8dfa27-62f0-46d6-ba43-c3127399aaa0","system_id":"levelo_inurba_marseille","lat":43.29628,"lon":5.42167,"is_reserved":false,"is_disabled":false,"rental_uris":{"android":"levelo://app?vid=fe8dfa27-62f0-46d6-ba43-c3127399aaa0","ios":"levelo://app?vid=fe8dfa27-62f0-46d6-ba43-c3127399aaa0"},"vehicle_type_id":"4","last_reported":1773602383,"current_range_meters":22400,"station_id":"","pricing_plan_id":"cebpf4jnsgd1na2vs0mg"},{"bike_id":"1e9cef4f-6657-4253-8c23-299a1c852612","system_id":"levelo_inurba_marseille","lat":43.29796,"lon":5.40404,"is_reserved":false,"is_disabled":false,"rental_uris":{"android":"levelo://app?vid=1e9cef4f-6657-4253-8c23-299a1c852612","ios":"levelo://app?vid=1e9cef4f-6657-4253-8c23-299a1c852612"},"vehicle_type_id":"4","last_reported":1773602383,"current_range_meters":11200,"station_id":"ce4bh112rcd13ifvqd90","pricing_plan_id":"cebpf4jnsgd1na2vs0mg"},{"bike_id":"fde23e65-e2cb-46cb-8f9a-49c501c3fb35","system_id":"levelo_inurba_marseille","lat":43.33166,"lon":5.377,"is_reserved":false,"is_disabled":false,"rental_uris":{"android":"levelo://app?vid=fde23e65-e2cb-46cb-8f9a-49c501c3fb35","ios":"levelo://app?vid=fde23e65-e2cb-46cb-8f9a-49c501c3fb35"},"vehicle_type_id":"4","last_reported":1773602383,"current_range_meters":8000,"station_id":"st_d46cu089ee8s73dldbu0","pricing_plan_id":"cebpf4jnsgd1na2vs0mg"},{"bike_id":"af157042-6b1c-4da1-9339-4547bdca0041","system_id":"levelo_inurba_marseille","lat":43.30548,"lon":5.36549,"is_reserved":false,"is_disabled":false,"rental_uris":{"android":"levelo://app?vid=af157042-6b1c-4da1-9339-4547bdca0041","ios":"levelo://app?vid=af157042-6b1c-4da1-9339-4547bdca0041"},"vehicle_type_id":"4","last_reported":1773602383,"current_range_meters":10800,"station_id":"ce4bgs12rcd13ifvqcag","pricing_plan_id":"cebpf4jnsgd1na2vs0mg"},{"bike_id":"6cd1b79d-1347-474f-9698-eaf7241262db","system_id":"levelo_inurba_marseille","lat":43.28426,"lon":5.35008,"is_reserved":false,"is_disabled":false,"rental_uris":{"android":"levelo://app?vid=6cd1b79d-1347-474f-9698-eaf7241262db","ios":"levelo://app?vid=6cd1b79d-1347-474f-9698-eaf7241262db"},"vehicle_type_id":"4","last_reported":1773602383,"current_range_meters":38400,"station_id":"ce4bhbh2rcd13ifvqepg","pricing_plan_id":"cebpf4jnsgd1na2vs0mg"},{"bike_id":"bba2d762-24c5-424c-8885-ccb819513608","system_id":"levelo_inurba_marseille","lat":43.2764,"lon":5.38774,"is_reserved":false,"is_disabled":true,"rental_uris":{"android":"levelo://app?vid=bba2d762-24c5-424c-8885-ccb819513608","ios":"levelo://app?vid=bba2d762-24c5-424c-8885-ccb819513608"},"vehicle_type_id":"4","last_reported":1773602383,"current_range_meters":9200,"station_id":"","pricing_plan_id":"cebpf4jnsgd1na2vs0mg"},{"bike_id":"bbd01454-2423-4218-8a6f-60bf3a414075","system_id":"levelo_inurba_marseille","lat":43.2869,"lon":5.37432,"is_reserved":false,"is_disabled":true,"rental_uris":{"android":"levelo://app?vid=bbd01454-2423-4218-8a6f-60bf3a414075","ios":"levelo://app?vid=bbd01454-2423-4218-8a6f-60bf3a414075"},"vehicle_type_id":"4","last_reported":1773602383,"current_range_meters":0,"station_id":"ce4bh3p2rcd13ifvqdq0","pricing_plan_id":"cebpf4jnsgd1na2vs0mg"},{"bike_id":"1217792c-987d-41a2-8823-875cdd503171","system_id":"levelo_inurba_marseille","lat":43.33164,"lon":5.37703,"is_reserved":false,"is_disabled":false,"rental_uris":{"android":"levelo://app?vid=1217792c-987d-41a2-8823-875cdd503171","ios":"levelo://app?vid=1217792c-987d-41a2-8823-875cdd503171"},"vehicle_type_id":"4","last_reported":1773602383,"current_range_meters":22800,"station_id":"st_d46cu089ee8s73dldbu0","pricing_plan_id":"cebpf4jnsgd1na2vs0mg"},{"bike_id":"cdf89b19-efb9-4df2-a873-89aaf5b5f343","system_id":"levelo_inurba_marseille","lat":43.29595,"lon":5.38111,"is_reserved":false,"is_disabled":false,"rental_uris":{"android":"levelo://app?vid=cdf89b19-efb9-4df2-a873-89aaf5b5f343","ios":"levelo://app?vid=cdf89b19-efb9-4df2-a873-89aaf5b5f343"},"vehicle_type_id":"4","last_reported":1773602383,"current_range_meters":9200,"station_id":"ce4bgl12rcd13ifvqbo0","pricing_plan_id":"cebpf4jnsgd1na2vs0mg"},{"bike_id":"1fa66c7c-5bbe-4c72-8397-ac5bb2c15dc7","system_id":"levelo_inurba_marseille","lat":43.32384,"lon":5.38858,"is_reserved":false,"is_disabled":false,"rental_uris":{"android":"levelo://app?vid=1fa66c7c-5bbe-4c72-8397-ac5bb2c15dc7","ios":"levelo://app?vid=1fa66c7c-5bbe-4c72-8397-ac5bb2c15dc7"},"vehicle_type_id":"4","last_reported":1773602383,"current_range_meters":34800,"station_id":"ce4bhqp2rcd13ifvqhog","pricing_plan_id":"cebpf4jnsgd1na2vs0mg"},{"bike_id":"9efe1c4f-047c-42f7-8402-5a19ec34d756","system_id":"levelo_inurba_marseille","lat":43.30422,"lon":5.41303,"is_reserved":false,"is_disabled":false,"rental_uris":{"android":"levelo://app?vid=9efe1c4f-047c-42f7-8402-5a19ec34d756","ios":"levelo://app?vid=9efe1c4f-047c-42f7-8402-5a19ec34d756"},"vehicle_type_id":"4","last_reported":1773602383,"current_range_meters":30800,"station_id":"ce4bhop2rcd13ifvqh8g","pricing_plan_id":"cebpf4jnsgd1na2vs0mg"},{"bike_id":"2c3e9862-6d9e-4def-8308-2994bae5c1ca","system_id":"levelo_inurba_marseille","lat":43.33729,"lon":5.39176,"is_reserved":false,"is_disabled":false,"rental_uris":{"android":"levelo://app?vid=2c3e9862-6d9e-4def-8308-2994bae5c1ca","ios":"levelo://app?vid=2c3e9862-6d9e-4def-8308-2994bae5c1ca"},"vehicle_type_id":"4","last_reported":1773602383,"current_range_meters":36000,"station_id":"ce4bhr92rcd13ifvqhsg","pricing_plan_id":"cebpf4jnsgd1na2vs0mg"},{"bike_id":"aed4118b-a0e3-4071-9098-af6c6a632706","system_id":"levelo_inurba_marseille","lat":43.30132,"lon":5.4307,"is_reserved":false,"is_disabled":false,"rental_uris":{"android":"levelo://app?vid=aed4118b-a0e3-4071-9098-af6c6a632706","ios":"levelo://app?vid=aed4118b-a0e3-4071-9098-af6c6a632706"},"vehicle_type_id":"4","last_reported":1773602383,"current_range_meters":6800,"station_id":"st_d3js3co5814s73ftftug","pricing_plan_id":"cebpf4jnsgd1na2vs0mg"},{"bike_id":"ee97d76b-d430-4b45-b3b0-dd8a973c7e77","system_id":"levelo_inurba_marseille","lat":43.23967,"lon":5.3665,"is_reserved":false,"is_disabled":false,"rental_uris":{"android":"levelo://app?vid=ee97d76b-d430-4b45-b3b0-dd8a973c7e77","ios":"levelo://app?vid=ee97d76b-d430-4b45-b3b0-dd8a973c7e77"},"vehicle_type_id":"4","last_reported":1773602383,"current_range_meters":34000,"station_id":"ce4bhi12rcd13ifvqfp0","pricing_plan_id":"cebpf4jnsgd1na2vs0mg"},{"bike_id":"e3a528d1-30a2-4f90-a1fa-20282ad643b5","system_id":"levelo_inurba_marseille","lat":43.26409,"lon":5.41093,"is_reserved":false,"is_disabled":false,"rental_uris":{"android":"levelo://app?vid=e3a528d1-30a2-4f90-a1fa-20282ad643b5","ios":"levelo://app?vid=e3a528d1-30a2-4f90-a1fa-20282ad643b5"},"vehicle_type_id":"4","last_reported":1773602383,"current_range_meters":28400,"station_id":"st_d4e5ca6na9uc73bfl5fg","pricing_plan_id":"cebpf4jnsgd1na2vs0mg"},{"bike_id":"e7b756cc-5d84-4593-8900-25a15e80ea6e","system_id":"levelo_inurba_marseille","lat":43.24087,"lon":5.37752,"is_reserved":false,"is_disabled":false,"rental_uris":{"android":"levelo://app?vid=e7b756cc-5d84-4593-8900-25a15e80ea6e","ios":"levelo://app?vid=e7b756cc-5d84-4593-8900-25a15e80ea6e"},"vehicle_type_id":"4","last_reported":1773602383,"current_range_meters":33200,"station_id":"ce4bhnp2rcd13ifvqgvg","pricing_plan_id":"cebpf4jnsgd1na2vs0mg"},{"bike_id":"2fd025c2-5d1f-404e-b401-f593d342fd66","system_id":"levelo_inurba_marseille","lat":43.30734,"lon":5.42442,"is_reserved":false,"is_disabled":false,"rental_uris":{"android":"levelo://app?vid=2fd025c2-5d1f-404e-b401-f593d342fd66","ios":"levelo://app?vid=2fd025c2-5d1f-404e-b401-f593d342fd66"},"vehicle_type_id":"4","last_reported":1773602383,"current_range_meters":36000,"station_id":"st_cvj6ca6bvosntc0bfgr0","pricing_plan_id":"cebpf4jnsgd1na2vs0mg"},{"bike_id":"193f3e37-9464-4f96-8f29-4fc2a2a78fd9","system_id":"levelo_inurba_marseille","lat":43.28628,"lon":5.35107,"is_reserved":false,"is_disabled":false,"rental_uris":{"android":"levelo://app?vid=193f3e37-9464-4f96-8f29-4fc2a2a78fd9","ios":"levelo://app?vid=193f3e37-9464-4f96-8f29-4fc2a2a78fd9"},"vehicle_type_id":"4","last_reported":1773602383,"current_range_meters":28400,"station_id":"ce4bhch2rcd13ifvqeug","pricing_plan_id":"cebpf4jnsgd1na2vs0mg"},{"bike_id":"2043c5cd-3f5c-493d-8b5f-e5e8cf20bf2b","system_id":"levelo_inurba_marseille","lat":43.29642,"lon":5.37763,"is_reserved":false,"is_disabled":false,"rental_uris":{"android":"levelo://app?vid=2043c5cd-3f5c-493d-8b5f-e5e8cf20bf2b","ios":"levelo://app?vid=2043c5cd-3f5c-493d-8b5f-e5e8cf20bf2b"},"vehicle_type_id":"4","last_reported":1773602383,"current_range_meters":13600,"station_id":"ce4bgi92rcd13ifvqb90","pricing_plan_id":"cebpf4jnsgd1na2vs0mg"},{"bike_id":"af5a1dfc-fa5f-4ac5-873b-9fe0a40e1ab6","system_id":"levelo_inurba_marseille","lat":43.30828,"lon":5.38152,"is_reserved":false,"is_disabled":false,"rental_uris":{"android":"levelo://app?vid=af5a1dfc-fa5f-4ac5-873b-9fe0a40e1ab6","ios":"levelo://app?vid=af5a1dfc-fa5f-4ac5-873b-9fe0a40e1ab6"},"vehicle_type_id":"4","last_reported":1773602383,"current_range_meters":39200,"station_id":"ce4bgt12rcd13ifvqce0","pricing_plan_id":"cebpf4jnsgd1na2vs0mg"},{"bike_id":"24806c97-0e45-4c49-bb71-d4f27f1297a9","system_id":"levelo_inurba_marseille","lat":43.29525,"lon":5.38545,"is_reserved":false,"is_disabled":false,"rental_uris":{"android":"levelo://app?vid=24806c97-0e45-4c49-bb71-d4f27f1297a9","ios":"levelo://app?vid=24806c97-0e45-4c49-bb71-d4f27f1297a9"},"vehicle_type_id":"4","last_reported":1773602383,"current_range_meters":39200,"station_id":"ce4bgih2rcd13ifvqba0","pricing_plan_id":"cebpf4jnsgd1na2vs0mg"},{"bike_id":"1a90a8d3-c56d-44f0-9e3d-eb117a0cebc5","system_id":"levelo_inurba_marseille","lat":43.24172,"lon":5.39738,"is_reserved":false,"is_disabled":false,"rental_uris":{"android":"levelo://app?vid=1a90a8d3-c56d-44f0-9e3d-eb117a0cebc5","ios":"levelo://app?vid=1a90a8d3-c56d-44f0-9e3d-eb117a0cebc5"},"vehicle_type_id":"4","last_reported":1773602383,"current_range_meters":30800,"station_id":"ce4bhn12rcd13ifvqgpg","pricing_plan_id":"cebpf4jnsgd1na2vs0mg"},{"bike_id":"923e734c-35b5-436e-933e-614fd564a59f","system_id":"levelo_inurba_marseille","lat":43.26563,"lon":5.37289,"is_reserved":false,"is_disabled":false,"rental_uris":{"android":"levelo://app?vid=923e734c-35b5-436e-933e-614fd564a59f","ios":"levelo://app?vid=923e734c-35b5-436e-933e-614fd564a59f"},"vehicle_type_id":"4","last_reported":1773602383,"current_range_meters":14800,"station_id":"ce4bhg12rcd13ifvqf70","pricing_plan_id":"cebpf4jnsgd1na2vs0mg"},{"bike_id":"16a9b4d1-3c1d-430b-b38c-79d0b9d05151","system_id":"levelo_inurba_marseille","lat":43.2319,"lon":5.35554,"is_reserved":false,"is_disabled":false,"rental_uris":{"android":"levelo://app?vid=16a9b4d1-3c1d-430b-b38c-79d0b9d05151","ios":"levelo://app?vid=16a9b4d1-3c1d-430b-b38c-79d0b9d05151"},"vehicle_type_id":"4","last_reported":1773602383,"current_range_meters":24800,"station_id":"ce4bhu92rcd13ifvqi70","pricing_plan_id":"cebpf4jnsgd1na2vs0mg"},{"bike_id":"45215f52-9818-4ff3-af39-1f094cfbc110","system_id":"levelo_inurba_marseille","lat":43.21784,"lon":5.34619,"is_reserved":false,"is_disabled":false,"rental_uris":{"android":"levelo://app?vid=45215f52-9818-4ff3-af39-1f094cfbc110","ios":"levelo://app?vid=45215f52-9818-4ff3-af39-1f094cfbc110"},"vehicle_type_id":"4","last_reported":1773602383,"current_range_meters":11600,"station_id":"","pricing_plan_id":"cebpf4jnsgd1na2vs0mg"},{"bike_id":"3d951476-aa89-47f5-907d-0788c1744f09","system_id":"levelo_inurba_marseille","lat":43.25338,"lon":5.4216,"is_reserved":false,"is_disabled":false,"rental_uris":{"android":"levelo://app?vid=3d951476-aa89-47f5-907d-0788c1744f09","ios":"levelo://app?vid=3d951476-aa89-47f5-907d-0788c1744f09"},"vehicle_type_id":"4","last_reported":1773602383,"current_range_meters":22800,"station_id":"st_d2m65c5bi1j21697t3ng","pricing_plan_id":"cebpf4jnsgd1na2vs0mg"},{"bike_id":"0cfe6147-16c1-48ba-ba73-5bbc93db4ab4","system_id":"levelo_inurba_marseille","lat":43.27086,"lon":5.38269,"is_reserved":false,"is_disabled":true,"rental_uris":{"android":"levelo://app?vid=0cfe6147-16c1-48ba-ba73-5bbc93db4ab4","ios":"levelo://app?vid=0cfe6147-16c1-48ba-ba73-5bbc93db4ab4"},"vehicle_type_id":"4","last_reported":1773602383,"current_range_meters":37600,"station_id":"st_d3n2fo6cfp8s73cte1j0","pricing_plan_id":"cebpf4jnsgd1na2vs0mg"},{"bike_id":"131bae6d-1441-4ceb-9374-ddded95d0176","system_id":"levelo_inurba_marseille","lat":43.28733,"lon":5.37939,"is_reserved":false,"is_disabled":false,"rental_uris":{"android":"levelo://app?vid=131bae6d-1441-4ceb-9374-ddded95d0176","ios":"levelo://app?vid=131bae6d-1441-4ceb-9374-ddded95d0176"},"vehicle_type_id":"4","last_reported":1773602383,"current_range_meters":6000,"station_id":"ce4bh9p2rcd13ifvqec0","pricing_plan_id":"cebpf4jnsgd1na2vs0mg"},{"bike_id":"c57c924b-3373-43fc-9a2c-6d8539988c6e","system_id":"levelo_inurba_marseille","lat":43.30176,"lon":5.3663,"is_reserved":false,"is_disabled":false,"rental_uris":{"android":"levelo://app?vid=c57c924b-3373-43fc-9a2c-6d8539988c6e","ios":"levelo://app?vid=c57c924b-3373-43fc-9a2c-6d8539988c6e"},"vehicle_type_id":"4","last_reported":1773602383,"current_range_meters":32000,"station_id":"ce4bgrh2rcd13ifvqc8g","pricing_plan_id":"cebpf4jnsgd1na2vs0mg"},{"bike_id":"968e0752-94e3-4427-8693-dccfb2dc93c6","system_id":"levelo_inurba_marseille","lat":43.32334,"lon":5.38911,"is_reserved":false,"is_disabled":false,"rental_uris":{"android":"levelo://app?vid=968e0752-94e3-4427-8693-dccfb2dc93c6","ios":"levelo://app?vid=968e0752-94e3-4427-8693-dccfb2dc93c6"},"vehicle_type_id":"4","last_reported":1773602383,"current_range_meters":36000,"station_id":"ce4bhqp2rcd13ifvqhog","pricing_plan_id":"cebpf4jnsgd1na2vs0mg"},{"bike_id":"800a0bd7-e849-4d35-83f8-f00d3b4762b1","system_id":"levelo_inurba_marseille","lat":43.28745,"lon":5.36098,"is_reserved":false,"is_disabled":false,"rental_uris":{"android":"levelo://app?vid=800a0bd7-e849-4d35-83f8-f00d3b4762b1","ios":"levelo://app?vid=800a0bd7-e849-4d35-83f8-f00d3b4762b1"},"vehicle_type_id":"4","last_reported":1773602383,"current_range_meters":23200,"station_id":"cki0cbj6b192h4jlfktg","pricing_plan_id":"cebpf4jnsgd1na2vs0mg"},{"bike_id":"98ff575e-e932-485c-a678-0a491cff6beb","system_id":"levelo_inurba_marseille","lat":43.2638,"lon":5.41075,"is_reserved":false,"is_disabled":false,"rental_uris":{"android":"levelo://app?vid=98ff575e-e932-485c-a678-0a491cff6beb","ios":"levelo://app?vid=98ff575e-e932-485c-a678-0a491cff6beb"},"vehicle_type_id":"4","last_reported":1773602383,"current_range_meters":28400,"station_id":"st_d4e5ca6na9uc73bfl5fg","pricing_plan_id":"cebpf4jnsgd1na2vs0mg"},{"bike_id":"2eb112e0-30fa-4776-b5a6-10d2c0c8b525","system_id":"levelo_inurba_marseille","lat":43.2906,"lon":5.39976,"is_reserved":false,"is_disabled":true,"rental_uris":{"android":"levelo://app?vid=2eb112e0-30fa-4776-b5a6-10d2c0c8b525","ios":"levelo://app?vid=2eb112e0-30fa-4776-b5a6-10d2c0c8b525"},"vehicle_type_id":"4","last_reported":1773602383,"current_range_meters":23200,"station_id":"ce4bh392rcd13ifvqdm0","pricing_plan_id":"cebpf4jnsgd1na2vs0mg"},{"bike_id":"5e37606c-cd45-4546-a107-12352d83874a","system_id":"levelo_inurba_marseille","lat":43.29195,"lon":5.3933,"is_reserved":false,"is_disabled":true,"rental_uris":{"android":"levelo://app?vid=5e37606c-cd45-4546-a107-12352d83874a","ios":"levelo://app?vid=5e37606c-cd45-4546-a107-12352d83874a"},"vehicle_type_id":"4","last_reported":1773602383,"current_range_meters":16400,"station_id":"ce4bh192rcd13ifvqdd0","pricing_plan_id":"cebpf4jnsgd1na2vs0mg"},{"bike_id":"71501c24-7c0d-4212-996a-19e1a1605792","system_id":"levelo_inurba_marseille","lat":43.29479,"lon":5.43364,"is_reserved":false,"is_disabled":false,"rental_uris":{"android":"levelo://app?vid=71501c24-7c0d-4212-996a-19e1a1605792","ios":"levelo://app?vid=71501c24-7c0d-4212-996a-19e1a1605792"},"vehicle_type_id":"4","last_reported":1773602383,"current_range_meters":30000,"station_id":"st_d3j5ugp08ojc73fj9d10","pricing_plan_id":"cebpf4jnsgd1na2vs0mg"},{"bike_id":"cb262abd-8fa3-4907-9d6d-7f138f8b8e6c","system_id":"levelo_inurba_marseille","lat":43.28626,"lon":5.35107,"is_reserved":false,"is_disabled":false,"rental_uris":{"android":"levelo://app?vid=cb262abd-8fa3-4907-9d6d-7f138f8b8e6c","ios":"levelo://app?vid=cb262abd-8fa3-4907-9d6d-7f138f8b8e6c"},"vehicle_type_id":"4","last_reported":1773602383,"current_range_meters":39200,"station_id":"ce4bhch2rcd13ifvqeug","pricing_plan_id":"cebpf4jnsgd1na2vs0mg"},{"bike_id":"0ddbdcf0-3ed3-47c0-ae8e-a0e77cb9b432","system_id":"levelo_inurba_marseille","lat":43.25893,"lon":5.41069,"is_reserved":false,"is_disabled":false,"rental_uris":{"android":"levelo://app?vid=0ddbdcf0-3ed3-47c0-ae8e-a0e77cb9b432","ios":"levelo://app?vid=0ddbdcf0-3ed3-47c0-ae8e-a0e77cb9b432"},"vehicle_type_id":"4","last_reported":1773602383,"current_range_meters":40000,"station_id":"ce4bhkp2rcd13ifvqgd0","pricing_plan_id":"cebpf4jnsgd1na2vs0mg"},{"bike_id":"d2d3977e-a511-4526-90b4-a6ef895839c4","system_id":"levelo_inurba_marseille","lat":43.24073,"lon":5.37762,"is_reserved":false,"is_disabled":false,"rental_uris":{"android":"levelo://app?vid=d2d3977e-a511-4526-90b4-a6ef895839c4","ios":"levelo://app?vid=d2d3977e-a511-4526-90b4-a6ef895839c4"},"vehicle_type_id":"4","last_reported":1773602383,"current_range_meters":9200,"station_id":"ce4bhnp2rcd13ifvqgvg","pricing_plan_id":"cebpf4jnsgd1na2vs0mg"},{"bike_id":"b757ca70-6df8-45c2-a89f-f242c8e06d23","system_id":"levelo_inurba_marseille","lat":43.28932,"lon":5.36653,"is_reserved":false,"is_disabled":false,"rental_uris":{"android":"levelo://app?vid=b757ca70-6df8-45c2-a89f-f242c8e06d23","ios":"levelo://app?vid=b757ca70-6df8-45c2-a89f-f242c8e06d23"},"vehicle_type_id":"4","last_reported":1773602383,"current_range_meters":29600,"station_id":"ce4bhap2rcd13ifvqek0","pricing_plan_id":"cebpf4jnsgd1na2vs0mg"},{"bike_id":"fab9d42d-0389-4e3c-b710-106effb7d2e6","system_id":"levelo_inurba_marseille","lat":43.27821,"lon":5.40731,"is_reserved":false,"is_disabled":false,"rental_uris":{"android":"levelo://app?vid=fab9d42d-0389-4e3c-b710-106effb7d2e6","ios":"levelo://app?vid=fab9d42d-0389-4e3c-b710-106effb7d2e6"},"vehicle_type_id":"4","last_reported":1773602383,"current_range_meters":30000,"station_id":"ce4bhnh2rcd13ifvqgtg","pricing_plan_id":"cebpf4jnsgd1na2vs0mg"},{"bike_id":"6973bc0a-497d-4669-a2cb-c63cb0fa1dd6","system_id":"levelo_inurba_marseille","lat":43.2966,"lon":5.37209,"is_reserved":false,"is_disabled":false,"rental_uris":{"android":"levelo://app?vid=6973bc0a-497d-4669-a2cb-c63cb0fa1dd6","ios":"levelo://app?vid=6973bc0a-497d-4669-a2cb-c63cb0fa1dd6"},"vehicle_type_id":"4","last_reported":1773602383,"current_range_meters":37600,"station_id":"","pricing_plan_id":"cebpf4jnsgd1na2vs0mg"},{"bike_id":"a29b970f-b285-425f-be46-e5d395220578","system_id":"levelo_inurba_marseille","lat":43.25126,"lon":5.40336,"is_reserved":false,"is_disabled":false,"rental_uris":{"android":"levelo://app?vid=a29b970f-b285-425f-be46-e5d395220578","ios":"levelo://app?vid=a29b970f-b285-425f-be46-e5d395220578"},"vehicle_type_id":"4","last_reported":1773602383,"current_range_meters":24800,"station_id":"ce4bhlh2rcd13ifvqgig","pricing_plan_id":"cebpf4jnsgd1na2vs0mg"},{"bike_id":"1352275b-4f4b-4977-9f56-d6eb25fd2d02","system_id":"levelo_inurba_marseille","lat":43.2668,"lon":5.38288,"is_reserved":false,"is_disabled":false,"rental_uris":{"android":"levelo://app?vid=1352275b-4f4b-4977-9f56-d6eb25fd2d02","ios":"levelo://app?vid=1352275b-4f4b-4977-9f56-d6eb25fd2d02"},"vehicle_type_id":"4","last_reported":1773602383,"current_range_meters":20400,"station_id":"ce4bhg92rcd13ifvqf90","pricing_plan_id":"cebpf4jnsgd1na2vs0mg"},{"bike_id":"1b76ca95-f18f-46ad-b5e2-115c03b09dc0","system_id":"levelo_inurba_marseille","lat":43.29759,"lon":5.42788,"is_reserved":false,"is_disabled":false,"rental_uris":{"android":"levelo://app?vid=1b76ca95-f18f-46ad-b5e2-115c03b09dc0","ios":"levelo://app?vid=1b76ca95-f18f-46ad-b5e2-115c03b09dc0"},"vehicle_type_id":"4","last_reported":1773602383,"current_range_meters":17200,"station_id":"st_d3md5207bmas73dh9klg","pricing_plan_id":"cebpf4jnsgd1na2vs0mg"},{"bike_id":"aa1ea814-effc-4a82-a7ce-fc6b0be25510","system_id":"levelo_inurba_marseille","lat":43.31858,"lon":5.3697,"is_reserved":false,"is_disabled":false,"rental_uris":{"android":"levelo://app?vid=aa1ea814-effc-4a82-a7ce-fc6b0be25510","ios":"levelo://app?vid=aa1ea814-effc-4a82-a7ce-fc6b0be25510"},"vehicle_type_id":"4","last_reported":1773602383,"current_range_meters":35600,"station_id":"","pricing_plan_id":"cebpf4jnsgd1na2vs0mg"},{"bike_id":"52e7db0c-350f-482f-b340-fbb82d9af1d8","system_id":"levelo_inurba_marseille","lat":43.26524,"lon":5.39028,"is_reserved":false,"is_disabled":false,"rental_uris":{"android":"levelo://app?vid=52e7db0c-350f-482f-b340-fbb82d9af1d8","ios":"levelo://app?vid=52e7db0c-350f-482f-b340-fbb82d9af1d8"},"vehicle_type_id":"4","last_reported":1773602383,"current_range_meters":16800,"station_id":"ce4bhe12rcd13ifvqf30","pricing_plan_id":"cebpf4jnsgd1na2vs0mg"},{"bike_id":"2a4f8eda-7d12-44c5-ad20-8a189bd76664","system_id":"levelo_inurba_marseille","lat":43.30238,"lon":5.40014,"is_reserved":false,"is_disabled":true,"rental_uris":{"android":"levelo://app?vid=2a4f8eda-7d12-44c5-ad20-8a189bd76664","ios":"levelo://app?vid=2a4f8eda-7d12-44c5-ad20-8a189bd76664"},"vehicle_type_id":"4","last_reported":1773602383,"current_range_meters":14400,"station_id":"","pricing_plan_id":"cebpf4jnsgd1na2vs0mg"},{"bike_id":"adb3e066-3d52-48f2-aa5f-de1d01f85bb9","system_id":"levelo_inurba_marseille","lat":43.30095,"lon":5.37419,"is_reserved":false,"is_disabled":false,"rental_uris":{"android":"levelo://app?vid=adb3e066-3d52-48f2-aa5f-de1d01f85bb9","ios":"levelo://app?vid=adb3e066-3d52-48f2-aa5f-de1d01f85bb9"},"vehicle_type_id":"4","last_reported":1773602383,"current_range_meters":16000,"station_id":"","pricing_plan_id":"cebpf4jnsgd1na2vs0mg"},{"bike_id":"dae7e778-d408-4ddb-a37b-f8b151914e63","system_id":"levelo_inurba_marseille","lat":43.299238,"lon":5.374746,"is_reserved":false,"is_disabled":false,"rental_uris":{"android":"levelo://app?vid=dae7e778-d408-4ddb-a37b-f8b151914e63","ios":"levelo://app?vid=dae7e778-d408-4ddb-a37b-f8b151914e63"},"vehicle_type_id":"4","last_reported":1773602383,"current_range_meters":36800,"station_id":"ce4bgjh2rcd13ifvqbg0","pricing_plan_id":"cebpf4jnsgd1na2vs0mg"},{"bike_id":"df5bb365-9582-4f6c-9fdf-6f2e80ba9689","system_id":"levelo_inurba_marseille","lat":43.30686,"lon":5.40093,"is_reserved":false,"is_disabled":false,"rental_uris":{"android":"levelo://app?vid=df5bb365-9582-4f6c-9fdf-6f2e80ba9689","ios":"levelo://app?vid=df5bb365-9582-4f6c-9fdf-6f2e80ba9689"},"vehicle_type_id":"4","last_reported":1773602383,"current_range_meters":11200,"station_id":"","pricing_plan_id":"cebpf4jnsgd1na2vs0mg"},{"bike_id":"a2330dbf-c3a2-4724-96f4-5d6cfb20b0b7","system_id":"levelo_inurba_marseille","lat":43.29546,"lon":5.42294,"is_reserved":false,"is_disabled":false,"rental_uris":{"android":"levelo://app?vid=a2330dbf-c3a2-4724-96f4-5d6cfb20b0b7","ios":"levelo://app?vid=a2330dbf-c3a2-4724-96f4-5d6cfb20b0b7"},"vehicle_type_id":"4","last_reported":1773602383,"current_range_meters":16400,"station_id":"ce4bhph2rcd13ifvqhdg","pricing_plan_id":"cebpf4jnsgd1na2vs0mg"},{"bike_id":"833ead7f-2cc1-415f-b495-f484e1825ff8","system_id":"levelo_inurba_marseille","lat":43.30743,"lon":5.42472,"is_reserved":false,"is_disabled":false,"rental_uris":{"android":"levelo://app?vid=833ead7f-2cc1-415f-b495-f484e1825ff8","ios":"levelo://app?vid=833ead7f-2cc1-415f-b495-f484e1825ff8"},"vehicle_type_id":"4","last_reported":1773602383,"current_range_meters":36000,"station_id":"st_cvj6ca6bvosntc0bfgr0","pricing_plan_id":"cebpf4jnsgd1na2vs0mg"},{"bike_id":"eb2f308c-8a12-4604-91b5-c6e7beca1962","system_id":"levelo_inurba_marseille","lat":43.25576,"lon":5.38265,"is_reserved":false,"is_disabled":false,"rental_uris":{"android":"levelo://app?vid=eb2f308c-8a12-4604-91b5-c6e7beca1962","ios":"levelo://app?vid=eb2f308c-8a12-4604-91b5-c6e7beca1962"},"vehicle_type_id":"4","last_reported":1773602383,"current_range_meters":22400,"station_id":"ce4bhih2rcd13ifvqfs0","pricing_plan_id":"cebpf4jnsgd1na2vs0mg"},{"bike_id":"ec062fde-2e15-4dbb-92cd-dbc3f4ead404","system_id":"levelo_inurba_marseille","lat":43.29116,"lon":5.43276,"is_reserved":false,"is_disabled":true,"rental_uris":{"android":"levelo://app?vid=ec062fde-2e15-4dbb-92cd-dbc3f4ead404","ios":"levelo://app?vid=ec062fde-2e15-4dbb-92cd-dbc3f4ead404"},"vehicle_type_id":"4","last_reported":1773602383,"current_range_meters":25200,"station_id":"","pricing_plan_id":"cebpf4jnsgd1na2vs0mg"},{"bike_id":"27ec4d0c-39bd-4f99-9048-845cafcd9bd1","system_id":"levelo_inurba_marseille","lat":43.30813,"lon":5.38166,"is_reserved":false,"is_disabled":false,"rental_uris":{"android":"levelo://app?vid=27ec4d0c-39bd-4f99-9048-845cafcd9bd1","ios":"levelo://app?vid=27ec4d0c-39bd-4f99-9048-845cafcd9bd1"},"vehicle_type_id":"4","last_reported":1773602383,"current_range_meters":37600,"station_id":"ce4bgt12rcd13ifvqce0","pricing_plan_id":"cebpf4jnsgd1na2vs0mg"},{"bike_id":"85f520fc-113e-4f17-b2a5-245ce16c5540","system_id":"levelo_inurba_marseille","lat":43.25339,"lon":5.42172,"is_reserved":false,"is_disabled":false,"rental_uris":{"android":"levelo://app?vid=85f520fc-113e-4f17-b2a5-245ce16c5540","ios":"levelo://app?vid=85f520fc-113e-4f17-b2a5-245ce16c5540"},"vehicle_type_id":"4","last_reported":1773602383,"current_range_meters":38400,"station_id":"st_d2m65c5bi1j21697t3ng","pricing_plan_id":"cebpf4jnsgd1na2vs0mg"},{"bike_id":"eddf755d-1b51-4e5c-8968-f67cfece1b3a","system_id":"levelo_inurba_marseille","lat":43.2784,"lon":5.39213,"is_reserved":false,"is_disabled":false,"rental_uris":{"android":"levelo://app?vid=eddf755d-1b51-4e5c-8968-f67cfece1b3a","ios":"levelo://app?vid=eddf755d-1b51-4e5c-8968-f67cfece1b3a"},"vehicle_type_id":"4","last_reported":1773602383,"current_range_meters":30000,"station_id":"ce4bhjp2rcd13ifvqga0","pricing_plan_id":"cebpf4jnsgd1na2vs0mg"},{"bike_id":"be4b33f3-f666-4b28-9e53-550c3c6e8b23","system_id":"levelo_inurba_marseille","lat":43.28477,"lon":5.48423,"is_reserved":false,"is_disabled":false,"rental_uris":{"android":"levelo://app?vid=be4b33f3-f666-4b28-9e53-550c3c6e8b23","ios":"levelo://app?vid=be4b33f3-f666-4b28-9e53-550c3c6e8b23"},"vehicle_type_id":"4","last_reported":1773602383,"current_range_meters":10800,"station_id":"st_d3svhcjqgbts73a3dn0g","pricing_plan_id":"cebpf4jnsgd1na2vs0mg"},{"bike_id":"ed384f76-c985-4c2e-96be-48d0063bb8fb","system_id":"levelo_inurba_marseille","lat":43.27309,"lon":5.39091,"is_reserved":false,"is_disabled":false,"rental_uris":{"android":"levelo://app?vid=ed384f76-c985-4c2e-96be-48d0063bb8fb","ios":"levelo://app?vid=ed384f76-c985-4c2e-96be-48d0063bb8fb"},"vehicle_type_id":"4","last_reported":1773602383,"current_range_meters":36000,"station_id":"ce4bhgp2rcd13ifvqfe0","pricing_plan_id":"cebpf4jnsgd1na2vs0mg"},{"bike_id":"12f1d2b1-fb1d-483c-863b-27f8c8a4a5fe","system_id":"levelo_inurba_marseille","lat":43.26194,"lon":5.3744,"is_reserved":false,"is_disabled":false,"rental_uris":{"android":"levelo://app?vid=12f1d2b1-fb1d-483c-863b-27f8c8a4a5fe","ios":"levelo://app?vid=12f1d2b1-fb1d-483c-863b-27f8c8a4a5fe"},"vehicle_type_id":"4","last_reported":1773602383,"current_range_meters":30000,"station_id":"ce4bhgp2rcd13ifvqfc0","pricing_plan_id":"cebpf4jnsgd1na2vs0mg"},{"bike_id":"6a484aca-a49d-477e-8029-3d44800101b4","system_id":"levelo_inurba_marseille","lat":43.29228,"lon":5.36078,"is_reserved":false,"is_disabled":false,"rental_uris":{"android":"levelo://app?vid=6a484aca-a49d-477e-8029-3d44800101b4","ios":"levelo://app?vid=6a484aca-a49d-477e-8029-3d44800101b4"},"vehicle_type_id":"4","last_reported":1773602383,"current_range_meters":24400,"station_id":"ce4bhbh2rcd13ifvqeqg","pricing_plan_id":"cebpf4jnsgd1na2vs0mg"},{"bike_id":"193cbe9d-b7d2-421e-9f76-9c8c86aebb4a","system_id":"levelo_inurba_marseille","lat":43.33559,"lon":5.37446,"is_reserved":false,"is_disabled":false,"rental_uris":{"android":"levelo://app?vid=193cbe9d-b7d2-421e-9f76-9c8c86aebb4a","ios":"levelo://app?vid=193cbe9d-b7d2-421e-9f76-9c8c86aebb4a"},"vehicle_type_id":"4","last_reported":1773602383,"current_range_meters":12000,"station_id":"st_d46tts09ee8s73dlu43g","pricing_plan_id":"cebpf4jnsgd1na2vs0mg"},{"bike_id":"2eb4e2f7-b026-41fd-b14a-470029a1b823","system_id":"levelo_inurba_marseille","lat":43.28942,"lon":5.36377,"is_reserved":false,"is_disabled":false,"rental_uris":{"android":"levelo://app?vid=2eb4e2f7-b026-41fd-b14a-470029a1b823","ios":"levelo://app?vid=2eb4e2f7-b026-41fd-b14a-470029a1b823"},"vehicle_type_id":"4","last_reported":1773602383,"current_range_meters":12400,"station_id":"ce4bhc92rcd13ifvqetg","pricing_plan_id":"cebpf4jnsgd1na2vs0mg"},{"bike_id":"91de8c26-a4ae-4282-976b-d4b287103bef","system_id":"levelo_inurba_marseille","lat":43.29457,"lon":5.43309,"is_reserved":false,"is_disabled":false,"rental_uris":{"android":"levelo://app?vid=91de8c26-a4ae-4282-976b-d4b287103bef","ios":"levelo://app?vid=91de8c26-a4ae-4282-976b-d4b287103bef"},"vehicle_type_id":"4","last_reported":1773602383,"current_range_meters":9600,"station_id":"st_d3j5ugp08ojc73fj9d10","pricing_plan_id":"cebpf4jnsgd1na2vs0mg"},{"bike_id":"8bc84236-a04b-4659-82d6-41126e4720c2","system_id":"levelo_inurba_marseille","lat":43.26197,"lon":5.37936,"is_reserved":false,"is_disabled":false,"rental_uris":{"android":"levelo://app?vid=8bc84236-a04b-4659-82d6-41126e4720c2","ios":"levelo://app?vid=8bc84236-a04b-4659-82d6-41126e4720c2"},"vehicle_type_id":"4","last_reported":1773602383,"current_range_meters":16000,"station_id":"ce4bhjp2rcd13ifvqg90","pricing_plan_id":"cebpf4jnsgd1na2vs0mg"},{"bike_id":"b9622205-555a-4512-8f08-ceebf70cba43","system_id":"levelo_inurba_marseille","lat":43.317,"lon":5.40461,"is_reserved":false,"is_disabled":false,"rental_uris":{"android":"levelo://app?vid=b9622205-555a-4512-8f08-ceebf70cba43","ios":"levelo://app?vid=b9622205-555a-4512-8f08-ceebf70cba43"},"vehicle_type_id":"4","last_reported":1773602383,"current_range_meters":28800,"station_id":"ce4bh012rcd13ifvqd00","pricing_plan_id":"cebpf4jnsgd1na2vs0mg"},{"bike_id":"641cab82-5627-4c24-a3b6-dfa17af8941b","system_id":"levelo_inurba_marseille","lat":43.24555,"lon":5.39515,"is_reserved":false,"is_disabled":false,"rental_uris":{"android":"levelo://app?vid=641cab82-5627-4c24-a3b6-dfa17af8941b","ios":"levelo://app?vid=641cab82-5627-4c24-a3b6-dfa17af8941b"},"vehicle_type_id":"4","last_reported":1773602383,"current_range_meters":22800,"station_id":"ce4bhlp2rcd13ifvqgjg","pricing_plan_id":"cebpf4jnsgd1na2vs0mg"},{"bike_id":"fd7cf758-e983-4794-bd70-b9f498bd15ff","system_id":"levelo_inurba_marseille","lat":43.30122,"lon":5.39879,"is_reserved":false,"is_disabled":true,"rental_uris":{"android":"levelo://app?vid=fd7cf758-e983-4794-bd70-b9f498bd15ff","ios":"levelo://app?vid=fd7cf758-e983-4794-bd70-b9f498bd15ff"},"vehicle_type_id":"4","last_reported":1773602383,"current_range_meters":37600,"station_id":"ce4bh0h2rcd13ifvqd40","pricing_plan_id":"cebpf4jnsgd1na2vs0mg"},{"bike_id":"a979051f-4c38-4b8e-a795-1121cdf88367","system_id":"levelo_inurba_marseille","lat":43.31082,"lon":5.42443,"is_reserved":false,"is_disabled":false,"rental_uris":{"android":"levelo://app?vid=a979051f-4c38-4b8e-a795-1121cdf88367","ios":"levelo://app?vid=a979051f-4c38-4b8e-a795-1121cdf88367"},"vehicle_type_id":"4","last_reported":1773602383,"current_range_meters":40000,"station_id":"ce4bhp92rcd13ifvqhag","pricing_plan_id":"cebpf4jnsgd1na2vs0mg"},{"bike_id":"9fc9c49f-ae17-4b94-b8aa-ffe30b7768e5","system_id":"levelo_inurba_marseille","lat":43.24818,"lon":5.37455,"is_reserved":false,"is_disabled":false,"rental_uris":{"android":"levelo://app?vid=9fc9c49f-ae17-4b94-b8aa-ffe30b7768e5","ios":"levelo://app?vid=9fc9c49f-ae17-4b94-b8aa-ffe30b7768e5"},"vehicle_type_id":"4","last_reported":1773602383,"current_range_meters":8800,"station_id":"ce4bhgh2rcd13ifvqfb0","pricing_plan_id":"cebpf4jnsgd1na2vs0mg"},{"bike_id":"e4708870-4dff-4aa8-9967-07c6721658d1","system_id":"levelo_inurba_marseille","lat":43.28535,"lon":5.44094,"is_reserved":false,"is_disabled":false,"rental_uris":{"android":"levelo://app?vid=e4708870-4dff-4aa8-9967-07c6721658d1","ios":"levelo://app?vid=e4708870-4dff-4aa8-9967-07c6721658d1"},"vehicle_type_id":"4","last_reported":1773602383,"current_range_meters":25600,"station_id":"st_d3j3df2ikq2c7380ej80","pricing_plan_id":"cebpf4jnsgd1na2vs0mg"},{"bike_id":"3d7100c2-5bd5-4a18-a534-e313e8e3db75","system_id":"levelo_inurba_marseille","lat":43.286,"lon":5.3508,"is_reserved":false,"is_disabled":false,"rental_uris":{"android":"levelo://app?vid=3d7100c2-5bd5-4a18-a534-e313e8e3db75","ios":"levelo://app?vid=3d7100c2-5bd5-4a18-a534-e313e8e3db75"},"vehicle_type_id":"4","last_reported":1773602383,"current_range_meters":25600,"station_id":"ce4bhch2rcd13ifvqeug","pricing_plan_id":"cebpf4jnsgd1na2vs0mg"},{"bike_id":"24baf80d-27d3-4da0-8127-72f01437a9a6","system_id":"levelo_inurba_marseille","lat":43.29401,"lon":5.37854,"is_reserved":false,"is_disabled":false,"rental_uris":{"android":"levelo://app?vid=24baf80d-27d3-4da0-8127-72f01437a9a6","ios":"levelo://app?vid=24baf80d-27d3-4da0-8127-72f01437a9a6"},"vehicle_type_id":"4","last_reported":1773602383,"current_range_meters":16800,"station_id":"ce4bgjh2rcd13ifvqbf0","pricing_plan_id":"cebpf4jnsgd1na2vs0mg"},{"bike_id":"acbbef11-1175-4fc2-be23-3149665f36b3","system_id":"levelo_inurba_marseille","lat":43.30513,"lon":5.36479,"is_reserved":false,"is_disabled":true,"rental_uris":{"android":"levelo://app?vid=acbbef11-1175-4fc2-be23-3149665f36b3","ios":"levelo://app?vid=acbbef11-1175-4fc2-be23-3149665f36b3"},"vehicle_type_id":"4","last_reported":1773602383,"current_range_meters":20400,"station_id":"","pricing_plan_id":"cebpf4jnsgd1na2vs0mg"},{"bike_id":"146924aa-0df6-4383-ae0f-7b8a2ad4f685","system_id":"levelo_inurba_marseille","lat":43.21215,"lon":5.35084,"is_reserved":false,"is_disabled":false,"rental_uris":{"android":"levelo://app?vid=146924aa-0df6-4383-ae0f-7b8a2ad4f685","ios":"levelo://app?vid=146924aa-0df6-4383-ae0f-7b8a2ad4f685"},"vehicle_type_id":"4","last_reported":1773602383,"current_range_meters":14000,"station_id":"st_cvj6sg6p6f1abm77japg","pricing_plan_id":"cebpf4jnsgd1na2vs0mg"},{"bike_id":"a398e305-5bb3-4ba2-82a4-102dfa2af1e8","system_id":"levelo_inurba_marseille","lat":43.21739,"lon":5.34609,"is_reserved":false,"is_disabled":false,"rental_uris":{"android":"levelo://app?vid=a398e305-5bb3-4ba2-82a4-102dfa2af1e8","ios":"levelo://app?vid=a398e305-5bb3-4ba2-82a4-102dfa2af1e8"},"vehicle_type_id":"4","last_reported":1773602383,"current_range_meters":28000,"station_id":"st_cvj6r9ubvosntc0bgbag","pricing_plan_id":"cebpf4jnsgd1na2vs0mg"},{"bike_id":"2a9972cc-1ce4-4329-aab1-44e4bf88f58e","system_id":"levelo_inurba_marseille","lat":43.30309,"lon":5.36889,"is_reserved":false,"is_disabled":false,"rental_uris":{"android":"levelo://app?vid=2a9972cc-1ce4-4329-aab1-44e4bf88f58e","ios":"levelo://app?vid=2a9972cc-1ce4-4329-aab1-44e4bf88f58e"},"vehicle_type_id":"4","last_reported":1773602383,"current_range_meters":35200,"station_id":"ce4bgqh2rcd13ifvqc5g","pricing_plan_id":"cebpf4jnsgd1na2vs0mg"},{"bike_id":"39511bac-a378-495c-8620-d864725c8485","system_id":"levelo_inurba_marseille","lat":43.25092,"lon":5.39518,"is_reserved":false,"is_disabled":false,"rental_uris":{"android":"levelo://app?vid=39511bac-a378-495c-8620-d864725c8485","ios":"levelo://app?vid=39511bac-a378-495c-8620-d864725c8485"},"vehicle_type_id":"4","last_reported":1773602383,"current_range_meters":39200,"station_id":"ce4bhm12rcd13ifvqgkg","pricing_plan_id":"cebpf4jnsgd1na2vs0mg"},{"bike_id":"673dd333-2d1b-407c-809d-6056f9ddaa6b","system_id":"levelo_inurba_marseille","lat":43.28248,"lon":5.35097,"is_reserved":false,"is_disabled":false,"rental_uris":{"android":"levelo://app?vid=673dd333-2d1b-407c-809d-6056f9ddaa6b","ios":"levelo://app?vid=673dd333-2d1b-407c-809d-6056f9ddaa6b"},"vehicle_type_id":"4","last_reported":1773602383,"current_range_meters":39200,"station_id":"ce4bhbp2rcd13ifvqerg","pricing_plan_id":"cebpf4jnsgd1na2vs0mg"},{"bike_id":"3a46d46a-3434-4c09-9481-ae1049d546b0","system_id":"levelo_inurba_marseille","lat":43.3144,"lon":5.37328,"is_reserved":false,"is_disabled":false,"rental_uris":{"android":"levelo://app?vid=3a46d46a-3434-4c09-9481-ae1049d546b0","ios":"levelo://app?vid=3a46d46a-3434-4c09-9481-ae1049d546b0"},"vehicle_type_id":"4","last_reported":1773602383,"current_range_meters":37600,"station_id":"ce4bgt12rcd13ifvqcd0","pricing_plan_id":"cebpf4jnsgd1na2vs0mg"},{"bike_id":"64069c02-c977-4af0-a752-efe4502ec874","system_id":"levelo_inurba_marseille","lat":43.28479,"lon":5.4839,"is_reserved":false,"is_disabled":false,"rental_uris":{"android":"levelo://app?vid=64069c02-c977-4af0-a752-efe4502ec874","ios":"levelo://app?vid=64069c02-c977-4af0-a752-efe4502ec874"},"vehicle_type_id":"4","last_reported":1773602383,"current_range_meters":36400,"station_id":"","pricing_plan_id":"cebpf4jnsgd1na2vs0mg"},{"bike_id":"0ff0d14d-48ca-4630-8046-3c4847dd67df","system_id":"levelo_inurba_marseille","lat":43.25009,"lon":5.38931,"is_reserved":false,"is_disabled":false,"rental_uris":{"android":"levelo://app?vid=0ff0d14d-48ca-4630-8046-3c4847dd67df","ios":"levelo://app?vid=0ff0d14d-48ca-4630-8046-3c4847dd67df"},"vehicle_type_id":"4","last_reported":1773602383,"current_range_meters":25600,"station_id":"ce4bhgp2rcd13ifvqfd0","pricing_plan_id":"cebpf4jnsgd1na2vs0mg"},{"bike_id":"0c60e9f7-419a-402d-bbe7-ab8848add394","system_id":"levelo_inurba_marseille","lat":43.3165,"lon":5.40532,"is_reserved":false,"is_disabled":false,"rental_uris":{"android":"levelo://app?vid=0c60e9f7-419a-402d-bbe7-ab8848add394","ios":"levelo://app?vid=0c60e9f7-419a-402d-bbe7-ab8848add394"},"vehicle_type_id":"4","last_reported":1773602383,"current_range_meters":29600,"station_id":"","pricing_plan_id":"cebpf4jnsgd1na2vs0mg"},{"bike_id":"03f34d7d-917c-4dbc-a948-c509cfdaf4df","system_id":"levelo_inurba_marseille","lat":43.23375,"lon":5.41248,"is_reserved":false,"is_disabled":false,"rental_uris":{"android":"levelo://app?vid=03f34d7d-917c-4dbc-a948-c509cfdaf4df","ios":"levelo://app?vid=03f34d7d-917c-4dbc-a948-c509cfdaf4df"},"vehicle_type_id":"4","last_reported":1773602383,"current_range_meters":20000,"station_id":"","pricing_plan_id":"cebpf4jnsgd1na2vs0mg"},{"bike_id":"6ba02607-5543-4986-b3cb-a1df5f02d1dd","system_id":"levelo_inurba_marseille","lat":43.31371,"lon":5.3674,"is_reserved":false,"is_disabled":false,"rental_uris":{"android":"levelo://app?vid=6ba02607-5543-4986-b3cb-a1df5f02d1dd","ios":"levelo://app?vid=6ba02607-5543-4986-b3cb-a1df5f02d1dd"},"vehicle_type_id":"4","last_reported":1773602383,"current_range_meters":37600,"station_id":"ce4bgr92rcd13ifvqc6g","pricing_plan_id":"cebpf4jnsgd1na2vs0mg"},{"bike_id":"68f8bcec-7291-4d62-b8e4-32de3382d5ae","system_id":"levelo_inurba_marseille","lat":43.30169,"lon":5.37419,"is_reserved":false,"is_disabled":false,"rental_uris":{"android":"levelo://app?vid=68f8bcec-7291-4d62-b8e4-32de3382d5ae","ios":"levelo://app?vid=68f8bcec-7291-4d62-b8e4-32de3382d5ae"},"vehicle_type_id":"4","last_reported":1773602383,"current_range_meters":8800,"station_id":"ce4bgs92rcd13ifvqcc0","pricing_plan_id":"cebpf4jnsgd1na2vs0mg"},{"bike_id":"7bf0a830-d498-457c-a030-91c3bd84fed4","system_id":"levelo_inurba_marseille","lat":43.23212,"lon":5.35576,"is_reserved":false,"is_disabled":false,"rental_uris":{"android":"levelo://app?vid=7bf0a830-d498-457c-a030-91c3bd84fed4","ios":"levelo://app?vid=7bf0a830-d498-457c-a030-91c3bd84fed4"},"vehicle_type_id":"4","last_reported":1773602383,"current_range_meters":30400,"station_id":"ce4bhu92rcd13ifvqi70","pricing_plan_id":"cebpf4jnsgd1na2vs0mg"},{"bike_id":"db5fc025-f609-443b-b481-2f6cefb137d4","system_id":"levelo_inurba_marseille","lat":43.28482,"lon":5.48383,"is_reserved":false,"is_disabled":false,"rental_uris":{"android":"levelo://app?vid=db5fc025-f609-443b-b481-2f6cefb137d4","ios":"levelo://app?vid=db5fc025-f609-443b-b481-2f6cefb137d4"},"vehicle_type_id":"4","last_reported":1773602383,"current_range_meters":27600,"station_id":"","pricing_plan_id":"cebpf4jnsgd1na2vs0mg"},{"bike_id":"3b85e9e8-4938-4ae7-a83e-c8e2526a550f","system_id":"levelo_inurba_marseille","lat":43.24182,"lon":5.36427,"is_reserved":false,"is_disabled":false,"rental_uris":{"android":"levelo://app?vid=3b85e9e8-4938-4ae7-a83e-c8e2526a550f","ios":"levelo://app?vid=3b85e9e8-4938-4ae7-a83e-c8e2526a550f"},"vehicle_type_id":"4","last_reported":1773602383,"current_range_meters":9200,"station_id":"cpo36qri1sfpv3e86is0","pricing_plan_id":"cebpf4jnsgd1na2vs0mg"},{"bike_id":"c6384ce6-6b54-4b6d-b227-3cffde6120a6","system_id":"levelo_inurba_marseille","lat":43.30922,"lon":5.40186,"is_reserved":false,"is_disabled":true,"rental_uris":{"android":"levelo://app?vid=c6384ce6-6b54-4b6d-b227-3cffde6120a6","ios":"levelo://app?vid=c6384ce6-6b54-4b6d-b227-3cffde6120a6"},"vehicle_type_id":"4","last_reported":1773602383,"current_range_meters":30000,"station_id":"ce4bgvp2rcd13ifvqct0","pricing_plan_id":"cebpf4jnsgd1na2vs0mg"},{"bike_id":"291874e8-1076-4212-bc5a-785d26390212","system_id":"levelo_inurba_marseille","lat":43.27966,"lon":5.41038,"is_reserved":false,"is_disabled":false,"rental_uris":{"android":"levelo://app?vid=291874e8-1076-4212-bc5a-785d26390212","ios":"levelo://app?vid=291874e8-1076-4212-bc5a-785d26390212"},"vehicle_type_id":"4","last_reported":1773602383,"current_range_meters":17600,"station_id":"ce4bhnp2rcd13ifvqh0g","pricing_plan_id":"cebpf4jnsgd1na2vs0mg"},{"bike_id":"3c1ed8e9-99fc-4294-894f-2389c8144b0d","system_id":"levelo_inurba_marseille","lat":43.24693,"lon":5.3817,"is_reserved":false,"is_disabled":false,"rental_uris":{"android":"levelo://app?vid=3c1ed8e9-99fc-4294-894f-2389c8144b0d","ios":"levelo://app?vid=3c1ed8e9-99fc-4294-894f-2389c8144b0d"},"vehicle_type_id":"4","last_reported":1773602383,"current_range_meters":16400,"station_id":"ce4bhih2rcd13ifvqfr0","pricing_plan_id":"cebpf4jnsgd1na2vs0mg"},{"bike_id":"e3992951-2693-423e-8845-e8948be986e5","system_id":"levelo_inurba_marseille","lat":43.32497,"lon":5.36581,"is_reserved":false,"is_disabled":false,"rental_uris":{"android":"levelo://app?vid=e3992951-2693-423e-8845-e8948be986e5","ios":"levelo://app?vid=e3992951-2693-423e-8845-e8948be986e5"},"vehicle_type_id":"4","last_reported":1773602383,"current_range_meters":39200,"station_id":"ce4bhs12rcd13ifvqhvg","pricing_plan_id":"cebpf4jnsgd1na2vs0mg"},{"bike_id":"e7ae5c95-d527-48cc-944c-1c33cfee8730","system_id":"levelo_inurba_marseille","lat":43.27061,"lon":5.42275,"is_reserved":false,"is_disabled":false,"rental_uris":{"android":"levelo://app?vid=e7ae5c95-d527-48cc-944c-1c33cfee8730","ios":"levelo://app?vid=e7ae5c95-d527-48cc-944c-1c33cfee8730"},"vehicle_type_id":"4","last_reported":1773602383,"current_range_meters":28000,"station_id":"ce4bhk92rcd13ifvqgb0","pricing_plan_id":"cebpf4jnsgd1na2vs0mg"},{"bike_id":"f257dd80-e766-437d-a2a6-656afc6644e8","system_id":"levelo_inurba_marseille","lat":43.30309,"lon":5.4044,"is_reserved":false,"is_disabled":false,"rental_uris":{"android":"levelo://app?vid=f257dd80-e766-437d-a2a6-656afc6644e8","ios":"levelo://app?vid=f257dd80-e766-437d-a2a6-656afc6644e8"},"vehicle_type_id":"4","last_reported":1773602383,"current_range_meters":39200,"station_id":"ce4bh012rcd13ifvqd10","pricing_plan_id":"cebpf4jnsgd1na2vs0mg"},{"bike_id":"de263c28-22df-409e-b364-e2f185fde54e","system_id":"levelo_inurba_marseille","lat":43.29265,"lon":5.3846,"is_reserved":false,"is_disabled":false,"rental_uris":{"android":"levelo://app?vid=de263c28-22df-409e-b364-e2f185fde54e","ios":"levelo://app?vid=de263c28-22df-409e-b364-e2f185fde54e"},"vehicle_type_id":"4","last_reported":1773602383,"current_range_meters":28800,"station_id":"ce4bh692rcd13ifvqea0","pricing_plan_id":"cebpf4jnsgd1na2vs0mg"},{"bike_id":"c0c5d9dc-928d-48b1-bc04-fe5d71707694","system_id":"levelo_inurba_marseille","lat":43.32359,"lon":5.36763,"is_reserved":false,"is_disabled":false,"rental_uris":{"android":"levelo://app?vid=c0c5d9dc-928d-48b1-bc04-fe5d71707694","ios":"levelo://app?vid=c0c5d9dc-928d-48b1-bc04-fe5d71707694"},"vehicle_type_id":"4","last_reported":1773602383,"current_range_meters":32800,"station_id":"ce4bhsh2rcd13ifvqi2g","pricing_plan_id":"cebpf4jnsgd1na2vs0mg"},{"bike_id":"22360622-7e81-4b7a-8e6d-37ee8465bcdb","system_id":"levelo_inurba_marseille","lat":43.28082,"lon":5.39643,"is_reserved":false,"is_disabled":true,"rental_uris":{"android":"levelo://app?vid=22360622-7e81-4b7a-8e6d-37ee8465bcdb","ios":"levelo://app?vid=22360622-7e81-4b7a-8e6d-37ee8465bcdb"},"vehicle_type_id":"4","last_reported":1773602383,"current_range_meters":35200,"station_id":"ce4bho12rcd13ifvqh2g","pricing_plan_id":"cebpf4jnsgd1na2vs0mg"},{"bike_id":"37d43fd8-cdec-4372-bbf9-45ba3794afe0","system_id":"levelo_inurba_marseille","lat":43.29451,"lon":5.39753,"is_reserved":false,"is_disabled":true,"rental_uris":{"android":"levelo://app?vid=37d43fd8-cdec-4372-bbf9-45ba3794afe0","ios":"levelo://app?vid=37d43fd8-cdec-4372-bbf9-45ba3794afe0"},"vehicle_type_id":"4","last_reported":1773602383,"current_range_meters":22800,"station_id":"ce4bh3h2rcd13ifvqdo0","pricing_plan_id":"cebpf4jnsgd1na2vs0mg"},{"bike_id":"475f6229-3b8f-4eab-b8fd-2fbd86f0fb75","system_id":"levelo_inurba_marseille","lat":43.24155,"lon":5.36408,"is_reserved":false,"is_disabled":false,"rental_uris":{"android":"levelo://app?vid=475f6229-3b8f-4eab-b8fd-2fbd86f0fb75","ios":"levelo://app?vid=475f6229-3b8f-4eab-b8fd-2fbd86f0fb75"},"vehicle_type_id":"4","last_reported":1773602383,"current_range_meters":34800,"station_id":"cpo36qri1sfpv3e86is0","pricing_plan_id":"cebpf4jnsgd1na2vs0mg"},{"bike_id":"aaf56433-ee77-470c-b7b6-221e680ae993","system_id":"levelo_inurba_marseille","lat":43.22589,"lon":5.41648,"is_reserved":false,"is_disabled":false,"rental_uris":{"android":"levelo://app?vid=aaf56433-ee77-470c-b7b6-221e680ae993","ios":"levelo://app?vid=aaf56433-ee77-470c-b7b6-221e680ae993"},"vehicle_type_id":"4","last_reported":1773602383,"current_range_meters":37600,"station_id":"st_d2o4gvlbi1j2169b742g","pricing_plan_id":"cebpf4jnsgd1na2vs0mg"},{"bike_id":"3ff3df78-eee4-4716-9de4-5e86fa44030b","system_id":"levelo_inurba_marseille","lat":43.30149,"lon":5.37403,"is_reserved":false,"is_disabled":false,"rental_uris":{"android":"levelo://app?vid=3ff3df78-eee4-4716-9de4-5e86fa44030b","ios":"levelo://app?vid=3ff3df78-eee4-4716-9de4-5e86fa44030b"},"vehicle_type_id":"4","last_reported":1773602383,"current_range_meters":39200,"station_id":"ce4bgs92rcd13ifvqcc0","pricing_plan_id":"cebpf4jnsgd1na2vs0mg"},{"bike_id":"fa95127e-b64f-4956-80d7-20753c90be50","system_id":"levelo_inurba_marseille","lat":43.29447,"lon":5.39751,"is_reserved":false,"is_disabled":true,"rental_uris":{"android":"levelo://app?vid=fa95127e-b64f-4956-80d7-20753c90be50","ios":"levelo://app?vid=fa95127e-b64f-4956-80d7-20753c90be50"},"vehicle_type_id":"4","last_reported":1773602383,"current_range_meters":36400,"station_id":"ce4bh3h2rcd13ifvqdo0","pricing_plan_id":"cebpf4jnsgd1na2vs0mg"},{"bike_id":"18cb493e-4646-4c2a-8148-9694f41e134b","system_id":"levelo_inurba_marseille","lat":43.28259,"lon":5.35073,"is_reserved":false,"is_disabled":false,"rental_uris":{"android":"levelo://app?vid=18cb493e-4646-4c2a-8148-9694f41e134b","ios":"levelo://app?vid=18cb493e-4646-4c2a-8148-9694f41e134b"},"vehicle_type_id":"4","last_reported":1773602383,"current_range_meters":38400,"station_id":"ce4bhbp2rcd13ifvqerg","pricing_plan_id":"cebpf4jnsgd1na2vs0mg"},{"bike_id":"eb259eb3-17cb-4932-bfd9-164bb2aaf2fe","system_id":"levelo_inurba_marseille","lat":43.23194,"lon":5.35547,"is_reserved":false,"is_disabled":false,"rental_uris":{"android":"levelo://app?vid=eb259eb3-17cb-4932-bfd9-164bb2aaf2fe","ios":"levelo://app?vid=eb259eb3-17cb-4932-bfd9-164bb2aaf2fe"},"vehicle_type_id":"4","last_reported":1773602383,"current_range_meters":37600,"station_id":"ce4bhu92rcd13ifvqi70","pricing_plan_id":"cebpf4jnsgd1na2vs0mg"},{"bike_id":"9f1129e7-2235-4faf-8100-e46743b37449","system_id":"levelo_inurba_marseille","lat":43.25727,"lon":5.41132,"is_reserved":false,"is_disabled":false,"rental_uris":{"android":"levelo://app?vid=9f1129e7-2235-4faf-8100-e46743b37449","ios":"levelo://app?vid=9f1129e7-2235-4faf-8100-e46743b37449"},"vehicle_type_id":"4","last_reported":1773602383,"current_range_meters":36800,"station_id":"ce4bhkp2rcd13ifvqgd0","pricing_plan_id":"cebpf4jnsgd1na2vs0mg"},{"bike_id":"41b16539-d93d-4e64-a8e4-b7d380ab4e3b","system_id":"levelo_inurba_marseille","lat":43.25039,"lon":5.38942,"is_reserved":false,"is_disabled":false,"rental_uris":{"android":"levelo://app?vid=41b16539-d93d-4e64-a8e4-b7d380ab4e3b","ios":"levelo://app?vid=41b16539-d93d-4e64-a8e4-b7d380ab4e3b"},"vehicle_type_id":"4","last_reported":1773602383,"current_range_meters":10000,"station_id":"ce4bhgp2rcd13ifvqfd0","pricing_plan_id":"cebpf4jnsgd1na2vs0mg"},{"bike_id":"f99da3b0-cfd6-4344-bb1c-6c34844412c7","system_id":"levelo_inurba_marseille","lat":43.3109,"lon":5.42434,"is_reserved":false,"is_disabled":false,"rental_uris":{"android":"levelo://app?vid=f99da3b0-cfd6-4344-bb1c-6c34844412c7","ios":"levelo://app?vid=f99da3b0-cfd6-4344-bb1c-6c34844412c7"},"vehicle_type_id":"4","last_reported":1773602383,"current_range_meters":25200,"station_id":"ce4bhp92rcd13ifvqhag","pricing_plan_id":"cebpf4jnsgd1na2vs0mg"},{"bike_id":"226e61ac-0637-4869-8182-3703f231ef81","system_id":"levelo_inurba_marseille","lat":43.29627,"lon":5.37746,"is_reserved":false,"is_disabled":false,"rental_uris":{"android":"levelo://app?vid=226e61ac-0637-4869-8182-3703f231ef81","ios":"levelo://app?vid=226e61ac-0637-4869-8182-3703f231ef81"},"vehicle_type_id":"4","last_reported":1773602383,"current_range_meters":24800,"station_id":"ce4bgi92rcd13ifvqb90","pricing_plan_id":"cebpf4jnsgd1na2vs0mg"},{"bike_id":"27ac43ef-b310-4729-8ed6-886c4b81d2ae","system_id":"levelo_inurba_marseille","lat":43.23181,"lon":5.35528,"is_reserved":false,"is_disabled":false,"rental_uris":{"android":"levelo://app?vid=27ac43ef-b310-4729-8ed6-886c4b81d2ae","ios":"levelo://app?vid=27ac43ef-b310-4729-8ed6-886c4b81d2ae"},"vehicle_type_id":"4","last_reported":1773602383,"current_range_meters":20000,"station_id":"ce4bhu92rcd13ifvqi70","pricing_plan_id":"cebpf4jnsgd1na2vs0mg"},{"bike_id":"a4951a30-7084-4efc-835c-7b8db4704dd8","system_id":"levelo_inurba_marseille","lat":43.26953,"lon":5.40255,"is_reserved":false,"is_disabled":false,"rental_uris":{"android":"levelo://app?vid=a4951a30-7084-4efc-835c-7b8db4704dd8","ios":"levelo://app?vid=a4951a30-7084-4efc-835c-7b8db4704dd8"},"vehicle_type_id":"4","last_reported":1773602383,"current_range_meters":39200,"station_id":"cjm6bp8fraef2m0cb0m0","pricing_plan_id":"cebpf4jnsgd1na2vs0mg"},{"bike_id":"a79fcd2b-2ebe-4f81-a02f-4d6a67e6cab1","system_id":"levelo_inurba_marseille","lat":43.30121,"lon":5.43113,"is_reserved":false,"is_disabled":false,"rental_uris":{"android":"levelo://app?vid=a79fcd2b-2ebe-4f81-a02f-4d6a67e6cab1","ios":"levelo://app?vid=a79fcd2b-2ebe-4f81-a02f-4d6a67e6cab1"},"vehicle_type_id":"4","last_reported":1773602383,"current_range_meters":10000,"station_id":"st_d3js3co5814s73ftftug","pricing_plan_id":"cebpf4jnsgd1na2vs0mg"},{"bike_id":"6e8cbc55-1efb-4ebc-b70e-2a9253dbdc8a","system_id":"levelo_inurba_marseille","lat":43.30768,"lon":5.4247,"is_reserved":false,"is_disabled":false,"rental_uris":{"android":"levelo://app?vid=6e8cbc55-1efb-4ebc-b70e-2a9253dbdc8a","ios":"levelo://app?vid=6e8cbc55-1efb-4ebc-b70e-2a9253dbdc8a"},"vehicle_type_id":"4","last_reported":1773602383,"current_range_meters":20800,"station_id":"st_cvj6ca6bvosntc0bfgr0","pricing_plan_id":"cebpf4jnsgd1na2vs0mg"},{"bike_id":"fceacbae-990b-4213-8c3b-c375f2e5e911","system_id":"levelo_inurba_marseille","lat":43.29833,"lon":5.38078,"is_reserved":false,"is_disabled":true,"rental_uris":{"android":"levelo://app?vid=fceacbae-990b-4213-8c3b-c375f2e5e911","ios":"levelo://app?vid=fceacbae-990b-4213-8c3b-c375f2e5e911"},"vehicle_type_id":"4","last_reported":1773602383,"current_range_meters":17200,"station_id":"ce4bgip2rcd13ifvqbb0","pricing_plan_id":"cebpf4jnsgd1na2vs0mg"},{"bike_id":"88cb8c7f-0ccd-4a01-91f9-3a530d0e94ef","system_id":"levelo_inurba_marseille","lat":43.28611,"lon":5.35112,"is_reserved":false,"is_disabled":false,"rental_uris":{"android":"levelo://app?vid=88cb8c7f-0ccd-4a01-91f9-3a530d0e94ef","ios":"levelo://app?vid=88cb8c7f-0ccd-4a01-91f9-3a530d0e94ef"},"vehicle_type_id":"4","last_reported":1773602383,"current_range_meters":36400,"station_id":"ce4bhch2rcd13ifvqeug","pricing_plan_id":"cebpf4jnsgd1na2vs0mg"},{"bike_id":"466d5686-152b-40db-b82b-75b5e82313ee","system_id":"levelo_inurba_marseille","lat":43.30119,"lon":5.37425,"is_reserved":false,"is_disabled":false,"rental_uris":{"android":"levelo://app?vid=466d5686-152b-40db-b82b-75b5e82313ee","ios":"levelo://app?vid=466d5686-152b-40db-b82b-75b5e82313ee"},"vehicle_type_id":"4","last_reported":1773602383,"current_range_meters":16000,"station_id":"ce4bgs92rcd13ifvqcc0","pricing_plan_id":"cebpf4jnsgd1na2vs0mg"},{"bike_id":"32358ead-44ff-491d-882b-0c4122b7d796","system_id":"levelo_inurba_marseille","lat":43.21194,"lon":5.35074,"is_reserved":false,"is_disabled":true,"rental_uris":{"android":"levelo://app?vid=32358ead-44ff-491d-882b-0c4122b7d796","ios":"levelo://app?vid=32358ead-44ff-491d-882b-0c4122b7d796"},"vehicle_type_id":"4","last_reported":1773602383,"current_range_meters":0,"station_id":"st_cvj6sg6p6f1abm77japg","pricing_plan_id":"cebpf4jnsgd1na2vs0mg"},{"bike_id":"c5bffb78-664b-4d92-be59-5528982594be","system_id":"levelo_inurba_marseille","lat":43.25079,"lon":5.39523,"is_reserved":false,"is_disabled":false,"rental_uris":{"android":"levelo://app?vid=c5bffb78-664b-4d92-be59-5528982594be","ios":"levelo://app?vid=c5bffb78-664b-4d92-be59-5528982594be"},"vehicle_type_id":"4","last_reported":1773602383,"current_range_meters":20400,"station_id":"ce4bhm12rcd13ifvqgkg","pricing_plan_id":"cebpf4jnsgd1na2vs0mg"},{"bike_id":"88baf1fe-4b9b-4c52-81f7-dd067c921a9f","system_id":"levelo_inurba_marseille","lat":43.29832,"lon":5.44083,"is_reserved":false,"is_disabled":false,"rental_uris":{"android":"levelo://app?vid=88baf1fe-4b9b-4c52-81f7-dd067c921a9f","ios":"levelo://app?vid=88baf1fe-4b9b-4c52-81f7-dd067c921a9f"},"vehicle_type_id":"4","last_reported":1773602383,"current_range_meters":9600,"station_id":"st_d3jp68qikq2c7381ktn0","pricing_plan_id":"cebpf4jnsgd1na2vs0mg"},{"bike_id":"18217d73-d36b-4021-98d3-29812d614da9","system_id":"levelo_inurba_marseille","lat":43.23966,"lon":5.36642,"is_reserved":false,"is_disabled":true,"rental_uris":{"android":"levelo://app?vid=18217d73-d36b-4021-98d3-29812d614da9","ios":"levelo://app?vid=18217d73-d36b-4021-98d3-29812d614da9"},"vehicle_type_id":"4","last_reported":1773602383,"current_range_meters":39200,"station_id":"ce4bhi12rcd13ifvqfp0","pricing_plan_id":"cebpf4jnsgd1na2vs0mg"},{"bike_id":"fc2123ba-d009-4e3e-9d64-8369f2cbeba7","system_id":"levelo_inurba_marseille","lat":43.31337,"lon":5.39702,"is_reserved":false,"is_disabled":false,"rental_uris":{"android":"levelo://app?vid=fc2123ba-d009-4e3e-9d64-8369f2cbeba7","ios":"levelo://app?vid=fc2123ba-d009-4e3e-9d64-8369f2cbeba7"},"vehicle_type_id":"4","last_reported":1773602383,"current_range_meters":31200,"station_id":"ce4bgvp2rcd13ifvqcu0","pricing_plan_id":"cebpf4jnsgd1na2vs0mg"},{"bike_id":"e4c5b372-6892-4028-8a07-7aa5c5a4433c","system_id":"levelo_inurba_marseille","lat":43.27212,"lon":5.39119,"is_reserved":false,"is_disabled":true,"rental_uris":{"android":"levelo://app?vid=e4c5b372-6892-4028-8a07-7aa5c5a4433c","ios":"levelo://app?vid=e4c5b372-6892-4028-8a07-7aa5c5a4433c"},"vehicle_type_id":"4","last_reported":1773602383,"current_range_meters":11600,"station_id":"ce4bhhp2rcd13ifvqfm0","pricing_plan_id":"cebpf4jnsgd1na2vs0mg"},{"bike_id":"e9f4ad97-2705-426c-ac8f-f586afa31954","system_id":"levelo_inurba_marseille","lat":43.25585,"lon":5.38232,"is_reserved":false,"is_disabled":false,"rental_uris":{"android":"levelo://app?vid=e9f4ad97-2705-426c-ac8f-f586afa31954","ios":"levelo://app?vid=e9f4ad97-2705-426c-ac8f-f586afa31954"},"vehicle_type_id":"4","last_reported":1773602383,"current_range_meters":32000,"station_id":"ce4bhih2rcd13ifvqfs0","pricing_plan_id":"cebpf4jnsgd1na2vs0mg"},{"bike_id":"534fae4e-5467-465e-9b5b-6a06a0e23f60","system_id":"levelo_inurba_marseille","lat":43.29208,"lon":5.36094,"is_reserved":false,"is_disabled":false,"rental_uris":{"android":"levelo://app?vid=534fae4e-5467-465e-9b5b-6a06a0e23f60","ios":"levelo://app?vid=534fae4e-5467-465e-9b5b-6a06a0e23f60"},"vehicle_type_id":"4","last_reported":1773602383,"current_range_meters":30400,"station_id":"ce4bhbh2rcd13ifvqeqg","pricing_plan_id":"cebpf4jnsgd1na2vs0mg"},{"bike_id":"f986342b-4108-4ed3-b188-ff46fe04b13d","system_id":"levelo_inurba_marseille","lat":43.25827,"lon":5.39408,"is_reserved":false,"is_disabled":true,"rental_uris":{"android":"levelo://app?vid=f986342b-4108-4ed3-b188-ff46fe04b13d","ios":"levelo://app?vid=f986342b-4108-4ed3-b188-ff46fe04b13d"},"vehicle_type_id":"4","last_reported":1773602383,"current_range_meters":36400,"station_id":"ce4bhip2rcd13ifvqft0","pricing_plan_id":"cebpf4jnsgd1na2vs0mg"},{"bike_id":"d008a3ca-bdab-43f7-957e-465391a2d48d","system_id":"levelo_inurba_marseille","lat":43.31744,"lon":5.42422,"is_reserved":false,"is_disabled":false,"rental_uris":{"android":"levelo://app?vid=d008a3ca-bdab-43f7-957e-465391a2d48d","ios":"levelo://app?vid=d008a3ca-bdab-43f7-957e-465391a2d48d"},"vehicle_type_id":"4","last_reported":1773602383,"current_range_meters":24800,"station_id":"ce4bhp92rcd13ifvqhbg","pricing_plan_id":"cebpf4jnsgd1na2vs0mg"},{"bike_id":"620ff2af-052e-41b1-a64f-0ec58b0cc2e0","system_id":"levelo_inurba_marseille","lat":43.3055,"lon":5.36547,"is_reserved":false,"is_disabled":false,"rental_uris":{"android":"levelo://app?vid=620ff2af-052e-41b1-a64f-0ec58b0cc2e0","ios":"levelo://app?vid=620ff2af-052e-41b1-a64f-0ec58b0cc2e0"},"vehicle_type_id":"4","last_reported":1773602383,"current_range_meters":36800,"station_id":"ce4bgs12rcd13ifvqcag","pricing_plan_id":"cebpf4jnsgd1na2vs0mg"},{"bike_id":"65807dd8-4e9a-4424-87d6-078114446bc9","system_id":"levelo_inurba_marseille","lat":43.25134,"lon":5.40354,"is_reserved":false,"is_disabled":false,"rental_uris":{"android":"levelo://app?vid=65807dd8-4e9a-4424-87d6-078114446bc9","ios":"levelo://app?vid=65807dd8-4e9a-4424-87d6-078114446bc9"},"vehicle_type_id":"4","last_reported":1773602383,"current_range_meters":39200,"station_id":"ce4bhlh2rcd13ifvqgig","pricing_plan_id":"cebpf4jnsgd1na2vs0mg"},{"bike_id":"31d68f18-a183-4639-bc58-6ce8df3e66e0","system_id":"levelo_inurba_marseille","lat":43.29623,"lon":5.3774,"is_reserved":false,"is_disabled":false,"rental_uris":{"android":"levelo://app?vid=31d68f18-a183-4639-bc58-6ce8df3e66e0","ios":"levelo://app?vid=31d68f18-a183-4639-bc58-6ce8df3e66e0"},"vehicle_type_id":"4","last_reported":1773602383,"current_range_meters":20000,"station_id":"ce4bgi92rcd13ifvqb90","pricing_plan_id":"cebpf4jnsgd1na2vs0mg"},{"bike_id":"8dc893b6-b8fc-4341-8f31-2fa3ce778ecc","system_id":"levelo_inurba_marseille","lat":43.29924,"lon":5.38149,"is_reserved":false,"is_disabled":false,"rental_uris":{"android":"levelo://app?vid=8dc893b6-b8fc-4341-8f31-2fa3ce778ecc","ios":"levelo://app?vid=8dc893b6-b8fc-4341-8f31-2fa3ce778ecc"},"vehicle_type_id":"4","last_reported":1773602383,"current_range_meters":5600,"station_id":"ce4bgj12rcd13ifvqbc0","pricing_plan_id":"cebpf4jnsgd1na2vs0mg"},{"bike_id":"2da74aad-d5d0-4aee-be79-0fb398f1f69b","system_id":"levelo_inurba_marseille","lat":43.2979,"lon":5.38086,"is_reserved":false,"is_disabled":true,"rental_uris":{"android":"levelo://app?vid=2da74aad-d5d0-4aee-be79-0fb398f1f69b","ios":"levelo://app?vid=2da74aad-d5d0-4aee-be79-0fb398f1f69b"},"vehicle_type_id":"4","last_reported":1773602383,"current_range_meters":19200,"station_id":"ce4bgip2rcd13ifvqbb0","pricing_plan_id":"cebpf4jnsgd1na2vs0mg"},{"bike_id":"b61fc4f0-0b5d-40e3-b924-ba214b5f1194","system_id":"levelo_inurba_marseille","lat":43.27829,"lon":5.40682,"is_reserved":false,"is_disabled":true,"rental_uris":{"android":"levelo://app?vid=b61fc4f0-0b5d-40e3-b924-ba214b5f1194","ios":"levelo://app?vid=b61fc4f0-0b5d-40e3-b924-ba214b5f1194"},"vehicle_type_id":"4","last_reported":1773602383,"current_range_meters":29600,"station_id":"ce4bhnh2rcd13ifvqgtg","pricing_plan_id":"cebpf4jnsgd1na2vs0mg"},{"bike_id":"403c1090-a6b1-4366-b75b-027e8e9e6c20","system_id":"levelo_inurba_marseille","lat":43.29284,"lon":5.40939,"is_reserved":false,"is_disabled":false,"rental_uris":{"android":"levelo://app?vid=403c1090-a6b1-4366-b75b-027e8e9e6c20","ios":"levelo://app?vid=403c1090-a6b1-4366-b75b-027e8e9e6c20"},"vehicle_type_id":"4","last_reported":1773602383,"current_range_meters":26800,"station_id":"ce4bh192rcd13ifvqdc0","pricing_plan_id":"cebpf4jnsgd1na2vs0mg"},{"bike_id":"c5e75752-a286-449d-8e67-bace779c66a2","system_id":"levelo_inurba_marseille","lat":43.23217,"lon":5.39954,"is_reserved":false,"is_disabled":false,"rental_uris":{"android":"levelo://app?vid=c5e75752-a286-449d-8e67-bace779c66a2","ios":"levelo://app?vid=c5e75752-a286-449d-8e67-bace779c66a2"},"vehicle_type_id":"4","last_reported":1773602383,"current_range_meters":32000,"station_id":"","pricing_plan_id":"cebpf4jnsgd1na2vs0mg"},{"bike_id":"5ac9f0dc-8c94-42f1-a0d6-ec3ff233a36a","system_id":"levelo_inurba_marseille","lat":43.27071,"lon":5.40269,"is_reserved":false,"is_disabled":false,"rental_uris":{"android":"levelo://app?vid=5ac9f0dc-8c94-42f1-a0d6-ec3ff233a36a","ios":"levelo://app?vid=5ac9f0dc-8c94-42f1-a0d6-ec3ff233a36a"},"vehicle_type_id":"4","last_reported":1773602383,"current_range_meters":39200,"station_id":"ce4bhk92rcd13ifvqgc0","pricing_plan_id":"cebpf4jnsgd1na2vs0mg"},{"bike_id":"feeaa3cb-d492-4b30-9cf3-d781da265e87","system_id":"levelo_inurba_marseille","lat":43.24974,"lon":5.40502,"is_reserved":false,"is_disabled":false,"rental_uris":{"android":"levelo://app?vid=feeaa3cb-d492-4b30-9cf3-d781da265e87","ios":"levelo://app?vid=feeaa3cb-d492-4b30-9cf3-d781da265e87"},"vehicle_type_id":"4","last_reported":1773602383,"current_range_meters":32400,"station_id":"st_d2ngiaodas8pm72gd1h0","pricing_plan_id":"cebpf4jnsgd1na2vs0mg"},{"bike_id":"57bb4d9e-d4d4-4990-bab6-6d06f315dddc","system_id":"levelo_inurba_marseille","lat":43.30155,"lon":5.37426,"is_reserved":false,"is_disabled":false,"rental_uris":{"android":"levelo://app?vid=57bb4d9e-d4d4-4990-bab6-6d06f315dddc","ios":"levelo://app?vid=57bb4d9e-d4d4-4990-bab6-6d06f315dddc"},"vehicle_type_id":"4","last_reported":1773602383,"current_range_meters":33600,"station_id":"ce4bgs92rcd13ifvqcc0","pricing_plan_id":"cebpf4jnsgd1na2vs0mg"},{"bike_id":"2bab96cf-f3bd-4d1e-9a10-e0bfbf596746","system_id":"levelo_inurba_marseille","lat":43.23186,"lon":5.39975,"is_reserved":false,"is_disabled":false,"rental_uris":{"android":"levelo://app?vid=2bab96cf-f3bd-4d1e-9a10-e0bfbf596746","ios":"levelo://app?vid=2bab96cf-f3bd-4d1e-9a10-e0bfbf596746"},"vehicle_type_id":"4","last_reported":1773602383,"current_range_meters":28400,"station_id":"ce4bhn12rcd13ifvqgqg","pricing_plan_id":"cebpf4jnsgd1na2vs0mg"},{"bike_id":"ef364c26-b12f-4ac2-8385-acdb623c591d","system_id":"levelo_inurba_marseille","lat":43.22552,"lon":5.41623,"is_reserved":false,"is_disabled":false,"rental_uris":{"android":"levelo://app?vid=ef364c26-b12f-4ac2-8385-acdb623c591d","ios":"levelo://app?vid=ef364c26-b12f-4ac2-8385-acdb623c591d"},"vehicle_type_id":"4","last_reported":1773602383,"current_range_meters":9200,"station_id":"st_d2o4gvlbi1j2169b742g","pricing_plan_id":"cebpf4jnsgd1na2vs0mg"},{"bike_id":"fb0b812d-2e71-4d80-94bc-562e817288fa","system_id":"levelo_inurba_marseille","lat":43.23198,"lon":5.35525,"is_reserved":false,"is_disabled":false,"rental_uris":{"android":"levelo://app?vid=fb0b812d-2e71-4d80-94bc-562e817288fa","ios":"levelo://app?vid=fb0b812d-2e71-4d80-94bc-562e817288fa"},"vehicle_type_id":"4","last_reported":1773602383,"current_range_meters":3600,"station_id":"ce4bhu92rcd13ifvqi70","pricing_plan_id":"cebpf4jnsgd1na2vs0mg"},{"bike_id":"a89f76cd-419e-4d7f-ae28-c16c51ac0137","system_id":"levelo_inurba_marseille","lat":43.289342,"lon":5.396041,"is_reserved":false,"is_disabled":false,"rental_uris":{"android":"levelo://app?vid=a89f76cd-419e-4d7f-ae28-c16c51ac0137","ios":"levelo://app?vid=a89f76cd-419e-4d7f-ae28-c16c51ac0137"},"vehicle_type_id":"4","last_reported":1773602383,"current_range_meters":10800,"station_id":"ce4bh3h2rcd13ifvqdn0","pricing_plan_id":"cebpf4jnsgd1na2vs0mg"},{"bike_id":"a4eb7b70-3e7d-4627-9e7f-b91ca61dff8b","system_id":"levelo_inurba_marseille","lat":43.28482,"lon":5.38563,"is_reserved":false,"is_disabled":false,"rental_uris":{"android":"levelo://app?vid=a4eb7b70-3e7d-4627-9e7f-b91ca61dff8b","ios":"levelo://app?vid=a4eb7b70-3e7d-4627-9e7f-b91ca61dff8b"},"vehicle_type_id":"4","last_reported":1773602383,"current_range_meters":32400,"station_id":"ce4bh8p2rcd13ifvqeb0","pricing_plan_id":"cebpf4jnsgd1na2vs0mg"},{"bike_id":"8617b24d-bdd2-49e3-beda-5d74fc474252","system_id":"levelo_inurba_marseille","lat":43.28478,"lon":5.48399,"is_reserved":false,"is_disabled":false,"rental_uris":{"android":"levelo://app?vid=8617b24d-bdd2-49e3-beda-5d74fc474252","ios":"levelo://app?vid=8617b24d-bdd2-49e3-beda-5d74fc474252"},"vehicle_type_id":"4","last_reported":1773602383,"current_range_meters":24000,"station_id":"","pricing_plan_id":"cebpf4jnsgd1na2vs0mg"},{"bike_id":"2d6ce0f2-f4a1-46bb-94c8-ab091a0106b7","system_id":"levelo_inurba_marseille","lat":43.26366,"lon":5.4106,"is_reserved":false,"is_disabled":false,"rental_uris":{"android":"levelo://app?vid=2d6ce0f2-f4a1-46bb-94c8-ab091a0106b7","ios":"levelo://app?vid=2d6ce0f2-f4a1-46bb-94c8-ab091a0106b7"},"vehicle_type_id":"4","last_reported":1773602383,"current_range_meters":4400,"station_id":"st_d4e5ca6na9uc73bfl5fg","pricing_plan_id":"cebpf4jnsgd1na2vs0mg"},{"bike_id":"28b12cd8-6764-47a9-abce-4999ea445dd3","system_id":"levelo_inurba_marseille","lat":43.29263,"lon":5.38239,"is_reserved":false,"is_disabled":false,"rental_uris":{"android":"levelo://app?vid=28b12cd8-6764-47a9-abce-4999ea445dd3","ios":"levelo://app?vid=28b12cd8-6764-47a9-abce-4999ea445dd3"},"vehicle_type_id":"4","last_reported":1773602383,"current_range_meters":6400,"station_id":"","pricing_plan_id":"cebpf4jnsgd1na2vs0mg"},{"bike_id":"5513dccf-31e4-4825-b6d2-d5fbbde55b2d","system_id":"levelo_inurba_marseille","lat":43.27194,"lon":5.40989,"is_reserved":false,"is_disabled":false,"rental_uris":{"android":"levelo://app?vid=5513dccf-31e4-4825-b6d2-d5fbbde55b2d","ios":"levelo://app?vid=5513dccf-31e4-4825-b6d2-d5fbbde55b2d"},"vehicle_type_id":"4","last_reported":1773602383,"current_range_meters":30800,"station_id":"ce4bhl12rcd13ifvqgf0","pricing_plan_id":"cebpf4jnsgd1na2vs0mg"},{"bike_id":"e0f4c726-c891-4b59-a727-5f7bf2fb4325","system_id":"levelo_inurba_marseille","lat":43.28551,"lon":5.44082,"is_reserved":false,"is_disabled":false,"rental_uris":{"android":"levelo://app?vid=e0f4c726-c891-4b59-a727-5f7bf2fb4325","ios":"levelo://app?vid=e0f4c726-c891-4b59-a727-5f7bf2fb4325"},"vehicle_type_id":"4","last_reported":1773602383,"current_range_meters":35600,"station_id":"st_d3j3df2ikq2c7380ej80","pricing_plan_id":"cebpf4jnsgd1na2vs0mg"},{"bike_id":"82c0c316-3d54-4686-bc65-a1a7205fd35f","system_id":"levelo_inurba_marseille","lat":43.24663,"lon":5.38176,"is_reserved":false,"is_disabled":false,"rental_uris":{"android":"levelo://app?vid=82c0c316-3d54-4686-bc65-a1a7205fd35f","ios":"levelo://app?vid=82c0c316-3d54-4686-bc65-a1a7205fd35f"},"vehicle_type_id":"4","last_reported":1773602383,"current_range_meters":10000,"station_id":"ce4bhih2rcd13ifvqfr0","pricing_plan_id":"cebpf4jnsgd1na2vs0mg"},{"bike_id":"3d4208c2-815f-40bf-8bb0-f78b87ee07d6","system_id":"levelo_inurba_marseille","lat":43.28431,"lon":5.34991,"is_reserved":false,"is_disabled":false,"rental_uris":{"android":"levelo://app?vid=3d4208c2-815f-40bf-8bb0-f78b87ee07d6","ios":"levelo://app?vid=3d4208c2-815f-40bf-8bb0-f78b87ee07d6"},"vehicle_type_id":"4","last_reported":1773602383,"current_range_meters":35200,"station_id":"ce4bhbh2rcd13ifvqepg","pricing_plan_id":"cebpf4jnsgd1na2vs0mg"},{"bike_id":"a4bc2e63-1424-4546-bce2-2446518734a4","system_id":"levelo_inurba_marseille","lat":43.30612,"lon":5.39371,"is_reserved":false,"is_disabled":false,"rental_uris":{"android":"levelo://app?vid=a4bc2e63-1424-4546-bce2-2446518734a4","ios":"levelo://app?vid=a4bc2e63-1424-4546-bce2-2446518734a4"},"vehicle_type_id":"4","last_reported":1773602383,"current_range_meters":37600,"station_id":"ce4bh0p2rcd13ifvqd80","pricing_plan_id":"cebpf4jnsgd1na2vs0mg"},{"bike_id":"98617173-6fdc-4310-b875-4375e3808dce","system_id":"levelo_inurba_marseille","lat":43.30372,"lon":5.4249,"is_reserved":false,"is_disabled":false,"rental_uris":{"android":"levelo://app?vid=98617173-6fdc-4310-b875-4375e3808dce","ios":"levelo://app?vid=98617173-6fdc-4310-b875-4375e3808dce"},"vehicle_type_id":"4","last_reported":1773602383,"current_range_meters":28800,"station_id":"ce4bhoh2rcd13ifvqh6g","pricing_plan_id":"cebpf4jnsgd1na2vs0mg"},{"bike_id":"155725a2-4e9c-4e7c-942b-f2b8be31f206","system_id":"levelo_inurba_marseille","lat":43.21738,"lon":5.34594,"is_reserved":false,"is_disabled":false,"rental_uris":{"android":"levelo://app?vid=155725a2-4e9c-4e7c-942b-f2b8be31f206","ios":"levelo://app?vid=155725a2-4e9c-4e7c-942b-f2b8be31f206"},"vehicle_type_id":"4","last_reported":1773602383,"current_range_meters":34000,"station_id":"st_cvj6r9ubvosntc0bgbag","pricing_plan_id":"cebpf4jnsgd1na2vs0mg"},{"bike_id":"39e4ad55-6a69-41ec-95eb-9530a85ae8db","system_id":"levelo_inurba_marseille","lat":43.30441,"lon":5.38884,"is_reserved":false,"is_disabled":false,"rental_uris":{"android":"levelo://app?vid=39e4ad55-6a69-41ec-95eb-9530a85ae8db","ios":"levelo://app?vid=39e4ad55-6a69-41ec-95eb-9530a85ae8db"},"vehicle_type_id":"4","last_reported":1773602383,"current_range_meters":32800,"station_id":"ce4bgk12rcd13ifvqbi0","pricing_plan_id":"cebpf4jnsgd1na2vs0mg"},{"bike_id":"56fddcda-c541-44a5-8391-f7fbf087f4ed","system_id":"levelo_inurba_marseille","lat":43.22566,"lon":5.41659,"is_reserved":false,"is_disabled":false,"rental_uris":{"android":"levelo://app?vid=56fddcda-c541-44a5-8391-f7fbf087f4ed","ios":"levelo://app?vid=56fddcda-c541-44a5-8391-f7fbf087f4ed"},"vehicle_type_id":"4","last_reported":1773602383,"current_range_meters":36400,"station_id":"st_d2o4gvlbi1j2169b742g","pricing_plan_id":"cebpf4jnsgd1na2vs0mg"},{"bike_id":"5e62ff30-da89-4bff-93fb-760715bd71df","system_id":"levelo_inurba_marseille","lat":43.30278,"lon":5.37699,"is_reserved":false,"is_disabled":false,"rental_uris":{"android":"levelo://app?vid=5e62ff30-da89-4bff-93fb-760715bd71df","ios":"levelo://app?vid=5e62ff30-da89-4bff-93fb-760715bd71df"},"vehicle_type_id":"4","last_reported":1773602383,"current_range_meters":28400,"station_id":"ce4bguh2rcd13ifvqcj0","pricing_plan_id":"cebpf4jnsgd1na2vs0mg"},{"bike_id":"7d84d8de-e109-43a4-995f-678227f9f2ff","system_id":"levelo_inurba_marseille","lat":43.27082,"lon":5.40265,"is_reserved":false,"is_disabled":false,"rental_uris":{"android":"levelo://app?vid=7d84d8de-e109-43a4-995f-678227f9f2ff","ios":"levelo://app?vid=7d84d8de-e109-43a4-995f-678227f9f2ff"},"vehicle_type_id":"4","last_reported":1773602383,"current_range_meters":38400,"station_id":"ce4bhk92rcd13ifvqgc0","pricing_plan_id":"cebpf4jnsgd1na2vs0mg"},{"bike_id":"b9a98121-0544-43f0-9523-0b773741399a","system_id":"levelo_inurba_marseille","lat":43.28846,"lon":5.35877,"is_reserved":false,"is_disabled":false,"rental_uris":{"android":"levelo://app?vid=b9a98121-0544-43f0-9523-0b773741399a","ios":"levelo://app?vid=b9a98121-0544-43f0-9523-0b773741399a"},"vehicle_type_id":"4","last_reported":1773602383,"current_range_meters":39200,"station_id":"ce4bhb12rcd13ifvqem0","pricing_plan_id":"cebpf4jnsgd1na2vs0mg"},{"bike_id":"71c58404-3b7c-42e7-90a1-9ae246bfc7ff","system_id":"levelo_inurba_marseille","lat":43.29808,"lon":5.38092,"is_reserved":false,"is_disabled":false,"rental_uris":{"android":"levelo://app?vid=71c58404-3b7c-42e7-90a1-9ae246bfc7ff","ios":"levelo://app?vid=71c58404-3b7c-42e7-90a1-9ae246bfc7ff"},"vehicle_type_id":"4","last_reported":1773602383,"current_range_meters":39200,"station_id":"ce4bgip2rcd13ifvqbb0","pricing_plan_id":"cebpf4jnsgd1na2vs0mg"},{"bike_id":"162e4c4d-1839-4f38-862f-1e9396c5e259","system_id":"levelo_inurba_marseille","lat":43.30567,"lon":5.36662,"is_reserved":false,"is_disabled":false,"rental_uris":{"android":"levelo://app?vid=162e4c4d-1839-4f38-862f-1e9396c5e259","ios":"levelo://app?vid=162e4c4d-1839-4f38-862f-1e9396c5e259"},"vehicle_type_id":"4","last_reported":1773602383,"current_range_meters":33600,"station_id":"","pricing_plan_id":"cebpf4jnsgd1na2vs0mg"},{"bike_id":"d213d92d-5289-4183-93be-f84e36b07244","system_id":"levelo_inurba_marseille","lat":43.29012,"lon":5.35623,"is_reserved":false,"is_disabled":false,"rental_uris":{"android":"levelo://app?vid=d213d92d-5289-4183-93be-f84e36b07244","ios":"levelo://app?vid=d213d92d-5289-4183-93be-f84e36b07244"},"vehicle_type_id":"4","last_reported":1773602383,"current_range_meters":23200,"station_id":"ce4bhb92rcd13ifvqen0","pricing_plan_id":"cebpf4jnsgd1na2vs0mg"},{"bike_id":"87624a35-123d-4612-b461-3664a925c595","system_id":"levelo_inurba_marseille","lat":43.3112,"lon":5.37763,"is_reserved":false,"is_disabled":false,"rental_uris":{"android":"levelo://app?vid=87624a35-123d-4612-b461-3664a925c595","ios":"levelo://app?vid=87624a35-123d-4612-b461-3664a925c595"},"vehicle_type_id":"4","last_reported":1773602383,"current_range_meters":33200,"station_id":"ce4bgt92rcd13ifvqcg0","pricing_plan_id":"cebpf4jnsgd1na2vs0mg"},{"bike_id":"f9091acf-5db4-4a20-b1ae-87d3b83f1b76","system_id":"levelo_inurba_marseille","lat":43.2965,"lon":5.39552,"is_reserved":false,"is_disabled":false,"rental_uris":{"android":"levelo://app?vid=f9091acf-5db4-4a20-b1ae-87d3b83f1b76","ios":"levelo://app?vid=f9091acf-5db4-4a20-b1ae-87d3b83f1b76"},"vehicle_type_id":"4","last_reported":1773602383,"current_range_meters":8800,"station_id":"","pricing_plan_id":"cebpf4jnsgd1na2vs0mg"},{"bike_id":"2e2cafb6-e5c3-479c-8a76-66c5dfecc926","system_id":"levelo_inurba_marseille","lat":43.26187,"lon":5.37462,"is_reserved":false,"is_disabled":true,"rental_uris":{"android":"levelo://app?vid=2e2cafb6-e5c3-479c-8a76-66c5dfecc926","ios":"levelo://app?vid=2e2cafb6-e5c3-479c-8a76-66c5dfecc926"},"vehicle_type_id":"4","last_reported":1773602383,"current_range_meters":28400,"station_id":"ce4bhgp2rcd13ifvqfc0","pricing_plan_id":"cebpf4jnsgd1na2vs0mg"},{"bike_id":"66f843e4-1744-4333-9cdc-3ca26dae893a","system_id":"levelo_inurba_marseille","lat":43.31683,"lon":5.3958,"is_reserved":false,"is_disabled":false,"rental_uris":{"android":"levelo://app?vid=66f843e4-1744-4333-9cdc-3ca26dae893a","ios":"levelo://app?vid=66f843e4-1744-4333-9cdc-3ca26dae893a"},"vehicle_type_id":"4","last_reported":1773602383,"current_range_meters":23200,"station_id":"","pricing_plan_id":"cebpf4jnsgd1na2vs0mg"},{"bike_id":"967b3ac3-efe8-46ab-bb72-26ffac146717","system_id":"levelo_inurba_marseille","lat":43.231771,"lon":5.399883,"is_reserved":false,"is_disabled":false,"rental_uris":{"android":"levelo://app?vid=967b3ac3-efe8-46ab-bb72-26ffac146717","ios":"levelo://app?vid=967b3ac3-efe8-46ab-bb72-26ffac146717"},"vehicle_type_id":"4","last_reported":1773602383,"current_range_meters":27200,"station_id":"ce4bhn12rcd13ifvqgqg","pricing_plan_id":"cebpf4jnsgd1na2vs0mg"},{"bike_id":"00151dd7-f832-45ae-9723-60e14de5f9bc","system_id":"levelo_inurba_marseille","lat":43.29513,"lon":5.39047,"is_reserved":false,"is_disabled":false,"rental_uris":{"android":"levelo://app?vid=00151dd7-f832-45ae-9723-60e14de5f9bc","ios":"levelo://app?vid=00151dd7-f832-45ae-9723-60e14de5f9bc"},"vehicle_type_id":"4","last_reported":1773602383,"current_range_meters":28400,"station_id":"ce4bh3p2rcd13ifvqdp0","pricing_plan_id":"cebpf4jnsgd1na2vs0mg"},{"bike_id":"242e55c9-ac4f-4aec-81c1-865b2142177b","system_id":"levelo_inurba_marseille","lat":43.2295,"lon":5.3542,"is_reserved":false,"is_disabled":false,"rental_uris":{"android":"levelo://app?vid=242e55c9-ac4f-4aec-81c1-865b2142177b","ios":"levelo://app?vid=242e55c9-ac4f-4aec-81c1-865b2142177b"},"vehicle_type_id":"4","last_reported":1773602383,"current_range_meters":7200,"station_id":"cpo3532slgdg3j2ikp40","pricing_plan_id":"cebpf4jnsgd1na2vs0mg"},{"bike_id":"ac325101-b5a7-4f5d-9bc7-aba501847b2e","system_id":"levelo_inurba_marseille","lat":43.27372,"lon":5.36257,"is_reserved":false,"is_disabled":true,"rental_uris":{"android":"levelo://app?vid=ac325101-b5a7-4f5d-9bc7-aba501847b2e","ios":"levelo://app?vid=ac325101-b5a7-4f5d-9bc7-aba501847b2e"},"vehicle_type_id":"4","last_reported":1773602383,"current_range_meters":36800,"station_id":"ce4bhbh2rcd13ifvqeo0","pricing_plan_id":"cebpf4jnsgd1na2vs0mg"},{"bike_id":"cffdf26c-1919-4029-87b5-8b45a2bc0447","system_id":"levelo_inurba_marseille","lat":43.29586,"lon":5.3676,"is_reserved":false,"is_disabled":true,"rental_uris":{"android":"levelo://app?vid=cffdf26c-1919-4029-87b5-8b45a2bc0447","ios":"levelo://app?vid=cffdf26c-1919-4029-87b5-8b45a2bc0447"},"vehicle_type_id":"4","last_reported":1773602383,"current_range_meters":37600,"station_id":"ce4bgph2rcd13ifvqc2g","pricing_plan_id":"cebpf4jnsgd1na2vs0mg"},{"bike_id":"d5a63e25-8c5a-447f-a295-18a457b77d52","system_id":"levelo_inurba_marseille","lat":43.2991,"lon":5.38077,"is_reserved":false,"is_disabled":false,"rental_uris":{"android":"levelo://app?vid=d5a63e25-8c5a-447f-a295-18a457b77d52","ios":"levelo://app?vid=d5a63e25-8c5a-447f-a295-18a457b77d52"},"vehicle_type_id":"4","last_reported":1773602383,"current_range_meters":32000,"station_id":"","pricing_plan_id":"cebpf4jnsgd1na2vs0mg"},{"bike_id":"a4c3098a-b5b8-4a55-bbaa-5e988921d269","system_id":"levelo_inurba_marseille","lat":43.26563,"lon":5.3902,"is_reserved":false,"is_disabled":false,"rental_uris":{"android":"levelo://app?vid=a4c3098a-b5b8-4a55-bbaa-5e988921d269","ios":"levelo://app?vid=a4c3098a-b5b8-4a55-bbaa-5e988921d269"},"vehicle_type_id":"4","last_reported":1773602383,"current_range_meters":20800,"station_id":"ce4bhe12rcd13ifvqf30","pricing_plan_id":"cebpf4jnsgd1na2vs0mg"},{"bike_id":"5ad76827-dbcd-4895-afdb-3b15273992bb","system_id":"levelo_inurba_marseille","lat":43.28735,"lon":5.39997,"is_reserved":false,"is_disabled":true,"rental_uris":{"android":"levelo://app?vid=5ad76827-dbcd-4895-afdb-3b15273992bb","ios":"levelo://app?vid=5ad76827-dbcd-4895-afdb-3b15273992bb"},"vehicle_type_id":"4","last_reported":1773602383,"current_range_meters":31200,"station_id":"ce4bho92rcd13ifvqh3g","pricing_plan_id":"cebpf4jnsgd1na2vs0mg"},{"bike_id":"971f58a1-a8b1-439c-9f6a-5203e2975904","system_id":"levelo_inurba_marseille","lat":43.29559,"lon":5.38578,"is_reserved":false,"is_disabled":true,"rental_uris":{"android":"levelo://app?vid=971f58a1-a8b1-439c-9f6a-5203e2975904","ios":"levelo://app?vid=971f58a1-a8b1-439c-9f6a-5203e2975904"},"vehicle_type_id":"4","last_reported":1773602383,"current_range_meters":27600,"station_id":"ce4bgih2rcd13ifvqba0","pricing_plan_id":"cebpf4jnsgd1na2vs0mg"},{"bike_id":"c94288f2-a497-4ad8-8895-742d04d19603","system_id":"levelo_inurba_marseille","lat":43.29185,"lon":5.35784,"is_reserved":false,"is_disabled":false,"rental_uris":{"android":"levelo://app?vid=c94288f2-a497-4ad8-8895-742d04d19603","ios":"levelo://app?vid=c94288f2-a497-4ad8-8895-742d04d19603"},"vehicle_type_id":"4","last_reported":1773602383,"current_range_meters":27600,"station_id":"ce4bhb12rcd13ifvqel0","pricing_plan_id":"cebpf4jnsgd1na2vs0mg"},{"bike_id":"35421bfe-0191-432b-8ecb-842605e3be68","system_id":"levelo_inurba_marseille","lat":43.26573,"lon":5.39011,"is_reserved":false,"is_disabled":false,"rental_uris":{"android":"levelo://app?vid=35421bfe-0191-432b-8ecb-842605e3be68","ios":"levelo://app?vid=35421bfe-0191-432b-8ecb-842605e3be68"},"vehicle_type_id":"4","last_reported":1773602383,"current_range_meters":39200,"station_id":"ce4bhe12rcd13ifvqf30","pricing_plan_id":"cebpf4jnsgd1na2vs0mg"},{"bike_id":"13b759af-9f39-4385-b233-8157f102d0b7","system_id":"levelo_inurba_marseille","lat":43.23956,"lon":5.36697,"is_reserved":false,"is_disabled":false,"rental_uris":{"android":"levelo://app?vid=13b759af-9f39-4385-b233-8157f102d0b7","ios":"levelo://app?vid=13b759af-9f39-4385-b233-8157f102d0b7"},"vehicle_type_id":"4","last_reported":1773602383,"current_range_meters":38400,"station_id":"","pricing_plan_id":"cebpf4jnsgd1na2vs0mg"},{"bike_id":"af63abbd-18da-43af-aad8-a6b71c750205","system_id":"levelo_inurba_marseille","lat":43.314412,"lon":5.373352,"is_reserved":false,"is_disabled":false,"rental_uris":{"android":"levelo://app?vid=af63abbd-18da-43af-aad8-a6b71c750205","ios":"levelo://app?vid=af63abbd-18da-43af-aad8-a6b71c750205"},"vehicle_type_id":"4","last_reported":1773602383,"current_range_meters":32400,"station_id":"ce4bgt12rcd13ifvqcd0","pricing_plan_id":"cebpf4jnsgd1na2vs0mg"},{"bike_id":"01f10342-9976-4e28-9719-3ad2a077affc","system_id":"levelo_inurba_marseille","lat":43.29537,"lon":5.38546,"is_reserved":false,"is_disabled":false,"rental_uris":{"android":"levelo://app?vid=01f10342-9976-4e28-9719-3ad2a077affc","ios":"levelo://app?vid=01f10342-9976-4e28-9719-3ad2a077affc"},"vehicle_type_id":"4","last_reported":1773602383,"current_range_meters":25600,"station_id":"ce4bgih2rcd13ifvqba0","pricing_plan_id":"cebpf4jnsgd1na2vs0mg"},{"bike_id":"81b4eccb-b711-4b1e-b2aa-2c8d66eb49bf","system_id":"levelo_inurba_marseille","lat":43.2953,"lon":5.39404,"is_reserved":false,"is_disabled":false,"rental_uris":{"android":"levelo://app?vid=81b4eccb-b711-4b1e-b2aa-2c8d66eb49bf","ios":"levelo://app?vid=81b4eccb-b711-4b1e-b2aa-2c8d66eb49bf"},"vehicle_type_id":"4","last_reported":1773602383,"current_range_meters":33200,"station_id":"ce4bh292rcd13ifvqdf0","pricing_plan_id":"cebpf4jnsgd1na2vs0mg"},{"bike_id":"93c8107a-44d9-4b92-a485-08cbd24bb80c","system_id":"levelo_inurba_marseille","lat":43.28638,"lon":5.3513,"is_reserved":false,"is_disabled":false,"rental_uris":{"android":"levelo://app?vid=93c8107a-44d9-4b92-a485-08cbd24bb80c","ios":"levelo://app?vid=93c8107a-44d9-4b92-a485-08cbd24bb80c"},"vehicle_type_id":"4","last_reported":1773602383,"current_range_meters":38800,"station_id":"ce4bhch2rcd13ifvqeug","pricing_plan_id":"cebpf4jnsgd1na2vs0mg"},{"bike_id":"4605d0eb-aef4-494c-b103-fe3cbd9a939f","system_id":"levelo_inurba_marseille","lat":43.2606,"lon":5.39431,"is_reserved":false,"is_disabled":false,"rental_uris":{"android":"levelo://app?vid=4605d0eb-aef4-494c-b103-fe3cbd9a939f","ios":"levelo://app?vid=4605d0eb-aef4-494c-b103-fe3cbd9a939f"},"vehicle_type_id":"4","last_reported":1773602383,"current_range_meters":14400,"station_id":"ce4bhh92rcd13ifvqfj0","pricing_plan_id":"cebpf4jnsgd1na2vs0mg"},{"bike_id":"505ba4fb-8eb2-40be-85c9-9860da4ba8de","system_id":"levelo_inurba_marseille","lat":43.25571,"lon":5.38252,"is_reserved":false,"is_disabled":false,"rental_uris":{"android":"levelo://app?vid=505ba4fb-8eb2-40be-85c9-9860da4ba8de","ios":"levelo://app?vid=505ba4fb-8eb2-40be-85c9-9860da4ba8de"},"vehicle_type_id":"4","last_reported":1773602383,"current_range_meters":38800,"station_id":"ce4bhih2rcd13ifvqfs0","pricing_plan_id":"cebpf4jnsgd1na2vs0mg"},{"bike_id":"e2ff8fbe-6ee0-4693-94cc-f4a9ec9cf6bf","system_id":"levelo_inurba_marseille","lat":43.31281,"lon":5.40195,"is_reserved":false,"is_disabled":true,"rental_uris":{"android":"levelo://app?vid=e2ff8fbe-6ee0-4693-94cc-f4a9ec9cf6bf","ios":"levelo://app?vid=e2ff8fbe-6ee0-4693-94cc-f4a9ec9cf6bf"},"vehicle_type_id":"4","last_reported":1773602383,"current_range_meters":8800,"station_id":"ce4bh092rcd13ifvqd30","pricing_plan_id":"cebpf4jnsgd1na2vs0mg"},{"bike_id":"a4e1eda7-e339-4e89-aeab-5ba3de0c460b","system_id":"levelo_inurba_marseille","lat":43.28356,"lon":5.38114,"is_reserved":false,"is_disabled":true,"rental_uris":{"android":"levelo://app?vid=a4e1eda7-e339-4e89-aeab-5ba3de0c460b","ios":"levelo://app?vid=a4e1eda7-e339-4e89-aeab-5ba3de0c460b"},