{"last_updated":1741936153,"ttl":60,"version":"2.2","data":{"bikes":[{"bike_id":"a1865482-901a-461f-bbbf-89cc5aaa4978","system_id":"levelo_inurba_marseille","lat":43.31231,"lon":5.37861,"is_reserved":false,"is_disabled":false,"rental_uris":{"android":"levelo://app?vid=a1865482-901a-461f-bbbf-89cc5aaa4978","ios":"levelo://app?vid=a1865482-901a-461f-bbbf-89cc5aaa4978"},"vehicle_type_id":"4","last_reported":1741936154,"current_range_meters":2800,"station_id":"","pricing_plan_id":"cebpf4jnsgd1na2vs0mg"},{"bike_id":"2778db48-5d53-4ac8-91b5-f0c074a42137","system_id":"levelo_inurba_marseille","lat":43.28936,"lon":5.36616,"is_reserved":false,"is_disabled":false,"rental_uris":{"android":"levelo://app?vid=2778db48-5d53-4ac8-91b5-f0c074a42137","ios":"levelo://app?vid=2778db48-5d53-4ac8-91b5-f0c074a42137"},"vehicle_type_id":"4","last_reported":1741936154,"current_range_meters":2800,"station_id":"ce4bhap2rcd13ifvqek0","pricing_plan_id":"cebpf4jnsgd1na2vs0mg"},{"bike_id":"3a6f4a08-7097-425e-ba9b-503eb294df3b","system_id":"levelo_inurba_marseille","lat":43.27806,"lon":5.4074,"is_reserved":false,"is_disabled":true,"rental_uris":{"android":"levelo://app?vid=3a6f4a08-7097-425e-ba9b-503eb294df3b","ios":"levelo://app?vid=3a6f4a08-7097-425e-ba9b-503eb294df3b"},"vehicle_type_id":"4","last_reported":1741936154,"current_range_meters":2800,"station_id":"ce4bhnh2rcd13ifvqgtg","pricing_plan_id":"cebpf4jnsgd1na2vs0mg"},{"bike_id":"ec634c67-a106-40a9-9803-4ea2d611ca4c","system_id":"levelo_inurba_marseille","lat":43.2408,"lon":5.37752,"is_reserved":false,"is_disabled":false,"rental_uris":{"android":"levelo://app?vid=ec634c67-a106-40a9-9803-4ea2d611ca4c","ios":"levelo://app?vid=ec634c67-a106-40a9-9803-4ea2d611ca4c"},"vehicle_type_id":"4","last_reported":1741936154,"current_range_meters":3200,"station_id":"ce4bhnp2rcd13ifvqgvg","pricing_plan_id":"cebpf4jnsgd1na2vs0mg"},{"bike_id":"0e1454f0-c501-449b-b78c-ddfc8f4d9aab","system_id":"levelo_inurba_marseille","lat":43.33768,"lon":5.3749,"is_reserved":false,"is_disabled":false,"rental_uris":{"android":"levelo://app?vid=0e1454f0-c501-449b-b78c-ddfc8f4d9aab","ios":"levelo://app?vid=0e1454f0-c501-449b-b78c-ddfc8f4d9aab"},"vehicle_type_id":"4","last_reported":1741936154,"current_range_meters":3200,"station_id":"","pricing_plan_id":"cebpf4jnsgd1na2vs0mg"},{"bike_id":"7106f76c-9450-433f-b6ee-8e5c587e83df","system_id":"levelo_inurba_marseille","lat":43.30951,"lon":5.39034,"is_reserved":false,"is_disabled":false,"rental_uris":{"android":"levelo://app?vid=7106f76c-9450-433f-b6ee-8e5c587e83df","ios":"levelo://app?vid=7106f76c-9450-433f-b6ee-8e5c587e83df"},"vehicle_type_id":"4","last_reported":1741936154,"current_range_meters":3200,"station_id":"ce4bgup2rcd13ifvqco0","pricing_plan_id":"cebpf4jnsgd1na2vs0mg"},{"bike_id":"362d710b-ed2f-41b2-825a-4f9b62b2a69a","system_id":"levelo_inurba_marseille","lat":43.27805,"lon":5.40717,"is_reserved":false,"is_disabled":false,"rental_uris":{"android":"levelo://app?vid=362d710b-ed2f-41b2-825a-4f9b62b2a69a","ios":"levelo://app?vid=362d710b-ed2f-41b2-825a-4f9b62b2a69a"},"vehicle_type_id":"4","last_reported":1741936154,"current_range_meters":3600,"station_id":"ce4bhnh2rcd13ifvqgtg","pricing_plan_id":"cebpf4jnsgd1na2vs0mg"},{"bike_id":"7f97dab3-6641-4c6a-9b12-3940cae11793","system_id":"levelo_inurba_marseille","lat":43.25016,"lon":5.38921,"is_reserved":false,"is_disabled":false,"rental_uris":{"android":"levelo://app?vid=7f97dab3-6641-4c6a-9b12-3940cae11793","ios":"levelo://app?vid=7f97dab3-6641-4c6a-9b12-3940cae11793"},"vehicle_type_id":"4","last_reported":1741936154,"current_range_meters":4000,"station_id":"ce4bhgp2rcd13ifvqfd0","pricing_plan_id":"cebpf4jnsgd1na2vs0mg"},{"bike_id":"635eead3-edc8-455e-ba7b-82f32fc1ed0a","system_id":"levelo_inurba_marseille","lat":43.29417,"lon":5.38624,"is_reserved":false,"is_disabled":false,"rental_uris":{"android":"levelo://app?vid=635eead3-edc8-455e-ba7b-82f32fc1ed0a","ios":"levelo://app?vid=635eead3-edc8-455e-ba7b-82f32fc1ed0a"},"vehicle_type_id":"4","last_reported":1741936154,"current_range_meters":4000,"station_id":"ce4bh2h2rcd13ifvqdh0","pricing_plan_id":"cebpf4jnsgd1na2vs0mg"},{"bike_id":"e3433a29-4d63-4030-abbc-447f8c6dd520","system_id":"levelo_inurba_marseille","lat":43.26564,"lon":5.3902,"is_reserved":false,"is_disabled":false,"rental_uris":{"android":"levelo://app?vid=e3433a29-4d63-4030-abbc-447f8c6dd520","ios":"levelo://app?vid=e3433a29-4d63-4030-abbc-447f8c6dd520"},"vehicle_type_id":"4","last_reported":1741936154,"current_range_meters":4400,"station_id":"ce4bhe12rcd13ifvqf30","pricing_plan_id":"cebpf4jnsgd1na2vs0mg"},{"bike_id":"7e2efce6-2abc-47be-8e98-d015769ebdaa","system_id":"levelo_inurba_marseille","lat":43.27424,"lon":5.41883,"is_reserved":false,"is_disabled":true,"rental_uris":{"android":"levelo://app?vid=7e2efce6-2abc-47be-8e98-d015769ebdaa","ios":"levelo://app?vid=7e2efce6-2abc-47be-8e98-d015769ebdaa"},"vehicle_type_id":"4","last_reported":1741936154,"current_range_meters":4400,"station_id":"","pricing_plan_id":"cebpf4jnsgd1na2vs0mg"},{"bike_id":"2fe54254-5b11-4939-bb74-6fb31c1295ea","system_id":"levelo_inurba_marseille","lat":43.229306,"lon":5.353804,"is_reserved":false,"is_disabled":false,"rental_uris":{"android":"levelo://app?vid=2fe54254-5b11-4939-bb74-6fb31c1295ea","ios":"levelo://app?vid=2fe54254-5b11-4939-bb74-6fb31c1295ea"},"vehicle_type_id":"4","last_reported":1741936154,"current_range_meters":4400,"station_id":"cpo3532slgdg3j2ikp40","pricing_plan_id":"cebpf4jnsgd1na2vs0mg"},{"bike_id":"eb42d820-8392-4b28-a4e7-f4677536d25c","system_id":"levelo_inurba_marseille","lat":43.28345,"lon":5.38117,"is_reserved":false,"is_disabled":false,"rental_uris":{"android":"levelo://app?vid=eb42d820-8392-4b28-a4e7-f4677536d25c","ios":"levelo://app?vid=eb42d820-8392-4b28-a4e7-f4677536d25c"},"vehicle_type_id":"4","last_reported":1741936154,"current_range_meters":4400,"station_id":"ce4bh412rcd13ifvqdr0","pricing_plan_id":"cebpf4jnsgd1na2vs0mg"},{"bike_id":"8ca720cf-8cc7-4201-a29c-e07b0ffda00a","system_id":"levelo_inurba_marseille","lat":43.23192,"lon":5.39987,"is_reserved":false,"is_disabled":false,"rental_uris":{"android":"levelo://app?vid=8ca720cf-8cc7-4201-a29c-e07b0ffda00a","ios":"levelo://app?vid=8ca720cf-8cc7-4201-a29c-e07b0ffda00a"},"vehicle_type_id":"4","last_reported":1741936154,"current_range_meters":4400,"station_id":"ce4bhn12rcd13ifvqgqg","pricing_plan_id":"cebpf4jnsgd1na2vs0mg"},{"bike_id":"305da55c-5317-413c-a58c-b9f26fcffb83","system_id":"levelo_inurba_marseille","lat":43.26561,"lon":5.3902,"is_reserved":false,"is_disabled":false,"rental_uris":{"android":"levelo://app?vid=305da55c-5317-413c-a58c-b9f26fcffb83","ios":"levelo://app?vid=305da55c-5317-413c-a58c-b9f26fcffb83"},"vehicle_type_id":"4","last_reported":1741936154,"current_range_meters":4400,"station_id":"ce4bhe12rcd13ifvqf30","pricing_plan_id":"cebpf4jnsgd1na2vs0mg"},{"bike_id":"d5ae4600-476e-4c8a-b248-76c73ec9f040","system_id":"levelo_inurba_marseille","lat":43.250202,"lon":5.38916,"is_reserved":false,"is_disabled":false,"rental_uris":{"android":"levelo://app?vid=d5ae4600-476e-4c8a-b248-76c73ec9f040","ios":"levelo://app?vid=d5ae4600-476e-4c8a-b248-76c73ec9f040"},"vehicle_type_id":"4","last_reported":1741936154,"current_range_meters":4800,"station_id":"ce4bhgp2rcd13ifvqfd0","pricing_plan_id":"cebpf4jnsgd1na2vs0mg"},{"bike_id":"9e1237c1-208f-4b0d-9e05-70106fcb9362","system_id":"levelo_inurba_marseille","lat":43.2841,"lon":5.37531,"is_reserved":false,"is_disabled":false,"rental_uris":{"android":"levelo://app?vid=9e1237c1-208f-4b0d-9e05-70106fcb9362","ios":"levelo://app?vid=9e1237c1-208f-4b0d-9e05-70106fcb9362"},"vehicle_type_id":"4","last_reported":1741936154,"current_range_meters":4800,"station_id":"ce4bh412rcd13ifvqds0","pricing_plan_id":"cebpf4jnsgd1na2vs0mg"},{"bike_id":"bbe3b04a-4a72-4f38-8422-b6f8f79a7093","system_id":"levelo_inurba_marseille","lat":43.32546,"lon":5.41021,"is_reserved":false,"is_disabled":false,"rental_uris":{"android":"levelo://app?vid=bbe3b04a-4a72-4f38-8422-b6f8f79a7093","ios":"levelo://app?vid=bbe3b04a-4a72-4f38-8422-b6f8f79a7093"},"vehicle_type_id":"4","last_reported":1741936154,"current_range_meters":6000,"station_id":"","pricing_plan_id":"cebpf4jnsgd1na2vs0mg"},{"bike_id":"0f161917-d8c5-4841-b64b-7e226665578c","system_id":"levelo_inurba_marseille","lat":43.25117,"lon":5.4033,"is_reserved":false,"is_disabled":false,"rental_uris":{"android":"levelo://app?vid=0f161917-d8c5-4841-b64b-7e226665578c","ios":"levelo://app?vid=0f161917-d8c5-4841-b64b-7e226665578c"},"vehicle_type_id":"4","last_reported":1741936154,"current_range_meters":6000,"station_id":"ce4bhlh2rcd13ifvqgig","pricing_plan_id":"cebpf4jnsgd1na2vs0mg"},{"bike_id":"a4acc583-7b24-4665-929d-fada161a91f7","system_id":"levelo_inurba_marseille","lat":43.29487,"lon":5.4444,"is_reserved":false,"is_disabled":false,"rental_uris":{"android":"levelo://app?vid=a4acc583-7b24-4665-929d-fada161a91f7","ios":"levelo://app?vid=a4acc583-7b24-4665-929d-fada161a91f7"},"vehicle_type_id":"4","last_reported":1741936154,"current_range_meters":6000,"station_id":"","pricing_plan_id":"cebpf4jnsgd1na2vs0mg"},{"bike_id":"d7cf3da4-03cf-4eae-b183-47670a6b872f","system_id":"levelo_inurba_marseille","lat":43.231898,"lon":5.355607,"is_reserved":false,"is_disabled":false,"rental_uris":{"android":"levelo://app?vid=d7cf3da4-03cf-4eae-b183-47670a6b872f","ios":"levelo://app?vid=d7cf3da4-03cf-4eae-b183-47670a6b872f"},"vehicle_type_id":"4","last_reported":1741936154,"current_range_meters":6000,"station_id":"ce4bhu92rcd13ifvqi70","pricing_plan_id":"cebpf4jnsgd1na2vs0mg"},{"bike_id":"931a65f6-98be-4189-b167-a49aeaf4dc43","system_id":"levelo_inurba_marseille","lat":43.25052,"lon":5.38917,"is_reserved":false,"is_disabled":false,"rental_uris":{"android":"levelo://app?vid=931a65f6-98be-4189-b167-a49aeaf4dc43","ios":"levelo://app?vid=931a65f6-98be-4189-b167-a49aeaf4dc43"},"vehicle_type_id":"4","last_reported":1741936154,"current_range_meters":6000,"station_id":"","pricing_plan_id":"cebpf4jnsgd1na2vs0mg"},{"bike_id":"db7198b7-4986-487c-848f-b6fa2eea4556","system_id":"levelo_inurba_marseille","lat":43.319976,"lon":5.381416,"is_reserved":false,"is_disabled":false,"rental_uris":{"android":"levelo://app?vid=db7198b7-4986-487c-848f-b6fa2eea4556","ios":"levelo://app?vid=db7198b7-4986-487c-848f-b6fa2eea4556"},"vehicle_type_id":"4","last_reported":1741936154,"current_range_meters":6400,"station_id":"ce4bhr12rcd13ifvqhpg","pricing_plan_id":"cebpf4jnsgd1na2vs0mg"},{"bike_id":"5405b6a5-de2d-4fcd-a499-e839aa2d90c8","system_id":"levelo_inurba_marseille","lat":43.29616,"lon":5.38102,"is_reserved":false,"is_disabled":false,"rental_uris":{"android":"levelo://app?vid=5405b6a5-de2d-4fcd-a499-e839aa2d90c8","ios":"levelo://app?vid=5405b6a5-de2d-4fcd-a499-e839aa2d90c8"},"vehicle_type_id":"4","last_reported":1741936154,"current_range_meters":6400,"station_id":"ce4bgl12rcd13ifvqbo0","pricing_plan_id":"cebpf4jnsgd1na2vs0mg"},{"bike_id":"5d1d8550-b0ee-429c-8312-76089c3d6375","system_id":"levelo_inurba_marseille","lat":43.27978,"lon":5.41665,"is_reserved":false,"is_disabled":false,"rental_uris":{"android":"levelo://app?vid=5d1d8550-b0ee-429c-8312-76089c3d6375","ios":"levelo://app?vid=5d1d8550-b0ee-429c-8312-76089c3d6375"},"vehicle_type_id":"4","last_reported":1741936154,"current_range_meters":6400,"station_id":"ce4bho12rcd13ifvqh1g","pricing_plan_id":"cebpf4jnsgd1na2vs0mg"},{"bike_id":"1bc48551-0c9e-4efb-8959-86401b55df78","system_id":"levelo_inurba_marseille","lat":43.33084,"lon":5.38018,"is_reserved":false,"is_disabled":false,"rental_uris":{"android":"levelo://app?vid=1bc48551-0c9e-4efb-8959-86401b55df78","ios":"levelo://app?vid=1bc48551-0c9e-4efb-8959-86401b55df78"},"vehicle_type_id":"4","last_reported":1741936154,"current_range_meters":6400,"station_id":"","pricing_plan_id":"cebpf4jnsgd1na2vs0mg"},{"bike_id":"127484ee-ad84-49b2-b737-b1cd503c765d","system_id":"levelo_inurba_marseille","lat":43.27304,"lon":5.39098,"is_reserved":false,"is_disabled":false,"rental_uris":{"android":"levelo://app?vid=127484ee-ad84-49b2-b737-b1cd503c765d","ios":"levelo://app?vid=127484ee-ad84-49b2-b737-b1cd503c765d"},"vehicle_type_id":"4","last_reported":1741936154,"current_range_meters":6000,"station_id":"ce4bhgp2rcd13ifvqfe0","pricing_plan_id":"cebpf4jnsgd1na2vs0mg"},{"bike_id":"7a5158c5-a332-40d9-b718-72571efee9d7","system_id":"levelo_inurba_marseille","lat":43.28114,"lon":5.44613,"is_reserved":false,"is_disabled":false,"rental_uris":{"android":"levelo://app?vid=7a5158c5-a332-40d9-b718-72571efee9d7","ios":"levelo://app?vid=7a5158c5-a332-40d9-b718-72571efee9d7"},"vehicle_type_id":"4","last_reported":1741936154,"current_range_meters":6800,"station_id":"","pricing_plan_id":"cebpf4jnsgd1na2vs0mg"},{"bike_id":"cd62f0b0-e712-4ed8-b222-8e7cb2c87e1b","system_id":"levelo_inurba_marseille","lat":43.23587,"lon":5.40358,"is_reserved":false,"is_disabled":false,"rental_uris":{"android":"levelo://app?vid=cd62f0b0-e712-4ed8-b222-8e7cb2c87e1b","ios":"levelo://app?vid=cd62f0b0-e712-4ed8-b222-8e7cb2c87e1b"},"vehicle_type_id":"4","last_reported":1741936154,"current_range_meters":6800,"station_id":"","pricing_plan_id":"cebpf4jnsgd1na2vs0mg"},{"bike_id":"fe2dbfad-2b3c-45be-b26a-7ab6c0dcbc97","system_id":"levelo_inurba_marseille","lat":43.301496,"lon":5.376842,"is_reserved":false,"is_disabled":false,"rental_uris":{"android":"levelo://app?vid=fe2dbfad-2b3c-45be-b26a-7ab6c0dcbc97","ios":"levelo://app?vid=fe2dbfad-2b3c-45be-b26a-7ab6c0dcbc97"},"vehicle_type_id":"4","last_reported":1741936154,"current_range_meters":6800,"station_id":"","pricing_plan_id":"cebpf4jnsgd1na2vs0mg"},{"bike_id":"06469efc-adbf-405c-9792-8159d8a5999a","system_id":"levelo_inurba_marseille","lat":43.29578,"lon":5.39983,"is_reserved":false,"is_disabled":false,"rental_uris":{"android":"levelo://app?vid=06469efc-adbf-405c-9792-8159d8a5999a","ios":"levelo://app?vid=06469efc-adbf-405c-9792-8159d8a5999a"},"vehicle_type_id":"4","last_reported":1741936154,"current_range_meters":6800,"station_id":"ce4bh312rcd13ifvqdj0","pricing_plan_id":"cebpf4jnsgd1na2vs0mg"},{"bike_id":"29c167e7-f543-4956-bde0-273e9178e2cf","system_id":"levelo_inurba_marseille","lat":43.32345,"lon":5.36773,"is_reserved":false,"is_disabled":true,"rental_uris":{"android":"levelo://app?vid=29c167e7-f543-4956-bde0-273e9178e2cf","ios":"levelo://app?vid=29c167e7-f543-4956-bde0-273e9178e2cf"},"vehicle_type_id":"4","last_reported":1741936154,"current_range_meters":6800,"station_id":"ce4bhsh2rcd13ifvqi2g","pricing_plan_id":"cebpf4jnsgd1na2vs0mg"},{"bike_id":"35a9e4f1-17ac-47cf-84ad-97a570c36f72","system_id":"levelo_inurba_marseille","lat":43.31486,"lon":5.37307,"is_reserved":false,"is_disabled":false,"rental_uris":{"android":"levelo://app?vid=35a9e4f1-17ac-47cf-84ad-97a570c36f72","ios":"levelo://app?vid=35a9e4f1-17ac-47cf-84ad-97a570c36f72"},"vehicle_type_id":"4","last_reported":1741936154,"current_range_meters":7200,"station_id":"ce4bgt12rcd13ifvqcd0","pricing_plan_id":"cebpf4jnsgd1na2vs0mg"},{"bike_id":"35d862ee-e491-4a35-8904-48630f3be591","system_id":"levelo_inurba_marseille","lat":43.27953,"lon":5.41052,"is_reserved":false,"is_disabled":false,"rental_uris":{"android":"levelo://app?vid=35d862ee-e491-4a35-8904-48630f3be591","ios":"levelo://app?vid=35d862ee-e491-4a35-8904-48630f3be591"},"vehicle_type_id":"4","last_reported":1741936154,"current_range_meters":7200,"station_id":"ce4bhnp2rcd13ifvqh0g","pricing_plan_id":"cebpf4jnsgd1na2vs0mg"},{"bike_id":"8b280ae3-41fc-4032-96f1-8905fd5fbf6d","system_id":"levelo_inurba_marseille","lat":43.26205,"lon":5.374547,"is_reserved":false,"is_disabled":false,"rental_uris":{"android":"levelo://app?vid=8b280ae3-41fc-4032-96f1-8905fd5fbf6d","ios":"levelo://app?vid=8b280ae3-41fc-4032-96f1-8905fd5fbf6d"},"vehicle_type_id":"4","last_reported":1741936154,"current_range_meters":7200,"station_id":"ce4bhgp2rcd13ifvqfc0","pricing_plan_id":"cebpf4jnsgd1na2vs0mg"},{"bike_id":"587d136d-cffd-4b7a-8e59-35c6b30fc500","system_id":"levelo_inurba_marseille","lat":43.28399,"lon":5.3812,"is_reserved":false,"is_disabled":false,"rental_uris":{"android":"levelo://app?vid=587d136d-cffd-4b7a-8e59-35c6b30fc500","ios":"levelo://app?vid=587d136d-cffd-4b7a-8e59-35c6b30fc500"},"vehicle_type_id":"4","last_reported":1741936154,"current_range_meters":7200,"station_id":"","pricing_plan_id":"cebpf4jnsgd1na2vs0mg"},{"bike_id":"d9e22966-e1b3-45fa-8488-a560581f6522","system_id":"levelo_inurba_marseille","lat":43.2405,"lon":5.37772,"is_reserved":false,"is_disabled":false,"rental_uris":{"android":"levelo://app?vid=d9e22966-e1b3-45fa-8488-a560581f6522","ios":"levelo://app?vid=d9e22966-e1b3-45fa-8488-a560581f6522"},"vehicle_type_id":"4","last_reported":1741936154,"current_range_meters":7200,"station_id":"ce4bhnp2rcd13ifvqgvg","pricing_plan_id":"cebpf4jnsgd1na2vs0mg"},{"bike_id":"d0da08c1-6f2e-4548-8fc2-e9c8603b4e82","system_id":"levelo_inurba_marseille","lat":43.309485,"lon":5.390255,"is_reserved":false,"is_disabled":true,"rental_uris":{"android":"levelo://app?vid=d0da08c1-6f2e-4548-8fc2-e9c8603b4e82","ios":"levelo://app?vid=d0da08c1-6f2e-4548-8fc2-e9c8603b4e82"},"vehicle_type_id":"4","last_reported":1741936154,"current_range_meters":8000,"station_id":"ce4bgup2rcd13ifvqco0","pricing_plan_id":"cebpf4jnsgd1na2vs0mg"},{"bike_id":"b363f8b8-2518-47c4-9880-4e754d1b57c8","system_id":"levelo_inurba_marseille","lat":43.309234,"lon":5.401396,"is_reserved":false,"is_disabled":false,"rental_uris":{"android":"levelo://app?vid=b363f8b8-2518-47c4-9880-4e754d1b57c8","ios":"levelo://app?vid=b363f8b8-2518-47c4-9880-4e754d1b57c8"},"vehicle_type_id":"4","last_reported":1741936154,"current_range_meters":7200,"station_id":"ce4bgvp2rcd13ifvqct0","pricing_plan_id":"cebpf4jnsgd1na2vs0mg"},{"bike_id":"154d0f4a-7cf1-4b4a-8919-807104d462e1","system_id":"levelo_inurba_marseille","lat":43.26662,"lon":5.38614,"is_reserved":false,"is_disabled":false,"rental_uris":{"android":"levelo://app?vid=154d0f4a-7cf1-4b4a-8919-807104d462e1","ios":"levelo://app?vid=154d0f4a-7cf1-4b4a-8919-807104d462e1"},"vehicle_type_id":"4","last_reported":1741936154,"current_range_meters":7200,"station_id":"","pricing_plan_id":"cebpf4jnsgd1na2vs0mg"},{"bike_id":"eb566ff4-1bac-4bc4-88db-2a4f2a1cb684","system_id":"levelo_inurba_marseille","lat":43.28926,"lon":5.39626,"is_reserved":false,"is_disabled":false,"rental_uris":{"android":"levelo://app?vid=eb566ff4-1bac-4bc4-88db-2a4f2a1cb684","ios":"levelo://app?vid=eb566ff4-1bac-4bc4-88db-2a4f2a1cb684"},"vehicle_type_id":"4","last_reported":1741936154,"current_range_meters":7200,"station_id":"ce4bh3h2rcd13ifvqdn0","pricing_plan_id":"cebpf4jnsgd1na2vs0mg"},{"bike_id":"b3fead73-4c4c-401e-81a0-a7fad437c748","system_id":"levelo_inurba_marseille","lat":43.25017,"lon":5.38924,"is_reserved":false,"is_disabled":false,"rental_uris":{"android":"levelo://app?vid=b3fead73-4c4c-401e-81a0-a7fad437c748","ios":"levelo://app?vid=b3fead73-4c4c-401e-81a0-a7fad437c748"},"vehicle_type_id":"4","last_reported":1741936154,"current_range_meters":7200,"station_id":"ce4bhgp2rcd13ifvqfd0","pricing_plan_id":"cebpf4jnsgd1na2vs0mg"},{"bike_id":"70af94d1-6fd1-4b48-807f-3d28ddfae0af","system_id":"levelo_inurba_marseille","lat":43.28346,"lon":5.38104,"is_reserved":false,"is_disabled":false,"rental_uris":{"android":"levelo://app?vid=70af94d1-6fd1-4b48-807f-3d28ddfae0af","ios":"levelo://app?vid=70af94d1-6fd1-4b48-807f-3d28ddfae0af"},"vehicle_type_id":"4","last_reported":1741936154,"current_range_meters":7200,"station_id":"ce4bh412rcd13ifvqdr0","pricing_plan_id":"cebpf4jnsgd1na2vs0mg"},{"bike_id":"e350ce66-a995-469c-b4d1-ba6658fe49e2","system_id":"levelo_inurba_marseille","lat":43.278144,"lon":5.407134,"is_reserved":false,"is_disabled":false,"rental_uris":{"android":"levelo://app?vid=e350ce66-a995-469c-b4d1-ba6658fe49e2","ios":"levelo://app?vid=e350ce66-a995-469c-b4d1-ba6658fe49e2"},"vehicle_type_id":"4","last_reported":1741936154,"current_range_meters":7200,"station_id":"ce4bhnh2rcd13ifvqgtg","pricing_plan_id":"cebpf4jnsgd1na2vs0mg"},{"bike_id":"39df283f-35a5-4c44-9f0d-6dd6923a19a4","system_id":"levelo_inurba_marseille","lat":43.321235,"lon":5.367703,"is_reserved":false,"is_disabled":false,"rental_uris":{"android":"levelo://app?vid=39df283f-35a5-4c44-9f0d-6dd6923a19a4","ios":"levelo://app?vid=39df283f-35a5-4c44-9f0d-6dd6923a19a4"},"vehicle_type_id":"4","last_reported":1741936154,"current_range_meters":7200,"station_id":"ce4bhrh2rcd13ifvqhug","pricing_plan_id":"cebpf4jnsgd1na2vs0mg"},{"bike_id":"814c8ec0-7f86-43ef-a1aa-fb2c579e864f","system_id":"levelo_inurba_marseille","lat":43.30478,"lon":5.38193,"is_reserved":false,"is_disabled":false,"rental_uris":{"android":"levelo://app?vid=814c8ec0-7f86-43ef-a1aa-fb2c579e864f","ios":"levelo://app?vid=814c8ec0-7f86-43ef-a1aa-fb2c579e864f"},"vehicle_type_id":"4","last_reported":1741936154,"current_range_meters":8000,"station_id":"","pricing_plan_id":"cebpf4jnsgd1na2vs0mg"},{"bike_id":"155c7165-40f9-4638-84a1-91e91cddb9e0","system_id":"levelo_inurba_marseille","lat":43.3084,"lon":5.37274,"is_reserved":false,"is_disabled":false,"rental_uris":{"android":"levelo://app?vid=155c7165-40f9-4638-84a1-91e91cddb9e0","ios":"levelo://app?vid=155c7165-40f9-4638-84a1-91e91cddb9e0"},"vehicle_type_id":"4","last_reported":1741936154,"current_range_meters":8000,"station_id":"","pricing_plan_id":"cebpf4jnsgd1na2vs0mg"},{"bike_id":"4f2ddad8-944b-4f7f-88fd-24992043188c","system_id":"levelo_inurba_marseille","lat":43.30939,"lon":5.40144,"is_reserved":false,"is_disabled":false,"rental_uris":{"android":"levelo://app?vid=4f2ddad8-944b-4f7f-88fd-24992043188c","ios":"levelo://app?vid=4f2ddad8-944b-4f7f-88fd-24992043188c"},"vehicle_type_id":"4","last_reported":1741936154,"current_range_meters":8000,"station_id":"ce4bgvp2rcd13ifvqct0","pricing_plan_id":"cebpf4jnsgd1na2vs0mg"},{"bike_id":"b78c10b7-b880-4638-b672-f8fc61bd3c48","system_id":"levelo_inurba_marseille","lat":43.24073,"lon":5.37739,"is_reserved":false,"is_disabled":false,"rental_uris":{"android":"levelo://app?vid=b78c10b7-b880-4638-b672-f8fc61bd3c48","ios":"levelo://app?vid=b78c10b7-b880-4638-b672-f8fc61bd3c48"},"vehicle_type_id":"4","last_reported":1741936154,"current_range_meters":8000,"station_id":"ce4bhnp2rcd13ifvqgvg","pricing_plan_id":"cebpf4jnsgd1na2vs0mg"},{"bike_id":"5aed8199-3ddd-4220-8c4a-507766c3f1de","system_id":"levelo_inurba_marseille","lat":43.29449,"lon":5.39751,"is_reserved":false,"is_disabled":false,"rental_uris":{"android":"levelo://app?vid=5aed8199-3ddd-4220-8c4a-507766c3f1de","ios":"levelo://app?vid=5aed8199-3ddd-4220-8c4a-507766c3f1de"},"vehicle_type_id":"4","last_reported":1741936154,"current_range_meters":8000,"station_id":"ce4bh3h2rcd13ifvqdo0","pricing_plan_id":"cebpf4jnsgd1na2vs0mg"},{"bike_id":"36ebfc17-b6ab-4767-a5e0-c94c11aba8a2","system_id":"levelo_inurba_marseille","lat":43.32369,"lon":5.38894,"is_reserved":false,"is_disabled":false,"rental_uris":{"android":"levelo://app?vid=36ebfc17-b6ab-4767-a5e0-c94c11aba8a2","ios":"levelo://app?vid=36ebfc17-b6ab-4767-a5e0-c94c11aba8a2"},"vehicle_type_id":"4","last_reported":1741936154,"current_range_meters":8000,"station_id":"ce4bhqp2rcd13ifvqhog","pricing_plan_id":"cebpf4jnsgd1na2vs0mg"},{"bike_id":"1cbeb49c-8d51-46f2-ad03-8af78ea79d9a","system_id":"levelo_inurba_marseille","lat":43.24181,"lon":5.39695,"is_reserved":false,"is_disabled":false,"rental_uris":{"android":"levelo://app?vid=1cbeb49c-8d51-46f2-ad03-8af78ea79d9a","ios":"levelo://app?vid=1cbeb49c-8d51-46f2-ad03-8af78ea79d9a"},"vehicle_type_id":"4","last_reported":1741936154,"current_range_meters":8000,"station_id":"ce4bhn12rcd13ifvqgpg","pricing_plan_id":"cebpf4jnsgd1na2vs0mg"},{"bike_id":"8c81821e-1f53-47a6-97d2-f4348c01f291","system_id":"levelo_inurba_marseille","lat":43.27496,"lon":5.42454,"is_reserved":false,"is_disabled":false,"rental_uris":{"android":"levelo://app?vid=8c81821e-1f53-47a6-97d2-f4348c01f291","ios":"levelo://app?vid=8c81821e-1f53-47a6-97d2-f4348c01f291"},"vehicle_type_id":"4","last_reported":1741936154,"current_range_meters":8000,"station_id":"ce4bhn92rcd13ifvqgrg","pricing_plan_id":"cebpf4jnsgd1na2vs0mg"},{"bike_id":"d0be61ee-8c6c-4bf7-99b6-f099a281a656","system_id":"levelo_inurba_marseille","lat":43.24997,"lon":5.38942,"is_reserved":false,"is_disabled":false,"rental_uris":{"android":"levelo://app?vid=d0be61ee-8c6c-4bf7-99b6-f099a281a656","ios":"levelo://app?vid=d0be61ee-8c6c-4bf7-99b6-f099a281a656"},"vehicle_type_id":"4","last_reported":1741936154,"current_range_meters":8000,"station_id":"ce4bhgp2rcd13ifvqfd0","pricing_plan_id":"cebpf4jnsgd1na2vs0mg"},{"bike_id":"6307ec30-142e-4380-a1b4-79305fa6f44a","system_id":"levelo_inurba_marseille","lat":43.25751,"lon":5.41091,"is_reserved":false,"is_disabled":true,"rental_uris":{"android":"levelo://app?vid=6307ec30-142e-4380-a1b4-79305fa6f44a","ios":"levelo://app?vid=6307ec30-142e-4380-a1b4-79305fa6f44a"},"vehicle_type_id":"4","last_reported":1741936154,"current_range_meters":8000,"station_id":"ce4bhkp2rcd13ifvqgd0","pricing_plan_id":"cebpf4jnsgd1na2vs0mg"},{"bike_id":"db1d9945-452a-48d1-a218-9d250e8fb884","system_id":"levelo_inurba_marseille","lat":43.31323,"lon":5.39711,"is_reserved":false,"is_disabled":true,"rental_uris":{"android":"levelo://app?vid=db1d9945-452a-48d1-a218-9d250e8fb884","ios":"levelo://app?vid=db1d9945-452a-48d1-a218-9d250e8fb884"},"vehicle_type_id":"4","last_reported":1741936154,"current_range_meters":8000,"station_id":"ce4bgvp2rcd13ifvqcu0","pricing_plan_id":"cebpf4jnsgd1na2vs0mg"},{"bike_id":"679747b7-bbd6-46be-9dde-bd8bad65aa17","system_id":"levelo_inurba_marseille","lat":43.304622,"lon":5.37914,"is_reserved":false,"is_disabled":false,"rental_uris":{"android":"levelo://app?vid=679747b7-bbd6-46be-9dde-bd8bad65aa17","ios":"levelo://app?vid=679747b7-bbd6-46be-9dde-bd8bad65aa17"},"vehicle_type_id":"4","last_reported":1741936154,"current_range_meters":8400,"station_id":"ce4bgup2rcd13ifvqcn0","pricing_plan_id":"cebpf4jnsgd1na2vs0mg"},{"bike_id":"e82f7229-a322-4a4d-95f0-fe6d440c979f","system_id":"levelo_inurba_marseille","lat":43.30133,"lon":5.37431,"is_reserved":false,"is_disabled":false,"rental_uris":{"android":"levelo://app?vid=e82f7229-a322-4a4d-95f0-fe6d440c979f","ios":"levelo://app?vid=e82f7229-a322-4a4d-95f0-fe6d440c979f"},"vehicle_type_id":"4","last_reported":1741936154,"current_range_meters":8000,"station_id":"ce4bgs92rcd13ifvqcc0","pricing_plan_id":"cebpf4jnsgd1na2vs0mg"},{"bike_id":"0dcda778-bf7d-4755-b78a-f4840d5b5675","system_id":"levelo_inurba_marseille","lat":43.2857,"lon":5.39473,"is_reserved":false,"is_disabled":false,"rental_uris":{"android":"levelo://app?vid=0dcda778-bf7d-4755-b78a-f4840d5b5675","ios":"levelo://app?vid=0dcda778-bf7d-4755-b78a-f4840d5b5675"},"vehicle_type_id":"4","last_reported":1741936154,"current_range_meters":8400,"station_id":"ce4bh292rcd13ifvqdg0","pricing_plan_id":"cebpf4jnsgd1na2vs0mg"},{"bike_id":"46f861aa-dccb-400d-8fc7-bb9082254569","system_id":"levelo_inurba_marseille","lat":43.280376,"lon":5.369365,"is_reserved":false,"is_disabled":false,"rental_uris":{"android":"levelo://app?vid=46f861aa-dccb-400d-8fc7-bb9082254569","ios":"levelo://app?vid=46f861aa-dccb-400d-8fc7-bb9082254569"},"vehicle_type_id":"4","last_reported":1741936154,"current_range_meters":8400,"station_id":"ce4bha12rcd13ifvqef0","pricing_plan_id":"cebpf4jnsgd1na2vs0mg"},{"bike_id":"d4f28dc4-1355-4c42-a706-3679bbd67020","system_id":"levelo_inurba_marseille","lat":43.30659,"lon":5.40096,"is_reserved":false,"is_disabled":false,"rental_uris":{"android":"levelo://app?vid=d4f28dc4-1355-4c42-a706-3679bbd67020","ios":"levelo://app?vid=d4f28dc4-1355-4c42-a706-3679bbd67020"},"vehicle_type_id":"4","last_reported":1741936154,"current_range_meters":8400,"station_id":"ce4bh112rcd13ifvqda0","pricing_plan_id":"cebpf4jnsgd1na2vs0mg"},{"bike_id":"b714d376-b154-49e5-a766-045a93ff6454","system_id":"levelo_inurba_marseille","lat":43.30144,"lon":5.38098,"is_reserved":false,"is_disabled":false,"rental_uris":{"android":"levelo://app?vid=b714d376-b154-49e5-a766-045a93ff6454","ios":"levelo://app?vid=b714d376-b154-49e5-a766-045a93ff6454"},"vehicle_type_id":"4","last_reported":1741936154,"current_range_meters":8400,"station_id":"ce4bgjp2rcd13ifvqbh0","pricing_plan_id":"cebpf4jnsgd1na2vs0mg"},{"bike_id":"76a1a065-7414-4909-8e1f-d9664a62f90e","system_id":"levelo_inurba_marseille","lat":43.28021,"lon":5.36953,"is_reserved":false,"is_disabled":false,"rental_uris":{"android":"levelo://app?vid=76a1a065-7414-4909-8e1f-d9664a62f90e","ios":"levelo://app?vid=76a1a065-7414-4909-8e1f-d9664a62f90e"},"vehicle_type_id":"4","last_reported":1741936154,"current_range_meters":8400,"station_id":"ce4bha12rcd13ifvqef0","pricing_plan_id":"cebpf4jnsgd1na2vs0mg"},{"bike_id":"c2100bd3-57ec-4820-992d-70841c2f886a","system_id":"levelo_inurba_marseille","lat":43.32095,"lon":5.36782,"is_reserved":false,"is_disabled":true,"rental_uris":{"android":"levelo://app?vid=c2100bd3-57ec-4820-992d-70841c2f886a","ios":"levelo://app?vid=c2100bd3-57ec-4820-992d-70841c2f886a"},"vehicle_type_id":"4","last_reported":1741936154,"current_range_meters":8400,"station_id":"ce4bhrh2rcd13ifvqhug","pricing_plan_id":"cebpf4jnsgd1na2vs0mg"},{"bike_id":"1179ea35-4831-4438-984a-d67269a5255b","system_id":"levelo_inurba_marseille","lat":43.23184,"lon":5.3556,"is_reserved":false,"is_disabled":false,"rental_uris":{"android":"levelo://app?vid=1179ea35-4831-4438-984a-d67269a5255b","ios":"levelo://app?vid=1179ea35-4831-4438-984a-d67269a5255b"},"vehicle_type_id":"4","last_reported":1741936154,"current_range_meters":8400,"station_id":"ce4bhu92rcd13ifvqi70","pricing_plan_id":"cebpf4jnsgd1na2vs0mg"},{"bike_id":"f926aefb-e54c-4c8f-8cea-ce3de9732eba","system_id":"levelo_inurba_marseille","lat":43.33602,"lon":5.41028,"is_reserved":false,"is_disabled":false,"rental_uris":{"android":"levelo://app?vid=f926aefb-e54c-4c8f-8cea-ce3de9732eba","ios":"levelo://app?vid=f926aefb-e54c-4c8f-8cea-ce3de9732eba"},"vehicle_type_id":"4","last_reported":1741936154,"current_range_meters":8400,"station_id":"ce4bhqh2rcd13ifvqhmg","pricing_plan_id":"cebpf4jnsgd1na2vs0mg"},{"bike_id":"54184fa2-bc10-4430-9b0e-4e689a6e5eb5","system_id":"levelo_inurba_marseille","lat":43.30323,"lon":5.36897,"is_reserved":false,"is_disabled":false,"rental_uris":{"android":"levelo://app?vid=54184fa2-bc10-4430-9b0e-4e689a6e5eb5","ios":"levelo://app?vid=54184fa2-bc10-4430-9b0e-4e689a6e5eb5"},"vehicle_type_id":"4","last_reported":1741936154,"current_range_meters":8400,"station_id":"ce4bgqh2rcd13ifvqc5g","pricing_plan_id":"cebpf4jnsgd1na2vs0mg"},{"bike_id":"53cbc3b8-73f7-4525-88f8-5bf9f8c70134","system_id":"levelo_inurba_marseille","lat":43.28412,"lon":5.37515,"is_reserved":false,"is_disabled":true,"rental_uris":{"android":"levelo://app?vid=53cbc3b8-73f7-4525-88f8-5bf9f8c70134","ios":"levelo://app?vid=53cbc3b8-73f7-4525-88f8-5bf9f8c70134"},"vehicle_type_id":"4","last_reported":1741936154,"current_range_meters":8400,"station_id":"ce4bh412rcd13ifvqds0","pricing_plan_id":"cebpf4jnsgd1na2vs0mg"},{"bike_id":"54bf63aa-0a8b-42b0-93c1-c2256fbfeabf","system_id":"levelo_inurba_marseille","lat":43.26622,"lon":5.38948,"is_reserved":false,"is_disabled":false,"rental_uris":{"android":"levelo://app?vid=54bf63aa-0a8b-42b0-93c1-c2256fbfeabf","ios":"levelo://app?vid=54bf63aa-0a8b-42b0-93c1-c2256fbfeabf"},"vehicle_type_id":"4","last_reported":1741936154,"current_range_meters":8800,"station_id":"ce4bhe12rcd13ifvqf30","pricing_plan_id":"cebpf4jnsgd1na2vs0mg"},{"bike_id":"772eac88-84d7-4028-b5b2-fd3791ca4bd2","system_id":"levelo_inurba_marseille","lat":43.30464,"lon":5.37914,"is_reserved":false,"is_disabled":false,"rental_uris":{"android":"levelo://app?vid=772eac88-84d7-4028-b5b2-fd3791ca4bd2","ios":"levelo://app?vid=772eac88-84d7-4028-b5b2-fd3791ca4bd2"},"vehicle_type_id":"4","last_reported":1741936154,"current_range_meters":8800,"station_id":"ce4bgup2rcd13ifvqcn0","pricing_plan_id":"cebpf4jnsgd1na2vs0mg"},{"bike_id":"8939fbba-2fc8-450a-9027-04db4f4e697a","system_id":"levelo_inurba_marseille","lat":43.31434,"lon":5.4046,"is_reserved":false,"is_disabled":false,"rental_uris":{"android":"levelo://app?vid=8939fbba-2fc8-450a-9027-04db4f4e697a","ios":"levelo://app?vid=8939fbba-2fc8-450a-9027-04db4f4e697a"},"vehicle_type_id":"4","last_reported":1741936154,"current_range_meters":8800,"station_id":"","pricing_plan_id":"cebpf4jnsgd1na2vs0mg"},{"bike_id":"22c0550b-29b7-487c-9f57-3e6e4e86fd41","system_id":"levelo_inurba_marseille","lat":43.3154,"lon":5.38036,"is_reserved":false,"is_disabled":false,"rental_uris":{"android":"levelo://app?vid=22c0550b-29b7-487c-9f57-3e6e4e86fd41","ios":"levelo://app?vid=22c0550b-29b7-487c-9f57-3e6e4e86fd41"},"vehicle_type_id":"4","last_reported":1741936154,"current_range_meters":8800,"station_id":"ce4bhsp2rcd13ifvqi50","pricing_plan_id":"cebpf4jnsgd1na2vs0mg"},{"bike_id":"fd0b94d0-5000-40fe-9251-aeb5428fb301","system_id":"levelo_inurba_marseille","lat":43.27201,"lon":5.40969,"is_reserved":false,"is_disabled":false,"rental_uris":{"android":"levelo://app?vid=fd0b94d0-5000-40fe-9251-aeb5428fb301","ios":"levelo://app?vid=fd0b94d0-5000-40fe-9251-aeb5428fb301"},"vehicle_type_id":"4","last_reported":1741936154,"current_range_meters":8800,"station_id":"ce4bhl12rcd13ifvqgf0","pricing_plan_id":"cebpf4jnsgd1na2vs0mg"},{"bike_id":"6409b9da-be33-4216-8242-2288f6158ad9","system_id":"levelo_inurba_marseille","lat":43.30525,"lon":5.36723,"is_reserved":false,"is_disabled":false,"rental_uris":{"android":"levelo://app?vid=6409b9da-be33-4216-8242-2288f6158ad9","ios":"levelo://app?vid=6409b9da-be33-4216-8242-2288f6158ad9"},"vehicle_type_id":"4","last_reported":1741936154,"current_range_meters":8400,"station_id":"ce4bgrp2rcd13ifvqc9g","pricing_plan_id":"cebpf4jnsgd1na2vs0mg"},{"bike_id":"1229703b-88b3-4881-b25f-11fe4b7e082c","system_id":"levelo_inurba_marseille","lat":43.30315,"lon":5.36902,"is_reserved":false,"is_disabled":false,"rental_uris":{"android":"levelo://app?vid=1229703b-88b3-4881-b25f-11fe4b7e082c","ios":"levelo://app?vid=1229703b-88b3-4881-b25f-11fe4b7e082c"},"vehicle_type_id":"4","last_reported":1741936154,"current_range_meters":8800,"station_id":"ce4bgqh2rcd13ifvqc5g","pricing_plan_id":"cebpf4jnsgd1na2vs0mg"},{"bike_id":"fe3c040d-320c-464f-9744-5e42fa5023fd","system_id":"levelo_inurba_marseille","lat":43.30158,"lon":5.38096,"is_reserved":false,"is_disabled":false,"rental_uris":{"android":"levelo://app?vid=fe3c040d-320c-464f-9744-5e42fa5023fd","ios":"levelo://app?vid=fe3c040d-320c-464f-9744-5e42fa5023fd"},"vehicle_type_id":"4","last_reported":1741936154,"current_range_meters":8800,"station_id":"ce4bgjp2rcd13ifvqbh0","pricing_plan_id":"cebpf4jnsgd1na2vs0mg"},{"bike_id":"320564be-2867-4ab5-80ba-99ed9100fc63","system_id":"levelo_inurba_marseille","lat":43.258,"lon":5.39422,"is_reserved":false,"is_disabled":false,"rental_uris":{"android":"levelo://app?vid=320564be-2867-4ab5-80ba-99ed9100fc63","ios":"levelo://app?vid=320564be-2867-4ab5-80ba-99ed9100fc63"},"vehicle_type_id":"4","last_reported":1741936154,"current_range_meters":8800,"station_id":"","pricing_plan_id":"cebpf4jnsgd1na2vs0mg"},{"bike_id":"85febf70-eab1-4f30-96f1-2b4d2195db5c","system_id":"levelo_inurba_marseille","lat":43.292396,"lon":5.382312,"is_reserved":false,"is_disabled":false,"rental_uris":{"android":"levelo://app?vid=85febf70-eab1-4f30-96f1-2b4d2195db5c","ios":"levelo://app?vid=85febf70-eab1-4f30-96f1-2b4d2195db5c"},"vehicle_type_id":"4","last_reported":1741936154,"current_range_meters":8800,"station_id":"","pricing_plan_id":"cebpf4jnsgd1na2vs0mg"},{"bike_id":"01e25889-3bfd-4c2b-b309-d66c58f42e18","system_id":"levelo_inurba_marseille","lat":43.31692,"lon":5.40474,"is_reserved":false,"is_disabled":false,"rental_uris":{"android":"levelo://app?vid=01e25889-3bfd-4c2b-b309-d66c58f42e18","ios":"levelo://app?vid=01e25889-3bfd-4c2b-b309-d66c58f42e18"},"vehicle_type_id":"4","last_reported":1741936154,"current_range_meters":8800,"station_id":"ce4bh012rcd13ifvqd00","pricing_plan_id":"cebpf4jnsgd1na2vs0mg"},{"bike_id":"6c8e51ee-2a45-4efe-a6ea-eb0013dedd61","system_id":"levelo_inurba_marseille","lat":43.2408,"lon":5.37763,"is_reserved":false,"is_disabled":false,"rental_uris":{"android":"levelo://app?vid=6c8e51ee-2a45-4efe-a6ea-eb0013dedd61","ios":"levelo://app?vid=6c8e51ee-2a45-4efe-a6ea-eb0013dedd61"},"vehicle_type_id":"4","last_reported":1741936154,"current_range_meters":8800,"station_id":"ce4bhnp2rcd13ifvqgvg","pricing_plan_id":"cebpf4jnsgd1na2vs0mg"},{"bike_id":"96bae133-2c88-4f4f-a72b-a62518ed1b8a","system_id":"levelo_inurba_marseille","lat":43.27503,"lon":5.42455,"is_reserved":false,"is_disabled":false,"rental_uris":{"android":"levelo://app?vid=96bae133-2c88-4f4f-a72b-a62518ed1b8a","ios":"levelo://app?vid=96bae133-2c88-4f4f-a72b-a62518ed1b8a"},"vehicle_type_id":"4","last_reported":1741936154,"current_range_meters":8800,"station_id":"ce4bhn92rcd13ifvqgrg","pricing_plan_id":"cebpf4jnsgd1na2vs0mg"},{"bike_id":"cd398ab7-6ea9-465d-8249-4e3e5a4f4a83","system_id":"levelo_inurba_marseille","lat":43.2957,"lon":5.39985,"is_reserved":false,"is_disabled":false,"rental_uris":{"android":"levelo://app?vid=cd398ab7-6ea9-465d-8249-4e3e5a4f4a83","ios":"levelo://app?vid=cd398ab7-6ea9-465d-8249-4e3e5a4f4a83"},"vehicle_type_id":"4","last_reported":1741936154,"current_range_meters":9200,"station_id":"ce4bh312rcd13ifvqdj0","pricing_plan_id":"cebpf4jnsgd1na2vs0mg"},{"bike_id":"58953ad0-ae88-4a58-9ac6-f797dd69f44e","system_id":"levelo_inurba_marseille","lat":43.24999,"lon":5.38932,"is_reserved":false,"is_disabled":false,"rental_uris":{"android":"levelo://app?vid=58953ad0-ae88-4a58-9ac6-f797dd69f44e","ios":"levelo://app?vid=58953ad0-ae88-4a58-9ac6-f797dd69f44e"},"vehicle_type_id":"4","last_reported":1741936154,"current_range_meters":9200,"station_id":"ce4bhgp2rcd13ifvqfd0","pricing_plan_id":"cebpf4jnsgd1na2vs0mg"},{"bike_id":"6cec560f-8635-4801-8462-637e6f2c72c5","system_id":"levelo_inurba_marseille","lat":43.231988,"lon":5.355486,"is_reserved":false,"is_disabled":false,"rental_uris":{"android":"levelo://app?vid=6cec560f-8635-4801-8462-637e6f2c72c5","ios":"levelo://app?vid=6cec560f-8635-4801-8462-637e6f2c72c5"},"vehicle_type_id":"4","last_reported":1741936154,"current_range_meters":9200,"station_id":"ce4bhu92rcd13ifvqi70","pricing_plan_id":"cebpf4jnsgd1na2vs0mg"},{"bike_id":"97a3342f-3ca5-439d-8886-7bbabf5b6c98","system_id":"levelo_inurba_marseille","lat":43.321086,"lon":5.367836,"is_reserved":false,"is_disabled":false,"rental_uris":{"android":"levelo://app?vid=97a3342f-3ca5-439d-8886-7bbabf5b6c98","ios":"levelo://app?vid=97a3342f-3ca5-439d-8886-7bbabf5b6c98"},"vehicle_type_id":"4","last_reported":1741936154,"current_range_meters":9200,"station_id":"ce4bhrh2rcd13ifvqhug","pricing_plan_id":"cebpf4jnsgd1na2vs0mg"},{"bike_id":"564e87d0-520d-49c3-b7ab-8cd6f020bda9","system_id":"levelo_inurba_marseille","lat":43.28482,"lon":5.38548,"is_reserved":false,"is_disabled":false,"rental_uris":{"android":"levelo://app?vid=564e87d0-520d-49c3-b7ab-8cd6f020bda9","ios":"levelo://app?vid=564e87d0-520d-49c3-b7ab-8cd6f020bda9"},"vehicle_type_id":"4","last_reported":1741936154,"current_range_meters":8800,"station_id":"ce4bh8p2rcd13ifvqeb0","pricing_plan_id":"cebpf4jnsgd1na2vs0mg"},{"bike_id":"ec7ca09a-3b86-4b9e-bc0d-5a73935cd544","system_id":"levelo_inurba_marseille","lat":43.31752,"lon":5.39018,"is_reserved":false,"is_disabled":false,"rental_uris":{"android":"levelo://app?vid=ec7ca09a-3b86-4b9e-bc0d-5a73935cd544","ios":"levelo://app?vid=ec7ca09a-3b86-4b9e-bc0d-5a73935cd544"},"vehicle_type_id":"4","last_reported":1741936154,"current_range_meters":9200,"station_id":"ce4bhqp2rcd13ifvqhng","pricing_plan_id":"cebpf4jnsgd1na2vs0mg"},{"bike_id":"8a7d6fbc-9324-4554-9abc-ceeffff483c4","system_id":"levelo_inurba_marseille","lat":43.323629,"lon":5.388818,"is_reserved":false,"is_disabled":false,"rental_uris":{"android":"levelo://app?vid=8a7d6fbc-9324-4554-9abc-ceeffff483c4","ios":"levelo://app?vid=8a7d6fbc-9324-4554-9abc-ceeffff483c4"},"vehicle_type_id":"4","last_reported":1741936154,"current_range_meters":9200,"station_id":"ce4bhqp2rcd13ifvqhog","pricing_plan_id":"cebpf4jnsgd1na2vs0mg"},{"bike_id":"56ef3efe-9ba9-4043-a730-5fc4d6f44599","system_id":"levelo_inurba_marseille","lat":43.28364,"lon":5.38125,"is_reserved":false,"is_disabled":false,"rental_uris":{"android":"levelo://app?vid=56ef3efe-9ba9-4043-a730-5fc4d6f44599","ios":"levelo://app?vid=56ef3efe-9ba9-4043-a730-5fc4d6f44599"},"vehicle_type_id":"4","last_reported":1741936154,"current_range_meters":9200,"station_id":"ce4bh412rcd13ifvqdr0","pricing_plan_id":"cebpf4jnsgd1na2vs0mg"},{"bike_id":"6944bb06-8a8c-4cf4-86a1-ca9561cf4ee4","system_id":"levelo_inurba_marseille","lat":43.23063,"lon":5.35484,"is_reserved":false,"is_disabled":false,"rental_uris":{"android":"levelo://app?vid=6944bb06-8a8c-4cf4-86a1-ca9561cf4ee4","ios":"levelo://app?vid=6944bb06-8a8c-4cf4-86a1-ca9561cf4ee4"},"vehicle_type_id":"4","last_reported":1741936154,"current_range_meters":9200,"station_id":"cpo3342slgdg3j2ifvpg","pricing_plan_id":"cebpf4jnsgd1na2vs0mg"},{"bike_id":"d2c1304d-c6de-4e19-a363-2c0c4bdd9fb1","system_id":"levelo_inurba_marseille","lat":43.246486,"lon":5.389041,"is_reserved":false,"is_disabled":false,"rental_uris":{"android":"levelo://app?vid=d2c1304d-c6de-4e19-a363-2c0c4bdd9fb1","ios":"levelo://app?vid=d2c1304d-c6de-4e19-a363-2c0c4bdd9fb1"},"vehicle_type_id":"4","last_reported":1741936154,"current_range_meters":9200,"station_id":"ce4bhg12rcd13ifvqf60","pricing_plan_id":"cebpf4jnsgd1na2vs0mg"},{"bike_id":"414a87d8-0320-4da5-94cb-1c2e9eb2c2e2","system_id":"levelo_inurba_marseille","lat":43.258227,"lon":5.394367,"is_reserved":false,"is_disabled":false,"rental_uris":{"android":"levelo://app?vid=414a87d8-0320-4da5-94cb-1c2e9eb2c2e2","ios":"levelo://app?vid=414a87d8-0320-4da5-94cb-1c2e9eb2c2e2"},"vehicle_type_id":"4","last_reported":1741936154,"current_range_meters":9600,"station_id":"ce4bhip2rcd13ifvqft0","pricing_plan_id":"cebpf4jnsgd1na2vs0mg"},{"bike_id":"7121d818-13e2-43ed-b445-7134fefdd64f","system_id":"levelo_inurba_marseille","lat":43.231943,"lon":5.355443,"is_reserved":false,"is_disabled":false,"rental_uris":{"android":"levelo://app?vid=7121d818-13e2-43ed-b445-7134fefdd64f","ios":"levelo://app?vid=7121d818-13e2-43ed-b445-7134fefdd64f"},"vehicle_type_id":"4","last_reported":1741936154,"current_range_meters":9600,"station_id":"ce4bhu92rcd13ifvqi70","pricing_plan_id":"cebpf4jnsgd1na2vs0mg"},{"bike_id":"6cf03d89-138f-4959-8ce9-2e6be1ea3acc","system_id":"levelo_inurba_marseille","lat":43.3089,"lon":5.37191,"is_reserved":false,"is_disabled":false,"rental_uris":{"android":"levelo://app?vid=6cf03d89-138f-4959-8ce9-2e6be1ea3acc","ios":"levelo://app?vid=6cf03d89-138f-4959-8ce9-2e6be1ea3acc"},"vehicle_type_id":"4","last_reported":1741936154,"current_range_meters":9600,"station_id":"ce4bguh2rcd13ifvqckg","pricing_plan_id":"cebpf4jnsgd1na2vs0mg"},{"bike_id":"c118cc19-7f0e-4e54-b921-f1faa9246911","system_id":"levelo_inurba_marseille","lat":43.240792,"lon":5.377519,"is_reserved":false,"is_disabled":false,"rental_uris":{"android":"levelo://app?vid=c118cc19-7f0e-4e54-b921-f1faa9246911","ios":"levelo://app?vid=c118cc19-7f0e-4e54-b921-f1faa9246911"},"vehicle_type_id":"4","last_reported":1741936154,"current_range_meters":9600,"station_id":"ce4bhnp2rcd13ifvqgvg","pricing_plan_id":"cebpf4jnsgd1na2vs0mg"},{"bike_id":"0dd86546-8c6f-4ab9-ab85-d8ae3fac840d","system_id":"levelo_inurba_marseille","lat":43.26949,"lon":5.3864,"is_reserved":false,"is_disabled":false,"rental_uris":{"android":"levelo://app?vid=0dd86546-8c6f-4ab9-ab85-d8ae3fac840d","ios":"levelo://app?vid=0dd86546-8c6f-4ab9-ab85-d8ae3fac840d"},"vehicle_type_id":"4","last_reported":1741936154,"current_range_meters":9600,"station_id":"ce4bhh92rcd13ifvqfh0","pricing_plan_id":"cebpf4jnsgd1na2vs0mg"},{"bike_id":"6d69bcb3-9f1f-47de-bcf3-40d0e4d7bc71","system_id":"levelo_inurba_marseille","lat":43.27812,"lon":5.40714,"is_reserved":false,"is_disabled":false,"rental_uris":{"android":"levelo://app?vid=6d69bcb3-9f1f-47de-bcf3-40d0e4d7bc71","ios":"levelo://app?vid=6d69bcb3-9f1f-47de-bcf3-40d0e4d7bc71"},"vehicle_type_id":"4","last_reported":1741936154,"current_range_meters":9600,"station_id":"ce4bhnh2rcd13ifvqgtg","pricing_plan_id":"cebpf4jnsgd1na2vs0mg"},{"bike_id":"c15f5842-a038-4f80-969f-9f0940ea7288","system_id":"levelo_inurba_marseille","lat":43.28949,"lon":5.39634,"is_reserved":false,"is_disabled":false,"rental_uris":{"android":"levelo://app?vid=c15f5842-a038-4f80-969f-9f0940ea7288","ios":"levelo://app?vid=c15f5842-a038-4f80-969f-9f0940ea7288"},"vehicle_type_id":"4","last_reported":1741936154,"current_range_meters":9600,"station_id":"ce4bh3h2rcd13ifvqdn0","pricing_plan_id":"cebpf4jnsgd1na2vs0mg"},{"bike_id":"c58ea9ca-fa82-45e4-b42f-886be65920e5","system_id":"levelo_inurba_marseille","lat":43.24547,"lon":5.39533,"is_reserved":false,"is_disabled":false,"rental_uris":{"android":"levelo://app?vid=c58ea9ca-fa82-45e4-b42f-886be65920e5","ios":"levelo://app?vid=c58ea9ca-fa82-45e4-b42f-886be65920e5"},"vehicle_type_id":"4","last_reported":1741936154,"current_range_meters":9600,"station_id":"ce4bhlp2rcd13ifvqgjg","pricing_plan_id":"cebpf4jnsgd1na2vs0mg"},{"bike_id":"b634fcd7-4303-4fed-a2f8-fcd04ed2a4dd","system_id":"levelo_inurba_marseille","lat":43.23052,"lon":5.35497,"is_reserved":false,"is_disabled":false,"rental_uris":{"android":"levelo://app?vid=b634fcd7-4303-4fed-a2f8-fcd04ed2a4dd","ios":"levelo://app?vid=b634fcd7-4303-4fed-a2f8-fcd04ed2a4dd"},"vehicle_type_id":"4","last_reported":1741936154,"current_range_meters":9600,"station_id":"cpo3342slgdg3j2ifvpg","pricing_plan_id":"cebpf4jnsgd1na2vs0mg"},{"bike_id":"44955c2d-9f77-4c68-a644-ccac7e2ec6e1","system_id":"levelo_inurba_marseille","lat":43.29031,"lon":5.39986,"is_reserved":false,"is_disabled":false,"rental_uris":{"android":"levelo://app?vid=44955c2d-9f77-4c68-a644-ccac7e2ec6e1","ios":"levelo://app?vid=44955c2d-9f77-4c68-a644-ccac7e2ec6e1"},"vehicle_type_id":"4","last_reported":1741936154,"current_range_meters":9600,"station_id":"ce4bh392rcd13ifvqdm0","pricing_plan_id":"cebpf4jnsgd1na2vs0mg"},{"bike_id":"4a3685f3-e2ce-4ad8-8bde-8a0ec2e78324","system_id":"levelo_inurba_marseille","lat":43.30151,"lon":5.38103,"is_reserved":false,"is_disabled":false,"rental_uris":{"android":"levelo://app?vid=4a3685f3-e2ce-4ad8-8bde-8a0ec2e78324","ios":"levelo://app?vid=4a3685f3-e2ce-4ad8-8bde-8a0ec2e78324"},"vehicle_type_id":"4","last_reported":1741936154,"current_range_meters":9600,"station_id":"ce4bgjp2rcd13ifvqbh0","pricing_plan_id":"cebpf4jnsgd1na2vs0mg"},{"bike_id":"436bf6fd-98f0-4c70-968c-7fcac8f398a5","system_id":"levelo_inurba_marseille","lat":43.25088,"lon":5.41066,"is_reserved":false,"is_disabled":false,"rental_uris":{"android":"levelo://app?vid=436bf6fd-98f0-4c70-968c-7fcac8f398a5","ios":"levelo://app?vid=436bf6fd-98f0-4c70-968c-7fcac8f398a5"},"vehicle_type_id":"4","last_reported":1741936154,"current_range_meters":10000,"station_id":"","pricing_plan_id":"cebpf4jnsgd1na2vs0mg"},{"bike_id":"bf859011-f7f5-46c9-b42f-2219be71d3f2","system_id":"levelo_inurba_marseille","lat":43.29954,"lon":5.37167,"is_reserved":false,"is_disabled":false,"rental_uris":{"android":"levelo://app?vid=bf859011-f7f5-46c9-b42f-2219be71d3f2","ios":"levelo://app?vid=bf859011-f7f5-46c9-b42f-2219be71d3f2"},"vehicle_type_id":"4","last_reported":1741936154,"current_range_meters":9600,"station_id":"ce4bgr92rcd13ifvqc7g","pricing_plan_id":"cebpf4jnsgd1na2vs0mg"},{"bike_id":"9fd9c0ae-4b3e-488f-bcdd-9301d5f196e9","system_id":"levelo_inurba_marseille","lat":43.29188,"lon":5.39311,"is_reserved":false,"is_disabled":false,"rental_uris":{"android":"levelo://app?vid=9fd9c0ae-4b3e-488f-bcdd-9301d5f196e9","ios":"levelo://app?vid=9fd9c0ae-4b3e-488f-bcdd-9301d5f196e9"},"vehicle_type_id":"4","last_reported":1741936154,"current_range_meters":9600,"station_id":"ce4bh192rcd13ifvqdd0","pricing_plan_id":"cebpf4jnsgd1na2vs0mg"},{"bike_id":"5851720e-3fd0-416a-85e9-37b5f99045ef","system_id":"levelo_inurba_marseille","lat":43.26566,"lon":5.39007,"is_reserved":false,"is_disabled":false,"rental_uris":{"android":"levelo://app?vid=5851720e-3fd0-416a-85e9-37b5f99045ef","ios":"levelo://app?vid=5851720e-3fd0-416a-85e9-37b5f99045ef"},"vehicle_type_id":"4","last_reported":1741936154,"current_range_meters":10000,"station_id":"ce4bhe12rcd13ifvqf30","pricing_plan_id":"cebpf4jnsgd1na2vs0mg"},{"bike_id":"205861f1-c8e8-437b-8921-43664245ec7b","system_id":"levelo_inurba_marseille","lat":43.309921,"lon":5.384712,"is_reserved":false,"is_disabled":false,"rental_uris":{"android":"levelo://app?vid=205861f1-c8e8-437b-8921-43664245ec7b","ios":"levelo://app?vid=205861f1-c8e8-437b-8921-43664245ec7b"},"vehicle_type_id":"4","last_reported":1741936154,"current_range_meters":10000,"station_id":"","pricing_plan_id":"cebpf4jnsgd1na2vs0mg"},{"bike_id":"cb256735-523d-45d3-9c1c-b9c7b6320183","system_id":"levelo_inurba_marseille","lat":43.3152,"lon":5.40349,"is_reserved":false,"is_disabled":false,"rental_uris":{"android":"levelo://app?vid=cb256735-523d-45d3-9c1c-b9c7b6320183","ios":"levelo://app?vid=cb256735-523d-45d3-9c1c-b9c7b6320183"},"vehicle_type_id":"4","last_reported":1741936154,"current_range_meters":10000,"station_id":"","pricing_plan_id":"cebpf4jnsgd1na2vs0mg"},{"bike_id":"3363e5ed-aafd-4c83-9f97-12270e6ffcf4","system_id":"levelo_inurba_marseille","lat":43.248611,"lon":5.406471,"is_reserved":false,"is_disabled":false,"rental_uris":{"android":"levelo://app?vid=3363e5ed-aafd-4c83-9f97-12270e6ffcf4","ios":"levelo://app?vid=3363e5ed-aafd-4c83-9f97-12270e6ffcf4"},"vehicle_type_id":"4","last_reported":1741936154,"current_range_meters":10000,"station_id":"","pricing_plan_id":"cebpf4jnsgd1na2vs0mg"},{"bike_id":"f6975236-1909-4591-9ec1-290c425d99ce","system_id":"levelo_inurba_marseille","lat":43.26564,"lon":5.39011,"is_reserved":false,"is_disabled":false,"rental_uris":{"android":"levelo://app?vid=f6975236-1909-4591-9ec1-290c425d99ce","ios":"levelo://app?vid=f6975236-1909-4591-9ec1-290c425d99ce"},"vehicle_type_id":"4","last_reported":1741936154,"current_range_meters":10000,"station_id":"ce4bhe12rcd13ifvqf30","pricing_plan_id":"cebpf4jnsgd1na2vs0mg"},{"bike_id":"9a719051-5115-4a08-8e7b-ae42f9cbb7fe","system_id":"levelo_inurba_marseille","lat":43.31117,"lon":5.37802,"is_reserved":false,"is_disabled":false,"rental_uris":{"android":"levelo://app?vid=9a719051-5115-4a08-8e7b-ae42f9cbb7fe","ios":"levelo://app?vid=9a719051-5115-4a08-8e7b-ae42f9cbb7fe"},"vehicle_type_id":"4","last_reported":1741936154,"current_range_meters":10000,"station_id":"ce4bgt92rcd13ifvqcg0","pricing_plan_id":"cebpf4jnsgd1na2vs0mg"},{"bike_id":"02757fb8-8293-4514-b994-62c44c21925e","system_id":"levelo_inurba_marseille","lat":43.2872,"lon":5.36108,"is_reserved":false,"is_disabled":false,"rental_uris":{"android":"levelo://app?vid=02757fb8-8293-4514-b994-62c44c21925e","ios":"levelo://app?vid=02757fb8-8293-4514-b994-62c44c21925e"},"vehicle_type_id":"4","last_reported":1741936154,"current_range_meters":10000,"station_id":"cki0cbj6b192h4jlfktg","pricing_plan_id":"cebpf4jnsgd1na2vs0mg"},{"bike_id":"d9a03b36-8834-4ff0-a7a6-0aba8375e6fe","system_id":"levelo_inurba_marseille","lat":43.28426,"lon":5.39243,"is_reserved":false,"is_disabled":true,"rental_uris":{"android":"levelo://app?vid=d9a03b36-8834-4ff0-a7a6-0aba8375e6fe","ios":"levelo://app?vid=d9a03b36-8834-4ff0-a7a6-0aba8375e6fe"},"vehicle_type_id":"4","last_reported":1741936154,"current_range_meters":10000,"station_id":"ce4bhoh2rcd13ifvqh5g","pricing_plan_id":"cebpf4jnsgd1na2vs0mg"},{"bike_id":"484d62e3-8e92-4d73-971b-41c613b66c1b","system_id":"levelo_inurba_marseille","lat":43.28864,"lon":5.35848,"is_reserved":false,"is_disabled":false,"rental_uris":{"android":"levelo://app?vid=484d62e3-8e92-4d73-971b-41c613b66c1b","ios":"levelo://app?vid=484d62e3-8e92-4d73-971b-41c613b66c1b"},"vehicle_type_id":"4","last_reported":1741936154,"current_range_meters":10000,"station_id":"ce4bhb12rcd13ifvqem0","pricing_plan_id":"cebpf4jnsgd1na2vs0mg"},{"bike_id":"d108ef6f-72ea-4bda-baff-b716151ddc27","system_id":"levelo_inurba_marseille","lat":43.28708,"lon":5.39993,"is_reserved":false,"is_disabled":false,"rental_uris":{"android":"levelo://app?vid=d108ef6f-72ea-4bda-baff-b716151ddc27","ios":"levelo://app?vid=d108ef6f-72ea-4bda-baff-b716151ddc27"},"vehicle_type_id":"4","last_reported":1741936154,"current_range_meters":9600,"station_id":"ce4bho92rcd13ifvqh3g","pricing_plan_id":"cebpf4jnsgd1na2vs0mg"},{"bike_id":"36ec5a15-215b-4367-a3ca-336aadd9a251","system_id":"levelo_inurba_marseille","lat":43.33746,"lon":5.3745,"is_reserved":false,"is_disabled":false,"rental_uris":{"android":"levelo://app?vid=36ec5a15-215b-4367-a3ca-336aadd9a251","ios":"levelo://app?vid=36ec5a15-215b-4367-a3ca-336aadd9a251"},"vehicle_type_id":"4","last_reported":1741936154,"current_range_meters":10000,"station_id":"","pricing_plan_id":"cebpf4jnsgd1na2vs0mg"},{"bike_id":"a5c672ff-0d6f-4565-b2c7-94f7284c6604","system_id":"levelo_inurba_marseille","lat":43.27939,"lon":5.41043,"is_reserved":false,"is_disabled":false,"rental_uris":{"android":"levelo://app?vid=a5c672ff-0d6f-4565-b2c7-94f7284c6604","ios":"levelo://app?vid=a5c672ff-0d6f-4565-b2c7-94f7284c6604"},"vehicle_type_id":"4","last_reported":1741936154,"current_range_meters":10800,"station_id":"ce4bhnp2rcd13ifvqh0g","pricing_plan_id":"cebpf4jnsgd1na2vs0mg"},{"bike_id":"a5e71948-735a-4229-b2ca-74d55fc62066","system_id":"levelo_inurba_marseille","lat":43.280364,"lon":5.369327,"is_reserved":false,"is_disabled":false,"rental_uris":{"android":"levelo://app?vid=a5e71948-735a-4229-b2ca-74d55fc62066","ios":"levelo://app?vid=a5e71948-735a-4229-b2ca-74d55fc62066"},"vehicle_type_id":"4","last_reported":1741936154,"current_range_meters":10800,"station_id":"ce4bha12rcd13ifvqef0","pricing_plan_id":"cebpf4jnsgd1na2vs0mg"},{"bike_id":"74d894b1-9334-47c2-9db2-41270237a91f","system_id":"levelo_inurba_marseille","lat":43.23185,"lon":5.3999,"is_reserved":false,"is_disabled":false,"rental_uris":{"android":"levelo://app?vid=74d894b1-9334-47c2-9db2-41270237a91f","ios":"levelo://app?vid=74d894b1-9334-47c2-9db2-41270237a91f"},"vehicle_type_id":"4","last_reported":1741936154,"current_range_meters":10800,"station_id":"ce4bhn12rcd13ifvqgqg","pricing_plan_id":"cebpf4jnsgd1na2vs0mg"},{"bike_id":"d76b6165-d192-435e-aaea-6a18987b94b7","system_id":"levelo_inurba_marseille","lat":43.28424,"lon":5.35019,"is_reserved":false,"is_disabled":false,"rental_uris":{"android":"levelo://app?vid=d76b6165-d192-435e-aaea-6a18987b94b7","ios":"levelo://app?vid=d76b6165-d192-435e-aaea-6a18987b94b7"},"vehicle_type_id":"4","last_reported":1741936154,"current_range_meters":10800,"station_id":"ce4bhbh2rcd13ifvqepg","pricing_plan_id":"cebpf4jnsgd1na2vs0mg"},{"bike_id":"594a33ea-5c85-49b0-893b-48b1f5e1011a","system_id":"levelo_inurba_marseille","lat":43.30888,"lon":5.40194,"is_reserved":false,"is_disabled":true,"rental_uris":{"android":"levelo://app?vid=594a33ea-5c85-49b0-893b-48b1f5e1011a","ios":"levelo://app?vid=594a33ea-5c85-49b0-893b-48b1f5e1011a"},"vehicle_type_id":"4","last_reported":1741936154,"current_range_meters":10800,"station_id":"ce4bgvp2rcd13ifvqct0","pricing_plan_id":"cebpf4jnsgd1na2vs0mg"},{"bike_id":"98befa5c-f449-457b-b6dd-787d678fbfe6","system_id":"levelo_inurba_marseille","lat":43.2971,"lon":5.37895,"is_reserved":false,"is_disabled":false,"rental_uris":{"android":"levelo://app?vid=98befa5c-f449-457b-b6dd-787d678fbfe6","ios":"levelo://app?vid=98befa5c-f449-457b-b6dd-787d678fbfe6"},"vehicle_type_id":"4","last_reported":1741936154,"current_range_meters":10800,"station_id":"","pricing_plan_id":"cebpf4jnsgd1na2vs0mg"},{"bike_id":"78dce6e6-36eb-4d6b-a861-292dc7c9e479","system_id":"levelo_inurba_marseille","lat":43.24992,"lon":5.38959,"is_reserved":false,"is_disabled":false,"rental_uris":{"android":"levelo://app?vid=78dce6e6-36eb-4d6b-a861-292dc7c9e479","ios":"levelo://app?vid=78dce6e6-36eb-4d6b-a861-292dc7c9e479"},"vehicle_type_id":"4","last_reported":1741936154,"current_range_meters":11200,"station_id":"ce4bhgp2rcd13ifvqfd0","pricing_plan_id":"cebpf4jnsgd1na2vs0mg"},{"bike_id":"42623eef-20a1-4eaf-b277-2975de2d3c19","system_id":"levelo_inurba_marseille","lat":43.30429,"lon":5.397548,"is_reserved":false,"is_disabled":false,"rental_uris":{"android":"levelo://app?vid=42623eef-20a1-4eaf-b277-2975de2d3c19","ios":"levelo://app?vid=42623eef-20a1-4eaf-b277-2975de2d3c19"},"vehicle_type_id":"4","last_reported":1741936154,"current_range_meters":11200,"station_id":"ce4bh312rcd13ifvqdj0","pricing_plan_id":"cebpf4jnsgd1na2vs0mg"},{"bike_id":"889681a1-60a6-4100-8a71-85f35d1d3e3b","system_id":"levelo_inurba_marseille","lat":43.27612,"lon":5.3612,"is_reserved":false,"is_disabled":false,"rental_uris":{"android":"levelo://app?vid=889681a1-60a6-4100-8a71-85f35d1d3e3b","ios":"levelo://app?vid=889681a1-60a6-4100-8a71-85f35d1d3e3b"},"vehicle_type_id":"4","last_reported":1741936154,"current_range_meters":11200,"station_id":"ce4bgj92rcd13ifvqbe0","pricing_plan_id":"cebpf4jnsgd1na2vs0mg"},{"bike_id":"fae422ee-a74f-47aa-a02b-1b2b6ec3c0b4","system_id":"levelo_inurba_marseille","lat":43.289825,"lon":5.378345,"is_reserved":false,"is_disabled":false,"rental_uris":{"android":"levelo://app?vid=fae422ee-a74f-47aa-a02b-1b2b6ec3c0b4","ios":"levelo://app?vid=fae422ee-a74f-47aa-a02b-1b2b6ec3c0b4"},"vehicle_type_id":"4","last_reported":1741936154,"current_range_meters":11200,"station_id":"ce4bh9p2rcd13ifvqed0","pricing_plan_id":"cebpf4jnsgd1na2vs0mg"},{"bike_id":"68a34e8f-540a-4fe3-a5ff-deaa13caa845","system_id":"levelo_inurba_marseille","lat":43.29776,"lon":5.44757,"is_reserved":false,"is_disabled":false,"rental_uris":{"android":"levelo://app?vid=68a34e8f-540a-4fe3-a5ff-deaa13caa845","ios":"levelo://app?vid=68a34e8f-540a-4fe3-a5ff-deaa13caa845"},"vehicle_type_id":"4","last_reported":1741936154,"current_range_meters":11200,"station_id":"","pricing_plan_id":"cebpf4jnsgd1na2vs0mg"},{"bike_id":"882877d6-b866-4b92-bcdf-bb43c34ed300","system_id":"levelo_inurba_marseille","lat":43.28442,"lon":5.35003,"is_reserved":false,"is_disabled":false,"rental_uris":{"android":"levelo://app?vid=882877d6-b866-4b92-bcdf-bb43c34ed300","ios":"levelo://app?vid=882877d6-b866-4b92-bcdf-bb43c34ed300"},"vehicle_type_id":"4","last_reported":1741936154,"current_range_meters":11600,"station_id":"ce4bhbh2rcd13ifvqepg","pricing_plan_id":"cebpf4jnsgd1na2vs0mg"},{"bike_id":"10ffddde-2ae7-4cd9-9a27-02c7a6baf80b","system_id":"levelo_inurba_marseille","lat":43.276729,"lon":5.388759,"is_reserved":false,"is_disabled":false,"rental_uris":{"android":"levelo://app?vid=10ffddde-2ae7-4cd9-9a27-02c7a6baf80b","ios":"levelo://app?vid=10ffddde-2ae7-4cd9-9a27-02c7a6baf80b"},"vehicle_type_id":"4","last_reported":1741936154,"current_range_meters":10800,"station_id":"ce4bhjp2rcd13ifvqg90","pricing_plan_id":"cebpf4jnsgd1na2vs0mg"},{"bike_id":"e67041a3-a8bf-4682-816d-4ea08389fd2d","system_id":"levelo_inurba_marseille","lat":43.24078,"lon":5.37761,"is_reserved":false,"is_disabled":false,"rental_uris":{"android":"levelo://app?vid=e67041a3-a8bf-4682-816d-4ea08389fd2d","ios":"levelo://app?vid=e67041a3-a8bf-4682-816d-4ea08389fd2d"},"vehicle_type_id":"4","last_reported":1741936154,"current_range_meters":11600,"station_id":"ce4bhnp2rcd13ifvqgvg","pricing_plan_id":"cebpf4jnsgd1na2vs0mg"},{"bike_id":"822f56a9-7fbb-413e-8142-a8a002a49f4e","system_id":"levelo_inurba_marseille","lat":43.26938,"lon":5.40254,"is_reserved":false,"is_disabled":false,"rental_uris":{"android":"levelo://app?vid=822f56a9-7fbb-413e-8142-a8a002a49f4e","ios":"levelo://app?vid=822f56a9-7fbb-413e-8142-a8a002a49f4e"},"vehicle_type_id":"4","last_reported":1741936154,"current_range_meters":11600,"station_id":"cjm6bp8fraef2m0cb0m0","pricing_plan_id":"cebpf4jnsgd1na2vs0mg"},{"bike_id":"5bbbcc9c-c390-411b-9d62-74fb6404d435","system_id":"levelo_inurba_marseille","lat":43.24077,"lon":5.37753,"is_reserved":false,"is_disabled":false,"rental_uris":{"android":"levelo://app?vid=5bbbcc9c-c390-411b-9d62-74fb6404d435","ios":"levelo://app?vid=5bbbcc9c-c390-411b-9d62-74fb6404d435"},"vehicle_type_id":"4","last_reported":1741936154,"current_range_meters":11600,"station_id":"ce4bhnp2rcd13ifvqgvg","pricing_plan_id":"cebpf4jnsgd1na2vs0mg"},{"bike_id":"1ccba09a-030c-4f03-8cb9-142b3443ab59","system_id":"levelo_inurba_marseille","lat":43.3087,"lon":5.39645,"is_reserved":false,"is_disabled":false,"rental_uris":{"android":"levelo://app?vid=1ccba09a-030c-4f03-8cb9-142b3443ab59","ios":"levelo://app?vid=1ccba09a-030c-4f03-8cb9-142b3443ab59"},"vehicle_type_id":"4","last_reported":1741936154,"current_range_meters":12000,"station_id":"ce4bh012rcd13ifvqcv0","pricing_plan_id":"cebpf4jnsgd1na2vs0mg"},{"bike_id":"ab047761-22ba-4663-afe3-d5d1d10a6654","system_id":"levelo_inurba_marseille","lat":43.2884,"lon":5.38149,"is_reserved":false,"is_disabled":false,"rental_uris":{"android":"levelo://app?vid=ab047761-22ba-4663-afe3-d5d1d10a6654","ios":"levelo://app?vid=ab047761-22ba-4663-afe3-d5d1d10a6654"},"vehicle_type_id":"4","last_reported":1741936154,"current_range_meters":12000,"station_id":"","pricing_plan_id":"cebpf4jnsgd1na2vs0mg"},{"bike_id":"a789d070-f3ce-4fb3-8c48-6f7482e7eccc","system_id":"levelo_inurba_marseille","lat":43.27491,"lon":5.42455,"is_reserved":false,"is_disabled":false,"rental_uris":{"android":"levelo://app?vid=a789d070-f3ce-4fb3-8c48-6f7482e7eccc","ios":"levelo://app?vid=a789d070-f3ce-4fb3-8c48-6f7482e7eccc"},"vehicle_type_id":"4","last_reported":1741936154,"current_range_meters":12000,"station_id":"ce4bhn92rcd13ifvqgrg","pricing_plan_id":"cebpf4jnsgd1na2vs0mg"},{"bike_id":"662e13ee-ccf3-4ffe-9041-8137225be89d","system_id":"levelo_inurba_marseille","lat":43.28944,"lon":5.36392,"is_reserved":false,"is_disabled":false,"rental_uris":{"android":"levelo://app?vid=662e13ee-ccf3-4ffe-9041-8137225be89d","ios":"levelo://app?vid=662e13ee-ccf3-4ffe-9041-8137225be89d"},"vehicle_type_id":"4","last_reported":1741936154,"current_range_meters":12000,"station_id":"ce4bhc92rcd13ifvqetg","pricing_plan_id":"cebpf4jnsgd1na2vs0mg"},{"bike_id":"bbc0eb79-974b-40ac-bb01-758aa91e1bcd","system_id":"levelo_inurba_marseille","lat":43.29006,"lon":5.39996,"is_reserved":false,"is_disabled":false,"rental_uris":{"android":"levelo://app?vid=bbc0eb79-974b-40ac-bb01-758aa91e1bcd","ios":"levelo://app?vid=bbc0eb79-974b-40ac-bb01-758aa91e1bcd"},"vehicle_type_id":"4","last_reported":1741936154,"current_range_meters":12000,"station_id":"ce4bh392rcd13ifvqdm0","pricing_plan_id":"cebpf4jnsgd1na2vs0mg"},{"bike_id":"dc2dc920-7061-4611-9ad3-02d4898aaa15","system_id":"levelo_inurba_marseille","lat":43.23187,"lon":5.39986,"is_reserved":false,"is_disabled":false,"rental_uris":{"android":"levelo://app?vid=dc2dc920-7061-4611-9ad3-02d4898aaa15","ios":"levelo://app?vid=dc2dc920-7061-4611-9ad3-02d4898aaa15"},"vehicle_type_id":"4","last_reported":1741936154,"current_range_meters":12000,"station_id":"ce4bhn12rcd13ifvqgqg","pricing_plan_id":"cebpf4jnsgd1na2vs0mg"},{"bike_id":"3e33256a-d861-45c0-af01-75642132ca20","system_id":"levelo_inurba_marseille","lat":43.33024,"lon":5.394,"is_reserved":false,"is_disabled":false,"rental_uris":{"android":"levelo://app?vid=3e33256a-d861-45c0-af01-75642132ca20","ios":"levelo://app?vid=3e33256a-d861-45c0-af01-75642132ca20"},"vehicle_type_id":"4","last_reported":1741936154,"current_range_meters":12000,"station_id":"","pricing_plan_id":"cebpf4jnsgd1na2vs0mg"},{"bike_id":"8690a21c-1fc9-4258-bc8c-b9a96ac1334f","system_id":"levelo_inurba_marseille","lat":43.26226,"lon":5.40458,"is_reserved":false,"is_disabled":false,"rental_uris":{"android":"levelo://app?vid=8690a21c-1fc9-4258-bc8c-b9a96ac1334f","ios":"levelo://app?vid=8690a21c-1fc9-4258-bc8c-b9a96ac1334f"},"vehicle_type_id":"4","last_reported":1741936154,"current_range_meters":12400,"station_id":"ce4bhmh2rcd13ifvqgmg","pricing_plan_id":"cebpf4jnsgd1na2vs0mg"},{"bike_id":"3959c750-cc5b-4501-a9c1-aa26389cb4a3","system_id":"levelo_inurba_marseille","lat":43.2923,"lon":5.38457,"is_reserved":false,"is_disabled":true,"rental_uris":{"android":"levelo://app?vid=3959c750-cc5b-4501-a9c1-aa26389cb4a3","ios":"levelo://app?vid=3959c750-cc5b-4501-a9c1-aa26389cb4a3"},"vehicle_type_id":"4","last_reported":1741936154,"current_range_meters":12400,"station_id":"ce4bh692rcd13ifvqea0","pricing_plan_id":"cebpf4jnsgd1na2vs0mg"},{"bike_id":"c6f9c2cc-8d82-4ef0-9c96-3fa68372f355","system_id":"levelo_inurba_marseille","lat":43.25003,"lon":5.38939,"is_reserved":false,"is_disabled":false,"rental_uris":{"android":"levelo://app?vid=c6f9c2cc-8d82-4ef0-9c96-3fa68372f355","ios":"levelo://app?vid=c6f9c2cc-8d82-4ef0-9c96-3fa68372f355"},"vehicle_type_id":"4","last_reported":1741936154,"current_range_meters":12400,"station_id":"ce4bhgp2rcd13ifvqfd0","pricing_plan_id":"cebpf4jnsgd1na2vs0mg"},{"bike_id":"c4f2740c-3fd6-4d84-b01f-bc333e653762","system_id":"levelo_inurba_marseille","lat":43.24673,"lon":5.38164,"is_reserved":false,"is_disabled":false,"rental_uris":{"android":"levelo://app?vid=c4f2740c-3fd6-4d84-b01f-bc333e653762","ios":"levelo://app?vid=c4f2740c-3fd6-4d84-b01f-bc333e653762"},"vehicle_type_id":"4","last_reported":1741936154,"current_range_meters":12400,"station_id":"ce4bhih2rcd13ifvqfr0","pricing_plan_id":"cebpf4jnsgd1na2vs0mg"},{"bike_id":"ad417915-56a2-4926-b344-9a9745503b6c","system_id":"levelo_inurba_marseille","lat":43.3021,"lon":5.39475,"is_reserved":false,"is_disabled":false,"rental_uris":{"android":"levelo://app?vid=ad417915-56a2-4926-b344-9a9745503b6c","ios":"levelo://app?vid=ad417915-56a2-4926-b344-9a9745503b6c"},"vehicle_type_id":"4","last_reported":1741936154,"current_range_meters":12400,"station_id":"ce4bh0p2rcd13ifvqd70","pricing_plan_id":"cebpf4jnsgd1na2vs0mg"},{"bike_id":"ac9829db-5826-4bcf-b26b-4776553d00ba","system_id":"levelo_inurba_marseille","lat":43.31725,"lon":5.40453,"is_reserved":false,"is_disabled":false,"rental_uris":{"android":"levelo://app?vid=ac9829db-5826-4bcf-b26b-4776553d00ba","ios":"levelo://app?vid=ac9829db-5826-4bcf-b26b-4776553d00ba"},"vehicle_type_id":"4","last_reported":1741936154,"current_range_meters":12800,"station_id":"ce4bh012rcd13ifvqd00","pricing_plan_id":"cebpf4jnsgd1na2vs0mg"},{"bike_id":"209369df-b5a0-42fc-be55-c13f536bfc68","system_id":"levelo_inurba_marseille","lat":43.314779,"lon":5.368587,"is_reserved":false,"is_disabled":false,"rental_uris":{"android":"levelo://app?vid=209369df-b5a0-42fc-be55-c13f536bfc68","ios":"levelo://app?vid=209369df-b5a0-42fc-be55-c13f536bfc68"},"vehicle_type_id":"4","last_reported":1741936154,"current_range_meters":12800,"station_id":"","pricing_plan_id":"cebpf4jnsgd1na2vs0mg"},{"bike_id":"bf990c20-70f5-4659-83c7-3780ce4a6071","system_id":"levelo_inurba_marseille","lat":43.2845,"lon":5.39168,"is_reserved":false,"is_disabled":false,"rental_uris":{"android":"levelo://app?vid=bf990c20-70f5-4659-83c7-3780ce4a6071","ios":"levelo://app?vid=bf990c20-70f5-4659-83c7-3780ce4a6071"},"vehicle_type_id":"4","last_reported":1741936154,"current_range_meters":12800,"station_id":"ce4bhoh2rcd13ifvqh5g","pricing_plan_id":"cebpf4jnsgd1na2vs0mg"},{"bike_id":"a56c08a5-a2eb-4f9c-a933-93357fb86cdf","system_id":"levelo_inurba_marseille","lat":43.25815,"lon":5.39441,"is_reserved":false,"is_disabled":false,"rental_uris":{"android":"levelo://app?vid=a56c08a5-a2eb-4f9c-a933-93357fb86cdf","ios":"levelo://app?vid=a56c08a5-a2eb-4f9c-a933-93357fb86cdf"},"vehicle_type_id":"4","last_reported":1741936154,"current_range_meters":12800,"station_id":"ce4bhip2rcd13ifvqft0","pricing_plan_id":"cebpf4jnsgd1na2vs0mg"},{"bike_id":"2fcdbd2d-52b8-4841-9569-2b04b6707abc","system_id":"levelo_inurba_marseille","lat":43.23185,"lon":5.39984,"is_reserved":false,"is_disabled":false,"rental_uris":{"android":"levelo://app?vid=2fcdbd2d-52b8-4841-9569-2b04b6707abc","ios":"levelo://app?vid=2fcdbd2d-52b8-4841-9569-2b04b6707abc"},"vehicle_type_id":"4","last_reported":1741936154,"current_range_meters":13600,"station_id":"ce4bhn12rcd13ifvqgqg","pricing_plan_id":"cebpf4jnsgd1na2vs0mg"},{"bike_id":"bf42223a-5f10-4652-a828-669a98265513","system_id":"levelo_inurba_marseille","lat":43.28689,"lon":5.37943,"is_reserved":false,"is_disabled":false,"rental_uris":{"android":"levelo://app?vid=bf42223a-5f10-4652-a828-669a98265513","ios":"levelo://app?vid=bf42223a-5f10-4652-a828-669a98265513"},"vehicle_type_id":"4","last_reported":1741936154,"current_range_meters":13600,"station_id":"ce4bh9p2rcd13ifvqec0","pricing_plan_id":"cebpf4jnsgd1na2vs0mg"},{"bike_id":"ce06a747-dfc5-4afc-8c06-8358fffe4bb2","system_id":"levelo_inurba_marseille","lat":43.2841,"lon":5.34994,"is_reserved":false,"is_disabled":false,"rental_uris":{"android":"levelo://app?vid=ce06a747-dfc5-4afc-8c06-8358fffe4bb2","ios":"levelo://app?vid=ce06a747-dfc5-4afc-8c06-8358fffe4bb2"},"vehicle_type_id":"4","last_reported":1741936154,"current_range_meters":13600,"station_id":"ce4bhbh2rcd13ifvqepg","pricing_plan_id":"cebpf4jnsgd1na2vs0mg"},{"bike_id":"af474046-e400-4ac9-a0d2-80fc69b95ff7","system_id":"levelo_inurba_marseille","lat":43.30515,"lon":5.36554,"is_reserved":false,"is_disabled":false,"rental_uris":{"android":"levelo://app?vid=af474046-e400-4ac9-a0d2-80fc69b95ff7","ios":"levelo://app?vid=af474046-e400-4ac9-a0d2-80fc69b95ff7"},"vehicle_type_id":"4","last_reported":1741936154,"current_range_meters":13600,"station_id":"ce4bgs12rcd13ifvqcag","pricing_plan_id":"cebpf4jnsgd1na2vs0mg"},{"bike_id":"59822710-2d10-4517-868b-42cfab329759","system_id":"levelo_inurba_marseille","lat":43.231943,"lon":5.355648,"is_reserved":false,"is_disabled":false,"rental_uris":{"android":"levelo://app?vid=59822710-2d10-4517-868b-42cfab329759","ios":"levelo://app?vid=59822710-2d10-4517-868b-42cfab329759"},"vehicle_type_id":"4","last_reported":1741936154,"current_range_meters":13600,"station_id":"ce4bhu92rcd13ifvqi70","pricing_plan_id":"cebpf4jnsgd1na2vs0mg"},{"bike_id":"ae64ab42-2eb1-48d5-91c4-ee0243171e9d","system_id":"levelo_inurba_marseille","lat":43.2904,"lon":5.40033,"is_reserved":false,"is_disabled":false,"rental_uris":{"android":"levelo://app?vid=ae64ab42-2eb1-48d5-91c4-ee0243171e9d","ios":"levelo://app?vid=ae64ab42-2eb1-48d5-91c4-ee0243171e9d"},"vehicle_type_id":"4","last_reported":1741936154,"current_range_meters":13600,"station_id":"","pricing_plan_id":"cebpf4jnsgd1na2vs0mg"},{"bike_id":"d98e5f37-4f71-4a36-9b3b-496f87de0d61","system_id":"levelo_inurba_marseille","lat":43.31125,"lon":5.37556,"is_reserved":false,"is_disabled":false,"rental_uris":{"android":"levelo://app?vid=d98e5f37-4f71-4a36-9b3b-496f87de0d61","ios":"levelo://app?vid=d98e5f37-4f71-4a36-9b3b-496f87de0d61"},"vehicle_type_id":"4","last_reported":1741936154,"current_range_meters":13600,"station_id":"","pricing_plan_id":"cebpf4jnsgd1na2vs0mg"},{"bike_id":"bd7fb638-a561-41df-90ca-f32685780427","system_id":"levelo_inurba_marseille","lat":43.2292,"lon":5.35379,"is_reserved":false,"is_disabled":false,"rental_uris":{"android":"levelo://app?vid=bd7fb638-a561-41df-90ca-f32685780427","ios":"levelo://app?vid=bd7fb638-a561-41df-90ca-f32685780427"},"vehicle_type_id":"4","last_reported":1741936154,"current_range_meters":13600,"station_id":"cpo3532slgdg3j2ikp40","pricing_plan_id":"cebpf4jnsgd1na2vs0mg"},{"bike_id":"b75863a4-b69c-4f29-a038-229d5b4d1415","system_id":"levelo_inurba_marseille","lat":43.29037,"lon":5.37556,"is_reserved":false,"is_disabled":true,"rental_uris":{"android":"levelo://app?vid=b75863a4-b69c-4f29-a038-229d5b4d1415","ios":"levelo://app?vid=b75863a4-b69c-4f29-a038-229d5b4d1415"},"vehicle_type_id":"4","last_reported":1741936154,"current_range_meters":13600,"station_id":"ce4bh692rcd13ifvqe90","pricing_plan_id":"cebpf4jnsgd1na2vs0mg"},{"bike_id":"71e80157-4ef4-4e3e-8058-1f3fbd36ccdb","system_id":"levelo_inurba_marseille","lat":43.28939,"lon":5.39604,"is_reserved":false,"is_disabled":false,"rental_uris":{"android":"levelo://app?vid=71e80157-4ef4-4e3e-8058-1f3fbd36ccdb","ios":"levelo://app?vid=71e80157-4ef4-4e3e-8058-1f3fbd36ccdb"},"vehicle_type_id":"4","last_reported":1741936154,"current_range_meters":13600,"station_id":"ce4bh3h2rcd13ifvqdn0","pricing_plan_id":"cebpf4jnsgd1na2vs0mg"},{"bike_id":"e8c41106-611b-4b63-ab3a-8921ab9bd516","system_id":"levelo_inurba_marseille","lat":43.28862,"lon":5.35853,"is_reserved":false,"is_disabled":false,"rental_uris":{"android":"levelo://app?vid=e8c41106-611b-4b63-ab3a-8921ab9bd516","ios":"levelo://app?vid=e8c41106-611b-4b63-ab3a-8921ab9bd516"},"vehicle_type_id":"4","last_reported":1741936154,"current_range_meters":14000,"station_id":"ce4bhb12rcd13ifvqem0","pricing_plan_id":"cebpf4jnsgd1na2vs0mg"},{"bike_id":"f8e9787d-4c7f-4b26-a202-4ff55b4e451b","system_id":"levelo_inurba_marseille","lat":43.299191,"lon":5.374656,"is_reserved":false,"is_disabled":true,"rental_uris":{"android":"levelo://app?vid=f8e9787d-4c7f-4b26-a202-4ff55b4e451b","ios":"levelo://app?vid=f8e9787d-4c7f-4b26-a202-4ff55b4e451b"},"vehicle_type_id":"4","last_reported":1741936154,"current_range_meters":14000,"station_id":"ce4bgjh2rcd13ifvqbg0","pricing_plan_id":"cebpf4jnsgd1na2vs0mg"},{"bike_id":"7afbb10b-29e2-408a-bf9a-c9b594f91f98","system_id":"levelo_inurba_marseille","lat":43.26222,"lon":5.40465,"is_reserved":false,"is_disabled":true,"rental_uris":{"android":"levelo://app?vid=7afbb10b-29e2-408a-bf9a-c9b594f91f98","ios":"levelo://app?vid=7afbb10b-29e2-408a-bf9a-c9b594f91f98"},"vehicle_type_id":"4","last_reported":1741936154,"current_range_meters":14000,"station_id":"ce4bhmh2rcd13ifvqgmg","pricing_plan_id":"cebpf4jnsgd1na2vs0mg"},{"bike_id":"31c8862d-1f7d-4f69-a37f-93c25c9ce4d5","system_id":"levelo_inurba_marseille","lat":43.24983,"lon":5.38955,"is_reserved":false,"is_disabled":false,"rental_uris":{"android":"levelo://app?vid=31c8862d-1f7d-4f69-a37f-93c25c9ce4d5","ios":"levelo://app?vid=31c8862d-1f7d-4f69-a37f-93c25c9ce4d5"},"vehicle_type_id":"4","last_reported":1741936154,"current_range_meters":14000,"station_id":"ce4bhgp2rcd13ifvqfd0","pricing_plan_id":"cebpf4jnsgd1na2vs0mg"},{"bike_id":"70d75df5-eef3-4b06-98d5-288ef54b4646","system_id":"levelo_inurba_marseille","lat":43.27496,"lon":5.42455,"is_reserved":false,"is_disabled":false,"rental_uris":{"android":"levelo://app?vid=70d75df5-eef3-4b06-98d5-288ef54b4646","ios":"levelo://app?vid=70d75df5-eef3-4b06-98d5-288ef54b4646"},"vehicle_type_id":"4","last_reported":1741936154,"current_range_meters":14000,"station_id":"ce4bhn92rcd13ifvqgrg","pricing_plan_id":"cebpf4jnsgd1na2vs0mg"},{"bike_id":"7c69fa37-ef00-443c-b728-ae0323325b1e","system_id":"levelo_inurba_marseille","lat":43.25111,"lon":5.40324,"is_reserved":false,"is_disabled":false,"rental_uris":{"android":"levelo://app?vid=7c69fa37-ef00-443c-b728-ae0323325b1e","ios":"levelo://app?vid=7c69fa37-ef00-443c-b728-ae0323325b1e"},"vehicle_type_id":"4","last_reported":1741936154,"current_range_meters":14000,"station_id":"ce4bhlh2rcd13ifvqgig","pricing_plan_id":"cebpf4jnsgd1na2vs0mg"},{"bike_id":"5c6eed11-5b7b-4faa-9f2d-08025e97b244","system_id":"levelo_inurba_marseille","lat":43.24065,"lon":5.37748,"is_reserved":false,"is_disabled":false,"rental_uris":{"android":"levelo://app?vid=5c6eed11-5b7b-4faa-9f2d-08025e97b244","ios":"levelo://app?vid=5c6eed11-5b7b-4faa-9f2d-08025e97b244"},"vehicle_type_id":"4","last_reported":1741936154,"current_range_meters":14400,"station_id":"ce4bhnp2rcd13ifvqgvg","pricing_plan_id":"cebpf4jnsgd1na2vs0mg"},{"bike_id":"07c72146-04d2-40c0-8674-54cd753f78e1","system_id":"levelo_inurba_marseille","lat":43.250053,"lon":5.389157,"is_reserved":false,"is_disabled":false,"rental_uris":{"android":"levelo://app?vid=07c72146-04d2-40c0-8674-54cd753f78e1","ios":"levelo://app?vid=07c72146-04d2-40c0-8674-54cd753f78e1"},"vehicle_type_id":"4","last_reported":1741936154,"current_range_meters":14800,"station_id":"ce4bhgp2rcd13ifvqfd0","pricing_plan_id":"cebpf4jnsgd1na2vs0mg"},{"bike_id":"64dae5fa-dc04-438c-8311-632460450dc9","system_id":"levelo_inurba_marseille","lat":43.29104,"lon":5.38133,"is_reserved":false,"is_disabled":false,"rental_uris":{"android":"levelo://app?vid=64dae5fa-dc04-438c-8311-632460450dc9","ios":"levelo://app?vid=64dae5fa-dc04-438c-8311-632460450dc9"},"vehicle_type_id":"4","last_reported":1741936154,"current_range_meters":14400,"station_id":"ce4bh512rcd13ifvqe2g","pricing_plan_id":"cebpf4jnsgd1na2vs0mg"},{"bike_id":"204650f8-082c-4f4e-93f2-048f5597480a","system_id":"levelo_inurba_marseille","lat":43.29579,"lon":5.38124,"is_reserved":false,"is_disabled":false,"rental_uris":{"android":"levelo://app?vid=204650f8-082c-4f4e-93f2-048f5597480a","ios":"levelo://app?vid=204650f8-082c-4f4e-93f2-048f5597480a"},"vehicle_type_id":"4","last_reported":1741936154,"current_range_meters":14800,"station_id":"ce4bgl12rcd13ifvqbo0","pricing_plan_id":"cebpf4jnsgd1na2vs0mg"},{"bike_id":"81c097ea-93d3-4066-aecd-2aef1b8cc507","system_id":"levelo_inurba_marseille","lat":43.251033,"lon":5.403383,"is_reserved":false,"is_disabled":false,"rental_uris":{"android":"levelo://app?vid=81c097ea-93d3-4066-aecd-2aef1b8cc507","ios":"levelo://app?vid=81c097ea-93d3-4066-aecd-2aef1b8cc507"},"vehicle_type_id":"4","last_reported":1741936154,"current_range_meters":14800,"station_id":"chh1huq6cuj3fo74tm60","pricing_plan_id":"cebpf4jnsgd1na2vs0mg"},{"bike_id":"96f75d47-903c-45ac-ab93-3d63872bfcc8","system_id":"levelo_inurba_marseille","lat":43.278942,"lon":5.38011,"is_reserved":false,"is_disabled":false,"rental_uris":{"android":"levelo://app?vid=96f75d47-903c-45ac-ab93-3d63872bfcc8","ios":"levelo://app?vid=96f75d47-903c-45ac-ab93-3d63872bfcc8"},"vehicle_type_id":"4","last_reported":1741936154,"current_range_meters":14800,"station_id":"ce4bhf92rcd13ifvqf50","pricing_plan_id":"cebpf4jnsgd1na2vs0mg"},{"bike_id":"0ca3aef7-b50c-4d09-9715-94f17f239f24","system_id":"levelo_inurba_marseille","lat":43.28353,"lon":5.38097,"is_reserved":false,"is_disabled":false,"rental_uris":{"android":"levelo://app?vid=0ca3aef7-b50c-4d09-9715-94f17f239f24","ios":"levelo://app?vid=0ca3aef7-b50c-4d09-9715-94f17f239f24"},"vehicle_type_id":"4","last_reported":1741936154,"current_range_meters":14800,"station_id":"ce4bh412rcd13ifvqdr0","pricing_plan_id":"cebpf4jnsgd1na2vs0mg"},{"bike_id":"480057fe-eac1-4351-8bb6-1067c18f12c8","system_id":"levelo_inurba_marseille","lat":43.28422,"lon":5.37531,"is_reserved":false,"is_disabled":false,"rental_uris":{"android":"levelo://app?vid=480057fe-eac1-4351-8bb6-1067c18f12c8","ios":"levelo://app?vid=480057fe-eac1-4351-8bb6-1067c18f12c8"},"vehicle_type_id":"4","last_reported":1741936154,"current_range_meters":14800,"station_id":"ce4bh412rcd13ifvqds0","pricing_plan_id":"cebpf4jnsgd1na2vs0mg"},{"bike_id":"04f149c6-a120-4218-b435-a952d9eb67d0","system_id":"levelo_inurba_marseille","lat":43.249,"lon":5.40643,"is_reserved":false,"is_disabled":false,"rental_uris":{"android":"levelo://app?vid=04f149c6-a120-4218-b435-a952d9eb67d0","ios":"levelo://app?vid=04f149c6-a120-4218-b435-a952d9eb67d0"},"vehicle_type_id":"4","last_reported":1741936154,"current_range_meters":14800,"station_id":"","pricing_plan_id":"cebpf4jnsgd1na2vs0mg"},{"bike_id":"8eb1a957-a48f-4ea1-9a87-c9ca711e52f4","system_id":"levelo_inurba_marseille","lat":43.31493,"lon":5.3728,"is_reserved":false,"is_disabled":false,"rental_uris":{"android":"levelo://app?vid=8eb1a957-a48f-4ea1-9a87-c9ca711e52f4","ios":"levelo://app?vid=8eb1a957-a48f-4ea1-9a87-c9ca711e52f4"},"vehicle_type_id":"4","last_reported":1741936154,"current_range_meters":14800,"station_id":"ce4bgt12rcd13ifvqcd0","pricing_plan_id":"cebpf4jnsgd1na2vs0mg"},{"bike_id":"03681732-f126-4dbb-ad09-d1b9ba34b184","system_id":"levelo_inurba_marseille","lat":43.28241,"lon":5.35095,"is_reserved":false,"is_disabled":false,"rental_uris":{"android":"levelo://app?vid=03681732-f126-4dbb-ad09-d1b9ba34b184","ios":"levelo://app?vid=03681732-f126-4dbb-ad09-d1b9ba34b184"},"vehicle_type_id":"4","last_reported":1741936154,"current_range_meters":15200,"station_id":"ce4bhbp2rcd13ifvqerg","pricing_plan_id":"cebpf4jnsgd1na2vs0mg"},{"bike_id":"7f9746d7-62a1-4f6f-83e4-4f459f89d491","system_id":"levelo_inurba_marseille","lat":43.29092,"lon":5.38122,"is_reserved":false,"is_disabled":false,"rental_uris":{"android":"levelo://app?vid=7f9746d7-62a1-4f6f-83e4-4f459f89d491","ios":"levelo://app?vid=7f9746d7-62a1-4f6f-83e4-4f459f89d491"},"vehicle_type_id":"4","last_reported":1741936154,"current_range_meters":14800,"station_id":"ce4bh512rcd13ifvqe2g","pricing_plan_id":"cebpf4jnsgd1na2vs0mg"},{"bike_id":"08135f35-bf95-4ec3-b7d7-bd18c71af900","system_id":"levelo_inurba_marseille","lat":43.31284,"lon":5.40191,"is_reserved":false,"is_disabled":false,"rental_uris":{"android":"levelo://app?vid=08135f35-bf95-4ec3-b7d7-bd18c71af900","ios":"levelo://app?vid=08135f35-bf95-4ec3-b7d7-bd18c71af900"},"vehicle_type_id":"4","last_reported":1741936154,"current_range_meters":15200,"station_id":"ce4bh092rcd13ifvqd30","pricing_plan_id":"cebpf4jnsgd1na2vs0mg"},{"bike_id":"adb482da-38d1-4356-bb46-d4c16919ef20","system_id":"levelo_inurba_marseille","lat":43.292885,"lon":5.374323,"is_reserved":false,"is_disabled":true,"rental_uris":{"android":"levelo://app?vid=adb482da-38d1-4356-bb46-d4c16919ef20","ios":"levelo://app?vid=adb482da-38d1-4356-bb46-d4c16919ef20"},"vehicle_type_id":"4","last_reported":1741936154,"current_range_meters":16000,"station_id":"ce4bgi12rcd13ifvqb70","pricing_plan_id":"cebpf4jnsgd1na2vs0mg"},{"bike_id":"7ac836fc-8bfb-4f6d-9ed8-aaa4df0bd855","system_id":"levelo_inurba_marseille","lat":43.32356,"lon":5.38874,"is_reserved":false,"is_disabled":false,"rental_uris":{"android":"levelo://app?vid=7ac836fc-8bfb-4f6d-9ed8-aaa4df0bd855","ios":"levelo://app?vid=7ac836fc-8bfb-4f6d-9ed8-aaa4df0bd855"},"vehicle_type_id":"4","last_reported":1741936154,"current_range_meters":16000,"station_id":"ce4bhqp2rcd13ifvqhog","pricing_plan_id":"cebpf4jnsgd1na2vs0mg"},{"bike_id":"ae2c374b-e3c1-46b0-837c-29badd9bd7b0","system_id":"levelo_inurba_marseille","lat":43.30248,"lon":5.40064,"is_reserved":false,"is_disabled":false,"rental_uris":{"android":"levelo://app?vid=ae2c374b-e3c1-46b0-837c-29badd9bd7b0","ios":"levelo://app?vid=ae2c374b-e3c1-46b0-837c-29badd9bd7b0"},"vehicle_type_id":"4","last_reported":1741936154,"current_range_meters":16000,"station_id":"ce4bgvh2rcd13ifvqcs0","pricing_plan_id":"cebpf4jnsgd1na2vs0mg"},{"bike_id":"e0f00ea1-5190-455d-8f01-943045ce62ae","system_id":"levelo_inurba_marseille","lat":43.311711,"lon":5.377386,"is_reserved":false,"is_disabled":false,"rental_uris":{"android":"levelo://app?vid=e0f00ea1-5190-455d-8f01-943045ce62ae","ios":"levelo://app?vid=e0f00ea1-5190-455d-8f01-943045ce62ae"},"vehicle_type_id":"4","last_reported":1741936154,"current_range_meters":16000,"station_id":"","pricing_plan_id":"cebpf4jnsgd1na2vs0mg"},{"bike_id":"6de26fe8-e601-41a4-95fb-a0c7b8125e02","system_id":"levelo_inurba_marseille","lat":43.2407,"lon":5.3777,"is_reserved":false,"is_disabled":false,"rental_uris":{"android":"levelo://app?vid=6de26fe8-e601-41a4-95fb-a0c7b8125e02","ios":"levelo://app?vid=6de26fe8-e601-41a4-95fb-a0c7b8125e02"},"vehicle_type_id":"4","last_reported":1741936154,"current_range_meters":16000,"station_id":"ce4bhnp2rcd13ifvqgvg","pricing_plan_id":"cebpf4jnsgd1na2vs0mg"},{"bike_id":"942cef0d-502e-4f83-bb4d-4943ddb3f1d9","system_id":"levelo_inurba_marseille","lat":43.29882,"lon":5.38917,"is_reserved":false,"is_disabled":false,"rental_uris":{"android":"levelo://app?vid=942cef0d-502e-4f83-bb4d-4943ddb3f1d9","ios":"levelo://app?vid=942cef0d-502e-4f83-bb4d-4943ddb3f1d9"},"vehicle_type_id":"4","last_reported":1741936154,"current_range_meters":16400,"station_id":"ce4bh392rcd13ifvqdl0","pricing_plan_id":"cebpf4jnsgd1na2vs0mg"},{"bike_id":"50fc6919-e75b-41ca-91b1-b66005daff47","system_id":"levelo_inurba_marseille","lat":43.287134,"lon":5.379389,"is_reserved":false,"is_disabled":false,"rental_uris":{"android":"levelo://app?vid=50fc6919-e75b-41ca-91b1-b66005daff47","ios":"levelo://app?vid=50fc6919-e75b-41ca-91b1-b66005daff47"},"vehicle_type_id":"4","last_reported":1741936154,"current_range_meters":16400,"station_id":"ce4bh9p2rcd13ifvqec0","pricing_plan_id":"cebpf4jnsgd1na2vs0mg"},{"bike_id":"4180b4fe-21df-4fcb-8ea6-aab5cd961e69","system_id":"levelo_inurba_marseille","lat":43.31882,"lon":5.40754,"is_reserved":false,"is_disabled":true,"rental_uris":{"android":"levelo://app?vid=4180b4fe-21df-4fcb-8ea6-aab5cd961e69","ios":"levelo://app?vid=4180b4fe-21df-4fcb-8ea6-aab5cd961e69"},"vehicle_type_id":"4","last_reported":1741936154,"current_range_meters":16400,"station_id":"ce4bhq12rcd13ifvqhig","pricing_plan_id":"cebpf4jnsgd1na2vs0mg"},{"bike_id":"991df650-cda2-4c8d-b423-0d1baf725872","system_id":"levelo_inurba_marseille","lat":43.30177,"lon":5.38076,"is_reserved":false,"is_disabled":false,"rental_uris":{"android":"levelo://app?vid=991df650-cda2-4c8d-b423-0d1baf725872","ios":"levelo://app?vid=991df650-cda2-4c8d-b423-0d1baf725872"},"vehicle_type_id":"4","last_reported":1741936154,"current_range_meters":16400,"station_id":"ce4bgjp2rcd13ifvqbh0","pricing_plan_id":"cebpf4jnsgd1na2vs0mg"},{"bike_id":"a01f6986-79a6-4123-a40a-03975b1ce552","system_id":"levelo_inurba_marseille","lat":43.28344,"lon":5.38113,"is_reserved":false,"is_disabled":false,"rental_uris":{"android":"levelo://app?vid=a01f6986-79a6-4123-a40a-03975b1ce552","ios":"levelo://app?vid=a01f6986-79a6-4123-a40a-03975b1ce552"},"vehicle_type_id":"4","last_reported":1741936154,"current_range_meters":16400,"station_id":"ce4bh412rcd13ifvqdr0","pricing_plan_id":"cebpf4jnsgd1na2vs0mg"},{"bike_id":"a88fd142-2520-4cda-a7a8-1061e14c675d","system_id":"levelo_inurba_marseille","lat":43.26944,"lon":5.38681,"is_reserved":false,"is_disabled":false,"rental_uris":{"android":"levelo://app?vid=a88fd142-2520-4cda-a7a8-1061e14c675d","ios":"levelo://app?vid=a88fd142-2520-4cda-a7a8-1061e14c675d"},"vehicle_type_id":"4","last_reported":1741936154,"current_range_meters":16400,"station_id":"ce4bhh92rcd13ifvqfh0","pricing_plan_id":"cebpf4jnsgd1na2vs0mg"},{"bike_id":"09c53281-d9c1-4825-9f48-406f2fdf173e","system_id":"levelo_inurba_marseille","lat":43.30918,"lon":5.39628,"is_reserved":false,"is_disabled":false,"rental_uris":{"android":"levelo://app?vid=09c53281-d9c1-4825-9f48-406f2fdf173e","ios":"levelo://app?vid=09c53281-d9c1-4825-9f48-406f2fdf173e"},"vehicle_type_id":"4","last_reported":1741936154,"current_range_meters":16400,"station_id":"ce4bh012rcd13ifvqcv0","pricing_plan_id":"cebpf4jnsgd1na2vs0mg"},{"bike_id":"cef6793a-a9f0-4fc9-a278-b244fe4073b8","system_id":"levelo_inurba_marseille","lat":43.31281,"lon":5.40163,"is_reserved":false,"is_disabled":false,"rental_uris":{"android":"levelo://app?vid=cef6793a-a9f0-4fc9-a278-b244fe4073b8","ios":"levelo://app?vid=cef6793a-a9f0-4fc9-a278-b244fe4073b8"},"vehicle_type_id":"4","last_reported":1741936154,"current_range_meters":16400,"station_id":"ce4bh092rcd13ifvqd30","pricing_plan_id":"cebpf4jnsgd1na2vs0mg"},{"bike_id":"385ae15c-2c3c-4490-a507-5eb20fb883a5","system_id":"levelo_inurba_marseille","lat":43.2592,"lon":5.40881,"is_reserved":false,"is_disabled":false,"rental_uris":{"android":"levelo://app?vid=385ae15c-2c3c-4490-a507-5eb20fb883a5","ios":"levelo://app?vid=385ae15c-2c3c-4490-a507-5eb20fb883a5"},"vehicle_type_id":"4","last_reported":1741936154,"current_range_meters":16400,"station_id":"ce4bhm92rcd13ifvqglg","pricing_plan_id":"cebpf4jnsgd1na2vs0mg"},{"bike_id":"af2b5855-f21f-4585-9d1d-7c002cf2b81c","system_id":"levelo_inurba_marseille","lat":43.278154,"lon":5.407056,"is_reserved":false,"is_disabled":false,"rental_uris":{"android":"levelo://app?vid=af2b5855-f21f-4585-9d1d-7c002cf2b81c","ios":"levelo://app?vid=af2b5855-f21f-4585-9d1d-7c002cf2b81c"},"vehicle_type_id":"4","last_reported":1741936154,"current_range_meters":16400,"station_id":"ce4bhnh2rcd13ifvqgtg","pricing_plan_id":"cebpf4jnsgd1na2vs0mg"},{"bike_id":"ef23f9bb-d844-4b3a-8dda-b7d2585c15ec","system_id":"levelo_inurba_marseille","lat":43.30591,"lon":5.39352,"is_reserved":false,"is_disabled":false,"rental_uris":{"android":"levelo://app?vid=ef23f9bb-d844-4b3a-8dda-b7d2585c15ec","ios":"levelo://app?vid=ef23f9bb-d844-4b3a-8dda-b7d2585c15ec"},"vehicle_type_id":"4","last_reported":1741936154,"current_range_meters":16400,"station_id":"ce4bh0p2rcd13ifvqd80","pricing_plan_id":"cebpf4jnsgd1na2vs0mg"},{"bike_id":"c287ea72-0757-4fed-bdb1-663fca836498","system_id":"levelo_inurba_marseille","lat":43.28491,"lon":5.38421,"is_reserved":false,"is_disabled":true,"rental_uris":{"android":"levelo://app?vid=c287ea72-0757-4fed-bdb1-663fca836498","ios":"levelo://app?vid=c287ea72-0757-4fed-bdb1-663fca836498"},"vehicle_type_id":"4","last_reported":1741936154,"current_range_meters":16400,"station_id":"ce4bh512rcd13ifvqe3g","pricing_plan_id":"cebpf4jnsgd1na2vs0mg"},{"bike_id":"cabd3d2d-330e-43b2-8d0b-3e86699f79e1","system_id":"levelo_inurba_marseille","lat":43.24165,"lon":5.36428,"is_reserved":false,"is_disabled":false,"rental_uris":{"android":"levelo://app?vid=cabd3d2d-330e-43b2-8d0b-3e86699f79e1","ios":"levelo://app?vid=cabd3d2d-330e-43b2-8d0b-3e86699f79e1"},"vehicle_type_id":"4","last_reported":1741936154,"current_range_meters":16800,"station_id":"cpo36qri1sfpv3e86is0","pricing_plan_id":"cebpf4jnsgd1na2vs0mg"},{"bike_id":"edafd53f-ec4d-45d4-9829-eed212d9471a","system_id":"levelo_inurba_marseille","lat":43.30213,"lon":5.39467,"is_reserved":false,"is_disabled":false,"rental_uris":{"android":"levelo://app?vid=edafd53f-ec4d-45d4-9829-eed212d9471a","ios":"levelo://app?vid=edafd53f-ec4d-45d4-9829-eed212d9471a"},"vehicle_type_id":"4","last_reported":1741936154,"current_range_meters":16800,"station_id":"ce4bh0p2rcd13ifvqd70","pricing_plan_id":"cebpf4jnsgd1na2vs0mg"},{"bike_id":"0b7bfdb8-fd03-4687-9225-8085184f929c","system_id":"levelo_inurba_marseille","lat":43.32351,"lon":5.36741,"is_reserved":false,"is_disabled":false,"rental_uris":{"android":"levelo://app?vid=0b7bfdb8-fd03-4687-9225-8085184f929c","ios":"levelo://app?vid=0b7bfdb8-fd03-4687-9225-8085184f929c"},"vehicle_type_id":"4","last_reported":1741936154,"current_range_meters":16800,"station_id":"ce4bhsh2rcd13ifvqi2g","pricing_plan_id":"cebpf4jnsgd1na2vs0mg"},{"bike_id":"c40d0804-4b37-45cb-9341-acc119612f37","system_id":"levelo_inurba_marseille","lat":43.307792,"lon":5.376557,"is_reserved":false,"is_disabled":false,"rental_uris":{"android":"levelo://app?vid=c40d0804-4b37-45cb-9341-acc119612f37","ios":"levelo://app?vid=c40d0804-4b37-45cb-9341-acc119612f37"},"vehicle_type_id":"4","last_reported":1741936154,"current_range_meters":16800,"station_id":"ce4bgrp2rcd13ifvqc9g","pricing_plan_id":"cebpf4jnsgd1na2vs0mg"},{"bike_id":"26f57566-8401-47cb-a532-eb0f8aad38bc","system_id":"levelo_inurba_marseille","lat":43.23194,"lon":5.39979,"is_reserved":false,"is_disabled":false,"rental_uris":{"android":"levelo://app?vid=26f57566-8401-47cb-a532-eb0f8aad38bc","ios":"levelo://app?vid=26f57566-8401-47cb-a532-eb0f8aad38bc"},"vehicle_type_id":"4","last_reported":1741936154,"current_range_meters":16800,"station_id":"ce4bhn12rcd13ifvqgqg","pricing_plan_id":"cebpf4jnsgd1na2vs0mg"},{"bike_id":"fd82a622-4f1f-4087-8187-1ec06df202fe","system_id":"levelo_inurba_marseille","lat":43.297356,"lon":5.400336,"is_reserved":false,"is_disabled":false,"rental_uris":{"android":"levelo://app?vid=fd82a622-4f1f-4087-8187-1ec06df202fe","ios":"levelo://app?vid=fd82a622-4f1f-4087-8187-1ec06df202fe"},"vehicle_type_id":"4","last_reported":1741936154,"current_range_meters":16800,"station_id":"ce4bh312rcd13ifvqdj0","pricing_plan_id":"cebpf4jnsgd1na2vs0mg"},{"bike_id":"3720bdd8-c014-4188-b83b-28b1e3d55d80","system_id":"levelo_inurba_marseille","lat":43.30429,"lon":5.41265,"is_reserved":false,"is_disabled":false,"rental_uris":{"android":"levelo://app?vid=3720bdd8-c014-4188-b83b-28b1e3d55d80","ios":"levelo://app?vid=3720bdd8-c014-4188-b83b-28b1e3d55d80"},"vehicle_type_id":"4","last_reported":1741936154,"current_range_meters":16800,"station_id":"ce4bhop2rcd13ifvqh8g","pricing_plan_id":"cebpf4jnsgd1na2vs0mg"},{"bike_id":"64986549-2c9e-4b9f-8464-f74cc2571bf2","system_id":"levelo_inurba_marseille","lat":43.24051,"lon":5.37729,"is_reserved":false,"is_disabled":false,"rental_uris":{"android":"levelo://app?vid=64986549-2c9e-4b9f-8464-f74cc2571bf2","ios":"levelo://app?vid=64986549-2c9e-4b9f-8464-f74cc2571bf2"},"vehicle_type_id":"4","last_reported":1741936154,"current_range_meters":16800,"station_id":"ce4bhnp2rcd13ifvqgvg","pricing_plan_id":"cebpf4jnsgd1na2vs0mg"},{"bike_id":"3fbdbed3-81eb-4ebd-99e8-fe7ae5272906","system_id":"levelo_inurba_marseille","lat":43.25814,"lon":5.39461,"is_reserved":false,"is_disabled":false,"rental_uris":{"android":"levelo://app?vid=3fbdbed3-81eb-4ebd-99e8-fe7ae5272906","ios":"levelo://app?vid=3fbdbed3-81eb-4ebd-99e8-fe7ae5272906"},"vehicle_type_id":"4","last_reported":1741936154,"current_range_meters":16800,"station_id":"ce4bhip2rcd13ifvqft0","pricing_plan_id":"cebpf4jnsgd1na2vs0mg"},{"bike_id":"7747e2df-1bc1-42b8-a252-91cd858114ea","system_id":"levelo_inurba_marseille","lat":43.3023,"lon":5.40064,"is_reserved":false,"is_disabled":false,"rental_uris":{"android":"levelo://app?vid=7747e2df-1bc1-42b8-a252-91cd858114ea","ios":"levelo://app?vid=7747e2df-1bc1-42b8-a252-91cd858114ea"},"vehicle_type_id":"4","last_reported":1741936154,"current_range_meters":17200,"station_id":"","pricing_plan_id":"cebpf4jnsgd1na2vs0mg"},{"bike_id":"a5754c81-27ee-47e9-be63-a995b35825b5","system_id":"levelo_inurba_marseille","lat":43.29897,"lon":5.38869,"is_reserved":false,"is_disabled":true,"rental_uris":{"android":"levelo://app?vid=a5754c81-27ee-47e9-be63-a995b35825b5","ios":"levelo://app?vid=a5754c81-27ee-47e9-be63-a995b35825b5"},"vehicle_type_id":"4","last_reported":1741936154,"current_range_meters":17200,"station_id":"ce4bh392rcd13ifvqdl0","pricing_plan_id":"cebpf4jnsgd1na2vs0mg"},{"bike_id":"76b5d343-6624-4366-8e6e-f702d50ae492","system_id":"levelo_inurba_marseille","lat":43.23189,"lon":5.35558,"is_reserved":false,"is_disabled":false,"rental_uris":{"android":"levelo://app?vid=76b5d343-6624-4366-8e6e-f702d50ae492","ios":"levelo://app?vid=76b5d343-6624-4366-8e6e-f702d50ae492"},"vehicle_type_id":"4","last_reported":1741936154,"current_range_meters":17200,"station_id":"ce4bhu92rcd13ifvqi70","pricing_plan_id":"cebpf4jnsgd1na2vs0mg"},{"bike_id":"7e809cf9-4d16-4e10-88b0-f3e27f97828a","system_id":"levelo_inurba_marseille","lat":43.24987,"lon":5.38949,"is_reserved":false,"is_disabled":false,"rental_uris":{"android":"levelo://app?vid=7e809cf9-4d16-4e10-88b0-f3e27f97828a","ios":"levelo://app?vid=7e809cf9-4d16-4e10-88b0-f3e27f97828a"},"vehicle_type_id":"4","last_reported":1741936154,"current_range_meters":17200,"station_id":"ce4bhgp2rcd13ifvqfd0","pricing_plan_id":"cebpf4jnsgd1na2vs0mg"},{"bike_id":"345d3915-f796-4299-bac5-369eea9b977d","system_id":"levelo_inurba_marseille","lat":43.29105,"lon":5.38126,"is_reserved":false,"is_disabled":false,"rental_uris":{"android":"levelo://app?vid=345d3915-f796-4299-bac5-369eea9b977d","ios":"levelo://app?vid=345d3915-f796-4299-bac5-369eea9b977d"},"vehicle_type_id":"4","last_reported":1741936154,"current_range_meters":17200,"station_id":"ce4bh512rcd13ifvqe2g","pricing_plan_id":"cebpf4jnsgd1na2vs0mg"},{"bike_id":"8c6e62b1-d022-41e5-801b-94b33a48ecdb","system_id":"levelo_inurba_marseille","lat":43.30613,"lon":5.40192,"is_reserved":false,"is_disabled":false,"rental_uris":{"android":"levelo://app?vid=8c6e62b1-d022-41e5-801b-94b33a48ecdb","ios":"levelo://app?vid=8c6e62b1-d022-41e5-801b-94b33a48ecdb"},"vehicle_type_id":"4","last_reported":1741936154,"current_range_meters":17200,"station_id":"","pricing_plan_id":"cebpf4jnsgd1na2vs0mg"},{"bike_id":"0824f3af-1839-42e3-b2eb-1bc7ef5d8244","system_id":"levelo_inurba_marseille","lat":43.27802,"lon":5.40717,"is_reserved":false,"is_disabled":false,"rental_uris":{"android":"levelo://app?vid=0824f3af-1839-42e3-b2eb-1bc7ef5d8244","ios":"levelo://app?vid=0824f3af-1839-42e3-b2eb-1bc7ef5d8244"},"vehicle_type_id":"4","last_reported":1741936154,"current_range_meters":17200,"station_id":"ce4bhnh2rcd13ifvqgtg","pricing_plan_id":"cebpf4jnsgd1na2vs0mg"},{"bike_id":"134d8e02-0a4d-48d4-ad0e-eb7139d7f6b1","system_id":"levelo_inurba_marseille","lat":43.28474,"lon":5.3843,"is_reserved":false,"is_disabled":false,"rental_uris":{"android":"levelo://app?vid=134d8e02-0a4d-48d4-ad0e-eb7139d7f6b1","ios":"levelo://app?vid=134d8e02-0a4d-48d4-ad0e-eb7139d7f6b1"},"vehicle_type_id":"4","last_reported":1741936154,"current_range_meters":17600,"station_id":"ce4bh512rcd13ifvqe3g","pricing_plan_id":"cebpf4jnsgd1na2vs0mg"},{"bike_id":"9c59ef01-6855-414e-bd4c-09ad168ccdf5","system_id":"levelo_inurba_marseille","lat":43.29223,"lon":5.36052,"is_reserved":false,"is_disabled":false,"rental_uris":{"android":"levelo://app?vid=9c59ef01-6855-414e-bd4c-09ad168ccdf5","ios":"levelo://app?vid=9c59ef01-6855-414e-bd4c-09ad168ccdf5"},"vehicle_type_id":"4","last_reported":1741936154,"current_range_meters":17600,"station_id":"ce4bhbh2rcd13ifvqeqg","pricing_plan_id":"cebpf4jnsgd1na2vs0mg"},{"bike_id":"1d6a3d72-d780-4598-979e-05f68c643de8","system_id":"levelo_inurba_marseille","lat":43.27511,"lon":5.4245,"is_reserved":false,"is_disabled":false,"rental_uris":{"android":"levelo://app?vid=1d6a3d72-d780-4598-979e-05f68c643de8","ios":"levelo://app?vid=1d6a3d72-d780-4598-979e-05f68c643de8"},"vehicle_type_id":"4","last_reported":1741936154,"current_range_meters":17600,"station_id":"ce4bhn92rcd13ifvqgrg","pricing_plan_id":"cebpf4jnsgd1na2vs0mg"},{"bike_id":"e35a502b-8d17-4243-9159-cc38c1aac681","system_id":"levelo_inurba_marseille","lat":43.30457,"lon":5.38897,"is_reserved":false,"is_disabled":true,"rental_uris":{"android":"levelo://app?vid=e35a502b-8d17-4243-9159-cc38c1aac681","ios":"levelo://app?vid=e35a502b-8d17-4243-9159-cc38c1aac681"},"vehicle_type_id":"4","last_reported":1741936154,"current_range_meters":17600,"station_id":"ce4bgk12rcd13ifvqbi0","pricing_plan_id":"cebpf4jnsgd1na2vs0mg"},{"bike_id":"4a7971e9-aba2-4b54-9c6d-751ad8786e99","system_id":"levelo_inurba_marseille","lat":43.27804,"lon":5.40729,"is_reserved":false,"is_disabled":false,"rental_uris":{"android":"levelo://app?vid=4a7971e9-aba2-4b54-9c6d-751ad8786e99","ios":"levelo://app?vid=4a7971e9-aba2-4b54-9c6d-751ad8786e99"},"vehicle_type_id":"4","last_reported":1741936154,"current_range_meters":17600,"station_id":"ce4bhnh2rcd13ifvqgtg","pricing_plan_id":"cebpf4jnsgd1na2vs0mg"},{"bike_id":"d492b8fd-8f87-4a56-9934-fd6df919abb7","system_id":"levelo_inurba_marseille","lat":43.27835,"lon":5.40716,"is_reserved":false,"is_disabled":false,"rental_uris":{"android":"levelo://app?vid=d492b8fd-8f87-4a56-9934-fd6df919abb7","ios":"levelo://app?vid=d492b8fd-8f87-4a56-9934-fd6df919abb7"},"vehicle_type_id":"4","last_reported":1741936154,"current_range_meters":17600,"station_id":"ce4bhnh2rcd13ifvqgtg","pricing_plan_id":"cebpf4jnsgd1na2vs0mg"},{"bike_id":"e52b41b5-52df-4c67-a85c-3cebb3bf7504","system_id":"levelo_inurba_marseille","lat":43.32352,"lon":5.36727,"is_reserved":false,"is_disabled":false,"rental_uris":{"android":"levelo://app?vid=e52b41b5-52df-4c67-a85c-3cebb3bf7504","ios":"levelo://app?vid=e52b41b5-52df-4c67-a85c-3cebb3bf7504"},"vehicle_type_id":"4","last_reported":1741936154,"current_range_meters":17600,"station_id":"ce4bhsh2rcd13ifvqi2g","pricing_plan_id":"cebpf4jnsgd1na2vs0mg"},{"bike_id":"87ff382d-0da7-4585-bfe8-34fbf42dea25","system_id":"levelo_inurba_marseille","lat":43.27052,"lon":5.40294,"is_reserved":false,"is_disabled":true,"rental_uris":{"android":"levelo://app?vid=87ff382d-0da7-4585-bfe8-34fbf42dea25","ios":"levelo://app?vid=87ff382d-0da7-4585-bfe8-34fbf42dea25"},"vehicle_type_id":"4","last_reported":1741936154,"current_range_meters":17600,"station_id":"ce4bhk92rcd13ifvqgc0","pricing_plan_id":"cebpf4jnsgd1na2vs0mg"},{"bike_id":"15a06b76-3e60-4ed1-bfd3-4e3ebcb57517","system_id":"levelo_inurba_marseille","lat":43.27494,"lon":5.4245,"is_reserved":false,"is_disabled":false,"rental_uris":{"android":"levelo://app?vid=15a06b76-3e60-4ed1-bfd3-4e3ebcb57517","ios":"levelo://app?vid=15a06b76-3e60-4ed1-bfd3-4e3ebcb57517"},"vehicle_type_id":"4","last_reported":1741936154,"current_range_meters":17600,"station_id":"ce4bhn92rcd13ifvqgrg","pricing_plan_id":"cebpf4jnsgd1na2vs0mg"},{"bike_id":"e2adeb4f-409c-4f12-8332-548abcff28c2","system_id":"levelo_inurba_marseille","lat":43.31287,"lon":5.40176,"is_reserved":false,"is_disabled":false,"rental_uris":{"android":"levelo://app?vid=e2adeb4f-409c-4f12-8332-548abcff28c2","ios":"levelo://app?vid=e2adeb4f-409c-4f12-8332-548abcff28c2"},"vehicle_type_id":"4","last_reported":1741936154,"current_range_meters":17600,"station_id":"ce4bh092rcd13ifvqd30","pricing_plan_id":"cebpf4jnsgd1na2vs0mg"},