{"last_updated":1700550415,"ttl":30,"version":"2.2","data":{"bikes":[{"bike_id":"4760d28d-fc67-4615-9793-26a69b2bed68","system_id":"levelo_inurba_marseille","lat":43.309589,"lon":5.390258,"is_reserved":false,"is_disabled":false,"rental_uris":{"android":"levelo://app?vid=4760d28d-fc67-4615-9793-26a69b2bed68","ios":"levelo://app?vid=4760d28d-fc67-4615-9793-26a69b2bed68"},"vehicle_type_id":"4","last_reported":1700550415,"current_range_meters":30000,"station_id":"ce4bgup2rcd13ifvqco0","pricing_plan_id":"free"},{"bike_id":"555980be-a001-4e60-92d7-4ed6561e949f","system_id":"levelo_inurba_marseille","lat":43.31341,"lon":5.367098,"is_reserved":false,"is_disabled":false,"rental_uris":{"android":"levelo://app?vid=555980be-a001-4e60-92d7-4ed6561e949f","ios":"levelo://app?vid=555980be-a001-4e60-92d7-4ed6561e949f"},"vehicle_type_id":"4","last_reported":1700550415,"current_range_meters":10400,"station_id":"ce4bgr92rcd13ifvqc6g","pricing_plan_id":"free"},{"bike_id":"0f26dac9-a0dd-4f48-8c90-79def0842d53","system_id":"levelo_inurba_marseille","lat":43.31227,"lon":5.36844,"is_reserved":false,"is_disabled":false,"rental_uris":{"android":"levelo://app?vid=0f26dac9-a0dd-4f48-8c90-79def0842d53","ios":"levelo://app?vid=0f26dac9-a0dd-4f48-8c90-79def0842d53"},"vehicle_type_id":"4","last_reported":1700550415,"current_range_meters":14400,"station_id":"ce4bgl92rcd13ifvqbq0","pricing_plan_id":"free"},{"bike_id":"8d1d48c9-0336-40cb-b3a6-92d2d796da41","system_id":"levelo_inurba_marseille","lat":43.311544,"lon":5.368892,"is_reserved":false,"is_disabled":false,"rental_uris":{"android":"levelo://app?vid=8d1d48c9-0336-40cb-b3a6-92d2d796da41","ios":"levelo://app?vid=8d1d48c9-0336-40cb-b3a6-92d2d796da41"},"vehicle_type_id":"4","last_reported":1700550415,"current_range_meters":0,"station_id":"","pricing_plan_id":"free"},{"bike_id":"55463bea-8362-4d47-b2fc-b57123ea0d01","system_id":"levelo_inurba_marseille","lat":43.309076,"lon":5.368465,"is_reserved":false,"is_disabled":false,"rental_uris":{"android":"levelo://app?vid=55463bea-8362-4d47-b2fc-b57123ea0d01","ios":"levelo://app?vid=55463bea-8362-4d47-b2fc-b57123ea0d01"},"vehicle_type_id":"4","last_reported":1700550415,"current_range_meters":12400,"station_id":"ce4bgn92rcd13ifvqbvg","pricing_plan_id":"free"},{"bike_id":"e06257f7-9e66-453f-adaa-6307e33ccdae","system_id":"levelo_inurba_marseille","lat":43.31221,"lon":5.37207,"is_reserved":false,"is_disabled":false,"rental_uris":{"android":"levelo://app?vid=e06257f7-9e66-453f-adaa-6307e33ccdae","ios":"levelo://app?vid=e06257f7-9e66-453f-adaa-6307e33ccdae"},"vehicle_type_id":"4","last_reported":1700550415,"current_range_meters":5600,"station_id":"","pricing_plan_id":"free"},{"bike_id":"c26cdf0e-4adb-4597-863a-9dfb29cef3be","system_id":"levelo_inurba_marseille","lat":43.309076,"lon":5.368465,"is_reserved":false,"is_disabled":false,"rental_uris":{"android":"levelo://app?vid=c26cdf0e-4adb-4597-863a-9dfb29cef3be","ios":"levelo://app?vid=c26cdf0e-4adb-4597-863a-9dfb29cef3be"},"vehicle_type_id":"4","last_reported":1700550415,"current_range_meters":0,"station_id":"ce4bgn92rcd13ifvqbvg","pricing_plan_id":"free"},{"bike_id":"14ead429-c547-47ed-a35b-85841b61ca40","system_id":"levelo_inurba_marseille","lat":43.30843,"lon":5.36883,"is_reserved":false,"is_disabled":false,"rental_uris":{"android":"levelo://app?vid=14ead429-c547-47ed-a35b-85841b61ca40","ios":"levelo://app?vid=14ead429-c547-47ed-a35b-85841b61ca40"},"vehicle_type_id":"4","last_reported":1700550415,"current_range_meters":17600,"station_id":"","pricing_plan_id":"free"},{"bike_id":"5cc0a047-e5d1-4400-9e37-13b6840c7e27","system_id":"levelo_inurba_marseille","lat":43.314811,"lon":5.373104,"is_reserved":false,"is_disabled":false,"rental_uris":{"android":"levelo://app?vid=5cc0a047-e5d1-4400-9e37-13b6840c7e27","ios":"levelo://app?vid=5cc0a047-e5d1-4400-9e37-13b6840c7e27"},"vehicle_type_id":"4","last_reported":1700550415,"current_range_meters":0,"station_id":"ce4bgt12rcd13ifvqcd0","pricing_plan_id":"free"},{"bike_id":"09f74b07-b4a0-4746-be23-5eda5c1c36a5","system_id":"levelo_inurba_marseille","lat":43.315734,"lon":5.372501,"is_reserved":false,"is_disabled":false,"rental_uris":{"android":"levelo://app?vid=09f74b07-b4a0-4746-be23-5eda5c1c36a5","ios":"levelo://app?vid=09f74b07-b4a0-4746-be23-5eda5c1c36a5"},"vehicle_type_id":"4","last_reported":1700550415,"current_range_meters":15600,"station_id":"","pricing_plan_id":"free"},{"bike_id":"e63da855-53dc-4800-8c5d-d3a678bb8b69","system_id":"levelo_inurba_marseille","lat":43.309039,"lon":5.371797,"is_reserved":false,"is_disabled":false,"rental_uris":{"android":"levelo://app?vid=e63da855-53dc-4800-8c5d-d3a678bb8b69","ios":"levelo://app?vid=e63da855-53dc-4800-8c5d-d3a678bb8b69"},"vehicle_type_id":"4","last_reported":1700550415,"current_range_meters":30000,"station_id":"ce4bguh2rcd13ifvqckg","pricing_plan_id":"free"},{"bike_id":"2bc311dc-da0b-403e-8cae-84f8764bc67c","system_id":"levelo_inurba_marseille","lat":43.30679,"lon":5.3679,"is_reserved":false,"is_disabled":false,"rental_uris":{"android":"levelo://app?vid=2bc311dc-da0b-403e-8cae-84f8764bc67c","ios":"levelo://app?vid=2bc311dc-da0b-403e-8cae-84f8764bc67c"},"vehicle_type_id":"4","last_reported":1700550415,"current_range_meters":4000,"station_id":"","pricing_plan_id":"free"},{"bike_id":"1f3a181e-3c6d-4b6b-a861-980b2280450e","system_id":"levelo_inurba_marseille","lat":43.305714,"lon":5.365633,"is_reserved":false,"is_disabled":false,"rental_uris":{"android":"levelo://app?vid=1f3a181e-3c6d-4b6b-a861-980b2280450e","ios":"levelo://app?vid=1f3a181e-3c6d-4b6b-a861-980b2280450e"},"vehicle_type_id":"4","last_reported":1700550415,"current_range_meters":17600,"station_id":"ce4bgs12rcd13ifvqcag","pricing_plan_id":"free"},{"bike_id":"0ace8a9f-b32e-4f50-8af3-0f3da5e104c2","system_id":"levelo_inurba_marseille","lat":43.305368,"lon":5.367343,"is_reserved":false,"is_disabled":false,"rental_uris":{"android":"levelo://app?vid=0ace8a9f-b32e-4f50-8af3-0f3da5e104c2","ios":"levelo://app?vid=0ace8a9f-b32e-4f50-8af3-0f3da5e104c2"},"vehicle_type_id":"4","last_reported":1700550415,"current_range_meters":3200,"station_id":"ce4bgrp2rcd13ifvqc9g","pricing_plan_id":"free"},{"bike_id":"ca925cff-55d2-4a28-bb11-822d6307722d","system_id":"levelo_inurba_marseille","lat":43.305368,"lon":5.367343,"is_reserved":false,"is_disabled":false,"rental_uris":{"android":"levelo://app?vid=ca925cff-55d2-4a28-bb11-822d6307722d","ios":"levelo://app?vid=ca925cff-55d2-4a28-bb11-822d6307722d"},"vehicle_type_id":"4","last_reported":1700550415,"current_range_meters":25200,"station_id":"ce4bgrp2rcd13ifvqc9g","pricing_plan_id":"free"},{"bike_id":"0d8e2a64-df01-4c41-8bde-0c1584e732f6","system_id":"levelo_inurba_marseille","lat":43.305368,"lon":5.367343,"is_reserved":false,"is_disabled":false,"rental_uris":{"android":"levelo://app?vid=0d8e2a64-df01-4c41-8bde-0c1584e732f6","ios":"levelo://app?vid=0d8e2a64-df01-4c41-8bde-0c1584e732f6"},"vehicle_type_id":"4","last_reported":1700550415,"current_range_meters":25600,"station_id":"ce4bgrp2rcd13ifvqc9g","pricing_plan_id":"free"},{"bike_id":"790d8068-0ca3-4ee2-ac94-5b1995eb78d3","system_id":"levelo_inurba_marseille","lat":43.31973,"lon":5.371,"is_reserved":false,"is_disabled":false,"rental_uris":{"android":"levelo://app?vid=790d8068-0ca3-4ee2-ac94-5b1995eb78d3","ios":"levelo://app?vid=790d8068-0ca3-4ee2-ac94-5b1995eb78d3"},"vehicle_type_id":"4","last_reported":1700550415,"current_range_meters":0,"station_id":"","pricing_plan_id":"free"},{"bike_id":"8c78c8fa-a482-4e5c-8df6-62b7c527ef2d","system_id":"levelo_inurba_marseille","lat":43.305989,"lon":5.37225,"is_reserved":false,"is_disabled":false,"rental_uris":{"android":"levelo://app?vid=8c78c8fa-a482-4e5c-8df6-62b7c527ef2d","ios":"levelo://app?vid=8c78c8fa-a482-4e5c-8df6-62b7c527ef2d"},"vehicle_type_id":"4","last_reported":1700550415,"current_range_meters":0,"station_id":"ce4bgqh2rcd13ifvqc4g","pricing_plan_id":"free"},{"bike_id":"8be26796-dd90-4fd4-9779-b1c6cc5c63a6","system_id":"levelo_inurba_marseille","lat":43.30195,"lon":5.36631,"is_reserved":false,"is_disabled":false,"rental_uris":{"android":"levelo://app?vid=8be26796-dd90-4fd4-9779-b1c6cc5c63a6","ios":"levelo://app?vid=8be26796-dd90-4fd4-9779-b1c6cc5c63a6"},"vehicle_type_id":"4","last_reported":1700550415,"current_range_meters":14000,"station_id":"ce4bgrh2rcd13ifvqc8g","pricing_plan_id":"free"},{"bike_id":"90db7e0c-8621-4bae-ab89-b1fc12bc65f1","system_id":"levelo_inurba_marseille","lat":43.30797,"lon":5.38162,"is_reserved":false,"is_disabled":false,"rental_uris":{"android":"levelo://app?vid=90db7e0c-8621-4bae-ab89-b1fc12bc65f1","ios":"levelo://app?vid=90db7e0c-8621-4bae-ab89-b1fc12bc65f1"},"vehicle_type_id":"4","last_reported":1700550415,"current_range_meters":29600,"station_id":"ce4bgt12rcd13ifvqce0","pricing_plan_id":"free"},{"bike_id":"9effb7bd-fe93-4a49-aff1-443fa5a62203","system_id":"levelo_inurba_marseille","lat":43.304606,"lon":5.379026,"is_reserved":false,"is_disabled":false,"rental_uris":{"android":"levelo://app?vid=9effb7bd-fe93-4a49-aff1-443fa5a62203","ios":"levelo://app?vid=9effb7bd-fe93-4a49-aff1-443fa5a62203"},"vehicle_type_id":"4","last_reported":1700550415,"current_range_meters":24000,"station_id":"ce4bgup2rcd13ifvqcn0","pricing_plan_id":"free"},{"bike_id":"e849b91b-c523-4793-930a-0b1b5407e900","system_id":"levelo_inurba_marseille","lat":43.304606,"lon":5.379026,"is_reserved":false,"is_disabled":false,"rental_uris":{"android":"levelo://app?vid=e849b91b-c523-4793-930a-0b1b5407e900","ios":"levelo://app?vid=e849b91b-c523-4793-930a-0b1b5407e900"},"vehicle_type_id":"4","last_reported":1700550415,"current_range_meters":29200,"station_id":"ce4bgup2rcd13ifvqcn0","pricing_plan_id":"free"},{"bike_id":"1c89510f-ca24-4528-813d-94db6257c804","system_id":"levelo_inurba_marseille","lat":43.304606,"lon":5.379026,"is_reserved":false,"is_disabled":false,"rental_uris":{"android":"levelo://app?vid=1c89510f-ca24-4528-813d-94db6257c804","ios":"levelo://app?vid=1c89510f-ca24-4528-813d-94db6257c804"},"vehicle_type_id":"4","last_reported":1700550415,"current_range_meters":24800,"station_id":"ce4bgup2rcd13ifvqcn0","pricing_plan_id":"free"},{"bike_id":"dc5688e7-03a6-4e64-9e57-c72d93b71b21","system_id":"levelo_inurba_marseille","lat":43.304606,"lon":5.379026,"is_reserved":false,"is_disabled":false,"rental_uris":{"android":"levelo://app?vid=dc5688e7-03a6-4e64-9e57-c72d93b71b21","ios":"levelo://app?vid=dc5688e7-03a6-4e64-9e57-c72d93b71b21"},"vehicle_type_id":"4","last_reported":1700550415,"current_range_meters":24400,"station_id":"ce4bgup2rcd13ifvqcn0","pricing_plan_id":"free"},{"bike_id":"fdcf6bff-b06a-4b4c-992c-b900dc15588c","system_id":"levelo_inurba_marseille","lat":43.304606,"lon":5.379026,"is_reserved":false,"is_disabled":false,"rental_uris":{"android":"levelo://app?vid=fdcf6bff-b06a-4b4c-992c-b900dc15588c","ios":"levelo://app?vid=fdcf6bff-b06a-4b4c-992c-b900dc15588c"},"vehicle_type_id":"4","last_reported":1700550415,"current_range_meters":25600,"station_id":"ce4bgup2rcd13ifvqcn0","pricing_plan_id":"free"},{"bike_id":"aa59807a-b2ca-47ec-a540-ffcf99beed6d","system_id":"levelo_inurba_marseille","lat":43.304606,"lon":5.379026,"is_reserved":false,"is_disabled":false,"rental_uris":{"android":"levelo://app?vid=aa59807a-b2ca-47ec-a540-ffcf99beed6d","ios":"levelo://app?vid=aa59807a-b2ca-47ec-a540-ffcf99beed6d"},"vehicle_type_id":"4","last_reported":1700550415,"current_range_meters":16400,"station_id":"ce4bgup2rcd13ifvqcn0","pricing_plan_id":"free"},{"bike_id":"3eb6b709-c8a3-465a-aa8d-08de9be098ec","system_id":"levelo_inurba_marseille","lat":43.304606,"lon":5.379026,"is_reserved":false,"is_disabled":false,"rental_uris":{"android":"levelo://app?vid=3eb6b709-c8a3-465a-aa8d-08de9be098ec","ios":"levelo://app?vid=3eb6b709-c8a3-465a-aa8d-08de9be098ec"},"vehicle_type_id":"4","last_reported":1700550415,"current_range_meters":31600,"station_id":"ce4bgup2rcd13ifvqcn0","pricing_plan_id":"free"},{"bike_id":"df05e2a8-15e6-40f0-a6a1-cadf979795c2","system_id":"levelo_inurba_marseille","lat":43.304606,"lon":5.379026,"is_reserved":false,"is_disabled":false,"rental_uris":{"android":"levelo://app?vid=df05e2a8-15e6-40f0-a6a1-cadf979795c2","ios":"levelo://app?vid=df05e2a8-15e6-40f0-a6a1-cadf979795c2"},"vehicle_type_id":"4","last_reported":1700550415,"current_range_meters":25600,"station_id":"ce4bgup2rcd13ifvqcn0","pricing_plan_id":"free"},{"bike_id":"a7be3f2c-19a8-47e5-bc56-89aba1bcad9b","system_id":"levelo_inurba_marseille","lat":43.304606,"lon":5.379026,"is_reserved":false,"is_disabled":false,"rental_uris":{"android":"levelo://app?vid=a7be3f2c-19a8-47e5-bc56-89aba1bcad9b","ios":"levelo://app?vid=a7be3f2c-19a8-47e5-bc56-89aba1bcad9b"},"vehicle_type_id":"4","last_reported":1700550415,"current_range_meters":31600,"station_id":"ce4bgup2rcd13ifvqcn0","pricing_plan_id":"free"},{"bike_id":"8008ceba-2131-4391-8537-dd4aa3fd84a9","system_id":"levelo_inurba_marseille","lat":43.304606,"lon":5.379026,"is_reserved":false,"is_disabled":false,"rental_uris":{"android":"levelo://app?vid=8008ceba-2131-4391-8537-dd4aa3fd84a9","ios":"levelo://app?vid=8008ceba-2131-4391-8537-dd4aa3fd84a9"},"vehicle_type_id":"4","last_reported":1700550415,"current_range_meters":23200,"station_id":"ce4bgup2rcd13ifvqcn0","pricing_plan_id":"free"},{"bike_id":"e10ca026-a264-439a-be32-718eecb7ad79","system_id":"levelo_inurba_marseille","lat":43.304606,"lon":5.379026,"is_reserved":false,"is_disabled":false,"rental_uris":{"android":"levelo://app?vid=e10ca026-a264-439a-be32-718eecb7ad79","ios":"levelo://app?vid=e10ca026-a264-439a-be32-718eecb7ad79"},"vehicle_type_id":"4","last_reported":1700550415,"current_range_meters":18400,"station_id":"ce4bgup2rcd13ifvqcn0","pricing_plan_id":"free"},{"bike_id":"54d6cb07-01f5-4e29-941e-dba9e3340313","system_id":"levelo_inurba_marseille","lat":43.304606,"lon":5.379026,"is_reserved":false,"is_disabled":false,"rental_uris":{"android":"levelo://app?vid=54d6cb07-01f5-4e29-941e-dba9e3340313","ios":"levelo://app?vid=54d6cb07-01f5-4e29-941e-dba9e3340313"},"vehicle_type_id":"4","last_reported":1700550415,"current_range_meters":31600,"station_id":"ce4bgup2rcd13ifvqcn0","pricing_plan_id":"free"},{"bike_id":"29640844-84ab-4b9f-aa50-1852e57bc134","system_id":"levelo_inurba_marseille","lat":43.304606,"lon":5.379026,"is_reserved":false,"is_disabled":false,"rental_uris":{"android":"levelo://app?vid=29640844-84ab-4b9f-aa50-1852e57bc134","ios":"levelo://app?vid=29640844-84ab-4b9f-aa50-1852e57bc134"},"vehicle_type_id":"4","last_reported":1700550415,"current_range_meters":27600,"station_id":"ce4bgup2rcd13ifvqcn0","pricing_plan_id":"free"},{"bike_id":"f5d5d894-703f-420f-bc12-b521f5b714c6","system_id":"levelo_inurba_marseille","lat":43.30469,"lon":5.379129,"is_reserved":false,"is_disabled":false,"rental_uris":{"android":"levelo://app?vid=f5d5d894-703f-420f-bc12-b521f5b714c6","ios":"levelo://app?vid=f5d5d894-703f-420f-bc12-b521f5b714c6"},"vehicle_type_id":"4","last_reported":1700550415,"current_range_meters":21200,"station_id":"ce4bgup2rcd13ifvqcn0","pricing_plan_id":"free"},{"bike_id":"f12f801d-b957-4ed6-ab2e-39d595d3d8e9","system_id":"levelo_inurba_marseille","lat":43.304606,"lon":5.379026,"is_reserved":false,"is_disabled":false,"rental_uris":{"android":"levelo://app?vid=f12f801d-b957-4ed6-ab2e-39d595d3d8e9","ios":"levelo://app?vid=f12f801d-b957-4ed6-ab2e-39d595d3d8e9"},"vehicle_type_id":"4","last_reported":1700550415,"current_range_meters":28000,"station_id":"ce4bgup2rcd13ifvqcn0","pricing_plan_id":"free"},{"bike_id":"aabe8130-3e22-4a10-9c84-14f04cabc325","system_id":"levelo_inurba_marseille","lat":43.304606,"lon":5.379026,"is_reserved":false,"is_disabled":false,"rental_uris":{"android":"levelo://app?vid=aabe8130-3e22-4a10-9c84-14f04cabc325","ios":"levelo://app?vid=aabe8130-3e22-4a10-9c84-14f04cabc325"},"vehicle_type_id":"4","last_reported":1700550415,"current_range_meters":23600,"station_id":"ce4bgup2rcd13ifvqcn0","pricing_plan_id":"free"},{"bike_id":"5257b416-5b8d-4650-89e4-6bc2920126fc","system_id":"levelo_inurba_marseille","lat":43.304606,"lon":5.379026,"is_reserved":false,"is_disabled":false,"rental_uris":{"android":"levelo://app?vid=5257b416-5b8d-4650-89e4-6bc2920126fc","ios":"levelo://app?vid=5257b416-5b8d-4650-89e4-6bc2920126fc"},"vehicle_type_id":"4","last_reported":1700550415,"current_range_meters":20000,"station_id":"ce4bgup2rcd13ifvqcn0","pricing_plan_id":"free"},{"bike_id":"20659c4d-b2d9-46c5-bbbc-7f0b5b573c39","system_id":"levelo_inurba_marseille","lat":43.304606,"lon":5.379026,"is_reserved":false,"is_disabled":false,"rental_uris":{"android":"levelo://app?vid=20659c4d-b2d9-46c5-bbbc-7f0b5b573c39","ios":"levelo://app?vid=20659c4d-b2d9-46c5-bbbc-7f0b5b573c39"},"vehicle_type_id":"4","last_reported":1700550415,"current_range_meters":15600,"station_id":"ce4bgup2rcd13ifvqcn0","pricing_plan_id":"free"},{"bike_id":"b3f7941f-4cda-4570-9e9c-6559f3109832","system_id":"levelo_inurba_marseille","lat":43.304606,"lon":5.379026,"is_reserved":false,"is_disabled":false,"rental_uris":{"android":"levelo://app?vid=b3f7941f-4cda-4570-9e9c-6559f3109832","ios":"levelo://app?vid=b3f7941f-4cda-4570-9e9c-6559f3109832"},"vehicle_type_id":"4","last_reported":1700550415,"current_range_meters":26000,"station_id":"ce4bgup2rcd13ifvqcn0","pricing_plan_id":"free"},{"bike_id":"e6068351-17f7-434a-8cb7-98af3fb93eb9","system_id":"levelo_inurba_marseille","lat":43.304606,"lon":5.379026,"is_reserved":false,"is_disabled":false,"rental_uris":{"android":"levelo://app?vid=e6068351-17f7-434a-8cb7-98af3fb93eb9","ios":"levelo://app?vid=e6068351-17f7-434a-8cb7-98af3fb93eb9"},"vehicle_type_id":"4","last_reported":1700550415,"current_range_meters":9600,"station_id":"ce4bgup2rcd13ifvqcn0","pricing_plan_id":"free"},{"bike_id":"2f7990e2-3a91-400a-abd6-175365717282","system_id":"levelo_inurba_marseille","lat":43.304606,"lon":5.379026,"is_reserved":false,"is_disabled":false,"rental_uris":{"android":"levelo://app?vid=2f7990e2-3a91-400a-abd6-175365717282","ios":"levelo://app?vid=2f7990e2-3a91-400a-abd6-175365717282"},"vehicle_type_id":"4","last_reported":1700550415,"current_range_meters":29600,"station_id":"ce4bgup2rcd13ifvqcn0","pricing_plan_id":"free"},{"bike_id":"88a44f76-49ff-45e8-875d-79ee56dd12bd","system_id":"levelo_inurba_marseille","lat":43.324771,"lon":5.36557,"is_reserved":false,"is_disabled":false,"rental_uris":{"android":"levelo://app?vid=88a44f76-49ff-45e8-875d-79ee56dd12bd","ios":"levelo://app?vid=88a44f76-49ff-45e8-875d-79ee56dd12bd"},"vehicle_type_id":"4","last_reported":1700550415,"current_range_meters":17600,"station_id":"ce4bhs12rcd13ifvqhvg","pricing_plan_id":"free"},{"bike_id":"b63682ef-2bd5-4f75-8ff1-2afec5ef761e","system_id":"levelo_inurba_marseille","lat":43.304606,"lon":5.379026,"is_reserved":false,"is_disabled":false,"rental_uris":{"android":"levelo://app?vid=b63682ef-2bd5-4f75-8ff1-2afec5ef761e","ios":"levelo://app?vid=b63682ef-2bd5-4f75-8ff1-2afec5ef761e"},"vehicle_type_id":"4","last_reported":1700550415,"current_range_meters":29200,"station_id":"ce4bgup2rcd13ifvqcn0","pricing_plan_id":"free"},{"bike_id":"911d317f-287f-4642-9c7a-77775c6fe46a","system_id":"levelo_inurba_marseille","lat":43.302784,"lon":5.377158,"is_reserved":false,"is_disabled":false,"rental_uris":{"android":"levelo://app?vid=911d317f-287f-4642-9c7a-77775c6fe46a","ios":"levelo://app?vid=911d317f-287f-4642-9c7a-77775c6fe46a"},"vehicle_type_id":"4","last_reported":1700550415,"current_range_meters":9600,"station_id":"ce4bguh2rcd13ifvqcj0","pricing_plan_id":"free"},{"bike_id":"4f073869-75b4-47c5-92ed-7ac472a4a868","system_id":"levelo_inurba_marseille","lat":43.302784,"lon":5.377158,"is_reserved":false,"is_disabled":false,"rental_uris":{"android":"levelo://app?vid=4f073869-75b4-47c5-92ed-7ac472a4a868","ios":"levelo://app?vid=4f073869-75b4-47c5-92ed-7ac472a4a868"},"vehicle_type_id":"4","last_reported":1700550415,"current_range_meters":20400,"station_id":"ce4bguh2rcd13ifvqcj0","pricing_plan_id":"free"},{"bike_id":"5158a4de-9dc6-49c7-9308-47f4af083220","system_id":"levelo_inurba_marseille","lat":43.302784,"lon":5.377158,"is_reserved":false,"is_disabled":false,"rental_uris":{"android":"levelo://app?vid=5158a4de-9dc6-49c7-9308-47f4af083220","ios":"levelo://app?vid=5158a4de-9dc6-49c7-9308-47f4af083220"},"vehicle_type_id":"4","last_reported":1700550415,"current_range_meters":31600,"station_id":"ce4bguh2rcd13ifvqcj0","pricing_plan_id":"free"},{"bike_id":"9f3cf191-8ca1-4efc-9862-5e73b4e0fe1c","system_id":"levelo_inurba_marseille","lat":43.302784,"lon":5.377158,"is_reserved":false,"is_disabled":false,"rental_uris":{"android":"levelo://app?vid=9f3cf191-8ca1-4efc-9862-5e73b4e0fe1c","ios":"levelo://app?vid=9f3cf191-8ca1-4efc-9862-5e73b4e0fe1c"},"vehicle_type_id":"4","last_reported":1700550415,"current_range_meters":31600,"station_id":"ce4bguh2rcd13ifvqcj0","pricing_plan_id":"free"},{"bike_id":"4f65c769-009d-4bc3-9f9e-041c412f0739","system_id":"levelo_inurba_marseille","lat":43.302784,"lon":5.377158,"is_reserved":false,"is_disabled":false,"rental_uris":{"android":"levelo://app?vid=4f65c769-009d-4bc3-9f9e-041c412f0739","ios":"levelo://app?vid=4f65c769-009d-4bc3-9f9e-041c412f0739"},"vehicle_type_id":"4","last_reported":1700550415,"current_range_meters":29200,"station_id":"ce4bguh2rcd13ifvqcj0","pricing_plan_id":"free"},{"bike_id":"2e2ecf62-1896-427e-9be3-bc4da49e608b","system_id":"levelo_inurba_marseille","lat":43.302784,"lon":5.377158,"is_reserved":false,"is_disabled":false,"rental_uris":{"android":"levelo://app?vid=2e2ecf62-1896-427e-9be3-bc4da49e608b","ios":"levelo://app?vid=2e2ecf62-1896-427e-9be3-bc4da49e608b"},"vehicle_type_id":"4","last_reported":1700550415,"current_range_meters":30400,"station_id":"ce4bguh2rcd13ifvqcj0","pricing_plan_id":"free"},{"bike_id":"495e7b36-e4f7-41c0-a50e-a9699c85d180","system_id":"levelo_inurba_marseille","lat":43.30144,"lon":5.3741,"is_reserved":false,"is_disabled":false,"rental_uris":{"android":"levelo://app?vid=495e7b36-e4f7-41c0-a50e-a9699c85d180","ios":"levelo://app?vid=495e7b36-e4f7-41c0-a50e-a9699c85d180"},"vehicle_type_id":"4","last_reported":1700550415,"current_range_meters":11200,"station_id":"ce4bgs92rcd13ifvqcc0","pricing_plan_id":"free"},{"bike_id":"33787db3-ee72-4248-a048-7b4f9fffdde1","system_id":"levelo_inurba_marseille","lat":43.301429,"lon":5.37413,"is_reserved":false,"is_disabled":false,"rental_uris":{"android":"levelo://app?vid=33787db3-ee72-4248-a048-7b4f9fffdde1","ios":"levelo://app?vid=33787db3-ee72-4248-a048-7b4f9fffdde1"},"vehicle_type_id":"4","last_reported":1700550415,"current_range_meters":27200,"station_id":"ce4bgs92rcd13ifvqcc0","pricing_plan_id":"free"},{"bike_id":"623957a2-52be-4c13-8c4c-6b14ccb3cc2a","system_id":"levelo_inurba_marseille","lat":43.301429,"lon":5.37413,"is_reserved":false,"is_disabled":false,"rental_uris":{"android":"levelo://app?vid=623957a2-52be-4c13-8c4c-6b14ccb3cc2a","ios":"levelo://app?vid=623957a2-52be-4c13-8c4c-6b14ccb3cc2a"},"vehicle_type_id":"4","last_reported":1700550415,"current_range_meters":31200,"station_id":"ce4bgs92rcd13ifvqcc0","pricing_plan_id":"free"},{"bike_id":"5ce6bcc3-27b2-4d47-a2b5-78411366cef5","system_id":"levelo_inurba_marseille","lat":43.303046,"lon":5.368981,"is_reserved":false,"is_disabled":false,"rental_uris":{"android":"levelo://app?vid=5ce6bcc3-27b2-4d47-a2b5-78411366cef5","ios":"levelo://app?vid=5ce6bcc3-27b2-4d47-a2b5-78411366cef5"},"vehicle_type_id":"4","last_reported":1700550415,"current_range_meters":28800,"station_id":"ce4bgqh2rcd13ifvqc5g","pricing_plan_id":"free"},{"bike_id":"72fcb33a-6197-4c4b-b486-07a352f25fba","system_id":"levelo_inurba_marseille","lat":43.305364,"lon":5.384119,"is_reserved":false,"is_disabled":false,"rental_uris":{"android":"levelo://app?vid=72fcb33a-6197-4c4b-b486-07a352f25fba","ios":"levelo://app?vid=72fcb33a-6197-4c4b-b486-07a352f25fba"},"vehicle_type_id":"4","last_reported":1700550415,"current_range_meters":16800,"station_id":"ce4bgg92rcd13ifvqb30","pricing_plan_id":"free"},{"bike_id":"7f07e7b3-0e4b-433c-98bd-cce5f817b1c7","system_id":"levelo_inurba_marseille","lat":43.305364,"lon":5.384119,"is_reserved":false,"is_disabled":false,"rental_uris":{"android":"levelo://app?vid=7f07e7b3-0e4b-433c-98bd-cce5f817b1c7","ios":"levelo://app?vid=7f07e7b3-0e4b-433c-98bd-cce5f817b1c7"},"vehicle_type_id":"4","last_reported":1700550415,"current_range_meters":31600,"station_id":"ce4bgg92rcd13ifvqb30","pricing_plan_id":"free"},{"bike_id":"c0b1b3a0-8809-4365-bfed-70c9be4bb402","system_id":"levelo_inurba_marseille","lat":43.29845,"lon":5.36275,"is_reserved":false,"is_disabled":false,"rental_uris":{"android":"levelo://app?vid=c0b1b3a0-8809-4365-bfed-70c9be4bb402","ios":"levelo://app?vid=c0b1b3a0-8809-4365-bfed-70c9be4bb402"},"vehicle_type_id":"4","last_reported":1700550415,"current_range_meters":0,"station_id":"ce4bgpp2rcd13ifvqc3g","pricing_plan_id":"free"},{"bike_id":"87a46da4-1bb2-42cc-9e92-14135988228b","system_id":"levelo_inurba_marseille","lat":43.30545,"lon":5.38438,"is_reserved":false,"is_disabled":false,"rental_uris":{"android":"levelo://app?vid=87a46da4-1bb2-42cc-9e92-14135988228b","ios":"levelo://app?vid=87a46da4-1bb2-42cc-9e92-14135988228b"},"vehicle_type_id":"4","last_reported":1700550415,"current_range_meters":12800,"station_id":"ce4bgg92rcd13ifvqb30","pricing_plan_id":"free"},{"bike_id":"cb4d2ae5-f160-4767-a697-654901f078ee","system_id":"levelo_inurba_marseille","lat":43.299209,"lon":5.374674,"is_reserved":false,"is_disabled":false,"rental_uris":{"android":"levelo://app?vid=cb4d2ae5-f160-4767-a697-654901f078ee","ios":"levelo://app?vid=cb4d2ae5-f160-4767-a697-654901f078ee"},"vehicle_type_id":"4","last_reported":1700550415,"current_range_meters":0,"station_id":"ce4bgjh2rcd13ifvqbg0","pricing_plan_id":"free"},{"bike_id":"ea1126fc-fc77-44f0-b7dc-9a93e8ec2138","system_id":"levelo_inurba_marseille","lat":43.29913,"lon":5.37465,"is_reserved":false,"is_disabled":false,"rental_uris":{"android":"levelo://app?vid=ea1126fc-fc77-44f0-b7dc-9a93e8ec2138","ios":"levelo://app?vid=ea1126fc-fc77-44f0-b7dc-9a93e8ec2138"},"vehicle_type_id":"4","last_reported":1700550415,"current_range_meters":19200,"station_id":"ce4bgjh2rcd13ifvqbg0","pricing_plan_id":"free"},{"bike_id":"6976d8ae-e201-49e9-9149-8e3aa83e37e4","system_id":"levelo_inurba_marseille","lat":43.2991,"lon":5.37463,"is_reserved":false,"is_disabled":false,"rental_uris":{"android":"levelo://app?vid=6976d8ae-e201-49e9-9149-8e3aa83e37e4","ios":"levelo://app?vid=6976d8ae-e201-49e9-9149-8e3aa83e37e4"},"vehicle_type_id":"4","last_reported":1700550415,"current_range_meters":23200,"station_id":"ce4bgjh2rcd13ifvqbg0","pricing_plan_id":"free"},{"bike_id":"313b90c0-c9f8-43b2-9344-fbcbc05429b7","system_id":"levelo_inurba_marseille","lat":43.311722,"lon":5.387247,"is_reserved":false,"is_disabled":false,"rental_uris":{"android":"levelo://app?vid=313b90c0-c9f8-43b2-9344-fbcbc05429b7","ios":"levelo://app?vid=313b90c0-c9f8-43b2-9344-fbcbc05429b7"},"vehicle_type_id":"4","last_reported":1700550415,"current_range_meters":24800,"station_id":"ce4bgv12rcd13ifvqcp0","pricing_plan_id":"free"},{"bike_id":"d9a95eb2-3ca7-4d5c-ae71-fae5be7a5a02","system_id":"levelo_inurba_marseille","lat":43.29811,"lon":5.37099,"is_reserved":false,"is_disabled":false,"rental_uris":{"android":"levelo://app?vid=d9a95eb2-3ca7-4d5c-ae71-fae5be7a5a02","ios":"levelo://app?vid=d9a95eb2-3ca7-4d5c-ae71-fae5be7a5a02"},"vehicle_type_id":"4","last_reported":1700550415,"current_range_meters":17200,"station_id":"ce4bgop2rcd13ifvqc1g","pricing_plan_id":"free"},{"bike_id":"8f48367f-c67e-4ae9-a0ec-8671c6efbe3c","system_id":"levelo_inurba_marseille","lat":43.322872,"lon":5.382756,"is_reserved":false,"is_disabled":false,"rental_uris":{"android":"levelo://app?vid=8f48367f-c67e-4ae9-a0ec-8671c6efbe3c","ios":"levelo://app?vid=8f48367f-c67e-4ae9-a0ec-8671c6efbe3c"},"vehicle_type_id":"4","last_reported":1700550415,"current_range_meters":31600,"station_id":"ce4bhr12rcd13ifvqhqg","pricing_plan_id":"free"},{"bike_id":"995bb301-24cd-4528-b859-42e43a6b08c7","system_id":"levelo_inurba_marseille","lat":43.322872,"lon":5.382756,"is_reserved":false,"is_disabled":false,"rental_uris":{"android":"levelo://app?vid=995bb301-24cd-4528-b859-42e43a6b08c7","ios":"levelo://app?vid=995bb301-24cd-4528-b859-42e43a6b08c7"},"vehicle_type_id":"4","last_reported":1700550415,"current_range_meters":22800,"station_id":"ce4bhr12rcd13ifvqhqg","pricing_plan_id":"free"},{"bike_id":"e13f952a-c1cd-445a-869b-c7b187398abd","system_id":"levelo_inurba_marseille","lat":43.322872,"lon":5.382756,"is_reserved":false,"is_disabled":false,"rental_uris":{"android":"levelo://app?vid=e13f952a-c1cd-445a-869b-c7b187398abd","ios":"levelo://app?vid=e13f952a-c1cd-445a-869b-c7b187398abd"},"vehicle_type_id":"4","last_reported":1700550415,"current_range_meters":24400,"station_id":"ce4bhr12rcd13ifvqhqg","pricing_plan_id":"free"},{"bike_id":"e69b604c-1de6-4369-aaea-ef66feb74f0f","system_id":"levelo_inurba_marseille","lat":43.32296,"lon":5.38266,"is_reserved":false,"is_disabled":false,"rental_uris":{"android":"levelo://app?vid=e69b604c-1de6-4369-aaea-ef66feb74f0f","ios":"levelo://app?vid=e69b604c-1de6-4369-aaea-ef66feb74f0f"},"vehicle_type_id":"4","last_reported":1700550415,"current_range_meters":21600,"station_id":"ce4bhr12rcd13ifvqhqg","pricing_plan_id":"free"},{"bike_id":"bbe09995-3ab3-40f8-87e2-ec3af1bf6f0c","system_id":"levelo_inurba_marseille","lat":43.32825,"lon":5.36686,"is_reserved":false,"is_disabled":false,"rental_uris":{"android":"levelo://app?vid=bbe09995-3ab3-40f8-87e2-ec3af1bf6f0c","ios":"levelo://app?vid=bbe09995-3ab3-40f8-87e2-ec3af1bf6f0c"},"vehicle_type_id":"4","last_reported":1700550415,"current_range_meters":20400,"station_id":"ce4bhs92rcd13ifvqi0g","pricing_plan_id":"free"},{"bike_id":"904569ed-c38a-4fd0-967f-a19cad7267fe","system_id":"levelo_inurba_marseille","lat":43.297796,"lon":5.37274,"is_reserved":false,"is_disabled":false,"rental_uris":{"android":"levelo://app?vid=904569ed-c38a-4fd0-967f-a19cad7267fe","ios":"levelo://app?vid=904569ed-c38a-4fd0-967f-a19cad7267fe"},"vehicle_type_id":"4","last_reported":1700550415,"current_range_meters":14400,"station_id":"","pricing_plan_id":"free"},{"bike_id":"006064be-238e-4c3f-a143-e61c41006820","system_id":"levelo_inurba_marseille","lat":43.32828,"lon":5.36689,"is_reserved":false,"is_disabled":false,"rental_uris":{"android":"levelo://app?vid=006064be-238e-4c3f-a143-e61c41006820","ios":"levelo://app?vid=006064be-238e-4c3f-a143-e61c41006820"},"vehicle_type_id":"4","last_reported":1700550415,"current_range_meters":5600,"station_id":"ce4bhs92rcd13ifvqi0g","pricing_plan_id":"free"},{"bike_id":"03123d30-66cb-4184-88f8-60f2cdba4adb","system_id":"levelo_inurba_marseille","lat":43.297163,"lon":5.365866,"is_reserved":false,"is_disabled":false,"rental_uris":{"android":"levelo://app?vid=03123d30-66cb-4184-88f8-60f2cdba4adb","ios":"levelo://app?vid=03123d30-66cb-4184-88f8-60f2cdba4adb"},"vehicle_type_id":"4","last_reported":1700550415,"current_range_meters":29200,"station_id":"ce4bgn12rcd13ifvqbt0","pricing_plan_id":"free"},{"bike_id":"33f7a205-a0fa-45aa-8dec-d47c850fa3fa","system_id":"levelo_inurba_marseille","lat":43.29726,"lon":5.37013,"is_reserved":false,"is_disabled":false,"rental_uris":{"android":"levelo://app?vid=33f7a205-a0fa-45aa-8dec-d47c850fa3fa","ios":"levelo://app?vid=33f7a205-a0fa-45aa-8dec-d47c850fa3fa"},"vehicle_type_id":"4","last_reported":1700550415,"current_range_meters":2000,"station_id":"","pricing_plan_id":"free"},{"bike_id":"293c4f59-5e14-45f3-a364-846be1453300","system_id":"levelo_inurba_marseille","lat":43.299638,"lon":5.379181,"is_reserved":false,"is_disabled":false,"rental_uris":{"android":"levelo://app?vid=293c4f59-5e14-45f3-a364-846be1453300","ios":"levelo://app?vid=293c4f59-5e14-45f3-a364-846be1453300"},"vehicle_type_id":"4","last_reported":1700550415,"current_range_meters":0,"station_id":"","pricing_plan_id":"free"},{"bike_id":"6af2445d-d563-498f-b713-fe476204572e","system_id":"levelo_inurba_marseille","lat":43.296131,"lon":5.370791,"is_reserved":false,"is_disabled":false,"rental_uris":{"android":"levelo://app?vid=6af2445d-d563-498f-b713-fe476204572e","ios":"levelo://app?vid=6af2445d-d563-498f-b713-fe476204572e"},"vehicle_type_id":"4","last_reported":1700550415,"current_range_meters":29600,"station_id":"ce4bgnh2rcd13ifvqc0g","pricing_plan_id":"free"},{"bike_id":"74a2226e-089e-4939-933d-4b21e054effb","system_id":"levelo_inurba_marseille","lat":43.296129,"lon":5.370777,"is_reserved":false,"is_disabled":false,"rental_uris":{"android":"levelo://app?vid=74a2226e-089e-4939-933d-4b21e054effb","ios":"levelo://app?vid=74a2226e-089e-4939-933d-4b21e054effb"},"vehicle_type_id":"4","last_reported":1700550415,"current_range_meters":30400,"station_id":"ce4bgnh2rcd13ifvqc0g","pricing_plan_id":"free"},{"bike_id":"b5f197ba-07bf-4282-9b1f-425dfd47e68c","system_id":"levelo_inurba_marseille","lat":43.296131,"lon":5.370791,"is_reserved":false,"is_disabled":false,"rental_uris":{"android":"levelo://app?vid=b5f197ba-07bf-4282-9b1f-425dfd47e68c","ios":"levelo://app?vid=b5f197ba-07bf-4282-9b1f-425dfd47e68c"},"vehicle_type_id":"4","last_reported":1700550415,"current_range_meters":30800,"station_id":"ce4bgnh2rcd13ifvqc0g","pricing_plan_id":"free"},{"bike_id":"bb530e04-59de-44e9-9681-9c6d0b4406c6","system_id":"levelo_inurba_marseille","lat":43.29622,"lon":5.37152,"is_reserved":false,"is_disabled":false,"rental_uris":{"android":"levelo://app?vid=bb530e04-59de-44e9-9681-9c6d0b4406c6","ios":"levelo://app?vid=bb530e04-59de-44e9-9681-9c6d0b4406c6"},"vehicle_type_id":"4","last_reported":1700550415,"current_range_meters":27200,"station_id":"ce4bgnh2rcd13ifvqc0g","pricing_plan_id":"free"},{"bike_id":"beaf4826-233c-4c85-9560-90cfb365f8ed","system_id":"levelo_inurba_marseille","lat":43.296131,"lon":5.370791,"is_reserved":false,"is_disabled":false,"rental_uris":{"android":"levelo://app?vid=beaf4826-233c-4c85-9560-90cfb365f8ed","ios":"levelo://app?vid=beaf4826-233c-4c85-9560-90cfb365f8ed"},"vehicle_type_id":"4","last_reported":1700550415,"current_range_meters":31200,"station_id":"ce4bgnh2rcd13ifvqc0g","pricing_plan_id":"free"},{"bike_id":"b52ccd06-e043-466c-a90c-417c51850204","system_id":"levelo_inurba_marseille","lat":43.296129,"lon":5.370777,"is_reserved":false,"is_disabled":false,"rental_uris":{"android":"levelo://app?vid=b52ccd06-e043-466c-a90c-417c51850204","ios":"levelo://app?vid=b52ccd06-e043-466c-a90c-417c51850204"},"vehicle_type_id":"4","last_reported":1700550415,"current_range_meters":29200,"station_id":"ce4bgnh2rcd13ifvqc0g","pricing_plan_id":"free"},{"bike_id":"1d10a1b1-d55f-4279-928a-9c6858f32ca9","system_id":"levelo_inurba_marseille","lat":43.32472,"lon":5.3836,"is_reserved":false,"is_disabled":false,"rental_uris":{"android":"levelo://app?vid=1d10a1b1-d55f-4279-928a-9c6858f32ca9","ios":"levelo://app?vid=1d10a1b1-d55f-4279-928a-9c6858f32ca9"},"vehicle_type_id":"4","last_reported":1700550415,"current_range_meters":4400,"station_id":"","pricing_plan_id":"free"},{"bike_id":"5aaba369-13fa-4680-a9b3-f0eaf67544f7","system_id":"levelo_inurba_marseille","lat":43.296921,"lon":5.376579,"is_reserved":false,"is_disabled":false,"rental_uris":{"android":"levelo://app?vid=5aaba369-13fa-4680-a9b3-f0eaf67544f7","ios":"levelo://app?vid=5aaba369-13fa-4680-a9b3-f0eaf67544f7"},"vehicle_type_id":"4","last_reported":1700550415,"current_range_meters":25200,"station_id":"ce4bgkh2rcd13ifvqbl0","pricing_plan_id":"free"},{"bike_id":"b84db360-1944-48cc-903b-4c0bb8430a3a","system_id":"levelo_inurba_marseille","lat":43.299028,"lon":5.381509,"is_reserved":false,"is_disabled":false,"rental_uris":{"android":"levelo://app?vid=b84db360-1944-48cc-903b-4c0bb8430a3a","ios":"levelo://app?vid=b84db360-1944-48cc-903b-4c0bb8430a3a"},"vehicle_type_id":"4","last_reported":1700550415,"current_range_meters":14000,"station_id":"ce4bgj12rcd13ifvqbc0","pricing_plan_id":"free"},{"bike_id":"38e0f682-8c76-4102-9386-9625daa4dcb2","system_id":"levelo_inurba_marseille","lat":43.299028,"lon":5.381509,"is_reserved":false,"is_disabled":false,"rental_uris":{"android":"levelo://app?vid=38e0f682-8c76-4102-9386-9625daa4dcb2","ios":"levelo://app?vid=38e0f682-8c76-4102-9386-9625daa4dcb2"},"vehicle_type_id":"4","last_reported":1700550415,"current_range_meters":24400,"station_id":"ce4bgj12rcd13ifvqbc0","pricing_plan_id":"free"},{"bike_id":"98934be9-5c59-45c0-ba46-0295814b8580","system_id":"levelo_inurba_marseille","lat":43.299028,"lon":5.381509,"is_reserved":false,"is_disabled":false,"rental_uris":{"android":"levelo://app?vid=98934be9-5c59-45c0-ba46-0295814b8580","ios":"levelo://app?vid=98934be9-5c59-45c0-ba46-0295814b8580"},"vehicle_type_id":"4","last_reported":1700550415,"current_range_meters":18400,"station_id":"ce4bgj12rcd13ifvqbc0","pricing_plan_id":"free"},{"bike_id":"19e5e59d-3036-4e10-bd3c-c2ffb7a2af7c","system_id":"levelo_inurba_marseille","lat":43.314587,"lon":5.390881,"is_reserved":false,"is_disabled":false,"rental_uris":{"android":"levelo://app?vid=19e5e59d-3036-4e10-bd3c-c2ffb7a2af7c","ios":"levelo://app?vid=19e5e59d-3036-4e10-bd3c-c2ffb7a2af7c"},"vehicle_type_id":"4","last_reported":1700550415,"current_range_meters":12000,"station_id":"","pricing_plan_id":"free"},{"bike_id":"aeb8f020-7b3b-4e3d-98e0-994e3d4f5f75","system_id":"levelo_inurba_marseille","lat":43.317557,"lon":5.390173,"is_reserved":false,"is_disabled":false,"rental_uris":{"android":"levelo://app?vid=aeb8f020-7b3b-4e3d-98e0-994e3d4f5f75","ios":"levelo://app?vid=aeb8f020-7b3b-4e3d-98e0-994e3d4f5f75"},"vehicle_type_id":"4","last_reported":1700550415,"current_range_meters":12400,"station_id":"ce4bhqp2rcd13ifvqhng","pricing_plan_id":"free"},{"bike_id":"221e45da-7c80-4a98-8fcd-1c8dfe000bb8","system_id":"levelo_inurba_marseille","lat":43.317557,"lon":5.390173,"is_reserved":false,"is_disabled":false,"rental_uris":{"android":"levelo://app?vid=221e45da-7c80-4a98-8fcd-1c8dfe000bb8","ios":"levelo://app?vid=221e45da-7c80-4a98-8fcd-1c8dfe000bb8"},"vehicle_type_id":"4","last_reported":1700550415,"current_range_meters":24000,"station_id":"ce4bhqp2rcd13ifvqhng","pricing_plan_id":"free"},{"bike_id":"f2c66de0-0a3a-4865-99e3-04097b812213","system_id":"levelo_inurba_marseille","lat":43.298037,"lon":5.381066,"is_reserved":false,"is_disabled":false,"rental_uris":{"android":"levelo://app?vid=f2c66de0-0a3a-4865-99e3-04097b812213","ios":"levelo://app?vid=f2c66de0-0a3a-4865-99e3-04097b812213"},"vehicle_type_id":"4","last_reported":1700550415,"current_range_meters":31600,"station_id":"ce4bgip2rcd13ifvqbb0","pricing_plan_id":"free"},{"bike_id":"dbfbc456-160f-40a3-a550-623081ce3d71","system_id":"levelo_inurba_marseille","lat":43.295748,"lon":5.37522,"is_reserved":false,"is_disabled":false,"rental_uris":{"android":"levelo://app?vid=dbfbc456-160f-40a3-a550-623081ce3d71","ios":"levelo://app?vid=dbfbc456-160f-40a3-a550-623081ce3d71"},"vehicle_type_id":"4","last_reported":1700550415,"current_range_meters":31200,"station_id":"ce4bgh92rcd13ifvqb50","pricing_plan_id":"free"},{"bike_id":"6d1095f1-6a16-4ebb-8355-7cfc59d3a723","system_id":"levelo_inurba_marseille","lat":43.304278,"lon":5.388868,"is_reserved":false,"is_disabled":false,"rental_uris":{"android":"levelo://app?vid=6d1095f1-6a16-4ebb-8355-7cfc59d3a723","ios":"levelo://app?vid=6d1095f1-6a16-4ebb-8355-7cfc59d3a723"},"vehicle_type_id":"4","last_reported":1700550415,"current_range_meters":13600,"station_id":"ce4bgk12rcd13ifvqbi0","pricing_plan_id":"free"},{"bike_id":"c897d121-6851-4873-a51c-1778c3cdb238","system_id":"levelo_inurba_marseille","lat":43.304278,"lon":5.388868,"is_reserved":false,"is_disabled":false,"rental_uris":{"android":"levelo://app?vid=c897d121-6851-4873-a51c-1778c3cdb238","ios":"levelo://app?vid=c897d121-6851-4873-a51c-1778c3cdb238"},"vehicle_type_id":"4","last_reported":1700550415,"current_range_meters":800,"station_id":"ce4bgk12rcd13ifvqbi0","pricing_plan_id":"free"},{"bike_id":"3059d4c1-3d42-4321-a339-0fea9a03ef82","system_id":"levelo_inurba_marseille","lat":43.328154,"lon":5.380034,"is_reserved":false,"is_disabled":false,"rental_uris":{"android":"levelo://app?vid=3059d4c1-3d42-4321-a339-0fea9a03ef82","ios":"levelo://app?vid=3059d4c1-3d42-4321-a339-0fea9a03ef82"},"vehicle_type_id":"4","last_reported":1700550415,"current_range_meters":0,"station_id":"","pricing_plan_id":"free"},{"bike_id":"3567b8f9-02b9-4a8a-a484-f4a966555f91","system_id":"levelo_inurba_marseille","lat":43.29617,"lon":5.3773,"is_reserved":false,"is_disabled":false,"rental_uris":{"android":"levelo://app?vid=3567b8f9-02b9-4a8a-a484-f4a966555f91","ios":"levelo://app?vid=3567b8f9-02b9-4a8a-a484-f4a966555f91"},"vehicle_type_id":"4","last_reported":1700550415,"current_range_meters":17600,"station_id":"","pricing_plan_id":"free"},{"bike_id":"4310141d-5625-4547-8795-e8b18bbafecf","system_id":"levelo_inurba_marseille","lat":43.296163,"lon":5.37739,"is_reserved":false,"is_disabled":false,"rental_uris":{"android":"levelo://app?vid=4310141d-5625-4547-8795-e8b18bbafecf","ios":"levelo://app?vid=4310141d-5625-4547-8795-e8b18bbafecf"},"vehicle_type_id":"4","last_reported":1700550415,"current_range_meters":30800,"station_id":"ce4bgi92rcd13ifvqb90","pricing_plan_id":"free"},{"bike_id":"1db2b610-a454-4431-9418-435bad211783","system_id":"levelo_inurba_marseille","lat":43.295279,"lon":5.375048,"is_reserved":false,"is_disabled":false,"rental_uris":{"android":"levelo://app?vid=1db2b610-a454-4431-9418-435bad211783","ios":"levelo://app?vid=1db2b610-a454-4431-9418-435bad211783"},"vehicle_type_id":"4","last_reported":1700550415,"current_range_meters":26000,"station_id":"ce4bgkp2rcd13ifvqbmg","pricing_plan_id":"free"},{"bike_id":"f7dc3012-d7a8-48b1-ac01-33baf2b3b27c","system_id":"levelo_inurba_marseille","lat":43.3011,"lon":5.38745,"is_reserved":false,"is_disabled":false,"rental_uris":{"android":"levelo://app?vid=f7dc3012-d7a8-48b1-ac01-33baf2b3b27c","ios":"levelo://app?vid=f7dc3012-d7a8-48b1-ac01-33baf2b3b27c"},"vehicle_type_id":"4","last_reported":1700550415,"current_range_meters":25600,"station_id":"","pricing_plan_id":"free"},{"bike_id":"f7473beb-2755-4f62-bee2-6a314881a62f","system_id":"levelo_inurba_marseille","lat":43.29924,"lon":5.38521,"is_reserved":false,"is_disabled":false,"rental_uris":{"android":"levelo://app?vid=f7473beb-2755-4f62-bee2-6a314881a62f","ios":"levelo://app?vid=f7473beb-2755-4f62-bee2-6a314881a62f"},"vehicle_type_id":"4","last_reported":1700550415,"current_range_meters":26000,"station_id":"","pricing_plan_id":"free"},{"bike_id":"006816cd-4abd-4301-ba3a-bb2d3a1b0cb2","system_id":"levelo_inurba_marseille","lat":43.29562,"lon":5.37819,"is_reserved":false,"is_disabled":false,"rental_uris":{"android":"levelo://app?vid=006816cd-4abd-4301-ba3a-bb2d3a1b0cb2","ios":"levelo://app?vid=006816cd-4abd-4301-ba3a-bb2d3a1b0cb2"},"vehicle_type_id":"4","last_reported":1700550415,"current_range_meters":26000,"station_id":"","pricing_plan_id":"free"},{"bike_id":"7c149c1f-4cf8-4e68-8e07-b14b8b987a27","system_id":"levelo_inurba_marseille","lat":43.29924,"lon":5.385296,"is_reserved":false,"is_disabled":false,"rental_uris":{"android":"levelo://app?vid=7c149c1f-4cf8-4e68-8e07-b14b8b987a27","ios":"levelo://app?vid=7c149c1f-4cf8-4e68-8e07-b14b8b987a27"},"vehicle_type_id":"4","last_reported":1700550415,"current_range_meters":30400,"station_id":"","pricing_plan_id":"free"},{"bike_id":"6b621983-5e9e-42f7-990d-ad5a093820d2","system_id":"levelo_inurba_marseille","lat":43.293801,"lon":5.363066,"is_reserved":false,"is_disabled":false,"rental_uris":{"android":"levelo://app?vid=6b621983-5e9e-42f7-990d-ad5a093820d2","ios":"levelo://app?vid=6b621983-5e9e-42f7-990d-ad5a093820d2"},"vehicle_type_id":"4","last_reported":1700550415,"current_range_meters":16800,"station_id":"","pricing_plan_id":"free"},{"bike_id":"fdfb8b07-8ea0-4cac-bac4-6c729dd47468","system_id":"levelo_inurba_marseille","lat":43.29602,"lon":5.381084,"is_reserved":false,"is_disabled":false,"rental_uris":{"android":"levelo://app?vid=fdfb8b07-8ea0-4cac-bac4-6c729dd47468","ios":"levelo://app?vid=fdfb8b07-8ea0-4cac-bac4-6c729dd47468"},"vehicle_type_id":"4","last_reported":1700550415,"current_range_meters":24800,"station_id":"ce4bgl12rcd13ifvqbo0","pricing_plan_id":"free"},{"bike_id":"826f9a05-f586-460f-be02-5e2468c61844","system_id":"levelo_inurba_marseille","lat":43.29601,"lon":5.381084,"is_reserved":false,"is_disabled":false,"rental_uris":{"android":"levelo://app?vid=826f9a05-f586-460f-be02-5e2468c61844","ios":"levelo://app?vid=826f9a05-f586-460f-be02-5e2468c61844"},"vehicle_type_id":"4","last_reported":1700550415,"current_range_meters":18800,"station_id":"ce4bgl12rcd13ifvqbo0","pricing_plan_id":"free"},{"bike_id":"f28cba93-4a35-4b10-92ae-c74d014153ab","system_id":"levelo_inurba_marseille","lat":43.29601,"lon":5.381084,"is_reserved":false,"is_disabled":false,"rental_uris":{"android":"levelo://app?vid=f28cba93-4a35-4b10-92ae-c74d014153ab","ios":"levelo://app?vid=f28cba93-4a35-4b10-92ae-c74d014153ab"},"vehicle_type_id":"4","last_reported":1700550415,"current_range_meters":22800,"station_id":"ce4bgl12rcd13ifvqbo0","pricing_plan_id":"free"},{"bike_id":"d08f04bf-d1cb-49fb-9aa7-04e7f7676b3c","system_id":"levelo_inurba_marseille","lat":43.32341,"lon":5.38962,"is_reserved":false,"is_disabled":false,"rental_uris":{"android":"levelo://app?vid=d08f04bf-d1cb-49fb-9aa7-04e7f7676b3c","ios":"levelo://app?vid=d08f04bf-d1cb-49fb-9aa7-04e7f7676b3c"},"vehicle_type_id":"4","last_reported":1700550415,"current_range_meters":0,"station_id":"","pricing_plan_id":"free"},{"bike_id":"ec3fa15a-f1d1-4551-a46f-d7a9cf0b7248","system_id":"levelo_inurba_marseille","lat":43.29602,"lon":5.381084,"is_reserved":false,"is_disabled":false,"rental_uris":{"android":"levelo://app?vid=ec3fa15a-f1d1-4551-a46f-d7a9cf0b7248","ios":"levelo://app?vid=ec3fa15a-f1d1-4551-a46f-d7a9cf0b7248"},"vehicle_type_id":"4","last_reported":1700550415,"current_range_meters":18400,"station_id":"ce4bgl12rcd13ifvqbo0","pricing_plan_id":"free"},{"bike_id":"70494927-dfdb-4987-8827-8ba7c0b5c7e2","system_id":"levelo_inurba_marseille","lat":43.30229,"lon":5.39029,"is_reserved":false,"is_disabled":false,"rental_uris":{"android":"levelo://app?vid=70494927-dfdb-4987-8827-8ba7c0b5c7e2","ios":"levelo://app?vid=70494927-dfdb-4987-8827-8ba7c0b5c7e2"},"vehicle_type_id":"4","last_reported":1700550415,"current_range_meters":13200,"station_id":"","pricing_plan_id":"free"},{"bike_id":"8d24d69b-152b-4ad3-83b5-d13486aadbc2","system_id":"levelo_inurba_marseille","lat":43.292763,"lon":5.36851,"is_reserved":false,"is_disabled":false,"rental_uris":{"android":"levelo://app?vid=8d24d69b-152b-4ad3-83b5-d13486aadbc2","ios":"levelo://app?vid=8d24d69b-152b-4ad3-83b5-d13486aadbc2"},"vehicle_type_id":"4","last_reported":1700550415,"current_range_meters":30000,"station_id":"ce4bhbp2rcd13ifvqesg","pricing_plan_id":"free"},{"bike_id":"d1944042-8eb8-4604-8499-9077c58717ca","system_id":"levelo_inurba_marseille","lat":43.305994,"lon":5.393687,"is_reserved":false,"is_disabled":false,"rental_uris":{"android":"levelo://app?vid=d1944042-8eb8-4604-8499-9077c58717ca","ios":"levelo://app?vid=d1944042-8eb8-4604-8499-9077c58717ca"},"vehicle_type_id":"4","last_reported":1700550415,"current_range_meters":16800,"station_id":"ce4bh0p2rcd13ifvqd80","pricing_plan_id":"free"},{"bike_id":"2ce486e1-7235-4c54-8b6c-3d28bf53adb6","system_id":"levelo_inurba_marseille","lat":43.305994,"lon":5.393687,"is_reserved":false,"is_disabled":false,"rental_uris":{"android":"levelo://app?vid=2ce486e1-7235-4c54-8b6c-3d28bf53adb6","ios":"levelo://app?vid=2ce486e1-7235-4c54-8b6c-3d28bf53adb6"},"vehicle_type_id":"4","last_reported":1700550415,"current_range_meters":29200,"station_id":"ce4bh0p2rcd13ifvqd80","pricing_plan_id":"free"},{"bike_id":"a5e876de-96de-4aca-8cd7-554ecd2247f5","system_id":"levelo_inurba_marseille","lat":43.293009,"lon":5.374584,"is_reserved":false,"is_disabled":false,"rental_uris":{"android":"levelo://app?vid=a5e876de-96de-4aca-8cd7-554ecd2247f5","ios":"levelo://app?vid=a5e876de-96de-4aca-8cd7-554ecd2247f5"},"vehicle_type_id":"4","last_reported":1700550415,"current_range_meters":22800,"station_id":"ce4bgi12rcd13ifvqb70","pricing_plan_id":"free"},{"bike_id":"679d6013-5f69-4199-b7a0-04df5acc415a","system_id":"levelo_inurba_marseille","lat":43.29286,"lon":5.37494,"is_reserved":false,"is_disabled":false,"rental_uris":{"android":"levelo://app?vid=679d6013-5f69-4199-b7a0-04df5acc415a","ios":"levelo://app?vid=679d6013-5f69-4199-b7a0-04df5acc415a"},"vehicle_type_id":"4","last_reported":1700550415,"current_range_meters":30000,"station_id":"ce4bgi12rcd13ifvqb70","pricing_plan_id":"free"},{"bike_id":"ef31c92e-5634-4363-a29d-e64deef07230","system_id":"levelo_inurba_marseille","lat":43.29232,"lon":5.36104,"is_reserved":false,"is_disabled":false,"rental_uris":{"android":"levelo://app?vid=ef31c92e-5634-4363-a29d-e64deef07230","ios":"levelo://app?vid=ef31c92e-5634-4363-a29d-e64deef07230"},"vehicle_type_id":"4","last_reported":1700550415,"current_range_meters":17600,"station_id":"ce4bh4p2rcd13ifvqe0g","pricing_plan_id":"free"},{"bike_id":"6c83c5fe-0ee9-46c8-9d4a-1f96c2e175a9","system_id":"levelo_inurba_marseille","lat":43.29232,"lon":5.36051,"is_reserved":false,"is_disabled":false,"rental_uris":{"android":"levelo://app?vid=6c83c5fe-0ee9-46c8-9d4a-1f96c2e175a9","ios":"levelo://app?vid=6c83c5fe-0ee9-46c8-9d4a-1f96c2e175a9"},"vehicle_type_id":"4","last_reported":1700550415,"current_range_meters":10800,"station_id":"ce4bhbh2rcd13ifvqeqg","pricing_plan_id":"free"},{"bike_id":"41f3993e-8569-48be-8a98-095b4cf4f6bb","system_id":"levelo_inurba_marseille","lat":43.29226,"lon":5.36069,"is_reserved":false,"is_disabled":false,"rental_uris":{"android":"levelo://app?vid=41f3993e-8569-48be-8a98-095b4cf4f6bb","ios":"levelo://app?vid=41f3993e-8569-48be-8a98-095b4cf4f6bb"},"vehicle_type_id":"4","last_reported":1700550415,"current_range_meters":30000,"station_id":"ce4bhbh2rcd13ifvqeqg","pricing_plan_id":"free"},{"bike_id":"66e531c1-fdf7-4c6e-b2a6-376323d85e86","system_id":"levelo_inurba_marseille","lat":43.30085,"lon":5.390856,"is_reserved":false,"is_disabled":false,"rental_uris":{"android":"levelo://app?vid=66e531c1-fdf7-4c6e-b2a6-376323d85e86","ios":"levelo://app?vid=66e531c1-fdf7-4c6e-b2a6-376323d85e86"},"vehicle_type_id":"4","last_reported":1700550415,"current_range_meters":23200,"station_id":"ce4bh192rcd13ifvqdb0","pricing_plan_id":"free"},{"bike_id":"8b998e52-ca52-44e1-a3ff-bd8c6e1f1a1f","system_id":"levelo_inurba_marseille","lat":43.2925,"lon":5.37511,"is_reserved":false,"is_disabled":false,"rental_uris":{"android":"levelo://app?vid=8b998e52-ca52-44e1-a3ff-bd8c6e1f1a1f","ios":"levelo://app?vid=8b998e52-ca52-44e1-a3ff-bd8c6e1f1a1f"},"vehicle_type_id":"4","last_reported":1700550415,"current_range_meters":4800,"station_id":"","pricing_plan_id":"free"},{"bike_id":"13d90a96-4fd2-4874-a595-daa8a45e23c4","system_id":"levelo_inurba_marseille","lat":43.292636,"lon":5.376214,"is_reserved":false,"is_disabled":false,"rental_uris":{"android":"levelo://app?vid=13d90a96-4fd2-4874-a595-daa8a45e23c4","ios":"levelo://app?vid=13d90a96-4fd2-4874-a595-daa8a45e23c4"},"vehicle_type_id":"4","last_reported":1700550415,"current_range_meters":31600,"station_id":"ce4bgi12rcd13ifvqb80","pricing_plan_id":"free"},{"bike_id":"7fa75bf1-41dc-4a7e-9c71-41f64a3adbc9","system_id":"levelo_inurba_marseille","lat":43.313625,"lon":5.39617,"is_reserved":false,"is_disabled":false,"rental_uris":{"android":"levelo://app?vid=7fa75bf1-41dc-4a7e-9c71-41f64a3adbc9","ios":"levelo://app?vid=7fa75bf1-41dc-4a7e-9c71-41f64a3adbc9"},"vehicle_type_id":"4","last_reported":1700550415,"current_range_meters":0,"station_id":"","pricing_plan_id":"free"},{"bike_id":"28e1bf39-b00b-47d9-91bd-8aa3810cc46e","system_id":"levelo_inurba_marseille","lat":43.291675,"lon":5.371583,"is_reserved":false,"is_disabled":false,"rental_uris":{"android":"levelo://app?vid=28e1bf39-b00b-47d9-91bd-8aa3810cc46e","ios":"levelo://app?vid=28e1bf39-b00b-47d9-91bd-8aa3810cc46e"},"vehicle_type_id":"4","last_reported":1700550415,"current_range_meters":28400,"station_id":"ce4bha92rcd13ifvqeh0","pricing_plan_id":"free"},{"bike_id":"d796fded-9ed4-496b-a759-8b8768c52e1a","system_id":"levelo_inurba_marseille","lat":43.304606,"lon":5.379026,"is_reserved":false,"is_disabled":false,"rental_uris":{"android":"levelo://app?vid=d796fded-9ed4-496b-a759-8b8768c52e1a","ios":"levelo://app?vid=d796fded-9ed4-496b-a759-8b8768c52e1a"},"vehicle_type_id":"4","last_reported":1700550415,"current_range_meters":23200,"station_id":"ce4bgup2rcd13ifvqcn0","pricing_plan_id":"free"},{"bike_id":"aa93b62b-7406-445a-a526-aab52ace8027","system_id":"levelo_inurba_marseille","lat":43.308883,"lon":5.396463,"is_reserved":false,"is_disabled":false,"rental_uris":{"android":"levelo://app?vid=aa93b62b-7406-445a-a526-aab52ace8027","ios":"levelo://app?vid=aa93b62b-7406-445a-a526-aab52ace8027"},"vehicle_type_id":"4","last_reported":1700550415,"current_range_meters":30000,"station_id":"ce4bh012rcd13ifvqcv0","pricing_plan_id":"free"},{"bike_id":"8c4dac24-9a95-4dd3-9ff9-955c56c5122c","system_id":"levelo_inurba_marseille","lat":43.3133,"lon":5.39697,"is_reserved":false,"is_disabled":false,"rental_uris":{"android":"levelo://app?vid=8c4dac24-9a95-4dd3-9ff9-955c56c5122c","ios":"levelo://app?vid=8c4dac24-9a95-4dd3-9ff9-955c56c5122c"},"vehicle_type_id":"4","last_reported":1700550415,"current_range_meters":23200,"station_id":"ce4bgvp2rcd13ifvqcu0","pricing_plan_id":"free"},{"bike_id":"20cd93af-e711-4f15-84d2-12e7db39aa07","system_id":"levelo_inurba_marseille","lat":43.290779,"lon":5.371482,"is_reserved":false,"is_disabled":false,"rental_uris":{"android":"levelo://app?vid=20cd93af-e711-4f15-84d2-12e7db39aa07","ios":"levelo://app?vid=20cd93af-e711-4f15-84d2-12e7db39aa07"},"vehicle_type_id":"4","last_reported":1700550415,"current_range_meters":30000,"station_id":"ce4bh5p2rcd13ifvqe4g","pricing_plan_id":"free"},{"bike_id":"0676f304-34bb-477c-a800-47bb03e1e193","system_id":"levelo_inurba_marseille","lat":43.29039,"lon":5.36989,"is_reserved":false,"is_disabled":false,"rental_uris":{"android":"levelo://app?vid=0676f304-34bb-477c-a800-47bb03e1e193","ios":"levelo://app?vid=0676f304-34bb-477c-a800-47bb03e1e193"},"vehicle_type_id":"4","last_reported":1700550415,"current_range_meters":22400,"station_id":"","pricing_plan_id":"free"},{"bike_id":"c091fdb4-f197-4b1c-8b74-8340b251d782","system_id":"levelo_inurba_marseille","lat":43.302008,"lon":5.394694,"is_reserved":false,"is_disabled":false,"rental_uris":{"android":"levelo://app?vid=c091fdb4-f197-4b1c-8b74-8340b251d782","ios":"levelo://app?vid=c091fdb4-f197-4b1c-8b74-8340b251d782"},"vehicle_type_id":"4","last_reported":1700550415,"current_range_meters":5200,"station_id":"ce4bh0p2rcd13ifvqd70","pricing_plan_id":"free"},{"bike_id":"13e30bb3-a339-4114-9872-fbe0a8d445b7","system_id":"levelo_inurba_marseille","lat":43.302008,"lon":5.394694,"is_reserved":false,"is_disabled":false,"rental_uris":{"android":"levelo://app?vid=13e30bb3-a339-4114-9872-fbe0a8d445b7","ios":"levelo://app?vid=13e30bb3-a339-4114-9872-fbe0a8d445b7"},"vehicle_type_id":"4","last_reported":1700550415,"current_range_meters":26000,"station_id":"ce4bh0p2rcd13ifvqd70","pricing_plan_id":"free"},{"bike_id":"a8e867e6-b7e1-48ab-a8a2-cc73a570da86","system_id":"levelo_inurba_marseille","lat":43.30209,"lon":5.39462,"is_reserved":false,"is_disabled":false,"rental_uris":{"android":"levelo://app?vid=a8e867e6-b7e1-48ab-a8a2-cc73a570da86","ios":"levelo://app?vid=a8e867e6-b7e1-48ab-a8a2-cc73a570da86"},"vehicle_type_id":"4","last_reported":1700550415,"current_range_meters":6400,"station_id":"ce4bh0p2rcd13ifvqd70","pricing_plan_id":"free"},{"bike_id":"7156c943-fcbb-4d60-b6ff-9536f882b553","system_id":"levelo_inurba_marseille","lat":43.30209,"lon":5.39465,"is_reserved":false,"is_disabled":false,"rental_uris":{"android":"levelo://app?vid=7156c943-fcbb-4d60-b6ff-9536f882b553","ios":"levelo://app?vid=7156c943-fcbb-4d60-b6ff-9536f882b553"},"vehicle_type_id":"4","last_reported":1700550415,"current_range_meters":24000,"station_id":"ce4bh0p2rcd13ifvqd70","pricing_plan_id":"free"},{"bike_id":"45de9f09-b722-484f-be4e-fe74c873453d","system_id":"levelo_inurba_marseille","lat":43.302008,"lon":5.394694,"is_reserved":false,"is_disabled":false,"rental_uris":{"android":"levelo://app?vid=45de9f09-b722-484f-be4e-fe74c873453d","ios":"levelo://app?vid=45de9f09-b722-484f-be4e-fe74c873453d"},"vehicle_type_id":"4","last_reported":1700550415,"current_range_meters":7200,"station_id":"ce4bh0p2rcd13ifvqd70","pricing_plan_id":"free"},{"bike_id":"bcd03e00-f98a-436d-952b-5fd7e8aa2f43","system_id":"levelo_inurba_marseille","lat":43.30204,"lon":5.39472,"is_reserved":false,"is_disabled":false,"rental_uris":{"android":"levelo://app?vid=bcd03e00-f98a-436d-952b-5fd7e8aa2f43","ios":"levelo://app?vid=bcd03e00-f98a-436d-952b-5fd7e8aa2f43"},"vehicle_type_id":"4","last_reported":1700550415,"current_range_meters":28000,"station_id":"ce4bh0p2rcd13ifvqd70","pricing_plan_id":"free"},{"bike_id":"c7389fee-9c70-4c11-a34f-9827b4881e1a","system_id":"levelo_inurba_marseille","lat":43.289184,"lon":5.366408,"is_reserved":false,"is_disabled":false,"rental_uris":{"android":"levelo://app?vid=c7389fee-9c70-4c11-a34f-9827b4881e1a","ios":"levelo://app?vid=c7389fee-9c70-4c11-a34f-9827b4881e1a"},"vehicle_type_id":"4","last_reported":1700550415,"current_range_meters":20400,"station_id":"ce4bhap2rcd13ifvqek0","pricing_plan_id":"free"},{"bike_id":"d947ddda-c3f3-4ae9-974f-908907743fa5","system_id":"levelo_inurba_marseille","lat":43.28941,"lon":5.36633,"is_reserved":false,"is_disabled":false,"rental_uris":{"android":"levelo://app?vid=d947ddda-c3f3-4ae9-974f-908907743fa5","ios":"levelo://app?vid=d947ddda-c3f3-4ae9-974f-908907743fa5"},"vehicle_type_id":"4","last_reported":1700550415,"current_range_meters":22800,"station_id":"ce4bhap2rcd13ifvqek0","pricing_plan_id":"free"},{"bike_id":"f4372d8f-7c31-4d54-84d5-8aeb91670719","system_id":"levelo_inurba_marseille","lat":43.289184,"lon":5.366408,"is_reserved":false,"is_disabled":false,"rental_uris":{"android":"levelo://app?vid=f4372d8f-7c31-4d54-84d5-8aeb91670719","ios":"levelo://app?vid=f4372d8f-7c31-4d54-84d5-8aeb91670719"},"vehicle_type_id":"4","last_reported":1700550415,"current_range_meters":24000,"station_id":"ce4bhap2rcd13ifvqek0","pricing_plan_id":"free"},{"bike_id":"8213c944-b406-4b40-bba9-2dd6c8b6cb9f","system_id":"levelo_inurba_marseille","lat":43.28937,"lon":5.36642,"is_reserved":false,"is_disabled":false,"rental_uris":{"android":"levelo://app?vid=8213c944-b406-4b40-bba9-2dd6c8b6cb9f","ios":"levelo://app?vid=8213c944-b406-4b40-bba9-2dd6c8b6cb9f"},"vehicle_type_id":"4","last_reported":1700550415,"current_range_meters":28800,"station_id":"ce4bhap2rcd13ifvqek0","pricing_plan_id":"free"},{"bike_id":"e771ffe5-3937-49bb-901b-6e1b1c10bf96","system_id":"levelo_inurba_marseille","lat":43.28932,"lon":5.36641,"is_reserved":false,"is_disabled":false,"rental_uris":{"android":"levelo://app?vid=e771ffe5-3937-49bb-901b-6e1b1c10bf96","ios":"levelo://app?vid=e771ffe5-3937-49bb-901b-6e1b1c10bf96"},"vehicle_type_id":"4","last_reported":1700550415,"current_range_meters":27200,"station_id":"","pricing_plan_id":"free"},{"bike_id":"5a28ff08-7122-44da-b0d6-87acc34b0b59","system_id":"levelo_inurba_marseille","lat":43.28942,"lon":5.36391,"is_reserved":false,"is_disabled":false,"rental_uris":{"android":"levelo://app?vid=5a28ff08-7122-44da-b0d6-87acc34b0b59","ios":"levelo://app?vid=5a28ff08-7122-44da-b0d6-87acc34b0b59"},"vehicle_type_id":"4","last_reported":1700550415,"current_range_meters":26800,"station_id":"ce4bhc92rcd13ifvqetg","pricing_plan_id":"free"},{"bike_id":"469299f0-89cb-448e-91b6-296f9762faa1","system_id":"levelo_inurba_marseille","lat":43.28941,"lon":5.36397,"is_reserved":false,"is_disabled":false,"rental_uris":{"android":"levelo://app?vid=469299f0-89cb-448e-91b6-296f9762faa1","ios":"levelo://app?vid=469299f0-89cb-448e-91b6-296f9762faa1"},"vehicle_type_id":"4","last_reported":1700550415,"current_range_meters":27600,"station_id":"","pricing_plan_id":"free"},{"bike_id":"9e36e476-6a38-4031-9388-ee9539d497ee","system_id":"levelo_inurba_marseille","lat":43.28931,"lon":5.36641,"is_reserved":false,"is_disabled":false,"rental_uris":{"android":"levelo://app?vid=9e36e476-6a38-4031-9388-ee9539d497ee","ios":"levelo://app?vid=9e36e476-6a38-4031-9388-ee9539d497ee"},"vehicle_type_id":"4","last_reported":1700550415,"current_range_meters":24800,"station_id":"","pricing_plan_id":"free"},{"bike_id":"4da8b7d1-5ea9-4278-98e0-fc75da08753d","system_id":"levelo_inurba_marseille","lat":43.28925,"lon":5.363913,"is_reserved":false,"is_disabled":false,"rental_uris":{"android":"levelo://app?vid=4da8b7d1-5ea9-4278-98e0-fc75da08753d","ios":"levelo://app?vid=4da8b7d1-5ea9-4278-98e0-fc75da08753d"},"vehicle_type_id":"4","last_reported":1700550415,"current_range_meters":30800,"station_id":"ce4bhc92rcd13ifvqetg","pricing_plan_id":"free"},{"bike_id":"d7935010-6212-47d7-a192-995dd828d713","system_id":"levelo_inurba_marseille","lat":43.304274,"lon":5.397513,"is_reserved":false,"is_disabled":false,"rental_uris":{"android":"levelo://app?vid=d7935010-6212-47d7-a192-995dd828d713","ios":"levelo://app?vid=d7935010-6212-47d7-a192-995dd828d713"},"vehicle_type_id":"4","last_reported":1700550415,"current_range_meters":31600,"station_id":"ce4bh092rcd13ifvqd20","pricing_plan_id":"free"},{"bike_id":"650827d2-a7ba-41f6-a048-b941a6d3dde5","system_id":"levelo_inurba_marseille","lat":43.304274,"lon":5.397513,"is_reserved":false,"is_disabled":false,"rental_uris":{"android":"levelo://app?vid=650827d2-a7ba-41f6-a048-b941a6d3dde5","ios":"levelo://app?vid=650827d2-a7ba-41f6-a048-b941a6d3dde5"},"vehicle_type_id":"4","last_reported":1700550415,"current_range_meters":15600,"station_id":"ce4bh092rcd13ifvqd20","pricing_plan_id":"free"},{"bike_id":"d4a6c9b3-fcc4-4343-94c9-b88e0152625f","system_id":"levelo_inurba_marseille","lat":43.304296,"lon":5.397513,"is_reserved":false,"is_disabled":false,"rental_uris":{"android":"levelo://app?vid=d4a6c9b3-fcc4-4343-94c9-b88e0152625f","ios":"levelo://app?vid=d4a6c9b3-fcc4-4343-94c9-b88e0152625f"},"vehicle_type_id":"4","last_reported":1700550415,"current_range_meters":29200,"station_id":"ce4bh092rcd13ifvqd20","pricing_plan_id":"free"},{"bike_id":"2dc26ece-05b6-4166-87b7-c7525e3587d5","system_id":"levelo_inurba_marseille","lat":43.292642,"lon":5.384254,"is_reserved":false,"is_disabled":false,"rental_uris":{"android":"levelo://app?vid=2dc26ece-05b6-4166-87b7-c7525e3587d5","ios":"levelo://app?vid=2dc26ece-05b6-4166-87b7-c7525e3587d5"},"vehicle_type_id":"4","last_reported":1700550415,"current_range_meters":25200,"station_id":"ce4bh692rcd13ifvqea0","pricing_plan_id":"free"},{"bike_id":"7f848e69-d96e-4226-ac34-855daf048e67","system_id":"levelo_inurba_marseille","lat":43.304274,"lon":5.397513,"is_reserved":false,"is_disabled":false,"rental_uris":{"android":"levelo://app?vid=7f848e69-d96e-4226-ac34-855daf048e67","ios":"levelo://app?vid=7f848e69-d96e-4226-ac34-855daf048e67"},"vehicle_type_id":"4","last_reported":1700550415,"current_range_meters":31600,"station_id":"ce4bh092rcd13ifvqd20","pricing_plan_id":"free"},{"bike_id":"07355f3d-e598-4968-b7ff-d4e3f69a6b4d","system_id":"levelo_inurba_marseille","lat":43.304296,"lon":5.397513,"is_reserved":false,"is_disabled":false,"rental_uris":{"android":"levelo://app?vid=07355f3d-e598-4968-b7ff-d4e3f69a6b4d","ios":"levelo://app?vid=07355f3d-e598-4968-b7ff-d4e3f69a6b4d"},"vehicle_type_id":"4","last_reported":1700550415,"current_range_meters":31200,"station_id":"ce4bh092rcd13ifvqd20","pricing_plan_id":"free"},{"bike_id":"d7a073d8-7731-4bea-9f15-1520a908bdf4","system_id":"levelo_inurba_marseille","lat":43.33043,"lon":5.38921,"is_reserved":false,"is_disabled":false,"rental_uris":{"android":"levelo://app?vid=d7a073d8-7731-4bea-9f15-1520a908bdf4","ios":"levelo://app?vid=d7a073d8-7731-4bea-9f15-1520a908bdf4"},"vehicle_type_id":"4","last_reported":1700550415,"current_range_meters":25600,"station_id":"ce4bhr92rcd13ifvqhrg","pricing_plan_id":"free"},{"bike_id":"c261b896-f2c9-4de7-b351-6980c79cd513","system_id":"levelo_inurba_marseille","lat":43.290104,"lon":5.356111,"is_reserved":false,"is_disabled":false,"rental_uris":{"android":"levelo://app?vid=c261b896-f2c9-4de7-b351-6980c79cd513","ios":"levelo://app?vid=c261b896-f2c9-4de7-b351-6980c79cd513"},"vehicle_type_id":"4","last_reported":1700550415,"current_range_meters":12000,"station_id":"ce4bhb92rcd13ifvqen0","pricing_plan_id":"free"},{"bike_id":"e96969f2-30ff-4c2f-94d6-b7638aebaeb2","system_id":"levelo_inurba_marseille","lat":43.28991,"lon":5.35618,"is_reserved":false,"is_disabled":false,"rental_uris":{"android":"levelo://app?vid=e96969f2-30ff-4c2f-94d6-b7638aebaeb2","ios":"levelo://app?vid=e96969f2-30ff-4c2f-94d6-b7638aebaeb2"},"vehicle_type_id":"4","last_reported":1700550415,"current_range_meters":0,"station_id":"ce4bhb92rcd13ifvqen0","pricing_plan_id":"free"},{"bike_id":"4059aca0-def9-4a8e-85d8-a22e557a6e07","system_id":"levelo_inurba_marseille","lat":43.290995,"lon":5.381361,"is_reserved":false,"is_disabled":false,"rental_uris":{"android":"levelo://app?vid=4059aca0-def9-4a8e-85d8-a22e557a6e07","ios":"levelo://app?vid=4059aca0-def9-4a8e-85d8-a22e557a6e07"},"vehicle_type_id":"4","last_reported":1700550415,"current_range_meters":10800,"station_id":"ce4bh512rcd13ifvqe2g","pricing_plan_id":"free"},{"bike_id":"5defdcbf-5dff-4963-9cf9-883b30c61033","system_id":"levelo_inurba_marseille","lat":43.299717,"lon":5.384845,"is_reserved":false,"is_disabled":false,"rental_uris":{"android":"levelo://app?vid=5defdcbf-5dff-4963-9cf9-883b30c61033","ios":"levelo://app?vid=5defdcbf-5dff-4963-9cf9-883b30c61033"},"vehicle_type_id":"4","last_reported":1700550415,"current_range_meters":21200,"station_id":"ce4bgj92rcd13ifvqbd0","pricing_plan_id":"free"},{"bike_id":"aad9a792-6976-4183-919a-aef819ff2e25","system_id":"levelo_inurba_marseille","lat":43.31251,"lon":5.40162,"is_reserved":false,"is_disabled":false,"rental_uris":{"android":"levelo://app?vid=aad9a792-6976-4183-919a-aef819ff2e25","ios":"levelo://app?vid=aad9a792-6976-4183-919a-aef819ff2e25"},"vehicle_type_id":"4","last_reported":1700550415,"current_range_meters":4400,"station_id":"","pricing_plan_id":"free"},{"bike_id":"89638828-1fdc-423c-9e5a-b0233882246f","system_id":"levelo_inurba_marseille","lat":43.28727,"lon":5.36091,"is_reserved":false,"is_disabled":false,"rental_uris":{"android":"levelo://app?vid=89638828-1fdc-423c-9e5a-b0233882246f","ios":"levelo://app?vid=89638828-1fdc-423c-9e5a-b0233882246f"},"vehicle_type_id":"4","last_reported":1700550415,"current_range_meters":29200,"station_id":"cki0cbj6b192h4jlfktg","pricing_plan_id":"free"},{"bike_id":"d12711c0-c530-48e4-a5af-ccc913f1d1d0","system_id":"levelo_inurba_marseille","lat":43.28727,"lon":5.36078,"is_reserved":false,"is_disabled":false,"rental_uris":{"android":"levelo://app?vid=d12711c0-c530-48e4-a5af-ccc913f1d1d0","ios":"levelo://app?vid=d12711c0-c530-48e4-a5af-ccc913f1d1d0"},"vehicle_type_id":"4","last_reported":1700550415,"current_range_meters":0,"station_id":"cki0cbj6b192h4jlfktg","pricing_plan_id":"free"},{"bike_id":"e0733593-5714-40a5-abd7-1e33de8bfb35","system_id":"levelo_inurba_marseille","lat":43.287153,"lon":5.360947,"is_reserved":false,"is_disabled":false,"rental_uris":{"android":"levelo://app?vid=e0733593-5714-40a5-abd7-1e33de8bfb35","ios":"levelo://app?vid=e0733593-5714-40a5-abd7-1e33de8bfb35"},"vehicle_type_id":"4","last_reported":1700550415,"current_range_meters":800,"station_id":"cki0cbj6b192h4jlfktg","pricing_plan_id":"free"},{"bike_id":"51ccf0a0-b27c-4d02-8b93-f54f4b8aacb9","system_id":"levelo_inurba_marseille","lat":43.28668,"lon":5.36346,"is_reserved":false,"is_disabled":false,"rental_uris":{"android":"levelo://app?vid=51ccf0a0-b27c-4d02-8b93-f54f4b8aacb9","ios":"levelo://app?vid=51ccf0a0-b27c-4d02-8b93-f54f4b8aacb9"},"vehicle_type_id":"4","last_reported":1700550415,"current_range_meters":31200,"station_id":"ce4bhah2rcd13ifvqej0","pricing_plan_id":"free"},{"bike_id":"40055d55-0106-4631-adbd-ee68c1ac0747","system_id":"levelo_inurba_marseille","lat":43.286641,"lon":5.363537,"is_reserved":false,"is_disabled":false,"rental_uris":{"android":"levelo://app?vid=40055d55-0106-4631-adbd-ee68c1ac0747","ios":"levelo://app?vid=40055d55-0106-4631-adbd-ee68c1ac0747"},"vehicle_type_id":"4","last_reported":1700550415,"current_range_meters":31200,"station_id":"","pricing_plan_id":"free"},{"bike_id":"6b7daa50-5eca-48da-8b5b-282816e82301","system_id":"levelo_inurba_marseille","lat":43.295196,"lon":5.39397,"is_reserved":false,"is_disabled":false,"rental_uris":{"android":"levelo://app?vid=6b7daa50-5eca-48da-8b5b-282816e82301","ios":"levelo://app?vid=6b7daa50-5eca-48da-8b5b-282816e82301"},"vehicle_type_id":"4","last_reported":1700550415,"current_range_meters":26400,"station_id":"ce4bh292rcd13ifvqdf0","pricing_plan_id":"free"},{"bike_id":"80660ebb-0728-4afa-bfed-b5d93a8eb350","system_id":"levelo_inurba_marseille","lat":43.28614,"lon":5.37063,"is_reserved":false,"is_disabled":false,"rental_uris":{"android":"levelo://app?vid=80660ebb-0728-4afa-bfed-b5d93a8eb350","ios":"levelo://app?vid=80660ebb-0728-4afa-bfed-b5d93a8eb350"},"vehicle_type_id":"4","last_reported":1700550415,"current_range_meters":26400,"station_id":"ce4bht12rcd13ifvqi60","pricing_plan_id":"free"},{"bike_id":"1ab4356b-5cd2-458a-9b07-0c8dbc8bac0a","system_id":"levelo_inurba_marseille","lat":43.286039,"lon":5.370681,"is_reserved":false,"is_disabled":false,"rental_uris":{"android":"levelo://app?vid=1ab4356b-5cd2-458a-9b07-0c8dbc8bac0a","ios":"levelo://app?vid=1ab4356b-5cd2-458a-9b07-0c8dbc8bac0a"},"vehicle_type_id":"4","last_reported":1700550415,"current_range_meters":23200,"station_id":"ce4bht12rcd13ifvqi60","pricing_plan_id":"free"},{"bike_id":"f0603bd5-4860-4e70-bed7-9c2343ef457b","system_id":"levelo_inurba_marseille","lat":43.28718,"lon":5.37926,"is_reserved":false,"is_disabled":false,"rental_uris":{"android":"levelo://app?vid=f0603bd5-4860-4e70-bed7-9c2343ef457b","ios":"levelo://app?vid=f0603bd5-4860-4e70-bed7-9c2343ef457b"},"vehicle_type_id":"4","last_reported":1700550415,"current_range_meters":13200,"station_id":"ce4bh9p2rcd13ifvqec0","pricing_plan_id":"free"},{"bike_id":"4f684b75-d39c-441b-be20-1e7e76ea9f5e","system_id":"levelo_inurba_marseille","lat":43.287185,"lon":5.379373,"is_reserved":false,"is_disabled":false,"rental_uris":{"android":"levelo://app?vid=4f684b75-d39c-441b-be20-1e7e76ea9f5e","ios":"levelo://app?vid=4f684b75-d39c-441b-be20-1e7e76ea9f5e"},"vehicle_type_id":"4","last_reported":1700550415,"current_range_meters":31200,"station_id":"ce4bh9p2rcd13ifvqec0","pricing_plan_id":"free"},{"bike_id":"c28670ab-8477-4d81-b81d-ac45b8596dfe","system_id":"levelo_inurba_marseille","lat":43.28927,"lon":5.38761,"is_reserved":false,"is_disabled":false,"rental_uris":{"android":"levelo://app?vid=c28670ab-8477-4d81-b81d-ac45b8596dfe","ios":"levelo://app?vid=c28670ab-8477-4d81-b81d-ac45b8596dfe"},"vehicle_type_id":"4","last_reported":1700550415,"current_range_meters":28400,"station_id":"","pricing_plan_id":"free"},{"bike_id":"26386800-8cf0-48d0-aeab-f9b7ecea0967","system_id":"levelo_inurba_marseille","lat":43.291994,"lon":5.392907,"is_reserved":false,"is_disabled":false,"rental_uris":{"android":"levelo://app?vid=26386800-8cf0-48d0-aeab-f9b7ecea0967","ios":"levelo://app?vid=26386800-8cf0-48d0-aeab-f9b7ecea0967"},"vehicle_type_id":"4","last_reported":1700550415,"current_range_meters":14000,"station_id":"ce4bh192rcd13ifvqdd0","pricing_plan_id":"free"},{"bike_id":"10206c85-ebb1-404e-bca0-8d483ea26abf","system_id":"levelo_inurba_marseille","lat":43.291994,"lon":5.392907,"is_reserved":false,"is_disabled":false,"rental_uris":{"android":"levelo://app?vid=10206c85-ebb1-404e-bca0-8d483ea26abf","ios":"levelo://app?vid=10206c85-ebb1-404e-bca0-8d483ea26abf"},"vehicle_type_id":"4","last_reported":1700550415,"current_range_meters":30000,"station_id":"ce4bh192rcd13ifvqdd0","pricing_plan_id":"free"},{"bike_id":"26a06db1-75e5-4f55-bb1f-2c87cb2283ce","system_id":"levelo_inurba_marseille","lat":43.285856,"lon":5.350771,"is_reserved":false,"is_disabled":false,"rental_uris":{"android":"levelo://app?vid=26a06db1-75e5-4f55-bb1f-2c87cb2283ce","ios":"levelo://app?vid=26a06db1-75e5-4f55-bb1f-2c87cb2283ce"},"vehicle_type_id":"4","last_reported":1700550415,"current_range_meters":27200,"station_id":"ce4bhch2rcd13ifvqeug","pricing_plan_id":"free"},{"bike_id":"26bff16e-ff2a-4263-b272-ff9c88fdba78","system_id":"levelo_inurba_marseille","lat":43.286086,"lon":5.351127,"is_reserved":false,"is_disabled":false,"rental_uris":{"android":"levelo://app?vid=26bff16e-ff2a-4263-b272-ff9c88fdba78","ios":"levelo://app?vid=26bff16e-ff2a-4263-b272-ff9c88fdba78"},"vehicle_type_id":"4","last_reported":1700550415,"current_range_meters":28000,"station_id":"ce4bhch2rcd13ifvqeug","pricing_plan_id":"free"},{"bike_id":"bb67291e-d41a-4310-977a-524d37676449","system_id":"levelo_inurba_marseille","lat":43.295713,"lon":5.399639,"is_reserved":false,"is_disabled":false,"rental_uris":{"android":"levelo://app?vid=bb67291e-d41a-4310-977a-524d37676449","ios":"levelo://app?vid=bb67291e-d41a-4310-977a-524d37676449"},"vehicle_type_id":"4","last_reported":1700550415,"current_range_meters":22000,"station_id":"ce4bh312rcd13ifvqdj0","pricing_plan_id":"free"},{"bike_id":"666271b3-af5e-4c3f-9b1c-729528ae15ee","system_id":"levelo_inurba_marseille","lat":43.286137,"lon":5.384017,"is_reserved":false,"is_disabled":false,"rental_uris":{"android":"levelo://app?vid=666271b3-af5e-4c3f-9b1c-729528ae15ee","ios":"levelo://app?vid=666271b3-af5e-4c3f-9b1c-729528ae15ee"},"vehicle_type_id":"4","last_reported":1700550415,"current_range_meters":28800,"station_id":"","pricing_plan_id":"free"},{"bike_id":"ffb15174-3844-4251-85f5-a48ced87229b","system_id":"levelo_inurba_marseille","lat":43.28653,"lon":5.38671,"is_reserved":false,"is_disabled":false,"rental_uris":{"android":"levelo://app?vid=ffb15174-3844-4251-85f5-a48ced87229b","ios":"levelo://app?vid=ffb15174-3844-4251-85f5-a48ced87229b"},"vehicle_type_id":"4","last_reported":1700550415,"current_range_meters":18400,"station_id":"ce4bh492rcd13ifvqdug","pricing_plan_id":"free"},{"bike_id":"88f1feb0-ec17-434b-840b-c845a345c786","system_id":"levelo_inurba_marseille","lat":43.319179,"lon":5.407725,"is_reserved":false,"is_disabled":false,"rental_uris":{"android":"levelo://app?vid=88f1feb0-ec17-434b-840b-c845a345c786","ios":"levelo://app?vid=88f1feb0-ec17-434b-840b-c845a345c786"},"vehicle_type_id":"4","last_reported":1700550415,"current_range_meters":17200,"station_id":"ce4bhq12rcd13ifvqhig","pricing_plan_id":"free"},{"bike_id":"35b19955-8c3e-4374-b999-0b151664b0e8","system_id":"levelo_inurba_marseille","lat":43.33237,"lon":5.3985,"is_reserved":false,"is_disabled":false,"rental_uris":{"android":"levelo://app?vid=35b19955-8c3e-4374-b999-0b151664b0e8","ios":"levelo://app?vid=35b19955-8c3e-4374-b999-0b151664b0e8"},"vehicle_type_id":"4","last_reported":1700550415,"current_range_meters":0,"station_id":"","pricing_plan_id":"free"},{"bike_id":"b7f8ff4d-b5e5-40f2-b0a3-2a788b3f8cb1","system_id":"levelo_inurba_marseille","lat":43.32343,"lon":5.4062,"is_reserved":false,"is_disabled":false,"rental_uris":{"android":"levelo://app?vid=b7f8ff4d-b5e5-40f2-b0a3-2a788b3f8cb1","ios":"levelo://app?vid=b7f8ff4d-b5e5-40f2-b0a3-2a788b3f8cb1"},"vehicle_type_id":"4","last_reported":1700550415,"current_range_meters":22800,"station_id":"ce4bhq92rcd13ifvqhjg","pricing_plan_id":"free"},{"bike_id":"275d1f2f-4ac9-4b6b-819a-369210bf6f1e","system_id":"levelo_inurba_marseille","lat":43.28489,"lon":5.3843,"is_reserved":false,"is_disabled":false,"rental_uris":{"android":"levelo://app?vid=275d1f2f-4ac9-4b6b-819a-369210bf6f1e","ios":"levelo://app?vid=275d1f2f-4ac9-4b6b-819a-369210bf6f1e"},"vehicle_type_id":"4","last_reported":1700550415,"current_range_meters":31200,"station_id":"ce4bh512rcd13ifvqe3g","pricing_plan_id":"free"},{"bike_id":"18722110-c108-4bc7-a4f5-f7c7f794a25a","system_id":"levelo_inurba_marseille","lat":43.284793,"lon":5.384119,"is_reserved":false,"is_disabled":false,"rental_uris":{"android":"levelo://app?vid=18722110-c108-4bc7-a4f5-f7c7f794a25a","ios":"levelo://app?vid=18722110-c108-4bc7-a4f5-f7c7f794a25a"},"vehicle_type_id":"4","last_reported":1700550415,"current_range_meters":27600,"station_id":"ce4bh512rcd13ifvqe3g","pricing_plan_id":"free"},{"bike_id":"c53bedb0-88b5-47db-9923-2c3c68355a37","system_id":"levelo_inurba_marseille","lat":43.28488,"lon":5.38429,"is_reserved":false,"is_disabled":false,"rental_uris":{"android":"levelo://app?vid=c53bedb0-88b5-47db-9923-2c3c68355a37","ios":"levelo://app?vid=c53bedb0-88b5-47db-9923-2c3c68355a37"},"vehicle_type_id":"4","last_reported":1700550415,"current_range_meters":31200,"station_id":"ce4bh512rcd13ifvqe3g","pricing_plan_id":"free"},{"bike_id":"4d6f833a-b186-4427-9e96-56f4d102ff95","system_id":"levelo_inurba_marseille","lat":43.2884,"lon":5.39252,"is_reserved":false,"is_disabled":false,"rental_uris":{"android":"levelo://app?vid=4d6f833a-b186-4427-9e96-56f4d102ff95","ios":"levelo://app?vid=4d6f833a-b186-4427-9e96-56f4d102ff95"},"vehicle_type_id":"4","last_reported":1700550415,"current_range_meters":17200,"station_id":"","pricing_plan_id":"free"},{"bike_id":"4d87d2f7-eaa8-4b97-9558-edb7bda82ad8","system_id":"levelo_inurba_marseille","lat":43.284787,"lon":5.384116,"is_reserved":false,"is_disabled":false,"rental_uris":{"android":"levelo://app?vid=4d87d2f7-eaa8-4b97-9558-edb7bda82ad8","ios":"levelo://app?vid=4d87d2f7-eaa8-4b97-9558-edb7bda82ad8"},"vehicle_type_id":"4","last_reported":1700550415,"current_range_meters":30400,"station_id":"ce4bh512rcd13ifvqe3g","pricing_plan_id":"free"},{"bike_id":"f61cbfa7-e90c-4238-9c97-677a415bcde3","system_id":"levelo_inurba_marseille","lat":43.32961,"lon":5.402546,"is_reserved":false,"is_disabled":false,"rental_uris":{"android":"levelo://app?vid=f61cbfa7-e90c-4238-9c97-677a415bcde3","ios":"levelo://app?vid=f61cbfa7-e90c-4238-9c97-677a415bcde3"},"vehicle_type_id":"4","last_reported":1700550415,"current_range_meters":17200,"station_id":"","pricing_plan_id":"free"},{"bike_id":"ba264ef8-9f4b-4062-9fc9-cbeb35b00f1c","system_id":"levelo_inurba_marseille","lat":43.283555,"lon":5.381015,"is_reserved":false,"is_disabled":false,"rental_uris":{"android":"levelo://app?vid=ba264ef8-9f4b-4062-9fc9-cbeb35b00f1c","ios":"levelo://app?vid=ba264ef8-9f4b-4062-9fc9-cbeb35b00f1c"},"vehicle_type_id":"4","last_reported":1700550415,"current_range_meters":22800,"station_id":"ce4bh412rcd13ifvqdr0","pricing_plan_id":"free"},{"bike_id":"b31c4484-c103-4683-9a28-839ab271cbf1","system_id":"levelo_inurba_marseille","lat":43.28353,"lon":5.38099,"is_reserved":false,"is_disabled":false,"rental_uris":{"android":"levelo://app?vid=b31c4484-c103-4683-9a28-839ab271cbf1","ios":"levelo://app?vid=b31c4484-c103-4683-9a28-839ab271cbf1"},"vehicle_type_id":"4","last_reported":1700550415,"current_range_meters":23600,"station_id":"ce4bh412rcd13ifvqdr0","pricing_plan_id":"free"},{"bike_id":"c0fb5b8e-40b7-4770-8994-8bfe5b9a0bed","system_id":"levelo_inurba_marseille","lat":43.28354,"lon":5.38105,"is_reserved":false,"is_disabled":false,"rental_uris":{"android":"levelo://app?vid=c0fb5b8e-40b7-4770-8994-8bfe5b9a0bed","ios":"levelo://app?vid=c0fb5b8e-40b7-4770-8994-8bfe5b9a0bed"},"vehicle_type_id":"4","last_reported":1700550415,"current_range_meters":28400,"station_id":"ce4bh412rcd13ifvqdr0","pricing_plan_id":"free"},{"bike_id":"acaf56d4-6fd2-46b9-b1d1-37f405f08964","system_id":"levelo_inurba_marseille","lat":43.283494,"lon":5.380945,"is_reserved":false,"is_disabled":false,"rental_uris":{"android":"levelo://app?vid=acaf56d4-6fd2-46b9-b1d1-37f405f08964","ios":"levelo://app?vid=acaf56d4-6fd2-46b9-b1d1-37f405f08964"},"vehicle_type_id":"4","last_reported":1700550415,"current_range_meters":23600,"station_id":"ce4bh412rcd13ifvqdr0","pricing_plan_id":"free"},{"bike_id":"0ad361d0-0606-4579-8fde-1ac516c83c25","system_id":"levelo_inurba_marseille","lat":43.324087,"lon":5.406575,"is_reserved":false,"is_disabled":false,"rental_uris":{"android":"levelo://app?vid=0ad361d0-0606-4579-8fde-1ac516c83c25","ios":"levelo://app?vid=0ad361d0-0606-4579-8fde-1ac516c83c25"},"vehicle_type_id":"4","last_reported":1700550415,"current_range_meters":18800,"station_id":"","pricing_plan_id":"free"},{"bike_id":"ca558ada-70a6-4251-80b5-6541d8638f5c","system_id":"levelo_inurba_marseille","lat":43.28349,"lon":5.38105,"is_reserved":false,"is_disabled":false,"rental_uris":{"android":"levelo://app?vid=ca558ada-70a6-4251-80b5-6541d8638f5c","ios":"levelo://app?vid=ca558ada-70a6-4251-80b5-6541d8638f5c"},"vehicle_type_id":"4","last_reported":1700550415,"current_range_meters":16800,"station_id":"ce4bh412rcd13ifvqdr0","pricing_plan_id":"free"},{"bike_id":"3239fdea-766c-4a95-bb1b-e5b6a503d3b0","system_id":"levelo_inurba_marseille","lat":43.28344,"lon":5.38107,"is_reserved":false,"is_disabled":false,"rental_uris":{"android":"levelo://app?vid=3239fdea-766c-4a95-bb1b-e5b6a503d3b0","ios":"levelo://app?vid=3239fdea-766c-4a95-bb1b-e5b6a503d3b0"},"vehicle_type_id":"4","last_reported":1700550415,"current_range_meters":29600,"station_id":"ce4bh412rcd13ifvqdr0","pricing_plan_id":"free"},{"bike_id":"3a7f704f-dfec-428b-9386-231f9d9413a9","system_id":"levelo_inurba_marseille","lat":43.283365,"lon":5.381204,"is_reserved":false,"is_disabled":false,"rental_uris":{"android":"levelo://app?vid=3a7f704f-dfec-428b-9386-231f9d9413a9","ios":"levelo://app?vid=3a7f704f-dfec-428b-9386-231f9d9413a9"},"vehicle_type_id":"4","last_reported":1700550415,"current_range_meters":28000,"station_id":"ce4bh412rcd13ifvqdr0","pricing_plan_id":"free"},{"bike_id":"6951882a-d7ee-4978-a2e8-e59d598bf3a1","system_id":"levelo_inurba_marseille","lat":43.343612,"lon":5.37501,"is_reserved":false,"is_disabled":false,"rental_uris":{"android":"levelo://app?vid=6951882a-d7ee-4978-a2e8-e59d598bf3a1","ios":"levelo://app?vid=6951882a-d7ee-4978-a2e8-e59d598bf3a1"},"vehicle_type_id":"4","last_reported":1700550415,"current_range_meters":0,"station_id":"","pricing_plan_id":"free"},{"bike_id":"a3852163-2270-419b-b410-f04d880aca0b","system_id":"levelo_inurba_marseille","lat":43.28939,"lon":5.39632,"is_reserved":false,"is_disabled":false,"rental_uris":{"android":"levelo://app?vid=a3852163-2270-419b-b410-f04d880aca0b","ios":"levelo://app?vid=a3852163-2270-419b-b410-f04d880aca0b"},"vehicle_type_id":"4","last_reported":1700550415,"current_range_meters":22800,"station_id":"ce4bh3h2rcd13ifvqdn0","pricing_plan_id":"free"},{"bike_id":"ed827a7f-64d8-41ca-b82d-4435520ba5f5","system_id":"levelo_inurba_marseille","lat":43.289363,"lon":5.396322,"is_reserved":false,"is_disabled":false,"rental_uris":{"android":"levelo://app?vid=ed827a7f-64d8-41ca-b82d-4435520ba5f5","ios":"levelo://app?vid=ed827a7f-64d8-41ca-b82d-4435520ba5f5"},"vehicle_type_id":"4","last_reported":1700550415,"current_range_meters":26000,"station_id":"ce4bh3h2rcd13ifvqdn0","pricing_plan_id":"free"},{"bike_id":"7d397acd-a88d-402d-b751-7cbb93bbb02a","system_id":"levelo_inurba_marseille","lat":43.282754,"lon":5.350519,"is_reserved":false,"is_disabled":false,"rental_uris":{"android":"levelo://app?vid=7d397acd-a88d-402d-b751-7cbb93bbb02a","ios":"levelo://app?vid=7d397acd-a88d-402d-b751-7cbb93bbb02a"},"vehicle_type_id":"4","last_reported":1700550415,"current_range_meters":26800,"station_id":"ce4bhbp2rcd13ifvqerg","pricing_plan_id":"free"},{"bike_id":"d577cc49-1cb7-45e0-af7b-eb17f88286bb","system_id":"levelo_inurba_marseille","lat":43.28374,"lon":5.38643,"is_reserved":false,"is_disabled":false,"rental_uris":{"android":"levelo://app?vid=d577cc49-1cb7-45e0-af7b-eb17f88286bb","ios":"levelo://app?vid=d577cc49-1cb7-45e0-af7b-eb17f88286bb"},"vehicle_type_id":"4","last_reported":1700550415,"current_range_meters":28800,"station_id":"ce4bh492rcd13ifvqdvg","pricing_plan_id":"free"},{"bike_id":"7c962b40-3686-4c73-b9cd-a0b2e6926c8d","system_id":"levelo_inurba_marseille","lat":43.28368,"lon":5.38641,"is_reserved":false,"is_disabled":false,"rental_uris":{"android":"levelo://app?vid=7c962b40-3686-4c73-b9cd-a0b2e6926c8d","ios":"levelo://app?vid=7c962b40-3686-4c73-b9cd-a0b2e6926c8d"},"vehicle_type_id":"4","last_reported":1700550415,"current_range_meters":25200,"station_id":"ce4bh492rcd13ifvqdvg","pricing_plan_id":"free"},{"bike_id":"7db767f0-4fd4-4996-84e9-9aebe57ff5ef","system_id":"levelo_inurba_marseille","lat":43.283571,"lon":5.386328,"is_reserved":false,"is_disabled":false,"rental_uris":{"android":"levelo://app?vid=7db767f0-4fd4-4996-84e9-9aebe57ff5ef","ios":"levelo://app?vid=7db767f0-4fd4-4996-84e9-9aebe57ff5ef"},"vehicle_type_id":"4","last_reported":1700550415,"current_range_meters":6000,"station_id":"ce4bh492rcd13ifvqdvg","pricing_plan_id":"free"},{"bike_id":"f89c26fd-5dcd-4181-a624-77dad0a89356","system_id":"levelo_inurba_marseille","lat":43.29079,"lon":5.39974,"is_reserved":false,"is_disabled":false,"rental_uris":{"android":"levelo://app?vid=f89c26fd-5dcd-4181-a624-77dad0a89356","ios":"levelo://app?vid=f89c26fd-5dcd-4181-a624-77dad0a89356"},"vehicle_type_id":"4","last_reported":1700550415,"current_range_meters":22400,"station_id":"","pricing_plan_id":"free"},{"bike_id":"7380e940-dc1c-4e6f-843f-881f8d18b14f","system_id":"levelo_inurba_marseille","lat":43.28039,"lon":5.369297,"is_reserved":false,"is_disabled":false,"rental_uris":{"android":"levelo://app?vid=7380e940-dc1c-4e6f-843f-881f8d18b14f","ios":"levelo://app?vid=7380e940-dc1c-4e6f-843f-881f8d18b14f"},"vehicle_type_id":"4","last_reported":1700550415,"current_range_meters":30800,"station_id":"ce4bha12rcd13ifvqef0","pricing_plan_id":"free"},{"bike_id":"20f738b4-826f-4ca4-b195-f0a95b0b2435","system_id":"levelo_inurba_marseille","lat":43.28356,"lon":5.38645,"is_reserved":false,"is_disabled":false,"rental_uris":{"android":"levelo://app?vid=20f738b4-826f-4ca4-b195-f0a95b0b2435","ios":"levelo://app?vid=20f738b4-826f-4ca4-b195-f0a95b0b2435"},"vehicle_type_id":"4","last_reported":1700550415,"current_range_meters":26000,"station_id":"ce4bh492rcd13ifvqdvg","pricing_plan_id":"free"},{"bike_id":"c7cad030-54fa-42c0-bd40-7fe740802999","system_id":"levelo_inurba_marseille","lat":43.280382,"lon":5.369291,"is_reserved":false,"is_disabled":false,"rental_uris":{"android":"levelo://app?vid=c7cad030-54fa-42c0-bd40-7fe740802999","ios":"levelo://app?vid=c7cad030-54fa-42c0-bd40-7fe740802999"},"vehicle_type_id":"4","last_reported":1700550415,"current_range_meters":25200,"station_id":"ce4bha12rcd13ifvqef0","pricing_plan_id":"free"},{"bike_id":"7bcb60ff-6399-498a-98aa-f387e6d46a6c","system_id":"levelo_inurba_marseille","lat":43.28029,"lon":5.36935,"is_reserved":false,"is_disabled":false,"rental_uris":{"android":"levelo://app?vid=7bcb60ff-6399-498a-98aa-f387e6d46a6c","ios":"levelo://app?vid=7bcb60ff-6399-498a-98aa-f387e6d46a6c"},"vehicle_type_id":"4","last_reported":1700550415,"current_range_meters":27200,"station_id":"ce4bha12rcd13ifvqef0","pricing_plan_id":"free"},{"bike_id":"86365ed2-32fc-4d59-aed8-5c6ff90d1a2b","system_id":"levelo_inurba_marseille","lat":43.290457,"lon":5.399542,"is_reserved":false,"is_disabled":false,"rental_uris":{"android":"levelo://app?vid=86365ed2-32fc-4d59-aed8-5c6ff90d1a2b","ios":"levelo://app?vid=86365ed2-32fc-4d59-aed8-5c6ff90d1a2b"},"vehicle_type_id":"4","last_reported":1700550415,"current_range_meters":29200,"station_id":"ce4bh392rcd13ifvqdm0","pricing_plan_id":"free"},{"bike_id":"0f7e7462-4cc4-4c01-b4a4-73a6f185145a","system_id":"levelo_inurba_marseille","lat":43.28999,"lon":5.39906,"is_reserved":false,"is_disabled":false,"rental_uris":{"android":"levelo://app?vid=0f7e7462-4cc4-4c01-b4a4-73a6f185145a","ios":"levelo://app?vid=0f7e7462-4cc4-4c01-b4a4-73a6f185145a"},"vehicle_type_id":"4","last_reported":1700550415,"current_range_meters":20400,"station_id":"","pricing_plan_id":"free"},{"bike_id":"6dc862f7-73a4-497f-b3fa-eba2c91e6982","system_id":"levelo_inurba_marseille","lat":43.29034,"lon":5.39966,"is_reserved":false,"is_disabled":false,"rental_uris":{"android":"levelo://app?vid=6dc862f7-73a4-497f-b3fa-eba2c91e6982","ios":"levelo://app?vid=6dc862f7-73a4-497f-b3fa-eba2c91e6982"},"vehicle_type_id":"4","last_reported":1700550415,"current_range_meters":21200,"station_id":"ce4bh392rcd13ifvqdm0","pricing_plan_id":"free"},{"bike_id":"49697e5f-6081-4c21-8691-6b7faa0f25b6","system_id":"levelo_inurba_marseille","lat":43.304606,"lon":5.379026,"is_reserved":false,"is_disabled":false,"rental_uris":{"android":"levelo://app?vid=49697e5f-6081-4c21-8691-6b7faa0f25b6","ios":"levelo://app?vid=49697e5f-6081-4c21-8691-6b7faa0f25b6"},"vehicle_type_id":"4","last_reported":1700550415,"current_range_meters":32000,"station_id":"ce4bgup2rcd13ifvqcn0","pricing_plan_id":"free"},{"bike_id":"5824e06f-fcf3-4bca-a543-019cda2ca599","system_id":"levelo_inurba_marseille","lat":43.28573,"lon":5.394992,"is_reserved":false,"is_disabled":false,"rental_uris":{"android":"levelo://app?vid=5824e06f-fcf3-4bca-a543-019cda2ca599","ios":"levelo://app?vid=5824e06f-fcf3-4bca-a543-019cda2ca599"},"vehicle_type_id":"4","last_reported":1700550415,"current_range_meters":25600,"station_id":"ce4bh292rcd13ifvqdg0","pricing_plan_id":"free"},{"bike_id":"145bc506-68b5-46d0-800d-b6fcd93e8ca6","system_id":"levelo_inurba_marseille","lat":43.28574,"lon":5.39495,"is_reserved":false,"is_disabled":false,"rental_uris":{"android":"levelo://app?vid=145bc506-68b5-46d0-800d-b6fcd93e8ca6","ios":"levelo://app?vid=145bc506-68b5-46d0-800d-b6fcd93e8ca6"},"vehicle_type_id":"4","last_reported":1700550415,"current_range_meters":27200,"station_id":"ce4bh292rcd13ifvqdg0","pricing_plan_id":"free"},{"bike_id":"d7fdc7c8-e3a1-4f20-81fb-e93484af1067","system_id":"levelo_inurba_marseille","lat":43.285742,"lon":5.395004,"is_reserved":false,"is_disabled":false,"rental_uris":{"android":"levelo://app?vid=d7fdc7c8-e3a1-4f20-81fb-e93484af1067","ios":"levelo://app?vid=d7fdc7c8-e3a1-4f20-81fb-e93484af1067"},"vehicle_type_id":"4","last_reported":1700550415,"current_range_meters":28800,"station_id":"ce4bh292rcd13ifvqdg0","pricing_plan_id":"free"},{"bike_id":"3a4ce9af-656a-4e9f-8c48-29c963883a1c","system_id":"levelo_inurba_marseille","lat":43.28566,"lon":5.39484,"is_reserved":false,"is_disabled":false,"rental_uris":{"android":"levelo://app?vid=3a4ce9af-656a-4e9f-8c48-29c963883a1c","ios":"levelo://app?vid=3a4ce9af-656a-4e9f-8c48-29c963883a1c"},"vehicle_type_id":"4","last_reported":1700550415,"current_range_meters":26000,"station_id":"ce4bh292rcd13ifvqdg0","pricing_plan_id":"free"},{"bike_id":"cf4ef9e1-735d-410a-9dca-ddda935f2e99","system_id":"levelo_inurba_marseille","lat":43.28573,"lon":5.394992,"is_reserved":false,"is_disabled":false,"rental_uris":{"android":"levelo://app?vid=cf4ef9e1-735d-410a-9dca-ddda935f2e99","ios":"levelo://app?vid=cf4ef9e1-735d-410a-9dca-ddda935f2e99"},"vehicle_type_id":"4","last_reported":1700550415,"current_range_meters":30800,"station_id":"ce4bh292rcd13ifvqdg0","pricing_plan_id":"free"},{"bike_id":"4ba19db7-c6d9-4690-a699-b459b6d7af48","system_id":"levelo_inurba_marseille","lat":43.30417,"lon":5.41281,"is_reserved":false,"is_disabled":false,"rental_uris":{"android":"levelo://app?vid=4ba19db7-c6d9-4690-a699-b459b6d7af48","ios":"levelo://app?vid=4ba19db7-c6d9-4690-a699-b459b6d7af48"},"vehicle_type_id":"4","last_reported":1700550415,"current_range_meters":0,"station_id":"ce4bhop2rcd13ifvqh8g","pricing_plan_id":"free"},{"bike_id":"5d2b85c0-94b2-4a42-996a-c0178036397d","system_id":"levelo_inurba_marseille","lat":43.279087,"lon":5.380114,"is_reserved":false,"is_disabled":false,"rental_uris":{"android":"levelo://app?vid=5d2b85c0-94b2-4a42-996a-c0178036397d","ios":"levelo://app?vid=5d2b85c0-94b2-4a42-996a-c0178036397d"},"vehicle_type_id":"4","last_reported":1700550415,"current_range_meters":24000,"station_id":"ce4bhf92rcd13ifvqf50","pricing_plan_id":"free"},{"bike_id":"ee2493ba-dfa8-4b9b-9e30-3909c9e613cc","system_id":"levelo_inurba_marseille","lat":43.28668,"lon":5.39945,"is_reserved":false,"is_disabled":false,"rental_uris":{"android":"levelo://app?vid=ee2493ba-dfa8-4b9b-9e30-3909c9e613cc","ios":"levelo://app?vid=ee2493ba-dfa8-4b9b-9e30-3909c9e613cc"},"vehicle_type_id":"4","last_reported":1700550415,"current_range_meters":800,"station_id":"","pricing_plan_id":"free"},{"bike_id":"15f9f8d9-b36c-49e8-9205-bdf341647d6b","system_id":"levelo_inurba_marseille","lat":43.28022,"lon":5.38735,"is_reserved":false,"is_disabled":false,"rental_uris":{"android":"levelo://app?vid=15f9f8d9-b36c-49e8-9205-bdf341647d6b","ios":"levelo://app?vid=15f9f8d9-b36c-49e8-9205-bdf341647d6b"},"vehicle_type_id":"4","last_reported":1700550415,"current_range_meters":20800,"station_id":"","pricing_plan_id":"free"},{"bike_id":"bce25db8-9141-4d27-934c-286e56459ecd","system_id":"levelo_inurba_marseille","lat":43.279659,"lon":5.387413,"is_reserved":false,"is_disabled":false,"rental_uris":{"android":"levelo://app?vid=bce25db8-9141-4d27-934c-286e56459ecd","ios":"levelo://app?vid=bce25db8-9141-4d27-934c-286e56459ecd"},"vehicle_type_id":"4","last_reported":1700550415,"current_range_meters":12800,"station_id":"","pricing_plan_id":"free"},{"bike_id":"cf7c6503-d761-4e4a-b826-f55f74848caf","system_id":"levelo_inurba_marseille","lat":43.34883,"lon":5.37507,"is_reserved":false,"is_disabled":false,"rental_uris":{"android":"levelo://app?vid=cf7c6503-d761-4e4a-b826-f55f74848caf","ios":"levelo://app?vid=cf7c6503-d761-4e4a-b826-f55f74848caf"},"vehicle_type_id":"4","last_reported":1700550415,"current_range_meters":11600,"station_id":"","pricing_plan_id":"free"},{"bike_id":"02d39fc4-7d34-43b1-afb5-24d3d2f2290f","system_id":"levelo_inurba_marseille","lat":43.325233,"lon":5.414318,"is_reserved":false,"is_disabled":false,"rental_uris":{"android":"levelo://app?vid=02d39fc4-7d34-43b1-afb5-24d3d2f2290f","ios":"levelo://app?vid=02d39fc4-7d34-43b1-afb5-24d3d2f2290f"},"vehicle_type_id":"4","last_reported":1700550415,"current_range_meters":22000,"station_id":"ce4bhq12rcd13ifvqhhg","pricing_plan_id":"free"},{"bike_id":"73355323-013a-4614-af74-5d388880dec1","system_id":"levelo_inurba_marseille","lat":43.325233,"lon":5.414318,"is_reserved":false,"is_disabled":false,"rental_uris":{"android":"levelo://app?vid=73355323-013a-4614-af74-5d388880dec1","ios":"levelo://app?vid=73355323-013a-4614-af74-5d388880dec1"},"vehicle_type_id":"4","last_reported":1700550415,"current_range_meters":20000,"station_id":"ce4bhq12rcd13ifvqhhg","pricing_plan_id":"free"},{"bike_id":"04f937d9-cfbe-49fe-ba36-1a798da3f258","system_id":"levelo_inurba_marseille","lat":43.27623,"lon":5.36113,"is_reserved":false,"is_disabled":false,"rental_uris":{"android":"levelo://app?vid=04f937d9-cfbe-49fe-ba36-1a798da3f258","ios":"levelo://app?vid=04f937d9-cfbe-49fe-ba36-1a798da3f258"},"vehicle_type_id":"4","last_reported":1700550415,"current_range_meters":24400,"station_id":"ce4bgj92rcd13ifvqbe0","pricing_plan_id":"free"},{"bike_id":"55e03907-99f8-435e-94bc-2f8c3fea4163","system_id":"levelo_inurba_marseille","lat":43.27623,"lon":5.36113,"is_reserved":false,"is_disabled":false,"rental_uris":{"android":"levelo://app?vid=55e03907-99f8-435e-94bc-2f8c3fea4163","ios":"levelo://app?vid=55e03907-99f8-435e-94bc-2f8c3fea4163"},"vehicle_type_id":"4","last_reported":1700550415,"current_range_meters":2800,"station_id":"ce4bgj92rcd13ifvqbe0","pricing_plan_id":"free"},{"bike_id":"b8130140-7445-4952-aa03-975c2b21a8e4","system_id":"levelo_inurba_marseille","lat":43.27621,"lon":5.36115,"is_reserved":false,"is_disabled":false,"rental_uris":{"android":"levelo://app?vid=b8130140-7445-4952-aa03-975c2b21a8e4","ios":"levelo://app?vid=b8130140-7445-4952-aa03-975c2b21a8e4"},"vehicle_type_id":"4","last_reported":1700550415,"current_range_meters":27200,"station_id":"ce4bgj92rcd13ifvqbe0","pricing_plan_id":"free"},{"bike_id":"e361903a-860d-4262-b1d0-dda909abb794","system_id":"levelo_inurba_marseille","lat":43.2762,"lon":5.36117,"is_reserved":false,"is_disabled":false,"rental_uris":{"android":"levelo://app?vid=e361903a-860d-4262-b1d0-dda909abb794","ios":"levelo://app?vid=e361903a-860d-4262-b1d0-dda909abb794"},"vehicle_type_id":"4","last_reported":1700550415,"current_range_meters":12800,"station_id":"ce4bgj92rcd13ifvqbe0","pricing_plan_id":"free"},{"bike_id":"e26b1c80-a357-4af0-b710-8eaeedb01de4","system_id":"levelo_inurba_marseille","lat":43.2762,"lon":5.36112,"is_reserved":false,"is_disabled":false,"rental_uris":{"android":"levelo://app?vid=e26b1c80-a357-4af0-b710-8eaeedb01de4","ios":"levelo://app?vid=e26b1c80-a357-4af0-b710-8eaeedb01de4"},"vehicle_type_id":"4","last_reported":1700550415,"current_range_meters":15600,"station_id":"ce4bgj92rcd13ifvqbe0","pricing_plan_id":"free"},{"bike_id":"0eef84e2-b016-4cd5-ac1c-51384344e17f","system_id":"levelo_inurba_marseille","lat":43.276156,"lon":5.361175,"is_reserved":false,"is_disabled":false,"rental_uris":{"android":"levelo://app?vid=0eef84e2-b016-4cd5-ac1c-51384344e17f","ios":"levelo://app?vid=0eef84e2-b016-4cd5-ac1c-51384344e17f"},"vehicle_type_id":"4","last_reported":1700550415,"current_range_meters":28400,"station_id":"ce4bgj92rcd13ifvqbe0","pricing_plan_id":"free"},{"bike_id":"86f2680b-cbb9-48ba-8ba1-e54d745b18f6","system_id":"levelo_inurba_marseille","lat":43.27618,"lon":5.361009,"is_reserved":false,"is_disabled":false,"rental_uris":{"android":"levelo://app?vid=86f2680b-cbb9-48ba-8ba1-e54d745b18f6","ios":"levelo://app?vid=86f2680b-cbb9-48ba-8ba1-e54d745b18f6"},"vehicle_type_id":"4","last_reported":1700550415,"current_range_meters":16400,"station_id":"ce4bgj92rcd13ifvqbe0","pricing_plan_id":"free"},{"bike_id":"6171081e-4d07-4742-8f20-406a637ed711","system_id":"levelo_inurba_marseille","lat":43.273858,"lon":5.362604,"is_reserved":false,"is_disabled":false,"rental_uris":{"android":"levelo://app?vid=6171081e-4d07-4742-8f20-406a637ed711","ios":"levelo://app?vid=6171081e-4d07-4742-8f20-406a637ed711"},"vehicle_type_id":"4","last_reported":1700550415,"current_range_meters":14400,"station_id":"ce4bhbh2rcd13ifvqeo0","pricing_plan_id":"free"},{"bike_id":"d7c6b93e-fb01-4223-a00a-998a2f213546","system_id":"levelo_inurba_marseille","lat":43.273828,"lon":5.362617,"is_reserved":false,"is_disabled":false,"rental_uris":{"android":"levelo://app?vid=d7c6b93e-fb01-4223-a00a-998a2f213546","ios":"levelo://app?vid=d7c6b93e-fb01-4223-a00a-998a2f213546"},"vehicle_type_id":"4","last_reported":1700550415,"current_range_meters":17600,"station_id":"ce4bhbh2rcd13ifvqeo0","pricing_plan_id":"free"},{"bike_id":"19220c13-3272-4899-bc80-5491a1048e2d","system_id":"levelo_inurba_marseille","lat":43.27382,"lon":5.36244,"is_reserved":false,"is_disabled":false,"rental_uris":{"android":"levelo://app?vid=19220c13-3272-4899-bc80-5491a1048e2d","ios":"levelo://app?vid=19220c13-3272-4899-bc80-5491a1048e2d"},"vehicle_type_id":"4","last_reported":1700550415,"current_range_meters":14400,"station_id":"","pricing_plan_id":"free"},{"bike_id":"5e822b25-f8c3-487b-8859-81a4501a5d2d","system_id":"levelo_inurba_marseille","lat":43.273609,"lon":5.362708,"is_reserved":false,"is_disabled":false,"rental_uris":{"android":"levelo://app?vid=5e822b25-f8c3-487b-8859-81a4501a5d2d","ios":"levelo://app?vid=5e822b25-f8c3-487b-8859-81a4501a5d2d"},"vehicle_type_id":"4","last_reported":1700550415,"current_range_meters":31200,"station_id":"ce4bhbh2rcd13ifvqeo0","pricing_plan_id":"free"},{"bike_id":"1a55f001-4473-42d9-a61f-67717bd71182","system_id":"levelo_inurba_marseille","lat":43.275625,"lon":5.384392,"is_reserved":false,"is_disabled":false,"rental_uris":{"android":"levelo://app?vid=1a55f001-4473-42d9-a61f-67717bd71182","ios":"levelo://app?vid=1a55f001-4473-42d9-a61f-67717bd71182"},"vehicle_type_id":"4","last_reported":1700550415,"current_range_meters":30000,"station_id":"ce4bhh92rcd13ifvqfi0","pricing_plan_id":"free"},{"bike_id":"12c7b073-83f2-4ccb-a9a8-392974af652a","system_id":"levelo_inurba_marseille","lat":43.2757,"lon":5.3844,"is_reserved":false,"is_disabled":false,"rental_uris":{"android":"levelo://app?vid=12c7b073-83f2-4ccb-a9a8-392974af652a","ios":"levelo://app?vid=12c7b073-83f2-4ccb-a9a8-392974af652a"},"vehicle_type_id":"4","last_reported":1700550415,"current_range_meters":31200,"station_id":"ce4bhh92rcd13ifvqfi0","pricing_plan_id":"free"},{"bike_id":"2988aac0-8d89-41bb-9f67-6802b211dafd","system_id":"levelo_inurba_marseille","lat":43.275625,"lon":5.384392,"is_reserved":false,"is_disabled":false,"rental_uris":{"android":"levelo://app?vid=2988aac0-8d89-41bb-9f67-6802b211dafd","ios":"levelo://app?vid=2988aac0-8d89-41bb-9f67-6802b211dafd"},"vehicle_type_id":"4","last_reported":1700550415,"current_range_meters":27200,"station_id":"ce4bhh92rcd13ifvqfi0","pricing_plan_id":"free"},