{"last_updated":1707862059,"ttl":30,"version":"2.2","data":{"bikes":[{"bike_id":"941e1a41-0ea2-4c41-840f-58a9f8026d49","system_id":"levelo_inurba_marseille","lat":43.312508,"lon":5.368474,"is_reserved":false,"is_disabled":false,"rental_uris":{"android":"levelo://app?vid=941e1a41-0ea2-4c41-840f-58a9f8026d49","ios":"levelo://app?vid=941e1a41-0ea2-4c41-840f-58a9f8026d49"},"vehicle_type_id":"4","last_reported":1707862059,"current_range_meters":13200,"station_id":"","pricing_plan_id":"cebpf4jnsgd1na2vs0mg"},{"bike_id":"0defd428-a3b7-4e15-8d99-8c462c776135","system_id":"levelo_inurba_marseille","lat":43.312239,"lon":5.368562,"is_reserved":false,"is_disabled":false,"rental_uris":{"android":"levelo://app?vid=0defd428-a3b7-4e15-8d99-8c462c776135","ios":"levelo://app?vid=0defd428-a3b7-4e15-8d99-8c462c776135"},"vehicle_type_id":"4","last_reported":1707862059,"current_range_meters":13200,"station_id":"ce4bgl92rcd13ifvqbq0","pricing_plan_id":"cebpf4jnsgd1na2vs0mg"},{"bike_id":"4fb466b4-eb4c-4889-84e2-a3b446ce88c6","system_id":"levelo_inurba_marseille","lat":43.312239,"lon":5.368562,"is_reserved":false,"is_disabled":false,"rental_uris":{"android":"levelo://app?vid=4fb466b4-eb4c-4889-84e2-a3b446ce88c6","ios":"levelo://app?vid=4fb466b4-eb4c-4889-84e2-a3b446ce88c6"},"vehicle_type_id":"4","last_reported":1707862059,"current_range_meters":18800,"station_id":"ce4bgl92rcd13ifvqbq0","pricing_plan_id":"cebpf4jnsgd1na2vs0mg"},{"bike_id":"de665dbc-16f0-4c4b-8924-7693fb48a8f5","system_id":"levelo_inurba_marseille","lat":43.309076,"lon":5.368465,"is_reserved":false,"is_disabled":false,"rental_uris":{"android":"levelo://app?vid=de665dbc-16f0-4c4b-8924-7693fb48a8f5","ios":"levelo://app?vid=de665dbc-16f0-4c4b-8924-7693fb48a8f5"},"vehicle_type_id":"4","last_reported":1707862059,"current_range_meters":7600,"station_id":"ce4bgn92rcd13ifvqbvg","pricing_plan_id":"cebpf4jnsgd1na2vs0mg"},{"bike_id":"62bc36f3-499b-47b9-953e-58128c47ec5e","system_id":"levelo_inurba_marseille","lat":43.309076,"lon":5.368465,"is_reserved":false,"is_disabled":false,"rental_uris":{"android":"levelo://app?vid=62bc36f3-499b-47b9-953e-58128c47ec5e","ios":"levelo://app?vid=62bc36f3-499b-47b9-953e-58128c47ec5e"},"vehicle_type_id":"4","last_reported":1707862059,"current_range_meters":30000,"station_id":"ce4bgn92rcd13ifvqbvg","pricing_plan_id":"cebpf4jnsgd1na2vs0mg"},{"bike_id":"2c9ced56-c928-4de9-8250-53b788d952d5","system_id":"levelo_inurba_marseille","lat":43.314811,"lon":5.373103,"is_reserved":false,"is_disabled":false,"rental_uris":{"android":"levelo://app?vid=2c9ced56-c928-4de9-8250-53b788d952d5","ios":"levelo://app?vid=2c9ced56-c928-4de9-8250-53b788d952d5"},"vehicle_type_id":"4","last_reported":1707862059,"current_range_meters":5600,"station_id":"ce4bgt12rcd13ifvqcd0","pricing_plan_id":"cebpf4jnsgd1na2vs0mg"},{"bike_id":"a6bb0dcc-70a8-49db-83eb-2bb6ea372632","system_id":"levelo_inurba_marseille","lat":43.309034,"lon":5.371783,"is_reserved":false,"is_disabled":false,"rental_uris":{"android":"levelo://app?vid=a6bb0dcc-70a8-49db-83eb-2bb6ea372632","ios":"levelo://app?vid=a6bb0dcc-70a8-49db-83eb-2bb6ea372632"},"vehicle_type_id":"4","last_reported":1707862059,"current_range_meters":8800,"station_id":"ce4bguh2rcd13ifvqckg","pricing_plan_id":"cebpf4jnsgd1na2vs0mg"},{"bike_id":"a0218574-acfc-4d22-8e7e-746b3dd883a6","system_id":"levelo_inurba_marseille","lat":43.309039,"lon":5.371797,"is_reserved":false,"is_disabled":false,"rental_uris":{"android":"levelo://app?vid=a0218574-acfc-4d22-8e7e-746b3dd883a6","ios":"levelo://app?vid=a0218574-acfc-4d22-8e7e-746b3dd883a6"},"vehicle_type_id":"4","last_reported":1707862059,"current_range_meters":18800,"station_id":"ce4bguh2rcd13ifvqckg","pricing_plan_id":"cebpf4jnsgd1na2vs0mg"},{"bike_id":"24141e23-0c7c-406f-a237-4918c06e395e","system_id":"levelo_inurba_marseille","lat":43.305368,"lon":5.367343,"is_reserved":false,"is_disabled":false,"rental_uris":{"android":"levelo://app?vid=24141e23-0c7c-406f-a237-4918c06e395e","ios":"levelo://app?vid=24141e23-0c7c-406f-a237-4918c06e395e"},"vehicle_type_id":"4","last_reported":1707862059,"current_range_meters":13200,"station_id":"ce4bgrp2rcd13ifvqc9g","pricing_plan_id":"cebpf4jnsgd1na2vs0mg"},{"bike_id":"c16e7b97-52f0-4621-b6a7-1241b1a665d4","system_id":"levelo_inurba_marseille","lat":43.305368,"lon":5.367343,"is_reserved":false,"is_disabled":false,"rental_uris":{"android":"levelo://app?vid=c16e7b97-52f0-4621-b6a7-1241b1a665d4","ios":"levelo://app?vid=c16e7b97-52f0-4621-b6a7-1241b1a665d4"},"vehicle_type_id":"4","last_reported":1707862059,"current_range_meters":800,"station_id":"ce4bgrp2rcd13ifvqc9g","pricing_plan_id":"cebpf4jnsgd1na2vs0mg"},{"bike_id":"d46c34cd-201d-4a50-8ad6-9818219ac223","system_id":"levelo_inurba_marseille","lat":43.305989,"lon":5.37225,"is_reserved":false,"is_disabled":false,"rental_uris":{"android":"levelo://app?vid=d46c34cd-201d-4a50-8ad6-9818219ac223","ios":"levelo://app?vid=d46c34cd-201d-4a50-8ad6-9818219ac223"},"vehicle_type_id":"4","last_reported":1707862059,"current_range_meters":28800,"station_id":"ce4bgqh2rcd13ifvqc4g","pricing_plan_id":"cebpf4jnsgd1na2vs0mg"},{"bike_id":"58301f8f-c061-4b44-a2a2-59f0dc09f221","system_id":"levelo_inurba_marseille","lat":43.305989,"lon":5.37225,"is_reserved":false,"is_disabled":false,"rental_uris":{"android":"levelo://app?vid=58301f8f-c061-4b44-a2a2-59f0dc09f221","ios":"levelo://app?vid=58301f8f-c061-4b44-a2a2-59f0dc09f221"},"vehicle_type_id":"4","last_reported":1707862059,"current_range_meters":28000,"station_id":"ce4bgqh2rcd13ifvqc4g","pricing_plan_id":"cebpf4jnsgd1na2vs0mg"},{"bike_id":"877b662a-d1c9-4730-abb4-d539c31c26d9","system_id":"levelo_inurba_marseille","lat":43.305989,"lon":5.37225,"is_reserved":false,"is_disabled":false,"rental_uris":{"android":"levelo://app?vid=877b662a-d1c9-4730-abb4-d539c31c26d9","ios":"levelo://app?vid=877b662a-d1c9-4730-abb4-d539c31c26d9"},"vehicle_type_id":"4","last_reported":1707862059,"current_range_meters":6400,"station_id":"ce4bgqh2rcd13ifvqc4g","pricing_plan_id":"cebpf4jnsgd1na2vs0mg"},{"bike_id":"4afbed8f-f722-4933-b61a-0df2a35e0100","system_id":"levelo_inurba_marseille","lat":43.305989,"lon":5.37225,"is_reserved":false,"is_disabled":false,"rental_uris":{"android":"levelo://app?vid=4afbed8f-f722-4933-b61a-0df2a35e0100","ios":"levelo://app?vid=4afbed8f-f722-4933-b61a-0df2a35e0100"},"vehicle_type_id":"4","last_reported":1707862059,"current_range_meters":5600,"station_id":"ce4bgqh2rcd13ifvqc4g","pricing_plan_id":"cebpf4jnsgd1na2vs0mg"},{"bike_id":"04adc710-42f3-4445-b0f5-22e3ec16dc78","system_id":"levelo_inurba_marseille","lat":43.305989,"lon":5.37225,"is_reserved":false,"is_disabled":false,"rental_uris":{"android":"levelo://app?vid=04adc710-42f3-4445-b0f5-22e3ec16dc78","ios":"levelo://app?vid=04adc710-42f3-4445-b0f5-22e3ec16dc78"},"vehicle_type_id":"4","last_reported":1707862059,"current_range_meters":8800,"station_id":"ce4bgqh2rcd13ifvqc4g","pricing_plan_id":"cebpf4jnsgd1na2vs0mg"},{"bike_id":"50be6209-5f3d-4b9e-a077-92cccafbf382","system_id":"levelo_inurba_marseille","lat":43.305989,"lon":5.37225,"is_reserved":false,"is_disabled":false,"rental_uris":{"android":"levelo://app?vid=50be6209-5f3d-4b9e-a077-92cccafbf382","ios":"levelo://app?vid=50be6209-5f3d-4b9e-a077-92cccafbf382"},"vehicle_type_id":"4","last_reported":1707862059,"current_range_meters":26400,"station_id":"ce4bgqh2rcd13ifvqc4g","pricing_plan_id":"cebpf4jnsgd1na2vs0mg"},{"bike_id":"24ceab4b-2b08-4888-882a-27cea6ba66c4","system_id":"levelo_inurba_marseille","lat":43.305989,"lon":5.37225,"is_reserved":false,"is_disabled":false,"rental_uris":{"android":"levelo://app?vid=24ceab4b-2b08-4888-882a-27cea6ba66c4","ios":"levelo://app?vid=24ceab4b-2b08-4888-882a-27cea6ba66c4"},"vehicle_type_id":"4","last_reported":1707862059,"current_range_meters":0,"station_id":"ce4bgqh2rcd13ifvqc4g","pricing_plan_id":"cebpf4jnsgd1na2vs0mg"},{"bike_id":"53f0dd89-0316-42c6-8c8f-cbb903319dcf","system_id":"levelo_inurba_marseille","lat":43.305989,"lon":5.37225,"is_reserved":false,"is_disabled":false,"rental_uris":{"android":"levelo://app?vid=53f0dd89-0316-42c6-8c8f-cbb903319dcf","ios":"levelo://app?vid=53f0dd89-0316-42c6-8c8f-cbb903319dcf"},"vehicle_type_id":"4","last_reported":1707862059,"current_range_meters":4000,"station_id":"ce4bgqh2rcd13ifvqc4g","pricing_plan_id":"cebpf4jnsgd1na2vs0mg"},{"bike_id":"488be198-e0b7-41ab-8787-7118ee77b8e0","system_id":"levelo_inurba_marseille","lat":43.311125,"lon":5.377624,"is_reserved":false,"is_disabled":false,"rental_uris":{"android":"levelo://app?vid=488be198-e0b7-41ab-8787-7118ee77b8e0","ios":"levelo://app?vid=488be198-e0b7-41ab-8787-7118ee77b8e0"},"vehicle_type_id":"4","last_reported":1707862059,"current_range_meters":14400,"station_id":"ce4bgt92rcd13ifvqcg0","pricing_plan_id":"cebpf4jnsgd1na2vs0mg"},{"bike_id":"27646afb-2cc4-4927-aba7-416f53e2fc35","system_id":"levelo_inurba_marseille","lat":43.311125,"lon":5.377624,"is_reserved":false,"is_disabled":false,"rental_uris":{"android":"levelo://app?vid=27646afb-2cc4-4927-aba7-416f53e2fc35","ios":"levelo://app?vid=27646afb-2cc4-4927-aba7-416f53e2fc35"},"vehicle_type_id":"4","last_reported":1707862059,"current_range_meters":18000,"station_id":"ce4bgt92rcd13ifvqcg0","pricing_plan_id":"cebpf4jnsgd1na2vs0mg"},{"bike_id":"1689f3c3-2173-463f-8df4-9639659f62df","system_id":"levelo_inurba_marseille","lat":43.311125,"lon":5.377624,"is_reserved":false,"is_disabled":false,"rental_uris":{"android":"levelo://app?vid=1689f3c3-2173-463f-8df4-9639659f62df","ios":"levelo://app?vid=1689f3c3-2173-463f-8df4-9639659f62df"},"vehicle_type_id":"4","last_reported":1707862059,"current_range_meters":7600,"station_id":"ce4bgt92rcd13ifvqcg0","pricing_plan_id":"cebpf4jnsgd1na2vs0mg"},{"bike_id":"7c84f122-4914-4b51-9f46-5b8cf461f9c6","system_id":"levelo_inurba_marseille","lat":43.307945,"lon":5.376487,"is_reserved":false,"is_disabled":false,"rental_uris":{"android":"levelo://app?vid=7c84f122-4914-4b51-9f46-5b8cf461f9c6","ios":"levelo://app?vid=7c84f122-4914-4b51-9f46-5b8cf461f9c6"},"vehicle_type_id":"4","last_reported":1707862059,"current_range_meters":31600,"station_id":"ce4bgv92rcd13ifvqcq0","pricing_plan_id":"cebpf4jnsgd1na2vs0mg"},{"bike_id":"f86d5c49-aadd-4ee3-97d3-5b09808fd213","system_id":"levelo_inurba_marseille","lat":43.307945,"lon":5.376487,"is_reserved":false,"is_disabled":false,"rental_uris":{"android":"levelo://app?vid=f86d5c49-aadd-4ee3-97d3-5b09808fd213","ios":"levelo://app?vid=f86d5c49-aadd-4ee3-97d3-5b09808fd213"},"vehicle_type_id":"4","last_reported":1707862059,"current_range_meters":22800,"station_id":"ce4bgv92rcd13ifvqcq0","pricing_plan_id":"cebpf4jnsgd1na2vs0mg"},{"bike_id":"0225ae1b-515d-4755-8585-1aed4e8d05af","system_id":"levelo_inurba_marseille","lat":43.31707,"lon":5.37759,"is_reserved":false,"is_disabled":false,"rental_uris":{"android":"levelo://app?vid=0225ae1b-515d-4755-8585-1aed4e8d05af","ios":"levelo://app?vid=0225ae1b-515d-4755-8585-1aed4e8d05af"},"vehicle_type_id":"4","last_reported":1707862059,"current_range_meters":0,"station_id":"ce4bgth2rcd13ifvqch0","pricing_plan_id":"cebpf4jnsgd1na2vs0mg"},{"bike_id":"48656f20-46ea-444f-85df-f00c5bca5d1b","system_id":"levelo_inurba_marseille","lat":43.31598,"lon":5.379327,"is_reserved":false,"is_disabled":false,"rental_uris":{"android":"levelo://app?vid=48656f20-46ea-444f-85df-f00c5bca5d1b","ios":"levelo://app?vid=48656f20-46ea-444f-85df-f00c5bca5d1b"},"vehicle_type_id":"4","last_reported":1707862059,"current_range_meters":1600,"station_id":"","pricing_plan_id":"cebpf4jnsgd1na2vs0mg"},{"bike_id":"18382602-aaee-4d3f-a6cd-20f10c5d89d2","system_id":"levelo_inurba_marseille","lat":43.315293,"lon":5.380349,"is_reserved":false,"is_disabled":false,"rental_uris":{"android":"levelo://app?vid=18382602-aaee-4d3f-a6cd-20f10c5d89d2","ios":"levelo://app?vid=18382602-aaee-4d3f-a6cd-20f10c5d89d2"},"vehicle_type_id":"4","last_reported":1707862059,"current_range_meters":19600,"station_id":"ce4bhsp2rcd13ifvqi50","pricing_plan_id":"cebpf4jnsgd1na2vs0mg"},{"bike_id":"99b25015-5bc0-4096-9668-a27a161256eb","system_id":"levelo_inurba_marseille","lat":43.32273,"lon":5.36961,"is_reserved":false,"is_disabled":false,"rental_uris":{"android":"levelo://app?vid=99b25015-5bc0-4096-9668-a27a161256eb","ios":"levelo://app?vid=99b25015-5bc0-4096-9668-a27a161256eb"},"vehicle_type_id":"4","last_reported":1707862059,"current_range_meters":9600,"station_id":"","pricing_plan_id":"cebpf4jnsgd1na2vs0mg"},{"bike_id":"cc55f202-6dff-4e78-ae8e-e743017fa7f3","system_id":"levelo_inurba_marseille","lat":43.301939,"lon":5.366286,"is_reserved":false,"is_disabled":false,"rental_uris":{"android":"levelo://app?vid=cc55f202-6dff-4e78-ae8e-e743017fa7f3","ios":"levelo://app?vid=cc55f202-6dff-4e78-ae8e-e743017fa7f3"},"vehicle_type_id":"4","last_reported":1707862059,"current_range_meters":18000,"station_id":"ce4bgrh2rcd13ifvqc8g","pricing_plan_id":"cebpf4jnsgd1na2vs0mg"},{"bike_id":"9837374c-3dde-4b97-8ea7-61be83a641cc","system_id":"levelo_inurba_marseille","lat":43.301939,"lon":5.366286,"is_reserved":false,"is_disabled":false,"rental_uris":{"android":"levelo://app?vid=9837374c-3dde-4b97-8ea7-61be83a641cc","ios":"levelo://app?vid=9837374c-3dde-4b97-8ea7-61be83a641cc"},"vehicle_type_id":"4","last_reported":1707862059,"current_range_meters":27200,"station_id":"ce4bgrh2rcd13ifvqc8g","pricing_plan_id":"cebpf4jnsgd1na2vs0mg"},{"bike_id":"840a99cc-1f9f-40f8-9983-8d98166ab590","system_id":"levelo_inurba_marseille","lat":43.306376,"lon":5.380227,"is_reserved":false,"is_disabled":false,"rental_uris":{"android":"levelo://app?vid=840a99cc-1f9f-40f8-9983-8d98166ab590","ios":"levelo://app?vid=840a99cc-1f9f-40f8-9983-8d98166ab590"},"vehicle_type_id":"4","last_reported":1707862059,"current_range_meters":14400,"station_id":"","pricing_plan_id":"cebpf4jnsgd1na2vs0mg"},{"bike_id":"f568a5dd-2c58-414f-8eb8-6b27370f622f","system_id":"levelo_inurba_marseille","lat":43.308012,"lon":5.381511,"is_reserved":false,"is_disabled":false,"rental_uris":{"android":"levelo://app?vid=f568a5dd-2c58-414f-8eb8-6b27370f622f","ios":"levelo://app?vid=f568a5dd-2c58-414f-8eb8-6b27370f622f"},"vehicle_type_id":"4","last_reported":1707862059,"current_range_meters":30000,"station_id":"ce4bgt12rcd13ifvqce0","pricing_plan_id":"cebpf4jnsgd1na2vs0mg"},{"bike_id":"192d0b00-cb71-468d-869b-ff1423b1ea66","system_id":"levelo_inurba_marseille","lat":43.308012,"lon":5.381511,"is_reserved":false,"is_disabled":false,"rental_uris":{"android":"levelo://app?vid=192d0b00-cb71-468d-869b-ff1423b1ea66","ios":"levelo://app?vid=192d0b00-cb71-468d-869b-ff1423b1ea66"},"vehicle_type_id":"4","last_reported":1707862059,"current_range_meters":3600,"station_id":"ce4bgt12rcd13ifvqce0","pricing_plan_id":"cebpf4jnsgd1na2vs0mg"},{"bike_id":"55d6317c-3bb8-4d68-b7f7-8d9d217a2105","system_id":"levelo_inurba_marseille","lat":43.308012,"lon":5.381511,"is_reserved":false,"is_disabled":false,"rental_uris":{"android":"levelo://app?vid=55d6317c-3bb8-4d68-b7f7-8d9d217a2105","ios":"levelo://app?vid=55d6317c-3bb8-4d68-b7f7-8d9d217a2105"},"vehicle_type_id":"4","last_reported":1707862059,"current_range_meters":2400,"station_id":"ce4bgt12rcd13ifvqce0","pricing_plan_id":"cebpf4jnsgd1na2vs0mg"},{"bike_id":"35c515fd-b0d1-4961-81a3-e45a4197b839","system_id":"levelo_inurba_marseille","lat":43.30798,"lon":5.38154,"is_reserved":false,"is_disabled":false,"rental_uris":{"android":"levelo://app?vid=35c515fd-b0d1-4961-81a3-e45a4197b839","ios":"levelo://app?vid=35c515fd-b0d1-4961-81a3-e45a4197b839"},"vehicle_type_id":"4","last_reported":1707862059,"current_range_meters":21600,"station_id":"ce4bgt12rcd13ifvqce0","pricing_plan_id":"cebpf4jnsgd1na2vs0mg"},{"bike_id":"b6c24574-9e41-4bcb-b604-f839e12cdf4a","system_id":"levelo_inurba_marseille","lat":43.30796,"lon":5.38155,"is_reserved":false,"is_disabled":false,"rental_uris":{"android":"levelo://app?vid=b6c24574-9e41-4bcb-b604-f839e12cdf4a","ios":"levelo://app?vid=b6c24574-9e41-4bcb-b604-f839e12cdf4a"},"vehicle_type_id":"4","last_reported":1707862059,"current_range_meters":18800,"station_id":"ce4bgt12rcd13ifvqce0","pricing_plan_id":"cebpf4jnsgd1na2vs0mg"},{"bike_id":"c1334953-6d00-42de-a5d4-e907f8c25c93","system_id":"levelo_inurba_marseille","lat":43.308012,"lon":5.381511,"is_reserved":false,"is_disabled":false,"rental_uris":{"android":"levelo://app?vid=c1334953-6d00-42de-a5d4-e907f8c25c93","ios":"levelo://app?vid=c1334953-6d00-42de-a5d4-e907f8c25c93"},"vehicle_type_id":"4","last_reported":1707862059,"current_range_meters":31600,"station_id":"ce4bgt12rcd13ifvqce0","pricing_plan_id":"cebpf4jnsgd1na2vs0mg"},{"bike_id":"a5150c7a-e2e5-4922-972d-4b2fc2e80862","system_id":"levelo_inurba_marseille","lat":43.324771,"lon":5.36557,"is_reserved":false,"is_disabled":false,"rental_uris":{"android":"levelo://app?vid=a5150c7a-e2e5-4922-972d-4b2fc2e80862","ios":"levelo://app?vid=a5150c7a-e2e5-4922-972d-4b2fc2e80862"},"vehicle_type_id":"4","last_reported":1707862059,"current_range_meters":15600,"station_id":"ce4bhs12rcd13ifvqhvg","pricing_plan_id":"cebpf4jnsgd1na2vs0mg"},{"bike_id":"75fdce3e-cfd1-47f8-8f8c-b7de490a1785","system_id":"levelo_inurba_marseille","lat":43.324771,"lon":5.36557,"is_reserved":false,"is_disabled":false,"rental_uris":{"android":"levelo://app?vid=75fdce3e-cfd1-47f8-8f8c-b7de490a1785","ios":"levelo://app?vid=75fdce3e-cfd1-47f8-8f8c-b7de490a1785"},"vehicle_type_id":"4","last_reported":1707862059,"current_range_meters":18400,"station_id":"ce4bhs12rcd13ifvqhvg","pricing_plan_id":"cebpf4jnsgd1na2vs0mg"},{"bike_id":"565f9df3-8834-492a-82ea-11e6e32cb8ea","system_id":"levelo_inurba_marseille","lat":43.324771,"lon":5.36557,"is_reserved":false,"is_disabled":false,"rental_uris":{"android":"levelo://app?vid=565f9df3-8834-492a-82ea-11e6e32cb8ea","ios":"levelo://app?vid=565f9df3-8834-492a-82ea-11e6e32cb8ea"},"vehicle_type_id":"4","last_reported":1707862059,"current_range_meters":19200,"station_id":"ce4bhs12rcd13ifvqhvg","pricing_plan_id":"cebpf4jnsgd1na2vs0mg"},{"bike_id":"3c3b17ec-aa6b-4a35-9f14-1d304594707e","system_id":"levelo_inurba_marseille","lat":43.324771,"lon":5.36557,"is_reserved":false,"is_disabled":false,"rental_uris":{"android":"levelo://app?vid=3c3b17ec-aa6b-4a35-9f14-1d304594707e","ios":"levelo://app?vid=3c3b17ec-aa6b-4a35-9f14-1d304594707e"},"vehicle_type_id":"4","last_reported":1707862059,"current_range_meters":0,"station_id":"ce4bhs12rcd13ifvqhvg","pricing_plan_id":"cebpf4jnsgd1na2vs0mg"},{"bike_id":"719e3399-5be5-419a-b73a-1b5cb8d4c438","system_id":"levelo_inurba_marseille","lat":43.310804,"lon":5.38359,"is_reserved":false,"is_disabled":false,"rental_uris":{"android":"levelo://app?vid=719e3399-5be5-419a-b73a-1b5cb8d4c438","ios":"levelo://app?vid=719e3399-5be5-419a-b73a-1b5cb8d4c438"},"vehicle_type_id":"4","last_reported":1707862059,"current_range_meters":13200,"station_id":"ce4bgv92rcd13ifvqcr0","pricing_plan_id":"cebpf4jnsgd1na2vs0mg"},{"bike_id":"bfd78388-62bb-45aa-8792-4a786470862a","system_id":"levelo_inurba_marseille","lat":43.310804,"lon":5.38359,"is_reserved":false,"is_disabled":false,"rental_uris":{"android":"levelo://app?vid=bfd78388-62bb-45aa-8792-4a786470862a","ios":"levelo://app?vid=bfd78388-62bb-45aa-8792-4a786470862a"},"vehicle_type_id":"4","last_reported":1707862059,"current_range_meters":0,"station_id":"ce4bgv92rcd13ifvqcr0","pricing_plan_id":"cebpf4jnsgd1na2vs0mg"},{"bike_id":"237d60d5-e9da-4c8d-9843-6915d4445eeb","system_id":"levelo_inurba_marseille","lat":43.302784,"lon":5.377158,"is_reserved":false,"is_disabled":false,"rental_uris":{"android":"levelo://app?vid=237d60d5-e9da-4c8d-9843-6915d4445eeb","ios":"levelo://app?vid=237d60d5-e9da-4c8d-9843-6915d4445eeb"},"vehicle_type_id":"4","last_reported":1707862059,"current_range_meters":19200,"station_id":"ce4bguh2rcd13ifvqcj0","pricing_plan_id":"cebpf4jnsgd1na2vs0mg"},{"bike_id":"80a3753b-7617-4f7f-a385-4542483aa143","system_id":"levelo_inurba_marseille","lat":43.310804,"lon":5.38359,"is_reserved":false,"is_disabled":false,"rental_uris":{"android":"levelo://app?vid=80a3753b-7617-4f7f-a385-4542483aa143","ios":"levelo://app?vid=80a3753b-7617-4f7f-a385-4542483aa143"},"vehicle_type_id":"4","last_reported":1707862059,"current_range_meters":25200,"station_id":"ce4bgv92rcd13ifvqcr0","pricing_plan_id":"cebpf4jnsgd1na2vs0mg"},{"bike_id":"9fbc3664-6855-4721-960a-9f9f9da0da99","system_id":"levelo_inurba_marseille","lat":43.31994,"lon":5.38149,"is_reserved":false,"is_disabled":false,"rental_uris":{"android":"levelo://app?vid=9fbc3664-6855-4721-960a-9f9f9da0da99","ios":"levelo://app?vid=9fbc3664-6855-4721-960a-9f9f9da0da99"},"vehicle_type_id":"4","last_reported":1707862059,"current_range_meters":18000,"station_id":"ce4bhr12rcd13ifvqhpg","pricing_plan_id":"cebpf4jnsgd1na2vs0mg"},{"bike_id":"0ec568e8-ea29-47b6-adf7-566d6e2149d4","system_id":"levelo_inurba_marseille","lat":43.319972,"lon":5.381469,"is_reserved":false,"is_disabled":false,"rental_uris":{"android":"levelo://app?vid=0ec568e8-ea29-47b6-adf7-566d6e2149d4","ios":"levelo://app?vid=0ec568e8-ea29-47b6-adf7-566d6e2149d4"},"vehicle_type_id":"4","last_reported":1707862059,"current_range_meters":15200,"station_id":"ce4bhr12rcd13ifvqhpg","pricing_plan_id":"cebpf4jnsgd1na2vs0mg"},{"bike_id":"904717e0-567f-402b-b8fb-82da03c63213","system_id":"levelo_inurba_marseille","lat":43.31993,"lon":5.38151,"is_reserved":false,"is_disabled":false,"rental_uris":{"android":"levelo://app?vid=904717e0-567f-402b-b8fb-82da03c63213","ios":"levelo://app?vid=904717e0-567f-402b-b8fb-82da03c63213"},"vehicle_type_id":"4","last_reported":1707862059,"current_range_meters":6400,"station_id":"ce4bhr12rcd13ifvqhpg","pricing_plan_id":"cebpf4jnsgd1na2vs0mg"},{"bike_id":"d60a56b1-8df5-46c7-9c58-03251d97f7ca","system_id":"levelo_inurba_marseille","lat":43.32,"lon":5.38151,"is_reserved":false,"is_disabled":false,"rental_uris":{"android":"levelo://app?vid=d60a56b1-8df5-46c7-9c58-03251d97f7ca","ios":"levelo://app?vid=d60a56b1-8df5-46c7-9c58-03251d97f7ca"},"vehicle_type_id":"4","last_reported":1707862059,"current_range_meters":0,"station_id":"ce4bhr12rcd13ifvqhpg","pricing_plan_id":"cebpf4jnsgd1na2vs0mg"},{"bike_id":"c37622e8-813d-4691-b64b-e5180e6ff89f","system_id":"levelo_inurba_marseille","lat":43.319935,"lon":5.381699,"is_reserved":false,"is_disabled":false,"rental_uris":{"android":"levelo://app?vid=c37622e8-813d-4691-b64b-e5180e6ff89f","ios":"levelo://app?vid=c37622e8-813d-4691-b64b-e5180e6ff89f"},"vehicle_type_id":"4","last_reported":1707862059,"current_range_meters":4800,"station_id":"ce4bhr12rcd13ifvqhpg","pricing_plan_id":"cebpf4jnsgd1na2vs0mg"},{"bike_id":"1ddcb4a9-2c2c-4499-8df2-9b141368eee9","system_id":"levelo_inurba_marseille","lat":43.319998,"lon":5.381575,"is_reserved":false,"is_disabled":false,"rental_uris":{"android":"levelo://app?vid=1ddcb4a9-2c2c-4499-8df2-9b141368eee9","ios":"levelo://app?vid=1ddcb4a9-2c2c-4499-8df2-9b141368eee9"},"vehicle_type_id":"4","last_reported":1707862059,"current_range_meters":26400,"station_id":"ce4bhr12rcd13ifvqhpg","pricing_plan_id":"cebpf4jnsgd1na2vs0mg"},{"bike_id":"42da6bc1-fcd8-439c-b7d8-afb4d34ba40c","system_id":"levelo_inurba_marseille","lat":43.32002,"lon":5.38161,"is_reserved":false,"is_disabled":false,"rental_uris":{"android":"levelo://app?vid=42da6bc1-fcd8-439c-b7d8-afb4d34ba40c","ios":"levelo://app?vid=42da6bc1-fcd8-439c-b7d8-afb4d34ba40c"},"vehicle_type_id":"4","last_reported":1707862059,"current_range_meters":13200,"station_id":"ce4bhr12rcd13ifvqhpg","pricing_plan_id":"cebpf4jnsgd1na2vs0mg"},{"bike_id":"7bd1634b-d63a-43e9-a475-e3e6f2cf2e3f","system_id":"levelo_inurba_marseille","lat":43.313571,"lon":5.384829,"is_reserved":false,"is_disabled":false,"rental_uris":{"android":"levelo://app?vid=7bd1634b-d63a-43e9-a475-e3e6f2cf2e3f","ios":"levelo://app?vid=7bd1634b-d63a-43e9-a475-e3e6f2cf2e3f"},"vehicle_type_id":"4","last_reported":1707862059,"current_range_meters":16000,"station_id":"ce4bgt92rcd13ifvqcf0","pricing_plan_id":"cebpf4jnsgd1na2vs0mg"},{"bike_id":"eb38be35-f1bb-41cd-a46b-4031f96374cb","system_id":"levelo_inurba_marseille","lat":43.313571,"lon":5.384829,"is_reserved":false,"is_disabled":false,"rental_uris":{"android":"levelo://app?vid=eb38be35-f1bb-41cd-a46b-4031f96374cb","ios":"levelo://app?vid=eb38be35-f1bb-41cd-a46b-4031f96374cb"},"vehicle_type_id":"4","last_reported":1707862059,"current_range_meters":11600,"station_id":"ce4bgt92rcd13ifvqcf0","pricing_plan_id":"cebpf4jnsgd1na2vs0mg"},{"bike_id":"f06c325c-ca09-4e77-8b37-5b027ef0241e","system_id":"levelo_inurba_marseille","lat":43.31358,"lon":5.38494,"is_reserved":false,"is_disabled":false,"rental_uris":{"android":"levelo://app?vid=f06c325c-ca09-4e77-8b37-5b027ef0241e","ios":"levelo://app?vid=f06c325c-ca09-4e77-8b37-5b027ef0241e"},"vehicle_type_id":"4","last_reported":1707862059,"current_range_meters":24400,"station_id":"ce4bgt92rcd13ifvqcf0","pricing_plan_id":"cebpf4jnsgd1na2vs0mg"},{"bike_id":"3606158b-1ca3-499d-bffc-9e2160b138d6","system_id":"levelo_inurba_marseille","lat":43.313571,"lon":5.384829,"is_reserved":false,"is_disabled":false,"rental_uris":{"android":"levelo://app?vid=3606158b-1ca3-499d-bffc-9e2160b138d6","ios":"levelo://app?vid=3606158b-1ca3-499d-bffc-9e2160b138d6"},"vehicle_type_id":"4","last_reported":1707862059,"current_range_meters":6800,"station_id":"ce4bgt92rcd13ifvqcf0","pricing_plan_id":"cebpf4jnsgd1na2vs0mg"},{"bike_id":"5ea52c01-4d83-46c8-a113-e0eb45e3e064","system_id":"levelo_inurba_marseille","lat":43.313571,"lon":5.384829,"is_reserved":false,"is_disabled":false,"rental_uris":{"android":"levelo://app?vid=5ea52c01-4d83-46c8-a113-e0eb45e3e064","ios":"levelo://app?vid=5ea52c01-4d83-46c8-a113-e0eb45e3e064"},"vehicle_type_id":"4","last_reported":1707862059,"current_range_meters":0,"station_id":"ce4bgt92rcd13ifvqcf0","pricing_plan_id":"cebpf4jnsgd1na2vs0mg"},{"bike_id":"7cefed0c-bc67-45e9-ae5c-9ee7aab22854","system_id":"levelo_inurba_marseille","lat":43.299721,"lon":5.371796,"is_reserved":false,"is_disabled":false,"rental_uris":{"android":"levelo://app?vid=7cefed0c-bc67-45e9-ae5c-9ee7aab22854","ios":"levelo://app?vid=7cefed0c-bc67-45e9-ae5c-9ee7aab22854"},"vehicle_type_id":"4","last_reported":1707862059,"current_range_meters":26800,"station_id":"ce4bgr92rcd13ifvqc7g","pricing_plan_id":"cebpf4jnsgd1na2vs0mg"},{"bike_id":"3c017e2a-71e6-4abf-aa04-e0ec67de8627","system_id":"levelo_inurba_marseille","lat":43.299222,"lon":5.365554,"is_reserved":false,"is_disabled":false,"rental_uris":{"android":"levelo://app?vid=3c017e2a-71e6-4abf-aa04-e0ec67de8627","ios":"levelo://app?vid=3c017e2a-71e6-4abf-aa04-e0ec67de8627"},"vehicle_type_id":"4","last_reported":1707862059,"current_range_meters":400,"station_id":"ce4bgm92rcd13ifvqbr0","pricing_plan_id":"cebpf4jnsgd1na2vs0mg"},{"bike_id":"3b6fd47c-f860-4967-b147-3526322b443e","system_id":"levelo_inurba_marseille","lat":43.311558,"lon":5.386751,"is_reserved":false,"is_disabled":false,"rental_uris":{"android":"levelo://app?vid=3b6fd47c-f860-4967-b147-3526322b443e","ios":"levelo://app?vid=3b6fd47c-f860-4967-b147-3526322b443e"},"vehicle_type_id":"4","last_reported":1707862059,"current_range_meters":14400,"station_id":"ce4bgv12rcd13ifvqcp0","pricing_plan_id":"cebpf4jnsgd1na2vs0mg"},{"bike_id":"23faa427-e19d-49cf-9dbe-025f8863f0f0","system_id":"levelo_inurba_marseille","lat":43.305364,"lon":5.384119,"is_reserved":false,"is_disabled":false,"rental_uris":{"android":"levelo://app?vid=23faa427-e19d-49cf-9dbe-025f8863f0f0","ios":"levelo://app?vid=23faa427-e19d-49cf-9dbe-025f8863f0f0"},"vehicle_type_id":"4","last_reported":1707862059,"current_range_meters":0,"station_id":"ce4bgg92rcd13ifvqb30","pricing_plan_id":"cebpf4jnsgd1na2vs0mg"},{"bike_id":"cd6f2179-83ee-4241-857c-8a069bded2c2","system_id":"levelo_inurba_marseille","lat":43.311722,"lon":5.387247,"is_reserved":false,"is_disabled":false,"rental_uris":{"android":"levelo://app?vid=cd6f2179-83ee-4241-857c-8a069bded2c2","ios":"levelo://app?vid=cd6f2179-83ee-4241-857c-8a069bded2c2"},"vehicle_type_id":"4","last_reported":1707862059,"current_range_meters":18000,"station_id":"ce4bgv12rcd13ifvqcp0","pricing_plan_id":"cebpf4jnsgd1na2vs0mg"},{"bike_id":"e406efc7-cf98-464d-8e41-281757aa4410","system_id":"levelo_inurba_marseille","lat":43.311722,"lon":5.387247,"is_reserved":false,"is_disabled":false,"rental_uris":{"android":"levelo://app?vid=e406efc7-cf98-464d-8e41-281757aa4410","ios":"levelo://app?vid=e406efc7-cf98-464d-8e41-281757aa4410"},"vehicle_type_id":"4","last_reported":1707862059,"current_range_meters":16400,"station_id":"ce4bgv12rcd13ifvqcp0","pricing_plan_id":"cebpf4jnsgd1na2vs0mg"},{"bike_id":"341e8b7c-6225-4213-a449-673c9dd37878","system_id":"levelo_inurba_marseille","lat":43.311722,"lon":5.387247,"is_reserved":false,"is_disabled":false,"rental_uris":{"android":"levelo://app?vid=341e8b7c-6225-4213-a449-673c9dd37878","ios":"levelo://app?vid=341e8b7c-6225-4213-a449-673c9dd37878"},"vehicle_type_id":"4","last_reported":1707862059,"current_range_meters":26400,"station_id":"ce4bgv12rcd13ifvqcp0","pricing_plan_id":"cebpf4jnsgd1na2vs0mg"},{"bike_id":"a8b5180e-f39f-407d-b5d0-52b35fd20ac4","system_id":"levelo_inurba_marseille","lat":43.311722,"lon":5.387247,"is_reserved":false,"is_disabled":false,"rental_uris":{"android":"levelo://app?vid=a8b5180e-f39f-407d-b5d0-52b35fd20ac4","ios":"levelo://app?vid=a8b5180e-f39f-407d-b5d0-52b35fd20ac4"},"vehicle_type_id":"4","last_reported":1707862059,"current_range_meters":31600,"station_id":"ce4bgv12rcd13ifvqcp0","pricing_plan_id":"cebpf4jnsgd1na2vs0mg"},{"bike_id":"852fb76c-c9b9-4562-b1a4-9dadcba1430c","system_id":"levelo_inurba_marseille","lat":43.311722,"lon":5.387247,"is_reserved":false,"is_disabled":false,"rental_uris":{"android":"levelo://app?vid=852fb76c-c9b9-4562-b1a4-9dadcba1430c","ios":"levelo://app?vid=852fb76c-c9b9-4562-b1a4-9dadcba1430c"},"vehicle_type_id":"4","last_reported":1707862059,"current_range_meters":4000,"station_id":"ce4bgv12rcd13ifvqcp0","pricing_plan_id":"cebpf4jnsgd1na2vs0mg"},{"bike_id":"367f63a4-44da-4fdf-94e9-d48104408a9e","system_id":"levelo_inurba_marseille","lat":43.297794,"lon":5.370888,"is_reserved":false,"is_disabled":false,"rental_uris":{"android":"levelo://app?vid=367f63a4-44da-4fdf-94e9-d48104408a9e","ios":"levelo://app?vid=367f63a4-44da-4fdf-94e9-d48104408a9e"},"vehicle_type_id":"4","last_reported":1707862059,"current_range_meters":0,"station_id":"ce4bgop2rcd13ifvqc1g","pricing_plan_id":"cebpf4jnsgd1na2vs0mg"},{"bike_id":"f9a328d6-c6dc-4cba-aea7-5d42634a1c6c","system_id":"levelo_inurba_marseille","lat":43.322872,"lon":5.382756,"is_reserved":false,"is_disabled":false,"rental_uris":{"android":"levelo://app?vid=f9a328d6-c6dc-4cba-aea7-5d42634a1c6c","ios":"levelo://app?vid=f9a328d6-c6dc-4cba-aea7-5d42634a1c6c"},"vehicle_type_id":"4","last_reported":1707862059,"current_range_meters":28800,"station_id":"ce4bhr12rcd13ifvqhqg","pricing_plan_id":"cebpf4jnsgd1na2vs0mg"},{"bike_id":"d74bd2a1-22ad-4021-869f-09a8873f8a42","system_id":"levelo_inurba_marseille","lat":43.322872,"lon":5.382756,"is_reserved":false,"is_disabled":false,"rental_uris":{"android":"levelo://app?vid=d74bd2a1-22ad-4021-869f-09a8873f8a42","ios":"levelo://app?vid=d74bd2a1-22ad-4021-869f-09a8873f8a42"},"vehicle_type_id":"4","last_reported":1707862059,"current_range_meters":28800,"station_id":"ce4bhr12rcd13ifvqhqg","pricing_plan_id":"cebpf4jnsgd1na2vs0mg"},{"bike_id":"007f2024-639c-4fe5-8402-f120b7de9fb8","system_id":"levelo_inurba_marseille","lat":43.322872,"lon":5.382756,"is_reserved":false,"is_disabled":false,"rental_uris":{"android":"levelo://app?vid=007f2024-639c-4fe5-8402-f120b7de9fb8","ios":"levelo://app?vid=007f2024-639c-4fe5-8402-f120b7de9fb8"},"vehicle_type_id":"4","last_reported":1707862059,"current_range_meters":20400,"station_id":"ce4bhr12rcd13ifvqhqg","pricing_plan_id":"cebpf4jnsgd1na2vs0mg"},{"bike_id":"aed9e4ad-9c1a-4a51-8095-58a12f0b44f4","system_id":"levelo_inurba_marseille","lat":43.322872,"lon":5.382756,"is_reserved":false,"is_disabled":false,"rental_uris":{"android":"levelo://app?vid=aed9e4ad-9c1a-4a51-8095-58a12f0b44f4","ios":"levelo://app?vid=aed9e4ad-9c1a-4a51-8095-58a12f0b44f4"},"vehicle_type_id":"4","last_reported":1707862059,"current_range_meters":31200,"station_id":"ce4bhr12rcd13ifvqhqg","pricing_plan_id":"cebpf4jnsgd1na2vs0mg"},{"bike_id":"24cbb04a-c763-4b6c-91c7-7ce4ce9a6969","system_id":"levelo_inurba_marseille","lat":43.32822,"lon":5.36686,"is_reserved":false,"is_disabled":false,"rental_uris":{"android":"levelo://app?vid=24cbb04a-c763-4b6c-91c7-7ce4ce9a6969","ios":"levelo://app?vid=24cbb04a-c763-4b6c-91c7-7ce4ce9a6969"},"vehicle_type_id":"4","last_reported":1707862059,"current_range_meters":20400,"station_id":"ce4bhs92rcd13ifvqi0g","pricing_plan_id":"cebpf4jnsgd1na2vs0mg"},{"bike_id":"ec21c626-faeb-41e5-9192-4d2bef3ee4d3","system_id":"levelo_inurba_marseille","lat":43.32822,"lon":5.36682,"is_reserved":false,"is_disabled":false,"rental_uris":{"android":"levelo://app?vid=ec21c626-faeb-41e5-9192-4d2bef3ee4d3","ios":"levelo://app?vid=ec21c626-faeb-41e5-9192-4d2bef3ee4d3"},"vehicle_type_id":"4","last_reported":1707862059,"current_range_meters":13200,"station_id":"ce4bhs92rcd13ifvqi0g","pricing_plan_id":"cebpf4jnsgd1na2vs0mg"},{"bike_id":"07a2b44b-47c4-46fe-b8d8-d7ad3b775366","system_id":"levelo_inurba_marseille","lat":43.32826,"lon":5.366809,"is_reserved":false,"is_disabled":false,"rental_uris":{"android":"levelo://app?vid=07a2b44b-47c4-46fe-b8d8-d7ad3b775366","ios":"levelo://app?vid=07a2b44b-47c4-46fe-b8d8-d7ad3b775366"},"vehicle_type_id":"4","last_reported":1707862059,"current_range_meters":30000,"station_id":"ce4bhs92rcd13ifvqi0g","pricing_plan_id":"cebpf4jnsgd1na2vs0mg"},{"bike_id":"c9b88aad-86c2-4a51-9436-08e8586a0048","system_id":"levelo_inurba_marseille","lat":43.32826,"lon":5.36678,"is_reserved":false,"is_disabled":false,"rental_uris":{"android":"levelo://app?vid=c9b88aad-86c2-4a51-9436-08e8586a0048","ios":"levelo://app?vid=c9b88aad-86c2-4a51-9436-08e8586a0048"},"vehicle_type_id":"4","last_reported":1707862059,"current_range_meters":23200,"station_id":"ce4bhs92rcd13ifvqi0g","pricing_plan_id":"cebpf4jnsgd1na2vs0mg"},{"bike_id":"b354d40e-f748-45df-b8a4-085ee0f39b31","system_id":"levelo_inurba_marseille","lat":43.32827,"lon":5.36682,"is_reserved":false,"is_disabled":false,"rental_uris":{"android":"levelo://app?vid=b354d40e-f748-45df-b8a4-085ee0f39b31","ios":"levelo://app?vid=b354d40e-f748-45df-b8a4-085ee0f39b31"},"vehicle_type_id":"4","last_reported":1707862059,"current_range_meters":28000,"station_id":"ce4bhs92rcd13ifvqi0g","pricing_plan_id":"cebpf4jnsgd1na2vs0mg"},{"bike_id":"eec18b1c-bcf1-4268-8859-b234d772b467","system_id":"levelo_inurba_marseille","lat":43.32828,"lon":5.3668,"is_reserved":false,"is_disabled":false,"rental_uris":{"android":"levelo://app?vid=eec18b1c-bcf1-4268-8859-b234d772b467","ios":"levelo://app?vid=eec18b1c-bcf1-4268-8859-b234d772b467"},"vehicle_type_id":"4","last_reported":1707862059,"current_range_meters":15600,"station_id":"ce4bhs92rcd13ifvqi0g","pricing_plan_id":"cebpf4jnsgd1na2vs0mg"},{"bike_id":"d059372d-713e-4306-a0dc-ef5b2b5ad059","system_id":"levelo_inurba_marseille","lat":43.32829,"lon":5.36683,"is_reserved":false,"is_disabled":false,"rental_uris":{"android":"levelo://app?vid=d059372d-713e-4306-a0dc-ef5b2b5ad059","ios":"levelo://app?vid=d059372d-713e-4306-a0dc-ef5b2b5ad059"},"vehicle_type_id":"4","last_reported":1707862059,"current_range_meters":7600,"station_id":"ce4bhs92rcd13ifvqi0g","pricing_plan_id":"cebpf4jnsgd1na2vs0mg"},{"bike_id":"8d4d4aba-3495-4235-ada7-809a0bcb5c57","system_id":"levelo_inurba_marseille","lat":43.328291,"lon":5.366779,"is_reserved":false,"is_disabled":false,"rental_uris":{"android":"levelo://app?vid=8d4d4aba-3495-4235-ada7-809a0bcb5c57","ios":"levelo://app?vid=8d4d4aba-3495-4235-ada7-809a0bcb5c57"},"vehicle_type_id":"4","last_reported":1707862059,"current_range_meters":26800,"station_id":"ce4bhs92rcd13ifvqi0g","pricing_plan_id":"cebpf4jnsgd1na2vs0mg"},{"bike_id":"b1ae39ac-e250-4a6a-9a12-58352f8b9818","system_id":"levelo_inurba_marseille","lat":43.3283,"lon":5.36686,"is_reserved":false,"is_disabled":false,"rental_uris":{"android":"levelo://app?vid=b1ae39ac-e250-4a6a-9a12-58352f8b9818","ios":"levelo://app?vid=b1ae39ac-e250-4a6a-9a12-58352f8b9818"},"vehicle_type_id":"4","last_reported":1707862059,"current_range_meters":9200,"station_id":"ce4bhs92rcd13ifvqi0g","pricing_plan_id":"cebpf4jnsgd1na2vs0mg"},{"bike_id":"530b0293-faac-450b-b9c9-f6bd0cb4b490","system_id":"levelo_inurba_marseille","lat":43.3283,"lon":5.36684,"is_reserved":false,"is_disabled":false,"rental_uris":{"android":"levelo://app?vid=530b0293-faac-450b-b9c9-f6bd0cb4b490","ios":"levelo://app?vid=530b0293-faac-450b-b9c9-f6bd0cb4b490"},"vehicle_type_id":"4","last_reported":1707862059,"current_range_meters":16400,"station_id":"ce4bhs92rcd13ifvqi0g","pricing_plan_id":"cebpf4jnsgd1na2vs0mg"},{"bike_id":"41cabaa6-fb04-4591-b0e8-079b09bfd970","system_id":"levelo_inurba_marseille","lat":43.3283,"lon":5.36681,"is_reserved":false,"is_disabled":false,"rental_uris":{"android":"levelo://app?vid=41cabaa6-fb04-4591-b0e8-079b09bfd970","ios":"levelo://app?vid=41cabaa6-fb04-4591-b0e8-079b09bfd970"},"vehicle_type_id":"4","last_reported":1707862059,"current_range_meters":0,"station_id":"ce4bhs92rcd13ifvqi0g","pricing_plan_id":"cebpf4jnsgd1na2vs0mg"},{"bike_id":"6df14f4e-5762-4688-823c-207c1d70636e","system_id":"levelo_inurba_marseille","lat":43.3283,"lon":5.3668,"is_reserved":false,"is_disabled":false,"rental_uris":{"android":"levelo://app?vid=6df14f4e-5762-4688-823c-207c1d70636e","ios":"levelo://app?vid=6df14f4e-5762-4688-823c-207c1d70636e"},"vehicle_type_id":"4","last_reported":1707862059,"current_range_meters":8400,"station_id":"ce4bhs92rcd13ifvqi0g","pricing_plan_id":"cebpf4jnsgd1na2vs0mg"},{"bike_id":"2deee51f-fb5a-4bcb-a500-c4d35805e5a8","system_id":"levelo_inurba_marseille","lat":43.32831,"lon":5.36685,"is_reserved":false,"is_disabled":false,"rental_uris":{"android":"levelo://app?vid=2deee51f-fb5a-4bcb-a500-c4d35805e5a8","ios":"levelo://app?vid=2deee51f-fb5a-4bcb-a500-c4d35805e5a8"},"vehicle_type_id":"4","last_reported":1707862059,"current_range_meters":23600,"station_id":"ce4bhs92rcd13ifvqi0g","pricing_plan_id":"cebpf4jnsgd1na2vs0mg"},{"bike_id":"f41ceea4-9289-4d6b-990c-9f2656a72f3b","system_id":"levelo_inurba_marseille","lat":43.32831,"lon":5.3668,"is_reserved":false,"is_disabled":false,"rental_uris":{"android":"levelo://app?vid=f41ceea4-9289-4d6b-990c-9f2656a72f3b","ios":"levelo://app?vid=f41ceea4-9289-4d6b-990c-9f2656a72f3b"},"vehicle_type_id":"4","last_reported":1707862059,"current_range_meters":6800,"station_id":"ce4bhs92rcd13ifvqi0g","pricing_plan_id":"cebpf4jnsgd1na2vs0mg"},{"bike_id":"7c47e388-9433-4092-857a-2e1a28e7faaa","system_id":"levelo_inurba_marseille","lat":43.32831,"lon":5.36673,"is_reserved":false,"is_disabled":false,"rental_uris":{"android":"levelo://app?vid=7c47e388-9433-4092-857a-2e1a28e7faaa","ios":"levelo://app?vid=7c47e388-9433-4092-857a-2e1a28e7faaa"},"vehicle_type_id":"4","last_reported":1707862059,"current_range_meters":30400,"station_id":"ce4bhs92rcd13ifvqi0g","pricing_plan_id":"cebpf4jnsgd1na2vs0mg"},{"bike_id":"00c486e2-5b6f-4240-9c00-f34f4cd392e2","system_id":"levelo_inurba_marseille","lat":43.328315,"lon":5.366773,"is_reserved":false,"is_disabled":false,"rental_uris":{"android":"levelo://app?vid=00c486e2-5b6f-4240-9c00-f34f4cd392e2","ios":"levelo://app?vid=00c486e2-5b6f-4240-9c00-f34f4cd392e2"},"vehicle_type_id":"4","last_reported":1707862059,"current_range_meters":20800,"station_id":"ce4bhs92rcd13ifvqi0g","pricing_plan_id":"cebpf4jnsgd1na2vs0mg"},{"bike_id":"e53477e0-6f81-44d0-bf92-8c0c4ae8ef5b","system_id":"levelo_inurba_marseille","lat":43.328321,"lon":5.366865,"is_reserved":false,"is_disabled":false,"rental_uris":{"android":"levelo://app?vid=e53477e0-6f81-44d0-bf92-8c0c4ae8ef5b","ios":"levelo://app?vid=e53477e0-6f81-44d0-bf92-8c0c4ae8ef5b"},"vehicle_type_id":"4","last_reported":1707862059,"current_range_meters":23600,"station_id":"ce4bhs92rcd13ifvqi0g","pricing_plan_id":"cebpf4jnsgd1na2vs0mg"},{"bike_id":"8b36ce43-3bc7-4f8a-bb1e-1f87c12ac26a","system_id":"levelo_inurba_marseille","lat":43.328338,"lon":5.366752,"is_reserved":false,"is_disabled":false,"rental_uris":{"android":"levelo://app?vid=8b36ce43-3bc7-4f8a-bb1e-1f87c12ac26a","ios":"levelo://app?vid=8b36ce43-3bc7-4f8a-bb1e-1f87c12ac26a"},"vehicle_type_id":"4","last_reported":1707862059,"current_range_meters":13200,"station_id":"ce4bhs92rcd13ifvqi0g","pricing_plan_id":"cebpf4jnsgd1na2vs0mg"},{"bike_id":"8bd326d5-8ef8-4e43-9eb7-d4dfbed48ee1","system_id":"levelo_inurba_marseille","lat":43.32835,"lon":5.36692,"is_reserved":false,"is_disabled":false,"rental_uris":{"android":"levelo://app?vid=8bd326d5-8ef8-4e43-9eb7-d4dfbed48ee1","ios":"levelo://app?vid=8bd326d5-8ef8-4e43-9eb7-d4dfbed48ee1"},"vehicle_type_id":"4","last_reported":1707862059,"current_range_meters":4000,"station_id":"ce4bhs92rcd13ifvqi0g","pricing_plan_id":"cebpf4jnsgd1na2vs0mg"},{"bike_id":"38c9b4a3-3930-4aa1-aad5-ceff1d6b05fe","system_id":"levelo_inurba_marseille","lat":43.32835,"lon":5.36688,"is_reserved":false,"is_disabled":false,"rental_uris":{"android":"levelo://app?vid=38c9b4a3-3930-4aa1-aad5-ceff1d6b05fe","ios":"levelo://app?vid=38c9b4a3-3930-4aa1-aad5-ceff1d6b05fe"},"vehicle_type_id":"4","last_reported":1707862059,"current_range_meters":13200,"station_id":"ce4bhs92rcd13ifvqi0g","pricing_plan_id":"cebpf4jnsgd1na2vs0mg"},{"bike_id":"f4bc5f5b-9db1-4cc7-91ef-45246b43f923","system_id":"levelo_inurba_marseille","lat":43.297163,"lon":5.365866,"is_reserved":false,"is_disabled":false,"rental_uris":{"android":"levelo://app?vid=f4bc5f5b-9db1-4cc7-91ef-45246b43f923","ios":"levelo://app?vid=f4bc5f5b-9db1-4cc7-91ef-45246b43f923"},"vehicle_type_id":"4","last_reported":1707862059,"current_range_meters":18800,"station_id":"ce4bgn12rcd13ifvqbt0","pricing_plan_id":"cebpf4jnsgd1na2vs0mg"},{"bike_id":"ca9eb2bd-76f0-467a-b34d-3f09418a4a5b","system_id":"levelo_inurba_marseille","lat":43.297163,"lon":5.365866,"is_reserved":false,"is_disabled":false,"rental_uris":{"android":"levelo://app?vid=ca9eb2bd-76f0-467a-b34d-3f09418a4a5b","ios":"levelo://app?vid=ca9eb2bd-76f0-467a-b34d-3f09418a4a5b"},"vehicle_type_id":"4","last_reported":1707862059,"current_range_meters":30400,"station_id":"ce4bgn12rcd13ifvqbt0","pricing_plan_id":"cebpf4jnsgd1na2vs0mg"},{"bike_id":"c4b5125b-06d0-4865-b239-c248f4688648","system_id":"levelo_inurba_marseille","lat":43.29841,"lon":5.3773,"is_reserved":false,"is_disabled":false,"rental_uris":{"android":"levelo://app?vid=c4b5125b-06d0-4865-b239-c248f4688648","ios":"levelo://app?vid=c4b5125b-06d0-4865-b239-c248f4688648"},"vehicle_type_id":"4","last_reported":1707862059,"current_range_meters":6400,"station_id":"","pricing_plan_id":"cebpf4jnsgd1na2vs0mg"},{"bike_id":"8c5f1e27-1508-4878-afb8-78079d9b7dfb","system_id":"levelo_inurba_marseille","lat":43.29738,"lon":5.3752,"is_reserved":false,"is_disabled":false,"rental_uris":{"android":"levelo://app?vid=8c5f1e27-1508-4878-afb8-78079d9b7dfb","ios":"levelo://app?vid=8c5f1e27-1508-4878-afb8-78079d9b7dfb"},"vehicle_type_id":"4","last_reported":1707862059,"current_range_meters":800,"station_id":"","pricing_plan_id":"cebpf4jnsgd1na2vs0mg"},{"bike_id":"6cb5fe9b-7fa7-46b4-8d58-232d6ca99024","system_id":"levelo_inurba_marseille","lat":43.295953,"lon":5.367593,"is_reserved":false,"is_disabled":false,"rental_uris":{"android":"levelo://app?vid=6cb5fe9b-7fa7-46b4-8d58-232d6ca99024","ios":"levelo://app?vid=6cb5fe9b-7fa7-46b4-8d58-232d6ca99024"},"vehicle_type_id":"4","last_reported":1707862059,"current_range_meters":15200,"station_id":"ce4bgph2rcd13ifvqc2g","pricing_plan_id":"cebpf4jnsgd1na2vs0mg"},{"bike_id":"5bc90b23-48d7-4673-9dee-8676e1407ab3","system_id":"levelo_inurba_marseille","lat":43.296131,"lon":5.370791,"is_reserved":false,"is_disabled":false,"rental_uris":{"android":"levelo://app?vid=5bc90b23-48d7-4673-9dee-8676e1407ab3","ios":"levelo://app?vid=5bc90b23-48d7-4673-9dee-8676e1407ab3"},"vehicle_type_id":"4","last_reported":1707862059,"current_range_meters":6000,"station_id":"ce4bgnh2rcd13ifvqc0g","pricing_plan_id":"cebpf4jnsgd1na2vs0mg"},{"bike_id":"2036ca2a-54b9-488c-9bb7-71d3460d5f44","system_id":"levelo_inurba_marseille","lat":43.299028,"lon":5.381509,"is_reserved":false,"is_disabled":false,"rental_uris":{"android":"levelo://app?vid=2036ca2a-54b9-488c-9bb7-71d3460d5f44","ios":"levelo://app?vid=2036ca2a-54b9-488c-9bb7-71d3460d5f44"},"vehicle_type_id":"4","last_reported":1707862059,"current_range_meters":12400,"station_id":"ce4bgj12rcd13ifvqbc0","pricing_plan_id":"cebpf4jnsgd1na2vs0mg"},{"bike_id":"095b561f-b67d-4dfc-8b7b-24904c0d74fe","system_id":"levelo_inurba_marseille","lat":43.3176,"lon":5.39006,"is_reserved":false,"is_disabled":false,"rental_uris":{"android":"levelo://app?vid=095b561f-b67d-4dfc-8b7b-24904c0d74fe","ios":"levelo://app?vid=095b561f-b67d-4dfc-8b7b-24904c0d74fe"},"vehicle_type_id":"4","last_reported":1707862059,"current_range_meters":22000,"station_id":"ce4bhqp2rcd13ifvqhng","pricing_plan_id":"cebpf4jnsgd1na2vs0mg"},{"bike_id":"fb3cc136-12bf-49fc-ab43-99af857406ff","system_id":"levelo_inurba_marseille","lat":43.317557,"lon":5.390173,"is_reserved":false,"is_disabled":false,"rental_uris":{"android":"levelo://app?vid=fb3cc136-12bf-49fc-ab43-99af857406ff","ios":"levelo://app?vid=fb3cc136-12bf-49fc-ab43-99af857406ff"},"vehicle_type_id":"4","last_reported":1707862059,"current_range_meters":12800,"station_id":"ce4bhqp2rcd13ifvqhng","pricing_plan_id":"cebpf4jnsgd1na2vs0mg"},{"bike_id":"0d568f49-9e25-417a-91e9-babe78949eca","system_id":"levelo_inurba_marseille","lat":43.317557,"lon":5.390173,"is_reserved":false,"is_disabled":false,"rental_uris":{"android":"levelo://app?vid=0d568f49-9e25-417a-91e9-babe78949eca","ios":"levelo://app?vid=0d568f49-9e25-417a-91e9-babe78949eca"},"vehicle_type_id":"4","last_reported":1707862059,"current_range_meters":31600,"station_id":"ce4bhqp2rcd13ifvqhng","pricing_plan_id":"cebpf4jnsgd1na2vs0mg"},{"bike_id":"a49498e4-76a2-4a02-ae1f-68c796c15f59","system_id":"levelo_inurba_marseille","lat":43.31753,"lon":5.39015,"is_reserved":false,"is_disabled":false,"rental_uris":{"android":"levelo://app?vid=a49498e4-76a2-4a02-ae1f-68c796c15f59","ios":"levelo://app?vid=a49498e4-76a2-4a02-ae1f-68c796c15f59"},"vehicle_type_id":"4","last_reported":1707862059,"current_range_meters":800,"station_id":"ce4bhqp2rcd13ifvqhng","pricing_plan_id":"cebpf4jnsgd1na2vs0mg"},{"bike_id":"39c94f4e-94d9-4b12-aff8-cdb6b284c034","system_id":"levelo_inurba_marseille","lat":43.317557,"lon":5.390173,"is_reserved":false,"is_disabled":false,"rental_uris":{"android":"levelo://app?vid=39c94f4e-94d9-4b12-aff8-cdb6b284c034","ios":"levelo://app?vid=39c94f4e-94d9-4b12-aff8-cdb6b284c034"},"vehicle_type_id":"4","last_reported":1707862059,"current_range_meters":21600,"station_id":"ce4bhqp2rcd13ifvqhng","pricing_plan_id":"cebpf4jnsgd1na2vs0mg"},{"bike_id":"46fddee0-8afd-4938-8611-aae2e5c099d9","system_id":"levelo_inurba_marseille","lat":43.317557,"lon":5.390173,"is_reserved":false,"is_disabled":false,"rental_uris":{"android":"levelo://app?vid=46fddee0-8afd-4938-8611-aae2e5c099d9","ios":"levelo://app?vid=46fddee0-8afd-4938-8611-aae2e5c099d9"},"vehicle_type_id":"4","last_reported":1707862059,"current_range_meters":29200,"station_id":"ce4bhqp2rcd13ifvqhng","pricing_plan_id":"cebpf4jnsgd1na2vs0mg"},{"bike_id":"13db1a0a-84c8-4ba0-87f6-9800285e27fa","system_id":"levelo_inurba_marseille","lat":43.317557,"lon":5.390173,"is_reserved":false,"is_disabled":false,"rental_uris":{"android":"levelo://app?vid=13db1a0a-84c8-4ba0-87f6-9800285e27fa","ios":"levelo://app?vid=13db1a0a-84c8-4ba0-87f6-9800285e27fa"},"vehicle_type_id":"4","last_reported":1707862059,"current_range_meters":31600,"station_id":"ce4bhqp2rcd13ifvqhng","pricing_plan_id":"cebpf4jnsgd1na2vs0mg"},{"bike_id":"9310559c-22d3-4744-8b16-cacb48dba489","system_id":"levelo_inurba_marseille","lat":43.317557,"lon":5.390173,"is_reserved":false,"is_disabled":false,"rental_uris":{"android":"levelo://app?vid=9310559c-22d3-4744-8b16-cacb48dba489","ios":"levelo://app?vid=9310559c-22d3-4744-8b16-cacb48dba489"},"vehicle_type_id":"4","last_reported":1707862059,"current_range_meters":31600,"station_id":"ce4bhqp2rcd13ifvqhng","pricing_plan_id":"cebpf4jnsgd1na2vs0mg"},{"bike_id":"8f958314-f45a-4b31-bd47-44563cc52c2c","system_id":"levelo_inurba_marseille","lat":43.309589,"lon":5.390258,"is_reserved":false,"is_disabled":false,"rental_uris":{"android":"levelo://app?vid=8f958314-f45a-4b31-bd47-44563cc52c2c","ios":"levelo://app?vid=8f958314-f45a-4b31-bd47-44563cc52c2c"},"vehicle_type_id":"4","last_reported":1707862059,"current_range_meters":6000,"station_id":"ce4bgup2rcd13ifvqco0","pricing_plan_id":"cebpf4jnsgd1na2vs0mg"},{"bike_id":"1283398e-1c0e-4cca-9df7-0413f541a207","system_id":"levelo_inurba_marseille","lat":43.317557,"lon":5.390173,"is_reserved":false,"is_disabled":false,"rental_uris":{"android":"levelo://app?vid=1283398e-1c0e-4cca-9df7-0413f541a207","ios":"levelo://app?vid=1283398e-1c0e-4cca-9df7-0413f541a207"},"vehicle_type_id":"4","last_reported":1707862059,"current_range_meters":19200,"station_id":"ce4bhqp2rcd13ifvqhng","pricing_plan_id":"cebpf4jnsgd1na2vs0mg"},{"bike_id":"6bbdbcf9-8545-4c1a-866f-b1aacd2086cc","system_id":"levelo_inurba_marseille","lat":43.317557,"lon":5.390173,"is_reserved":false,"is_disabled":false,"rental_uris":{"android":"levelo://app?vid=6bbdbcf9-8545-4c1a-866f-b1aacd2086cc","ios":"levelo://app?vid=6bbdbcf9-8545-4c1a-866f-b1aacd2086cc"},"vehicle_type_id":"4","last_reported":1707862059,"current_range_meters":21200,"station_id":"ce4bhqp2rcd13ifvqhng","pricing_plan_id":"cebpf4jnsgd1na2vs0mg"},{"bike_id":"a66fec16-5c26-4073-bc2a-b4cafe2573db","system_id":"levelo_inurba_marseille","lat":43.2975,"lon":5.37929,"is_reserved":false,"is_disabled":false,"rental_uris":{"android":"levelo://app?vid=a66fec16-5c26-4073-bc2a-b4cafe2573db","ios":"levelo://app?vid=a66fec16-5c26-4073-bc2a-b4cafe2573db"},"vehicle_type_id":"4","last_reported":1707862059,"current_range_meters":3200,"station_id":"","pricing_plan_id":"cebpf4jnsgd1na2vs0mg"},{"bike_id":"87dca717-0ccb-4731-8b48-48db74325e38","system_id":"levelo_inurba_marseille","lat":43.29806,"lon":5.38101,"is_reserved":false,"is_disabled":false,"rental_uris":{"android":"levelo://app?vid=87dca717-0ccb-4731-8b48-48db74325e38","ios":"levelo://app?vid=87dca717-0ccb-4731-8b48-48db74325e38"},"vehicle_type_id":"4","last_reported":1707862059,"current_range_meters":31200,"station_id":"ce4bgip2rcd13ifvqbb0","pricing_plan_id":"cebpf4jnsgd1na2vs0mg"},{"bike_id":"cfbbf573-b4f8-4883-baf0-ceacbdeda221","system_id":"levelo_inurba_marseille","lat":43.29802,"lon":5.38097,"is_reserved":false,"is_disabled":false,"rental_uris":{"android":"levelo://app?vid=cfbbf573-b4f8-4883-baf0-ceacbdeda221","ios":"levelo://app?vid=cfbbf573-b4f8-4883-baf0-ceacbdeda221"},"vehicle_type_id":"4","last_reported":1707862059,"current_range_meters":13200,"station_id":"ce4bgip2rcd13ifvqbb0","pricing_plan_id":"cebpf4jnsgd1na2vs0mg"},{"bike_id":"4cb774ee-a3b1-469e-9dad-606626954123","system_id":"levelo_inurba_marseille","lat":43.304274,"lon":5.388873,"is_reserved":false,"is_disabled":false,"rental_uris":{"android":"levelo://app?vid=4cb774ee-a3b1-469e-9dad-606626954123","ios":"levelo://app?vid=4cb774ee-a3b1-469e-9dad-606626954123"},"vehicle_type_id":"4","last_reported":1707862059,"current_range_meters":3600,"station_id":"ce4bgk12rcd13ifvqbi0","pricing_plan_id":"cebpf4jnsgd1na2vs0mg"},{"bike_id":"88dcc8fa-eda2-406e-8daa-4a86ad32696c","system_id":"levelo_inurba_marseille","lat":43.296277,"lon":5.377108,"is_reserved":false,"is_disabled":false,"rental_uris":{"android":"levelo://app?vid=88dcc8fa-eda2-406e-8daa-4a86ad32696c","ios":"levelo://app?vid=88dcc8fa-eda2-406e-8daa-4a86ad32696c"},"vehicle_type_id":"4","last_reported":1707862059,"current_range_meters":28000,"station_id":"ce4bgi92rcd13ifvqb90","pricing_plan_id":"cebpf4jnsgd1na2vs0mg"},{"bike_id":"705da99b-eb32-4593-9ce5-3afb7f6b914a","system_id":"levelo_inurba_marseille","lat":43.2961,"lon":5.37708,"is_reserved":false,"is_disabled":false,"rental_uris":{"android":"levelo://app?vid=705da99b-eb32-4593-9ce5-3afb7f6b914a","ios":"levelo://app?vid=705da99b-eb32-4593-9ce5-3afb7f6b914a"},"vehicle_type_id":"4","last_reported":1707862059,"current_range_meters":28800,"station_id":"ce4bgi92rcd13ifvqb90","pricing_plan_id":"cebpf4jnsgd1na2vs0mg"},{"bike_id":"67c52db3-aaf2-4804-9c38-447347679dd2","system_id":"levelo_inurba_marseille","lat":43.299717,"lon":5.384845,"is_reserved":false,"is_disabled":false,"rental_uris":{"android":"levelo://app?vid=67c52db3-aaf2-4804-9c38-447347679dd2","ios":"levelo://app?vid=67c52db3-aaf2-4804-9c38-447347679dd2"},"vehicle_type_id":"4","last_reported":1707862059,"current_range_meters":3600,"station_id":"ce4bgj92rcd13ifvqbd0","pricing_plan_id":"cebpf4jnsgd1na2vs0mg"},{"bike_id":"721d70a9-235a-403f-a26d-65c28fb1d0e1","system_id":"levelo_inurba_marseille","lat":43.29968,"lon":5.385,"is_reserved":false,"is_disabled":false,"rental_uris":{"android":"levelo://app?vid=721d70a9-235a-403f-a26d-65c28fb1d0e1","ios":"levelo://app?vid=721d70a9-235a-403f-a26d-65c28fb1d0e1"},"vehicle_type_id":"4","last_reported":1707862059,"current_range_meters":0,"station_id":"ce4bgj92rcd13ifvqbd0","pricing_plan_id":"cebpf4jnsgd1na2vs0mg"},{"bike_id":"717fae1b-74a7-49b2-b4c9-1f50976a1b71","system_id":"levelo_inurba_marseille","lat":43.32367,"lon":5.388836,"is_reserved":false,"is_disabled":false,"rental_uris":{"android":"levelo://app?vid=717fae1b-74a7-49b2-b4c9-1f50976a1b71","ios":"levelo://app?vid=717fae1b-74a7-49b2-b4c9-1f50976a1b71"},"vehicle_type_id":"4","last_reported":1707862059,"current_range_meters":20800,"station_id":"ce4bhqp2rcd13ifvqhog","pricing_plan_id":"cebpf4jnsgd1na2vs0mg"},{"bike_id":"54e8eba2-941c-4731-934d-26d57084fdc3","system_id":"levelo_inurba_marseille","lat":43.32367,"lon":5.388836,"is_reserved":false,"is_disabled":false,"rental_uris":{"android":"levelo://app?vid=54e8eba2-941c-4731-934d-26d57084fdc3","ios":"levelo://app?vid=54e8eba2-941c-4731-934d-26d57084fdc3"},"vehicle_type_id":"4","last_reported":1707862059,"current_range_meters":26000,"station_id":"ce4bhqp2rcd13ifvqhog","pricing_plan_id":"cebpf4jnsgd1na2vs0mg"},{"bike_id":"dda016c9-25a8-4e98-89c2-61cf41b68115","system_id":"levelo_inurba_marseille","lat":43.32367,"lon":5.388836,"is_reserved":false,"is_disabled":false,"rental_uris":{"android":"levelo://app?vid=dda016c9-25a8-4e98-89c2-61cf41b68115","ios":"levelo://app?vid=dda016c9-25a8-4e98-89c2-61cf41b68115"},"vehicle_type_id":"4","last_reported":1707862059,"current_range_meters":14000,"station_id":"ce4bhqp2rcd13ifvqhog","pricing_plan_id":"cebpf4jnsgd1na2vs0mg"},{"bike_id":"5d8b3fba-147e-4ac8-adcf-37e2745b4edf","system_id":"levelo_inurba_marseille","lat":43.32367,"lon":5.388836,"is_reserved":false,"is_disabled":false,"rental_uris":{"android":"levelo://app?vid=5d8b3fba-147e-4ac8-adcf-37e2745b4edf","ios":"levelo://app?vid=5d8b3fba-147e-4ac8-adcf-37e2745b4edf"},"vehicle_type_id":"4","last_reported":1707862059,"current_range_meters":16000,"station_id":"ce4bhqp2rcd13ifvqhog","pricing_plan_id":"cebpf4jnsgd1na2vs0mg"},{"bike_id":"47bc32f7-4fbc-4398-af5d-0b153aeef64e","system_id":"levelo_inurba_marseille","lat":43.32367,"lon":5.388836,"is_reserved":false,"is_disabled":false,"rental_uris":{"android":"levelo://app?vid=47bc32f7-4fbc-4398-af5d-0b153aeef64e","ios":"levelo://app?vid=47bc32f7-4fbc-4398-af5d-0b153aeef64e"},"vehicle_type_id":"4","last_reported":1707862059,"current_range_meters":20800,"station_id":"ce4bhqp2rcd13ifvqhog","pricing_plan_id":"cebpf4jnsgd1na2vs0mg"},{"bike_id":"c814b3c0-3206-4333-9010-f90f4bcf60b7","system_id":"levelo_inurba_marseille","lat":43.32367,"lon":5.38889,"is_reserved":false,"is_disabled":false,"rental_uris":{"android":"levelo://app?vid=c814b3c0-3206-4333-9010-f90f4bcf60b7","ios":"levelo://app?vid=c814b3c0-3206-4333-9010-f90f4bcf60b7"},"vehicle_type_id":"4","last_reported":1707862059,"current_range_meters":25600,"station_id":"ce4bhqp2rcd13ifvqhog","pricing_plan_id":"cebpf4jnsgd1na2vs0mg"},{"bike_id":"e80bed06-e4fd-45a5-8a38-99f783be2019","system_id":"levelo_inurba_marseille","lat":43.29602,"lon":5.381084,"is_reserved":false,"is_disabled":false,"rental_uris":{"android":"levelo://app?vid=e80bed06-e4fd-45a5-8a38-99f783be2019","ios":"levelo://app?vid=e80bed06-e4fd-45a5-8a38-99f783be2019"},"vehicle_type_id":"4","last_reported":1707862059,"current_range_meters":21200,"station_id":"ce4bgl12rcd13ifvqbo0","pricing_plan_id":"cebpf4jnsgd1na2vs0mg"},{"bike_id":"3fb8420d-be63-4aa2-b21d-6c6cad7b94c4","system_id":"levelo_inurba_marseille","lat":43.29602,"lon":5.381084,"is_reserved":false,"is_disabled":false,"rental_uris":{"android":"levelo://app?vid=3fb8420d-be63-4aa2-b21d-6c6cad7b94c4","ios":"levelo://app?vid=3fb8420d-be63-4aa2-b21d-6c6cad7b94c4"},"vehicle_type_id":"4","last_reported":1707862059,"current_range_meters":27200,"station_id":"ce4bgl12rcd13ifvqbo0","pricing_plan_id":"cebpf4jnsgd1na2vs0mg"},{"bike_id":"ccaee6e8-b835-4a9e-abd7-24052126f517","system_id":"levelo_inurba_marseille","lat":43.293259,"lon":5.371586,"is_reserved":false,"is_disabled":false,"rental_uris":{"android":"levelo://app?vid=ccaee6e8-b835-4a9e-abd7-24052126f517","ios":"levelo://app?vid=ccaee6e8-b835-4a9e-abd7-24052126f517"},"vehicle_type_id":"4","last_reported":1707862059,"current_range_meters":2800,"station_id":"ce4bgh92rcd13ifvqb40","pricing_plan_id":"cebpf4jnsgd1na2vs0mg"},{"bike_id":"60af9e2b-e0cb-44b4-94d7-aff835024e14","system_id":"levelo_inurba_marseille","lat":43.293126,"lon":5.371825,"is_reserved":false,"is_disabled":false,"rental_uris":{"android":"levelo://app?vid=60af9e2b-e0cb-44b4-94d7-aff835024e14","ios":"levelo://app?vid=60af9e2b-e0cb-44b4-94d7-aff835024e14"},"vehicle_type_id":"4","last_reported":1707862059,"current_range_meters":19600,"station_id":"","pricing_plan_id":"cebpf4jnsgd1na2vs0mg"},{"bike_id":"0a6df142-dec7-4118-9abf-f8e01f4cef96","system_id":"levelo_inurba_marseille","lat":43.293259,"lon":5.371586,"is_reserved":false,"is_disabled":false,"rental_uris":{"android":"levelo://app?vid=0a6df142-dec7-4118-9abf-f8e01f4cef96","ios":"levelo://app?vid=0a6df142-dec7-4118-9abf-f8e01f4cef96"},"vehicle_type_id":"4","last_reported":1707862059,"current_range_meters":17200,"station_id":"ce4bgh92rcd13ifvqb40","pricing_plan_id":"cebpf4jnsgd1na2vs0mg"},{"bike_id":"610bccaf-3603-4267-bf80-75944341c40f","system_id":"levelo_inurba_marseille","lat":43.292749,"lon":5.368402,"is_reserved":false,"is_disabled":false,"rental_uris":{"android":"levelo://app?vid=610bccaf-3603-4267-bf80-75944341c40f","ios":"levelo://app?vid=610bccaf-3603-4267-bf80-75944341c40f"},"vehicle_type_id":"4","last_reported":1707862059,"current_range_meters":23600,"station_id":"ce4bhbp2rcd13ifvqesg","pricing_plan_id":"cebpf4jnsgd1na2vs0mg"},{"bike_id":"cd5f7f77-a593-43f9-8f9d-7be78caadade","system_id":"levelo_inurba_marseille","lat":43.292749,"lon":5.368402,"is_reserved":false,"is_disabled":false,"rental_uris":{"android":"levelo://app?vid=cd5f7f77-a593-43f9-8f9d-7be78caadade","ios":"levelo://app?vid=cd5f7f77-a593-43f9-8f9d-7be78caadade"},"vehicle_type_id":"4","last_reported":1707862059,"current_range_meters":23600,"station_id":"ce4bhbp2rcd13ifvqesg","pricing_plan_id":"cebpf4jnsgd1na2vs0mg"},{"bike_id":"dafed823-2a13-4e36-9011-3a3ea52ad392","system_id":"levelo_inurba_marseille","lat":43.293009,"lon":5.374584,"is_reserved":false,"is_disabled":false,"rental_uris":{"android":"levelo://app?vid=dafed823-2a13-4e36-9011-3a3ea52ad392","ios":"levelo://app?vid=dafed823-2a13-4e36-9011-3a3ea52ad392"},"vehicle_type_id":"4","last_reported":1707862059,"current_range_meters":0,"station_id":"ce4bgi12rcd13ifvqb70","pricing_plan_id":"cebpf4jnsgd1na2vs0mg"},{"bike_id":"344da4ae-79a2-4d69-9b82-a2810786ddb8","system_id":"levelo_inurba_marseille","lat":43.305994,"lon":5.393687,"is_reserved":false,"is_disabled":false,"rental_uris":{"android":"levelo://app?vid=344da4ae-79a2-4d69-9b82-a2810786ddb8","ios":"levelo://app?vid=344da4ae-79a2-4d69-9b82-a2810786ddb8"},"vehicle_type_id":"4","last_reported":1707862059,"current_range_meters":12800,"station_id":"ce4bh0p2rcd13ifvqd80","pricing_plan_id":"cebpf4jnsgd1na2vs0mg"},{"bike_id":"6dd66214-c896-402d-9b87-add061b95e25","system_id":"levelo_inurba_marseille","lat":43.293009,"lon":5.374584,"is_reserved":false,"is_disabled":false,"rental_uris":{"android":"levelo://app?vid=6dd66214-c896-402d-9b87-add061b95e25","ios":"levelo://app?vid=6dd66214-c896-402d-9b87-add061b95e25"},"vehicle_type_id":"4","last_reported":1707862059,"current_range_meters":22800,"station_id":"ce4bgi12rcd13ifvqb70","pricing_plan_id":"cebpf4jnsgd1na2vs0mg"},{"bike_id":"6b1b40eb-7df6-4e5f-b6b9-8345877823d9","system_id":"levelo_inurba_marseille","lat":43.305986,"lon":5.393646,"is_reserved":false,"is_disabled":false,"rental_uris":{"android":"levelo://app?vid=6b1b40eb-7df6-4e5f-b6b9-8345877823d9","ios":"levelo://app?vid=6b1b40eb-7df6-4e5f-b6b9-8345877823d9"},"vehicle_type_id":"4","last_reported":1707862059,"current_range_meters":3600,"station_id":"","pricing_plan_id":"cebpf4jnsgd1na2vs0mg"},{"bike_id":"43d74663-1b59-42f1-bc45-0697c48c54d5","system_id":"levelo_inurba_marseille","lat":43.29292,"lon":5.37457,"is_reserved":false,"is_disabled":false,"rental_uris":{"android":"levelo://app?vid=43d74663-1b59-42f1-bc45-0697c48c54d5","ios":"levelo://app?vid=43d74663-1b59-42f1-bc45-0697c48c54d5"},"vehicle_type_id":"4","last_reported":1707862059,"current_range_meters":0,"station_id":"ce4bgi12rcd13ifvqb70","pricing_plan_id":"cebpf4jnsgd1na2vs0mg"},{"bike_id":"a5c0e8f2-b80a-4dc1-ac0b-93e0b4108207","system_id":"levelo_inurba_marseille","lat":43.302992,"lon":5.392136,"is_reserved":false,"is_disabled":false,"rental_uris":{"android":"levelo://app?vid=a5c0e8f2-b80a-4dc1-ac0b-93e0b4108207","ios":"levelo://app?vid=a5c0e8f2-b80a-4dc1-ac0b-93e0b4108207"},"vehicle_type_id":"4","last_reported":1707862059,"current_range_meters":6400,"station_id":"ce4bgkh2rcd13ifvqbk0","pricing_plan_id":"cebpf4jnsgd1na2vs0mg"},{"bike_id":"a73c03ab-0647-4dc1-9b8e-0ebaa7f42894","system_id":"levelo_inurba_marseille","lat":43.303002,"lon":5.392142,"is_reserved":false,"is_disabled":false,"rental_uris":{"android":"levelo://app?vid=a73c03ab-0647-4dc1-9b8e-0ebaa7f42894","ios":"levelo://app?vid=a73c03ab-0647-4dc1-9b8e-0ebaa7f42894"},"vehicle_type_id":"4","last_reported":1707862059,"current_range_meters":400,"station_id":"ce4bgkh2rcd13ifvqbk0","pricing_plan_id":"cebpf4jnsgd1na2vs0mg"},{"bike_id":"ea269068-6954-4bc4-ae69-9ce494bb3aaf","system_id":"levelo_inurba_marseille","lat":43.302992,"lon":5.392136,"is_reserved":false,"is_disabled":false,"rental_uris":{"android":"levelo://app?vid=ea269068-6954-4bc4-ae69-9ce494bb3aaf","ios":"levelo://app?vid=ea269068-6954-4bc4-ae69-9ce494bb3aaf"},"vehicle_type_id":"4","last_reported":1707862059,"current_range_meters":4400,"station_id":"ce4bgkh2rcd13ifvqbk0","pricing_plan_id":"cebpf4jnsgd1na2vs0mg"},{"bike_id":"4c5bc084-eef8-4f86-8e97-4e4826b03ab5","system_id":"levelo_inurba_marseille","lat":43.30101,"lon":5.39073,"is_reserved":false,"is_disabled":false,"rental_uris":{"android":"levelo://app?vid=4c5bc084-eef8-4f86-8e97-4e4826b03ab5","ios":"levelo://app?vid=4c5bc084-eef8-4f86-8e97-4e4826b03ab5"},"vehicle_type_id":"4","last_reported":1707862059,"current_range_meters":18800,"station_id":"ce4bh192rcd13ifvqdb0","pricing_plan_id":"cebpf4jnsgd1na2vs0mg"},{"bike_id":"ac0b3f8c-5d30-4d1c-a3ca-074b565bf33b","system_id":"levelo_inurba_marseille","lat":43.302992,"lon":5.392136,"is_reserved":false,"is_disabled":false,"rental_uris":{"android":"levelo://app?vid=ac0b3f8c-5d30-4d1c-a3ca-074b565bf33b","ios":"levelo://app?vid=ac0b3f8c-5d30-4d1c-a3ca-074b565bf33b"},"vehicle_type_id":"4","last_reported":1707862059,"current_range_meters":2000,"station_id":"ce4bgkh2rcd13ifvqbk0","pricing_plan_id":"cebpf4jnsgd1na2vs0mg"},{"bike_id":"44af555d-6925-48bc-93a4-4c4fd150e3b5","system_id":"levelo_inurba_marseille","lat":43.30097,"lon":5.390803,"is_reserved":false,"is_disabled":false,"rental_uris":{"android":"levelo://app?vid=44af555d-6925-48bc-93a4-4c4fd150e3b5","ios":"levelo://app?vid=44af555d-6925-48bc-93a4-4c4fd150e3b5"},"vehicle_type_id":"4","last_reported":1707862059,"current_range_meters":13600,"station_id":"ce4bh192rcd13ifvqdb0","pricing_plan_id":"cebpf4jnsgd1na2vs0mg"},{"bike_id":"5e1ce486-b4d8-4de1-b067-0d66cd8217b0","system_id":"levelo_inurba_marseille","lat":43.30085,"lon":5.39071,"is_reserved":false,"is_disabled":false,"rental_uris":{"android":"levelo://app?vid=5e1ce486-b4d8-4de1-b067-0d66cd8217b0","ios":"levelo://app?vid=5e1ce486-b4d8-4de1-b067-0d66cd8217b0"},"vehicle_type_id":"4","last_reported":1707862059,"current_range_meters":0,"station_id":"ce4bh192rcd13ifvqdb0","pricing_plan_id":"cebpf4jnsgd1na2vs0mg"},{"bike_id":"b6c82709-2d8e-45f5-b1fc-dd8a0a1ea50d","system_id":"levelo_inurba_marseille","lat":43.30092,"lon":5.39081,"is_reserved":false,"is_disabled":false,"rental_uris":{"android":"levelo://app?vid=b6c82709-2d8e-45f5-b1fc-dd8a0a1ea50d","ios":"levelo://app?vid=b6c82709-2d8e-45f5-b1fc-dd8a0a1ea50d"},"vehicle_type_id":"4","last_reported":1707862059,"current_range_meters":14800,"station_id":"ce4bh192rcd13ifvqdb0","pricing_plan_id":"cebpf4jnsgd1na2vs0mg"},{"bike_id":"96e168aa-d174-48be-bd9f-ee1581d8495c","system_id":"levelo_inurba_marseille","lat":43.300852,"lon":5.390859,"is_reserved":false,"is_disabled":false,"rental_uris":{"android":"levelo://app?vid=96e168aa-d174-48be-bd9f-ee1581d8495c","ios":"levelo://app?vid=96e168aa-d174-48be-bd9f-ee1581d8495c"},"vehicle_type_id":"4","last_reported":1707862059,"current_range_meters":25200,"station_id":"ce4bh192rcd13ifvqdb0","pricing_plan_id":"cebpf4jnsgd1na2vs0mg"},{"bike_id":"372d89c2-66e3-4e2a-896d-dba4e185d653","system_id":"levelo_inurba_marseille","lat":43.292217,"lon":5.360526,"is_reserved":false,"is_disabled":false,"rental_uris":{"android":"levelo://app?vid=372d89c2-66e3-4e2a-896d-dba4e185d653","ios":"levelo://app?vid=372d89c2-66e3-4e2a-896d-dba4e185d653"},"vehicle_type_id":"4","last_reported":1707862059,"current_range_meters":20400,"station_id":"ce4bhbh2rcd13ifvqeqg","pricing_plan_id":"cebpf4jnsgd1na2vs0mg"},{"bike_id":"ff760cc2-b458-4560-a902-ee8fb30f8443","system_id":"levelo_inurba_marseille","lat":43.292172,"lon":5.360508,"is_reserved":false,"is_disabled":false,"rental_uris":{"android":"levelo://app?vid=ff760cc2-b458-4560-a902-ee8fb30f8443","ios":"levelo://app?vid=ff760cc2-b458-4560-a902-ee8fb30f8443"},"vehicle_type_id":"4","last_reported":1707862059,"current_range_meters":21600,"station_id":"ce4bhbh2rcd13ifvqeqg","pricing_plan_id":"cebpf4jnsgd1na2vs0mg"},{"bike_id":"497b3b22-a15d-4825-a000-f7643c4a7f6c","system_id":"levelo_inurba_marseille","lat":43.29887,"lon":5.38909,"is_reserved":false,"is_disabled":false,"rental_uris":{"android":"levelo://app?vid=497b3b22-a15d-4825-a000-f7643c4a7f6c","ios":"levelo://app?vid=497b3b22-a15d-4825-a000-f7643c4a7f6c"},"vehicle_type_id":"4","last_reported":1707862059,"current_range_meters":23200,"station_id":"ce4bh392rcd13ifvqdl0","pricing_plan_id":"cebpf4jnsgd1na2vs0mg"},{"bike_id":"667eff39-f73d-41ef-9201-6730861c6676","system_id":"levelo_inurba_marseille","lat":43.298764,"lon":5.388973,"is_reserved":false,"is_disabled":false,"rental_uris":{"android":"levelo://app?vid=667eff39-f73d-41ef-9201-6730861c6676","ios":"levelo://app?vid=667eff39-f73d-41ef-9201-6730861c6676"},"vehicle_type_id":"4","last_reported":1707862059,"current_range_meters":26800,"station_id":"ce4bh392rcd13ifvqdl0","pricing_plan_id":"cebpf4jnsgd1na2vs0mg"},{"bike_id":"9eb79d80-2637-4de1-a966-89e8d3432b61","system_id":"levelo_inurba_marseille","lat":43.298764,"lon":5.388973,"is_reserved":false,"is_disabled":false,"rental_uris":{"android":"levelo://app?vid=9eb79d80-2637-4de1-a966-89e8d3432b61","ios":"levelo://app?vid=9eb79d80-2637-4de1-a966-89e8d3432b61"},"vehicle_type_id":"4","last_reported":1707862059,"current_range_meters":10400,"station_id":"ce4bh392rcd13ifvqdl0","pricing_plan_id":"cebpf4jnsgd1na2vs0mg"},{"bike_id":"45441cf3-7f1a-4076-8fca-1da3785a41b5","system_id":"levelo_inurba_marseille","lat":43.298764,"lon":5.388973,"is_reserved":false,"is_disabled":false,"rental_uris":{"android":"levelo://app?vid=45441cf3-7f1a-4076-8fca-1da3785a41b5","ios":"levelo://app?vid=45441cf3-7f1a-4076-8fca-1da3785a41b5"},"vehicle_type_id":"4","last_reported":1707862059,"current_range_meters":4000,"station_id":"ce4bh392rcd13ifvqdl0","pricing_plan_id":"cebpf4jnsgd1na2vs0mg"},{"bike_id":"0e1203cc-aa3a-4105-bf53-32733542d118","system_id":"levelo_inurba_marseille","lat":43.291675,"lon":5.371583,"is_reserved":false,"is_disabled":false,"rental_uris":{"android":"levelo://app?vid=0e1203cc-aa3a-4105-bf53-32733542d118","ios":"levelo://app?vid=0e1203cc-aa3a-4105-bf53-32733542d118"},"vehicle_type_id":"4","last_reported":1707862059,"current_range_meters":8800,"station_id":"ce4bha92rcd13ifvqeh0","pricing_plan_id":"cebpf4jnsgd1na2vs0mg"},{"bike_id":"49b6b8e3-7804-4f70-8b44-6667a37e802e","system_id":"levelo_inurba_marseille","lat":43.298764,"lon":5.388973,"is_reserved":false,"is_disabled":false,"rental_uris":{"android":"levelo://app?vid=49b6b8e3-7804-4f70-8b44-6667a37e802e","ios":"levelo://app?vid=49b6b8e3-7804-4f70-8b44-6667a37e802e"},"vehicle_type_id":"4","last_reported":1707862059,"current_range_meters":31600,"station_id":"ce4bh392rcd13ifvqdl0","pricing_plan_id":"cebpf4jnsgd1na2vs0mg"},{"bike_id":"8340122f-3e14-4934-8a20-0f4aac2245cb","system_id":"levelo_inurba_marseille","lat":43.291994,"lon":5.357886,"is_reserved":false,"is_disabled":false,"rental_uris":{"android":"levelo://app?vid=8340122f-3e14-4934-8a20-0f4aac2245cb","ios":"levelo://app?vid=8340122f-3e14-4934-8a20-0f4aac2245cb"},"vehicle_type_id":"4","last_reported":1707862059,"current_range_meters":28000,"station_id":"ce4bhb12rcd13ifvqel0","pricing_plan_id":"cebpf4jnsgd1na2vs0mg"},{"bike_id":"d311182c-f92b-4f3e-8433-d5819b8a3b2a","system_id":"levelo_inurba_marseille","lat":43.291994,"lon":5.357886,"is_reserved":false,"is_disabled":false,"rental_uris":{"android":"levelo://app?vid=d311182c-f92b-4f3e-8433-d5819b8a3b2a","ios":"levelo://app?vid=d311182c-f92b-4f3e-8433-d5819b8a3b2a"},"vehicle_type_id":"4","last_reported":1707862059,"current_range_meters":8800,"station_id":"ce4bhb12rcd13ifvqel0","pricing_plan_id":"cebpf4jnsgd1na2vs0mg"},{"bike_id":"34bdd3cb-8d52-405a-919b-595224270b84","system_id":"levelo_inurba_marseille","lat":43.30889,"lon":5.39634,"is_reserved":false,"is_disabled":false,"rental_uris":{"android":"levelo://app?vid=34bdd3cb-8d52-405a-919b-595224270b84","ios":"levelo://app?vid=34bdd3cb-8d52-405a-919b-595224270b84"},"vehicle_type_id":"4","last_reported":1707862059,"current_range_meters":400,"station_id":"ce4bh012rcd13ifvqcv0","pricing_plan_id":"cebpf4jnsgd1na2vs0mg"},{"bike_id":"5683db77-5fa9-4a97-a3cb-35dc2afa3e3b","system_id":"levelo_inurba_marseille","lat":43.313291,"lon":5.396838,"is_reserved":false,"is_disabled":false,"rental_uris":{"android":"levelo://app?vid=5683db77-5fa9-4a97-a3cb-35dc2afa3e3b","ios":"levelo://app?vid=5683db77-5fa9-4a97-a3cb-35dc2afa3e3b"},"vehicle_type_id":"4","last_reported":1707862059,"current_range_meters":0,"station_id":"ce4bgvp2rcd13ifvqcu0","pricing_plan_id":"cebpf4jnsgd1na2vs0mg"},{"bike_id":"c8cce3e3-b075-4976-bd9f-13f28abf6511","system_id":"levelo_inurba_marseille","lat":43.291994,"lon":5.357886,"is_reserved":false,"is_disabled":false,"rental_uris":{"android":"levelo://app?vid=c8cce3e3-b075-4976-bd9f-13f28abf6511","ios":"levelo://app?vid=c8cce3e3-b075-4976-bd9f-13f28abf6511"},"vehicle_type_id":"4","last_reported":1707862059,"current_range_meters":17600,"station_id":"ce4bhb12rcd13ifvqel0","pricing_plan_id":"cebpf4jnsgd1na2vs0mg"},{"bike_id":"d6cd38b4-678b-4b08-94a2-c080fcf3634e","system_id":"levelo_inurba_marseille","lat":43.29193,"lon":5.35812,"is_reserved":false,"is_disabled":false,"rental_uris":{"android":"levelo://app?vid=d6cd38b4-678b-4b08-94a2-c080fcf3634e","ios":"levelo://app?vid=d6cd38b4-678b-4b08-94a2-c080fcf3634e"},"vehicle_type_id":"4","last_reported":1707862059,"current_range_meters":29600,"station_id":"ce4bhb12rcd13ifvqel0","pricing_plan_id":"cebpf4jnsgd1na2vs0mg"},{"bike_id":"263f02e9-f2bd-49c1-9d6b-c5ab824c90f8","system_id":"levelo_inurba_marseille","lat":43.30888,"lon":5.39638,"is_reserved":false,"is_disabled":false,"rental_uris":{"android":"levelo://app?vid=263f02e9-f2bd-49c1-9d6b-c5ab824c90f8","ios":"levelo://app?vid=263f02e9-f2bd-49c1-9d6b-c5ab824c90f8"},"vehicle_type_id":"4","last_reported":1707862059,"current_range_meters":12000,"station_id":"ce4bh012rcd13ifvqcv0","pricing_plan_id":"cebpf4jnsgd1na2vs0mg"},{"bike_id":"e42f925f-6183-46fb-8657-b430fae0db8f","system_id":"levelo_inurba_marseille","lat":43.30892,"lon":5.39641,"is_reserved":false,"is_disabled":false,"rental_uris":{"android":"levelo://app?vid=e42f925f-6183-46fb-8657-b430fae0db8f","ios":"levelo://app?vid=e42f925f-6183-46fb-8657-b430fae0db8f"},"vehicle_type_id":"4","last_reported":1707862059,"current_range_meters":24800,"station_id":"ce4bh012rcd13ifvqcv0","pricing_plan_id":"cebpf4jnsgd1na2vs0mg"},{"bike_id":"7804a1ff-a34a-45a8-8099-809316d89e32","system_id":"levelo_inurba_marseille","lat":43.29193,"lon":5.35802,"is_reserved":false,"is_disabled":false,"rental_uris":{"android":"levelo://app?vid=7804a1ff-a34a-45a8-8099-809316d89e32","ios":"levelo://app?vid=7804a1ff-a34a-45a8-8099-809316d89e32"},"vehicle_type_id":"4","last_reported":1707862059,"current_range_meters":5200,"station_id":"ce4bhb12rcd13ifvqel0","pricing_plan_id":"cebpf4jnsgd1na2vs0mg"},{"bike_id":"cf13d62b-e9ac-4319-bf84-78c512fda1b9","system_id":"levelo_inurba_marseille","lat":43.309038,"lon":5.396546,"is_reserved":false,"is_disabled":false,"rental_uris":{"android":"levelo://app?vid=cf13d62b-e9ac-4319-bf84-78c512fda1b9","ios":"levelo://app?vid=cf13d62b-e9ac-4319-bf84-78c512fda1b9"},"vehicle_type_id":"4","last_reported":1707862059,"current_range_meters":31600,"station_id":"ce4bh012rcd13ifvqcv0","pricing_plan_id":"cebpf4jnsgd1na2vs0mg"},{"bike_id":"40d2783a-dc92-4ed3-81e4-d0b8ba9563bb","system_id":"levelo_inurba_marseille","lat":43.30893,"lon":5.39642,"is_reserved":false,"is_disabled":false,"rental_uris":{"android":"levelo://app?vid=40d2783a-dc92-4ed3-81e4-d0b8ba9563bb","ios":"levelo://app?vid=40d2783a-dc92-4ed3-81e4-d0b8ba9563bb"},"vehicle_type_id":"4","last_reported":1707862059,"current_range_meters":10400,"station_id":"ce4bh012rcd13ifvqcv0","pricing_plan_id":"cebpf4jnsgd1na2vs0mg"},{"bike_id":"ffba7ffe-c6d6-4776-afd5-76bbb9bbb2d4","system_id":"levelo_inurba_marseille","lat":43.313291,"lon":5.396838,"is_reserved":false,"is_disabled":false,"rental_uris":{"android":"levelo://app?vid=ffba7ffe-c6d6-4776-afd5-76bbb9bbb2d4","ios":"levelo://app?vid=ffba7ffe-c6d6-4776-afd5-76bbb9bbb2d4"},"vehicle_type_id":"4","last_reported":1707862059,"current_range_meters":21200,"station_id":"ce4bgvp2rcd13ifvqcu0","pricing_plan_id":"cebpf4jnsgd1na2vs0mg"},{"bike_id":"831ced8c-bbf5-4447-9bfe-f3b033fbcdf5","system_id":"levelo_inurba_marseille","lat":43.30891,"lon":5.39643,"is_reserved":false,"is_disabled":false,"rental_uris":{"android":"levelo://app?vid=831ced8c-bbf5-4447-9bfe-f3b033fbcdf5","ios":"levelo://app?vid=831ced8c-bbf5-4447-9bfe-f3b033fbcdf5"},"vehicle_type_id":"4","last_reported":1707862059,"current_range_meters":16000,"station_id":"ce4bh012rcd13ifvqcv0","pricing_plan_id":"cebpf4jnsgd1na2vs0mg"},{"bike_id":"5d595226-44fc-4c6c-8f67-b5c6925551fc","system_id":"levelo_inurba_marseille","lat":43.313291,"lon":5.396838,"is_reserved":false,"is_disabled":false,"rental_uris":{"android":"levelo://app?vid=5d595226-44fc-4c6c-8f67-b5c6925551fc","ios":"levelo://app?vid=5d595226-44fc-4c6c-8f67-b5c6925551fc"},"vehicle_type_id":"4","last_reported":1707862059,"current_range_meters":16800,"station_id":"ce4bgvp2rcd13ifvqcu0","pricing_plan_id":"cebpf4jnsgd1na2vs0mg"},{"bike_id":"57ea175d-3917-4e25-92b9-efc357cbebac","system_id":"levelo_inurba_marseille","lat":43.313291,"lon":5.396838,"is_reserved":false,"is_disabled":false,"rental_uris":{"android":"levelo://app?vid=57ea175d-3917-4e25-92b9-efc357cbebac","ios":"levelo://app?vid=57ea175d-3917-4e25-92b9-efc357cbebac"},"vehicle_type_id":"4","last_reported":1707862059,"current_range_meters":31200,"station_id":"ce4bgvp2rcd13ifvqcu0","pricing_plan_id":"cebpf4jnsgd1na2vs0mg"},{"bike_id":"fe08ebc9-9138-4a08-b97a-42ceced3dedd","system_id":"levelo_inurba_marseille","lat":43.309038,"lon":5.396546,"is_reserved":false,"is_disabled":false,"rental_uris":{"android":"levelo://app?vid=fe08ebc9-9138-4a08-b97a-42ceced3dedd","ios":"levelo://app?vid=fe08ebc9-9138-4a08-b97a-42ceced3dedd"},"vehicle_type_id":"4","last_reported":1707862059,"current_range_meters":18400,"station_id":"ce4bh012rcd13ifvqcv0","pricing_plan_id":"cebpf4jnsgd1na2vs0mg"},{"bike_id":"9c229404-84ad-4b13-a885-0acc2e42a3f0","system_id":"levelo_inurba_marseille","lat":43.313291,"lon":5.396838,"is_reserved":false,"is_disabled":false,"rental_uris":{"android":"levelo://app?vid=9c229404-84ad-4b13-a885-0acc2e42a3f0","ios":"levelo://app?vid=9c229404-84ad-4b13-a885-0acc2e42a3f0"},"vehicle_type_id":"4","last_reported":1707862059,"current_range_meters":30400,"station_id":"ce4bgvp2rcd13ifvqcu0","pricing_plan_id":"cebpf4jnsgd1na2vs0mg"},{"bike_id":"61bddf63-0bc1-4efd-a5d5-f8d40970a19d","system_id":"levelo_inurba_marseille","lat":43.308891,"lon":5.39649,"is_reserved":false,"is_disabled":false,"rental_uris":{"android":"levelo://app?vid=61bddf63-0bc1-4efd-a5d5-f8d40970a19d","ios":"levelo://app?vid=61bddf63-0bc1-4efd-a5d5-f8d40970a19d"},"vehicle_type_id":"4","last_reported":1707862059,"current_range_meters":7200,"station_id":"ce4bh012rcd13ifvqcv0","pricing_plan_id":"cebpf4jnsgd1na2vs0mg"},{"bike_id":"2075e603-a853-4864-8be9-d2ccfb00dd28","system_id":"levelo_inurba_marseille","lat":43.309038,"lon":5.396546,"is_reserved":false,"is_disabled":false,"rental_uris":{"android":"levelo://app?vid=2075e603-a853-4864-8be9-d2ccfb00dd28","ios":"levelo://app?vid=2075e603-a853-4864-8be9-d2ccfb00dd28"},"vehicle_type_id":"4","last_reported":1707862059,"current_range_meters":23600,"station_id":"ce4bh012rcd13ifvqcv0","pricing_plan_id":"cebpf4jnsgd1na2vs0mg"},{"bike_id":"2c4cdb9c-d73c-412d-8940-8ca9590bc5a5","system_id":"levelo_inurba_marseille","lat":43.309038,"lon":5.396546,"is_reserved":false,"is_disabled":false,"rental_uris":{"android":"levelo://app?vid=2c4cdb9c-d73c-412d-8940-8ca9590bc5a5","ios":"levelo://app?vid=2c4cdb9c-d73c-412d-8940-8ca9590bc5a5"},"vehicle_type_id":"4","last_reported":1707862059,"current_range_meters":13200,"station_id":"ce4bh012rcd13ifvqcv0","pricing_plan_id":"cebpf4jnsgd1na2vs0mg"},{"bike_id":"96d5d210-2897-4318-9246-8eb6af5975cc","system_id":"levelo_inurba_marseille","lat":43.313291,"lon":5.396838,"is_reserved":false,"is_disabled":false,"rental_uris":{"android":"levelo://app?vid=96d5d210-2897-4318-9246-8eb6af5975cc","ios":"levelo://app?vid=96d5d210-2897-4318-9246-8eb6af5975cc"},"vehicle_type_id":"4","last_reported":1707862059,"current_range_meters":31600,"station_id":"ce4bgvp2rcd13ifvqcu0","pricing_plan_id":"cebpf4jnsgd1na2vs0mg"},{"bike_id":"cd696d20-52e1-4093-98bf-004d03cecf1d","system_id":"levelo_inurba_marseille","lat":43.30892,"lon":5.39656,"is_reserved":false,"is_disabled":false,"rental_uris":{"android":"levelo://app?vid=cd696d20-52e1-4093-98bf-004d03cecf1d","ios":"levelo://app?vid=cd696d20-52e1-4093-98bf-004d03cecf1d"},"vehicle_type_id":"4","last_reported":1707862059,"current_range_meters":15600,"station_id":"ce4bh012rcd13ifvqcv0","pricing_plan_id":"cebpf4jnsgd1na2vs0mg"},{"bike_id":"2ab70626-37b0-4925-8049-7655e376acdc","system_id":"levelo_inurba_marseille","lat":43.30882,"lon":5.39654,"is_reserved":false,"is_disabled":false,"rental_uris":{"android":"levelo://app?vid=2ab70626-37b0-4925-8049-7655e376acdc","ios":"levelo://app?vid=2ab70626-37b0-4925-8049-7655e376acdc"},"vehicle_type_id":"4","last_reported":1707862059,"current_range_meters":29200,"station_id":"ce4bh012rcd13ifvqcv0","pricing_plan_id":"cebpf4jnsgd1na2vs0mg"},{"bike_id":"ad710bfc-3d95-47af-bc13-1f3af212e077","system_id":"levelo_inurba_marseille","lat":43.29185,"lon":5.35785,"is_reserved":false,"is_disabled":false,"rental_uris":{"android":"levelo://app?vid=ad710bfc-3d95-47af-bc13-1f3af212e077","ios":"levelo://app?vid=ad710bfc-3d95-47af-bc13-1f3af212e077"},"vehicle_type_id":"4","last_reported":1707862059,"current_range_meters":30000,"station_id":"ce4bhb12rcd13ifvqel0","pricing_plan_id":"cebpf4jnsgd1na2vs0mg"},{"bike_id":"7d6fcf7a-276f-40f4-84ac-f439a1e91ebe","system_id":"levelo_inurba_marseille","lat":43.309038,"lon":5.396546,"is_reserved":false,"is_disabled":false,"rental_uris":{"android":"levelo://app?vid=7d6fcf7a-276f-40f4-84ac-f439a1e91ebe","ios":"levelo://app?vid=7d6fcf7a-276f-40f4-84ac-f439a1e91ebe"},"vehicle_type_id":"4","last_reported":1707862059,"current_range_meters":26000,"station_id":"ce4bh012rcd13ifvqcv0","pricing_plan_id":"cebpf4jnsgd1na2vs0mg"},{"bike_id":"e69126a3-73b9-45df-be8e-f92019ca2158","system_id":"levelo_inurba_marseille","lat":43.308834,"lon":5.396573,"is_reserved":false,"is_disabled":false,"rental_uris":{"android":"levelo://app?vid=e69126a3-73b9-45df-be8e-f92019ca2158","ios":"levelo://app?vid=e69126a3-73b9-45df-be8e-f92019ca2158"},"vehicle_type_id":"4","last_reported":1707862059,"current_range_meters":4800,"station_id":"ce4bh012rcd13ifvqcv0","pricing_plan_id":"cebpf4jnsgd1na2vs0mg"},{"bike_id":"c52c1913-574a-45a4-8215-97446171cbfd","system_id":"levelo_inurba_marseille","lat":43.29539,"lon":5.38538,"is_reserved":false,"is_disabled":false,"rental_uris":{"android":"levelo://app?vid=c52c1913-574a-45a4-8215-97446171cbfd","ios":"levelo://app?vid=c52c1913-574a-45a4-8215-97446171cbfd"},"vehicle_type_id":"4","last_reported":1707862059,"current_range_meters":19200,"station_id":"ce4bgih2rcd13ifvqba0","pricing_plan_id":"cebpf4jnsgd1na2vs0mg"},{"bike_id":"10bd03dc-dfd9-4330-8f46-14dd5a10d503","system_id":"levelo_inurba_marseille","lat":43.29529,"lon":5.385581,"is_reserved":false,"is_disabled":false,"rental_uris":{"android":"levelo://app?vid=10bd03dc-dfd9-4330-8f46-14dd5a10d503","ios":"levelo://app?vid=10bd03dc-dfd9-4330-8f46-14dd5a10d503"},"vehicle_type_id":"4","last_reported":1707862059,"current_range_meters":17600,"station_id":"ce4bgih2rcd13ifvqba0","pricing_plan_id":"cebpf4jnsgd1na2vs0mg"},{"bike_id":"a6aa7e69-b7d3-4664-aab0-543c01115e1f","system_id":"levelo_inurba_marseille","lat":43.29529,"lon":5.385581,"is_reserved":false,"is_disabled":false,"rental_uris":{"android":"levelo://app?vid=a6aa7e69-b7d3-4664-aab0-543c01115e1f","ios":"levelo://app?vid=a6aa7e69-b7d3-4664-aab0-543c01115e1f"},"vehicle_type_id":"4","last_reported":1707862059,"current_range_meters":22000,"station_id":"ce4bgih2rcd13ifvqba0","pricing_plan_id":"cebpf4jnsgd1na2vs0mg"},{"bike_id":"cdfebdbd-2e53-4212-9eb5-0ccec165cf5d","system_id":"levelo_inurba_marseille","lat":43.29538,"lon":5.38541,"is_reserved":false,"is_disabled":false,"rental_uris":{"android":"levelo://app?vid=cdfebdbd-2e53-4212-9eb5-0ccec165cf5d","ios":"levelo://app?vid=cdfebdbd-2e53-4212-9eb5-0ccec165cf5d"},"vehicle_type_id":"4","last_reported":1707862059,"current_range_meters":21600,"station_id":"ce4bgih2rcd13ifvqba0","pricing_plan_id":"cebpf4jnsgd1na2vs0mg"},{"bike_id":"d7fdad8f-564f-4939-aa96-dc8e57cdf7f6","system_id":"levelo_inurba_marseille","lat":43.295377,"lon":5.385437,"is_reserved":false,"is_disabled":false,"rental_uris":{"android":"levelo://app?vid=d7fdad8f-564f-4939-aa96-dc8e57cdf7f6","ios":"levelo://app?vid=d7fdad8f-564f-4939-aa96-dc8e57cdf7f6"},"vehicle_type_id":"4","last_reported":1707862059,"current_range_meters":17200,"station_id":"ce4bgih2rcd13ifvqba0","pricing_plan_id":"cebpf4jnsgd1na2vs0mg"},{"bike_id":"1ac10612-40ce-4c5a-a4a4-e21b3d0ea078","system_id":"levelo_inurba_marseille","lat":43.29537,"lon":5.38543,"is_reserved":false,"is_disabled":false,"rental_uris":{"android":"levelo://app?vid=1ac10612-40ce-4c5a-a4a4-e21b3d0ea078","ios":"levelo://app?vid=1ac10612-40ce-4c5a-a4a4-e21b3d0ea078"},"vehicle_type_id":"4","last_reported":1707862059,"current_range_meters":30000,"station_id":"ce4bgih2rcd13ifvqba0","pricing_plan_id":"cebpf4jnsgd1na2vs0mg"},{"bike_id":"1cc3ec89-811d-4845-a8bb-e6b62c8fd779","system_id":"levelo_inurba_marseille","lat":43.29534,"lon":5.38542,"is_reserved":false,"is_disabled":false,"rental_uris":{"android":"levelo://app?vid=1cc3ec89-811d-4845-a8bb-e6b62c8fd779","ios":"levelo://app?vid=1cc3ec89-811d-4845-a8bb-e6b62c8fd779"},"vehicle_type_id":"4","last_reported":1707862059,"current_range_meters":3200,"station_id":"ce4bgih2rcd13ifvqba0","pricing_plan_id":"cebpf4jnsgd1na2vs0mg"},{"bike_id":"e52978b1-b5b5-4bee-b203-82282179c309","system_id":"levelo_inurba_marseille","lat":43.29529,"lon":5.385581,"is_reserved":false,"is_disabled":false,"rental_uris":{"android":"levelo://app?vid=e52978b1-b5b5-4bee-b203-82282179c309","ios":"levelo://app?vid=e52978b1-b5b5-4bee-b203-82282179c309"},"vehicle_type_id":"4","last_reported":1707862059,"current_range_meters":2400,"station_id":"ce4bgih2rcd13ifvqba0","pricing_plan_id":"cebpf4jnsgd1na2vs0mg"},{"bike_id":"17aff5f8-57d1-4942-91f4-bb95cf0ca583","system_id":"levelo_inurba_marseille","lat":43.29529,"lon":5.385581,"is_reserved":false,"is_disabled":false,"rental_uris":{"android":"levelo://app?vid=17aff5f8-57d1-4942-91f4-bb95cf0ca583","ios":"levelo://app?vid=17aff5f8-57d1-4942-91f4-bb95cf0ca583"},"vehicle_type_id":"4","last_reported":1707862059,"current_range_meters":17600,"station_id":"ce4bgih2rcd13ifvqba0","pricing_plan_id":"cebpf4jnsgd1na2vs0mg"},{"bike_id":"c600c8ce-be6b-4511-90eb-10e84fc28c26","system_id":"levelo_inurba_marseille","lat":43.29529,"lon":5.385581,"is_reserved":false,"is_disabled":false,"rental_uris":{"android":"levelo://app?vid=c600c8ce-be6b-4511-90eb-10e84fc28c26","ios":"levelo://app?vid=c600c8ce-be6b-4511-90eb-10e84fc28c26"},"vehicle_type_id":"4","last_reported":1707862059,"current_range_meters":31600,"station_id":"ce4bgih2rcd13ifvqba0","pricing_plan_id":"cebpf4jnsgd1na2vs0mg"},{"bike_id":"0a45e3de-a3f5-42b0-946e-8d03a545cb81","system_id":"levelo_inurba_marseille","lat":43.2953,"lon":5.38547,"is_reserved":false,"is_disabled":false,"rental_uris":{"android":"levelo://app?vid=0a45e3de-a3f5-42b0-946e-8d03a545cb81","ios":"levelo://app?vid=0a45e3de-a3f5-42b0-946e-8d03a545cb81"},"vehicle_type_id":"4","last_reported":1707862059,"current_range_meters":4800,"station_id":"ce4bgih2rcd13ifvqba0","pricing_plan_id":"cebpf4jnsgd1na2vs0mg"},{"bike_id":"8c6ac577-a85f-47be-ba04-00235beedb61","system_id":"levelo_inurba_marseille","lat":43.29526,"lon":5.38546,"is_reserved":false,"is_disabled":false,"rental_uris":{"android":"levelo://app?vid=8c6ac577-a85f-47be-ba04-00235beedb61","ios":"levelo://app?vid=8c6ac577-a85f-47be-ba04-00235beedb61"},"vehicle_type_id":"4","last_reported":1707862059,"current_range_meters":23200,"station_id":"ce4bgih2rcd13ifvqba0","pricing_plan_id":"cebpf4jnsgd1na2vs0mg"},{"bike_id":"19a93cca-4e20-4fee-8593-d33b0bcc767c","system_id":"levelo_inurba_marseille","lat":43.29529,"lon":5.385581,"is_reserved":false,"is_disabled":false,"rental_uris":{"android":"levelo://app?vid=19a93cca-4e20-4fee-8593-d33b0bcc767c","ios":"levelo://app?vid=19a93cca-4e20-4fee-8593-d33b0bcc767c"},"vehicle_type_id":"4","last_reported":1707862059,"current_range_meters":3600,"station_id":"ce4bgih2rcd13ifvqba0","pricing_plan_id":"cebpf4jnsgd1na2vs0mg"},{"bike_id":"c1fe2855-e155-40bc-921d-37e0725ddcac","system_id":"levelo_inurba_marseille","lat":43.290624,"lon":5.359245,"is_reserved":false,"is_disabled":false,"rental_uris":{"android":"levelo://app?vid=c1fe2855-e155-40bc-921d-37e0725ddcac","ios":"levelo://app?vid=c1fe2855-e155-40bc-921d-37e0725ddcac"},"vehicle_type_id":"4","last_reported":1707862059,"current_range_meters":29200,"station_id":"ce4bha92rcd13ifvqeg0","pricing_plan_id":"cebpf4jnsgd1na2vs0mg"},{"bike_id":"13a29e70-a59d-4806-af5a-7685914f3f2d","system_id":"levelo_inurba_marseille","lat":43.290624,"lon":5.359245,"is_reserved":false,"is_disabled":false,"rental_uris":{"android":"levelo://app?vid=13a29e70-a59d-4806-af5a-7685914f3f2d","ios":"levelo://app?vid=13a29e70-a59d-4806-af5a-7685914f3f2d"},"vehicle_type_id":"4","last_reported":1707862059,"current_range_meters":4800,"station_id":"ce4bha92rcd13ifvqeg0","pricing_plan_id":"cebpf4jnsgd1na2vs0mg"},{"bike_id":"18bd592a-c942-4d0e-b4da-950369ab2aef","system_id":"levelo_inurba_marseille","lat":43.290631,"lon":5.359244,"is_reserved":false,"is_disabled":false,"rental_uris":{"android":"levelo://app?vid=18bd592a-c942-4d0e-b4da-950369ab2aef","ios":"levelo://app?vid=18bd592a-c942-4d0e-b4da-950369ab2aef"},"vehicle_type_id":"4","last_reported":1707862059,"current_range_meters":31600,"station_id":"ce4bha92rcd13ifvqeg0","pricing_plan_id":"cebpf4jnsgd1na2vs0mg"},{"bike_id":"c23ce342-4001-4eb0-8809-23a4816b0dd7","system_id":"levelo_inurba_marseille","lat":43.290624,"lon":5.359245,"is_reserved":false,"is_disabled":false,"rental_uris":{"android":"levelo://app?vid=c23ce342-4001-4eb0-8809-23a4816b0dd7","ios":"levelo://app?vid=c23ce342-4001-4eb0-8809-23a4816b0dd7"},"vehicle_type_id":"4","last_reported":1707862059,"current_range_meters":12800,"station_id":"ce4bha92rcd13ifvqeg0","pricing_plan_id":"cebpf4jnsgd1na2vs0mg"},{"bike_id":"46e3d354-edef-462a-819f-7f8a063aeaf4","system_id":"levelo_inurba_marseille","lat":43.290624,"lon":5.359245,"is_reserved":false,"is_disabled":false,"rental_uris":{"android":"levelo://app?vid=46e3d354-edef-462a-819f-7f8a063aeaf4","ios":"levelo://app?vid=46e3d354-edef-462a-819f-7f8a063aeaf4"},"vehicle_type_id":"4","last_reported":1707862059,"current_range_meters":30000,"station_id":"ce4bha92rcd13ifvqeg0","pricing_plan_id":"cebpf4jnsgd1na2vs0mg"},{"bike_id":"a457fb0f-69e3-419c-ba4c-c328a54bfef2","system_id":"levelo_inurba_marseille","lat":43.290631,"lon":5.359244,"is_reserved":false,"is_disabled":false,"rental_uris":{"android":"levelo://app?vid=a457fb0f-69e3-419c-ba4c-c328a54bfef2","ios":"levelo://app?vid=a457fb0f-69e3-419c-ba4c-c328a54bfef2"},"vehicle_type_id":"4","last_reported":1707862059,"current_range_meters":28000,"station_id":"ce4bha92rcd13ifvqeg0","pricing_plan_id":"cebpf4jnsgd1na2vs0mg"},{"bike_id":"06b03cb3-fd51-41e4-b82a-b6797deda671","system_id":"levelo_inurba_marseille","lat":43.290624,"lon":5.359245,"is_reserved":false,"is_disabled":false,"rental_uris":{"android":"levelo://app?vid=06b03cb3-fd51-41e4-b82a-b6797deda671","ios":"levelo://app?vid=06b03cb3-fd51-41e4-b82a-b6797deda671"},"vehicle_type_id":"4","last_reported":1707862059,"current_range_meters":16800,"station_id":"ce4bha92rcd13ifvqeg0","pricing_plan_id":"cebpf4jnsgd1na2vs0mg"},{"bike_id":"6d646ddd-9f0e-4999-8cf1-a1306240a675","system_id":"levelo_inurba_marseille","lat":43.29039,"lon":5.35922,"is_reserved":false,"is_disabled":false,"rental_uris":{"android":"levelo://app?vid=6d646ddd-9f0e-4999-8cf1-a1306240a675","ios":"levelo://app?vid=6d646ddd-9f0e-4999-8cf1-a1306240a675"},"vehicle_type_id":"4","last_reported":1707862059,"current_range_meters":28000,"station_id":"ce4bha92rcd13ifvqeg0","pricing_plan_id":"cebpf4jnsgd1na2vs0mg"},{"bike_id":"e94dcf02-f4dd-47e8-8d34-bedcec1de8cc","system_id":"levelo_inurba_marseille","lat":43.2942,"lon":5.38634,"is_reserved":false,"is_disabled":false,"rental_uris":{"android":"levelo://app?vid=e94dcf02-f4dd-47e8-8d34-bedcec1de8cc","ios":"levelo://app?vid=e94dcf02-f4dd-47e8-8d34-bedcec1de8cc"},"vehicle_type_id":"4","last_reported":1707862059,"current_range_meters":0,"station_id":"ce4bh2h2rcd13ifvqdh0","pricing_plan_id":"cebpf4jnsgd1na2vs0mg"},{"bike_id":"b909b1b6-a138-4643-bf68-82243373c20c","system_id":"levelo_inurba_marseille","lat":43.28943,"lon":5.36636,"is_reserved":false,"is_disabled":false,"rental_uris":{"android":"levelo://app?vid=b909b1b6-a138-4643-bf68-82243373c20c","ios":"levelo://app?vid=b909b1b6-a138-4643-bf68-82243373c20c"},"vehicle_type_id":"4","last_reported":1707862059,"current_range_meters":800,"station_id":"ce4bhap2rcd13ifvqek0","pricing_plan_id":"cebpf4jnsgd1na2vs0mg"},{"bike_id":"555bb9a8-6837-4be2-802b-001bc9bc2a0e","system_id":"levelo_inurba_marseille","lat":43.294153,"lon":5.386305,"is_reserved":false,"is_disabled":false,"rental_uris":{"android":"levelo://app?vid=555bb9a8-6837-4be2-802b-001bc9bc2a0e","ios":"levelo://app?vid=555bb9a8-6837-4be2-802b-001bc9bc2a0e"},"vehicle_type_id":"4","last_reported":1707862059,"current_range_meters":22000,"station_id":"ce4bh2h2rcd13ifvqdh0","pricing_plan_id":"cebpf4jnsgd1na2vs0mg"},{"bike_id":"c6e2abb4-1cfa-415d-afd1-c5ab70eb8526","system_id":"levelo_inurba_marseille","lat":43.289184,"lon":5.366408,"is_reserved":false,"is_disabled":false,"rental_uris":{"android":"levelo://app?vid=c6e2abb4-1cfa-415d-afd1-c5ab70eb8526","ios":"levelo://app?vid=c6e2abb4-1cfa-415d-afd1-c5ab70eb8526"},"vehicle_type_id":"4","last_reported":1707862059,"current_range_meters":26400,"station_id":"ce4bhap2rcd13ifvqek0","pricing_plan_id":"cebpf4jnsgd1na2vs0mg"},{"bike_id":"305a0dde-c88b-4231-8a3a-97694102385e","system_id":"levelo_inurba_marseille","lat":43.289184,"lon":5.366408,"is_reserved":false,"is_disabled":false,"rental_uris":{"android":"levelo://app?vid=305a0dde-c88b-4231-8a3a-97694102385e","ios":"levelo://app?vid=305a0dde-c88b-4231-8a3a-97694102385e"},"vehicle_type_id":"4","last_reported":1707862059,"current_range_meters":5200,"station_id":"ce4bhap2rcd13ifvqek0","pricing_plan_id":"cebpf4jnsgd1na2vs0mg"},{"bike_id":"26e33ff2-93df-44e3-9318-6b472bdb4f5d","system_id":"levelo_inurba_marseille","lat":43.289376,"lon":5.36636,"is_reserved":false,"is_disabled":false,"rental_uris":{"android":"levelo://app?vid=26e33ff2-93df-44e3-9318-6b472bdb4f5d","ios":"levelo://app?vid=26e33ff2-93df-44e3-9318-6b472bdb4f5d"},"vehicle_type_id":"4","last_reported":1707862059,"current_range_meters":0,"station_id":"ce4bhap2rcd13ifvqek0","pricing_plan_id":"cebpf4jnsgd1na2vs0mg"},{"bike_id":"02b0d1b1-a224-44d0-b036-e4ee7d24b264","system_id":"levelo_inurba_marseille","lat":43.289468,"lon":5.363719,"is_reserved":false,"is_disabled":false,"rental_uris":{"android":"levelo://app?vid=02b0d1b1-a224-44d0-b036-e4ee7d24b264","ios":"levelo://app?vid=02b0d1b1-a224-44d0-b036-e4ee7d24b264"},"vehicle_type_id":"4","last_reported":1707862059,"current_range_meters":8400,"station_id":"ce4bhc92rcd13ifvqetg","pricing_plan_id":"cebpf4jnsgd1na2vs0mg"},{"bike_id":"90ffa4ca-6109-4942-afc7-d5a2411225e3","system_id":"levelo_inurba_marseille","lat":43.289468,"lon":5.363719,"is_reserved":false,"is_disabled":false,"rental_uris":{"android":"levelo://app?vid=90ffa4ca-6109-4942-afc7-d5a2411225e3","ios":"levelo://app?vid=90ffa4ca-6109-4942-afc7-d5a2411225e3"},"vehicle_type_id":"4","last_reported":1707862059,"current_range_meters":30800,"station_id":"ce4bhc92rcd13ifvqetg","pricing_plan_id":"cebpf4jnsgd1na2vs0mg"},{"bike_id":"2151f951-4a32-4b6e-a309-90c1221064f0","system_id":"levelo_inurba_marseille","lat":43.289468,"lon":5.363719,"is_reserved":false,"is_disabled":false,"rental_uris":{"android":"levelo://app?vid=2151f951-4a32-4b6e-a309-90c1221064f0","ios":"levelo://app?vid=2151f951-4a32-4b6e-a309-90c1221064f0"},"vehicle_type_id":"4","last_reported":1707862059,"current_range_meters":1200,"station_id":"ce4bhc92rcd13ifvqetg","pricing_plan_id":"cebpf4jnsgd1na2vs0mg"},{"bike_id":"bacceb55-b56a-4d07-ba4e-96718b181ec2","system_id":"levelo_inurba_marseille","lat":43.289468,"lon":5.363719,"is_reserved":false,"is_disabled":false,"rental_uris":{"android":"levelo://app?vid=bacceb55-b56a-4d07-ba4e-96718b181ec2","ios":"levelo://app?vid=bacceb55-b56a-4d07-ba4e-96718b181ec2"},"vehicle_type_id":"4","last_reported":1707862059,"current_range_meters":16400,"station_id":"ce4bhc92rcd13ifvqetg","pricing_plan_id":"cebpf4jnsgd1na2vs0mg"},{"bike_id":"fb009bbf-2012-49de-ae03-5219864f5ca5","system_id":"levelo_inurba_marseille","lat":43.29144,"lon":5.38069,"is_reserved":false,"is_disabled":false,"rental_uris":{"android":"levelo://app?vid=fb009bbf-2012-49de-ae03-5219864f5ca5","ios":"levelo://app?vid=fb009bbf-2012-49de-ae03-5219864f5ca5"},"vehicle_type_id":"4","last_reported":1707862059,"current_range_meters":0,"station_id":"","pricing_plan_id":"cebpf4jnsgd1na2vs0mg"},{"bike_id":"845396a6-fd7c-4a8d-9fec-2056853c6fa8","system_id":"levelo_inurba_marseille","lat":43.304274,"lon":5.397513,"is_reserved":false,"is_disabled":false,"rental_uris":{"android":"levelo://app?vid=845396a6-fd7c-4a8d-9fec-2056853c6fa8","ios":"levelo://app?vid=845396a6-fd7c-4a8d-9fec-2056853c6fa8"},"vehicle_type_id":"4","last_reported":1707862059,"current_range_meters":28000,"station_id":"ce4bh092rcd13ifvqd20","pricing_plan_id":"cebpf4jnsgd1na2vs0mg"},{"bike_id":"c5fbccfd-341e-4411-bccb-a16602bc924b","system_id":"levelo_inurba_marseille","lat":43.304296,"lon":5.397513,"is_reserved":false,"is_disabled":false,"rental_uris":{"android":"levelo://app?vid=c5fbccfd-341e-4411-bccb-a16602bc924b","ios":"levelo://app?vid=c5fbccfd-341e-4411-bccb-a16602bc924b"},"vehicle_type_id":"4","last_reported":1707862059,"current_range_meters":14000,"station_id":"ce4bh092rcd13ifvqd20","pricing_plan_id":"cebpf4jnsgd1na2vs0mg"},{"bike_id":"05fc4109-654c-42a8-ad92-f5341ceac174","system_id":"levelo_inurba_marseille","lat":43.29016,"lon":5.35603,"is_reserved":false,"is_disabled":false,"rental_uris":{"android":"levelo://app?vid=05fc4109-654c-42a8-ad92-f5341ceac174","ios":"levelo://app?vid=05fc4109-654c-42a8-ad92-f5341ceac174"},"vehicle_type_id":"4","last_reported":1707862059,"current_range_meters":29600,"station_id":"ce4bhb92rcd13ifvqen0","pricing_plan_id":"cebpf4jnsgd1na2vs0mg"},{"bike_id":"d552e8f8-0fc6-4c50-9a75-e674fcee9cee","system_id":"levelo_inurba_marseille","lat":43.32895,"lon":5.39114,"is_reserved":false,"is_disabled":false,"rental_uris":{"android":"levelo://app?vid=d552e8f8-0fc6-4c50-9a75-e674fcee9cee","ios":"levelo://app?vid=d552e8f8-0fc6-4c50-9a75-e674fcee9cee"},"vehicle_type_id":"4","last_reported":1707862059,"current_range_meters":6400,"station_id":"","pricing_plan_id":"cebpf4jnsgd1na2vs0mg"},{"bike_id":"1557d154-ade4-4fcd-9f28-8842d19b1511","system_id":"levelo_inurba_marseille","lat":43.29008,"lon":5.35615,"is_reserved":false,"is_disabled":false,"rental_uris":{"android":"levelo://app?vid=1557d154-ade4-4fcd-9f28-8842d19b1511","ios":"levelo://app?vid=1557d154-ade4-4fcd-9f28-8842d19b1511"},"vehicle_type_id":"4","last_reported":1707862059,"current_range_meters":8400,"station_id":"ce4bhb92rcd13ifvqen0","pricing_plan_id":"cebpf4jnsgd1na2vs0mg"},{"bike_id":"c7350db9-c48e-493e-ae54-f8ff7e122c0b","system_id":"levelo_inurba_marseille","lat":43.29006,"lon":5.35621,"is_reserved":false,"is_disabled":false,"rental_uris":{"android":"levelo://app?vid=c7350db9-c48e-493e-ae54-f8ff7e122c0b","ios":"levelo://app?vid=c7350db9-c48e-493e-ae54-f8ff7e122c0b"},"vehicle_type_id":"4","last_reported":1707862059,"current_range_meters":16400,"station_id":"ce4bhb92rcd13ifvqen0","pricing_plan_id":"cebpf4jnsgd1na2vs0mg"},{"bike_id":"a9102ef3-54bc-40f3-805f-10186a9f6eeb","system_id":"levelo_inurba_marseille","lat":43.29008,"lon":5.35611,"is_reserved":false,"is_disabled":false,"rental_uris":{"android":"levelo://app?vid=a9102ef3-54bc-40f3-805f-10186a9f6eeb","ios":"levelo://app?vid=a9102ef3-54bc-40f3-805f-10186a9f6eeb"},"vehicle_type_id":"4","last_reported":1707862059,"current_range_meters":31200,"station_id":"ce4bhb92rcd13ifvqen0","pricing_plan_id":"cebpf4jnsgd1na2vs0mg"},{"bike_id":"37a0682d-4d4d-4cbd-ab82-e9a9def585d2","system_id":"levelo_inurba_marseille","lat":43.29006,"lon":5.35617,"is_reserved":false,"is_disabled":false,"rental_uris":{"android":"levelo://app?vid=37a0682d-4d4d-4cbd-ab82-e9a9def585d2","ios":"levelo://app?vid=37a0682d-4d4d-4cbd-ab82-e9a9def585d2"},"vehicle_type_id":"4","last_reported":1707862059,"current_range_meters":22800,"station_id":"ce4bhb92rcd13ifvqen0","pricing_plan_id":"cebpf4jnsgd1na2vs0mg"},{"bike_id":"b11a3d45-1c85-40bf-b82f-c5b155431bb9","system_id":"levelo_inurba_marseille","lat":43.290028,"lon":5.35617,"is_reserved":false,"is_disabled":false,"rental_uris":{"android":"levelo://app?vid=b11a3d45-1c85-40bf-b82f-c5b155431bb9","ios":"levelo://app?vid=b11a3d45-1c85-40bf-b82f-c5b155431bb9"},"vehicle_type_id":"4","last_reported":1707862059,"current_range_meters":1200,"station_id":"ce4bhb92rcd13ifvqen0","pricing_plan_id":"cebpf4jnsgd1na2vs0mg"},{"bike_id":"a045d6f5-8d57-40ac-b3ad-87d61d1983be","system_id":"levelo_inurba_marseille","lat":43.29004,"lon":5.35612,"is_reserved":false,"is_disabled":false,"rental_uris":{"android":"levelo://app?vid=a045d6f5-8d57-40ac-b3ad-87d61d1983be","ios":"levelo://app?vid=a045d6f5-8d57-40ac-b3ad-87d61d1983be"},