{"last_updated":1752893311,"ttl":60,"version":"2.2","data":{"bikes":[{"bike_id":"53b742a7-31ae-4272-9bba-7740339e2a2f","system_id":"levelo_inurba_marseille","lat":43.33747,"lon":5.37463,"is_reserved":false,"is_disabled":false,"rental_uris":{"android":"levelo://app?vid=53b742a7-31ae-4272-9bba-7740339e2a2f","ios":"levelo://app?vid=53b742a7-31ae-4272-9bba-7740339e2a2f"},"vehicle_type_id":"1","last_reported":1752893311,"current_range_meters":17200,"station_id":"","pricing_plan_id":"cebpf4jnsgd1na2vs0mg"},{"bike_id":"5b5bbc1f-5c1b-45f5-9a8a-896dbffa270d","system_id":"levelo_inurba_marseille","lat":43.28452,"lon":5.39185,"is_reserved":false,"is_disabled":false,"rental_uris":{"android":"levelo://app?vid=5b5bbc1f-5c1b-45f5-9a8a-896dbffa270d","ios":"levelo://app?vid=5b5bbc1f-5c1b-45f5-9a8a-896dbffa270d"},"vehicle_type_id":"4","last_reported":1752893311,"current_range_meters":2800,"station_id":"ce4bhoh2rcd13ifvqh5g","pricing_plan_id":"cebpf4jnsgd1na2vs0mg"},{"bike_id":"00ecada3-8577-4c51-98e2-f760bc2bb718","system_id":"levelo_inurba_marseille","lat":43.29419,"lon":5.43217,"is_reserved":false,"is_disabled":false,"rental_uris":{"android":"levelo://app?vid=00ecada3-8577-4c51-98e2-f760bc2bb718","ios":"levelo://app?vid=00ecada3-8577-4c51-98e2-f760bc2bb718"},"vehicle_type_id":"4","last_reported":1752893311,"current_range_meters":2800,"station_id":"","pricing_plan_id":"cebpf4jnsgd1na2vs0mg"},{"bike_id":"cf161601-953e-48d6-b1b0-6c14bf6d4c60","system_id":"levelo_inurba_marseille","lat":43.28161,"lon":5.38631,"is_reserved":false,"is_disabled":false,"rental_uris":{"android":"levelo://app?vid=cf161601-953e-48d6-b1b0-6c14bf6d4c60","ios":"levelo://app?vid=cf161601-953e-48d6-b1b0-6c14bf6d4c60"},"vehicle_type_id":"4","last_reported":1752893311,"current_range_meters":2800,"station_id":"","pricing_plan_id":"cebpf4jnsgd1na2vs0mg"},{"bike_id":"20e1cc30-ccbe-478e-bcb7-dc20e13576d1","system_id":"levelo_inurba_marseille","lat":43.28439,"lon":5.34988,"is_reserved":false,"is_disabled":true,"rental_uris":{"android":"levelo://app?vid=20e1cc30-ccbe-478e-bcb7-dc20e13576d1","ios":"levelo://app?vid=20e1cc30-ccbe-478e-bcb7-dc20e13576d1"},"vehicle_type_id":"4","last_reported":1752893311,"current_range_meters":3200,"station_id":"ce4bhbh2rcd13ifvqepg","pricing_plan_id":"cebpf4jnsgd1na2vs0mg"},{"bike_id":"fb451b24-2d99-4932-a116-e75501fa289e","system_id":"levelo_inurba_marseille","lat":43.29865,"lon":5.3973,"is_reserved":false,"is_disabled":false,"rental_uris":{"android":"levelo://app?vid=fb451b24-2d99-4932-a116-e75501fa289e","ios":"levelo://app?vid=fb451b24-2d99-4932-a116-e75501fa289e"},"vehicle_type_id":"4","last_reported":1752893311,"current_range_meters":3200,"station_id":"ce4bh0h2rcd13ifvqd50","pricing_plan_id":"cebpf4jnsgd1na2vs0mg"},{"bike_id":"28289b3e-662a-4d2a-8030-74102ca84c01","system_id":"levelo_inurba_marseille","lat":43.29503,"lon":5.37496,"is_reserved":false,"is_disabled":false,"rental_uris":{"android":"levelo://app?vid=28289b3e-662a-4d2a-8030-74102ca84c01","ios":"levelo://app?vid=28289b3e-662a-4d2a-8030-74102ca84c01"},"vehicle_type_id":"4","last_reported":1752893311,"current_range_meters":4000,"station_id":"ce4bgkp2rcd13ifvqbmg","pricing_plan_id":"cebpf4jnsgd1na2vs0mg"},{"bike_id":"b83cde28-277a-42db-8577-63f1935248e3","system_id":"levelo_inurba_marseille","lat":43.28701,"lon":5.39984,"is_reserved":false,"is_disabled":false,"rental_uris":{"android":"levelo://app?vid=b83cde28-277a-42db-8577-63f1935248e3","ios":"levelo://app?vid=b83cde28-277a-42db-8577-63f1935248e3"},"vehicle_type_id":"4","last_reported":1752893311,"current_range_meters":4000,"station_id":"ce4bho92rcd13ifvqh3g","pricing_plan_id":"cebpf4jnsgd1na2vs0mg"},{"bike_id":"b7f99f04-6000-45a5-a245-cf98124bdfde","system_id":"levelo_inurba_marseille","lat":43.303736,"lon":5.424831,"is_reserved":false,"is_disabled":false,"rental_uris":{"android":"levelo://app?vid=b7f99f04-6000-45a5-a245-cf98124bdfde","ios":"levelo://app?vid=b7f99f04-6000-45a5-a245-cf98124bdfde"},"vehicle_type_id":"4","last_reported":1752893311,"current_range_meters":4400,"station_id":"ce4bhoh2rcd13ifvqh6g","pricing_plan_id":"cebpf4jnsgd1na2vs0mg"},{"bike_id":"e95b1477-33a1-48a7-a021-3878a6895222","system_id":"levelo_inurba_marseille","lat":43.21747,"lon":5.34596,"is_reserved":false,"is_disabled":false,"rental_uris":{"android":"levelo://app?vid=e95b1477-33a1-48a7-a021-3878a6895222","ios":"levelo://app?vid=e95b1477-33a1-48a7-a021-3878a6895222"},"vehicle_type_id":"4","last_reported":1752893311,"current_range_meters":4400,"station_id":"st_cvj6r9ubvosntc0bgbag","pricing_plan_id":"cebpf4jnsgd1na2vs0mg"},{"bike_id":"75a21491-57a5-4198-a34e-94a9e7346b3b","system_id":"levelo_inurba_marseille","lat":43.29693,"lon":5.36632,"is_reserved":false,"is_disabled":true,"rental_uris":{"android":"levelo://app?vid=75a21491-57a5-4198-a34e-94a9e7346b3b","ios":"levelo://app?vid=75a21491-57a5-4198-a34e-94a9e7346b3b"},"vehicle_type_id":"4","last_reported":1752893311,"current_range_meters":4800,"station_id":"ce4bgn12rcd13ifvqbt0","pricing_plan_id":"cebpf4jnsgd1na2vs0mg"},{"bike_id":"7defd34a-a5ac-4a82-9e3b-11b12c80b370","system_id":"levelo_inurba_marseille","lat":43.23195,"lon":5.3555,"is_reserved":false,"is_disabled":false,"rental_uris":{"android":"levelo://app?vid=7defd34a-a5ac-4a82-9e3b-11b12c80b370","ios":"levelo://app?vid=7defd34a-a5ac-4a82-9e3b-11b12c80b370"},"vehicle_type_id":"4","last_reported":1752893311,"current_range_meters":4800,"station_id":"ce4bhu92rcd13ifvqi70","pricing_plan_id":"cebpf4jnsgd1na2vs0mg"},{"bike_id":"0552ea12-01c1-4fc3-9631-ab4df8c50dde","system_id":"levelo_inurba_marseille","lat":43.22506,"lon":5.34783,"is_reserved":false,"is_disabled":false,"rental_uris":{"android":"levelo://app?vid=0552ea12-01c1-4fc3-9631-ab4df8c50dde","ios":"levelo://app?vid=0552ea12-01c1-4fc3-9631-ab4df8c50dde"},"vehicle_type_id":"4","last_reported":1752893311,"current_range_meters":4800,"station_id":"st_cvj5dfep6f1abm77gieg","pricing_plan_id":"cebpf4jnsgd1na2vs0mg"},{"bike_id":"f08ea1b6-61b4-478f-a985-73ee54264196","system_id":"levelo_inurba_marseille","lat":43.25828,"lon":5.39437,"is_reserved":false,"is_disabled":false,"rental_uris":{"android":"levelo://app?vid=f08ea1b6-61b4-478f-a985-73ee54264196","ios":"levelo://app?vid=f08ea1b6-61b4-478f-a985-73ee54264196"},"vehicle_type_id":"4","last_reported":1752893311,"current_range_meters":3200,"station_id":"ce4bhip2rcd13ifvqft0","pricing_plan_id":"cebpf4jnsgd1na2vs0mg"},{"bike_id":"fcb43646-13dd-4cea-b3e4-460cae3cbed7","system_id":"levelo_inurba_marseille","lat":43.22512,"lon":5.34789,"is_reserved":false,"is_disabled":false,"rental_uris":{"android":"levelo://app?vid=fcb43646-13dd-4cea-b3e4-460cae3cbed7","ios":"levelo://app?vid=fcb43646-13dd-4cea-b3e4-460cae3cbed7"},"vehicle_type_id":"4","last_reported":1752893311,"current_range_meters":5600,"station_id":"st_cvj5dfep6f1abm77gieg","pricing_plan_id":"cebpf4jnsgd1na2vs0mg"},{"bike_id":"9c8adec5-3e78-4a7c-a3fc-09311a934347","system_id":"levelo_inurba_marseille","lat":43.285177,"lon":5.38572,"is_reserved":false,"is_disabled":false,"rental_uris":{"android":"levelo://app?vid=9c8adec5-3e78-4a7c-a3fc-09311a934347","ios":"levelo://app?vid=9c8adec5-3e78-4a7c-a3fc-09311a934347"},"vehicle_type_id":"4","last_reported":1752893311,"current_range_meters":5600,"station_id":"ce4bh8p2rcd13ifvqeb0","pricing_plan_id":"cebpf4jnsgd1na2vs0mg"},{"bike_id":"37437322-8c8c-42de-b8fa-18f1317c54a8","system_id":"levelo_inurba_marseille","lat":43.23283,"lon":5.36805,"is_reserved":false,"is_disabled":false,"rental_uris":{"android":"levelo://app?vid=37437322-8c8c-42de-b8fa-18f1317c54a8","ios":"levelo://app?vid=37437322-8c8c-42de-b8fa-18f1317c54a8"},"vehicle_type_id":"4","last_reported":1752893311,"current_range_meters":5600,"station_id":"","pricing_plan_id":"cebpf4jnsgd1na2vs0mg"},{"bike_id":"04d15a50-cb94-495c-969c-c09473f1fcda","system_id":"levelo_inurba_marseille","lat":43.296196,"lon":5.377039,"is_reserved":false,"is_disabled":true,"rental_uris":{"android":"levelo://app?vid=04d15a50-cb94-495c-969c-c09473f1fcda","ios":"levelo://app?vid=04d15a50-cb94-495c-969c-c09473f1fcda"},"vehicle_type_id":"4","last_reported":1752893311,"current_range_meters":6000,"station_id":"","pricing_plan_id":"cebpf4jnsgd1na2vs0mg"},{"bike_id":"3444bdc6-514a-4ba6-9650-f9073305e33d","system_id":"levelo_inurba_marseille","lat":43.29682,"lon":5.3698,"is_reserved":false,"is_disabled":false,"rental_uris":{"android":"levelo://app?vid=3444bdc6-514a-4ba6-9650-f9073305e33d","ios":"levelo://app?vid=3444bdc6-514a-4ba6-9650-f9073305e33d"},"vehicle_type_id":"4","last_reported":1752893311,"current_range_meters":6000,"station_id":"","pricing_plan_id":"cebpf4jnsgd1na2vs0mg"},{"bike_id":"2786f0da-3923-4b84-a366-56fa35372059","system_id":"levelo_inurba_marseille","lat":43.302502,"lon":5.400624,"is_reserved":false,"is_disabled":false,"rental_uris":{"android":"levelo://app?vid=2786f0da-3923-4b84-a366-56fa35372059","ios":"levelo://app?vid=2786f0da-3923-4b84-a366-56fa35372059"},"vehicle_type_id":"4","last_reported":1752893311,"current_range_meters":6000,"station_id":"ce4bgvh2rcd13ifvqcs0","pricing_plan_id":"cebpf4jnsgd1na2vs0mg"},{"bike_id":"da203d9f-febe-409c-bfb6-53c8e79e9c54","system_id":"levelo_inurba_marseille","lat":43.291954,"lon":5.39328,"is_reserved":false,"is_disabled":false,"rental_uris":{"android":"levelo://app?vid=da203d9f-febe-409c-bfb6-53c8e79e9c54","ios":"levelo://app?vid=da203d9f-febe-409c-bfb6-53c8e79e9c54"},"vehicle_type_id":"4","last_reported":1752893311,"current_range_meters":6400,"station_id":"ce4bh192rcd13ifvqdd0","pricing_plan_id":"cebpf4jnsgd1na2vs0mg"},{"bike_id":"4298709f-d90a-45df-8a57-9ba59538e3fc","system_id":"levelo_inurba_marseille","lat":43.28185,"lon":5.40728,"is_reserved":false,"is_disabled":false,"rental_uris":{"android":"levelo://app?vid=4298709f-d90a-45df-8a57-9ba59538e3fc","ios":"levelo://app?vid=4298709f-d90a-45df-8a57-9ba59538e3fc"},"vehicle_type_id":"4","last_reported":1752893311,"current_range_meters":6400,"station_id":"","pricing_plan_id":"cebpf4jnsgd1na2vs0mg"},{"bike_id":"555bc53e-5286-4fb6-9154-af42b3fd9792","system_id":"levelo_inurba_marseille","lat":43.30047,"lon":5.37295,"is_reserved":false,"is_disabled":false,"rental_uris":{"android":"levelo://app?vid=555bc53e-5286-4fb6-9154-af42b3fd9792","ios":"levelo://app?vid=555bc53e-5286-4fb6-9154-af42b3fd9792"},"vehicle_type_id":"4","last_reported":1752893311,"current_range_meters":6400,"station_id":"","pricing_plan_id":"cebpf4jnsgd1na2vs0mg"},{"bike_id":"d1b1ae6f-562f-42f0-a958-cbc912a1619d","system_id":"levelo_inurba_marseille","lat":43.27593,"lon":5.36129,"is_reserved":false,"is_disabled":true,"rental_uris":{"android":"levelo://app?vid=d1b1ae6f-562f-42f0-a958-cbc912a1619d","ios":"levelo://app?vid=d1b1ae6f-562f-42f0-a958-cbc912a1619d"},"vehicle_type_id":"4","last_reported":1752893311,"current_range_meters":6400,"station_id":"ce4bgj92rcd13ifvqbe0","pricing_plan_id":"cebpf4jnsgd1na2vs0mg"},{"bike_id":"28d27c17-e6ca-4cec-aec9-f1f6696b8a12","system_id":"levelo_inurba_marseille","lat":43.29903,"lon":5.43682,"is_reserved":false,"is_disabled":true,"rental_uris":{"android":"levelo://app?vid=28d27c17-e6ca-4cec-aec9-f1f6696b8a12","ios":"levelo://app?vid=28d27c17-e6ca-4cec-aec9-f1f6696b8a12"},"vehicle_type_id":"4","last_reported":1752893311,"current_range_meters":6400,"station_id":"ce4bhpp2rcd13ifvqhfg","pricing_plan_id":"cebpf4jnsgd1na2vs0mg"},{"bike_id":"caf58642-45cf-498b-b251-d67b7f0b5667","system_id":"levelo_inurba_marseille","lat":43.28706,"lon":5.39983,"is_reserved":false,"is_disabled":false,"rental_uris":{"android":"levelo://app?vid=caf58642-45cf-498b-b251-d67b7f0b5667","ios":"levelo://app?vid=caf58642-45cf-498b-b251-d67b7f0b5667"},"vehicle_type_id":"4","last_reported":1752893311,"current_range_meters":6800,"station_id":"ce4bho92rcd13ifvqh3g","pricing_plan_id":"cebpf4jnsgd1na2vs0mg"},{"bike_id":"56d35fb4-c3fa-422a-a14b-9ed987a4f56f","system_id":"levelo_inurba_marseille","lat":43.248163,"lon":5.374493,"is_reserved":false,"is_disabled":true,"rental_uris":{"android":"levelo://app?vid=56d35fb4-c3fa-422a-a14b-9ed987a4f56f","ios":"levelo://app?vid=56d35fb4-c3fa-422a-a14b-9ed987a4f56f"},"vehicle_type_id":"4","last_reported":1752893311,"current_range_meters":7200,"station_id":"ce4bhgh2rcd13ifvqfb0","pricing_plan_id":"cebpf4jnsgd1na2vs0mg"},{"bike_id":"7cc66430-540b-40c8-bbad-4aa6d467b078","system_id":"levelo_inurba_marseille","lat":43.30135,"lon":5.39877,"is_reserved":false,"is_disabled":false,"rental_uris":{"android":"levelo://app?vid=7cc66430-540b-40c8-bbad-4aa6d467b078","ios":"levelo://app?vid=7cc66430-540b-40c8-bbad-4aa6d467b078"},"vehicle_type_id":"4","last_reported":1752893311,"current_range_meters":7200,"station_id":"ce4bh0h2rcd13ifvqd40","pricing_plan_id":"cebpf4jnsgd1na2vs0mg"},{"bike_id":"6d6c24f3-1aa8-42f5-8064-4e7c25e25148","system_id":"levelo_inurba_marseille","lat":43.287049,"lon":5.373877,"is_reserved":false,"is_disabled":false,"rental_uris":{"android":"levelo://app?vid=6d6c24f3-1aa8-42f5-8064-4e7c25e25148","ios":"levelo://app?vid=6d6c24f3-1aa8-42f5-8064-4e7c25e25148"},"vehicle_type_id":"4","last_reported":1752893311,"current_range_meters":7200,"station_id":"ce4bh3p2rcd13ifvqdq0","pricing_plan_id":"cebpf4jnsgd1na2vs0mg"},{"bike_id":"4be4bd2c-0260-46f3-8683-ca215580d4d7","system_id":"levelo_inurba_marseille","lat":43.303784,"lon":5.424839,"is_reserved":false,"is_disabled":false,"rental_uris":{"android":"levelo://app?vid=4be4bd2c-0260-46f3-8683-ca215580d4d7","ios":"levelo://app?vid=4be4bd2c-0260-46f3-8683-ca215580d4d7"},"vehicle_type_id":"4","last_reported":1752893311,"current_range_meters":8400,"station_id":"ce4bhoh2rcd13ifvqh6g","pricing_plan_id":"cebpf4jnsgd1na2vs0mg"},{"bike_id":"c35c3650-8980-4ec3-8bc0-7670f7c6c970","system_id":"levelo_inurba_marseille","lat":43.24663,"lon":5.38172,"is_reserved":false,"is_disabled":true,"rental_uris":{"android":"levelo://app?vid=c35c3650-8980-4ec3-8bc0-7670f7c6c970","ios":"levelo://app?vid=c35c3650-8980-4ec3-8bc0-7670f7c6c970"},"vehicle_type_id":"4","last_reported":1752893311,"current_range_meters":8400,"station_id":"ce4bhih2rcd13ifvqfr0","pricing_plan_id":"cebpf4jnsgd1na2vs0mg"},{"bike_id":"8a66b07f-1eed-424c-95bb-32b33b24cdca","system_id":"levelo_inurba_marseille","lat":43.28482,"lon":5.38403,"is_reserved":false,"is_disabled":false,"rental_uris":{"android":"levelo://app?vid=8a66b07f-1eed-424c-95bb-32b33b24cdca","ios":"levelo://app?vid=8a66b07f-1eed-424c-95bb-32b33b24cdca"},"vehicle_type_id":"4","last_reported":1752893311,"current_range_meters":8400,"station_id":"ce4bh512rcd13ifvqe3g","pricing_plan_id":"cebpf4jnsgd1na2vs0mg"},{"bike_id":"2ac93549-5c94-4228-8eea-782a21384d10","system_id":"levelo_inurba_marseille","lat":43.29634,"lon":5.37793,"is_reserved":false,"is_disabled":false,"rental_uris":{"android":"levelo://app?vid=2ac93549-5c94-4228-8eea-782a21384d10","ios":"levelo://app?vid=2ac93549-5c94-4228-8eea-782a21384d10"},"vehicle_type_id":"4","last_reported":1752893311,"current_range_meters":8400,"station_id":"","pricing_plan_id":"cebpf4jnsgd1na2vs0mg"},{"bike_id":"a8319aff-6485-4fd1-94a9-a438594b5b32","system_id":"levelo_inurba_marseille","lat":43.28741,"lon":5.37943,"is_reserved":false,"is_disabled":false,"rental_uris":{"android":"levelo://app?vid=a8319aff-6485-4fd1-94a9-a438594b5b32","ios":"levelo://app?vid=a8319aff-6485-4fd1-94a9-a438594b5b32"},"vehicle_type_id":"4","last_reported":1752893311,"current_range_meters":8400,"station_id":"ce4bh9p2rcd13ifvqec0","pricing_plan_id":"cebpf4jnsgd1na2vs0mg"},{"bike_id":"da891840-0cec-4ccc-961c-48903736c6fa","system_id":"levelo_inurba_marseille","lat":43.31139,"lon":5.37692,"is_reserved":false,"is_disabled":false,"rental_uris":{"android":"levelo://app?vid=da891840-0cec-4ccc-961c-48903736c6fa","ios":"levelo://app?vid=da891840-0cec-4ccc-961c-48903736c6fa"},"vehicle_type_id":"4","last_reported":1752893311,"current_range_meters":8800,"station_id":"","pricing_plan_id":"cebpf4jnsgd1na2vs0mg"},{"bike_id":"5c512656-cb55-4e17-89ea-c883f7f63553","system_id":"levelo_inurba_marseille","lat":43.21752,"lon":5.34606,"is_reserved":false,"is_disabled":true,"rental_uris":{"android":"levelo://app?vid=5c512656-cb55-4e17-89ea-c883f7f63553","ios":"levelo://app?vid=5c512656-cb55-4e17-89ea-c883f7f63553"},"vehicle_type_id":"4","last_reported":1752893311,"current_range_meters":8800,"station_id":"st_cvj6r9ubvosntc0bgbag","pricing_plan_id":"cebpf4jnsgd1na2vs0mg"},{"bike_id":"e555b545-304c-4dce-8496-1643c0f2600e","system_id":"levelo_inurba_marseille","lat":43.337444,"lon":5.374475,"is_reserved":false,"is_disabled":false,"rental_uris":{"android":"levelo://app?vid=e555b545-304c-4dce-8496-1643c0f2600e","ios":"levelo://app?vid=e555b545-304c-4dce-8496-1643c0f2600e"},"vehicle_type_id":"4","last_reported":1752893311,"current_range_meters":8800,"station_id":"","pricing_plan_id":"cebpf4jnsgd1na2vs0mg"},{"bike_id":"69b123e2-b08e-42c8-a6cb-9c8f892b03ef","system_id":"levelo_inurba_marseille","lat":43.28932,"lon":5.36646,"is_reserved":false,"is_disabled":false,"rental_uris":{"android":"levelo://app?vid=69b123e2-b08e-42c8-a6cb-9c8f892b03ef","ios":"levelo://app?vid=69b123e2-b08e-42c8-a6cb-9c8f892b03ef"},"vehicle_type_id":"4","last_reported":1752893311,"current_range_meters":8800,"station_id":"ce4bhap2rcd13ifvqek0","pricing_plan_id":"cebpf4jnsgd1na2vs0mg"},{"bike_id":"537df271-1e3d-4ffc-ad70-ada379266803","system_id":"levelo_inurba_marseille","lat":43.21746,"lon":5.34603,"is_reserved":false,"is_disabled":false,"rental_uris":{"android":"levelo://app?vid=537df271-1e3d-4ffc-ad70-ada379266803","ios":"levelo://app?vid=537df271-1e3d-4ffc-ad70-ada379266803"},"vehicle_type_id":"4","last_reported":1752893311,"current_range_meters":9200,"station_id":"st_cvj6r9ubvosntc0bgbag","pricing_plan_id":"cebpf4jnsgd1na2vs0mg"},{"bike_id":"79e00cba-979b-4370-b320-7e4857db9893","system_id":"levelo_inurba_marseille","lat":43.33777,"lon":5.37422,"is_reserved":false,"is_disabled":false,"rental_uris":{"android":"levelo://app?vid=79e00cba-979b-4370-b320-7e4857db9893","ios":"levelo://app?vid=79e00cba-979b-4370-b320-7e4857db9893"},"vehicle_type_id":"4","last_reported":1752893311,"current_range_meters":9200,"station_id":"","pricing_plan_id":"cebpf4jnsgd1na2vs0mg"},{"bike_id":"a198bfec-3db2-402f-a311-e1361c0d3e2b","system_id":"levelo_inurba_marseille","lat":43.281041,"lon":5.378487,"is_reserved":false,"is_disabled":false,"rental_uris":{"android":"levelo://app?vid=a198bfec-3db2-402f-a311-e1361c0d3e2b","ios":"levelo://app?vid=a198bfec-3db2-402f-a311-e1361c0d3e2b"},"vehicle_type_id":"4","last_reported":1752893311,"current_range_meters":9600,"station_id":"ce4bha12rcd13ifvqee0","pricing_plan_id":"cebpf4jnsgd1na2vs0mg"},{"bike_id":"7ce9d5df-0b1c-44f4-9519-e6af90a9ff04","system_id":"levelo_inurba_marseille","lat":43.284052,"lon":5.375176,"is_reserved":false,"is_disabled":false,"rental_uris":{"android":"levelo://app?vid=7ce9d5df-0b1c-44f4-9519-e6af90a9ff04","ios":"levelo://app?vid=7ce9d5df-0b1c-44f4-9519-e6af90a9ff04"},"vehicle_type_id":"4","last_reported":1752893311,"current_range_meters":9600,"station_id":"ce4bh412rcd13ifvqds0","pricing_plan_id":"cebpf4jnsgd1na2vs0mg"},{"bike_id":"b18457b6-b744-4542-873e-ebb7266cf94f","system_id":"levelo_inurba_marseille","lat":43.28609,"lon":5.37073,"is_reserved":false,"is_disabled":false,"rental_uris":{"android":"levelo://app?vid=b18457b6-b744-4542-873e-ebb7266cf94f","ios":"levelo://app?vid=b18457b6-b744-4542-873e-ebb7266cf94f"},"vehicle_type_id":"4","last_reported":1752893311,"current_range_meters":9600,"station_id":"ce4bht12rcd13ifvqi60","pricing_plan_id":"cebpf4jnsgd1na2vs0mg"},{"bike_id":"ce9fc701-f10e-4b04-b38d-8ae77bb98aec","system_id":"levelo_inurba_marseille","lat":43.246238,"lon":5.388801,"is_reserved":false,"is_disabled":false,"rental_uris":{"android":"levelo://app?vid=ce9fc701-f10e-4b04-b38d-8ae77bb98aec","ios":"levelo://app?vid=ce9fc701-f10e-4b04-b38d-8ae77bb98aec"},"vehicle_type_id":"4","last_reported":1752893311,"current_range_meters":9600,"station_id":"ce4bhg12rcd13ifvqf60","pricing_plan_id":"cebpf4jnsgd1na2vs0mg"},{"bike_id":"694b7cd3-26a7-4904-ad7c-2bacf9c7282c","system_id":"levelo_inurba_marseille","lat":43.33401,"lon":5.43996,"is_reserved":false,"is_disabled":false,"rental_uris":{"android":"levelo://app?vid=694b7cd3-26a7-4904-ad7c-2bacf9c7282c","ios":"levelo://app?vid=694b7cd3-26a7-4904-ad7c-2bacf9c7282c"},"vehicle_type_id":"4","last_reported":1752893311,"current_range_meters":9600,"station_id":"","pricing_plan_id":"cebpf4jnsgd1na2vs0mg"},{"bike_id":"792c6d19-d2aa-43d0-ba46-67942c12daaa","system_id":"levelo_inurba_marseille","lat":43.28588,"lon":5.37012,"is_reserved":false,"is_disabled":false,"rental_uris":{"android":"levelo://app?vid=792c6d19-d2aa-43d0-ba46-67942c12daaa","ios":"levelo://app?vid=792c6d19-d2aa-43d0-ba46-67942c12daaa"},"vehicle_type_id":"4","last_reported":1752893311,"current_range_meters":9600,"station_id":"ce4bht12rcd13ifvqi60","pricing_plan_id":"cebpf4jnsgd1na2vs0mg"},{"bike_id":"603995bf-5ba4-4bb5-b239-cd14a6a17b41","system_id":"levelo_inurba_marseille","lat":43.28939,"lon":5.3962,"is_reserved":false,"is_disabled":false,"rental_uris":{"android":"levelo://app?vid=603995bf-5ba4-4bb5-b239-cd14a6a17b41","ios":"levelo://app?vid=603995bf-5ba4-4bb5-b239-cd14a6a17b41"},"vehicle_type_id":"4","last_reported":1752893311,"current_range_meters":9600,"station_id":"ce4bh3h2rcd13ifvqdn0","pricing_plan_id":"cebpf4jnsgd1na2vs0mg"},{"bike_id":"2d95b47d-d06f-40a4-bb6e-c13e954e3c8f","system_id":"levelo_inurba_marseille","lat":43.27724,"lon":5.41415,"is_reserved":false,"is_disabled":false,"rental_uris":{"android":"levelo://app?vid=2d95b47d-d06f-40a4-bb6e-c13e954e3c8f","ios":"levelo://app?vid=2d95b47d-d06f-40a4-bb6e-c13e954e3c8f"},"vehicle_type_id":"4","last_reported":1752893311,"current_range_meters":10000,"station_id":"","pricing_plan_id":"cebpf4jnsgd1na2vs0mg"},{"bike_id":"b004baab-db70-453e-84a5-9312df4bd1d6","system_id":"levelo_inurba_marseille","lat":43.22508,"lon":5.34777,"is_reserved":false,"is_disabled":false,"rental_uris":{"android":"levelo://app?vid=b004baab-db70-453e-84a5-9312df4bd1d6","ios":"levelo://app?vid=b004baab-db70-453e-84a5-9312df4bd1d6"},"vehicle_type_id":"4","last_reported":1752893311,"current_range_meters":10000,"station_id":"st_cvj5dfep6f1abm77gieg","pricing_plan_id":"cebpf4jnsgd1na2vs0mg"},{"bike_id":"1b9b3b50-de92-4b2e-a432-56a3ae52efcd","system_id":"levelo_inurba_marseille","lat":43.28946,"lon":5.39625,"is_reserved":false,"is_disabled":false,"rental_uris":{"android":"levelo://app?vid=1b9b3b50-de92-4b2e-a432-56a3ae52efcd","ios":"levelo://app?vid=1b9b3b50-de92-4b2e-a432-56a3ae52efcd"},"vehicle_type_id":"4","last_reported":1752893311,"current_range_meters":10000,"station_id":"ce4bh3h2rcd13ifvqdn0","pricing_plan_id":"cebpf4jnsgd1na2vs0mg"},{"bike_id":"ade6b85c-6a6c-4230-abc0-6dc967d7d481","system_id":"levelo_inurba_marseille","lat":43.29282,"lon":5.40137,"is_reserved":false,"is_disabled":false,"rental_uris":{"android":"levelo://app?vid=ade6b85c-6a6c-4230-abc0-6dc967d7d481","ios":"levelo://app?vid=ade6b85c-6a6c-4230-abc0-6dc967d7d481"},"vehicle_type_id":"4","last_reported":1752893311,"current_range_meters":10000,"station_id":"ce4bh312rcd13ifvqdk0","pricing_plan_id":"cebpf4jnsgd1na2vs0mg"},{"bike_id":"a698a155-b061-416a-8ca1-9055e8bd06cb","system_id":"levelo_inurba_marseille","lat":43.24823,"lon":5.37438,"is_reserved":false,"is_disabled":false,"rental_uris":{"android":"levelo://app?vid=a698a155-b061-416a-8ca1-9055e8bd06cb","ios":"levelo://app?vid=a698a155-b061-416a-8ca1-9055e8bd06cb"},"vehicle_type_id":"4","last_reported":1752893311,"current_range_meters":10000,"station_id":"ce4bhgh2rcd13ifvqfb0","pricing_plan_id":"cebpf4jnsgd1na2vs0mg"},{"bike_id":"44bf74f9-0a90-4bf5-bc27-21dada9d010a","system_id":"levelo_inurba_marseille","lat":43.29194,"lon":5.39337,"is_reserved":false,"is_disabled":false,"rental_uris":{"android":"levelo://app?vid=44bf74f9-0a90-4bf5-bc27-21dada9d010a","ios":"levelo://app?vid=44bf74f9-0a90-4bf5-bc27-21dada9d010a"},"vehicle_type_id":"4","last_reported":1752893311,"current_range_meters":10800,"station_id":"ce4bh192rcd13ifvqdd0","pricing_plan_id":"cebpf4jnsgd1na2vs0mg"},{"bike_id":"29c44405-5852-4d48-a871-a9bc5e60ce4b","system_id":"levelo_inurba_marseille","lat":43.28668,"lon":5.38651,"is_reserved":false,"is_disabled":true,"rental_uris":{"android":"levelo://app?vid=29c44405-5852-4d48-a871-a9bc5e60ce4b","ios":"levelo://app?vid=29c44405-5852-4d48-a871-a9bc5e60ce4b"},"vehicle_type_id":"4","last_reported":1752893311,"current_range_meters":10800,"station_id":"ce4bh492rcd13ifvqdug","pricing_plan_id":"cebpf4jnsgd1na2vs0mg"},{"bike_id":"4dd02715-0aa1-486a-a4d8-01f96f8c7a72","system_id":"levelo_inurba_marseille","lat":43.28149,"lon":5.42607,"is_reserved":false,"is_disabled":false,"rental_uris":{"android":"levelo://app?vid=4dd02715-0aa1-486a-a4d8-01f96f8c7a72","ios":"levelo://app?vid=4dd02715-0aa1-486a-a4d8-01f96f8c7a72"},"vehicle_type_id":"4","last_reported":1752893311,"current_range_meters":10800,"station_id":"ce4bhnh2rcd13ifvqgug","pricing_plan_id":"cebpf4jnsgd1na2vs0mg"},{"bike_id":"90f0ed75-ae52-4d06-9fc4-ba57bb16e37f","system_id":"levelo_inurba_marseille","lat":43.30252,"lon":5.401,"is_reserved":false,"is_disabled":true,"rental_uris":{"android":"levelo://app?vid=90f0ed75-ae52-4d06-9fc4-ba57bb16e37f","ios":"levelo://app?vid=90f0ed75-ae52-4d06-9fc4-ba57bb16e37f"},"vehicle_type_id":"4","last_reported":1752893311,"current_range_meters":10800,"station_id":"ce4bgvh2rcd13ifvqcs0","pricing_plan_id":"cebpf4jnsgd1na2vs0mg"},{"bike_id":"ce7bd25b-5213-4881-a28b-f582e6a1d712","system_id":"levelo_inurba_marseille","lat":43.31317,"lon":5.3676,"is_reserved":false,"is_disabled":true,"rental_uris":{"android":"levelo://app?vid=ce7bd25b-5213-4881-a28b-f582e6a1d712","ios":"levelo://app?vid=ce7bd25b-5213-4881-a28b-f582e6a1d712"},"vehicle_type_id":"4","last_reported":1752893311,"current_range_meters":10800,"station_id":"ce4bgr92rcd13ifvqc6g","pricing_plan_id":"cebpf4jnsgd1na2vs0mg"},{"bike_id":"aca403dc-6363-4571-a2d6-c5da0726103e","system_id":"levelo_inurba_marseille","lat":43.29623,"lon":5.3715,"is_reserved":false,"is_disabled":false,"rental_uris":{"android":"levelo://app?vid=aca403dc-6363-4571-a2d6-c5da0726103e","ios":"levelo://app?vid=aca403dc-6363-4571-a2d6-c5da0726103e"},"vehicle_type_id":"4","last_reported":1752893311,"current_range_meters":10800,"station_id":"ce4bgnh2rcd13ifvqc0g","pricing_plan_id":"cebpf4jnsgd1na2vs0mg"},{"bike_id":"5ac93e7c-286a-4c1e-b6c0-4e9963e5a9f8","system_id":"levelo_inurba_marseille","lat":43.21199,"lon":5.35094,"is_reserved":false,"is_disabled":false,"rental_uris":{"android":"levelo://app?vid=5ac93e7c-286a-4c1e-b6c0-4e9963e5a9f8","ios":"levelo://app?vid=5ac93e7c-286a-4c1e-b6c0-4e9963e5a9f8"},"vehicle_type_id":"4","last_reported":1752893311,"current_range_meters":10800,"station_id":"st_cvj6sg6p6f1abm77japg","pricing_plan_id":"cebpf4jnsgd1na2vs0mg"},{"bike_id":"c6db0f6a-96fe-4e1d-8ded-c2ef38c9bab4","system_id":"levelo_inurba_marseille","lat":43.305688,"lon":5.418387,"is_reserved":false,"is_disabled":true,"rental_uris":{"android":"levelo://app?vid=c6db0f6a-96fe-4e1d-8ded-c2ef38c9bab4","ios":"levelo://app?vid=c6db0f6a-96fe-4e1d-8ded-c2ef38c9bab4"},"vehicle_type_id":"4","last_reported":1752893311,"current_range_meters":11200,"station_id":"ce4bht12rcd13ifvqi60","pricing_plan_id":"cebpf4jnsgd1na2vs0mg"},{"bike_id":"a2ea175a-cfd0-4dde-a138-8280b63692f1","system_id":"levelo_inurba_marseille","lat":43.248045,"lon":5.374574,"is_reserved":false,"is_disabled":true,"rental_uris":{"android":"levelo://app?vid=a2ea175a-cfd0-4dde-a138-8280b63692f1","ios":"levelo://app?vid=a2ea175a-cfd0-4dde-a138-8280b63692f1"},"vehicle_type_id":"4","last_reported":1752893311,"current_range_meters":11200,"station_id":"ce4bhgh2rcd13ifvqfb0","pricing_plan_id":"cebpf4jnsgd1na2vs0mg"},{"bike_id":"993ad6d2-500e-4da7-8010-d4cae0c69d98","system_id":"levelo_inurba_marseille","lat":43.27982,"lon":5.38735,"is_reserved":false,"is_disabled":false,"rental_uris":{"android":"levelo://app?vid=993ad6d2-500e-4da7-8010-d4cae0c69d98","ios":"levelo://app?vid=993ad6d2-500e-4da7-8010-d4cae0c69d98"},"vehicle_type_id":"4","last_reported":1752893311,"current_range_meters":11200,"station_id":"ce4bhg12rcd13ifvqf80","pricing_plan_id":"cebpf4jnsgd1na2vs0mg"},{"bike_id":"183a2501-80ca-421a-b6b9-a857bb3ea2fb","system_id":"levelo_inurba_marseille","lat":43.28678,"lon":5.39973,"is_reserved":false,"is_disabled":false,"rental_uris":{"android":"levelo://app?vid=183a2501-80ca-421a-b6b9-a857bb3ea2fb","ios":"levelo://app?vid=183a2501-80ca-421a-b6b9-a857bb3ea2fb"},"vehicle_type_id":"4","last_reported":1752893311,"current_range_meters":11200,"station_id":"ce4bho92rcd13ifvqh3g","pricing_plan_id":"cebpf4jnsgd1na2vs0mg"},{"bike_id":"35965273-4af4-457c-87a3-4f7523a4ce80","system_id":"levelo_inurba_marseille","lat":43.28994,"lon":5.35609,"is_reserved":false,"is_disabled":true,"rental_uris":{"android":"levelo://app?vid=35965273-4af4-457c-87a3-4f7523a4ce80","ios":"levelo://app?vid=35965273-4af4-457c-87a3-4f7523a4ce80"},"vehicle_type_id":"4","last_reported":1752893311,"current_range_meters":11200,"station_id":"ce4bhb92rcd13ifvqen0","pricing_plan_id":"cebpf4jnsgd1na2vs0mg"},{"bike_id":"25d3b560-6a49-4668-805e-cd625849b9f4","system_id":"levelo_inurba_marseille","lat":43.32343,"lon":5.40616,"is_reserved":false,"is_disabled":false,"rental_uris":{"android":"levelo://app?vid=25d3b560-6a49-4668-805e-cd625849b9f4","ios":"levelo://app?vid=25d3b560-6a49-4668-805e-cd625849b9f4"},"vehicle_type_id":"4","last_reported":1752893311,"current_range_meters":11600,"station_id":"ce4bhq92rcd13ifvqhjg","pricing_plan_id":"cebpf4jnsgd1na2vs0mg"},{"bike_id":"fc06e41c-66d3-44b8-b2ec-6ecd3a389a1c","system_id":"levelo_inurba_marseille","lat":43.271854,"lon":5.362776,"is_reserved":false,"is_disabled":false,"rental_uris":{"android":"levelo://app?vid=fc06e41c-66d3-44b8-b2ec-6ecd3a389a1c","ios":"levelo://app?vid=fc06e41c-66d3-44b8-b2ec-6ecd3a389a1c"},"vehicle_type_id":"4","last_reported":1752893311,"current_range_meters":11600,"station_id":"","pricing_plan_id":"cebpf4jnsgd1na2vs0mg"},{"bike_id":"be60c88c-1453-4626-be80-200258f79626","system_id":"levelo_inurba_marseille","lat":43.231958,"lon":5.355502,"is_reserved":false,"is_disabled":false,"rental_uris":{"android":"levelo://app?vid=be60c88c-1453-4626-be80-200258f79626","ios":"levelo://app?vid=be60c88c-1453-4626-be80-200258f79626"},"vehicle_type_id":"4","last_reported":1752893311,"current_range_meters":11600,"station_id":"ce4bhu92rcd13ifvqi70","pricing_plan_id":"cebpf4jnsgd1na2vs0mg"},{"bike_id":"cfb52d04-9134-4c86-8269-771716b20f27","system_id":"levelo_inurba_marseille","lat":43.21195,"lon":5.35073,"is_reserved":false,"is_disabled":false,"rental_uris":{"android":"levelo://app?vid=cfb52d04-9134-4c86-8269-771716b20f27","ios":"levelo://app?vid=cfb52d04-9134-4c86-8269-771716b20f27"},"vehicle_type_id":"4","last_reported":1752893311,"current_range_meters":11600,"station_id":"st_cvj6sg6p6f1abm77japg","pricing_plan_id":"cebpf4jnsgd1na2vs0mg"},{"bike_id":"436db807-5cc4-41ed-be34-f329b8d9bbd5","system_id":"levelo_inurba_marseille","lat":43.28867,"lon":5.39297,"is_reserved":false,"is_disabled":false,"rental_uris":{"android":"levelo://app?vid=436db807-5cc4-41ed-be34-f329b8d9bbd5","ios":"levelo://app?vid=436db807-5cc4-41ed-be34-f329b8d9bbd5"},"vehicle_type_id":"4","last_reported":1752893311,"current_range_meters":12000,"station_id":"ce4bh2p2rcd13ifvqdi0","pricing_plan_id":"cebpf4jnsgd1na2vs0mg"},{"bike_id":"0b250332-c99a-4726-ac2a-74deb04ffed3","system_id":"levelo_inurba_marseille","lat":43.27918,"lon":5.39571,"is_reserved":false,"is_disabled":true,"rental_uris":{"android":"levelo://app?vid=0b250332-c99a-4726-ac2a-74deb04ffed3","ios":"levelo://app?vid=0b250332-c99a-4726-ac2a-74deb04ffed3"},"vehicle_type_id":"4","last_reported":1752893311,"current_range_meters":12000,"station_id":"ce4bhf92rcd13ifvqf40","pricing_plan_id":"cebpf4jnsgd1na2vs0mg"},{"bike_id":"57a30f0b-84eb-4b98-8989-8d3c02b43bf0","system_id":"levelo_inurba_marseille","lat":43.28629,"lon":5.37005,"is_reserved":false,"is_disabled":false,"rental_uris":{"android":"levelo://app?vid=57a30f0b-84eb-4b98-8989-8d3c02b43bf0","ios":"levelo://app?vid=57a30f0b-84eb-4b98-8989-8d3c02b43bf0"},"vehicle_type_id":"4","last_reported":1752893311,"current_range_meters":12000,"station_id":"","pricing_plan_id":"cebpf4jnsgd1na2vs0mg"},{"bike_id":"97d335ba-fdf4-4ae7-89d2-d064c8f00a22","system_id":"levelo_inurba_marseille","lat":43.292786,"lon":5.401193,"is_reserved":false,"is_disabled":false,"rental_uris":{"android":"levelo://app?vid=97d335ba-fdf4-4ae7-89d2-d064c8f00a22","ios":"levelo://app?vid=97d335ba-fdf4-4ae7-89d2-d064c8f00a22"},"vehicle_type_id":"4","last_reported":1752893311,"current_range_meters":12000,"station_id":"ce4bh312rcd13ifvqdk0","pricing_plan_id":"cebpf4jnsgd1na2vs0mg"},{"bike_id":"69d3f137-4dd7-4a32-bc5c-571e1585d8bc","system_id":"levelo_inurba_marseille","lat":43.31714,"lon":5.37761,"is_reserved":false,"is_disabled":false,"rental_uris":{"android":"levelo://app?vid=69d3f137-4dd7-4a32-bc5c-571e1585d8bc","ios":"levelo://app?vid=69d3f137-4dd7-4a32-bc5c-571e1585d8bc"},"vehicle_type_id":"4","last_reported":1752893311,"current_range_meters":12000,"station_id":"ce4bgth2rcd13ifvqch0","pricing_plan_id":"cebpf4jnsgd1na2vs0mg"},{"bike_id":"b7fe52dd-f025-4212-9e78-19e7f6f09593","system_id":"levelo_inurba_marseille","lat":43.211944,"lon":5.350733,"is_reserved":false,"is_disabled":false,"rental_uris":{"android":"levelo://app?vid=b7fe52dd-f025-4212-9e78-19e7f6f09593","ios":"levelo://app?vid=b7fe52dd-f025-4212-9e78-19e7f6f09593"},"vehicle_type_id":"4","last_reported":1752893311,"current_range_meters":12000,"station_id":"st_cvj6sg6p6f1abm77japg","pricing_plan_id":"cebpf4jnsgd1na2vs0mg"},{"bike_id":"70a3940c-c40a-4ef4-8e48-8b68d4968bc7","system_id":"levelo_inurba_marseille","lat":43.23958,"lon":5.36632,"is_reserved":false,"is_disabled":true,"rental_uris":{"android":"levelo://app?vid=70a3940c-c40a-4ef4-8e48-8b68d4968bc7","ios":"levelo://app?vid=70a3940c-c40a-4ef4-8e48-8b68d4968bc7"},"vehicle_type_id":"4","last_reported":1752893311,"current_range_meters":12400,"station_id":"ce4bhi12rcd13ifvqfp0","pricing_plan_id":"cebpf4jnsgd1na2vs0mg"},{"bike_id":"5ed7e33c-75eb-4f80-9ced-f5eee5190af4","system_id":"levelo_inurba_marseille","lat":43.29558,"lon":5.42276,"is_reserved":false,"is_disabled":false,"rental_uris":{"android":"levelo://app?vid=5ed7e33c-75eb-4f80-9ced-f5eee5190af4","ios":"levelo://app?vid=5ed7e33c-75eb-4f80-9ced-f5eee5190af4"},"vehicle_type_id":"4","last_reported":1752893311,"current_range_meters":12400,"station_id":"ce4bhph2rcd13ifvqhdg","pricing_plan_id":"cebpf4jnsgd1na2vs0mg"},{"bike_id":"17faee49-6a58-4f72-9feb-7075c4068f3c","system_id":"levelo_inurba_marseille","lat":43.30906,"lon":5.36844,"is_reserved":false,"is_disabled":false,"rental_uris":{"android":"levelo://app?vid=17faee49-6a58-4f72-9feb-7075c4068f3c","ios":"levelo://app?vid=17faee49-6a58-4f72-9feb-7075c4068f3c"},"vehicle_type_id":"4","last_reported":1752893311,"current_range_meters":12000,"station_id":"ce4bgn92rcd13ifvqbvg","pricing_plan_id":"cebpf4jnsgd1na2vs0mg"},{"bike_id":"9d26a0e8-52a9-4afd-8a23-859b3c0d8c1a","system_id":"levelo_inurba_marseille","lat":43.28716,"lon":5.39992,"is_reserved":false,"is_disabled":false,"rental_uris":{"android":"levelo://app?vid=9d26a0e8-52a9-4afd-8a23-859b3c0d8c1a","ios":"levelo://app?vid=9d26a0e8-52a9-4afd-8a23-859b3c0d8c1a"},"vehicle_type_id":"4","last_reported":1752893311,"current_range_meters":12400,"station_id":"ce4bho92rcd13ifvqh3g","pricing_plan_id":"cebpf4jnsgd1na2vs0mg"},{"bike_id":"a67156ae-789e-45f5-ab3f-ed7d95b24540","system_id":"levelo_inurba_marseille","lat":43.211929,"lon":5.350734,"is_reserved":false,"is_disabled":false,"rental_uris":{"android":"levelo://app?vid=a67156ae-789e-45f5-ab3f-ed7d95b24540","ios":"levelo://app?vid=a67156ae-789e-45f5-ab3f-ed7d95b24540"},"vehicle_type_id":"4","last_reported":1752893311,"current_range_meters":12400,"station_id":"st_cvj6sg6p6f1abm77japg","pricing_plan_id":"cebpf4jnsgd1na2vs0mg"},{"bike_id":"0e545f9b-dad9-43b0-aef2-7627db5ff989","system_id":"levelo_inurba_marseille","lat":43.28705,"lon":5.39976,"is_reserved":false,"is_disabled":false,"rental_uris":{"android":"levelo://app?vid=0e545f9b-dad9-43b0-aef2-7627db5ff989","ios":"levelo://app?vid=0e545f9b-dad9-43b0-aef2-7627db5ff989"},"vehicle_type_id":"4","last_reported":1752893311,"current_range_meters":12400,"station_id":"ce4bho92rcd13ifvqh3g","pricing_plan_id":"cebpf4jnsgd1na2vs0mg"},{"bike_id":"8ab77867-8c31-4aa6-82eb-9dca1a4cb06d","system_id":"levelo_inurba_marseille","lat":43.31124,"lon":5.37807,"is_reserved":false,"is_disabled":true,"rental_uris":{"android":"levelo://app?vid=8ab77867-8c31-4aa6-82eb-9dca1a4cb06d","ios":"levelo://app?vid=8ab77867-8c31-4aa6-82eb-9dca1a4cb06d"},"vehicle_type_id":"4","last_reported":1752893311,"current_range_meters":12400,"station_id":"ce4bgt92rcd13ifvqcg0","pricing_plan_id":"cebpf4jnsgd1na2vs0mg"},{"bike_id":"6f18ab1b-0c74-47b1-bed8-837677176207","system_id":"levelo_inurba_marseille","lat":43.32064,"lon":5.40925,"is_reserved":false,"is_disabled":false,"rental_uris":{"android":"levelo://app?vid=6f18ab1b-0c74-47b1-bed8-837677176207","ios":"levelo://app?vid=6f18ab1b-0c74-47b1-bed8-837677176207"},"vehicle_type_id":"4","last_reported":1752893311,"current_range_meters":12400,"station_id":"","pricing_plan_id":"cebpf4jnsgd1na2vs0mg"},{"bike_id":"d8981cbe-cbbc-4026-8a18-b1c549870765","system_id":"levelo_inurba_marseille","lat":43.29715,"lon":5.36602,"is_reserved":false,"is_disabled":false,"rental_uris":{"android":"levelo://app?vid=d8981cbe-cbbc-4026-8a18-b1c549870765","ios":"levelo://app?vid=d8981cbe-cbbc-4026-8a18-b1c549870765"},"vehicle_type_id":"4","last_reported":1752893311,"current_range_meters":12800,"station_id":"ce4bgn12rcd13ifvqbt0","pricing_plan_id":"cebpf4jnsgd1na2vs0mg"},{"bike_id":"ec2b2fdf-c717-4d0d-a5a1-388d9260ccf0","system_id":"levelo_inurba_marseille","lat":43.281567,"lon":5.426433,"is_reserved":false,"is_disabled":false,"rental_uris":{"android":"levelo://app?vid=ec2b2fdf-c717-4d0d-a5a1-388d9260ccf0","ios":"levelo://app?vid=ec2b2fdf-c717-4d0d-a5a1-388d9260ccf0"},"vehicle_type_id":"4","last_reported":1752893311,"current_range_meters":13600,"station_id":"ce4bhnh2rcd13ifvqgug","pricing_plan_id":"cebpf4jnsgd1na2vs0mg"},{"bike_id":"0ffec689-ea73-4886-a8a8-e9075fc0366f","system_id":"levelo_inurba_marseille","lat":43.30731,"lon":5.42462,"is_reserved":false,"is_disabled":true,"rental_uris":{"android":"levelo://app?vid=0ffec689-ea73-4886-a8a8-e9075fc0366f","ios":"levelo://app?vid=0ffec689-ea73-4886-a8a8-e9075fc0366f"},"vehicle_type_id":"4","last_reported":1752893311,"current_range_meters":13600,"station_id":"st_cvj6ca6bvosntc0bfgr0","pricing_plan_id":"cebpf4jnsgd1na2vs0mg"},{"bike_id":"ac0ed4be-466c-4caa-b855-3c6bbe5a11b5","system_id":"levelo_inurba_marseille","lat":43.267671,"lon":5.37178,"is_reserved":false,"is_disabled":false,"rental_uris":{"android":"levelo://app?vid=ac0ed4be-466c-4caa-b855-3c6bbe5a11b5","ios":"levelo://app?vid=ac0ed4be-466c-4caa-b855-3c6bbe5a11b5"},"vehicle_type_id":"4","last_reported":1752893311,"current_range_meters":13600,"station_id":"","pricing_plan_id":"cebpf4jnsgd1na2vs0mg"},{"bike_id":"8e79a85b-71cd-44e2-9769-4ad285ff7c49","system_id":"levelo_inurba_marseille","lat":43.2175,"lon":5.34611,"is_reserved":false,"is_disabled":false,"rental_uris":{"android":"levelo://app?vid=8e79a85b-71cd-44e2-9769-4ad285ff7c49","ios":"levelo://app?vid=8e79a85b-71cd-44e2-9769-4ad285ff7c49"},"vehicle_type_id":"4","last_reported":1752893311,"current_range_meters":13600,"station_id":"st_cvj6r9ubvosntc0bgbag","pricing_plan_id":"cebpf4jnsgd1na2vs0mg"},{"bike_id":"2fd3d782-24a7-42a3-b248-8e69e5a88f8a","system_id":"levelo_inurba_marseille","lat":43.31703,"lon":5.40446,"is_reserved":false,"is_disabled":false,"rental_uris":{"android":"levelo://app?vid=2fd3d782-24a7-42a3-b248-8e69e5a88f8a","ios":"levelo://app?vid=2fd3d782-24a7-42a3-b248-8e69e5a88f8a"},"vehicle_type_id":"4","last_reported":1752893311,"current_range_meters":13600,"station_id":"ce4bh012rcd13ifvqd00","pricing_plan_id":"cebpf4jnsgd1na2vs0mg"},{"bike_id":"edd0079d-996b-4ae3-9a31-d781f3a059ec","system_id":"levelo_inurba_marseille","lat":43.33786,"lon":5.37426,"is_reserved":false,"is_disabled":false,"rental_uris":{"android":"levelo://app?vid=edd0079d-996b-4ae3-9a31-d781f3a059ec","ios":"levelo://app?vid=edd0079d-996b-4ae3-9a31-d781f3a059ec"},"vehicle_type_id":"4","last_reported":1752893311,"current_range_meters":13600,"station_id":"","pricing_plan_id":"cebpf4jnsgd1na2vs0mg"},{"bike_id":"782021d6-37ef-4fe1-8e48-2f487b2e357c","system_id":"levelo_inurba_marseille","lat":43.26579,"lon":5.3898,"is_reserved":false,"is_disabled":false,"rental_uris":{"android":"levelo://app?vid=782021d6-37ef-4fe1-8e48-2f487b2e357c","ios":"levelo://app?vid=782021d6-37ef-4fe1-8e48-2f487b2e357c"},"vehicle_type_id":"4","last_reported":1752893311,"current_range_meters":13600,"station_id":"ce4bhe12rcd13ifvqf30","pricing_plan_id":"cebpf4jnsgd1na2vs0mg"},{"bike_id":"e571b882-1b31-481a-9f98-8ab8eeeef29c","system_id":"levelo_inurba_marseille","lat":43.28704,"lon":5.37374,"is_reserved":false,"is_disabled":false,"rental_uris":{"android":"levelo://app?vid=e571b882-1b31-481a-9f98-8ab8eeeef29c","ios":"levelo://app?vid=e571b882-1b31-481a-9f98-8ab8eeeef29c"},"vehicle_type_id":"4","last_reported":1752893311,"current_range_meters":14000,"station_id":"ce4bh3p2rcd13ifvqdq0","pricing_plan_id":"cebpf4jnsgd1na2vs0mg"},{"bike_id":"08a94e68-7279-4c26-9ca7-7cd2e2f2fe4c","system_id":"levelo_inurba_marseille","lat":43.241641,"lon":5.36391,"is_reserved":false,"is_disabled":true,"rental_uris":{"android":"levelo://app?vid=08a94e68-7279-4c26-9ca7-7cd2e2f2fe4c","ios":"levelo://app?vid=08a94e68-7279-4c26-9ca7-7cd2e2f2fe4c"},"vehicle_type_id":"4","last_reported":1752893311,"current_range_meters":14000,"station_id":"cpo36qri1sfpv3e86is0","pricing_plan_id":"cebpf4jnsgd1na2vs0mg"},{"bike_id":"1ec4eaa5-8358-4ab4-9a43-bd805d4f9a92","system_id":"levelo_inurba_marseille","lat":43.29273,"lon":5.40125,"is_reserved":false,"is_disabled":false,"rental_uris":{"android":"levelo://app?vid=1ec4eaa5-8358-4ab4-9a43-bd805d4f9a92","ios":"levelo://app?vid=1ec4eaa5-8358-4ab4-9a43-bd805d4f9a92"},"vehicle_type_id":"4","last_reported":1752893311,"current_range_meters":14000,"station_id":"ce4bh312rcd13ifvqdk0","pricing_plan_id":"cebpf4jnsgd1na2vs0mg"},{"bike_id":"bc8d6acc-2b2d-41a0-a50e-3a8d600273b1","system_id":"levelo_inurba_marseille","lat":43.28712,"lon":5.3793,"is_reserved":false,"is_disabled":false,"rental_uris":{"android":"levelo://app?vid=bc8d6acc-2b2d-41a0-a50e-3a8d600273b1","ios":"levelo://app?vid=bc8d6acc-2b2d-41a0-a50e-3a8d600273b1"},"vehicle_type_id":"4","last_reported":1752893311,"current_range_meters":13600,"station_id":"ce4bh9p2rcd13ifvqec0","pricing_plan_id":"cebpf4jnsgd1na2vs0mg"},{"bike_id":"d64faf9a-8194-477f-92c8-09711789b535","system_id":"levelo_inurba_marseille","lat":43.30145,"lon":5.3987,"is_reserved":false,"is_disabled":false,"rental_uris":{"android":"levelo://app?vid=d64faf9a-8194-477f-92c8-09711789b535","ios":"levelo://app?vid=d64faf9a-8194-477f-92c8-09711789b535"},"vehicle_type_id":"4","last_reported":1752893311,"current_range_meters":14000,"station_id":"ce4bh0h2rcd13ifvqd40","pricing_plan_id":"cebpf4jnsgd1na2vs0mg"},{"bike_id":"227109b7-4063-4114-8546-c20e3f2bd6c8","system_id":"levelo_inurba_marseille","lat":43.30266,"lon":5.4005,"is_reserved":false,"is_disabled":false,"rental_uris":{"android":"levelo://app?vid=227109b7-4063-4114-8546-c20e3f2bd6c8","ios":"levelo://app?vid=227109b7-4063-4114-8546-c20e3f2bd6c8"},"vehicle_type_id":"4","last_reported":1752893311,"current_range_meters":14400,"station_id":"ce4bgvh2rcd13ifvqcs0","pricing_plan_id":"cebpf4jnsgd1na2vs0mg"},{"bike_id":"262bba80-9a85-4074-97aa-225c3aedc3b7","system_id":"levelo_inurba_marseille","lat":43.30656,"lon":5.401,"is_reserved":false,"is_disabled":true,"rental_uris":{"android":"levelo://app?vid=262bba80-9a85-4074-97aa-225c3aedc3b7","ios":"levelo://app?vid=262bba80-9a85-4074-97aa-225c3aedc3b7"},"vehicle_type_id":"4","last_reported":1752893311,"current_range_meters":14400,"station_id":"ce4bh112rcd13ifvqda0","pricing_plan_id":"cebpf4jnsgd1na2vs0mg"},{"bike_id":"1a794689-0399-4bd8-871c-778f85fe0438","system_id":"levelo_inurba_marseille","lat":43.27506,"lon":5.42457,"is_reserved":false,"is_disabled":false,"rental_uris":{"android":"levelo://app?vid=1a794689-0399-4bd8-871c-778f85fe0438","ios":"levelo://app?vid=1a794689-0399-4bd8-871c-778f85fe0438"},"vehicle_type_id":"4","last_reported":1752893311,"current_range_meters":14400,"station_id":"ce4bhn92rcd13ifvqgrg","pricing_plan_id":"cebpf4jnsgd1na2vs0mg"},{"bike_id":"380d9762-7aa7-482d-9fc2-515ae61b009c","system_id":"levelo_inurba_marseille","lat":43.24079,"lon":5.37696,"is_reserved":false,"is_disabled":false,"rental_uris":{"android":"levelo://app?vid=380d9762-7aa7-482d-9fc2-515ae61b009c","ios":"levelo://app?vid=380d9762-7aa7-482d-9fc2-515ae61b009c"},"vehicle_type_id":"4","last_reported":1752893311,"current_range_meters":14800,"station_id":"ce4bhnp2rcd13ifvqgvg","pricing_plan_id":"cebpf4jnsgd1na2vs0mg"},{"bike_id":"18c761bd-b5e7-4baf-979c-bae503422e86","system_id":"levelo_inurba_marseille","lat":43.30251,"lon":5.4008,"is_reserved":false,"is_disabled":false,"rental_uris":{"android":"levelo://app?vid=18c761bd-b5e7-4baf-979c-bae503422e86","ios":"levelo://app?vid=18c761bd-b5e7-4baf-979c-bae503422e86"},"vehicle_type_id":"4","last_reported":1752893311,"current_range_meters":14800,"station_id":"ce4bgvh2rcd13ifvqcs0","pricing_plan_id":"cebpf4jnsgd1na2vs0mg"},{"bike_id":"3dbe5912-b178-4d6a-b0a5-780c833ee7fa","system_id":"levelo_inurba_marseille","lat":43.29056,"lon":5.355925,"is_reserved":false,"is_disabled":false,"rental_uris":{"android":"levelo://app?vid=3dbe5912-b178-4d6a-b0a5-780c833ee7fa","ios":"levelo://app?vid=3dbe5912-b178-4d6a-b0a5-780c833ee7fa"},"vehicle_type_id":"4","last_reported":1752893311,"current_range_meters":14800,"station_id":"","pricing_plan_id":"cebpf4jnsgd1na2vs0mg"},{"bike_id":"223cebf6-a660-41bf-b041-5bddcc036514","system_id":"levelo_inurba_marseille","lat":43.26936,"lon":5.40256,"is_reserved":false,"is_disabled":false,"rental_uris":{"android":"levelo://app?vid=223cebf6-a660-41bf-b041-5bddcc036514","ios":"levelo://app?vid=223cebf6-a660-41bf-b041-5bddcc036514"},"vehicle_type_id":"4","last_reported":1752893311,"current_range_meters":14800,"station_id":"cjm6bp8fraef2m0cb0m0","pricing_plan_id":"cebpf4jnsgd1na2vs0mg"},{"bike_id":"90f1924f-336d-4405-b5b1-03dcfd5afe7c","system_id":"levelo_inurba_marseille","lat":43.27827,"lon":5.3849,"is_reserved":false,"is_disabled":false,"rental_uris":{"android":"levelo://app?vid=90f1924f-336d-4405-b5b1-03dcfd5afe7c","ios":"levelo://app?vid=90f1924f-336d-4405-b5b1-03dcfd5afe7c"},"vehicle_type_id":"4","last_reported":1752893311,"current_range_meters":14800,"station_id":"","pricing_plan_id":"cebpf4jnsgd1na2vs0mg"},{"bike_id":"0916292f-c60f-4ec2-a3c5-bb862cec8507","system_id":"levelo_inurba_marseille","lat":43.23184,"lon":5.35532,"is_reserved":false,"is_disabled":false,"rental_uris":{"android":"levelo://app?vid=0916292f-c60f-4ec2-a3c5-bb862cec8507","ios":"levelo://app?vid=0916292f-c60f-4ec2-a3c5-bb862cec8507"},"vehicle_type_id":"4","last_reported":1752893311,"current_range_meters":14800,"station_id":"ce4bhu92rcd13ifvqi70","pricing_plan_id":"cebpf4jnsgd1na2vs0mg"},{"bike_id":"7f02cd16-abf2-40a4-97c2-19dc0dd97d66","system_id":"levelo_inurba_marseille","lat":43.26222,"lon":5.40419,"is_reserved":false,"is_disabled":false,"rental_uris":{"android":"levelo://app?vid=7f02cd16-abf2-40a4-97c2-19dc0dd97d66","ios":"levelo://app?vid=7f02cd16-abf2-40a4-97c2-19dc0dd97d66"},"vehicle_type_id":"4","last_reported":1752893311,"current_range_meters":15200,"station_id":"ce4bhmh2rcd13ifvqgmg","pricing_plan_id":"cebpf4jnsgd1na2vs0mg"},{"bike_id":"0e3e9a19-a32e-45e2-bce2-fa6c5fad95bf","system_id":"levelo_inurba_marseille","lat":43.310684,"lon":5.383541,"is_reserved":false,"is_disabled":false,"rental_uris":{"android":"levelo://app?vid=0e3e9a19-a32e-45e2-bce2-fa6c5fad95bf","ios":"levelo://app?vid=0e3e9a19-a32e-45e2-bce2-fa6c5fad95bf"},"vehicle_type_id":"4","last_reported":1752893311,"current_range_meters":15200,"station_id":"ce4bgv92rcd13ifvqcr0","pricing_plan_id":"cebpf4jnsgd1na2vs0mg"},{"bike_id":"31ce5e9c-04fe-46ac-8221-cc9c8885ab79","system_id":"levelo_inurba_marseille","lat":43.32375,"lon":5.40626,"is_reserved":false,"is_disabled":false,"rental_uris":{"android":"levelo://app?vid=31ce5e9c-04fe-46ac-8221-cc9c8885ab79","ios":"levelo://app?vid=31ce5e9c-04fe-46ac-8221-cc9c8885ab79"},"vehicle_type_id":"4","last_reported":1752893311,"current_range_meters":15200,"station_id":"ce4bhq92rcd13ifvqhjg","pricing_plan_id":"cebpf4jnsgd1na2vs0mg"},{"bike_id":"552f10ae-ebe9-4a43-9161-2070e2842bf6","system_id":"levelo_inurba_marseille","lat":43.323327,"lon":5.406254,"is_reserved":false,"is_disabled":false,"rental_uris":{"android":"levelo://app?vid=552f10ae-ebe9-4a43-9161-2070e2842bf6","ios":"levelo://app?vid=552f10ae-ebe9-4a43-9161-2070e2842bf6"},"vehicle_type_id":"4","last_reported":1752893311,"current_range_meters":15200,"station_id":"ce4bhq92rcd13ifvqhjg","pricing_plan_id":"cebpf4jnsgd1na2vs0mg"},{"bike_id":"94c07cb2-0943-4d24-99f2-97bdab47aa3f","system_id":"levelo_inurba_marseille","lat":43.337444,"lon":5.374475,"is_reserved":false,"is_disabled":false,"rental_uris":{"android":"levelo://app?vid=94c07cb2-0943-4d24-99f2-97bdab47aa3f","ios":"levelo://app?vid=94c07cb2-0943-4d24-99f2-97bdab47aa3f"},"vehicle_type_id":"4","last_reported":1752893311,"current_range_meters":15200,"station_id":"","pricing_plan_id":"cebpf4jnsgd1na2vs0mg"},{"bike_id":"11a10c3e-2518-452e-9534-fe8c7d8faf7f","system_id":"levelo_inurba_marseille","lat":43.24741,"lon":5.41169,"is_reserved":false,"is_disabled":false,"rental_uris":{"android":"levelo://app?vid=11a10c3e-2518-452e-9534-fe8c7d8faf7f","ios":"levelo://app?vid=11a10c3e-2518-452e-9534-fe8c7d8faf7f"},"vehicle_type_id":"4","last_reported":1752893311,"current_range_meters":16000,"station_id":"","pricing_plan_id":"cebpf4jnsgd1na2vs0mg"},{"bike_id":"afc91c81-7042-4270-a28e-07e325ae83c9","system_id":"levelo_inurba_marseille","lat":43.21193,"lon":5.3506,"is_reserved":false,"is_disabled":false,"rental_uris":{"android":"levelo://app?vid=afc91c81-7042-4270-a28e-07e325ae83c9","ios":"levelo://app?vid=afc91c81-7042-4270-a28e-07e325ae83c9"},"vehicle_type_id":"4","last_reported":1752893311,"current_range_meters":16000,"station_id":"st_cvj6sg6p6f1abm77japg","pricing_plan_id":"cebpf4jnsgd1na2vs0mg"},{"bike_id":"221a8f03-67cb-485b-8573-9abcf816d5d5","system_id":"levelo_inurba_marseille","lat":43.29868,"lon":5.39734,"is_reserved":false,"is_disabled":false,"rental_uris":{"android":"levelo://app?vid=221a8f03-67cb-485b-8573-9abcf816d5d5","ios":"levelo://app?vid=221a8f03-67cb-485b-8573-9abcf816d5d5"},"vehicle_type_id":"4","last_reported":1752893311,"current_range_meters":16000,"station_id":"","pricing_plan_id":"cebpf4jnsgd1na2vs0mg"},{"bike_id":"909ff96a-76aa-4e1c-b682-b3361ada4793","system_id":"levelo_inurba_marseille","lat":43.240735,"lon":5.377526,"is_reserved":false,"is_disabled":false,"rental_uris":{"android":"levelo://app?vid=909ff96a-76aa-4e1c-b682-b3361ada4793","ios":"levelo://app?vid=909ff96a-76aa-4e1c-b682-b3361ada4793"},"vehicle_type_id":"4","last_reported":1752893311,"current_range_meters":16000,"station_id":"ce4bhnp2rcd13ifvqgvg","pricing_plan_id":"cebpf4jnsgd1na2vs0mg"},{"bike_id":"b970126c-c1c3-439a-8880-44ad88bd90cf","system_id":"levelo_inurba_marseille","lat":43.32113,"lon":5.36753,"is_reserved":false,"is_disabled":false,"rental_uris":{"android":"levelo://app?vid=b970126c-c1c3-439a-8880-44ad88bd90cf","ios":"levelo://app?vid=b970126c-c1c3-439a-8880-44ad88bd90cf"},"vehicle_type_id":"4","last_reported":1752893311,"current_range_meters":16000,"station_id":"ce4bhrh2rcd13ifvqhug","pricing_plan_id":"cebpf4jnsgd1na2vs0mg"},{"bike_id":"cd5a9591-6e46-4776-8003-ff3824872e9f","system_id":"levelo_inurba_marseille","lat":43.2899,"lon":5.356,"is_reserved":false,"is_disabled":true,"rental_uris":{"android":"levelo://app?vid=cd5a9591-6e46-4776-8003-ff3824872e9f","ios":"levelo://app?vid=cd5a9591-6e46-4776-8003-ff3824872e9f"},"vehicle_type_id":"4","last_reported":1752893311,"current_range_meters":16000,"station_id":"ce4bhb92rcd13ifvqen0","pricing_plan_id":"cebpf4jnsgd1na2vs0mg"},{"bike_id":"7360b2c1-827d-4a45-ba07-948ef7d2fc35","system_id":"levelo_inurba_marseille","lat":43.229295,"lon":5.353761,"is_reserved":false,"is_disabled":false,"rental_uris":{"android":"levelo://app?vid=7360b2c1-827d-4a45-ba07-948ef7d2fc35","ios":"levelo://app?vid=7360b2c1-827d-4a45-ba07-948ef7d2fc35"},"vehicle_type_id":"4","last_reported":1752893311,"current_range_meters":16000,"station_id":"","pricing_plan_id":"cebpf4jnsgd1na2vs0mg"},{"bike_id":"96579d04-b9e9-484c-9b9a-af500e5e8552","system_id":"levelo_inurba_marseille","lat":43.32673,"lon":5.36396,"is_reserved":false,"is_disabled":false,"rental_uris":{"android":"levelo://app?vid=96579d04-b9e9-484c-9b9a-af500e5e8552","ios":"levelo://app?vid=96579d04-b9e9-484c-9b9a-af500e5e8552"},"vehicle_type_id":"4","last_reported":1752893311,"current_range_meters":16000,"station_id":"","pricing_plan_id":"cebpf4jnsgd1na2vs0mg"},{"bike_id":"d5cf0ddb-4301-4e01-9253-a4393d968d0a","system_id":"levelo_inurba_marseille","lat":43.225038,"lon":5.34786,"is_reserved":false,"is_disabled":false,"rental_uris":{"android":"levelo://app?vid=d5cf0ddb-4301-4e01-9253-a4393d968d0a","ios":"levelo://app?vid=d5cf0ddb-4301-4e01-9253-a4393d968d0a"},"vehicle_type_id":"4","last_reported":1752893311,"current_range_meters":16400,"station_id":"st_cvj5dfep6f1abm77gieg","pricing_plan_id":"cebpf4jnsgd1na2vs0mg"},{"bike_id":"58d6c207-a20a-4ba1-b2e5-5a25118f1861","system_id":"levelo_inurba_marseille","lat":43.29573,"lon":5.37509,"is_reserved":false,"is_disabled":true,"rental_uris":{"android":"levelo://app?vid=58d6c207-a20a-4ba1-b2e5-5a25118f1861","ios":"levelo://app?vid=58d6c207-a20a-4ba1-b2e5-5a25118f1861"},"vehicle_type_id":"4","last_reported":1752893311,"current_range_meters":16400,"station_id":"ce4bgh92rcd13ifvqb50","pricing_plan_id":"cebpf4jnsgd1na2vs0mg"},{"bike_id":"cb7b541b-4aa0-476b-ac1b-c83b6acaa65d","system_id":"levelo_inurba_marseille","lat":43.24168,"lon":5.3638,"is_reserved":false,"is_disabled":false,"rental_uris":{"android":"levelo://app?vid=cb7b541b-4aa0-476b-ac1b-c83b6acaa65d","ios":"levelo://app?vid=cb7b541b-4aa0-476b-ac1b-c83b6acaa65d"},"vehicle_type_id":"4","last_reported":1752893311,"current_range_meters":16400,"station_id":"cpo36qri1sfpv3e86is0","pricing_plan_id":"cebpf4jnsgd1na2vs0mg"},{"bike_id":"2e73ca94-9293-404b-9207-03d0f48ea2b6","system_id":"levelo_inurba_marseille","lat":43.29868,"lon":5.39713,"is_reserved":false,"is_disabled":false,"rental_uris":{"android":"levelo://app?vid=2e73ca94-9293-404b-9207-03d0f48ea2b6","ios":"levelo://app?vid=2e73ca94-9293-404b-9207-03d0f48ea2b6"},"vehicle_type_id":"4","last_reported":1752893311,"current_range_meters":16400,"station_id":"ce4bh0h2rcd13ifvqd50","pricing_plan_id":"cebpf4jnsgd1na2vs0mg"},{"bike_id":"e3e3bd6b-a4b6-48d9-bfd2-7ec94f1899d9","system_id":"levelo_inurba_marseille","lat":43.306056,"lon":5.372301,"is_reserved":false,"is_disabled":false,"rental_uris":{"android":"levelo://app?vid=e3e3bd6b-a4b6-48d9-bfd2-7ec94f1899d9","ios":"levelo://app?vid=e3e3bd6b-a4b6-48d9-bfd2-7ec94f1899d9"},"vehicle_type_id":"4","last_reported":1752893311,"current_range_meters":16400,"station_id":"ce4bgqh2rcd13ifvqc4g","pricing_plan_id":"cebpf4jnsgd1na2vs0mg"},{"bike_id":"9e944c0d-2dd7-4c1a-b131-d5121e0f348e","system_id":"levelo_inurba_marseille","lat":43.3107,"lon":5.38348,"is_reserved":false,"is_disabled":false,"rental_uris":{"android":"levelo://app?vid=9e944c0d-2dd7-4c1a-b131-d5121e0f348e","ios":"levelo://app?vid=9e944c0d-2dd7-4c1a-b131-d5121e0f348e"},"vehicle_type_id":"4","last_reported":1752893311,"current_range_meters":16400,"station_id":"ce4bgv92rcd13ifvqcr0","pricing_plan_id":"cebpf4jnsgd1na2vs0mg"},{"bike_id":"ab6c1c2d-c3a8-4a50-8537-c191d4400e5e","system_id":"levelo_inurba_marseille","lat":43.231484,"lon":5.437221,"is_reserved":false,"is_disabled":false,"rental_uris":{"android":"levelo://app?vid=ab6c1c2d-c3a8-4a50-8537-c191d4400e5e","ios":"levelo://app?vid=ab6c1c2d-c3a8-4a50-8537-c191d4400e5e"},"vehicle_type_id":"4","last_reported":1752893311,"current_range_meters":16400,"station_id":"ce4bhmp2rcd13ifvqgog","pricing_plan_id":"cebpf4jnsgd1na2vs0mg"},{"bike_id":"86873c79-c295-4e2c-a5ed-7a5b0198aef2","system_id":"levelo_inurba_marseille","lat":43.28439,"lon":5.39197,"is_reserved":false,"is_disabled":false,"rental_uris":{"android":"levelo://app?vid=86873c79-c295-4e2c-a5ed-7a5b0198aef2","ios":"levelo://app?vid=86873c79-c295-4e2c-a5ed-7a5b0198aef2"},"vehicle_type_id":"4","last_reported":1752893311,"current_range_meters":16000,"station_id":"ce4bhoh2rcd13ifvqh5g","pricing_plan_id":"cebpf4jnsgd1na2vs0mg"},{"bike_id":"e7184304-2571-4324-a17d-f339f53cb33e","system_id":"levelo_inurba_marseille","lat":43.279407,"lon":5.410434,"is_reserved":false,"is_disabled":true,"rental_uris":{"android":"levelo://app?vid=e7184304-2571-4324-a17d-f339f53cb33e","ios":"levelo://app?vid=e7184304-2571-4324-a17d-f339f53cb33e"},"vehicle_type_id":"4","last_reported":1752893311,"current_range_meters":16400,"station_id":"ce4bhnp2rcd13ifvqh0g","pricing_plan_id":"cebpf4jnsgd1na2vs0mg"},{"bike_id":"5a2a0343-e689-4eff-8ed2-c493a0a6dbbd","system_id":"levelo_inurba_marseille","lat":43.29606,"lon":5.40037,"is_reserved":false,"is_disabled":false,"rental_uris":{"android":"levelo://app?vid=5a2a0343-e689-4eff-8ed2-c493a0a6dbbd","ios":"levelo://app?vid=5a2a0343-e689-4eff-8ed2-c493a0a6dbbd"},"vehicle_type_id":"4","last_reported":1752893311,"current_range_meters":16400,"station_id":"ce4bh312rcd13ifvqdj0","pricing_plan_id":"cebpf4jnsgd1na2vs0mg"},{"bike_id":"f4d50b9f-67c5-4a4e-82cd-5fb34bc9ddef","system_id":"levelo_inurba_marseille","lat":43.254589,"lon":5.382109,"is_reserved":false,"is_disabled":false,"rental_uris":{"android":"levelo://app?vid=f4d50b9f-67c5-4a4e-82cd-5fb34bc9ddef","ios":"levelo://app?vid=f4d50b9f-67c5-4a4e-82cd-5fb34bc9ddef"},"vehicle_type_id":"4","last_reported":1752893311,"current_range_meters":16400,"station_id":"","pricing_plan_id":"cebpf4jnsgd1na2vs0mg"},{"bike_id":"94384395-6746-44d0-8207-c06965f79dc0","system_id":"levelo_inurba_marseille","lat":43.33606,"lon":5.40983,"is_reserved":false,"is_disabled":false,"rental_uris":{"android":"levelo://app?vid=94384395-6746-44d0-8207-c06965f79dc0","ios":"levelo://app?vid=94384395-6746-44d0-8207-c06965f79dc0"},"vehicle_type_id":"4","last_reported":1752893311,"current_range_meters":16400,"station_id":"ce4bhqh2rcd13ifvqhmg","pricing_plan_id":"cebpf4jnsgd1na2vs0mg"},{"bike_id":"5de510b7-74a7-44d9-b827-3f81b08075ae","system_id":"levelo_inurba_marseille","lat":43.29634,"lon":5.40635,"is_reserved":false,"is_disabled":false,"rental_uris":{"android":"levelo://app?vid=5de510b7-74a7-44d9-b827-3f81b08075ae","ios":"levelo://app?vid=5de510b7-74a7-44d9-b827-3f81b08075ae"},"vehicle_type_id":"4","last_reported":1752893311,"current_range_meters":16400,"station_id":"ce4bh0h2rcd13ifvqd60","pricing_plan_id":"cebpf4jnsgd1na2vs0mg"},{"bike_id":"ffdcb720-2791-42ed-8828-b3e535e6153f","system_id":"levelo_inurba_marseille","lat":43.29896,"lon":5.4367,"is_reserved":false,"is_disabled":false,"rental_uris":{"android":"levelo://app?vid=ffdcb720-2791-42ed-8828-b3e535e6153f","ios":"levelo://app?vid=ffdcb720-2791-42ed-8828-b3e535e6153f"},"vehicle_type_id":"4","last_reported":1752893311,"current_range_meters":16000,"station_id":"ce4bhpp2rcd13ifvqhfg","pricing_plan_id":"cebpf4jnsgd1na2vs0mg"},{"bike_id":"9eee562f-c74b-4c1a-8fa0-1792764207de","system_id":"levelo_inurba_marseille","lat":43.25493,"lon":5.37664,"is_reserved":false,"is_disabled":true,"rental_uris":{"android":"levelo://app?vid=9eee562f-c74b-4c1a-8fa0-1792764207de","ios":"levelo://app?vid=9eee562f-c74b-4c1a-8fa0-1792764207de"},"vehicle_type_id":"4","last_reported":1752893311,"current_range_meters":16800,"station_id":"ce4bhh12rcd13ifvqff0","pricing_plan_id":"cebpf4jnsgd1na2vs0mg"},{"bike_id":"859628bb-a028-4272-a625-b9ebc6757b53","system_id":"levelo_inurba_marseille","lat":43.28706,"lon":5.37398,"is_reserved":false,"is_disabled":false,"rental_uris":{"android":"levelo://app?vid=859628bb-a028-4272-a625-b9ebc6757b53","ios":"levelo://app?vid=859628bb-a028-4272-a625-b9ebc6757b53"},"vehicle_type_id":"4","last_reported":1752893311,"current_range_meters":16800,"station_id":"ce4bh3p2rcd13ifvqdq0","pricing_plan_id":"cebpf4jnsgd1na2vs0mg"},{"bike_id":"f9f7ee83-39ae-4757-8ebe-f558eef3800a","system_id":"levelo_inurba_marseille","lat":43.28467,"lon":5.35877,"is_reserved":false,"is_disabled":false,"rental_uris":{"android":"levelo://app?vid=f9f7ee83-39ae-4757-8ebe-f558eef3800a","ios":"levelo://app?vid=f9f7ee83-39ae-4757-8ebe-f558eef3800a"},"vehicle_type_id":"4","last_reported":1752893311,"current_range_meters":16800,"station_id":"ce4bhah2rcd13ifvqei0","pricing_plan_id":"cebpf4jnsgd1na2vs0mg"},{"bike_id":"225d66f8-fc28-4c84-a6a4-39026d9439ff","system_id":"levelo_inurba_marseille","lat":43.31691,"lon":5.40471,"is_reserved":false,"is_disabled":false,"rental_uris":{"android":"levelo://app?vid=225d66f8-fc28-4c84-a6a4-39026d9439ff","ios":"levelo://app?vid=225d66f8-fc28-4c84-a6a4-39026d9439ff"},"vehicle_type_id":"4","last_reported":1752893311,"current_range_meters":16800,"station_id":"ce4bh012rcd13ifvqd00","pricing_plan_id":"cebpf4jnsgd1na2vs0mg"},{"bike_id":"6a157030-de0e-43bf-b121-1c326a6250da","system_id":"levelo_inurba_marseille","lat":43.3033,"lon":5.4043,"is_reserved":false,"is_disabled":false,"rental_uris":{"android":"levelo://app?vid=6a157030-de0e-43bf-b121-1c326a6250da","ios":"levelo://app?vid=6a157030-de0e-43bf-b121-1c326a6250da"},"vehicle_type_id":"4","last_reported":1752893311,"current_range_meters":16800,"station_id":"ce4bh012rcd13ifvqd10","pricing_plan_id":"cebpf4jnsgd1na2vs0mg"},{"bike_id":"63544c20-a54b-4b9a-8d7a-43dd4c48cc49","system_id":"levelo_inurba_marseille","lat":43.28101,"lon":5.37848,"is_reserved":false,"is_disabled":false,"rental_uris":{"android":"levelo://app?vid=63544c20-a54b-4b9a-8d7a-43dd4c48cc49","ios":"levelo://app?vid=63544c20-a54b-4b9a-8d7a-43dd4c48cc49"},"vehicle_type_id":"4","last_reported":1752893311,"current_range_meters":16800,"station_id":"ce4bha12rcd13ifvqee0","pricing_plan_id":"cebpf4jnsgd1na2vs0mg"},{"bike_id":"d1e9c72e-7489-4052-b944-813b64bc55b4","system_id":"levelo_inurba_marseille","lat":43.31644,"lon":5.38975,"is_reserved":false,"is_disabled":false,"rental_uris":{"android":"levelo://app?vid=d1e9c72e-7489-4052-b944-813b64bc55b4","ios":"levelo://app?vid=d1e9c72e-7489-4052-b944-813b64bc55b4"},"vehicle_type_id":"4","last_reported":1752893311,"current_range_meters":16800,"station_id":"","pricing_plan_id":"cebpf4jnsgd1na2vs0mg"},{"bike_id":"0de05b34-904d-47c0-8357-10e20dcf4a73","system_id":"levelo_inurba_marseille","lat":43.30643,"lon":5.40085,"is_reserved":false,"is_disabled":false,"rental_uris":{"android":"levelo://app?vid=0de05b34-904d-47c0-8357-10e20dcf4a73","ios":"levelo://app?vid=0de05b34-904d-47c0-8357-10e20dcf4a73"},"vehicle_type_id":"4","last_reported":1752893311,"current_range_meters":17200,"station_id":"ce4bh112rcd13ifvqda0","pricing_plan_id":"cebpf4jnsgd1na2vs0mg"},{"bike_id":"6b0369e0-1a9c-45ab-b6d2-a03906c62531","system_id":"levelo_inurba_marseille","lat":43.25121,"lon":5.40297,"is_reserved":false,"is_disabled":false,"rental_uris":{"android":"levelo://app?vid=6b0369e0-1a9c-45ab-b6d2-a03906c62531","ios":"levelo://app?vid=6b0369e0-1a9c-45ab-b6d2-a03906c62531"},"vehicle_type_id":"4","last_reported":1752893311,"current_range_meters":17200,"station_id":"ce4bhlh2rcd13ifvqgig","pricing_plan_id":"cebpf4jnsgd1na2vs0mg"},{"bike_id":"18d3b0c1-124b-42ee-8e3b-c61a80a919e9","system_id":"levelo_inurba_marseille","lat":43.287022,"lon":5.399902,"is_reserved":false,"is_disabled":false,"rental_uris":{"android":"levelo://app?vid=18d3b0c1-124b-42ee-8e3b-c61a80a919e9","ios":"levelo://app?vid=18d3b0c1-124b-42ee-8e3b-c61a80a919e9"},"vehicle_type_id":"4","last_reported":1752893311,"current_range_meters":17200,"station_id":"ce4bho92rcd13ifvqh3g","pricing_plan_id":"cebpf4jnsgd1na2vs0mg"},{"bike_id":"17d492b2-89e7-447f-beac-a46026873d6a","system_id":"levelo_inurba_marseille","lat":43.28408,"lon":5.37511,"is_reserved":false,"is_disabled":false,"rental_uris":{"android":"levelo://app?vid=17d492b2-89e7-447f-beac-a46026873d6a","ios":"levelo://app?vid=17d492b2-89e7-447f-beac-a46026873d6a"},"vehicle_type_id":"4","last_reported":1752893311,"current_range_meters":17200,"station_id":"ce4bh412rcd13ifvqds0","pricing_plan_id":"cebpf4jnsgd1na2vs0mg"},{"bike_id":"fdbeb289-adb3-4e25-b0dd-c635efbe92b2","system_id":"levelo_inurba_marseille","lat":43.31716,"lon":5.40446,"is_reserved":false,"is_disabled":false,"rental_uris":{"android":"levelo://app?vid=fdbeb289-adb3-4e25-b0dd-c635efbe92b2","ios":"levelo://app?vid=fdbeb289-adb3-4e25-b0dd-c635efbe92b2"},"vehicle_type_id":"4","last_reported":1752893311,"current_range_meters":17200,"station_id":"ce4bh012rcd13ifvqd00","pricing_plan_id":"cebpf4jnsgd1na2vs0mg"},{"bike_id":"d2d2016d-4dcc-4d79-a96f-162002d57e1b","system_id":"levelo_inurba_marseille","lat":43.296263,"lon":5.406,"is_reserved":false,"is_disabled":false,"rental_uris":{"android":"levelo://app?vid=d2d2016d-4dcc-4d79-a96f-162002d57e1b","ios":"levelo://app?vid=d2d2016d-4dcc-4d79-a96f-162002d57e1b"},"vehicle_type_id":"4","last_reported":1752893311,"current_range_meters":17200,"station_id":"ce4bh0h2rcd13ifvqd60","pricing_plan_id":"cebpf4jnsgd1na2vs0mg"},{"bike_id":"9eb19af1-3ac3-436d-805d-794abdcba832","system_id":"levelo_inurba_marseille","lat":43.23203,"lon":5.35533,"is_reserved":false,"is_disabled":false,"rental_uris":{"android":"levelo://app?vid=9eb19af1-3ac3-436d-805d-794abdcba832","ios":"levelo://app?vid=9eb19af1-3ac3-436d-805d-794abdcba832"},"vehicle_type_id":"4","last_reported":1752893311,"current_range_meters":17600,"station_id":"ce4bhu92rcd13ifvqi70","pricing_plan_id":"cebpf4jnsgd1na2vs0mg"},{"bike_id":"21415dea-2dde-49c3-b9f6-a8e5383f8ec7","system_id":"levelo_inurba_marseille","lat":43.29555,"lon":5.42284,"is_reserved":false,"is_disabled":false,"rental_uris":{"android":"levelo://app?vid=21415dea-2dde-49c3-b9f6-a8e5383f8ec7","ios":"levelo://app?vid=21415dea-2dde-49c3-b9f6-a8e5383f8ec7"},"vehicle_type_id":"4","last_reported":1752893311,"current_range_meters":17600,"station_id":"ce4bhph2rcd13ifvqhdg","pricing_plan_id":"cebpf4jnsgd1na2vs0mg"},{"bike_id":"d421927e-7ddd-40a0-904f-5b4ff0266a72","system_id":"levelo_inurba_marseille","lat":43.31917,"lon":5.401465,"is_reserved":false,"is_disabled":false,"rental_uris":{"android":"levelo://app?vid=d421927e-7ddd-40a0-904f-5b4ff0266a72","ios":"levelo://app?vid=d421927e-7ddd-40a0-904f-5b4ff0266a72"},"vehicle_type_id":"4","last_reported":1752893311,"current_range_meters":17600,"station_id":"","pricing_plan_id":"cebpf4jnsgd1na2vs0mg"},{"bike_id":"a54008a8-d6df-4141-9c71-b657434298fc","system_id":"levelo_inurba_marseille","lat":43.31713,"lon":5.4045,"is_reserved":false,"is_disabled":false,"rental_uris":{"android":"levelo://app?vid=a54008a8-d6df-4141-9c71-b657434298fc","ios":"levelo://app?vid=a54008a8-d6df-4141-9c71-b657434298fc"},"vehicle_type_id":"4","last_reported":1752893311,"current_range_meters":17600,"station_id":"ce4bh012rcd13ifvqd00","pricing_plan_id":"cebpf4jnsgd1na2vs0mg"},{"bike_id":"45dea0eb-918d-49f1-8341-001e35c226f0","system_id":"levelo_inurba_marseille","lat":43.211946,"lon":5.350857,"is_reserved":false,"is_disabled":false,"rental_uris":{"android":"levelo://app?vid=45dea0eb-918d-49f1-8341-001e35c226f0","ios":"levelo://app?vid=45dea0eb-918d-49f1-8341-001e35c226f0"},"vehicle_type_id":"4","last_reported":1752893311,"current_range_meters":17600,"station_id":"st_cvj6sg6p6f1abm77japg","pricing_plan_id":"cebpf4jnsgd1na2vs0mg"},{"bike_id":"bde5442b-2fd8-41b7-bd46-e8f10eead3f0","system_id":"levelo_inurba_marseille","lat":43.3234,"lon":5.40628,"is_reserved":false,"is_disabled":false,"rental_uris":{"android":"levelo://app?vid=bde5442b-2fd8-41b7-bd46-e8f10eead3f0","ios":"levelo://app?vid=bde5442b-2fd8-41b7-bd46-e8f10eead3f0"},"vehicle_type_id":"4","last_reported":1752893311,"current_range_meters":17600,"station_id":"ce4bhq92rcd13ifvqhjg","pricing_plan_id":"cebpf4jnsgd1na2vs0mg"},{"bike_id":"56be4ab9-5e92-449c-8994-c42709f936d2","system_id":"levelo_inurba_marseille","lat":43.270564,"lon":5.4026,"is_reserved":false,"is_disabled":false,"rental_uris":{"android":"levelo://app?vid=56be4ab9-5e92-449c-8994-c42709f936d2","ios":"levelo://app?vid=56be4ab9-5e92-449c-8994-c42709f936d2"},"vehicle_type_id":"4","last_reported":1752893311,"current_range_meters":17600,"station_id":"ce4bhk92rcd13ifvqgc0","pricing_plan_id":"cebpf4jnsgd1na2vs0mg"},{"bike_id":"dfa94b84-ac88-4a7a-be31-a75037d5303f","system_id":"levelo_inurba_marseille","lat":43.28695,"lon":5.39952,"is_reserved":false,"is_disabled":false,"rental_uris":{"android":"levelo://app?vid=dfa94b84-ac88-4a7a-be31-a75037d5303f","ios":"levelo://app?vid=dfa94b84-ac88-4a7a-be31-a75037d5303f"},"vehicle_type_id":"4","last_reported":1752893311,"current_range_meters":17600,"station_id":"ce4bho92rcd13ifvqh3g","pricing_plan_id":"cebpf4jnsgd1na2vs0mg"},{"bike_id":"ae514fe1-85ea-4b12-b065-9e5a24663928","system_id":"levelo_inurba_marseille","lat":43.21191,"lon":5.35077,"is_reserved":false,"is_disabled":false,"rental_uris":{"android":"levelo://app?vid=ae514fe1-85ea-4b12-b065-9e5a24663928","ios":"levelo://app?vid=ae514fe1-85ea-4b12-b065-9e5a24663928"},"vehicle_type_id":"4","last_reported":1752893311,"current_range_meters":17600,"station_id":"st_cvj6sg6p6f1abm77japg","pricing_plan_id":"cebpf4jnsgd1na2vs0mg"},{"bike_id":"a0e6de25-53a6-4e2c-ba56-d0c89144a59d","system_id":"levelo_inurba_marseille","lat":43.31109,"lon":5.3777,"is_reserved":false,"is_disabled":false,"rental_uris":{"android":"levelo://app?vid=a0e6de25-53a6-4e2c-ba56-d0c89144a59d","ios":"levelo://app?vid=a0e6de25-53a6-4e2c-ba56-d0c89144a59d"},"vehicle_type_id":"4","last_reported":1752893311,"current_range_meters":17600,"station_id":"ce4bgt92rcd13ifvqcg0","pricing_plan_id":"cebpf4jnsgd1na2vs0mg"},{"bike_id":"9c914893-87e7-4e0e-b3e8-ed82f95c7685","system_id":"levelo_inurba_marseille","lat":43.23162,"lon":5.4371,"is_reserved":false,"is_disabled":false,"rental_uris":{"android":"levelo://app?vid=9c914893-87e7-4e0e-b3e8-ed82f95c7685","ios":"levelo://app?vid=9c914893-87e7-4e0e-b3e8-ed82f95c7685"},"vehicle_type_id":"4","last_reported":1752893311,"current_range_meters":17600,"station_id":"ce4bhmp2rcd13ifvqgog","pricing_plan_id":"cebpf4jnsgd1na2vs0mg"},{"bike_id":"06c5ccd7-c2bb-4eb7-86d3-8df98bff5200","system_id":"levelo_inurba_marseille","lat":43.2926,"lon":5.37632,"is_reserved":false,"is_disabled":false,"rental_uris":{"android":"levelo://app?vid=06c5ccd7-c2bb-4eb7-86d3-8df98bff5200","ios":"levelo://app?vid=06c5ccd7-c2bb-4eb7-86d3-8df98bff5200"},"vehicle_type_id":"4","last_reported":1752893311,"current_range_meters":17600,"station_id":"ce4bgi12rcd13ifvqb80","pricing_plan_id":"cebpf4jnsgd1na2vs0mg"},{"bike_id":"b22b912d-c2aa-4638-b821-9588263e410c","system_id":"levelo_inurba_marseille","lat":43.32353,"lon":5.38909,"is_reserved":false,"is_disabled":false,"rental_uris":{"android":"levelo://app?vid=b22b912d-c2aa-4638-b821-9588263e410c","ios":"levelo://app?vid=b22b912d-c2aa-4638-b821-9588263e410c"},"vehicle_type_id":"4","last_reported":1752893311,"current_range_meters":17600,"station_id":"ce4bhqp2rcd13ifvqhog","pricing_plan_id":"cebpf4jnsgd1na2vs0mg"},{"bike_id":"c563397a-8e95-43de-9482-c447bf9c775e","system_id":"levelo_inurba_marseille","lat":43.29332,"lon":5.41153,"is_reserved":false,"is_disabled":false,"rental_uris":{"android":"levelo://app?vid=c563397a-8e95-43de-9482-c447bf9c775e","ios":"levelo://app?vid=c563397a-8e95-43de-9482-c447bf9c775e"},"vehicle_type_id":"4","last_reported":1752893311,"current_range_meters":17600,"station_id":"","pricing_plan_id":"cebpf4jnsgd1na2vs0mg"},{"bike_id":"4a2af6fb-f040-4dff-9ff5-d70c4f952e83","system_id":"levelo_inurba_marseille","lat":43.315071,"lon":5.373018,"is_reserved":false,"is_disabled":true,"rental_uris":{"android":"levelo://app?vid=4a2af6fb-f040-4dff-9ff5-d70c4f952e83","ios":"levelo://app?vid=4a2af6fb-f040-4dff-9ff5-d70c4f952e83"},"vehicle_type_id":"4","last_reported":1752893311,"current_range_meters":18000,"station_id":"ce4bgt12rcd13ifvqcd0","pricing_plan_id":"cebpf4jnsgd1na2vs0mg"},{"bike_id":"19294ff6-3995-4603-9d99-733afb04fb97","system_id":"levelo_inurba_marseille","lat":43.24393,"lon":5.37067,"is_reserved":false,"is_disabled":false,"rental_uris":{"android":"levelo://app?vid=19294ff6-3995-4603-9d99-733afb04fb97","ios":"levelo://app?vid=19294ff6-3995-4603-9d99-733afb04fb97"},"vehicle_type_id":"4","last_reported":1752893311,"current_range_meters":18000,"station_id":"ce4bhhh2rcd13ifvqfk0","pricing_plan_id":"cebpf4jnsgd1na2vs0mg"},{"bike_id":"a168d389-ea1d-4756-ad9b-cf73a31ab442","system_id":"levelo_inurba_marseille","lat":43.288747,"lon":5.400098,"is_reserved":false,"is_disabled":false,"rental_uris":{"android":"levelo://app?vid=a168d389-ea1d-4756-ad9b-cf73a31ab442","ios":"levelo://app?vid=a168d389-ea1d-4756-ad9b-cf73a31ab442"},"vehicle_type_id":"4","last_reported":1752893311,"current_range_meters":18000,"station_id":"","pricing_plan_id":"cebpf4jnsgd1na2vs0mg"},{"bike_id":"44e89ad7-16a2-4910-805f-061f2aee5ab7","system_id":"levelo_inurba_marseille","lat":43.2319,"lon":5.35542,"is_reserved":false,"is_disabled":false,"rental_uris":{"android":"levelo://app?vid=44e89ad7-16a2-4910-805f-061f2aee5ab7","ios":"levelo://app?vid=44e89ad7-16a2-4910-805f-061f2aee5ab7"},"vehicle_type_id":"4","last_reported":1752893311,"current_range_meters":18000,"station_id":"ce4bhu92rcd13ifvqi70","pricing_plan_id":"cebpf4jnsgd1na2vs0mg"},{"bike_id":"3b8fa8a7-26fc-4aab-bee1-b8a56cdc1d43","system_id":"levelo_inurba_marseille","lat":43.28724,"lon":5.39962,"is_reserved":false,"is_disabled":true,"rental_uris":{"android":"levelo://app?vid=3b8fa8a7-26fc-4aab-bee1-b8a56cdc1d43","ios":"levelo://app?vid=3b8fa8a7-26fc-4aab-bee1-b8a56cdc1d43"},"vehicle_type_id":"4","last_reported":1752893311,"current_range_meters":18000,"station_id":"ce4bho92rcd13ifvqh3g","pricing_plan_id":"cebpf4jnsgd1na2vs0mg"},{"bike_id":"f64d4495-c6c3-4047-b421-2e9c29951567","system_id":"levelo_inurba_marseille","lat":43.22513,"lon":5.34785,"is_reserved":false,"is_disabled":false,"rental_uris":{"android":"levelo://app?vid=f64d4495-c6c3-4047-b421-2e9c29951567","ios":"levelo://app?vid=f64d4495-c6c3-4047-b421-2e9c29951567"},"vehicle_type_id":"4","last_reported":1752893311,"current_range_meters":18800,"station_id":"st_cvj5dfep6f1abm77gieg","pricing_plan_id":"cebpf4jnsgd1na2vs0mg"},{"bike_id":"9f00b516-2e6c-49ff-b45a-2a85d3e69abf","system_id":"levelo_inurba_marseille","lat":43.29264,"lon":5.39154,"is_reserved":false,"is_disabled":false,"rental_uris":{"android":"levelo://app?vid=9f00b516-2e6c-49ff-b45a-2a85d3e69abf","ios":"levelo://app?vid=9f00b516-2e6c-49ff-b45a-2a85d3e69abf"},"vehicle_type_id":"4","last_reported":1752893311,"current_range_meters":18800,"station_id":"","pricing_plan_id":"cebpf4jnsgd1na2vs0mg"},{"bike_id":"ed8fbac9-e5c7-4f6f-8094-8714434b7733","system_id":"levelo_inurba_marseille","lat":43.311182,"lon":5.377614,"is_reserved":false,"is_disabled":false,"rental_uris":{"android":"levelo://app?vid=ed8fbac9-e5c7-4f6f-8094-8714434b7733","ios":"levelo://app?vid=ed8fbac9-e5c7-4f6f-8094-8714434b7733"},"vehicle_type_id":"4","last_reported":1752893311,"current_range_meters":18800,"station_id":"ce4bgt92rcd13ifvqcg0","pricing_plan_id":"cebpf4jnsgd1na2vs0mg"},{"bike_id":"ce2d33c7-f5ba-4c86-93e2-74fe4592b5f8","system_id":"levelo_inurba_marseille","lat":43.26915,"lon":5.40264,"is_reserved":false,"is_disabled":false,"rental_uris":{"android":"levelo://app?vid=ce2d33c7-f5ba-4c86-93e2-74fe4592b5f8","ios":"levelo://app?vid=ce2d33c7-f5ba-4c86-93e2-74fe4592b5f8"},"vehicle_type_id":"4","last_reported":1752893311,"current_range_meters":18800,"station_id":"cjm6bp8fraef2m0cb0m0","pricing_plan_id":"cebpf4jnsgd1na2vs0mg"},{"bike_id":"25c61d91-92f9-47bc-ba2a-34ec5d0a2e05","system_id":"levelo_inurba_marseille","lat":43.22918,"lon":5.35367,"is_reserved":false,"is_disabled":false,"rental_uris":{"android":"levelo://app?vid=25c61d91-92f9-47bc-ba2a-34ec5d0a2e05","ios":"levelo://app?vid=25c61d91-92f9-47bc-ba2a-34ec5d0a2e05"},"vehicle_type_id":"4","last_reported":1752893311,"current_range_meters":18800,"station_id":"cpo3532slgdg3j2ikp40","pricing_plan_id":"cebpf4jnsgd1na2vs0mg"},{"bike_id":"0ac9b427-819d-4139-8162-77866abdf07d","system_id":"levelo_inurba_marseille","lat":43.246529,"lon":5.38903,"is_reserved":false,"is_disabled":false,"rental_uris":{"android":"levelo://app?vid=0ac9b427-819d-4139-8162-77866abdf07d","ios":"levelo://app?vid=0ac9b427-819d-4139-8162-77866abdf07d"},"vehicle_type_id":"4","last_reported":1752893311,"current_range_meters":18800,"station_id":"ce4bhg12rcd13ifvqf60","pricing_plan_id":"cebpf4jnsgd1na2vs0mg"},{"bike_id":"6ce013e4-9666-492d-a25c-bf4863da39dd","system_id":"levelo_inurba_marseille","lat":43.313661,"lon":5.384979,"is_reserved":false,"is_disabled":false,"rental_uris":{"android":"levelo://app?vid=6ce013e4-9666-492d-a25c-bf4863da39dd","ios":"levelo://app?vid=6ce013e4-9666-492d-a25c-bf4863da39dd"},"vehicle_type_id":"4","last_reported":1752893311,"current_range_meters":18800,"station_id":"ce4bgt92rcd13ifvqcf0","pricing_plan_id":"cebpf4jnsgd1na2vs0mg"},{"bike_id":"733c402f-6bbd-4ff7-9cc1-681ba0e2f489","system_id":"levelo_inurba_marseille","lat":43.330299,"lon":5.390355,"is_reserved":false,"is_disabled":false,"rental_uris":{"android":"levelo://app?vid=733c402f-6bbd-4ff7-9cc1-681ba0e2f489","ios":"levelo://app?vid=733c402f-6bbd-4ff7-9cc1-681ba0e2f489"},"vehicle_type_id":"4","last_reported":1752893311,"current_range_meters":18800,"station_id":"ce4bhr92rcd13ifvqhrg","pricing_plan_id":"cebpf4jnsgd1na2vs0mg"},{"bike_id":"783cc84a-a041-4bdd-8002-c343b62c1731","system_id":"levelo_inurba_marseille","lat":43.29228,"lon":5.360578,"is_reserved":false,"is_disabled":true,"rental_uris":{"android":"levelo://app?vid=783cc84a-a041-4bdd-8002-c343b62c1731","ios":"levelo://app?vid=783cc84a-a041-4bdd-8002-c343b62c1731"},"vehicle_type_id":"4","last_reported":1752893311,"current_range_meters":18800,"station_id":"ce4bhbh2rcd13ifvqeqg","pricing_plan_id":"cebpf4jnsgd1na2vs0mg"},{"bike_id":"476b9d68-b82a-49d6-b328-73fe9b3366ca","system_id":"levelo_inurba_marseille","lat":43.2623,"lon":5.404569,"is_reserved":false,"is_disabled":false,"rental_uris":{"android":"levelo://app?vid=476b9d68-b82a-49d6-b328-73fe9b3366ca","ios":"levelo://app?vid=476b9d68-b82a-49d6-b328-73fe9b3366ca"},"vehicle_type_id":"4","last_reported":1752893311,"current_range_meters":18800,"station_id":"ce4bhmh2rcd13ifvqgmg","pricing_plan_id":"cebpf4jnsgd1na2vs0mg"},{"bike_id":"2c77e1be-20d4-428a-b875-bc5d532780db","system_id":"levelo_inurba_marseille","lat":43.28986,"lon":5.35603,"is_reserved":false,"is_disabled":true,"rental_uris":{"android":"levelo://app?vid=2c77e1be-20d4-428a-b875-bc5d532780db","ios":"levelo://app?vid=2c77e1be-20d4-428a-b875-bc5d532780db"},"vehicle_type_id":"4","last_reported":1752893311,"current_range_meters":18800,"station_id":"ce4bhb92rcd13ifvqen0","pricing_plan_id":"cebpf4jnsgd1na2vs0mg"},{"bike_id":"5a570911-22d0-41b1-a776-0fe138c4bdc4","system_id":"levelo_inurba_marseille","lat":43.211886,"lon":5.350752,"is_reserved":false,"is_disabled":false,"rental_uris":{"android":"levelo://app?vid=5a570911-22d0-41b1-a776-0fe138c4bdc4","ios":"levelo://app?vid=5a570911-22d0-41b1-a776-0fe138c4bdc4"},"vehicle_type_id":"4","last_reported":1752893311,"current_range_meters":18800,"station_id":"st_cvj6sg6p6f1abm77japg","pricing_plan_id":"cebpf4jnsgd1na2vs0mg"},{"bike_id":"7592d3b0-727d-4107-ba81-a2966cdc2b34","system_id":"levelo_inurba_marseille","lat":43.262167,"lon":5.404468,"is_reserved":false,"is_disabled":false,"rental_uris":{"android":"levelo://app?vid=7592d3b0-727d-4107-ba81-a2966cdc2b34","ios":"levelo://app?vid=7592d3b0-727d-4107-ba81-a2966cdc2b34"},"vehicle_type_id":"4","last_reported":1752893311,"current_range_meters":18800,"station_id":"ce4bhmh2rcd13ifvqgmg","pricing_plan_id":"cebpf4jnsgd1na2vs0mg"},{"bike_id":"ea37c249-bc61-4eea-862b-e2e11472cda2","system_id":"levelo_inurba_marseille","lat":43.2927,"lon":5.36845,"is_reserved":false,"is_disabled":true,"rental_uris":{"android":"levelo://app?vid=ea37c249-bc61-4eea-862b-e2e11472cda2","ios":"levelo://app?vid=ea37c249-bc61-4eea-862b-e2e11472cda2"},"vehicle_type_id":"4","last_reported":1752893311,"current_range_meters":18800,"station_id":"ce4bhbp2rcd13ifvqesg","pricing_plan_id":"cebpf4jnsgd1na2vs0mg"},{"bike_id":"2060869b-d87e-4c30-8864-6b1d75522919","system_id":"levelo_inurba_marseille","lat":43.29908,"lon":5.43694,"is_reserved":false,"is_disabled":false,"rental_uris":{"android":"levelo://app?vid=2060869b-d87e-4c30-8864-6b1d75522919","ios":"levelo://app?vid=2060869b-d87e-4c30-8864-6b1d75522919"},"vehicle_type_id":"4","last_reported":1752893311,"current_range_meters":19200,"station_id":"","pricing_plan_id":"cebpf4jnsgd1na2vs0mg"},{"bike_id":"948cc778-4b52-43d4-bd05-9525cc0c3471","system_id":"levelo_inurba_marseille","lat":43.280994,"lon":5.393041,"is_reserved":false,"is_disabled":false,"rental_uris":{"android":"levelo://app?vid=948cc778-4b52-43d4-bd05-9525cc0c3471","ios":"levelo://app?vid=948cc778-4b52-43d4-bd05-9525cc0c3471"},"vehicle_type_id":"4","last_reported":1752893311,"current_range_meters":19200,"station_id":"","pricing_plan_id":"cebpf4jnsgd1na2vs0mg"},{"bike_id":"f734d1ab-e95f-49df-a640-db407264fdd1","system_id":"levelo_inurba_marseille","lat":43.2952,"lon":5.37513,"is_reserved":false,"is_disabled":true,"rental_uris":{"android":"levelo://app?vid=f734d1ab-e95f-49df-a640-db407264fdd1","ios":"levelo://app?vid=f734d1ab-e95f-49df-a640-db407264fdd1"},"vehicle_type_id":"4","last_reported":1752893311,"current_range_meters":19200,"station_id":"ce4bgkp2rcd13ifvqbmg","pricing_plan_id":"cebpf4jnsgd1na2vs0mg"},{"bike_id":"b2d8de19-5228-47c5-a04d-d8664c46de68","system_id":"levelo_inurba_marseille","lat":43.22948,"lon":5.35354,"is_reserved":false,"is_disabled":false,"rental_uris":{"android":"levelo://app?vid=b2d8de19-5228-47c5-a04d-d8664c46de68","ios":"levelo://app?vid=b2d8de19-5228-47c5-a04d-d8664c46de68"},"vehicle_type_id":"4","last_reported":1752893311,"current_range_meters":19200,"station_id":"cpo3532slgdg3j2ikp40","pricing_plan_id":"cebpf4jnsgd1na2vs0mg"},{"bike_id":"636add70-8724-48bf-aad9-09ddc751df36","system_id":"levelo_inurba_marseille","lat":43.22966,"lon":5.35389,"is_reserved":false,"is_disabled":false,"rental_uris":{"android":"levelo://app?vid=636add70-8724-48bf-aad9-09ddc751df36","ios":"levelo://app?vid=636add70-8724-48bf-aad9-09ddc751df36"},"vehicle_type_id":"4","last_reported":1752893311,"current_range_meters":19200,"station_id":"cpo3532slgdg3j2ikp40","pricing_plan_id":"cebpf4jnsgd1na2vs0mg"},{"bike_id":"08da0d30-ab14-4c99-870a-907b7e4e9b04","system_id":"levelo_inurba_marseille","lat":43.28612,"lon":5.35109,"is_reserved":false,"is_disabled":false,"rental_uris":{"android":"levelo://app?vid=08da0d30-ab14-4c99-870a-907b7e4e9b04","ios":"levelo://app?vid=08da0d30-ab14-4c99-870a-907b7e4e9b04"},"vehicle_type_id":"4","last_reported":1752893311,"current_range_meters":19200,"station_id":"ce4bhch2rcd13ifvqeug","pricing_plan_id":"cebpf4jnsgd1na2vs0mg"},{"bike_id":"8907dc8d-b696-4064-8ce2-4bc0bbb446d6","system_id":"levelo_inurba_marseille","lat":43.25114,"lon":5.40309,"is_reserved":false,"is_disabled":false,"rental_uris":{"android":"levelo://app?vid=8907dc8d-b696-4064-8ce2-4bc0bbb446d6","ios":"levelo://app?vid=8907dc8d-b696-4064-8ce2-4bc0bbb446d6"},"vehicle_type_id":"4","last_reported":1752893311,"current_range_meters":19200,"station_id":"ce4bhlh2rcd13ifvqgig","pricing_plan_id":"cebpf4jnsgd1na2vs0mg"},{"bike_id":"30bcf5a2-54ff-4a2c-8c02-bb341edfaa7c","system_id":"levelo_inurba_marseille","lat":43.25521,"lon":5.37663,"is_reserved":false,"is_disabled":true,"rental_uris":{"android":"levelo://app?vid=30bcf5a2-54ff-4a2c-8c02-bb341edfaa7c","ios":"levelo://app?vid=30bcf5a2-54ff-4a2c-8c02-bb341edfaa7c"},"vehicle_type_id":"4","last_reported":1752893311,"current_range_meters":19200,"station_id":"ce4bhh12rcd13ifvqff0","pricing_plan_id":"cebpf4jnsgd1na2vs0mg"},{"bike_id":"50cf215a-ef7f-4132-8fe6-f2a9f839d0a2","system_id":"levelo_inurba_marseille","lat":43.284,"lon":5.37509,"is_reserved":false,"is_disabled":false,"rental_uris":{"android":"levelo://app?vid=50cf215a-ef7f-4132-8fe6-f2a9f839d0a2","ios":"levelo://app?vid=50cf215a-ef7f-4132-8fe6-f2a9f839d0a2"},"vehicle_type_id":"4","last_reported":1752893311,"current_range_meters":19200,"station_id":"ce4bh412rcd13ifvqds0","pricing_plan_id":"cebpf4jnsgd1na2vs0mg"},{"bike_id":"b4ff73bc-df06-424d-a37d-4be9da7c8d2b","system_id":"levelo_inurba_marseille","lat":43.31066,"lon":5.38354,"is_reserved":false,"is_disabled":false,"rental_uris":{"android":"levelo://app?vid=b4ff73bc-df06-424d-a37d-4be9da7c8d2b","ios":"levelo://app?vid=b4ff73bc-df06-424d-a37d-4be9da7c8d2b"},"vehicle_type_id":"4","last_reported":1752893311,"current_range_meters":19600,"station_id":"ce4bgv92rcd13ifvqcr0","pricing_plan_id":"cebpf4jnsgd1na2vs0mg"},{"bike_id":"d58d49b4-8ced-486f-846e-66761d5d92c9","system_id":"levelo_inurba_marseille","lat":43.28679,"lon":5.38667,"is_reserved":false,"is_disabled":false,"rental_uris":{"android":"levelo://app?vid=d58d49b4-8ced-486f-846e-66761d5d92c9","ios":"levelo://app?vid=d58d49b4-8ced-486f-846e-66761d5d92c9"},"vehicle_type_id":"4","last_reported":1752893311,"current_range_meters":19600,"station_id":"ce4bh492rcd13ifvqdug","pricing_plan_id":"cebpf4jnsgd1na2vs0mg"},{"bike_id":"23fbf447-5ce5-4454-b58d-69c932099f2c","system_id":"levelo_inurba_marseille","lat":43.27047,"lon":5.40322,"is_reserved":false,"is_disabled":true,"rental_uris":{"android":"levelo://app?vid=23fbf447-5ce5-4454-b58d-69c932099f2c","ios":"levelo://app?vid=23fbf447-5ce5-4454-b58d-69c932099f2c"},"vehicle_type_id":"4","last_reported":1752893311,"current_range_meters":19600,"station_id":"","pricing_plan_id":"cebpf4jnsgd1na2vs0mg"},{"bike_id":"b5fcc541-ec24-42be-b3fc-b9f250116949","system_id":"levelo_inurba_marseille","lat":43.28419,"lon":5.34988,"is_reserved":false,"is_disabled":true,"rental_uris":{"android":"levelo://app?vid=b5fcc541-ec24-42be-b3fc-b9f250116949","ios":"levelo://app?vid=b5fcc541-ec24-42be-b3fc-b9f250116949"},"vehicle_type_id":"4","last_reported":1752893311,"current_range_meters":19600,"station_id":"ce4bhbh2rcd13ifvqepg","pricing_plan_id":"cebpf4jnsgd1na2vs0mg"},{"bike_id":"c27e27c1-46a1-4897-babc-4d201062abd5","system_id":"levelo_inurba_marseille","lat":43.231941,"lon":5.399885,"is_reserved":false,"is_disabled":false,"rental_uris":{"android":"levelo://app?vid=c27e27c1-46a1-4897-babc-4d201062abd5","ios":"levelo://app?vid=c27e27c1-46a1-4897-babc-4d201062abd5"},"vehicle_type_id":"4","last_reported":1752893311,"current_range_meters":19600,"station_id":"ce4bhn12rcd13ifvqgqg","pricing_plan_id":"cebpf4jnsgd1na2vs0mg"},{"bike_id":"3ff77c60-0ca2-4779-a6de-3d7c59b45535","system_id":"levelo_inurba_marseille","lat":43.30142,"lon":5.37425,"is_reserved":false,"is_disabled":false,"rental_uris":{"android":"levelo://app?vid=3ff77c60-0ca2-4779-a6de-3d7c59b45535","ios":"levelo://app?vid=3ff77c60-0ca2-4779-a6de-3d7c59b45535"},"vehicle_type_id":"4","last_reported":1752893311,"current_range_meters":19600,"station_id":"ce4bgs92rcd13ifvqcc0","pricing_plan_id":"cebpf4jnsgd1na2vs0mg"},{"bike_id":"81eb13de-7865-4c9c-8e88-d3f1494ca167","system_id":"levelo_inurba_marseille","lat":43.29195,"lon":5.39318,"is_reserved":false,"is_disabled":false,"rental_uris":{"android":"levelo://app?vid=81eb13de-7865-4c9c-8e88-d3f1494ca167","ios":"levelo://app?vid=81eb13de-7865-4c9c-8e88-d3f1494ca167"},"vehicle_type_id":"4","last_reported":1752893311,"current_range_meters":20000,"station_id":"ce4bh192rcd13ifvqdd0","pricing_plan_id":"cebpf4jnsgd1na2vs0mg"},{"bike_id":"b4a55f75-dfdd-41e1-96e1-43e7b52255da","system_id":"levelo_inurba_marseille","lat":43.25363,"lon":5.38092,"is_reserved":false,"is_disabled":false,"rental_uris":{"android":"levelo://app?vid=b4a55f75-dfdd-41e1-96e1-43e7b52255da","ios":"levelo://app?vid=b4a55f75-dfdd-41e1-96e1-43e7b52255da"},"vehicle_type_id":"4","last_reported":1752893311,"current_range_meters":20000,"station_id":"","pricing_plan_id":"cebpf4jnsgd1na2vs0mg"},{"bike_id":"ea3d95ea-8a46-4756-8124-0ff791fd1160","system_id":"levelo_inurba_marseille","lat":43.30582,"lon":5.3934,"is_reserved":false,"is_disabled":false,"rental_uris":{"android":"levelo://app?vid=ea3d95ea-8a46-4756-8124-0ff791fd1160","ios":"levelo://app?vid=ea3d95ea-8a46-4756-8124-0ff791fd1160"},"vehicle_type_id":"4","last_reported":1752893311,"current_range_meters":20000,"station_id":"ce4bh0p2rcd13ifvqd80","pricing_plan_id":"cebpf4jnsgd1na2vs0mg"},{"bike_id":"5a3e87eb-bda4-4404-995f-7cc15a264fb9","system_id":"levelo_inurba_marseille","lat":43.30679,"lon":5.40074,"is_reserved":false,"is_disabled":false,"rental_uris":{"android":"levelo://app?vid=5a3e87eb-bda4-4404-995f-7cc15a264fb9","ios":"levelo://app?vid=5a3e87eb-bda4-4404-995f-7cc15a264fb9"},"vehicle_type_id":"4","last_reported":1752893311,"current_range_meters":20000,"station_id":"ce4bh112rcd13ifvqda0","pricing_plan_id":"cebpf4jnsgd1na2vs0mg"},{"bike_id":"7f2e44b0-8e9e-4692-b5ef-6f6c1a1f7308","system_id":"levelo_inurba_marseille","lat":43.29898,"lon":5.43671,"is_reserved":false,"is_disabled":false,"rental_uris":{"android":"levelo://app?vid=7f2e44b0-8e9e-4692-b5ef-6f6c1a1f7308","ios":"levelo://app?vid=7f2e44b0-8e9e-4692-b5ef-6f6c1a1f7308"},"vehicle_type_id":"4","last_reported":1752893311,"current_range_meters":20000,"station_id":"ce4bhpp2rcd13ifvqhfg","pricing_plan_id":"cebpf4jnsgd1na2vs0mg"},{"bike_id":"c9e13ae8-81d2-45a5-adef-f1b61a66153b","system_id":"levelo_inurba_marseille","lat":43.23943,"lon":5.36628,"is_reserved":false,"is_disabled":false,"rental_uris":{"android":"levelo://app?vid=c9e13ae8-81d2-45a5-adef-f1b61a66153b","ios":"levelo://app?vid=c9e13ae8-81d2-45a5-adef-f1b61a66153b"},"vehicle_type_id":"4","last_reported":1752893311,"current_range_meters":20000,"station_id":"ce4bhi12rcd13ifvqfp0","pricing_plan_id":"cebpf4jnsgd1na2vs0mg"},{"bike_id":"def684fe-5ae6-4eaf-af4f-a8755d3dab4f","system_id":"levelo_inurba_marseille","lat":43.284718,"lon":5.384179,"is_reserved":false,"is_disabled":false,"rental_uris":{"android":"levelo://app?vid=def684fe-5ae6-4eaf-af4f-a8755d3dab4f","ios":"levelo://app?vid=def684fe-5ae6-4eaf-af4f-a8755d3dab4f"},"vehicle_type_id":"4","last_reported":1752893311,"current_range_meters":20000,"station_id":"","pricing_plan_id":"cebpf4jnsgd1na2vs0mg"},{"bike_id":"f988ff1f-58b2-47ee-9882-3111d2575d54","system_id":"levelo_inurba_marseille","lat":43.24185,"lon":5.39718,"is_reserved":false,"is_disabled":false,"rental_uris":{"android":"levelo://app?vid=f988ff1f-58b2-47ee-9882-3111d2575d54","ios":"levelo://app?vid=f988ff1f-58b2-47ee-9882-3111d2575d54"},"vehicle_type_id":"4","last_reported":1752893311,"current_range_meters":20000,"station_id":"ce4bhn12rcd13ifvqgpg","pricing_plan_id":"cebpf4jnsgd1na2vs0mg"},{"bike_id":"f9dd6b60-6976-4f97-9486-05b76692e2b6","system_id":"levelo_inurba_marseille","lat":43.23161,"lon":5.43721,"is_reserved":false,"is_disabled":false,"rental_uris":{"android":"levelo://app?vid=f9dd6b60-6976-4f97-9486-05b76692e2b6","ios":"levelo://app?vid=f9dd6b60-6976-4f97-9486-05b76692e2b6"},"vehicle_type_id":"4","last_reported":1752893311,"current_range_meters":20000,"station_id":"ce4bhmp2rcd13ifvqgog","pricing_plan_id":"cebpf4jnsgd1na2vs0mg"},{"bike_id":"95b5bcfa-54af-48c0-bd18-8f73f959ce2b","system_id":"levelo_inurba_marseille","lat":43.31935,"lon":5.37313,"is_reserved":false,"is_disabled":false,"rental_uris":{"android":"levelo://app?vid=95b5bcfa-54af-48c0-bd18-8f73f959ce2b","ios":"levelo://app?vid=95b5bcfa-54af-48c0-bd18-8f73f959ce2b"},"vehicle_type_id":"4","last_reported":1752893311,"current_range_meters":20000,"station_id":"","pricing_plan_id":"cebpf4jnsgd1na2vs0mg"},{"bike_id":"7501a2db-f384-42b6-96fb-cc2002fa8c14","system_id":"levelo_inurba_marseille","lat":43.29026,"lon":5.37543,"is_reserved":false,"is_disabled":true,"rental_uris":{"android":"levelo://app?vid=7501a2db-f384-42b6-96fb-cc2002fa8c14","ios":"levelo://app?vid=7501a2db-f384-42b6-96fb-cc2002fa8c14"},"vehicle_type_id":"4","last_reported":1752893311,"current_range_meters":20400,"station_id":"ce4bh692rcd13ifvqe90","pricing_plan_id":"cebpf4jnsgd1na2vs0mg"},{"bike_id":"ddc31b29-9fee-4fc3-9b80-60f433b51a3e","system_id":"levelo_inurba_marseille","lat":43.28702,"lon":5.37387,"is_reserved":false,"is_disabled":false,"rental_uris":{"android":"levelo://app?vid=ddc31b29-9fee-4fc3-9b80-60f433b51a3e","ios":"levelo://app?vid=ddc31b29-9fee-4fc3-9b80-60f433b51a3e"},"vehicle_type_id":"4","last_reported":1752893311,"current_range_meters":20400,"station_id":"ce4bh3p2rcd13ifvqdq0","pricing_plan_id":"cebpf4jnsgd1na2vs0mg"},{"bike_id":"dcfbf4fe-eddf-4fb3-8db1-48685394a2b0","system_id":"levelo_inurba_marseille","lat":43.312774,"lon":5.401764,"is_reserved":false,"is_disabled":false,"rental_uris":{"android":"levelo://app?vid=dcfbf4fe-eddf-4fb3-8db1-48685394a2b0","ios":"levelo://app?vid=dcfbf4fe-eddf-4fb3-8db1-48685394a2b0"},"vehicle_type_id":"4","last_reported":1752893311,"current_range_meters":20400,"station_id":"","pricing_plan_id":"cebpf4jnsgd1na2vs0mg"},{"bike_id":"f99ff1e4-4111-475a-aa3e-cb902d081040","system_id":"levelo_inurba_marseille","lat":43.23216,"lon":5.35521,"is_reserved":false,"is_disabled":false,"rental_uris":{"android":"levelo://app?vid=f99ff1e4-4111-475a-aa3e-cb902d081040","ios":"levelo://app?vid=f99ff1e4-4111-475a-aa3e-cb902d081040"},"vehicle_type_id":"4","last_reported":1752893311,"current_range_meters":20400,"station_id":"ce4bhu92rcd13ifvqi70","pricing_plan_id":"cebpf4jnsgd1na2vs0mg"},{"bike_id":"9c71d3ed-dd39-43c0-b5df-4145fbf9f2df","system_id":"levelo_inurba_marseille","lat":43.229306,"lon":5.353765,"is_reserved":false,"is_disabled":false,"rental_uris":{"android":"levelo://app?vid=9c71d3ed-dd39-43c0-b5df-4145fbf9f2df","ios":"levelo://app?vid=9c71d3ed-dd39-43c0-b5df-4145fbf9f2df"},"vehicle_type_id":"4","last_reported":1752893311,"current_range_meters":20400,"station_id":"cpo3532slgdg3j2ikp40","pricing_plan_id":"cebpf4jnsgd1na2vs0mg"},{"bike_id":"52daf499-dc75-43c9-8864-210b5230e787","system_id":"levelo_inurba_marseille","lat":43.27556,"lon":5.38404,"is_reserved":false,"is_disabled":false,"rental_uris":{"android":"levelo://app?vid=52daf499-dc75-43c9-8864-210b5230e787","ios":"levelo://app?vid=52daf499-dc75-43c9-8864-210b5230e787"},"vehicle_type_id":"4","last_reported":1752893311,"current_range_meters":20400,"station_id":"ce4bhh92rcd13ifvqfi0","pricing_plan_id":"cebpf4jnsgd1na2vs0mg"},{"bike_id":"0dba9982-8391-42e0-9004-f04e3b0a9b9b","system_id":"levelo_inurba_marseille","lat":43.28853,"lon":5.39315,"is_reserved":false,"is_disabled":false,"rental_uris":{"android":"levelo://app?vid=0dba9982-8391-42e0-9004-f04e3b0a9b9b","ios":"levelo://app?vid=0dba9982-8391-42e0-9004-f04e3b0a9b9b"},"vehicle_type_id":"4","last_reported":1752893311,"current_range_meters":20400,"station_id":"ce4bh2p2rcd13ifvqdi0","pricing_plan_id":"cebpf4jnsgd1na2vs0mg"},{"bike_id":"2ba13de8-2053-45a6-bcbf-51b7a4e83469","system_id":"levelo_inurba_marseille","lat":43.23781,"lon":5.36167,"is_reserved":false,"is_disabled":false,"rental_uris":{"android":"levelo://app?vid=2ba13de8-2053-45a6-bcbf-51b7a4e83469","ios":"levelo://app?vid=2ba13de8-2053-45a6-bcbf-51b7a4e83469"},"vehicle_type_id":"4","last_reported":1752893311,"current_range_meters":20400,"station_id":"","pricing_plan_id":"cebpf4jnsgd1na2vs0mg"},{"bike_id":"7cb87117-19f1-4d48-84b2-bec6ac38464c","system_id":"levelo_inurba_marseille","lat":43.29563,"lon":5.42282,"is_reserved":false,"is_disabled":false,"rental_uris":{"android":"levelo://app?vid=7cb87117-19f1-4d48-84b2-bec6ac38464c","ios":"levelo://app?vid=7cb87117-19f1-4d48-84b2-bec6ac38464c"},"vehicle_type_id":"4","last_reported":1752893311,"current_range_meters":20400,"station_id":"ce4bhph2rcd13ifvqhdg","pricing_plan_id":"cebpf4jnsgd1na2vs0mg"},{"bike_id":"fa2ba3bd-f61a-4ac3-86fd-436eae66ee51","system_id":"levelo_inurba_marseille","lat":43.30145,"lon":5.39884,"is_reserved":false,"is_disabled":true,"rental_uris":{"android":"levelo://app?vid=fa2ba3bd-f61a-4ac3-86fd-436eae66ee51","ios":"levelo://app?vid=fa2ba3bd-f61a-4ac3-86fd-436eae66ee51"},"vehicle_type_id":"4","last_reported":1752893311,"current_range_meters":20400,"station_id":"ce4bh0h2rcd13ifvqd40","pricing_plan_id":"cebpf4jnsgd1na2vs0mg"},{"bike_id":"b84f9719-43cd-4797-b7de-e6aec5982bf0","system_id":"levelo_inurba_marseille","lat":43.29561,"lon":5.42287,"is_reserved":false,"is_disabled":false,"rental_uris":{"android":"levelo://app?vid=b84f9719-43cd-4797-b7de-e6aec5982bf0","ios":"levelo://app?vid=b84f9719-43cd-4797-b7de-e6aec5982bf0"},"vehicle_type_id":"4","last_reported":1752893311,"current_range_meters":20400,"station_id":"ce4bhph2rcd13ifvqhdg","pricing_plan_id":"cebpf4jnsgd1na2vs0mg"},{"bike_id":"0f5c381d-7e40-4713-be53-a9f612aaed4a","system_id":"levelo_inurba_marseille","lat":43.23148,"lon":5.43718,"is_reserved":false,"is_disabled":false,"rental_uris":{"android":"levelo://app?vid=0f5c381d-7e40-4713-be53-a9f612aaed4a","ios":"levelo://app?vid=0f5c381d-7e40-4713-be53-a9f612aaed4a"},"vehicle_type_id":"4","last_reported":1752893311,"current_range_meters":20800,"station_id":"ce4bhmp2rcd13ifvqgog","pricing_plan_id":"cebpf4jnsgd1na2vs0mg"},{"bike_id":"3b00adda-c6b8-43c0-ac39-5f1e22fce8e9","system_id":"levelo_inurba_marseille","lat":43.28675,"lon":5.38657,"is_reserved":false,"is_disabled":true,"rental_uris":{"android":"levelo://app?vid=3b00adda-c6b8-43c0-ac39-5f1e22fce8e9","ios":"levelo://app?vid=3b00adda-c6b8-43c0-ac39-5f1e22fce8e9"},"vehicle_type_id":"4","last_reported":1752893311,"current_range_meters":20800,"station_id":"ce4bh492rcd13ifvqdug","pricing_plan_id":"cebpf4jnsgd1na2vs0mg"},{"bike_id":"d3aca52a-4e64-461a-8fd1-e9a035bafbdf","system_id":"levelo_inurba_marseille","lat":43.257213,"lon":5.411019,"is_reserved":false,"is_disabled":false,"rental_uris":{"android":"levelo://app?vid=d3aca52a-4e64-461a-8fd1-e9a035bafbdf","ios":"levelo://app?vid=d3aca52a-4e64-461a-8fd1-e9a035bafbdf"},"vehicle_type_id":"4","last_reported":1752893311,"current_range_meters":20800,"station_id":"","pricing_plan_id":"cebpf4jnsgd1na2vs0mg"},{"bike_id":"adba4700-58da-4675-b83d-4a334aace716","system_id":"levelo_inurba_marseille","lat":43.24174,"lon":5.397319,"is_reserved":false,"is_disabled":false,"rental_uris":{"android":"levelo://app?vid=adba4700-58da-4675-b83d-4a334aace716","ios":"levelo://app?vid=adba4700-58da-4675-b83d-4a334aace716"},"vehicle_type_id":"4","last_reported":1752893311,"current_range_meters":20800,"station_id":"ce4bhn12rcd13ifvqgpg","pricing_plan_id":"cebpf4jnsgd1na2vs0mg"},{"bike_id":"22201799-46a6-442e-bfd7-86b18d119e60","system_id":"levelo_inurba_marseille","lat":43.287,"lon":5.39983,"is_reserved":false,"is_disabled":false,"rental_uris":{"android":"levelo://app?vid=22201799-46a6-442e-bfd7-86b18d119e60","ios":"levelo://app?vid=22201799-46a6-442e-bfd7-86b18d119e60"},"vehicle_type_id":"4","last_reported":1752893311,"current_range_meters":20800,"station_id":"ce4bho92rcd13ifvqh3g","pricing_plan_id":"cebpf4jnsgd1na2vs0mg"},{"bike_id":"26b8cc06-1e63-495f-b599-843d277731ee","system_id":"levelo_inurba_marseille","lat":43.24072,"lon":5.37772,"is_reserved":false,"is_disabled":false,"rental_uris":{"android":"levelo://app?vid=26b8cc06-1e63-495f-b599-843d277731ee","ios":"levelo://app?vid=26b8cc06-1e63-495f-b599-843d277731ee"},"vehicle_type_id":"4","last_reported":1752893311,"current_range_meters":20800,"station_id":"ce4bhnp2rcd13ifvqgvg","pricing_plan_id":"cebpf4jnsgd1na2vs0mg"},{"bike_id":"04382c46-bed7-41bc-a96c-befaf01eb19e","system_id":"levelo_inurba_marseille","lat":43.289367,"lon":5.36383,"is_reserved":false,"is_disabled":false,"rental_uris":{"android":"levelo://app?vid=04382c46-bed7-41bc-a96c-befaf01eb19e","ios":"levelo://app?vid=04382c46-bed7-41bc-a96c-befaf01eb19e"},"vehicle_type_id":"4","last_reported":1752893311,"current_range_meters":20800,"station_id":"","pricing_plan_id":"cebpf4jnsgd1na2vs0mg"},