{"last_updated":1737396733,"ttl":60,"version":"2.2","data":{"bikes":[{"bike_id":"2d837e6e-a55b-44a6-8c8b-9ab1fd8a260a","system_id":"levelo_inurba_marseille","lat":43.31079,"lon":5.42428,"is_reserved":false,"is_disabled":false,"rental_uris":{"android":"levelo://app?vid=2d837e6e-a55b-44a6-8c8b-9ab1fd8a260a","ios":"levelo://app?vid=2d837e6e-a55b-44a6-8c8b-9ab1fd8a260a"},"vehicle_type_id":"4","last_reported":1737396733,"current_range_meters":38800,"station_id":"ce4bhp92rcd13ifvqhag","pricing_plan_id":"cebpf4jnsgd1na2vs0mg"},{"bike_id":"896f0bbc-8fe2-4da2-a336-39d9d44059a7","system_id":"levelo_inurba_marseille","lat":43.29569,"lon":5.39986,"is_reserved":false,"is_disabled":false,"rental_uris":{"android":"levelo://app?vid=896f0bbc-8fe2-4da2-a336-39d9d44059a7","ios":"levelo://app?vid=896f0bbc-8fe2-4da2-a336-39d9d44059a7"},"vehicle_type_id":"4","last_reported":1737396733,"current_range_meters":36800,"station_id":"ce4bh312rcd13ifvqdj0","pricing_plan_id":"cebpf4jnsgd1na2vs0mg"},{"bike_id":"75082f77-be79-491b-8678-426fe7196d9c","system_id":"levelo_inurba_marseille","lat":43.28149,"lon":5.42651,"is_reserved":false,"is_disabled":false,"rental_uris":{"android":"levelo://app?vid=75082f77-be79-491b-8678-426fe7196d9c","ios":"levelo://app?vid=75082f77-be79-491b-8678-426fe7196d9c"},"vehicle_type_id":"4","last_reported":1737396733,"current_range_meters":22800,"station_id":"ce4bhnh2rcd13ifvqgug","pricing_plan_id":"cebpf4jnsgd1na2vs0mg"},{"bike_id":"a3d0aefc-a2f5-45cd-9489-1be9c32278de","system_id":"levelo_inurba_marseille","lat":43.23961,"lon":5.36623,"is_reserved":false,"is_disabled":false,"rental_uris":{"android":"levelo://app?vid=a3d0aefc-a2f5-45cd-9489-1be9c32278de","ios":"levelo://app?vid=a3d0aefc-a2f5-45cd-9489-1be9c32278de"},"vehicle_type_id":"4","last_reported":1737396733,"current_range_meters":32400,"station_id":"ce4bhi12rcd13ifvqfp0","pricing_plan_id":"cebpf4jnsgd1na2vs0mg"},{"bike_id":"ff1df0fd-be2f-4894-8690-e8a61da9c700","system_id":"levelo_inurba_marseille","lat":43.2872,"lon":5.37385,"is_reserved":false,"is_disabled":true,"rental_uris":{"android":"levelo://app?vid=ff1df0fd-be2f-4894-8690-e8a61da9c700","ios":"levelo://app?vid=ff1df0fd-be2f-4894-8690-e8a61da9c700"},"vehicle_type_id":"4","last_reported":1737396733,"current_range_meters":38800,"station_id":"ce4bh3p2rcd13ifvqdq0","pricing_plan_id":"cebpf4jnsgd1na2vs0mg"},{"bike_id":"0c9eac1c-009b-417d-bd77-f2d0af4953e9","system_id":"levelo_inurba_marseille","lat":43.30139,"lon":5.38792,"is_reserved":false,"is_disabled":false,"rental_uris":{"android":"levelo://app?vid=0c9eac1c-009b-417d-bd77-f2d0af4953e9","ios":"levelo://app?vid=0c9eac1c-009b-417d-bd77-f2d0af4953e9"},"vehicle_type_id":"4","last_reported":1737396733,"current_range_meters":39200,"station_id":"ce4bghh2rcd13ifvqb60","pricing_plan_id":"cebpf4jnsgd1na2vs0mg"},{"bike_id":"5cb1264a-175f-4702-b950-5c526f1c16bb","system_id":"levelo_inurba_marseille","lat":43.28697,"lon":5.37404,"is_reserved":false,"is_disabled":false,"rental_uris":{"android":"levelo://app?vid=5cb1264a-175f-4702-b950-5c526f1c16bb","ios":"levelo://app?vid=5cb1264a-175f-4702-b950-5c526f1c16bb"},"vehicle_type_id":"4","last_reported":1737396733,"current_range_meters":38800,"station_id":"ce4bh3p2rcd13ifvqdq0","pricing_plan_id":"cebpf4jnsgd1na2vs0mg"},{"bike_id":"05f8c6a7-b115-4381-ac31-bed81774e3df","system_id":"levelo_inurba_marseille","lat":43.29018,"lon":5.38644,"is_reserved":false,"is_disabled":false,"rental_uris":{"android":"levelo://app?vid=05f8c6a7-b115-4381-ac31-bed81774e3df","ios":"levelo://app?vid=05f8c6a7-b115-4381-ac31-bed81774e3df"},"vehicle_type_id":"4","last_reported":1737396733,"current_range_meters":16000,"station_id":"ce4bh4p2rcd13ifvqe0g","pricing_plan_id":"cebpf4jnsgd1na2vs0mg"},{"bike_id":"53f7a72b-d9e6-4308-b966-f6f9157f2973","system_id":"levelo_inurba_marseille","lat":43.29414,"lon":5.38631,"is_reserved":false,"is_disabled":false,"rental_uris":{"android":"levelo://app?vid=53f7a72b-d9e6-4308-b966-f6f9157f2973","ios":"levelo://app?vid=53f7a72b-d9e6-4308-b966-f6f9157f2973"},"vehicle_type_id":"4","last_reported":1737396733,"current_range_meters":12800,"station_id":"ce4bh2h2rcd13ifvqdh0","pricing_plan_id":"cebpf4jnsgd1na2vs0mg"},{"bike_id":"ec7e01d6-350c-429b-8771-edae9a4b4922","system_id":"levelo_inurba_marseille","lat":43.32235,"lon":5.38205,"is_reserved":false,"is_disabled":false,"rental_uris":{"android":"levelo://app?vid=ec7e01d6-350c-429b-8771-edae9a4b4922","ios":"levelo://app?vid=ec7e01d6-350c-429b-8771-edae9a4b4922"},"vehicle_type_id":"4","last_reported":1737396733,"current_range_meters":38800,"station_id":"","pricing_plan_id":"cebpf4jnsgd1na2vs0mg"},{"bike_id":"222cf047-f998-4d64-843c-220b836d2dc0","system_id":"levelo_inurba_marseille","lat":43.29676,"lon":5.3729,"is_reserved":false,"is_disabled":false,"rental_uris":{"android":"levelo://app?vid=222cf047-f998-4d64-843c-220b836d2dc0","ios":"levelo://app?vid=222cf047-f998-4d64-843c-220b836d2dc0"},"vehicle_type_id":"4","last_reported":1737396733,"current_range_meters":17200,"station_id":"ce4bgk12rcd13ifvqbj0","pricing_plan_id":"cebpf4jnsgd1na2vs0mg"},{"bike_id":"59079a11-5cc1-47be-b061-6766731ba514","system_id":"levelo_inurba_marseille","lat":43.24387,"lon":5.37422,"is_reserved":false,"is_disabled":false,"rental_uris":{"android":"levelo://app?vid=59079a11-5cc1-47be-b061-6766731ba514","ios":"levelo://app?vid=59079a11-5cc1-47be-b061-6766731ba514"},"vehicle_type_id":"4","last_reported":1737396733,"current_range_meters":38400,"station_id":"ce4bhhh2rcd13ifvqfk0","pricing_plan_id":"cebpf4jnsgd1na2vs0mg"},{"bike_id":"e3d5a69f-7604-4ab5-bfce-dc9cf0dd7b56","system_id":"levelo_inurba_marseille","lat":43.2959,"lon":5.39968,"is_reserved":false,"is_disabled":true,"rental_uris":{"android":"levelo://app?vid=e3d5a69f-7604-4ab5-bfce-dc9cf0dd7b56","ios":"levelo://app?vid=e3d5a69f-7604-4ab5-bfce-dc9cf0dd7b56"},"vehicle_type_id":"4","last_reported":1737396733,"current_range_meters":38800,"station_id":"ce4bh312rcd13ifvqdj0","pricing_plan_id":"cebpf4jnsgd1na2vs0mg"},{"bike_id":"2e2b95d5-71f2-46d3-96f9-d8dfd51fb341","system_id":"levelo_inurba_marseille","lat":43.29302,"lon":5.37156,"is_reserved":false,"is_disabled":false,"rental_uris":{"android":"levelo://app?vid=2e2b95d5-71f2-46d3-96f9-d8dfd51fb341","ios":"levelo://app?vid=2e2b95d5-71f2-46d3-96f9-d8dfd51fb341"},"vehicle_type_id":"4","last_reported":1737396733,"current_range_meters":23200,"station_id":"ce4bgh92rcd13ifvqb40","pricing_plan_id":"cebpf4jnsgd1na2vs0mg"},{"bike_id":"6d38c9b3-d1d0-4471-85ef-1836c051c027","system_id":"levelo_inurba_marseille","lat":43.31759,"lon":5.3902,"is_reserved":false,"is_disabled":false,"rental_uris":{"android":"levelo://app?vid=6d38c9b3-d1d0-4471-85ef-1836c051c027","ios":"levelo://app?vid=6d38c9b3-d1d0-4471-85ef-1836c051c027"},"vehicle_type_id":"4","last_reported":1737396733,"current_range_meters":30400,"station_id":"ce4bhqp2rcd13ifvqhng","pricing_plan_id":"cebpf4jnsgd1na2vs0mg"},{"bike_id":"775e99ed-9948-411e-859e-d37b3c66545b","system_id":"levelo_inurba_marseille","lat":43.29375,"lon":5.37853,"is_reserved":false,"is_disabled":false,"rental_uris":{"android":"levelo://app?vid=775e99ed-9948-411e-859e-d37b3c66545b","ios":"levelo://app?vid=775e99ed-9948-411e-859e-d37b3c66545b"},"vehicle_type_id":"4","last_reported":1737396733,"current_range_meters":36800,"station_id":"ce4bgjh2rcd13ifvqbf0","pricing_plan_id":"cebpf4jnsgd1na2vs0mg"},{"bike_id":"92c89012-81f1-44d1-b6f4-f24f9cadaf21","system_id":"levelo_inurba_marseille","lat":43.27311,"lon":5.39076,"is_reserved":false,"is_disabled":false,"rental_uris":{"android":"levelo://app?vid=92c89012-81f1-44d1-b6f4-f24f9cadaf21","ios":"levelo://app?vid=92c89012-81f1-44d1-b6f4-f24f9cadaf21"},"vehicle_type_id":"4","last_reported":1737396733,"current_range_meters":38800,"station_id":"ce4bhgp2rcd13ifvqfe0","pricing_plan_id":"cebpf4jnsgd1na2vs0mg"},{"bike_id":"eba934d6-1033-4d66-8f13-4ed8fe87df75","system_id":"levelo_inurba_marseille","lat":43.29426,"lon":5.38625,"is_reserved":false,"is_disabled":false,"rental_uris":{"android":"levelo://app?vid=eba934d6-1033-4d66-8f13-4ed8fe87df75","ios":"levelo://app?vid=eba934d6-1033-4d66-8f13-4ed8fe87df75"},"vehicle_type_id":"4","last_reported":1737396733,"current_range_meters":28800,"station_id":"ce4bh2h2rcd13ifvqdh0","pricing_plan_id":"cebpf4jnsgd1na2vs0mg"},{"bike_id":"763ed4fc-16fd-47a0-aedf-62c028daa66f","system_id":"levelo_inurba_marseille","lat":43.36391,"lon":5.35589,"is_reserved":false,"is_disabled":false,"rental_uris":{"android":"levelo://app?vid=763ed4fc-16fd-47a0-aedf-62c028daa66f","ios":"levelo://app?vid=763ed4fc-16fd-47a0-aedf-62c028daa66f"},"vehicle_type_id":"4","last_reported":1737396733,"current_range_meters":8400,"station_id":"","pricing_plan_id":"cebpf4jnsgd1na2vs0mg"},{"bike_id":"54e47bbf-d358-4fc6-9623-23d2eb6b92a9","system_id":"levelo_inurba_marseille","lat":43.276747,"lon":5.388474,"is_reserved":false,"is_disabled":true,"rental_uris":{"android":"levelo://app?vid=54e47bbf-d358-4fc6-9623-23d2eb6b92a9","ios":"levelo://app?vid=54e47bbf-d358-4fc6-9623-23d2eb6b92a9"},"vehicle_type_id":"4","last_reported":1737396733,"current_range_meters":16000,"station_id":"","pricing_plan_id":"cebpf4jnsgd1na2vs0mg"},{"bike_id":"a2771881-b956-4a9a-9bc9-a89642d437c9","system_id":"levelo_inurba_marseille","lat":43.23199,"lon":5.35549,"is_reserved":false,"is_disabled":false,"rental_uris":{"android":"levelo://app?vid=a2771881-b956-4a9a-9bc9-a89642d437c9","ios":"levelo://app?vid=a2771881-b956-4a9a-9bc9-a89642d437c9"},"vehicle_type_id":"4","last_reported":1737396733,"current_range_meters":38800,"station_id":"ce4bhu92rcd13ifvqi70","pricing_plan_id":"cebpf4jnsgd1na2vs0mg"},{"bike_id":"3b26ab37-3b51-49df-bcb5-b23c8b5b2a76","system_id":"levelo_inurba_marseille","lat":43.32104,"lon":5.3679,"is_reserved":false,"is_disabled":false,"rental_uris":{"android":"levelo://app?vid=3b26ab37-3b51-49df-bcb5-b23c8b5b2a76","ios":"levelo://app?vid=3b26ab37-3b51-49df-bcb5-b23c8b5b2a76"},"vehicle_type_id":"4","last_reported":1737396733,"current_range_meters":16800,"station_id":"ce4bhrh2rcd13ifvqhug","pricing_plan_id":"cebpf4jnsgd1na2vs0mg"},{"bike_id":"1f46188d-5e81-46fa-8687-79c4e15ba169","system_id":"levelo_inurba_marseille","lat":43.25871,"lon":5.39909,"is_reserved":false,"is_disabled":false,"rental_uris":{"android":"levelo://app?vid=1f46188d-5e81-46fa-8687-79c4e15ba169","ios":"levelo://app?vid=1f46188d-5e81-46fa-8687-79c4e15ba169"},"vehicle_type_id":"4","last_reported":1737396733,"current_range_meters":38800,"station_id":"ce4bhl92rcd13ifvqghg","pricing_plan_id":"cebpf4jnsgd1na2vs0mg"},{"bike_id":"8ee913a8-3b37-480c-b308-a291552ad76d","system_id":"levelo_inurba_marseille","lat":43.32556,"lon":5.41446,"is_reserved":false,"is_disabled":false,"rental_uris":{"android":"levelo://app?vid=8ee913a8-3b37-480c-b308-a291552ad76d","ios":"levelo://app?vid=8ee913a8-3b37-480c-b308-a291552ad76d"},"vehicle_type_id":"4","last_reported":1737396733,"current_range_meters":19600,"station_id":"ce4bhq12rcd13ifvqhhg","pricing_plan_id":"cebpf4jnsgd1na2vs0mg"},{"bike_id":"94c99334-b018-4c30-87e1-f187a21d8a94","system_id":"levelo_inurba_marseille","lat":43.29602,"lon":5.381,"is_reserved":false,"is_disabled":false,"rental_uris":{"android":"levelo://app?vid=94c99334-b018-4c30-87e1-f187a21d8a94","ios":"levelo://app?vid=94c99334-b018-4c30-87e1-f187a21d8a94"},"vehicle_type_id":"4","last_reported":1737396733,"current_range_meters":20800,"station_id":"ce4bgl12rcd13ifvqbo0","pricing_plan_id":"cebpf4jnsgd1na2vs0mg"},{"bike_id":"3f1b54cd-3dc9-45df-a351-ccb534d1b18f","system_id":"levelo_inurba_marseille","lat":43.29525,"lon":5.38531,"is_reserved":false,"is_disabled":false,"rental_uris":{"android":"levelo://app?vid=3f1b54cd-3dc9-45df-a351-ccb534d1b18f","ios":"levelo://app?vid=3f1b54cd-3dc9-45df-a351-ccb534d1b18f"},"vehicle_type_id":"4","last_reported":1737396733,"current_range_meters":6400,"station_id":"ce4bgih2rcd13ifvqba0","pricing_plan_id":"cebpf4jnsgd1na2vs0mg"},{"bike_id":"3cecc9d6-ace0-4a14-8cbb-ae8e824e59b8","system_id":"levelo_inurba_marseille","lat":43.29032,"lon":5.37557,"is_reserved":false,"is_disabled":false,"rental_uris":{"android":"levelo://app?vid=3cecc9d6-ace0-4a14-8cbb-ae8e824e59b8","ios":"levelo://app?vid=3cecc9d6-ace0-4a14-8cbb-ae8e824e59b8"},"vehicle_type_id":"4","last_reported":1737396733,"current_range_meters":6000,"station_id":"ce4bh692rcd13ifvqe90","pricing_plan_id":"cebpf4jnsgd1na2vs0mg"},{"bike_id":"c29020e0-83ef-4b06-ac4f-c4422257f84a","system_id":"levelo_inurba_marseille","lat":43.36392,"lon":5.356,"is_reserved":false,"is_disabled":false,"rental_uris":{"android":"levelo://app?vid=c29020e0-83ef-4b06-ac4f-c4422257f84a","ios":"levelo://app?vid=c29020e0-83ef-4b06-ac4f-c4422257f84a"},"vehicle_type_id":"4","last_reported":1737396733,"current_range_meters":12000,"station_id":"","pricing_plan_id":"cebpf4jnsgd1na2vs0mg"},{"bike_id":"fdcb5c2d-8ae9-49de-a289-e32f54515b4e","system_id":"levelo_inurba_marseille","lat":43.257189,"lon":5.411138,"is_reserved":false,"is_disabled":false,"rental_uris":{"android":"levelo://app?vid=fdcb5c2d-8ae9-49de-a289-e32f54515b4e","ios":"levelo://app?vid=fdcb5c2d-8ae9-49de-a289-e32f54515b4e"},"vehicle_type_id":"4","last_reported":1737396733,"current_range_meters":37600,"station_id":"ce4bhkp2rcd13ifvqgd0","pricing_plan_id":"cebpf4jnsgd1na2vs0mg"},{"bike_id":"414603a2-f495-4e60-9a1e-27b48ae935b9","system_id":"levelo_inurba_marseille","lat":43.29523,"lon":5.39058,"is_reserved":false,"is_disabled":false,"rental_uris":{"android":"levelo://app?vid=414603a2-f495-4e60-9a1e-27b48ae935b9","ios":"levelo://app?vid=414603a2-f495-4e60-9a1e-27b48ae935b9"},"vehicle_type_id":"4","last_reported":1737396733,"current_range_meters":21600,"station_id":"ce4bh3p2rcd13ifvqdp0","pricing_plan_id":"cebpf4jnsgd1na2vs0mg"},{"bike_id":"e9ed4198-3645-4c82-a7b1-536b1aba6d12","system_id":"levelo_inurba_marseille","lat":43.32367,"lon":5.38876,"is_reserved":false,"is_disabled":false,"rental_uris":{"android":"levelo://app?vid=e9ed4198-3645-4c82-a7b1-536b1aba6d12","ios":"levelo://app?vid=e9ed4198-3645-4c82-a7b1-536b1aba6d12"},"vehicle_type_id":"4","last_reported":1737396733,"current_range_meters":38800,"station_id":"ce4bhqp2rcd13ifvqhog","pricing_plan_id":"cebpf4jnsgd1na2vs0mg"},{"bike_id":"a4929f10-be42-40bd-9958-40ba2c4eec72","system_id":"levelo_inurba_marseille","lat":43.33024,"lon":5.3904,"is_reserved":false,"is_disabled":false,"rental_uris":{"android":"levelo://app?vid=a4929f10-be42-40bd-9958-40ba2c4eec72","ios":"levelo://app?vid=a4929f10-be42-40bd-9958-40ba2c4eec72"},"vehicle_type_id":"4","last_reported":1737396733,"current_range_meters":17600,"station_id":"ce4bhr92rcd13ifvqhrg","pricing_plan_id":"cebpf4jnsgd1na2vs0mg"},{"bike_id":"ab7b1d7a-8ae0-4c4a-9611-7e663b41825a","system_id":"levelo_inurba_marseille","lat":43.32292,"lon":5.38273,"is_reserved":false,"is_disabled":false,"rental_uris":{"android":"levelo://app?vid=ab7b1d7a-8ae0-4c4a-9611-7e663b41825a","ios":"levelo://app?vid=ab7b1d7a-8ae0-4c4a-9611-7e663b41825a"},"vehicle_type_id":"4","last_reported":1737396733,"current_range_meters":38800,"station_id":"ce4bhr12rcd13ifvqhqg","pricing_plan_id":"cebpf4jnsgd1na2vs0mg"},{"bike_id":"629f0718-cf09-4c6c-aac5-30e94504c5f3","system_id":"levelo_inurba_marseille","lat":43.26805,"lon":5.40275,"is_reserved":false,"is_disabled":false,"rental_uris":{"android":"levelo://app?vid=629f0718-cf09-4c6c-aac5-30e94504c5f3","ios":"levelo://app?vid=629f0718-cf09-4c6c-aac5-30e94504c5f3"},"vehicle_type_id":"4","last_reported":1737396733,"current_range_meters":26000,"station_id":"ce501612rcd8frsf0b60","pricing_plan_id":"cebpf4jnsgd1na2vs0mg"},{"bike_id":"9ef0a740-599a-4c7d-b706-f748dda58d8c","system_id":"levelo_inurba_marseille","lat":43.27197,"lon":5.39184,"is_reserved":false,"is_disabled":false,"rental_uris":{"android":"levelo://app?vid=9ef0a740-599a-4c7d-b706-f748dda58d8c","ios":"levelo://app?vid=9ef0a740-599a-4c7d-b706-f748dda58d8c"},"vehicle_type_id":"4","last_reported":1737396733,"current_range_meters":28800,"station_id":"ce4bhhp2rcd13ifvqfm0","pricing_plan_id":"cebpf4jnsgd1na2vs0mg"},{"bike_id":"81cf47ff-26eb-472e-9b4d-b5f83b917a15","system_id":"levelo_inurba_marseille","lat":43.30098,"lon":5.39885,"is_reserved":false,"is_disabled":false,"rental_uris":{"android":"levelo://app?vid=81cf47ff-26eb-472e-9b4d-b5f83b917a15","ios":"levelo://app?vid=81cf47ff-26eb-472e-9b4d-b5f83b917a15"},"vehicle_type_id":"4","last_reported":1737396733,"current_range_meters":4000,"station_id":"ce4bh0h2rcd13ifvqd40","pricing_plan_id":"cebpf4jnsgd1na2vs0mg"},{"bike_id":"b5b08053-7558-4752-b0b4-cafb67ddb41a","system_id":"levelo_inurba_marseille","lat":43.29419,"lon":5.38628,"is_reserved":false,"is_disabled":false,"rental_uris":{"android":"levelo://app?vid=b5b08053-7558-4752-b0b4-cafb67ddb41a","ios":"levelo://app?vid=b5b08053-7558-4752-b0b4-cafb67ddb41a"},"vehicle_type_id":"4","last_reported":1737396733,"current_range_meters":36400,"station_id":"ce4bh2h2rcd13ifvqdh0","pricing_plan_id":"cebpf4jnsgd1na2vs0mg"},{"bike_id":"a52383ab-168e-48c1-b3e2-4468e6dd6c43","system_id":"levelo_inurba_marseille","lat":43.29613,"lon":5.3774,"is_reserved":false,"is_disabled":false,"rental_uris":{"android":"levelo://app?vid=a52383ab-168e-48c1-b3e2-4468e6dd6c43","ios":"levelo://app?vid=a52383ab-168e-48c1-b3e2-4468e6dd6c43"},"vehicle_type_id":"4","last_reported":1737396733,"current_range_meters":38800,"station_id":"ce4bgi92rcd13ifvqb90","pricing_plan_id":"cebpf4jnsgd1na2vs0mg"},{"bike_id":"96210615-954d-4ec9-b833-f3f4b70cf5f7","system_id":"levelo_inurba_marseille","lat":43.27896,"lon":5.38015,"is_reserved":false,"is_disabled":false,"rental_uris":{"android":"levelo://app?vid=96210615-954d-4ec9-b833-f3f4b70cf5f7","ios":"levelo://app?vid=96210615-954d-4ec9-b833-f3f4b70cf5f7"},"vehicle_type_id":"4","last_reported":1737396733,"current_range_meters":9200,"station_id":"ce4bhf92rcd13ifvqf50","pricing_plan_id":"cebpf4jnsgd1na2vs0mg"},{"bike_id":"de8d9fdf-7b46-48ad-a51d-f0132537ad32","system_id":"levelo_inurba_marseille","lat":43.32361,"lon":5.38877,"is_reserved":false,"is_disabled":false,"rental_uris":{"android":"levelo://app?vid=de8d9fdf-7b46-48ad-a51d-f0132537ad32","ios":"levelo://app?vid=de8d9fdf-7b46-48ad-a51d-f0132537ad32"},"vehicle_type_id":"4","last_reported":1737396733,"current_range_meters":24000,"station_id":"ce4bhqp2rcd13ifvqhog","pricing_plan_id":"cebpf4jnsgd1na2vs0mg"},{"bike_id":"57b0e606-8fdf-401d-8223-87c7978ca31e","system_id":"levelo_inurba_marseille","lat":43.262321,"lon":5.404549,"is_reserved":false,"is_disabled":false,"rental_uris":{"android":"levelo://app?vid=57b0e606-8fdf-401d-8223-87c7978ca31e","ios":"levelo://app?vid=57b0e606-8fdf-401d-8223-87c7978ca31e"},"vehicle_type_id":"4","last_reported":1737396733,"current_range_meters":30000,"station_id":"","pricing_plan_id":"cebpf4jnsgd1na2vs0mg"},{"bike_id":"db090fa3-42a7-4621-ba95-24031c78cef7","system_id":"levelo_inurba_marseille","lat":43.26511,"lon":5.3956,"is_reserved":false,"is_disabled":true,"rental_uris":{"android":"levelo://app?vid=db090fa3-42a7-4621-ba95-24031c78cef7","ios":"levelo://app?vid=db090fa3-42a7-4621-ba95-24031c78cef7"},"vehicle_type_id":"4","last_reported":1737396733,"current_range_meters":400,"station_id":"ce4bhi12rcd13ifvqfq0","pricing_plan_id":"cebpf4jnsgd1na2vs0mg"},{"bike_id":"2cca0472-e2a4-439d-914d-f9fce7966f79","system_id":"levelo_inurba_marseille","lat":43.28847,"lon":5.35864,"is_reserved":false,"is_disabled":false,"rental_uris":{"android":"levelo://app?vid=2cca0472-e2a4-439d-914d-f9fce7966f79","ios":"levelo://app?vid=2cca0472-e2a4-439d-914d-f9fce7966f79"},"vehicle_type_id":"4","last_reported":1737396733,"current_range_meters":38800,"station_id":"ce4bhb12rcd13ifvqem0","pricing_plan_id":"cebpf4jnsgd1na2vs0mg"},{"bike_id":"7ed1bb66-b412-4ddc-be1c-53bbf02cc1d8","system_id":"levelo_inurba_marseille","lat":43.27809,"lon":5.40713,"is_reserved":false,"is_disabled":false,"rental_uris":{"android":"levelo://app?vid=7ed1bb66-b412-4ddc-be1c-53bbf02cc1d8","ios":"levelo://app?vid=7ed1bb66-b412-4ddc-be1c-53bbf02cc1d8"},"vehicle_type_id":"4","last_reported":1737396733,"current_range_meters":20000,"station_id":"ce4bhnh2rcd13ifvqgtg","pricing_plan_id":"cebpf4jnsgd1na2vs0mg"},{"bike_id":"1df86f32-2cf2-4763-b0a8-e4c3956472b6","system_id":"levelo_inurba_marseille","lat":43.28708,"lon":5.37408,"is_reserved":false,"is_disabled":false,"rental_uris":{"android":"levelo://app?vid=1df86f32-2cf2-4763-b0a8-e4c3956472b6","ios":"levelo://app?vid=1df86f32-2cf2-4763-b0a8-e4c3956472b6"},"vehicle_type_id":"4","last_reported":1737396733,"current_range_meters":18000,"station_id":"ce4bh3p2rcd13ifvqdq0","pricing_plan_id":"cebpf4jnsgd1na2vs0mg"},{"bike_id":"a182fc4c-8bc2-4ced-a900-365aea0e4cec","system_id":"levelo_inurba_marseille","lat":43.27998,"lon":5.40028,"is_reserved":false,"is_disabled":false,"rental_uris":{"android":"levelo://app?vid=a182fc4c-8bc2-4ced-a900-365aea0e4cec","ios":"levelo://app?vid=a182fc4c-8bc2-4ced-a900-365aea0e4cec"},"vehicle_type_id":"4","last_reported":1737396733,"current_range_meters":35600,"station_id":"ce4bho92rcd13ifvqh4g","pricing_plan_id":"cebpf4jnsgd1na2vs0mg"},{"bike_id":"62bf0473-baaf-4ced-b8ff-c57da3495cce","system_id":"levelo_inurba_marseille","lat":43.29874,"lon":5.39723,"is_reserved":false,"is_disabled":false,"rental_uris":{"android":"levelo://app?vid=62bf0473-baaf-4ced-b8ff-c57da3495cce","ios":"levelo://app?vid=62bf0473-baaf-4ced-b8ff-c57da3495cce"},"vehicle_type_id":"4","last_reported":1737396733,"current_range_meters":38800,"station_id":"ce4bh0h2rcd13ifvqd50","pricing_plan_id":"cebpf4jnsgd1na2vs0mg"},{"bike_id":"5aa480e5-3e6a-40c8-badd-0f3cb7501d52","system_id":"levelo_inurba_marseille","lat":43.28923,"lon":5.38401,"is_reserved":false,"is_disabled":true,"rental_uris":{"android":"levelo://app?vid=5aa480e5-3e6a-40c8-badd-0f3cb7501d52","ios":"levelo://app?vid=5aa480e5-3e6a-40c8-badd-0f3cb7501d52"},"vehicle_type_id":"4","last_reported":1737396733,"current_range_meters":0,"station_id":"ce4bh612rcd13ifvqe6g","pricing_plan_id":"cebpf4jnsgd1na2vs0mg"},{"bike_id":"2fed15fe-6c9e-4a3e-9d35-a13e2d995cbb","system_id":"levelo_inurba_marseille","lat":43.30469,"lon":5.38199,"is_reserved":false,"is_disabled":false,"rental_uris":{"android":"levelo://app?vid=2fed15fe-6c9e-4a3e-9d35-a13e2d995cbb","ios":"levelo://app?vid=2fed15fe-6c9e-4a3e-9d35-a13e2d995cbb"},"vehicle_type_id":"4","last_reported":1737396733,"current_range_meters":14000,"station_id":"","pricing_plan_id":"cebpf4jnsgd1na2vs0mg"},{"bike_id":"b01a0517-838b-46fa-b08a-ced719493443","system_id":"levelo_inurba_marseille","lat":43.29885,"lon":5.39737,"is_reserved":false,"is_disabled":false,"rental_uris":{"android":"levelo://app?vid=b01a0517-838b-46fa-b08a-ced719493443","ios":"levelo://app?vid=b01a0517-838b-46fa-b08a-ced719493443"},"vehicle_type_id":"4","last_reported":1737396733,"current_range_meters":8800,"station_id":"ce4bh0h2rcd13ifvqd50","pricing_plan_id":"cebpf4jnsgd1na2vs0mg"},{"bike_id":"3860f79b-6390-4baa-9962-103869425bc6","system_id":"levelo_inurba_marseille","lat":43.29905,"lon":5.4367,"is_reserved":false,"is_disabled":false,"rental_uris":{"android":"levelo://app?vid=3860f79b-6390-4baa-9962-103869425bc6","ios":"levelo://app?vid=3860f79b-6390-4baa-9962-103869425bc6"},"vehicle_type_id":"4","last_reported":1737396733,"current_range_meters":16800,"station_id":"ce4bhpp2rcd13ifvqhfg","pricing_plan_id":"cebpf4jnsgd1na2vs0mg"},{"bike_id":"57b9fcf7-ed67-49fd-bf0a-8cfaa7d29c57","system_id":"levelo_inurba_marseille","lat":43.29881,"lon":5.39734,"is_reserved":false,"is_disabled":false,"rental_uris":{"android":"levelo://app?vid=57b9fcf7-ed67-49fd-bf0a-8cfaa7d29c57","ios":"levelo://app?vid=57b9fcf7-ed67-49fd-bf0a-8cfaa7d29c57"},"vehicle_type_id":"4","last_reported":1737396733,"current_range_meters":27600,"station_id":"ce4bh0h2rcd13ifvqd50","pricing_plan_id":"cebpf4jnsgd1na2vs0mg"},{"bike_id":"f47055ec-0cc2-4e35-b5ff-53cb839e7ebf","system_id":"levelo_inurba_marseille","lat":43.30592,"lon":5.3722,"is_reserved":false,"is_disabled":false,"rental_uris":{"android":"levelo://app?vid=f47055ec-0cc2-4e35-b5ff-53cb839e7ebf","ios":"levelo://app?vid=f47055ec-0cc2-4e35-b5ff-53cb839e7ebf"},"vehicle_type_id":"4","last_reported":1737396733,"current_range_meters":36000,"station_id":"ce4bgqh2rcd13ifvqc4g","pricing_plan_id":"cebpf4jnsgd1na2vs0mg"},{"bike_id":"3834644f-4dec-4497-8f3e-857c24717516","system_id":"levelo_inurba_marseille","lat":43.29282,"lon":5.4014,"is_reserved":false,"is_disabled":false,"rental_uris":{"android":"levelo://app?vid=3834644f-4dec-4497-8f3e-857c24717516","ios":"levelo://app?vid=3834644f-4dec-4497-8f3e-857c24717516"},"vehicle_type_id":"4","last_reported":1737396733,"current_range_meters":20000,"station_id":"ce4bh312rcd13ifvqdk0","pricing_plan_id":"cebpf4jnsgd1na2vs0mg"},{"bike_id":"3dc1825f-ac46-4fc4-980c-6c1844837d93","system_id":"levelo_inurba_marseille","lat":43.28422,"lon":5.37514,"is_reserved":false,"is_disabled":false,"rental_uris":{"android":"levelo://app?vid=3dc1825f-ac46-4fc4-980c-6c1844837d93","ios":"levelo://app?vid=3dc1825f-ac46-4fc4-980c-6c1844837d93"},"vehicle_type_id":"4","last_reported":1737396733,"current_range_meters":30000,"station_id":"ce4bh412rcd13ifvqds0","pricing_plan_id":"cebpf4jnsgd1na2vs0mg"},{"bike_id":"bef92516-197b-4968-9712-6028ff750b40","system_id":"levelo_inurba_marseille","lat":43.28447,"lon":5.39203,"is_reserved":false,"is_disabled":false,"rental_uris":{"android":"levelo://app?vid=bef92516-197b-4968-9712-6028ff750b40","ios":"levelo://app?vid=bef92516-197b-4968-9712-6028ff750b40"},"vehicle_type_id":"4","last_reported":1737396733,"current_range_meters":20400,"station_id":"ce4bhoh2rcd13ifvqh5g","pricing_plan_id":"cebpf4jnsgd1na2vs0mg"},{"bike_id":"e7ad8032-7d51-432d-8891-1b85f3e7060a","system_id":"levelo_inurba_marseille","lat":43.28032,"lon":5.36944,"is_reserved":false,"is_disabled":false,"rental_uris":{"android":"levelo://app?vid=e7ad8032-7d51-432d-8891-1b85f3e7060a","ios":"levelo://app?vid=e7ad8032-7d51-432d-8891-1b85f3e7060a"},"vehicle_type_id":"4","last_reported":1737396733,"current_range_meters":6400,"station_id":"ce4bha12rcd13ifvqef0","pricing_plan_id":"cebpf4jnsgd1na2vs0mg"},{"bike_id":"ad6c039d-169e-4be2-9f20-740d5f479877","system_id":"levelo_inurba_marseille","lat":43.29535,"lon":5.39045,"is_reserved":false,"is_disabled":false,"rental_uris":{"android":"levelo://app?vid=ad6c039d-169e-4be2-9f20-740d5f479877","ios":"levelo://app?vid=ad6c039d-169e-4be2-9f20-740d5f479877"},"vehicle_type_id":"4","last_reported":1737396733,"current_range_meters":38800,"station_id":"ce4bh3p2rcd13ifvqdp0","pricing_plan_id":"cebpf4jnsgd1na2vs0mg"},{"bike_id":"f233bbba-4d23-41d5-ba0a-d65034bb4f4c","system_id":"levelo_inurba_marseille","lat":43.28575,"lon":5.39504,"is_reserved":false,"is_disabled":false,"rental_uris":{"android":"levelo://app?vid=f233bbba-4d23-41d5-ba0a-d65034bb4f4c","ios":"levelo://app?vid=f233bbba-4d23-41d5-ba0a-d65034bb4f4c"},"vehicle_type_id":"4","last_reported":1737396733,"current_range_meters":3200,"station_id":"ce4bh292rcd13ifvqdg0","pricing_plan_id":"cebpf4jnsgd1na2vs0mg"},{"bike_id":"237a5a39-82d9-414a-97f8-9205d63ee768","system_id":"levelo_inurba_marseille","lat":43.30418,"lon":5.4128,"is_reserved":false,"is_disabled":false,"rental_uris":{"android":"levelo://app?vid=237a5a39-82d9-414a-97f8-9205d63ee768","ios":"levelo://app?vid=237a5a39-82d9-414a-97f8-9205d63ee768"},"vehicle_type_id":"4","last_reported":1737396733,"current_range_meters":38800,"station_id":"ce4bhop2rcd13ifvqh8g","pricing_plan_id":"cebpf4jnsgd1na2vs0mg"},{"bike_id":"3a5376cc-1a4a-4c17-8915-a440cbacddae","system_id":"levelo_inurba_marseille","lat":43.29036,"lon":5.38663,"is_reserved":false,"is_disabled":false,"rental_uris":{"android":"levelo://app?vid=3a5376cc-1a4a-4c17-8915-a440cbacddae","ios":"levelo://app?vid=3a5376cc-1a4a-4c17-8915-a440cbacddae"},"vehicle_type_id":"4","last_reported":1737396733,"current_range_meters":30800,"station_id":"ce4bh4p2rcd13ifvqe0g","pricing_plan_id":"cebpf4jnsgd1na2vs0mg"},{"bike_id":"62953f18-d96f-45f5-b581-e456a19a2cc9","system_id":"levelo_inurba_marseille","lat":43.29573,"lon":5.37525,"is_reserved":false,"is_disabled":false,"rental_uris":{"android":"levelo://app?vid=62953f18-d96f-45f5-b581-e456a19a2cc9","ios":"levelo://app?vid=62953f18-d96f-45f5-b581-e456a19a2cc9"},"vehicle_type_id":"4","last_reported":1737396733,"current_range_meters":26000,"station_id":"ce4bgh92rcd13ifvqb50","pricing_plan_id":"cebpf4jnsgd1na2vs0mg"},{"bike_id":"6d06bc90-1d32-4516-9bc9-b423317e82c4","system_id":"levelo_inurba_marseille","lat":43.31703,"lon":5.37684,"is_reserved":false,"is_disabled":true,"rental_uris":{"android":"levelo://app?vid=6d06bc90-1d32-4516-9bc9-b423317e82c4","ios":"levelo://app?vid=6d06bc90-1d32-4516-9bc9-b423317e82c4"},"vehicle_type_id":"4","last_reported":1737396733,"current_range_meters":28000,"station_id":"ce4bgth2rcd13ifvqch0","pricing_plan_id":"cebpf4jnsgd1na2vs0mg"},{"bike_id":"7b239399-9765-4039-8031-e0539132889c","system_id":"levelo_inurba_marseille","lat":43.28464,"lon":5.38427,"is_reserved":false,"is_disabled":false,"rental_uris":{"android":"levelo://app?vid=7b239399-9765-4039-8031-e0539132889c","ios":"levelo://app?vid=7b239399-9765-4039-8031-e0539132889c"},"vehicle_type_id":"4","last_reported":1737396733,"current_range_meters":38800,"station_id":"ce4bh512rcd13ifvqe3g","pricing_plan_id":"cebpf4jnsgd1na2vs0mg"},{"bike_id":"fe88ff77-ed27-467e-83d8-8d1c3353353d","system_id":"levelo_inurba_marseille","lat":43.28705,"lon":5.39997,"is_reserved":false,"is_disabled":false,"rental_uris":{"android":"levelo://app?vid=fe88ff77-ed27-467e-83d8-8d1c3353353d","ios":"levelo://app?vid=fe88ff77-ed27-467e-83d8-8d1c3353353d"},"vehicle_type_id":"4","last_reported":1737396733,"current_range_meters":27200,"station_id":"ce4bho92rcd13ifvqh3g","pricing_plan_id":"cebpf4jnsgd1na2vs0mg"},{"bike_id":"e19be7ba-28a6-42e1-8a2f-29a53f65e156","system_id":"levelo_inurba_marseille","lat":43.291956,"lon":5.39325,"is_reserved":false,"is_disabled":false,"rental_uris":{"android":"levelo://app?vid=e19be7ba-28a6-42e1-8a2f-29a53f65e156","ios":"levelo://app?vid=e19be7ba-28a6-42e1-8a2f-29a53f65e156"},"vehicle_type_id":"4","last_reported":1737396733,"current_range_meters":35200,"station_id":"ce4bh192rcd13ifvqdd0","pricing_plan_id":"cebpf4jnsgd1na2vs0mg"},{"bike_id":"b6cc31be-151e-4d56-8839-e71a9cd45b18","system_id":"levelo_inurba_marseille","lat":43.23195,"lon":5.35565,"is_reserved":false,"is_disabled":false,"rental_uris":{"android":"levelo://app?vid=b6cc31be-151e-4d56-8839-e71a9cd45b18","ios":"levelo://app?vid=b6cc31be-151e-4d56-8839-e71a9cd45b18"},"vehicle_type_id":"4","last_reported":1737396733,"current_range_meters":38800,"station_id":"ce4bhu92rcd13ifvqi70","pricing_plan_id":"cebpf4jnsgd1na2vs0mg"},{"bike_id":"4104cbba-088f-4383-b2a0-261d17699731","system_id":"levelo_inurba_marseille","lat":43.23972,"lon":5.36637,"is_reserved":false,"is_disabled":false,"rental_uris":{"android":"levelo://app?vid=4104cbba-088f-4383-b2a0-261d17699731","ios":"levelo://app?vid=4104cbba-088f-4383-b2a0-261d17699731"},"vehicle_type_id":"4","last_reported":1737396733,"current_range_meters":31200,"station_id":"ce4bhi12rcd13ifvqfp0","pricing_plan_id":"cebpf4jnsgd1na2vs0mg"},{"bike_id":"e4f8bbc0-3e71-4438-9c78-7d4251a5823b","system_id":"levelo_inurba_marseille","lat":43.29588,"lon":5.37498,"is_reserved":false,"is_disabled":false,"rental_uris":{"android":"levelo://app?vid=e4f8bbc0-3e71-4438-9c78-7d4251a5823b","ios":"levelo://app?vid=e4f8bbc0-3e71-4438-9c78-7d4251a5823b"},"vehicle_type_id":"4","last_reported":1737396733,"current_range_meters":29600,"station_id":"ce4bgh92rcd13ifvqb50","pricing_plan_id":"cebpf4jnsgd1na2vs0mg"},{"bike_id":"e769477c-b503-4bb8-b7d3-b7f7ff9ddf2d","system_id":"levelo_inurba_marseille","lat":43.29193,"lon":5.36909,"is_reserved":false,"is_disabled":false,"rental_uris":{"android":"levelo://app?vid=e769477c-b503-4bb8-b7d3-b7f7ff9ddf2d","ios":"levelo://app?vid=e769477c-b503-4bb8-b7d3-b7f7ff9ddf2d"},"vehicle_type_id":"4","last_reported":1737396733,"current_range_meters":14400,"station_id":"","pricing_plan_id":"cebpf4jnsgd1na2vs0mg"},{"bike_id":"28ef1c1e-dd89-43e8-817b-9b489831397b","system_id":"levelo_inurba_marseille","lat":43.27123,"lon":5.39617,"is_reserved":false,"is_disabled":true,"rental_uris":{"android":"levelo://app?vid=28ef1c1e-dd89-43e8-817b-9b489831397b","ios":"levelo://app?vid=28ef1c1e-dd89-43e8-817b-9b489831397b"},"vehicle_type_id":"4","last_reported":1737396733,"current_range_meters":0,"station_id":"","pricing_plan_id":"cebpf4jnsgd1na2vs0mg"},{"bike_id":"3ece2722-131b-4e1a-8f26-c8313e23671b","system_id":"levelo_inurba_marseille","lat":43.24176,"lon":5.39734,"is_reserved":false,"is_disabled":false,"rental_uris":{"android":"levelo://app?vid=3ece2722-131b-4e1a-8f26-c8313e23671b","ios":"levelo://app?vid=3ece2722-131b-4e1a-8f26-c8313e23671b"},"vehicle_type_id":"4","last_reported":1737396733,"current_range_meters":38000,"station_id":"ce4bhn12rcd13ifvqgpg","pricing_plan_id":"cebpf4jnsgd1na2vs0mg"},{"bike_id":"ef9f5283-1c36-47ba-ba58-583e077e7770","system_id":"levelo_inurba_marseille","lat":43.23184,"lon":5.39989,"is_reserved":false,"is_disabled":false,"rental_uris":{"android":"levelo://app?vid=ef9f5283-1c36-47ba-ba58-583e077e7770","ios":"levelo://app?vid=ef9f5283-1c36-47ba-ba58-583e077e7770"},"vehicle_type_id":"4","last_reported":1737396733,"current_range_meters":11600,"station_id":"ce4bhn12rcd13ifvqgqg","pricing_plan_id":"cebpf4jnsgd1na2vs0mg"},{"bike_id":"973357c8-dead-42ca-92e9-500225bc994c","system_id":"levelo_inurba_marseille","lat":43.33029,"lon":5.39044,"is_reserved":false,"is_disabled":false,"rental_uris":{"android":"levelo://app?vid=973357c8-dead-42ca-92e9-500225bc994c","ios":"levelo://app?vid=973357c8-dead-42ca-92e9-500225bc994c"},"vehicle_type_id":"4","last_reported":1737396733,"current_range_meters":38000,"station_id":"ce4bhr92rcd13ifvqhrg","pricing_plan_id":"cebpf4jnsgd1na2vs0mg"},{"bike_id":"91c9f4c6-30a9-44b2-a8b8-8fcf35cfb666","system_id":"levelo_inurba_marseille","lat":43.28034,"lon":5.36944,"is_reserved":false,"is_disabled":false,"rental_uris":{"android":"levelo://app?vid=91c9f4c6-30a9-44b2-a8b8-8fcf35cfb666","ios":"levelo://app?vid=91c9f4c6-30a9-44b2-a8b8-8fcf35cfb666"},"vehicle_type_id":"4","last_reported":1737396733,"current_range_meters":33600,"station_id":"ce4bha12rcd13ifvqef0","pricing_plan_id":"cebpf4jnsgd1na2vs0mg"},{"bike_id":"137e06d6-82f8-4759-912d-a0c2cb273d38","system_id":"levelo_inurba_marseille","lat":43.30134,"lon":5.38793,"is_reserved":false,"is_disabled":false,"rental_uris":{"android":"levelo://app?vid=137e06d6-82f8-4759-912d-a0c2cb273d38","ios":"levelo://app?vid=137e06d6-82f8-4759-912d-a0c2cb273d38"},"vehicle_type_id":"4","last_reported":1737396733,"current_range_meters":38000,"station_id":"ce4bghh2rcd13ifvqb60","pricing_plan_id":"cebpf4jnsgd1na2vs0mg"},{"bike_id":"5fa49ac5-f5fb-407d-9f73-7837cb4b4991","system_id":"levelo_inurba_marseille","lat":43.28625,"lon":5.35098,"is_reserved":false,"is_disabled":false,"rental_uris":{"android":"levelo://app?vid=5fa49ac5-f5fb-407d-9f73-7837cb4b4991","ios":"levelo://app?vid=5fa49ac5-f5fb-407d-9f73-7837cb4b4991"},"vehicle_type_id":"4","last_reported":1737396733,"current_range_meters":34000,"station_id":"ce4bhch2rcd13ifvqeug","pricing_plan_id":"cebpf4jnsgd1na2vs0mg"},{"bike_id":"f476d878-7cd0-4f0c-8ec2-9d9f08b67a27","system_id":"levelo_inurba_marseille","lat":43.31279,"lon":5.40166,"is_reserved":false,"is_disabled":false,"rental_uris":{"android":"levelo://app?vid=f476d878-7cd0-4f0c-8ec2-9d9f08b67a27","ios":"levelo://app?vid=f476d878-7cd0-4f0c-8ec2-9d9f08b67a27"},"vehicle_type_id":"4","last_reported":1737396733,"current_range_meters":38800,"station_id":"ce4bh092rcd13ifvqd30","pricing_plan_id":"cebpf4jnsgd1na2vs0mg"},{"bike_id":"572111e7-56a7-4348-acc2-ff87890d28e9","system_id":"levelo_inurba_marseille","lat":43.29531,"lon":5.38535,"is_reserved":false,"is_disabled":false,"rental_uris":{"android":"levelo://app?vid=572111e7-56a7-4348-acc2-ff87890d28e9","ios":"levelo://app?vid=572111e7-56a7-4348-acc2-ff87890d28e9"},"vehicle_type_id":"4","last_reported":1737396733,"current_range_meters":31200,"station_id":"ce4bgih2rcd13ifvqba0","pricing_plan_id":"cebpf4jnsgd1na2vs0mg"},{"bike_id":"2c3e897c-abff-4c16-99f3-3aa5b09fa575","system_id":"levelo_inurba_marseille","lat":43.30323,"lon":5.40443,"is_reserved":false,"is_disabled":false,"rental_uris":{"android":"levelo://app?vid=2c3e897c-abff-4c16-99f3-3aa5b09fa575","ios":"levelo://app?vid=2c3e897c-abff-4c16-99f3-3aa5b09fa575"},"vehicle_type_id":"4","last_reported":1737396733,"current_range_meters":33200,"station_id":"ce4bh012rcd13ifvqd10","pricing_plan_id":"cebpf4jnsgd1na2vs0mg"},{"bike_id":"6c25f2eb-6f4e-4ee1-8c7a-fb3bd07b7c8b","system_id":"levelo_inurba_marseille","lat":43.30078,"lon":5.39079,"is_reserved":false,"is_disabled":false,"rental_uris":{"android":"levelo://app?vid=6c25f2eb-6f4e-4ee1-8c7a-fb3bd07b7c8b","ios":"levelo://app?vid=6c25f2eb-6f4e-4ee1-8c7a-fb3bd07b7c8b"},"vehicle_type_id":"4","last_reported":1737396733,"current_range_meters":33600,"station_id":"ce4bh192rcd13ifvqdb0","pricing_plan_id":"cebpf4jnsgd1na2vs0mg"},{"bike_id":"01a07bd9-36a1-4c19-a88b-7c9e3a6ee490","system_id":"levelo_inurba_marseille","lat":43.250897,"lon":5.395154,"is_reserved":false,"is_disabled":false,"rental_uris":{"android":"levelo://app?vid=01a07bd9-36a1-4c19-a88b-7c9e3a6ee490","ios":"levelo://app?vid=01a07bd9-36a1-4c19-a88b-7c9e3a6ee490"},"vehicle_type_id":"4","last_reported":1737396733,"current_range_meters":28400,"station_id":"ce4bhm12rcd13ifvqgkg","pricing_plan_id":"cebpf4jnsgd1na2vs0mg"},{"bike_id":"30868fb9-be18-4137-b148-fea1b914be52","system_id":"levelo_inurba_marseille","lat":43.28002,"lon":5.40011,"is_reserved":false,"is_disabled":false,"rental_uris":{"android":"levelo://app?vid=30868fb9-be18-4137-b148-fea1b914be52","ios":"levelo://app?vid=30868fb9-be18-4137-b148-fea1b914be52"},"vehicle_type_id":"4","last_reported":1737396733,"current_range_meters":36800,"station_id":"ce4bho92rcd13ifvqh4g","pricing_plan_id":"cebpf4jnsgd1na2vs0mg"},{"bike_id":"ec46ee25-07c5-496b-970c-cee81379a2ba","system_id":"levelo_inurba_marseille","lat":43.2464,"lon":5.38914,"is_reserved":false,"is_disabled":false,"rental_uris":{"android":"levelo://app?vid=ec46ee25-07c5-496b-970c-cee81379a2ba","ios":"levelo://app?vid=ec46ee25-07c5-496b-970c-cee81379a2ba"},"vehicle_type_id":"4","last_reported":1737396733,"current_range_meters":10800,"station_id":"ce4bhg12rcd13ifvqf60","pricing_plan_id":"cebpf4jnsgd1na2vs0mg"},{"bike_id":"bb93755d-17c7-47e4-b2ad-a6e979ad71ab","system_id":"levelo_inurba_marseille","lat":43.27908,"lon":5.3958,"is_reserved":false,"is_disabled":false,"rental_uris":{"android":"levelo://app?vid=bb93755d-17c7-47e4-b2ad-a6e979ad71ab","ios":"levelo://app?vid=bb93755d-17c7-47e4-b2ad-a6e979ad71ab"},"vehicle_type_id":"4","last_reported":1737396733,"current_range_meters":30000,"station_id":"ce4bhf92rcd13ifvqf40","pricing_plan_id":"cebpf4jnsgd1na2vs0mg"},{"bike_id":"7c0efdb1-794e-44be-bd67-4af6c4ca6f99","system_id":"levelo_inurba_marseille","lat":43.29924,"lon":5.36522,"is_reserved":false,"is_disabled":false,"rental_uris":{"android":"levelo://app?vid=7c0efdb1-794e-44be-bd67-4af6c4ca6f99","ios":"levelo://app?vid=7c0efdb1-794e-44be-bd67-4af6c4ca6f99"},"vehicle_type_id":"4","last_reported":1737396733,"current_range_meters":6800,"station_id":"ce4bgm92rcd13ifvqbr0","pricing_plan_id":"cebpf4jnsgd1na2vs0mg"},{"bike_id":"3f73cdce-5679-4f8e-bdfa-397be04d5b8c","system_id":"levelo_inurba_marseille","lat":43.29502,"lon":5.3904,"is_reserved":false,"is_disabled":false,"rental_uris":{"android":"levelo://app?vid=3f73cdce-5679-4f8e-bdfa-397be04d5b8c","ios":"levelo://app?vid=3f73cdce-5679-4f8e-bdfa-397be04d5b8c"},"vehicle_type_id":"4","last_reported":1737396733,"current_range_meters":3600,"station_id":"ce4bh3p2rcd13ifvqdp0","pricing_plan_id":"cebpf4jnsgd1na2vs0mg"},{"bike_id":"509084fc-88eb-4a20-b24f-6460532097cb","system_id":"levelo_inurba_marseille","lat":43.29259,"lon":5.3844,"is_reserved":false,"is_disabled":false,"rental_uris":{"android":"levelo://app?vid=509084fc-88eb-4a20-b24f-6460532097cb","ios":"levelo://app?vid=509084fc-88eb-4a20-b24f-6460532097cb"},"vehicle_type_id":"4","last_reported":1737396733,"current_range_meters":32800,"station_id":"ce4bh692rcd13ifvqea0","pricing_plan_id":"cebpf4jnsgd1na2vs0mg"},{"bike_id":"6988c97e-c79d-4f47-9f8a-ccafc6deb38c","system_id":"levelo_inurba_marseille","lat":43.26932,"lon":5.40272,"is_reserved":false,"is_disabled":false,"rental_uris":{"android":"levelo://app?vid=6988c97e-c79d-4f47-9f8a-ccafc6deb38c","ios":"levelo://app?vid=6988c97e-c79d-4f47-9f8a-ccafc6deb38c"},"vehicle_type_id":"4","last_reported":1737396733,"current_range_meters":38800,"station_id":"cjm6bp8fraef2m0cb0m0","pricing_plan_id":"cebpf4jnsgd1na2vs0mg"},{"bike_id":"7f095a12-4f92-4659-8967-ab82406b1c77","system_id":"levelo_inurba_marseille","lat":43.23184,"lon":5.39984,"is_reserved":false,"is_disabled":false,"rental_uris":{"android":"levelo://app?vid=7f095a12-4f92-4659-8967-ab82406b1c77","ios":"levelo://app?vid=7f095a12-4f92-4659-8967-ab82406b1c77"},"vehicle_type_id":"4","last_reported":1737396733,"current_range_meters":38400,"station_id":"ce4bhn12rcd13ifvqgqg","pricing_plan_id":"cebpf4jnsgd1na2vs0mg"},{"bike_id":"f5ea92f2-c793-41e2-b699-a5fcacdfaf4a","system_id":"levelo_inurba_marseille","lat":43.29415,"lon":5.38625,"is_reserved":false,"is_disabled":false,"rental_uris":{"android":"levelo://app?vid=f5ea92f2-c793-41e2-b699-a5fcacdfaf4a","ios":"levelo://app?vid=f5ea92f2-c793-41e2-b699-a5fcacdfaf4a"},"vehicle_type_id":"4","last_reported":1737396733,"current_range_meters":28800,"station_id":"ce4bh2h2rcd13ifvqdh0","pricing_plan_id":"cebpf4jnsgd1na2vs0mg"},{"bike_id":"9f935c88-b13b-4c0c-88e9-3abe18c563ee","system_id":"levelo_inurba_marseille","lat":43.28448,"lon":5.39203,"is_reserved":false,"is_disabled":false,"rental_uris":{"android":"levelo://app?vid=9f935c88-b13b-4c0c-88e9-3abe18c563ee","ios":"levelo://app?vid=9f935c88-b13b-4c0c-88e9-3abe18c563ee"},"vehicle_type_id":"4","last_reported":1737396733,"current_range_meters":13600,"station_id":"ce4bhoh2rcd13ifvqh5g","pricing_plan_id":"cebpf4jnsgd1na2vs0mg"},{"bike_id":"76fc3200-f33f-4190-ae84-57b96cd0c3c7","system_id":"levelo_inurba_marseille","lat":43.2481,"lon":5.37462,"is_reserved":false,"is_disabled":false,"rental_uris":{"android":"levelo://app?vid=76fc3200-f33f-4190-ae84-57b96cd0c3c7","ios":"levelo://app?vid=76fc3200-f33f-4190-ae84-57b96cd0c3c7"},"vehicle_type_id":"4","last_reported":1737396733,"current_range_meters":29600,"station_id":"ce4bhgh2rcd13ifvqfb0","pricing_plan_id":"cebpf4jnsgd1na2vs0mg"},{"bike_id":"e9708e1f-0a87-441e-80c6-172d60135fa9","system_id":"levelo_inurba_marseille","lat":43.30655,"lon":5.40071,"is_reserved":false,"is_disabled":false,"rental_uris":{"android":"levelo://app?vid=e9708e1f-0a87-441e-80c6-172d60135fa9","ios":"levelo://app?vid=e9708e1f-0a87-441e-80c6-172d60135fa9"},"vehicle_type_id":"4","last_reported":1737396733,"current_range_meters":38800,"station_id":"ce4bh112rcd13ifvqda0","pricing_plan_id":"cebpf4jnsgd1na2vs0mg"},{"bike_id":"eaa638d9-7e2e-43a0-989a-f3e72ed09d7b","system_id":"levelo_inurba_marseille","lat":43.27905,"lon":5.38016,"is_reserved":false,"is_disabled":false,"rental_uris":{"android":"levelo://app?vid=eaa638d9-7e2e-43a0-989a-f3e72ed09d7b","ios":"levelo://app?vid=eaa638d9-7e2e-43a0-989a-f3e72ed09d7b"},"vehicle_type_id":"4","last_reported":1737396733,"current_range_meters":29600,"station_id":"ce4bhf92rcd13ifvqf50","pricing_plan_id":"cebpf4jnsgd1na2vs0mg"},{"bike_id":"e8766598-b2f6-417b-a2f3-b73d56d88e6d","system_id":"levelo_inurba_marseille","lat":43.28676,"lon":5.38675,"is_reserved":false,"is_disabled":false,"rental_uris":{"android":"levelo://app?vid=e8766598-b2f6-417b-a2f3-b73d56d88e6d","ios":"levelo://app?vid=e8766598-b2f6-417b-a2f3-b73d56d88e6d"},"vehicle_type_id":"4","last_reported":1737396733,"current_range_meters":32400,"station_id":"ce4bh492rcd13ifvqdug","pricing_plan_id":"cebpf4jnsgd1na2vs0mg"},{"bike_id":"5f17a4aa-ea98-4030-8901-857d7bdddbc9","system_id":"levelo_inurba_marseille","lat":43.29252,"lon":5.38436,"is_reserved":false,"is_disabled":false,"rental_uris":{"android":"levelo://app?vid=5f17a4aa-ea98-4030-8901-857d7bdddbc9","ios":"levelo://app?vid=5f17a4aa-ea98-4030-8901-857d7bdddbc9"},"vehicle_type_id":"4","last_reported":1737396733,"current_range_meters":8400,"station_id":"ce4bh692rcd13ifvqea0","pricing_plan_id":"cebpf4jnsgd1na2vs0mg"},{"bike_id":"80bcc3e7-77de-44a5-8965-f19acb6d7452","system_id":"levelo_inurba_marseille","lat":43.33024,"lon":5.39048,"is_reserved":false,"is_disabled":false,"rental_uris":{"android":"levelo://app?vid=80bcc3e7-77de-44a5-8965-f19acb6d7452","ios":"levelo://app?vid=80bcc3e7-77de-44a5-8965-f19acb6d7452"},"vehicle_type_id":"4","last_reported":1737396733,"current_range_meters":38800,"station_id":"ce4bhr92rcd13ifvqhrg","pricing_plan_id":"cebpf4jnsgd1na2vs0mg"},{"bike_id":"d30bb0f2-1cd5-498a-8964-471330a4f506","system_id":"levelo_inurba_marseille","lat":43.27494,"lon":5.42456,"is_reserved":false,"is_disabled":false,"rental_uris":{"android":"levelo://app?vid=d30bb0f2-1cd5-498a-8964-471330a4f506","ios":"levelo://app?vid=d30bb0f2-1cd5-498a-8964-471330a4f506"},"vehicle_type_id":"4","last_reported":1737396733,"current_range_meters":3600,"station_id":"ce4bhn92rcd13ifvqgrg","pricing_plan_id":"cebpf4jnsgd1na2vs0mg"},{"bike_id":"76458d9c-debe-4829-9595-db34e50d2ccc","system_id":"levelo_inurba_marseille","lat":43.28603,"lon":5.37069,"is_reserved":false,"is_disabled":false,"rental_uris":{"android":"levelo://app?vid=76458d9c-debe-4829-9595-db34e50d2ccc","ios":"levelo://app?vid=76458d9c-debe-4829-9595-db34e50d2ccc"},"vehicle_type_id":"4","last_reported":1737396733,"current_range_meters":38800,"station_id":"ce4bht12rcd13ifvqi60","pricing_plan_id":"cebpf4jnsgd1na2vs0mg"},{"bike_id":"5c647c6a-f36f-4ac4-a081-cf09345ba7c6","system_id":"levelo_inurba_marseille","lat":43.25875,"lon":5.39898,"is_reserved":false,"is_disabled":false,"rental_uris":{"android":"levelo://app?vid=5c647c6a-f36f-4ac4-a081-cf09345ba7c6","ios":"levelo://app?vid=5c647c6a-f36f-4ac4-a081-cf09345ba7c6"},"vehicle_type_id":"4","last_reported":1737396733,"current_range_meters":38800,"station_id":"ce4bhl92rcd13ifvqghg","pricing_plan_id":"cebpf4jnsgd1na2vs0mg"},{"bike_id":"9a01c53d-c843-4cc8-b75b-316aefd06049","system_id":"levelo_inurba_marseille","lat":43.26802,"lon":5.40266,"is_reserved":false,"is_disabled":false,"rental_uris":{"android":"levelo://app?vid=9a01c53d-c843-4cc8-b75b-316aefd06049","ios":"levelo://app?vid=9a01c53d-c843-4cc8-b75b-316aefd06049"},"vehicle_type_id":"4","last_reported":1737396733,"current_range_meters":8000,"station_id":"ce501612rcd8frsf0b60","pricing_plan_id":"cebpf4jnsgd1na2vs0mg"},{"bike_id":"fac7910c-e9ea-445f-8fee-17bb73fb6bab","system_id":"levelo_inurba_marseille","lat":43.302338,"lon":5.40448,"is_reserved":false,"is_disabled":false,"rental_uris":{"android":"levelo://app?vid=fac7910c-e9ea-445f-8fee-17bb73fb6bab","ios":"levelo://app?vid=fac7910c-e9ea-445f-8fee-17bb73fb6bab"},"vehicle_type_id":"4","last_reported":1737396733,"current_range_meters":34000,"station_id":"ce4bh012rcd13ifvqd10","pricing_plan_id":"cebpf4jnsgd1na2vs0mg"},{"bike_id":"7641784b-aae1-484d-ac73-6d6d90ec9b9e","system_id":"levelo_inurba_marseille","lat":43.30121,"lon":5.39887,"is_reserved":false,"is_disabled":false,"rental_uris":{"android":"levelo://app?vid=7641784b-aae1-484d-ac73-6d6d90ec9b9e","ios":"levelo://app?vid=7641784b-aae1-484d-ac73-6d6d90ec9b9e"},"vehicle_type_id":"4","last_reported":1737396733,"current_range_meters":30800,"station_id":"ce4bh0h2rcd13ifvqd40","pricing_plan_id":"cebpf4jnsgd1na2vs0mg"},{"bike_id":"ef452395-3be9-454d-b5f5-c3f11f867018","system_id":"levelo_inurba_marseille","lat":43.31537,"lon":5.38034,"is_reserved":false,"is_disabled":false,"rental_uris":{"android":"levelo://app?vid=ef452395-3be9-454d-b5f5-c3f11f867018","ios":"levelo://app?vid=ef452395-3be9-454d-b5f5-c3f11f867018"},"vehicle_type_id":"4","last_reported":1737396733,"current_range_meters":30800,"station_id":"ce4bhsp2rcd13ifvqi50","pricing_plan_id":"cebpf4jnsgd1na2vs0mg"},{"bike_id":"b887ec45-2824-4a19-a327-1b38cefbc7dc","system_id":"levelo_inurba_marseille","lat":43.309097,"lon":5.368475,"is_reserved":false,"is_disabled":true,"rental_uris":{"android":"levelo://app?vid=b887ec45-2824-4a19-a327-1b38cefbc7dc","ios":"levelo://app?vid=b887ec45-2824-4a19-a327-1b38cefbc7dc"},"vehicle_type_id":"4","last_reported":1737396733,"current_range_meters":33600,"station_id":"ce4bgn92rcd13ifvqbvg","pricing_plan_id":"cebpf4jnsgd1na2vs0mg"},{"bike_id":"4b344f4f-63b5-4284-b400-eb66c5cbadff","system_id":"levelo_inurba_marseille","lat":43.31273,"lon":5.4017,"is_reserved":false,"is_disabled":false,"rental_uris":{"android":"levelo://app?vid=4b344f4f-63b5-4284-b400-eb66c5cbadff","ios":"levelo://app?vid=4b344f4f-63b5-4284-b400-eb66c5cbadff"},"vehicle_type_id":"4","last_reported":1737396733,"current_range_meters":27200,"station_id":"ce4bh092rcd13ifvqd30","pricing_plan_id":"cebpf4jnsgd1na2vs0mg"},{"bike_id":"b39f6109-7f56-4b17-b737-eaa8ed0334b8","system_id":"levelo_inurba_marseille","lat":43.30432,"lon":5.38011,"is_reserved":false,"is_disabled":true,"rental_uris":{"android":"levelo://app?vid=b39f6109-7f56-4b17-b737-eaa8ed0334b8","ios":"levelo://app?vid=b39f6109-7f56-4b17-b737-eaa8ed0334b8"},"vehicle_type_id":"4","last_reported":1737396733,"current_range_meters":37600,"station_id":"","pricing_plan_id":"cebpf4jnsgd1na2vs0mg"},{"bike_id":"5952fd51-0160-4f0f-b7a0-633056628b4d","system_id":"levelo_inurba_marseille","lat":43.29032,"lon":5.38647,"is_reserved":false,"is_disabled":false,"rental_uris":{"android":"levelo://app?vid=5952fd51-0160-4f0f-b7a0-633056628b4d","ios":"levelo://app?vid=5952fd51-0160-4f0f-b7a0-633056628b4d"},"vehicle_type_id":"4","last_reported":1737396733,"current_range_meters":30400,"station_id":"ce4bh4p2rcd13ifvqe0g","pricing_plan_id":"cebpf4jnsgd1na2vs0mg"},{"bike_id":"6fd346fc-5544-4854-a198-df7ee154b084","system_id":"levelo_inurba_marseille","lat":43.26499,"lon":5.39543,"is_reserved":false,"is_disabled":false,"rental_uris":{"android":"levelo://app?vid=6fd346fc-5544-4854-a198-df7ee154b084","ios":"levelo://app?vid=6fd346fc-5544-4854-a198-df7ee154b084"},"vehicle_type_id":"4","last_reported":1737396733,"current_range_meters":38400,"station_id":"ce4bhi12rcd13ifvqfq0","pricing_plan_id":"cebpf4jnsgd1na2vs0mg"},{"bike_id":"22e76ca9-981a-4cc9-b6be-a54552f2f140","system_id":"levelo_inurba_marseille","lat":43.28927,"lon":5.38384,"is_reserved":false,"is_disabled":false,"rental_uris":{"android":"levelo://app?vid=22e76ca9-981a-4cc9-b6be-a54552f2f140","ios":"levelo://app?vid=22e76ca9-981a-4cc9-b6be-a54552f2f140"},"vehicle_type_id":"4","last_reported":1737396733,"current_range_meters":8400,"station_id":"ce4bh612rcd13ifvqe6g","pricing_plan_id":"cebpf4jnsgd1na2vs0mg"},{"bike_id":"28c8def0-4a50-4fc1-83c0-c87346f88cbd","system_id":"levelo_inurba_marseille","lat":43.28463,"lon":5.35886,"is_reserved":false,"is_disabled":false,"rental_uris":{"android":"levelo://app?vid=28c8def0-4a50-4fc1-83c0-c87346f88cbd","ios":"levelo://app?vid=28c8def0-4a50-4fc1-83c0-c87346f88cbd"},"vehicle_type_id":"4","last_reported":1737396733,"current_range_meters":36800,"station_id":"ce4bhah2rcd13ifvqei0","pricing_plan_id":"cebpf4jnsgd1na2vs0mg"},{"bike_id":"ca297010-5c72-47d6-b03a-6ec90012fb07","system_id":"levelo_inurba_marseille","lat":43.26809,"lon":5.40269,"is_reserved":false,"is_disabled":false,"rental_uris":{"android":"levelo://app?vid=ca297010-5c72-47d6-b03a-6ec90012fb07","ios":"levelo://app?vid=ca297010-5c72-47d6-b03a-6ec90012fb07"},"vehicle_type_id":"4","last_reported":1737396733,"current_range_meters":12800,"station_id":"ce501612rcd8frsf0b60","pricing_plan_id":"cebpf4jnsgd1na2vs0mg"},{"bike_id":"0c741d55-e6bb-4be5-8dab-c41aff9bf1f7","system_id":"levelo_inurba_marseille","lat":43.28155,"lon":5.42649,"is_reserved":false,"is_disabled":false,"rental_uris":{"android":"levelo://app?vid=0c741d55-e6bb-4be5-8dab-c41aff9bf1f7","ios":"levelo://app?vid=0c741d55-e6bb-4be5-8dab-c41aff9bf1f7"},"vehicle_type_id":"4","last_reported":1737396733,"current_range_meters":6000,"station_id":"ce4bhnh2rcd13ifvqgug","pricing_plan_id":"cebpf4jnsgd1na2vs0mg"},{"bike_id":"0eb2fba3-49b7-4493-ab2e-50ca2b335963","system_id":"levelo_inurba_marseille","lat":43.26839,"lon":5.39415,"is_reserved":false,"is_disabled":false,"rental_uris":{"android":"levelo://app?vid=0eb2fba3-49b7-4493-ab2e-50ca2b335963","ios":"levelo://app?vid=0eb2fba3-49b7-4493-ab2e-50ca2b335963"},"vehicle_type_id":"4","last_reported":1737396733,"current_range_meters":32400,"station_id":"ce4bhh12rcd13ifvqfg0","pricing_plan_id":"cebpf4jnsgd1na2vs0mg"},{"bike_id":"de5adbf7-c4d4-49e3-ba68-72cc812f5662","system_id":"levelo_inurba_marseille","lat":43.29611,"lon":5.37755,"is_reserved":false,"is_disabled":true,"rental_uris":{"android":"levelo://app?vid=de5adbf7-c4d4-49e3-ba68-72cc812f5662","ios":"levelo://app?vid=de5adbf7-c4d4-49e3-ba68-72cc812f5662"},"vehicle_type_id":"4","last_reported":1737396733,"current_range_meters":4800,"station_id":"ce4bgi92rcd13ifvqb90","pricing_plan_id":"cebpf4jnsgd1na2vs0mg"},{"bike_id":"b697c026-1a3f-4173-8937-04c71439dde2","system_id":"levelo_inurba_marseille","lat":43.29787,"lon":5.39336,"is_reserved":false,"is_disabled":false,"rental_uris":{"android":"levelo://app?vid=b697c026-1a3f-4173-8937-04c71439dde2","ios":"levelo://app?vid=b697c026-1a3f-4173-8937-04c71439dde2"},"vehicle_type_id":"4","last_reported":1737396733,"current_range_meters":36400,"station_id":"chh1huq6cuj3fo74tm60","pricing_plan_id":"cebpf4jnsgd1na2vs0mg"},{"bike_id":"f8cebf87-00f8-40f4-b097-ae038a7ba7d5","system_id":"levelo_inurba_marseille","lat":43.24667,"lon":5.38161,"is_reserved":false,"is_disabled":false,"rental_uris":{"android":"levelo://app?vid=f8cebf87-00f8-40f4-b097-ae038a7ba7d5","ios":"levelo://app?vid=f8cebf87-00f8-40f4-b097-ae038a7ba7d5"},"vehicle_type_id":"4","last_reported":1737396733,"current_range_meters":18000,"station_id":"ce4bhih2rcd13ifvqfr0","pricing_plan_id":"cebpf4jnsgd1na2vs0mg"},{"bike_id":"de0e2046-c69d-4a1d-a36c-55284d20df28","system_id":"levelo_inurba_marseille","lat":43.29712,"lon":5.3662,"is_reserved":false,"is_disabled":false,"rental_uris":{"android":"levelo://app?vid=de0e2046-c69d-4a1d-a36c-55284d20df28","ios":"levelo://app?vid=de0e2046-c69d-4a1d-a36c-55284d20df28"},"vehicle_type_id":"4","last_reported":1737396733,"current_range_meters":36800,"station_id":"ce4bgn12rcd13ifvqbt0","pricing_plan_id":"cebpf4jnsgd1na2vs0mg"},{"bike_id":"a64eab1e-dbe6-4f77-87db-641966b43236","system_id":"levelo_inurba_marseille","lat":43.25086,"lon":5.39523,"is_reserved":false,"is_disabled":false,"rental_uris":{"android":"levelo://app?vid=a64eab1e-dbe6-4f77-87db-641966b43236","ios":"levelo://app?vid=a64eab1e-dbe6-4f77-87db-641966b43236"},"vehicle_type_id":"4","last_reported":1737396733,"current_range_meters":33200,"station_id":"ce4bhm12rcd13ifvqgkg","pricing_plan_id":"cebpf4jnsgd1na2vs0mg"},{"bike_id":"24dcb2d8-bd21-4fd8-adf5-e488404e9232","system_id":"levelo_inurba_marseille","lat":43.24645,"lon":5.38895,"is_reserved":false,"is_disabled":false,"rental_uris":{"android":"levelo://app?vid=24dcb2d8-bd21-4fd8-adf5-e488404e9232","ios":"levelo://app?vid=24dcb2d8-bd21-4fd8-adf5-e488404e9232"},"vehicle_type_id":"4","last_reported":1737396733,"current_range_meters":23200,"station_id":"ce4bhg12rcd13ifvqf60","pricing_plan_id":"cebpf4jnsgd1na2vs0mg"},{"bike_id":"b6f6142b-5044-482f-a8d9-4218ea304c15","system_id":"levelo_inurba_marseille","lat":43.31763,"lon":5.38998,"is_reserved":false,"is_disabled":false,"rental_uris":{"android":"levelo://app?vid=b6f6142b-5044-482f-a8d9-4218ea304c15","ios":"levelo://app?vid=b6f6142b-5044-482f-a8d9-4218ea304c15"},"vehicle_type_id":"4","last_reported":1737396733,"current_range_meters":38000,"station_id":"ce4bhqp2rcd13ifvqhng","pricing_plan_id":"cebpf4jnsgd1na2vs0mg"},{"bike_id":"327c5a4d-bfde-4472-9fde-9ecd56b702d9","system_id":"levelo_inurba_marseille","lat":43.29568,"lon":5.39977,"is_reserved":false,"is_disabled":false,"rental_uris":{"android":"levelo://app?vid=327c5a4d-bfde-4472-9fde-9ecd56b702d9","ios":"levelo://app?vid=327c5a4d-bfde-4472-9fde-9ecd56b702d9"},"vehicle_type_id":"4","last_reported":1737396733,"current_range_meters":6800,"station_id":"ce4bh312rcd13ifvqdj0","pricing_plan_id":"cebpf4jnsgd1na2vs0mg"},{"bike_id":"def4261b-ecda-4bf3-aa61-0e5e8ee4c990","system_id":"levelo_inurba_marseille","lat":43.32357,"lon":5.4062,"is_reserved":false,"is_disabled":false,"rental_uris":{"android":"levelo://app?vid=def4261b-ecda-4bf3-aa61-0e5e8ee4c990","ios":"levelo://app?vid=def4261b-ecda-4bf3-aa61-0e5e8ee4c990"},"vehicle_type_id":"4","last_reported":1737396733,"current_range_meters":31200,"station_id":"ce4bhq92rcd13ifvqhjg","pricing_plan_id":"cebpf4jnsgd1na2vs0mg"},{"bike_id":"f7817e8d-eab7-43f4-8262-b0948daf0edd","system_id":"levelo_inurba_marseille","lat":43.31714,"lon":5.37785,"is_reserved":false,"is_disabled":false,"rental_uris":{"android":"levelo://app?vid=f7817e8d-eab7-43f4-8262-b0948daf0edd","ios":"levelo://app?vid=f7817e8d-eab7-43f4-8262-b0948daf0edd"},"vehicle_type_id":"4","last_reported":1737396733,"current_range_meters":38800,"station_id":"ce4bgth2rcd13ifvqch0","pricing_plan_id":"cebpf4jnsgd1na2vs0mg"},{"bike_id":"e66747d1-16c5-47fb-a17f-897edf72604a","system_id":"levelo_inurba_marseille","lat":43.30597,"lon":5.37233,"is_reserved":false,"is_disabled":false,"rental_uris":{"android":"levelo://app?vid=e66747d1-16c5-47fb-a17f-897edf72604a","ios":"levelo://app?vid=e66747d1-16c5-47fb-a17f-897edf72604a"},"vehicle_type_id":"4","last_reported":1737396733,"current_range_meters":38400,"station_id":"ce4bgqh2rcd13ifvqc4g","pricing_plan_id":"cebpf4jnsgd1na2vs0mg"},{"bike_id":"794621e3-3124-4bb3-96e3-bbeccc7c03ca","system_id":"levelo_inurba_marseille","lat":43.27807,"lon":5.40726,"is_reserved":false,"is_disabled":false,"rental_uris":{"android":"levelo://app?vid=794621e3-3124-4bb3-96e3-bbeccc7c03ca","ios":"levelo://app?vid=794621e3-3124-4bb3-96e3-bbeccc7c03ca"},"vehicle_type_id":"4","last_reported":1737396733,"current_range_meters":30400,"station_id":"ce4bhnh2rcd13ifvqgtg","pricing_plan_id":"cebpf4jnsgd1na2vs0mg"},{"bike_id":"e49401c7-f7a8-418d-8b78-718a422cd25d","system_id":"levelo_inurba_marseille","lat":43.2917,"lon":5.37146,"is_reserved":false,"is_disabled":true,"rental_uris":{"android":"levelo://app?vid=e49401c7-f7a8-418d-8b78-718a422cd25d","ios":"levelo://app?vid=e49401c7-f7a8-418d-8b78-718a422cd25d"},"vehicle_type_id":"4","last_reported":1737396733,"current_range_meters":28000,"station_id":"ce4bha92rcd13ifvqeh0","pricing_plan_id":"cebpf4jnsgd1na2vs0mg"},{"bike_id":"da3a7eb9-5fa6-49b3-9e5b-6452969eedf1","system_id":"levelo_inurba_marseille","lat":43.24381,"lon":5.37065,"is_reserved":false,"is_disabled":true,"rental_uris":{"android":"levelo://app?vid=da3a7eb9-5fa6-49b3-9e5b-6452969eedf1","ios":"levelo://app?vid=da3a7eb9-5fa6-49b3-9e5b-6452969eedf1"},"vehicle_type_id":"4","last_reported":1737396733,"current_range_meters":24000,"station_id":"ce4bhhh2rcd13ifvqfk0","pricing_plan_id":"cebpf4jnsgd1na2vs0mg"},{"bike_id":"1c92ca80-b478-4b98-8b2b-ce49639e8b36","system_id":"levelo_inurba_marseille","lat":43.29544,"lon":5.38544,"is_reserved":false,"is_disabled":false,"rental_uris":{"android":"levelo://app?vid=1c92ca80-b478-4b98-8b2b-ce49639e8b36","ios":"levelo://app?vid=1c92ca80-b478-4b98-8b2b-ce49639e8b36"},"vehicle_type_id":"4","last_reported":1737396733,"current_range_meters":37600,"station_id":"ce4bgih2rcd13ifvqba0","pricing_plan_id":"cebpf4jnsgd1na2vs0mg"},{"bike_id":"46fff60c-da93-4e15-9cbf-bedd254fc83d","system_id":"levelo_inurba_marseille","lat":43.2293,"lon":5.35379,"is_reserved":false,"is_disabled":false,"rental_uris":{"android":"levelo://app?vid=46fff60c-da93-4e15-9cbf-bedd254fc83d","ios":"levelo://app?vid=46fff60c-da93-4e15-9cbf-bedd254fc83d"},"vehicle_type_id":"4","last_reported":1737396733,"current_range_meters":37600,"station_id":"cpo3532slgdg3j2ikp40","pricing_plan_id":"cebpf4jnsgd1na2vs0mg"},{"bike_id":"07d66405-2e98-4f47-a9c9-b19f49a1104c","system_id":"levelo_inurba_marseille","lat":43.29427,"lon":5.38628,"is_reserved":false,"is_disabled":false,"rental_uris":{"android":"levelo://app?vid=07d66405-2e98-4f47-a9c9-b19f49a1104c","ios":"levelo://app?vid=07d66405-2e98-4f47-a9c9-b19f49a1104c"},"vehicle_type_id":"4","last_reported":1737396733,"current_range_meters":38400,"station_id":"ce4bh2h2rcd13ifvqdh0","pricing_plan_id":"cebpf4jnsgd1na2vs0mg"},{"bike_id":"201184dd-de12-42f6-b9a8-f94cf04ddff5","system_id":"levelo_inurba_marseille","lat":43.31276,"lon":5.40169,"is_reserved":false,"is_disabled":false,"rental_uris":{"android":"levelo://app?vid=201184dd-de12-42f6-b9a8-f94cf04ddff5","ios":"levelo://app?vid=201184dd-de12-42f6-b9a8-f94cf04ddff5"},"vehicle_type_id":"4","last_reported":1737396733,"current_range_meters":32400,"station_id":"ce4bh092rcd13ifvqd30","pricing_plan_id":"cebpf4jnsgd1na2vs0mg"},{"bike_id":"1debdbc0-8302-406d-920b-a40130efb080","system_id":"levelo_inurba_marseille","lat":43.28976,"lon":5.36388,"is_reserved":false,"is_disabled":false,"rental_uris":{"android":"levelo://app?vid=1debdbc0-8302-406d-920b-a40130efb080","ios":"levelo://app?vid=1debdbc0-8302-406d-920b-a40130efb080"},"vehicle_type_id":"4","last_reported":1737396733,"current_range_meters":28800,"station_id":"ce4bhc92rcd13ifvqetg","pricing_plan_id":"cebpf4jnsgd1na2vs0mg"},{"bike_id":"a36ee2d1-1d7f-42c5-9a98-f1d3e9db357d","system_id":"levelo_inurba_marseille","lat":43.23961,"lon":5.36631,"is_reserved":false,"is_disabled":false,"rental_uris":{"android":"levelo://app?vid=a36ee2d1-1d7f-42c5-9a98-f1d3e9db357d","ios":"levelo://app?vid=a36ee2d1-1d7f-42c5-9a98-f1d3e9db357d"},"vehicle_type_id":"4","last_reported":1737396733,"current_range_meters":22000,"station_id":"ce4bhi12rcd13ifvqfp0","pricing_plan_id":"cebpf4jnsgd1na2vs0mg"},{"bike_id":"4237003f-139f-4045-9ac4-cad8fa734532","system_id":"levelo_inurba_marseille","lat":43.27994,"lon":5.41675,"is_reserved":false,"is_disabled":false,"rental_uris":{"android":"levelo://app?vid=4237003f-139f-4045-9ac4-cad8fa734532","ios":"levelo://app?vid=4237003f-139f-4045-9ac4-cad8fa734532"},"vehicle_type_id":"4","last_reported":1737396733,"current_range_meters":38800,"station_id":"ce4bho12rcd13ifvqh1g","pricing_plan_id":"cebpf4jnsgd1na2vs0mg"},{"bike_id":"a8a68a08-c628-497b-bfe5-57204ba5cc39","system_id":"levelo_inurba_marseille","lat":43.28148,"lon":5.42646,"is_reserved":false,"is_disabled":false,"rental_uris":{"android":"levelo://app?vid=a8a68a08-c628-497b-bfe5-57204ba5cc39","ios":"levelo://app?vid=a8a68a08-c628-497b-bfe5-57204ba5cc39"},"vehicle_type_id":"4","last_reported":1737396733,"current_range_meters":20400,"station_id":"ce4bhnh2rcd13ifvqgug","pricing_plan_id":"cebpf4jnsgd1na2vs0mg"},{"bike_id":"4bc49912-71c9-48b2-8244-21e1aeecfe85","system_id":"levelo_inurba_marseille","lat":43.29526,"lon":5.39044,"is_reserved":false,"is_disabled":false,"rental_uris":{"android":"levelo://app?vid=4bc49912-71c9-48b2-8244-21e1aeecfe85","ios":"levelo://app?vid=4bc49912-71c9-48b2-8244-21e1aeecfe85"},"vehicle_type_id":"4","last_reported":1737396733,"current_range_meters":24800,"station_id":"ce4bh3p2rcd13ifvqdp0","pricing_plan_id":"cebpf4jnsgd1na2vs0mg"},{"bike_id":"4b88b371-38a3-443d-96cf-2b99cc4f3954","system_id":"levelo_inurba_marseille","lat":43.2976,"lon":5.37696,"is_reserved":false,"is_disabled":true,"rental_uris":{"android":"levelo://app?vid=4b88b371-38a3-443d-96cf-2b99cc4f3954","ios":"levelo://app?vid=4b88b371-38a3-443d-96cf-2b99cc4f3954"},"vehicle_type_id":"4","last_reported":1737396733,"current_range_meters":37600,"station_id":"ce4bgkh2rcd13ifvqbl0","pricing_plan_id":"cebpf4jnsgd1na2vs0mg"},{"bike_id":"0b7dcfaf-34cc-4cc0-ad93-967da4af8bb4","system_id":"levelo_inurba_marseille","lat":43.27996,"lon":5.41662,"is_reserved":false,"is_disabled":false,"rental_uris":{"android":"levelo://app?vid=0b7dcfaf-34cc-4cc0-ad93-967da4af8bb4","ios":"levelo://app?vid=0b7dcfaf-34cc-4cc0-ad93-967da4af8bb4"},"vehicle_type_id":"4","last_reported":1737396733,"current_range_meters":24000,"station_id":"ce4bho12rcd13ifvqh1g","pricing_plan_id":"cebpf4jnsgd1na2vs0mg"},{"bike_id":"aca94016-7f26-4ab8-8650-a9b253cbd97d","system_id":"levelo_inurba_marseille","lat":43.2587,"lon":5.39905,"is_reserved":false,"is_disabled":false,"rental_uris":{"android":"levelo://app?vid=aca94016-7f26-4ab8-8650-a9b253cbd97d","ios":"levelo://app?vid=aca94016-7f26-4ab8-8650-a9b253cbd97d"},"vehicle_type_id":"4","last_reported":1737396733,"current_range_meters":34000,"station_id":"ce4bhl92rcd13ifvqghg","pricing_plan_id":"cebpf4jnsgd1na2vs0mg"},{"bike_id":"a52b2e21-9fd9-47c6-aee2-c35bb51d39be","system_id":"levelo_inurba_marseille","lat":43.30144,"lon":5.38784,"is_reserved":false,"is_disabled":false,"rental_uris":{"android":"levelo://app?vid=a52b2e21-9fd9-47c6-aee2-c35bb51d39be","ios":"levelo://app?vid=a52b2e21-9fd9-47c6-aee2-c35bb51d39be"},"vehicle_type_id":"4","last_reported":1737396733,"current_range_meters":29600,"station_id":"ce4bghh2rcd13ifvqb60","pricing_plan_id":"cebpf4jnsgd1na2vs0mg"},{"bike_id":"fc991777-1ded-4486-bfee-fdad957a2dae","system_id":"levelo_inurba_marseille","lat":43.29566,"lon":5.37493,"is_reserved":false,"is_disabled":false,"rental_uris":{"android":"levelo://app?vid=fc991777-1ded-4486-bfee-fdad957a2dae","ios":"levelo://app?vid=fc991777-1ded-4486-bfee-fdad957a2dae"},"vehicle_type_id":"4","last_reported":1737396733,"current_range_meters":34800,"station_id":"ce4bgh92rcd13ifvqb50","pricing_plan_id":"cebpf4jnsgd1na2vs0mg"},{"bike_id":"0fb1ef42-b8af-413c-a7ff-33022994091d","system_id":"levelo_inurba_marseille","lat":43.285748,"lon":5.394943,"is_reserved":false,"is_disabled":false,"rental_uris":{"android":"levelo://app?vid=0fb1ef42-b8af-413c-a7ff-33022994091d","ios":"levelo://app?vid=0fb1ef42-b8af-413c-a7ff-33022994091d"},"vehicle_type_id":"4","last_reported":1737396733,"current_range_meters":38800,"station_id":"ce4bh292rcd13ifvqdg0","pricing_plan_id":"cebpf4jnsgd1na2vs0mg"},{"bike_id":"d8ac6f9e-3d38-42d4-aa0c-a7f050d4960d","system_id":"levelo_inurba_marseille","lat":43.29294,"lon":5.37455,"is_reserved":false,"is_disabled":false,"rental_uris":{"android":"levelo://app?vid=d8ac6f9e-3d38-42d4-aa0c-a7f050d4960d","ios":"levelo://app?vid=d8ac6f9e-3d38-42d4-aa0c-a7f050d4960d"},"vehicle_type_id":"4","last_reported":1737396733,"current_range_meters":37600,"station_id":"ce4bgi12rcd13ifvqb70","pricing_plan_id":"cebpf4jnsgd1na2vs0mg"},{"bike_id":"82d3aca7-edea-4aa8-b72b-796f499e7525","system_id":"levelo_inurba_marseille","lat":43.30601,"lon":5.37234,"is_reserved":false,"is_disabled":false,"rental_uris":{"android":"levelo://app?vid=82d3aca7-edea-4aa8-b72b-796f499e7525","ios":"levelo://app?vid=82d3aca7-edea-4aa8-b72b-796f499e7525"},"vehicle_type_id":"4","last_reported":1737396733,"current_range_meters":30800,"station_id":"ce4bgqh2rcd13ifvqc4g","pricing_plan_id":"cebpf4jnsgd1na2vs0mg"},{"bike_id":"3a4c3bce-1ff1-418b-a6c0-a0f5f72d1ae9","system_id":"levelo_inurba_marseille","lat":43.289294,"lon":5.384084,"is_reserved":false,"is_disabled":false,"rental_uris":{"android":"levelo://app?vid=3a4c3bce-1ff1-418b-a6c0-a0f5f72d1ae9","ios":"levelo://app?vid=3a4c3bce-1ff1-418b-a6c0-a0f5f72d1ae9"},"vehicle_type_id":"4","last_reported":1737396733,"current_range_meters":38800,"station_id":"ce4bh612rcd13ifvqe6g","pricing_plan_id":"cebpf4jnsgd1na2vs0mg"},{"bike_id":"da91fed0-18ac-4190-8546-de8e79fd8ffb","system_id":"levelo_inurba_marseille","lat":43.30274,"lon":5.37714,"is_reserved":false,"is_disabled":false,"rental_uris":{"android":"levelo://app?vid=da91fed0-18ac-4190-8546-de8e79fd8ffb","ios":"levelo://app?vid=da91fed0-18ac-4190-8546-de8e79fd8ffb"},"vehicle_type_id":"4","last_reported":1737396733,"current_range_meters":24400,"station_id":"ce4bguh2rcd13ifvqcj0","pricing_plan_id":"cebpf4jnsgd1na2vs0mg"},{"bike_id":"a4c27cc3-c38b-466c-95a1-4dd1f3789e48","system_id":"levelo_inurba_marseille","lat":43.3302,"lon":5.3904,"is_reserved":false,"is_disabled":false,"rental_uris":{"android":"levelo://app?vid=a4c27cc3-c38b-466c-95a1-4dd1f3789e48","ios":"levelo://app?vid=a4c27cc3-c38b-466c-95a1-4dd1f3789e48"},"vehicle_type_id":"4","last_reported":1737396733,"current_range_meters":38800,"station_id":"ce4bhr92rcd13ifvqhrg","pricing_plan_id":"cebpf4jnsgd1na2vs0mg"},{"bike_id":"f2390374-e060-4fe1-bcfa-cb2711193e58","system_id":"levelo_inurba_marseille","lat":43.25087,"lon":5.3953,"is_reserved":false,"is_disabled":false,"rental_uris":{"android":"levelo://app?vid=f2390374-e060-4fe1-bcfa-cb2711193e58","ios":"levelo://app?vid=f2390374-e060-4fe1-bcfa-cb2711193e58"},"vehicle_type_id":"4","last_reported":1737396733,"current_range_meters":34000,"station_id":"ce4bhm12rcd13ifvqgkg","pricing_plan_id":"cebpf4jnsgd1na2vs0mg"},{"bike_id":"0f8104d8-ae0e-40b2-9d64-c24deeb12b25","system_id":"levelo_inurba_marseille","lat":43.30704,"lon":5.36921,"is_reserved":false,"is_disabled":false,"rental_uris":{"android":"levelo://app?vid=0f8104d8-ae0e-40b2-9d64-c24deeb12b25","ios":"levelo://app?vid=0f8104d8-ae0e-40b2-9d64-c24deeb12b25"},"vehicle_type_id":"4","last_reported":1737396733,"current_range_meters":24000,"station_id":"","pricing_plan_id":"cebpf4jnsgd1na2vs0mg"},{"bike_id":"9f3ee6aa-4bec-4f76-91c0-b7e5047ea1b6","system_id":"levelo_inurba_marseille","lat":43.28407,"lon":5.37535,"is_reserved":false,"is_disabled":false,"rental_uris":{"android":"levelo://app?vid=9f3ee6aa-4bec-4f76-91c0-b7e5047ea1b6","ios":"levelo://app?vid=9f3ee6aa-4bec-4f76-91c0-b7e5047ea1b6"},"vehicle_type_id":"4","last_reported":1737396733,"current_range_meters":38400,"station_id":"ce4bh412rcd13ifvqds0","pricing_plan_id":"cebpf4jnsgd1na2vs0mg"},{"bike_id":"6fa96e81-a119-436e-b985-1cf31a85cc4c","system_id":"levelo_inurba_marseille","lat":43.279,"lon":5.38022,"is_reserved":false,"is_disabled":false,"rental_uris":{"android":"levelo://app?vid=6fa96e81-a119-436e-b985-1cf31a85cc4c","ios":"levelo://app?vid=6fa96e81-a119-436e-b985-1cf31a85cc4c"},"vehicle_type_id":"4","last_reported":1737396733,"current_range_meters":33200,"station_id":"ce4bhf92rcd13ifvqf50","pricing_plan_id":"cebpf4jnsgd1na2vs0mg"},{"bike_id":"51c27675-1177-492c-9119-516ee2bbe1a0","system_id":"levelo_inurba_marseille","lat":43.2986,"lon":5.3623,"is_reserved":false,"is_disabled":false,"rental_uris":{"android":"levelo://app?vid=51c27675-1177-492c-9119-516ee2bbe1a0","ios":"levelo://app?vid=51c27675-1177-492c-9119-516ee2bbe1a0"},"vehicle_type_id":"4","last_reported":1737396733,"current_range_meters":10000,"station_id":"ce4bgpp2rcd13ifvqc3g","pricing_plan_id":"cebpf4jnsgd1na2vs0mg"},{"bike_id":"8e228a20-ac43-4d17-b613-5f87cda93d96","system_id":"levelo_inurba_marseille","lat":43.30328,"lon":5.40445,"is_reserved":false,"is_disabled":false,"rental_uris":{"android":"levelo://app?vid=8e228a20-ac43-4d17-b613-5f87cda93d96","ios":"levelo://app?vid=8e228a20-ac43-4d17-b613-5f87cda93d96"},"vehicle_type_id":"4","last_reported":1737396733,"current_range_meters":38800,"station_id":"ce4bh012rcd13ifvqd10","pricing_plan_id":"cebpf4jnsgd1na2vs0mg"},{"bike_id":"681f197f-efc6-4c83-b9df-ec2a8b690c28","system_id":"levelo_inurba_marseille","lat":43.28901,"lon":5.36689,"is_reserved":false,"is_disabled":false,"rental_uris":{"android":"levelo://app?vid=681f197f-efc6-4c83-b9df-ec2a8b690c28","ios":"levelo://app?vid=681f197f-efc6-4c83-b9df-ec2a8b690c28"},"vehicle_type_id":"4","last_reported":1737396733,"current_range_meters":38400,"station_id":"ce4bhap2rcd13ifvqek0","pricing_plan_id":"cebpf4jnsgd1na2vs0mg"},{"bike_id":"5ee5047e-a285-4e0b-b7db-cfd8aff5b37b","system_id":"levelo_inurba_marseille","lat":43.29276,"lon":5.40129,"is_reserved":false,"is_disabled":false,"rental_uris":{"android":"levelo://app?vid=5ee5047e-a285-4e0b-b7db-cfd8aff5b37b","ios":"levelo://app?vid=5ee5047e-a285-4e0b-b7db-cfd8aff5b37b"},"vehicle_type_id":"4","last_reported":1737396733,"current_range_meters":19200,"station_id":"ce4bh312rcd13ifvqdk0","pricing_plan_id":"cebpf4jnsgd1na2vs0mg"},{"bike_id":"196c7cef-4cf7-4bd5-97bb-5ae8b63f8023","system_id":"levelo_inurba_marseille","lat":43.28683,"lon":5.3868,"is_reserved":false,"is_disabled":false,"rental_uris":{"android":"levelo://app?vid=196c7cef-4cf7-4bd5-97bb-5ae8b63f8023","ios":"levelo://app?vid=196c7cef-4cf7-4bd5-97bb-5ae8b63f8023"},"vehicle_type_id":"4","last_reported":1737396733,"current_range_meters":38000,"station_id":"ce4bhhp2rcd13ifvqfm0","pricing_plan_id":"cebpf4jnsgd1na2vs0mg"},{"bike_id":"0e55de22-ee77-43a3-9d28-87cdb62c7b4f","system_id":"levelo_inurba_marseille","lat":43.28747,"lon":5.36033,"is_reserved":false,"is_disabled":false,"rental_uris":{"android":"levelo://app?vid=0e55de22-ee77-43a3-9d28-87cdb62c7b4f","ios":"levelo://app?vid=0e55de22-ee77-43a3-9d28-87cdb62c7b4f"},"vehicle_type_id":"4","last_reported":1737396733,"current_range_meters":38000,"station_id":"cki0cbj6b192h4jlfktg","pricing_plan_id":"cebpf4jnsgd1na2vs0mg"},{"bike_id":"949c9cd1-ae34-40df-a577-3b274ceafaf2","system_id":"levelo_inurba_marseille","lat":43.29091,"lon":5.38129,"is_reserved":false,"is_disabled":false,"rental_uris":{"android":"levelo://app?vid=949c9cd1-ae34-40df-a577-3b274ceafaf2","ios":"levelo://app?vid=949c9cd1-ae34-40df-a577-3b274ceafaf2"},"vehicle_type_id":"4","last_reported":1737396733,"current_range_meters":16800,"station_id":"ce4bh512rcd13ifvqe2g","pricing_plan_id":"cebpf4jnsgd1na2vs0mg"},{"bike_id":"3c75e182-45fc-46fc-b9ed-74fd618f5526","system_id":"levelo_inurba_marseille","lat":43.28004,"lon":5.41664,"is_reserved":false,"is_disabled":false,"rental_uris":{"android":"levelo://app?vid=3c75e182-45fc-46fc-b9ed-74fd618f5526","ios":"levelo://app?vid=3c75e182-45fc-46fc-b9ed-74fd618f5526"},"vehicle_type_id":"4","last_reported":1737396733,"current_range_meters":19600,"station_id":"ce4bho12rcd13ifvqh1g","pricing_plan_id":"cebpf4jnsgd1na2vs0mg"},{"bike_id":"36b02f5b-366d-4c8d-ac75-9c5f7c4d6ba1","system_id":"levelo_inurba_marseille","lat":43.31279,"lon":5.40172,"is_reserved":false,"is_disabled":false,"rental_uris":{"android":"levelo://app?vid=36b02f5b-366d-4c8d-ac75-9c5f7c4d6ba1","ios":"levelo://app?vid=36b02f5b-366d-4c8d-ac75-9c5f7c4d6ba1"},"vehicle_type_id":"4","last_reported":1737396733,"current_range_meters":38800,"station_id":"ce4bh092rcd13ifvqd30","pricing_plan_id":"cebpf4jnsgd1na2vs0mg"},{"bike_id":"9c768e3e-8bbb-4f76-bfbd-515ad14f4be3","system_id":"levelo_inurba_marseille","lat":43.29004,"lon":5.35612,"is_reserved":false,"is_disabled":false,"rental_uris":{"android":"levelo://app?vid=9c768e3e-8bbb-4f76-bfbd-515ad14f4be3","ios":"levelo://app?vid=9c768e3e-8bbb-4f76-bfbd-515ad14f4be3"},"vehicle_type_id":"4","last_reported":1737396733,"current_range_meters":28800,"station_id":"ce4bhb92rcd13ifvqen0","pricing_plan_id":"cebpf4jnsgd1na2vs0mg"},{"bike_id":"0e37a4bd-7850-41b7-91e1-556e8b5c7017","system_id":"levelo_inurba_marseille","lat":43.28155,"lon":5.4264,"is_reserved":false,"is_disabled":false,"rental_uris":{"android":"levelo://app?vid=0e37a4bd-7850-41b7-91e1-556e8b5c7017","ios":"levelo://app?vid=0e37a4bd-7850-41b7-91e1-556e8b5c7017"},"vehicle_type_id":"4","last_reported":1737396733,"current_range_meters":28800,"station_id":"ce4bhnh2rcd13ifvqgug","pricing_plan_id":"cebpf4jnsgd1na2vs0mg"},{"bike_id":"d15fcbda-5c26-44b9-a895-dcb5f1a804d6","system_id":"levelo_inurba_marseille","lat":43.30142,"lon":5.39877,"is_reserved":false,"is_disabled":false,"rental_uris":{"android":"levelo://app?vid=d15fcbda-5c26-44b9-a895-dcb5f1a804d6","ios":"levelo://app?vid=d15fcbda-5c26-44b9-a895-dcb5f1a804d6"},"vehicle_type_id":"4","last_reported":1737396733,"current_range_meters":38800,"station_id":"ce4bh0h2rcd13ifvqd40","pricing_plan_id":"cebpf4jnsgd1na2vs0mg"},{"bike_id":"16e3eef4-42f0-4b9f-8603-faaf29a4b50b","system_id":"levelo_inurba_marseille","lat":43.30099,"lon":5.39086,"is_reserved":false,"is_disabled":false,"rental_uris":{"android":"levelo://app?vid=16e3eef4-42f0-4b9f-8603-faaf29a4b50b","ios":"levelo://app?vid=16e3eef4-42f0-4b9f-8603-faaf29a4b50b"},"vehicle_type_id":"4","last_reported":1737396733,"current_range_meters":38800,"station_id":"ce4bh192rcd13ifvqdb0","pricing_plan_id":"cebpf4jnsgd1na2vs0mg"},{"bike_id":"5957b55c-bbf3-4d79-a9fa-182e34bda710","system_id":"levelo_inurba_marseille","lat":43.26681,"lon":5.40291,"is_reserved":false,"is_disabled":false,"rental_uris":{"android":"levelo://app?vid=5957b55c-bbf3-4d79-a9fa-182e34bda710","ios":"levelo://app?vid=5957b55c-bbf3-4d79-a9fa-182e34bda710"},"vehicle_type_id":"4","last_reported":1737396733,"current_range_meters":9600,"station_id":"","pricing_plan_id":"cebpf4jnsgd1na2vs0mg"},{"bike_id":"380fe268-78de-4206-955a-560ab674eeab","system_id":"levelo_inurba_marseille","lat":43.28429,"lon":5.39196,"is_reserved":false,"is_disabled":false,"rental_uris":{"android":"levelo://app?vid=380fe268-78de-4206-955a-560ab674eeab","ios":"levelo://app?vid=380fe268-78de-4206-955a-560ab674eeab"},"vehicle_type_id":"4","last_reported":1737396733,"current_range_meters":8400,"station_id":"ce4bhoh2rcd13ifvqh5g","pricing_plan_id":"cebpf4jnsgd1na2vs0mg"},{"bike_id":"c305b164-cc31-435e-8995-231f53855d79","system_id":"levelo_inurba_marseille","lat":43.29283,"lon":5.40125,"is_reserved":false,"is_disabled":true,"rental_uris":{"android":"levelo://app?vid=c305b164-cc31-435e-8995-231f53855d79","ios":"levelo://app?vid=c305b164-cc31-435e-8995-231f53855d79"},"vehicle_type_id":"4","last_reported":1737396733,"current_range_meters":0,"station_id":"ce4bh312rcd13ifvqdk0","pricing_plan_id":"cebpf4jnsgd1na2vs0mg"},{"bike_id":"668f9767-c78d-438a-96bb-c0760f782967","system_id":"levelo_inurba_marseille","lat":43.26203,"lon":5.37915,"is_reserved":false,"is_disabled":false,"rental_uris":{"android":"levelo://app?vid=668f9767-c78d-438a-96bb-c0760f782967","ios":"levelo://app?vid=668f9767-c78d-438a-96bb-c0760f782967"},"vehicle_type_id":"4","last_reported":1737396733,"current_range_meters":30800,"station_id":"ce4bhjp2rcd13ifvqg90","pricing_plan_id":"cebpf4jnsgd1na2vs0mg"},{"bike_id":"7f749f9b-b2ea-4f9c-b3c0-b5a306152930","system_id":"levelo_inurba_marseille","lat":43.29517,"lon":5.37503,"is_reserved":false,"is_disabled":false,"rental_uris":{"android":"levelo://app?vid=7f749f9b-b2ea-4f9c-b3c0-b5a306152930","ios":"levelo://app?vid=7f749f9b-b2ea-4f9c-b3c0-b5a306152930"},"vehicle_type_id":"4","last_reported":1737396733,"current_range_meters":29600,"station_id":"ce4bgkp2rcd13ifvqbmg","pricing_plan_id":"cebpf4jnsgd1na2vs0mg"},{"bike_id":"f12aed8b-8f71-4d26-81ab-45ae907f9bc5","system_id":"levelo_inurba_marseille","lat":43.2827,"lon":5.35065,"is_reserved":false,"is_disabled":false,"rental_uris":{"android":"levelo://app?vid=f12aed8b-8f71-4d26-81ab-45ae907f9bc5","ios":"levelo://app?vid=f12aed8b-8f71-4d26-81ab-45ae907f9bc5"},"vehicle_type_id":"4","last_reported":1737396733,"current_range_meters":38800,"station_id":"ce4bhbp2rcd13ifvqerg","pricing_plan_id":"cebpf4jnsgd1na2vs0mg"},{"bike_id":"4f40d972-06fd-42b6-87d8-47b7f66628c5","system_id":"levelo_inurba_marseille","lat":43.23952,"lon":5.36648,"is_reserved":false,"is_disabled":false,"rental_uris":{"android":"levelo://app?vid=4f40d972-06fd-42b6-87d8-47b7f66628c5","ios":"levelo://app?vid=4f40d972-06fd-42b6-87d8-47b7f66628c5"},"vehicle_type_id":"4","last_reported":1737396733,"current_range_meters":5600,"station_id":"ce4bhi12rcd13ifvqfp0","pricing_plan_id":"cebpf4jnsgd1na2vs0mg"},{"bike_id":"d13e1ce9-dfb9-4338-9d34-66a2c5529080","system_id":"levelo_inurba_marseille","lat":43.28029,"lon":5.36948,"is_reserved":false,"is_disabled":false,"rental_uris":{"android":"levelo://app?vid=d13e1ce9-dfb9-4338-9d34-66a2c5529080","ios":"levelo://app?vid=d13e1ce9-dfb9-4338-9d34-66a2c5529080"},"vehicle_type_id":"4","last_reported":1737396733,"current_range_meters":34800,"station_id":"ce4bha12rcd13ifvqef0","pricing_plan_id":"cebpf4jnsgd1na2vs0mg"},{"bike_id":"3c859e28-abb0-4c58-a457-4d014bec19c7","system_id":"levelo_inurba_marseille","lat":43.30884,"lon":5.39642,"is_reserved":false,"is_disabled":true,"rental_uris":{"android":"levelo://app?vid=3c859e28-abb0-4c58-a457-4d014bec19c7","ios":"levelo://app?vid=3c859e28-abb0-4c58-a457-4d014bec19c7"},"vehicle_type_id":"4","last_reported":1737396733,"current_range_meters":1600,"station_id":"ce4bh012rcd13ifvqcv0","pricing_plan_id":"cebpf4jnsgd1na2vs0mg"},{"bike_id":"8a0b14e2-52d8-4680-82c0-475610217fd9","system_id":"levelo_inurba_marseille","lat":43.28029,"lon":5.36941,"is_reserved":false,"is_disabled":false,"rental_uris":{"android":"levelo://app?vid=8a0b14e2-52d8-4680-82c0-475610217fd9","ios":"levelo://app?vid=8a0b14e2-52d8-4680-82c0-475610217fd9"},"vehicle_type_id":"4","last_reported":1737396733,"current_range_meters":38800,"station_id":"ce4bha12rcd13ifvqef0","pricing_plan_id":"cebpf4jnsgd1na2vs0mg"},{"bike_id":"fa6589dc-4c6e-4b0c-9833-c08bdfc9957e","system_id":"levelo_inurba_marseille","lat":43.31288,"lon":5.4016,"is_reserved":false,"is_disabled":false,"rental_uris":{"android":"levelo://app?vid=fa6589dc-4c6e-4b0c-9833-c08bdfc9957e","ios":"levelo://app?vid=fa6589dc-4c6e-4b0c-9833-c08bdfc9957e"},"vehicle_type_id":"4","last_reported":1737396733,"current_range_meters":38800,"station_id":"ce4bh092rcd13ifvqd30","pricing_plan_id":"cebpf4jnsgd1na2vs0mg"},{"bike_id":"9fa5ef9e-14f7-48d6-816f-37784d13a674","system_id":"levelo_inurba_marseille","lat":43.29265,"lon":5.3845,"is_reserved":false,"is_disabled":false,"rental_uris":{"android":"levelo://app?vid=9fa5ef9e-14f7-48d6-816f-37784d13a674","ios":"levelo://app?vid=9fa5ef9e-14f7-48d6-816f-37784d13a674"},"vehicle_type_id":"4","last_reported":1737396733,"current_range_meters":14400,"station_id":"ce4bh692rcd13ifvqea0","pricing_plan_id":"cebpf4jnsgd1na2vs0mg"},{"bike_id":"584d3718-f3e5-461f-964a-3f35af2a601b","system_id":"levelo_inurba_marseille","lat":43.32475,"lon":5.36565,"is_reserved":false,"is_disabled":false,"rental_uris":{"android":"levelo://app?vid=584d3718-f3e5-461f-964a-3f35af2a601b","ios":"levelo://app?vid=584d3718-f3e5-461f-964a-3f35af2a601b"},"vehicle_type_id":"4","last_reported":1737396733,"current_range_meters":8400,"station_id":"ce4bhs12rcd13ifvqhvg","pricing_plan_id":"cebpf4jnsgd1na2vs0mg"},{"bike_id":"66de8db2-4a7b-451c-b559-722eeeceb427","system_id":"levelo_inurba_marseille","lat":43.33024,"lon":5.39036,"is_reserved":false,"is_disabled":false,"rental_uris":{"android":"levelo://app?vid=66de8db2-4a7b-451c-b559-722eeeceb427","ios":"levelo://app?vid=66de8db2-4a7b-451c-b559-722eeeceb427"},"vehicle_type_id":"4","last_reported":1737396733,"current_range_meters":38800,"station_id":"ce4bhr92rcd13ifvqhrg","pricing_plan_id":"cebpf4jnsgd1na2vs0mg"},{"bike_id":"3133a507-5996-4484-a064-80f7bc3eca44","system_id":"levelo_inurba_marseille","lat":43.30325,"lon":5.40436,"is_reserved":false,"is_disabled":false,"rental_uris":{"android":"levelo://app?vid=3133a507-5996-4484-a064-80f7bc3eca44","ios":"levelo://app?vid=3133a507-5996-4484-a064-80f7bc3eca44"},"vehicle_type_id":"4","last_reported":1737396733,"current_range_meters":38800,"station_id":"ce4bh012rcd13ifvqd10","pricing_plan_id":"cebpf4jnsgd1na2vs0mg"},{"bike_id":"187a71e0-c1c3-4e71-8a26-0d48a596fe6b","system_id":"levelo_inurba_marseille","lat":43.25088,"lon":5.39517,"is_reserved":false,"is_disabled":false,"rental_uris":{"android":"levelo://app?vid=187a71e0-c1c3-4e71-8a26-0d48a596fe6b","ios":"levelo://app?vid=187a71e0-c1c3-4e71-8a26-0d48a596fe6b"},"vehicle_type_id":"4","last_reported":1737396733,"current_range_meters":29600,"station_id":"ce4bhm12rcd13ifvqgkg","pricing_plan_id":"cebpf4jnsgd1na2vs0mg"},{"bike_id":"5b4a5c93-c345-4b32-961a-b6e3d1fd64a4","system_id":"levelo_inurba_marseille","lat":43.29225,"lon":5.36073,"is_reserved":false,"is_disabled":false,"rental_uris":{"android":"levelo://app?vid=5b4a5c93-c345-4b32-961a-b6e3d1fd64a4","ios":"levelo://app?vid=5b4a5c93-c345-4b32-961a-b6e3d1fd64a4"},"vehicle_type_id":"4","last_reported":1737396733,"current_range_meters":4400,"station_id":"ce4bhbh2rcd13ifvqeqg","pricing_plan_id":"cebpf4jnsgd1na2vs0mg"},{"bike_id":"7e1e3e5c-3b71-4538-93eb-de319f9bfe1b","system_id":"levelo_inurba_marseille","lat":43.2972,"lon":5.36609,"is_reserved":false,"is_disabled":false,"rental_uris":{"android":"levelo://app?vid=7e1e3e5c-3b71-4538-93eb-de319f9bfe1b","ios":"levelo://app?vid=7e1e3e5c-3b71-4538-93eb-de319f9bfe1b"},"vehicle_type_id":"4","last_reported":1737396733,"current_range_meters":38800,"station_id":"ce4bgn12rcd13ifvqbt0","pricing_plan_id":"cebpf4jnsgd1na2vs0mg"},{"bike_id":"cc8e355c-11c6-4fff-bb9f-99dfce314402","system_id":"levelo_inurba_marseille","lat":43.28572,"lon":5.39503,"is_reserved":false,"is_disabled":false,"rental_uris":{"android":"levelo://app?vid=cc8e355c-11c6-4fff-bb9f-99dfce314402","ios":"levelo://app?vid=cc8e355c-11c6-4fff-bb9f-99dfce314402"},"vehicle_type_id":"4","last_reported":1737396733,"current_range_meters":24000,"station_id":"ce4bh292rcd13ifvqdg0","pricing_plan_id":"cebpf4jnsgd1na2vs0mg"},{"bike_id":"7367feb8-850f-40bd-9f83-f7a7405621fa","system_id":"levelo_inurba_marseille","lat":43.30797,"lon":5.43514,"is_reserved":false,"is_disabled":false,"rental_uris":{"android":"levelo://app?vid=7367feb8-850f-40bd-9f83-f7a7405621fa","ios":"levelo://app?vid=7367feb8-850f-40bd-9f83-f7a7405621fa"},"vehicle_type_id":"4","last_reported":1737396733,"current_range_meters":12000,"station_id":"ce4bhph2rcd13ifvqheg","pricing_plan_id":"cebpf4jnsgd1na2vs0mg"},{"bike_id":"b87b7350-2882-42c1-9ac4-d588e1c63cb7","system_id":"levelo_inurba_marseille","lat":43.27944,"lon":5.41042,"is_reserved":false,"is_disabled":false,"rental_uris":{"android":"levelo://app?vid=b87b7350-2882-42c1-9ac4-d588e1c63cb7","ios":"levelo://app?vid=b87b7350-2882-42c1-9ac4-d588e1c63cb7"},"vehicle_type_id":"4","last_reported":1737396733,"current_range_meters":26800,"station_id":"ce4bhnp2rcd13ifvqh0g","pricing_plan_id":"cebpf4jnsgd1na2vs0mg"},{"bike_id":"ba834d37-a138-4e00-bc01-7355fbf3fb3d","system_id":"levelo_inurba_marseille","lat":43.24644,"lon":5.38165,"is_reserved":false,"is_disabled":false,"rental_uris":{"android":"levelo://app?vid=ba834d37-a138-4e00-bc01-7355fbf3fb3d","ios":"levelo://app?vid=ba834d37-a138-4e00-bc01-7355fbf3fb3d"},"vehicle_type_id":"4","last_reported":1737396733,"current_range_meters":24400,"station_id":"ce4bhih2rcd13ifvqfr0","pricing_plan_id":"cebpf4jnsgd1na2vs0mg"},{"bike_id":"5434439c-80a7-45ef-8e7d-a897cb833684","system_id":"levelo_inurba_marseille","lat":43.32432,"lon":5.36759,"is_reserved":false,"is_disabled":false,"rental_uris":{"android":"levelo://app?vid=5434439c-80a7-45ef-8e7d-a897cb833684","ios":"levelo://app?vid=5434439c-80a7-45ef-8e7d-a897cb833684"},"vehicle_type_id":"4","last_reported":1737396733,"current_range_meters":6800,"station_id":"","pricing_plan_id":"cebpf4jnsgd1na2vs0mg"},{"bike_id":"6a90710c-c516-4c6e-ae5f-b292940a7c14","system_id":"levelo_inurba_marseille","lat":43.29586,"lon":5.37523,"is_reserved":false,"is_disabled":false,"rental_uris":{"android":"levelo://app?vid=6a90710c-c516-4c6e-ae5f-b292940a7c14","ios":"levelo://app?vid=6a90710c-c516-4c6e-ae5f-b292940a7c14"},"vehicle_type_id":"4","last_reported":1737396733,"current_range_meters":38800,"station_id":"ce4bgh92rcd13ifvqb50","pricing_plan_id":"cebpf4jnsgd1na2vs0mg"},{"bike_id":"1be9d223-5697-41dd-9103-9ec77f9c720e","system_id":"levelo_inurba_marseille","lat":43.29571,"lon":5.37503,"is_reserved":false,"is_disabled":false,"rental_uris":{"android":"levelo://app?vid=1be9d223-5697-41dd-9103-9ec77f9c720e","ios":"levelo://app?vid=1be9d223-5697-41dd-9103-9ec77f9c720e"},"vehicle_type_id":"4","last_reported":1737396733,"current_range_meters":28000,"station_id":"ce4bgh92rcd13ifvqb50","pricing_plan_id":"cebpf4jnsgd1na2vs0mg"},{"bike_id":"6b37c853-02b4-4fd0-a71e-fe8a8eeafd15","system_id":"levelo_inurba_marseille","lat":43.2944,"lon":5.39752,"is_reserved":false,"is_disabled":false,"rental_uris":{"android":"levelo://app?vid=6b37c853-02b4-4fd0-a71e-fe8a8eeafd15","ios":"levelo://app?vid=6b37c853-02b4-4fd0-a71e-fe8a8eeafd15"},"vehicle_type_id":"4","last_reported":1737396733,"current_range_meters":36400,"station_id":"ce4bh3h2rcd13ifvqdo0","pricing_plan_id":"cebpf4jnsgd1na2vs0mg"},{"bike_id":"50267a36-8428-4ee1-ac27-ac6a771a71af","system_id":"levelo_inurba_marseille","lat":43.337113,"lon":5.355532,"is_reserved":false,"is_disabled":true,"rental_uris":{"android":"levelo://app?vid=50267a36-8428-4ee1-ac27-ac6a771a71af","ios":"levelo://app?vid=50267a36-8428-4ee1-ac27-ac6a771a71af"},"vehicle_type_id":"4","last_reported":1737396733,"current_range_meters":0,"station_id":"","pricing_plan_id":"cebpf4jnsgd1na2vs0mg"},{"bike_id":"f5863b18-13a1-4c6e-92de-5668ea912ad3","system_id":"levelo_inurba_marseille","lat":43.26234,"lon":5.40439,"is_reserved":false,"is_disabled":true,"rental_uris":{"android":"levelo://app?vid=f5863b18-13a1-4c6e-92de-5668ea912ad3","ios":"levelo://app?vid=f5863b18-13a1-4c6e-92de-5668ea912ad3"},"vehicle_type_id":"4","last_reported":1737396733,"current_range_meters":0,"station_id":"","pricing_plan_id":"cebpf4jnsgd1na2vs0mg"},{"bike_id":"d56f3ba3-9723-41f7-9882-3ad30310eb78","system_id":"levelo_inurba_marseille","lat":43.31271,"lon":5.40174,"is_reserved":false,"is_disabled":false,"rental_uris":{"android":"levelo://app?vid=d56f3ba3-9723-41f7-9882-3ad30310eb78","ios":"levelo://app?vid=d56f3ba3-9723-41f7-9882-3ad30310eb78"},"vehicle_type_id":"4","last_reported":1737396733,"current_range_meters":38800,"station_id":"ce4bh092rcd13ifvqd30","pricing_plan_id":"cebpf4jnsgd1na2vs0mg"},{"bike_id":"d25fce73-d5e2-4c5b-8e78-1e449d6a88dc","system_id":"levelo_inurba_marseille","lat":43.298532,"lon":5.362908,"is_reserved":false,"is_disabled":false,"rental_uris":{"android":"levelo://app?vid=d25fce73-d5e2-4c5b-8e78-1e449d6a88dc","ios":"levelo://app?vid=d25fce73-d5e2-4c5b-8e78-1e449d6a88dc"},"vehicle_type_id":"4","last_reported":1737396733,"current_range_meters":30400,"station_id":"ce4bgpp2rcd13ifvqc3g","pricing_plan_id":"cebpf4jnsgd1na2vs0mg"},{"bike_id":"1e0804f0-a9f3-4c18-aa0b-59941e73f002","system_id":"levelo_inurba_marseille","lat":43.26961,"lon":5.38639,"is_reserved":false,"is_disabled":false,"rental_uris":{"android":"levelo://app?vid=1e0804f0-a9f3-4c18-aa0b-59941e73f002","ios":"levelo://app?vid=1e0804f0-a9f3-4c18-aa0b-59941e73f002"},"vehicle_type_id":"4","last_reported":1737396733,"current_range_meters":4800,"station_id":"ce4bhh92rcd13ifvqfh0","pricing_plan_id":"cebpf4jnsgd1na2vs0mg"},{"bike_id":"eb6fcbf2-4dba-4dcc-a3a1-6b992d95097c","system_id":"levelo_inurba_marseille","lat":43.2396,"lon":5.36642,"is_reserved":false,"is_disabled":false,"rental_uris":{"android":"levelo://app?vid=eb6fcbf2-4dba-4dcc-a3a1-6b992d95097c","ios":"levelo://app?vid=eb6fcbf2-4dba-4dcc-a3a1-6b992d95097c"},"vehicle_type_id":"4","last_reported":1737396733,"current_range_meters":27600,"station_id":"ce4bhi12rcd13ifvqfp0","pricing_plan_id":"cebpf4jnsgd1na2vs0mg"},{"bike_id":"9953b5e6-a4da-4300-8a30-d42ec44bb685","system_id":"levelo_inurba_marseille","lat":43.30145,"lon":5.3988,"is_reserved":false,"is_disabled":false,"rental_uris":{"android":"levelo://app?vid=9953b5e6-a4da-4300-8a30-d42ec44bb685","ios":"levelo://app?vid=9953b5e6-a4da-4300-8a30-d42ec44bb685"},"vehicle_type_id":"4","last_reported":1737396733,"current_range_meters":18800,"station_id":"ce4bh0h2rcd13ifvqd40","pricing_plan_id":"cebpf4jnsgd1na2vs0mg"},{"bike_id":"5c113fff-0b3b-4140-bfee-3a0572f1f34f","system_id":"levelo_inurba_marseille","lat":43.30887,"lon":5.39665,"is_reserved":false,"is_disabled":false,"rental_uris":{"android":"levelo://app?vid=5c113fff-0b3b-4140-bfee-3a0572f1f34f","ios":"levelo://app?vid=5c113fff-0b3b-4140-bfee-3a0572f1f34f"},"vehicle_type_id":"4","last_reported":1737396733,"current_range_meters":38400,"station_id":"ce4bh012rcd13ifvqcv0","pricing_plan_id":"cebpf4jnsgd1na2vs0mg"},{"bike_id":"e72c2b08-7222-41a6-a3e1-de322f5142a5","system_id":"levelo_inurba_marseille","lat":43.29564,"lon":5.39973,"is_reserved":false,"is_disabled":false,"rental_uris":{"android":"levelo://app?vid=e72c2b08-7222-41a6-a3e1-de322f5142a5","ios":"levelo://app?vid=e72c2b08-7222-41a6-a3e1-de322f5142a5"},"vehicle_type_id":"4","last_reported":1737396733,"current_range_meters":28400,"station_id":"ce4bh312rcd13ifvqdj0","pricing_plan_id":"cebpf4jnsgd1na2vs0mg"},{"bike_id":"1edab787-f4fe-4b71-b7df-c17d576be891","system_id":"levelo_inurba_marseille","lat":43.29843,"lon":5.36275,"is_reserved":false,"is_disabled":false,"rental_uris":{"android":"levelo://app?vid=1edab787-f4fe-4b71-b7df-c17d576be891","ios":"levelo://app?vid=1edab787-f4fe-4b71-b7df-c17d576be891"},"vehicle_type_id":"4","last_reported":1737396733,"current_range_meters":23200,"station_id":"ce4bgpp2rcd13ifvqc3g","pricing_plan_id":"cebpf4jnsgd1na2vs0mg"},{"bike_id":"4fe58642-8ec3-4f25-a4fc-eb5dc3dc47a8","system_id":"levelo_inurba_marseille","lat":43.3355,"lon":5.36178,"is_reserved":false,"is_disabled":true,"rental_uris":{"android":"levelo://app?vid=4fe58642-8ec3-4f25-a4fc-eb5dc3dc47a8","ios":"levelo://app?vid=4fe58642-8ec3-4f25-a4fc-eb5dc3dc47a8"},"vehicle_type_id":"4","last_reported":1737396733,"current_range_meters":24800,"station_id":"","pricing_plan_id":"cebpf4jnsgd1na2vs0mg"},{"bike_id":"9cccd2ff-b864-466b-83c6-b52ec2815836","system_id":"levelo_inurba_marseille","lat":43.25667,"lon":5.41158,"is_reserved":false,"is_disabled":false,"rental_uris":{"android":"levelo://app?vid=9cccd2ff-b864-466b-83c6-b52ec2815836","ios":"levelo://app?vid=9cccd2ff-b864-466b-83c6-b52ec2815836"},"vehicle_type_id":"4","last_reported":1737396733,"current_range_meters":31200,"station_id":"","pricing_plan_id":"cebpf4jnsgd1na2vs0mg"},{"bike_id":"2134a3a7-8452-43bb-8ca4-5d090958876f","system_id":"levelo_inurba_marseille","lat":43.28,"lon":5.40001,"is_reserved":false,"is_disabled":false,"rental_uris":{"android":"levelo://app?vid=2134a3a7-8452-43bb-8ca4-5d090958876f","ios":"levelo://app?vid=2134a3a7-8452-43bb-8ca4-5d090958876f"},"vehicle_type_id":"4","last_reported":1737396733,"current_range_meters":28800,"station_id":"ce4bho92rcd13ifvqh4g","pricing_plan_id":"cebpf4jnsgd1na2vs0mg"},{"bike_id":"2ea840fe-e160-49f7-a5d7-390c1ede4023","system_id":"levelo_inurba_marseille","lat":43.31703,"lon":5.37757,"is_reserved":false,"is_disabled":false,"rental_uris":{"android":"levelo://app?vid=2ea840fe-e160-49f7-a5d7-390c1ede4023","ios":"levelo://app?vid=2ea840fe-e160-49f7-a5d7-390c1ede4023"},"vehicle_type_id":"4","last_reported":1737396733,"current_range_meters":24800,"station_id":"ce4bgth2rcd13ifvqch0","pricing_plan_id":"cebpf4jnsgd1na2vs0mg"},{"bike_id":"637162e8-61e9-42b5-84f5-1be2b7eecf20","system_id":"levelo_inurba_marseille","lat":43.29962,"lon":5.37104,"is_reserved":false,"is_disabled":false,"rental_uris":{"android":"levelo://app?vid=637162e8-61e9-42b5-84f5-1be2b7eecf20","ios":"levelo://app?vid=637162e8-61e9-42b5-84f5-1be2b7eecf20"},"vehicle_type_id":"4","last_reported":1737396733,"current_range_meters":30800,"station_id":"","pricing_plan_id":"cebpf4jnsgd1na2vs0mg"},{"bike_id":"b5b91842-f1aa-4bba-964f-7a9484225fb0","system_id":"levelo_inurba_marseille","lat":43.25862,"lon":5.39899,"is_reserved":false,"is_disabled":false,"rental_uris":{"android":"levelo://app?vid=b5b91842-f1aa-4bba-964f-7a9484225fb0","ios":"levelo://app?vid=b5b91842-f1aa-4bba-964f-7a9484225fb0"},"vehicle_type_id":"4","last_reported":1737396733,"current_range_meters":38800,"station_id":"ce4bhl92rcd13ifvqghg","pricing_plan_id":"cebpf4jnsgd1na2vs0mg"},{"bike_id":"13a9853e-21c2-4d7a-8ae7-af374064a8b8","system_id":"levelo_inurba_marseille","lat":43.318141,"lon":5.373951,"is_reserved":false,"is_disabled":false,"rental_uris":{"android":"levelo://app?vid=13a9853e-21c2-4d7a-8ae7-af374064a8b8","ios":"levelo://app?vid=13a9853e-21c2-4d7a-8ae7-af374064a8b8"},"vehicle_type_id":"4","last_reported":1737396733,"current_range_meters":20400,"station_id":"","pricing_plan_id":"cebpf4jnsgd1na2vs0mg"},{"bike_id":"60b7d049-237a-4dbd-ad0c-436ecde1802f","system_id":"levelo_inurba_marseille","lat":43.23198,"lon":5.35571,"is_reserved":false,"is_disabled":false,"rental_uris":{"android":"levelo://app?vid=60b7d049-237a-4dbd-ad0c-436ecde1802f","ios":"levelo://app?vid=60b7d049-237a-4dbd-ad0c-436ecde1802f"},"vehicle_type_id":"4","last_reported":1737396733,"current_range_meters":24400,"station_id":"ce4bhu92rcd13ifvqi70","pricing_plan_id":"cebpf4jnsgd1na2vs0mg"},{"bike_id":"eaf953c5-aa21-4bd3-993e-721f4f3c04ac","system_id":"levelo_inurba_marseille","lat":43.31986,"lon":5.38146,"is_reserved":false,"is_disabled":false,"rental_uris":{"android":"levelo://app?vid=eaf953c5-aa21-4bd3-993e-721f4f3c04ac","ios":"levelo://app?vid=eaf953c5-aa21-4bd3-993e-721f4f3c04ac"},"vehicle_type_id":"4","last_reported":1737396733,"current_range_meters":14000,"station_id":"ce4bhr12rcd13ifvqhpg","pricing_plan_id":"cebpf4jnsgd1na2vs0mg"},{"bike_id":"1ee5cc1b-614b-4925-acb6-d36b7da00468","system_id":"levelo_inurba_marseille","lat":43.2908,"lon":5.37175,"is_reserved":false,"is_disabled":true,"rental_uris":{"android":"levelo://app?vid=1ee5cc1b-614b-4925-acb6-d36b7da00468","ios":"levelo://app?vid=1ee5cc1b-614b-4925-acb6-d36b7da00468"},"vehicle_type_id":"4","last_reported":1737396733,"current_range_meters":37600,"station_id":"ce4bh5p2rcd13ifvqe4g","pricing_plan_id":"cebpf4jnsgd1na2vs0mg"},{"bike_id":"b51a7e2a-9149-477c-91be-9b8973f6e5c0","system_id":"levelo_inurba_marseille","lat":43.29424,"lon":5.38631,"is_reserved":false,"is_disabled":false,"rental_uris":{"android":"levelo://app?vid=b51a7e2a-9149-477c-91be-9b8973f6e5c0","ios":"levelo://app?vid=b51a7e2a-9149-477c-91be-9b8973f6e5c0"},"vehicle_type_id":"4","last_reported":1737396733,"current_range_meters":26800,"station_id":"ce4bh2h2rcd13ifvqdh0","pricing_plan_id":"cebpf4jnsgd1na2vs0mg"},{"bike_id":"d77a3884-760f-4bb5-acf7-7cda2dc29820","system_id":"levelo_inurba_marseille","lat":43.24165,"lon":5.36392,"is_reserved":false,"is_disabled":false,"rental_uris":{"android":"levelo://app?vid=d77a3884-760f-4bb5-acf7-7cda2dc29820","ios":"levelo://app?vid=d77a3884-760f-4bb5-acf7-7cda2dc29820"},"vehicle_type_id":"4","last_reported":1737396733,"current_range_meters":28400,"station_id":"cpo36qri1sfpv3e86is0","pricing_plan_id":"cebpf4jnsgd1na2vs0mg"},{"bike_id":"17bac18d-437a-4b67-85ba-0516ee0dd1e1","system_id":"levelo_inurba_marseille","lat":43.28377,"lon":5.38636,"is_reserved":false,"is_disabled":false,"rental_uris":{"android":"levelo://app?vid=17bac18d-437a-4b67-85ba-0516ee0dd1e1","ios":"levelo://app?vid=17bac18d-437a-4b67-85ba-0516ee0dd1e1"},"vehicle_type_id":"4","last_reported":1737396733,"current_range_meters":38800,"station_id":"ce4bh492rcd13ifvqdvg","pricing_plan_id":"cebpf4jnsgd1na2vs0mg"},{"bike_id":"e10e66df-7633-47aa-bde8-a7f83626318e","system_id":"levelo_inurba_marseille","lat":43.26569,"lon":5.39005,"is_reserved":false,"is_disabled":false,"rental_uris":{"android":"levelo://app?vid=e10e66df-7633-47aa-bde8-a7f83626318e","ios":"levelo://app?vid=e10e66df-7633-47aa-bde8-a7f83626318e"},"vehicle_type_id":"4","last_reported":1737396733,"current_range_meters":16000,"station_id":"ce4bhe12rcd13ifvqf30","pricing_plan_id":"cebpf4jnsgd1na2vs0mg"},{"bike_id":"e13a1e88-8f70-40e3-94ec-cc96dddbde35","system_id":"levelo_inurba_marseille","lat":43.28276,"lon":5.3508,"is_reserved":false,"is_disabled":false,"rental_uris":{"android":"levelo://app?vid=e13a1e88-8f70-40e3-94ec-cc96dddbde35","ios":"levelo://app?vid=e13a1e88-8f70-40e3-94ec-cc96dddbde35"},"vehicle_type_id":"4","last_reported":1737396733,"current_range_meters":38800,"station_id":"ce4bhbp2rcd13ifvqerg","pricing_plan_id":"cebpf4jnsgd1na2vs0mg"},{"bike_id":"95b517d0-9dcf-47f9-8053-773bec6e6a69","system_id":"levelo_inurba_marseille","lat":43.26667,"lon":5.39533,"is_reserved":false,"is_disabled":false,"rental_uris":{"android":"levelo://app?vid=95b517d0-9dcf-47f9-8053-773bec6e6a69","ios":"levelo://app?vid=95b517d0-9dcf-47f9-8053-773bec6e6a69"},"vehicle_type_id":"4","last_reported":1737396733,"current_range_meters":8000,"station_id":"","pricing_plan_id":"cebpf4jnsgd1na2vs0mg"},{"bike_id":"f5126947-458b-4bd7-81fa-1c7a2b6e6b5e","system_id":"levelo_inurba_marseille","lat":43.23189,"lon":5.39986,"is_reserved":false,"is_disabled":false,"rental_uris":{"android":"levelo://app?vid=f5126947-458b-4bd7-81fa-1c7a2b6e6b5e","ios":"levelo://app?vid=f5126947-458b-4bd7-81fa-1c7a2b6e6b5e"},"vehicle_type_id":"4","last_reported":1737396733,"current_range_meters":38000,"station_id":"ce4bhn12rcd13ifvqgqg","pricing_plan_id":"cebpf4jnsgd1na2vs0mg"},{"bike_id":"eb8c4709-0091-451b-a71c-c2cb00ab7f28","system_id":"levelo_inurba_marseille","lat":43.29524,"lon":5.38543,"is_reserved":false,"is_disabled":false,"rental_uris":{"android":"levelo://app?vid=eb8c4709-0091-451b-a71c-c2cb00ab7f28","ios":"levelo://app?vid=eb8c4709-0091-451b-a71c-c2cb00ab7f28"},